TimeUS,CGpN,CGpE,CGpD,CGpe,PGpN,PGpE,PGpD,PGpe
 156831409, 0, 0, 0, 0.05, 0, 0, 0, 0.05
 157031329, 0, 0, 0, 0.05, 0, 0, 0, 0.05
 157231249, 0, 0, 0, 0.05, 0, 0, 0, 0.05
 157431169, 0, 0, 0, 0.05, 0, 0, 0, 0.05
 157631089, 0, 0, 0, 0.05, 0, 0, 0, 0.05
 157831009, 0, 0, 0, 0.05, 0, 0, 0, 0.05
 158030929, 0, 0, 0, 0.05, 0, 0, 0, 0.05
 158230849, 0, 0, 0, 0.05, 0, 0, 0, 0.05
 158430769, 0, 0, 0, 0.05, 0, 0, 0, 0.05
 158630689, 0, 0, 0, 0.05, 0, 0, 0, 0.05
 158831442, 0, 0, 0, 0.05, 0, 0, 0, 0.05
 159031362, 0, 0, 0, 0.05, 0, 0, 0, 0.05
 159231282, 0, 0, 0, 0.05, 0, 0, 0, 0.05
 159431202, 0, 0, 0, 0.05, 0, 0, 0, 0.05
 159631122, 0, 0, 0, 0.05, 0, 0, 0, 0.05
 159831042, 0, 0, 0, 0.05, 0, 0, 0, 0.05
 160030962, 0, 0, 0, 0.05, 0, 0, 0, 0.05
 160230882, 0, 0, 0, 0.05, 0, 0, 0, 0.05
 160430802, 0, 0, 0, 0.05, 0, 0, 0, 0.05
 160630722, 0, 0, 0, 0.05, 0, 0, 0, 0.05
 160831475, 0, 0, 0, 0.05, 0, 0, 0, 0.05
 161031395, 0, 0, 0, 0.05, 0, 0, 0, 0.05
 161231315, 0, 0, 0, 0.05, 0, 0, 0, 0.05
 161431235, 0, 0, 0, 0.05, 0, 0, 0, 0.05
 161631155, 0, 0, 0, 0.05, 0, 0, 0, 0.05
 161831075, 0, 0, 0, 0.05, 0, 0, 0, 0.05
 162030995, 0, 0, 0, 0.05, 0, 0, 0, 0.05
 162230915, 0, 0, 0, 0.05, 0, 0, 0, 0.05
 162430835, 0, 0, 0, 0.05, 0, 0, 0, 0.05
 162630755, 0, 0, 0, 0.05, 0, 0, 0, 0.05
 162830675, 0, 0, 0, 0.05, 0, 0, 0, 0.05
 163031428, 0, 0, 0, 0.05, 0, 0, 0, 0.05
 163231348, 0, 0, 0, 0.05, 0, 0, 0, 0.05
 163431268, 0, 0, 0, 0.05, 0, 0, 0, 0.05
 163631188, 0, 0, 0, 0.05, 0, 0, 0, 0.05
 163831108, 0, 0, 0, 0.05, 0, 0, 0, 0.05
 164031028, 0, 0, 0, 0.05, 0, 0, 0, 0.05
 164230948, 0, 0, 0, 0.05, 0, 0, 0, 0.05
 164430868, 0, 0, 0, 0.05, 0, 0, 0, 0.05
 164630788, 0, 0, 0, 0.05, 0, 0, 0, 0.05
 164830708, 0, 0, 0, 0.05, 0, 0, 0, 0.05
 165031461, 0, 0, 0, 0.05, 0, 0, 0, 0.05
 165231381, 0, 0, 0, 0.05, 0, 0, 0, 0.05
 165431301, 0, 0, 0, 0.05, 0, 0, 0, 0.05
 165631221, 0, 0, 0, 0.05, 0, 0, 0, 0.05
 165831141, 0, 0, 0, 0.05, 0, 0, 0, 0.05
 166031061, 0, 0, 0, 0.05, 0, 0, 0, 0.05
 166230981, 0, 0, 0, 0.05, 0, 0, 0, 0.05
 166430901, 0, 0, 0, 0.05, 0, 0, 0, 0.05
 166630821, 0, 0, 0, 0.05, 0, 0, 0, 0.05
 166830741, 0, 0, 0, 0.05, 0, 0, 0, 0.05
 167030661, 0, 0, 0, 0.05, 0, 0, 0, 0.05
 167231414, 0, 0, 0, 0.05, 0, 0, 0, 0.05
 167431334, 0, 0, 0, 0.05, 0, 0, 0, 0.05
 167631254, 0, 0, 0, 0.05, 0, 0, 0, 0.05
 167831174, 0, 0, 0, 0.05, 0, 0, 0, 0.05
 168031094, 0, 0, 0, 0.05, 0, 0, 0, 0.05
 168231014, 0, 0, 0, 0.05, 0, 0, 0, 0.05
 168430934, 0, 0, 0, 0.05, 0, 0, 0, 0.05
 168630854, 0, 0, 0, 0.05, 0, 0, 0, 0.05
 168830774, 0, 0, 0, 0.05, 0, 0, 0, 0.05
 169030694, 0, 0, 0, 0.05, 0, 0, 0, 0.05
 169231447, 0, 0, 0, 0.05, 0, 0, 0, 0.05
 169431367, 0, 0, 0, 0.05, 0, 0, 0, 0.05
 169631287, 0, 0, 0, 0.05, 0, 0, 0, 0.05
 169831207, 0, 0, 0, 0.05, 0, 0, 0, 0.05
 170031127, 0, 0, 0, 0.05, 0, 0, 0, 0.05
 170231047, 0, 0, 0, 0.05, 0, 0, 0, 0.05
 170430967, 0, 0, 0, 0.05, 0, 0, 0, 0.05
 170630887, 0, 0, 0, 0.05, 0, 0, 0, 0.05
 170830807, 0, 0, 0, 0.05, 0, 0, 0, 0.05
 171030727, 0, 0, 0, 0.05, 0, 0, 0, 0.05
 171231480, 0, 0, 0, 0.05, 0, 0, 0, 0.05
 171431400, 0, 0, 0, 0.05, 0, 0, 0, 0.05
 171631320, 0, 0, 0, 0.05, 0, 0, 0, 0.05
 171831240, 0, 0, 0, 0.05, 0, 0, 0, 0.05
 172031160, 0, 0, 0, 0.05, 0, 0, 0, 0.05
 172231080, 0, 0, 0, 0.05, 0, 0, 0, 0.05
 172431000, 0, 0, 0, 0.05, 0, 0, 0, 0.05
 172630920, 0, 0, 0, 0.05, 0, 0, 0, 0.05
 172830840, 0, 0, 0, 0.05, 0, 0, 0, 0.05
 173030760, 0, 0, 0, 0.05, 0, 0, 0, 0.05
 173230680, 0, 0, 0, 0.05, 0, 0, 0, 0.05
 173431433, 0, 0, 0, 0.05, 0, 0, 0, 0.05
 173631353, 0, 0, 0, 0.05, 0, 0, 0, 0.05
 173831273, 0, 0, 0, 0.05, 0, 0, 0, 0.05
 174031193, 0, 0, 0, 0.05, 0, 0, 0, 0.05
 174231113, 0, 0, 0, 0.05, 0, 0, 0, 0.05
 174431033, 0, 0, 0, 0.05, 0, 0, 0, 0.05
 174630953, 0, 0, 0, 0.05, 0, 0, 0, 0.05
 174830873, 0, 0, 0, 0.05, 0, 0, 0, 0.05
 175030793, 0, 0, 0, 0.05, 0, 0, 0, 0.05
 175230713, 0, 0, 0, 0.05, 0, 0, 0, 0.05
 175431466, 0, 0, 0, 0.05, 0, 0, 0, 0.05
 175631386, 0, 0, 0, 0.05, 0, 0, 0, 0.05
 175831306, 0, 0, 0, 0.05, 0, 0, 0, 0.05
 176031226, 0, 0, 0, 0.05, 0, 0, 0, 0.05
 176231146, 0, 0, 0, 0.05, 0, 0, 0, 0.05
 176431066, 0, 0, 0, 0.05, 0, 0, 0, 0.05
 176630986, 0, 0, 0, 0.05, 0, 0, 0, 0.05
 176830906, 0, 0, 0, 0.05, 0, 0, 0, 0.05
 177030826, 0, 0, 0, 0.05, 0, 0, 0, 0.05
 177230746, 0, 0, 0, 0.05, 0, 0, 0, 0.05
 177430666, 0, 0, 0, 0.05, 0, 0, 0, 0.05
 177631419, 0, 0, 0, 0.05, 0, 0, 0, 0.05
 177831339, 0, 0, 0, 0.05, 0, 0, 0, 0.05
 178031259, 0, 0, 0, 0.05, 0, 0, 0, 0.05
 178231179, 0, 0, 0, 0.05, 0, 0, 0, 0.05
 178431099, 0, 0, 0, 0.05, 0, 0, 0, 0.05
 178631019, 0, 0, 0, 0.05, 0, 0, 0, 0.05
 178830939, 0, 0, 0, 0.05, 0, 0, 0, 0.05
 179030859, 0, 0, 0, 0.05, 0, 0, 0, 0.05
 179230779, 0, 0, 0, 0.05, 0, 0, 0, 0.05
 179430699, 0, 0, 0, 0.05, 0, 0, 0, 0.05
 179631452, 0, 0, 0, 0.05, 0, 0, 0, 0.05
 179831372, 0, 0, 0, 0.05, 0, 0, 0, 0.05
 180031292, 0, 0, 0, 0.05, 0, 0, 0, 0.05
 180231212, 0, 0, 0, 0.05, 0, 0, 0, 0.05
 180431132, 0, 0, 0, 0.05, 0, 0, 0, 0.05
 180631052, 0, 0, 0, 0.05, 0, 0, 0, 0.05
 180830972, 0, 0, 0, 0.05, 0, 0, 0, 0.05
 181030892, 0, 0, 0, 0.05, 0, 0, 0, 0.05
 181230812, 0, 0, 0, 0.05, 0, 0, 0, 0.05
 181430732, 0, 0, 0, 0.05, 0, 0, 0, 0.05
 181631485, 0, 0, 0, 0.05, 0, 0, 0, 0.05
 181831405, 0, 0, 0, 0.05, 0, 0, 0, 0.05
 182031325, 0, 0, 0, 0.05, 0, 0, 0, 0.05
 182231245, 0, 0, 0, 0.05, 0, 0, 0, 0.05
 182431165, 0, 0, 0, 0.05, 0, 0, 0, 0.05
 182631085, 0, 0, 0, 0.05, 0, 0, 0, 0.05
 182831005, 0, 0, 0, 0.05, 0, 0, 0, 0.05
 183030925, 0, 0, 0, 0.05, 0, 0, 0, 0.05
 183230845, 0, 0, 0, 0.05, 0, 0, 0, 0.05
 183430765, 0, 0, -0.115, 0.05, 0, 0, 0, 0.05
 183630685, 0, 0, -0.275, 0.05, 0, 0, -0.115, 0.05
 183831438, 0, 0, -0.397, 0.05, 0, 0, -0.275, 0.05
 184031358, 0.017, -0.01, -1.444, 0.05, 0, 0, -0.397, 0.05
 184231278, 0.071, -0.046, -1.777, 0.05, 0.017, -0.01, -1.444, 0.05
 184431198, 0.128, -0.09100001, -1.807, 0.05, 0.071, -0.046, -1.777, 0.05
 184631118, 0.139, -0.104, -1.981, 0.05, 0.128, -0.09100001, -1.807, 0.05
 184831038, 0.097, -0.071, -2.152, 0.05, 0.139, -0.104, -1.981, 0.05
 185030958, 0.052, -0.037, -2.27, 0.05, 0.097, -0.071, -2.152, 0.05
 185230878, 0.045, -0.036, -2.359, 0.05, 0.052, -0.037, -2.27, 0.05
 185430798, 0.063, -0.051, -2.425, 0.05, 0.045, -0.036, -2.359, 0.05
 185630718, 0.072, -0.055, -2.472, 0.05, 0.063, -0.051, -2.425, 0.05
 185831471, 0.052, -0.046, -2.504, 0.05, 0.072, -0.055, -2.472, 0.05
 186031391, 0.023, -0.044, -2.523, 0.05, 0.052, -0.046, -2.504, 0.05
 186231311, 0.004, -0.046, -2.527, 0.05, 0.023, -0.044, -2.523, 0.05
 186431231, -0.001, -0.039, -2.521, 0.05, 0.004, -0.046, -2.527, 0.05
 186631151, 0.007, -0.025, -2.512, 0.05, -0.001, -0.039, -2.521, 0.05
 186831071, 0.024, -0.031, -2.501, 0.05, 0.007, -0.025, -2.512, 0.05
 187030991, 0.048, -0.062, -2.476, 0.05, 0.024, -0.031, -2.501, 0.05
 187230911, 0.075, -0.08800001, -2.425, 0.05, 0.048, -0.062, -2.476, 0.05
 187430831, 0.087, -0.08400001, -2.341, 0.05, 0.075, -0.08800001, -2.425, 0.05
 187630751, 0.083, -0.049, -2.219, 0.05, 0.087, -0.08400001, -2.341, 0.05
 187830671, 0.06500001, -0.007, -2.055, 0.05, 0.083, -0.049, -2.219, 0.05
 188031424, 0.051, 0.007, -1.816, 0.05, 0.06500001, -0.007, -2.055, 0.05
 188231344, 0.045, -0.008, -1.536, 0.05, 0.051, 0.007, -1.816, 0.05
 188431264, 0.036, -0.029, -1.236, 0.05, 0.045, -0.008, -1.536, 0.05
 188631184, 0.022, -0.032, -0.8880001, 0.05, 0.036, -0.029, -1.236, 0.05
 188831104, 0.015, -0.023, -0.541, 0.05, 0.022, -0.032, -0.8880001, 0.05
 189031024, 0.012, -0.016, -0.228, 0.05, 0.015, -0.023, -0.541, 0.05
 189230944, 0.014, -0.03, 0.035, 0.05, 0.012, -0.016, -0.228, 0.05
 189430864, 0.028, -0.071, 0.239, 0.05, 0.014, -0.03, 0.035, 0.05
 189630784, 0.033, -0.09900001, 0.383, 0.05, 0.028, -0.071, 0.239, 0.05
 189830704, 0.011, -0.08000001, 0.469, 0.05, 0.033, -0.09900001, 0.383, 0.05
 190031457, -0.021, -0.035, 0.507, 0.05, 0.011, -0.08000001, 0.469, 0.05
 190231377, -0.04, -0.011, 0.502, 0.05, -0.021, -0.035, 0.507, 0.05
 190431297, -0.058, -0.006, 0.466, 0.05, -0.04, -0.011, 0.502, 0.05
 190631217, -0.101, 0.003, 0.41, 0.05, -0.058, -0.006, 0.466, 0.05
 190831137, -0.157, 0.026, 0.339, 0.05, -0.101, 0.003, 0.41, 0.05
 191031057, -0.189, 0.046, 0.264, 0.05, -0.157, 0.026, 0.339, 0.05
 191230977, -0.188, 0.04, 0.189, 0.05, -0.189, 0.046, 0.264, 0.05
 191430897, -0.172, -0.011, 0.119, 0.05, -0.188, 0.04, 0.189, 0.05
 191630817, -0.165, -0.07300001, 0.055, 0.05, -0.172, -0.011, 0.119, 0.05
 191830737, -0.179, -0.09500001, 0.004, 0.05, -0.165, -0.07300001, 0.055, 0.05
 192030657, -0.18, -0.096, -0.035, 0.05, -0.179, -0.09500001, 0.004, 0.05
 192231410, -0.141, -0.109, -0.064, 0.05, -0.18, -0.096, -0.035, 0.05
 192431330, -0.07700001, -0.128, -0.083, 0.05, -0.141, -0.109, -0.064, 0.05
 192631250, -0.033, -0.151, -0.08800001, 0.05, -0.07700001, -0.128, -0.083, 0.05
 192831170, -0.036, -0.18, -0.08800001, 0.05, -0.033, -0.151, -0.08800001, 0.05
 193031090, -0.044, -0.216, -0.085, 0.05, -0.036, -0.18, -0.08800001, 0.05
 193231010, -0.026, -0.26, -0.074, 0.05, -0.044, -0.216, -0.085, 0.05
 193430930, 0, -0.293, -0.063, 0.05, -0.026, -0.26, -0.074, 0.05
 193630850, 0.026, -0.297, -0.053, 0.05, 0, -0.293, -0.063, 0.05
 193830770, 0.048, -0.263, -0.045, 0.05, 0.026, -0.297, -0.053, 0.05
 194030690, 0.064, -0.191, -0.035, 0.05, 0.048, -0.263, -0.045, 0.05
 194231443, 0.081, -0.122, -0.024, 0.05, 0.064, -0.191, -0.035, 0.05
 194431363, 0.098, -0.081, -0.015, 0.05, 0.081, -0.122, -0.024, 0.05
 194631283, 0.085, -0.043, -0.007, 0.05, 0.098, -0.081, -0.015, 0.05
 194831203, 0.045, 0.012, -0.002, 0.05, 0.085, -0.043, -0.007, 0.05
 195031123, 0.019, 0.052, 0.001, 0.05, 0.045, 0.012, -0.002, 0.05
 195231043, 0.021, 0.047, 0.003, 0.05, 0.019, 0.052, 0.001, 0.05
 195430963, 0.012, 0.011, 0.005, 0.05, 0.021, 0.047, 0.003, 0.05
 195630883, 0.016, -0.038, 0.006, 0.05, 0.012, 0.011, 0.005, 0.05
 195830803, 0.022, -0.059, 0.006, 0.05, 0.016, -0.038, 0.006, 0.05
 196030723, -0.006, -0.019, 0.007, 0.05, 0.022, -0.059, 0.006, 0.05
 196231476, -0.05, 0.059, 0.005, 0.05, -0.006, -0.019, 0.007, 0.05
 196431396, -0.09100001, 0.129, 0.002, 0.05, -0.05, 0.059, 0.005, 0.05
 196631316, -0.104, 0.183, 0, 0.05, -0.09100001, 0.129, 0.002, 0.05
 196831236, -0.043, 0.249, -0.001, 0.05, -0.104, 0.183, 0, 0.05
 197031156, 0.07600001, 0.304, -0.003, 0.05, -0.043, 0.249, -0.001, 0.05
 197231076, 0.19, 0.327, -0.002, 0.05, 0.07600001, 0.304, -0.003, 0.05
 197430996, 0.23, 0.313, -0.003, 0.05, 0.19, 0.327, -0.002, 0.05
 197630916, 0.186, 0.273, -0.002, 0.05, 0.23, 0.313, -0.003, 0.05
 197830836, 0.136, 0.224, -0.001, 0.05, 0.186, 0.273, -0.002, 0.05
 198030756, 0.149, 0.172, 0, 0.05, 0.136, 0.224, -0.001, 0.05
 198230676, 0.194, 0.116, 0.001, 0.05, 0.149, 0.172, 0, 0.05
 198431429, 0.2, 0.064, 0.002, 0.05, 0.194, 0.116, 0.001, 0.05
 198631349, 0.146, 0.024, 0.003, 0.05, 0.2, 0.064, 0.002, 0.05
 198831269, 0.079, -0.002, 0.003, 0.05, 0.146, 0.024, 0.003, 0.05
 199031189, 0.039, -0.023, 0.002, 0.05, 0.079, -0.002, 0.003, 0.05
 199231109, 0.016, -0.033, 0.002, 0.05, 0.039, -0.023, 0.002, 0.05
 199431029, 0.003, -0.026, 0.002, 0.05, 0.016, -0.033, 0.002, 0.05
 199630949, 0.006, -0.003, 0.002, 0.05, 0.003, -0.026, 0.002, 0.05
 199830869, 0.019, 0.036, 0.001, 0.05, 0.006, -0.003, 0.002, 0.05
 200030789, 0.039, 0.06500001, 0.001, 0.05, 0.019, 0.036, 0.001, 0.05
 200230709, 0.057, 0.06, 0.001, 0.05, 0.039, 0.06500001, 0.001, 0.05
 200431462, 0.072, 0.025, 0.001, 0.05, 0.057, 0.06, 0.001, 0.05
 200631382, 0.107, -0.023, 0.001, 0.05, 0.072, 0.025, 0.001, 0.05
 200831302, 0.175, -0.06, 0.001, 0.05, 0.107, -0.023, 0.001, 0.05
 201031222, 0.263, -0.064, 0.002, 0.05, 0.175, -0.06, 0.001, 0.05
 201231142, 0.372, -0.048, 0.003, 0.05, 0.263, -0.064, 0.002, 0.05
 201431062, 0.503, -0.054, 0.004, 0.05, 0.372, -0.048, 0.003, 0.05
 201630982, 0.656, -0.098, 0.006, 0.05, 0.503, -0.054, 0.004, 0.05
 201830902, 0.854, -0.122, 0.008, 0.05, 0.656, -0.098, 0.006, 0.05
 202030822, 1.061, -0.097, 0.007, 0.05, 0.854, -0.122, 0.008, 0.05
 202230742, 1.244, -0.057, 0.005, 0.05, 1.061, -0.097, 0.007, 0.05
 202430662, 1.42, -0.015, 0.008, 0.05, 1.244, -0.057, 0.005, 0.05
 202631415, 1.585, 0.033, 0.005, 0.05, 1.42, -0.015, 0.008, 0.05
 202831335, 1.728, 0.048, 0.004, 0.05, 1.585, 0.033, 0.005, 0.05
 203031255, 1.874, 0.008, 0.008, 0.05, 1.728, 0.048, 0.004, 0.05
 203231175, 2.036, -0.054, 0.012, 0.05, 1.874, 0.008, 0.008, 0.05
 203431095, 2.203, -0.096, 0.012, 0.05, 2.036, -0.054, 0.012, 0.05
 203631015, 2.387, -0.102, 0.014, 0.05, 2.203, -0.096, 0.012, 0.05
 203830935, 2.59, -0.07700001, 0.017, 0.05, 2.387, -0.102, 0.014, 0.05
 204030855, 2.803, -0.025, 0.021, 0.05, 2.59, -0.07700001, 0.017, 0.05
 204230775, 2.999, 0.032, 0.021, 0.05, 2.803, -0.025, 0.021, 0.05
 204430695, 3.164, 0.064, 0.016, 0.05, 2.999, 0.032, 0.021, 0.05
 204631448, 3.305, 0.06, 0.013, 0.05, 3.164, 0.064, 0.016, 0.05
 204831368, 3.438, 0.049, 0.01, 0.05, 3.305, 0.06, 0.013, 0.05
 205031288, 3.568, 0.061, 0.007, 0.05, 3.438, 0.049, 0.01, 0.05
 205231208, 3.684, 0.07, 0.002, 0.05, 3.568, 0.061, 0.007, 0.05
 205431128, 3.775, 0.052, -0.002, 0.05, 3.684, 0.07, 0.002, 0.05
 205631048, 3.847, 0.019, -0.005, 0.05, 3.775, 0.052, -0.002, 0.05
 205830968, 3.921, 0.002, -0.006, 0.05, 3.847, 0.019, -0.005, 0.05
 206030888, 4.002, 0.026, -0.003, 0.05, 3.921, 0.002, -0.006, 0.05
 206230808, 4.077, 0.061, -0.001, 0.05, 4.002, 0.026, -0.003, 0.05
 206430728, 4.139, 0.062, 0, 0.05, 4.077, 0.061, -0.001, 0.05
 206631481, 4.201, 0.037, 0, 0.05, 4.139, 0.062, 0, 0.05
 206831401, 4.262, 0.025, 0.001, 0.05, 4.201, 0.037, 0, 0.05
 207031321, 4.313, 0.044, 0, 0.05, 4.262, 0.025, 0.001, 0.05
 207231241, 4.349, 0.078, 0, 0.05, 4.313, 0.044, 0, 0.05
 207431161, 4.378, 0.09100001, 0, 0.05, 4.349, 0.078, 0, 0.05
 207631081, 4.403, 0.07600001, 0.003, 0.05, 4.378, 0.09100001, 0, 0.05
 207831001, 4.427, 0.048, 0.008, 0.05, 4.403, 0.07600001, 0.003, 0.05
 208030921, 4.452, 0.027, 0.013, 0.05, 4.427, 0.048, 0.008, 0.05
 208230841, 4.473, 0.022, 0.017, 0.05, 4.452, 0.027, 0.013, 0.05
 208430761, 4.486, 0.022, 0.022, 0.05, 4.473, 0.022, 0.017, 0.05
 208630681, 4.484, 0.013, 0.024, 0.05, 4.486, 0.022, 0.022, 0.05
 208831434, 4.475, -0.001, 0.024, 0.05, 4.484, 0.013, 0.024, 0.05
 209031354, 4.476, -0.006, 0.022, 0.05, 4.475, -0.001, 0.024, 0.05
 209231274, 4.493, 0, 0.018, 0.05, 4.476, -0.006, 0.022, 0.05
 209431194, 4.513, 0.011, 0.016, 0.05, 4.493, 0, 0.018, 0.05
 209631114, 4.526, 0.035, 0.016, 0.05, 4.513, 0.011, 0.016, 0.05
 209831034, 4.542, 0.06900001, 0.017, 0.05, 4.526, 0.035, 0.016, 0.05
 210030954, 4.564, 0.081, 0.019, 0.05, 4.542, 0.06900001, 0.017, 0.05
 210230874, 4.591, 0.055, 0.023, 0.05, 4.564, 0.081, 0.019, 0.05
 210430794, 4.61, 0.019, 0.025, 0.05, 4.591, 0.055, 0.023, 0.05
 210630714, 4.613, -0.009000001, 0.026, 0.05, 4.61, 0.019, 0.025, 0.05
 210831467, 4.613, -0.026, 0.026, 0.05, 4.613, -0.009000001, 0.026, 0.05
 211031387, 4.631, -0.044, 0.026, 0.05, 4.613, -0.026, 0.026, 0.05
 211231307, 4.662, -0.061, 0.024, 0.05, 4.631, -0.044, 0.026, 0.05
 211431227, 4.688, -0.059, 0.019, 0.05, 4.662, -0.061, 0.024, 0.05
 211631147, 4.7, -0.053, 0.013, 0.05, 4.688, -0.059, 0.019, 0.05
 211831067, 4.711, -0.07300001, 0.009000001, 0.05, 4.7, -0.053, 0.013, 0.05
 212030987, 4.733, -0.117, 0.006, 0.05, 4.711, -0.07300001, 0.009000001, 0.05
 212230907, 4.767, -0.146, 0.005, 0.05, 4.733, -0.117, 0.006, 0.05
 212430827, 4.801, -0.154, 0.007, 0.05, 4.767, -0.146, 0.005, 0.05
 212630747, 4.818, -0.148, 0.011, 0.05, 4.801, -0.154, 0.007, 0.05
 212830667, 4.82, -0.129, 0.014, 0.05, 4.818, -0.148, 0.011, 0.05
 213031420, 4.826, -0.09100001, 0.017, 0.05, 4.82, -0.129, 0.014, 0.05
 213231340, 4.846, -0.039, 0.016, 0.05, 4.826, -0.09100001, 0.017, 0.05
 213431260, 4.864, 0.001, 0.012, 0.05, 4.846, -0.039, 0.016, 0.05
 213631180, 4.874, 0.011, 0.006, 0.05, 4.864, 0.001, 0.012, 0.05
 213831100, 4.878, -0.007, 0.003, 0.05, 4.874, 0.011, 0.006, 0.05
 214031020, 4.877, -0.027, 0.001, 0.05, 4.878, -0.007, 0.003, 0.05
 214230940, 4.879, -0.027, 0.003, 0.05, 4.877, -0.027, 0.001, 0.05
 214430860, 4.884, -0.017, 0.01, 0.05, 4.879, -0.027, 0.003, 0.05
 214630780, 4.887, -0.016, 0.018, 0.05, 4.884, -0.017, 0.01, 0.05
 214830700, 4.89, -0.018, 0.025, 0.05, 4.887, -0.016, 0.018, 0.05
 215031453, 4.898, -0.008, 0.032, 0.05, 4.89, -0.018, 0.025, 0.05
 215231373, 4.908, 0.015, 0.035, 0.05, 4.898, -0.008, 0.032, 0.05
 215431293, 4.926, 0.026, 0.034, 0.05, 4.908, 0.015, 0.035, 0.05
 215631213, 4.952, 0.02, 0.028, 0.05, 4.926, 0.026, 0.034, 0.05
 215831133, 4.971, 0.013, 0.022, 0.05, 4.952, 0.02, 0.028, 0.05
 216031053, 4.977, 0.014, 0.015, 0.05, 4.971, 0.013, 0.022, 0.05
 216230973, 4.978, 0.028, 0.011, 0.05, 4.977, 0.014, 0.015, 0.05
 216430893, 4.991, 0.064, 0.009000001, 0.05, 4.978, 0.028, 0.011, 0.05
 216630813, 5.002, 0.102, 0.009000001, 0.05, 4.991, 0.064, 0.009000001, 0.05
 216830733, 4.995, 0.109, 0.008, 0.05, 5.002, 0.102, 0.009000001, 0.05
 217031486, 4.976, 0.09500001, 0.006, 0.05, 4.995, 0.109, 0.008, 0.05
 217231406, 4.964, 0.087, 0.006, 0.05, 4.976, 0.09500001, 0.006, 0.05
 217431326, 4.966, 0.087, 0.005, 0.05, 4.964, 0.087, 0.006, 0.05
 217631246, 4.977, 0.079, 0.003, 0.05, 4.966, 0.087, 0.005, 0.05
 217831166, 4.995, 0.068, 0, 0.05, 4.977, 0.079, 0.003, 0.05
 218031086, 5.01, 0.064, -0.001, 0.05, 4.995, 0.068, 0, 0.05
 218231006, 5.017, 0.06500001, -0.002, 0.05, 5.01, 0.064, -0.001, 0.05
 218430926, 5.016, 0.063, -0.001, 0.05, 5.017, 0.06500001, -0.002, 0.05
 218630846, 5.012, 0.053, 0.002, 0.05, 5.016, 0.063, -0.001, 0.05
 218830766, 5.013, 0.045, 0.006, 0.05, 5.012, 0.053, 0.002, 0.05
 219030686, 5.021, 0.033, 0.01, 0.05, 5.013, 0.045, 0.006, 0.05
 219231439, 5.027, 0.006, 0.012, 0.05, 5.021, 0.033, 0.01, 0.05
 219431359, 5.021, -0.026, 0.012, 0.05, 5.027, 0.006, 0.012, 0.05
 219631279, 5.01, -0.049, 0.012, 0.05, 5.021, -0.026, 0.012, 0.05
 219831199, 5, -0.06, 0.014, 0.05, 5.01, -0.049, 0.012, 0.05
 220031119, 4.989, -0.066, 0.016, 0.05, 5, -0.06, 0.014, 0.05
 220231039, 4.977, -0.081, 0.015, 0.05, 4.989, -0.066, 0.016, 0.05
 220430959, 4.972, -0.109, 0.013, 0.05, 4.977, -0.081, 0.015, 0.05
 220630879, 4.976, -0.135, 0.011, 0.05, 4.972, -0.109, 0.013, 0.05
 220830799, 4.975, -0.148, 0.008, 0.05, 4.976, -0.135, 0.011, 0.05
 221030719, 4.967, -0.14, 0.006, 0.05, 4.975, -0.148, 0.008, 0.05
 221231472, 4.953, -0.111, 0.007, 0.05, 4.967, -0.14, 0.006, 0.05
 221431392, 4.942, -0.079, 0.009000001, 0.05, 4.953, -0.111, 0.007, 0.05
 221631312, 4.935, -0.057, 0.01, 0.05, 4.942, -0.079, 0.009000001, 0.05
 221831232, 4.934, -0.031, 0.011, 0.05, 4.935, -0.057, 0.01, 0.05
 222031152, 4.94, -0.001, 0.013, 0.05, 4.934, -0.031, 0.011, 0.05
 222231072, 4.942, 0.028, 0.013, 0.05, 4.94, -0.001, 0.013, 0.05
 222430992, 4.94, 0.048, 0.012, 0.05, 4.942, 0.028, 0.013, 0.05
 222630912, 4.948, 0.056, 0.011, 0.05, 4.94, 0.048, 0.012, 0.05
 222830832, 4.963, 0.059, 0.011, 0.05, 4.948, 0.056, 0.011, 0.05
 223030752, 4.98, 0.059, 0.01, 0.05, 4.963, 0.059, 0.011, 0.05
 223230672, 4.987, 0.058, 0.012, 0.05, 4.98, 0.059, 0.01, 0.05
 223431425, 4.979, 0.056, 0.012, 0.05, 4.987, 0.058, 0.012, 0.05
 223631345, 4.958, 0.067, 0.011, 0.05, 4.979, 0.056, 0.012, 0.05
 223831265, 4.94, 0.102, 0.011, 0.05, 4.958, 0.067, 0.011, 0.05
 224031185, 4.933, 0.137, 0.012, 0.05, 4.94, 0.102, 0.011, 0.05
 224231105, 4.933, 0.139, 0.013, 0.05, 4.933, 0.137, 0.012, 0.05
 224431025, 4.932, 0.117, 0.014, 0.05, 4.933, 0.139, 0.013, 0.05
 224630945, 4.922, 0.097, 0.013, 0.05, 4.932, 0.117, 0.014, 0.05
 224830865, 4.914, 0.078, 0.009000001, 0.05, 4.922, 0.097, 0.013, 0.05
 225030785, 4.922, 0.066, 0.007, 0.05, 4.914, 0.078, 0.009000001, 0.05
 225230705, 4.934, 0.068, 0.006, 0.05, 4.922, 0.066, 0.007, 0.05
 225431458, 4.94, 0.082, 0.005, 0.05, 4.934, 0.068, 0.006, 0.05
 225631378, 4.945, 0.107, 0.004, 0.05, 4.94, 0.082, 0.005, 0.05
 225831298, 4.953, 0.123, 0.003, 0.05, 4.945, 0.107, 0.004, 0.05
 226031218, 4.96, 0.122, 0.003, 0.05, 4.953, 0.123, 0.003, 0.05
 226231138, 4.963, 0.107, 0.001, 0.05, 4.96, 0.122, 0.003, 0.05
 226431058, 4.954, 0.08000001, 0, 0.05, 4.963, 0.107, 0.001, 0.05
 226630978, 4.939, 0.056, 0.001, 0.05, 4.954, 0.08000001, 0, 0.05
 226830898, 4.922, 0.049, 0.001, 0.05, 4.939, 0.056, 0.001, 0.05
 227030818, 4.913, 0.066, 0.001, 0.05, 4.922, 0.049, 0.001, 0.05
 227230738, 4.919, 0.108, 0.003, 0.05, 4.913, 0.066, 0.001, 0.05
 227430658, 4.933, 0.161, 0.005, 0.05, 4.919, 0.108, 0.003, 0.05
 227631411, 4.941, 0.191, 0.007, 0.05, 4.933, 0.161, 0.005, 0.05
 227831331, 4.939, 0.173, 0.011, 0.05, 4.941, 0.191, 0.007, 0.05
 228031251, 4.928, 0.136, 0.017, 0.05, 4.939, 0.173, 0.011, 0.05
 228231171, 4.912, 0.108, 0.023, 0.05, 4.928, 0.136, 0.017, 0.05
 228431091, 4.903, 0.079, 0.03, 0.05, 4.912, 0.108, 0.023, 0.05
 228631011, 4.9, 0.041, 0.035, 0.05, 4.903, 0.079, 0.03, 0.05
 228830931, 4.895, 0.007, 0.037, 0.05, 4.9, 0.041, 0.035, 0.05
 229030851, 4.884, 0.004, 0.035, 0.05, 4.895, 0.007, 0.037, 0.05
 229230771, 4.873, 0.017, 0.033, 0.05, 4.884, 0.004, 0.035, 0.05
 229430691, 4.872, 0.022, 0.028, 0.05, 4.873, 0.017, 0.033, 0.05
 229631444, 4.877, 0.013, 0.024, 0.05, 4.872, 0.022, 0.028, 0.05
 229831364, 4.873, 0, 0.02, 0.05, 4.877, 0.013, 0.024, 0.05
 230031284, 4.864, -0.002, 0.017, 0.05, 4.873, 0, 0.02, 0.05
 230231204, 4.867, -0.001, 0.013, 0.05, 4.864, -0.002, 0.017, 0.05
 230431124, 4.881, 0.001, 0.008, 0.05, 4.867, -0.001, 0.013, 0.05
 230631044, 4.898, 0.016, 0.002, 0.05, 4.881, 0.001, 0.008, 0.05
 230830964, 4.913, 0.023, -0.004, 0.05, 4.898, 0.016, 0.002, 0.05
 231030884, 4.938, 0.019, -0.007, 0.05, 4.913, 0.023, -0.004, 0.05
 231230804, 4.969, 0.013, -0.007, 0.05, 4.938, 0.019, -0.007, 0.05
 231430724, 4.99, 0.011, -0.007, 0.05, 4.969, 0.013, -0.007, 0.05
 231631477, 4.999, 0.022, -0.007, 0.05, 4.99, 0.011, -0.007, 0.05
 231831397, 5.006, 0.032, -0.008, 0.05, 4.999, 0.022, -0.007, 0.05
 232031317, 5.016, 0.023, -0.008, 0.05, 5.006, 0.032, -0.008, 0.05
 232231237, 5.015, 0.009000001, -0.008, 0.05, 5.016, 0.023, -0.008, 0.05
 232431157, 4.997, 0.011, -0.006, 0.05, 5.015, 0.009000001, -0.008, 0.05
 232631077, 4.977, 0.046, -0.003, 0.05, 4.997, 0.011, -0.006, 0.05
 232830997, 4.971, 0.104, 0, 0.05, 4.977, 0.046, -0.003, 0.05
 233030917, 4.969, 0.156, 0, 0.05, 4.971, 0.104, 0, 0.05
 233230837, 4.969, 0.175, -0.001, 0.05, 4.969, 0.156, 0, 0.05
 233430757, 4.972, 0.158, -0.002, 0.05, 4.969, 0.175, -0.001, 0.05
 233630677, 4.973, 0.117, -0.001, 0.05, 4.972, 0.158, -0.002, 0.05
 233831430, 4.974, 0.082, -0.002, 0.05, 4.973, 0.117, -0.001, 0.05
 234031350, 4.972, 0.061, -0.003, 0.05, 4.974, 0.082, -0.002, 0.05
 234231270, 4.969, 0.035, -0.004, 0.05, 4.972, 0.061, -0.003, 0.05
 234431190, 4.981, -0.011, -0.002, 0.05, 4.969, 0.035, -0.004, 0.05
 234631110, 4.989, -0.059, -0.001, 0.05, 4.981, -0.011, -0.002, 0.05
 234831030, 4.991, -0.09200001, -0.002, 0.05, 4.989, -0.059, -0.001, 0.05
 235030950, 4.991, -0.096, 0, 0.05, 4.991, -0.09200001, -0.002, 0.05
 235230870, 4.998, -0.063, 0.002, 0.05, 4.991, -0.096, 0, 0.05
 235430790, 5.02, -0.015, 0, 0.05, 4.998, -0.063, 0.002, 0.05
 235630710, 5.04, 0.018, 0, 0.05, 5.02, -0.015, 0, 0.05
 235831463, 5.048, 0.026, 0.001, 0.05, 5.04, 0.018, 0, 0.05
 236031383, 5.046, 0.014, 0.001, 0.05, 5.048, 0.026, 0.001, 0.05
 236231303, 5.038, -0.015, 0, 0.05, 5.046, 0.014, 0.001, 0.05
 236431223, 5.034, -0.055, -0.003, 0.05, 5.038, -0.015, 0, 0.05
 236631143, 5.031, -0.089, -0.006, 0.05, 5.034, -0.055, -0.003, 0.05
 236831063, 5.022, -0.106, -0.009000001, 0.05, 5.031, -0.089, -0.006, 0.05
 237030983, 5.016, -0.119, -0.01, 0.05, 5.022, -0.106, -0.009000001, 0.05
 237230903, 5.015, -0.129, -0.011, 0.05, 5.016, -0.119, -0.01, 0.05
 237430823, 5.015, -0.131, -0.014, 0.05, 5.015, -0.129, -0.011, 0.05
 237630743, 5.015, -0.131, -0.016, 0.05, 5.015, -0.131, -0.014, 0.05
 237830663, 5.016, -0.124, -0.018, 0.05, 5.015, -0.131, -0.016, 0.05
 238031416, 5.021, -0.108, -0.019, 0.05, 5.016, -0.124, -0.018, 0.05
 238231336, 5.038, -0.104, -0.018, 0.05, 5.021, -0.108, -0.019, 0.05
 238431256, 5.049, -0.124, -0.017, 0.05, 5.038, -0.104, -0.018, 0.05
 238631176, 5.055, -0.14, -0.016, 0.05, 5.049, -0.124, -0.017, 0.05
 238831096, 5.058, -0.138, -0.016, 0.05, 5.055, -0.14, -0.016, 0.05
 239031016, 5.059, -0.131, -0.013, 0.05, 5.058, -0.138, -0.016, 0.05
 239230936, 5.056, -0.126, -0.007, 0.05, 5.059, -0.131, -0.013, 0.05
 239430856, 5.051, -0.124, -0.002, 0.05, 5.056, -0.126, -0.007, 0.05
 239630776, 5.05, -0.12, 0.002, 0.05, 5.051, -0.124, -0.002, 0.05
 239830696, 5.056, -0.115, 0.006, 0.05, 5.05, -0.12, 0.002, 0.05
 240031449, 5.056, -0.112, 0.005, 0.05, 5.056, -0.115, 0.006, 0.05
 240231369, 5.043, -0.117, 0, 0.05, 5.056, -0.112, 0.005, 0.05
 240431289, 5.033, -0.126, -0.005, 0.05, 5.043, -0.117, 0, 0.05
 240631209, 5.04, -0.128, -0.01, 0.05, 5.033, -0.126, -0.005, 0.05
 240831129, 5.062, -0.121, -0.012, 0.05, 5.04, -0.128, -0.01, 0.05
 241031049, 5.083, -0.122, -0.012, 0.05, 5.062, -0.121, -0.012, 0.05
 241230969, 5.089, -0.144, -0.012, 0.05, 5.083, -0.122, -0.012, 0.05
 241430889, 5.085, -0.175, -0.011, 0.05, 5.089, -0.144, -0.012, 0.05
 241630809, 5.08, -0.193, -0.009000001, 0.05, 5.085, -0.175, -0.011, 0.05
 241830729, 5.091, -0.185, -0.006, 0.05, 5.08, -0.193, -0.009000001, 0.05
 242031482, 5.095, -0.157, -0.002, 0.05, 5.091, -0.185, -0.006, 0.05
 242231402, 5.09, -0.125, 0.002, 0.05, 5.095, -0.157, -0.002, 0.05
 242431322, 5.072, -0.105, 0.007, 0.05, 5.09, -0.125, 0.002, 0.05
 242631242, 5.068, -0.09500001, 0.013, 0.05, 5.072, -0.105, 0.007, 0.05
 242831162, 5.076, -0.09500001, 0.016, 0.05, 5.068, -0.09500001, 0.013, 0.05
 243031082, 5.075, -0.1, 0.016, 0.05, 5.076, -0.09500001, 0.016, 0.05
 243231002, 5.064, -0.09, 0.016, 0.05, 5.075, -0.1, 0.016, 0.05
 243430922, 5.061, -0.067, 0.015, 0.05, 5.064, -0.09, 0.016, 0.05
 243630842, 5.049, -0.04, 0.012, 0.05, 5.061, -0.067, 0.015, 0.05
 243830762, 5.029, -0.024, 0.008, 0.05, 5.049, -0.04, 0.012, 0.05
 244030682, 5.013, -0.025, 0.008, 0.05, 5.029, -0.024, 0.008, 0.05
 244231435, 4.994, -0.023, 0.009000001, 0.05, 5.013, -0.025, 0.008, 0.05
 244431355, 4.973, -0.006, 0.01, 0.05, 4.994, -0.023, 0.009000001, 0.05
 244631275, 4.962, 0.02, 0.012, 0.05, 4.973, -0.006, 0.01, 0.05
 244831195, 4.96, 0.045, 0.013, 0.05, 4.962, 0.02, 0.012, 0.05
 245031115, 4.957, 0.071, 0.012, 0.05, 4.96, 0.045, 0.013, 0.05
 245231035, 4.949, 0.09200001, 0.009000001, 0.05, 4.957, 0.071, 0.012, 0.05
 245430955, 4.94, 0.101, 0.005, 0.05, 4.949, 0.09200001, 0.009000001, 0.05
 245630875, 4.93, 0.09200001, 0.001, 0.05, 4.94, 0.101, 0.005, 0.05
 245830795, 4.922, 0.061, -0.001, 0.05, 4.93, 0.09200001, 0.001, 0.05
 246030715, 4.919, 0.014, -0.002, 0.05, 4.922, 0.061, -0.001, 0.05
 246231468, 4.921, -0.019, -0.003, 0.05, 4.919, 0.014, -0.002, 0.05
 246431388, 4.925, -0.032, -0.002, 0.05, 4.921, -0.019, -0.003, 0.05
 246631308, 4.931, -0.035, -0.002, 0.05, 4.925, -0.032, -0.002, 0.05
 246831228, 4.944, -0.048, -0.002, 0.05, 4.931, -0.035, -0.002, 0.05
 247031148, 4.967, -0.06, -0.002, 0.05, 4.944, -0.048, -0.002, 0.05
 247231068, 4.991, -0.05, -0.002, 0.05, 4.967, -0.06, -0.002, 0.05
 247430988, 5.005, -0.035, -0.001, 0.05, 4.991, -0.05, -0.002, 0.05
 247630908, 5.01, -0.047, 0, 0.05, 5.005, -0.035, -0.001, 0.05
 247830828, 5.015, -0.082, 0.002, 0.05, 5.01, -0.047, 0, 0.05
 248030748, 5.022, -0.116, 0.005, 0.05, 5.015, -0.082, 0.002, 0.05
 248230668, 5.025, -0.116, 0.005, 0.05, 5.022, -0.116, 0.005, 0.05
 248431421, 5.023, -0.087, 0.005, 0.05, 5.025, -0.116, 0.005, 0.05
 248631341, 5.02, -0.051, 0.005, 0.05, 5.023, -0.087, 0.005, 0.05
 248831261, 5.009, -0.016, 0.005, 0.05, 5.02, -0.051, 0.005, 0.05
 249031181, 4.993, 0.002, 0.005, 0.05, 5.009, -0.016, 0.005, 0.05
 249231101, 4.992, 0.018, 0.006, 0.05, 4.993, 0.002, 0.005, 0.05
 249431021, 5.011, 0.034, 0.006, 0.05, 4.992, 0.018, 0.006, 0.05
 249630941, 5.028, 0.044, 0.005, 0.05, 5.011, 0.034, 0.006, 0.05
 249830861, 5.031, 0.051, 0.003, 0.05, 5.028, 0.044, 0.005, 0.05
 250030781, 5.018, 0.072, 0, 0.05, 5.031, 0.051, 0.003, 0.05
 250230701, 5, 0.107, -0.001, 0.05, 5.018, 0.072, 0, 0.05
 250431454, 4.98, 0.152, -0.002, 0.05, 5, 0.107, -0.001, 0.05
 250631374, 4.962, 0.183, -0.003, 0.05, 4.98, 0.152, -0.002, 0.05
 250831294, 4.952, 0.204, -0.001, 0.05, 4.962, 0.183, -0.003, 0.05
 251031214, 4.953, 0.212, 0, 0.05, 4.952, 0.204, -0.001, 0.05
 251231134, 4.955, 0.183, 0, 0.05, 4.953, 0.212, 0, 0.05
 251431054, 4.955, 0.129, 0, 0.05, 4.955, 0.183, 0, 0.05
 251630974, 4.951, 0.094, -0.001, 0.05, 4.955, 0.129, 0, 0.05
 251830894, 4.958, 0.082, -0.003, 0.05, 4.951, 0.094, -0.001, 0.05
 252030814, 4.971, 0.064, -0.003, 0.05, 4.958, 0.082, -0.003, 0.05
 252230734, 4.974, 0.047, -0.004, 0.05, 4.971, 0.064, -0.003, 0.05
 252430654, 4.978, 0.039, -0.002, 0.05, 4.974, 0.047, -0.004, 0.05
 252631407, 4.977, 0.022, 0, 0.05, 4.978, 0.039, -0.002, 0.05
 252831327, 4.973, -0.014, 0.002, 0.05, 4.977, 0.022, 0, 0.05
 253031247, 4.973, -0.046, 0.003, 0.05, 4.973, -0.014, 0.002, 0.05
 253231167, 4.968, -0.056, 0.002, 0.05, 4.973, -0.046, 0.003, 0.05
 253431087, 4.948, -0.063, 0.001, 0.05, 4.968, -0.056, 0.002, 0.05
 253631007, 4.919, -0.093, 0, 0.05, 4.948, -0.063, 0.001, 0.05
 253830927, 4.902, -0.132, 0, 0.05, 4.919, -0.093, 0, 0.05
 254030847, 4.9, -0.139, -0.003, 0.05, 4.902, -0.132, 0, 0.05
 254230767, 4.904, -0.116, -0.008, 0.05, 4.9, -0.139, -0.003, 0.05
 254430687, 4.905, -0.081, -0.012, 0.05, 4.904, -0.116, -0.008, 0.05
 254631440, 4.907, -0.05, -0.017, 0.05, 4.905, -0.081, -0.012, 0.05
 254831360, 4.917, -0.034, -0.019, 0.05, 4.907, -0.05, -0.017, 0.05
 255031280, 4.937, -0.03, -0.019, 0.05, 4.917, -0.034, -0.019, 0.05
 255231200, 4.96, -0.03, -0.019, 0.05, 4.937, -0.03, -0.019, 0.05
 255431120, 4.979, -0.021, -0.018, 0.05, 4.96, -0.03, -0.019, 0.05
 255631040, 4.992, 0, -0.016, 0.05, 4.979, -0.021, -0.018, 0.05
 255830960, 4.991, 0.008, -0.013, 0.05, 4.992, 0, -0.016, 0.05
 256030880, 4.986, -0.004, -0.011, 0.05, 4.991, 0.008, -0.013, 0.05
 256230800, 4.995, -0.013, -0.01, 0.05, 4.986, -0.004, -0.011, 0.05
 256430720, 5.012, -0.006, -0.008, 0.05, 4.995, -0.013, -0.01, 0.05
 256631473, 5.028, -0.001, -0.007, 0.05, 5.012, -0.006, -0.008, 0.05
 256831393, 5.043, -0.019, -0.006, 0.05, 5.028, -0.001, -0.007, 0.05
 257031313, 5.059, -0.031, -0.006, 0.05, 5.043, -0.019, -0.006, 0.05
 257231233, 5.07, -0.011, -0.008, 0.05, 5.059, -0.031, -0.006, 0.05
 257431153, 5.077, 0.022, -0.009000001, 0.05, 5.07, -0.011, -0.008, 0.05
 257631073, 5.089, 0.048, -0.009000001, 0.05, 5.077, 0.022, -0.009000001, 0.05
 257830993, 5.107, 0.063, -0.01, 0.05, 5.089, 0.048, -0.009000001, 0.05
 258030913, 5.119, 0.078, -0.012, 0.05, 5.107, 0.063, -0.01, 0.05
 258230833, 5.12, 0.072, -0.013, 0.05, 5.119, 0.078, -0.012, 0.05
 258430753, 5.107, 0.047, -0.013, 0.05, 5.12, 0.072, -0.013, 0.05
 258630673, 5.083, 0.025, -0.011, 0.05, 5.107, 0.047, -0.013, 0.05
 258831426, 5.059, 0.022, -0.007, 0.05, 5.083, 0.025, -0.011, 0.05
 259031346, 5.045, 0.032, -0.003, 0.05, 5.059, 0.022, -0.007, 0.05
 259231266, 5.042, 0.041, 0, 0.05, 5.045, 0.032, -0.003, 0.05
 259431186, 5.032, 0.044, 0.002, 0.05, 5.042, 0.041, 0, 0.05
 259631106, 5.013, 0.043, 0.005, 0.05, 5.032, 0.044, 0.002, 0.05
 259831026, 4.999, 0.029, 0.008, 0.05, 5.013, 0.043, 0.005, 0.05
 260030946, 4.995, 0, 0.013, 0.05, 4.999, 0.029, 0.008, 0.05
 260230866, 4.99, -0.028, 0.016, 0.05, 4.995, 0, 0.013, 0.05
 260430786, 4.985, -0.033, 0.019, 0.05, 4.99, -0.028, 0.016, 0.05
 260630706, 4.985, -0.025, 0.018, 0.05, 4.985, -0.033, 0.019, 0.05
 260831459, 4.982, -0.017, 0.015, 0.05, 4.985, -0.025, 0.018, 0.05
 261031379, 4.97, -0.003, 0.012, 0.05, 4.982, -0.017, 0.015, 0.05
 261231299, 4.959, 0.008, 0.011, 0.05, 4.97, -0.003, 0.012, 0.05
 261431219, 4.959, 0, 0.008, 0.05, 4.959, 0.008, 0.011, 0.05
 261631139, 4.97, -0.023, 0.005, 0.05, 4.959, 0, 0.008, 0.05
 261831059, 4.968, -0.045, 0.003, 0.05, 4.97, -0.023, 0.005, 0.05
 262030979, 4.941, -0.074, 0.003, 0.05, 4.968, -0.045, 0.003, 0.05
 262230899, 4.927, -0.105, 0.006, 0.05, 4.941, -0.074, 0.003, 0.05
 262430819, 4.922, -0.115, 0.007, 0.05, 4.927, -0.105, 0.006, 0.05
 262630739, 4.899, -0.106, 0.007, 0.05, 4.922, -0.115, 0.007, 0.05
 262830659, 4.878, -0.089, 0.006, 0.05, 4.899, -0.106, 0.007, 0.05
 263031412, 4.896, -0.07700001, 0.005, 0.05, 4.878, -0.089, 0.006, 0.05
 263231332, 4.928, -0.08000001, 0.002, 0.05, 4.896, -0.07700001, 0.005, 0.05
 263431252, 4.933, -0.09100001, -0.001, 0.05, 4.928, -0.08000001, 0.002, 0.05
 263631172, 4.939, -0.096, -0.004, 0.05, 4.933, -0.09100001, -0.001, 0.05
 263831092, 4.942, -0.105, -0.008, 0.05, 4.939, -0.096, -0.004, 0.05
 264031012, 4.949, -0.113, -0.01, 0.05, 4.942, -0.105, -0.008, 0.05
 264230932, 4.962, -0.112, -0.01, 0.05, 4.949, -0.113, -0.01, 0.05
 264430852, 4.971, -0.101, -0.009000001, 0.05, 4.962, -0.112, -0.01, 0.05
 264630772, 4.975, -0.083, -0.008, 0.05, 4.971, -0.101, -0.009000001, 0.05
 264830692, 4.979, -0.07, -0.005, 0.05, 4.975, -0.083, -0.008, 0.05
 265031445, 4.984, -0.068, -0.003, 0.05, 4.979, -0.07, -0.005, 0.05
 265231365, 4.985, -0.072, -0.002, 0.05, 4.984, -0.068, -0.003, 0.05
 265431285, 4.986, -0.07700001, -0.002, 0.05, 4.985, -0.072, -0.002, 0.05
 265631205, 4.994, -0.078, -0.001, 0.05, 4.986, -0.07700001, -0.002, 0.05
 265831125, 5.004, -0.078, -0.001, 0.05, 4.994, -0.078, -0.001, 0.05
 266031045, 4.991, -0.07700001, -0.001, 0.05, 5.004, -0.078, -0.001, 0.05
 266230965, 4.965, -0.07, -0.001, 0.05, 4.991, -0.07700001, -0.001, 0.05
 266430885, 4.958, -0.064, 0.001, 0.05, 4.965, -0.07, -0.001, 0.05
 266630805, 4.945, -0.059, 0.006, 0.05, 4.958, -0.064, 0.001, 0.05
 266830725, 4.941, -0.047, 0.011, 0.05, 4.945, -0.059, 0.006, 0.05
 267031478, 4.944, -0.036, 0.013, 0.05, 4.941, -0.047, 0.011, 0.05
 267231398, 4.951, -0.032, 0.013, 0.05, 4.944, -0.036, 0.013, 0.05
 267431318, 4.961, -0.027, 0.013, 0.05, 4.951, -0.032, 0.013, 0.05
 267631238, 4.964, -0.017, 0.011, 0.05, 4.961, -0.027, 0.013, 0.05
 267831158, 4.964, -0.011, 0.01, 0.05, 4.964, -0.017, 0.011, 0.05
 268031078, 4.958, -0.03, 0.009000001, 0.05, 4.964, -0.011, 0.01, 0.05
 268230998, 4.941, -0.07, 0.009000001, 0.05, 4.958, -0.03, 0.009000001, 0.05
 268430918, 4.931, -0.11, 0.009000001, 0.05, 4.941, -0.07, 0.009000001, 0.05
 268630838, 4.931, -0.13, 0.011, 0.05, 4.931, -0.11, 0.009000001, 0.05
 268830758, 4.916, -0.118, 0.011, 0.05, 4.931, -0.13, 0.011, 0.05
 269030678, 4.909, -0.079, 0.01, 0.05, 4.916, -0.118, 0.011, 0.05
 269231431, 4.913, -0.041, 0.008, 0.05, 4.909, -0.079, 0.01, 0.05
 269431351, 4.939, -0.014, 0.006, 0.05, 4.913, -0.041, 0.008, 0.05
 269631271, 4.928, 0.01, 0.003, 0.05, 4.939, -0.014, 0.006, 0.05
 269831191, 4.892, 0.029, 0.001, 0.05, 4.928, 0.01, 0.003, 0.05
 270031111, 4.904, 0.039, 0.001, 0.05, 4.892, 0.029, 0.001, 0.05
 270231031, 4.944, 0.047, 0.001, 0.05, 4.904, 0.039, 0.001, 0.05
 270430951, 4.965, 0.071, -0.001, 0.05, 4.944, 0.047, 0.001, 0.05
 270630871, 4.965, 0.112, -0.003, 0.05, 4.965, 0.071, -0.001, 0.05
 270830791, 4.976, 0.135, -0.003, 0.05, 4.965, 0.112, -0.003, 0.05
 271030711, 4.995, 0.123, -0.003, 0.05, 4.976, 0.135, -0.003, 0.05
 271231464, 5.02, 0.103, -0.003, 0.05, 4.995, 0.123, -0.003, 0.05
 271431384, 5.009, 0.1, -0.005, 0.05, 5.02, 0.103, -0.003, 0.05
 271631304, 4.977, 0.103, -0.005, 0.05, 5.009, 0.1, -0.005, 0.05
 271831224, 4.979, 0.09200001, -0.003, 0.05, 4.977, 0.103, -0.005, 0.05
 272031144, 4.991, 0.075, -0.003, 0.05, 4.979, 0.09200001, -0.003, 0.05
 272231064, 5.013, 0.066, -0.004, 0.05, 4.991, 0.075, -0.003, 0.05
 272430984, 4.984, 0.06, -0.005, 0.05, 5.013, 0.066, -0.004, 0.05
 272630904, 4.978, 0.058, -0.005, 0.05, 4.984, 0.06, -0.005, 0.05
 272830824, 4.996, 0.058, -0.006, 0.05, 4.978, 0.058, -0.005, 0.05
 273030744, 5.019, 0.062, -0.008, 0.05, 4.996, 0.058, -0.006, 0.05
 273230664, 4.991, 0.068, -0.009000001, 0.05, 5.019, 0.062, -0.008, 0.05
 273431417, 4.972, 0.07300001, -0.008, 0.05, 4.991, 0.068, -0.009000001, 0.05
 273631337, 4.983, 0.082, -0.006, 0.05, 4.972, 0.07300001, -0.008, 0.05
 273831257, 5.016, 0.107, -0.004, 0.05, 4.983, 0.082, -0.006, 0.05
 274031177, 5.031, 0.137, -0.005, 0.05, 5.016, 0.107, -0.004, 0.05
 274231097, 5.029, 0.145, -0.006, 0.05, 5.031, 0.137, -0.005, 0.05
 274431017, 5.031, 0.142, -0.006, 0.05, 5.029, 0.145, -0.006, 0.05
 274630937, 5.003, 0.132, -0.01, 0.05, 5.031, 0.142, -0.006, 0.05
 274830857, 4.879, 0.11, -0.013, 0.05, 5.003, 0.132, -0.01, 0.05
 275030777, 4.707, 0.064, -0.011, 0.05, 4.879, 0.11, -0.013, 0.05
 275230697, 4.521, -0.005, -0.008, 0.05, 4.707, 0.064, -0.011, 0.05
 275431450, 4.326, -0.09100001, -0.006, 0.05, 4.521, -0.005, -0.008, 0.05
 275631370, 4.105, -0.18, -0.004, 0.05, 4.326, -0.09100001, -0.006, 0.05
 275831290, 3.867, -0.271, -0.002, 0.05, 4.105, -0.18, -0.004, 0.05
 276031210, 3.623, -0.38, 0, 0.05, 3.867, -0.271, -0.002, 0.05
 276231130, 3.364, -0.518, 0.003, 0.05, 3.623, -0.38, 0, 0.05
 276431050, 3.077, -0.669, 0.005, 0.05, 3.364, -0.518, 0.003, 0.05
 276630970, 2.774, -0.8150001, 0.005, 0.05, 3.077, -0.669, 0.005, 0.05
 276830890, 2.451, -0.9720001, 0.008, 0.05, 2.774, -0.8150001, 0.005, 0.05
 277030810, 2.104, -1.132, 0.008, 0.05, 2.451, -0.9720001, 0.008, 0.05
 277230730, 1.774, -1.278, 0.008, 0.05, 2.104, -1.132, 0.008, 0.05
 277431483, 1.477, -1.423, 0.008, 0.05, 1.774, -1.278, 0.008, 0.05
 277631403, 1.222, -1.594, 0.008, 0.05, 1.477, -1.423, 0.008, 0.05
 277831323, 1.023, -1.803, 0.01, 0.05, 1.222, -1.594, 0.008, 0.05
 278031243, 0.8710001, -2.028, 0.011, 0.05, 1.023, -1.803, 0.01, 0.05
 278231163, 0.734, -2.233, 0.011, 0.05, 0.8710001, -2.028, 0.011, 0.05
 278431083, 0.5840001, -2.424, 0.01, 0.05, 0.734, -2.233, 0.011, 0.05
 278631003, 0.426, -2.611, 0.01, 0.05, 0.5840001, -2.424, 0.01, 0.05
 278830923, 0.29, -2.796, 0.01, 0.05, 0.426, -2.611, 0.01, 0.05
 279030843, 0.186, -2.976, 0.009000001, 0.05, 0.29, -2.796, 0.01, 0.05
 279230763, 0.105, -3.137, 0.008, 0.05, 0.186, -2.976, 0.009000001, 0.05
 279430683, 0.044, -3.286, 0.007, 0.05, 0.105, -3.137, 0.008, 0.05
 279631436, 0.002, -3.435, 0.007, 0.05, 0.044, -3.286, 0.007, 0.05
 279831356, -0.05, -3.578, 0.006, 0.05, 0.002, -3.435, 0.007, 0.05
 280031276, -0.112, -3.689, 0.003, 0.05, -0.05, -3.578, 0.006, 0.05
 280231196, -0.156, -3.772, 0, 0.05, -0.112, -3.689, 0.003, 0.05
 280431116, -0.177, -3.846, -0.002, 0.05, -0.156, -3.772, 0, 0.05
 280631036, -0.168, -3.917, -0.005, 0.05, -0.177, -3.846, -0.002, 0.05
 280830956, -0.13, -3.98, -0.008, 0.05, -0.168, -3.917, -0.005, 0.05
 281030876, -0.09, -4.039, -0.011, 0.05, -0.13, -3.98, -0.008, 0.05
 281230796, -0.071, -4.103, -0.012, 0.05, -0.09, -4.039, -0.011, 0.05
 281430716, -0.07300001, -4.177, -0.013, 0.05, -0.071, -4.103, -0.012, 0.05
 281631469, -0.08800001, -4.246, -0.016, 0.05, -0.07300001, -4.177, -0.013, 0.05
 281831389, -0.108, -4.299, -0.019, 0.05, -0.08800001, -4.246, -0.016, 0.05
 282031309, -0.11, -4.342, -0.021, 0.05, -0.108, -4.299, -0.019, 0.05
 282231229, -0.085, -4.388, -0.021, 0.05, -0.11, -4.342, -0.021, 0.05
 282431149, -0.056, -4.436, -0.019, 0.05, -0.085, -4.388, -0.021, 0.05
 282631069, -0.043, -4.473, -0.019, 0.05, -0.056, -4.436, -0.019, 0.05
 282830989, -0.018, -4.5, -0.018, 0.05, -0.043, -4.473, -0.019, 0.05
 283030909, 0.034, -4.531, -0.016, 0.05, -0.018, -4.5, -0.018, 0.05
 283230829, 0.09200001, -4.568, -0.016, 0.05, 0.034, -4.531, -0.016, 0.05
 283430749, 0.116, -4.598, -0.016, 0.05, 0.09200001, -4.568, -0.016, 0.05
 283630669, 0.09900001, -4.621, -0.013, 0.05, 0.116, -4.598, -0.016, 0.05
 283831422, 0.07600001, -4.63, -0.012, 0.05, 0.09900001, -4.621, -0.013, 0.05
 284031342, 0.07700001, -4.632, -0.008, 0.05, 0.07600001, -4.63, -0.012, 0.05
 284231262, 0.094, -4.638, -0.004, 0.05, 0.07700001, -4.632, -0.008, 0.05
 284431182, 0.104, -4.648, -0.002, 0.05, 0.094, -4.638, -0.004, 0.05
 284631102, 0.098, -4.658, 0, 0.05, 0.104, -4.648, -0.002, 0.05
 284831022, 0.08800001, -4.666, 0.004, 0.05, 0.098, -4.658, 0, 0.05
 285030942, 0.083, -4.674, 0.007, 0.05, 0.08800001, -4.666, 0.004, 0.05
 285230862, 0.071, -4.691, 0.009000001, 0.05, 0.083, -4.674, 0.007, 0.05
 285430782, 0.036, -4.716, 0.006, 0.05, 0.071, -4.691, 0.009000001, 0.05
 285630702, 0, -4.736, 0.001, 0.05, 0.036, -4.716, 0.006, 0.05
 285831455, -0.023, -4.751, -0.002, 0.05, 0, -4.736, 0.001, 0.05
 286031375, -0.041, -4.765, -0.002, 0.05, -0.023, -4.751, -0.002, 0.05
 286231295, -0.051, -4.784, 0, 0.05, -0.041, -4.765, -0.002, 0.05
 286431215, -0.043, -4.806, 0, 0.05, -0.051, -4.784, 0, 0.05
 286631135, -0.037, -4.827, 0.002, 0.05, -0.043, -4.806, 0, 0.05
 286831055, -0.046, -4.838, 0.002, 0.05, -0.037, -4.827, 0.002, 0.05
 287030975, -0.055, -4.842, 0.003, 0.05, -0.046, -4.838, 0.002, 0.05
 287230895, -0.062, -4.844, 0.003, 0.05, -0.055, -4.842, 0.003, 0.05
 287430815, -0.081, -4.851, 0.003, 0.05, -0.062, -4.844, 0.003, 0.05
 287630735, -0.086, -4.865, 0.001, 0.05, -0.081, -4.851, 0.003, 0.05
 287830655, -0.074, -4.877, 0, 0.05, -0.086, -4.865, 0.001, 0.05
 288031408, -0.056, -4.885, -0.001, 0.05, -0.074, -4.877, 0, 0.05
 288231328, -0.049, -4.892, -0.001, 0.05, -0.056, -4.885, -0.001, 0.05
 288431248, -0.036, -4.901, 0.001, 0.05, -0.049, -4.892, -0.001, 0.05
 288631168, -0.04, -4.912, 0.003, 0.05, -0.036, -4.901, 0.001, 0.05
 288831088, -0.058, -4.922, 0.003, 0.05, -0.04, -4.912, 0.003, 0.05
 289031008, -0.064, -4.936, 0.001, 0.05, -0.058, -4.922, 0.003, 0.05
 289230928, -0.063, -4.95, -0.004, 0.05, -0.064, -4.936, 0.001, 0.05
 289430848, -0.055, -4.961, -0.008, 0.05, -0.063, -4.95, -0.004, 0.05
 289630768, -0.037, -4.973, -0.011, 0.05, -0.055, -4.961, -0.008, 0.05
 289830688, -0.027, -4.982, -0.011, 0.05, -0.037, -4.973, -0.011, 0.05
 290031441, -0.031, -4.989, -0.01, 0.05, -0.027, -4.982, -0.011, 0.05
 290231361, -0.033, -4.989, -0.008, 0.05, -0.031, -4.989, -0.01, 0.05
 290431281, -0.036, -4.976, -0.007, 0.05, -0.033, -4.989, -0.008, 0.05
 290631201, -0.047, -4.964, -0.006, 0.05, -0.036, -4.976, -0.007, 0.05
 290831121, -0.036, -4.969, -0.005, 0.05, -0.047, -4.964, -0.006, 0.05
 291031041, 0, -4.983, -0.005, 0.05, -0.036, -4.969, -0.005, 0.05
 291230961, 0.022, -4.991, -0.006, 0.05, 0, -4.983, -0.005, 0.05
 291430881, 0.038, -4.992, -0.005, 0.05, 0.022, -4.991, -0.006, 0.05
 291630801, 0.068, -4.995, -0.001, 0.05, 0.038, -4.992, -0.005, 0.05
 291830721, 0.08800001, -5.005, 0.002, 0.05, 0.068, -4.995, -0.001, 0.05
 292031474, 0.089, -5.021, 0.005, 0.05, 0.08800001, -5.005, 0.002, 0.05
 292231394, 0.08400001, -5.03, 0.008, 0.05, 0.089, -5.021, 0.005, 0.05
 292431314, 0.068, -5.035, 0.01, 0.05, 0.08400001, -5.03, 0.008, 0.05
 292631234, 0.056, -5.031, 0.011, 0.05, 0.068, -5.035, 0.01, 0.05
 292831154, 0.056, -5.015, 0.01, 0.05, 0.056, -5.031, 0.011, 0.05
 293031074, 0.056, -4.992, 0.009000001, 0.05, 0.056, -5.015, 0.01, 0.05
 293230994, 0.056, -4.98, 0.007, 0.05, 0.056, -4.992, 0.009000001, 0.05
 293430914, 0.06900001, -4.983, 0.005, 0.05, 0.056, -4.98, 0.007, 0.05
 293630834, 0.08800001, -4.99, 0.002, 0.05, 0.06900001, -4.983, 0.005, 0.05
 293830754, 0.085, -4.999, 0, 0.05, 0.08800001, -4.99, 0.002, 0.05
 294030674, 0.064, -5.006, -0.001, 0.05, 0.085, -4.999, 0, 0.05
 294231427, 0.049, -5.009, 0, 0.05, 0.064, -5.006, -0.001, 0.05
 294431347, 0.039, -5.005, 0, 0.05, 0.049, -5.009, 0, 0.05
 294631267, 0.044, -5.001, 0, 0.05, 0.039, -5.005, 0, 0.05
 294831187, 0.053, -4.998, -0.002, 0.05, 0.044, -5.001, 0, 0.05
 295031107, 0.052, -5.003, -0.006, 0.05, 0.053, -4.998, -0.002, 0.05
 295231027, 0.044, -5.012, -0.009000001, 0.05, 0.052, -5.003, -0.006, 0.05
 295430947, 0.023, -5.024, -0.012, 0.05, 0.044, -5.012, -0.009000001, 0.05
 295630867, 0, -5.038, -0.015, 0.05, 0.023, -5.024, -0.012, 0.05
 295830787, -0.016, -5.047, -0.017, 0.05, 0, -5.038, -0.015, 0.05
 296030707, -0.027, -5.046, -0.017, 0.05, -0.016, -5.047, -0.017, 0.05
 296231460, -0.068, -5.038, -0.015, 0.05, -0.027, -5.046, -0.017, 0.05
 296431380, -0.104, -5.026, -0.009000001, 0.05, -0.068, -5.038, -0.015, 0.05
 296631300, -0.109, -5.013, -0.001, 0.05, -0.104, -5.026, -0.009000001, 0.05
 296831220, -0.096, -5.002, 0.006, 0.05, -0.109, -5.013, -0.001, 0.05
 297031140, -0.06900001, -5.001, 0.009000001, 0.05, -0.096, -5.002, 0.006, 0.05
 297231060, -0.055, -5.013, 0.007, 0.05, -0.06900001, -5.001, 0.009000001, 0.05
 297430980, -0.054, -5.03, 0.005, 0.05, -0.055, -5.013, 0.007, 0.05
 297630900, -0.066, -5.038, 0.003, 0.05, -0.054, -5.03, 0.005, 0.05
 297830820, -0.039, -5.032, 0.002, 0.05, -0.066, -5.038, 0.003, 0.05
 298030740, -0.035, -5.035, 0, 0.05, -0.039, -5.032, 0.002, 0.05
 298230660, -0.036, -5.055, -0.001, 0.05, -0.035, -5.035, 0, 0.05
 298431413, -0.005, -5.071, -0.003, 0.05, -0.036, -5.055, -0.001, 0.05
 298631333, 0.051, -5.065, -0.007, 0.05, -0.005, -5.071, -0.003, 0.05
 298831253, 0.09500001, -5.049, -0.008, 0.05, 0.051, -5.065, -0.007, 0.05
 299031173, 0.081, -5.039, -0.004, 0.05, 0.09500001, -5.049, -0.008, 0.05
 299231093, 0.043, -5.039, -0.002, 0.05, 0.081, -5.039, -0.004, 0.05
 299431013, 0.02, -5.039, 0, 0.05, 0.043, -5.039, -0.002, 0.05
 299630933, -0.002, -5.031, 0.002, 0.05, 0.02, -5.039, 0, 0.05
 299830853, -0.033, -5.014, 0.004, 0.05, -0.002, -5.031, 0.002, 0.05
 300030773, -0.058, -4.998, 0.003, 0.05, -0.033, -5.014, 0.004, 0.05
 300230693, -0.057, -4.989, 0.005, 0.05, -0.058, -4.998, 0.003, 0.05
 300431446, -0.03, -4.98, 0.005, 0.05, -0.057, -4.989, 0.005, 0.05
 300631366, -0.025, -4.969, 0.006, 0.05, -0.03, -4.98, 0.005, 0.05
 300831286, -0.042, -4.959, 0.01, 0.05, -0.025, -4.969, 0.006, 0.05
 301031206, -0.075, -4.948, 0.014, 0.05, -0.042, -4.959, 0.01, 0.05
 301231126, -0.085, -4.939, 0.014, 0.05, -0.075, -4.948, 0.014, 0.05
 301431046, -0.07600001, -4.939, 0.01, 0.05, -0.085, -4.939, 0.014, 0.05
 301630966, -0.062, -4.949, 0.007, 0.05, -0.07600001, -4.939, 0.01, 0.05
 301830886, -0.034, -4.962, 0.006, 0.05, -0.062, -4.949, 0.007, 0.05
 302030806, -0.017, -4.972, 0.007, 0.05, -0.034, -4.962, 0.006, 0.05
 302230726, -0.013, -4.985, 0.009000001, 0.05, -0.017, -4.972, 0.007, 0.05
 302431479, 0.025, -5.009, 0.012, 0.05, -0.013, -4.985, 0.009000001, 0.05
 302631399, 0.07700001, -5.038, 0.016, 0.05, 0.025, -5.009, 0.012, 0.05
 302831319, 0.101, -5.056, 0.019, 0.05, 0.07700001, -5.038, 0.016, 0.05
 303031239, 0.112, -5.06, 0.022, 0.05, 0.101, -5.056, 0.019, 0.05
 303231159, 0.142, -5.06, 0.024, 0.05, 0.112, -5.06, 0.022, 0.05
 303431079, 0.185, -5.06, 0.024, 0.05, 0.142, -5.06, 0.024, 0.05
 303630999, 0.196, -5.058, 0.02, 0.05, 0.185, -5.06, 0.024, 0.05
 303830919, 0.176, -5.055, 0.017, 0.05, 0.196, -5.058, 0.02, 0.05
 304030839, 0.164, -5.062, 0.011, 0.05, 0.176, -5.055, 0.017, 0.05
 304230759, 0.168, -5.08, 0.005, 0.05, 0.164, -5.062, 0.011, 0.05
 304430679, 0.152, -5.094, 0, 0.05, 0.168, -5.08, 0.005, 0.05
 304631432, 0.109, -5.089, -0.005, 0.05, 0.152, -5.094, 0, 0.05
 304831352, 0.072, -5.073, -0.007, 0.05, 0.109, -5.089, -0.005, 0.05
 305031272, 0.07300001, -5.064, -0.007, 0.05, 0.072, -5.073, -0.007, 0.05
 305231192, 0.105, -5.071, -0.008, 0.05, 0.07300001, -5.064, -0.007, 0.05
 305431112, 0.128, -5.075, -0.01, 0.05, 0.105, -5.071, -0.008, 0.05
 305631032, 0.126, -5.071, -0.011, 0.05, 0.128, -5.075, -0.01, 0.05
 305830952, 0.11, -5.072, -0.009000001, 0.05, 0.126, -5.071, -0.011, 0.05
 306030872, 0.086, -5.079, -0.008, 0.05, 0.11, -5.072, -0.009000001, 0.05
 306230792, 0.059, -5.081, -0.008, 0.05, 0.086, -5.079, -0.008, 0.05
 306430712, 0.026, -5.076, -0.009000001, 0.05, 0.059, -5.081, -0.008, 0.05
 306631465, 0.027, -5.07, -0.01, 0.05, 0.026, -5.076, -0.009000001, 0.05
 306831385, 0.057, -5.066, -0.01, 0.05, 0.027, -5.07, -0.01, 0.05
 307031305, 0.08000001, -5.068, -0.007, 0.05, 0.057, -5.066, -0.01, 0.05
 307231225, 0.074, -5.069, -0.003, 0.05, 0.08000001, -5.068, -0.007, 0.05
 307431145, 0.063, -5.056, 0, 0.05, 0.074, -5.069, -0.003, 0.05
 307631065, 0.061, -5.041, 0.005, 0.05, 0.063, -5.056, 0, 0.05
 307830985, 0.055, -5.027, 0.011, 0.05, 0.061, -5.041, 0.005, 0.05
 308030905, 0.032, -5.007, 0.015, 0.05, 0.055, -5.027, 0.011, 0.05
 308230825, 0.017, -4.981, 0.018, 0.05, 0.032, -5.007, 0.015, 0.05
 308430745, 0.002, -4.95, 0.024, 0.05, 0.017, -4.981, 0.018, 0.05
 308630665, -0.047, -4.919, 0.027, 0.05, 0.002, -4.95, 0.024, 0.05
 308831418, -0.08000001, -4.901, 0.027, 0.05, -0.047, -4.919, 0.027, 0.05
 309031338, -0.079, -4.898, 0.025, 0.05, -0.08000001, -4.901, 0.027, 0.05
 309231258, -0.06500001, -4.905, 0.022, 0.05, -0.079, -4.898, 0.025, 0.05
 309431178, -0.059, -4.91, 0.018, 0.05, -0.06500001, -4.905, 0.022, 0.05
 309631098, -0.063, -4.914, 0.012, 0.05, -0.059, -4.91, 0.018, 0.05
 309831018, -0.053, -4.917, 0.009000001, 0.05, -0.063, -4.914, 0.012, 0.05
 310030938, -0.019, -4.922, 0.008, 0.05, -0.053, -4.917, 0.009000001, 0.05
 310230858, 0.002, -4.933, 0.008, 0.05, -0.019, -4.922, 0.008, 0.05
 310430778, 0.007, -4.939, 0.006, 0.05, 0.002, -4.933, 0.008, 0.05
 310630698, -0.007, -4.925, 0.004, 0.05, 0.007, -4.939, 0.006, 0.05
 310831451, -0.017, -4.91, 0.003, 0.05, -0.007, -4.925, 0.004, 0.05
 311031371, -0.023, -4.906, 0.003, 0.05, -0.017, -4.91, 0.003, 0.05
 311231291, -0.023, -4.913, 0.001, 0.05, -0.023, -4.906, 0.003, 0.05
 311431211, -0.036, -4.913, -0.002, 0.05, -0.023, -4.913, 0.001, 0.05
 311631131, -0.054, -4.897, -0.005, 0.05, -0.036, -4.913, -0.002, 0.05
 311831051, -0.043, -4.879, -0.007, 0.05, -0.054, -4.897, -0.005, 0.05
 312030971, -0.017, -4.871, -0.006, 0.05, -0.043, -4.879, -0.007, 0.05
 312230891, -0.002, -4.862, -0.005, 0.05, -0.017, -4.871, -0.006, 0.05
 312430811, 0.036, -4.857, -0.004, 0.05, -0.002, -4.862, -0.005, 0.05
 312630731, 0.053, -4.858, 0, 0.05, 0.036, -4.857, -0.004, 0.05
 312831484, 0.024, -4.851, 0.003, 0.05, 0.053, -4.858, 0, 0.05
 313031404, -0.037, -4.845, 0.004, 0.05, 0.024, -4.851, 0.003, 0.05
 313231324, -0.09, -4.843, 0.005, 0.05, -0.037, -4.845, 0.004, 0.05
 313431244, -0.11, -4.855, 0.005, 0.05, -0.09, -4.843, 0.005, 0.05
 313631164, -0.101, -4.857, 0.002, 0.05, -0.11, -4.855, 0.005, 0.05
 313831084, -0.094, -4.862, 0.001, 0.05, -0.101, -4.857, 0.002, 0.05
 314031004, -0.105, -4.875, 0.001, 0.05, -0.094, -4.862, 0.001, 0.05
 314230924, -0.124, -4.902, 0.001, 0.05, -0.105, -4.875, 0.001, 0.05
 314430844, -0.133, -4.919, -0.001, 0.05, -0.124, -4.902, 0.001, 0.05
 314630764, -0.112, -4.924, -0.003, 0.05, -0.133, -4.919, -0.001, 0.05
 314830684, -0.09, -4.933, -0.006, 0.05, -0.112, -4.924, -0.003, 0.05
 315031437, -0.08000001, -4.948, -0.01, 0.05, -0.09, -4.933, -0.006, 0.05
 315231357, -0.053, -4.954, -0.01, 0.05, -0.08000001, -4.948, -0.01, 0.05
 315431277, -0.027, -4.955, -0.008, 0.05, -0.053, -4.954, -0.01, 0.05
 315631197, -0.03, -4.96, -0.005, 0.05, -0.027, -4.955, -0.008, 0.05
 315831117, -0.031, -4.969, -0.006, 0.05, -0.03, -4.96, -0.005, 0.05
 316031037, -0.017, -4.98, -0.008, 0.05, -0.031, -4.969, -0.006, 0.05
 316230957, -0.011, -4.984, -0.007, 0.05, -0.017, -4.98, -0.008, 0.05
 316430877, 0.001, -4.985, -0.005, 0.05, -0.011, -4.984, -0.007, 0.05
 316630797, 0.019, -4.986, -0.003, 0.05, 0.001, -4.985, -0.005, 0.05
 316830717, 0.025, -4.983, -0.003, 0.05, 0.019, -4.986, -0.003, 0.05
 317031470, 0.021, -4.981, -0.004, 0.05, 0.025, -4.983, -0.003, 0.05
 317231390, -0.002, -4.979, -0.005, 0.05, 0.021, -4.981, -0.004, 0.05
 317431310, -0.038, -4.975, -0.003, 0.05, -0.002, -4.979, -0.005, 0.05
 317631230, -0.053, -4.941, -0.003, 0.05, -0.038, -4.975, -0.003, 0.05
 317831150, -0.058, -4.843, -0.007, 0.05, -0.053, -4.941, -0.003, 0.05
 318031070, -0.105, -4.69, -0.01, 0.05, -0.058, -4.843, -0.007, 0.05
 318230990, -0.197, -4.512, -0.007, 0.05, -0.105, -4.69, -0.01, 0.05
 318430910, -0.295, -4.32, -0.003, 0.05, -0.197, -4.512, -0.007, 0.05
 318630830, -0.359, -4.122, 0, 0.05, -0.295, -4.32, -0.003, 0.05
 318830750, -0.414, -3.918, 0.002, 0.05, -0.359, -4.122, 0, 0.05
 319030670, -0.496, -3.687, 0.005, 0.05, -0.414, -3.918, 0.002, 0.05
 319231423, -0.599, -3.431, 0.007, 0.05, -0.496, -3.687, 0.005, 0.05
 319431343, -0.707, -3.165, 0.009000001, 0.05, -0.599, -3.431, 0.007, 0.05
 319631263, -0.825, -2.895, 0.009000001, 0.05, -0.707, -3.165, 0.009000001, 0.05
 319831183, -0.956, -2.627, 0.01, 0.05, -0.825, -2.895, 0.009000001, 0.05
 320031103, -1.105, -2.354, 0.011, 0.05, -0.956, -2.627, 0.01, 0.05
 320231023, -1.27, -2.063, 0.014, 0.05, -1.105, -2.354, 0.011, 0.05
 320430943, -1.449, -1.749, 0.017, 0.05, -1.27, -2.063, 0.014, 0.05
 320630863, -1.639, -1.425, 0.022, 0.05, -1.449, -1.749, 0.017, 0.05
 320830783, -1.836, -1.107, 0.024, 0.05, -1.639, -1.425, 0.022, 0.05
 321030703, -2.044, -0.8560001, 0.025, 0.05, -1.836, -1.107, 0.024, 0.05
 321231456, -2.275, -0.702, 0.027, 0.05, -2.044, -0.8560001, 0.025, 0.05
 321431376, -2.52, -0.59, 0.026, 0.05, -2.275, -0.702, 0.027, 0.05
 321631296, -2.75, -0.467, 0.021, 0.05, -2.52, -0.59, 0.026, 0.05
 321831216, -2.965, -0.318, 0.015, 0.05, -2.75, -0.467, 0.021, 0.05
 322031136, -3.169, -0.187, 0.01, 0.05, -2.965, -0.318, 0.015, 0.05
 322231056, -3.347, -0.09100001, 0.007, 0.05, -3.169, -0.187, 0.01, 0.05
 322430976, -3.491, 0.016, 0.004, 0.05, -3.347, -0.09100001, 0.007, 0.05
 322630896, -3.619, 0.134, 0, 0.05, -3.491, 0.016, 0.004, 0.05
 322830816, -3.743, 0.205, -0.006, 0.05, -3.619, 0.134, 0, 0.05
 323030736, -3.857, 0.208, -0.013, 0.05, -3.743, 0.205, -0.006, 0.05
 323230656, -3.946, 0.176, -0.018, 0.05, -3.857, 0.208, -0.013, 0.05
 323431409, -4.013, 0.143, -0.022, 0.05, -3.946, 0.176, -0.018, 0.05
 323631329, -4.081, 0.107, -0.023, 0.05, -4.013, 0.143, -0.022, 0.05
 323831249, -4.156, 0.086, -0.019, 0.05, -4.081, 0.107, -0.023, 0.05
 324031169, -4.231, 0.105, -0.012, 0.05, -4.156, 0.086, -0.019, 0.05
 324231089, -4.296, 0.162, -0.005, 0.05, -4.231, 0.105, -0.012, 0.05
 324431009, -4.353, 0.212, -0.004, 0.05, -4.296, 0.162, -0.005, 0.05
 324630929, -4.412, 0.206, -0.003, 0.05, -4.353, 0.212, -0.004, 0.05
 324830849, -4.468, 0.17, -0.003, 0.05, -4.412, 0.206, -0.003, 0.05
 325030769, -4.517, 0.152, -0.004, 0.05, -4.468, 0.17, -0.003, 0.05
 325230689, -4.559, 0.15, -0.006, 0.05, -4.517, 0.152, -0.004, 0.05
 325431442, -4.591, 0.141, -0.01, 0.05, -4.559, 0.15, -0.006, 0.05
 325631362, -4.617, 0.108, -0.013, 0.05, -4.591, 0.141, -0.01, 0.05
 325831282, -4.64, 0.078, -0.015, 0.05, -4.617, 0.108, -0.013, 0.05
 326031202, -4.667, 0.059, -0.017, 0.05, -4.64, 0.078, -0.015, 0.05
 326231122, -4.699, 0.039, -0.022, 0.05, -4.667, 0.059, -0.017, 0.05
 326431042, -4.732, 0.021, -0.026, 0.05, -4.699, 0.039, -0.022, 0.05
 326630962, -4.761, 0.01, -0.026, 0.05, -4.732, 0.021, -0.026, 0.05
 326830882, -4.778, 0.016, -0.025, 0.05, -4.761, 0.01, -0.026, 0.05
 327030802, -4.784, 0.043, -0.022, 0.05, -4.778, 0.016, -0.025, 0.05
 327230722, -4.781, 0.068, -0.017, 0.05, -4.784, 0.043, -0.022, 0.05
 327431475, -4.777, 0.062, -0.013, 0.05, -4.781, 0.068, -0.017, 0.05
 327631395, -4.77, 0.015, -0.012, 0.05, -4.777, 0.062, -0.013, 0.05
 327831315, -4.765, -0.047, -0.01, 0.05, -4.77, 0.015, -0.012, 0.05
 328031235, -4.766, -0.101, -0.009000001, 0.05, -4.765, -0.047, -0.01, 0.05
 328231155, -4.779, -0.131, -0.005, 0.05, -4.766, -0.101, -0.009000001, 0.05
 328431075, -4.787, -0.123, -0.001, 0.05, -4.779, -0.131, -0.005, 0.05
 328630995, -4.81, -0.094, 0.003, 0.05, -4.787, -0.123, -0.001, 0.05
 328830915, -4.844, -0.081, 0.007, 0.05, -4.81, -0.094, 0.003, 0.05
 329030835, -4.851, -0.104, 0.008, 0.05, -4.844, -0.081, 0.007, 0.05
 329230755, -4.852, -0.129, 0.01, 0.05, -4.851, -0.104, 0.008, 0.05
 329430675, -4.856, -0.127, 0.014, 0.05, -4.852, -0.129, 0.01, 0.05
 329631428, -4.872, -0.103, 0.015, 0.05, -4.856, -0.127, 0.014, 0.05
 329831348, -4.884, -0.082, 0.013, 0.05, -4.872, -0.103, 0.015, 0.05
 330031268, -4.9, -0.08400001, 0.012, 0.05, -4.884, -0.082, 0.013, 0.05
 330231188, -4.904, -0.097, 0.01, 0.05, -4.9, -0.08400001, 0.012, 0.05
 330431108, -4.885, -0.114, 0.007, 0.05, -4.904, -0.097, 0.01, 0.05
 330631028, -4.863, -0.105, 0.006, 0.05, -4.885, -0.114, 0.007, 0.05
 330830948, -4.859, -0.075, 0.005, 0.05, -4.863, -0.105, 0.006, 0.05
 331030868, -4.864, -0.053, 0.003, 0.05, -4.859, -0.075, 0.005, 0.05
 331230788, -4.871, -0.039, -0.001, 0.05, -4.864, -0.053, 0.003, 0.05
 331430708, -4.871, -0.018, -0.003, 0.05, -4.871, -0.039, -0.001, 0.05
 331631461, -4.867, 0.014, -0.003, 0.05, -4.871, -0.018, -0.003, 0.05
 331831381, -4.859, 0.055, 0, 0.05, -4.867, 0.014, -0.003, 0.05
 332031301, -4.855, 0.08400001, 0.002, 0.05, -4.859, 0.055, 0, 0.05
 332231221, -4.858, 0.085, 0.006, 0.05, -4.855, 0.08400001, 0.002, 0.05
 332431141, -4.861, 0.079, 0.011, 0.05, -4.858, 0.085, 0.006, 0.05
 332631061, -4.862, 0.09200001, 0.01, 0.05, -4.861, 0.079, 0.011, 0.05
 332830981, -4.87, 0.107, 0.011, 0.05, -4.862, 0.09200001, 0.01, 0.05
 333030901, -4.88, 0.098, 0.012, 0.05, -4.87, 0.107, 0.011, 0.05
 333230821, -4.885, 0.071, 0.012, 0.05, -4.88, 0.098, 0.012, 0.05
 333430741, -4.882, 0.037, 0.012, 0.05, -4.885, 0.071, 0.012, 0.05
 333630661, -4.874, 0.004, 0.012, 0.05, -4.882, 0.037, 0.012, 0.05
 333831414, -4.873, -0.015, 0.013, 0.05, -4.874, 0.004, 0.012, 0.05
 334031334, -4.881, -0.033, 0.016, 0.05, -4.873, -0.015, 0.013, 0.05
 334231254, -4.891, -0.064, 0.018, 0.05, -4.881, -0.033, 0.016, 0.05
 334431174, -4.895, -0.09500001, 0.019, 0.05, -4.891, -0.064, 0.018, 0.05
 334631094, -4.904, -0.098, 0.017, 0.05, -4.895, -0.09500001, 0.019, 0.05
 334831014, -4.912, -0.063, 0.014, 0.05, -4.904, -0.098, 0.017, 0.05
 335030934, -4.914, -0.024, 0.009000001, 0.05, -4.912, -0.063, 0.014, 0.05
 335230854, -4.912, -0.006, 0.005, 0.05, -4.914, -0.024, 0.009000001, 0.05
 335430774, -4.91, -0.008, 0.002, 0.05, -4.912, -0.006, 0.005, 0.05
 335630694, -4.909, -0.018, 0.004, 0.05, -4.91, -0.008, 0.002, 0.05
 335831447, -4.896, -0.039, 0.006, 0.05, -4.909, -0.018, 0.004, 0.05
 336031367, -4.884, -0.053, 0.004, 0.05, -4.896, -0.039, 0.006, 0.05
 336231287, -4.866, -0.047, 0.003, 0.05, -4.884, -0.053, 0.004, 0.05
 336431207, -4.834, -0.028, 0.002, 0.05, -4.866, -0.047, 0.003, 0.05
 336631127, -4.825, -0.003, -0.001, 0.05, -4.834, -0.028, 0.002, 0.05
 336831047, -4.829, 0.02, -0.003, 0.05, -4.825, -0.003, -0.001, 0.05
 337030967, -4.834, 0.042, -0.002, 0.05, -4.829, 0.02, -0.003, 0.05
 337230887, -4.836, 0.055, 0, 0.05, -4.834, 0.042, -0.002, 0.05
 337430807, -4.837, 0.053, 0.003, 0.05, -4.836, 0.055, 0, 0.05
 337630727, -4.833, 0.044, 0.007, 0.05, -4.837, 0.053, 0.003, 0.05
 337831480, -4.828, 0.031, 0.009000001, 0.05, -4.833, 0.044, 0.007, 0.05
 338031400, -4.833, 0.011, 0.01, 0.05, -4.828, 0.031, 0.009000001, 0.05
 338231320, -4.862, 0.005, 0.007, 0.05, -4.833, 0.011, 0.01, 0.05
 338431240, -4.892, 0.034, 0.004, 0.05, -4.862, 0.005, 0.007, 0.05
 338631160, -4.897, 0.08000001, 0.002, 0.05, -4.892, 0.034, 0.004, 0.05
 338831080, -4.904, 0.104, 0, 0.05, -4.897, 0.08000001, 0.002, 0.05
 339031000, -4.895, 0.1, -0.002, 0.05, -4.904, 0.104, 0, 0.05
 339230920, -4.873, 0.1, -0.006, 0.05, -4.895, 0.1, -0.002, 0.05
 339430840, -4.881, 0.096, -0.009000001, 0.05, -4.873, 0.1, -0.006, 0.05
 339630760, -4.918, 0.08000001, -0.013, 0.05, -4.881, 0.096, -0.009000001, 0.05
 339830680, -4.926, 0.063, -0.021, 0.05, -4.918, 0.08000001, -0.013, 0.05
 340031433, -4.927, 0.038, -0.026, 0.05, -4.926, 0.063, -0.021, 0.05
 340231353, -4.938, 0.012, -0.026, 0.05, -4.927, 0.038, -0.026, 0.05
 340431273, -4.958, 0.002, -0.024, 0.05, -4.938, 0.012, -0.026, 0.05
 340631193, -4.981, 0.025, -0.019, 0.05, -4.958, 0.002, -0.024, 0.05
 340831113, -4.983, 0.058, -0.012, 0.05, -4.981, 0.025, -0.019, 0.05
 341031033, -4.97, 0.063, -0.002, 0.05, -4.983, 0.058, -0.012, 0.05
 341230953, -4.938, 0.03, 0.006, 0.05, -4.97, 0.063, -0.002, 0.05
 341430873, -4.928, -0.02, 0.013, 0.05, -4.938, 0.03, 0.006, 0.05
 341630793, -4.923, -0.061, 0.018, 0.05, -4.928, -0.02, 0.013, 0.05
 341830713, -4.905, -0.079, 0.019, 0.05, -4.923, -0.061, 0.018, 0.05
 342031466, -4.892, -0.057, 0.02, 0.05, -4.905, -0.079, 0.019, 0.05
 342231386, -4.893, -0.011, 0.02, 0.05, -4.892, -0.057, 0.02, 0.05
 342431306, -4.893, 0.033, 0.018, 0.05, -4.893, -0.011, 0.02, 0.05
 342631226, -4.895, 0.074, 0.013, 0.05, -4.893, 0.033, 0.018, 0.05
 342831146, -4.907, 0.121, 0.007, 0.05, -4.895, 0.074, 0.013, 0.05
 343031066, -4.922, 0.17, 0.002, 0.05, -4.907, 0.121, 0.007, 0.05
 343230986, -4.933, 0.207, -0.002, 0.05, -4.922, 0.17, 0.002, 0.05
 343430906, -4.954, 0.22, -0.007, 0.05, -4.933, 0.207, -0.002, 0.05
