TimeUS,COFN,COFE,CNe,CEe,POFN,POFE,PNe,PEe
 8425795, 0.001468834, 0.01468042, 0.01977058, -0.03119568, 0, 0, 0, 0
 8606556, -0.001022073, 0.00294486, 0.01981288, -0.03116759, 0.001468834, 0.01468042, 0.01977058, -0.03119568
 8806476, 0.0004596444, 0.005266631, 0.02013617, -0.03095982, -0.001022073, 0.00294486, 0.01981288, -0.03116759
 9006396, 0.0006394698, 0.005311149, 0.02068314, -0.03059712, 0.0004596444, 0.005266631, 0.02013617, -0.03095982
 9206316, -0.000739736, 0.002987268, 0.02130866, -0.03016471, 0.0006394698, 0.005311149, 0.02068314, -0.03059712
 9406236, -0.004326323, 0.0008389794, 0.0219167, -0.02972593, -0.000739736, 0.002987268, 0.02130866, -0.03016471
 9606156, -0.002543308, 0.0002130049, 0.02247188, -0.0293084, -0.004326323, 0.0008389794, 0.0219167, -0.02972593
 9806076, -0.002156785, 0.001110284, 0.02297267, -0.02891754, -0.002543308, 0.0002130049, 0.02247188, -0.0293084
 10005996, -0.002656176, 0.003653374, 0.02342883, -0.02854931, -0.002156785, 0.001110284, 0.02297267, -0.02891754
 10205916, -0.001890065, 0.003867594, 0.02385063, -0.02819787, -0.002656176, 0.003653374, 0.02342883, -0.02854931
 10405836, -0.002881274, 0.003341964, 0.02423976, -0.02786407, -0.001890065, 0.003867594, 0.02385063, -0.02819787
 10606589, -0.000932858, 0.00546439, 0.02459675, -0.02754954, -0.002881274, 0.003341964, 0.02423976, -0.02786407
 10806509, -0.003490184, 0.01220049, 0.02492448, -0.02725427, -0.000932858, 0.00546439, 0.02459675, -0.02754954
 11006429, 0.01944314, 0.001906277, 0.02523469, -0.02696881, -0.003490184, 0.01220049, 0.02492448, -0.02725427
 11206349, -0.0188413, -0.0008755253, 0.02550873, -0.02670958, 0.01944314, 0.001906277, 0.02523469, -0.02696881
 11406269, -0.02145405, 0.01361336, 0.02575913, -0.0264702, -0.0188413, -0.0008755253, 0.02550873, -0.02670958
 11606189, -0.004721942, -0.01591489, 0.02598264, -0.02624824, -0.02145405, 0.01361336, 0.02575913, -0.0264702
 11806109, 0.01934591, 0.001264694, 0.02618981, -0.02604224, -0.004721942, -0.01591489, 0.02598264, -0.02624824
 12006029, -0.009939781, -0.014195, 0.02637356, -0.0258556, 0.01934591, 0.001264694, 0.02618981, -0.02604224
 12205949, 0.01188045, -0.006682508, 0.02654188, -0.02568195, -0.009939781, -0.014195, 0.02637356, -0.0258556
 12405869, -0.01110299, 0.004114073, 0.02669221, -0.02552534, 0.01188045, -0.006682508, 0.02654188, -0.02568195
 12605789, 0.006079162, -0.02119434, 0.0268267, -0.02538648, -0.01110299, 0.004114073, 0.02669221, -0.02552534
 12806542, 0.002612768, -0.02189538, 0.02694817, -0.0252575, 0.006079162, -0.02119434, 0.0268267, -0.02538648
 13006462, 0.01505062, -0.01165028, 0.02706022, -0.0251365, 0.002612768, -0.02189538, 0.02694817, -0.0252575
 13206382, -0.009355703, -0.0216096, 0.02715533, -0.02503514, 0.01505062, -0.01165028, 0.02706022, -0.0251365
 13406302, 0.008553434, -0.006383772, 0.02724032, -0.02493938, -0.009355703, -0.0216096, 0.02715533, -0.02503514
 13606222, 0.01792241, -0.01782447, 0.02731784, -0.02485835, 0.008553434, -0.006383772, 0.02724032, -0.02493938
 13806142, -0.01127586, 0.01435237, 0.02738373, -0.02478346, 0.01792241, -0.01782447, 0.02731784, -0.02485835
 14006062, 0.004819214, -0.006230018, 0.02744184, -0.02471708, -0.01127586, 0.01435237, 0.02738373, -0.02478346
 14205982, -0.01546247, 0.0008794422, 0.02749564, -0.02465855, 0.004819214, -0.006230018, 0.02744184, -0.02471708
 14405902, -0.003903214, -0.005968322, 0.02754001, -0.02460756, -0.01546247, 0.0008794422, 0.02749564, -0.02465855
 14605822, 0.01836992, 0.01174175, 0.02758239, -0.02456325, -0.003903214, -0.005968322, 0.02754001, -0.02460756
 14806575, -0.001645174, 0.01417034, 0.02761554, -0.02452392, 0.01836992, 0.01174175, 0.02758239, -0.02456325
 15006495, -0.009868127, -0.01809484, 0.0276479, -0.0244891, -0.001645174, 0.01417034, 0.02761554, -0.02452392
 15206415, -0.009474901, -0.01413011, 0.02767317, -0.02445952, -0.009868127, -0.01809484, 0.0276479, -0.0244891
 15406335, -0.01177676, -0.01146675, 0.02769514, -0.0244345, -0.009474901, -0.01413011, 0.02767317, -0.02445952
 15606255, -0.0105567, -0.01336243, 0.02771335, -0.02441399, -0.01177676, -0.01146675, 0.02769514, -0.0244345
 15806175, -0.01017893, -0.01364825, 0.02772865, -0.02439661, -0.0105567, -0.01336243, 0.02771335, -0.02441399
 16006095, -0.009489799, -0.015137, 0.02774077, -0.02438305, -0.01017893, -0.01364825, 0.02772865, -0.02439661
 16206015, -0.00762816, -0.01400673, 0.02775069, -0.02437128, -0.009489799, -0.015137, 0.02774077, -0.02438305
 16405935, -0.01048475, -0.01025168, 0.02775885, -0.02436167, -0.00762816, -0.01400673, 0.02775069, -0.02437128
 16605855, -0.009250807, -0.01328816, 0.0277653, -0.02435469, -0.01048475, -0.01025168, 0.02775885, -0.02436167
 16805775, -0.008659117, -0.01748162, 0.02777186, -0.02434809, -0.009250807, -0.01328816, 0.0277653, -0.02435469
 17006528, -0.00733345, -0.0161743, 0.02777616, -0.0243427, -0.008659117, -0.01748162, 0.02777186, -0.02434809
 17206448, -0.01099819, -0.01763767, 0.0277778, -0.02434172, -0.00733345, -0.0161743, 0.02777616, -0.0243427
 17406368, -0.01163912, -0.01322078, 0.0277774, -0.02434125, -0.01099819, -0.01763767, 0.0277778, -0.02434172
 17606288, -0.007738818, -0.00984857, 0.02777495, -0.02434287, -0.01163912, -0.01322078, 0.0277774, -0.02434125
 17806208, -0.009559104, -0.01153374, 0.02777245, -0.02434625, -0.007738818, -0.00984857, 0.02777495, -0.02434287
 18006128, -0.008962331, -0.01641961, 0.02776886, -0.0243513, -0.009559104, -0.01153374, 0.02777245, -0.02434625
 18206048, -0.01056614, -0.01518358, 0.02776434, -0.02435638, -0.008962331, -0.01641961, 0.02776886, -0.0243513
 18405968, -0.01073528, -0.01425857, 0.02775929, -0.02436196, -0.01056614, -0.01518358, 0.02776434, -0.02435638
 18605888, -0.01150014, -0.01399245, 0.02775346, -0.02436867, -0.01073528, -0.01425857, 0.02775929, -0.02436196
 18805808, -0.01350208, -0.01357272, 0.02774693, -0.0243764, -0.01150014, -0.01399245, 0.02775346, -0.02436867
 19006561, -0.01172788, -0.009409831, 0.02773968, -0.02438359, -0.01350208, -0.01357272, 0.02774693, -0.0243764
 19206481, -0.01153415, -0.01311828, 0.02773303, -0.02439175, -0.01172788, -0.009409831, 0.02773968, -0.02438359
 19406401, -0.009222911, -0.01490215, 0.02772462, -0.02440133, -0.01153415, -0.01311828, 0.02773303, -0.02439175
 19606321, -0.009523618, -0.01528061, 0.02771599, -0.02441125, -0.009222911, -0.01490215, 0.02772462, -0.02440133
 19806241, -0.01009315, -0.01285324, 0.02770716, -0.02442084, -0.009523618, -0.01528061, 0.02771599, -0.02441125
 20006161, -0.01081663, -0.0132795, 0.02769822, -0.02443118, -0.01009315, -0.01285324, 0.02770716, -0.02442084
 20206081, -0.009999039, -0.01183833, 0.02768851, -0.02444178, -0.01081663, -0.0132795, 0.02769822, -0.02443118
 20406001, -0.01164013, -0.01471091, 0.02767941, -0.02445293, -0.009999039, -0.01183833, 0.02768851, -0.02444178
 20605921, -0.01072682, -0.01245129, 0.02766975, -0.02446325, -0.01164013, -0.01471091, 0.02767941, -0.02445293
 20805841, -0.01023564, -0.01191169, 0.02765975, -0.02447437, -0.01072682, -0.01245129, 0.02766975, -0.02446325
 21005761, -0.01041039, -0.01313438, 0.02764991, -0.02448575, -0.01023564, -0.01191169, 0.02765975, -0.02447437
 21206514, -0.01094164, -0.01408552, 0.02764041, -0.02449675, -0.01041039, -0.01313438, 0.02764991, -0.02448575
 21406434, -0.01114563, -0.01458428, 0.02763028, -0.02450831, -0.01094164, -0.01408552, 0.02764041, -0.02449675
 21606354, -0.009588086, -0.01449963, 0.02761951, -0.02452018, -0.01114563, -0.01458428, 0.02763028, -0.02450831
 21806274, -0.01280573, -0.01308588, 0.02760961, -0.02453159, -0.009588086, -0.01449963, 0.02761951, -0.02452018
 22006194, -0.01075269, -0.01236217, 0.0275989, -0.02454314, -0.01280573, -0.01308588, 0.02760961, -0.02453159
 22206114, -0.01071312, -0.01160678, 0.02758856, -0.02455462, -0.01075269, -0.01236217, 0.0275989, -0.02454314
 22406034, -0.01093424, -0.01502554, 0.02757814, -0.02456703, -0.01071312, -0.01160678, 0.02758856, -0.02455462
 22605954, -0.009950428, -0.01242996, 0.02756763, -0.02457814, -0.01093424, -0.01502554, 0.02757814, -0.02456703
 22805874, -0.01257136, -0.01348178, 0.02755759, -0.02459004, -0.009950428, -0.01242996, 0.02756763, -0.02457814
 23005794, -0.01082594, -0.01169822, 0.02754674, -0.02460155, -0.01257136, -0.01348178, 0.02755759, -0.02459004
 23206547, -0.01098778, -0.01238872, 0.02753689, -0.02461273, -0.01082594, -0.01169822, 0.02754674, -0.02460155
 23406467, -0.00845584, -0.01343309, 0.0275267, -0.02462395, -0.01098778, -0.01238872, 0.02753689, -0.02461273
 23606387, -0.009015864, -0.01147786, 0.02751632, -0.02463526, -0.00845584, -0.01343309, 0.0275267, -0.02462395
 23806307, -0.009144925, -0.01340597, 0.02750609, -0.02464705, -0.009015864, -0.01147786, 0.02751632, -0.02463526
 24006227, -0.008110659, -0.01264879, 0.02749582, -0.02465823, -0.009144925, -0.01340597, 0.02750609, -0.02464705
 24206147, -0.01172052, -0.01764954, 0.02748642, -0.02467037, -0.008110659, -0.01264879, 0.02749582, -0.02465823
 24406067, -0.01237064, -0.01259038, 0.02747632, -0.02468059, -0.01172052, -0.01764954, 0.02748642, -0.02467037
 24605987, -0.01260081, -0.01197687, 0.0274665, -0.02469145, -0.01237064, -0.01259038, 0.02747632, -0.02468059
 24805907, -0.01387002, -0.0159225, 0.0274571, -0.02470298, -0.01260081, -0.01197687, 0.0274665, -0.02469145
 25005827, -0.01141042, -0.01146126, 0.02744641, -0.02471349, -0.01387002, -0.0159225, 0.0274571, -0.02470298
 25206580, -0.01039377, -0.01217667, 0.02743663, -0.02472429, -0.01141042, -0.01146126, 0.02744641, -0.02471349
 25406500, -0.01043955, -0.01109256, 0.0274275, -0.02473425, -0.01039377, -0.01217667, 0.02743663, -0.02472429
 25606420, -0.009977378, -0.01275576, 0.02741794, -0.02474507, -0.01043955, -0.01109256, 0.0274275, -0.02473425
 25806340, -0.00883112, -0.01513292, 0.02740828, -0.0247561, -0.009977378, -0.01275576, 0.02741794, -0.02474507
 26006260, -0.00810995, -0.0135563, 0.02739879, -0.02476617, -0.00883112, -0.01513292, 0.02740828, -0.0247561
 26206180, -0.009610247, -0.01438241, 0.02738978, -0.02477651, -0.00810995, -0.0135563, 0.02739879, -0.02476617
 26406100, -0.01035299, -0.01465794, 0.0273806, -0.02478681, -0.009610247, -0.01438241, 0.02738978, -0.02477651
 26606020, -0.01056294, -0.01227112, 0.02737158, -0.02479633, -0.01035299, -0.01465794, 0.0273806, -0.02478681
 26805940, -0.009247302, -0.01241227, 0.02736244, -0.02480625, -0.01056294, -0.01227112, 0.02737158, -0.02479633
 27005860, -0.01087375, -0.01297604, 0.02735356, -0.02481638, -0.009247302, -0.01241227, 0.02736244, -0.02480625
 27205780, -0.008079929, -0.01246788, 0.0273443, -0.0248261, -0.01087375, -0.01297604, 0.02735356, -0.02481638
 27406533, -0.008737307, -0.01171496, 0.02733601, -0.02483517, -0.008079929, -0.01246788, 0.0273443, -0.0248261
 27606453, -0.008522331, -0.01526674, 0.02732736, -0.02484537, -0.008737307, -0.01171496, 0.02733601, -0.02483517
 27806373, -0.006095755, -0.01709735, 0.02731851, -0.02485528, -0.008522331, -0.01526674, 0.02732736, -0.02484537
 28006293, -0.009357627, -0.01502871, 0.0273104, -0.02486407, -0.006095755, -0.01709735, 0.02731851, -0.02485528
 28206213, -0.01395526, -0.011686, 0.02730282, -0.02487253, -0.009357627, -0.01502871, 0.0273104, -0.02486407
 28406133, -0.0121719, -0.01194144, 0.0272943, -0.02488158, -0.01395526, -0.011686, 0.02730282, -0.02487253
 28606053, -0.01068358, -0.01305285, 0.02728584, -0.02489081, -0.0121719, -0.01194144, 0.0272943, -0.02488158
 28805973, -0.00890949, -0.01398896, 0.0272776, -0.02489977, -0.01068358, -0.01305285, 0.02728584, -0.02489081
 29005893, -0.007947039, -0.01229116, 0.02726956, -0.02490813, -0.00890949, -0.01398896, 0.0272776, -0.02489977
 29205813, -0.007356307, -0.01593672, 0.02726169, -0.02491743, -0.007947039, -0.01229116, 0.02726956, -0.02490813
 29406566, -0.009766808, -0.01308762, 0.02725423, -0.02492527, -0.007356307, -0.01593672, 0.02726169, -0.02491743
 29606486, -0.009944957, -0.01648909, 0.02724693, -0.02493403, -0.009766808, -0.01308762, 0.02725423, -0.02492527
 29806406, -0.007943339, -0.01690732, 0.02723872, -0.02494283, -0.009944957, -0.01648909, 0.02724693, -0.02493403
 30006326, -0.008477638, -0.0127395, 0.02723113, -0.02495027, -0.007943339, -0.01690732, 0.02723872, -0.02494283
 30206246, -0.007997854, -0.01386592, 0.02722366, -0.02495859, -0.008477638, -0.0127395, 0.02723113, -0.02495027
 30406166, -0.00881135, -0.01270044, 0.02721642, -0.02496635, -0.007997854, -0.01386592, 0.02722366, -0.02495859
 30606086, -0.009124082, -0.01350187, 0.02720916, -0.02497446, -0.00881135, -0.01270044, 0.02721642, -0.02496635
 30806006, -0.009846222, -0.01620656, 0.02720219, -0.02498274, -0.009124082, -0.01350187, 0.02720916, -0.02497446
 31005926, -0.008873559, -0.01688948, 0.02719497, -0.02499063, -0.009846222, -0.01620656, 0.02720219, -0.02498274
 31205846, -0.009952634, -0.01477655, 0.02718827, -0.02499758, -0.008873559, -0.01688948, 0.02719497, -0.02499063
 31405766, -0.009625148, -0.01647754, 0.02718225, -0.02500447, -0.009952634, -0.01477655, 0.02718827, -0.02499758
 31606519, -0.01059037, -0.01178186, 0.02717639, -0.02501001, -0.009625148, -0.01647754, 0.02718225, -0.02500447
 31806439, -0.01340926, -0.01461383, 0.02717024, -0.02501775, -0.01059037, -0.01178186, 0.02717639, -0.02501001
 32006359, -0.009503754, -0.01313973, 0.02716277, -0.02502489, -0.01340926, -0.01461383, 0.02717024, -0.02501775
 32206279, -0.008257244, -0.01487617, 0.02715588, -0.02503255, -0.009503754, -0.01313973, 0.02716277, -0.02502489
 32406199, -0.01123557, -0.0156013, 0.0271497, -0.02503985, -0.008257244, -0.01487617, 0.02715588, -0.02503255
 32606119, -0.01045747, -0.01350943, 0.02714301, -0.02504652, -0.01123557, -0.0156013, 0.0271497, -0.02503985
 32806039, -0.01143677, -0.01317429, 0.02713666, -0.0250535, -0.01045747, -0.01350943, 0.02714301, -0.02504652
 33005959, -0.009225843, -0.01648654, 0.02713004, -0.02506106, -0.01143677, -0.01317429, 0.02713666, -0.0250535
 33205879, -0.01073152, -0.01470535, 0.02712377, -0.02506765, -0.009225843, -0.01648654, 0.02713004, -0.02506106
 33405799, -0.01189123, -0.01487327, 0.02711767, -0.02507447, -0.01073152, -0.01470535, 0.02712377, -0.02506765
 33606552, -0.009622555, -0.01464606, 0.02711135, -0.0250809, -0.01189123, -0.01487327, 0.02711767, -0.02507447
 33806472, -0.00995126, -0.01511415, 0.02710532, -0.02508756, -0.009622555, -0.01464606, 0.02711135, -0.0250809
 34006392, -0.01008125, -0.01368793, 0.02709928, -0.02509381, -0.00995126, -0.01511415, 0.02710532, -0.02508756
 34206312, -0.01168794, -0.0106611, 0.02709354, -0.02509972, -0.01008125, -0.01368793, 0.02709928, -0.02509381
 34406232, -0.01172297, -0.01533296, 0.02708775, -0.02510687, -0.01168794, -0.0106611, 0.02709354, -0.02509972
 34606152, -0.01068052, -0.01465487, 0.02708179, -0.02511297, -0.01172297, -0.01533296, 0.02708775, -0.02510687
 34806072, -0.009615766, -0.01291484, 0.02707582, -0.0251189, -0.01068052, -0.01465487, 0.02708179, -0.02511297
 35005992, -0.00889132, -0.01488889, 0.02707011, -0.02512535, -0.009615766, -0.01291484, 0.02707582, -0.0251189
 35205912, -0.0105315, -0.01416025, 0.02706473, -0.02513123, -0.00889132, -0.01488889, 0.02707011, -0.02512535
 35405832, -0.01082198, -0.01178991, 0.02705904, -0.02513695, -0.0105315, -0.01416025, 0.02706473, -0.02513123
 35606585, -0.009253501, -0.01344828, 0.02705339, -0.0251431, -0.01082198, -0.01178991, 0.02705904, -0.02513695
 35806505, -0.006858215, -0.01435174, 0.02704794, -0.02514887, -0.009253501, -0.01344828, 0.02705339, -0.0251431
 36006425, -0.009913548, -0.01264072, 0.02704282, -0.02515441, -0.006858215, -0.01435174, 0.02704794, -0.02514887
 36206345, -0.01342925, -0.01165845, 0.02703806, -0.02515995, -0.009913548, -0.01264072, 0.02704282, -0.02515441
 36406265, -0.01091001, -0.01039965, 0.02703235, -0.02516543, -0.01342925, -0.01165845, 0.02703806, -0.02515995
 36606185, -0.008251209, -0.01354088, 0.02702683, -0.02517153, -0.01091001, -0.01039965, 0.02703235, -0.02516543
 36806105, -0.008531831, -0.01451787, 0.02702172, -0.02517726, -0.008251209, -0.01354088, 0.02702683, -0.02517153
 37006025, -0.01060877, -0.01345926, 0.02701696, -0.02518243, -0.008531831, -0.01451787, 0.02702172, -0.02517726
 37205945, -0.01176959, -0.01481979, 0.02701226, -0.02518796, -0.01060877, -0.01345926, 0.02701696, -0.02518243
 37405865, -0.009410363, -0.01528323, 0.02700693, -0.0251934, -0.01176959, -0.01481979, 0.02701226, -0.02518796
 37605785, -0.01053707, -0.01331546, 0.0270022, -0.02519822, -0.009410363, -0.01528323, 0.02700693, -0.0251934
 37806538, -0.01127037, -0.01120296, 0.02699761, -0.02520289, -0.01053707, -0.01331546, 0.0270022, -0.02519822
 38006458, -0.01096742, -0.01280056, 0.02699271, -0.02520835, -0.01127037, -0.01120296, 0.02699761, -0.02520289
 38206378, -0.01313673, -0.01355963, 0.02698832, -0.02521359, -0.01096742, -0.01280056, 0.02699271, -0.02520835
 38406298, -0.009193816, -0.01295835, 0.02698299, -0.02521852, -0.01313673, -0.01355963, 0.02698832, -0.02521359
 38606218, -0.01226228, -0.01275254, 0.02697885, -0.02522339, -0.009193816, -0.01295835, 0.02698299, -0.02521852
 38806138, -0.01138534, -0.01508994, 0.02697419, -0.02522871, -0.01226228, -0.01275254, 0.02697885, -0.02522339
 39006058, -0.01043751, -0.0139324, 0.02696946, -0.02523336, -0.01138534, -0.01508994, 0.02697419, -0.02522871
 39205978, -0.01095108, -0.01509744, 0.02696513, -0.02523831, -0.01043751, -0.0139324, 0.02696946, -0.02523336
 39405898, -0.008794193, -0.01727476, 0.02696031, -0.02524366, -0.01095108, -0.01509744, 0.02696513, -0.02523831
 39605818, -0.010276, -0.01568591, 0.02695606, -0.02524803, -0.008794193, -0.01727476, 0.02696031, -0.02524366
 39806571, -0.01250885, -0.01400595, 0.02695223, -0.02525212, -0.010276, -0.01568591, 0.02695606, -0.02524803
 40006491, -0.01218162, -0.01508974, 0.02694809, -0.02525672, -0.01250885, -0.01400595, 0.02695223, -0.02525212
 40206411, -0.008092391, -0.01433818, 0.02694311, -0.02526126, -0.01218162, -0.01508974, 0.02694809, -0.02525672
 40406331, -0.01048819, -0.01500655, 0.02693924, -0.02526585, -0.008092391, -0.01433818, 0.02694311, -0.02526126
 40606251, -0.009488197, -0.01596822, 0.02693498, -0.02527047, -0.01048819, -0.01500655, 0.02693924, -0.02526585
 40806171, -0.009196592, -0.01383509, 0.02693084, -0.02527438, -0.009488197, -0.01596822, 0.02693498, -0.02527047
 41006091, -0.01214018, -0.01436391, 0.0269272, -0.02527882, -0.009196592, -0.01383509, 0.02693084, -0.02527438
 41206011, -0.008550229, -0.01544171, 0.02692269, -0.02528332, -0.01214018, -0.01436391, 0.0269272, -0.02527882
 41405931, -0.01201854, -0.01743866, 0.02691926, -0.02528796, -0.008550229, -0.01544171, 0.02692269, -0.02528332
 41605851, -0.008424726, -0.01355273, 0.02691461, -0.0252915, -0.01201854, -0.01743866, 0.02691926, -0.02528796
 41805771, -0.008601386, -0.01361686, 0.02691077, -0.02529561, -0.008424726, -0.01355273, 0.02691461, -0.0252915
 42006524, -0.007612292, -0.01593266, 0.02690698, -0.02530002, -0.008601386, -0.01361686, 0.02691077, -0.02529561
 42206444, -0.00975334, -0.01256039, 0.02690331, -0.0253035, -0.007612292, -0.01593266, 0.02690698, -0.02530002
 42406364, -0.009933647, -0.01118365, 0.02689941, -0.02530741, -0.00975334, -0.01256039, 0.02690331, -0.0253035
 42606284, -0.00754449, -0.01192006, 0.02689526, -0.02531165, -0.009933647, -0.01118365, 0.02689941, -0.02530741
 42806204, -0.01028052, -0.01268085, 0.02689176, -0.02531583, -0.00754449, -0.01192006, 0.02689526, -0.02531165
 43006124, -0.01081391, -0.01391048, 0.02688803, -0.02532012, -0.01028052, -0.01268085, 0.02689176, -0.02531583
 43206044, -0.01241591, -0.01043423, 0.0268844, -0.02532362, -0.01081391, -0.01391048, 0.02688803, -0.02532012
 43405964, -0.009829568, -0.01346226, 0.02688023, -0.02532815, -0.01241591, -0.01043423, 0.0268844, -0.02532362
 43605884, -0.01365132, -0.01189163, 0.02687699, -0.02533195, -0.009829568, -0.01346226, 0.02688023, -0.02532815
 43805804, -0.0139147, -0.01344096, 0.02687376, -0.02533571, -0.01365132, -0.01189163, 0.02687699, -0.02533195
 44006557, -0.01363084, -0.01531921, 0.02687056, -0.02533945, -0.0139147, -0.01344096, 0.02687376, -0.02533571
 44206477, -0.01063314, -0.0116634, 0.02686654, -0.02534245, -0.01363084, -0.01531921, 0.02687056, -0.02533945
 44406397, -0.01090298, -0.01332951, 0.02686303, -0.02534652, -0.01063314, -0.0116634, 0.02686654, -0.02534245
 44606317, -0.01193706, -0.01501465, 0.02685964, -0.02535064, -0.01090298, -0.01332951, 0.02686303, -0.02534652
 44806237, -0.01090696, -0.01448054, 0.02685593, -0.02535428, -0.01193706, -0.01501465, 0.02685964, -0.02535064
 45006157, -0.008361039, -0.01224781, 0.02685206, -0.02535758, -0.01090696, -0.01448054, 0.02685593, -0.02535428
 45206077, -0.008739977, -0.01062868, 0.0268486, -0.02536102, -0.008361039, -0.01224781, 0.02685206, -0.02535758
 45405997, -0.006535297, -0.01588152, 0.02684495, -0.02536565, -0.008739977, -0.01062868, 0.0268486, -0.02536102
 45605917, -0.008648903, -0.01519717, 0.02684175, -0.02536911, -0.006535297, -0.01588152, 0.02684495, -0.02536565
 45805837, -0.01096042, -0.01587063, 0.02683861, -0.0253729, -0.008648903, -0.01519717, 0.02684175, -0.02536911
 46006590, -0.01337452, -0.01285206, 0.02683555, -0.02537592, -0.01096042, -0.01587063, 0.02683861, -0.0253729
 46206510, -0.01204597, -0.01162835, 0.02683193, -0.02537926, -0.01337452, -0.01285206, 0.02683555, -0.02537592
 46406430, -0.01219535, -0.0118783, 0.02682838, -0.02538308, -0.01204597, -0.01162835, 0.02683193, -0.02537926
 46606350, -0.01449457, -0.0124094, 0.02724539, -0.02578447, -0.01219535, -0.0118783, 0.02682838, -0.02538308
 46806270, -0.01404508, -0.01473122, 0.03072232, -0.0290871, -0.01449457, -0.0124094, 0.02724539, -0.02578447
 47006190, -0.01727341, -0.02003802, 0.04029603, -0.03817329, -0.01404508, -0.01473122, 0.03072232, -0.0290871
 47206110, -0.02292546, -0.03134397, 0.05898066, -0.05590471, -0.01727341, -0.02003802, 0.04029603, -0.03817329
 47406030, -0.03502266, -0.05195077, 0.08748315, -0.08296609, -0.02292546, -0.03134397, 0.05898066, -0.05590471
 47605950, -0.0483951, -0.07431855, 0.1241723, -0.1178225, -0.03502266, -0.05195077, 0.08748315, -0.08296609
 47805870, -0.05215448, -0.09076782, 0.1635804, -0.1646626, -0.0483951, -0.07431855, 0.1241723, -0.1178225
 48005790, -0.07282374, -0.1049968, 0.2121706, -0.2134685, -0.05215448, -0.09076782, 0.1635804, -0.1646626
 48206543, -0.08407494, -0.1663428, 0.2675499, -0.2686519, -0.07282374, -0.1049968, 0.2121706, -0.2134685
 48406463, -0.09456449, -0.1969499, 0.3275139, -0.3281239, -0.08407494, -0.1663428, 0.2675499, -0.2686519
 48606383, 0.09858172, -0.3282715, 0.3916758, -0.3920294, -0.09456449, -0.1969499, 0.3275139, -0.3281239
 48806303, -0.2038396, 0.034591, 0.4588513, -0.4594744, 0.09858172, -0.3282715, 0.3916758, -0.3920294
 49006223, -0.1417442, -0.141671, 0.5256808, -0.5272936, -0.2038396, 0.034591, 0.4588513, -0.4594744
 49206143, 0.1552076, -0.1721915, 0.589908, -0.5925339, -0.1417442, -0.141671, 0.5256808, -0.5272936
 49406063, -0.1567436, -0.2722821, 0.6500815, -0.6529894, 0.1552076, -0.1721915, 0.589908, -0.5925339
 49605983, 0.250735, 0.3616671, 0.7068031, -0.7096515, -0.1567436, -0.2722821, 0.6500815, -0.6529894
 49805903, -0.03250112, -0.1608474, 0.7592975, -0.762041, 0.250735, 0.3616671, 0.7068031, -0.7096515
 50005823, 0.4195769, 0.2089923, 0.8076448, -0.8102657, -0.03250112, -0.1608474, 0.7592975, -0.762041
 50206576, -0.1109082, 0.3978345, 0.8523616, -0.8549089, 0.4195769, 0.2089923, 0.8076448, -0.8102657
 50406496, 0.3552855, 0.487912, 0.8918723, -0.8944946, -0.1109082, 0.3978345, 0.8523616, -0.8549089
 50606416, 0.4287107, 0.05193196, 0.9240941, -0.9266514, 0.3552855, 0.487912, 0.8918723, -0.8944946
 50806336, 0.0735491, 0.3362303, 0.9498234, -0.9522567, 0.4287107, 0.05193196, 0.9240941, -0.9266514
 51006256, -0.7209293, 0.4680482, 0.9697878, -0.9720858, 0.0735491, 0.3362303, 0.9498234, -0.9522567
 51206176, -0.5283287, -0.5084344, 0.9849558, -0.9870338, -0.7209293, 0.4680482, 0.9697878, -0.9720858
 51406096, 0.1793493, 0.2349742, 0.9962146, -0.9980046, -0.5283287, -0.5084344, 0.9849558, -0.9870338
 51606016, -0.07282612, -0.7952245, 1.007342, -1.00264, 0.1793493, 0.2349742, 0.9962146, -0.9980046
 51805936, 0.1456202, -0.6949705, 1.074479, -0.9424327, -0.07282612, -0.7952245, 1.007342, -1.00264
 52005856, -1.074484, 0.5431381, 1.234541, -0.7299502, 0.1456202, -0.6949705, 1.074479, -0.9424327
 52205776, -0.371053, -1.026993, 1.390774, -0.3647175, -1.074484, 0.5431381, 1.234541, -0.7299502
 52406529, -0.1603258, -0.1961901, 1.437083, 0.08429611, -0.371053, -1.026993, 1.390774, -0.3647175
 52606449, 0.5355697, -1.947654, 1.346127, 0.5120299, -0.1603258, -0.1961901, 1.437083, 0.08429611
 52806369, 1.300548, -0.4143302, 1.179567, 0.82627, 0.5355697, -1.947654, 1.346127, 0.5120299
 53006289, 2.325057, -0.4587417, 0.9942883, 1.041158, 1.300548, -0.4143302, 1.179567, 0.82627
 53206209, 2.596441, 0.6223427, 0.8118812, 1.187255, 2.325057, -0.4587417, 0.9942883, 1.041158
 53406129, 1.994757, 0.4055052, 0.6960068, 1.256318, 2.596441, 0.6223427, 0.8118812, 1.187255
 53606049, 3.438451, 0.9946133, 0.6948656, 1.25445, 1.994757, 0.4055052, 0.6960068, 1.256318
 53805969, 2.934302, 0.7465511, 0.7774231, 1.202212, 3.438451, 0.9946133, 0.6948656, 1.25445
 54005889, 3.744581, 0.454509, 0.8809347, 1.124609, 2.934302, 0.7465511, 0.7774231, 1.202212
 54205809, 4.074871, 0.6229421, 0.9517182, 1.060188, 3.744581, 0.454509, 0.8809347, 1.124609
 54406562, 4.191504, -0.4680566, 0.9713205, 1.037111, 4.074871, 0.6229421, 0.9517182, 1.060188
 54606482, 3.982524, -0.03572522, 0.9454454, 1.05437, 4.191504, -0.4680566, 0.9713205, 1.037111
 54806402, 5.368244, 0.7162426, 0.8980295, 1.088748, 3.982524, -0.03572522, 0.9454454, 1.05437
 55006322, 4.797738, 1.288944, 0.8542577, 1.116951, 5.368244, 0.7162426, 0.8980295, 1.088748
 55206242, 5.64763, 1.122287, 0.8318245, 1.126454, 4.797738, 1.288944, 0.8542577, 1.116951
 55406162, 5.637421, 1.541932, 0.8334119, 1.117573, 5.64763, 1.122287, 0.8318245, 1.126454
 55606082, 5.20265, 1.456821, 0.8490728, 1.098238, 5.637421, 1.541932, 0.8334119, 1.117573
 55806002, 6.443748, 0.2469905, 0.864898, 1.077142, 5.20265, 1.456821, 0.8490728, 1.098238
 56005922, 6.846878, 0.2296115, 0.8724355, 1.062621, 6.443748, 0.2469905, 0.864898, 1.077142
 56205842, 7.20679, 0.703658, 0.868712, 1.056354, 6.846878, 0.2296115, 0.8724355, 1.062621
 56405762, 6.503177, -0.07837749, 0.8574758, 1.056147, 7.20679, 0.703658, 0.868712, 1.056354
 56606515, 7.141701, 0.7882448, 0.8442252, 1.057527, 6.503177, -0.07837749, 0.8574758, 1.056147
 56806435, 6.594157, 0.6516433, 0.8337574, 1.056512, 7.141701, 0.7882448, 0.8442252, 1.057527
 57006355, 6.674678, 0.7060816, 0.8280001, 1.051121, 6.594157, 0.6516433, 0.8337574, 1.056512
 57206275, 6.684598, 0.7686175, 0.8253375, 1.043632, 6.674678, 0.7060816, 0.8280001, 1.051121
 57406195, 6.672702, 0.6605465, 0.8229276, 1.035667, 6.684598, 0.7686175, 0.8253375, 1.043632
 57606115, 6.587587, 0.5872504, 0.8194569, 1.028004, 6.672702, 0.6605465, 0.8229276, 1.035667
 57806035, 6.659371, 0.7139654, 0.8151993, 1.021834, 6.587587, 0.5872504, 0.8194569, 1.028004
 58005955, 6.64039, 0.6205354, 0.8099943, 1.01611, 6.659371, 0.7139654, 0.8151993, 1.021834
 58205875, 6.530431, 0.6366651, 0.804985, 1.010502, 6.64039, 0.6205354, 0.8099943, 1.01611
 58405795, 6.53274, 0.6372159, 0.800153, 1.004993, 6.530431, 0.6366651, 0.804985, 1.010502
 58606548, 6.522089, 0.6364479, 0.7948675, 1.000286, 6.53274, 0.6372159, 0.800153, 1.004993
 58806468, 6.406632, 0.7360801, 0.7920326, 0.998112, 6.522089, 0.6364479, 0.7948675, 1.000286
 59006388, 6.44014, 0.7166983, 0.7865806, 0.9932706, 6.406632, 0.7360801, 0.7920326, 0.998112
 59206308, 6.505319, 0.7558928, 0.7819923, 0.9877428, 6.44014, 0.7166983, 0.7865806, 0.9932706
 59406228, 6.406913, 0.6212151, 0.7785832, 0.9821416, 6.505319, 0.7558928, 0.7819923, 0.9877428
 59606148, 6.377353, 0.7702599, 0.7754129, 0.975264, 6.406913, 0.6212151, 0.7785832, 0.9821416
 59806068, 6.325825, 0.7392317, 0.7725172, 0.9687105, 6.377353, 0.7702599, 0.7754129, 0.975264
 60005988, 6.252227, 0.6242309, 0.7687788, 0.962324, 6.325825, 0.7392317, 0.7725172, 0.9687105
 60205908, 6.26833, 0.7074029, 0.7641748, 0.9569692, 6.252227, 0.6242309, 0.7687788, 0.962324
 60405828, 6.392519, 0.6024169, 0.7596344, 0.951488, 6.26833, 0.7074029, 0.7641748, 0.9569692
 60606581, 6.342095, 0.5582727, 0.75515, 0.9456792, 6.392519, 0.6024169, 0.7596344, 0.951488
 60806501, 6.324689, 0.5347056, 0.7511106, 0.9391894, 6.342095, 0.5582727, 0.75515, 0.9456792
 61006421, 6.218295, 0.5034263, 0.7468393, 0.9307337, 6.324689, 0.5347056, 0.7511106, 0.9391894
 61206341, 6.138677, 0.4930425, 0.7427179, 0.9245285, 6.218295, 0.5034263, 0.7468393, 0.9307337
 61406261, 6.069194, 0.5808664, 0.7368934, 0.9195286, 6.138677, 0.4930425, 0.7427179, 0.9245285
 61606181, 6.051845, 0.589465, 0.7298537, 0.914979, 6.069194, 0.5808664, 0.7368934, 0.9195286
 61806101, 6.082187, 0.6421402, 0.7237449, 0.9105798, 6.051845, 0.589465, 0.7298537, 0.914979
 62006021, 6.036423, 0.6642755, 0.7186486, 0.90503, 6.082187, 0.6421402, 0.7237449, 0.9105798
 62205941, 6.015816, 0.5455211, 0.7143928, 0.8981512, 6.036423, 0.6642755, 0.7186486, 0.90503
 62405861, 5.964228, 0.5449226, 0.7110345, 0.8913954, 6.015816, 0.5455211, 0.7143928, 0.8981512
 62605781, 5.949879, 0.6002981, 0.7072238, 0.8844061, 5.964228, 0.5449226, 0.7110345, 0.8913954
 62806534, 5.931447, 0.5729057, 0.7026253, 0.8771142, 5.949879, 0.6002981, 0.7072238, 0.8844061
 63006454, 5.876651, 0.6216865, 0.6974908, 0.8707487, 5.931447, 0.5729057, 0.7026253, 0.8771142
 63206374, 5.815711, 0.5689468, 0.6916245, 0.8644588, 5.876651, 0.6216865, 0.6974908, 0.8707487
 63406294, 5.789835, 0.5936312, 0.6855166, 0.857214, 5.815711, 0.5689468, 0.6916245, 0.8644588
 63606214, 5.729831, 0.5693657, 0.6799682, 0.8497466, 5.789835, 0.5936312, 0.6855166, 0.857214
 63806134, 5.733465, 0.4518221, 0.673811, 0.8427432, 5.729831, 0.5693657, 0.6799682, 0.8497466
 64006054, 5.743688, 0.5590835, 0.6664587, 0.8360811, 5.733465, 0.4518221, 0.673811, 0.8427432
 64205974, 5.62187, 0.545316, 0.6592191, 0.8295429, 5.743688, 0.5590835, 0.6664587, 0.8360811
 64405894, 5.61376, 0.6396858, 0.6526914, 0.8219427, 5.62187, 0.545316, 0.6592191, 0.8295429
 64605814, 5.645465, 0.6528436, 0.647687, 0.8137478, 5.61376, 0.6396858, 0.6526914, 0.8219427
 64806567, 5.683585, 0.5849019, 0.6429302, 0.8049972, 5.645465, 0.6528436, 0.647687, 0.8137478
 65006487, 5.578673, 0.6547191, 0.6384786, 0.7961628, 5.683585, 0.5849019, 0.6429302, 0.8049972
 65206407, 5.542427, 0.5369585, 0.6350473, 0.7876614, 5.578673, 0.6547191, 0.6384786, 0.7961628
 65406327, 5.517598, 0.537603, 0.6319832, 0.7782807, 5.542427, 0.5369585, 0.6350473, 0.7876614
 65606247, 5.442837, 0.5147765, 0.630153, 0.7691112, 5.517598, 0.537603, 0.6319832, 0.7782807
 65806167, 5.449671, 0.4501653, 0.6290696, 0.7596418, 5.442837, 0.5147765, 0.630153, 0.7691112
 66006087, 5.421349, 0.4733561, 0.6282496, 0.7506092, 5.449671, 0.4501653, 0.6290696, 0.7596418
 66206007, 5.390265, 0.4416834, 0.6274937, 0.7417997, 5.421349, 0.4733561, 0.6282496, 0.7506092
 66405927, 5.353273, 0.3282346, 0.627205, 0.7330852, 5.390265, 0.4416834, 0.6274937, 0.7417997
 66605847, 5.280666, 0.3457598, 0.6277009, 0.724417, 5.353273, 0.3282346, 0.627205, 0.7330852
 66805767, 5.317192, 0.3045977, 0.6290375, 0.7164605, 5.280666, 0.3457598, 0.6277009, 0.724417
 67006520, 5.289967, 0.3119592, 0.6308661, 0.7087772, 5.317192, 0.3045977, 0.6290375, 0.7164605
 67206440, 5.195041, 0.2073157, 0.632706, 0.7010718, 5.289967, 0.3119592, 0.6308661, 0.7087772
 67406360, 5.158915, 0.1910109, 0.6348144, 0.6944146, 5.195041, 0.2073157, 0.632706, 0.7010718
 67606280, 5.25965, 0.09818943, 0.636982, 0.6887255, 5.158915, 0.1910109, 0.6348144, 0.6944146
 67806200, 5.203039, 0.07876747, 0.6394412, 0.684361, 5.25965, 0.09818943, 0.636982, 0.6887255
 68006120, 5.208074, 0.04186063, 0.6406312, 0.6800498, 5.203039, 0.07876747, 0.6394412, 0.684361
 68206040, 5.17916, 0.06082425, 0.6421322, 0.6769635, 5.208074, 0.04186063, 0.6406312, 0.6800498
 68405960, 5.131208, 0.11112, 0.6439906, 0.6745387, 5.17916, 0.06082425, 0.6421322, 0.6769635
 68605880, 5.141747, 0.1421248, 0.646384, 0.6724337, 5.131208, 0.11112, 0.6439906, 0.6745387
 68805800, 5.166471, -0.03527477, 0.649232, 0.6700209, 5.141747, 0.1421248, 0.646384, 0.6724337
 69006553, 5.149348, -0.01349767, 0.6529915, 0.6678865, 5.166471, -0.03527477, 0.649232, 0.6700209
 69206473, 5.294044, -0.001949657, 0.6571494, 0.666504, 5.149348, -0.01349767, 0.6529915, 0.6678865
 69406393, 5.304856, -0.07147344, 0.6604308, 0.6651455, 5.294044, -0.001949657, 0.6571494, 0.666504
 69606313, 5.226644, 0.02408898, 0.6633263, 0.6647702, 5.304856, -0.07147344, 0.6604308, 0.6651455
 69806233, 5.211847, -0.003946946, 0.6655208, 0.6649911, 5.226644, 0.02408898, 0.6633263, 0.6647702
 70006153, 5.177435, -0.09437168, 0.6677706, 0.6655808, 5.211847, -0.003946946, 0.6655208, 0.6649911
 70206073, 5.156775, -0.0793359, 0.6696805, 0.6661379, 5.177435, -0.09437168, 0.6677706, 0.6655808
 70405993, 5.239584, -0.04597388, 0.6717807, 0.6670927, 5.156775, -0.0793359, 0.6696805, 0.6661379
 70605913, 5.259738, -0.1027219, 0.673619, 0.6685563, 5.239584, -0.04597388, 0.6717807, 0.6670927
 70805833, 5.153296, -0.09421699, 0.6747088, 0.6698517, 5.259738, -0.1027219, 0.673619, 0.6685563
 71006586, 5.199883, -0.03072807, 0.6760197, 0.6715682, 5.153296, -0.09421699, 0.6747088, 0.6698517
 71206506, 5.257366, -0.0420217, 0.6774796, 0.6734701, 5.199883, -0.03072807, 0.6760197, 0.6715682
 71406426, 5.296554, -0.04558228, 0.6786715, 0.67466, 5.257366, -0.0420217, 0.6774796, 0.6734701
 71606346, 5.254223, -0.06449161, 0.6801248, 0.675988, 5.296554, -0.04558228, 0.6786715, 0.67466
 71806266, 5.29338, -0.05600992, 0.6814286, 0.6771217, 5.254223, -0.06449161, 0.6801248, 0.675988
 72006186, 5.318592, -0.03361463, 0.6831471, 0.678754, 5.29338, -0.05600992, 0.6814286, 0.6771217
 72206106, 5.287746, -0.1051399, 0.6842685, 0.6798981, 5.318592, -0.03361463, 0.6831471, 0.678754
 72406026, 5.416635, -0.09177312, 0.6855502, 0.6813144, 5.287746, -0.1051399, 0.6842685, 0.6798981
 72605946, 5.30248, -0.008339956, 0.6864313, 0.6824361, 5.416635, -0.09177312, 0.6855502, 0.6813144
 72805866, 5.25735, -0.03754707, 0.6882095, 0.6843822, 5.30248, -0.008339956, 0.6864313, 0.6824361
 73005786, 5.31736, -0.04701789, 0.6891369, 0.6855147, 5.25735, -0.03754707, 0.6882095, 0.6843822
 73206539, 5.317014, -0.02705091, 0.689675, 0.6862602, 5.31736, -0.04701789, 0.6891369, 0.6855147
 73406459, 5.300769, -0.05202425, 0.6896152, 0.6862189, 5.317014, -0.02705091, 0.689675, 0.6862602
 73606379, 5.368067, -0.06143828, 0.6892003, 0.6857127, 5.300769, -0.05202425, 0.6896152, 0.6862189
 73806299, 5.377162, -0.007726673, 0.6888694, 0.68532, 5.368067, -0.06143828, 0.6892003, 0.6857127
 74006219, 5.366441, -0.02470262, 0.688395, 0.6851239, 5.377162, -0.007726673, 0.6888694, 0.68532
 74206139, 5.296644, -0.03066616, 0.6878738, 0.685055, 5.366441, -0.02470262, 0.688395, 0.6851239
 74406059, 5.265356, -0.03564334, 0.6874176, 0.6847686, 5.296644, -0.03066616, 0.6878738, 0.685055
 74605979, 5.258294, -0.1083107, 0.6861311, 0.6835287, 5.265356, -0.03564334, 0.6874176, 0.6847686
 74805899, 5.312206, -0.06960396, 0.6852939, 0.6827184, 5.258294, -0.1083107, 0.6861311, 0.6835287
 75005819, 5.300756, -0.009061595, 0.685051, 0.6821448, 5.312206, -0.06960396, 0.6852939, 0.6827184
 75206572, 5.329672, -0.006682733, 0.6845185, 0.6808144, 5.300756, -0.009061595, 0.685051, 0.6821448
 75406492, 5.218727, -0.1085643, 0.6838878, 0.6798847, 5.329672, -0.006682733, 0.6845185, 0.6808144
 75606412, 5.29534, -0.0225761, 0.6830245, 0.6792699, 5.218727, -0.1085643, 0.6838878, 0.6798847
 75806332, 5.3486, -0.02413919, 0.6815975, 0.6781313, 5.29534, -0.0225761, 0.6830245, 0.6792699
 76006252, 5.206574, -0.1300164, 0.6807521, 0.6773729, 5.3486, -0.02413919, 0.6815975, 0.6781313
 76206172, 5.220125, -0.08687025, 0.6802591, 0.676924, 5.206574, -0.1300164, 0.6807521, 0.6773729
 76406092, 5.258086, -0.06417958, 0.6799959, 0.6766907, 5.220125, -0.08687025, 0.6802591, 0.676924
 76606012, 5.284038, -0.02971346, 0.6788769, 0.6755174, 5.258086, -0.06417958, 0.6799959, 0.6766907
 76805932, 5.277187, -0.03538559, 0.6780909, 0.6744617, 5.284038, -0.02971346, 0.6788769, 0.6755174
 77005852, 5.310473, -0.05016038, 0.6775358, 0.6740496, 5.277187, -0.03538559, 0.6780909, 0.6744617
 77205772, 5.238103, -0.1280733, 0.6771374, 0.6738659, 5.310473, -0.05016038, 0.6775358, 0.6740496
 77406525, 5.246984, -0.08809531, 0.6762916, 0.673313, 5.238103, -0.1280733, 0.6771374, 0.6738659
 77606445, 5.197604, -0.0779102, 0.675606, 0.6722908, 5.246984, -0.08809531, 0.6762916, 0.673313
 77806365, 5.223588, -0.06583707, 0.6752558, 0.6714984, 5.197604, -0.0779102, 0.675606, 0.6722908
 78006285, 5.178604, -0.0546597, 0.6750215, 0.6710498, 5.223588, -0.06583707, 0.6752558, 0.6714984
 78206205, 5.24193, -0.1000051, 0.6738751, 0.6702151, 5.178604, -0.0546597, 0.6750215, 0.6710498
 78406125, 5.246006, -0.07316414, 0.6727741, 0.6697672, 5.24193, -0.1000051, 0.6738751, 0.6702151
 78606045, 5.227291, -0.02818727, 0.6721578, 0.6693296, 5.246006, -0.07316414, 0.6727741, 0.6697672
 78805965, 5.158484, -0.06656888, 0.6716624, 0.6689949, 5.227291, -0.02818727, 0.6721578, 0.6693296
 79005885, 5.22311, -0.09714192, 0.6708896, 0.6681266, 5.158484, -0.06656888, 0.6716624, 0.6689949
 79205805, 5.261046, -0.05507879, 0.6701445, 0.6671749, 5.22311, -0.09714192, 0.6708896, 0.6681266
 79406558, 5.160893, -0.0190211, 0.6697064, 0.6665638, 5.261046, -0.05507879, 0.6701445, 0.6671749
 79606478, 5.245633, -0.01664806, 0.6696053, 0.6663291, 5.160893, -0.0190211, 0.6697064, 0.6665638
 79806398, 5.233421, -0.06779382, 0.6684591, 0.664997, 5.245633, -0.01664806, 0.6696053, 0.6663291
 80006318, 5.265519, -0.1317157, 0.6679237, 0.6642945, 5.233421, -0.06779382, 0.6684591, 0.664997
 80206238, 5.241062, -0.08868191, 0.6674711, 0.6637729, 5.265519, -0.1317157, 0.6679237, 0.6642945
 80406158, 5.256877, -0.05562315, 0.6670246, 0.6634394, 5.241062, -0.08868191, 0.6674711, 0.6637729
 80606078, 5.207456, -0.0947028, 0.6660076, 0.6626202, 5.256877, -0.05562315, 0.6670246, 0.6634394
 80805998, 5.226174, -0.0350244, 0.6646907, 0.6614635, 5.207456, -0.0947028, 0.6660076, 0.6626202
 81005918, 5.188842, -0.01435104, 0.6638948, 0.6608011, 5.226174, -0.0350244, 0.6646907, 0.6614635
 81205838, 5.232624, -0.06386834, 0.6636639, 0.6604196, 5.188842, -0.01435104, 0.6638948, 0.6608011
 81406591, 5.153242, -0.048937, 0.663663, 0.6601208, 5.232624, -0.06386834, 0.6636639, 0.6604196
 81606511, 5.123773, -0.03006237, 0.6631506, 0.6595587, 5.153242, -0.048937, 0.663663, 0.6601208
 81806431, 5.105194, -0.06295519, 0.6617509, 0.6580644, 5.123773, -0.03006237, 0.6631506, 0.6595587
 82006351, 5.100484, -0.09354369, 0.6611536, 0.6574782, 5.105194, -0.06295519, 0.6617509, 0.6580644
 82206271, 5.044066, -0.05361175, 0.6605568, 0.6569739, 5.100484, -0.09354369, 0.6611536, 0.6574782
 82406191, 5.121336, -0.0006948551, 0.6600316, 0.6565593, 5.044066, -0.05361175, 0.6605568, 0.6569739
 82606111, 5.096866, -0.06782192, 0.6595195, 0.6558921, 5.121336, -0.0006948551, 0.6600316, 0.6565593
 82806031, 5.057044, -0.121092, 0.6585054, 0.6543064, 5.096866, -0.06782192, 0.6595195, 0.6558921
 83005951, 5.151522, -0.1440693, 0.6580589, 0.653455, 5.057044, -0.121092, 0.6585054, 0.6543064
 83205871, 5.135065, -0.1104216, 0.6568279, 0.6522327, 5.151522, -0.1440693, 0.6580589, 0.653455
 83405791, 5.100961, -0.05204365, 0.6551017, 0.6510041, 5.135065, -0.1104216, 0.6568279, 0.6522327
 83606544, 5.146071, -0.02804141, 0.6534845, 0.650183, 5.100961, -0.05204365, 0.6551017, 0.6510041
 83806464, 5.151665, -0.07771128, 0.6523047, 0.6495489, 5.146071, -0.02804141, 0.6534845, 0.650183
 84006384, 5.092868, -0.05178024, 0.6506498, 0.6477143, 5.151665, -0.07771128, 0.6523047, 0.6495489
 84206304, 5.185165, -0.03436741, 0.6489933, 0.6456399, 5.092868, -0.05178024, 0.6506498, 0.6477143
 84406224, 5.097958, -0.1062974, 0.647236, 0.6438046, 5.185165, -0.03436741, 0.6489933, 0.6456399
 84606144, 5.159966, -0.0996702, 0.6456382, 0.6422435, 5.097958, -0.1062974, 0.647236, 0.6438046
 84806064, 5.202869, -0.08913241, 0.644138, 0.640907, 5.159966, -0.0996702, 0.6456382, 0.6422435
 85005984, 5.213415, -0.02194273, 0.642546, 0.6396177, 5.202869, -0.08913241, 0.644138, 0.640907
 85205904, 5.232202, -0.05873458, 0.6412418, 0.6385928, 5.213415, -0.02194273, 0.642546, 0.6396177
 85405824, 5.137014, -0.09536914, 0.6394828, 0.6372222, 5.232202, -0.05873458, 0.6412418, 0.6385928
 85606577, 5.081925, -0.06967174, 0.637673, 0.6357738, 5.137014, -0.09536914, 0.6394828, 0.6372222
 85806497, 5.116724, -0.1045129, 0.6361458, 0.6345041, 5.081925, -0.06967174, 0.637673, 0.6357738
 86006417, 5.024122, -0.07419552, 0.6344487, 0.6329833, 5.116724, -0.1045129, 0.6361458, 0.6345041
 86206337, 4.97485, -0.079747, 0.6326213, 0.6311943, 5.024122, -0.07419552, 0.6344487, 0.6329833
 86406257, 4.886257, -0.1116197, 0.6313586, 0.629982, 4.97485, -0.079747, 0.6326213, 0.6311943
 86606177, 4.834229, -0.115494, 0.6304198, 0.6276442, 4.886257, -0.1116197, 0.6313586, 0.629982
 86806097, 4.774683, -0.06965663, 0.6326498, 0.6233365, 4.834229, -0.115494, 0.6304198, 0.6276442
 87006017, 4.582013, -0.1262743, 0.6396971, 0.6126553, 4.774683, -0.06965663, 0.6326498, 0.6233365
 87205937, 4.479163, -0.2040584, 0.6558189, 0.5937449, 4.582013, -0.1262743, 0.6396971, 0.6126553
 87405857, 4.374435, -0.4262937, 0.6807228, 0.562054, 4.479163, -0.2040584, 0.6558189, 0.5937449
 87605777, 4.227241, -0.7117548, 0.7156099, 0.5146775, 4.374435, -0.4262937, 0.6807228, 0.562054
 87806530, 4.074309, -1.102266, 0.7587776, 0.4458594, 4.227241, -0.7117548, 0.7156099, 0.5146775
 88006450, 3.79929, -1.467098, 0.8076568, 0.3472432, 4.074309, -1.102266, 0.7587776, 0.4458594
 88206370, 3.397896, -1.981404, 0.8502499, 0.218067, 3.79929, -1.467098, 0.8076568, 0.3472432
 88406290, 2.944247, -2.58335, 0.8753799, 0.05405056, 3.397896, -1.981404, 0.8502499, 0.218067
 88606210, 2.365919, -3.175609, 0.8656474, -0.1347907, 2.944247, -2.58335, 0.8753799, 0.05405056
 88806130, 1.63848, -3.601087, 0.813759, -0.3213583, 2.365919, -3.175609, 0.8656474, -0.1347907
 89006050, 0.847812, -3.936037, 0.7351562, -0.472945, 1.63848, -3.601087, 0.813759, -0.3213583
 89205970, 0.2710882, -3.999674, 0.6624751, -0.569937, 0.847812, -3.936037, 0.7351562, -0.472945
 89405890, -0.08391089, -4.113392, 0.6212804, -0.6129448, 0.2710882, -3.999674, 0.6624751, -0.569937
 89605810, -0.05258687, -4.140755, 0.6137042, -0.6193953, -0.08391089, -4.113392, 0.6212804, -0.6129448
 89806563, 0.05867204, -4.185209, 0.6235363, -0.6076038, -0.05258687, -4.140755, 0.6137042, -0.6193953
 90006483, 0.2347285, -4.28432, 0.6343713, -0.5948948, 0.05867204, -4.185209, 0.6235363, -0.6076038
 90206403, 1.046769, -4.791066, 0.6352443, -0.5915395, 0.2347285, -4.28432, 0.6343713, -0.5948948
 90406323, 0.429431, -5.548752, 0.6259494, -0.5989386, 1.046769, -4.791066, 0.6352443, -0.5915395
 90606243, 1.045605, -5.282166, 0.6116664, -0.6113805, 0.429431, -5.548752, 0.6259494, -0.5989386
 90806163, 0.3518869, -6.099319, 0.5995621, -0.6209354, 1.045605, -5.282166, 0.6116664, -0.6113805
 91006083, -0.2967106, -5.473397, 0.5943282, -0.6235743, 0.3518869, -6.099319, 0.5995621, -0.6209354
 91206003, -0.347847, -5.633207, 0.5955298, -0.6195735, -0.2967106, -5.473397, 0.5943282, -0.6235743
 91405923, -0.08777641, -6.143254, 0.6008549, -0.6126512, -0.347847, -5.633207, 0.5955298, -0.6195735
 91605843, 0.6434203, -7.039808, 0.6059031, -0.6058198, -0.08777641, -6.143254, 0.6008549, -0.6126512
 91805763, 0.1657706, -6.387281, 0.6077626, -0.6011084, 0.6434203, -7.039808, 0.6059031, -0.6058198
 92006516, 0.4635193, -7.385362, 0.6071698, -0.600164, 0.1657706, -6.387281, 0.6077626, -0.6011084
 92206436, 0.8291258, -7.09325, 0.6036749, -0.6004454, 0.4635193, -7.385362, 0.6071698, -0.600164
 92406356, 0.2388924, -6.781174, 0.6003572, -0.6016275, 0.8291258, -7.09325, 0.6036749, -0.6004454
 92606276, 0.165411, -7.255145, 0.5977623, -0.6018248, 0.2388924, -6.781174, 0.6003572, -0.6016275
 92806196, 0.14555, -7.79903, 0.5966225, -0.6009406, 0.165411, -7.255145, 0.5977623, -0.6018248
 93006116, -0.2593237, -7.010796, 0.596359, -0.5988897, 0.14555, -7.79903, 0.5966225, -0.6009406
 93206036, 0.3100447, -7.308178, 0.5966733, -0.5965392, -0.2593237, -7.010796, 0.596359, -0.5988897
 93405956, -0.2427534, -7.583497, 0.5967943, -0.5944067, 0.3100447, -7.308178, 0.5966733, -0.5965392
 93605876, 0.562443, -7.325946, 0.5952189, -0.5921977, -0.2427534, -7.583497, 0.5967943, -0.5944067
 93805796, 0.3694791, -7.297619, 0.5937814, -0.5912039, 0.562443, -7.325946, 0.5952189, -0.5921977
 94006549, -0.07208238, -7.810312, 0.592592, -0.5906428, 0.3694791, -7.297619, 0.5937814, -0.5912039
 94206469, 0.3474244, -7.185331, 0.591487, -0.5901737, -0.07208238, -7.810312, 0.592592, -0.5906428
 94406389, 0.07034472, -7.433454, 0.5904867, -0.5893291, 0.3474244, -7.185331, 0.591487, -0.5901737
 94606309, -0.113382, -7.106927, 0.588559, -0.587154, 0.07034472, -7.433454, 0.5904867, -0.5893291
 94806229, 0.4250582, -7.830276, 0.5875698, -0.5858291, -0.113382, -7.106927, 0.588559, -0.587154
 95006149, 0.3513556, -7.188709, 0.5865189, -0.5845199, 0.4250582, -7.830276, 0.5875698, -0.5858291
 95206069, 0.2981609, -7.866816, 0.5856019, -0.5833906, 0.3513556, -7.188709, 0.5865189, -0.5845199
 95405989, -0.06893135, -8.100505, 0.5844244, -0.5820325, 0.2981609, -7.866816, 0.5856019, -0.5833906
 95605909, 0.3544324, -8.054121, 0.5832658, -0.5813468, -0.06893135, -8.100505, 0.5844244, -0.5820325
 95805829, 0.01155748, -7.966625, 0.5821765, -0.5809175, 0.3544324, -8.054121, 0.5832658, -0.5813468
 96006582, -0.1513984, -7.38123, 0.5809165, -0.5800152, 0.01155748, -7.966625, 0.5821765, -0.5809175
 96206502, -0.1627445, -7.37459, 0.5803447, -0.5793297, -0.1513984, -7.38123, 0.5809165, -0.5800152
 96406422, 0.630563, -7.743741, 0.5788864, -0.5777729, -0.1627445, -7.37459, 0.5803447, -0.5793297
 96606342, -0.2299461, -7.899772, 0.577899, -0.5767809, 0.630563, -7.743741, 0.5788864, -0.5777729
 96806262, 0.3298012, -7.463703, 0.5766693, -0.5755311, -0.2299461, -7.899772, 0.577899, -0.5767809
 97006182, 0.2161853, -7.175735, 0.5758293, -0.574692, 0.3298012, -7.463703, 0.5766693, -0.5755311
 97206102, 0.6264458, -7.410915, 0.5743967, -0.5732041, 0.2161853, -7.175735, 0.5758293, -0.574692
 97406022, 0.03435379, -7.67036, 0.5734627, -0.5723504, 0.6264458, -7.410915, 0.5743967, -0.5732041
 97605942, 0.6125394, -7.846302, 0.572725, -0.5716753, 0.03435379, -7.67036, 0.5734627, -0.5723504
 97805862, -0.2325689, -7.49679, 0.5711349, -0.5702523, 0.6125394, -7.846302, 0.572725, -0.5716753
 98005782, 0.07070798, -7.582148, 0.5701184, -0.5694643, -0.2325689, -7.49679, 0.5711349, -0.5702523
 98206535, -0.01944171, -7.192125, 0.5688591, -0.5680954, 0.07070798, -7.582148, 0.5701184, -0.5694643
 98406455, 0.5080904, -7.901595, 0.5677733, -0.5670793, -0.01944171, -7.192125, 0.5688591, -0.5680954
 98606375, 0.4707781, -7.844929, 0.5663366, -0.5658416, 0.5080904, -7.901595, 0.5677733, -0.5670793
 98806295, 0.390318, -7.897291, 0.5653038, -0.5646876, 0.4707781, -7.844929, 0.5663366, -0.5658416
 99006215, 0.3951475, -7.82823, 0.5644174, -0.563652, 0.390318, -7.897291, 0.5653038, -0.5646876
 99206135, 0.450719, -7.809791, 0.5634142, -0.5625836, 0.3951475, -7.82823, 0.5644174, -0.563652
 99406055, 0.5142529, -7.83112, 0.5618693, -0.5611308, 0.450719, -7.809791, 0.5634142, -0.5625836
 99605975, 0.4993455, -7.854107, 0.5608395, -0.5607421, 0.5142529, -7.83112, 0.5618693, -0.5611308
 99805895, 0.4076516, -7.804022, 0.5589941, -0.5594745, 0.4993455, -7.854107, 0.5608395, -0.5607421
 100005815, 0.4355863, -7.799958, 0.5581118, -0.5588619, 0.4076516, -7.804022, 0.5589941, -0.5594745
 100206568, 0.4583138, -7.847433, 0.5567371, -0.5574408, 0.4355863, -7.799958, 0.5581118, -0.5588619
 100406488, 0.4651721, -7.780941, 0.5564501, -0.5569792, 0.4583138, -7.847433, 0.5567371, -0.5574408
 100606408, 0.4825121, -7.78196, 0.5563735, -0.5561811, 0.4651721, -7.780941, 0.5564501, -0.5569792
 100806328, 0.4245267, -7.794816, 0.555264, -0.5544557, 0.4825121, -7.78196, 0.5563735, -0.5561811
 101006248, 0.3805891, -7.717114, 0.5543971, -0.5535863, 0.4245267, -7.794816, 0.555264, -0.5544557
 101206168, 0.4142791, -7.753937, 0.5535828, -0.5531991, 0.3805891, -7.717114, 0.5543971, -0.5535863
 101406088, 0.4452615, -7.705571, 0.5517331, -0.5518068, 0.4142791, -7.753937, 0.5535828, -0.5531991
 101606008, 0.495366, -7.721899, 0.5507547, -0.5510963, 0.4452615, -7.705571, 0.5517331, -0.5518068
 101805928, 0.4452911, -7.757806, 0.5494286, -0.5494635, 0.495366, -7.721899, 0.5507547, -0.5510963
 102005848, 0.4051735, -7.671825, 0.5488217, -0.5482109, 0.4452911, -7.757806, 0.5494286, -0.5494635
 102205768, 0.4482639, -7.704996, 0.5476533, -0.5465152, 0.4051735, -7.671825, 0.5488217, -0.5482109
 102406521, 0.4378487, -7.717391, 0.5469466, -0.5454248, 0.4482639, -7.704996, 0.5476533, -0.5465152
 102606441, 0.4939436, -7.619843, 0.5448202, -0.5435498, 0.4378487, -7.717391, 0.5469466, -0.5454248
 102806361, 0.4340032, -7.607252, 0.5435635, -0.5430861, 0.4939436, -7.619843, 0.5448202, -0.5435498
 103006281, 0.4422651, -7.556898, 0.5417516, -0.5420436, 0.4340032, -7.607252, 0.5435635, -0.5430861
 103206201, 0.3389511, -7.61068, 0.5402686, -0.5411022, 0.4422651, -7.556898, 0.5417516, -0.5420436
 103406121, 0.3798993, -7.574353, 0.5398014, -0.5402322, 0.3389511, -7.61068, 0.5402686, -0.5411022
 103606041, 0.4320768, -7.549314, 0.5386407, -0.538441, 0.3798993, -7.574353, 0.5398014, -0.5402322
 103805961, 0.3809263, -7.578561, 0.5380975, -0.5375707, 0.4320768, -7.549314, 0.5386407, -0.538441
 104005881, 0.4066164, -7.561295, 0.5363685, -0.535887, 0.3809263, -7.578561, 0.5380975, -0.5375707
 104205801, 0.3691891, -7.545768, 0.5353777, -0.5349603, 0.4066164, -7.561295, 0.5363685, -0.535887
 104406554, 0.3764234, -7.49537, 0.5347584, -0.534379, 0.3691891, -7.545768, 0.5353777, -0.5349603
 104606474, 0.313772, -7.53679, 0.5347845, -0.5344428, 0.3764234, -7.49537, 0.5347584, -0.534379
 104806394, 0.3789074, -7.615026, 0.5356391, -0.5353118, 0.313772, -7.53679, 0.5347845, -0.5344428
 105006314, 0.4122098, -7.572484, 0.5353864, -0.5349136, 0.3789074, -7.615026, 0.5356391, -0.5353118
 105206234, 0.4410322, -7.533966, 0.5351931, -0.5344882, 0.4122098, -7.572484, 0.5353864, -0.5349136
 105406154, 0.4472177, -7.528052, 0.5357705, -0.5349596, 0.4410322, -7.533966, 0.5351931, -0.5344882
 105606074, 0.4920138, -7.608291, 0.5360788, -0.5355402, 0.4472177, -7.528052, 0.5357705, -0.5349596
 105805994, 0.4797718, -7.546446, 0.5360047, -0.535915, 0.4920138, -7.608291, 0.5360788, -0.5355402
 106005914, 0.4925118, -7.544879, 0.5361272, -0.5359622, 0.4797718, -7.546446, 0.5360047, -0.535915
 106205834, 0.4931652, -7.536334, 0.5364449, -0.5359887, 0.4925118, -7.544879, 0.5361272, -0.5359622
 106406587, 0.4725308, -7.584596, 0.5359842, -0.5355588, 0.4931652, -7.536334, 0.5364449, -0.5359887
 106606507, 0.4488504, -7.581095, 0.535367, -0.5351775, 0.4725308, -7.584596, 0.5359842, -0.5355588
 106806427, 0.3463776, -7.612383, 0.5353813, -0.5351906, 0.4488504, -7.581095, 0.535367, -0.5351775
 107006347, 0.3735294, -7.607564, 0.5357634, -0.535547, 0.3463776, -7.612383, 0.5353813, -0.5351906
 107206267, 0.40159, -7.590104, 0.5358616, -0.5356534, 0.3735294, -7.607564, 0.5357634, -0.535547
 107406187, 0.3478227, -7.568395, 0.5358719, -0.5357168, 0.40159, -7.590104, 0.5358616, -0.5356534
 107606107, 0.3648551, -7.601383, 0.5354998, -0.5354379, 0.3478227, -7.568395, 0.5358719, -0.5357168
 107806027, 0.3840277, -7.64237, 0.5353685, -0.5353163, 0.3648551, -7.601383, 0.5354998, -0.5354379
 108005947, 0.3991321, -7.620609, 0.5351653, -0.5351614, 0.3840277, -7.64237, 0.5353685, -0.5353163
 108205867, 0.4422195, -7.60047, 0.5352692, -0.5353231, 0.3991321, -7.620609, 0.5351653, -0.5351614
 108405787, 0.4563532, -7.62866, 0.5350969, -0.5351201, 0.4422195, -7.60047, 0.5352692, -0.5353231
 108606540, 0.3833456, -7.611303, 0.535059, -0.5350586, 0.4563532, -7.62866, 0.5350969, -0.5351201
 108806460, 0.3190702, -7.628904, 0.5347421, -0.5347016, 0.3833456, -7.611303, 0.535059, -0.5350586
 109006380, 0.3313163, -7.623505, 0.5348096, -0.5347989, 0.3190702, -7.628904, 0.5347421, -0.5347016
 109206300, 0.3429355, -7.522323, 0.5347592, -0.5348435, 0.3313163, -7.623505, 0.5348096, -0.5347989
 109406220, 0.4295905, -7.42241, 0.5344799, -0.5345771, 0.3429355, -7.522323, 0.5347592, -0.5348435
 109606140, 0.3855764, -7.388305, 0.5334037, -0.5346294, 0.4295905, -7.42241, 0.5344799, -0.5345771
 109806060, 0.3503098, -7.299301, 0.5308563, -0.5374483, 0.3855764, -7.388305, 0.5334037, -0.5346294
 110005980, 0.2726992, -7.206937, 0.523244, -0.5448623, 0.3503098, -7.299301, 0.5308563, -0.5374483
 110205900, 0.09111905, -7.107937, 0.5075341, -0.5585159, 0.2726992, -7.206937, 0.523244, -0.5448623
 110405820, -0.191116, -6.926335, 0.4816236, -0.5805782, 0.09111905, -7.107937, 0.5075341, -0.5585159
 110606573, -0.6696234, -6.766714, 0.4416817, -0.6105137, -0.191116, -6.926335, 0.4816236, -0.5805782
 110806493, -1.271888, -6.576522, 0.3835112, -0.6487825, -0.6696234, -6.766714, 0.4416817, -0.6105137
 111006413, -2.033695, -6.287072, 0.2987391, -0.6920758, -1.271888, -6.576522, 0.3835112, -0.6487825
 111206333, -3.000143, -5.786344, 0.1872433, -0.729964, -2.033695, -6.287072, 0.2987391, -0.6920758
 111406253, -3.992992, -5.096581, 0.04591459, -0.7521857, -3.000143, -5.786344, 0.1872433, -0.729964
 111606173, -4.941823, -4.131997, -0.1173604, -0.7440019, -3.992992, -5.096581, 0.04591459, -0.7521857
 111806093, -5.771629, -2.935129, -0.2765657, -0.7009278, -4.941823, -4.131997, -0.1173604, -0.7440019
 112006013, -6.308609, -1.776779, -0.4063016, -0.6344766, -5.771629, -2.935129, -0.2765657, -0.7009278
 112205933, -6.592244, -0.8321542, -0.4897919, -0.572506, -6.308609, -1.776779, -0.4063016, -0.6344766
 112405853, -6.68952, -0.4276627, -0.5269977, -0.5377738, -6.592244, -0.8321542, -0.4897919, -0.572506
 112605773, -6.694476, -0.4100104, -0.5330204, -0.5310631, -6.68952, -0.4276627, -0.5269977, -0.5377738
 112806526, -6.744431, -0.4789442, -0.523947, -0.5395552, -6.694476, -0.4100104, -0.5330204, -0.5310631
 113006446, -6.871115, -0.6062802, -0.5143443, -0.5488755, -6.744431, -0.4789442, -0.523947, -0.5395552
 113206366, -6.878407, -0.7035944, -0.5129136, -0.5495991, -6.871115, -0.6062802, -0.5143443, -0.5488755
 113406286, -6.998122, -0.6472617, -0.5205915, -0.5418971, -6.878407, -0.7035944, -0.5129136, -0.5495991
 113606206, -7.089156, -0.4192118, -0.5321543, -0.5300343, -6.998122, -0.6472617, -0.5205915, -0.5418971
 113806126, -7.114468, -0.3355702, -0.5411511, -0.5206087, -7.089156, -0.4192118, -0.5321543, -0.5300343
 114006046, -7.141845, -0.2829249, -0.5442207, -0.5173538, -7.114468, -0.3355702, -0.5411511, -0.5206087
 114205966, -7.182409, -0.3404843, -0.541364, -0.5198835, -7.141845, -0.2829249, -0.5442207, -0.5173538
 114405886, -7.277342, -0.4360129, -0.5354151, -0.5257673, -7.182409, -0.3404843, -0.541364, -0.5198835
 114605806, -7.289115, -0.488239, -0.5296385, -0.5313771, -7.277342, -0.4360129, -0.5354151, -0.5257673
 114806559, -7.309474, -0.4817995, -0.5263917, -0.5344299, -7.289115, -0.488239, -0.5296385, -0.5313771
 115006479, -7.309125, -0.5154989, -0.5264003, -0.5346197, -7.309474, -0.4817995, -0.5263917, -0.5344299
 115206399, -7.3696, -0.5249354, -0.5283854, -0.5330103, -7.309125, -0.5154989, -0.5264003, -0.5346197
 115406319, -7.40111, -0.3917865, -0.5304872, -0.5311577, -7.3696, -0.5249354, -0.5283854, -0.5330103
 115606239, -7.494468, -0.3827632, -0.5315326, -0.5297031, -7.40111, -0.3917865, -0.5304872, -0.5311577
 115806159, -7.444043, -0.3259524, -0.5318431, -0.5298648, -7.494468, -0.3827632, -0.5315326, -0.5297031
 116006079, -7.468844, -0.3367591, -0.5312019, -0.5310295, -7.444043, -0.3259524, -0.5318431, -0.5298648
 116205999, -7.546252, -0.3673852, -0.5303552, -0.5325887, -7.468844, -0.3367591, -0.5312019, -0.5310295
 116405919, -7.508932, -0.4467959, -0.5293565, -0.5337717, -7.546252, -0.3673852, -0.5303552, -0.5325887
 116605839, -7.435996, -0.4958453, -0.5287918, -0.5340164, -7.508932, -0.4467959, -0.5293565, -0.5337717
 116806592, -7.402023, -0.5053744, -0.529433, -0.5340725, -7.435996, -0.4958453, -0.5287918, -0.5340164
 117006512, -7.425416, -0.4850152, -0.5306858, -0.533969, -7.402023, -0.5053744, -0.529433, -0.5340725
 117206432, -7.497497, -0.3929384, -0.5319172, -0.5335619, -7.425416, -0.4850152, -0.5306858, -0.533969
 117406352, -7.451055, -0.4557207, -0.5328336, -0.5332917, -7.497497, -0.3929384, -0.5319172, -0.5335619
 117606272, -7.477131, -0.4751979, -0.5338299, -0.5341768, -7.451055, -0.4557207, -0.5328336, -0.5332917
 117806192, -7.455977, -0.4680218, -0.5342005, -0.5353772, -7.477131, -0.4751979, -0.5338299, -0.5341768
 118006112, -7.482147, -0.4081232, -0.534402, -0.535997, -7.455977, -0.4680218, -0.5342005, -0.5353772
 118206032, -7.522745, -0.463409, -0.5352721, -0.5366913, -7.482147, -0.4081232, -0.534402, -0.535997
 118405952, -7.554669, -0.4229757, -0.5364226, -0.5375046, -7.522745, -0.463409, -0.5352721, -0.5366913
 118605872, -7.604094, -0.4579642, -0.5372132, -0.5380023, -7.554669, -0.4229757, -0.5364226, -0.5375046
 118805792, -7.563786, -0.4085345, -0.5379394, -0.5387116, -7.604094, -0.4579642, -0.5372132, -0.5380023
 119006545, -7.613471, -0.4659594, -0.5391332, -0.5400186, -7.563786, -0.4085345, -0.5379394, -0.5387116
 119206465, -7.590473, -0.4475627, -0.5400232, -0.5406508, -7.613471, -0.4659594, -0.5391332, -0.5400186
 119406385, -7.534507, -0.3937597, -0.5408019, -0.5412724, -7.590473, -0.4475627, -0.5400232, -0.5406508
 119606305, -7.578406, -0.4518742, -0.5417702, -0.5423694, -7.534507, -0.3937597, -0.5408019, -0.5412724
 119806225, -7.585783, -0.451211, -0.5423831, -0.5431563, -7.578406, -0.4518742, -0.5417702, -0.5423694
 120006145, -7.557907, -0.4162678, -0.5434664, -0.5442507, -7.585783, -0.451211, -0.5423831, -0.5431563
 120206065, -7.561388, -0.4079561, -0.5440452, -0.5447724, -7.557907, -0.4162678, -0.5434664, -0.5442507
 120405985, -7.616055, -0.3541944, -0.5452321, -0.5459037, -7.561388, -0.4079561, -0.5440452, -0.5447724
 120605905, -7.642722, -0.4137452, -0.5461696, -0.5468945, -7.616055, -0.3541944, -0.5452321, -0.5459037
 120805825, -7.62222, -0.4645541, -0.5465648, -0.5476064, -7.642722, -0.4137452, -0.5461696, -0.5468945
 121006578, -7.649143, -0.4373215, -0.547594, -0.5488089, -7.62222, -0.4645541, -0.5465648, -0.5476064
 121206498, -7.686861, -0.429535, -0.5485365, -0.549686, -7.649143, -0.4373215, -0.547594, -0.5488089
 121406418, -7.682089, -0.4521248, -0.5490428, -0.5501046, -7.686861, -0.429535, -0.5485365, -0.549686
 121606338, -7.733824, -0.4483452, -0.5497192, -0.5507448, -7.682089, -0.4521248, -0.5490428, -0.5501046
 121806258, -7.71371, -0.4293947, -0.5508059, -0.5520224, -7.733824, -0.4483452, -0.5497192, -0.5507448
 122006178, -7.713016, -0.4444855, -0.5513391, -0.552616, -7.71371, -0.4293947, -0.5508059, -0.5520224
 122206098, -7.735814, -0.4106077, -0.5526646, -0.554013, -7.713016, -0.4444855, -0.5513391, -0.552616
 122406018, -7.753787, -0.480128, -0.5534292, -0.5545121, -7.735814, -0.4106077, -0.5526646, -0.554013
 122605938, -7.749615, -0.5124267, -0.5544557, -0.5552428, -7.753787, -0.480128, -0.5534292, -0.5545121
 122805858, -7.67756, -0.4205553, -0.5554765, -0.5560719, -7.749615, -0.5124267, -0.5544557, -0.5552428
 123005778, -7.746926, -0.394488, -0.5559334, -0.5565998, -7.67756, -0.4205553, -0.5554765, -0.5560719
 123206531, -7.778888, -0.4291365, -0.5569625, -0.5577424, -7.746926, -0.394488, -0.5559334, -0.5565998
 123406451, -7.730057, -0.4532, -0.5576173, -0.558681, -7.778888, -0.4291365, -0.5569625, -0.5577424
 123606371, -7.75448, -0.4702682, -0.5585229, -0.5597185, -7.730057, -0.4532, -0.5576173, -0.558681
 123806291, -7.746336, -0.4874274, -0.5596511, -0.5607264, -7.75448, -0.4702682, -0.5585229, -0.5597185
 124006211, -7.809011, -0.4981393, -0.5604043, -0.5610549, -7.746336, -0.4874274, -0.5596511, -0.5607264
