TimeUS,gprLat,gprLng,gprAlt,gprGC,gpGC,gprN,gprE,gprD
 44513854, -353629387, 1491650884, 990139266, 0, 0, 0, 0, 0
 44533846, -353629387, 1491650884, 991366454, 0, 0, 0, 0, 0
 44553838, -353629387, 1491650884, 992480633, 0, 0, 0, 0, 0
 44573830, -353629387, 1491650884, 993655910, 0, 0, 0, 0, 0
 44593822, -353629387, 1491650884, 994551991, 0, 0, 0, 0, 0
 44613814, -353629387, 1491650884, 995874475, 0, 0, 0, 0, 0
 44633806, -353629353, 1491649981, 997276985, 0, 0, 0, 0, 0
 44653798, -353629353, 1491649981, 998539496, 0, 0, 0, 0, 0
 44673790, -353629353, 1491649981, 999118543, 0, 0, 0, 0, 0
 44693782, -353629353, 1491649981, 999994309, 0, 0, 0, 0, 0
 44713774, -353629353, 1491649981, -1128220680, 0, 0, 0, 0, 0
 44733766, -353629353, 1491649981, -1128335169, 0, 0, 0, 0, 0
 44753758, -353629353, 1491649981, -1128472571, 0, 0, 0, 0, 0
 44773750, -353629353, 1491649981, -1128667318, 0, 0, 0, 0, 0
 44793742, -353629353, 1491649981, -1128804127, 0, 0, 0, 0, 0
 44813734, -353629353, 1491649981, -1128930673, 0, 0, 0, 0, 0
 44833726, -353629296, 1491650915, -1129120930, 0, 0, 0, 0, 0
 44853718, -353629296, 1491650915, -1129301164, 0, 0, 0, 0, 0
 44873710, -353629296, 1491650915, -1129431173, 0, 0, 0, 0, 0
 44893702, -353629296, 1491650915, -1129592048, 0, 0, 0, 0, 0
 44913694, -353629296, 1491650915, -1137277138, 0, 0, 0, 0, 0
 44933686, -353629296, 1491650915, -1137648605, 0, 0, 0, 0, 0
 44953678, -353629296, 1491650915, -1137982058, 0, 0, 0, 0, 0
 44973670, -353629296, 1491650915, -1138225406, 0, 0, 0, 0, 0
 44993662, -353629296, 1491650915, -1138498321, 0, 0, 0, 0, 0
 45013654, -353629296, 1491650915, -1138732702, 0, 0, 0, 0, 0
 45033646, -353629454, 1491650594, -1139009282, 0, 0, 0, 0, 0
 45053638, -353629454, 1491650594, -1139351342, 0, 0, 0, 0, 0
 45073630, -353629454, 1491650594, -1139717150, 0, 0, 0, 0, 0
 45093622, -353629454, 1491650594, -1140012141, 0, 0, 0, 0, 0
 45113614, -353629454, 1491650594, -1136085304, 0, 0, 0, 0, 0
 45133606, -353629454, 1491650594, -1136420960, 0, 0, 0, 0, 0
 45153598, -353629454, 1491650594, -1136769009, 0, 0, 0, 0, 0
 45173590, -353629454, 1491650594, -1137074675, 0, 0, 0, 0, 0
 45193582, -353629454, 1491650594, -1137320338, 0, 0, 0, 0, 0
 45213574, -353629454, 1491650594, -1137612650, 0, 0, 0, 0, 0
 45233566, -353629440, 1491650715, -1137998269, 0, 0, 0, 0, 0
 45253558, -353629440, 1491650715, -1138286524, 0, 0, 0, 0, 0
 45273550, -353629440, 1491650715, -1138638738, 0, 0, 0, 0, 0
 45293542, -353629440, 1491650715, -1138970684, 0, 0, 0, 0, 0
 45313534, -353629440, 1491650715, -1140097512, 0, 0, 0, 0, 0
 45333526, -353629440, 1491650715, -1140368708, 0, 0, 0, 0, 0
 45353518, -353629440, 1491650715, -1140671634, 0, 0, 0, 0, 0
 45373510, -353629440, 1491650715, -1141175258, 0, 0, 0, 0, 0
 45393502, -353629440, 1491650715, -1141944532, 0, 0, 0, 0, 0
 45413494, -353629440, 1491650715, -1142750718, 0, 0, 0, 0, 0
 45433486, -353629956, 1491650023, -1143553348, 0, 0, 0, 0, 0
 45453478, -353629956, 1491650023, -1144347212, 0, 0, 0, 0, 0
 45474303, -353629956, 1491650023, -1144769179, 0, 0, 0, 0, 0
 45494295, -353629956, 1491650023, -1145617465, 0, 0, 0, 0, 0
 45514287, -353629956, 1491650023, -1125268540, 0, 0, 0, 0, 0
 45534279, -353629956, 1491650023, -1125435483, 0, 0, 0, 0, 0
 45554271, -353629956, 1491650023, -1125596116, 0, 0, 0, 0, 0
 45574263, -353629956, 1491650023, -1125406965, 0, 0, 0, 0, 0
 45594255, -353629956, 1491650023, -1124624172, 0, 0, 0, 0, 0
 45614247, -353629956, 1491650023, -1123733991, 0, 0, 0, 0, 0
 45634239, -353629130, 1491650941, -1122926258, 354.0171, 354.0171, 0.115, -0.012, 0
 45654231, -353629130, 1491650941, -1121883915, 354.0171, 354.0171, 0.115, -0.012, 0
 45674223, -353629130, 1491650941, -1120626377, 354.0171, 354.0171, 0.115, -0.012, 0
 45694215, -353629130, 1491650941, -1119239250, 354.0171, 354.0171, 0.115, -0.012, 0
 45714207, -353629130, 1491650941, -1122243653, 354.0171, 354.0171, 0.115, -0.012, 0
 45734199, -353629130, 1491650941, -1120751724, 354.0171, 354.0171, 0.115, -0.012, 0
 45754191, -353629130, 1491650941, -1119180793, 354.0171, 354.0171, 0.115, -0.012, 0
 45774183, -353629130, 1491650941, -1117505818, 354.0171, 354.0171, 0.115, -0.012, 0
 45794175, -353629130, 1491650941, -1115831761, 354.0171, 354.0171, 0.115, -0.012, 0
 45814167, -353629130, 1491650941, -1114816939, 354.0171, 354.0171, 0.115, -0.012, 0
 45834159, -353629424, 1491650837, -1113922248, 354.0521, 354.0521, 0.708, -0.07300001, 0.006
 45854151, -353629424, 1491650837, -1112994836, 354.0521, 354.0521, 0.708, -0.07300001, 0.006
 45874143, -353629424, 1491650837, -1111995200, 354.0521, 354.0521, 0.708, -0.07300001, 0.006
 45894135, -353629424, 1491650837, -1110912840, 354.0521, 354.0521, 0.708, -0.07300001, 0.006
 45914127, -353629424, 1491650837, -1111376346, 354.0521, 354.0521, 0.708, -0.07300001, 0.006
 45934119, -353629424, 1491650837, -1110403389, 354.0521, 354.0521, 0.708, -0.07300001, 0.006
 45954111, -353629424, 1491650837, -1109442158, 354.0521, 354.0521, 0.708, -0.07300001, 0.006
 45974103, -353629424, 1491650837, -1108463640, 354.0521, 354.0521, 0.708, -0.07300001, 0.006
 45994095, -353629424, 1491650837, -1107562106, 354.0521, 354.0521, 0.708, -0.07300001, 0.006
 46014087, -353629424, 1491650837, -1106941641, 354.0521, 354.0521, 0.708, -0.07300001, 0.006
 46034079, -353629296, 1491650797, -1106453687, 354.0151, 354.0151, 1.425, -0.149, 0.027
 46054071, -353629296, 1491650797, -1105961389, 354.0151, 354.0151, 1.425, -0.149, 0.027
 46074063, -353629296, 1491650797, -1105475380, 354.0151, 354.0151, 1.425, -0.149, 0.027
 46094055, -353629296, 1491650797, -1104952806, 354.0151, 354.0151, 1.425, -0.149, 0.027
 46114047, -353629296, 1491650797, -1104913451, 354.0151, 354.0151, 1.425, -0.149, 0.027
 46134039, -353629296, 1491650797, -1104456747, 354.0151, 354.0151, 1.425, -0.149, 0.027
 46154031, -353629296, 1491650797, -1103966167, 354.0151, 354.0151, 1.425, -0.149, 0.027
 46174023, -353629296, 1491650797, -1103503756, 354.0151, 354.0151, 1.425, -0.149, 0.027
 46194015, -353629296, 1491650797, -1103064741, 354.0151, 354.0151, 1.425, -0.149, 0.027
 46214007, -353629296, 1491650797, -1102582282, 354.0151, 354.0151, 1.425, -0.149, 0.027
 46233999, -353629135, 1491651271, -1102098473, 354.0239, 354.0239, 2.131, -0.223, 0.048
 46253991, -353629135, 1491651271, -1101618813, 354.0239, 354.0239, 2.131, -0.223, 0.048
 46273983, -353629135, 1491651271, -1101169273, 354.0239, 354.0239, 2.131, -0.223, 0.048
 46293975, -353629135, 1491651271, -1100714035, 354.0239, 354.0239, 2.131, -0.223, 0.048
 46313967, -353629135, 1491651271, -1101895762, 354.0239, 354.0239, 2.131, -0.223, 0.048
 46333959, -353629135, 1491651271, -1101466435, 354.0239, 354.0239, 2.131, -0.223, 0.048
 46353951, -353629135, 1491651271, -1101056698, 354.0239, 354.0239, 2.131, -0.223, 0.048
 46373943, -353629135, 1491651271, -1100580416, 354.0239, 354.0239, 2.131, -0.223, 0.048
 46393935, -353629135, 1491651271, -1100166547, 354.0239, 354.0239, 2.131, -0.223, 0.048
 46413927, -353629135, 1491651271, -1099727786, 354.0239, 354.0239, 2.131, -0.223, 0.048
 46433919, -353629451, 1491650185, -1099312829, 354.0393, 354.0393, 2.795, -0.291, 0.066
 46453911, -353629451, 1491650185, -1098931363, 354.0393, 354.0393, 2.795, -0.291, 0.066
 46473903, -353629451, 1491650185, -1098701978, 354.0393, 354.0393, 2.795, -0.291, 0.066
 46493895, -353629451, 1491650185, -1098483479, 354.0393, 354.0393, 2.795, -0.291, 0.066
 46513887, -353629451, 1491650185, -1097336189, 354.0393, 354.0393, 2.795, -0.291, 0.066
 46533879, -353629451, 1491650185, -1097123894, 354.0393, 354.0393, 2.795, -0.291, 0.066
 46553871, -353629451, 1491650185, -1096909011, 354.0393, 354.0393, 2.795, -0.291, 0.066
 46573863, -353629451, 1491650185, -1096701632, 354.0393, 354.0393, 2.795, -0.291, 0.066
 46593855, -353629451, 1491650185, -1096494587, 354.0393, 354.0393, 2.795, -0.291, 0.066
 46613847, -353629451, 1491650185, -1096295360, 354.0393, 354.0393, 2.795, -0.291, 0.066
 46633839, -353629048, 1491651070, -1096104540, 354.0176, 354.0176, 3.412, -0.357, 0.083
 46653831, -353629048, 1491651070, -1095901223, 354.0176, 354.0176, 3.412, -0.357, 0.083
 46673823, -353629048, 1491651070, -1095712091, 354.0176, 354.0176, 3.412, -0.357, 0.083
 46693815, -353629048, 1491651070, -1095516037, 354.0176, 354.0176, 3.412, -0.357, 0.083
 46713807, -353629048, 1491651070, -1095895926, 354.0176, 354.0176, 3.412, -0.357, 0.083
 46733799, -353629048, 1491651070, -1095704410, 354.0176, 354.0176, 3.412, -0.357, 0.083
 46753791, -353629048, 1491651070, -1095509948, 354.0176, 354.0176, 3.412, -0.357, 0.083
 46773783, -353629048, 1491651070, -1095340646, 354.0176, 354.0176, 3.412, -0.357, 0.083
 46793775, -353629048, 1491651070, -1095137494, 354.0176, 354.0176, 3.412, -0.357, 0.083
 46813767, -353629048, 1491651070, -1094974888, 354.0176, 354.0176, 3.412, -0.357, 0.083
 46833759, -353629104, 1491650849, -1094819496, 354.039, 354.039, 3.982, -0.415, 0.09900001
 46853751, -353629104, 1491650849, -1094622676, 354.039, 354.039, 3.982, -0.415, 0.09900001
 46873743, -353629104, 1491650849, -1094441802, 354.039, 354.039, 3.982, -0.415, 0.09900001
 46893735, -353629104, 1491650849, -1094261447, 354.039, 354.039, 3.982, -0.415, 0.09900001
 46913727, -353629104, 1491650849, -1094170844, 354.039, 354.039, 3.982, -0.415, 0.09900001
 46933719, -353629104, 1491650849, -1093972926, 354.039, 354.039, 3.982, -0.415, 0.09900001
 46953711, -353629104, 1491650849, -1093819550, 354.039, 354.039, 3.982, -0.415, 0.09900001
 46973703, -353629104, 1491650849, -1093637955, 354.039, 354.039, 3.982, -0.415, 0.09900001
 46993695, -353629104, 1491650849, -1093470661, 354.039, 354.039, 3.982, -0.415, 0.09900001
 47013687, -353629104, 1491650849, -1093267058, 354.039, 354.039, 3.982, -0.415, 0.09900001
 47033679, -353629068, 1491650798, -1093087776, 353.9998, 353.9998, 4.504, -0.473, 0.114
 47053671, -353629068, 1491650798, -1092920555, 353.9998, 353.9998, 4.504, -0.473, 0.114
 47073663, -353629068, 1491650798, -1092777101, 353.9998, 353.9998, 4.504, -0.473, 0.114
 47093655, -353629068, 1491650798, -1092624878, 353.9998, 353.9998, 4.504, -0.473, 0.114
 47113647, -353629068, 1491650798, -1092399039, 353.9998, 353.9998, 4.504, -0.473, 0.114
 47133639, -353629068, 1491650798, -1092225394, 353.9998, 353.9998, 4.504, -0.473, 0.114
 47153631, -353629068, 1491650798, -1092067094, 353.9998, 353.9998, 4.504, -0.473, 0.114
 47173623, -353629068, 1491650798, -1091916743, 353.9998, 353.9998, 4.504, -0.473, 0.114
 47193615, -353629068, 1491650798, -1091758172, 353.9998, 353.9998, 4.504, -0.473, 0.114
 47213607, -353629068, 1491650798, -1091602626, 353.9998, 353.9998, 4.504, -0.473, 0.114
 47233599, -353629554, 1491650778, -1091448455, 354.0059, 354.0059, 4.985, -0.523, 0.128
 47253591, -353629554, 1491650778, -1091304532, 354.0059, 354.0059, 4.985, -0.523, 0.128
 47273583, -353629554, 1491650778, -1091182253, 354.0059, 354.0059, 4.985, -0.523, 0.128
 47293575, -353629554, 1491650778, -1091033633, 354.0059, 354.0059, 4.985, -0.523, 0.128
 47313567, -353629554, 1491650778, -1090818755, 354.0059, 354.0059, 4.985, -0.523, 0.128
 47333559, -353629554, 1491650778, -1090684288, 354.0059, 354.0059, 4.985, -0.523, 0.128
 47353551, -353629554, 1491650778, -1090524195, 354.0059, 354.0059, 4.985, -0.523, 0.128
 47373543, -353629554, 1491650778, -1090438870, 354.0059, 354.0059, 4.985, -0.523, 0.128
 47393535, -353629554, 1491650778, -1090357707, 354.0059, 354.0059, 4.985, -0.523, 0.128
 47413527, -353629554, 1491650778, -1090282003, 354.0059, 354.0059, 4.985, -0.523, 0.128
 47433519, -353628766, 1491650934, -1090219908, 354.002, 354.002, 5.421, -0.569, 0.141
 47453511, -353628766, 1491650934, -1090155234, 354.002, 354.002, 5.421, -0.569, 0.141
 47473503, -353628766, 1491650934, -1090096528, 354.002, 354.002, 5.421, -0.569, 0.141
 47493495, -353628766, 1491650934, -1090034791, 354.002, 354.002, 5.421, -0.569, 0.141
 47513487, -353628766, 1491650934, -1090061717, 354.002, 354.002, 5.421, -0.569, 0.141
 47533479, -353628766, 1491650934, -1090000959, 354.002, 354.002, 5.421, -0.569, 0.141
 47554304, -353628766, 1491650934, -1089941034, 354.002, 354.002, 5.421, -0.569, 0.141
 47574296, -353628766, 1491650934, -1089878141, 354.002, 354.002, 5.421, -0.569, 0.141
 47594288, -353628766, 1491650934, -1089808834, 354.002, 354.002, 5.421, -0.569, 0.141
 47614280, -353628766, 1491650934, -1089732511, 354.002, 354.002, 5.421, -0.569, 0.141
 47634272, -353628487, 1491650579, -1089683103, 353.9982, 353.9982, 5.819, -0.611, 0.152
 47654264, -353628487, 1491650579, -1089617415, 353.9982, 353.9982, 5.819, -0.611, 0.152
 47674256, -353628487, 1491650579, -1089555080, 353.9982, 353.9982, 5.819, -0.611, 0.152
 47694248, -353628487, 1491650579, -1089498689, 353.9982, 353.9982, 5.819, -0.611, 0.152
 47714240, -353628487, 1491650579, -1089198367, 353.9982, 353.9982, 5.819, -0.611, 0.152
 47734232, -353628487, 1491650579, -1089150932, 353.9982, 353.9982, 5.819, -0.611, 0.152
 47754224, -353628487, 1491650579, -1089098782, 353.9982, 353.9982, 5.819, -0.611, 0.152
 47774216, -353628487, 1491650579, -1089037184, 353.9982, 353.9982, 5.819, -0.611, 0.152
 47794208, -353628487, 1491650579, -1088974246, 353.9982, 353.9982, 5.819, -0.611, 0.152
 47814200, -353628487, 1491650579, -1088905472, 353.9982, 353.9982, 5.819, -0.611, 0.152
 47834192, -353628462, 1491650509, -1088854586, 353.9908, 353.9908, 6.181, -0.65, 0.163
 47854184, -353628462, 1491650509, -1088808401, 353.9908, 353.9908, 6.181, -0.65, 0.163
 47874176, -353628462, 1491650509, -1088744076, 353.9908, 353.9908, 6.181, -0.65, 0.163
 47894168, -353628462, 1491650509, -1088692916, 353.9908, 353.9908, 6.181, -0.65, 0.163
 47914160, -353628462, 1491650509, -1088381531, 353.9908, 353.9908, 6.181, -0.65, 0.163
 47934152, -353628462, 1491650509, -1088324183, 353.9908, 353.9908, 6.181, -0.65, 0.163
 47954144, -353628462, 1491650509, -1088264337, 353.9908, 353.9908, 6.181, -0.65, 0.163
 47974136, -353628462, 1491650509, -1088185858, 353.9908, 353.9908, 6.181, -0.65, 0.163
 47994128, -353628462, 1491650509, -1088108486, 353.9908, 353.9908, 6.181, -0.65, 0.163
 48014120, -353628462, 1491650509, -1087996760, 353.9908, 353.9908, 6.181, -0.65, 0.163
 48034112, -353628456, 1491651465, -1087865794, 353.9811, 353.9811, 6.665, -0.702, 0.173
 48054104, -353628456, 1491651465, -1087722806, 353.9811, 353.9811, 6.665, -0.702, 0.173
 48074096, -353628456, 1491651465, -1087580992, 353.9811, 353.9811, 6.665, -0.702, 0.173
 48094088, -353628456, 1491651465, -1087453540, 353.9811, 353.9811, 6.665, -0.702, 0.173
 48114080, -353628456, 1491651465, -1088032889, 353.9811, 353.9811, 6.665, -0.702, 0.173
 48134072, -353628456, 1491651465, -1087884600, 353.9811, 353.9811, 6.665, -0.702, 0.173
 48154064, -353628456, 1491651465, -1087714630, 353.9811, 353.9811, 6.665, -0.702, 0.173
 48174056, -353628456, 1491651465, -1087538388, 353.9811, 353.9811, 6.665, -0.702, 0.173
 48194048, -353628456, 1491651465, -1087325965, 353.9811, 353.9811, 6.665, -0.702, 0.173
 48214040, -353628456, 1491651465, -1087134613, 353.9811, 353.9811, 6.665, -0.702, 0.173
 48234032, -353628469, 1491650508, -1086919817, 353.9204, 353.9204, 7.556, -0.804, 0.191
 48254024, -353628469, 1491650508, -1086721105, 353.9204, 353.9204, 7.556, -0.804, 0.191
 48274016, -353628469, 1491650508, -1086522616, 353.9204, 353.9204, 7.556, -0.804, 0.191
 48294008, -353628469, 1491650508, -1086338820, 353.9204, 353.9204, 7.556, -0.804, 0.191
 48314000, -353628469, 1491650508, -1085835421, 353.9204, 353.9204, 7.556, -0.804, 0.191
 48333992, -353628469, 1491650508, -1085662820, 353.9204, 353.9204, 7.556, -0.804, 0.191
 48353984, -353628469, 1491650508, -1085490419, 353.9204, 353.9204, 7.556, -0.804, 0.191
 48373976, -353628469, 1491650508, -1085302494, 353.9204, 353.9204, 7.556, -0.804, 0.191
 48393968, -353628469, 1491650508, -1085130536, 353.9204, 353.9204, 7.556, -0.804, 0.191
 48413960, -353628469, 1491650508, -1084943212, 353.9204, 353.9204, 7.556, -0.804, 0.191
 48433952, -353628569, 1491650101, -1084813372, 353.8832, 353.8832, 8.492001, -0.91, 0.218
 48453944, -353628569, 1491650101, -1084649061, 353.8832, 353.8832, 8.492001, -0.91, 0.218
 48473936, -353628569, 1491650101, -1084502775, 353.8832, 353.8832, 8.492001, -0.91, 0.218
 48493928, -353628569, 1491650101, -1084368067, 353.8832, 353.8832, 8.492001, -0.91, 0.218
 48513920, -353628569, 1491650101, -1083553775, 353.8832, 353.8832, 8.492001, -0.91, 0.218
 48533912, -353628569, 1491650101, -1083421515, 353.8832, 353.8832, 8.492001, -0.91, 0.218
 48553904, -353628569, 1491650101, -1083291521, 353.8832, 353.8832, 8.492001, -0.91, 0.218
 48573896, -353628569, 1491650101, -1083167062, 353.8832, 353.8832, 8.492001, -0.91, 0.218
 48593888, -353628569, 1491650101, -1083021347, 353.8832, 353.8832, 8.492001, -0.91, 0.218
 48613880, -353628569, 1491650101, -1082889278, 353.8832, 353.8832, 8.492001, -0.91, 0.218
 48633872, -353628401, 1491650378, -1082756538, 353.9377, 353.9377, 9.363001, -0.994, 0.245
 48653864, -353628401, 1491650378, -1082630740, 353.9377, 353.9377, 9.363001, -0.994, 0.245
 48673856, -353628401, 1491650378, -1082480743, 353.9377, 353.9377, 9.363001, -0.994, 0.245
 48693848, -353628401, 1491650378, -1082350158, 353.9377, 353.9377, 9.363001, -0.994, 0.245
 48713840, -353628401, 1491650378, -1082056858, 353.9377, 353.9377, 9.363001, -0.994, 0.245
 48733832, -353628401, 1491650378, -1081991306, 353.9377, 353.9377, 9.363001, -0.994, 0.245
 48753824, -353628401, 1491650378, -1081930839, 353.9377, 353.9377, 9.363001, -0.994, 0.245
 48773816, -353628401, 1491650378, -1081876480, 353.9377, 353.9377, 9.363001, -0.994, 0.245
 48793808, -353628401, 1491650378, -1081822589, 353.9377, 353.9377, 9.363001, -0.994, 0.245
 48813800, -353628401, 1491650378, -1081746970, 353.9377, 353.9377, 9.363001, -0.994, 0.245
 48833792, -353628622, 1491651281, -1081680760, 353.9604, 353.9604, 10.143, -1.073, 0.268
 48853784, -353628622, 1491651281, -1081623999, 353.9604, 353.9604, 10.143, -1.073, 0.268
 48873776, -353628622, 1491651281, -1081561472, 353.9604, 353.9604, 10.143, -1.073, 0.268
 48893768, -353628622, 1491651281, -1081490795, 353.9604, 353.9604, 10.143, -1.073, 0.268
 48913760, -353628622, 1491651281, -1081803064, 353.9604, 353.9604, 10.143, -1.073, 0.268
 48933752, -353628622, 1491651281, -1081746633, 353.9604, 353.9604, 10.143, -1.073, 0.268
 48953744, -353628622, 1491651281, -1081674462, 353.9604, 353.9604, 10.143, -1.073, 0.268
 48973736, -353628622, 1491651281, -1081609954, 353.9604, 353.9604, 10.143, -1.073, 0.268
 48993728, -353628622, 1491651281, -1081551302, 353.9604, 353.9604, 10.143, -1.073, 0.268
 49013720, -353628622, 1491651281, -1081484053, 353.9604, 353.9604, 10.143, -1.073, 0.268
 49033712, -353627915, 1491650822, -1081436318, 353.9583, 353.9583, 10.836, -1.146, 0.289
 49053704, -353627915, 1491650822, -1081376308, 353.9583, 353.9583, 10.836, -1.146, 0.289
 49073696, -353627915, 1491650822, -1081335089, 353.9583, 353.9583, 10.836, -1.146, 0.289
 49093688, -353627915, 1491650822, -1081271919, 353.9583, 353.9583, 10.836, -1.146, 0.289
 49113680, -353627915, 1491650822, -1081284209, 353.9583, 353.9583, 10.836, -1.146, 0.289
 49133672, -353627915, 1491650822, -1081221667, 353.9583, 353.9583, 10.836, -1.146, 0.289
 49153664, -353627915, 1491650822, -1081173518, 353.9583, 353.9583, 10.836, -1.146, 0.289
 49173656, -353627915, 1491650822, -1081124210, 353.9583, 353.9583, 10.836, -1.146, 0.289
 49193648, -353627915, 1491650822, -1081071618, 353.9583, 353.9583, 10.836, -1.146, 0.289
 49213640, -353627915, 1491650822, -1081027969, 353.9583, 353.9583, 10.836, -1.146, 0.289
 49233632, -353627509, 1491650498, -1080973078, 353.9471, 353.9471, 11.438, -1.212, 0.273
 49253624, -353627509, 1491650498, -1080925857, 353.9471, 353.9471, 11.438, -1.212, 0.273
 49273616, -353627509, 1491650498, -1080874306, 353.9471, 353.9471, 11.438, -1.212, 0.273
 49293608, -353627509, 1491650498, -1080833386, 353.9471, 353.9471, 11.438, -1.212, 0.273
 49313600, -353627509, 1491650498, -1080685161, 353.9471, 353.9471, 11.438, -1.212, 0.273
 49333592, -353627509, 1491650498, -1080640590, 353.9471, 353.9471, 11.438, -1.212, 0.273
 49353584, -353627509, 1491650498, -1080594273, 353.9471, 353.9471, 11.438, -1.212, 0.273
 49373576, -353627509, 1491650498, -1080549573, 353.9471, 353.9471, 11.438, -1.212, 0.273
 49393568, -353627509, 1491650498, -1080512862, 353.9471, 353.9471, 11.438, -1.212, 0.273
 49413560, -353627509, 1491650498, -1080470894, 353.9471, 353.9471, 11.438, -1.212, 0.273
 49433552, -353627267, 1491651138, -1080436189, 353.9475, 353.9475, 11.957, -1.267, 0.27
 49453544, -353627267, 1491651138, -1080394128, 353.9475, 353.9475, 11.957, -1.267, 0.27
 49473536, -353627267, 1491651138, -1080359601, 353.9475, 353.9475, 11.957, -1.267, 0.27
 49493528, -353627267, 1491651138, -1080325276, 353.9475, 353.9475, 11.957, -1.267, 0.27
 49513520, -353627267, 1491651138, -1080532792, 353.9475, 353.9475, 11.957, -1.267, 0.27
 49533512, -353627267, 1491651138, -1080494078, 353.9475, 353.9475, 11.957, -1.267, 0.27
 49553504, -353627267, 1491651138, -1080456869, 353.9475, 353.9475, 11.957, -1.267, 0.27
 49573496, -353627267, 1491651138, -1080419691, 353.9475, 353.9475, 11.957, -1.267, 0.27
 49593488, -353627267, 1491651138, -1080391000, 353.9475, 353.9475, 11.957, -1.267, 0.27
 49613480, -353627267, 1491651138, -1080350433, 353.9475, 353.9475, 11.957, -1.267, 0.27
 49634305, -353627161, 1491650835, -1080319234, 353.9546, 353.9546, 12.414, -1.314, 0.295
 49654297, -353627161, 1491650835, -1080269990, 353.9546, 353.9546, 12.414, -1.314, 0.295
 49674289, -353627161, 1491650835, -1080226187, 353.9546, 353.9546, 12.414, -1.314, 0.295
 49694281, -353627161, 1491650835, -1080183245, 353.9546, 353.9546, 12.414, -1.314, 0.295
 49714273, -353627161, 1491650835, -1080203543, 353.9546, 353.9546, 12.414, -1.314, 0.295
 49734265, -353627161, 1491650835, -1080166693, 353.9546, 353.9546, 12.414, -1.314, 0.295
 49754257, -353627161, 1491650835, -1080134961, 353.9546, 353.9546, 12.414, -1.314, 0.295
 49774249, -353627161, 1491650835, -1080098385, 353.9546, 353.9546, 12.414, -1.314, 0.295
 49794241, -353627161, 1491650835, -1080059918, 353.9546, 353.9546, 12.414, -1.314, 0.295
 49814233, -353627161, 1491650835, -1080049035, 353.9546, 353.9546, 12.414, -1.314, 0.295
 49834225, -353627506, 1491650534, -1080017828, 353.9586, 353.9586, 12.814, -1.356, 0.32
 49854217, -353627506, 1491650534, -1079976975, 353.9586, 353.9586, 12.814, -1.356, 0.32
 49874209, -353627506, 1491650534, -1079915880, 353.9586, 353.9586, 12.814, -1.356, 0.32
 49894201, -353627506, 1491650534, -1079858759, 353.9586, 353.9586, 12.814, -1.356, 0.32
 49914193, -353627506, 1491650534, -1079699901, 353.9586, 353.9586, 12.814, -1.356, 0.32
 49934185, -353627506, 1491650534, -1079629194, 353.9586, 353.9586, 12.814, -1.356, 0.32
 49954177, -353627506, 1491650534, -1079551046, 353.9586, 353.9586, 12.814, -1.356, 0.32
 49974169, -353627506, 1491650534, -1079455340, 353.9586, 353.9586, 12.814, -1.356, 0.32
 49994161, -353627506, 1491650534, -1079361838, 353.9586, 353.9586, 12.814, -1.356, 0.32
 50014153, -353627506, 1491650534, -1079249997, 353.9586, 353.9586, 12.814, -1.356, 0.32
 50034145, -353626700, 1491650571, -1079165499, 353.9491, 353.9491, 13.79, -1.461, 0.28
 50054137, -353626700, 1491650571, -1078972093, 353.9491, 353.9491, 13.79, -1.461, 0.28
 50074129, -353626700, 1491650571, -1078791660, 353.9491, 353.9491, 13.79, -1.461, 0.28
 50094121, -353626700, 1491650571, -1078616680, 353.9491, 353.9491, 13.79, -1.461, 0.28
 50114113, -353626700, 1491650571, -1078432652, 353.9491, 353.9491, 13.79, -1.461, 0.28
 50134105, -353626700, 1491650571, -1078257977, 353.9491, 353.9491, 13.79, -1.461, 0.28
 50154097, -353626700, 1491650571, -1078087401, 353.9491, 353.9491, 13.79, -1.461, 0.28
 50174089, -353626700, 1491650571, -1077909749, 353.9491, 353.9491, 13.79, -1.461, 0.28
 50194081, -353626700, 1491650571, -1077748977, 353.9491, 353.9491, 13.79, -1.461, 0.28
 50214073, -353626700, 1491650571, -1077597673, 353.9491, 353.9491, 13.79, -1.461, 0.28
 50234065, -353626401, 1491650454, -1077469343, 353.8795, 353.8795, 15.494, -1.661, -2.044
 50254057, -353626401, 1491650454, -1077339576, 353.8795, 353.8795, 15.494, -1.661, -2.044
 50274049, -353626401, 1491650454, -1077214155, 353.8795, 353.8795, 15.494, -1.661, -2.044
 50294041, -353626401, 1491650454, -1077102606, 353.8795, 353.8795, 15.494, -1.661, -2.044
 50314033, -353626401, 1491650454, -1076905572, 353.8795, 353.8795, 15.494, -1.661, -2.044
 50334025, -353626401, 1491650454, -1076826817, 353.8795, 353.8795, 15.494, -1.661, -2.044
 50354017, -353626401, 1491650454, -1076777164, 353.8795, 353.8795, 15.494, -1.661, -2.044
 50374009, -353626401, 1491650454, -1076726991, 353.8795, 353.8795, 15.494, -1.661, -2.044
 50394001, -353626401, 1491650454, -1076690365, 353.8795, 353.8795, 15.494, -1.661, -2.044
 50413993, -353626401, 1491650454, -1076648288, 353.8795, 353.8795, 15.494, -1.661, -2.044
 50433985, -353626154, 1491649929, -1076632595, 353.7139, 353.7139, 15.959, -1.758, -5.956
 50453977, -353626154, 1491649929, -1076621274, 353.7139, 353.7139, 15.959, -1.758, -5.956
 50473969, -353626154, 1491649929, -1076619519, 353.7139, 353.7139, 15.959, -1.758, -5.956
 50493961, -353626154, 1491649929, -1076616462, 353.7139, 353.7139, 15.959, -1.758, -5.956
 50513953, -353626154, 1491649929, -1076163402, 353.7139, 353.7139, 15.959, -1.758, -5.956
 50533945, -353626154, 1491649929, -1076136395, 353.7139, 353.7139, 15.959, -1.758, -5.956
 50553937, -353626154, 1491649929, -1076111190, 353.7139, 353.7139, 15.959, -1.758, -5.956
 50573929, -353626154, 1491649929, -1076079295, 353.7139, 353.7139, 15.959, -1.758, -5.956
 50593921, -353626154, 1491649929, -1076038706, 353.7139, 353.7139, 15.959, -1.758, -5.956
 50613913, -353626154, 1491649929, -1076006807, 353.7139, 353.7139, 15.959, -1.758, -5.956
 50633905, -353626086, 1491650717, -1075928870, 353.6448, 353.6448, 16.201, -1.804, -7.987
 50653897, -353626086, 1491650717, -1075869594, 353.6448, 353.6448, 16.201, -1.804, -7.987
 50673889, -353626086, 1491650717, -1075785676, 353.6448, 353.6448, 16.201, -1.804, -7.987
 50693881, -353626086, 1491650717, -1075694727, 353.6448, 353.6448, 16.201, -1.804, -7.987
 50713873, -353626086, 1491650717, -1075759449, 353.6448, 353.6448, 16.201, -1.804, -7.987
 50733865, -353626086, 1491650717, -1075657559, 353.6448, 353.6448, 16.201, -1.804, -7.987
 50753857, -353626086, 1491650717, -1075563392, 353.6448, 353.6448, 16.201, -1.804, -7.987
 50773849, -353626086, 1491650717, -1075469909, 353.6448, 353.6448, 16.201, -1.804, -7.987
 50793841, -353626086, 1491650717, -1075357160, 353.6448, 353.6448, 16.201, -1.804, -7.987
 50813833, -353626086, 1491650717, -1075243462, 353.6448, 353.6448, 16.201, -1.804, -7.987
 50833825, -353625501, 1491650297, -1075117894, 353.6013, 353.6013, 17.121, -1.92, -8.248
 50853817, -353625501, 1491650297, -1075001695, 353.6013, 353.6013, 17.121, -1.92, -8.248
 50873809, -353625501, 1491650297, -1074873763, 353.6013, 353.6013, 17.121, -1.92, -8.248
 50893801, -353625501, 1491650297, -1074760534, 353.6013, 353.6013, 17.121, -1.92, -8.248
 50913793, -353625501, 1491650297, -1074590960, 353.6013, 353.6013, 17.121, -1.92, -8.248
 50933785, -353625501, 1491650297, -1074491035, 353.6013, 353.6013, 17.121, -1.92, -8.248
 50953777, -353625501, 1491650297, -1074369909, 353.6013, 353.6013, 17.121, -1.92, -8.248
 50973769, -353625501, 1491650297, -1074264285, 353.6013, 353.6013, 17.121, -1.92, -8.248
 50993761, -353625501, 1491650297, -1074188596, 353.6013, 353.6013, 17.121, -1.92, -8.248
 51013753, -353625501, 1491650297, -1074101408, 353.6013, 353.6013, 17.121, -1.92, -8.248
 51033745, -353624585, 1491651117, -1074016744, 353.598, 353.598, 18.138, -2.035, -8.233001
 51053737, -353624585, 1491651117, -1073916368, 353.598, 353.598, 18.138, -2.035, -8.233001
 51073729, -353624585, 1491651117, -1073839252, 353.598, 353.598, 18.138, -2.035, -8.233001
 51093721, -353624585, 1491651117, -1073752735, 353.598, 353.598, 18.138, -2.035, -8.233001
 51113713, -353624585, 1491651117, -1074079426, 353.598, 353.598, 18.138, -2.035, -8.233001
 51133705, -353624585, 1491651117, -1074013743, 353.598, 353.598, 18.138, -2.035, -8.233001
 51153697, -353624585, 1491651117, -1073930529, 353.598, 353.598, 18.138, -2.035, -8.233001
 51173689, -353624585, 1491651117, -1073872475, 353.598, 353.598, 18.138, -2.035, -8.233001
 51193681, -353624585, 1491651117, -1073815367, 353.598, 353.598, 18.138, -2.035, -8.233001
 51213673, -353624585, 1491651117, -1073764477, 353.598, 353.598, 18.138, -2.035, -8.233001
 51233665, -353624547, 1491650236, -1073722886, 353.5871, 353.5871, 18.862, -2.12, -8.634001
 51253657, -353624547, 1491650236, -1073687415, 353.5871, 353.5871, 18.862, -2.12, -8.634001
 51273649, -353624547, 1491650236, -1073662778, 353.5871, 353.5871, 18.862, -2.12, -8.634001
 51293641, -353624547, 1491650236, -1073638119, 353.5871, 353.5871, 18.862, -2.12, -8.634001
 51313633, -353624547, 1491650236, -1073533899, 353.5871, 353.5871, 18.862, -2.12, -8.634001
 51333625, -353624547, 1491650236, -1073514300, 353.5871, 353.5871, 18.862, -2.12, -8.634001
 51353617, -353624547, 1491650236, -1073488399, 353.5871, 353.5871, 18.862, -2.12, -8.634001
 51373609, -353624547, 1491650236, -1073458427, 353.5871, 353.5871, 18.862, -2.12, -8.634001
 51393601, -353624547, 1491650236, -1073431891, 353.5871, 353.5871, 18.862, -2.12, -8.634001
 51413593, -353624547, 1491650236, -1073399351, 353.5871, 353.5871, 18.862, -2.12, -8.634001
 51433585, -353624870, 1491650252, -1073377618, 353.5887, 353.5887, 19.425, -2.182, -9.142
 51453577, -353624870, 1491650252, -1073360234, 353.5887, 353.5887, 19.425, -2.182, -9.142
 51473569, -353624870, 1491650252, -1073329918, 353.5887, 353.5887, 19.425, -2.182, -9.142
 51493561, -353624870, 1491650252, -1073307558, 353.5887, 353.5887, 19.425, -2.182, -9.142
 51513553, -353624870, 1491650252, -1073242934, 353.5887, 353.5887, 19.425, -2.182, -9.142
 51533545, -353624870, 1491650252, -1073221625, 353.5887, 353.5887, 19.425, -2.182, -9.142
 51553537, -353624870, 1491650252, -1073201853, 353.5887, 353.5887, 19.425, -2.182, -9.142
 51573529, -353624870, 1491650252, -1073185023, 353.5887, 353.5887, 19.425, -2.182, -9.142
 51593521, -353624870, 1491650252, -1073160909, 353.5887, 353.5887, 19.425, -2.182, -9.142
 51613513, -353624870, 1491650252, -1073144091, 353.5887, 353.5887, 19.425, -2.182, -9.142
 51633505, -353624328, 1491649241, -1073116440, 353.5706, 353.5706, 19.85, -2.236, -9.67
 51653497, -353624328, 1491649241, -1073087900, 353.5706, 353.5706, 19.85, -2.236, -9.67
 51673489, -353624328, 1491649241, -1073074030, 353.5706, 353.5706, 19.85, -2.236, -9.67
 51693481, -353624328, 1491649241, -1073057170, 353.5706, 353.5706, 19.85, -2.236, -9.67
 51713473, -353624328, 1491649241, -1072743193, 353.5706, 353.5706, 19.85, -2.236, -9.67
 51734298, -353624328, 1491649241, -1072725525, 353.5706, 353.5706, 19.85, -2.236, -9.67
 51754290, -353624328, 1491649241, -1072714844, 353.5706, 353.5706, 19.85, -2.236, -9.67
 51774282, -353624328, 1491649241, -1072700562, 353.5706, 353.5706, 19.85, -2.236, -9.67
 51794274, -353624328, 1491649241, -1072688389, 353.5706, 353.5706, 19.85, -2.236, -9.67
 51814266, -353624328, 1491649241, -1072674626, 353.5706, 353.5706, 19.85, -2.236, -9.67
 51834258, -353624299, 1491649800, -1072665158, 353.5928, 353.5928, 20.225, -2.271, -10.107
 51854250, -353624299, 1491649800, -1072645664, 353.5928, 353.5928, 20.225, -2.271, -10.107
 51874242, -353624299, 1491649800, -1072630899, 353.5928, 353.5928, 20.225, -2.271, -10.107
 51894234, -353624299, 1491649800, -1072611858, 353.5928, 353.5928, 20.225, -2.271, -10.107
 51914226, -353624299, 1491649800, -1072506912, 353.5928, 353.5928, 20.225, -2.271, -10.107
 51934218, -353624299, 1491649800, -1072473815, 353.5928, 353.5928, 20.225, -2.271, -10.107
 51954210, -353624299, 1491649800, -1072459544, 353.5928, 353.5928, 20.225, -2.271, -10.107
 51974202, -353624299, 1491649800, -1072442611, 353.5928, 353.5928, 20.225, -2.271, -10.107
 51994194, -353624299, 1491649800, -1072419458, 353.5928, 353.5928, 20.225, -2.271, -10.107
 52014186, -353624299, 1491649800, -1072401830, 353.5928, 353.5928, 20.225, -2.271, -10.107
 52034178, -353623139, 1491650157, -1072369287, 353.5475, 353.5475, 20.541, -2.323, -10.479
 52054170, -353623139, 1491650157, -1072338463, 353.5475, 353.5475, 20.541, -2.323, -10.479
 52074162, -353623139, 1491650157, -1072307811, 353.5475, 353.5475, 20.541, -2.323, -10.479
 52094154, -353623139, 1491650157, -1072286693, 353.5475, 353.5475, 20.541, -2.323, -10.479
 52114146, -353623139, 1491650157, -1072314721, 353.5475, 353.5475, 20.541, -2.323, -10.479
 52134138, -353623139, 1491650157, -1072295672, 353.5475, 353.5475, 20.541, -2.323, -10.479
 52154130, -353623139, 1491650157, -1072274327, 353.5475, 353.5475, 20.541, -2.323, -10.479
 52174122, -353623139, 1491650157, -1072260818, 353.5475, 353.5475, 20.541, -2.323, -10.479
 52194114, -353623139, 1491650157, -1072242452, 353.5475, 353.5475, 20.541, -2.323, -10.479
 52214106, -353623139, 1491650157, -1072231410, 353.5475, 353.5475, 20.541, -2.323, -10.479
 52234098, -353623126, 1491650225, -1072213597, 353.523, 353.523, 20.846, -2.366, -10.743
 52254090, -353623126, 1491650225, -1072201305, 353.523, 353.523, 20.846, -2.366, -10.743
 52274082, -353623126, 1491650225, -1072198270, 353.523, 353.523, 20.846, -2.366, -10.743
 52294074, -353623126, 1491650225, -1072186415, 353.523, 353.523, 20.846, -2.366, -10.743
 52314066, -353623126, 1491650225, -1072242498, 353.523, 353.523, 20.846, -2.366, -10.743
 52334058, -353623126, 1491650225, -1072224034, 353.523, 353.523, 20.846, -2.366, -10.743
 52354050, -353623126, 1491650225, -1072206159, 353.523, 353.523, 20.846, -2.366, -10.743
 52374042, -353623126, 1491650225, -1072192174, 353.523, 353.523, 20.846, -2.366, -10.743
 52394034, -353623126, 1491650225, -1072180051, 353.523, 353.523, 20.846, -2.366, -10.743
 52414026, -353623126, 1491650225, -1072164104, 353.523, 353.523, 20.846, -2.366, -10.743
 52434018, -353622575, 1491649050, -1072147418, 353.5034, 353.5034, 21.079, -2.4, -11.01
 52454010, -353622575, 1491649050, -1072135349, 353.5034, 353.5034, 21.079, -2.4, -11.01
 52474002, -353622575, 1491649050, -1072112774, 353.5034, 353.5034, 21.079, -2.4, -11.01
 52493994, -353622575, 1491649050, -1072094621, 353.5034, 353.5034, 21.079, -2.4, -11.01
 52513986, -353622575, 1491649050, -1071839083, 353.5034, 353.5034, 21.079, -2.4, -11.01
 52533978, -353622575, 1491649050, -1071814416, 353.5034, 353.5034, 21.079, -2.4, -11.01
 52553970, -353622575, 1491649050, -1071799346, 353.5034, 353.5034, 21.079, -2.4, -11.01
 52573962, -353622575, 1491649050, -1071780510, 353.5034, 353.5034, 21.079, -2.4, -11.01
 52593954, -353622575, 1491649050, -1071762933, 353.5034, 353.5034, 21.079, -2.4, -11.01
 52613946, -353622575, 1491649050, -1071751333, 353.5034, 353.5034, 21.079, -2.4, -11.01
 52633938, -353622316, 1491650383, -1071731060, 353.4556, 353.4556, 21.32, -2.445, -11.155
 52653930, -353622316, 1491650383, -1071718891, 353.4556, 353.4556, 21.32, -2.445, -11.155
 52673922, -353622316, 1491650383, -1071704749, 353.4556, 353.4556, 21.32, -2.445, -11.155
 52693914, -353622316, 1491650383, -1071673879, 353.4556, 353.4556, 21.32, -2.445, -11.155
 52713906, -353622316, 1491650383, -1071815283, 353.4556, 353.4556, 21.32, -2.445, -11.155
 52733898, -353622316, 1491650383, -1071794159, 353.4556, 353.4556, 21.32, -2.445, -11.155
 52753890, -353622316, 1491650383, -1071767166, 353.4556, 353.4556, 21.32, -2.445, -11.155
 52773882, -353622316, 1491650383, -1071742695, 353.4556, 353.4556, 21.32, -2.445, -11.155
 52793874, -353622316, 1491650383, -1071730483, 353.4556, 353.4556, 21.32, -2.445, -11.155
 52813866, -353622316, 1491650383, -1071717507, 353.4556, 353.4556, 21.32, -2.445, -11.155
 52833858, -353621317, 1491650234, -1071694938, 353.3823, 353.3823, 21.548, -2.5, -11.239
 52853850, -353621317, 1491650234, -1071671475, 353.3823, 353.3823, 21.548, -2.5, -11.239
 52873842, -353621317, 1491650234, -1071653044, 353.3823, 353.3823, 21.548, -2.5, -11.239
 52893834, -353621317, 1491650234, -1071638475, 353.3823, 353.3823, 21.548, -2.5, -11.239
 52913826, -353621317, 1491650234, -1071731812, 353.3823, 353.3823, 21.548, -2.5, -11.239
 52933818, -353621317, 1491650234, -1071719524, 353.3823, 353.3823, 21.548, -2.5, -11.239
 52953810, -353621317, 1491650234, -1071709364, 353.3823, 353.3823, 21.548, -2.5, -11.239
 52973802, -353621317, 1491650234, -1071698244, 353.3823, 353.3823, 21.548, -2.5, -11.239
 52993794, -353621317, 1491650234, -1071706238, 353.3823, 353.3823, 21.548, -2.5, -11.239
 53013786, -353621317, 1491650234, -1071709334, 353.3823, 353.3823, 21.548, -2.5, -11.239
 53033778, -353621740, 1491649952, -1071721149, 353.3873, 353.3873, 21.732, -2.519, -11.36
 53053770, -353621740, 1491649952, -1071720550, 353.3873, 353.3873, 21.732, -2.519, -11.36
 53073762, -353621740, 1491649952, -1071736799, 353.3873, 353.3873, 21.732, -2.519, -11.36
 53093754, -353621740, 1491649952, -1071749460, 353.3873, 353.3873, 21.732, -2.519, -11.36
 53113746, -353621740, 1491649952, -1071766832, 353.3873, 353.3873, 21.732, -2.519, -11.36
 53133738, -353621740, 1491649952, -1071772426, 353.3873, 353.3873, 21.732, -2.519, -11.36
 53153730, -353621740, 1491649952, -1071774345, 353.3873, 353.3873, 21.732, -2.519, -11.36
 53173722, -353621740, 1491649952, -1071785162, 353.3873, 353.3873, 21.732, -2.519, -11.36
 53193714, -353621740, 1491649952, -1071778772, 353.3873, 353.3873, 21.732, -2.519, -11.36
 53213706, -353621740, 1491649952, -1071775276, 353.3873, 353.3873, 21.732, -2.519, -11.36
 53233698, -353621963, 1491650034, -1071762686, 353.4358, 353.4358, 21.874, -2.517, -11.503
 53253690, -353621963, 1491650034, -1071746844, 353.4358, 353.4358, 21.874, -2.517, -11.503
 53273682, -353621963, 1491650034, -1071738605, 353.4358, 353.4358, 21.874, -2.517, -11.503
 53293674, -353621963, 1491650034, -1071732048, 353.4358, 353.4358, 21.874, -2.517, -11.503
 53313666, -353621963, 1491650034, -1071780217, 353.4358, 353.4358, 21.874, -2.517, -11.503
 53333658, -353621963, 1491650034, -1071763416, 353.4358, 353.4358, 21.874, -2.517, -11.503
 53353650, -353621963, 1491650034, -1071758352, 353.4358, 353.4358, 21.874, -2.517, -11.503
 53373642, -353621963, 1491650034, -1071764469, 353.4358, 353.4358, 21.874, -2.517, -11.503
 53393634, -353621963, 1491650034, -1071757081, 353.4358, 353.4358, 21.874, -2.517, -11.503
 53413626, -353621963, 1491650034, -1071761449, 353.4358, 353.4358, 21.874, -2.517, -11.503
 53433618, -353620524, 1491649744, -1071773937, 353.4322, 353.4322, 21.989, -2.531, -11.639
 53453610, -353620524, 1491649744, -1071771094, 353.4322, 353.4322, 21.989, -2.531, -11.639
 53473602, -353620524, 1491649744, -1071772455, 353.4322, 353.4322, 21.989, -2.531, -11.639
 53493594, -353620524, 1491649744, -1071776135, 353.4322, 353.4322, 21.989, -2.531, -11.639
 53513586, -353620524, 1491649744, -1071752772, 353.4322, 353.4322, 21.989, -2.531, -11.639
 53533578, -353620524, 1491649744, -1071748242, 353.4322, 353.4322, 21.989, -2.531, -11.639
 53553570, -353620524, 1491649744, -1071747087, 353.4322, 353.4322, 21.989, -2.531, -11.639
 53573562, -353620524, 1491649744, -1071739983, 353.4322, 353.4322, 21.989, -2.531, -11.639
 53593554, -353620524, 1491649744, -1071735816, 353.4322, 353.4322, 21.989, -2.531, -11.639
 53613546, -353620524, 1491649744, -1071731610, 353.4322, 353.4322, 21.989, -2.531, -11.639
 53633538, -353620664, 1491649594, -1071726861, 353.4336, 353.4336, 22.096, -2.543, -11.731
 53653530, -353620664, 1491649594, -1071710786, 353.4336, 353.4336, 22.096, -2.543, -11.731
 53673522, -353620664, 1491649594, -1071702185, 353.4336, 353.4336, 22.096, -2.543, -11.731
 53693514, -353620664, 1491649594, -1071695605, 353.4336, 353.4336, 22.096, -2.543, -11.731
 53713506, -353620664, 1491649594, -1071641670, 353.4336, 353.4336, 22.096, -2.543, -11.731
 53733498, -353620664, 1491649594, -1071642962, 353.4336, 353.4336, 22.096, -2.543, -11.731
 53753490, -353620664, 1491649594, -1071649709, 353.4336, 353.4336, 22.096, -2.543, -11.731
 53773482, -353620664, 1491649594, -1071658346, 353.4336, 353.4336, 22.096, -2.543, -11.731
 53793474, -353620664, 1491649594, -1071657938, 353.4336, 353.4336, 22.096, -2.543, -11.731
 53814299, -353620664, 1491649594, -1071656534, 353.4336, 353.4336, 22.096, -2.543, -11.731
 53834291, -353620355, 1491649593, -1071656684, 353.4647, 353.4647, 22.219, -2.545, -11.76
 53854283, -353620355, 1491649593, -1071663853, 353.4647, 353.4647, 22.219, -2.545, -11.76
 53874275, -353620355, 1491649593, -1071654286, 353.4647, 353.4647, 22.219, -2.545, -11.76
 53894267, -353620355, 1491649593, -1071655411, 353.4647, 353.4647, 22.219, -2.545, -11.76
 53914259, -353620355, 1491649593, -1071629631, 353.4647, 353.4647, 22.219, -2.545, -11.76
 53934251, -353620355, 1491649593, -1071626141, 353.4647, 353.4647, 22.219, -2.545, -11.76
 53954243, -353620355, 1491649593, -1071622192, 353.4647, 353.4647, 22.219, -2.545, -11.76
 53974235, -353620355, 1491649593, -1071620188, 353.4647, 353.4647, 22.219, -2.545, -11.76
 53994227, -353620355, 1491649593, -1071622755, 353.4647, 353.4647, 22.219, -2.545, -11.76
 54014219, -353620355, 1491649593, -1071630250, 353.4647, 353.4647, 22.219, -2.545, -11.76
 54034211, -353619040, 1491649466, -1071625866, 353.4721, 353.4721, 22.294, -2.551, -11.849
 54054203, -353619040, 1491649466, -1071633518, 353.4721, 353.4721, 22.294, -2.551, -11.849
 54074195, -353619040, 1491649466, -1071637897, 353.4721, 353.4721, 22.294, -2.551, -11.849
 54094187, -353619040, 1491649466, -1071637651, 353.4721, 353.4721, 22.294, -2.551, -11.849
 54114179, -353619040, 1491649466, -1071600832, 353.4721, 353.4721, 22.294, -2.551, -11.849
 54134171, -353619040, 1491649466, -1071604690, 353.4721, 353.4721, 22.294, -2.551, -11.849
 54154163, -353619040, 1491649466, -1071610061, 353.4721, 353.4721, 22.294, -2.551, -11.849
 54174155, -353619040, 1491649466, -1071608380, 353.4721, 353.4721, 22.294, -2.551, -11.849
 54194147, -353619040, 1491649466, -1071611557, 353.4721, 353.4721, 22.294, -2.551, -11.849
 54214139, -353619040, 1491649466, -1071607696, 353.4721, 353.4721, 22.294, -2.551, -11.849
 54234131, -353619242, 1491649741, -1071598993, 353.4967, 353.4967, 22.366, -2.549, -11.897
 54254123, -353619242, 1491649741, -1071604483, 353.4967, 353.4967, 22.366, -2.549, -11.897
 54274115, -353619242, 1491649741, -1071600543, 353.4967, 353.4967, 22.366, -2.549, -11.897
 54294107, -353619242, 1491649741, -1071591834, 353.4967, 353.4967, 22.366, -2.549, -11.897
 54314099, -353619242, 1491649741, -1071624971, 353.4967, 353.4967, 22.366, -2.549, -11.897
 54334091, -353619242, 1491649741, -1071617058, 353.4967, 353.4967, 22.366, -2.549, -11.897
 54354083, -353619242, 1491649741, -1071607848, 353.4967, 353.4967, 22.366, -2.549, -11.897
 54374075, -353619242, 1491649741, -1071596955, 353.4967, 353.4967, 22.366, -2.549, -11.897
 54394067, -353619242, 1491649741, -1071585260, 353.4967, 353.4967, 22.366, -2.549, -11.897
 54414059, -353619242, 1491649741, -1071573044, 353.4967, 353.4967, 22.366, -2.549, -11.897
 54434051, -353619258, 1491650000, -1071563919, 353.4596, 353.4596, 22.47, -2.576, -11.873
 54454043, -353619258, 1491650000, -1071556950, 353.4596, 353.4596, 22.47, -2.576, -11.873
 54474035, -353619258, 1491650000, -1071554683, 353.4596, 353.4596, 22.47, -2.576, -11.873
 54494027, -353619258, 1491650000, -1071540831, 353.4596, 353.4596, 22.47, -2.576, -11.873
 54514019, -353619258, 1491650000, -1071655035, 353.4596, 353.4596, 22.47, -2.576, -11.873
 54534011, -353619258, 1491650000, -1071654720, 353.4596, 353.4596, 22.47, -2.576, -11.873
 54554003, -353619258, 1491650000, -1071644876, 353.4596, 353.4596, 22.47, -2.576, -11.873
 54573995, -353619258, 1491650000, -1071622885, 353.4596, 353.4596, 22.47, -2.576, -11.873
 54593987, -353619258, 1491650000, -1071607771, 353.4596, 353.4596, 22.47, -2.576, -11.873
 54613979, -353619258, 1491650000, -1071597129, 353.4596, 353.4596, 22.47, -2.576, -11.873
 54633971, -353618964, 1491649524, -1071578642, 353.4232, 353.4232, 22.559, -2.6, -11.859
 54653963, -353618964, 1491649524, -1071559153, 353.4232, 353.4232, 22.559, -2.6, -11.859
 54673955, -353618964, 1491649524, -1071554763, 353.4232, 353.4232, 22.559, -2.6, -11.859
 54693947, -353618964, 1491649524, -1071529874, 353.4232, 353.4232, 22.559, -2.6, -11.859
 54713939, -353618964, 1491649524, -1071510795, 353.4232, 353.4232, 22.559, -2.6, -11.859
 54733931, -353618964, 1491649524, -1071497885, 353.4232, 353.4232, 22.559, -2.6, -11.859
 54753923, -353618964, 1491649524, -1071487242, 353.4232, 353.4232, 22.559, -2.6, -11.859
 54773915, -353618964, 1491649524, -1071483317, 353.4232, 353.4232, 22.559, -2.6, -11.859
 54793907, -353618964, 1491649524, -1071479962, 353.4232, 353.4232, 22.559, -2.6, -11.859
 54813899, -353618964, 1491649524, -1071476523, 353.4232, 353.4232, 22.559, -2.6, -11.859
 54833891, -353618123, 1491649090, -1071482405, 353.371, 353.371, 22.587, -2.625, -11.944
 54853883, -353618123, 1491649090, -1071469037, 353.371, 353.371, 22.587, -2.625, -11.944
 54873875, -353618123, 1491649090, -1071476000, 353.371, 353.371, 22.587, -2.625, -11.944
 54893867, -353618123, 1491649090, -1071466504, 353.371, 353.371, 22.587, -2.625, -11.944
 54913859, -353618123, 1491649090, -1071370420, 353.371, 353.371, 22.587, -2.625, -11.944
 54933851, -353618123, 1491649090, -1071369971, 353.371, 353.371, 22.587, -2.625, -11.944
 54953843, -353618123, 1491649090, -1071370168, 353.371, 353.371, 22.587, -2.625, -11.944
 54973835, -353618123, 1491649090, -1071369428, 353.371, 353.371, 22.587, -2.625, -11.944
 54993827, -353618123, 1491649090, -1071364496, 353.371, 353.371, 22.587, -2.625, -11.944
 55013819, -353618123, 1491649090, -1071350776, 353.371, 353.371, 22.587, -2.625, -11.944
 55033811, -353617711, 1491649677, -1071334437, 353.3413, 353.3413, 22.616, -2.64, -11.989
 55053803, -353617711, 1491649677, -1071325556, 353.3413, 353.3413, 22.616, -2.64, -11.989
 55073795, -353617711, 1491649677, -1071311152, 353.3413, 353.3413, 22.616, -2.64, -11.989
 55093787, -353617711, 1491649677, -1071295827, 353.3413, 353.3413, 22.616, -2.64, -11.989
 55113779, -353617711, 1491649677, -1071348748, 353.3413, 353.3413, 22.616, -2.64, -11.989
 55133771, -353617711, 1491649677, -1071337985, 353.3413, 353.3413, 22.616, -2.64, -11.989
 55153763, -353617711, 1491649677, -1071332381, 353.3413, 353.3413, 22.616, -2.64, -11.989
 55173755, -353617711, 1491649677, -1071317079, 353.3413, 353.3413, 22.616, -2.64, -11.989
 55193747, -353617711, 1491649677, -1071315119, 353.3413, 353.3413, 22.616, -2.64, -11.989
 55213739, -353617711, 1491649677, -1071310222, 353.3413, 353.3413, 22.616, -2.64, -11.989
 55233731, -353617288, 1491649721, -1071293945, 353.2691, 353.2691, 22.663, -2.674, -11.991
 55253723, -353617288, 1491649721, -1071265596, 353.2691, 353.2691, 22.663, -2.674, -11.991
 55273715, -353617288, 1491649721, -1071251435, 353.2691, 353.2691, 22.663, -2.674, -11.991
 55293707, -353617288, 1491649721, -1071241565, 353.2691, 353.2691, 22.663, -2.674, -11.991
 55313699, -353617288, 1491649721, -1071319282, 353.2691, 353.2691, 22.663, -2.674, -11.991
 55333691, -353617288, 1491649721, -1071313636, 353.2691, 353.2691, 22.663, -2.674, -11.991
 55353683, -353617288, 1491649721, -1071309831, 353.2691, 353.2691, 22.663, -2.674, -11.991
 55373675, -353617288, 1491649721, -1071319374, 353.2691, 353.2691, 22.663, -2.674, -11.991
 55393667, -353617288, 1491649721, -1071330992, 353.2691, 353.2691, 22.663, -2.674, -11.991
 55413659, -353617288, 1491649721, -1071333081, 353.2691, 353.2691, 22.663, -2.674, -11.991
 55433651, -353616941, 1491648501, -1071333985, 353.2491, 353.2491, 22.687, -2.685, -12.008
 55453643, -353616941, 1491648501, -1071314492, 353.2491, 353.2491, 22.687, -2.685, -12.008
 55473635, -353616941, 1491648501, -1071296417, 353.2491, 353.2491, 22.687, -2.685, -12.008
 55493627, -353616941, 1491648501, -1071294394, 353.2491, 353.2491, 22.687, -2.685, -12.008
 55513619, -353616941, 1491648501, -1071067182, 353.2491, 353.2491, 22.687, -2.685, -12.008
 55533611, -353616941, 1491648501, -1071061677, 353.2491, 353.2491, 22.687, -2.685, -12.008
 55553603, -353616941, 1491648501, -1071067357, 353.2491, 353.2491, 22.687, -2.685, -12.008
 55573595, -353616941, 1491648501, -1071058375, 353.2491, 353.2491, 22.687, -2.685, -12.008
 55593587, -353616941, 1491648501, -1071054015, 353.2491, 353.2491, 22.687, -2.685, -12.008
 55613579, -353616941, 1491648501, -1071041224, 353.2491, 353.2491, 22.687, -2.685, -12.008
 55633571, -353616503, 1491648859, -1071026914, 353.1946, 353.1946, 22.711, -2.71, -12.045
 55653563, -353616503, 1491648859, -1070999673, 353.1946, 353.1946, 22.711, -2.71, -12.045
 55673555, -353616503, 1491648859, -1070993275, 353.1946, 353.1946, 22.711, -2.71, -12.045
 55693547, -353616503, 1491648859, -1070982155, 353.1946, 353.1946, 22.711, -2.71, -12.045
 55713539, -353616503, 1491648859, -1070878553, 353.1946, 353.1946, 22.711, -2.71, -12.045
 55733531, -353616503, 1491648859, -1070869221, 353.1946, 353.1946, 22.711, -2.71, -12.045
 55753523, -353616503, 1491648859, -1070864519, 353.1946, 353.1946, 22.711, -2.71, -12.045
 55773515, -353616503, 1491648859, -1070863996, 353.1946, 353.1946, 22.711, -2.71, -12.045
 55793507, -353616503, 1491648859, -1070867467, 353.1946, 353.1946, 22.711, -2.71, -12.045
 55813499, -353616503, 1491648859, -1070865946, 353.1946, 353.1946, 22.711, -2.71, -12.045
 55833491, -353616320, 1491648926, -1070866489, 353.1929, 353.1929, 22.77, -2.718, -11.997
 55853483, -353616320, 1491648926, -1070863362, 353.1929, 353.1929, 22.77, -2.718, -11.997
 55873475, -353616320, 1491648926, -1070847854, 353.1929, 353.1929, 22.77, -2.718, -11.997
 55894300, -353616320, 1491648926, -1070835492, 353.1929, 353.1929, 22.77, -2.718, -11.997
 55914292, -353616320, 1491648926, -1070791372, 353.1929, 353.1929, 22.77, -2.718, -11.997
 55934284, -353616320, 1491648926, -1070788250, 353.1929, 353.1929, 22.77, -2.718, -11.997
 55954276, -353616320, 1491648926, -1070771752, 353.1929, 353.1929, 22.77, -2.718, -11.997
 55974268, -353616320, 1491648926, -1070763889, 353.1929, 353.1929, 22.77, -2.718, -11.997
 55994260, -353616320, 1491648926, -1070759998, 353.1929, 353.1929, 22.77, -2.718, -11.997
 56014252, -353616320, 1491648926, -1070753647, 353.1929, 353.1929, 22.77, -2.718, -11.997
 56034244, -353615561, 1491649401, -1070751778, 353.1744, 353.1744, 22.841, -2.734, -11.937
 56054236, -353615561, 1491649401, -1070760692, 353.1744, 353.1744, 22.841, -2.734, -11.937
 56074228, -353615561, 1491649401, -1070761851, 353.1744, 353.1744, 22.841, -2.734, -11.937
 56094220, -353615561, 1491649401, -1070770009, 353.1744, 353.1744, 22.841, -2.734, -11.937
 56114212, -353615561, 1491649401, -1070866842, 353.1744, 353.1744, 22.841, -2.734, -11.937
 56134204, -353615561, 1491649401, -1070869992, 353.1744, 353.1744, 22.841, -2.734, -11.937
 56154196, -353615561, 1491649401, -1070868215, 353.1744, 353.1744, 22.841, -2.734, -11.937
 56174188, -353615561, 1491649401, -1070882858, 353.1744, 353.1744, 22.841, -2.734, -11.937
 56194180, -353615561, 1491649401, -1070884630, 353.1744, 353.1744, 22.841, -2.734, -11.937
 56214172, -353615561, 1491649401, -1070895869, 353.1744, 353.1744, 22.841, -2.734, -11.937
 56234164, -353615169, 1491648956, -1070905530, 353.2069, 353.2069, 22.859, -2.723, -11.967
 56254156, -353615169, 1491648956, -1070913640, 353.2069, 353.2069, 22.859, -2.723, -11.967
 56274148, -353615169, 1491648956, -1070914245, 353.2069, 353.2069, 22.859, -2.723, -11.967
 56294140, -353615169, 1491648956, -1070921544, 353.2069, 353.2069, 22.859, -2.723, -11.967
 56314132, -353615169, 1491648956, -1070914076, 353.2069, 353.2069, 22.859, -2.723, -11.967
 56334124, -353615169, 1491648956, -1070923120, 353.2069, 353.2069, 22.859, -2.723, -11.967
 56354116, -353615169, 1491648956, -1070928899, 353.2069, 353.2069, 22.859, -2.723, -11.967
 56374108, -353615169, 1491648956, -1070938652, 353.2069, 353.2069, 22.859, -2.723, -11.967
 56394100, -353615169, 1491648956, -1070945517, 353.2069, 353.2069, 22.859, -2.723, -11.967
 56414092, -353615169, 1491648956, -1070945709, 353.2069, 353.2069, 22.859, -2.723, -11.967
 56434084, -353614827, 1491648168, -1070948353, 353.2351, 353.2351, 22.878, -2.713, -11.984
 56454076, -353614827, 1491648168, -1070946244, 353.2351, 353.2351, 22.878, -2.713, -11.984
 56474068, -353614827, 1491648168, -1070948650, 353.2351, 353.2351, 22.878, -2.713, -11.984
 56494060, -353614827, 1491648168, -1070939186, 353.2351, 353.2351, 22.878, -2.713, -11.984
 56514052, -353614827, 1491648168, -1070750546, 353.2351, 353.2351, 22.878, -2.713, -11.984
 56534044, -353614827, 1491648168, -1070747892, 353.2351, 353.2351, 22.878, -2.713, -11.984
 56554036, -353614827, 1491648168, -1070746899, 353.2351, 353.2351, 22.878, -2.713, -11.984
 56574028, -353614827, 1491648168, -1070739581, 353.2351, 353.2351, 22.878, -2.713, -11.984
 56594020, -353614827, 1491648168, -1070738145, 353.2351, 353.2351, 22.878, -2.713, -11.984
 56614012, -353614827, 1491648168, -1070723532, 353.2351, 353.2351, 22.878, -2.713, -11.984
 56634004, -353614339, 1491648464, -1070718447, 353.2129, 353.2129, 22.912, -2.726, -11.956
 56653996, -353614339, 1491648464, -1070710260, 353.2129, 353.2129, 22.912, -2.726, -11.956
 56673988, -353614339, 1491648464, -1070700945, 353.2129, 353.2129, 22.912, -2.726, -11.956
 56693980, -353614339, 1491648464, -1070677888, 353.2129, 353.2129, 22.912, -2.726, -11.956
 56713972, -353614339, 1491648464, -1070594434, 353.2129, 353.2129, 22.912, -2.726, -11.956
 56733964, -353614339, 1491648464, -1070571708, 353.2129, 353.2129, 22.912, -2.726, -11.956
 56753956, -353614339, 1491648464, -1070562279, 353.2129, 353.2129, 22.912, -2.726, -11.956
 56773948, -353614339, 1491648464, -1070551516, 353.2129, 353.2129, 22.912, -2.726, -11.956
 56793940, -353614339, 1491648464, -1070535401, 353.2129, 353.2129, 22.912, -2.726, -11.956
 56813932, -353614339, 1491648464, -1070513171, 353.2129, 353.2129, 22.912, -2.726, -11.956
 56833924, -353614135, 1491648628, -1070493193, 353.1382, 353.1382, 22.948, -2.761, -11.935
 56853916, -353614135, 1491648628, -1070470403, 353.1382, 353.1382, 22.948, -2.761, -11.935
 56873908, -353614135, 1491648628, -1070446961, 353.1382, 353.1382, 22.948, -2.761, -11.935
 56893900, -353614135, 1491648628, -1070439261, 353.1382, 353.1382, 22.948, -2.761, -11.935
 56913892, -353614135, 1491648628, -1070426070, 353.1382, 353.1382, 22.948, -2.761, -11.935
 56933884, -353614135, 1491648628, -1070403475, 353.1382, 353.1382, 22.948, -2.761, -11.935
 56953876, -353614135, 1491648628, -1070400351, 353.1382, 353.1382, 22.948, -2.761, -11.935
 56973868, -353614135, 1491648628, -1070400044, 353.1382, 353.1382, 22.948, -2.761, -11.935
 56993860, -353614135, 1491648628, -1070397293, 353.1382, 353.1382, 22.948, -2.761, -11.935
 57013852, -353614135, 1491648628, -1070392066, 353.1382, 353.1382, 22.948, -2.761, -11.935
 57033844, -353613628, 1491648529, -1070380540, 353.0836, 353.0836, 22.944, -2.783, -11.975
 57053836, -353613628, 1491648529, -1070381124, 353.0836, 353.0836, 22.944, -2.783, -11.975
 57073828, -353613628, 1491648529, -1070363526, 353.0836, 353.0836, 22.944, -2.783, -11.975
 57093820, -353613628, 1491648529, -1070349377, 353.0836, 353.0836, 22.944, -2.783, -11.975
 57113812, -353613628, 1491648529, -1070333795, 353.0836, 353.0836, 22.944, -2.783, -11.975
 57133804, -353613628, 1491648529, -1070317520, 353.0836, 353.0836, 22.944, -2.783, -11.975
 57153796, -353613628, 1491648529, -1070302108, 353.0836, 353.0836, 22.944, -2.783, -11.975
 57173788, -353613628, 1491648529, -1070281885, 353.0836, 353.0836, 22.944, -2.783, -11.975
 57193780, -353613628, 1491648529, -1070268857, 353.0836, 353.0836, 22.944, -2.783, -11.975
 57213772, -353613628, 1491648529, -1070269830, 353.0836, 353.0836, 22.944, -2.783, -11.975
 57233764, -353613647, 1491648464, -1070263006, 353.0393, 353.0393, 22.968, -2.804, -11.948
 57253756, -353613647, 1491648464, -1070250953, 353.0393, 353.0393, 22.968, -2.804, -11.948
 57273748, -353613647, 1491648464, -1070263985, 353.0393, 353.0393, 22.968, -2.804, -11.948
 57293740, -353613647, 1491648464, -1070252031, 353.0393, 353.0393, 22.968, -2.804, -11.948
 57313732, -353613647, 1491648464, -1070240892, 353.0393, 353.0393, 22.968, -2.804, -11.948
 57333724, -353613647, 1491648464, -1070231033, 353.0393, 353.0393, 22.968, -2.804, -11.948
 57353716, -353613647, 1491648464, -1070230678, 353.0393, 353.0393, 22.968, -2.804, -11.948
 57373708, -353613647, 1491648464, -1070233126, 353.0393, 353.0393, 22.968, -2.804, -11.948
 57393700, -353613647, 1491648464, -1070234636, 353.0393, 353.0393, 22.968, -2.804, -11.948
 57413692, -353613647, 1491648464, -1070231097, 353.0393, 353.0393, 22.968, -2.804, -11.948
 57433684, -353612621, 1491648741, -1070224775, 353.0591, 353.0591, 23.047, -2.805, -11.83
 57453676, -353612621, 1491648741, -1070227206, 353.0591, 353.0591, 23.047, -2.805, -11.83
 57473668, -353612621, 1491648741, -1070217258, 353.0591, 353.0591, 23.047, -2.805, -11.83
 57493660, -353612621, 1491648741, -1070214390, 353.0591, 353.0591, 23.047, -2.805, -11.83
 57513652, -353612621, 1491648741, -1070277094, 353.0591, 353.0591, 23.047, -2.805, -11.83
 57533644, -353612621, 1491648741, -1070264481, 353.0591, 353.0591, 23.047, -2.805, -11.83
 57553636, -353612621, 1491648741, -1070252950, 353.0591, 353.0591, 23.047, -2.805, -11.83
 57573628, -353612621, 1491648741, -1070243914, 353.0591, 353.0591, 23.047, -2.805, -11.83
 57593620, -353612621, 1491648741, -1070221929, 353.0591, 353.0591, 23.047, -2.805, -11.83
 57613612, -353612621, 1491648741, -1070209466, 353.0591, 353.0591, 23.047, -2.805, -11.83
 57633604, -353612364, 1491648651, -1070193213, 352.9822, 352.9822, 23.008, -2.832, -11.934
 57653596, -353612364, 1491648651, -1070186751, 352.9822, 352.9822, 23.008, -2.832, -11.934
 57673588, -353612364, 1491648651, -1070182501, 352.9822, 352.9822, 23.008, -2.832, -11.934
 57693580, -353612364, 1491648651, -1070168103, 352.9822, 352.9822, 23.008, -2.832, -11.934
 57713572, -353612364, 1491648651, -1070221306, 352.9822, 352.9822, 23.008, -2.832, -11.934
 57733564, -353612364, 1491648651, -1070209661, 352.9822, 352.9822, 23.008, -2.832, -11.934
 57753556, -353612364, 1491648651, -1070196999, 352.9822, 352.9822, 23.008, -2.832, -11.934
 57773548, -353612364, 1491648651, -1070186661, 352.9822, 352.9822, 23.008, -2.832, -11.934
 57793540, -353612364, 1491648651, -1070176496, 352.9822, 352.9822, 23.008, -2.832, -11.934
 57813532, -353612364, 1491648651, -1070163269, 352.9822, 352.9822, 23.008, -2.832, -11.934
 57833524, -353612112, 1491647962, -1070143274, 352.9157, 352.9157, 23.027, -2.861, -11.931
 57853516, -353612112, 1491647962, -1070121923, 352.9157, 352.9157, 23.027, -2.861, -11.931
 57873508, -353612112, 1491647962, -1070105442, 352.9157, 352.9157, 23.027, -2.861, -11.931
 57893500, -353612112, 1491647962, -1070096605, 352.9157, 352.9157, 23.027, -2.861, -11.931
 57913492, -353612112, 1491647962, -1069988307, 352.9157, 352.9157, 23.027, -2.861, -11.931
 57933484, -353612112, 1491647962, -1069974225, 352.9157, 352.9157, 23.027, -2.861, -11.931
 57953476, -353612112, 1491647962, -1069978063, 352.9157, 352.9157, 23.027, -2.861, -11.931
 57974301, -353612112, 1491647962, -1069969463, 352.9157, 352.9157, 23.027, -2.861, -11.931
 57994293, -353612112, 1491647962, -1069973678, 352.9157, 352.9157, 23.027, -2.861, -11.931
 58014285, -353612112, 1491647962, -1069973338, 352.9157, 352.9157, 23.027, -2.861, -11.931
 58034277, -353611980, 1491648775, -1069984405, 352.9157, 352.9157, 23.107, -2.871, -11.81
 58054269, -353611980, 1491648775, -1069991736, 352.9157, 352.9157, 23.107, -2.871, -11.81
 58074261, -353611980, 1491648775, -1069982617, 352.9157, 352.9157, 23.107, -2.871, -11.81
