TimeUS,aF,aR,aD,gyR,gyP,gyY,bAlt,gpLat,gpLng,gpAlt,gpN,gpE,gpD
 55914292, 0.001689041, 0.001241977, -9.81918, 0.0008132579, 0.0008166562, 0.0008087545, -0.09549935, -353629379, 1491650851, 0, 0, 0, 0
 55934284, -0.001434905, -0.002668439, -9.817432, 0.0008150571, 0.0008070138, 0.000818289, 0.1376314, -353629379, 1491650851, 0, 0, 0, 0
 55954276, -0.001602957, 0.001418252, -9.814413, 0.0008134234, 0.0008097014, 0.0008170999, 0.1376314, -353629379, 1491650851, 0, 0, 0, 0
 55974268, -0.004763488, 0.004954148, -9.816048, 0.0008128193, 0.0008045206, 0.0008113872, 0.1376314, -353629379, 1491650851, 0, 0, 0, 0
 55994260, -0.00564406, 0.00486167, -9.818747, 0.0008122064, 0.0008216351, 0.0008113272, 0.1376314, -353629379, 1491650851, 0, 0, 0, 0
 56014252, 0.0007663177, -0.002530452, -9.818796, 0.0008184731, 0.0008231616, 0.0008082384, 0.1376314, -353629379, 1491650851, 0, 0, 0, 0
 56034244, -0.0004147682, -0.006728096, -9.818335, 0.0008147652, 0.0008119568, 0.0008146804, -0.07864653, -353629378, 1491650854, 0, 0, 0, 0
 56054236, -0.005319704, -0.003803437, -9.820093, 0.0008148137, 0.000815172, 0.0008146755, -0.07864653, -353629378, 1491650854, 0, 0, 0, 0
 56074228, 0.0009909591, -0.003727348, -9.818103, 0.0008126122, 0.0008147734, 0.0008147652, -0.07864653, -353629378, 1491650854, 0, 0, 0, 0
 56094220, 1.689493E-05, -0.00176203, -9.812757, 0.0008212642, 0.0008188177, 0.0008194184, -0.07864653, -353629378, 1491650854, 0, 0, 0, 0
 56114212, 5.876209E-05, 0.003769083, -9.814641, 0.0008174176, 0.0008145842, 0.000814889, -0.07864653, -353629378, 1491650854, 0, 0, 0, 0
 56134204, -0.0006774463, 0.0006431833, -9.815409, 0.0008176962, 0.0008134057, 0.0008155049, -0.09549935, -353629378, 1491650854, 0, 0, 0, 0
 56154196, 0.01622416, -0.00110074, -9.815808, 0.0008183706, 0.0008200189, 0.0008168431, -0.09549935, -353629378, 1491650854, 0, 0, 0, 0
 56174188, 0.06400073, -0.00127219, -9.814319, 0.0008172407, 0.0008197461, 0.0008139786, -0.09549935, -353629378, 1491650854, 0, 0, 0, 0
 56194180, 0.146504, -0.000384598, -9.815372, 0.0008109024, 0.0008159549, 0.0008089829, -0.09549935, -353629378, 1491650854, 0, 0, 0, 0
 56214172, 0.256299, 0.0006873681, -9.817795, 0.0008175937, 0.0008143047, 0.0008127656, -0.09549935, -353629378, 1491650854, 0, 0, 0, 0
 56234164, 0.3854795, 0.00611005, -9.82058, 0.0008211378, 0.000810865, 0.0008192951, -0.07864653, -353629378, 1491650852, 0, 0, 0, 0
 56254156, 0.5328507, -0.0001647617, -9.817391, 0.000820177, 0.0008141973, 0.0008198031, -0.07864653, -353629378, 1491650852, 0, 0, 0, 0
 56274148, 0.6959214, 0.0007687031, -9.816009, 0.000812711, 0.000820068, 0.0008109027, -0.07864653, -353629378, 1491650852, 0, 0, 0, 0
 56294140, 0.8747915, 0.002103433, -9.813908, 0.0008141107, 0.0008171552, 0.0008155346, -0.07864653, -353629378, 1491650852, 0, 0, 0, 0
 56314132, 1.070734, -0.0007784002, -9.817343, 0.0008231861, 0.0008209368, 0.0008102504, -0.07864653, -353629378, 1491650852, 0, 0, 0, 0
 56334124, 1.267592, -0.0008174141, -9.820183, 0.000818325, 0.0008130593, 0.0008062795, 0.01123522, -353629378, 1491650852, 0, 0, 0, 0
 56354116, 1.473506, 0.0008821769, -9.815439, 0.000820305, 0.0008190478, 0.0008154431, 0.01123522, -353629378, 1491650852, 0, 0, 0, 0
 56374108, 1.701523, -0.002848809, -9.815379, 0.0008174363, 0.0008174473, 0.0008173615, 0.01123522, -353629378, 1491650852, 0, 0, 0, 0
 56394100, 1.926035, 0.004879092, -9.80887, 0.0008182407, 0.0008177104, 0.0008142727, 0.01123522, -353629378, 1491650852, 0, 0, 0, 0
 56414092, 2.150508, 0.004257987, -9.810365, 0.0008189309, 0.0008176723, 0.0008008602, 0.01123522, -353629378, 1491650852, 0, 0, 0, 0
 56434084, 2.383392, -0.003756017, -9.790906, 0.0008238225, 0.000818003, 0.0007932087, -0.1404402, -353629379, 1491650849, 0, 0.009000001, -0.001, 0
 56454076, 2.630761, -0.01728123, -9.777425, 0.000824679, 0.0008195774, 0.000799451, -0.1404402, -353629379, 1491650849, 0, 0.009000001, -0.001, 0
 56474068, 2.84662, 0.00322499, -9.771869, 0.0008249432, 0.0008225371, 0.0008123707, -0.1404402, -353629379, 1491650849, 0, 0.009000001, -0.001, 0
 56494060, 3.110031, -0.004099988, -9.773564, 0.000818543, 0.0008281118, 0.0008001194, -0.1404402, -353629379, 1491650849, 0, 0.009000001, -0.001, 0
 56514052, 3.335552, 0.000122362, -9.769287, 0.0008211166, 0.0008227834, 0.0007831825, -0.1404402, -353629379, 1491650849, 0, 0.009000001, -0.001, 0
 56534044, 3.55951, 0.0224197, -9.751808, 0.0008203202, 0.0008228811, 0.0007818971, 0.1685283, -353629379, 1491650849, 0, 0.009000001, -0.001, 0
 56554036, 3.824116, 0.0005187751, -9.75251, 0.0008265396, 0.0008208681, 0.000789712, 0.1685283, -353629379, 1491650849, 0, 0.009000001, -0.001, 0
 56574028, 4.053678, -0.02953424, -9.735565, 0.0008201203, 0.0008193504, 0.0007987613, 0.1685283, -353629379, 1491650849, 0, 0.009000001, -0.001, 0
 56594020, 4.267523, -0.01731773, -9.724494, 0.0008253947, 0.0008182314, 0.0007840362, 0.1685283, -353629379, 1491650849, 0, 0.009000001, -0.001, 0
 56614012, 4.556623, -0.01623387, -9.725433, 0.000831167, 0.0008253023, 0.0007915459, 0.1685283, -353629379, 1491650849, 0, 0.009000001, -0.001, 0
 56634004, 4.721077, 0.0008874504, -9.723454, 0.0008225501, 0.0008213993, 0.0007789521, -0.07302891, -353629377, 1491650851, 0, 0.248, -0.026, 0
 56653996, 4.983287, 0.007614393, -9.711801, 0.0008195546, 0.0008277997, 0.0007920955, -0.07302891, -353629377, 1491650851, 0, 0.248, -0.026, 0
 56673988, 5.260763, -0.00446835, -9.703611, 0.0008218091, 0.000826581, 0.0008066374, -0.07302891, -353629377, 1491650851, 0, 0.248, -0.026, 0
 56693980, 5.494004, -0.05945346, -9.702596, 0.000827588, 0.0008259357, 0.0008244006, -0.07302891, -353629377, 1491650851, 0, 0.248, -0.026, 0
 56713972, 5.751677, 0.03483462, -9.691826, 0.0008283208, 0.0008246101, 0.0007989508, -0.07302891, -353629377, 1491650851, 0, 0.248, -0.026, 0
 56733964, 5.982648, 0.04300351, -9.682394, 0.0008260171, 0.0008269792, 0.0007722941, -0.02808804, -353629377, 1491650851, 0, 0.248, -0.026, 0
 56753956, 6.205867, 0.02392003, -9.680521, 0.0008259334, 0.0008226754, 0.0007546117, -0.02808804, -353629377, 1491650851, 0, 0.248, -0.026, 0
 56773948, 6.440379, 0.02170665, -9.669247, 0.0008267681, 0.0008257953, 0.0007428608, -0.02808804, -353629377, 1491650851, 0, 0.248, -0.026, 0
 56793940, 6.741919, 0.001455699, -9.670331, 0.0008298929, 0.0008308367, 0.0007421261, -0.02808804, -353629377, 1491650851, 0, 0.248, -0.026, 0
 56813932, 6.91257, 0.04705997, -9.661292, 0.000828605, 0.000825515, 0.0007133284, -0.02808804, -353629377, 1491650851, 0, 0.248, -0.026, 0
 56833924, 7.111149, -0.0112823, -9.657803, 0.0008255043, 0.000833398, 0.0007393822, 0, -353629370, 1491650851, 0, 0.933, -0.09900001, 0.012
 56853916, 7.366484, -0.03668975, -9.652757, 0.0008256759, 0.0008295665, 0.0007681532, 0, -353629370, 1491650851, 0, 0.933, -0.09900001, 0.012
 56873908, 7.553777, 0.03104713, -9.646008, 0.0008269614, 0.000826394, 0.0007908048, 0, -353629370, 1491650851, 0, 0.933, -0.09900001, 0.012
 56893900, 7.750304, -0.002182391, -9.641227, 0.0008260525, 0.0008283598, 0.000817787, 0, -353629370, 1491650851, 0, 0.933, -0.09900001, 0.012
 56913892, 7.970451, -0.04682799, -9.632294, 0.0008276298, 0.0008286268, 0.0008407329, 0, -353629370, 1491650851, 0, 0.933, -0.09900001, 0.012
 56933884, 8.257746, -0.08256407, -9.621465, 0.0008276443, 0.0008227377, 0.0008646128, -0.03370565, -353629370, 1491650851, 0, 0.933, -0.09900001, 0.012
 56953876, 8.488618, -0.06587951, -9.615833, 0.0008246592, 0.0008286015, 0.000896427, -0.03370565, -353629370, 1491650851, 0, 0.933, -0.09900001, 0.012
 56973868, 8.681882, 0.04526247, -9.614264, 0.0008264635, 0.0008257664, 0.000837104, -0.03370565, -353629370, 1491650851, 0, 0.933, -0.09900001, 0.012
 56993860, 8.802252, -0.02361747, -9.612879, 0.000827177, 0.0008316878, 0.0008567486, -0.03370565, -353629370, 1491650851, 0, 0.933, -0.09900001, 0.012
 57013852, 9.039021, -0.07688707, -9.606057, 0.0008296935, 0.0008289054, 0.0009286451, -0.03370565, -353629370, 1491650851, 0, 0.933, -0.09900001, 0.012
 57033844, 9.242749, 0.1019775, -9.601108, 0.0008284037, 0.0008301039, 0.0009306834, -0.08988174, -353629348, 1491650848, 0, 2.092, -0.219, 0.037
 57053836, 9.397707, -0.07232094, -9.594753, 0.0008283398, 0.0008303653, 0.000899192, -0.08988174, -353629348, 1491650848, 0, 2.092, -0.219, 0.037
 57073828, 9.561389, -0.04842734, -9.587744, 0.0008249524, 0.0008237885, 0.0008787246, -0.08988174, -353629348, 1491650848, 0, 2.092, -0.219, 0.037
 57093820, 9.859921, -0.06192606, -9.577781, 0.0008303846, 0.0008281081, 0.0008608972, -0.08988174, -353629348, 1491650848, 0, 2.092, -0.219, 0.037
 57113812, 10.09718, 0.0008251443, -9.578975, 0.0008262142, 0.0008331421, 0.000834097, -0.08988174, -353629348, 1491650848, 0, 2.092, -0.219, 0.037
 57133804, 10.23609, 0.05874719, -9.570686, 0.0008289609, 0.0008297231, 0.0008364372, 0.03651446, -353629348, 1491650848, 0, 2.092, -0.219, 0.037
 57153796, 10.38586, 0.05367048, -9.566105, 0.0008280532, 0.0008404835, 0.0008095591, 0.03651446, -353629348, 1491650848, 0, 2.092, -0.219, 0.037
 57173788, 10.5754, 0.03012343, -9.5584, 0.0008319404, 0.0009433368, 0.0008454016, 0.03651446, -353629348, 1491650848, 0, 2.092, -0.219, 0.037
 57193780, 10.6071, -0.05379905, -9.552396, 0.0008279211, 0.001089971, 0.0007457243, 0.03651446, -353629348, 1491650848, 0, 2.092, -0.219, 0.037
 57213772, 10.68708, 0.09980595, -9.550846, 0.0008320679, 0.001170841, 0.0006997171, 0.03651446, -353629348, 1491650848, 0, 2.092, -0.219, 0.037
 57233764, 10.76608, 0.007941502, -9.542529, 0.0008288819, 0.001195515, 0.0006656927, -0.129205, -353629304, 1491650842, -1, 3.699, -0.389, 0.074
 57253756, 10.80009, 0.07339587, -9.535394, 0.0008353806, 0.00127795, 0.000680174, -0.129205, -353629304, 1491650842, -1, 3.699, -0.389, 0.074
 57273748, 10.8843, -0.01337611, -9.534283, 0.0008368012, 0.001457901, 0.0006777711, -0.129205, -353629304, 1491650842, -1, 3.699, -0.389, 0.074
 57293740, 10.75408, -0.0803629, -9.532998, 0.0008336905, 0.001598543, 0.0006373434, -0.129205, -353629304, 1491650842, -1, 3.699, -0.389, 0.074
 57313732, 10.73457, -0.001307696, -9.519157, 0.0008365057, 0.001709128, 0.0006339366, -0.129205, -353629304, 1491650842, -1, 3.699, -0.389, 0.074
 57333724, 10.738, 0.007409079, -9.523863, 0.0008373872, 0.001728592, 0.0006837002, 0.1572931, -353629304, 1491650842, -1, 3.699, -0.389, 0.074
 57353716, 10.73286, -0.1094099, -9.52384, 0.0008352866, 0.001721355, 0.0007351193, 0.1572931, -353629304, 1491650842, -1, 3.699, -0.389, 0.074
 57373708, 10.57109, -0.03966022, -9.521168, 0.0008334326, 0.001723397, 0.0007144185, 0.1572931, -353629304, 1491650842, -1, 3.699, -0.389, 0.074
 57393700, 10.43406, 8.020666E-06, -9.522597, 0.0008391525, 0.001742918, 0.0006939649, 0.1572931, -353629304, 1491650842, -1, 3.699, -0.389, 0.074
 57413692, 10.45948, 0.05306105, -9.521204, 0.0008338399, 0.0018209, 0.0006610526, 0.1572931, -353629304, 1491650842, -1, 3.699, -0.389, 0.074
 57433684, 10.36918, 0.06795987, -9.521335, 0.0008379646, 0.001860693, 0.0006527089, -0.230322, -353629224, 1491650835, -3, 5.697001, -0.597, 0.123
 57453676, 10.37805, -5.438249E-05, -9.523531, 0.0008367799, 0.001854412, 0.0007117705, -0.230322, -353629224, 1491650835, -3, 5.697001, -0.597, 0.123
 57473668, 10.31712, 0.03525442, -9.51833, 0.0008380994, 0.001919587, 0.000727479, -0.230322, -353629224, 1491650835, -3, 5.697001, -0.597, 0.123
 57493660, 10.19606, 0.05417182, -9.521491, 0.0008334834, 0.002049202, 0.0007055309, -0.230322, -353629224, 1491650835, -3, 5.697001, -0.597, 0.123
 57513652, 10.01771, 0.002646337, -9.524894, 0.0008331697, 0.00203471, 0.0006754523, -0.230322, -353629224, 1491650835, -3, 5.697001, -0.597, 0.123
 57533644, 9.997719, -0.02346133, -9.526171, 0.000835659, 0.001888215, 0.000757472, -0.1404402, -353629224, 1491650835, -3, 5.697001, -0.597, 0.123
 57553636, 9.921728, 0.02960519, -9.528831, 0.0008379539, 0.001971451, 0.0007581267, -0.1404402, -353629224, 1491650835, -3, 5.697001, -0.597, 0.123
 57573628, 9.783934, 0.00585231, -9.527637, 0.0008408015, 0.001940006, 0.0007228946, -0.1404402, -353629224, 1491650835, -3, 5.697001, -0.597, 0.123
 57593620, 9.676203, -0.1030284, -9.533443, 0.000834828, 0.00188158, 0.0007141704, -0.1404402, -353629224, 1491650835, -3, 5.697001, -0.597, 0.123
 57613612, 9.512115, -0.09233645, -9.53546, 0.0008370306, 0.001784288, 0.0007407918, -0.1404402, -353629224, 1491650835, -3, 5.697001, -0.597, 0.123
 57633604, 9.443378, -0.0850614, -9.538938, 0.0008384329, 0.001835497, 0.0008346174, -0.0674113, -353629114, 1491650821, -6, 7.816, -0.822, 0.181
 57653596, 9.210331, -0.02109702, -9.544668, 0.0008356484, 0.001836651, 0.0008667305, -0.0674113, -353629114, 1491650821, -6, 7.816, -0.822, 0.181
 57673588, 9.237736, -0.01047951, -9.541414, 0.0008326016, 0.001859542, 0.000746383, -0.0674113, -353629114, 1491650821, -6, 7.816, -0.822, 0.181
 57693580, 9.113081, -0.04668697, -9.545701, 0.0008409746, 0.001830906, 0.0007443706, -0.0674113, -353629114, 1491650821, -6, 7.816, -0.822, 0.181
 57713572, 9.011668, 0.0950447, -9.547213, 0.0008420369, 0.001762639, 0.0008279737, -0.0674113, -353629114, 1491650821, -6, 7.816, -0.822, 0.181
 57733564, 8.775484, -0.09970325, -9.559389, 0.0008412669, 0.001740625, 0.0008565343, 0.01404402, -353629114, 1491650821, -6, 7.816, -0.822, 0.181
 57753556, 8.745836, 0.108612, -9.595428, 0.0008398499, 0.001652806, 0.0008120672, 0.01404402, -353629114, 1491650821, -6, 7.816, -0.822, 0.181
 57773548, 8.660923, 0.02330014, -9.637776, 0.0008369528, 0.001636468, 0.0008015709, 0.01404402, -353629114, 1491650821, -6, 7.816, -0.822, 0.181
 57793540, 8.550157, 0.1245186, -9.790466, 0.0008368979, 0.001646875, 0.0008294927, 0.01404402, -353629114, 1491650821, -6, 7.816, -0.822, 0.181
 57813532, 8.360636, 0.1059948, -10.01452, 0.0008396566, 0.001693955, 0.0007892809, 0.01404402, -353629114, 1491650821, -6, 7.816, -0.822, 0.181
 57833524, 8.428583, -0.07684458, -10.14429, 0.0008391571, 0.001676844, 0.0007114168, -0.05055848, -353628959, 1491650804, -10, 9.804001, -1.031, 0.239
 57853516, 8.168359, -0.04037671, -10.22147, 0.000840284, 0.001613012, 0.000775146, -0.05055848, -353628959, 1491650804, -10, 9.804001, -1.031, 0.239
 57873508, 7.980772, -0.03420908, -10.32827, 0.0008435471, 0.00161497, 0.0008019587, -0.05055848, -353628959, 1491650804, -10, 9.804001, -1.031, 0.239
 57893500, 8.049858, -0.05094505, -10.26622, 0.0008375223, 0.001572743, 0.0007520852, -0.05055848, -353628959, 1491650804, -10, 9.804001, -1.031, 0.239
 57913492, 7.820447, -0.08091496, -10.31782, 0.0008417852, 0.001599985, 0.0007890532, -0.05055848, -353628959, 1491650804, -10, 9.804001, -1.031, 0.239
 57933484, 7.669255, -0.1499661, -10.27044, 0.0008408044, 0.001601578, 0.0007796819, -0.1741459, -353628959, 1491650804, -10, 9.804001, -1.031, 0.239
 57953476, 7.746667, 0.1928104, -10.07172, 0.0008452415, 0.0016406, 0.0007549673, -0.1741459, -353628959, 1491650804, -10, 9.804001, -1.031, 0.239
 57974301, 7.494452, -0.05157612, -10.06755, 0.000844482, 0.001574339, 0.0006932036, -0.1741459, -353628959, 1491650804, -10, 9.804001, -1.031, 0.239
 57994293, 7.372608, 0.07955447, -9.894327, 0.0008454478, 0.001619121, 0.0006811732, -0.1741459, -353628959, 1491650804, -10, 9.804001, -1.031, 0.239
 58014285, 7.29072, 0.02978921, -9.866745, 0.0008450241, 0.001639956, 0.0007132, -0.1741459, -353628959, 1491650804, -10, 9.804001, -1.031, 0.239
 58034277, 7.201958, 0.02853347, -9.882106, 0.0008456449, 0.001680524, 0.0007198909, -0.3819974, -353628772, 1491650787, -16, 11.575, -1.214, 0.276
 58054269, 7.123798, -0.04893053, -9.808634, 0.000842474, 0.001655924, 0.0007244053, -0.3819974, -353628772, 1491650787, -16, 11.575, -1.214, 0.276
 58074261, 6.968432, -0.06437894, -9.573267, 0.0008438551, 0.001711288, 0.0007766694, -0.3819974, -353628772, 1491650787, -16, 11.575, -1.214, 0.276
 58094253, 6.942447, 0.03868371, -9.39629, 0.000843537, 0.001710372, 0.0007175659, -0.3819974, -353628772, 1491650787, -16, 11.575, -1.214, 0.276
 58114245, 6.985589, 0.09593675, -9.552698, 0.000840868, 0.001787818, 0.0006775248, -0.3819974, -353628772, 1491650787, -16, 11.575, -1.214, 0.276
 58134237, 6.616463, 0.01217183, -9.41808, 0.000846199, 0.001891805, 0.0006444576, -0.1741459, -353628772, 1491650787, -16, 11.575, -1.214, 0.276
 58154229, 6.719518, 0.01259969, -9.357628, 0.0008444394, 0.001908106, 0.0006542994, -0.1741459, -353628772, 1491650787, -16, 11.575, -1.214, 0.276
 58174221, 6.491771, 0.1364362, -9.42202, 0.0008486534, 0.001951183, 0.000670897, -0.1741459, -353628772, 1491650787, -16, 11.575, -1.214, 0.276
 58194213, 7.658115, -0.0314968, -9.401732, 9.589075E-05, 0.003260582, 0.001322517, -0.1741459, -353628772, 1491650787, -16, 11.575, -1.214, 0.276
 58214205, 10.66558, -0.03458392, -10.6041, -0.01052109, 0.02824884, 0.004734206, -0.1741459, -353628772, 1491650787, -16, 11.575, -1.214, 0.276
 58234197, 10.54937, -0.0912368, -12.24074, -0.02280251, 0.07121062, 0.009144178, -0.101117, -353628554, 1491650760, -20, 13.134, -1.38, 0.205
 58254189, 10.34868, -0.02106671, -13.5389, -0.02991518, 0.0967817, 0.01910641, -0.101117, -353628554, 1491650760, -20, 13.134, -1.38, 0.205
 58274181, 10.35109, 0.09878065, -14.66101, -0.02356344, 0.1100664, 0.02150497, -0.101117, -353628554, 1491650760, -20, 13.134, -1.38, 0.205
 58294173, 10.31407, 0.03632431, -15.41576, -0.01556802, 0.1177183, 0.01754659, -0.101117, -353628554, 1491650760, -20, 13.134, -1.38, 0.205
 58314165, 10.06811, 0.03556704, -15.85339, -0.01222817, 0.1207349, 0.02085846, -0.101117, -353628554, 1491650760, -20, 13.134, -1.38, 0.205
 58334157, 10.02568, 0.06010345, -16.03764, -0.02103906, 0.1283333, 0.01851077, -0.4437911, -353628554, 1491650760, -20, 13.134, -1.38, 0.205
 58354149, 9.991808, 0.1368186, -16.21889, -0.02130111, 0.1282693, 0.01210422, -0.4437911, -353628554, 1491650760, -20, 13.134, -1.38, 0.205
 58374141, 9.830426, 0.1040543, -16.25091, -0.01753571, 0.1415261, 0.005051626, -0.4437911, -353628554, 1491650760, -20, 13.134, -1.38, 0.205
 58394133, 9.72384, 0.02957197, -16.20049, -0.02347332, 0.1512639, -0.0003415507, -0.4437911, -353628554, 1491650760, -20, 13.134, -1.38, 0.205
 58414125, 9.703949, 0.08309441, -15.93099, -0.02548553, 0.1611981, 0.0008198824, -0.4437911, -353628554, 1491650760, -20, 13.134, -1.38, 0.205
 58434117, 9.534154, 0.02901364, -15.71709, -0.00797845, 0.1729842, -0.007353815, -0.2808805, -353628313, 1491650698, -25, 14.588, -1.532, 0.239
 58454109, 9.427677, 0.04539741, -15.58436, 0.008735451, 0.1716188, -0.01339736, -0.2808805, -353628313, 1491650698, -25, 14.588, -1.532, 0.239
 58474101, 9.394485, 0.1104059, -15.26763, 0.01567394, 0.1799277, -0.01022695, -0.2808805, -353628313, 1491650698, -25, 14.588, -1.532, 0.239
 58494093, 9.290382, 0.03067461, -15.05897, 0.01301122, 0.1700587, -0.01303996, -0.2808805, -353628313, 1491650698, -25, 14.588, -1.532, 0.239
 58514085, 9.154926, 0.05373605, -14.59711, 0.008352448, 0.1619463, -0.007840297, -0.2808805, -353628313, 1491650698, -25, 14.588, -1.532, 0.239
 58534077, 9.100909, 0.08916218, -14.26985, 0.0110232, 0.1704133, -0.005049256, -0.2640276, -353628313, 1491650698, -25, 14.588, -1.532, 0.239
 58554069, 8.941746, -0.03538328, -14.08025, 0.01614983, 0.1752191, -0.006349314, -0.2640276, -353628313, 1491650698, -25, 14.588, -1.532, 0.239
 58574061, 8.871557, 0.0269295, -13.92849, 0.01490925, 0.1740397, -0.01219333, -0.2640276, -353628313, 1491650698, -25, 14.588, -1.532, 0.239
 58594053, 8.817582, 0.001851316, -13.66849, 0.01934538, 0.1622128, -0.0255209, -0.2640276, -353628313, 1491650698, -25, 14.588, -1.532, 0.239
 58614045, 8.733935, -0.08095721, -13.46253, 0.01740316, 0.1439382, -0.01697512, -0.2640276, -353628313, 1491650698, -25, 14.588, -1.532, 0.239
 58634037, 8.543486, -0.04998037, -13.22267, 0.01378627, 0.1155121, -0.01696388, -0.0674113, -353628041, 1491650669, -20, 16.557, -1.737, -0.8610001
 58654029, 8.436485, -0.01656719, -12.87978, 0.001573011, 0.102456, -0.02304745, -0.0674113, -353628041, 1491650669, -20, 16.557, -1.737, -0.8610001
 58674021, 8.415096, -0.07165682, -12.54919, -0.001252443, 0.09226135, -0.02074164, -0.0674113, -353628041, 1491650669, -20, 16.557, -1.737, -0.8610001
 58694013, 8.288005, -0.1345902, -12.33227, 0.007783539, 0.08221888, -0.01767142, -0.0674113, -353628041, 1491650669, -20, 16.557, -1.737, -0.8610001
 58714005, 8.23864, -0.1524045, -11.90399, 0.01096666, 0.0669915, -0.0204054, -0.0674113, -353628041, 1491650669, -20, 16.557, -1.737, -0.8610001
 58733997, 8.142456, -0.1023885, -11.83939, 0.01285054, 0.05612865, -0.005631683, 0.4690703, -353628041, 1491650669, -20, 16.557, -1.737, -0.8610001
 58753989, 8.065395, -0.009333712, -11.60564, 0.01369026, 0.04125405, 0.0185626, 0.4690703, -353628041, 1491650669, -20, 16.557, -1.737, -0.8610001
 58773981, 7.921803, -0.04228351, -11.37821, 0.008951096, 0.03549181, 0.006307262, 0.4690703, -353628041, 1491650669, -20, 16.557, -1.737, -0.8610001
 58793973, 7.830481, -0.01589328, -11.27692, 0.009309396, 0.0251979, 0.007949904, 0.4690703, -353628041, 1491650669, -20, 16.557, -1.737, -0.8610001
 58813965, 7.836037, 0.06260244, -11.04421, 0.008941535, 0.01450374, -0.002032197, 0.4690703, -353628041, 1491650669, -20, 16.557, -1.737, -0.8610001
 58833957, 7.783329, -0.1049397, -10.96415, 0.01798966, 0.01157765, -0.004708434, 0.5982754, -353627738, 1491650638, 8, 18.244, -1.919, -1.889
 58853949, 7.832787, 0.02126626, -10.86633, 0.01297127, -0.002747776, -0.003024536, 0.5982754, -353627738, 1491650638, 8, 18.244, -1.919, -1.889
 58873941, 7.64974, -0.04632389, -10.56483, 0.00870747, -0.01217882, -0.001400549, 0.5982754, -353627738, 1491650638, 8, 18.244, -1.919, -1.889
 58893933, 7.611168, -0.08484954, -10.53648, 0.00622961, -0.009553978, -0.006735557, 0.5982754, -353627738, 1491650638, 8, 18.244, -1.919, -1.889
 58913925, 7.50902, -0.1427753, -10.59475, -0.003623396, 0.001128767, -0.002668736, 0.5982754, -353627738, 1491650638, 8, 18.244, -1.919, -1.889
 58933917, 7.344975, -0.1408849, -10.63135, 0.002094789, 0.02119244, -0.001653355, 0.733098, -353627738, 1491650638, 8, 18.244, -1.919, -1.889
 58953909, 7.484243, -0.1001277, -10.75032, 0.01882537, 0.04016403, -0.01027866, 0.733098, -353627738, 1491650638, 8, 18.244, -1.919, -1.889
 58973901, 7.338623, -0.1585643, -11.14539, 0.02204973, 0.04647617, -0.009752211, 0.733098, -353627738, 1491650638, 8, 18.244, -1.919, -1.889
 58993893, 7.187891, -0.07589713, -11.20695, 0.01342586, 0.04822756, -0.02002585, 0.733098, -353627738, 1491650638, 8, 18.244, -1.919, -1.889
 59013885, 6.986921, -0.2265335, -11.33894, 0.01474863, 0.04850707, -0.01189646, 0.733098, -353627738, 1491650638, 8, 18.244, -1.919, -1.889
 59033877, 6.954087, -0.08954731, -11.50689, 0.008249293, 0.05704083, -0.009226486, 1.199359, -353627405, 1491650602, 52, 19.703, -2.094, -2.432
 59053869, 6.911252, -0.1112194, -11.56768, 0.008534498, 0.05623171, -0.005007992, 1.199359, -353627405, 1491650602, 52, 19.703, -2.094, -2.432
 59073861, 6.743058, -0.09098825, -11.54962, -0.003174999, 0.04635431, 0.00409163, 1.199359, -353627405, 1491650602, 52, 19.703, -2.094, -2.432
 59093853, 6.745798, -0.157345, -11.61715, -0.01035924, 0.03730406, 0.001055145, 1.199359, -353627405, 1491650602, 52, 19.703, -2.094, -2.432
 59113845, 6.650362, -0.1126073, -11.44828, -0.01071189, 0.03600911, -0.003683656, 1.199359, -353627405, 1491650602, 52, 19.703, -2.094, -2.432
 59133837, 6.595823, -0.1989392, -11.35139, -0.01008714, 0.04292487, -0.001021804, 1.261153, -353627405, 1491650602, 52, 19.703, -2.094, -2.432
 59153829, 6.422437, -0.008499085, -11.41262, -0.01027781, 0.04770101, 0.0074693, 1.261153, -353627405, 1491650602, 52, 19.703, -2.094, -2.432
 59173821, 6.374217, -0.03609476, -11.51728, -0.006145942, 0.05699578, -0.003066712, 1.261153, -353627405, 1491650602, 52, 19.703, -2.094, -2.432
 59193813, 6.431506, -0.03064678, -11.46124, -0.005314107, 0.06085962, 0.007675422, 1.261153, -353627405, 1491650602, 52, 19.703, -2.094, -2.432
 59213805, 6.174101, -0.05526939, -11.62674, -0.009948091, 0.06885112, 0.01381164, 1.261153, -353627405, 1491650602, 52, 19.703, -2.094, -2.432
 59233797, 6.144423, -0.1068741, -11.74394, -0.01064499, 0.07360723, -0.001906982, 1.966163, -353627042, 1491650546, 104, 21.023, -2.255, -2.739
 59253789, 6.095013, -0.05027205, -11.8164, -0.005493972, 0.06978463, -0.008568168, 1.966163, -353627042, 1491650546, 104, 21.023, -2.255, -2.739
 59273781, 5.913592, 0.0259098, -11.8675, -0.004994563, 0.07462297, -0.004277956, 1.966163, -353627042, 1491650546, 104, 21.023, -2.255, -2.739
 59293773, 5.935712, -0.07649419, -11.85631, 0.004931831, 0.08142499, -0.005429282, 1.966163, -353627042, 1491650546, 104, 21.023, -2.255, -2.739
 59313765, 5.883401, -0.03013816, -12.03767, 0.009211535, 0.0772229, -0.01494236, 1.966163, -353627042, 1491650546, 104, 21.023, -2.255, -2.739
 59333757, 5.654501, -0.1032791, -11.95641, -0.002035062, 0.07439098, -0.0158113, 1.946501, -353627042, 1491650546, 104, 21.023, -2.255, -2.739
 59353749, 5.580743, -0.07106772, -12.01831, -0.0205281, 0.06716315, -0.01352942, 1.946501, -353627042, 1491650546, 104, 21.023, -2.255, -2.739
 59373741, 5.573243, -0.117817, -11.94043, -0.01501951, 0.0626567, -0.005154128, 1.946501, -353627042, 1491650546, 104, 21.023, -2.255, -2.739
 59393733, 5.51679, -0.3139341, -11.66531, -0.01647356, 0.06241374, -0.006939396, 1.946501, -353627042, 1491650546, 104, 21.023, -2.255, -2.739
 59413725, 5.313815, -0.00527569, -11.67344, -0.01624471, 0.06347241, -0.0001502788, 1.946501, -353627042, 1491650546, 104, 21.023, -2.255, -2.739
 59433717, 5.038896, -0.1026145, -11.75187, -0.008792242, 0.06532766, 0.007632099, 2.603762, -353626655, 1491650503, 163, 22.144, -2.394, -3.174
 59453709, 4.871274, -0.04126056, -11.77043, -0.001108237, 0.05822338, 0.01495863, 2.603762, -353626655, 1491650503, 163, 22.144, -2.394, -3.174
 59473701, 4.606601, -0.01889165, -11.68042, -0.006460711, 0.05180681, 0.002352724, 2.603762, -353626655, 1491650503, 163, 22.144, -2.394, -3.174
 59493693, 4.420519, -0.09745168, -11.49222, -0.003195453, 0.05067186, -0.007971596, 2.603762, -353626655, 1491650503, 163, 22.144, -2.394, -3.174
 59513685, 4.141845, -0.1030468, -11.3333, 0.006061829, 0.05146763, -0.005631384, 2.603762, -353626655, 1491650503, 163, 22.144, -2.394, -3.174
 59533677, 3.937588, -0.05877339, -11.51315, 0.01628107, 0.05791625, -0.003902201, 2.898686, -353626655, 1491650503, 163, 22.144, -2.394, -3.174
 59553669, 3.704697, -0.0615157, -11.43431, 0.01587543, 0.0544561, 0.006513264, 2.898686, -353626655, 1491650503, 163, 22.144, -2.394, -3.174
 59573661, 3.467288, -0.2561629, -11.35174, 0.02147034, 0.06613, 0.008519966, 2.898686, -353626655, 1491650503, 163, 22.144, -2.394, -3.174
 59593653, 3.167243, -0.2314465, -11.4548, 0.03320874, 0.07361728, 0.01001624, 2.898686, -353626655, 1491650503, 163, 22.144, -2.394, -3.174
 59613645, 2.840518, -0.1456122, -11.64243, 0.03973361, 0.08765849, 0.01656415, 2.898686, -353626655, 1491650503, 163, 22.144, -2.394, -3.174
 59633637, 2.679557, -0.05721346, -11.7978, 0.03775265, 0.09855012, 0.02270738, 3.235743, -353626254, 1491650461, 232, 23.064, -2.513, -3.679
 59653629, 2.508051, 0.1001217, -11.96507, 0.04611963, 0.1019261, 0.02245936, 3.235743, -353626254, 1491650461, 232, 23.064, -2.513, -3.679
 59673621, 2.396159, 0.2047827, -12.13738, 0.04487873, 0.1067032, 0.0245281, 3.235743, -353626254, 1491650461, 232, 23.064, -2.513, -3.679
 59693613, 2.190019, 0.1688679, -12.34847, 0.04700769, 0.1219207, 0.02859724, 3.235743, -353626254, 1491650461, 232, 23.064, -2.513, -3.679
 59713605, 2.084154, 0.2093886, -12.58688, 0.04135352, 0.1369825, 0.01881423, 3.235743, -353626254, 1491650461, 232, 23.064, -2.513, -3.679
 59733597, 1.998513, 0.2203143, -12.74713, 0.046219, 0.1415831, 0.01281496, 3.755372, -353626254, 1491650461, 232, 23.064, -2.513, -3.679
 59753589, 1.875223, 0.1653761, -13.12008, 0.04824482, 0.155286, 0.008555038, 3.755372, -353626254, 1491650461, 232, 23.064, -2.513, -3.679
 59773581, 1.732583, 0.2120535, -13.40711, 0.05048017, 0.163222, -0.001887097, 3.755372, -353626254, 1491650461, 232, 23.064, -2.513, -3.679
 59793573, 1.626215, 0.1258407, -13.40405, 0.04474956, 0.1618922, -0.0141949, 3.755372, -353626254, 1491650461, 232, 23.064, -2.513, -3.679
 59813565, 1.593097, 0.1369491, -13.51797, 0.03845217, 0.1604269, -0.01793197, 3.755372, -353626254, 1491650461, 232, 23.064, -2.513, -3.679
 59833557, 1.498759, 0.03972998, -13.67224, 0.02866104, 0.1709605, -0.01108122, 4.168266, -353625833, 1491650379, 309, 23.617, -2.602, -4.094
 59853549, 1.521677, 0.06134998, -13.74052, 0.01900375, 0.1680615, -0.006388664, 4.168266, -353625833, 1491650379, 309, 23.617, -2.602, -4.094
 59873541, 1.530053, 0.0606423, -13.7137, 0.01413723, 0.165325, -0.002504394, 4.168266, -353625833, 1491650379, 309, 23.617, -2.602, -4.094
 59893533, 1.509717, 0.1228833, -13.75821, 0.00427327, 0.1617331, -0.002028432, 4.168266, -353625833, 1491650379, 309, 23.617, -2.602, -4.094
 59913525, 1.418907, 0.1119673, -13.66747, -0.005262575, 0.1577275, -0.003664888, 4.168266, -353625833, 1491650379, 309, 23.617, -2.602, -4.094
 59933517, 1.464208, 0.003169446, -13.62493, -0.006614266, 0.1581145, -0.01007146, 4.825526, -353625833, 1491650379, 309, 23.617, -2.602, -4.094
 59953509, 1.34199, 0.1084103, -13.60195, -0.01156652, 0.1618852, -0.01389053, 4.825526, -353625833, 1491650379, 309, 23.617, -2.602, -4.094
 59973501, 1.386619, -0.06540924, -13.60837, -0.02553706, 0.1563111, -0.01316533, 4.825526, -353625833, 1491650379, 309, 23.617, -2.602, -4.094
 59993493, 1.501132, -0.06500921, -13.57309, -0.0310136, 0.1497151, -0.01066403, 4.825526, -353625833, 1491650379, 309, 23.617, -2.602, -4.094
 60013485, 1.438898, -0.09855072, -13.38209, -0.0339035, 0.1455345, -0.01099438, 4.825526, -353625833, 1491650379, 309, 23.617, -2.602, -4.094
 60033477, 1.476311, -0.0944175, -13.35303, -0.03733463, 0.1496566, -0.004816805, 5.35639, -353625407, 1491650332, 397, 23.717, -2.573, -4.699
 60054302, 1.428876, -0.06626052, -13.3075, -0.03228915, 0.1428117, 0.004308404, 5.35639, -353625407, 1491650332, 397, 23.717, -2.573, -4.699
 60074294, 1.505858, -0.144909, -13.15138, -0.03375864, 0.1315601, 0.005861173, 5.35639, -353625407, 1491650332, 397, 23.717, -2.573, -4.699
 60094286, 1.461147, -0.102391, -12.98573, -0.03606904, 0.1260498, 0.005744411, 5.35639, -353625407, 1491650332, 397, 23.717, -2.573, -4.699
 60114278, 1.460899, -0.04203077, -12.9204, -0.02907202, 0.1233718, 0.002588395, 5.35639, -353625407, 1491650332, 397, 23.717, -2.573, -4.699
 60134270, 1.589606, -0.07250257, -12.69611, -0.02995677, 0.1160947, -0.009151155, 6.20184, -353625407, 1491650332, 397, 23.717, -2.573, -4.699
 60154262, 1.590335, -0.1606903, -12.58184, -0.02766614, 0.1064316, -0.01239621, 6.20184, -353625407, 1491650332, 397, 23.717, -2.573, -4.699
 60174254, 1.600622, -0.1543399, -12.29968, -0.01992842, 0.09156389, -0.01691965, 6.20184, -353625407, 1491650332, 397, 23.717, -2.573, -4.699
 60194246, 1.595601, -0.2071569, -12.1365, -0.01376011, 0.08099304, -0.01960242, 6.20184, -353625407, 1491650332, 397, 23.717, -2.573, -4.699
 60214238, 1.682853, -0.1764938, -11.85551, -0.006120292, 0.07241449, -0.01097553, 6.20184, -353625407, 1491650332, 397, 23.717, -2.573, -4.699
 60234230, 1.637999, -0.1856593, -11.65843, -0.004703682, 0.06977621, -0.004141091, 6.752366, -353624982, 1491650285, 499, 23.59, -2.528, -5.475
 60254222, 1.627918, -0.1530253, -11.47245, -0.006815104, 0.06999883, -0.0003473158, 6.752366, -353624982, 1491650285, 499, 23.59, -2.528, -5.475
 60274214, 1.721823, -0.2000008, -11.46835, 0.0008815886, 0.07201576, 0.00829055, 6.752366, -353624982, 1491650285, 499, 23.59, -2.528, -5.475
 60294206, 1.678989, -0.1808094, -11.34645, 0.009179564, 0.06746607, 0.007681046, 6.752366, -353624982, 1491650285, 499, 23.59, -2.528, -5.475
 60314198, 1.649387, -0.090492, -11.26745, 0.01810455, 0.06310433, 0.005287657, 6.752366, -353624982, 1491650285, 499, 23.59, -2.528, -5.475
 60334190, 1.717623, -0.1161067, -11.23976, 0.0245718, 0.06500395, 0.004449955, 7.134363, -353624982, 1491650285, 499, 23.59, -2.528, -5.475
 60354182, 1.737995, -0.178461, -11.26076, 0.02628363, 0.06307514, 0.002557473, 7.134363, -353624982, 1491650285, 499, 23.59, -2.528, -5.475
 60374174, 1.734326, -0.1740166, -11.13977, 0.02703369, 0.04956739, 0.004543746, 7.134363, -353624982, 1491650285, 499, 23.59, -2.528, -5.475
 60394166, 1.743255, -0.1258188, -10.85439, 0.02804569, 0.04254804, 0.0055224, 7.134363, -353624982, 1491650285, 499, 23.59, -2.528, -5.475
 60414158, 1.795031, -0.02650557, -10.79748, 0.02384981, 0.04099678, 0.009708604, 7.134363, -353624982, 1491650285, 499, 23.59, -2.528, -5.475
 60434150, 1.792689, -0.1106167, -10.72383, 0.0205142, 0.03931034, 0.01185431, 8.013519, -353624559, 1491650204, 615, 23.432, -2.525, -6.073
 60454142, 1.741345, -0.002283624, -10.66177, 0.0249678, 0.04048949, 0.008138428, 8.013519, -353624559, 1491650204, 615, 23.432, -2.525, -6.073
 60474134, 1.767458, 0.005671263, -10.64139, 0.03373785, 0.04206888, 0.002746044, 8.013519, -353624559, 1491650204, 615, 23.432, -2.525, -6.073
 60494126, 1.722134, -0.06778108, -10.68539, 0.03032121, 0.05360274, -1.8468E-05, 8.013519, -353624559, 1491650204, 615, 23.432, -2.525, -6.073
 60514118, 1.735908, 0.0009277849, -10.7299, 0.02462483, 0.04971704, 0.007188346, 8.013519, -353624559, 1491650204, 615, 23.432, -2.525, -6.073
 60534110, 1.768262, 0.0598693, -10.64484, 0.02244616, 0.03973913, 0.01078298, 8.656735, -353624559, 1491650204, 615, 23.432, -2.525, -6.073
 60554102, 1.754417, 0.01522486, -10.65463, 0.02512983, 0.04189804, 0.006828844, 8.656735, -353624559, 1491650204, 615, 23.432, -2.525, -6.073
 60574094, 1.75665, 0.01227531, -10.54072, 0.0258965, 0.03898666, 0.002215685, 8.656735, -353624559, 1491650204, 615, 23.432, -2.525, -6.073
 60594086, 1.788352, 0.1017744, -10.57807, 0.01978147, 0.03983793, -0.003552264, 8.656735, -353624559, 1491650204, 615, 23.432, -2.525, -6.073
 60614078, 1.857814, -0.03642852, -10.6259, 0.01313005, 0.04003251, 0.001530851, 8.656735, -353624559, 1491650204, 615, 23.432, -2.525, -6.073
 60634070, 1.787332, -0.06648308, -10.48805, 0.003504599, 0.03852035, 0.001470538, 9.544317, -353624143, 1491650160, 740, 23.316, -2.535, -6.383
 60654062, 1.830637, 0.05908634, -10.58772, -0.002406721, 0.04113343, 0.006202402, 9.544317, -353624143, 1491650160, 740, 23.316, -2.535, -6.383
 60674054, 1.835625, 0.01695425, -10.51626, -0.001863699, 0.04095121, 0.008591479, 9.544317, -353624143, 1491650160, 740, 23.316, -2.535, -6.383
 60694046, 1.794211, -0.05530769, -10.51878, -0.01002801, 0.03569629, 0.008679701, 9.544317, -353624143, 1491650160, 740, 23.316, -2.535, -6.383
 60714038, 1.901648, -0.005279338, -10.37907, -0.009135892, 0.03726459, 0.008173579, 9.544317, -353624143, 1491650160, 740, 23.316, -2.535, -6.383
 60734030, 1.876281, 0.08867972, -10.51782, -0.006321396, 0.04243901, 0.004719732, 10.03867, -353624143, 1491650160, 740, 23.316, -2.535, -6.383
 60754022, 1.831471, -0.00977542, -10.49477, -0.01214397, 0.04579176, -0.001351503, 10.03867, -353624143, 1491650160, 740, 23.316, -2.535, -6.383
 60774014, 1.780875, 0.09161255, -10.57102, -0.010521, 0.03772991, 0.001653404, 10.03867, -353624143, 1491650160, 740, 23.316, -2.535, -6.383
 60794006, 1.863085, 0.08051852, -10.49597, -0.01017898, 0.03251097, 0.01020332, 10.03867, -353624143, 1491650160, 740, 23.316, -2.535, -6.383
 60813998, 1.879392, -0.02151136, -10.44301, -0.01400386, 0.03400309, 0.008497132, 10.03867, -353624143, 1491650160, 740, 23.316, -2.535, -6.383
 60833990, 1.819786, 0.07129634, -10.4317, -0.01134337, 0.0347441, 0.006036987, 10.83356, -353623723, 1491650097, 869, 23.224, -2.512, -6.577
 60853982, 1.911046, 0.03836206, -10.3412, -0.009990532, 0.03828387, 0.003597435, 10.83356, -353623723, 1491650097, 869, 23.224, -2.512, -6.577
 60873974, 1.816558, 0.02515663, -10.42526, -0.004892583, 0.04210936, 0.002452932, 10.83356, -353623723, 1491650097, 869, 23.224, -2.512, -6.577
 60893966, 1.800853, 0.04686583, -10.49242, -0.006543504, 0.04571532, 0.005681756, 10.83356, -353623723, 1491650097, 869, 23.224, -2.512, -6.577
 60913958, 1.871864, -0.02154268, -10.51724, -0.01981505, 0.04837953, 0.004022316, 10.83356, -353623723, 1491650097, 869, 23.224, -2.512, -6.577
 60933950, 1.849129, 0.09568806, -10.61396, -0.03007178, 0.04347576, -0.0008688971, 11.48239, -353623723, 1491650097, 869, 23.224, -2.512, -6.577
 60953942, 1.849907, -0.01962638, -10.54034, -0.02796718, 0.03014728, -0.001930651, 11.48239, -353623723, 1491650097, 869, 23.224, -2.512, -6.577
 60973934, 1.840003, -0.07419793, -10.3877, -0.01692214, 0.02049894, -0.005178511, 11.48239, -353623723, 1491650097, 869, 23.224, -2.512, -6.577
 60993926, 1.898659, -0.08461929, -10.17036, -0.01140255, 0.01482762, -0.01262523, 11.48239, -353623723, 1491650097, 869, 23.224, -2.512, -6.577
 61013918, 1.901899, -0.03446695, -9.993154, -0.00916585, 0.01455797, -0.009640737, 11.48239, -353623723, 1491650097, 869, 23.224, -2.512, -6.577
 61033910, 2.083528, -0.04624744, -10.12272, -0.0137296, 0.01702389, -0.003057754, 12.06662, -353623306, 1491650053, 1003, 23.132, -2.479, -6.744
 61053902, 1.991428, -0.03440151, -10.0484, -0.01568791, 0.01645998, 0.002992659, 12.06662, -353623306, 1491650053, 1003, 23.132, -2.479, -6.744
 61073894, 1.993066, -0.1253174, -9.930761, -0.02375752, 0.01585667, 0.0046486, 12.06662, -353623306, 1491650053, 1003, 23.132, -2.479, -6.744
 61093886, 2.023061, -0.111178, -9.914272, -0.02311071, 0.008587759, -0.001599156, 12.06662, -353623306, 1491650053, 1003, 23.132, -2.479, -6.744
 61113878, 2.051809, -0.112403, -9.902912, -0.02074275, 0.007615398, -0.004278128, 12.06662, -353623306, 1491650053, 1003, 23.132, -2.479, -6.744
 61133870, 2.061746, -0.1480318, -9.697994, -0.01396795, 0.01116502, 0.0003644826, 12.84466, -353623306, 1491650053, 1003, 23.132, -2.479, -6.744
 61153862, 2.068875, 0.007324818, -9.631006, -0.009831744, -0.002008835, 0.003438725, 12.84466, -353623306, 1491650053, 1003, 23.132, -2.479, -6.744
 61173854, 2.041385, 0.08332111, -9.5709, -0.006731722, -0.01243574, 0.008933758, 12.84466, -353623306, 1491650053, 1003, 23.132, -2.479, -6.744
 61193846, 2.026035, 0.01268649, -9.418256, -0.004722527, -0.01539969, 0.007685371, 12.84466, -353623306, 1491650053, 1003, 23.132, -2.479, -6.744
 61213838, 1.979187, -0.0822247, -9.356139, -0.0045529, -0.01973465, 0.003092246, 12.84466, -353623306, 1491650053, 1003, 23.132, -2.479, -6.744
 61233830, 1.990093, -0.02480535, -9.283993, 0.003985059, -0.01305117, 0.005154375, 13.56933, -353622891, 1491650008, 1139, 23.032, -2.454, -6.89
 61253822, 2.051758, -0.02655236, -9.207049, 0.002981514, -0.01444206, 0.007140084, 13.56933, -353622891, 1491650008, 1139, 23.032, -2.454, -6.89
 61273814, 2.097764, 0.01723347, -9.249037, -0.004691908, -0.01956118, 0.005224037, 13.56933, -353622891, 1491650008, 1139, 23.032, -2.454, -6.89
 61293806, 2.086991, 0.020925, -9.050471, -0.001976065, -0.01998879, 0.008687037, 13.56933, -353622891, 1491650008, 1139, 23.032, -2.454, -6.89
 61313798, 2.096884, -0.02174751, -9.09675, -0.005738238, -0.01530548, 0.005531677, 13.56933, -353622891, 1491650008, 1139, 23.032, -2.454, -6.89
 61333790, 2.153633, 0.006845313, -9.236493, -0.005270098, -0.00576176, -0.004190796, 14.56084, -353622891, 1491650008, 1139, 23.032, -2.454, -6.89
 61353782, 2.119474, 0.05213051, -9.326691, -0.005721634, 0.002313844, -0.008744562, 14.56084, -353622891, 1491650008, 1139, 23.032, -2.454, -6.89
 61373774, 2.11022, -0.01617209, -9.470932, -0.004333024, 0.002573439, -0.01037668, 14.56084, -353622891, 1491650008, 1139, 23.032, -2.454, -6.89
 61393766, 2.194983, -0.09223986, -9.569991, -0.002281954, 0.002538883, -0.006365326, 14.56084, -353622891, 1491650008, 1139, 23.032, -2.454, -6.89
 61413758, 2.105551, -0.01442571, -9.542051, 0.008043182, 0.004380501, -0.003023784, 14.56084, -353622891, 1491650008, 1139, 23.032, -2.454, -6.89
 61433750, 2.04355, -0.04782473, -9.607348, 0.01595003, 0.008446312, -0.005668866, 15.1226, -353622476, 1491649927, 1277, 22.984, -2.454, -6.921
 61453742, 2.122493, -0.1019673, -9.685324, 0.01240396, 0.02382984, 0.004358296, 15.1226, -353622476, 1491649927, 1277, 22.984, -2.454, -6.921
 61473734, 2.134, -0.05261604, -9.90991, 0.005066379, 0.03027863, 0.017038, 15.1226, -353622476, 1491649927, 1277, 22.984, -2.454, -6.921
 61493726, 2.041486, -0.098763, -10.07437, 0.0006476305, 0.03845608, 0.02088219, 15.1226, -353622476, 1491649927, 1277, 22.984, -2.454, -6.921
 61513718, 2.081535, 0.03011284, -10.17709, -0.009691081, 0.03142707, 0.01533575, 15.1226, -353622476, 1491649927, 1277, 22.984, -2.454, -6.921
 61533710, 2.010144, 0.005394101, -10.1962, -0.01388672, 0.02702238, 0.001265012, 15.8248, -353622476, 1491649927, 1277, 22.984, -2.454, -6.921
 61553702, 2.006584, 0.05315806, -10.16495, -0.01101398, 0.02007864, 0.004681947, 15.8248, -353622476, 1491649927, 1277, 22.984, -2.454, -6.921
 61573694, 2.069204, -0.01723772, -10.05445, -0.003050471, 0.01696491, 0.008099533, 15.8248, -353622476, 1491649927, 1277, 22.984, -2.454, -6.921
 61593686, 2.096734, 0.06900958, -10.0126, 0.002782521, 0.008529284, 0.006791513, 15.8248, -353622476, 1491649927, 1277, 22.984, -2.454, -6.921
 61613678, 2.038308, 0.09567423, -9.851076, 0.003579967, 0.006774851, 0.005948486, 15.8248, -353622476, 1491649927, 1277, 22.984, -2.454, -6.921
 61633670, 2.101826, 0.01439621, -9.818237, 0.001830939, 0.007935295, 0.0005465653, 16.5888, -353622063, 1491649883, 1415, 22.978, -2.454, -6.863
 61653662, 2.088967, -0.03304115, -9.870715, -0.002419909, 0.02234593, -0.007795136, 16.5888, -353622063, 1491649883, 1415, 22.978, -2.454, -6.863
 61673654, 2.158507, -0.01102623, -9.912341, -0.004977452, 0.02834878, -0.01829887, 16.5888, -353622063, 1491649883, 1415, 22.978, -2.454, -6.863
 61693646, 2.124881, -0.0104083, -10.07556, -0.003518665, 0.01825592, -0.01572936, 16.5888, -353622063, 1491649883, 1415, 22.978, -2.454, -6.863
 61713638, 2.160928, -0.006649599, -9.988493, 0.005071291, 0.01091736, -0.002693544, 16.5888, -353622063, 1491649883, 1415, 22.978, -2.454, -6.863
 61733630, 2.228056, -0.03480106, -9.864975, 0.004620678, 0.0128121, 0.0004807306, 17.3865, -353622063, 1491649883, 1415, 22.978, -2.454, -6.863
 61753622, 2.224221, -0.03199058, -9.855523, -0.003848932, 0.006094931, 0.005536301, 17.3865, -353622063, 1491649883, 1415, 22.978, -2.454, -6.863
 61773614, 2.247343, -0.08995977, -9.742238, -0.01487299, 0.002482994, 0.008930153, 17.3865, -353622063, 1491649883, 1415, 22.978, -2.454, -6.863
 61793606, 2.24934, -0.0352537, -9.605844, -0.01037841, -0.007624919, -0.001379287, 17.3865, -353622063, 1491649883, 1415, 22.978, -2.454, -6.863
 61813598, 2.306246, -0.006696626, -9.475373, -0.006307059, -0.01264275, 0.0004844844, 17.3865, -353622063, 1491649883, 1415, 22.978, -2.454, -6.863
 61833590, 2.212468, -0.007869675, -9.37353, -0.003298756, -0.0163656, 0.007703936, 18.12522, -353621649, 1491649839, 1553, 22.932, -2.448, -6.936
 61853582, 2.249448, -0.06772874, -9.301896, -0.002222339, -0.01681477, 0.007547909, 18.12522, -353621649, 1491649839, 1553, 22.932, -2.448, -6.936
 61873574, 2.304896, -0.08367594, -9.311789, 0.004898823, -0.01794766, 0.01106531, 18.12522, -353621649, 1491649839, 1553, 22.932, -2.448, -6.936
 61893566, 2.176394, 0.1007967, -9.145644, 0.01247669, -0.01883015, 0.01311506, 18.12522, -353621649, 1491649839, 1553, 22.932, -2.448, -6.936
 61913558, 2.266005, 0.01860477, -9.141045, 0.01442674, -0.01618791, 0.01452121, 18.12522, -353621649, 1491649839, 1553, 22.932, -2.448, -6.936
 61933550, 2.357748, 0.02304879, -9.147854, 0.007102509, -0.02054533, 0.009322479, 18.96224, -353621649, 1491649839, 1553, 22.932, -2.448, -6.936
 61953542, 2.288348, 0.02940331, -9.077036, 0.0004831922, -0.01600092, 0.006062759, 18.96224, -353621649, 1491649839, 1553, 22.932, -2.448, -6.936
 61973534, 2.172272, 0.07054026, -9.082087, -0.009012479, -0.009683555, -0.001323613, 18.96224, -353621649, 1491649839, 1553, 22.932, -2.448, -6.936
 61993526, 2.268929, 0.05483987, -9.26603, -0.006859249, -0.008035029, -0.0049062, 18.96224, -353621649, 1491649839, 1553, 22.932, -2.448, -6.936
 62013518, 2.2612, 0.1074716, -9.28363, -0.001229734, -0.009015923, -0.00248694, 18.96224, -353621649, 1491649839, 1553, 22.932, -2.448, -6.936
 62033510, 2.201969, 0.03925859, -9.369061, -0.003813811, -0.005001801, 0.004702752, 19.86106, -353621244, 1491649781, 1692, 22.904, -2.446, -6.985
 62053502, 2.346572, -0.002812942, -9.344615, -0.006974326, -0.007139847, 0.005372918, 19.86106, -353621244, 1491649781, 1692, 22.904, -2.446, -6.985
 62073494, 2.190168, -0.007184891, -9.271, -0.005064263, -0.002111738, 0.01144508, 19.86106, -353621244, 1491649781, 1692, 22.904, -2.446, -6.985
 62093486, 2.241138, 0.008985529, -9.405793, -0.003593024, -0.003162698, 0.005974236, 19.86106, -353621244, 1491649781, 1692, 22.904, -2.446, -6.985
 62113478, 2.304344, 0.009552492, -9.46956, -0.00471439, -0.002403971, 0.001130058, 19.86106, -353621244, 1491649781, 1692, 22.904, -2.446, -6.985
 62134303, 2.308806, 0.0614121, -9.530015, -0.003549789, 0.0004676298, -0.002060503, 20.36945, -353621244, 1491649781, 1692, 22.904, -2.446, -6.985
 62154295, 2.231867, 0.0616759, -9.481784, -0.006756088, -0.0005646528, 0.001569381, 20.36945, -353621244, 1491649781, 1692, 22.904, -2.446, -6.985
 62174287, 2.280383, 0.03683164, -9.579298, -0.004300492, 0.003727837, -0.009419774, 20.36945, -353621244, 1491649781, 1692, 22.904, -2.446, -6.985
 62194279, 2.223719, 0.03956668, -9.649891, -0.002132875, 0.007530782, -0.01227339, 20.36945, -353621244, 1491649781, 1692, 22.904, -2.446, -6.985
 62214271, 2.248429, 0.0124504, -9.626488, 0.006191628, 0.01307596, -0.01779747, 20.36945, -353621244, 1491649781, 1692, 22.904, -2.446, -6.985
 62234263, 2.189624, -0.04309552, -9.643053, 0.005960551, 0.01162077, -0.02277501, 21.09974, -353620830, 1491649735, 1831, 22.926, -2.441, -6.920001
 62254255, 2.19481, -0.1310608, -9.762912, 0.003893643, 0.00553037, -0.01630352, 21.09974, -353620830, 1491649735, 1831, 22.926, -2.441, -6.920001
 62274247, 2.142151, -0.04674684, -9.650661, 0.003432757, 0.004378649, -0.01317427, 21.09974, -353620830, 1491649735, 1831, 22.926, -2.441, -6.920001
 62294239, 2.266801, -0.06862775, -9.670446, -0.0002239875, -0.0068373, -0.001293545, 21.09974, -353620830, 1491649735, 1831, 22.926, -2.441, -6.920001
 62314231, 2.30362, -0.07838859, -9.554773, -0.006260009, -0.01354284, 0.003355371, 21.09974, -353620830, 1491649735, 1831, 22.926, -2.441, -6.920001
 62334223, 2.237104, -0.01501079, -9.381013, -0.009379433, -0.01699188, 0.0001272077, 21.82722, -353620830, 1491649735, 1831, 22.926, -2.441, -6.920001
 62354215, 2.310599, -0.09471636, -9.275253, -0.01194648, -0.0167883, -0.003141471, 21.82722, -353620830, 1491649735, 1831, 22.926, -2.441, -6.920001
 62374207, 2.314747, -0.04981183, -9.239515, -0.01553712, -0.01686684, -0.005136084, 21.82722, -353620830, 1491649735, 1831, 22.926, -2.441, -6.920001
 62394199, 2.331985, -0.03144392, -9.16403, -0.008345396, -0.0114587, 0.008719373, 21.82722, -353620830, 1491649735, 1831, 22.926, -2.441, -6.920001
 62414191, 2.348718, -0.1176899, -9.250322, -0.003188349, -0.005146773, 0.0104705, 21.82722, -353620830, 1491649735, 1831, 22.926, -2.441, -6.920001
 62434183, 2.302611, -0.09505053, -9.449353, -0.002177974, 0.003653717, 0.01426835, 22.85524, -353620417, 1491649691, 1970, 22.939, -2.434, -6.903
 62454175, 2.330616, -0.1005922, -9.508103, 0.00080254, -0.0008937438, 0.01572182, 22.85524, -353620417, 1491649691, 1970, 22.939, -2.434, -6.903
 62474167, 2.237748, 0.009125014, -9.449445, 0.006805318, 0.00057037, 0.01824825, 22.85524, -353620417, 1491649691, 1970, 22.939, -2.434, -6.903
 62494159, 2.274791, -0.02074126, -9.494038, 0.006869202, -0.002345657, 0.006248439, 22.85524, -353620417, 1491649691, 1970, 22.939, -2.434, -6.903
 62514151, 2.248769, 0.01829188, -9.352036, 0.01237186, -0.004202006, -0.004097142, 22.85524, -353620417, 1491649691, 1970, 22.939, -2.434, -6.903
 62534143, 2.302283, 0.03078821, -9.458265, 0.03100948, 0.0009585592, 0.007017587, 23.59958, -353620417, 1491649691, 1970, 22.939, -2.434, -6.903
 62554135, 2.185985, 0.09485432, -9.498579, 0.02987096, 0.001664646, 0.00326649, 23.59958, -353620417, 1491649691, 1970, 22.939, -2.434, -6.903
 62574127, 2.254242, -0.09231465, -9.617885, 0.01520996, 0.004485519, -0.0001015687, 23.59958, -353620417, 1491649691, 1970, 22.939, -2.434, -6.903
 62594119, 2.198811, 0.03368905, -9.629293, 0.01247529, 0.01083056, 0.0001393351, 23.59958, -353620417, 1491649691, 1970, 22.939, -2.434, -6.903
 62614111, 2.293061, 0.06302305, -9.759993, 0.00920825, 0.0103362, -0.003255225, 23.59958, -353620417, 1491649691, 1970, 22.939, -2.434, -6.903
 62634103, 2.310386, 0.1084619, -9.785649, 0.01055535, 0.02100714, 0.001441597, 24.0855, -353620001, 1491649609, 2108, 22.952, -2.451, -6.885
 62654095, 2.266755, 0.04861294, -9.965278, 0.005308336, 0.02429479, -6.58936E-05, 24.0855, -353620001, 1491649609, 2108, 22.952, -2.451, -6.885
 62674087, 2.269934, 0.008765826, -9.954192, 0.003047328, 0.02366011, -0.009139138, 24.0855, -353620001, 1491649609, 2108, 22.952, -2.451, -6.885
 62694079, 2.216436, -0.07489423, -9.985172, 0.008952867, 0.01861055, -0.01714646, 24.0855, -353620001, 1491649609, 2108, 22.952, -2.451, -6.885
 62714071, 2.181381, -0.07291405, -10.04403, 0.005092729, 0.01215009, -0.01273349, 24.0855, -353620001, 1491649609, 2108, 22.952, -2.451, -6.885
 62734063, 2.196528, -0.05068166, -9.851599, 0.002535867, 0.002378802, -0.003075818, 25.01802, -353620001, 1491649609, 2108, 22.952, -2.451, -6.885
 62754055, 2.28627, -0.01623528, -9.796141, -0.005055249, -0.001372397, -0.0003247729, 25.01802, -353620001, 1491649609, 2108, 22.952, -2.451, -6.885
 62774047, 2.272876, -0.1404635, -9.620455, -0.01224251, 0.0002208883, -0.002222845, 25.01802, -353620001, 1491649609, 2108, 22.952, -2.451, -6.885
 62794039, 2.241362, -0.07915282, -9.612543, -0.01324694, 0.002169464, 0.001929399, 25.01802, -353620001, 1491649609, 2108, 22.952, -2.451, -6.885
 62814031, 2.268637, -0.02414395, -9.588768, -0.006724043, 0.00207457, 0.00799017, 25.01802, -353620001, 1491649609, 2108, 22.952, -2.451, -6.885
 62834023, 2.16486, 0.005620269, -9.630577, 0.005380334, 0.004562526, 0.005109794, 25.67809, -353619590, 1491649567, 2245, 22.966, -2.453, -6.88
 62854015, 2.18044, 0.005421416, -9.742508, -0.00240294, 0.006595487, 0.00710211, 25.67809, -353619590, 1491649567, 2245, 22.966, -2.453, -6.88
 62874007, 2.225052, -0.03049456, -9.704277, -0.01208211, 0.006167819, 0.007088023, 25.67809, -353619590, 1491649567, 2245, 22.966, -2.453, -6.88
 62893999, 2.25267, 0.0506961, -9.642753, -0.008757213, 0.008770895, 0.003232446, 25.67809, -353619590, 1491649567, 2245, 22.966, -2.453, -6.88
 62913991, 2.310007, -0.06215538, -9.684324, -0.01381143, 0.00668238, 0.004488571, 25.67809, -353619590, 1491649567, 2245, 22.966, -2.453, -6.88
 62933983, 2.195723, -0.02854163, -9.624051, -0.01211875, 0.001218784, 0.003555737, 26.33816, -353619590, 1491649567, 2245, 22.966, -2.453, -6.88
 62953975, 2.275021, 0.004933828, -9.657906, -0.003555285, 0.006153604, 0.003876489, 26.33816, -353619590, 1491649567, 2245, 22.966, -2.453, -6.88
 62973967, 2.15714, -0.07370475, -9.729798, 0.006371208, 0.01125416, 0.0008542923, 26.33816, -353619590, 1491649567, 2245, 22.966, -2.453, -6.88
 62993959, 2.141011, -0.03269449, -9.77186, 0.005745527, 0.01223509, -0.001246201, 26.33816, -353619590, 1491649567, 2245, 22.966, -2.453, -6.88
 63013951, 2.133377, 0.09424128, -9.807497, 0.009901182, 0.02125965, 0.000663729, 26.33816, -353619590, 1491649567, 2245, 22.966, -2.453, -6.88
 63033943, 2.117834, -0.006178319, -9.973093, 0.01110247, 0.02157031, -0.0006837636, 27.12743, -353619186, 1491649524, 2383, 22.959, -2.453, -6.93
 63053935, 2.146646, -0.01063136, -9.869031, 0.01958233, 0.0113136, 0.001560919, 27.12743, -353619186, 1491649524, 2383, 22.959, -2.453, -6.93
 63073927, 2.162111, 0.01832246, -9.747371, 0.02500013, 0.0008869473, 0.006315585, 27.12743, -353619186, 1491649524, 2383, 22.959, -2.453, -6.93
 63093919, 2.185387, 0.08228384, -9.694805, 0.01898998, 0.007141652, 0.005288221, 27.12743, -353619186, 1491649524, 2383, 22.959, -2.453, -6.93
 63113911, 2.245406, -0.0493621, -9.707216, 0.007772801, 0.006044189, 0.001327096, 27.12743, -353619186, 1491649524, 2383, 22.959, -2.453, -6.93
 63133903, 2.128839, -0.02571969, -9.734509, 0.002166547, 0.003433237, 0.001124897, 28.05434, -353619186, 1491649524, 2383, 22.959, -2.453, -6.93
 63153895, 2.1412, 0.0516277, -9.614264, 0.006080424, 0.004824505, -0.006917163, 28.05434, -353619186, 1491649524, 2383, 22.959, -2.453, -6.93
 63173887, 2.256762, -0.1385343, -9.6093, 0.009950442, 0.003511466, -0.003238219, 28.05434, -353619186, 1491649524, 2383, 22.959, -2.453, -6.93
 63193879, 2.207843, -0.06917259, -9.741435, 0.01195299, 0.01439015, 0.0004788848, 28.05434, -353619186, 1491649524, 2383, 22.959, -2.453, -6.93
 63213871, 2.245461, 0.006380616, -9.749112, 0.01854986, 0.01009967, -0.00403732, 28.05434, -353619186, 1491649524, 2383, 22.959, -2.453, -6.93
 63233863, 2.184188, 0.03463881, -9.667011, 0.01740234, 0.006477029, -0.00820863, 28.5852, -353618770, 1491649445, 2522, 22.947, -2.454, -6.954
 63253855, 2.232125, -0.07447715, -9.682969, 0.01866472, 0.002848881, 0.0003730008, 28.5852, -353618770, 1491649445, 2522, 22.947, -2.454, -6.954
 63273847, 2.264375, -0.01484904, -9.6677, 0.02196595, -0.001556942, 0.002951249, 28.5852, -353618770, 1491649445, 2522, 22.947, -2.454, -6.954
 63293839, 2.377134, 0.05244634, -9.554884, 0.01737301, 0.0005950246, 0.003925009, 28.5852, -353618770, 1491649445, 2522, 22.947, -2.454, -6.954
 63313831, 2.214298, 0.02779622, -9.63409, 0.02040671, -0.001173166, -0.0008648566, 28.5852, -353618770, 1491649445, 2522, 22.947, -2.454, -6.954
 63333823, 2.259464, -0.01631, -9.475987, 0.01407401, -0.0002874883, -0.01209608, 29.2874, -353618770, 1491649445, 2522, 22.947, -2.454, -6.954
 63353815, 2.1484, -0.006051844, -9.658442, 0.0125695, 0.009534497, -0.005966884, 29.2874, -353618770, 1491649445, 2522, 22.947, -2.454, -6.954
 63373807, 2.191063, -0.04405025, -9.721544, 0.01444726, 0.02044306, -0.005184665, 29.2874, -353618770, 1491649445, 2522, 22.947, -2.454, -6.954
 63393799, 2.177534, -0.09335755, -9.776272, -0.002684755, 0.01241458, -0.00814427, 29.2874, -353618770, 1491649445, 2522, 22.947, -2.454, -6.954
 63413791, 2.202665, -0.1272312, -9.790655, -0.01520421, 0.008274948, -0.001428324, 29.2874, -353618770, 1491649445, 2522, 22.947, -2.454, -6.954
 63433783, 2.297308, -0.06045246, -9.701396, -0.01617641, 0.003616923, 0.0007607455, 30.35475, -353618356, 1491649401, 2662, 22.927, -2.449, -6.989
 63453775, 2.268697, -0.07591504, -9.712626, -0.02097275, 0.003277404, 0.008126231, 30.35475, -353618356, 1491649401, 2662, 22.927, -2.449, -6.989
 63473767, 2.230002, -0.0476815, -9.592649, -0.0165677, -0.005308198, -0.002213976, 30.35475, -353618356, 1491649401, 2662, 22.927, -2.449, -6.989
 63493759, 2.319763, -0.0543392, -9.47681, -0.01744663, -0.01400942, 5.459329E-05, 30.35475, -353618356, 1491649401, 2662, 22.927, -2.449, -6.989
 63513751, 2.354854, -0.02385285, -9.404169, -0.02558264, -0.01336334, 0.003923869, 30.35475, -353618356, 1491649401, 2662, 22.927, -2.449, -6.989
 63533743, 2.277257, -0.08443721, -9.395842, -0.02644605, -0.01227176, 0.01035942, 31.04852, -353618356, 1491649401, 2662, 22.927, -2.449, -6.989
 63553735, 2.266418, -0.03847867, -9.264851, -0.02794052, -0.009267987, 0.009688059, 31.04852, -353618356, 1491649401, 2662, 22.927, -2.449, -6.989
 63573727, 2.297121, 0.009774364, -9.276331, -0.02308153, -0.009983703, 0.009601831, 31.04852, -353618356, 1491649401, 2662, 22.927, -2.449, -6.989
 63593719, 2.193177, -0.04999071, -9.303222, -0.02189581, -0.00565959, 0.009201067, 31.04852, -353618356, 1491649401, 2662, 22.927, -2.449, -6.989
 63613711, 2.253462, -0.03767668, -9.408683, -0.01146096, -0.003749428, 0.004426952, 31.04852, -353618356, 1491649401, 2662, 22.927, -2.449, -6.989
 63633703, 2.316295, 0.04425433, -9.430209, -0.005610865, 0.00103204, 0.008281525, 31.66365, -353617940, 1491649358, 2802, 22.918, -2.445, -7.011
 63653695, 2.250525, -0.0002448537, -9.490103, -0.009163568, 0.004244101, 0.0003770014, 31.66365, -353617940, 1491649358, 2802, 22.918, -2.445, -7.011
 63673687, 2.250009, -0.0185874, -9.497171, -0.00818407, 0.00597416, 0.0006642615, 31.66365, -353617940, 1491649358, 2802, 22.918, -2.445, -7.011
 63693679, 2.193565, -0.008132366, -9.549795, -0.003387466, 0.001184962, 0.003177591, 31.66365, -353617940, 1491649358, 2802, 22.918, -2.445, -7.011
 63713671, 2.283359, -0.1327338, -9.539667, -0.002012697, -0.00448669, 0.0007989674, 31.66365, -353617940, 1491649358, 2802, 22.918, -2.445, -7.011
 63733663, 2.292534, -0.05072934, -9.5059, -0.0009550845, -0.006342172, -0.002450136, 32.37428, -353617940, 1491649358, 2802, 22.918, -2.445, -7.011
 63753655, 2.306615, -0.0138383, -9.493332, -0.004995489, -0.0008589008, -0.0113744, 32.37428, -353617940, 1491649358, 2802, 22.918, -2.445, -7.011
 63773647, 2.283425, -0.08849609, -9.542437, -0.00544745, 0.006308515, -0.01179555, 32.37428, -353617940, 1491649358, 2802, 22.918, -2.445, -7.011
 63793639, 2.113374, -0.04131793, -9.633026, -0.01300978, 0.01744017, -0.008045625, 32.37428, -353617940, 1491649358, 2802, 22.918, -2.445, -7.011
 63813631, 2.15549, -0.07636087, -9.730834, -0.01766822, 0.02035424, -0.008785192, 32.37428, -353617940, 1491649358, 2802, 22.918, -2.445, -7.011
 63833623, 2.136495, -0.08464576, -9.802944, -0.02254368, 0.01521766, 0.000563055, 33.40511, -353617528, 1491649293, 2942, 22.926, -2.45, -6.993001
 63853615, 2.218394, -0.08779275, -9.86335, -0.02048488, 0.01349474, 0.002547705, 33.40511, -353617528, 1491649293, 2942, 22.926, -2.45, -6.993001
 63873607, 2.130197, -0.08200472, -9.79643, -0.02060054, 0.01363665, 0.006561032, 33.40511, -353617528, 1491649293, 2942, 22.926, -2.45, -6.993001
 63893599, 2.14788, 0.03725532, -9.875363, -0.01223426, 0.006188428, 0.005987978, 33.40511, -353617528, 1491649293, 2942, 22.926, -2.45, -6.993001
 63913591, 2.262388, -0.02555599, -9.758018, -0.003035747, 0.00749476, 0.004491757, 33.40511, -353617528, 1491649293, 2942, 22.926, -2.45, -6.993001
 63933583, 2.181732, -0.02258144, -9.718439, -0.007812417, 0.01145515, 0.0007456668, 34.15787, -353617528, 1491649293, 2942, 22.926, -2.45, -6.993001
 63953575, 2.064709, -0.03040431, -9.825219, -0.0128106, 0.01731941, -0.001404795, 34.15787, -353617528, 1491649293, 2942, 22.926, -2.45, -6.993001
 63973567, 2.152653, -0.05396293, -9.773816, -0.003767029, 0.01709776, 0.004808528, 34.15787, -353617528, 1491649293, 2942, 22.926, -2.45, -6.993001
 63993559, 2.101024, 0.04430801, -9.816196, 0.0008498067, 0.01843296, 0.009671017, 34.15787, -353617528, 1491649293, 2942, 22.926, -2.45, -6.993001
 64013551, 2.177332, -0.02691058, -9.926754, 0.01177202, 0.0153684, 0.008669416, 34.15787, -353617528, 1491649293, 2942, 22.926, -2.45, -6.993001
 64033543, 2.117661, -0.09174173, -9.790059, 0.01821036, 0.005019373, 0.004042411, 34.83479, -353617123, 1491649250, 3082, 22.923, -2.455, -6.989
 64053535, 2.174284, 0.03414421, -9.795259, 0.02336249, 0.001216061, 0.01026252, 34.83479, -353617123, 1491649250, 3082, 22.923, -2.455, -6.989
 64073527, 2.151381, 0.05258621, -9.70343, 0.03026005, -0.004983298, 0.008866245, 34.83479, -353617123, 1491649250, 3082, 22.923, -2.455, -6.989
 64093519, 2.154537, 0.003921946, -9.579096, 0.03949967, -0.01609594, 0.01346047, 34.83479, -353617123, 1491649250, 3082, 22.923, -2.455, -6.989
 64113511, 2.167249, -0.04180408, -9.286332, 0.039919, -0.01027926, 0.01582582, 34.83479, -353617123, 1491649250, 3082, 22.923, -2.455, -6.989
 64133503, 2.227489, 0.01858602, -9.36694, 0.03834866, 0.0009782545, 0.008326571, 35.37127, -353617123, 1491649250, 3082, 22.923, -2.455, -6.989
 64153495, 2.332276, 0.1239927, -9.477801, 0.03832566, 0.007875284, 0.00333214, 35.37127, -353617123, 1491649250, 3082, 22.923, -2.455, -6.989
