TimeUS,gprLat,gprLng,gprAlt,gprGC,gpGC,gprN,gprE,gprD
 55914292, -353629379, 1491650851, 1013557694, 0, 0, 0, 0, 0
 55934284, -353629379, 1491650851, 1013642750, 0, 0, 0, 0, 0
 55954276, -353629379, 1491650851, 1013766750, 0, 0, 0, 0, 0
 55974268, -353629379, 1491650851, 1013800281, 0, 0, 0, 0, 0
 55994260, -353629379, 1491650851, 1013857532, 0, 0, 0, 0, 0
 56014252, -353629379, 1491650851, 1014028310, 0, 0, 0, 0, 0
 56034244, -353629378, 1491650854, 1014170763, 0, 0, 0, 0, 0
 56054236, -353629378, 1491650854, 1014246541, 0, 0, 0, 0, 0
 56074228, -353629378, 1491650854, 1014421047, 0, 0, 0, 0, 0
 56094220, -353629378, 1491650854, 1014545982, 0, 0, 0, 0, 0
 56114212, -353629378, 1491650854, 1013731787, 0, 0, 0, 0, 0
 56134204, -353629378, 1491650854, 1013894989, 0, 0, 0, 0, 0
 56154196, -353629378, 1491650854, 1014064399, 0, 0, 0, 0, 0
 56174188, -353629378, 1491650854, 1014139951, 0, 0, 0, 0, 0
 56194180, -353629378, 1491650854, 1014401891, 0, 0, 0, 0, 0
 56214172, -353629378, 1491650854, 1014643636, 0, 0, 0, 0, 0
 56234164, -353629378, 1491650852, 1014878468, 0, 0, 0, 0, 0
 56254156, -353629378, 1491650852, 1014971849, 0, 0, 0, 0, 0
 56274148, -353629378, 1491650852, 1014990807, 0, 0, 0, 0, 0
 56294140, -353629378, 1491650852, 1015041534, 0, 0, 0, 0, 0
 56314132, -353629378, 1491650852, 1013772197, 0, 0, 0, 0, 0
 56334124, -353629378, 1491650852, 1013869043, 0, 0, 0, 0, 0
 56354116, -353629378, 1491650852, 1014102764, 0, 0, 0, 0, 0
 56374108, -353629378, 1491650852, 1014244805, 0, 0, 0, 0, 0
 56394100, -353629378, 1491650852, 1014279622, 0, 0, 0, 0, 0
 56414092, -353629378, 1491650852, 1014297616, 0, 0, 0, 0, 0
 56434084, -353629379, 1491650849, 1014036517, 353.9108, 353.9108, 0.009000001, -0.001, 0
 56454076, -353629379, 1491650849, 1013646033, 353.9108, 353.9108, 0.009000001, -0.001, 0
 56474068, -353629379, 1491650849, 1012949560, 353.9108, 353.9108, 0.009000001, -0.001, 0
 56494060, -353629379, 1491650849, 1011834606, 353.9108, 353.9108, 0.009000001, -0.001, 0
 56514052, -353629379, 1491650849, 1009059699, 353.9108, 353.9108, 0.009000001, -0.001, 0
 56534044, -353629379, 1491650849, 1007232941, 353.9108, 353.9108, 0.009000001, -0.001, 0
 56554036, -353629379, 1491650849, 1003348806, 353.9108, 353.9108, 0.009000001, -0.001, 0
 56574028, -353629379, 1491650849, 997403046, 353.9108, 353.9108, 0.009000001, -0.001, 0
 56594020, -353629379, 1491650849, 979079561, 353.9108, 353.9108, 0.009000001, -0.001, 0
 56614012, -353629379, 1491650849, -1153845728, 353.9108, 353.9108, 0.009000001, -0.001, 0
 56634004, -353629377, 1491650851, -1143480910, 353.9429, 353.9429, 0.248, -0.026, 0
 56653996, -353629377, 1491650851, -1137452112, 353.9429, 353.9429, 0.248, -0.026, 0
 56673988, -353629377, 1491650851, -1132394658, 353.9429, 353.9429, 0.248, -0.026, 0
 56693980, -353629377, 1491650851, -1129243041, 353.9429, 353.9429, 0.248, -0.026, 0
 56713972, -353629377, 1491650851, -1126592928, 353.9429, 353.9429, 0.248, -0.026, 0
 56733964, -353629377, 1491650851, -1123496571, 353.9429, 353.9429, 0.248, -0.026, 0
 56753956, -353629377, 1491650851, -1121700570, 353.9429, 353.9429, 0.248, -0.026, 0
 56773948, -353629377, 1491650851, -1119771357, 353.9429, 353.9429, 0.248, -0.026, 0
 56793940, -353629377, 1491650851, -1117594432, 353.9429, 353.9429, 0.248, -0.026, 0
 56813932, -353629377, 1491650851, -1115435142, 353.9429, 353.9429, 0.248, -0.026, 0
 56833924, -353629370, 1491650851, -1114188259, 353.9366, 353.9366, 0.933, -0.09900001, 0.012
 56853916, -353629370, 1491650851, -1112847218, 353.9366, 353.9366, 0.933, -0.09900001, 0.012
 56873908, -353629370, 1491650851, -1111420016, 353.9366, 353.9366, 0.933, -0.09900001, 0.012
 56893900, -353629370, 1491650851, -1110089039, 353.9366, 353.9366, 0.933, -0.09900001, 0.012
 56913892, -353629370, 1491650851, -1109027267, 353.9366, 353.9366, 0.933, -0.09900001, 0.012
 56933884, -353629370, 1491650851, -1107349671, 353.9366, 353.9366, 0.933, -0.09900001, 0.012
 56953876, -353629370, 1491650851, -1106555501, 353.9366, 353.9366, 0.933, -0.09900001, 0.012
 56973868, -353629370, 1491650851, -1105777186, 353.9366, 353.9366, 0.933, -0.09900001, 0.012
 56993860, -353629370, 1491650851, -1104953863, 353.9366, 353.9366, 0.933, -0.09900001, 0.012
 57013852, -353629370, 1491650851, -1104085398, 353.9366, 353.9366, 0.933, -0.09900001, 0.012
 57033844, -353629348, 1491650848, -1103144231, 354.0224, 354.0224, 2.092, -0.219, 0.037
 57053836, -353629348, 1491650848, -1102271347, 354.0224, 354.0224, 2.092, -0.219, 0.037
 57073828, -353629348, 1491650848, -1101211914, 354.0224, 354.0224, 2.092, -0.219, 0.037
 57093820, -353629348, 1491650848, -1100162141, 354.0224, 354.0224, 2.092, -0.219, 0.037
 57113812, -353629348, 1491650848, -1099462323, 354.0224, 354.0224, 2.092, -0.219, 0.037
 57133804, -353629348, 1491650848, -1098614404, 354.0224, 354.0224, 2.092, -0.219, 0.037
 57153796, -353629348, 1491650848, -1098018194, 354.0224, 354.0224, 2.092, -0.219, 0.037
 57173788, -353629348, 1491650848, -1097376730, 354.0224, 354.0224, 2.092, -0.219, 0.037
 57193780, -353629348, 1491650848, -1096750245, 354.0224, 354.0224, 2.092, -0.219, 0.037
 57213772, -353629348, 1491650848, -1096172998, 354.0224, 354.0224, 2.092, -0.219, 0.037
 57233764, -353629304, 1491650842, -1095545041, 353.9892, 353.9892, 3.699, -0.389, 0.074
 57253756, -353629304, 1491650842, -1094848488, 353.9892, 353.9892, 3.699, -0.389, 0.074
 57273748, -353629304, 1491650842, -1094278205, 353.9892, 353.9892, 3.699, -0.389, 0.074
 57293740, -353629304, 1491650842, -1093528099, 353.9892, 353.9892, 3.699, -0.389, 0.074
 57313732, -353629304, 1491650842, -1093058660, 353.9892, 353.9892, 3.699, -0.389, 0.074
 57333724, -353629304, 1491650842, -1092313160, 353.9892, 353.9892, 3.699, -0.389, 0.074
 57353716, -353629304, 1491650842, -1091619540, 353.9892, 353.9892, 3.699, -0.389, 0.074
 57373708, -353629304, 1491650842, -1090934761, 353.9892, 353.9892, 3.699, -0.389, 0.074
 57393700, -353629304, 1491650842, -1090374807, 353.9892, 353.9892, 3.699, -0.389, 0.074
 57413692, -353629304, 1491650842, -1089999387, 353.9892, 353.9892, 3.699, -0.389, 0.074
 57433684, -353629224, 1491650835, -1089622366, 354.0085, 354.0085, 5.697001, -0.597, 0.123
 57453676, -353629224, 1491650835, -1089275259, 354.0085, 354.0085, 5.697001, -0.597, 0.123
 57473668, -353629224, 1491650835, -1088887724, 354.0085, 354.0085, 5.697001, -0.597, 0.123
 57493660, -353629224, 1491650835, -1088528768, 354.0085, 354.0085, 5.697001, -0.597, 0.123
 57513652, -353629224, 1491650835, -1088246886, 354.0085, 354.0085, 5.697001, -0.597, 0.123
 57533644, -353629224, 1491650835, -1087860835, 354.0085, 354.0085, 5.697001, -0.597, 0.123
 57553636, -353629224, 1491650835, -1087482457, 354.0085, 354.0085, 5.697001, -0.597, 0.123
 57573628, -353629224, 1491650835, -1087117305, 354.0085, 354.0085, 5.697001, -0.597, 0.123
 57593620, -353629224, 1491650835, -1086700651, 354.0085, 354.0085, 5.697001, -0.597, 0.123
 57613612, -353629224, 1491650835, -1086323177, 354.0085, 354.0085, 5.697001, -0.597, 0.123
 57633604, -353629114, 1491650821, -1085942236, 353.9963, 353.9963, 7.816, -0.822, 0.181
 57653596, -353629114, 1491650821, -1085596949, 353.9963, 353.9963, 7.816, -0.822, 0.181
 57673588, -353629114, 1491650821, -1085262909, 353.9963, 353.9963, 7.816, -0.822, 0.181
 57693580, -353629114, 1491650821, -1084890178, 353.9963, 353.9963, 7.816, -0.822, 0.181
 57713572, -353629114, 1491650821, -1084652952, 353.9963, 353.9963, 7.816, -0.822, 0.181
 57733564, -353629114, 1491650821, -1084301316, 353.9963, 353.9963, 7.816, -0.822, 0.181
 57753556, -353629114, 1491650821, -1083945531, 353.9963, 353.9963, 7.816, -0.822, 0.181
 57773548, -353629114, 1491650821, -1083605825, 353.9963, 353.9963, 7.816, -0.822, 0.181
 57793540, -353629114, 1491650821, -1083263766, 353.9963, 353.9963, 7.816, -0.822, 0.181
 57813532, -353629114, 1491650821, -1082908734, 353.9963, 353.9963, 7.816, -0.822, 0.181
 57833524, -353628959, 1491650804, -1082528743, 353.9915, 353.9915, 9.804001, -1.031, 0.239
 57853516, -353628959, 1491650804, -1082157728, 353.9915, 353.9915, 9.804001, -1.031, 0.239
 57873508, -353628959, 1491650804, -1081970610, 353.9915, 353.9915, 9.804001, -1.031, 0.239
 57893500, -353628959, 1491650804, -1081807263, 353.9915, 353.9915, 9.804001, -1.031, 0.239
 57913492, -353628959, 1491650804, -1081707567, 353.9915, 353.9915, 9.804001, -1.031, 0.239
 57933484, -353628959, 1491650804, -1081536706, 353.9915, 353.9915, 9.804001, -1.031, 0.239
 57953476, -353628959, 1491650804, -1081399040, 353.9915, 353.9915, 9.804001, -1.031, 0.239
 57974301, -353628959, 1491650804, -1081238381, 353.9915, 353.9915, 9.804001, -1.031, 0.239
 57994293, -353628959, 1491650804, -1081101031, 353.9915, 353.9915, 9.804001, -1.031, 0.239
 58014285, -353628959, 1491650804, -1080956729, 353.9915, 353.9915, 9.804001, -1.031, 0.239
 58034277, -353628772, 1491650787, -1080837078, 354.0117, 354.0117, 11.575, -1.214, 0.276
 58054269, -353628772, 1491650787, -1080704369, 354.0117, 354.0117, 11.575, -1.214, 0.276
 58074261, -353628772, 1491650787, -1080541829, 354.0117, 354.0117, 11.575, -1.214, 0.276
 58094253, -353628772, 1491650787, -1080399039, 354.0117, 354.0117, 11.575, -1.214, 0.276
 58114245, -353628772, 1491650787, -1080305138, 354.0117, 354.0117, 11.575, -1.214, 0.276
 58134237, -353628772, 1491650787, -1080159515, 354.0117, 354.0117, 11.575, -1.214, 0.276
 58154229, -353628772, 1491650787, -1080008398, 354.0117, 354.0117, 11.575, -1.214, 0.276
 58174221, -353628772, 1491650787, -1079850657, 354.0117, 354.0117, 11.575, -1.214, 0.276
 58194213, -353628772, 1491650787, -1079750977, 354.0117, 354.0117, 11.575, -1.214, 0.276
 58214205, -353628772, 1491650787, -1079606435, 354.0117, 354.0117, 11.575, -1.214, 0.276
 58234197, -353628554, 1491650760, -1079498078, 353.9988, 353.9988, 13.134, -1.38, 0.205
 58254189, -353628554, 1491650760, -1079366630, 353.9988, 353.9988, 13.134, -1.38, 0.205
 58274181, -353628554, 1491650760, -1079235786, 353.9988, 353.9988, 13.134, -1.38, 0.205
 58294173, -353628554, 1491650760, -1079108645, 353.9988, 353.9988, 13.134, -1.38, 0.205
 58314165, -353628554, 1491650760, -1079018122, 353.9988, 353.9988, 13.134, -1.38, 0.205
 58334157, -353628554, 1491650760, -1078908650, 353.9988, 353.9988, 13.134, -1.38, 0.205
 58354149, -353628554, 1491650760, -1078797280, 353.9988, 353.9988, 13.134, -1.38, 0.205
 58374141, -353628554, 1491650760, -1078694451, 353.9988, 353.9988, 13.134, -1.38, 0.205
 58394133, -353628554, 1491650760, -1078592762, 353.9988, 353.9988, 13.134, -1.38, 0.205
 58414125, -353628554, 1491650760, -1078497253, 353.9988, 353.9988, 13.134, -1.38, 0.205
 58434117, -353628313, 1491650698, -1078337427, 354.0037, 354.0037, 14.588, -1.532, 0.239
 58454109, -353628313, 1491650698, -1078142099, 354.0037, 354.0037, 14.588, -1.532, 0.239
 58474101, -353628313, 1491650698, -1077956324, 354.0037, 354.0037, 14.588, -1.532, 0.239
 58494093, -353628313, 1491650698, -1077771641, 354.0037, 354.0037, 14.588, -1.532, 0.239
 58514085, -353628313, 1491650698, -1077563665, 354.0037, 354.0037, 14.588, -1.532, 0.239
 58534077, -353628313, 1491650698, -1077385178, 354.0037, 354.0037, 14.588, -1.532, 0.239
 58554069, -353628313, 1491650698, -1077215719, 354.0037, 354.0037, 14.588, -1.532, 0.239
 58574061, -353628313, 1491650698, -1077060425, 354.0037, 354.0037, 14.588, -1.532, 0.239
 58594053, -353628313, 1491650698, -1076913007, 354.0037, 354.0037, 14.588, -1.532, 0.239
 58614045, -353628313, 1491650698, -1076753264, 354.0037, 354.0037, 14.588, -1.532, 0.239
 58634037, -353628041, 1491650669, -1076599321, 354.0101, 354.0101, 16.557, -1.737, -0.8610001
 58654029, -353628041, 1491650669, -1076448274, 354.0101, 354.0101, 16.557, -1.737, -0.8610001
 58674021, -353628041, 1491650669, -1076289235, 354.0101, 354.0101, 16.557, -1.737, -0.8610001
 58694013, -353628041, 1491650669, -1076127412, 354.0101, 354.0101, 16.557, -1.737, -0.8610001
 58714005, -353628041, 1491650669, -1075948837, 354.0101, 354.0101, 16.557, -1.737, -0.8610001
 58733997, -353628041, 1491650669, -1075789858, 354.0101, 354.0101, 16.557, -1.737, -0.8610001
 58753989, -353628041, 1491650669, -1075656072, 354.0101, 354.0101, 16.557, -1.737, -0.8610001
 58773981, -353628041, 1491650669, -1075511920, 354.0101, 354.0101, 16.557, -1.737, -0.8610001
 58793973, -353628041, 1491650669, -1075350196, 354.0101, 354.0101, 16.557, -1.737, -0.8610001
 58813965, -353628041, 1491650669, -1075215649, 354.0101, 354.0101, 16.557, -1.737, -0.8610001
 58833957, -353627738, 1491650638, -1075062136, 353.9948, 353.9948, 18.244, -1.919, -1.889
 58853949, -353627738, 1491650638, -1074906974, 353.9948, 353.9948, 18.244, -1.919, -1.889
 58873941, -353627738, 1491650638, -1074767791, 353.9948, 353.9948, 18.244, -1.919, -1.889
 58893933, -353627738, 1491650638, -1074633817, 353.9948, 353.9948, 18.244, -1.919, -1.889
 58913925, -353627738, 1491650638, -1074475596, 353.9948, 353.9948, 18.244, -1.919, -1.889
 58933917, -353627738, 1491650638, -1074316360, 353.9948, 353.9948, 18.244, -1.919, -1.889
 58953909, -353627738, 1491650638, -1074154151, 353.9948, 353.9948, 18.244, -1.919, -1.889
 58973901, -353627738, 1491650638, -1074002145, 353.9948, 353.9948, 18.244, -1.919, -1.889
 58993893, -353627738, 1491650638, -1073875257, 353.9948, 353.9948, 18.244, -1.919, -1.889
 59013885, -353627738, 1491650638, -1073739339, 353.9948, 353.9948, 18.244, -1.919, -1.889
 59033877, -353627405, 1491650602, -1073677713, 353.9335, 353.9335, 19.703, -2.094, -2.432
 59053869, -353627405, 1491650602, -1073616769, 353.9335, 353.9335, 19.703, -2.094, -2.432
 59073861, -353627405, 1491650602, -1073546969, 353.9335, 353.9335, 19.703, -2.094, -2.432
 59093853, -353627405, 1491650602, -1073486082, 353.9335, 353.9335, 19.703, -2.094, -2.432
 59113845, -353627405, 1491650602, -1073424063, 353.9335, 353.9335, 19.703, -2.094, -2.432
 59133837, -353627405, 1491650602, -1073355695, 353.9335, 353.9335, 19.703, -2.094, -2.432
 59153829, -353627405, 1491650602, -1073288931, 353.9335, 353.9335, 19.703, -2.094, -2.432
 59173821, -353627405, 1491650602, -1073221674, 353.9335, 353.9335, 19.703, -2.094, -2.432
 59193813, -353627405, 1491650602, -1073156070, 353.9335, 353.9335, 19.703, -2.094, -2.432
 59213805, -353627405, 1491650602, -1073085172, 353.9335, 353.9335, 19.703, -2.094, -2.432
 59233797, -353627042, 1491650546, -1073026755, 353.8773, 353.8773, 21.023, -2.255, -2.739
 59253789, -353627042, 1491650546, -1072947874, 353.8773, 353.8773, 21.023, -2.255, -2.739
 59273781, -353627042, 1491650546, -1072895136, 353.8773, 353.8773, 21.023, -2.255, -2.739
 59293773, -353627042, 1491650546, -1072829290, 353.8773, 353.8773, 21.023, -2.255, -2.739
 59313765, -353627042, 1491650546, -1072763197, 353.8773, 353.8773, 21.023, -2.255, -2.739
 59333757, -353627042, 1491650546, -1072698448, 353.8773, 353.8773, 21.023, -2.255, -2.739
 59353749, -353627042, 1491650546, -1072642769, 353.8773, 353.8773, 21.023, -2.255, -2.739
 59373741, -353627042, 1491650546, -1072578354, 353.8773, 353.8773, 21.023, -2.255, -2.739
 59393733, -353627042, 1491650546, -1072529110, 353.8773, 353.8773, 21.023, -2.255, -2.739
 59413725, -353627042, 1491650546, -1072475933, 353.8773, 353.8773, 21.023, -2.255, -2.739
 59433717, -353626655, 1491650503, -1072424012, 353.8294, 353.8294, 22.144, -2.394, -3.174
 59453709, -353626655, 1491650503, -1072374363, 353.8294, 353.8294, 22.144, -2.394, -3.174
 59473701, -353626655, 1491650503, -1072320102, 353.8294, 353.8294, 22.144, -2.394, -3.174
 59493693, -353626655, 1491650503, -1072275114, 353.8294, 353.8294, 22.144, -2.394, -3.174
 59513685, -353626655, 1491650503, -1072228215, 353.8294, 353.8294, 22.144, -2.394, -3.174
 59533677, -353626655, 1491650503, -1072176279, 353.8294, 353.8294, 22.144, -2.394, -3.174
 59553669, -353626655, 1491650503, -1072135285, 353.8294, 353.8294, 22.144, -2.394, -3.174
 59573661, -353626655, 1491650503, -1072086183, 353.8294, 353.8294, 22.144, -2.394, -3.174
 59593653, -353626655, 1491650503, -1072044831, 353.8294, 353.8294, 22.144, -2.394, -3.174
 59613645, -353626655, 1491650503, -1071998014, 353.8294, 353.8294, 22.144, -2.394, -3.174
 59633637, -353626254, 1491650461, -1071928789, 353.7816, 353.7816, 23.064, -2.513, -3.679
 59653629, -353626254, 1491650461, -1071891787, 353.7816, 353.7816, 23.064, -2.513, -3.679
 59673621, -353626254, 1491650461, -1071847844, 353.7816, 353.7816, 23.064, -2.513, -3.679
 59693613, -353626254, 1491650461, -1071808733, 353.7816, 353.7816, 23.064, -2.513, -3.679
 59713605, -353626254, 1491650461, -1071777190, 353.7816, 353.7816, 23.064, -2.513, -3.679
 59733597, -353626254, 1491650461, -1071739637, 353.7816, 353.7816, 23.064, -2.513, -3.679
 59753589, -353626254, 1491650461, -1071702186, 353.7816, 353.7816, 23.064, -2.513, -3.679
 59773581, -353626254, 1491650461, -1071672791, 353.7816, 353.7816, 23.064, -2.513, -3.679
 59793573, -353626254, 1491650461, -1071642354, 353.7816, 353.7816, 23.064, -2.513, -3.679
 59813565, -353626254, 1491650461, -1071601721, 353.7816, 353.7816, 23.064, -2.513, -3.679
 59833557, -353625833, 1491650379, -1071565188, 353.7128, 353.7128, 23.617, -2.602, -4.094
 59853549, -353625833, 1491650379, -1071541360, 353.7128, 353.7128, 23.617, -2.602, -4.094
 59873541, -353625833, 1491650379, -1071531033, 353.7128, 353.7128, 23.617, -2.602, -4.094
 59893533, -353625833, 1491650379, -1071533503, 353.7128, 353.7128, 23.617, -2.602, -4.094
 59913525, -353625833, 1491650379, -1071492327, 353.7128, 353.7128, 23.617, -2.602, -4.094
 59933517, -353625833, 1491650379, -1071504754, 353.7128, 353.7128, 23.617, -2.602, -4.094
 59953509, -353625833, 1491650379, -1071522540, 353.7128, 353.7128, 23.617, -2.602, -4.094
 59973501, -353625833, 1491650379, -1071545355, 353.7128, 353.7128, 23.617, -2.602, -4.094
 59993493, -353625833, 1491650379, -1071564168, 353.7128, 353.7128, 23.617, -2.602, -4.094
 60013485, -353625833, 1491650379, -1071593505, 353.7128, 353.7128, 23.617, -2.602, -4.094
 60033477, -353625407, 1491650332, -1071619091, 353.8078, 353.8078, 23.717, -2.573, -4.699
 60054302, -353625407, 1491650332, -1071644289, 353.8078, 353.8078, 23.717, -2.573, -4.699
 60074294, -353625407, 1491650332, -1071665676, 353.8078, 353.8078, 23.717, -2.573, -4.699
 60094286, -353625407, 1491650332, -1071689407, 353.8078, 353.8078, 23.717, -2.573, -4.699
 60114278, -353625407, 1491650332, -1071663454, 353.8078, 353.8078, 23.717, -2.573, -4.699
 60134270, -353625407, 1491650332, -1071694734, 353.8078, 353.8078, 23.717, -2.573, -4.699
 60154262, -353625407, 1491650332, -1071724073, 353.8078, 353.8078, 23.717, -2.573, -4.699
 60174254, -353625407, 1491650332, -1071742753, 353.8078, 353.8078, 23.717, -2.573, -4.699
 60194246, -353625407, 1491650332, -1071770404, 353.8078, 353.8078, 23.717, -2.573, -4.699
 60214238, -353625407, 1491650332, -1071785523, 353.8078, 353.8078, 23.717, -2.573, -4.699
 60234230, -353624982, 1491650285, -1071799976, 353.8822, 353.8822, 23.59, -2.528, -5.475
 60254222, -353624982, 1491650285, -1071810330, 353.8822, 353.8822, 23.59, -2.528, -5.475
 60274214, -353624982, 1491650285, -1071816709, 353.8822, 353.8822, 23.59, -2.528, -5.475
 60294206, -353624982, 1491650285, -1071829493, 353.8822, 353.8822, 23.59, -2.528, -5.475
 60314198, -353624982, 1491650285, -1071806051, 353.8822, 353.8822, 23.59, -2.528, -5.475
 60334190, -353624982, 1491650285, -1071809546, 353.8822, 353.8822, 23.59, -2.528, -5.475
 60354182, -353624982, 1491650285, -1071820384, 353.8822, 353.8822, 23.59, -2.528, -5.475
 60374174, -353624982, 1491650285, -1071819594, 353.8822, 353.8822, 23.59, -2.528, -5.475
 60394166, -353624982, 1491650285, -1071816890, 353.8822, 353.8822, 23.59, -2.528, -5.475
 60414158, -353624982, 1491650285, -1071815993, 353.8822, 353.8822, 23.59, -2.528, -5.475
 60434150, -353624559, 1491650204, -1071809845, 353.8479, 353.8479, 23.432, -2.525, -6.073
 60454142, -353624559, 1491650204, -1071806413, 353.8479, 353.8479, 23.432, -2.525, -6.073
 60474134, -353624559, 1491650204, -1071799983, 353.8479, 353.8479, 23.432, -2.525, -6.073
 60494126, -353624559, 1491650204, -1071795102, 353.8479, 353.8479, 23.432, -2.525, -6.073
 60514118, -353624559, 1491650204, -1071734166, 353.8479, 353.8479, 23.432, -2.525, -6.073
 60534110, -353624559, 1491650204, -1071729156, 353.8479, 353.8479, 23.432, -2.525, -6.073
 60554102, -353624559, 1491650204, -1071733284, 353.8479, 353.8479, 23.432, -2.525, -6.073
 60574094, -353624559, 1491650204, -1071730841, 353.8479, 353.8479, 23.432, -2.525, -6.073
 60594086, -353624559, 1491650204, -1071725704, 353.8479, 353.8479, 23.432, -2.525, -6.073
 60614078, -353624559, 1491650204, -1071721028, 353.8479, 353.8479, 23.432, -2.525, -6.073
 60634070, -353624143, 1491650160, -1071721786, 353.7933, 353.7933, 23.316, -2.535, -6.383
 60654062, -353624143, 1491650160, -1071731565, 353.7933, 353.7933, 23.316, -2.535, -6.383
 60674054, -353624143, 1491650160, -1071727139, 353.7933, 353.7933, 23.316, -2.535, -6.383
 60694046, -353624143, 1491650160, -1071740763, 353.7933, 353.7933, 23.316, -2.535, -6.383
 60714038, -353624143, 1491650160, -1071717591, 353.7933, 353.7933, 23.316, -2.535, -6.383
 60734030, -353624143, 1491650160, -1071724362, 353.7933, 353.7933, 23.316, -2.535, -6.383
 60754022, -353624143, 1491650160, -1071734954, 353.7933, 353.7933, 23.316, -2.535, -6.383
 60774014, -353624143, 1491650160, -1071754209, 353.7933, 353.7933, 23.316, -2.535, -6.383
 60794006, -353624143, 1491650160, -1071764618, 353.7933, 353.7933, 23.316, -2.535, -6.383
 60813998, -353624143, 1491650160, -1071781121, 353.7933, 353.7933, 23.316, -2.535, -6.383
 60833990, -353623723, 1491650097, -1071802691, 353.8257, 353.8257, 23.224, -2.512, -6.577
 60853982, -353623723, 1491650097, -1071808095, 353.8257, 353.8257, 23.224, -2.512, -6.577
 60873974, -353623723, 1491650097, -1071816487, 353.8257, 353.8257, 23.224, -2.512, -6.577
 60893966, -353623723, 1491650097, -1071837792, 353.8257, 353.8257, 23.224, -2.512, -6.577
 60913958, -353623723, 1491650097, -1071807708, 353.8257, 353.8257, 23.224, -2.512, -6.577
 60933950, -353623723, 1491650097, -1071816094, 353.8257, 353.8257, 23.224, -2.512, -6.577
 60953942, -353623723, 1491650097, -1071823570, 353.8257, 353.8257, 23.224, -2.512, -6.577
 60973934, -353623723, 1491650097, -1071843907, 353.8257, 353.8257, 23.224, -2.512, -6.577
 60993926, -353623723, 1491650097, -1071853379, 353.8257, 353.8257, 23.224, -2.512, -6.577
 61013918, -353623723, 1491650097, -1071877979, 353.8257, 353.8257, 23.224, -2.512, -6.577
 61033910, -353623306, 1491650053, -1071892359, 353.8808, 353.8808, 23.132, -2.479, -6.744
 61053902, -353623306, 1491650053, -1071900979, 353.8808, 353.8808, 23.132, -2.479, -6.744
 61073894, -353623306, 1491650053, -1071923876, 353.8808, 353.8808, 23.132, -2.479, -6.744
 61093886, -353623306, 1491650053, -1071934664, 353.8808, 353.8808, 23.132, -2.479, -6.744
 61113878, -353623306, 1491650053, -1071926839, 353.8808, 353.8808, 23.132, -2.479, -6.744
 61133870, -353623306, 1491650053, -1071940528, 353.8808, 353.8808, 23.132, -2.479, -6.744
 61153862, -353623306, 1491650053, -1071951066, 353.8808, 353.8808, 23.132, -2.479, -6.744
 61173854, -353623306, 1491650053, -1071972897, 353.8808, 353.8808, 23.132, -2.479, -6.744
 61193846, -353623306, 1491650053, -1071981174, 353.8808, 353.8808, 23.132, -2.479, -6.744
 61213838, -353623306, 1491650053, -1071986758, 353.8808, 353.8808, 23.132, -2.479, -6.744
 61233830, -353622891, 1491650008, -1071989916, 353.9176, 353.9176, 23.032, -2.454, -6.89
 61253822, -353622891, 1491650008, -1071998200, 353.9176, 353.9176, 23.032, -2.454, -6.89
 61273814, -353622891, 1491650008, -1072002090, 353.9176, 353.9176, 23.032, -2.454, -6.89
 61293806, -353622891, 1491650008, -1072003494, 353.9176, 353.9176, 23.032, -2.454, -6.89
 61313798, -353622891, 1491650008, -1071994599, 353.9176, 353.9176, 23.032, -2.454, -6.89
 61333790, -353622891, 1491650008, -1071990042, 353.9176, 353.9176, 23.032, -2.454, -6.89
 61353782, -353622891, 1491650008, -1071987183, 353.9176, 353.9176, 23.032, -2.454, -6.89
 61373774, -353622891, 1491650008, -1071981998, 353.9176, 353.9176, 23.032, -2.454, -6.89
 61393766, -353622891, 1491650008, -1071990180, 353.9176, 353.9176, 23.032, -2.454, -6.89
 61413758, -353622891, 1491650008, -1072001060, 353.9176, 353.9176, 23.032, -2.454, -6.89
 61433750, -353622476, 1491649927, -1072004000, 353.9035, 353.9035, 22.984, -2.454, -6.921
 61453742, -353622476, 1491649927, -1072001270, 353.9035, 353.9035, 22.984, -2.454, -6.921
 61473734, -353622476, 1491649927, -1072000861, 353.9035, 353.9035, 22.984, -2.454, -6.921
 61493726, -353622476, 1491649927, -1072000080, 353.9035, 353.9035, 22.984, -2.454, -6.921
 61513718, -353622476, 1491649927, -1071963916, 353.9035, 353.9035, 22.984, -2.454, -6.921
 61533710, -353622476, 1491649927, -1071963088, 353.9035, 353.9035, 22.984, -2.454, -6.921
 61553702, -353622476, 1491649927, -1071962630, 353.9035, 353.9035, 22.984, -2.454, -6.921
 61573694, -353622476, 1491649927, -1071964630, 353.9035, 353.9035, 22.984, -2.454, -6.921
 61593686, -353622476, 1491649927, -1071972121, 353.9035, 353.9035, 22.984, -2.454, -6.921
 61613678, -353622476, 1491649927, -1071971627, 353.9035, 353.9035, 22.984, -2.454, -6.921
 61633670, -353622063, 1491649883, -1071964602, 353.9036, 353.9036, 22.978, -2.454, -6.863
 61653662, -353622063, 1491649883, -1071966745, 353.9036, 353.9036, 22.978, -2.454, -6.863
 61673654, -353622063, 1491649883, -1071968616, 353.9036, 353.9036, 22.978, -2.454, -6.863
 61693646, -353622063, 1491649883, -1071962725, 353.9036, 353.9036, 22.978, -2.454, -6.863
 61713638, -353622063, 1491649883, -1071938538, 353.9036, 353.9036, 22.978, -2.454, -6.863
 61733630, -353622063, 1491649883, -1071934703, 353.9036, 353.9036, 22.978, -2.454, -6.863
 61753622, -353622063, 1491649883, -1071944348, 353.9036, 353.9036, 22.978, -2.454, -6.863
 61773614, -353622063, 1491649883, -1071951182, 353.9036, 353.9036, 22.978, -2.454, -6.863
 61793606, -353622063, 1491649883, -1071957633, 353.9036, 353.9036, 22.978, -2.454, -6.863
 61813598, -353622063, 1491649883, -1071960495, 353.9036, 353.9036, 22.978, -2.454, -6.863
 61833590, -353621649, 1491649839, -1071973459, 353.9052, 353.9052, 22.932, -2.448, -6.936
 61853582, -353621649, 1491649839, -1071984509, 353.9052, 353.9052, 22.932, -2.448, -6.936
 61873574, -353621649, 1491649839, -1071987904, 353.9052, 353.9052, 22.932, -2.448, -6.936
 61893566, -353621649, 1491649839, -1071991588, 353.9052, 353.9052, 22.932, -2.448, -6.936
 61913558, -353621649, 1491649839, -1071985285, 353.9052, 353.9052, 22.932, -2.448, -6.936
 61933550, -353621649, 1491649839, -1071987984, 353.9052, 353.9052, 22.932, -2.448, -6.936
 61953542, -353621649, 1491649839, -1071992844, 353.9052, 353.9052, 22.932, -2.448, -6.936
 61973534, -353621649, 1491649839, -1071997335, 353.9052, 353.9052, 22.932, -2.448, -6.936
 61993526, -353621649, 1491649839, -1071998514, 353.9052, 353.9052, 22.932, -2.448, -6.936
 62013518, -353621649, 1491649839, -1071994745, 353.9052, 353.9052, 22.932, -2.448, -6.936
 62033510, -353621244, 1491649781, -1071990980, 353.9038, 353.9038, 22.904, -2.446, -6.985
 62053502, -353621244, 1491649781, -1071988861, 353.9038, 353.9038, 22.904, -2.446, -6.985
 62073494, -353621244, 1491649781, -1071988676, 353.9038, 353.9038, 22.904, -2.446, -6.985
 62093486, -353621244, 1491649781, -1071985142, 353.9038, 353.9038, 22.904, -2.446, -6.985
 62113478, -353621244, 1491649781, -1071967659, 353.9038, 353.9038, 22.904, -2.446, -6.985
 62134303, -353621244, 1491649781, -1071976548, 353.9038, 353.9038, 22.904, -2.446, -6.985
 62154295, -353621244, 1491649781, -1071980392, 353.9038, 353.9038, 22.904, -2.446, -6.985
 62174287, -353621244, 1491649781, -1071978562, 353.9038, 353.9038, 22.904, -2.446, -6.985
 62194279, -353621244, 1491649781, -1071980778, 353.9038, 353.9038, 22.904, -2.446, -6.985
 62214271, -353621244, 1491649781, -1071989239, 353.9038, 353.9038, 22.904, -2.446, -6.985
 62234263, -353620830, 1491649735, -1071993221, 353.9203, 353.9203, 22.926, -2.441, -6.920001
 62254255, -353620830, 1491649735, -1072003817, 353.9203, 353.9203, 22.926, -2.441, -6.920001
 62274247, -353620830, 1491649735, -1072005139, 353.9203, 353.9203, 22.926, -2.441, -6.920001
 62294239, -353620830, 1491649735, -1072002373, 353.9203, 353.9203, 22.926, -2.441, -6.920001
 62314231, -353620830, 1491649735, -1071998103, 353.9203, 353.9203, 22.926, -2.441, -6.920001
 62334223, -353620830, 1491649735, -1071998719, 353.9203, 353.9203, 22.926, -2.441, -6.920001
 62354215, -353620830, 1491649735, -1072000868, 353.9203, 353.9203, 22.926, -2.441, -6.920001
 62374207, -353620830, 1491649735, -1072003857, 353.9203, 353.9203, 22.926, -2.441, -6.920001
 62394199, -353620830, 1491649735, -1072006470, 353.9203, 353.9203, 22.926, -2.441, -6.920001
 62414191, -353620830, 1491649735, -1072011097, 353.9203, 353.9203, 22.926, -2.441, -6.920001
 62434183, -353620417, 1491649691, -1072016894, 353.942, 353.942, 22.939, -2.434, -6.903
 62454175, -353620417, 1491649691, -1072017829, 353.942, 353.942, 22.939, -2.434, -6.903
 62474167, -353620417, 1491649691, -1072012849, 353.942, 353.942, 22.939, -2.434, -6.903
 62494159, -353620417, 1491649691, -1072001312, 353.942, 353.942, 22.939, -2.434, -6.903
 62514151, -353620417, 1491649691, -1072008583, 353.942, 353.942, 22.939, -2.434, -6.903
 62534143, -353620417, 1491649691, -1072005384, 353.942, 353.942, 22.939, -2.434, -6.903
 62554135, -353620417, 1491649691, -1071999059, 353.942, 353.942, 22.939, -2.434, -6.903
 62574127, -353620417, 1491649691, -1071999778, 353.942, 353.942, 22.939, -2.434, -6.903
 62594119, -353620417, 1491649691, -1071990214, 353.942, 353.942, 22.939, -2.434, -6.903
 62614111, -353620417, 1491649691, -1071982852, 353.942, 353.942, 22.939, -2.434, -6.903
 62634103, -353620001, 1491649609, -1071976554, 353.903, 353.903, 22.952, -2.451, -6.885
 62654095, -353620001, 1491649609, -1071966000, 353.903, 353.903, 22.952, -2.451, -6.885
 62674087, -353620001, 1491649609, -1071959324, 353.903, 353.903, 22.952, -2.451, -6.885
 62694079, -353620001, 1491649609, -1071946783, 353.903, 353.903, 22.952, -2.451, -6.885
 62714071, -353620001, 1491649609, -1071918275, 353.903, 353.903, 22.952, -2.451, -6.885
 62734063, -353620001, 1491649609, -1071911683, 353.903, 353.903, 22.952, -2.451, -6.885
 62754055, -353620001, 1491649609, -1071915794, 353.903, 353.903, 22.952, -2.451, -6.885
 62774047, -353620001, 1491649609, -1071919022, 353.903, 353.903, 22.952, -2.451, -6.885
 62794039, -353620001, 1491649609, -1071926839, 353.903, 353.903, 22.952, -2.451, -6.885
 62814031, -353620001, 1491649609, -1071921439, 353.903, 353.903, 22.952, -2.451, -6.885
 62834023, -353619590, 1491649567, -1071925063, 353.902, 353.902, 22.966, -2.453, -6.88
 62854015, -353619590, 1491649567, -1071932922, 353.902, 353.902, 22.966, -2.453, -6.88
 62874007, -353619590, 1491649567, -1071943526, 353.902, 353.902, 22.966, -2.453, -6.88
 62893999, -353619590, 1491649567, -1071947641, 353.902, 353.902, 22.966, -2.453, -6.88
 62913991, -353619590, 1491649567, -1071937939, 353.902, 353.902, 22.966, -2.453, -6.88
 62933983, -353619590, 1491649567, -1071933251, 353.902, 353.902, 22.966, -2.453, -6.88
 62953975, -353619590, 1491649567, -1071929645, 353.902, 353.902, 22.966, -2.453, -6.88
 62973967, -353619590, 1491649567, -1071928514, 353.902, 353.902, 22.966, -2.453, -6.88
 62993959, -353619590, 1491649567, -1071925962, 353.902, 353.902, 22.966, -2.453, -6.88
 63013951, -353619590, 1491649567, -1071918926, 353.902, 353.902, 22.966, -2.453, -6.88
 63033943, -353619186, 1491649524, -1071914025, 353.8994, 353.8994, 22.959, -2.453, -6.93
 63053935, -353619186, 1491649524, -1071915137, 353.8994, 353.8994, 22.959, -2.453, -6.93
 63073927, -353619186, 1491649524, -1071921899, 353.8994, 353.8994, 22.959, -2.453, -6.93
 63093919, -353619186, 1491649524, -1071925783, 353.8994, 353.8994, 22.959, -2.453, -6.93
 63113911, -353619186, 1491649524, -1071925285, 353.8994, 353.8994, 22.959, -2.453, -6.93
 63133903, -353619186, 1491649524, -1071929712, 353.8994, 353.8994, 22.959, -2.453, -6.93
 63153895, -353619186, 1491649524, -1071929899, 353.8994, 353.8994, 22.959, -2.453, -6.93
 63173887, -353619186, 1491649524, -1071927421, 353.8994, 353.8994, 22.959, -2.453, -6.93
 63193879, -353619186, 1491649524, -1071924864, 353.8994, 353.8994, 22.959, -2.453, -6.93
 63213871, -353619186, 1491649524, -1071916885, 353.8994, 353.8994, 22.959, -2.453, -6.93
 63233863, -353618770, 1491649445, -1071918280, 353.8953, 353.8953, 22.947, -2.454, -6.954
 63253855, -353618770, 1491649445, -1071928258, 353.8953, 353.8953, 22.947, -2.454, -6.954
 63273847, -353618770, 1491649445, -1071924770, 353.8953, 353.8953, 22.947, -2.454, -6.954
 63293839, -353618770, 1491649445, -1071930932, 353.8953, 353.8953, 22.947, -2.454, -6.954
 63313831, -353618770, 1491649445, -1071902652, 353.8953, 353.8953, 22.947, -2.454, -6.954
 63333823, -353618770, 1491649445, -1071913654, 353.8953, 353.8953, 22.947, -2.454, -6.954
 63353815, -353618770, 1491649445, -1071910658, 353.8953, 353.8953, 22.947, -2.454, -6.954
 63373807, -353618770, 1491649445, -1071916284, 353.8953, 353.8953, 22.947, -2.454, -6.954
 63393799, -353618770, 1491649445, -1071919220, 353.8953, 353.8953, 22.947, -2.454, -6.954
 63413791, -353618770, 1491649445, -1071913828, 353.8953, 353.8953, 22.947, -2.454, -6.954
 63433783, -353618356, 1491649401, -1071917692, 353.9014, 353.9014, 22.927, -2.449, -6.989
 63453775, -353618356, 1491649401, -1071921424, 353.9014, 353.9014, 22.927, -2.449, -6.989
 63473767, -353618356, 1491649401, -1071925485, 353.9014, 353.9014, 22.927, -2.449, -6.989
 63493759, -353618356, 1491649401, -1071926774, 353.9014, 353.9014, 22.927, -2.449, -6.989
 63513751, -353618356, 1491649401, -1071915403, 353.9014, 353.9014, 22.927, -2.449, -6.989
 63533743, -353618356, 1491649401, -1071923634, 353.9014, 353.9014, 22.927, -2.449, -6.989
 63553735, -353618356, 1491649401, -1071932553, 353.9014, 353.9014, 22.927, -2.449, -6.989
 63573727, -353618356, 1491649401, -1071936368, 353.9014, 353.9014, 22.927, -2.449, -6.989
 63593719, -353618356, 1491649401, -1071939294, 353.9014, 353.9014, 22.927, -2.449, -6.989
 63613711, -353618356, 1491649401, -1071942084, 353.9014, 353.9014, 22.927, -2.449, -6.989
 63633703, -353617940, 1491649358, -1071942243, 353.9085, 353.9085, 22.918, -2.445, -7.011
 63653695, -353617940, 1491649358, -1071938113, 353.9085, 353.9085, 22.918, -2.445, -7.011
 63673687, -353617940, 1491649358, -1071934947, 353.9085, 353.9085, 22.918, -2.445, -7.011
 63693679, -353617940, 1491649358, -1071931800, 353.9085, 353.9085, 22.918, -2.445, -7.011
 63713671, -353617940, 1491649358, -1071932634, 353.9085, 353.9085, 22.918, -2.445, -7.011
 63733663, -353617940, 1491649358, -1071924574, 353.9085, 353.9085, 22.918, -2.445, -7.011
 63753655, -353617940, 1491649358, -1071927937, 353.9085, 353.9085, 22.918, -2.445, -7.011
 63773647, -353617940, 1491649358, -1071919821, 353.9085, 353.9085, 22.918, -2.445, -7.011
 63793639, -353617940, 1491649358, -1071920402, 353.9085, 353.9085, 22.918, -2.445, -7.011
 63813631, -353617940, 1491649358, -1071921656, 353.9085, 353.9085, 22.918, -2.445, -7.011
 63833623, -353617528, 1491649293, -1071922584, 353.9002, 353.9002, 22.926, -2.45, -6.993001
 63853615, -353617528, 1491649293, -1071922347, 353.9002, 353.9002, 22.926, -2.45, -6.993001
 63873607, -353617528, 1491649293, -1071926849, 353.9002, 353.9002, 22.926, -2.45, -6.993001
 63893599, -353617528, 1491649293, -1071929768, 353.9002, 353.9002, 22.926, -2.45, -6.993001
 63913591, -353617528, 1491649293, -1071913544, 353.9002, 353.9002, 22.926, -2.45, -6.993001
 63933583, -353617528, 1491649293, -1071912009, 353.9002, 353.9002, 22.926, -2.45, -6.993001
 63953575, -353617528, 1491649293, -1071901181, 353.9002, 353.9002, 22.926, -2.45, -6.993001
 63973567, -353617528, 1491649293, -1071901517, 353.9002, 353.9002, 22.926, -2.45, -6.993001
 63993559, -353617528, 1491649293, -1071899859, 353.9002, 353.9002, 22.926, -2.45, -6.993001
 64013551, -353617528, 1491649293, -1071891945, 353.9002, 353.9002, 22.926, -2.45, -6.993001
 64033543, -353617123, 1491649250, -1071890558, 353.8859, 353.8859, 22.923, -2.455, -6.989
 64053535, -353617123, 1491649250, -1071883706, 353.8859, 353.8859, 22.923, -2.455, -6.989
 64073527, -353617123, 1491649250, -1071877140, 353.8859, 353.8859, 22.923, -2.455, -6.989
 64093519, -353617123, 1491649250, -1071872294, 353.8859, 353.8859, 22.923, -2.455, -6.989
 64113511, -353617123, 1491649250, -1071868625, 353.8859, 353.8859, 22.923, -2.455, -6.989
 64133503, -353617123, 1491649250, -1071869598, 353.8859, 353.8859, 22.923, -2.455, -6.989
 64153495, -353617123, 1491649250, -1071867113, 353.8859, 353.8859, 22.923, -2.455, -6.989
 64173487, -353617123, 1491649250, -1071866941, 353.8859, 353.8859, 22.923, -2.455, -6.989
 64193479, -353617123, 1491649250, -1071869035, 353.8859, 353.8859, 22.923, -2.455, -6.989
 64214304, -353617123, 1491649250, -1071860689, 353.8859, 353.8859, 22.923, -2.455, -6.989
 64234296, -353616712, 1491649208, -1071860247, 353.8584, 353.8584, 22.889, -2.462, -7.037
 64254288, -353616712, 1491649208, -1071856389, 353.8584, 353.8584, 22.889, -2.462, -7.037
 64274280, -353616712, 1491649208, -1071848629, 353.8584, 353.8584, 22.889, -2.462, -7.037
 64294272, -353616712, 1491649208, -1071855003, 353.8584, 353.8584, 22.889, -2.462, -7.037
 64314264, -353616712, 1491649208, -1071872436, 353.8584, 353.8584, 22.889, -2.462, -7.037
 64334256, -353616712, 1491649208, -1071876060, 353.8584, 353.8584, 22.889, -2.462, -7.037
 64354248, -353616712, 1491649208, -1071873501, 353.8584, 353.8584, 22.889, -2.462, -7.037
 64374240, -353616712, 1491649208, -1071875826, 353.8584, 353.8584, 22.889, -2.462, -7.037
 64394232, -353616712, 1491649208, -1071886915, 353.8584, 353.8584, 22.889, -2.462, -7.037
 64414224, -353616712, 1491649208, -1071897019, 353.8584, 353.8584, 22.889, -2.462, -7.037
 64434216, -353616297, 1491649128, -1071914880, 353.8848, 353.8848, 22.875, -2.45, -7.042
 64454208, -353616297, 1491649128, -1071929857, 353.8848, 353.8848, 22.875, -2.45, -7.042
 64474200, -353616297, 1491649128, -1071945090, 353.8848, 353.8848, 22.875, -2.45, -7.042
 64494192, -353616297, 1491649128, -1071960911, 353.8848, 353.8848, 22.875, -2.45, -7.042
 64514184, -353616297, 1491649128, -1071948645, 353.8848, 353.8848, 22.875, -2.45, -7.042
 64534176, -353616297, 1491649128, -1071973764, 353.8848, 353.8848, 22.875, -2.45, -7.042
 64554168, -353616297, 1491649128, -1072000900, 353.8848, 353.8848, 22.875, -2.45, -7.042
 64574160, -353616297, 1491649128, -1072020424, 353.8848, 353.8848, 22.875, -2.45, -7.042
 64594152, -353616297, 1491649128, -1072029673, 353.8848, 353.8848, 22.875, -2.45, -7.042
 64614144, -353616297, 1491649128, -1072043069, 353.8848, 353.8848, 22.875, -2.45, -7.042
 64634136, -353615882, 1491649083, -1072047858, 353.9691, 353.9691, 22.869, -2.416, -7.079
 64654128, -353615882, 1491649083, -1072055817, 353.9691, 353.9691, 22.869, -2.416, -7.079
 64674120, -353615882, 1491649083, -1072059681, 353.9691, 353.9691, 22.869, -2.416, -7.079
 64694112, -353615882, 1491649083, -1072068742, 353.9691, 353.9691, 22.869, -2.416, -7.079
 64714104, -353615882, 1491649083, -1072055603, 353.9691, 353.9691, 22.869, -2.416, -7.079
 64734096, -353615882, 1491649083, -1072056232, 353.9691, 353.9691, 22.869, -2.416, -7.079
 64754088, -353615882, 1491649083, -1072050216, 353.9691, 353.9691, 22.869, -2.416, -7.079
 64774080, -353615882, 1491649083, -1072031999, 353.9691, 353.9691, 22.869, -2.416, -7.079
 64794072, -353615882, 1491649083, -1072018015, 353.9691, 353.9691, 22.869, -2.416, -7.079
 64814064, -353615882, 1491649083, -1072007342, 353.9691, 353.9691, 22.869, -2.416, -7.079
 64834056, -353615473, 1491649024, -1071994297, 353.9289, 353.9289, 22.85, -2.43, -7.111001
 64854048, -353615473, 1491649024, -1071986040, 353.9289, 353.9289, 22.85, -2.43, -7.111001
 64874040, -353615473, 1491649024, -1071979187, 353.9289, 353.9289, 22.85, -2.43, -7.111001
 64894032, -353615473, 1491649024, -1071961780, 353.9289, 353.9289, 22.85, -2.43, -7.111001
 64914024, -353615473, 1491649024, -1071946158, 353.9289, 353.9289, 22.85, -2.43, -7.111001
 64934016, -353615473, 1491649024, -1071940332, 353.9289, 353.9289, 22.85, -2.43, -7.111001
 64954008, -353615473, 1491649024, -1071939864, 353.9289, 353.9289, 22.85, -2.43, -7.111001
 64974000, -353615473, 1491649024, -1071943598, 353.9289, 353.9289, 22.85, -2.43, -7.111001
 64993992, -353615473, 1491649024, -1071938707, 353.9289, 353.9289, 22.85, -2.43, -7.111001
 65013984, -353615473, 1491649024, -1071947077, 353.9289, 353.9289, 22.85, -2.43, -7.111001
 65033976, -353615069, 1491648977, -1071955280, 353.9211, 353.9211, 22.864, -2.434, -7.052001
 65053968, -353615069, 1491648977, -1071971466, 353.9211, 353.9211, 22.864, -2.434, -7.052001
 65073960, -353615069, 1491648977, -1071988346, 353.9211, 353.9211, 22.864, -2.434, -7.052001
 65093952, -353615069, 1491648977, -1071997983, 353.9211, 353.9211, 22.864, -2.434, -7.052001
 65113944, -353615069, 1491648977, -1072003169, 353.9211, 353.9211, 22.864, -2.434, -7.052001
 65133936, -353615069, 1491648977, -1072026580, 353.9211, 353.9211, 22.864, -2.434, -7.052001
 65153928, -353615069, 1491648977, -1072048253, 353.9211, 353.9211, 22.864, -2.434, -7.052001
 65173920, -353615069, 1491648977, -1072070093, 353.9211, 353.9211, 22.864, -2.434, -7.052001
 65193912, -353615069, 1491648977, -1072084894, 353.9211, 353.9211, 22.864, -2.434, -7.052001
 65213904, -353615069, 1491648977, -1072104722, 353.9211, 353.9211, 22.864, -2.434, -7.052001
 65233896, -353614653, 1491648936, -1072118779, 354.0147, 354.0147, 22.88, -2.398, -7.019001
 65253888, -353614653, 1491648936, -1072130746, 354.0147, 354.0147, 22.88, -2.398, -7.019001
 65273880, -353614653, 1491648936, -1072143466, 354.0147, 354.0147, 22.88, -2.398, -7.019001
 65293872, -353614653, 1491648936, -1072158666, 354.0147, 354.0147, 22.88, -2.398, -7.019001
 65313864, -353614653, 1491648936, -1072164489, 354.0147, 354.0147, 22.88, -2.398, -7.019001
 65333856, -353614653, 1491648936, -1072174412, 354.0147, 354.0147, 22.88, -2.398, -7.019001
 65353848, -353614653, 1491648936, -1072176376, 354.0147, 354.0147, 22.88, -2.398, -7.019001
 65373840, -353614653, 1491648936, -1072170572, 354.0147, 354.0147, 22.88, -2.398, -7.019001
 65393832, -353614653, 1491648936, -1072170180, 354.0147, 354.0147, 22.88, -2.398, -7.019001
 65413824, -353614653, 1491648936, -1072167823, 354.0147, 354.0147, 22.88, -2.398, -7.019001
 65433816, -353614242, 1491648859, -1072172757, 354.0339, 354.0339, 22.875, -2.39, -7.044
 65453808, -353614242, 1491648859, -1072165836, 354.0339, 354.0339, 22.875, -2.39, -7.044
 65473800, -353614242, 1491648859, -1072157293, 354.0339, 354.0339, 22.875, -2.39, -7.044
 65493792, -353614242, 1491648859, -1072147420, 354.0339, 354.0339, 22.875, -2.39, -7.044
 65513784, -353614242, 1491648859, -1072124736, 354.0339, 354.0339, 22.875, -2.39, -7.044
 65533776, -353614242, 1491648859, -1072118967, 354.0339, 354.0339, 22.875, -2.39, -7.044
 65553768, -353614242, 1491648859, -1072113742, 354.0339, 354.0339, 22.875, -2.39, -7.044
 65573760, -353614242, 1491648859, -1072113396, 354.0339, 354.0339, 22.875, -2.39, -7.044
 65593752, -353614242, 1491648859, -1072102451, 354.0339, 354.0339, 22.875, -2.39, -7.044
 65613744, -353614242, 1491648859, -1072094275, 354.0339, 354.0339, 22.875, -2.39, -7.044
 65633736, -353613829, 1491648813, -1072096562, 353.9877, 353.9877, 22.838, -2.405, -7.136
 65653728, -353613829, 1491648813, -1072090206, 353.9877, 353.9877, 22.838, -2.405, -7.136
 65673720, -353613829, 1491648813, -1072095839, 353.9877, 353.9877, 22.838, -2.405, -7.136
 65693712, -353613829, 1491648813, -1072096818, 353.9877, 353.9877, 22.838, -2.405, -7.136
 65713704, -353613829, 1491648813, -1072073407, 353.9877, 353.9877, 22.838, -2.405, -7.136
 65733696, -353613829, 1491648813, -1072065008, 353.9877, 353.9877, 22.838, -2.405, -7.136
 65753688, -353613829, 1491648813, -1072051999, 353.9877, 353.9877, 22.838, -2.405, -7.136
 65773680, -353613829, 1491648813, -1072043070, 353.9877, 353.9877, 22.838, -2.405, -7.136
 65793672, -353613829, 1491648813, -1072043245, 353.9877, 353.9877, 22.838, -2.405, -7.136
 65813664, -353613829, 1491648813, -1072035039, 353.9877, 353.9877, 22.838, -2.405, -7.136
 65833656, -353613425, 1491648773, -1072032709, 353.9485, 353.9485, 22.825, -2.419, -7.146
 65853648, -353613425, 1491648773, -1072034418, 353.9485, 353.9485, 22.825, -2.419, -7.146
 65873640, -353613425, 1491648773, -1072033945, 353.9485, 353.9485, 22.825, -2.419, -7.146
 65893632, -353613425, 1491648773, -1072029136, 353.9485, 353.9485, 22.825, -2.419, -7.146
 65913624, -353613425, 1491648773, -1072033915, 353.9485, 353.9485, 22.825, -2.419, -7.146
 65933616, -353613425, 1491648773, -1072031066, 353.9485, 353.9485, 22.825, -2.419, -7.146
 65953608, -353613425, 1491648773, -1072032784, 353.9485, 353.9485, 22.825, -2.419, -7.146
 65973600, -353613425, 1491648773, -1072030169, 353.9485, 353.9485, 22.825, -2.419, -7.146
 65993592, -353613425, 1491648773, -1072034096, 353.9485, 353.9485, 22.825, -2.419, -7.146
 66013584, -353613425, 1491648773, -1072038539, 353.9485, 353.9485, 22.825, -2.419, -7.146
 66033576, -353613011, 1491648693, -1072048147, 353.9541, 353.9541, 22.826, -2.417, -7.13
 66053568, -353613011, 1491648693, -1072060219, 353.9541, 353.9541, 22.826, -2.417, -7.13
 66073560, -353613011, 1491648693, -1072051883, 353.9541, 353.9541, 22.826, -2.417, -7.13
 66093552, -353613011, 1491648693, -1072058708, 353.9541, 353.9541, 22.826, -2.417, -7.13
 66113544, -353613011, 1491648693, -1072027589, 353.9541, 353.9541, 22.826, -2.417, -7.13
 66133536, -353613011, 1491648693, -1072031221, 353.9541, 353.9541, 22.826, -2.417, -7.13
 66153528, -353613011, 1491648693, -1072033394, 353.9541, 353.9541, 22.826, -2.417, -7.13
 66173520, -353613011, 1491648693, -1072028409, 353.9541, 353.9541, 22.826, -2.417, -7.13
 66193512, -353613011, 1491648693, -1072025691, 353.9541, 353.9541, 22.826, -2.417, -7.13
 66213504, -353613011, 1491648693, -1072024141, 353.9541, 353.9541, 22.826, -2.417, -7.13
 66233496, -353612602, 1491648647, -1072017100, 353.9423, 353.9423, 22.821, -2.421, -7.131001
 66253488, -353612602, 1491648647, -1072009939, 353.9423, 353.9423, 22.821, -2.421, -7.131001
 66273480, -353612602, 1491648647, -1072002178, 353.9423, 353.9423, 22.821, -2.421, -7.131001
 66294305, -353612602, 1491648647, -1071997491, 353.9423, 353.9423, 22.821, -2.421, -7.131001
 66314297, -353612602, 1491648647, -1071982966, 353.9423, 353.9423, 22.821, -2.421, -7.131001
 66334289, -353612602, 1491648647, -1071983044, 353.9423, 353.9423, 22.821, -2.421, -7.131001
 66354281, -353612602, 1491648647, -1071986803, 353.9423, 353.9423, 22.821, -2.421, -7.131001
 66374273, -353612602, 1491648647, -1071990352, 353.9423, 353.9423, 22.821, -2.421, -7.131001
 66394265, -353612602, 1491648647, -1071994354, 353.9423, 353.9423, 22.821, -2.421, -7.131001
 66414257, -353612602, 1491648647, -1072000164, 353.9423, 353.9423, 22.821, -2.421, -7.131001
 66434249, -353612185, 1491648605, -1072006108, 353.9433, 353.9433, 22.813, -2.42, -7.139
 66454241, -353612185, 1491648605, -1072011985, 353.9433, 353.9433, 22.813, -2.42, -7.139
 66474233, -353612185, 1491648605, -1072022965, 353.9433, 353.9433, 22.813, -2.42, -7.139
 66494225, -353612185, 1491648605, -1072030100, 353.9433, 353.9433, 22.813, -2.42, -7.139
 66514217, -353612185, 1491648605, -1072032454, 353.9433, 353.9433, 22.813, -2.42, -7.139
 66534209, -353612185, 1491648605, -1072041759, 353.9433, 353.9433, 22.813, -2.42, -7.139
 66554201, -353612185, 1491648605, -1072035721, 353.9433, 353.9433, 22.813, -2.42, -7.139
 66574193, -353612185, 1491648605, -1072033730, 353.9433, 353.9433, 22.813, -2.42, -7.139
 66594185, -353612185, 1491648605, -1072044397, 353.9433, 353.9433, 22.813, -2.42, -7.139
 66614177, -353612185, 1491648605, -1072043041, 353.9433, 353.9433, 22.813, -2.42, -7.139
 66634169, -353611783, 1491648544, -1072046754, 353.9642, 353.9642, 22.823, -2.413, -7.108
 66654161, -353611783, 1491648544, -1072056687, 353.9642, 353.9642, 22.823, -2.413, -7.108
 66674153, -353611783, 1491648544, -1072054790, 353.9642, 353.9642, 22.823, -2.413, -7.108
 66694145, -353611783, 1491648544, -1072051092, 353.9642, 353.9642, 22.823, -2.413, -7.108
 66714137, -353611783, 1491648544, -1072036397, 353.9642, 353.9642, 22.823, -2.413, -7.108
 66734129, -353611783, 1491648544, -1072030809, 353.9642, 353.9642, 22.823, -2.413, -7.108
 66754121, -353611783, 1491648544, -1072025549, 353.9642, 353.9642, 22.823, -2.413, -7.108
 66774113, -353611783, 1491648544, -1072014952, 353.9642, 353.9642, 22.823, -2.413, -7.108
 66794105, -353611783, 1491648544, -1072015055, 353.9642, 353.9642, 22.823, -2.413, -7.108
 66814097, -353611783, 1491648544, -1072012078, 353.9642, 353.9642, 22.823, -2.413, -7.108
 66834089, -353611377, 1491648501, -1072017283, 353.9411, 353.9411, 22.808, -2.42, -7.139
 66854081, -353611377, 1491648501, -1072021069, 353.9411, 353.9411, 22.808, -2.42, -7.139
 66874073, -353611377, 1491648501, -1072027330, 353.9411, 353.9411, 22.808, -2.42, -7.139
 66894065, -353611377, 1491648501, -1072027886, 353.9411, 353.9411, 22.808, -2.42, -7.139
 66914057, -353611377, 1491648501, -1072029294, 353.9411, 353.9411, 22.808, -2.42, -7.139
 66934049, -353611377, 1491648501, -1072037457, 353.9411, 353.9411, 22.808, -2.42, -7.139
 66954041, -353611377, 1491648501, -1072037700, 353.9411, 353.9411, 22.808, -2.42, -7.139
 66974033, -353611377, 1491648501, -1072044111, 353.9411, 353.9411, 22.808, -2.42, -7.139
 66994025, -353611377, 1491648501, -1072047602, 353.9411, 353.9411, 22.808, -2.42, -7.139
 67014017, -353611377, 1491648501, -1072043586, 353.9411, 353.9411, 22.808, -2.42, -7.139
 67034009, -353610960, 1491648458, -1072041504, 353.9366, 353.9366, 22.777, -2.419, -7.218
 67054001, -353610960, 1491648458, -1072047306, 353.9366, 353.9366, 22.777, -2.419, -7.218
 67073993, -353610960, 1491648458, -1072038174, 353.9366, 353.9366, 22.777, -2.419, -7.218
 67093985, -353610960, 1491648458, -1072035288, 353.9366, 353.9366, 22.777, -2.419, -7.218
 67113977, -353610960, 1491648458, -1072037586, 353.9366, 353.9366, 22.777, -2.419, -7.218
 67133969, -353610960, 1491648458, -1072031085, 353.9366, 353.9366, 22.777, -2.419, -7.218
 67153961, -353610960, 1491648458, -1072027579, 353.9366, 353.9366, 22.777, -2.419, -7.218
 67173953, -353610960, 1491648458, -1072024633, 353.9366, 353.9366, 22.777, -2.419, -7.218
 67193945, -353610960, 1491648458, -1072018165, 353.9366, 353.9366, 22.777, -2.419, -7.218
 67213937, -353610960, 1491648458, -1072014057, 353.9366, 353.9366, 22.777, -2.419, -7.218
 67233929, -353610550, 1491648374, -1072004852, 353.8968, 353.8968, 22.773, -2.435, -7.198
 67253921, -353610550, 1491648374, -1071999260, 353.8968, 353.8968, 22.773, -2.435, -7.198
 67273913, -353610550, 1491648374, -1071993458, 353.8968, 353.8968, 22.773, -2.435, -7.198
 67293905, -353610550, 1491648374, -1071987282, 353.8968, 353.8968, 22.773, -2.435, -7.198
 67313897, -353610550, 1491648374, -1071955730, 353.8968, 353.8968, 22.773, -2.435, -7.198
 67333889, -353610550, 1491648374, -1071955708, 353.8968, 353.8968, 22.773, -2.435, -7.198
 67353881, -353610550, 1491648374, -1071961209, 353.8968, 353.8968, 22.773, -2.435, -7.198
 67373873, -353610550, 1491648374, -1071955302, 353.8968, 353.8968, 22.773, -2.435, -7.198
 67393865, -353610550, 1491648374, -1071955032, 353.8968, 353.8968, 22.773, -2.435, -7.198
 67413857, -353610550, 1491648374, -1071956254, 353.8968, 353.8968, 22.773, -2.435, -7.198
 67433849, -353610144, 1491648333, -1071963196, 353.8754, 353.8754, 22.748, -2.44, -7.254
 67453841, -353610144, 1491648333, -1071966145, 353.8754, 353.8754, 22.748, -2.44, -7.254
 67473833, -353610144, 1491648333, -1071965398, 353.8754, 353.8754, 22.748, -2.44, -7.254
 67493825, -353610144, 1491648333, -1071958467, 353.8754, 353.8754, 22.748, -2.44, -7.254
 67513817, -353610144, 1491648333, -1071938318, 353.8754, 353.8754, 22.748, -2.44, -7.254
 67533809, -353610144, 1491648333, -1071940516, 353.8754, 353.8754, 22.748, -2.44, -7.254
 67553801, -353610144, 1491648333, -1071948143, 353.8754, 353.8754, 22.748, -2.44, -7.254
 67573793, -353610144, 1491648333, -1071942679, 353.8754, 353.8754, 22.748, -2.44, -7.254
 67593785, -353610144, 1491648333, -1071924245, 353.8754, 353.8754, 22.748, -2.44, -7.254
 67613777, -353610144, 1491648333, -1071909064, 353.8754, 353.8754, 22.748, -2.44, -7.254
 67633769, -353609736, 1491648291, -1071906158, 353.834, 353.834, 22.73, -2.455, -7.266
 67653761, -353609736, 1491648291, -1071907370, 353.834, 353.834, 22.73, -2.455, -7.266
 67673753, -353609736, 1491648291, -1071908129, 353.834, 353.834, 22.73, -2.455, -7.266
 67693745, -353609736, 1491648291, -1071900785, 353.834, 353.834, 22.73, -2.455, -7.266
 67713737, -353609736, 1491648291, -1071908873, 353.834, 353.834, 22.73, -2.455, -7.266
 67733729, -353609736, 1491648291, -1071906730, 353.834, 353.834, 22.73, -2.455, -7.266
 67753721, -353609736, 1491648291, -1071903051, 353.834, 353.834, 22.73, -2.455, -7.266
 67773713, -353609736, 1491648291, -1071901248, 353.834, 353.834, 22.73, -2.455, -7.266
 67793705, -353609736, 1491648291, -1071903169, 353.834, 353.834, 22.73, -2.455, -7.266
 67813697, -353609736, 1491648291, -1071903112, 353.834, 353.834, 22.73, -2.455, -7.266
 67833689, -353609322, 1491648229, -1071904234, 353.8182, 353.8182, 22.72, -2.46, -7.258
 67853681, -353609322, 1491648229, -1071897904, 353.8182, 353.8182, 22.72, -2.46, -7.258
 67873673, -353609322, 1491648229, -1071894737, 353.8182, 353.8182, 22.72, -2.46, -7.258
 67893665, -353609322, 1491648229, -1071893848, 353.8182, 353.8182, 22.72, -2.46, -7.258
 67913657, -353609322, 1491648229, -1071882525, 353.8182, 353.8182, 22.72, -2.46, -7.258
 67933649, -353609322, 1491648229, -1071891469, 353.8182, 353.8182, 22.72, -2.46, -7.258
 67953641, -353609322, 1491648229, -1071887252, 353.8182, 353.8182, 22.72, -2.46, -7.258
 67973633, -353609322, 1491648229, -1071894725, 353.8182, 353.8182, 22.72, -2.46, -7.258
 67993625, -353609322, 1491648229, -1071900024, 353.8182, 353.8182, 22.72, -2.46, -7.258
 68013617, -353609322, 1491648229, -1071901007, 353.8182, 353.8182, 22.72, -2.46, -7.258
 68033609, -353608921, 1491648185, -1071900880, 353.8116, 353.8116, 22.712, -2.462, -7.274
 68053601, -353608921, 1491648185, -1071897432, 353.8116, 353.8116, 22.712, -2.462, -7.274
 68073593, -353608921, 1491648185, -1071892214, 353.8116, 353.8116, 22.712, -2.462, -7.274
 68093585, -353608921, 1491648185, -1071899663, 353.8116, 353.8116, 22.712, -2.462, -7.274
 68113577, -353608921, 1491648185, -1071891247, 353.8116, 353.8116, 22.712, -2.462, -7.274
 68133569, -353608921, 1491648185, -1071892642, 353.8116, 353.8116, 22.712, -2.462, -7.274
 68153561, -353608921, 1491648185, -1071905498, 353.8116, 353.8116, 22.712, -2.462, -7.274
 68173553, -353608921, 1491648185, -1071907087, 353.8116, 353.8116, 22.712, -2.462, -7.274
 68193545, -353608921, 1491648185, -1071920514, 353.8116, 353.8116, 22.712, -2.462, -7.274
 68213537, -353608921, 1491648185, -1071926923, 353.8116, 353.8116, 22.712, -2.462, -7.274
 68233529, -353608513, 1491648140, -1071946458, 353.832, 353.832, 22.72, -2.455, -7.266
 68253521, -353608513, 1491648140, -1071953584, 353.832, 353.832, 22.72, -2.455, -7.266
 68273513, -353608513, 1491648140, -1071967900, 353.832, 353.832, 22.72, -2.455, -7.266
 68293505, -353608513, 1491648140, -1071979652, 353.832, 353.832, 22.72, -2.455, -7.266
 68313497, -353608513, 1491648140, -1071987553, 353.832, 353.832, 22.72, -2.455, -7.266
 68333489, -353608513, 1491648140, -1071984362, 353.832, 353.832, 22.72, -2.455, -7.266
 68353481, -353608513, 1491648140, -1071982513, 353.832, 353.832, 22.72, -2.455, -7.266
 68373473, -353608513, 1491648140, -1071989084, 353.832, 353.832, 22.72, -2.455, -7.266
 68394298, -353608513, 1491648140, -1072001826, 353.832, 353.832, 22.72, -2.455, -7.266
 68414290, -353608513, 1491648140, -1072013405, 353.832, 353.832, 22.72, -2.455, -7.266
 68434282, -353608102, 1491648063, -1072023892, 353.8683, 353.8683, 22.721, -2.44, -7.261
 68454274, -353608102, 1491648063, -1072032971, 353.8683, 353.8683, 22.721, -2.44, -7.261
 68474266, -353608102, 1491648063, -1072039450, 353.8683, 353.8683, 22.721, -2.44, -7.261
 68494258, -353608102, 1491648063, -1072051997, 353.8683, 353.8683, 22.721, -2.44, -7.261
 68514250, -353608102, 1491648063, -1072024811, 353.8683, 353.8683, 22.721, -2.44, -7.261
 68534242, -353608102, 1491648063, -1072028684, 353.8683, 353.8683, 22.721, -2.44, -7.261
 68554234, -353608102, 1491648063, -1072024922, 353.8683, 353.8683, 22.721, -2.44, -7.261
 68574226, -353608102, 1491648063, -1072022118, 353.8683, 353.8683, 22.721, -2.44, -7.261
 68594218, -353608102, 1491648063, -1072010357, 353.8683, 353.8683, 22.721, -2.44, -7.261
 68614210, -353608102, 1491648063, -1072001313, 353.8683, 353.8683, 22.721, -2.44, -7.261
 68634202, -353607690, 1491648018, -1071982050, 353.8259, 353.8259, 22.687, -2.454, -7.336
 68654194, -353607690, 1491648018, -1071965716, 353.8259, 353.8259, 22.687, -2.454, -7.336
 68674186, -353607690, 1491648018, -1071950675, 353.8259, 353.8259, 22.687, -2.454, -7.336
 68694178, -353607690, 1491648018, -1071926767, 353.8259, 353.8259, 22.687, -2.454, -7.336
 68714170, -353607690, 1491648018, -1071902795, 353.8259, 353.8259, 22.687, -2.454, -7.336
 68734162, -353607690, 1491648018, -1071889450, 353.8259, 353.8259, 22.687, -2.454, -7.336
 68754154, -353607690, 1491648018, -1071871640, 353.8259, 353.8259, 22.687, -2.454, -7.336
 68774146, -353607690, 1491648018, -1071860656, 353.8259, 353.8259, 22.687, -2.454, -7.336
 68794138, -353607690, 1491648018, -1071840628, 353.8259, 353.8259, 22.687, -2.454, -7.336
 68814130, -353607690, 1491648018, -1071835004, 353.8259, 353.8259, 22.687, -2.454, -7.336
 68834122, -353607287, 1491647936, -1071831989, 353.7347, 353.7347, 22.702, -2.492, -7.297
 68854114, -353607287, 1491647936, -1071819967, 353.7347, 353.7347, 22.702, -2.492, -7.297
 68874106, -353607287, 1491647936, -1071812456, 353.7347, 353.7347, 22.702, -2.492, -7.297
 68894098, -353607287, 1491647936, -1071799976, 353.7347, 353.7347, 22.702, -2.492, -7.297
 68914090, -353607287, 1491647936, -1071746973, 353.7347, 353.7347, 22.702, -2.492, -7.297
 68934082, -353607287, 1491647936, -1071739318, 353.7347, 353.7347, 22.702, -2.492, -7.297
 68954074, -353607287, 1491647936, -1071743951, 353.7347, 353.7347, 22.702, -2.492, -7.297
 68974066, -353607287, 1491647936, -1071736546, 353.7347, 353.7347, 22.702, -2.492, -7.297
 68994058, -353607287, 1491647936, -1071749346, 353.7347, 353.7347, 22.702, -2.492, -7.297
 69014050, -353607287, 1491647936, -1071751211, 353.7347, 353.7347, 22.702, -2.492, -7.297
 69034042, -353606881, 1491647892, -1071764852, 353.7292, 353.7292, 22.718, -2.496, -7.262001
 69054034, -353606881, 1491647892, -1071770193, 353.7292, 353.7292, 22.718, -2.496, -7.262001
 69074026, -353606881, 1491647892, -1071775712, 353.7292, 353.7292, 22.718, -2.496, -7.262001
 69094018, -353606881, 1491647892, -1071779457, 353.7292, 353.7292, 22.718, -2.496, -7.262001
 69114010, -353606881, 1491647892, -1071763575, 353.7292, 353.7292, 22.718, -2.496, -7.262001
 69134002, -353606881, 1491647892, -1071768331, 353.7292, 353.7292, 22.718, -2.496, -7.262001
 69153994, -353606881, 1491647892, -1071779166, 353.7292, 353.7292, 22.718, -2.496, -7.262001
 69173986, -353606881, 1491647892, -1071792323, 353.7292, 353.7292, 22.718, -2.496, -7.262001
 69193978, -353606881, 1491647892, -1071809441, 353.7292, 353.7292, 22.718, -2.496, -7.262001
 69213970, -353606881, 1491647892, -1071822280, 353.7292, 353.7292, 22.718, -2.496, -7.262001
 69233962, -353606466, 1491647847, -1071833030, 353.7708, 353.7708, 22.692, -2.476, -7.309
 69253954, -353606466, 1491647847, -1071845258, 353.7708, 353.7708, 22.692, -2.476, -7.309
 69273946, -353606466, 1491647847, -1071866447, 353.7708, 353.7708, 22.692, -2.476, -7.309
