TimeUS,gprLat,gprLng,gprAlt,gprGC,gpGC,gprN,gprE,gprD
 55113779, -353629435, 1491651277, 1032201148, 0, 0, 0, 0, 0
 55133771, -353629435, 1491651277, 1032214518, 0, 0, 0, 0, 0
 55153763, -353629435, 1491651277, 1032222946, 0, 0, 0, 0, 0
 55173755, -353629435, 1491651277, 1032242204, 0, 0, 0, 0, 0
 55193747, -353629435, 1491651277, 1032256709, 0, 0, 0, 0, 0
 55213739, -353629435, 1491651277, 1032278089, 0, 0, 0, 0, 0
 55233731, -353629419, 1491651407, 1032316525, 0, 0, 0, 0, 0
 55253723, -353629419, 1491651407, 1032358931, 0, 0, 0, 0, 0
 55273715, -353629419, 1491651407, 1032372284, 0, 0, 0, 0, 0
 55293707, -353629419, 1491651407, 1032399726, 0, 0, 0, 0, 0
 55313699, -353629419, 1491651407, 1035365108, 0, 0, 0, 0, 0
 55333691, -353629419, 1491651407, 1035399747, 0, 0, 0, 0, 0
 55353683, -353629419, 1491651407, 1035426924, 0, 0, 0, 0, 0
 55373675, -353629419, 1491651407, 1035448568, 0, 0, 0, 0, 0
 55393667, -353629419, 1491651407, 1035471323, 0, 0, 0, 0, 0
 55413659, -353629419, 1491651407, 1035502408, 0, 0, 0, 0, 0
 55433651, -353629478, 1491650215, 1035531857, 0, 0, 0, 0, 0
 55453643, -353629478, 1491650215, 1035562208, 0, 0, 0, 0, 0
 55473635, -353629478, 1491650215, 1035582362, 0, 0, 0, 0, 0
 55493627, -353629478, 1491650215, 1035611951, 0, 0, 0, 0, 0
 55513619, -353629478, 1491650215, 1025016731, 0, 0, 0, 0, 0
 55533611, -353629478, 1491650215, 1025082312, 0, 0, 0, 0, 0
 55553603, -353629478, 1491650215, 1025087594, 0, 0, 0, 0, 0
 55573595, -353629478, 1491650215, 1025080530, 0, 0, 0, 0, 0
 55593587, -353629478, 1491650215, 1025072190, 0, 0, 0, 0, 0
 55613579, -353629478, 1491650215, 1025040547, 0, 0, 0, 0, 0
 55633571, -353629443, 1491650639, 1024949018, 353.7877, 353.7877, 0.009000001, -0.001, 0
 55653563, -353629443, 1491650639, 1024769644, 353.7877, 353.7877, 0.009000001, -0.001, 0
 55673555, -353629443, 1491650639, 1024581114, 353.7877, 353.7877, 0.009000001, -0.001, 0
 55693547, -353629443, 1491650639, 1024275531, 353.7877, 353.7877, 0.009000001, -0.001, 0
 55713539, -353629443, 1491650639, 1012966342, 353.7877, 353.7877, 0.009000001, -0.001, 0
 55733531, -353629443, 1491650639, 1010913564, 353.7877, 353.7877, 0.009000001, -0.001, 0
 55753523, -353629443, 1491650639, 1008399771, 353.7877, 353.7877, 0.009000001, -0.001, 0
 55773515, -353629443, 1491650639, 1004216770, 353.7877, 353.7877, 0.009000001, -0.001, 0
 55793507, -353629443, 1491650639, 996552272, 353.7877, 353.7877, 0.009000001, -0.001, 0
 55813499, -353629443, 1491650639, -1182525265, 353.7877, 353.7877, 0.009000001, -0.001, 0
 55833491, -353629672, 1491650773, -1148460537, 354.0787, 354.0787, 0.248, -0.025, 0
 55853483, -353629672, 1491650773, -1139690504, 354.0787, 354.0787, 0.248, -0.025, 0
 55873475, -353629672, 1491650773, -1133757783, 354.0787, 354.0787, 0.248, -0.025, 0
 55894300, -353629672, 1491650773, -1130025683, 354.0787, 354.0787, 0.248, -0.025, 0
 55914292, -353629672, 1491650773, -1123900610, 354.0787, 354.0787, 0.248, -0.025, 0
 55934284, -353629672, 1491650773, -1122217308, 354.0787, 354.0787, 0.248, -0.025, 0
 55954276, -353629672, 1491650773, -1120156200, 354.0787, 354.0787, 0.248, -0.025, 0
 55974268, -353629672, 1491650773, -1118083137, 354.0787, 354.0787, 0.248, -0.025, 0
 55994260, -353629672, 1491650773, -1115909624, 354.0787, 354.0787, 0.248, -0.025, 0
 56014252, -353629672, 1491650773, -1114605613, 354.0787, 354.0787, 0.248, -0.025, 0
 56034244, -353629319, 1491651334, -1113368833, 353.9734, 353.9734, 0.934, -0.098, 0.012
 56054236, -353629319, 1491651334, -1112154862, 353.9734, 353.9734, 0.934, -0.098, 0.012
 56074228, -353629319, 1491651334, -1110767530, 353.9734, 353.9734, 0.934, -0.098, 0.012
 56094220, -353629319, 1491651334, -1109383795, 353.9734, 353.9734, 0.934, -0.098, 0.012
 56114212, -353629319, 1491651334, -1112040199, 353.9734, 353.9734, 0.934, -0.098, 0.012
 56134204, -353629319, 1491651334, -1110485954, 353.9734, 353.9734, 0.934, -0.098, 0.012
 56154196, -353629319, 1491651334, -1108799064, 353.9734, 353.9734, 0.934, -0.098, 0.012
 56174188, -353629319, 1491651334, -1107277778, 353.9734, 353.9734, 0.934, -0.098, 0.012
 56194180, -353629319, 1491651334, -1106342999, 353.9734, 353.9734, 0.934, -0.098, 0.012
 56214172, -353629319, 1491651334, -1105476403, 353.9734, 353.9734, 0.934, -0.098, 0.012
 56234164, -353629306, 1491650896, -1104571359, 354.0027, 354.0027, 2.099, -0.22, 0.037
 56254156, -353629306, 1491650896, -1103600968, 354.0027, 354.0027, 2.099, -0.22, 0.037
 56274148, -353629306, 1491650896, -1102539484, 354.0027, 354.0027, 2.099, -0.22, 0.037
 56294140, -353629306, 1491650896, -1101523937, 354.0027, 354.0027, 2.099, -0.22, 0.037
 56314132, -353629306, 1491650896, -1100585481, 354.0027, 354.0027, 2.099, -0.22, 0.037
 56334124, -353629306, 1491650896, -1099516884, 354.0027, 354.0027, 2.099, -0.22, 0.037
 56354116, -353629306, 1491650896, -1098635827, 354.0027, 354.0027, 2.099, -0.22, 0.037
 56374108, -353629306, 1491650896, -1098065863, 354.0027, 354.0027, 2.099, -0.22, 0.037
 56394100, -353629306, 1491650896, -1097470597, 354.0027, 354.0027, 2.099, -0.22, 0.037
 56414092, -353629306, 1491650896, -1096841533, 354.0027, 354.0027, 2.099, -0.22, 0.037
 56434084, -353629328, 1491650189, -1096237759, 353.9925, 353.9925, 3.708, -0.39, 0.075
 56454076, -353629328, 1491650189, -1095597345, 353.9925, 353.9925, 3.708, -0.39, 0.075
 56474068, -353629328, 1491650189, -1094966618, 353.9925, 353.9925, 3.708, -0.39, 0.075
 56494060, -353629328, 1491650189, -1094241311, 353.9925, 353.9925, 3.708, -0.39, 0.075
 56514052, -353629328, 1491650189, -1092300155, 353.9925, 353.9925, 3.708, -0.39, 0.075
 56534044, -353629328, 1491650189, -1091601950, 353.9925, 353.9925, 3.708, -0.39, 0.075
 56554036, -353629328, 1491650189, -1090905607, 353.9925, 353.9925, 3.708, -0.39, 0.075
 56574028, -353629328, 1491650189, -1090343802, 353.9925, 353.9925, 3.708, -0.39, 0.075
 56594020, -353629328, 1491650189, -1089996995, 353.9925, 353.9925, 3.708, -0.39, 0.075
 56614012, -353629328, 1491650189, -1089597523, 353.9925, 353.9925, 3.708, -0.39, 0.075
 56634004, -353629182, 1491650523, -1089238764, 353.9835, 353.9835, 5.707, -0.601, 0.123
 56653996, -353629182, 1491650523, -1088866220, 353.9835, 353.9835, 5.707, -0.601, 0.123
 56673988, -353629182, 1491650523, -1088496805, 353.9835, 353.9835, 5.707, -0.601, 0.123
 56693980, -353629182, 1491650523, -1088078560, 353.9835, 353.9835, 5.707, -0.601, 0.123
 56713972, -353629182, 1491650523, -1087604013, 353.9835, 353.9835, 5.707, -0.601, 0.123
 56733964, -353629182, 1491650523, -1087190785, 353.9835, 353.9835, 5.707, -0.601, 0.123
 56753956, -353629182, 1491650523, -1086828385, 353.9835, 353.9835, 5.707, -0.601, 0.123
 56773948, -353629182, 1491650523, -1086464074, 353.9835, 353.9835, 5.707, -0.601, 0.123
 56793940, -353629182, 1491650523, -1086081353, 353.9835, 353.9835, 5.707, -0.601, 0.123
 56813932, -353629182, 1491650523, -1085676503, 353.9835, 353.9835, 5.707, -0.601, 0.123
 56833924, -353629272, 1491650723, -1085290198, 353.9802, 353.9802, 7.832, -0.825, 0.181
 56853916, -353629272, 1491650723, -1084895942, 353.9802, 353.9802, 7.832, -0.825, 0.181
 56873908, -353629272, 1491650723, -1084500891, 353.9802, 353.9802, 7.832, -0.825, 0.181
 56893900, -353629272, 1491650723, -1084165168, 353.9802, 353.9802, 7.832, -0.825, 0.181
 56913892, -353629272, 1491650723, -1084007551, 353.9802, 353.9802, 7.832, -0.825, 0.181
 56933884, -353629272, 1491650723, -1083612838, 353.9802, 353.9802, 7.832, -0.825, 0.181
 56953876, -353629272, 1491650723, -1083286934, 353.9802, 353.9802, 7.832, -0.825, 0.181
 56973868, -353629272, 1491650723, -1082976312, 353.9802, 353.9802, 7.832, -0.825, 0.181
 56993860, -353629272, 1491650723, -1082660005, 353.9802, 353.9802, 7.832, -0.825, 0.181
 57013852, -353629272, 1491650723, -1082338703, 353.9802, 353.9802, 7.832, -0.825, 0.181
 57033844, -353629026, 1491650676, -1082061030, 354.011, 354.011, 9.81, -1.029, 0.239
 57053836, -353629026, 1491650676, -1081918247, 354.011, 354.011, 9.81, -1.029, 0.239
 57073828, -353629026, 1491650676, -1081741404, 354.011, 354.011, 9.81, -1.029, 0.239
 57093820, -353629026, 1491650676, -1081575711, 354.011, 354.011, 9.81, -1.029, 0.239
 57113812, -353629026, 1491650676, -1081485286, 354.011, 354.011, 9.81, -1.029, 0.239
 57133804, -353629026, 1491650676, -1081315954, 354.011, 354.011, 9.81, -1.029, 0.239
 57153796, -353629026, 1491650676, -1081147541, 354.011, 354.011, 9.81, -1.029, 0.239
 57173788, -353629026, 1491650676, -1080970243, 354.011, 354.011, 9.81, -1.029, 0.239
 57193780, -353629026, 1491650676, -1080806001, 354.011, 354.011, 9.81, -1.029, 0.239
 57213772, -353629026, 1491650676, -1080666457, 354.011, 354.011, 9.81, -1.029, 0.239
 57233764, -353629272, 1491650640, -1080515982, 353.9951, 353.9951, 11.578, -1.217, 0.273
 57253756, -353629272, 1491650640, -1080350519, 353.9951, 353.9951, 11.578, -1.217, 0.273
 57273748, -353629272, 1491650640, -1080233692, 353.9951, 353.9951, 11.578, -1.217, 0.273
 57293740, -353629272, 1491650640, -1080065264, 353.9951, 353.9951, 11.578, -1.217, 0.273
 57313732, -353629272, 1491650640, -1079966803, 353.9951, 353.9951, 11.578, -1.217, 0.273
 57333724, -353629272, 1491650640, -1079813166, 353.9951, 353.9951, 11.578, -1.217, 0.273
 57353716, -353629272, 1491650640, -1079683027, 353.9951, 353.9951, 11.578, -1.217, 0.273
 57373708, -353629272, 1491650640, -1079561323, 353.9951, 353.9951, 11.578, -1.217, 0.273
 57393700, -353629272, 1491650640, -1079439287, 353.9951, 353.9951, 11.578, -1.217, 0.273
 57413692, -353629272, 1491650640, -1079306111, 353.9951, 353.9951, 11.578, -1.217, 0.273
 57433684, -353628442, 1491650982, -1079177143, 354.0019, 354.0019, 13.122, -1.378, 0.207
 57453676, -353628442, 1491650982, -1079068425, 354.0019, 354.0019, 13.122, -1.378, 0.207
 57473668, -353628442, 1491650982, -1078940446, 354.0019, 354.0019, 13.122, -1.378, 0.207
 57493660, -353628442, 1491650982, -1078829897, 354.0019, 354.0019, 13.122, -1.378, 0.207
 57513652, -353628442, 1491650982, -1078895246, 354.0019, 354.0019, 13.122, -1.378, 0.207
 57533644, -353628442, 1491650982, -1078772240, 354.0019, 354.0019, 13.122, -1.378, 0.207
 57553636, -353628442, 1491650982, -1078656494, 354.0019, 354.0019, 13.122, -1.378, 0.207
 57573628, -353628442, 1491650982, -1078548606, 354.0019, 354.0019, 13.122, -1.378, 0.207
 57593620, -353628442, 1491650982, -1078393459, 354.0019, 354.0019, 13.122, -1.378, 0.207
 57613612, -353628442, 1491650982, -1078207169, 354.0019, 354.0019, 13.122, -1.378, 0.207
 57633604, -353628350, 1491650897, -1078016649, 353.9922, 353.9922, 14.726, -1.549, 0.122
 57653596, -353628350, 1491650897, -1077847609, 353.9922, 353.9922, 14.726, -1.549, 0.122
 57673588, -353628350, 1491650897, -1077683815, 353.9922, 353.9922, 14.726, -1.549, 0.122
 57693580, -353628350, 1491650897, -1077500603, 353.9922, 353.9922, 14.726, -1.549, 0.122
 57713572, -353628350, 1491650897, -1077454301, 353.9922, 353.9922, 14.726, -1.549, 0.122
 57733564, -353628350, 1491650897, -1077277294, 353.9922, 353.9922, 14.726, -1.549, 0.122
 57753556, -353628350, 1491650897, -1077097599, 353.9922, 353.9922, 14.726, -1.549, 0.122
 57773548, -353628350, 1491650897, -1076923584, 353.9922, 353.9922, 14.726, -1.549, 0.122
 57793540, -353628350, 1491650897, -1076748274, 353.9922, 353.9922, 14.726, -1.549, 0.122
 57813532, -353628350, 1491650897, -1076568351, 353.9922, 353.9922, 14.726, -1.549, 0.122
 57833524, -353628241, 1491650248, -1076376982, 353.9407, 353.9407, 16.673, -1.769, -1.069
 57853516, -353628241, 1491650248, -1076184037, 353.9407, 353.9407, 16.673, -1.769, -1.069
 57873508, -353628241, 1491650248, -1076002322, 353.9407, 353.9407, 16.673, -1.769, -1.069
 57893500, -353628241, 1491650248, -1075832710, 353.9407, 353.9407, 16.673, -1.769, -1.069
 57913492, -353628241, 1491650248, -1075446644, 353.9407, 353.9407, 16.673, -1.769, -1.069
 57933484, -353628241, 1491650248, -1075271401, 353.9407, 353.9407, 16.673, -1.769, -1.069
 57953476, -353628241, 1491650248, -1075131578, 353.9407, 353.9407, 16.673, -1.769, -1.069
 57974301, -353628241, 1491650248, -1074970189, 353.9407, 353.9407, 16.673, -1.769, -1.069
 57994293, -353628241, 1491650248, -1074835647, 353.9407, 353.9407, 16.673, -1.769, -1.069
 58014285, -353628241, 1491650248, -1074697769, 353.9407, 353.9407, 16.673, -1.769, -1.069
 58034277, -353628208, 1491651079, -1074586479, 353.9035, 353.9035, 18.342, -1.959, -1.891
 58054269, -353628208, 1491651079, -1074468563, 353.9035, 353.9035, 18.342, -1.959, -1.891
 58074261, -353628208, 1491651079, -1074321560, 353.9035, 353.9035, 18.342, -1.959, -1.891
 58094253, -353628208, 1491651079, -1074195699, 353.9035, 353.9035, 18.342, -1.959, -1.891
 58114245, -353628208, 1491651079, -1074313418, 353.9035, 353.9035, 18.342, -1.959, -1.891
 58134237, -353628208, 1491651079, -1074187839, 353.9035, 353.9035, 18.342, -1.959, -1.891
 58154229, -353628208, 1491651079, -1074056206, 353.9035, 353.9035, 18.342, -1.959, -1.891
 58174221, -353628208, 1491651079, -1073913821, 353.9035, 353.9035, 18.342, -1.959, -1.891
 58194213, -353628208, 1491651079, -1073830480, 353.9035, 353.9035, 18.342, -1.959, -1.891
 58214205, -353628208, 1491651079, -1073722732, 353.9035, 353.9035, 18.342, -1.959, -1.891
 58234197, -353627518, 1491650093, -1073672947, 353.915, 353.915, 19.812, -2.112, -2.406
 58254189, -353627518, 1491650093, -1073610953, 353.915, 353.915, 19.812, -2.112, -2.406
 58274181, -353627518, 1491650093, -1073547788, 353.915, 353.915, 19.812, -2.112, -2.406
 58294173, -353627518, 1491650093, -1073483897, 353.915, 353.915, 19.812, -2.112, -2.406
 58314165, -353627518, 1491650093, -1073261630, 353.915, 353.915, 19.812, -2.112, -2.406
 58334157, -353627518, 1491650093, -1073202608, 353.915, 353.915, 19.812, -2.112, -2.406
 58354149, -353627518, 1491650093, -1073141279, 353.915, 353.915, 19.812, -2.112, -2.406
 58374141, -353627518, 1491650093, -1073082343, 353.915, 353.915, 19.812, -2.112, -2.406
 58394133, -353627518, 1491650093, -1073022408, 353.915, 353.915, 19.812, -2.112, -2.406
 58414125, -353627518, 1491650093, -1072965337, 353.915, 353.915, 19.812, -2.112, -2.406
 58434117, -353627111, 1491650532, -1072891537, 353.8613, 353.8613, 21.087, -2.268, -2.909
 58454109, -353627111, 1491650532, -1072821902, 353.8613, 353.8613, 21.087, -2.268, -2.909
 58474101, -353627111, 1491650532, -1072757023, 353.8613, 353.8613, 21.087, -2.268, -2.909
 58494093, -353627111, 1491650532, -1072692948, 353.8613, 353.8613, 21.087, -2.268, -2.909
 58514085, -353627111, 1491650532, -1072644091, 353.8613, 353.8613, 21.087, -2.268, -2.909
 58534077, -353627111, 1491650532, -1072584138, 353.8613, 353.8613, 21.087, -2.268, -2.909
 58554069, -353627111, 1491650532, -1072529721, 353.8613, 353.8613, 21.087, -2.268, -2.909
 58574061, -353627111, 1491650532, -1072482950, 353.8613, 353.8613, 21.087, -2.268, -2.909
 58594053, -353627111, 1491650532, -1072440590, 353.8613, 353.8613, 21.087, -2.268, -2.909
 58614045, -353627111, 1491650532, -1072392361, 353.8613, 353.8613, 21.087, -2.268, -2.909
 58634037, -353626784, 1491650428, -1072346822, 353.821, 353.821, 22.179, -2.401, -3.302
 58654029, -353626784, 1491650428, -1072303192, 353.821, 353.821, 22.179, -2.401, -3.302
 58674021, -353626784, 1491650428, -1072255870, 353.821, 353.821, 22.179, -2.401, -3.302
 58694013, -353626784, 1491650428, -1072207157, 353.821, 353.821, 22.179, -2.401, -3.302
 58714005, -353626784, 1491650428, -1072139877, 353.821, 353.821, 22.179, -2.401, -3.302
 58733997, -353626784, 1491650428, -1072092484, 353.821, 353.821, 22.179, -2.401, -3.302
 58753989, -353626784, 1491650428, -1072057981, 353.821, 353.821, 22.179, -2.401, -3.302
 58773981, -353626784, 1491650428, -1072018710, 353.821, 353.821, 22.179, -2.401, -3.302
 58793973, -353626784, 1491650428, -1071971287, 353.821, 353.821, 22.179, -2.401, -3.302
 58813965, -353626784, 1491650428, -1071937680, 353.821, 353.821, 22.179, -2.401, -3.302
 58833957, -353626094, 1491650687, -1071894675, 353.8149, 353.8149, 23.112, -2.504, -3.68
 58853949, -353626094, 1491650687, -1071851458, 353.8149, 353.8149, 23.112, -2.504, -3.68
 58873941, -353626094, 1491650687, -1071816709, 353.8149, 353.8149, 23.112, -2.504, -3.68
 58893933, -353626094, 1491650687, -1071785365, 353.8149, 353.8149, 23.112, -2.504, -3.68
 58913925, -353626094, 1491650687, -1071798081, 353.8149, 353.8149, 23.112, -2.504, -3.68
 58933917, -353626094, 1491650687, -1071757550, 353.8149, 353.8149, 23.112, -2.504, -3.68
 58953909, -353626094, 1491650687, -1071717233, 353.8149, 353.8149, 23.112, -2.504, -3.68
 58973901, -353626094, 1491650687, -1071683772, 353.8149, 353.8149, 23.112, -2.504, -3.68
 58993893, -353626094, 1491650687, -1071664241, 353.8149, 353.8149, 23.112, -2.504, -3.68
 59013885, -353626094, 1491650687, -1071642387, 353.8149, 353.8149, 23.112, -2.504, -3.68
 59033877, -353626109, 1491650501, -1071629557, 353.778, 353.778, 23.658, -2.579, -4.11
 59053869, -353626109, 1491650501, -1071619267, 353.778, 353.778, 23.658, -2.579, -4.11
 59073861, -353626109, 1491650501, -1071603367, 353.778, 353.778, 23.658, -2.579, -4.11
 59093853, -353626109, 1491650501, -1071596489, 353.778, 353.778, 23.658, -2.579, -4.11
 59113845, -353626109, 1491650501, -1071578791, 353.778, 353.778, 23.658, -2.579, -4.11
 59133837, -353626109, 1491650501, -1071568446, 353.778, 353.778, 23.658, -2.579, -4.11
 59153829, -353626109, 1491650501, -1071560198, 353.778, 353.778, 23.658, -2.579, -4.11
 59173821, -353626109, 1491650501, -1071552816, 353.778, 353.778, 23.658, -2.579, -4.11
 59193813, -353626109, 1491650501, -1071547868, 353.778, 353.778, 23.658, -2.579, -4.11
 59213805, -353626109, 1491650501, -1071539374, 353.778, 353.778, 23.658, -2.579, -4.11
 59233797, -353625056, 1491650533, -1071540459, 353.7498, 353.7498, 23.738, -2.599, -4.748
 59253789, -353625056, 1491650533, -1071526556, 353.7498, 353.7498, 23.738, -2.599, -4.748
 59273781, -353625056, 1491650533, -1071532833, 353.7498, 353.7498, 23.738, -2.599, -4.748
 59293773, -353625056, 1491650533, -1071529411, 353.7498, 353.7498, 23.738, -2.599, -4.748
 59313765, -353625056, 1491650533, -1071546034, 353.7498, 353.7498, 23.738, -2.599, -4.748
 59333757, -353625056, 1491650533, -1071543317, 353.7498, 353.7498, 23.738, -2.599, -4.748
 59353749, -353625056, 1491650533, -1071547672, 353.7498, 353.7498, 23.738, -2.599, -4.748
 59373741, -353625056, 1491650533, -1071545474, 353.7498, 353.7498, 23.738, -2.599, -4.748
 59393733, -353625056, 1491650533, -1071554709, 353.7498, 353.7498, 23.738, -2.599, -4.748
 59413725, -353625056, 1491650533, -1071560719, 353.7498, 353.7498, 23.738, -2.599, -4.748
 59433717, -353624314, 1491650161, -1071566859, 353.727, 353.727, 23.587, -2.592, -5.554
 59453709, -353624314, 1491650161, -1071574800, 353.727, 353.727, 23.587, -2.592, -5.554
 59473701, -353624314, 1491650161, -1071578908, 353.727, 353.727, 23.587, -2.592, -5.554
 59493693, -353624314, 1491650161, -1071589610, 353.727, 353.727, 23.587, -2.592, -5.554
 59513685, -353624314, 1491650161, -1071526126, 353.727, 353.727, 23.587, -2.592, -5.554
 59533677, -353624314, 1491650161, -1071529730, 353.727, 353.727, 23.587, -2.592, -5.554
 59553669, -353624314, 1491650161, -1071541031, 353.727, 353.727, 23.587, -2.592, -5.554
 59573661, -353624314, 1491650161, -1071545255, 353.727, 353.727, 23.587, -2.592, -5.554
 59593653, -353624314, 1491650161, -1071554730, 353.727, 353.727, 23.587, -2.592, -5.554
 59613645, -353624314, 1491650161, -1071558529, 353.727, 353.727, 23.587, -2.592, -5.554
 59633637, -353624344, 1491650202, -1071542920, 353.7072, 353.7072, 23.4, -2.58, -6.177001
 59653629, -353624344, 1491650202, -1071551286, 353.7072, 353.7072, 23.4, -2.58, -6.177001
 59673621, -353624344, 1491650202, -1071552653, 353.7072, 353.7072, 23.4, -2.58, -6.177001
 59693613, -353624344, 1491650202, -1071556709, 353.7072, 353.7072, 23.4, -2.58, -6.177001
 59713605, -353624344, 1491650202, -1071525881, 353.7072, 353.7072, 23.4, -2.58, -6.177001
 59733597, -353624344, 1491650202, -1071527050, 353.7072, 353.7072, 23.4, -2.58, -6.177001
 59753589, -353624344, 1491650202, -1071526676, 353.7072, 353.7072, 23.4, -2.58, -6.177001
 59773581, -353624344, 1491650202, -1071530481, 353.7072, 353.7072, 23.4, -2.58, -6.177001
 59793573, -353624344, 1491650202, -1071530250, 353.7072, 353.7072, 23.4, -2.58, -6.177001
 59813565, -353624344, 1491650202, -1071517086, 353.7072, 353.7072, 23.4, -2.58, -6.177001
 59833557, -353624082, 1491650796, -1071502838, 353.6664, 353.6664, 23.268, -2.582, -6.494
 59853549, -353624082, 1491650796, -1071496320, 353.6664, 353.6664, 23.268, -2.582, -6.494
 59873541, -353624082, 1491650796, -1071497928, 353.6664, 353.6664, 23.268, -2.582, -6.494
 59893533, -353624082, 1491650796, -1071507337, 353.6664, 353.6664, 23.268, -2.582, -6.494
 59913525, -353624082, 1491650796, -1071655723, 353.6664, 353.6664, 23.268, -2.582, -6.494
 59933517, -353624082, 1491650796, -1071665442, 353.6664, 353.6664, 23.268, -2.582, -6.494
 59953509, -353624082, 1491650796, -1071677521, 353.6664, 353.6664, 23.268, -2.582, -6.494
 59973501, -353624082, 1491650796, -1071691278, 353.6664, 353.6664, 23.268, -2.582, -6.494
 59993493, -353624082, 1491650796, -1071698424, 353.6664, 353.6664, 23.268, -2.582, -6.494
 60013485, -353624082, 1491650796, -1071713379, 353.6664, 353.6664, 23.268, -2.582, -6.494
 60033477, -353623605, 1491650485, -1071722346, 353.702, 353.702, 23.19, -2.559, -6.625
 60054302, -353623605, 1491650485, -1071729501, 353.702, 353.702, 23.19, -2.559, -6.625
 60074294, -353623605, 1491650485, -1071731736, 353.702, 353.702, 23.19, -2.559, -6.625
 60094286, -353623605, 1491650485, -1071735995, 353.702, 353.702, 23.19, -2.559, -6.625
 60114278, -353623605, 1491650485, -1071781335, 353.702, 353.702, 23.19, -2.559, -6.625
 60134270, -353623605, 1491650485, -1071793272, 353.702, 353.702, 23.19, -2.559, -6.625
 60154262, -353623605, 1491650485, -1071804113, 353.702, 353.702, 23.19, -2.559, -6.625
 60174254, -353623605, 1491650485, -1071805200, 353.702, 353.702, 23.19, -2.559, -6.625
 60194246, -353623605, 1491650485, -1071816877, 353.702, 353.702, 23.19, -2.559, -6.625
 60214238, -353623605, 1491650485, -1071817176, 353.702, 353.702, 23.19, -2.559, -6.625
 60234230, -353622733, 1491649705, -1071818732, 353.702, 353.702, 23.098, -2.549, -6.768
 60254222, -353622733, 1491649705, -1071817640, 353.702, 353.702, 23.098, -2.549, -6.768
 60274214, -353622733, 1491649705, -1071813978, 353.702, 353.702, 23.098, -2.549, -6.768
 60294206, -353622733, 1491649705, -1071818166, 353.702, 353.702, 23.098, -2.549, -6.768
 60314198, -353622733, 1491649705, -1071667439, 353.702, 353.702, 23.098, -2.549, -6.768
 60334190, -353622733, 1491649705, -1071664640, 353.702, 353.702, 23.098, -2.549, -6.768
 60354182, -353622733, 1491649705, -1071669002, 353.702, 353.702, 23.098, -2.549, -6.768
 60374174, -353622733, 1491649705, -1071662699, 353.702, 353.702, 23.098, -2.549, -6.768
 60394166, -353622733, 1491649705, -1071655116, 353.702, 353.702, 23.098, -2.549, -6.768
 60414158, -353622733, 1491649705, -1071649480, 353.702, 353.702, 23.098, -2.549, -6.768
 60434150, -353622316, 1491650006, -1071639175, 353.66, 353.66, 23.008, -2.556, -6.893
 60454142, -353622316, 1491650006, -1071631010, 353.66, 353.66, 23.008, -2.556, -6.893
 60474134, -353622316, 1491650006, -1071619537, 353.66, 353.66, 23.008, -2.556, -6.893
 60494126, -353622316, 1491650006, -1071609197, 353.66, 353.66, 23.008, -2.556, -6.893
 60514118, -353622316, 1491650006, -1071565992, 353.66, 353.66, 23.008, -2.556, -6.893
 60534110, -353622316, 1491650006, -1071554354, 353.66, 353.66, 23.008, -2.556, -6.893
 60554102, -353622316, 1491650006, -1071550875, 353.66, 353.66, 23.008, -2.556, -6.893
 60574094, -353622316, 1491650006, -1071540322, 353.66, 353.66, 23.008, -2.556, -6.893
 60594086, -353622316, 1491650006, -1071526606, 353.66, 353.66, 23.008, -2.556, -6.893
 60614078, -353622316, 1491650006, -1071512825, 353.66, 353.66, 23.008, -2.556, -6.893
 60634070, -353622229, 1491650107, -1071504743, 353.5916, 353.5916, 22.966, -2.579, -6.902
 60654062, -353622229, 1491650107, -1071504805, 353.5916, 353.5916, 22.966, -2.579, -6.902
 60674054, -353622229, 1491650107, -1071490186, 353.5916, 353.5916, 22.966, -2.579, -6.902
 60694046, -353622229, 1491650107, -1071493633, 353.5916, 353.5916, 22.966, -2.579, -6.902
 60714038, -353622229, 1491650107, -1071508202, 353.5916, 353.5916, 22.966, -2.579, -6.902
 60734030, -353622229, 1491650107, -1071504805, 353.5916, 353.5916, 22.966, -2.579, -6.902
 60754022, -353622229, 1491650107, -1071504782, 353.5916, 353.5916, 22.966, -2.579, -6.902
 60774014, -353622229, 1491650107, -1071513591, 353.5916, 353.5916, 22.966, -2.579, -6.902
 60794006, -353622229, 1491650107, -1071513271, 353.5916, 353.5916, 22.966, -2.579, -6.902
 60813998, -353622229, 1491650107, -1071519085, 353.5916, 353.5916, 22.966, -2.579, -6.902
 60833990, -353621896, 1491650072, -1071530611, 353.5948, 353.5948, 22.951, -2.576, -6.873
 60853982, -353621896, 1491650072, -1071525600, 353.5948, 353.5948, 22.951, -2.576, -6.873
 60873974, -353621896, 1491650072, -1071523908, 353.5948, 353.5948, 22.951, -2.576, -6.873
 60893966, -353621896, 1491650072, -1071535456, 353.5948, 353.5948, 22.951, -2.576, -6.873
 60913958, -353621896, 1491650072, -1071551552, 353.5948, 353.5948, 22.951, -2.576, -6.873
 60933950, -353621896, 1491650072, -1071550665, 353.5948, 353.5948, 22.951, -2.576, -6.873
 60953942, -353621896, 1491650072, -1071548770, 353.5948, 353.5948, 22.951, -2.576, -6.873
 60973934, -353621896, 1491650072, -1071560027, 353.5948, 353.5948, 22.951, -2.576, -6.873
 60993926, -353621896, 1491650072, -1071560405, 353.5948, 353.5948, 22.951, -2.576, -6.873
 61013918, -353621896, 1491650072, -1071576274, 353.5948, 353.5948, 22.951, -2.576, -6.873
 61033910, -353621714, 1491649919, -1071582554, 353.6298, 353.6298, 22.95, -2.562, -6.865
 61053902, -353621714, 1491649919, -1071582545, 353.6298, 353.6298, 22.95, -2.562, -6.865
 61073894, -353621714, 1491649919, -1071597208, 353.6298, 353.6298, 22.95, -2.562, -6.865
 61093886, -353621714, 1491649919, -1071599701, 353.6298, 353.6298, 22.95, -2.562, -6.865
 61113878, -353621714, 1491649919, -1071593648, 353.6298, 353.6298, 22.95, -2.562, -6.865
 61133870, -353621714, 1491649919, -1071599728, 353.6298, 353.6298, 22.95, -2.562, -6.865
 61153862, -353621714, 1491649919, -1071602062, 353.6298, 353.6298, 22.95, -2.562, -6.865
 61173854, -353621714, 1491649919, -1071616030, 353.6298, 353.6298, 22.95, -2.562, -6.865
 61193846, -353621714, 1491649919, -1071616372, 353.6298, 353.6298, 22.95, -2.562, -6.865
 61213838, -353621714, 1491649919, -1071614205, 353.6298, 353.6298, 22.95, -2.562, -6.865
 61233830, -353620941, 1491649892, -1071610537, 353.654, 353.654, 22.943, -2.551, -6.894001
 61253822, -353620941, 1491649892, -1071611746, 353.654, 353.654, 22.943, -2.551, -6.894001
 61273814, -353620941, 1491649892, -1071608619, 353.654, 353.654, 22.943, -2.551, -6.894001
 61293806, -353620941, 1491649892, -1071603109, 353.654, 353.654, 22.943, -2.551, -6.894001
 61313798, -353620941, 1491649892, -1071595379, 353.654, 353.654, 22.943, -2.551, -6.894001
 61333790, -353620941, 1491649892, -1071584491, 353.654, 353.654, 22.943, -2.551, -6.894001
 61353782, -353620941, 1491649892, -1071575012, 353.654, 353.654, 22.943, -2.551, -6.894001
 61373774, -353620941, 1491649892, -1071563357, 353.654, 353.654, 22.943, -2.551, -6.894001
 61393766, -353620941, 1491649892, -1071565389, 353.654, 353.654, 22.943, -2.551, -6.894001
 61413758, -353620941, 1491649892, -1071570152, 353.654, 353.654, 22.943, -2.551, -6.894001
 61433750, -353620915, 1491649800, -1071567521, 353.627, 353.627, 22.957, -2.564, -6.869
 61453742, -353620915, 1491649800, -1071558747, 353.627, 353.627, 22.957, -2.564, -6.869
 61473734, -353620915, 1491649800, -1071552431, 353.627, 353.627, 22.957, -2.564, -6.869
 61493726, -353620915, 1491649800, -1071545777, 353.627, 353.627, 22.957, -2.564, -6.869
 61513718, -353620915, 1491649800, -1071533909, 353.627, 353.627, 22.957, -2.564, -6.869
 61533710, -353620915, 1491649800, -1071527712, 353.627, 353.627, 22.957, -2.564, -6.869
 61553702, -353620915, 1491649800, -1071521586, 353.627, 353.627, 22.957, -2.564, -6.869
 61573694, -353620915, 1491649800, -1071517924, 353.627, 353.627, 22.957, -2.564, -6.869
 61593686, -353620915, 1491649800, -1071519822, 353.627, 353.627, 22.957, -2.564, -6.869
 61613678, -353620915, 1491649800, -1071513482, 353.627, 353.627, 22.957, -2.564, -6.869
 61633670, -353619876, 1491649711, -1071500952, 353.6129, 353.6129, 22.993, -2.573, -6.792
 61653662, -353619876, 1491649711, -1071497370, 353.6129, 353.6129, 22.993, -2.573, -6.792
 61673654, -353619876, 1491649711, -1071493469, 353.6129, 353.6129, 22.993, -2.573, -6.792
 61693646, -353619876, 1491649711, -1071481782, 353.6129, 353.6129, 22.993, -2.573, -6.792
 61713638, -353619876, 1491649711, -1071459820, 353.6129, 353.6129, 22.993, -2.573, -6.792
 61733630, -353619876, 1491649711, -1071450459, 353.6129, 353.6129, 22.993, -2.573, -6.792
 61753622, -353619876, 1491649711, -1071454444, 353.6129, 353.6129, 22.993, -2.573, -6.792
 61773614, -353619876, 1491649711, -1071455657, 353.6129, 353.6129, 22.993, -2.573, -6.792
 61793606, -353619876, 1491649711, -1071456586, 353.6129, 353.6129, 22.993, -2.573, -6.792
 61813598, -353619876, 1491649711, -1071454030, 353.6129, 353.6129, 22.993, -2.573, -6.792
 61833590, -353619864, 1491649303, -1071462266, 353.5989, 353.5989, 22.977, -2.577, -6.873
 61853582, -353619864, 1491649303, -1071468335, 353.5989, 353.5989, 22.977, -2.577, -6.873
 61873574, -353619864, 1491649303, -1071466782, 353.5989, 353.5989, 22.977, -2.577, -6.873
 61893566, -353619864, 1491649303, -1071465653, 353.5989, 353.5989, 22.977, -2.577, -6.873
 61913558, -353619864, 1491649303, -1071364005, 353.5989, 353.5989, 22.977, -2.577, -6.873
 61933550, -353619864, 1491649303, -1071362303, 353.5989, 353.5989, 22.977, -2.577, -6.873
 61953542, -353619864, 1491649303, -1071362596, 353.5989, 353.5989, 22.977, -2.577, -6.873
 61973534, -353619864, 1491649303, -1071362686, 353.5989, 353.5989, 22.977, -2.577, -6.873
 61993526, -353619864, 1491649303, -1071359571, 353.5989, 353.5989, 22.977, -2.577, -6.873
 62013518, -353619864, 1491649303, -1071351609, 353.5989, 353.5989, 22.977, -2.577, -6.873
 62033510, -353619594, 1491650166, -1071344097, 353.5841, 353.5841, 22.96, -2.581, -6.940001
 62053502, -353619594, 1491650166, -1071338151, 353.5841, 353.5841, 22.96, -2.581, -6.940001
 62073494, -353619594, 1491650166, -1071334278, 353.5841, 353.5841, 22.96, -2.581, -6.940001
 62093486, -353619594, 1491650166, -1071327191, 353.5841, 353.5841, 22.96, -2.581, -6.940001
 62113478, -353619594, 1491650166, -1071465310, 353.5841, 353.5841, 22.96, -2.581, -6.940001
 62134303, -353619594, 1491650166, -1071470848, 353.5841, 353.5841, 22.96, -2.581, -6.940001
 62154295, -353619594, 1491650166, -1071471780, 353.5841, 353.5841, 22.96, -2.581, -6.940001
 62174287, -353619594, 1491650166, -1071467094, 353.5841, 353.5841, 22.96, -2.581, -6.940001
 62194279, -353619594, 1491650166, -1071466511, 353.5841, 353.5841, 22.96, -2.581, -6.940001
 62214271, -353619594, 1491650166, -1071472134, 353.5841, 353.5841, 22.96, -2.581, -6.940001
 62234263, -353619363, 1491649522, -1071473213, 353.5891, 353.5891, 22.976, -2.581, -6.893
 62254255, -353619363, 1491649522, -1071480995, 353.5891, 353.5891, 22.976, -2.581, -6.893
 62274247, -353619363, 1491649522, -1071479454, 353.5891, 353.5891, 22.976, -2.581, -6.893
 62294239, -353619363, 1491649522, -1071473873, 353.5891, 353.5891, 22.976, -2.581, -6.893
 62314231, -353619363, 1491649522, -1071445709, 353.5891, 353.5891, 22.976, -2.581, -6.893
 62334223, -353619363, 1491649522, -1071443422, 353.5891, 353.5891, 22.976, -2.581, -6.893
 62354215, -353619363, 1491649522, -1071442575, 353.5891, 353.5891, 22.976, -2.581, -6.893
 62374207, -353619363, 1491649522, -1071442514, 353.5891, 353.5891, 22.976, -2.581, -6.893
 62394199, -353619363, 1491649522, -1071442082, 353.5891, 353.5891, 22.976, -2.581, -6.893
 62414191, -353619363, 1491649522, -1071443558, 353.5891, 353.5891, 22.976, -2.581, -6.893
 62434183, -353618644, 1491649068, -1071446020, 353.5993, 353.5993, 22.982, -2.578, -6.888
 62454175, -353618644, 1491649068, -1071443848, 353.5993, 353.5993, 22.982, -2.578, -6.888
 62474167, -353618644, 1491649068, -1071435691, 353.5993, 353.5993, 22.982, -2.578, -6.888
 62494159, -353618644, 1491649068, -1071420986, 353.5993, 353.5993, 22.982, -2.578, -6.888
 62514151, -353618644, 1491649068, -1071301854, 353.5993, 353.5993, 22.982, -2.578, -6.888
 62534143, -353618644, 1491649068, -1071295439, 353.5993, 353.5993, 22.982, -2.578, -6.888
 62554135, -353618644, 1491649068, -1071285852, 353.5993, 353.5993, 22.982, -2.578, -6.888
 62574127, -353618644, 1491649068, -1071283378, 353.5993, 353.5993, 22.982, -2.578, -6.888
 62594119, -353618644, 1491649068, -1071270719, 353.5993, 353.5993, 22.982, -2.578, -6.888
 62614111, -353618644, 1491649068, -1071260194, 353.5993, 353.5993, 22.982, -2.578, -6.888
 62634103, -353618248, 1491649034, -1071250720, 353.5489, 353.5489, 22.986, -2.599, -6.883
 62654095, -353618248, 1491649034, -1071237037, 353.5489, 353.5489, 22.986, -2.599, -6.883
 62674087, -353618248, 1491649034, -1071227157, 353.5489, 353.5489, 22.986, -2.599, -6.883
 62694079, -353618248, 1491649034, -1071211402, 353.5489, 353.5489, 22.986, -2.599, -6.883
 62714071, -353618248, 1491649034, -1071119789, 353.5489, 353.5489, 22.986, -2.599, -6.883
 62734063, -353618248, 1491649034, -1071109695, 353.5489, 353.5489, 22.986, -2.599, -6.883
 62754055, -353618248, 1491649034, -1071110087, 353.5489, 353.5489, 22.986, -2.599, -6.883
 62774047, -353618248, 1491649034, -1071109500, 353.5489, 353.5489, 22.986, -2.599, -6.883
 62794039, -353618248, 1491649034, -1071113711, 353.5489, 353.5489, 22.986, -2.599, -6.883
 62814031, -353618248, 1491649034, -1071104676, 353.5489, 353.5489, 22.986, -2.599, -6.883
 62834023, -353617908, 1491649222, -1071104555, 353.5347, 353.5347, 22.988, -2.605, -6.897
 62854015, -353617908, 1491649222, -1071109096, 353.5347, 353.5347, 22.988, -2.605, -6.897
 62874007, -353617908, 1491649222, -1071116434, 353.5347, 353.5347, 22.988, -2.605, -6.897
 62893999, -353617908, 1491649222, -1071117335, 353.5347, 353.5347, 22.988, -2.605, -6.897
 62913991, -353617908, 1491649222, -1071103765, 353.5347, 353.5347, 22.988, -2.605, -6.897
 62933983, -353617908, 1491649222, -1071095629, 353.5347, 353.5347, 22.988, -2.605, -6.897
 62953975, -353617908, 1491649222, -1071088941, 353.5347, 353.5347, 22.988, -2.605, -6.897
 62973967, -353617908, 1491649222, -1071084823, 353.5347, 353.5347, 22.988, -2.605, -6.897
 62993959, -353617908, 1491649222, -1071079324, 353.5347, 353.5347, 22.988, -2.605, -6.897
 63013951, -353617908, 1491649222, -1071069291, 353.5347, 353.5347, 22.988, -2.605, -6.897
 63033943, -353617830, 1491649119, -1071061173, 353.5219, 353.5219, 22.973, -2.608, -6.954
 63053935, -353617830, 1491649119, -1071059282, 353.5219, 353.5219, 22.973, -2.608, -6.954
 63073927, -353617830, 1491649119, -1071063027, 353.5219, 353.5219, 22.973, -2.608, -6.954
 63093919, -353617830, 1491649119, -1071063956, 353.5219, 353.5219, 22.973, -2.608, -6.954
 63113911, -353617830, 1491649119, -1071039437, 353.5219, 353.5219, 22.973, -2.608, -6.954
 63133903, -353617830, 1491649119, -1071040689, 353.5219, 353.5219, 22.973, -2.608, -6.954
 63153895, -353617830, 1491649119, -1071038383, 353.5219, 353.5219, 22.973, -2.608, -6.954
 63173887, -353617830, 1491649119, -1071033575, 353.5219, 353.5219, 22.973, -2.608, -6.954
 63193879, -353617830, 1491649119, -1071028736, 353.5219, 353.5219, 22.973, -2.608, -6.954
 63213871, -353617830, 1491649119, -1071018305, 353.5219, 353.5219, 22.973, -2.608, -6.954
 63233863, -353617322, 1491649661, -1071016752, 353.5083, 353.5083, 22.946, -2.611, -6.978
 63253855, -353617322, 1491649661, -1071024142, 353.5083, 353.5083, 22.946, -2.611, -6.978
 63273847, -353617322, 1491649661, -1071018058, 353.5083, 353.5083, 22.946, -2.611, -6.978
 63293839, -353617322, 1491649661, -1071021688, 353.5083, 353.5083, 22.946, -2.611, -6.978
 63313831, -353617322, 1491649661, -1071155039, 353.5083, 353.5083, 22.946, -2.611, -6.978
 63333823, -353617322, 1491649661, -1071162811, 353.5083, 353.5083, 22.946, -2.611, -6.978
 63353815, -353617322, 1491649661, -1071157721, 353.5083, 353.5083, 22.946, -2.611, -6.978
 63373807, -353617322, 1491649661, -1071161214, 353.5083, 353.5083, 22.946, -2.611, -6.978
 63393799, -353617322, 1491649661, -1071162097, 353.5083, 353.5083, 22.946, -2.611, -6.978
 63413791, -353617322, 1491649661, -1071154504, 353.5083, 353.5083, 22.946, -2.611, -6.978
 63433783, -353617190, 1491649458, -1071155613, 353.506, 353.506, 22.914, -2.608, -7.018
 63453775, -353617190, 1491649458, -1071157213, 353.506, 353.506, 22.914, -2.608, -7.018
 63473767, -353617190, 1491649458, -1071159010, 353.506, 353.506, 22.914, -2.608, -7.018
 63493759, -353617190, 1491649458, -1071157998, 353.506, 353.506, 22.914, -2.608, -7.018
 63513751, -353617190, 1491649458, -1071234306, 353.506, 353.506, 22.914, -2.608, -7.018
 63533743, -353617190, 1491649458, -1071239711, 353.506, 353.506, 22.914, -2.608, -7.018
 63553735, -353617190, 1491649458, -1071246824, 353.506, 353.506, 22.914, -2.608, -7.018
 63573727, -353617190, 1491649458, -1071249106, 353.506, 353.506, 22.914, -2.608, -7.018
 63593719, -353617190, 1491649458, -1071250669, 353.506, 353.506, 22.914, -2.608, -7.018
 63613711, -353617190, 1491649458, -1071252131, 353.506, 353.506, 22.914, -2.608, -7.018
 63633703, -353615638, 1491649262, -1071250657, 353.5069, 353.5069, 22.899, -2.606, -7.047
 63653695, -353615638, 1491649262, -1071245632, 353.5069, 353.5069, 22.899, -2.606, -7.047
 63673687, -353615638, 1491649262, -1071241715, 353.5069, 353.5069, 22.899, -2.606, -7.047
 63693679, -353615638, 1491649262, -1071237926, 353.5069, 353.5069, 22.899, -2.606, -7.047
 63713671, -353615638, 1491649262, -1071268715, 353.5069, 353.5069, 22.899, -2.606, -7.047
 63733663, -353615638, 1491649262, -1071259876, 353.5069, 353.5069, 22.899, -2.606, -7.047
 63753655, -353615638, 1491649262, -1071262702, 353.5069, 353.5069, 22.899, -2.606, -7.047
 63773647, -353615638, 1491649262, -1071254030, 353.5069, 353.5069, 22.899, -2.606, -7.047
 63793639, -353615638, 1491649262, -1071254161, 353.5069, 353.5069, 22.899, -2.606, -7.047
 63813631, -353615638, 1491649262, -1071254887, 353.5069, 353.5069, 22.899, -2.606, -7.047
 63833623, -353615979, 1491648668, -1071255184, 353.4985, 353.4985, 22.899, -2.609, -7.033
 63853615, -353615979, 1491648668, -1071254634, 353.4985, 353.4985, 22.899, -2.609, -7.033
 63873607, -353615979, 1491648668, -1071258812, 353.4985, 353.4985, 22.899, -2.609, -7.033
 63893599, -353615979, 1491648668, -1071261440, 353.4985, 353.4985, 22.899, -2.609, -7.033
 63913591, -353615979, 1491648668, -1071151107, 353.4985, 353.4985, 22.899, -2.609, -7.033
 63933583, -353615979, 1491648668, -1071148854, 353.4985, 353.4985, 22.899, -2.609, -7.033
 63953575, -353615979, 1491648668, -1071137528, 353.4985, 353.4985, 22.899, -2.609, -7.033
 63973567, -353615979, 1491648668, -1071137231, 353.4985, 353.4985, 22.899, -2.609, -7.033
 63993559, -353615979, 1491648668, -1071134894, 353.4985, 353.4985, 22.899, -2.609, -7.033
 64013551, -353615979, 1491648668, -1071125959, 353.4985, 353.4985, 22.899, -2.609, -7.033
 64033543, -353615590, 1491648570, -1071122977, 353.4811, 353.4811, 22.877, -2.614, -7.025
 64053535, -353615590, 1491648570, -1071114854, 353.4811, 353.4811, 22.877, -2.614, -7.025
 64073527, -353615590, 1491648570, -1071106864, 353.4811, 353.4811, 22.877, -2.614, -7.025
 64093519, -353615590, 1491648570, -1071100418, 353.4811, 353.4811, 22.877, -2.614, -7.025
 64113511, -353615590, 1491648570, -1070996276, 353.4811, 353.4811, 22.877, -2.614, -7.025
 64133503, -353615590, 1491648570, -1070994614, 353.4811, 353.4811, 22.877, -2.614, -7.025
 64153495, -353615590, 1491648570, -1070989588, 353.4811, 353.4811, 22.877, -2.614, -7.025
 64173487, -353615590, 1491648570, -1070986686, 353.4811, 353.4811, 22.877, -2.614, -7.025
 64193479, -353615590, 1491648570, -1070985923, 353.4811, 353.4811, 22.877, -2.614, -7.025
 64214304, -353615590, 1491648570, -1070974329, 353.4811, 353.4811, 22.877, -2.614, -7.025
 64234296, -353615341, 1491648978, -1070970185, 353.4482, 353.4482, 22.851, -2.624, -7.058001
 64254288, -353615341, 1491648978, -1070962930, 353.4482, 353.4482, 22.851, -2.624, -7.058001
 64274280, -353615341, 1491648978, -1070951698, 353.4482, 353.4482, 22.851, -2.624, -7.058001
 64294272, -353615341, 1491648978, -1070954766, 353.4482, 353.4482, 22.851, -2.624, -7.058001
 64314264, -353615341, 1491648978, -1070991372, 353.4482, 353.4482, 22.851, -2.624, -7.058001
 64334256, -353615341, 1491648978, -1070991430, 353.4482, 353.4482, 22.851, -2.624, -7.058001
 64354248, -353615341, 1491648978, -1070985969, 353.4482, 353.4482, 22.851, -2.624, -7.058001
 64374240, -353615341, 1491648978, -1070985477, 353.4482, 353.4482, 22.851, -2.624, -7.058001
 64394232, -353615341, 1491648978, -1070993921, 353.4482, 353.4482, 22.851, -2.624, -7.058001
 64414224, -353615341, 1491648978, -1071001260, 353.4482, 353.4482, 22.851, -2.624, -7.058001
 64434216, -353614714, 1491649390, -1071016144, 353.4691, 353.4691, 22.856, -2.616, -7.041
 64454208, -353614714, 1491649390, -1071028674, 353.4691, 353.4691, 22.856, -2.616, -7.041
 64474200, -353614714, 1491649390, -1071041496, 353.4691, 353.4691, 22.856, -2.616, -7.041
 64494192, -353614714, 1491649390, -1071055065, 353.4691, 353.4691, 22.856, -2.616, -7.041
 64514184, -353614714, 1491649390, -1071209261, 353.4691, 353.4691, 22.856, -2.616, -7.041
 64534176, -353614714, 1491649390, -1071231765, 353.4691, 353.4691, 22.856, -2.616, -7.041
 64554168, -353614714, 1491649390, -1071257336, 353.4691, 353.4691, 22.856, -2.616, -7.041
 64574160, -353614714, 1491649390, -1071275351, 353.4691, 353.4691, 22.856, -2.616, -7.041
 64594152, -353614714, 1491649390, -1071283167, 353.4691, 353.4691, 22.856, -2.616, -7.041
 64614144, -353614714, 1491649390, -1071294966, 353.4691, 353.4691, 22.856, -2.616, -7.041
 64634136, -353614365, 1491648729, -1071297943, 353.5492, 353.5492, 22.855, -2.584, -7.07
 64654128, -353614365, 1491648729, -1071304559, 353.5492, 353.5492, 22.855, -2.584, -7.07
 64674120, -353614365, 1491648729, -1071307172, 353.5492, 353.5492, 22.855, -2.584, -7.07
 64694112, -353614365, 1491648729, -1071314907, 353.5492, 353.5492, 22.855, -2.584, -7.07
 64714104, -353614365, 1491648729, -1071282126, 353.5492, 353.5492, 22.855, -2.584, -7.07
 64734096, -353614365, 1491648729, -1071280953, 353.5492, 353.5492, 22.855, -2.584, -7.07
 64754088, -353614365, 1491648729, -1071273605, 353.5492, 353.5492, 22.855, -2.584, -7.07
 64774080, -353614365, 1491648729, -1071254161, 353.5492, 353.5492, 22.855, -2.584, -7.07
 64794072, -353614365, 1491648729, -1071239168, 353.5492, 353.5492, 22.855, -2.584, -7.07
 64814064, -353614365, 1491648729, -1071227320, 353.5492, 353.5492, 22.855, -2.584, -7.07
 64834056, -353613927, 1491649331, -1071212878, 353.5053, 353.5053, 22.834, -2.599, -7.109
 64854048, -353613927, 1491649331, -1071203750, 353.5053, 353.5053, 22.834, -2.599, -7.109
 64874040, -353613927, 1491649331, -1071196017, 353.5053, 353.5053, 22.834, -2.599, -7.109
 64894032, -353613927, 1491649331, -1071177790, 353.5053, 353.5053, 22.834, -2.599, -7.109
 64914024, -353613927, 1491649331, -1071318173, 353.5053, 353.5053, 22.834, -2.599, -7.109
 64934016, -353613927, 1491649331, -1071311052, 353.5053, 353.5053, 22.834, -2.599, -7.109
 64954008, -353613927, 1491649331, -1071309880, 353.5053, 353.5053, 22.834, -2.599, -7.109
 64974000, -353613927, 1491649331, -1071312799, 353.5053, 353.5053, 22.834, -2.599, -7.109
 64993992, -353613927, 1491649331, -1071307257, 353.5053, 353.5053, 22.834, -2.599, -7.109
 65013984, -353613927, 1491649331, -1071314814, 353.5053, 353.5053, 22.834, -2.599, -7.109
 65033976, -353613710, 1491648162, -1071322093, 353.4951, 353.4951, 22.846, -2.604, -7.057
 65053968, -353613710, 1491648162, -1071337862, 353.4951, 353.4951, 22.846, -2.604, -7.057
 65073960, -353613710, 1491648162, -1071354348, 353.4951, 353.4951, 22.846, -2.604, -7.057
 65093952, -353613710, 1491648162, -1071363885, 353.4951, 353.4951, 22.846, -2.604, -7.057
 65113944, -353613710, 1491648162, -1071214748, 353.4951, 353.4951, 22.846, -2.604, -7.057
 65133936, -353613710, 1491648162, -1071237551, 353.4951, 353.4951, 22.846, -2.604, -7.057
 65153928, -353613710, 1491648162, -1071258807, 353.4951, 353.4951, 22.846, -2.604, -7.057
 65173920, -353613710, 1491648162, -1071280382, 353.4951, 353.4951, 22.846, -2.604, -7.057
 65193912, -353613710, 1491648162, -1071294860, 353.4951, 353.4951, 22.846, -2.604, -7.057
 65213904, -353613710, 1491648162, -1071313880, 353.4951, 353.4951, 22.846, -2.604, -7.057
 65233896, -353613058, 1491648397, -1071326602, 353.5888, 353.5888, 22.861, -2.568, -7.029
 65253888, -353613058, 1491648397, -1071337442, 353.5888, 353.5888, 22.861, -2.568, -7.029
 65273880, -353613058, 1491648397, -1071348801, 353.5888, 353.5888, 22.861, -2.568, -7.029
 65293872, -353613058, 1491648397, -1071362512, 353.5888, 353.5888, 22.861, -2.568, -7.029
 65313864, -353613058, 1491648397, -1071298566, 353.5888, 353.5888, 22.861, -2.568, -7.029
 65333856, -353613058, 1491648397, -1071306236, 353.5888, 353.5888, 22.861, -2.568, -7.029
 65353848, -353613058, 1491648397, -1071306272, 353.5888, 353.5888, 22.861, -2.568, -7.029
 65373840, -353613058, 1491648397, -1071298429, 353.5888, 353.5888, 22.861, -2.568, -7.029
 65393832, -353613058, 1491648397, -1071296040, 353.5888, 353.5888, 22.861, -2.568, -7.029
 65413824, -353613058, 1491648397, -1071291477, 353.5888, 353.5888, 22.861, -2.568, -7.029
 65433816, -353612335, 1491649418, -1071293798, 353.6014, 353.6014, 22.854, -2.562, -7.055
 65453808, -353612335, 1491649418, -1071284838, 353.6014, 353.6014, 22.854, -2.562, -7.055
 65473800, -353612335, 1491649418, -1071274314, 353.6014, 353.6014, 22.854, -2.562, -7.055
 65493792, -353612335, 1491649418, -1071262549, 353.6014, 353.6014, 22.854, -2.562, -7.055
 65513784, -353612335, 1491649418, -1071481283, 353.6014, 353.6014, 22.854, -2.562, -7.055
 65533776, -353612335, 1491649418, -1071473155, 353.6014, 353.6014, 22.854, -2.562, -7.055
 65553768, -353612335, 1491649418, -1071466762, 353.6014, 353.6014, 22.854, -2.562, -7.055
 65573760, -353612335, 1491649418, -1071465333, 353.6014, 353.6014, 22.854, -2.562, -7.055
 65593752, -353612335, 1491649418, -1071453417, 353.6014, 353.6014, 22.854, -2.562, -7.055
 65613744, -353612335, 1491649418, -1071444055, 353.6014, 353.6014, 22.854, -2.562, -7.055
 65633736, -353612185, 1491648468, -1071444944, 353.5494, 353.5494, 22.815, -2.579, -7.147
 65653728, -353612185, 1491648468, -1071437751, 353.5494, 353.5494, 22.815, -2.579, -7.147
 65673720, -353612185, 1491648468, -1071442605, 353.5494, 353.5494, 22.815, -2.579, -7.147
 65693712, -353612185, 1491648468, -1071442966, 353.5494, 353.5494, 22.815, -2.579, -7.147
 65713704, -353612185, 1491648468, -1071390767, 353.5494, 353.5494, 22.815, -2.579, -7.147
 65733696, -353612185, 1491648468, -1071381403, 353.5494, 353.5494, 22.815, -2.579, -7.147
 65753688, -353612185, 1491648468, -1071367846, 353.5494, 353.5494, 22.815, -2.579, -7.147
 65773680, -353612185, 1491648468, -1071358452, 353.5494, 353.5494, 22.815, -2.579, -7.147
 65793672, -353612185, 1491648468, -1071358268, 353.5494, 353.5494, 22.815, -2.579, -7.147
 65813664, -353612185, 1491648468, -1071349488, 353.5494, 353.5494, 22.815, -2.579, -7.147
 65833656, -353611654, 1491648931, -1071346563, 353.5086, 353.5086, 22.801, -2.594, -7.158
 65853648, -353611654, 1491648931, -1071348226, 353.5086, 353.5086, 22.801, -2.594, -7.158
 65873640, -353611654, 1491648931, -1071347625, 353.5086, 353.5086, 22.801, -2.594, -7.158
 65893632, -353611654, 1491648931, -1071342684, 353.5086, 353.5086, 22.801, -2.594, -7.158
 65913624, -353611654, 1491648931, -1071437062, 353.5086, 353.5086, 22.801, -2.594, -7.158
 65933616, -353611654, 1491648931, -1071433477, 353.5086, 353.5086, 22.801, -2.594, -7.158
 65953608, -353611654, 1491648931, -1071434932, 353.5086, 353.5086, 22.801, -2.594, -7.158
 65973600, -353611654, 1491648931, -1071431978, 353.5086, 353.5086, 22.801, -2.594, -7.158
 65993592, -353611654, 1491648931, -1071435574, 353.5086, 353.5086, 22.801, -2.594, -7.158
 66013584, -353611654, 1491648931, -1071439370, 353.5086, 353.5086, 22.801, -2.594, -7.158
 66033576, -353611476, 1491648856, -1071448294, 353.513, 353.513, 22.799, -2.592, -7.149
 66053568, -353611476, 1491648856, -1071460357, 353.513, 353.513, 22.799, -2.592, -7.149
 66073560, -353611476, 1491648856, -1071451996, 353.513, 353.513, 22.799, -2.592, -7.149
 66093552, -353611476, 1491648856, -1071458666, 353.513, 353.513, 22.799, -2.592, -7.149
 66113544, -353611476, 1491648856, -1071528388, 353.513, 353.513, 22.799, -2.592, -7.149
 66133536, -353611476, 1491648856, -1071531175, 353.513, 353.513, 22.799, -2.592, -7.149
 66153528, -353611476, 1491648856, -1071532849, 353.513, 353.513, 22.799, -2.592, -7.149
 66173520, -353611476, 1491648856, -1071527314, 353.513, 353.513, 22.799, -2.592, -7.149
 66193512, -353611476, 1491648856, -1071524025, 353.513, 353.513, 22.799, -2.592, -7.149
 66213504, -353611476, 1491648856, -1071521585, 353.513, 353.513, 22.799, -2.592, -7.149
 66233496, -353610840, 1491648074, -1071513521, 353.4965, 353.4965, 22.786, -2.597, -7.166
 66253488, -353610840, 1491648074, -1071505651, 353.4965, 353.4965, 22.786, -2.597, -7.166
 66273480, -353610840, 1491648074, -1071497202, 353.4965, 353.4965, 22.786, -2.597, -7.166
 66294305, -353610840, 1491648074, -1071491913, 353.4965, 353.4965, 22.786, -2.597, -7.166
 66314297, -353610840, 1491648074, -1071372270, 353.4965, 353.4965, 22.786, -2.597, -7.166
 66334289, -353610840, 1491648074, -1071371475, 353.4965, 353.4965, 22.786, -2.597, -7.166
 66354281, -353610840, 1491648074, -1071374355, 353.4965, 353.4965, 22.786, -2.597, -7.166
 66374273, -353610840, 1491648074, -1071377051, 353.4965, 353.4965, 22.786, -2.597, -7.166
 66394265, -353610840, 1491648074, -1071380297, 353.4965, 353.4965, 22.786, -2.597, -7.166
 66414257, -353610840, 1491648074, -1071385138, 353.4965, 353.4965, 22.786, -2.597, -7.166
 66434249, -353609946, 1491648230, -1071390032, 353.4922, 353.4922, 22.771, -2.597, -7.188
 66454241, -353609946, 1491648230, -1071395156, 353.4922, 353.4922, 22.771, -2.597, -7.188
 66474233, -353609946, 1491648230, -1071405406, 353.4922, 353.4922, 22.771, -2.597, -7.188
 66494225, -353609946, 1491648230, -1071411898, 353.4922, 353.4922, 22.771, -2.597, -7.188
 66514217, -353609946, 1491648230, -1071365819, 353.4922, 353.4922, 22.771, -2.597, -7.188
 66534209, -353609946, 1491648230, -1071374265, 353.4922, 353.4922, 22.771, -2.597, -7.188
 66554201, -353609946, 1491648230, -1071367390, 353.4922, 353.4922, 22.771, -2.597, -7.188
 66574193, -353609946, 1491648230, -1071364611, 353.4922, 353.4922, 22.771, -2.597, -7.188
 66594185, -353609946, 1491648230, -1071374549, 353.4922, 353.4922, 22.771, -2.597, -7.188
 66614177, -353609946, 1491648230, -1071372197, 353.4922, 353.4922, 22.771, -2.597, -7.188
 66634169, -353610075, 1491648423, -1071375192, 353.509, 353.509, 22.774, -2.591, -7.170001
 66654161, -353610075, 1491648423, -1071384328, 353.509, 353.509, 22.774, -2.591, -7.170001
 66674153, -353610075, 1491648423, -1071381636, 353.509, 353.509, 22.774, -2.591, -7.170001
 66694145, -353610075, 1491648423, -1071377187, 353.509, 353.509, 22.774, -2.591, -7.170001
 66714137, -353610075, 1491648423, -1071391919, 353.509, 353.509, 22.774, -2.591, -7.170001
 66734129, -353610075, 1491648423, -1071385774, 353.509, 353.509, 22.774, -2.591, -7.170001
 66754121, -353610075, 1491648423, -1071379720, 353.509, 353.509, 22.774, -2.591, -7.170001
 66774113, -353610075, 1491648423, -1071368305, 353.509, 353.509, 22.774, -2.591, -7.170001
 66794105, -353610075, 1491648423, -1071367610, 353.509, 353.509, 22.774, -2.591, -7.170001
 66814097, -353610075, 1491648423, -1071363602, 353.509, 353.509, 22.774, -2.591, -7.170001
 66834089, -353610427, 1491648348, -1071368047, 353.4808, 353.4808, 22.747, -2.599, -7.215
 66854081, -353610427, 1491648348, -1071370908, 353.4808, 353.4808, 22.747, -2.599, -7.215
 66874073, -353610427, 1491648348, -1071376212, 353.4808, 353.4808, 22.747, -2.599, -7.215
 66894065, -353610427, 1491648348, -1071375872, 353.4808, 353.4808, 22.747, -2.599, -7.215
 66914057, -353610427, 1491648348, -1071383011, 353.4808, 353.4808, 22.747, -2.599, -7.215
 66934049, -353610427, 1491648348, -1071390101, 353.4808, 353.4808, 22.747, -2.599, -7.215
 66954041, -353610427, 1491648348, -1071389320, 353.4808, 353.4808, 22.747, -2.599, -7.215
 66974033, -353610427, 1491648348, -1071394692, 353.4808, 353.4808, 22.747, -2.599, -7.215
 66994025, -353610427, 1491648348, -1071397203, 353.4808, 353.4808, 22.747, -2.599, -7.215
 67014017, -353610427, 1491648348, -1071392018, 353.4808, 353.4808, 22.747, -2.599, -7.215
 67034009, -353609088, 1491648106, -1071388695, 353.4716, 353.4716, 22.712, -2.599, -7.292
 67054001, -353609088, 1491648106, -1071393461, 353.4716, 353.4716, 22.712, -2.599, -7.292
 67073993, -353609088, 1491648106, -1071383295, 353.4716, 353.4716, 22.712, -2.599, -7.292
 67093985, -353609088, 1491648106, -1071379421, 353.4716, 353.4716, 22.712, -2.599, -7.292
 67113977, -353609088, 1491648106, -1071331734, 353.4716, 353.4716, 22.712, -2.599, -7.292
 67133969, -353609088, 1491648106, -1071324024, 353.4716, 353.4716, 22.712, -2.599, -7.292
 67153961, -353609088, 1491648106, -1071319356, 353.4716, 353.4716, 22.712, -2.599, -7.292
 67173953, -353609088, 1491648106, -1071315269, 353.4716, 353.4716, 22.712, -2.599, -7.292
 67193945, -353609088, 1491648106, -1071307501, 353.4716, 353.4716, 22.712, -2.599, -7.292
 67213937, -353609088, 1491648106, -1071301836, 353.4716, 353.4716, 22.712, -2.599, -7.292
 67233929, -353609437, 1491647234, -1071291073, 353.429, 353.429, 22.712, -2.616, -7.251
 67253921, -353609437, 1491647234, -1071284298, 353.429, 353.429, 22.712, -2.616, -7.251
 67273913, -353609437, 1491647234, -1071277395, 353.429, 353.429, 22.712, -2.616, -7.251
 67293905, -353609437, 1491647234, -1071270230, 353.429, 353.429, 22.712, -2.616, -7.251
 67313897, -353609437, 1491647234, -1071029924, 353.429, 353.429, 22.712, -2.616, -7.251
 67333889, -353609437, 1491647234, -1071028645, 353.429, 353.429, 22.712, -2.616, -7.251
 67353881, -353609437, 1491647234, -1071032871, 353.429, 353.429, 22.712, -2.616, -7.251
 67373873, -353609437, 1491647234, -1071025693, 353.429, 353.429, 22.712, -2.616, -7.251
 67393865, -353609437, 1491647234, -1071024205, 353.429, 353.429, 22.712, -2.616, -7.251
 67413857, -353609437, 1491647234, -1071024060, 353.429, 353.429, 22.712, -2.616, -7.251
 67433849, -353608284, 1491647539, -1071029334, 353.4075, 353.4075, 22.692, -2.622, -7.287
 67453841, -353608284, 1491647539, -1071030998, 353.4075, 353.4075, 22.692, -2.622, -7.287
 67473833, -353608284, 1491647539, -1071028946, 353.4075, 353.4075, 22.692, -2.622, -7.287
 67493825, -353608284, 1491647539, -1071020724, 353.4075, 353.4075, 22.692, -2.622, -7.287
 67513817, -353608284, 1491647539, -1070903972, 353.4075, 353.4075, 22.692, -2.622, -7.287
 67533809, -353608284, 1491647539, -1070904489, 353.4075, 353.4075, 22.692, -2.622, -7.287
 67553801, -353608284, 1491647539, -1070910563, 353.4075, 353.4075, 22.692, -2.622, -7.287
 67573793, -353608284, 1491647539, -1070903345, 353.4075, 353.4075, 22.692, -2.622, -7.287
 67593785, -353608284, 1491647539, -1070883141, 353.4075, 353.4075, 22.692, -2.622, -7.287
 67613777, -353608284, 1491647539, -1070866118, 353.4075, 353.4075, 22.692, -2.622, -7.287
 67633769, -353607899, 1491647669, -1070861346, 353.3641, 353.3641, 22.677, -2.638, -7.292
 67653761, -353607899, 1491647669, -1070861114, 353.3641, 353.3641, 22.677, -2.638, -7.292
 67673753, -353607899, 1491647669, -1070860557, 353.3641, 353.3641, 22.677, -2.638, -7.292
 67693745, -353607899, 1491647669, -1070852123, 353.3641, 353.3641, 22.677, -2.638, -7.292
 67713737, -353607899, 1491647669, -1070814604, 353.3641, 353.3641, 22.677, -2.638, -7.292
 67733729, -353607899, 1491647669, -1070811451, 353.3641, 353.3641, 22.677, -2.638, -7.292
 67753721, -353607899, 1491647669, -1070807085, 353.3641, 353.3641, 22.677, -2.638, -7.292
 67773713, -353607899, 1491647669, -1070804710, 353.3641, 353.3641, 22.677, -2.638, -7.292
 67793705, -353607899, 1491647669, -1070806190, 353.3641, 353.3641, 22.677, -2.638, -7.292
 67813697, -353607899, 1491647669, -1070805529, 353.3641, 353.3641, 22.677, -2.638, -7.292
 67833689, -353607225, 1491647816, -1070806041, 353.3496, 353.3496, 22.663, -2.642, -7.296
 67853681, -353607225, 1491647816, -1070799307, 353.3496, 353.3496, 22.663, -2.642, -7.296
 67873673, -353607225, 1491647816, -1070795726, 353.3496, 353.3496, 22.663, -2.642, -7.296
 67893665, -353607225, 1491647816, -1070794452, 353.3496, 353.3496, 22.663, -2.642, -7.296
 67913657, -353607225, 1491647816, -1070809310, 353.3496, 353.3496, 22.663, -2.642, -7.296
 67933649, -353607225, 1491647816, -1070817661, 353.3496, 353.3496, 22.663, -2.642, -7.296
 67953641, -353607225, 1491647816, -1070813152, 353.3496, 353.3496, 22.663, -2.642, -7.296
 67973633, -353607225, 1491647816, -1070820306, 353.3496, 353.3496, 22.663, -2.642, -7.296
 67993625, -353607225, 1491647816, -1070825274, 353.3496, 353.3496, 22.663, -2.642, -7.296
 68013617, -353607225, 1491647816, -1070825680, 353.3496, 353.3496, 22.663, -2.642, -7.296
 68033609, -353607412, 1491647574, -1070824969, 353.345, 353.345, 22.648, -2.642, -7.327
 68053601, -353607412, 1491647574, -1070821070, 353.345, 353.345, 22.648, -2.642, -7.327
 68073593, -353607412, 1491647574, -1070815393, 353.345, 353.345, 22.648, -2.642, -7.327
 68093585, -353607412, 1491647574, -1070822429, 353.345, 353.345, 22.648, -2.642, -7.327
 68113577, -353607412, 1491647574, -1070780196, 353.345, 353.345, 22.648, -2.642, -7.327
 68133569, -353607412, 1491647574, -1070780915, 353.345, 353.345, 22.648, -2.642, -7.327
 68153561, -353607412, 1491647574, -1070793287, 353.345, 353.345, 22.648, -2.642, -7.327
 68173553, -353607412, 1491647574, -1070794356, 353.345, 353.345, 22.648, -2.642, -7.327
 68193545, -353607412, 1491647574, -1070807267, 353.345, 353.345, 22.648, -2.642, -7.327
 68213537, -353607412, 1491647574, -1070812828, 353.345, 353.345, 22.648, -2.642, -7.327
 68233529, -353606778, 1491647223, -1070831758, 353.3662, 353.3662, 22.651, -2.634, -7.33
 68253521, -353606778, 1491647223, -1070838098, 353.3662, 353.3662, 22.651, -2.634, -7.33
 68273513, -353606778, 1491647223, -1070851398, 353.3662, 353.3662, 22.651, -2.634, -7.33
 68293505, -353606778, 1491647223, -1070862081, 353.3662, 353.3662, 22.651, -2.634, -7.33
 68313497, -353606778, 1491647223, -1070761867, 353.3662, 353.3662, 22.651, -2.634, -7.33
 68333489, -353606778, 1491647223, -1070757752, 353.3662, 353.3662, 22.651, -2.634, -7.33
 68353481, -353606778, 1491647223, -1070754875, 353.3662, 353.3662, 22.651, -2.634, -7.33
 68373473, -353606778, 1491647223, -1070760493, 353.3662, 353.3662, 22.651, -2.634, -7.33
 68394298, -353606778, 1491647223, -1070772409, 353.3662, 353.3662, 22.651, -2.634, -7.33
 68414290, -353606778, 1491647223, -1070782935, 353.3662, 353.3662, 22.651, -2.634, -7.33
 68434282, -353606546, 1491648119, -1070792661, 353.4014, 353.4014, 22.646, -2.619, -7.338
 68454274, -353606546, 1491648119, -1070801005, 353.4014, 353.4014, 22.646, -2.619, -7.338
 68474266, -353606546, 1491648119, -1070806792, 353.4014, 353.4014, 22.646, -2.619, -7.338
 68494258, -353606546, 1491648119, -1070818750, 353.4014, 353.4014, 22.646, -2.619, -7.338
 68514250, -353606546, 1491648119, -1070968056, 353.4014, 353.4014, 22.646, -2.619, -7.338
 68534242, -353606546, 1491648119, -1070971110, 353.4014, 353.4014, 22.646, -2.619, -7.338
 68554234, -353606546, 1491648119, -1070967364, 353.4014, 353.4014, 22.646, -2.619, -7.338
