TimeUS,COFN,COFE,COFD,CNe,CEe,CDe,POFN,POFE,POFD,PNe,PEe,PDe
 157954293, 0, 0, 0, 0, 0, 0, 0, 0, 0, 0, 0, 0
 158054253, 0, 0, 0, 0, 0, 0, 0, 0, 0, 0, 0, 0
 158154213, 0, 0, 0, 0, 0, 0, 0, 0, 0, 0, 0, 0
 158254173, 0, 0, 0, 0, 0, 0, 0, 0, 0, 0, 0, 0
 158354133, 0, 0, 0, 0, 0, 0, 0, 0, 0, 0, 0, 0
 158454093, 0, 0, 0, 0, 0, 0, 0, 0, 0, 0, 0, 0
 158554053, 0, 0, 0, 0, 0, 0, 0, 0, 0, 0, 0, 0
 158654013, 0, 0, 0, 0, 0, 0, 0, 0, 0, 0, 0, 0
 158773965, 0, 0, 0, 0, 0, 0, 0, 0, 0, 0, 0, 0
 158873925, 0, 0, 0, 0, 0, 0, 0, 0, 0, 0, 0, 0
 158973885, 0, 0, 0, 0, 0, 0, 0, 0, 0, 0, 0, 0
 159073845, 0, 0, 0, 0, 0, 0, 0, 0, 0, 0, 0, 0
 159173805, 0, 0, 0, 0, 0, 0, 0, 0, 0, 0, 0, 0
 159273765, 0, 0, 0, 0, 0, 0, 0, 0, 0, 0, 0, 0
 159373725, 0, 0, 0, 0, 0, 0, 0, 0, 0, 0, 0, 0
 159473685, 0, 0, 0, 0, 0, 0, 0, 0, 0, 0, 0, 0
 159573645, 0, 0, 0, 0, 0, 0, 0, 0, 0, 0, 0, 0
 159673605, 0, 0, 0, 0, 0, 0, 0, 0, 0, 0, 0, 0
 159773565, 0, 0, 0, 0, 0, 0, 0, 0, 0, 0, 0, 0
 159873525, 0, 0, 0, 0, 0, 0, 0, 0, 0, 0, 0, 0
 159973485, 0, 0, 0, 0, 0, 0, 0, 0, 0, 0, 0, 0
 160074278, 0, 0, 0, 0, 0, 0, 0, 0, 0, 0, 0, 0
 160174238, 0, 0, 0, 0, 0, 0, 0, 0, 0, 0, 0, 0
 160274198, 0, 0, 0, 0, 0, 0, 0, 0, 0, 0, 0, 0
 160374158, 0, 0, 0, 0, 0, 0, 0, 0, 0, 0, 0, 0
 160474118, 0, 0, 0, 0, 0, 0, 0, 0, 0, 0, 0, 0
 160574078, 0, 0, 0, 0, 0, 0, 0, 0, 0, 0, 0, 0
 160674038, 0, 0, 0, 0, 0, 0, 0, 0, 0, 0, 0, 0
 160773998, 0, 0, 0, 0, 0, 0, 0, 0, 0, 0, 0, 0
 160893950, 0, 0, 0, 0, 0, 0, 0, 0, 0, 0, 0, 0
 160993910, 0, 0, 0, 0, 0, 0, 0, 0, 0, 0, 0, 0
 161093870, 0, 0, 0, 0, 0, 0, 0, 0, 0, 0, 0, 0
 161193830, 0, 0, 0, 0, 0, 0, 0, 0, 0, 0, 0, 0
 161293790, -0.06615403, 0.005718337, 0.006057552, 0.00717896, 0.001539769, -0.0006016397, 0, 0, 0, 0, 0, 0
 161393750, -0.2825172, 0.02998565, -0.0320189, 0.1198214, -0.01002267, 0.9929762, -0.06615403, 0.005718337, 0.006057552, 0.00717896, 0.001539769, -0.0006016397
 161493710, 0.4140398, -0.04604974, -0.07282515, 0.5424544, -0.05432294, 0.9493875, -0.2825172, 0.02998565, -0.0320189, 0.1198214, -0.01002267, 0.9929762
 161593670, 0.1268779, -0.01653607, -0.07401086, 0.1559692, -0.008926217, 0.9889885, 0.4140398, -0.04604974, -0.07282515, 0.5424544, -0.05432294, 0.9493875
 161693630, 0.05810129, -0.009178876, -0.06695016, 0.131099, -0.001794405, 0.9915563, 0.1268779, -0.01653607, -0.07401086, 0.1559692, -0.008926217, 0.9889885
 161793590, 0.03667022, -0.003230579, -0.06462996, 0.1273349, 0.002879434, 0.9919416, 0.05810129, -0.009178876, -0.06695016, 0.131099, -0.001794405, 0.9915563
 161893550, 0.0242711, -8.581937E-05, -0.0330387, 0.1251306, 0.004593625, 0.9921787, 0.03667022, -0.003230579, -0.06462996, 0.1273349, 0.002879434, 0.9919416
 161993510, 0.01295054, -0.001391582, -0.03173951, 0.1245715, 0.003296791, 0.9922385, 0.0242711, -8.581937E-05, -0.0330387, 0.1251306, 0.004593625, 0.9921787
 162094303, -0.004916159, 0.002312618, -0.02961931, 0.1237885, 0.001558322, 0.9923295, 0.01295054, -0.001391582, -0.03173951, 0.1245715, 0.003296791, 0.9922385
 162194263, -0.02009364, 0.001074911, -0.05798262, 0.1256118, -0.0006547282, 0.9920976, -0.004916159, 0.002312618, -0.02961931, 0.1237885, 0.001558322, 0.9923295
 162294223, -0.03331358, 0.0040582, -0.05629791, 0.126415, -0.002597054, 0.9919923, -0.02009364, 0.001074911, -0.05798262, 0.1256118, -0.0006547282, 0.9920976
 162394183, -0.04964481, 0.002362065, -0.05413744, 0.1290634, -0.005085246, 0.9916394, -0.03331358, 0.0040582, -0.05629791, 0.126415, -0.002597054, 0.9919923
 162494143, -0.08307517, 0.006318149, -0.04956141, 0.131878, -0.004802311, 0.9912709, -0.04964481, 0.002362065, -0.05413744, 0.1290634, -0.005085246, 0.9916394
 162594103, -0.1035327, 0.008304182, -0.04164639, 0.1342106, -0.001441002, 0.9909707, -0.08307517, 0.006318149, -0.04956141, 0.131878, -0.004802311, 0.9912709
 162694063, -0.1407037, 0.009522283, -0.0467691, 0.1354138, 0.0008665966, 0.9908102, -0.1035327, 0.008304182, -0.04164639, 0.1342106, -0.001441002, 0.9909707
 162794023, -0.1772342, 0.01479804, -0.03666315, 0.1384386, 0.001490931, 0.9904016, -0.1407037, 0.009522283, -0.0467691, 0.1354138, 0.0008665966, 0.9908102
 162913975, -0.2226477, 0.02887947, -0.03542668, 0.1422461, -0.0006378526, 0.989894, -0.1772342, 0.01479804, -0.03666315, 0.1384386, 0.001490931, 0.9904016
 163013935, -0.2816541, 0.03333071, -0.01735055, 0.148037, -0.004406549, 0.9891062, -0.2226477, 0.02887947, -0.03542668, 0.1422461, -0.0006378526, 0.989894
 163113895, -0.4422503, 0.05021836, -9.183213E-05, 0.1739952, -0.008540466, 0.9855365, -0.2816541, 0.03333071, -0.01735055, 0.148037, -0.004406549, 0.9891062
 163213855, -0.5635832, 0.05726701, 0.01202691, 0.2003701, -0.01119106, 0.9818541, -0.4422503, 0.05021836, -9.183213E-05, 0.1739952, -0.008540466, 0.9855365
 163313815, -0.6034831, 0.06434364, 0.0223823, 0.2082462, -0.01302965, 0.9807941, -0.5635832, 0.05726701, 0.01202691, 0.2003701, -0.01119106, 0.9818541
 163413775, -1.04267, 0.119739, 0.08459034, 0.3510462, -0.03162097, 0.9607843, -0.6034831, 0.06434364, 0.0223823, 0.2082462, -0.01302965, 0.9807941
 163513735, -1.889773, 0.214542, 0.211315, 0.7597321, -0.07949476, 0.9026246, -1.04267, 0.119739, 0.08459034, 0.3510462, -0.03162097, 0.9607843
 163613695, -2.04487, 0.2411947, 0.2289726, 0.8363475, -0.08659136, 0.8915924, -1.889773, 0.214542, 0.211315, 0.7597321, -0.07949476, 0.9026246
 163713655, -10.29455, 1.199762, 1.382676, 7.657688, -0.8793801, -0.06740832, -2.04487, 0.2411947, 0.2289726, 0.8363475, -0.08659136, 0.8915924
 163813615, 3.567321, -0.424113, -0.5662755, 219.3729, -25.66104, -30.07944, -10.29455, 1.199762, 1.382676, 7.657688, -0.8793801, -0.06740832
 163913575, 1.264613, -0.1523219, -0.241583, 0.9062814, -0.09992573, 0.8805475, 3.567321, -0.424113, -0.5662755, 219.3729, -25.66104, -30.07944
 164013535, 1.456519, -0.1759241, -0.265535, 1.160562, -0.1308106, 0.843107, 1.264613, -0.1523219, -0.241583, 0.9062814, -0.09992573, 0.8805475
 164113495, 1.061186, -0.1198006, -0.2134093, 0.6163803, -0.06567085, 0.9215286, 1.456519, -0.1759241, -0.265535, 1.160562, -0.1308106, 0.843107
 164214288, 0.8453366, -0.1011724, -0.1808314, 0.4268314, -0.04286566, 0.9493896, 1.061186, -0.1198006, -0.2134093, 0.6163803, -0.06567085, 0.9215286
 164314248, 0.8329639, -0.09516525, -0.178227, 0.4079801, -0.03891036, 0.9523298, 0.8453366, -0.1011724, -0.1808314, 0.4268314, -0.04286566, 0.9493896
 164414208, 0.6279619, -0.0683434, -0.150508, 0.2957349, -0.02384124, 0.9678919, 0.8329639, -0.09516525, -0.178227, 0.4079801, -0.03891036, 0.9523298
 164514168, 0.6468678, -0.07069034, -0.1426943, 0.2987639, -0.02381244, 0.9675657, 0.6279619, -0.0683434, -0.150508, 0.2957349, -0.02384124, 0.9678919
 164614128, 0.6474717, -0.07936678, -0.1528333, 0.2954932, -0.02253323, 0.968083, 0.6468678, -0.07069034, -0.1426943, 0.2987639, -0.02381244, 0.9675657
 164714088, 0.5169878, -0.07122444, -0.1331891, 0.2424953, -0.01526113, 0.9758642, 0.6474717, -0.07936678, -0.1528333, 0.2954932, -0.02253323, 0.968083
 164814048, 0.5275198, -0.06668086, -0.1319888, 0.2387994, -0.01420487, 0.976885, 0.5169878, -0.07122444, -0.1331891, 0.2424953, -0.01526113, 0.9758642
 164914008, 0.5402163, -0.07499529, -0.1320041, 0.2376717, -0.01449243, 0.9773843, 0.5275198, -0.06668086, -0.1319888, 0.2387994, -0.01420487, 0.976885
 165033960, 0.4913717, -0.05235592, -0.1129656, 0.2158575, -0.01053872, 0.9806743, 0.5402163, -0.07499529, -0.1320041, 0.2376717, -0.01449243, 0.9773843
 165133920, 0.4593131, -0.06604436, -0.1175967, 0.2033402, -0.009872017, 0.9825354, 0.4913717, -0.05235592, -0.1129656, 0.2158575, -0.01053872, 0.9806743
 165233880, 0.4301703, -0.04997581, -0.111273, 0.1888974, -0.009848688, 0.9847343, 0.4593131, -0.06604436, -0.1175967, 0.2033402, -0.009872017, 0.9825354
 165333840, 0.4408278, -0.05862855, -0.1156128, 0.1861055, -0.01030254, 0.9853932, 0.4301703, -0.04997581, -0.111273, 0.1888974, -0.009848688, 0.9847343
 165433800, 0.4535471, -0.04920777, -0.1103763, 0.1845965, -0.01015228, 0.9858074, 0.4408278, -0.05862855, -0.1156128, 0.1861055, -0.01030254, 0.9853932
 165533760, 0.4463731, -0.05587393, -0.07832915, 0.1790131, -0.00900235, 0.9866118, 0.4535471, -0.04920777, -0.1103763, 0.1845965, -0.01015228, 0.9858074
 165633720, 0.3873032, -0.04059396, -0.1054116, 0.1628506, -0.004134121, 0.9885989, 0.4463731, -0.05587393, -0.07832915, 0.1790131, -0.00900235, 0.9866118
 165733680, 0.4457658, -0.05659269, -0.1050321, 0.1708831, -0.005225436, 0.9879995, 0.3873032, -0.04059396, -0.1054116, 0.1628506, -0.004134121, 0.9885989
 165833640, 0.3792527, -0.03945359, -0.09737843, 0.1546265, -0.003716304, 0.9897649, 0.4457658, -0.05659269, -0.1050321, 0.1708831, -0.005225436, 0.9879995
 165933600, 0.443295, -0.03753573, -0.1016882, 0.1622633, -0.004387897, 0.9892985, 0.3792527, -0.03945359, -0.09737843, 0.1546265, -0.003716304, 0.9897649
 166033560, 0.4314588, -0.06216375, -0.09878848, 0.1550933, -0.003815032, 0.9902703, 0.443295, -0.03753573, -0.1016882, 0.1622633, -0.004387897, 0.9892985
 166133520, 0.3642345, -0.05935009, -0.06173334, 0.1392949, -0.002508842, 0.9918234, 0.4314588, -0.06216375, -0.09878848, 0.1550933, -0.003815032, 0.9902703
 166233480, 0.3768303, -0.03907455, -0.08674242, 0.1389511, -0.0001112437, 0.9919838, 0.3642345, -0.05935009, -0.06173334, 0.1392949, -0.002508842, 0.9918234
 166334273, 0.3625365, -0.03094507, -0.0892411, 0.1329182, 0.0009661876, 0.9926667, 0.3768303, -0.03907455, -0.08674242, 0.1389511, -0.0001112437, 0.9919838
 166434233, 0.3894426, -0.04273736, -0.05985341, 0.1328786, 0.0001187958, 0.9928861, 0.3625365, -0.03094507, -0.0892411, 0.1329182, 0.0009661876, 0.9926667
 166534193, 0.3629919, -0.05089815, -0.0870206, 0.1261164, 0.0004599271, 0.9935437, 0.3894426, -0.04273736, -0.05985341, 0.1328786, 0.0001187958, 0.9928861
 166634153, 0.3521209, -0.0587487, -0.0853352, 0.1211253, -0.002467641, 0.9940697, 0.3629919, -0.05089815, -0.0870206, 0.1261164, 0.0004599271, 0.9935437
 166734113, 0.3613414, -0.04854798, -0.05455281, 0.1167217, -0.01528324, 0.9945245, 0.3521209, -0.0587487, -0.0853352, 0.1211253, -0.002467641, 0.9940697
 166834073, 0.3711008, -0.02905728, -0.05264698, 0.1107731, -0.03412093, 0.9947985, 0.3613414, -0.04854798, -0.05455281, 0.1167217, -0.01528324, 0.9945245
 166934033, 0.3625715, -0.0348368, -0.05018473, 0.1017506, -0.04943932, 0.9950474, 0.3711008, -0.02905728, -0.05264698, 0.1107731, -0.03412093, 0.9947985
 167033993, 0.3666736, -0.05490401, -0.0497155, 0.09646664, -0.05564763, 0.9952794, 0.3625715, -0.0348368, -0.05018473, 0.1017506, -0.04943932, 0.9950474
 167153945, 0.3675762, -0.04459669, -0.04265764, 0.09308096, -0.05083449, 0.9958542, 0.3666736, -0.05490401, -0.0497155, 0.09646664, -0.05564763, 0.9952794
 167253905, 0.3524966, -0.05048973, -0.04597125, 0.08847774, -0.03970345, 0.996671, 0.3675762, -0.04459669, -0.04265764, 0.09308096, -0.05083449, 0.9958542
 167353865, 0.3653235, -0.06150594, -0.04042579, 0.08782624, -0.02883354, 0.9971926, 0.3524966, -0.05048973, -0.04597125, 0.08847774, -0.03970345, 0.996671
 167453825, 0.3762075, -0.0461063, -0.04369767, 0.08603829, -0.02122244, 0.9976119, 0.3653235, -0.06150594, -0.04042579, 0.08782624, -0.02883354, 0.9971926
 167553785, 0.3386492, -0.05238772, -0.04101827, 0.07606281, -0.01940296, 0.998198, 0.3762075, -0.0461063, -0.04369767, 0.08603829, -0.02122244, 0.9976119
 167653745, 0.3762045, -0.03127724, -0.03948904, 0.07558521, -0.02241886, 0.9984191, 0.3386492, -0.05238772, -0.04101827, 0.07606281, -0.01940296, 0.998198
 167753705, 0.3848302, -0.0526772, -0.03900767, 0.07266034, -0.02721619, 0.9985848, 0.3762045, -0.03127724, -0.03948904, 0.07558521, -0.02241886, 0.9984191
 167853665, 0.3607083, -0.04110111, -0.006605324, 0.06474865, -0.02805182, 0.9989228, 0.3848302, -0.0526772, -0.03900767, 0.07266034, -0.02721619, 0.9985848
 167953625, 0.3349783, -0.02731412, -0.03463458, 0.05813283, -0.02628498, 0.999216, 0.3607083, -0.04110111, -0.006605324, 0.06474865, -0.02805182, 0.9989228
 168053585, 0.3832281, -0.05727644, -0.005021653, 0.06178882, -0.02467458, 0.9993607, 0.3349783, -0.02731412, -0.03463458, 0.05813283, -0.02628498, 0.999216
 168153545, 0.3708703, -0.03345988, -0.002976777, 0.05723981, -0.0202203, 0.9996352, 0.3832281, -0.05727644, -0.005021653, 0.06178882, -0.02467458, 0.9993607
 168253505, 0.3657391, -0.02818586, -0.001387894, 0.05299967, -0.01588041, 0.9999111, 0.3708703, -0.03345988, -0.002976777, 0.05723981, -0.0202203, 0.9996352
 168354298, 0.3597623, -0.04020954, -0.02499197, 0.04766823, -0.01344216, 1.000176, 0.3657391, -0.02818586, -0.001387894, 0.05299967, -0.01588041, 0.9999111
 168454258, 0.3523924, -0.02383072, -0.02782343, 0.04158335, -0.01234356, 1.000413, 0.3597623, -0.04020954, -0.02499197, 0.04766823, -0.01344216, 1.000176
 168554218, 0.347856, -0.0557152, -0.02739543, 0.03734038, -0.01356705, 1.000539, 0.3523924, -0.02383072, -0.02782343, 0.04158335, -0.01234356, 1.000413
 168654178, 0.3782219, -0.02855308, 0.004921246, 0.03789109, -0.01340483, 1.000717, 0.347856, -0.0557152, -0.02739543, 0.03734038, -0.01356705, 1.000539
 168754138, 0.3217894, -0.01613278, 0.00507959, 0.02865572, -0.01103065, 1.000711, 0.3782219, -0.02855308, 0.004921246, 0.03789109, -0.01340483, 1.000717
 168854098, 0.342982, -0.04121909, 0.005559266, 0.029328, -0.01000833, 1.000819, 0.3217894, -0.01613278, 0.00507959, 0.02865572, -0.01103065, 1.000711
 168954058, 0.3751477, -0.02072017, -0.02158091, 0.02856074, -0.008321838, 1.001054, 0.342982, -0.04121909, 0.005559266, 0.029328, -0.01000833, 1.000819
 169054018, 0.323542, -0.02426079, 0.008621608, 0.01769448, -0.006439764, 1.001015, 0.3751477, -0.02072017, -0.02158091, 0.02856074, -0.008321838, 1.001054
 169173970, 0.3506981, -0.04631016, 0.01132889, 0.01452512, -0.005139381, 1.001228, 0.323542, -0.02426079, 0.008621608, 0.01769448, -0.006439764, 1.001015
 169273930, 0.3201325, -0.02268134, 0.01236296, 0.005696617, -0.002315622, 1.001157, 0.3506981, -0.04631016, 0.01132889, 0.01452512, -0.005139381, 1.001228
 169373890, 0.3152826, -0.02918951, 0.0130357, 0.002158664, -0.001578299, 1.001148, 0.3201325, -0.02268134, 0.01236296, 0.005696617, -0.002315622, 1.001157
 169473850, 0.3220693, -0.02851417, 0.013983, 0.0008424781, -0.002467994, 1.001183, 0.3152826, -0.02918951, 0.0130357, 0.002158664, -0.001578299, 1.001148
 169573810, 0.3514362, -0.04202607, 0.01564797, 0.00271564, -0.00407704, 1.001339, 0.3220693, -0.02851417, 0.013983, 0.0008424781, -0.002467994, 1.001183
 169673770, 0.3588079, -0.02878101, 0.0168123, 0.001949225, -0.003874548, 1.001387, 0.3514362, -0.04202607, 0.01564797, 0.00271564, -0.00407704, 1.001339
 169773730, 0.3113402, -0.01240305, 0.01503541, -0.004508749, -0.00190847, 1.001122, 0.3588079, -0.02878101, 0.0168123, 0.001949225, -0.003874548, 1.001387
 169873690, 0.3396763, -0.03438096, 0.01658427, -0.002383772, -0.0002069008, 1.001279, 0.3113402, -0.01240305, 0.01503541, -0.004508749, -0.00190847, 1.001122
 169973650, 0.329966, -0.03616157, 0.01743795, -0.007395007, 0.002432588, 1.001198, 0.3396763, -0.03438096, 0.01658427, -0.002383772, -0.0002069008, 1.001279
 170073610, 0.3670099, -0.02932426, 0.02078938, -0.006066591, 0.00471819, 1.00142, 0.329966, -0.03616157, 0.01743795, -0.007395007, 0.002432588, 1.001198
 170173570, 0.3222515, -0.02682614, 0.01904134, -0.01410168, 0.005289755, 1.001074, 0.3670099, -0.02932426, 0.02078938, -0.006066591, 0.00471819, 1.00142
 170273530, 0.3348254, -0.03227971, 0.02059474, -0.01507675, 0.005399768, 1.001127, 0.3222515, -0.02682614, 0.01904134, -0.01410168, 0.005289755, 1.001074
 170373490, 0.31239, -0.02579888, 0.02046862, -0.02134643, 0.008879574, 1.000871, 0.3348254, -0.03227971, 0.02059474, -0.01507675, 0.005399768, 1.001127
 170474283, 0.3461533, -0.0523749, 0.02372612, -0.01994439, 0.01216956, 1.00105, 0.31239, -0.02579888, 0.02046862, -0.02134643, 0.008879574, 1.000871
 170574243, 0.3666342, -0.04781517, 0.02590861, -0.01916124, 0.01418727, 1.001167, 0.3461533, -0.0523749, 0.02372612, -0.01994439, 0.01216956, 1.00105
 170674203, 0.3282125, -0.05094734, 0.02377806, -0.02565676, 0.01489725, 1.000781, 0.3666342, -0.04781517, 0.02590861, -0.01916124, 0.01418727, 1.001167
 170774163, 0.3194619, -0.04173063, 0.0232611, -0.02714071, 0.01507097, 1.000693, 0.3282125, -0.05094734, 0.02377806, -0.02565676, 0.01489725, 1.000781
 170874123, 0.3473705, -0.03076074, 0.0249558, -0.02304569, 0.01346655, 1.000973, 0.3194619, -0.04173063, 0.0232611, -0.02714071, 0.01507097, 1.000693
 170974083, 0.3288824, -0.04011352, 0.02398074, -0.02677781, 0.01017895, 1.000814, 0.3473705, -0.03076074, 0.0249558, -0.02304569, 0.01346655, 1.000973
 171074043, 0.3635329, -0.0444589, 0.02719098, -0.02448929, 0.008023294, 1.001099, 0.3288824, -0.04011352, 0.02398074, -0.02677781, 0.01017895, 1.000814
 171174003, 0.3426231, -0.01555371, 0.02625903, -0.02868105, 0.008143725, 1.000859, 0.3635329, -0.0444589, 0.02719098, -0.02448929, 0.008023294, 1.001099
 171293955, 0.36937, -0.04557662, 0.02842612, -0.02598939, 0.006926244, 1.001108, 0.3426231, -0.01555371, 0.02625903, -0.02868105, 0.008143725, 1.000859
 171393915, 0.3272593, -0.02205214, 0.02584364, -0.03297215, 0.008173107, 1.00064, 0.36937, -0.04557662, 0.02842612, -0.02598939, 0.006926244, 1.001108
 171493875, 0.3175955, -0.04884973, 0.025766, -0.03650203, 0.008603739, 1.000458, 0.3272593, -0.02205214, 0.02584364, -0.03297215, 0.008173107, 1.00064
 171593835, 0.3362195, -0.03638219, 0.05806269, -0.0359152, 0.007352831, 1.000606, 0.3175955, -0.04884973, 0.025766, -0.03650203, 0.008603739, 1.000458
 171693795, 0.3730901, -0.01705559, 0.03137692, -0.03216899, 0.005107377, 1.000966, 0.3362195, -0.03638219, 0.05806269, -0.0359152, 0.007352831, 1.000606
 171793755, 0.3173367, -0.04437895, 0.0266754, -0.03994402, 0.004920731, 1.000348, 0.3730901, -0.01705559, 0.03137692, -0.03216899, 0.005107377, 1.000966
 171893715, 0.3478089, -0.02309958, 0.02990397, -0.03736389, 0.006572241, 1.000612, 0.3173367, -0.04437895, 0.0266754, -0.03994402, 0.004920731, 1.000348
 171993675, 0.325886, -0.03830992, 0.0279929, -0.0399243, 0.009863613, 1.000358, 0.3478089, -0.02309958, 0.02990397, -0.03736389, 0.006572241, 1.000612
 172093635, 0.317203, -0.01885844, 0.02763559, -0.04183263, 0.01356739, 1.00019, 0.325886, -0.03830992, 0.0279929, -0.0399243, 0.009863613, 1.000358
 172193595, 0.3729862, -0.0299854, 0.03272619, -0.03509629, 0.01422587, 1.000783, 0.317203, -0.01885844, 0.02763559, -0.04183263, 0.01356739, 1.00019
 172293555, 0.345777, -0.021321, 0.03060526, -0.03953902, 0.01476102, 1.000429, 0.3729862, -0.0299854, 0.03272619, -0.03509629, 0.01422587, 1.000783
 172393515, 0.3588325, -0.03049166, 0.03191667, -0.03821332, 0.0138232, 1.000578, 0.345777, -0.021321, 0.03060526, -0.03953902, 0.01476102, 1.000429
 172493475, 0.3250723, -0.046317, 0.02897536, -0.04279511, 0.01260187, 1.000202, 0.3588325, -0.03049166, 0.03191667, -0.03821332, 0.0138232, 1.000578
 172594268, 0.3457076, -0.02229588, 0.03082753, -0.04017562, 0.01358632, 1.00042, 0.3250723, -0.046317, 0.02897536, -0.04279511, 0.01260187, 1.000202
 172694228, 0.3545214, -0.0451249, 0.05161586, -0.03849486, 0.0122972, 1.000573, 0.3457076, -0.02229588, 0.03082753, -0.04017562, 0.01358632, 1.00042
 172794188, 0.357603, -0.04215944, 0.06253611, -0.03985352, 0.01048183, 1.000567, 0.3545214, -0.0451249, 0.05161586, -0.03849486, 0.0122972, 1.000573
 172894148, 0.3474046, -0.01906863, 0.06237861, -0.04348225, 0.008087775, 1.000371, 0.357603, -0.04215944, 0.06253611, -0.03985352, 0.01048183, 1.000567
 172994108, 0.3174537, -0.04542258, 0.05991682, -0.04897441, 0.005531878, 0.9999537, 0.3474046, -0.01906863, 0.06237861, -0.04348225, 0.008087775, 1.000371
 173094068, 0.325059, -0.03149394, 0.03072286, -0.04891887, 0.004005329, 0.9999907, 0.3174537, -0.04542258, 0.05991682, -0.04897441, 0.005531878, 0.9999537
 173194028, 0.3249523, -0.04495573, 0.03083451, -0.049691, 0.003213068, 0.9999548, 0.325059, -0.03149394, 0.03072286, -0.04891887, 0.004005329, 0.9999907
 173313980, 0.3483116, -0.03498916, 0.03347862, -0.04745223, 0.003134847, 1.000208, 0.3249523, -0.04495573, 0.03083451, -0.049691, 0.003213068, 0.9999548
 173413940, 0.358374, -0.02105352, 0.06463103, -0.04540785, 0.003940615, 1.000389, 0.3483116, -0.03498916, 0.03347862, -0.04745223, 0.003134847, 1.000208
 173513900, 0.3173697, -0.03352133, 0.03016419, -0.05043777, 0.004097614, 0.9998693, 0.358374, -0.02105352, 0.06463103, -0.04540785, 0.003940615, 1.000389
 173613860, 0.3589998, -0.02661447, 0.06421819, -0.04410965, 0.003155161, 1.000456, 0.3173697, -0.03352133, 0.03016419, -0.05043777, 0.004097614, 0.9998693
 173713820, 0.3592235, -0.05104148, 0.03360547, -0.04345183, 0.003399029, 1.000469, 0.3589998, -0.02661447, 0.06421819, -0.04410965, 0.003155161, 1.000456
 173813780, 0.3370911, -0.01336787, 0.06163137, -0.04522876, 0.006420255, 1.000243, 0.3592235, -0.05104148, 0.03360547, -0.04345183, 0.003399029, 1.000469
 173913740, 0.3247666, -0.0327265, 0.06036238, -0.04674464, 0.007146056, 1.00009, 0.3370911, -0.01336787, 0.06163137, -0.04522876, 0.006420255, 1.000243
 174013700, 0.3842657, -0.03670284, 0.03610543, -0.03946356, 0.006733652, 1.00081, 0.3247666, -0.0327265, 0.06036238, -0.04674464, 0.007146056, 1.00009
 174113660, 0.3385692, -0.04009299, 0.06233269, -0.04678876, 0.007622518, 1.000173, 0.3842657, -0.03670284, 0.03610543, -0.03946356, 0.006733652, 1.00081
 174213620, 0.3546507, -0.03188942, 0.03364663, -0.0445961, 0.008031178, 1.00036, 0.3385692, -0.04009299, 0.06233269, -0.04678876, 0.007622518, 1.000173
 174313580, 0.3423584, -0.04014219, 0.03230289, -0.04587132, 0.007988729, 1.000219, 0.3546507, -0.03188942, 0.03364663, -0.0445961, 0.008031178, 1.00036
 174413540, 0.3759734, -0.0287394, 0.06576875, -0.04077552, 0.008732915, 1.000702, 0.3423584, -0.04014219, 0.03230289, -0.04587132, 0.007988729, 1.000219
 174513500, 0.3666306, -0.02359089, 0.03509548, -0.04334902, 0.01115142, 1.000475, 0.3759734, -0.0287394, 0.06576875, -0.04077552, 0.008732915, 1.000702
 174614293, 0.3778417, -0.03726987, 0.03644392, -0.03754881, 0.01279915, 0.9532, 0.3666306, -0.02359089, 0.03509548, -0.04334902, 0.01115142, 1.000475
 174714253, 0.3211265, -0.02251148, 0.06156288, -0.05112884, 0.01504295, 0.9997685, 0.3778417, -0.03726987, 0.03644392, -0.03754881, 0.01279915, 0.9532
 174814213, 0.3239105, -0.04357157, 0.03173236, -0.05078997, 0.01635271, 0.999764, 0.3211265, -0.02251148, 0.06156288, -0.05112884, 0.01504295, 0.9997685
 174914173, 0.3251391, -0.02204083, 0.06222234, -0.05108156, 0.01920206, 0.999725, 0.3239105, -0.04357157, 0.03173236, -0.05078997, 0.01635271, 0.999764
 175014133, 0.3790222, -0.04909169, 0.03789373, -0.04416199, 0.02023157, 1.000406, 0.3251391, -0.02204083, 0.06222234, -0.05108156, 0.01920206, 0.999725
 175114093, 0.326807, -0.03302424, 0.06293778, -0.05200208, 0.02087391, 0.999655, 0.3790222, -0.04909169, 0.03789373, -0.04416199, 0.02023157, 1.000406
 175214053, 0.3715057, -0.02967953, 0.03698306, -0.04555596, 0.01837612, 1.000317, 0.326807, -0.03302424, 0.06293778, -0.05200208, 0.02087391, 0.999655
 175314013, 0.3522512, -0.03604402, 0.06520139, -0.04802684, 0.01555049, 1.000127, 0.3715057, -0.02967953, 0.03698306, -0.04555596, 0.01837612, 1.000317
 175433965, 0.3713653, -0.03373831, 0.03686, -0.04544363, 0.01463161, 1.000386, 0.3522512, -0.03604402, 0.06520139, -0.04802684, 0.01555049, 1.000127
 175533925, 0.3626601, -0.01492709, 0.03554565, -0.04575085, 0.01433387, 1.000309, 0.3713653, -0.03373831, 0.03686, -0.04544363, 0.01463161, 1.000386
 175633885, 0.3762381, -0.04914357, 0.06149985, -0.04183301, 0.01152391, 1.000651, 0.3626601, -0.01492709, 0.03554565, -0.04575085, 0.01433387, 1.000309
 175733845, 0.3929976, -0.0333719, 0.03790285, -0.03949478, 0.01039299, 1.000882, 0.3762381, -0.04914357, 0.06149985, -0.04183301, 0.01152391, 1.000651
 175833805, 0.3907522, -0.02409462, 0.03790387, -0.0404395, 0.0100671, 1.000827, 0.3929976, -0.0333719, 0.03790285, -0.03949478, 0.01039299, 1.000882
 175933765, 0.3325407, -0.04346785, 0.06755639, -0.04915329, 0.009620043, 1.000015, 0.3907522, -0.02409462, 0.03790387, -0.0404395, 0.0100671, 1.000827
 176033725, 0.352318, -0.01519746, 0.03443298, -0.04699349, 0.01066708, 1.000225, 0.3325407, -0.04346785, 0.06755639, -0.04915329, 0.009620043, 1.000015
 176133685, 0.3930947, -0.04186071, 0.03764684, -0.03869249, 0.008945204, 1.000938, 0.352318, -0.01519746, 0.03443298, -0.04699349, 0.01066708, 1.000225
 176233645, 0.3815767, -0.01585276, 0.06632622, -0.03913174, 0.01012214, 1.00083, 0.3930947, -0.04186071, 0.03764684, -0.03869249, 0.008945204, 1.000938
 176333605, 0.3500424, -0.04210493, 0.03263255, -0.04272068, 0.01037183, 1.000406, 0.3815767, -0.01585276, 0.06632622, -0.03913174, 0.01012214, 1.00083
 176433565, 0.3757766, -0.02077538, 0.03514035, -0.0389852, 0.01233143, 1.000739, 0.3500424, -0.04210493, 0.03263255, -0.04272068, 0.01037183, 1.000406
 176533525, 0.3514774, -0.02666136, 0.03317829, -0.04349091, 0.01282664, 1.000355, 0.3757766, -0.02077538, 0.03514035, -0.0389852, 0.01233143, 1.000739
 176633485, 0.3585336, -0.02239765, 0.06344047, -0.04060864, 0.01148806, 1.000569, 0.3514774, -0.02666136, 0.03317829, -0.04349091, 0.01282664, 1.000355
 176734278, 0.4060206, -0.03542726, 0.06788985, -0.03296071, 0.009914384, 1.001297, 0.3585336, -0.02239765, 0.06344047, -0.04060864, 0.01148806, 1.000569
 176834238, 0.3638494, -0.02318089, 0.03413418, -0.04111486, 0.01077801, 1.000578, 0.4060206, -0.03542726, 0.06788985, -0.03296071, 0.009914384, 1.001297
 176934198, 0.3903539, -0.03905873, 0.03697397, -0.03758801, 0.0107839, 1.000951, 0.3638494, -0.02318089, 0.03413418, -0.04111486, 0.01077801, 1.000578
 177034158, 0.4115531, -0.03316528, 0.03898872, -0.03401735, 0.01041738, 1.001292, 0.3903539, -0.03905873, 0.03697397, -0.03758801, 0.0107839, 1.000951
 177134118, 0.3592235, -0.04540177, 0.03414305, -0.04288412, 0.01034141, 1.000477, 0.4115531, -0.03316528, 0.03898872, -0.03401735, 0.01041738, 1.001292
 177234078, 0.3755348, -0.03169167, 0.0358202, -0.04057244, 0.01153958, 1.000696, 0.3592235, -0.04540177, 0.03414305, -0.04288412, 0.01034141, 1.000477
 177334038, 0.3579487, -0.02650398, 0.06460034, -0.04365608, 0.01294415, 1.000428, 0.3755348, -0.03169167, 0.0358202, -0.04057244, 0.01153958, 1.000696
 177433998, 0.4033176, -0.04556264, 0.0687049, -0.03525885, 0.0125426, 1.001184, 0.3579487, -0.02650398, 0.06460034, -0.04365608, 0.01294415, 1.000428
 177553950, 0.3970042, -0.03414484, 0.03786777, -0.036602, 0.01443292, 1.001015, 0.4033176, -0.04556264, 0.0687049, -0.03525885, 0.0125426, 1.001184
 177653910, 0.3751134, -0.02979119, 0.03521544, -0.03875351, 0.01552703, 1.000713, 0.3970042, -0.03414484, 0.03786777, -0.036602, 0.01443292, 1.001015
 177753870, 0.3704265, -0.0445083, 0.0343173, -0.03801329, 0.01561755, 1.000701, 0.3751134, -0.02979119, 0.03521544, -0.03875351, 0.01552703, 1.000713
 177853830, 0.3653968, -0.02529145, 0.03308144, -0.03707062, 0.01617147, 1.000682, 0.3704265, -0.0445083, 0.0343173, -0.03801329, 0.01561755, 1.000701
 177953790, 0.3541669, -0.02791474, 0.03143705, -0.03698087, 0.01666944, 1.000587, 0.3653968, -0.02529145, 0.03308144, -0.03707062, 0.01617147, 1.000682
 178053750, 0.3985403, -0.02912393, 0.03514448, -0.02933697, 0.01565459, 1.001243, 0.3541669, -0.02791474, 0.03143705, -0.03698087, 0.01666944, 1.000587
 178153710, 0.3456232, -0.01672167, 0.0309418, -0.03938111, 0.01513462, 1.000454, 0.3985403, -0.02912393, 0.03514448, -0.02933697, 0.01565459, 1.001243
 178253670, 0.3940413, -0.04827721, 0.03554281, -0.03222742, 0.01175368, 1.001166, 0.3456232, -0.01672167, 0.0309418, -0.03938111, 0.01513462, 1.000454
 178353630, 0.4005468, -0.02916986, 0.03642524, -0.03208438, 0.01222428, 1.001222, 0.3940413, -0.04827721, 0.03554281, -0.03222742, 0.01175368, 1.001166
 178453590, 0.3465559, -0.01737535, 0.03177494, -0.04151528, 0.01294561, 1.000404, 0.4005468, -0.02916986, 0.03642524, -0.03208438, 0.01222428, 1.001222
 178553550, 0.3744062, -0.03221687, 0.03436286, -0.03729088, 0.0116536, 1.000807, 0.3465559, -0.01737535, 0.03177494, -0.04151528, 0.01294561, 1.000404
 178653510, 0.3786237, -0.02821955, 0.03468159, -0.03652846, 0.01105411, 1.000878, 0.3744062, -0.03221687, 0.03436286, -0.03729088, 0.0116536, 1.000807
 178754303, 0.3473661, -0.0109939, 0.0320152, -0.04205633, 0.01083988, 1.000412, 0.3786237, -0.02821955, 0.03468159, -0.03652846, 0.01105411, 1.000878
 178854263, 0.4012374, -0.04195941, 0.03696695, -0.03357072, 0.008389256, 1.001216, 0.3473661, -0.0109939, 0.0320152, -0.04205633, 0.01083988, 1.000412
 178954223, 0.3526455, -0.01089637, 0.03279597, -0.0421959, 0.008700565, 1.000465, 0.4012374, -0.04195941, 0.03696695, -0.03357072, 0.008389256, 1.001216
 179054183, 0.4095811, -0.03204413, 0.03770885, -0.03254868, 0.003529754, 1.001357, 0.3526455, -0.01089637, 0.03279597, -0.0421959, 0.008700565, 1.000465
 179154143, 0.3665021, -0.02272354, 0.00338283, -0.03968247, -0.001082025, 1.000688, 0.4095811, -0.03204413, 0.03770885, -0.03254868, 0.003529754, 1.001357
 179254103, 0.4137715, -0.02365825, 0.03701808, -0.02980093, -0.006918267, 1.001464, 0.3665021, -0.02272354, 0.00338283, -0.03968247, -0.001082025, 1.000688
 179354063, 0.3984029, -0.0170615, 0.03593949, -0.03306461, -0.009443499, 1.001186, 0.4137715, -0.02365825, 0.03701808, -0.02980093, -0.006918267, 1.001464
 179454023, 0.3642868, -0.01822118, 0.03298705, -0.0390794, -0.009491106, 1.00067, 0.3984029, -0.0170615, 0.03593949, -0.03306461, -0.009443499, 1.001186
 179573975, 0.3509032, -0.03988537, 0.0308086, -0.03968412, -0.01004564, 1.000538, 0.3642868, -0.01822118, 0.03298705, -0.0390794, -0.009491106, 1.00067
 179673935, 0.3799786, -0.03695119, 0.03298227, -0.03391998, -0.01060889, 1.000976, 0.3509032, -0.03988537, 0.0308086, -0.03968412, -0.01004564, 1.000538
 179773895, 0.3849171, -0.03078601, 0.03319997, -0.03232571, -0.01127628, 1.001063, 0.3799786, -0.03695119, 0.03298227, -0.03391998, -0.01060889, 1.000976
 179873855, 0.4168771, -0.01769909, 0.03597513, -0.02635452, -0.01162558, 1.001536, 0.3849171, -0.03078601, 0.03319997, -0.03232571, -0.01127628, 1.001063
 179973815, 0.3560019, -0.03510468, 0.03010518, -0.0358815, -0.01314026, 1.000679, 0.4168771, -0.01769909, 0.03597513, -0.02635452, -0.01162558, 1.001536
 180073775, 0.340913, -0.04027838, 0.02895062, -0.03899765, -0.01347052, 1.000448, 0.3560019, -0.03510468, 0.03010518, -0.0358815, -0.01314026, 1.000679
 180173735, 0.3830808, -0.02593042, 0.03287479, -0.03235046, -0.014233, 1.001001, 0.340913, -0.04027838, 0.02895062, -0.03899765, -0.01347052, 1.000448
 180273695, 0.3982419, -0.0312397, 0.03401918, -0.03017059, -0.01883212, 1.001128, 0.3830808, -0.02593042, 0.03287479, -0.03235046, -0.014233, 1.001001
 180373655, 0.3609177, -0.04178508, 0.0299214, -0.03617917, -0.03147904, 1.000292, 0.3982419, -0.0312397, 0.03401918, -0.03017059, -0.01883212, 1.001128
 180473615, 0.3675884, -0.03517334, 5.392917E-05, -0.03650232, -0.05627498, 0.9992201, 0.3609177, -0.04178508, 0.0299214, -0.03617917, -0.03147904, 1.000292
 180573575, 0.3790335, -0.003450161, 0.00387956, -0.03694625, -0.09436745, 0.9964201, 0.3675884, -0.03517334, 5.392917E-05, -0.03650232, -0.05627498, 0.9992201
 180673535, 0.3651127, 0.0007503936, -0.02666702, -0.041797, -0.1538238, 0.9886569, 0.3790335, -0.003450161, 0.00387956, -0.03694625, -0.09436745, 0.9964201
 180773495, 0.3982805, 0.01313753, -0.08196265, -0.04152907, -0.2636113, 0.9654167, 0.3651127, 0.0007503936, -0.02666702, -0.041797, -0.1538238, 0.9886569
 180874288, 0.3839217, 0.03128289, -0.04558567, -0.043566, -0.3355028, 0.9426531, 0.3982805, 0.01313753, -0.08196265, -0.04152907, -0.2636113, 0.9654167
 180974248, 0.3681284, -0.06511543, 0.1398668, -0.0352902, -0.28736, 0.9587865, 0.3839217, 0.03128289, -0.04558567, -0.043566, -0.3355028, 0.9426531
 181074208, 0.3321118, -0.05258691, 0.1335996, -0.02671285, -0.1452522, 0.9903335, 0.3681284, -0.06511543, 0.1398668, -0.0352902, -0.28736, 0.9587865
 181174168, 0.3603233, -0.02732446, 0.05409668, -0.01503871, 0.01439714, 1.001226, 0.3321118, -0.05258691, 0.1335996, -0.02671285, -0.1452522, 0.9903335
 181274128, 0.4069217, -0.01828389, -0.0005747713, -0.009914007, 0.118029, 0.9947695, 0.3603233, -0.02732446, 0.05409668, -0.01503871, 0.01439714, 1.001226
 181374088, 0.3432854, 0.00057704, 0.02556938, -0.02597538, 0.1337364, 0.9919928, 0.4069217, -0.01828389, -0.0005747713, -0.009914007, 0.118029, 0.9947695
 181474048, 0.3691818, -0.01134441, 0.05965288, -0.02584106, 0.07625519, 0.9982613, 0.3432854, 0.00057704, 0.02556938, -0.02597538, 0.1337364, 0.9919928
 181574008, 0.3939168, 0.01077447, 0.0325481, -0.02625233, -0.0117827, 1.00129, 0.3691818, -0.01134441, 0.05965288, -0.02584106, 0.07625519, 0.9982613
 181693960, 0.3703265, -0.009347755, 0.0005159099, -0.03397286, -0.09309661, 0.9965596, 0.3939168, 0.01077447, 0.0325481, -0.02625233, -0.0117827, 1.00129
 181793920, 0.3919602, -0.0300645, 0.03014659, -0.03056567, -0.1091617, 0.9952316, 0.3703265, -0.009347755, 0.0005159099, -0.03397286, -0.09309661, 0.9965596
 181893880, 0.3791934, -0.01208274, 0.03075159, -0.03030712, -0.08098523, 0.9978282, 0.3919602, -0.0300645, 0.03014659, -0.03056567, -0.1091617, 0.9952316
 181993840, 0.371742, -0.003274358, 0.02989712, -0.02831225, -0.03005424, 1.000661, 0.3791934, -0.01208274, 0.03075159, -0.03030712, -0.08098523, 0.9978282
 182093800, 0.3558989, -0.00109332, 0.02868732, -0.03052701, 0.01605665, 1.0008, 0.371742, -0.003274358, 0.02989712, -0.02831225, -0.03005424, 1.000661
 182193760, 0.361934, -0.006568845, 0.0290762, -0.02902268, 0.03965058, 1.000229, 0.3558989, -0.00109332, 0.02868732, -0.03052701, 0.01605665, 1.0008
 182293720, 0.3404675, 0.0106254, 0.0269853, -0.03226629, 0.03890852, 1.000014, 0.361934, -0.006568845, 0.0290762, -0.02902268, 0.03965058, 1.000229
 182393680, 0.3656518, -0.01026757, 0.02932782, -0.0288897, 0.01964042, 1.00085, 0.3404675, 0.0106254, 0.0269853, -0.03226629, 0.03890852, 1.000014
 182493640, 0.3944845, 0.002244849, 0.03175992, -0.0247669, -0.003201747, 1.001388, 0.3656518, -0.01026757, 0.02932782, -0.0288897, 0.01964042, 1.00085
 182593600, 0.3944916, -0.008662464, 0.03137397, -0.02464583, -0.01933981, 1.001205, 0.3944845, 0.002244849, 0.03175992, -0.0247669, -0.003201747, 1.001388
 182693560, 0.3959635, -0.0231863, 0.03044122, -0.02324165, -0.02262812, 1.001176, 0.3944916, -0.008662464, 0.03137397, -0.02464583, -0.01933981, 1.001205
 182793520, 0.4034266, -0.02452551, 0.03076048, -0.02102359, -0.01511253, 1.001434, 0.3959635, -0.0231863, 0.03044122, -0.02324165, -0.02262812, 1.001176
 182893480, 0.3525797, -0.02113043, 0.02711146, -0.02853362, -2.616271E-05, 1.000952, 0.4034266, -0.02452551, 0.03076048, -0.02102359, -0.01511253, 1.001434
 182994273, 0.394035, -0.01462972, 0.03085564, -0.02283582, 0.01424145, 1.001325, 0.3525797, -0.02113043, 0.02711146, -0.02853362, -2.616271E-05, 1.000952
 183094233, 0.3731155, -0.008476088, -0.000525374, -0.02722854, 0.02105012, 1.000904, 0.394035, -0.01462972, 0.03085564, -0.02283582, 0.01424145, 1.001325
 183194193, 0.376507, -0.01628421, 0.02925218, -0.02477081, 0.02077842, 1.001015, 0.3731155, -0.008476088, -0.000525374, -0.02722854, 0.02105012, 1.000904
 183294153, 0.3982501, 0.004190841, 0.03038254, -0.02021933, 0.01594376, 1.001397, 0.376507, -0.01628421, 0.02925218, -0.02477081, 0.02077842, 1.001015
 183394113, 0.3753173, -0.01690302, 0.02858507, -0.02404168, 0.008972406, 1.001197, 0.3982501, 0.004190841, 0.03038254, -0.02021933, 0.01594376, 1.001397
 183494073, 0.3762101, -0.01492495, -0.001776779, -0.02346512, 0.005651283, 1.001224, 0.3753173, -0.01690302, 0.02858507, -0.02404168, 0.008972406, 1.001197
 183594033, 0.369403, 0.009021761, 0.02822863, -0.02456659, 0.005867797, 1.001173, 0.3762101, -0.01492495, -0.001776779, -0.02346512, 0.005651283, 1.001224
 183693993, 0.3435107, -0.02018437, 0.02615922, -0.02896743, 0.006353553, 1.000854, 0.369403, 0.009021761, 0.02822863, -0.02456659, 0.005867797, 1.001173
 183813945, 0.3660629, -0.004559756, 0.003070345, -0.02623877, 0.009922707, 1.001051, 0.3435107, -0.02018437, 0.02615922, -0.02896743, 0.006353553, 1.000854
 183913905, 0.3469052, 0.001593273, 0.02112591, -0.01271539, 0.01301081, 1.001157, 0.3660629, -0.004559756, 0.003070345, -0.02623877, 0.009922707, 1.001051
 184013865, 0.3529603, -0.01140395, 0.01390735, 0.009380743, 0.01370526, 1.001217, 0.3469052, 0.001593273, 0.02112591, -0.01271539, 0.01301081, 1.001157
 184113825, 0.4063423, -0.01270308, 0.01387403, 0.02266105, 0.01240786, 1.001445, 0.3529603, -0.01140395, 0.01390735, 0.009380743, 0.01370526, 1.001217
 184213785, 0.3922834, 0.006012089, 0.01313915, 0.02128693, 0.01140336, 1.001371, 0.4063423, -0.01270308, 0.01387403, 0.02266105, 0.01240786, 1.001445
 184313745, 0.3415259, -0.02100586, -0.01881928, 0.01372446, 0.007528053, 1.001144, 0.3922834, 0.006012089, 0.01313915, 0.02128693, 0.01140336, 1.001371
 184413705, 0.3395859, -0.008046295, 0.01150969, 0.01281746, 0.006054942, 1.001166, 0.3415259, -0.02100586, -0.01881928, 0.01372446, 0.007528053, 1.001144
 184513665, 0.3659331, 0.009863652, 0.01323017, 0.01479249, 0.00874952, 1.001308, 0.3395859, -0.008046295, 0.01150969, 0.01281746, 0.006054942, 1.001166
 184613625, 0.3710723, -0.01547624, 0.01412043, 0.01308755, 0.009505641, 1.001351, 0.3659331, 0.009863652, 0.01323017, 0.01479249, 0.00874952, 1.001308
 184713585, 0.4086841, -0.009255325, 0.01596257, 0.01806583, 0.009925115, 1.001588, 0.3710723, -0.01547624, 0.01412043, 0.01308755, 0.009505641, 1.001351
 184813545, 0.4031708, 0.005364242, 0.01644589, 0.01568858, 0.01234465, 1.001558, 0.4086841, -0.009255325, 0.01596257, 0.01806583, 0.009925115, 1.001588
 184913505, 0.3789055, 0.007962159, 0.04556706, 0.01190859, 0.01506288, 1.001381, 0.4031708, 0.005364242, 0.01644589, 0.01568858, 0.01234465, 1.001558
 185014298, 0.3559334, 0.009138192, 0.01471012, 0.007994425, 0.01825815, 1.001187, 0.3789055, 0.007962159, 0.04556706, 0.01190859, 0.01506288, 1.001381
 185114258, 0.3829553, -0.006536152, 0.01636295, 0.01063071, 0.0192146, 1.001341, 0.3559334, 0.009138192, 0.01471012, 0.007994425, 0.01825815, 1.001187
 185214218, 0.3984462, 0.008712173, 0.0182202, 0.009950966, 0.02129084, 1.001445, 0.3829553, -0.006536152, 0.01636295, 0.01063071, 0.0192146, 1.001341
 185314178, 0.3524345, -0.002615931, 0.01614659, 0.003086898, 0.02111786, 1.001128, 0.3984462, 0.008712173, 0.0182202, 0.009950966, 0.02129084, 1.001445
 185414138, 0.3699521, -0.01056349, 0.01652095, 0.006859656, 0.02028212, 1.001251, 0.3524345, -0.002615931, 0.01614659, 0.003086898, 0.02111786, 1.001128
 185514098, 0.3716874, -0.002642232, 0.01671988, 0.006760418, 0.0194296, 1.001286, 0.3699521, -0.01056349, 0.01652095, 0.006859656, 0.02028212, 1.001251
 185614058, 0.3888021, -0.01492254, 0.01786373, 0.008451998, 0.01790688, 1.001434, 0.3716874, -0.002642232, 0.01671988, 0.006760418, 0.0194296, 1.001286
 185714018, 0.3686557, -0.007849368, 0.01642677, 0.006816972, 0.01955953, 1.001259, 0.3888021, -0.01492254, 0.01786373, 0.008451998, 0.01790688, 1.001434
 185833970, 0.3944029, -0.01731742, 0.0178025, 0.01030921, 0.02124153, 1.001399, 0.3686557, -0.007849368, 0.01642677, 0.006816972, 0.01955953, 1.001259
 185933930, 0.3638924, -0.005590718, 0.01588002, 0.007087041, 0.0228467, 1.001153, 0.3944029, -0.01731742, 0.0178025, 0.01030921, 0.02124153, 1.001399
 186033890, 0.3648603, 0.00752804, 0.0155293, 0.008102767, 0.02258898, 1.001165, 0.3638924, -0.005590718, 0.01588002, 0.007087041, 0.0228467, 1.001153
 186133850, 0.3583645, -0.007573605, -0.01460958, 0.006742328, 0.02244676, 1.001114, 0.3648603, 0.00752804, 0.0155293, 0.008102767, 0.02258898, 1.001165
 186233810, 0.397005, -0.007679658, 0.01743298, 0.01190118, 0.02206953, 1.001392, 0.3583645, -0.007573605, -0.01460958, 0.006742328, 0.02244676, 1.001114
 186333770, 0.3705104, 0.003820883, 0.01612558, 0.008061249, 0.02150533, 1.00123, 0.397005, -0.007679658, 0.01743298, 0.01190118, 0.02206953, 1.001392
 186433730, 0.3522999, 0.001051305, 0.01529194, 0.005543619, 0.02210461, 1.0011, 0.3705104, 0.003820883, 0.01612558, 0.008061249, 0.02150533, 1.00123
 186533690, 0.3876893, 0.006320439, 0.01633213, 0.0120439, 0.02332458, 1.001289, 0.3522999, 0.001051305, 0.01529194, 0.005543619, 0.02210461, 1.0011
 186633650, 0.3924184, 0.01136116, 0.01642404, 0.0129741, 0.02344299, 1.001318, 0.3876893, 0.006320439, 0.01633213, 0.0120439, 0.02332458, 1.001289
 186733610, 0.3905145, -0.006801468, 0.01609164, 0.01363903, 0.02415995, 1.001267, 0.3924184, 0.01136116, 0.01642404, 0.0129741, 0.02344299, 1.001318
 186833570, 0.384584, 0.004621146, 0.01600431, 0.01208506, 0.02558906, 1.001207, 0.3905145, -0.006801468, 0.01609164, 0.01363903, 0.02415995, 1.001267
 186933530, 0.3687049, -0.02145386, 0.01564711, 0.009378005, 0.02387248, 1.001141, 0.384584, 0.004621146, 0.01600431, 0.01208506, 0.02558906, 1.001207
 187033490, 0.3721593, -0.006790815, 0.01632828, 0.008178048, 0.02418203, 1.001177, 0.3687049, -0.02145386, 0.01564711, 0.009378005, 0.02387248, 1.001141
 187134283, 0.3947707, -0.02300506, 0.01762726, 0.01134848, 0.02591612, 1.001283, 0.3721593, -0.006790815, 0.01632828, 0.008178048, 0.02418203, 1.001177
 187234243, 0.3796059, 0.004753442, 0.01713094, 0.007807437, 0.02844458, 1.001133, 0.3947707, -0.02300506, 0.01762726, 0.01134848, 0.02591612, 1.001283
 187334203, 0.3622906, 0.001598716, 0.01614086, 0.00588432, 0.02816828, 1.001018, 0.3796059, 0.004753442, 0.01713094, 0.007807437, 0.02844458, 1.001133
 187434163, 0.4012178, -0.001326715, -0.01183576, 0.01091823, 0.02720968, 1.001307, 0.3622906, 0.001598716, 0.01614086, 0.00588432, 0.02816828, 1.001018
 187534123, 0.3799436, 0.001961589, 0.01680649, 0.008857276, 0.02536135, 1.001209, 0.4012178, -0.001326715, -0.01183576, 0.01091823, 0.02720968, 1.001307
 187634083, 0.3703622, -0.01029343, 0.01697164, 0.006121382, 0.02530354, 1.00115, 0.3799436, 0.001961589, 0.01680649, 0.008857276, 0.02536135, 1.001209
 187734043, 0.3639743, -0.002089427, 0.01725131, 0.003448345, 0.0267895, 1.00108, 0.3703622, -0.01029343, 0.01697164, 0.006121382, 0.02530354, 1.00115
 187834003, 0.3744221, -0.02330728, 0.01910961, 0.002077471, 0.02804755, 1.001121, 0.3639743, -0.002089427, 0.01725131, 0.003448345, 0.0267895, 1.00108
 187953955, 0.4081031, -0.01487773, 0.02132317, 0.00595551, 0.03023459, 1.001336, 0.3744221, -0.02330728, 0.01910961, 0.002077471, 0.02804755, 1.001121
 188053915, 0.3985652, 0.003444977, 0.0202932, 0.005109347, 0.03117298, 1.001233, 0.4081031, -0.01487773, 0.02132317, 0.00595551, 0.03023459, 1.001336
 188153875, 0.4038564, -0.003655633, 0.02005724, 0.007476326, 0.02924526, 1.001322, 0.3985652, 0.003444977, 0.0202932, 0.005109347, 0.03117298, 1.001233
 188253835, 0.3989729, 0.003611146, 0.01967561, 0.006876074, 0.02788745, 1.001325, 0.4038564, -0.003655633, 0.02005724, 0.007476326, 0.02924526, 1.001322
 188353795, 0.409281, -0.02061856, 0.02077187, 0.007772375, 0.02628114, 1.001449, 0.3989729, 0.003611146, 0.01967561, 0.006876074, 0.02788745, 1.001325
 188453755, 0.3964317, -0.018996, 0.0211827, 0.003258351, 0.03044169, 1.00124, 0.409281, -0.02061856, 0.02077187, 0.007772375, 0.02628114, 1.001449
 188553715, 0.3665512, -0.008023959, 0.02080985, -0.0049963, 0.03459384, 1.000855, 0.3964317, -0.018996, 0.0211827, 0.003258351, 0.03044169, 1.00124
 188653675, 0.3695421, 0.007032783, 0.02226104, -0.008579049, 0.02445879, 1.001161, 0.3665512, -0.008023959, 0.02080985, -0.0049963, 0.03459384, 1.000855
 188753635, 0.3559282, -0.01135166, 0.02283371, -0.01472748, 0.005066121, 1.001266, 0.3695421, 0.007032783, 0.02226104, -0.008579049, 0.02445879, 1.001161
 188853595, 0.3504521, -0.01908013, 0.0231447, -0.01834892, -0.009468216, 1.001133, 0.3559282, -0.01135166, 0.02283371, -0.01472748, 0.005066121, 1.001266
 188953555, 0.4236351, -0.01203711, 0.02869114, -0.007852729, -0.01517728, 1.001837, 0.3504521, -0.01908013, 0.0231447, -0.01834892, -0.009468216, 1.001133
 189053515, 0.3895449, -0.01941856, 0.05622614, -0.01290882, -0.01135043, 1.00153, 0.4236351, -0.01203711, 0.02869114, -0.007852729, -0.01517728, 1.001837
 189153475, 0.3703885, -0.02550586, 0.02486885, -0.01604761, -0.001281744, 1.001369, 0.3895449, -0.01941856, 0.05622614, -0.01290882, -0.01135043, 1.00153
 189254268, 0.3633804, 0.002411062, 0.05525248, -0.01774864, 0.01066947, 1.001257, 0.3703885, -0.02550586, 0.02486885, -0.01604761, -0.001281744, 1.001369
 189354228, 0.384635, -0.007386907, 0.02593102, -0.0129286, 0.0167008, 1.001402, 0.3633804, 0.002411062, 0.05525248, -0.01774864, 0.01066947, 1.001257
 189454188, 0.3658173, -0.00725017, 0.0240034, -0.01395937, 0.0197053, 1.00118, 0.384635, -0.007386907, 0.02593102, -0.0129286, 0.0167008, 1.001402
 189554148, 0.4058772, 0.002769617, 0.02522104, -0.004155792, 0.02415906, 1.001526, 0.3658173, -0.00725017, 0.0240034, -0.01395937, 0.0197053, 1.00118
 189654108, 0.4096456, 0.001600064, 0.05436333, -0.0003211908, 0.03142352, 1.001391, 0.4058772, 0.002769617, 0.02522104, -0.004155792, 0.02415906, 1.001526
 189754068, 0.4067436, -0.004198547, 0.04878062, 0.0003368668, 0.03223036, 1.001332, 0.4096456, 0.001600064, 0.05436333, -0.0003211908, 0.03142352, 1.001391
 189854028, 0.3624507, -0.004657452, 0.0209379, -0.00657006, 0.02406429, 1.001137, 0.4067436, -0.004198547, 0.04878062, 0.0003368668, 0.03223036, 1.001332
 189973980, 0.3890623, -8.108746E-05, 0.02253066, -0.002519779, 0.01917096, 1.001489, 0.3624507, -0.004657452, 0.0209379, -0.00657006, 0.02406429, 1.001137
 190073940, 0.4308903, 0.001539071, 0.0547088, 0.005670637, 0.02306896, 1.001835, 0.3890623, -8.108746E-05, 0.02253066, -0.002519779, 0.01917096, 1.001489
 190173900, 0.3710778, -0.01723916, 0.05110482, -0.003486741, 0.02315375, 1.001257, 0.4308903, 0.001539071, 0.0547088, 0.005670637, 0.02306896, 1.001835
 190273860, 0.3618247, -0.00595237, 0.02090535, -0.006645042, 0.01573757, 1.001301, 0.3710778, -0.01723916, 0.05110482, -0.003486741, 0.02315375, 1.001257
 190373820, 0.3720265, 0.00207398, 0.02193711, -0.006183252, 0.01134861, 1.00145, 0.3618247, -0.00595237, 0.02090535, -0.006645042, 0.01573757, 1.001301
 190473780, 0.3584693, -0.01607788, 0.02128785, -0.008636117, 0.01564817, 1.00126, 0.3720265, 0.00207398, 0.02193711, -0.006183252, 0.01134861, 1.00145
 190573740, 0.3955263, -0.01014461, 0.02410183, -0.003897324, 0.02669132, 1.001377, 0.3584693, -0.01607788, 0.02128785, -0.008636117, 0.01564817, 1.00126
 190673700, 0.4138487, 0.004987236, 0.02482849, -0.0003011711, 0.03178775, 1.001424, 0.3955263, -0.01014461, 0.02410183, -0.003897324, 0.02669132, 1.001377
 190773660, 0.3691539, 0.003651812, 0.02165296, -0.006299462, 0.02565634, 1.001167, 0.4138487, 0.004987236, 0.02482849, -0.0003011711, 0.03178775, 1.001424
 190873620, 0.4419078, 0.006971154, 0.02557876, 0.007058211, 0.01640395, 1.002087, 0.3691539, 0.003651812, 0.02165296, -0.006299462, 0.02565634, 1.001167
 190973580, 0.4082945, -0.01383136, 0.02334479, 0.001720078, 0.01156077, 1.001802, 0.4419078, 0.006971154, 0.02557876, 0.007058211, 0.01640395, 1.002087
 191073540, 0.3957973, -0.01251636, 0.02224595, 0.0006465651, 0.0118403, 1.00168, 0.4082945, -0.01383136, 0.02334479, 0.001720078, 0.01156077, 1.001802
 191173500, 0.4155871, -0.0137402, 0.02267543, 0.005736928, 0.01218156, 1.00186, 0.3957973, -0.01251636, 0.02224595, 0.0006465651, 0.0118403, 1.00168
 191274293, 0.3716926, 0.006076307, 0.02056404, 0.0003457963, 0.01364184, 0.9539025, 0.4155871, -0.0137402, 0.02267543, 0.005736928, 0.01218156, 1.00186
 191374253, 0.3977048, 0.006631604, 0.02238659, 0.001011521, 0.01467039, 1.001669, 0.3716926, 0.006076307, 0.02056404, 0.0003457963, 0.01364184, 0.9539025
 191474213, 0.3722382, -0.01556381, -0.008944089, -0.003848039, 0.01590762, 1.001389, 0.3977048, 0.006631604, 0.02238659, 0.001011521, 0.01467039, 1.001669
 191574173, 0.4437575, -0.01318928, 0.02518596, 0.008751139, 0.01598917, 1.002103, 0.3722382, -0.01556381, -0.008944089, -0.003848039, 0.01590762, 1.001389
 191674133, 0.426052, -0.007325216, 0.02388293, 0.006166194, 0.01597533, 1.001917, 0.4437575, -0.01318928, 0.02518596, 0.008751139, 0.01598917, 1.002103
 191774093, 0.3699656, -0.0006806022, 0.02072996, -0.003356878, 0.01368793, 1.001424, 0.426052, -0.007325216, 0.02388293, 0.006166194, 0.01597533, 1.001917
 191874053, 0.4397318, -0.02451786, -0.005736031, 0.008752361, 0.009013616, 1.002115, 0.3699656, -0.0006806022, 0.02072996, -0.003356878, 0.01368793, 1.001424
 191974013, 0.4056194, -0.004867451, 0.02248188, 0.003044896, 0.008758456, 1.001803, 0.4397318, -0.02451786, -0.005736031, 0.008752361, 0.009013616, 1.002115
 192093965, 0.4032089, -0.001400429, 0.02205899, 0.003416065, 0.01020834, 1.001766, 0.4056194, -0.004867451, 0.02248188, 0.003044896, 0.008758456, 1.001803
 192193925, 0.3747413, -0.02372266, 0.02047256, -0.001465697, 0.01085144, 1.001494, 0.4032089, -0.001400429, 0.02205899, 0.003416065, 0.01020834, 1.001766
 192293885, 0.3657912, -0.004775218, 0.0199262, -0.002563611, 0.01187612, 1.001411, 0.3747413, -0.02372266, 0.02047256, -0.001465697, 0.01085144, 1.001494
 192393845, 0.3996574, -0.02085901, 0.02075316, 0.005287264, 0.01095409, 1.001704, 0.3657912, -0.004775218, 0.0199262, -0.002563611, 0.01187612, 1.001411
 192493805, 0.4350037, -0.02177769, 0.02227754, 0.01223972, 0.01067453, 1.00202, 0.3996574, -0.02085901, 0.02075316, 0.005287264, 0.01095409, 1.001704
 192593765, 0.4144555, -0.02118471, 0.02137998, 0.008208804, 0.01172413, 1.001822, 0.4350037, -0.02177769, 0.02227754, 0.01223972, 0.01067453, 1.00202
 192693725, 0.4015521, 0.004680907, 0.0211475, 0.005038638, 0.0138973, 1.001693, 0.4144555, -0.02118471, 0.02137998, 0.008208804, 0.01172413, 1.001822
 192793685, 0.424818, -0.02066434, 0.02281515, 0.00804795, 0.01478889, 1.001892, 0.4015521, 0.004680907, 0.0211475, 0.005038638, 0.0138973, 1.001693
 192893645, 0.424446, -0.01350225, 0.0228968, 0.007694643, 0.01538985, 1.001881, 0.424818, -0.02066434, 0.02281515, 0.00804795, 0.01478889, 1.001892
 192993605, 0.377677, -0.0002810918, 0.02008519, 0.0005291849, 0.01581034, 1.001456, 0.424446, -0.01350225, 0.0228968, 0.007694643, 0.01538985, 1.001881
 193093565, 0.3892621, 0.002153911, 0.02050384, 0.002863567, 0.01511281, 1.001564, 0.377677, -0.0002810918, 0.02008519, 0.0005291849, 0.01581034, 1.001456
 193193525, 0.3992034, -0.02155839, 0.02112812, 0.004337616, 0.01618453, 1.001626, 0.3892621, 0.002153911, 0.02050384, 0.002863567, 0.01511281, 1.001564
 193293485, 0.3918889, 0.002109182, 0.0203986, 0.003865771, 0.02039324, 1.001489, 0.3992034, -0.02155839, 0.02112812, 0.004337616, 0.01618453, 1.001626
 193394278, 0.4000325, 0.004500999, -0.00987738, 0.006503116, 0.02479398, 1.001437, 0.3918889, 0.002109182, 0.0203986, 0.003865771, 0.02039324, 1.001489
 193494238, 0.4029105, -0.02337663, 0.02034208, 0.008049462, 0.02846962, 1.00136, 0.4000325, 0.004500999, -0.00987738, 0.006503116, 0.02479398, 1.001437
 193594198, 0.4285217, -0.02597191, 0.02149479, 0.01293087, 0.03050729, 1.001511, 0.4029105, -0.02337663, 0.02034208, 0.008049462, 0.02846962, 1.00136
 193694158, 0.3892695, -0.0002158945, 0.01971557, 0.004766226, 0.03253551, 1.001135, 0.4285217, -0.02597191, 0.02149479, 0.01293087, 0.03050729, 1.001511
 193794118, 0.4364247, -0.02145704, -0.006980808, 0.01109373, 0.03109204, 1.001581, 0.3892695, -0.0002158945, 0.01971557, 0.004766226, 0.03253551, 1.001135
 193894078, 0.3891514, -0.006149835, 0.02075207, 0.002292916, 0.03202, 1.001156, 0.4364247, -0.02145704, -0.006980808, 0.01109373, 0.03109204, 1.001581
 193994038, 0.3955696, -0.009494056, 0.02083701, 0.004133243, 0.03318718, 1.001167, 0.3891514, -0.006149835, 0.02075207, 0.002292916, 0.03202, 1.001156
 194093998, 0.4106573, 0.001404746, 0.02072669, 0.008321084, 0.03293172, 1.001296, 0.3955696, -0.009494056, 0.02083701, 0.004133243, 0.03318718, 1.001167
 194213950, 0.4362255, -0.01234451, -0.008124456, 0.01317325, 0.02930607, 1.001603, 0.4106573, 0.001404746, 0.02072669, 0.008321084, 0.03293172, 1.001296
 194313910, 0.4335935, -0.0003478136, 0.02182466, 0.01245758, 0.02340503, 1.001759, 0.4362255, -0.01234451, -0.008124456, 0.01317325, 0.02930607, 1.001603
 194413870, 0.3890081, -0.02062236, 0.0195627, 0.004840422, 0.01366227, 1.001554, 0.4335935, -0.0003478136, 0.02182466, 0.01245758, 0.02340503, 1.001759
 194513830, 0.4263566, 0.003120475, 0.02119517, 0.01176872, 0.006802419, 1.001935, 0.3890081, -0.02062236, 0.0195627, 0.004840422, 0.01366227, 1.001554
 194613790, 0.3770562, -0.01005138, 0.01801768, 0.005134482, 0.003383478, 1.001538, 0.4263566, 0.003120475, 0.02119517, 0.01176872, 0.006802419, 1.001935
 194713750, 0.3883924, -0.005110554, 0.01818709, 0.008072402, 0.007195224, 1.001595, 0.3770562, -0.01005138, 0.01801768, 0.005134482, 0.003383478, 1.001538
 194813710, 0.4186276, -0.02235924, 0.01918955, 0.01397445, 0.01090893, 1.001777, 0.3883924, -0.005110554, 0.01818709, 0.008072402, 0.007195224, 1.001595
 194913670, 0.4205748, -0.02258929, 0.01936606, 0.01428383, 0.01524454, 1.001734, 0.4186276, -0.02235924, 0.01918955, 0.01397445, 0.01090893, 1.001777
 195013630, 0.4059213, 0.002929895, 0.01862972, 0.01189958, 0.02006221, 1.001543, 0.4205748, -0.02258929, 0.01936606, 0.01428383, 0.01524454, 1.001734
 195113590, 0.3627819, -0.003864101, 0.01682487, 0.004682697, 0.02225528, 1.001185, 0.4059213, 0.002929895, 0.01862972, 0.01189958, 0.02006221, 1.001543
 195213550, 0.4208145, -0.002792604, 0.0205803, 0.01140242, 0.02244961, 1.00164, 0.3627819, -0.003864101, 0.01682487, 0.004682697, 0.02225528, 1.001185
 195313510, 0.403609, -0.01398509, 0.02112685, 0.005170722, 0.02018942, 1.001567, 0.4208145, -0.002792604, 0.0205803, 0.01140242, 0.02244961, 1.00164
 195414303, 0.3836606, -0.01939495, 0.02029968, 0.001410134, 0.01834808, 1.001436, 0.403609, -0.01398509, 0.02112685, 0.005170722, 0.02018942, 1.001567
 195514263, 0.3668492, -0.01646586, -0.01130911, 0.0003787465, 0.01841738, 1.001287, 0.3836606, -0.01939495, 0.02029968, 0.001410134, 0.01834808, 1.001436
 195614223, 0.3818339, -0.01949963, 0.01887349, 0.004515436, 0.01811487, 1.001413, 0.3668492, -0.01646586, -0.01130911, 0.0003787465, 0.01841738, 1.001287
 195714183, 0.3716891, 0.007325576, -0.01122207, 0.001310531, 0.01985579, 1.001305, 0.3818339, -0.01949963, 0.01887349, 0.004515436, 0.01811487, 1.001413
 195814143, 0.3578247, -0.009917811, 0.01895377, -0.002635557, 0.02125647, 1.001173, 0.3716891, 0.007325576, -0.01122207, 0.001310531, 0.01985579, 1.001305
 195914103, 0.3635425, -0.02309207, 0.01959133, -0.002242543, 0.02522752, 1.00112, 0.3578247, -0.009917811, 0.01895377, -0.002635557, 0.02125647, 1.001173
 196014063, 0.4145497, 0.001538286, 0.02194919, 0.006078497, 0.02975519, 1.001428, 0.3635425, -0.02309207, 0.01959133, -0.002242543, 0.02522752, 1.00112
 196114023, 0.3733592, -0.02504477, 0.02026539, -0.0007904731, 0.02997182, 1.001066, 0.4145497, 0.001538286, 0.02194919, 0.006078497, 0.02975519, 1.001428
 196233975, 0.350177, -0.02266132, 0.01921216, -0.004796021, 0.03072594, 1.000859, 0.3733592, -0.02504477, 0.02026539, -0.0007904731, 0.02997182, 1.001066
 196333935, 0.3896381, -0.00345992, 0.02128179, 0.0004466474, 0.02669924, 1.001299, 0.350177, -0.02266132, 0.01921216, -0.004796021, 0.03072594, 1.000859
 196433895, 0.407964, -0.01433697, 0.02245528, 0.002942935, 0.01750447, 1.00166, 0.3896381, -0.00345992, 0.02128179, 0.0004466474, 0.02669924, 1.001299
 196533855, 0.3523118, -0.01839589, 0.01965279, -0.006803971, 0.009226731, 1.001292, 0.407964, -0.01433697, 0.02245528, 0.002942935, 0.01750447, 1.00166
 196633815, 0.3614171, -0.01294862, 0.02021464, -0.005698759, 0.004267088, 1.0014, 0.3523118, -0.01839589, 0.01965279, -0.006803971, 0.009226731, 1.001292
 196733775, 0.3951431, -0.005299141, 0.02225104, -0.0006324202, 0.005606133, 1.001686, 0.3614171, -0.01294862, 0.02021464, -0.005698759, 0.004267088, 1.0014
 196833735, 0.3717006, -0.02202147, 0.02133819, -0.005350336, 0.01315815, 1.0014, 0.3951431, -0.005299141, 0.02225104, -0.0006324202, 0.005606133, 1.001686
 196933695, 0.3702537, 0.005035542, 0.02145136, -0.00606278, 0.02372065, 1.0012, 0.3717006, -0.02202147, 0.02133819, -0.005350336, 0.01315815, 1.0014
 197033655, 0.3988073, -0.006156989, 0.0232709, -0.001689911, 0.03149749, 1.001236, 0.3702537, 0.005035542, 0.02145136, -0.00606278, 0.02372065, 1.0012
 197133615, 0.388687, -0.008631353, 0.0226432, -0.003009915, 0.03645732, 1.000974, 0.3988073, -0.006156989, 0.0232709, -0.001689911, 0.03149749, 1.001236
 197233575, 0.3762597, -0.014028, 0.02226035, -0.005530607, 0.03654236, 1.000856, 0.388687, -0.008631353, 0.0226432, -0.003009915, 0.03645732, 1.000974
 197333535, 0.4166895, -0.002681419, 0.0242367, 0.001229536, 0.03262477, 1.001369, 0.3762597, -0.014028, 0.02226035, -0.005530607, 0.03654236, 1.000856
 197433495, 0.4223595, -0.0005875877, -0.005420933, 0.001579229, 0.02388098, 1.001653, 0.4166895, -0.002681419, 0.0242367, 0.001229536, 0.03262477, 1.001369
 197534288, 0.3978026, -0.007651616, 0.02361709, -0.003202461, 0.01547381, 1.001597, 0.4223595, -0.0005875877, -0.005420933, 0.001579229, 0.02388098, 1.001653
 197634248, 0.4197932, -0.02187327, 0.02475884, 0.0004428774, 0.008274483, 1.00189, 0.3978026, -0.007651616, 0.02361709, -0.003202461, 0.01547381, 1.001597
 197734208, 0.4039741, -0.02586717, 0.02323298, -0.0008949414, 0.006314207, 1.001752, 0.4197932, -0.02187327, 0.02475884, 0.0004428774, 0.008274483, 1.00189
 197834168, 0.3882804, -0.02645592, 0.02238752, -0.003428865, 0.00849457, 1.001591, 0.4039741, -0.02586717, 0.02323298, -0.0008949414, 0.006314207, 1.001752
 197934128, 0.3559302, -0.01090424, 0.02068239, -0.008315556, 0.0148424, 1.00124, 0.3882804, -0.02645592, 0.02238752, -0.003428865, 0.00849457, 1.001591
 198034088, 0.3704502, -0.003654618, 0.02156644, -0.006201591, 0.0211975, 1.001252, 0.3559302, -0.01090424, 0.02068239, -0.008315556, 0.0148424, 1.00124
 198134048, 0.3658688, -0.00532989, 0.02080078, -0.005480628, 0.02434201, 1.001148, 0.3704502, -0.003654618, 0.02156644, -0.006201591, 0.0211975, 1.001252
 198234008, 0.392006, -0.001300473, 0.02223748, -0.001526996, 0.0238761, 1.001383, 0.3658688, -0.00532989, 0.02080078, -0.005480628, 0.02434201, 1.001148
 198353960, 0.3519778, -0.007709662, 0.02009906, -0.0078189, 0.02184327, 1.001087, 0.392006, -0.001300473, 0.02223748, -0.001526996, 0.0238761, 1.001383
 198453920, 0.3509986, -0.00146102, 0.01994492, -0.007819984, 0.01996018, 1.001122, 0.3519778, -0.007709662, 0.02009906, -0.0078189, 0.02184327, 1.001087
 198553880, 0.3987696, -0.0108593, 0.02347309, -0.002716269, 0.01641438, 1.001582, 0.3509986, -0.00146102, 0.01994492, -0.007819984, 0.01996018, 1.001122
 198653840, 0.3486806, -0.004841026, 0.02100248, -0.01160988, 0.01506474, 1.001153, 0.3987696, -0.0108593, 0.02347309, -0.002716269, 0.01641438, 1.001582
 198753800, 0.3429671, -0.004146623, 0.02100403, -0.0133788, 0.01768231, 1.00105, 0.3486806, -0.004841026, 0.02100248, -0.01160988, 0.01506474, 1.001153
 198853760, 0.3452985, -0.004098739, -0.009257309, -0.01225541, 0.02211159, 1.00098, 0.3429671, -0.004146623, 0.02100403, -0.0133788, 0.01768231, 1.00105
 198953720, 0.3639155, -0.00620606, 0.02090072, -0.006486017, 0.02578788, 1.001086, 0.3452985, -0.004098739, -0.009257309, -0.01225541, 0.02211159, 1.00098
 199053680, 0.3800521, -0.0231368, -0.01346618, -0.003132239, 0.02956583, 1.001098, 0.3639155, -0.00620606, 0.02090072, -0.006486017, 0.02578788, 1.001086
 199153640, 0.3807568, -0.01967179, 0.02229847, -0.004493374, 0.03231066, 1.001029, 0.3800521, -0.0231368, -0.01346618, -0.003132239, 0.02956583, 1.001098
 199253600, 0.3771239, 0.00241716, 0.02236914, -0.006793838, 0.0310001, 1.001036, 0.3807568, -0.01967179, 0.02229847, -0.004493374, 0.03231066, 1.001029
 199353560, 0.407926, -0.02545807, 0.02515483, -0.003941838, 0.02237142, 1.001529, 0.3771239, 0.00241716, 0.02236914, -0.006793838, 0.0310001, 1.001036
 199453520, 0.3625683, -0.0204386, -0.00717834, -0.01307962, 0.01406665, 1.001223, 0.407926, -0.02545807, 0.02515483, -0.003941838, 0.02237142, 1.001529
 199553480, 0.3464979, -0.01144572, -0.00781987, -0.01653745, 0.008589221, 1.001128, 0.3625683, -0.0204386, -0.00717834, -0.01307962, 0.01406665, 1.001223
