TimeUS,CAN,CAE,CAD,CAe,NAN,NAE,NAD,NAe,m10,m00,Gye
 158034261, -0.009852115, 0.01215866, 9.267277E-05, 0.001091626, -0.003681941, 0.004623773, -0.0002043236, 0.000520954, -0.1083133, 0.9941157, 0.04121499
 158234181, 0.004028001, 0.01151684, -0.0002729607, 0.001091626, 0.01413422, 0.002924723, -0.000405321, 0.0005187924, -0.108312, 0.9941158, 0.04579443
 158434101, 0.2747297, -0.01765882, -0.0002481421, 0.001089464, 0.2091165, -0.01925079, 0.0007883827, 0.0005187924, -0.1083043, 0.9941165, 0.04570375
 158634021, 0.9577309, -0.09304343, 0.01231214, 0.001089464, 0.4681531, -0.04616892, 0.009574425, 0.0005187924, -0.1082752, 0.9941195, 0.04570375
 158833941, 1.737228, -0.1776995, 0.03466694, 0.001089464, 0.6816394, -0.06891939, 0.01372265, 0.0005187924, -0.1082363, 0.9941217, 0.05027412
 159033861, 2.441845, -0.2524846, 0.04966661, 0.001089464, 0.9007792, -0.08696546, 0.01812753, 0.0005187924, -0.108196, 0.9941245, 0.04570375
 159233781, 3.087563, -0.3170137, 0.06449585, 0.001089464, 1.05763, -0.1017335, 0.02261668, 0.0005187924, -0.1081473, 0.9941283, 0.04570375
 159433701, 3.381697, -0.3420738, 0.07719517, 0.001089464, 1.029444, -0.102414, 0.02495082, 0.0005187924, -0.1080894, 0.994132, 0.04570375
 159633621, 3.199928, -0.3284242, 0.07924016, 0.001089464, 0.9450122, -0.1047494, 0.02382069, 0.0005187924, -0.1080452, 0.9941348, 0.04570375
 159833541, 2.874984, -0.3130711, 0.05232437, 0.001089464, 0.8278129, -0.0824888, -0.03046705, 0.0005187924, -0.1080276, 0.9941364, 0.04570375
 160034294, 2.530941, -0.2590165, -0.1088555, 0.001091626, 0.7366636, -0.08647711, -0.01381869, 0.000520954, -0.108064, 0.9941337, 0.04579443
 160234214, 2.442856, -0.2723911, -0.0947154, 0.001091626, 1.178187, -0.1244572, -0.1697344, 0.0005187924, -0.1076073, 0.994168, 0.04121499
 160434134, 3.317829, -0.3247929, -1.372769, 0.001089464, 1.014382, -0.08233693, -0.6738818, 0.0005187924, -0.1054315, 0.9938584, 0.04570375
 160634054, 2.83705, -0.2806145, -1.691823, 0.001089464, 0.8687398, -0.1000705, -0.3928624, 0.0005187924, -0.1077773, 0.992395, 0.04570375
 160833974, 2.483013, -0.2977662, -0.8628232, 0.001089464, 0.6966696, -0.08224425, -0.203985, 0.0005187924, -0.1091391, 0.9917188, 0.05027412
 161033894, 2.115535, -0.2458122, -0.7280127, 0.001089464, 0.5960144, -0.04379329, -0.2784127, 0.0005187924, -0.1074797, 0.9909497, 0.04570375
 161233814, 1.808817, -0.1409618, -0.840799, 0.001089464, 0.5116687, -0.06115111, -0.2361419, 0.0005187924, -0.1093924, 0.9898218, 0.04570375
 161433734, 1.564723, -0.1875646, -0.6612768, 0.001089464, 0.4422258, -0.05286605, -0.1865394, 0.0005187924, -0.1086398, 0.989226, 0.04570375
 161633654, 1.343285, -0.1426308, -0.5745643, 0.001089464, 0.3718539, -0.03922657, -0.1935797, 0.0005187924, -0.1076751, 0.9885191, 0.04570375
 161833574, 1.123031, -0.1124272, -0.5966455, 0.001089464, 0.3274429, -0.03442979, -0.1322594, 0.0005187924, -0.1073935, 0.9878443, 0.04570375
 162033494, 0.9879728, -0.1220163, -0.3866019, 0.001089464, 0.2799336, -0.04460995, -0.1143212, 0.0005187924, -0.10876, 0.9873115, 0.04570375
 162234247, 0.8358223, -0.09961428, -0.3833504, 0.001091626, 0.2559972, -0.02143424, -0.1476388, 0.000520954, -0.1077692, 0.9868107, 0.04121499
 162434167, 0.7223797, -0.04922296, -0.4260561, 0.001091626, 0.2047615, -0.002031554, -0.1625034, 0.0005187924, -0.1083755, 0.9859371, 0.04579443
 162634087, 0.5842081, -0.04499965, -0.4228251, 0.001089464, 0.1892295, -0.03257101, -0.08286494, 0.0005187924, -0.1112078, 0.9851247, 0.04570375
 162834007, 0.518836, -0.09685656, -0.2016718, 0.001089464, 0.1579648, -0.0131763, -0.06236712, 0.0005187924, -0.1100394, 0.9850768, 0.04570375
 163033927, 0.4385393, -0.04391868, -0.160282, 0.001089464, 0.1234647, -0.01362259, -0.03653676, 0.0005187924, -0.1108744, 0.9848636, 0.05027412
 163233847, 0.353031, -0.05312274, -0.173198, 0.001089464, 0.08588559, -0.01217102, -0.05843371, 0.0005187924, -0.1123618, 0.9843071, 0.04570375
 163433767, 0.2705323, -0.0329812, -0.1498021, 0.001089464, 0.05928258, 0.003976306, -0.07454646, 0.0005187924, -0.1123898, 0.984008, 0.04570375
 163633687, 0.1893076, -0.01543989, -0.2087139, 0.001089464, 0.05598139, -0.0002822248, -0.03001176, 0.0005187924, -0.1132978, 0.983672, 0.04570375
 163833607, 0.1681023, -0.01238902, -0.06223346, 0.001089464, 0.04007804, -0.003564775, -0.05441853, 0.0005187924, -0.1137793, 0.983472, 0.04570375
 164033527, 0.1231645, 0.008688414, -0.1652687, 0.001089464, 0.05179724, 0.01029179, -0.03139689, 0.0005187924, -0.1133499, 0.9831945, 0.04570375
 164234280, 0.1380443, 0.00199396, -0.03783368, 0.001091626, 0.05398599, 0.001642047, 0.02696494, 0.000520954, -0.1137436, 0.9834344, 0.04121499
 164434200, 0.1152014, -0.0121452, -0.0009849668, 0.001091626, 0.01097005, -0.00435525, -0.07606253, 0.0005187924, -0.1141394, 0.9830781, 0.04579443
 164634120, 0.06616365, -0.01514596, -0.07200482, 0.001089464, 0.02124475, -0.003370259, 0.004501668, 0.0005187924, -0.1139267, 0.9832151, 0.04570375
 164834040, 0.1099861, -0.0135319, 0.1408495, 0.001089464, 0.05337133, -0.003095258, 0.1187879, 0.0005187924, -0.1139174, 0.9842462, 0.04570375
 165033960, 0.1477128, -0.01222255, 0.3272332, 0.001089464, 0.04994973, -0.01420125, 0.1056649, 0.0005187924, -0.1156028, 0.9849502, 0.05027412
 165233880, 0.157038, -0.04241743, 0.3467686, 0.001089464, 0.05559416, -0.007645636, 0.1680932, 0.0005187924, -0.1153681, 0.9860936, 0.04570375
 165433800, 0.1817208, 0.002869944, 0.4355185, 0.001089464, 0.05122048, -0.0075634, 0.09738697, 0.0005187924, -0.1166908, 0.9868308, 0.04570375
 165633720, 0.09931941, -0.0306609, 0.2989223, 0.001089464, 0.00718889, -0.01555877, 0.1349671, 0.0005187924, -0.1172265, 0.9875344, 0.04570375
 165833640, 0.0006528322, -0.02369528, 0.3587013, 0.001089464, -0.01729053, 0.003821605, 0.06530867, 0.0005187924, -0.1173054, 0.9881338, 0.04570375
 166033560, 0.004586987, 0.002791497, 0.3104607, 0.001089464, 0.02552807, 0.01087852, 0.1406435, 0.0005187924, -0.1163737, 0.9891017, 0.04570375
 166233480, 0.07370636, 0.006752717, 0.3435933, 0.001089464, 0.02158446, -0.00346149, 0.07410546, 0.0005187924, -0.1177201, 0.989389, 0.04570375
 166434233, 0.08128311, -0.02252092, 0.2772212, 0.001091626, 0.03276148, -0.001090686, 0.1346591, 0.000520954, -0.1184102, 0.9899125, 0.04121499
 166634153, 0.06919704, -0.02676458, 0.3287604, 0.001091626, -0.004211002, -0.01817355, 0.1022257, 0.0005187924, -0.1187698, 0.9903336, 0.04579443
 166834073, -0.008212022, 0.01205707, 0.3772263, 0.001089464, -0.0004908825, 0.05546772, 0.166129, 0.0005187924, -0.1164524, 0.9912438, 0.04570375
 167033993, -0.008899597, 0.1887511, 0.5546362, 0.001089464, -0.007344913, 0.057983, 0.2037171, 0.0005187924, -0.1189932, 0.9916285, 0.04570375
 167233913, -0.05347246, 0.1329579, 0.4718399, 0.001089464, -0.03406397, 0.01751389, 0.1226776, 0.0005187924, -0.1204231, 0.9917828, 0.05027412
 167433833, -0.1040299, 0.04955171, 0.3564653, 0.001089464, -0.03016176, 0.005611687, 0.1245789, 0.0005187924, -0.1164993, 0.992538, 0.04570375
 167633753, -0.09776643, 0.04958941, 0.397767, 0.001089464, -0.0359187, 0.03824935, 0.140996, 0.0005187924, -0.1125609, 0.9932828, 0.04570375
 167833673, -0.09864004, 0.1136504, 0.4175651, 0.001089464, -0.03234359, 0.03709963, 0.1240841, 0.0005187924, -0.1127969, 0.9934363, 0.04570375
 168033593, -0.1071705, 0.1009426, 0.3562566, 0.001089464, -0.03207942, 0.03011491, 0.08672325, 0.0005187924, -0.1109975, 0.9937443, 0.04570375
 168233513, -0.11435, 0.08385983, 0.3045571, 0.001089464, -0.039567, 0.02530385, 0.09083546, 0.0005187924, -0.1112494, 0.9937762, 0.04570375
 168434266, -0.1168502, 0.03416743, 0.3938825, 0.001091626, -0.03362855, 0.007754185, 0.148253, 0.000520954, -0.1099669, 0.9939258, 0.04121499
 168634186, -0.0951844, 0.04697461, 0.4206331, 0.001091626, -0.03429727, 0.0279512, 0.1197581, 0.0005187924, -0.107763, 0.9941037, 0.04579443
 168834106, -0.1045309, 0.07777772, 0.2850659, 0.001089464, -0.03855481, 0.01933339, 0.05301453, 0.0005187924, -0.1070965, 0.9941105, 0.04570375
 169034026, -0.1029008, 0.06118846, 0.287923, 0.001089464, -0.03118178, 0.02762329, 0.1321959, 0.0005187924, -0.1055387, 0.9940894, 0.04570375
 169233946, -0.07156914, 0.07003123, 0.4587176, 0.001089464, -0.01993355, 0.000646984, 0.1515711, 0.0005187924, -0.105261, 0.9937854, 0.05027412
 169433866, -0.05900378, 0.01275034, 0.3897092, 0.001089464, -0.01732563, 0.00686566, 0.07645322, 0.0005187924, -0.1051538, 0.9935786, 0.04570375
 169633786, -0.04635764, 0.05336794, 0.1849953, 0.001089464, -0.002099325, 0.0347409, 0.04141428, 0.0005187924, -0.1037868, 0.9935874, 0.04570375
 169833706, -0.03686503, 0.08053564, 0.1164502, 0.001089464, -0.02198717, 0.01453117, 0.03475029, 0.0005187924, -0.1036162, 0.9935029, 0.04570375
 170033626, -0.06339461, 0.03043078, 0.2187998, 0.001089464, -0.01991673, 0.01477173, 0.1041099, 0.0005187924, -0.1029382, 0.9932054, 0.04570375
 170233546, -0.03946457, 0.06108676, 0.3021729, 0.001089464, -0.001973583, 0.02495671, 0.07356933, 0.0005187924, -0.1011131, 0.9930673, 0.04570375
 170434299, -0.009134013, 0.06409417, 0.2880695, 0.001091626, 0.00492675, 0.001484447, 0.1045636, 0.0005187924, -0.1010816, 0.9925945, 0.04579443
 170634219, -0.001569458, 0.01828692, 0.2664287, 0.001091626, -0.005597171, 0.006509383, 0.06532474, 0.000520954, -0.09995671, 0.9924106, 0.04121499
 170834139, -0.01736831, 0.02236436, 0.1123779, 0.001091626, -0.005255586, 0.008749194, -0.0005923286, 0.0005187924, -0.09950095, 0.9924582, 0.04579443
 171034059, -0.01444927, 0.04981335, 0.02003767, 0.001089464, -0.008449742, 0.01922808, 0.05983344, 0.0005187924, -0.09797992, 0.9924209, 0.04570375
 171233979, -0.02242164, 0.04626539, 0.1653013, 0.001089464, -0.01081241, 0.004025196, 0.03705917, 0.0005187924, -0.0983214, 0.992191, 0.05027412
 171433899, -0.02014005, 0.02828223, 0.1113118, 0.001089464, -0.002570332, 0.009898025, 0.05156151, 0.0005187924, -0.0977549, 0.992013, 0.04570375
 171633819, -0.0003192519, 0.03726515, 0.1815873, 0.001089464, -0.001373193, 0.03148936, 0.03660978, 0.0005187924, -0.09544481, 0.9919319, 0.04570375
 171833739, -0.01495189, 0.09171549, 0.08452415, 0.001089464, -0.01126992, 0.02690882, 0.03826946, 0.0005187924, -0.09455343, 0.9918763, 0.04570375
 172033659, -0.02002613, 0.04419022, 0.1045583, 0.001089464, -0.001880327, -0.004089997, 0.01990762, 0.0005187924, -0.09547143, 0.9916633, 0.04570375
 172233579, 0.004695758, 0.008535141, 0.07501663, 0.001089464, -0.001836958, 0.01518072, 0.01164743, 0.0005187924, -0.09461062, 0.9916025, 0.04570375
 172433499, -0.006275623, 0.04130831, 0.04436631, 0.001089464, -0.009717919, 0.01620894, 0.001106392, 0.0005187924, -0.09426521, 0.9915646, 0.04570375
 172634252, -0.01179224, 0.02676726, 0.008334973, 0.001091626, 0.0001510522, -0.002595227, -0.01034895, 0.000520954, -0.09502825, 0.9914884, 0.04121499
 172834172, 0.01816096, 0.0264091, 0.03787761, 0.001091626, -0.001237981, 0.02546338, 0.05719018, 0.0005187924, -0.09202129, 0.9915055, 0.04579443
 173034092, 0.01451708, 0.06617415, 0.1602421, 0.001089464, 0.01235596, 0.004614403, 0.05615658, 0.0005187924, -0.09277376, 0.9911588, 0.04570375
 173234012, 0.02663495, 0.02063793, 0.1010593, 0.001089464, 0.009417761, 0.01259368, 0.02221232, 0.0005187924, -0.09245379, 0.9911104, 0.04570375
 173433932, 0.0275781, 0.02931412, 0.04264668, 0.001089464, 0.007794791, 0.01098624, 8.85609E-05, 0.0005187924, -0.09055943, 0.9912863, 0.05027412
 173633852, 0.0186298, 0.04961108, -0.02485751, 0.001089464, 0.0102923, 0.01648382, -0.008385545, 0.0005187924, -0.09063035, 0.9913405, 0.04570375
 173833772, 0.01649815, 0.03126378, -0.04503791, 0.001089464, -0.0008800367, 0.008027557, -0.0212795, 0.0005187924, -0.08967333, 0.9915631, 0.04570375
 174033692, 0.00336709, 0.04179924, -0.002990434, 0.001089464, 0.00483347, 0.007689102, 0.02511164, 0.0005187924, -0.0891842, 0.9914675, 0.04570375
 174233612, 0.01338474, 0.04059713, 0.06098658, 0.001089464, 0.00636512, 0.01384191, -0.009737411, 0.0005187924, -0.08726012, 0.991595, 0.04570375
 174433532, 0.025223, 0.04794307, -0.03840773, 0.001089464, -0.001135632, 0.01405488, 0.007418239, 0.0005187924, -0.08738059, 0.9916378, 0.04570375
 174634285, -0.005817774, 0.01995211, 0.04304135, 0.001091626, -0.002594258, -0.00555212, 0.01051872, 0.000520954, -0.08800985, 0.9914407, 0.04121499
 174834205, 0.009016708, -0.002083796, 0.06701597, 0.001091626, 0.01428589, 0.002247022, -0.0005766659, 0.0005187924, -0.08719245, 0.9914067, 0.04579443
 175034125, 0.04237164, 0.02319506, 0.04050033, 0.001089464, 0.01434794, 0.01475793, 0.02533603, 0.0005187924, -0.08670595, 0.9912794, 0.04570375
 175234045, 0.045764, 0.03758106, 0.04398688, 0.001089464, 0.02402973, 0.007078345, -0.01025499, 0.0005187924, -0.08636113, 0.9913455, 0.04570375
 175433965, 0.05318837, 0.03092861, -0.01629316, 0.001089464, 0.01163426, 0.004821248, -0.008181064, 0.0005187924, -0.08636721, 0.9913601, 0.05027412
 175633885, 0.02953221, 0.02056548, -0.08371179, 0.001089464, 0.004282771, 0.00768856, -0.03516535, 0.0005187924, -0.08564339, 0.9916642, 0.04570375
 175833805, 0.01588933, 0.03046861, -0.05491733, 0.001089464, 0.007434798, 0.01229398, 0.009909861, 0.0005187924, -0.08535564, 0.9916576, 0.04570375
 176033725, 0.03264789, 0.01258182, 0.03865555, 0.001089464, 0.01260829, -0.002816851, -0.0021757, 0.0005187924, -0.08678368, 0.9914834, 0.04570375
 176233645, 0.04072851, -0.01340132, -0.07962344, 0.001089464, 0.006098418, -0.001754446, -0.02571946, 0.0005187924, -0.08673428, 0.9917896, 0.04570375
 176433565, 0.02591893, -0.01847003, -0.08141619, 0.001089464, 0.004611347, -0.01662717, -0.004730906, 0.0005187924, -0.08789953, 0.991806, 0.04570375
 176633485, 0.01467055, -0.01587392, -0.004404566, 0.001089464, 0.01417493, 0.004568101, -0.04237939, 0.0005187924, -0.08696589, 0.9919515, 0.04570375
 176834238, 0.02825512, 0.04483772, -0.05747715, 0.001091626, -0.004179541, 0.01416126, 0.01996677, 0.000520954, -0.08582871, 0.9919801, 0.04121499
 177034158, 0.01218995, 0.0404136, 0.05895864, 0.001091626, 0.01325767, -0.003676031, 0.01538928, 0.0005187924, -0.08678672, 0.9918217, 0.04579443
 177234078, 0.02193198, 0.01689481, 0.02107428, 0.001089464, 0.006987163, 0.02087692, -0.007105387, 0.0005187924, -0.08585583, 0.9918483, 0.04570375
 177433998, 0.009044127, 0.02741014, 0.01693042, 0.001089464, 0.0005108356, -0.002525331, -0.01797844, 0.0005187924, -0.08611201, 0.9918115, 0.04570375
 177633918, 0.018343, -0.005601376, -0.05071923, 0.001089464, 0.01831667, 0.008340692, -0.03400882, 0.0005187924, -0.08582202, 0.9919773, 0.05027412
 177833838, 0.04227671, 0.03359696, -0.1217681, 0.001089464, 0.006486242, 0.01063796, -0.04931698, 0.0005187924, -0.0858071, 0.992241, 0.04570375
 178033758, 0.01294321, 0.01753348, -0.1455313, 0.001089464, -0.00404961, 0.01027114, -0.02761194, 0.0005187924, -0.08607598, 0.9924353, 0.04570375
 178233678, 0.01078291, 0.0297174, 0.01196646, 0.001089464, 0.0220462, 0.006414766, 0.02683948, 0.0005187924, -0.0860097, 0.9922696, 0.04570375
 178433598, 0.04788168, 0.02446214, 0.05628547, 0.001089464, 0.01676259, 0.004948574, 0.007668002, 0.0005187924, -0.08543415, 0.9922464, 0.04570375
 178633518, 0.02971669, 0.02878595, 0.005413397, 0.001089464, 0.00849474, 0.02110107, -0.01973049, 0.0005187924, -0.08420084, 0.992416, 0.04570375
 178834271, 0.01874634, 0.06859669, -0.03693003, 0.001091626, 0.004846575, 0.04025238, 0.01654705, 0.000520954, -0.08272471, 0.992543, 0.04121499
 179034191, 0.03416963, 0.07945528, 0.02397697, 0.001091626, 0.01373635, 0.02381413, 0.002843406, 0.0005187924, -0.081862, 0.9926441, 0.04579443
 179234111, 0.0261738, 0.07186636, -0.06264332, 0.001089464, 0.0185807, 0.02442054, -0.05042459, 0.0005187924, -0.0816838, 0.992898, 0.04570375
 179434031, 0.03328766, 0.05609308, -0.06022901, 0.001089464, -0.004159484, -0.005059883, 0.03360267, 0.0005187924, -0.08137147, 0.9928018, 0.04570375
 179633951, 0.01020585, 0.01743899, 0.01629507, 0.001089464, 0.0001775702, 0.01641336, -0.02920832, 0.0005187924, -0.08090024, 0.9930001, 0.05027412
 179833871, 0.02847348, 0.02603255, -0.100891, 0.001089464, 0.00566066, 0.001462724, -0.04629552, 0.0005187924, -0.08086934, 0.9931993, 0.04570375
 180033791, 0.01674431, 0.05216732, -0.09359434, 0.001089464, 0.007137114, 0.03220163, 0.004827189, 0.0005187924, -0.07897884, 0.9933884, 0.04570375
 180233711, 0.004078003, 0.08656885, 0.002696026, 0.001089464, 0.003757929, 0.0362091, -0.005507459, 0.0005187924, -0.07913367, 0.9934314, 0.04570375
 180433631, 0.0232996, 0.08660968, -0.02252617, 0.001089464, 0.01967064, 0.0231233, -0.02822576, 0.0005187924, -0.07774117, 0.9936106, 0.04570375
 180633551, 0.02320972, 0.1191385, -0.03599619, 0.001089464, -0.007284878, 0.05286558, -0.02616369, 0.0005187924, -0.07339098, 0.9939384, 0.04570375
 180834304, 0.007308596, 0.1340396, -0.0291922, 0.001091626, 0.0006581906, -0.02944423, -0.006991354, 0.0005187924, -0.05855549, 0.9946721, 0.04579443
 181034224, 0.0635742, 1.123661, 0.1200693, 0.001091626, 0.03135892, 0.84019, 0.1980856, 0.000520954, -0.06009609, 0.9948815, 0.04121499
 181234144, 0.08888809, 1.469661, -0.1755738, 0.001091626, 0.003447254, -0.04302894, -0.4861239, 0.0005187924, -0.08888271, 0.9944128, 0.04579443
 181434064, -0.04303129, -0.8829535, -0.7102969, 0.001089464, -0.02249912, -0.4726253, 0.1876976, 0.0005187924, -0.04594921, 0.9963708, 0.04570375
 181633984, -0.03524493, -0.7962781, 0.5249075, 0.001089464, 0.003398441, 0.0375927, 0.100174, 0.0005187924, -0.01303444, 0.9969994, 0.04570375
 181833904, 0.01188575, 0.5279704, 0.1771268, 0.001089464, 0.004932231, 0.2806958, 0.05615305, 0.0005187924, -0.02682561, 0.9963319, 0.05027412
 182033824, 0.02048727, 0.6651376, 0.118031, 0.001089464, 0.00646378, 0.06442759, -0.02062916, 0.0005187924, -0.04467887, 0.9958809, 0.04570375
 182233744, 0.008494783, -0.04234996, -0.06207348, 0.001089464, 0.006615676, -0.1018971, -0.0257697, 0.0005187924, -0.03823407, 0.9961129, 0.04570375
 182433664, 0.007070486, -0.2736767, -0.02248682, 0.001089464, 0.004405436, -0.03212176, 0.007720337, 0.0005187924, -0.02461524, 0.9964963, 0.04570375
 182633584, 0.005393394, 0.05524502, 0.009737953, 0.001089464, 0.008372523, 0.09158607, -0.01393962, 0.0005187924, -0.02077039, 0.9965855, 0.04570375
 182833504, 0.01302002, 0.2841162, -0.05164877, 0.001089464, 0.009301363, 0.06208685, 0.003422035, 0.0005187924, -0.02582947, 0.9965511, 0.04570375
 183034257, 0.02896157, 0.1159317, 0.02833501, 0.001091626, 0.008235284, 0.00402796, 0.01918459, 0.000520954, -0.02606075, 0.9964651, 0.04121499
 183234177, 0.02128468, -0.01495126, -0.006482972, 0.001091626, 0.0009453845, 0.005029051, -0.05933341, 0.0005187924, -0.0210875, 0.9967594, 0.04579443
 183434097, 0.01526324, 0.03993068, -0.1119116, 0.001089464, 0.01451094, 0.04253673, 0.004634939, 0.0005187924, -0.01663081, 0.9968909, 0.04570375
 183634017, 0.03703995, 0.1230804, -0.0009790892, 0.001089464, -0.0002691565, 0.03971533, 0.0259031, 0.0005187924, -0.01562027, 0.9968373, 0.04570375
 183833937, 0.01279734, 0.1155075, 0.05698178, 0.001089464, -0.001060304, 0.03146385, 0.01821943, 0.0005187924, -0.01548416, 0.9968078, 0.05027412
 184033857, 0.003058882, 0.05905689, -0.006062759, 0.001089464, -0.005738333, 0.01533705, -0.04739705, 0.0005187924, -0.01394206, 0.9969677, 0.04570375
 184233777, -0.0479885, 0.0349905, -0.1234133, 0.001089464, -0.04036006, 0.01088192, -0.03962037, 0.0005187924, -0.01245448, 0.9993201, 0.04570375
 184433697, -0.1257911, 0.05003983, -0.06528509, 0.001089464, -0.04046246, 0.01993958, 0.01586937, 0.0005187924, -0.01173422, 0.9993304, 0.04570375
 184633617, -0.1242855, 0.0460095, 0.08342857, 0.001089464, -0.04286271, -0.0007549583, 0.04420085, 0.0005187924, -0.01209102, 0.9992095, 0.04570375
 184833537, -0.1270691, -0.009482767, 0.07575029, 0.001089464, -0.01619999, -0.006233838, 0.03533733, 0.0005187924, -0.01251539, 0.9991166, 0.04570375
 185034290, -0.07268813, -0.03694671, 0.03629508, 0.001091626, -0.02160506, -0.02295923, -0.006812471, 0.000520954, -0.01314515, 0.999081, 0.04579443
 185234210, -0.07365293, -0.06672539, 0.06784764, 0.001091626, -0.02925811, -0.02596796, 0.07833342, 0.0005187924, -0.01383495, 0.9988602, 0.04121499
 185434130, -0.08956958, -0.05668859, 0.05872367, 0.001089464, -0.03561436, -0.001837629, -0.04089976, 0.0005187924, -0.01511101, 0.9989091, 0.04570375
 185634050, -0.1000984, -0.02829565, -0.0522155, 0.001089464, -0.03331561, -0.01240399, 0.01617348, 0.0005187924, -0.01849212, 0.9987958, 0.04570375
 185833970, -0.0961134, -0.04532224, -0.03087224, 0.001089464, -0.0265524, 0.002982465, 0.004772374, 0.0005187924, -0.01851135, 0.9988133, 0.05027412
 186033890, -0.08948097, -0.0149182, -0.07029223, 0.001089464, -0.01747419, 0.008500122, -0.04644204, 0.0005187924, -0.01964161, 0.9988905, 0.04570375
 186233810, -0.09041154, -0.0003140226, -0.07664371, 0.001089464, -0.03296512, 0.003011395, 0.006619475, 0.0005187924, -0.02029361, 0.9988374, 0.04570375
 186433730, -0.1087861, 0.02230295, -0.03343016, 0.001089464, -0.03264794, 0.01194275, -0.0121297, 0.0005187924, -0.02090791, 0.9988572, 0.04570375
 186633650, -0.1030104, 0.021749, -0.08787484, 0.001089464, -0.03444481, 0.001053157, -0.03377698, 0.0005187924, -0.02146613, 0.9989108, 0.04570375
 186833570, -0.1054785, -0.001030295, -0.09961597, 0.001089464, -0.03082284, -0.009631074, 0.01271597, 0.0005187924, -0.02339777, 0.9988844, 0.04570375
 187033490, -0.1005039, -0.003574911, 0.03441909, 0.001089464, -0.02624925, -0.004712559, 0.04445548, 0.0005187924, -0.0243477, 0.9987552, 0.04570375
 187234243, -0.09667964, -0.02731304, 0.094298, 0.001091626, -0.01539538, -0.01186509, 0.03235829, 0.000520954, -0.02643622, 0.9986076, 0.04121499
 187434163, -0.07393797, -0.02823719, 0.00161028, 0.001091626, -0.02704962, -0.009761017, 0.000226102, 0.0005187924, -0.02682161, 0.998592, 0.04579443
 187634083, -0.08855195, 0.007527227, -0.0356153, 0.001089464, -0.02850645, 0.0180307, 0.01338293, 0.0005187924, -0.0277012, 0.9985536, 0.04570375
 187834003, -0.08131631, -0.001537866, 0.1100769, 0.001089464, -0.02010452, -0.00530449, 0.08288381, 0.0005187924, -0.03000715, 0.9982519, 0.04570375
 188033923, -0.06492641, -0.02729214, 0.1492663, 0.001089464, -0.01688865, -0.006682284, -0.02682309, 0.0005187924, -0.03067956, 0.9981847, 0.05027412
 188233843, -0.06886084, -0.0008757187, -0.131133, 0.001089464, -0.02604453, 0.000807412, -0.04634872, 0.0005187924, -0.03216348, 0.9982529, 0.04570375
 188433763, -0.06706452, 0.001454014, -0.02866926, 0.001089464, -0.02978803, -0.004030982, 0.04706168, 0.0005187924, -0.03492111, 0.9980261, 0.04570375
 188633683, -0.07006604, -0.07515975, 0.2327991, 0.001089464, -0.01125963, -0.04113151, 0.09159171, 0.0005187924, -0.03412042, 0.9976471, 0.04570375
 188833603, -0.01041481, -0.01350133, 0.3078237, 0.001089464, 0.0007315108, 0.04471578, 0.09697, 0.0005187924, -0.03425101, 0.997209, 0.04570375
 189033523, -0.003877101, 0.09142454, 0.1694419, 0.001089464, -0.004296823, -0.0004577926, -0.003344151, 0.0005187924, -0.04054399, 0.9968926, 0.04570375
 189234276, -0.03404408, -0.01638585, 0.01378324, 0.001091626, -0.008050641, -0.01188458, 0.04545403, 0.000520954, -0.03902473, 0.9968945, 0.04121499
 189434196, -0.02097819, 0.02304403, 0.008508977, 0.001091626, -0.002614417, 0.04077717, -0.06831371, 0.0005187924, -0.03786304, 0.9971307, 0.04579443
 189634116, -0.01773545, 0.06866401, -0.213278, 0.001089464, -0.004202892, -0.04239646, -0.1133176, 0.0005187924, -0.04334326, 0.9972275, 0.04570375
 189834036, -0.01548085, -0.06365224, -0.2118959, 0.001089464, -0.01085813, 0.0441115, -0.03251543, 0.0005187924, -0.03775733, 0.9975872, 0.04570375
 190033956, -0.04193746, 0.1224913, -0.07204042, 0.001089464, -0.01284205, 0.009629082, -0.008972011, 0.0005187924, -0.04297917, 0.9974383, 0.05027412
 190233876, -0.05582089, -0.0517344, -0.06242403, 0.001089464, -0.0344152, -0.01625482, 0.0138461, 0.0005187924, -0.04052567, 0.997607, 0.04570375
 190433796, -0.07800735, 0.07648879, 0.06279461, 0.001089464, 0.001714189, 0.04068984, 0.02565864, 0.0005187924, -0.04216331, 0.9974393, 0.04570375
 190633716, -0.02190401, 0.02719839, 0.08602669, 0.001089464, -0.02150255, -0.05695846, 0.03737509, 0.0005187924, -0.04581125, 0.9971315, 0.04570375
 190833636, -0.06709695, -0.102067, -0.03647196, 0.001089464, -0.01151634, 0.02805628, -0.06931698, 0.0005187924, -0.04288097, 0.9974557, 0.04570375
 191033556, -0.04246998, 0.07575481, -0.1457052, 0.001089464, -0.006987308, 0.01653423, -0.02124137, 0.0005187924, -0.04743038, 0.9973391, 0.04570375
 191233476, -0.04116603, 0.01444019, -0.1010416, 0.001089464, -0.01937579, 0.007295471, -0.02906218, 0.0005187924, -0.04754385, 0.9974182, 0.04570375
 191434229, -0.06556826, 0.001362737, 0.01152029, 0.001091626, -0.01447969, -0.005183748, 0.04058097, 0.000520954, -0.04780761, 0.9972825, 0.04121499
 191634149, -0.0704625, -0.02137045, 0.04319693, 0.001091626, -0.02711908, -0.007666628, -0.00295007, 0.0005187924, -0.04901053, 0.9972412, 0.04579443
 191834069, -0.07226112, 0.01827013, -0.0483975, 0.001089464, -0.02262194, 0.01554013, -0.01029419, 0.0005187924, -0.0485097, 0.9973335, 0.04570375
 192033989, -0.06436981, 0.0387317, -0.05790605, 0.001089464, -0.01616369, 0.007425816, -0.03930321, 0.0005187924, -0.05097129, 0.9972629, 0.04570375
 192233909, -0.05350337, -0.002635876, -0.07024173, 0.001089464, -0.01234439, 0.003407151, 0.001587709, 0.0005187924, -0.05195059, 0.9971892, 0.05027412
 192433829, -0.04493953, 0.02500801, -0.05392604, 0.001089464, -0.01382466, 0.02134331, -0.04056328, 0.0005187924, -0.05145104, 0.9973311, 0.04570375
 192633749, -0.04642769, 0.02422434, -0.07441974, 0.001089464, -0.01891068, -0.01530378, -0.0003990484, 0.0005187924, -0.05374798, 0.9972212, 0.04570375
 192833669, -0.05378797, -0.03875599, 0.01927435, 0.001089464, -0.01943515, -0.009288167, -0.00534864, 0.0005187924, -0.05515431, 0.9970823, 0.04570375
 193033589, -0.06112196, -0.01336613, -0.05096483, 0.001089464, -0.01517573, 0.01204552, -0.01330825, 0.0005187924, -0.05469632, 0.9971807, 0.04570375
 193233509, -0.05189616, 0.04108156, -0.03376126, 0.001089464, -0.01477161, 0.0129492, 0.01057173, 0.0005187924, -0.05543206, 0.9971343, 0.04570375
 193434262, -0.06586774, 0.01188137, -0.05000103, 0.001091626, -0.02993461, -0.007013504, -0.05331774, 0.000520954, -0.05794496, 0.9971198, 0.04121499
 193634182, -0.08209941, -0.01657209, -0.08604488, 0.001091626, -0.02560201, -0.01347446, -0.008525021, 0.0005187924, -0.05808804, 0.9970754, 0.04579443
 193834102, -0.05670135, -0.01565691, 0.06989451, 0.001089464, -0.01131245, 0.01474779, 0.04454169, 0.0005187924, -0.05781037, 0.9969305, 0.04570375
 194034022, -0.03223163, 0.01293338, 0.03245482, 0.001089464, -0.02178125, -0.006262633, -0.04437297, 0.0005187924, -0.05965855, 0.9969037, 0.04570375
 194233942, -0.05634977, -0.02083549, -0.1777704, 0.001089464, -0.02278941, -0.0122905, -0.03520853, 0.0005187924, -0.06221239, 0.9968579, 0.05027412
 194433862, -0.07408997, -0.03246771, -0.004224238, 0.001089464, -0.0315099, -0.01019427, 0.03072206, 0.0005187924, -0.06436188, 0.9966276, 0.04570375
 194633782, -0.06948616, 0.001702046, -0.008094168, 0.001089464, -0.02124551, 0.008773707, -0.03526745, 0.0005187924, -0.06513206, 0.9966871, 0.04570375
 194833702, -0.05197377, 0.02403433, -0.1388919, 0.001089464, -0.001211387, 0.003305858, -0.04610706, 0.0005187924, -0.06726797, 0.9966698, 0.04570375
 195033622, -0.0280678, 0.02241846, -0.113275, 0.001089464, -0.02143382, 0.003884004, -0.03262492, 0.0005187924, -0.06918029, 0.9966041, 0.04570375
 195233542, -0.08116569, 0.01202687, -0.0005859211, 0.001089464, -0.03071737, -0.0005747216, 0.06543898, 0.0005187924, -0.06974778, 0.9964174, 0.04570375
 195434295, -0.07014453, 0.01046184, 0.2226891, 0.001091626, -0.009818754, 0.002327996, 0.01970281, 0.000520954, -0.07096329, 0.9961285, 0.04579443
 195634215, -0.0493602, 0.02011251, -0.04638639, 0.001091626, -0.02349454, 0.0206334, -0.04599692, 0.0005187924, -0.06976633, 0.9962929, 0.04121499
 195834135, -0.04827186, 0.03636171, 0.02530627, 0.001089464, -0.01826235, 0.008982092, 0.05969363, 0.0005187924, -0.0711446, 0.9959896, 0.04570375
 196034055, -0.04561812, 0.04782385, 0.08845006, 0.001089464, -0.01412656, 0.03171803, -0.03135553, 0.0005187924, -0.0726302, 0.9959012, 0.04570375
 196233975, -0.04490573, 0.06628851, -0.03931278, 0.001089464, -0.01693696, 0.008000892, -0.001263208, 0.0005187924, -0.07653288, 0.995584, 0.05027412
 196433895, -0.03348042, -0.01791196, 0.002981604, 0.001089464, -0.01079845, -0.009664455, -0.004294012, 0.0005187924, -0.07555941, 0.995629, 0.04570375
 196633815, -0.02759, -0.01580472, 0.006361657, 0.001089464, -0.01346304, 0.01132546, -0.008803373, 0.0005187924, -0.07359078, 0.995733, 0.04570375
 196833735, -0.02901494, 0.08186166, 0.004915921, 0.001089464, -0.008195613, 0.04164947, 0.03437469, 0.0005187924, -0.07382275, 0.9956544, 0.04570375
 197033655, -0.02280471, 0.1025759, 0.0760107, 0.001089464, -0.01472252, 0.0163581, -0.004433574, 0.0005187924, -0.07710245, 0.9953663, 0.04570375
 197233575, -0.04057667, 0.0101279, -0.00337886, 0.001089464, -0.01236427, -0.01088285, 0.0235858, 0.0005187924, -0.07689337, 0.9953581, 0.04570375
 197433495, -0.05019454, -0.03987316, 0.01800081, 0.001089464, -0.01384676, -0.006940013, -0.001664926, 0.0005187924, -0.07661719, 0.9953929, 0.04570375
 197634248, -0.03052653, -0.007847218, 0.02965971, 0.001091626, -0.004253221, 0.02059845, 0.02612793, 0.000520954, -0.07592227, 0.9953902, 0.04121499
 197834168, -0.02332094, 0.08831605, -0.01629205, 0.001091626, -0.008777231, 0.03517861, -0.01244821, 0.0005187924, -0.07830968, 0.9952397, 0.04579443
 198034088, -0.01436437, 0.06955799, 0.003856163, 0.001089464, -0.01003088, 0.01658469, -0.003062139, 0.0005187924, -0.08107241, 0.9949928, 0.04570375
 198234008, -0.02800222, -0.01327371, -0.05629702, 0.001089464, -0.02189022, -0.02453056, -0.03240206, 0.0005187924, -0.08056669, 0.9951336, 0.04570375
 198433928, -0.05171352, -0.04782639, -0.05230018, 0.001089464, -0.01913499, -0.0003853621, -0.02723558, 0.0005187924, -0.07944145, 0.9952694, 0.05027412
 198633848, -0.05658536, 0.0158484, 0.02479564, 0.001089464, -0.0139255, 0.01737752, 0.01895013, 0.0005187924, -0.07874648, 0.9951736, 0.04570375
 198833768, -0.03874703, 0.0969716, 0.07016214, 0.001089464, -0.007021125, 0.03847494, -0.001225839, 0.0005187924, -0.08071195, 0.994947, 0.04570375
 199033688, -0.03689357, 0.09507976, -0.1173041, 0.001089464, -0.01115854, 0.003841477, -0.04412907, 0.0005187924, -0.08448216, 0.9948345, 0.04570375
 199233608, -0.0425016, -0.03566055, -0.003713986, 0.001089464, -0.0166207, -0.03238722, 0.04285919, 0.0005187924, -0.08311546, 0.9947456, 0.04570375
 199433528, -0.03350225, -0.04727703, 0.129769, 0.001089464, 0.002040709, 0.005801613, 0.04054145, 0.0005187924, -0.07966737, 0.9948446, 0.04570375
 199634281, 0.003311645, 0.04522493, 0.09746721, 0.001091626, 0.00492544, 0.02880298, -0.000220362, 0.000520954, -0.08159363, 0.9946128, 0.04121499
 199834201, -0.00562221, 0.1036989, -0.02458496, 0.001091626, -0.01083636, 0.03795086, -0.01833738, 0.0005187924, -0.08313701, 0.9945345, 0.04579443
 200034121, -0.01241873, 0.04737522, 0.03237773, 0.001089464, -0.0005029736, -0.01206129, 0.03021766, 0.0005187924, -0.08453505, 0.9942572, 0.04570375
 200234041, 0.001925835, -0.06718451, 0.04063993, 0.001089464, 0.008849195, -0.02735642, -0.02062218, 0.0005187924, -0.08430024, 0.9943106, 0.04570375
 200433961, 0.02638721, -0.02294715, -0.01338439, 0.001089464, 0.008223224, 0.03134471, 0.02827104, 0.0005187924, -0.08277676, 0.9943692, 0.05027412
 200633881, 0.02063345, 0.07384564, -0.0362008, 0.001089464, 0.00914214, 0.009162432, -0.06304354, 0.0005187924, -0.08624702, 0.9943126, 0.04570375
 200833801, 0.008375985, 0.001909279, -0.06021816, 0.001089464, -0.002716049, 0.005405239, 0.02338256, 0.0005187924, -0.08725424, 0.9941679, 0.04570375
 201033721, -0.01610452, 0.01278311, 0.02408663, 0.001089464, -0.0164324, 0.00740423, -0.05306762, 0.0005187924, -0.08688548, 0.9942866, 0.04570375
 201233641, -0.03963164, 0.007898328, -0.06286719, 0.001089464, -0.00772975, -0.00874899, 0.03935917, 0.0005187924, -0.0879921, 0.9940932, 0.04570375
 201433561, -0.01701988, 0.00134906, 0.106713, 0.001089464, -0.01533165, -0.001122894, -0.01931819, 0.0005187924, -0.08811978, 0.9940638, 0.04570375
 201633481, -0.03513239, 0.01005611, -0.1174886, 0.001089464, -0.01172414, -0.0007203373, 0.01398071, 0.0005187924, -0.08909892, 0.9940839, 0.04570375
 201834234, -0.02693102, 0.02366739, 0.06200614, 0.001091626, -0.005018103, 0.01003945, 0.04657361, 0.000520954, -0.08884825, 0.9939726, 0.04121499
 202034154, -0.01331791, 0.03688765, 0.1185635, 0.001091626, -0.002777436, 0.01621467, 0.02603846, 0.0005187924, -0.09013675, 0.9937184, 0.04579443
 202234074, -0.01439333, 0.03795214, 0.01806407, 0.001089464, -0.006284733, 0.01489463, -0.02074642, 0.0005187924, -0.08922733, 0.9938356, 0.04570375
 202433994, -0.008739963, 0.04526033, -0.01277521, 0.001089464, -0.01184798, 0.003842736, -0.001117459, 0.0005187924, -0.09078335, 0.9936625, 0.04570375
 202633914, -0.0170243, -0.0149839, 0.01723043, 0.001089464, -0.009313086, -0.01782406, 0.002591717, 0.0005187924, -0.09185382, 0.9935094, 0.05027412
 202833834, -0.01774039, -0.03690628, 0.009405091, 0.001089464, 0.001500413, -0.01184149, -0.01969856, 0.0005187924, -0.09322826, 0.9933946, 0.04570375
 203033754, 0.001634833, 0.0004899921, -0.01631871, 0.001089464, -0.003643347, 0.0212313, 0.02076434, 0.0005187924, -0.0914035, 0.9935075, 0.04570375
 203233674, 0.0006183069, 0.04214748, 0.0267991, 0.001089464, 0.002618286, 0.004223031, -0.005679719, 0.0005187924, -0.09360072, 0.9933606, 0.04570375
 203433594, -0.00160252, 0.01743925, -0.03582181, 0.001089464, -0.004848881, 0.01365216, -0.03778004, 0.0005187924, -0.09403123, 0.9933968, 0.04570375
 203633514, 0.007578266, 0.02387192, -0.02583329, 0.001089464, 0.02450755, 0.005578775, 0.06072742, 0.0005187924, -0.09531748, 0.9931168, 0.04570375
 203834267, 0.06816896, -0.004100299, 0.1278309, 0.001091626, 0.007595722, -0.009835563, -0.007356163, 0.000520954, -0.0972985, 0.9928601, 0.04121499
 204034187, 0.01448555, -0.03302713, 0.0172548, 0.001091626, -0.0136852, -0.008971035, 0.0002934426, 0.0005187924, -0.09814733, 0.9927325, 0.04579443
 204234107, -0.0240827, -0.007289706, -0.01822826, 0.001089464, 0.003120486, -0.001255269, -0.03248397, 0.0005187924, -0.09840488, 0.9928854, 0.04570375
 204434027, -0.01265457, 0.01441561, -0.1000097, 0.001089464, -0.003366625, 0.008427754, -0.006590276, 0.0005187924, -0.09944527, 0.9928791, 0.04570375
 204633947, -0.01598177, 0.01947171, -0.01946243, 0.001089464, -0.01563299, -0.0003847723, 0.005845496, 0.0005187924, -0.1012025, 0.9927236, 0.05027412
 204833867, -0.03706892, -0.02156435, 0.009206359, 0.001089464, -0.00445734, -0.009043581, 0.00191059, 0.0005187924, -0.102265, 0.9926013, 0.04570375
 205033787, -0.03070581, 0.005567944, 0.03410687, 0.001089464, -0.03813313, 0.02244207, 0.04106728, 0.0005187924, -0.101559, 0.9925493, 0.04570375
 205233707, -0.1209261, 0.05835146, -0.01394488, 0.001089464, -0.01576054, 0.002262872, -0.07310355, 0.0005187924, -0.1027197, 0.9926354, 0.04570375
 205433627, -0.01152774, -0.006057387, -0.03293163, 0.001089464, 0.02199336, -0.01476144, 0.05764342, 0.0005187924, -0.1045181, 0.9922009, 0.04570375
 205633547, 0.1592418, 0.007596434, 0.153252, 0.001089464, 0.03376655, 0.02386345, 0.05106675, 0.0005187924, -0.1046402, 0.9918921, 0.04570375
 205834300, 0.03762427, 0.04365813, 0.05334809, 0.001091626, -0.0107861, -0.001600116, -0.03026085, 0.0005187924, -0.1071449, 0.9917632, 0.04579443
 206034220, -0.1477065, -0.01855887, -0.1813865, 0.001091626, -0.113193, -0.01539734, -0.07466509, 0.000520954, -0.1087702, 0.9920638, 0.04121499
 206234140, -0.1760673, -0.05404582, -0.07106429, 0.001091626, 0.01257355, -0.005883362, 0.06360114, 0.0005187924, -0.1074522, 0.9920881, 0.04579443
 206434060, 0.1059389, 0.04062462, 0.1858142, 0.001089464, 0.1076317, 0.04013446, 0.05942877, 0.0005187924, -0.1075629, 0.9916537, 0.04570375
 206633980, 0.2092664, 0.09264524, 0.07945007, 0.001089464, 0.008852517, 0.008617071, 0.002656923, 0.0005187924, -0.1120032, 0.9911451, 0.05027412
 206833900, -0.0175068, -0.01446272, -0.06385086, 0.001089464, -0.01572905, -0.02313497, -0.06843594, 0.0005187924, -0.1117598, 0.9915565, 0.04570375
 207033820, -0.1260656, -0.04686614, -0.1244704, 0.001089464, -0.09988133, 0.0105001, -0.008756376, 0.0005187924, -0.1106064, 0.9918284, 0.04570375
 207233740, -0.1667998, 0.04160145, 0.03571049, 0.001089464, 0.00724057, 0.01978379, 0.02015738, 0.0005187924, -0.1103616, 0.9916845, 0.04570375
 207433660, 0.1578408, 0.05245874, 0.1367056, 0.001089464, 0.05380004, 0.02628556, 0.04403527, 0.0005187924, -0.1126449, 0.9910091, 0.04570375
 207633580, 0.07198901, 0.06055137, 0.003729012, 0.001089464, -0.01747207, 0.007871461, -0.05101747, 0.0005187924, -0.1141196, 0.9910185, 0.04570375
 207833500, -0.0735794, 0.002345907, -0.1577711, 0.001089464, -0.02953033, -0.01591236, -0.02135691, 0.0005187924, -0.1153554, 0.9912625, 0.04570375
 208034253, -0.1687565, -0.03328354, -0.03191055, 0.001091626, -0.04667129, -0.01042035, -0.02421672, 0.000520954, -0.1149666, 0.9913532, 0.04121499
 208234173, -0.02947779, -0.01010928, 0.00483804, 0.001091626, 0.03700742, 0.006538221, 0.05782338, 0.0005187924, -0.115534, 0.9910679, 0.04579443
 208434093, 0.1784368, 0.00728017, 0.1707264, 0.001089464, 0.02102012, -0.001911604, 0.05905931, 0.0005187924, -0.1166882, 0.9905354, 0.04570375
 208634013, 0.008921516, 0.01839281, 0.02692606, 0.001089464, -0.01595664, 0.01913838, -0.0368121, 0.0005187924, -0.1157109, 0.9908937, 0.04570375
 208833933, -0.1629168, 0.06857296, -0.1435996, 0.001089464, -0.06177865, 0.00959573, -0.02164175, 0.0005187924, -0.1176331, 0.9910531, 0.05027412
 209033853, -0.111912, 0.03836375, -0.09356087, 0.001089464, -0.006273041, 0.01146811, -0.002937191, 0.0005187924, -0.1187416, 0.9909987, 0.04570375
 209233773, 0.01202602, 0.001946483, 0.03334153, 0.001089464, 0.008384546, -0.02293829, 0.03328842, 0.0005187924, -0.1217025, 0.9903219, 0.04570375
 209433693, 0.1431526, -0.0681077, 0.1277567, 0.001089464, 0.05358579, -0.0005109346, 0.002645102, 0.0005187924, -0.1203795, 0.9902972, 0.04570375
 209633613, 0.02928695, 0.01674255, 0.01565002, 0.001089464, -0.07874522, 0.01384659, -0.02855083, 0.0005187924, -0.1216958, 0.9902055, 0.04570375
 209833533, -0.2324876, 0.0419079, -0.106684, 0.001089464, -0.03074418, 0.01219439, -0.030462, 0.0005187924, -0.123436, 0.990342, 0.04570375
 210034286, -0.0362867, 0.02719414, -0.02168691, 0.001091626, 0.01204832, -0.001409091, -0.007913577, 0.000520954, -0.1240609, 0.9901628, 0.04121499
 210234206, 0.03262072, -0.005837177, 0.05983679, 0.001091626, 0.01284083, -0.01145771, 0.07572248, 0.0005187924, -0.1254034, 0.9896476, 0.04579443
 210434126, 0.05275015, -0.03459235, 0.08229765, 0.001089464, 0.03554519, -0.01019079, -0.01726023, 0.0005187924, -0.1251974, 0.9897131, 0.04570375
 210634046, 0.1289384, 0.004547179, -0.03160358, 0.001089464, 0.008174474, 0.01652321, -0.04157407, 0.0005187924, -0.1272427, 0.9895529, 0.04570375
 210833966, -0.1330182, 0.05334342, -0.1527656, 0.001089464, -0.04200185, 0.01524126, -0.04941832, 0.0005187924, -0.1299004, 0.9895282, 0.05027412
 211033886, -0.07489313, -0.009116913, -0.1082215, 0.001089464, 0.003629057, -0.02249537, 0.0003940912, 0.0005187924, -0.1313063, 0.9894539, 0.04570375
 211233806, 0.01438813, -0.04978649, 0.04853437, 0.001089464, 0.001897376, -0.00615631, 0.02760879, 0.0005187924, -0.1301062, 0.9893603, 0.04570375
 211433726, 0.00760741, 0.03715772, 0.06539398, 0.001089464, 0.003640073, 0.02131904, 0.002961595, 0.0005187924, -0.1318122, 0.9890422, 0.04570375
 211633646, -0.001428758, 0.07568173, 0.04925968, 0.001089464, -0.006508022, 0.009867064, -0.009635407, 0.0005187924, -0.1344993, 0.9886415, 0.04570375
 211833566, -0.0233613, 0.01624851, -0.03131501, 0.001089464, -0.009892712, -0.001287122, -0.009593081, 0.0005187924, -0.1342095, 0.9887582, 0.04570375
 212033486, -0.04132015, -0.02478119, -0.10541, 0.001089464, -0.01359606, -0.01560096, -0.05620548, 0.0005187924, -0.1351071, 0.9888911, 0.04570375
 212234239, -0.0351604, -0.03674702, -0.0844526, 0.001091626, -0.01502052, -0.01176644, 0.04543467, 0.000520954, -0.1371088, 0.9885239, 0.04121499
 212434159, -0.009489761, -0.0177392, 0.1093018, 0.001091626, 0.003562006, 0.01719747, 0.01676629, 0.0005187924, -0.1371439, 0.9883573, 0.04579443
 212634079, 0.01543321, 0.07323612, 0.0840047, 0.001089464, 0.01861101, 0.03218814, -0.00942269, 0.0005187924, -0.1383804, 0.9880869, 0.04570375
 212833999, 0.03203662, 0.07437991, 0.01308993, 0.001089464, 0.0004441027, 0.01624282, -0.004358455, 0.0005187924, -0.1416364, 0.9876105, 0.04570375
 213033919, -0.00472658, 0.005369586, -0.07796977, 0.001089464, -0.01089253, -0.01045031, -0.03132682, 0.0005187924, -0.1408991, 0.9879003, 0.05027412
 213233839, -0.02304981, -0.0168706, -0.04799013, 0.001089464, -0.005367871, -0.0006878047, 0.02915522, 0.0005187924, -0.1407518, 0.9879042, 0.04570375
 213433759, -0.005366196, 0.004454496, 0.02866162, 0.001089464, -0.001743327, 0.005312577, -0.003847204, 0.0005187924, -0.1424385, 0.987699, 0.04570375
 213633679, 0.0004604696, 0.01509588, 0.04458634, 0.001089464, 0.001965322, 0.01153134, 0.02682966, 0.0005187924, -0.1432991, 0.9874333, 0.04570375
 213833599, 0.001046139, 0.048425, 0.07383627, 0.001089464, -0.004681221, 0.01262884, 0.01671542, 0.0005187924, -0.1428154, 0.987414, 0.04570375
 214033519, -0.01058956, 0.03688825, 0.02394729, 0.001089464, -0.003019017, 0.01139722, -0.020704, 0.0005187924, -0.144555, 0.9872143, 0.04570375
 214234272, -0.01721706, 0.02213738, -0.0737538, 0.001091626, 0.002277953, 0.02759209, -0.01710309, 0.000520954, -0.1453301, 0.987198, 0.04121499
 214434192, 0.02230456, 0.03161625, 0.06134382, 0.001091626, -0.003783074, -0.008490657, 0.05934067, 0.0005187924, -0.1468945, 0.9867352, 0.04579443
 214634112, -0.003445337, -0.006850322, 0.01351748, 0.001089464, 0.001296826, -0.006958431, -0.06418715, 0.0005187924, -0.1472648, 0.9868801, 0.04570375
 214834032, -0.01094385, 0.0002664241, -0.09053786, 0.001089464, 0.006408946, -0.005228097, 0.03239116, 0.0005187924, -0.1487095, 0.9866034, 0.04570375
 215033952, -0.006591398, -0.004258613, 0.001585631, 0.001089464, -0.002754955, -0.00102129, -0.03799692, 0.0005187924, -0.1497153, 0.9866247, 0.05027412
 215233872, -0.007975267, 0.001753686, -0.009782802, 0.001089464, 0.007867766, 0.007068185, 0.05010755, 0.0005187924, -0.1506221, 0.9863272, 0.04570375
 215433792, 0.01838534, 0.01096066, 0.08887277, 0.001089464, 0.003948099, 0.01014589, -0.01093494, 0.0005187924, -0.1518098, 0.9861156, 0.04570375
 215633712, 0.0009317023, 0.02535421, -0.007752711, 0.001089464, -0.00490217, 0.005813004, -0.01941514, 0.0005187924, -0.1534382, 0.9858932, 0.04570375
 215833632, -0.01644565, 0.02566481, -0.06700364, 0.001089464, -0.001562654, 0.0102411, -0.03684286, 0.0005187924, -0.1541485, 0.9858766, 0.04570375
 216033552, -0.01154417, 0.02233832, -0.04745079, 0.001089464, -0.008809521, 0.007954607, -0.02141201, 0.0005187924, -0.1548036, 0.9857903, 0.04570375
 216234305, -0.01722717, 0.0321649, 0.003699912, 0.001091626, 0.003182027, 0.002481906, 0.005073234, 0.0005187924, -0.1558227, 0.9855854, 0.04579443
 216434225, -0.008952959, -0.001248323, -0.02217515, 0.001091626, -0.01155439, -0.01026686, -0.01652764, 0.000520954, -0.1583492, 0.9852408, 0.04121499
 216634145, -0.02876227, -0.01032037, -0.01597816, 0.001091626, -0.009899501, 0.008613419, 0.0232078, 0.0005187924, -0.1580465, 0.9852176, 0.04579443
 216834065, -0.0155088, 0.01175328, 0.002967723, 0.001089464, -0.007748288, 0.008580606, -0.001098041, 0.0005187924, -0.1595602, 0.9850197, 0.04570375
 217033985, -0.01349159, 0.02291999, 0.06685445, 0.001089464, -0.003476065, 0.004226735, 0.04896382, 0.0005187924, -0.1590246, 0.9849129, 0.04570375
 217233905, -0.002193685, 0.03165327, 0.0277185, 0.001089464, -0.009569759, 0.01428713, -0.04692965, 0.0005187924, -0.1603899, 0.984858, 0.05027412
 217433825, -0.02146018, 0.01838359, -0.06324945, 0.001089464, 0.004057925, 0.002660665, 0.02237302, 0.0005187924, -0.1616705, 0.9845799, 0.04570375
 217633745, 0.005843156, 0.02059504, 0.07923804, 0.001089464, 0.01018821, 0.01320215, 0.01727729, 0.0005187924, -0.1626225, 0.9843336, 0.04570375
 217833665, 0.02020717, 0.02834497, 0.0295112, 0.001089464, 0.01033671, 0.01083001, 0.05267334, 0.0005187924, -0.1633427, 0.9841579, 0.04570375
 218033585, 0.01097741, 0.01878421, 0.045329, 0.001089464, -0.001683109, -0.001774714, -0.04005384, 0.0005187924, -0.1657423, 0.9838647, 0.04570375
 218233505, -0.01166221, -0.007535894, -0.02740316, 0.001089464, -0.0001189456, 0.002483291, 0.03357802, 0.0005187924, -0.1665715, 0.9836499, 0.04570375
 218434258, -0.003917083, 0.0004240787, 0.05727513, 0.001091626, -0.002125766, -0.00274761, -0.02530273, 0.000520954, -0.1676685, 0.9834781, 0.04121499
 218634178, 0.004938549, -0.01483438, -0.05810567, 0.001091626, 0.0002752512, -0.005534513, -0.04442609, 0.0005187924, -0.1706394, 0.9830455, 0.04579443
 218834098, -0.004984766, -0.02235856, -0.03538083, 0.001089464, -0.003342913, 0.002538346, 0.01948968, 0.0005187924, -0.1721093, 0.9827086, 0.04570375
 219034018, -0.01228142, -0.01132314, -0.02011515, 0.001089464, 0.0006332067, -0.001563544, -0.03762464, 0.0005187924, -0.1724481, 0.9827702, 0.04570375
 219233938, -0.004617802, 0.01301901, -0.06695335, 0.001089464, -0.02082336, 0.01031409, -0.01999703, 0.0005187924, -0.1735353, 0.9826493, 0.05027412
 219433858, -0.03405604, 0.02535499, 0.05057335, 0.001089464, 0.00253439, 0.01202756, 0.05249974, 0.0005187924, -0.1747415, 0.982253, 0.04570375
 219633778, -0.002403301, 0.03553955, -0.01903869, 0.001089464, 0.007198018, 0.01684288, -0.03933648, 0.0005187924, -0.1754483, 0.9823291, 0.04570375
 219833698, 0.001928222, 0.03915171, -0.005824163, 0.001089464, 2.118842E-05, 0.01374401, 0.02500363, 0.0005187924, -0.176754, 0.9819696, 0.04570375
 220033618, -0.00447438, 0.006669438, 0.0210695, 0.001089464, -0.006425383, -0.01117091, 0.003804782, 0.0005187924, -0.1804753, 0.9813133, 0.04570375
 220233538, -0.02595904, -0.0264529, -0.03448436, 0.001089464, -0.001076546, 0.009695956, -0.01214486, 0.0005187924, -0.1798972, 0.981513, 0.04570375
 220434291, -0.009211863, 0.03510068, 0.02635419, 0.001091626, -0.004497265, -0.004525098, 0.03937279, 0.000520954, -0.1820789, 0.9809942, 0.04579443
 220634211, -0.01064403, 0.001914219, 0.01526135, 0.001091626, -0.008115482, 0.008657048, -0.01605195, 0.0005187924, -0.1817273, 0.9811153, 0.04121499
 220834131, -0.01475045, 0.04198815, -0.02324544, 0.001089464, 0.0001595185, 0.007482552, -0.03592474, 0.0005187924, -0.1831641, 0.9809062, 0.04570375
 221034051, -0.006565611, 0.01296466, -0.03618956, 0.001089464, -0.00318993, -0.005561778, 0.002263909, 0.0005187924, -0.1857777, 0.9804131, 0.04570375
 221233971, -0.001562273, -0.03644139, -0.07215708, 0.001089464, 0.004004237, -0.02228673, -0.005244446, 0.0005187924, -0.1880181, 0.9801025, 0.05027412
 221433891, 0.01301628, -0.01970005, 0.08363575, 0.001089464, 0.006192073, 0.01007179, 0.06547101, 0.0005187924, -0.1877099, 0.9798778, 0.04570375
 221633811, -0.001601092, 0.03049718, 0.1144999, 0.001089464, 0.002771045, 0.01291187, -0.02667266, 0.0005187924, -0.1889398, 0.9796994, 0.04570375
 221833731, -0.009237934, 0.03436882, -0.05605371, 0.001089464, -0.007477449, 0.006622473, 0.01255344, 0.0005187924, -0.1897436, 0.9795679, 0.04570375
 222033651, -0.01924095, -0.001702341, 4.598591E-05, 0.001089464, -0.002723449, -0.003153478, -0.03242645, 0.0005187924, -0.1929249, 0.9790096, 0.04570375
 222233571, -0.01839818, -0.004840541, -0.06286225, 0.001089464, -0.01151391, -0.007348438, -0.04599228, 0.0005187924, -0.194696, 0.978739, 0.04570375
 222433491, -0.04099067, -0.03226118, -0.08050697, 0.001089464, -0.0160175, -0.005878427, -0.002135281, 0.0005187924, -0.1961511, 0.9784767, 0.04570375
 222634244, -0.03512878, 0.01745595, 0.04828637, 0.001091626, -0.00263201, 0.01701448, 0.04918443, 0.000520954, -0.1960198, 0.9783396, 0.04121499
 222834164, 0.008942341, 0.0635252, 0.1011212, 0.001091626, 0.01122788, 0.01582331, 0.00833788, 0.0005187924, -0.1979974, 0.9778494, 0.04579443
 223034084, 0.02687285, 0.02406871, 0.01066091, 0.001089464, -0.0335249, -0.01054406, -0.02618391, 0.0005187924, -0.2023268, 0.9769965, 0.04570375
 223234004, -0.09698452, -0.05392319, -0.07266793, 0.001089464, -0.01297797, -0.02302882, -0.002950375, 0.0005187924, -0.2023835, 0.9770796, 0.04570375
 223433924, -0.02276332, -0.0402595, -0.03668418, 0.001089464, -0.001568719, 0.01780425, -0.02447017, 0.0005187924, -0.2005855, 0.9775412, 0.05027412
 223633844, 0.001998335, 0.09632224, 0.002938879, 0.001089464, 0.008010897, 0.04089565, 0.03452569, 0.0005187924, -0.2021837, 0.9770619, 0.04570375
 223833764, 0.009187504, 0.1158938, 0.04678161, 0.001089464, 0.006181921, 0.01399985, 0.004298493, 0.0005187924, -0.2065928, 0.9761728, 0.04570375
 224033684, -0.007298161, -0.01086535, -0.002860509, 0.001089464, -0.01976578, -0.0292426, 0.02491021, 0.0005187924, -0.2073496, 0.9759534, 0.04570375
 224233604, -0.03402564, -0.06095472, 0.08075876, 0.001089464, -0.01127822, 0.009103947, 0.004923281, 0.0005187924, -0.2035246, 0.9766666, 0.04570375
 224433524, -0.01132426, 0.03858284, -0.03947841, 0.001089464, 0.0006308848, 0.0205729, -0.01003684, 0.0005187924, -0.2064994, 0.9761472, 0.04570375
 224634277, -0.006933955, 0.03791393, -0.00850935, 0.001091626, -0.001021139, 0.01317561, -0.001296981, 0.000520954, -0.2089476, 0.9756292, 0.04121499
 224834197, -0.0143042, 0.02220774, -0.07767615, 0.001091626, -0.007391703, -0.005116138, -0.06609747, 0.0005187924, -0.211965, 0.9751841, 0.04579443
 225034117, -0.02355906, -0.01289991, -0.07110335, 0.001089464, -0.001682112, 0.0006289915, 0.04328514, 0.0005187924, -0.21251, 0.9749728, 0.04570375
 225234037, 0.007219646, -0.005717049, 0.1149156, 0.001089464, -0.002711892, -0.003311993, 0.01954527, 0.0005187924, -0.2149263, 0.9743294, 0.04570375
 225433957, -0.006121845, -0.004548647, 0.02656687, 0.001089464, 0.007037507, 0.01697738, 0.05280585, 0.0005187924, -0.2163758, 0.9739262, 0.05027412
 225633877, -0.002158616, 0.02022635, 0.06634993, 0.001089464, -0.009190713, 0.00368823, -0.02838229, 0.0005187924, -0.2179207, 0.9736944, 0.04570375
 225833797, -0.001405289, 0.03613295, -0.05958011, 0.001089464, -0.0007768964, 0.02250206, -0.02266711, 0.0005187924, -0.2176251, 0.97382, 0.04570375
 226033717, 0.006613286, 0.02813384, -0.0182818, 0.001089464, 0.001910895, -0.0129406, 0.0158403, 0.0005187924, -0.2220745, 0.9727508, 0.04570375
 226233637, -0.0015718, -0.01754082, -0.02195406, 0.001089464, -0.005596006, 0.01699922, -0.02599391, 0.0005187924, -0.2214264, 0.9730304, 0.04570375
 226433557, -0.0005047624, 0.04423625, -0.001205228, 0.001089464, 0.0007119564, 0.002408447, 0.007320336, 0.0005187924, -0.2238136, 0.972416, 0.04570375
 226633477, 0.005778311, 0.01412466, 0.04364803, 0.001089464, 0.002923185, 0.01478736, -0.00884999, 0.0005187924, -0.2246258, 0.9722001, 0.04570375
 226834230, -0.004560823, 0.01695609, -0.0345444, 0.001091626, -0.006351113, -0.009813868, 6.748911E-05, 0.000520954, -0.2278074, 0.9714713, 0.04121499
 227034150, -0.009847758, -0.03362576, 0.01529953, 0.001091626, -0.01399916, 0.001286809, 0.01790105, 0.0005187924, -0.2299585, 0.9709535, 0.04579443
 227234070, -0.03903437, -0.002454053, 0.02457539, 0.001089464, -0.009971673, 0.0001429528, -0.02063241, 0.0005187924, -0.2306354, 0.9708532, 0.04570375
 227433990, -0.02001355, 0.007287432, -0.08155574, 0.001089464, -0.005082977, 0.009475933, -0.01033613, 0.0005187924, -0.2319677, 0.9706147, 0.04570375
 227633910, -0.01231179, 0.03535595, 0.003677461, 0.001089464, 0.003617182, 0.01730486, -0.01553076, 0.0005187924, -0.2328407, 0.9703953, 0.05027412
 227833830, 0.02157549, 0.05897128, -0.01047326, 0.001089464, 0.01568328, 0.01511465, 0.02728038, 0.0005187924, -0.2335679, 0.970126, 0.04570375
 228033750, 0.02276471, 0.03937376, 0.0650206, 0.001089464, 0.003079852, 0.006416144, -0.01257136, 0.0005187924, -0.2354213, 0.9696467, 0.04570375
 228233670, -0.007534212, 0.02149879, -0.005146255, 0.001089464, -0.009404589, 0.006028004, 0.01250825, 0.0005187924, -0.236394, 0.9693738, 0.04570375
 228433590, -0.0125017, 0.03147221, -0.01252959, 0.001089464, -0.004146423, 0.02305031, -0.009237122, 0.0005187924, -0.2366474, 0.9694359, 0.04570375
 228633510, -0.0240664, 0.03046002, -0.05818788, 0.001089464, -0.02444766, -0.002637199, 0.00795275, 0.0005187924, -0.2399334, 0.9686806, 0.04570375
 228834263, -0.0426624, -0.004644982, 0.05528079, 0.001091626, -0.008816171, 0.005140607, 0.03453724, 0.000520954, -0.2396932, 0.968626, 0.04121499
 229034183, -0.02053078, 0.02265395, 0.003743096, 0.001091626, -2.781843E-05, 0.0001532761, -0.02375328, 0.0005187924, -0.2417997, 0.9682, 0.04579443
 229234103, -0.01007913, 0.005987072, 0.03085437, 0.001089464, -0.005660216, 0.0001217943, 0.0683656, 0.0005187924, -0.2442761, 0.9673811, 0.04570375
 229434023, -0.0211642, -0.003412985, 0.07611774, 0.001089464, 0.0004055735, 0.006861337, -0.006164373, 0.0005187924, -0.245022, 0.9672195, 0.04570375
 229633943, -0.006174395, 0.008696552, 0.009646475, 0.001089464, 0.0006922947, 0.0009165604, 0.001920027, 0.0005187924, -0.2464964, 0.9668238, 0.05027412
 229833863, -0.008809691, 0.01210309, -0.07498658, 0.001089464, -0.0008635329, 0.004790988, -0.04918181, 0.0005187924, -0.2478905, 0.9666671, 0.04570375
 230033783, -0.009469582, 0.007624853, -0.06115063, 0.001089464, -0.006439622, -0.007047836, 0.03018602, 0.0005187924, -0.251115, 0.9657776, 0.04570375
 230233703, -0.007591998, -0.02642443, 0.08944307, 0.001089464, -0.008209876, -0.000938345, 0.03478251, 0.0005187924, -0.2526045, 0.9652585, 0.04570375
 230433623, -0.0312446, 0.01620544, 0.03197031, 0.001089464, 0.007292549, 0.009076336, -0.01096859, 0.0005187924, -0.2535725, 0.9650449, 0.04570375
 230633543, 0.008114119, -0.0009537032, 0.0241291, 0.001089464, 0.003452733, -0.003474409, 0.02431497, 0.0005187924, -0.2567615, 0.9641014, 0.04570375
 230834296, 0.00067756, -0.02207318, 0.01207827, 0.001091626, -0.003999457, 0.003791942, -0.02155588, 0.000520954, -0.2575921, 0.9639392, 0.04579443
 231034216, 0.004034246, 0.03982498, -0.06586984, 0.001091626, 0.006556399, 0.02247257, -0.01941676, 0.0005187924, -0.2587848, 0.963729, 0.04121499
 231234136, 0.009053972, 0.03638709, -0.01500205, 0.001089464, -0.00118633, -0.01752068, 0.02583575, 0.0005187924, -0.2625147, 0.9626683, 0.04570375
 231434056, -0.01062816, -0.0120625, 0.02996752, 0.001089464, -0.001948582, 0.002625827, -0.03459672, 0.0005187924, -0.2630426, 0.9625773, 0.04570375
 231633976, -0.01635258, 0.01379976, -0.03880972, 0.001089464, -0.01055902, 0.01216086, -0.006004029, 0.0005187924, -0.2641196, 0.9622843, 0.05027412
 231833896, -0.03090637, 0.01746626, -0.0312856, 0.001089464, -0.006280608, 0.008682035, -0.01760818, 0.0005187924, -0.2662277, 0.9617442, 0.04570375
 232033816, -0.02162007, 0.01674737, 0.01672777, 0.001089464, -0.01355849, -0.001876052, 0.0004925664, 0.0005187924, -0.2685342, 0.9610126, 0.04570375
 232233736, -0.02576631, -0.005796357, 0.01931762, 0.001089464, 0.000869208, 0.01354706, 0.002566646, 0.0005187924, -0.2698433, 0.9605761, 0.04570375
 232433656, 0.001806084, 0.01868222, 0.06953423, 0.001089464, 0.003891414, -0.002994105, 0.0251737, 0.0005187924, -0.2721386, 0.9597808, 0.04570375
 232633576, 0.000311295, -0.009232145, -0.05967088, 0.001089464, -0.008412736, -0.002930714, -0.0205406, 0.0005187924, -0.2742086, 0.9594023, 0.04570375
 232833496, -0.02473229, 0.01399663, -0.09329621, 0.001089464, -0.01084141, 0.00549089, 0.001377413, 0.0005187924, -0.2750355, 0.9592894, 0.04570375
 233034249, -0.01040655, 0.04745153, 0.009565732, 0.001091626, -0.01129453, 0.02792643, 0.0128253, 0.000520954, -0.2763511, 0.9588798, 0.04121499
 233234169, -0.0129451, 0.04541891, 0.04953105, 0.001091626, 0.001588781, 0.00194944, -0.002257064, 0.0005187924, -0.2780291, 0.9583336, 0.04579443
 233434089, -0.01177239, 0.007468912, 0.08417121, 0.001089464, 0.006170744, 0.000603168, 0.04658657, 0.0005187924, -0.2779893, 0.9581368, 0.04570375
 233634009, 0.01922521, 0.004181699, 0.01556464, 0.001089464, 0.01833768, 0.009625401, -0.05087108, 0.0005187924, -0.2799696, 0.9577138, 0.04570375
 233833929, 0.02511144, 0.01700709, 0.005120411, 0.001089464, -0.003696201, 0.009529927, 0.05413025, 0.0005187924, -0.2809014, 0.9572159, 0.05027412
 234033849, 0.006067652, 0.04680125, 0.02256975, 0.001089464, 0.009982098, 0.01581727, -0.02856113, 0.0005187924, -0.2832661, 0.9567236, 0.04570375
 234233769, 0.001845353, 0.03296709, -0.05233702, 0.001089464, -0.003471403, 0.001608946, 0.02748839, 0.0005187924, -0.2850859, 0.9561715, 0.04570375
 234433689, -0.007149526, 0.02250497, 0.02342631, 0.001089464, -0.0110478, 0.01058244, -0.04982223, 0.0005187924, -0.2863304, 0.9559035, 0.04570375
 234633609, -0.03358914, 0.01843921, -0.09065938, 0.001089464, -0.01552459, -0.005521905, 0.00958984, 0.0005187924, -0.2889774, 0.9551287, 0.04570375
 234833529, -0.02787106, -0.0223595, 0.05523287, 0.001089464, 0.0208321, 0.008602459, 0.0178262, 0.0005187924, -0.2901746, 0.9546811, 0.04570375
 235034282, 0.0265503, 0.02501247, -0.01492392, 0.001091626, 0.001638545, 0.0102623, -0.0265542, 0.000520954, -0.2919909, 0.9541879, 0.04121499
 235234202, -0.05716106, 0.01468933, -0.01744097, 0.001091626, -0.01720057, -0.00493011, -0.006858799, 0.0005187924, -0.2946825, 0.9533535, 0.04579443
 235434122, -0.04238337, -0.009859093, -0.03516397, 0.001089464, -0.003736141, -0.001574388, -0.05070185, 0.0005187924, -0.2963432, 0.9529161, 0.04570375
 235634042, -0.01003711, -0.004315241, 0.04004519, 0.001089464, 0.0009392156, -0.003650939, 0.05031218, 0.0005187924, -0.2980047, 0.9520882, 0.04570375
 235833962, -0.002336963, -0.000402493, 0.06712868, 0.001089464, 0.01455725, 0.005663034, 0.01040147, 0.0005187924, -0.2996693, 0.9515504, 0.05027412
 236033882, 0.008760681, 0.01185783, -0.003634029, 0.001089464, -0.00448293, 0.0008976762, -0.006753889, 0.0005187924, -0.3018759, 0.9509081, 0.04570375
 236233802, -0.01140407, 0.0115171, -0.08560894, 0.001089464, -0.01181001, 0.00458362, -0.07492567, 0.0005187924, -0.3040292, 0.9504792, 0.04570375
 236433722, -0.0298174, 0.003944517, -0.1545108, 0.001089464, -0.008838244, -0.00315581, 0.002767886, 0.0005187924, -0.3058331, 0.9499596, 0.04570375
 236633642, -0.01872291, -0.0006316111, 0.06274626, 0.001089464, -0.00139236, 0.006611792, 0.03642504, 0.0005187924, -0.3072968, 0.9493579, 0.04570375
 236833562, -0.01918446, -0.01814329, 0.04915848, 0.001089464, -0.01403681, -0.008464023, -0.01262103, 0.0005187924, -0.3100289, 0.948458, 0.04570375
 237033482, -0.0153131, 0.009426109, 0.0182313, 0.001089464, 0.003086096, 0.02421678, -0.01508462, 0.0005187924, -0.3094072, 0.9486099, 0.04570375
 237234235, 0.01855603, 0.1139194, -0.09863835, 0.001091626, 0.009830412, 0.04839273, -0.03620771, 0.000520954, -0.3122609, 0.9478282, 0.04121499
 237434155, 0.004626205, 0.05645384, 0.006591819, 0.001091626, -0.01921682, -0.02070647, -0.01345727, 0.0005187924, -0.3165143, 0.9463455, 0.04579443
 237634075, -0.04920759, -0.06288507, 0.001226163, 0.001089464, -0.01265363, -0.007478657, 0.01808177, 0.0005187924, -0.3146016, 0.9469252, 0.04570375
 237833995, -0.01567149, 0.006106004, -0.007505971, 0.001089464, -0.00311008, 0.02190274, -0.04127097, 0.0005187924, -0.3159723, 0.9465638, 0.04570375
 238033915, -0.007285199, 0.04083216, -0.02007002, 0.001089464, 0.001893188, 0.004193143, 0.004210218, 0.0005187924, -0.3196892, 0.9452199, 0.05027412
 238233835, -0.007983269, -0.009313943, 0.005361537, 0.001089464, -0.01140789, -0.008041933, 0.01686394, 0.0005187924, -0.3226081, 0.9442214, 0.04570375
 238433755, -0.01358799, -0.01330269, 0.009690138, 0.001089464, -0.002534643, 0.007424439, -0.0255574, 0.0005187924, -0.3241731, 0.9437622, 0.04570375
