TimeUS,COFN,COFE,COFD,CNe,CEe,CDe,POFN,POFE,POFD,PNe,PEe,PDe
 170860795, 0, 0, 0, 0, 0, 0, 0, 0, 0, 0, 0, 0
 171030727, -0.01714043, 0.02004335, -0.002984099, 0.02599707, -0.02601998, 6.342928E-05, 0, 0, 0, 0, 0, 0
 171231480, -0.01152526, -0.002566232, -2.546917E-05, 0.02536883, -0.02714283, 0.4000032, -0.01714043, 0.02004335, -0.002984099, 0.02599707, -0.02601998, 6.342928E-05
 171431400, 0.00335505, -0.003230861, 8.554562E-07, 0.02605078, -0.02752393, 0.4000039, -0.01152526, -0.002566232, -2.546917E-05, 0.02536883, -0.02714283, 0.4000032
 171631320, 0.01261543, 0.02307966, 6.152524E-05, 0.0262707, -0.02699181, 0.4000051, 0.00335505, -0.003230861, 8.554562E-07, 0.02605078, -0.02752393, 0.4000039
 171831240, 0.01036559, 0.006274784, 2.964058E-05, 0.02621318, -0.02731716, 0.4000046, 0.01261543, 0.02307966, 6.152524E-05, 0.0262707, -0.02699181, 0.4000051
 172031160, -0.01208286, -0.005347245, -3.142181E-05, 0.02571221, -0.02757514, 0.4000035, 0.01036559, 0.006274784, 2.964058E-05, 0.02621318, -0.02731716, 0.4000046
 172231080, -0.009510558, 0.006913643, -6.399702E-06, 0.0257603, -0.02730232, 0.4000044, -0.01208286, -0.005347245, -3.142181E-05, 0.02571221, -0.02757514, 0.4000035
 172431000, 0.009937458, -0.003183836, 1.342029E-05, 0.02619322, -0.02752385, 0.4000049, -0.009510558, 0.006913643, -6.399702E-06, 0.0257603, -0.02730232, 0.4000044
 172630920, 0.01729855, 0.01124145, 5.126615E-05, 0.02637699, -0.02721585, 0.4000058, 0.009937458, -0.003183836, 1.342029E-05, 0.02619322, -0.02752385, 0.4000049
 172830840, 0.008709343, -0.006054788, 6.284135E-06, 0.02616457, -0.0275938, 0.4000045, 0.01729855, 0.01124145, 5.126615E-05, 0.02637699, -0.02721585, 0.4000058
 173030760, -0.01929644, -0.01089408, -5.402962E-05, 0.02557538, -0.02770688, 0.4000031, 0.008709343, -0.006054788, 6.284135E-06, 0.02616457, -0.0275938, 0.4000045
 173230680, 0.01839069, -0.0230048, -4.019996E-06, 0.02641893, -0.02801868, 0.4000038, -0.01929644, -0.01089408, -5.402962E-05, 0.02557538, -0.02770688, 0.4000031
 173431433, 0.01981006, 0.003620027, 4.247081E-05, 0.02645915, -0.02737208, 0.4000047, 0.01839069, -0.0230048, -4.019996E-06, 0.02641893, -0.02801868, 0.4000038
 173631353, 0.01569874, 0.004119079, 3.572882E-05, 0.0263518, -0.02736023, 0.4000046, 0.01981006, 0.003620027, 4.247081E-05, 0.02645915, -0.02737208, 0.4000047
 173831273, -0.004515438, -0.02514407, -4.991094E-05, 0.02587786, -0.02807801, 0.4000024, 0.01569874, 0.004119079, 3.572882E-05, 0.0263518, -0.02736023, 0.4000046
 174031193, 0.004681356, -0.02168669, -2.743037E-05, 0.02608349, -0.02798728, 0.4000027, -0.004515438, -0.02514407, -4.991094E-05, 0.02587786, -0.02807801, 0.4000024
 174231113, -0.007317555, -0.008859671, -2.815869E-05, 0.02582049, -0.02766048, 0.4000027, 0.004681356, -0.02168669, -2.743037E-05, 0.02608349, -0.02798728, 0.4000027
 174431033, 0.005834629, -0.01632347, -1.634486E-05, 0.0261141, -0.0278442, 0.4000029, -0.007317555, -0.008859671, -2.815869E-05, 0.02582049, -0.02766048, 0.4000027
 174630953, 0.01952805, 0.02439625, 7.602228E-05, 0.02645569, -0.02696823, 0.4000051, 0.005834629, -0.01632347, -1.634486E-05, 0.0261141, -0.0278442, 0.4000029
 174830873, -0.003086757, 0.02512184, 3.575549E-05, 0.02591212, -0.02695423, 0.4000042, 0.01952805, 0.02439625, 7.602228E-05, 0.02645569, -0.02696823, 0.4000051
 175030793, 0.004640201, -0.003646369, 2.507071E-06, 0.02608566, -0.02753058, 0.4000037, -0.003086757, 0.02512184, 3.575549E-05, 0.02591212, -0.02695423, 0.4000042
 175230713, -0.006862063, -0.01280635, -3.355524E-05, 0.02583203, -0.02774865, 0.400003, 0.004640201, -0.003646369, 2.507071E-06, 0.02608566, -0.02753058, 0.4000037
 175431466, -0.01642654, -0.02118585, -6.471706E-05, 0.02564215, -0.02796406, 0.4000023, -0.006862063, -0.01280635, -3.355524E-05, 0.02583203, -0.02774865, 0.400003
 175631386, 0.02506424, -0.004389474, 3.875057E-05, 0.02660386, -0.02754417, 0.4000049, -0.01642654, -0.02118585, -6.471706E-05, 0.02564215, -0.02796406, 0.4000023
 175831306, -0.001209109, 0.02461973, 3.798042E-05, 0.02595204, -0.02695658, 0.4000048, 0.02506424, -0.004389474, 3.875057E-05, 0.02660386, -0.02754417, 0.4000049
 176031226, 0.02489269, 0.02360654, 8.408604E-05, 0.02659804, -0.0269721, 0.4000061, -0.001209109, 0.02461973, 3.798042E-05, 0.02595204, -0.02695658, 0.4000048
 176231146, 0.01836224, 0.01524298, 5.843372E-05, 0.02642379, -0.02712386, 0.4000056, 0.02489269, 0.02360654, 8.408604E-05, 0.02659804, -0.0269721, 0.4000061
 176431066, 0.002926277, -0.01400199, -1.741753E-05, 0.0260434, -0.02777388, 0.4000039, 0.01836224, 0.01524298, 5.843372E-05, 0.02642379, -0.02712386, 0.4000056
 176630986, -0.0117596, -0.01291935, -4.286071E-05, 0.02572484, -0.02774854, 0.4000035, 0.002926277, -0.01400199, -1.741753E-05, 0.0260434, -0.02777388, 0.4000039
 176830906, 0.0004235386, 0.01574152, 2.656163E-05, 0.02598065, -0.02711905, 0.400005, -0.0117596, -0.01291935, -4.286071E-05, 0.02572484, -0.02774854, 0.4000035
 177030826, 0.003596088, 0.006736206, 1.771372E-05, 0.0260526, -0.02729945, 0.4000048, 0.0004235386, 0.01574152, 2.656163E-05, 0.02598065, -0.02711905, 0.400005
 177230746, 0.01907466, -0.0213736, 3.60109E-07, 0.02643418, -0.02796935, 0.4000044, 0.003596088, 0.006736206, 1.771372E-05, 0.0260526, -0.02729945, 0.4000048
 177430666, -0.02405782, 0.01765206, -1.6042E-05, 0.02549016, -0.02708164, 0.4000045, 0.01907466, -0.0213736, 3.60109E-07, 0.02643418, -0.02796935, 0.4000044
 177631419, -0.02342717, -0.01573192, -6.973518E-05, 0.0254949, -0.02781769, 0.4000039, -0.02405782, 0.01765206, -1.6042E-05, 0.02549016, -0.02708164, 0.4000045
 177831339, 0.003786071, 0.01251104, 2.756815E-05, 0.02604563, -0.02717902, 0.400006, -0.02342717, -0.01573192, -6.973518E-05, 0.0254949, -0.02781769, 0.4000039
 178031259, 0.01382435, -0.002934902, 2.120601E-05, 0.02629031, -0.02750742, 0.4000058, 0.003786071, 0.01251104, 2.756815E-05, 0.02604563, -0.02717902, 0.400006
 178231179, 0.00498199, -0.005308343, 6.882492E-07, 0.02608109, -0.02755925, 0.4000052, 0.01382435, -0.002934902, 2.120601E-05, 0.02629031, -0.02750742, 0.4000058
 178431099, 0.02202844, -0.008757675, 2.671059E-05, 0.02651306, -0.02764, 0.4000057, 0.00498199, -0.005308343, 6.882492E-07, 0.02608109, -0.02755925, 0.4000052
 178631019, 0.00854391, 0.02432848, 5.516492E-05, 0.02617183, -0.02695467, 0.400006, 0.02202844, -0.008757675, 2.671059E-05, 0.02651306, -0.02764, 0.4000057
 178830939, 0.02051354, -0.001748078, 3.499701E-05, 0.02647749, -0.02747287, 0.4000058, 0.00854391, 0.02432848, 5.516492E-05, 0.02617183, -0.02695467, 0.400006
 179030859, -0.01814208, -0.0172891, -6.108421E-05, 0.02560665, -0.02784699, 0.4000037, 0.02051354, -0.001748078, 3.499701E-05, 0.02647749, -0.02747287, 0.4000058
 179230779, -0.02041937, -0.01060148, -5.439814E-05, 0.02556676, -0.02767608, 0.4000039, -0.01814208, -0.0172891, -6.108421E-05, 0.02560665, -0.02784699, 0.4000037
 179430699, 0.01784166, 0.008079561, 4.552562E-05, 0.02641271, -0.02725426, 0.400006, -0.02041937, -0.01060148, -5.439814E-05, 0.02556676, -0.02767608, 0.4000039
 179631452, 0.01045272, 0.0075405, 3.115219E-05, 0.02622772, -0.02726753, 0.4000054, 0.01784166, 0.008079561, 4.552562E-05, 0.02641271, -0.02725426, 0.400006
 179831372, 0.02269745, 0.0140113, 6.392396E-05, 0.02654271, -0.02713933, 0.4000061, 0.01045272, 0.0075405, 3.115219E-05, 0.02622772, -0.02726753, 0.4000054
 180031292, 0.01598609, 0.01202995, 4.846518E-05, 0.02636796, -0.0271797, 0.4000055, 0.02269745, 0.0140113, 6.392396E-05, 0.02654271, -0.02713933, 0.4000061
 180231212, -0.007519418, 0.02424382, 2.565323E-05, 0.02582427, -0.02695805, 0.4000044, 0.01598609, 0.01202995, 4.846518E-05, 0.02636796, -0.0271797, 0.4000055
 180431132, 0.008596705, -0.01194246, -3.824602E-06, 0.02618353, -0.02772381, 0.4000037, -0.007519418, 0.02424382, 2.565323E-05, 0.02582427, -0.02695805, 0.4000044
 180631052, -0.0252053, -0.0240261, -8.514938E-05, 0.02548623, -0.02803704, 0.4000021, 0.008596705, -0.01194246, -3.824602E-06, 0.02618353, -0.02772381, 0.4000037
 180830972, -0.0238372, -0.008263854, -5.690597E-05, 0.02551058, -0.02763075, 0.4000029, -0.0252053, -0.0240261, -8.514938E-05, 0.02548623, -0.02803704, 0.4000021
 181030892, -0.01870027, -0.007591437, -4.639362E-05, 0.02560427, -0.02761555, 0.4000029, -0.0238372, -0.008263854, -5.690597E-05, 0.02551058, -0.02763075, 0.4000029
 181230812, -0.01831342, 0.01183497, -1.394243E-05, 0.02561303, -0.02719313, 0.4000033, -0.01870027, -0.007591437, -4.639362E-05, 0.02560427, -0.02761555, 0.4000029
 181430732, 0.02134213, -0.007380984, 2.673556E-05, 0.0265091, -0.02761528, 0.4000041, -0.01831342, 0.01183497, -1.394243E-05, 0.02561303, -0.02719313, 0.4000033
 181631485, 0.003692244, 0.01250148, 2.725525E-05, 0.02606855, -0.02718327, 0.4000041, 0.02134213, -0.007380984, 2.673556E-05, 0.0265091, -0.02761528, 0.4000041
 181831405, -0.02000303, -0.001901439, -3.968862E-05, 0.02557784, -0.02749082, 0.4000027, 0.003692244, 0.01250148, 2.725525E-05, 0.02606855, -0.02718327, 0.4000041
 182031325, -0.02077282, 0.00302976, -3.309204E-05, 0.02556144, -0.02738324, 0.4000029, -0.02000303, -0.001901439, -3.968862E-05, 0.02557784, -0.02749082, 0.4000027
 182231245, 0.02051961, 0.02462107, 7.858747E-05, 0.02648033, -0.0269668, 0.4000051, -0.02077282, 0.00302976, -3.309204E-05, 0.02556144, -0.02738324, 0.4000029
 182431165, -0.004357125, -0.0102869, -2.520686E-05, 0.02588254, -0.02769754, 0.4000026, 0.02051961, 0.02462107, 7.858747E-05, 0.02648033, -0.0269668, 0.4000051
 182631085, -0.01266384, -0.01356304, -4.606788E-05, 0.02571028, -0.02777998, 0.4000022, -0.004357125, -0.0102869, -2.520686E-05, 0.02588254, -0.02769754, 0.4000026
 182831005, 0.02526908, -0.009944225, 3.013564E-05, 0.02660313, -0.02769155, 0.4000041, -0.01266384, -0.01356304, -4.606788E-05, 0.02571028, -0.02777998, 0.4000022
 183030925, -0.004869378, -0.01014069, -2.618239E-05, 0.02586631, -0.02770183, 0.4000024, 0.02526908, -0.009944225, 3.013564E-05, 0.02660313, -0.02769155, 0.4000041
 183230845, -0.01816734, -0.002830727, -3.844963E-05, 0.02560203, -0.02752938, 0.4000021, -0.004869378, -0.01014069, -2.618239E-05, 0.02586631, -0.02770183, 0.4000024
 183430765, 0.007357793, -0.02348815, -2.595176E-05, 0.02614589, -0.02804297, 0.4000023, -0.01816734, -0.002830727, -3.844963E-05, 0.02560203, -0.02752938, 0.4000021
 183630685, 0.01604983, 0.01683202, 5.769146E-05, 0.02636612, -0.02711564, 0.4000039, 0.007357793, -0.02348815, -2.595176E-05, 0.02614589, -0.02804297, 0.4000023
 183831438, 0.008768342, 0.00843448, 3.015614E-05, 0.02618711, -0.02727968, 0.4000032, 0.01604983, 0.01683202, 5.769146E-05, 0.02636612, -0.02711564, 0.4000039
 184031358, -0.01308968, -0.01281847, -4.523763E-05, 0.02571074, -0.02776039, 0.4000017, 0.008768342, 0.00843448, 3.015614E-05, 0.02618711, -0.02727968, 0.4000032
 184231278, -0.01863849, -0.01329896, -5.600598E-05, 0.02560706, -0.02777158, 0.4000014, -0.01308968, -0.01281847, -4.523763E-05, 0.02571074, -0.02776039, 0.4000017
 184431198, -0.02237403, -0.023418, -7.962253E-05, 0.02554031, -0.02803645, 0.4000007, -0.01863849, -0.01329896, -5.600598E-05, 0.02560706, -0.02777158, 0.4000014
 184631118, 0.005918439, 0.02213812, 4.777007E-05, 0.02612345, -0.02701587, 0.4000034, -0.02237403, -0.023418, -7.962253E-05, 0.02554031, -0.02803645, 0.4000007
 184831038, 0.0001461267, -0.02476751, -4.133054E-05, 0.02599209, -0.02807774, 0.4000011, 0.005918439, 0.02213812, 4.777007E-05, 0.02612345, -0.02701587, 0.4000034
 185030958, -0.005459667, -0.02110847, -4.529285E-05, 0.02587126, -0.02797846, 0.400001, 0.0001461267, -0.02476751, -4.133054E-05, 0.02599209, -0.02807774, 0.4000011
 185230878, -0.003674946, -0.01242918, -2.744802E-05, 0.02590746, -0.02775256, 0.4000017, -0.005459667, -0.02110847, -4.529285E-05, 0.02587126, -0.02797846, 0.400001
 185430798, -0.002503593, -0.00345557, -1.032322E-05, 0.02593189, -0.0275379, 0.4000022, -0.003674946, -0.01242918, -2.744802E-05, 0.02590746, -0.02775256, 0.4000017
 185630718, 0.01539119, -0.01331528, 5.640944E-06, 0.02635368, -0.0277764, 0.4000025, -0.002503593, -0.00345557, -1.032322E-05, 0.02593189, -0.0275379, 0.4000022
 185831471, 0.01519144, -0.005185854, 1.895689E-05, 0.02634673, -0.02758121, 0.4000028, 0.01539119, -0.01331528, 5.640944E-06, 0.02635368, -0.0277764, 0.4000025
 186031391, 0.0004844291, -0.01775136, -2.89974E-05, 0.02599511, -0.02789224, 0.4000016, 0.01519144, -0.005185854, 1.895689E-05, 0.02634673, -0.02758121, 0.4000028
 186231311, -0.01617299, 0.01801068, 8.77475E-07, 0.02565145, -0.02709472, 0.4000023, 0.0004844291, -0.01775136, -2.89974E-05, 0.02599511, -0.02789224, 0.4000016
 186431231, 0.0131225, -0.02019296, -1.010745E-05, 0.0262953, -0.02795618, 0.400002, -0.01617299, 0.01801068, 8.77475E-07, 0.02565145, -0.02709472, 0.4000023
 186631151, -0.01734921, -0.006422054, -4.253215E-05, 0.02562661, -0.02761493, 0.4000012, 0.0131225, -0.02019296, -1.010745E-05, 0.0262953, -0.02795618, 0.400002
 186831071, -0.02384116, 0.01277458, -2.195344E-05, 0.02550808, -0.02719978, 0.4000018, -0.01734921, -0.006422054, -4.253215E-05, 0.02562661, -0.02761493, 0.4000012
 187030991, -0.004388215, 0.01217177, 1.251259E-05, 0.02588473, -0.02720923, 0.4000027, -0.02384116, 0.01277458, -2.195344E-05, 0.02550808, -0.02719978, 0.4000018
 187230911, -0.005864386, 0.001927048, -7.490609E-06, 0.02585379, -0.02741979, 0.4000024, -0.004388215, 0.01217177, 1.251259E-05, 0.02588473, -0.02720923, 0.4000027
 187430831, -0.0129325, -0.0005519526, -2.47131E-05, 0.02570583, -0.0274708, 0.4000026, -0.005864386, 0.001927048, -7.490609E-06, 0.02585379, -0.02741979, 0.4000024
 187630751, -0.01613264, 0.007777857, -1.689146E-05, 0.02563969, -0.02728964, 0.4000032, -0.0129325, -0.0005519526, -2.47131E-05, 0.02570583, -0.0274708, 0.4000026
 187830671, 0.01356568, 0.0151782, 5.054635E-05, 0.02629136, -0.02714289, 0.4000048, -0.01613264, 0.007777857, -1.689146E-05, 0.02563969, -0.02728964, 0.4000032
 188031424, -0.01071975, -0.000352219, -2.060476E-05, 0.02573922, -0.02746867, 0.4000033, 0.01356568, 0.0151782, 5.054635E-05, 0.02629136, -0.02714289, 0.4000048
 188231344, -0.007319467, -0.01944337, -4.637832E-05, 0.02580781, -0.02793512, 0.4000025, -0.01071975, -0.000352219, -2.060476E-05, 0.02573922, -0.02746867, 0.4000033
 188431264, 0.01305593, 0.006592788, 3.547552E-05, 0.02627528, -0.02732054, 0.4000043, -0.007319467, -0.01944337, -4.637832E-05, 0.02580781, -0.02793512, 0.4000025
 188631184, -0.01371754, 0.01727788, 3.57273E-06, 0.02568266, -0.02710856, 0.4000034, 0.01305593, 0.006592788, 3.547552E-05, 0.02627528, -0.02732054, 0.4000043
 188831104, 0.011769, 0.01062116, 3.958793E-05, 0.026249, -0.02723515, 0.4000042, -0.01371754, 0.01727788, 3.57273E-06, 0.02568266, -0.02710856, 0.4000034
 189031024, 0.002759983, -0.01925951, -2.70074E-05, 0.02603807, -0.02792484, 0.4000026, 0.011769, 0.01062116, 3.958793E-05, 0.026249, -0.02723515, 0.4000042
 189230944, 0.02324424, -0.009722589, 2.654849E-05, 0.02655288, -0.02767985, 0.4000041, 0.002759983, -0.01925951, -2.70074E-05, 0.02603807, -0.02792484, 0.4000026
 189430864, 0.02515892, -0.004891764, 3.799463E-05, 0.02660683, -0.02756143, 0.4000045, 0.02324424, -0.009722589, 2.654849E-05, 0.02655288, -0.02767985, 0.4000041
 189630784, 0.01368832, 0.01133304, 4.360788E-05, 0.02630647, -0.02720824, 0.4000045, 0.02515892, -0.004891764, 3.799463E-05, 0.02660683, -0.02756143, 0.4000045
 189830704, 0.003841944, -0.02485697, -3.370756E-05, 0.02606801, -0.02806468, 0.4000028, 0.01368832, 0.01133304, 4.360788E-05, 0.02630647, -0.02720824, 0.4000045
 190031457, 0.002440845, 0.02298789, 4.206218E-05, 0.02603252, -0.02698647, 0.4000049, 0.003841944, -0.02485697, -3.370756E-05, 0.02606801, -0.02806468, 0.4000028
 190231377, -0.01032464, -0.01265136, -3.958819E-05, 0.02575703, -0.02774106, 0.4000034, 0.002440845, 0.02298789, 4.206218E-05, 0.02603252, -0.02698647, 0.4000049
 190431297, -0.02483172, -0.002405246, -4.946994E-05, 0.02548747, -0.02749389, 0.4000034, -0.01032464, -0.01265136, -3.958819E-05, 0.02575703, -0.02774106, 0.4000034
 190631217, 0.003322532, -0.01727386, -2.194206E-05, 0.02605396, -0.0278563, 0.4000037, -0.02483172, -0.002405246, -4.946994E-05, 0.02548747, -0.02749389, 0.4000034
 190831137, -0.0228146, 0.009089037, -2.70824E-05, 0.02552283, -0.02724726, 0.4000037, 0.003322532, -0.01727386, -2.194206E-05, 0.02605396, -0.0278563, 0.4000037
 191031057, -0.01506626, -0.001124368, -2.949683E-05, 0.02566482, -0.02746631, 0.4000037, -0.0228146, 0.009089037, -2.70824E-05, 0.02552283, -0.02724726, 0.4000037
 191230977, 0.01045095, 0.01073853, 3.66914E-05, 0.02622068, -0.0272139, 0.4000051, -0.01506626, -0.001124368, -2.949683E-05, 0.02566482, -0.02746631, 0.4000037
 191430897, 0.008742124, 0.007757506, 2.87965E-05, 0.02617817, -0.02727849, 0.4000048, 0.01045095, 0.01073853, 3.66914E-05, 0.02622068, -0.0272139, 0.4000051
 191630817, 0.01414456, -0.01079252, 8.306264E-06, 0.0263125, -0.02770028, 0.4000041, 0.008742124, 0.007757506, 2.87965E-05, 0.02617817, -0.02727849, 0.4000048
 191830737, 0.02000616, 0.01971428, 6.923763E-05, 0.02646175, -0.02704708, 0.4000057, 0.01414456, -0.01079252, 8.306264E-06, 0.0263125, -0.02770028, 0.4000041
 192030657, 0.01976479, -0.01368016, 1.420535E-05, 0.02645255, -0.0277706, 0.4000047, 0.02000616, 0.01971428, 6.923763E-05, 0.02646175, -0.02704708, 0.4000057
 192231410, -0.01733297, -0.007372314, -4.423691E-05, 0.02561531, -0.0276177, 0.4000033, 0.01976479, -0.01368016, 1.420535E-05, 0.02645255, -0.0277706, 0.4000047
 192431330, 0.01743955, -0.02263361, -4.88622E-06, 0.02639257, -0.02800518, 0.4000041, -0.01733297, -0.007372314, -4.423691E-05, 0.02561531, -0.0276177, 0.4000033
 192631250, 0.01639812, -0.01947998, -1.59955E-06, 0.02636442, -0.02792143, 0.4000042, 0.01743955, -0.02263361, -4.88622E-06, 0.02639257, -0.02800518, 0.4000041
 192831170, -0.01797342, -0.02360472, -7.221309E-05, 0.02560173, -0.02803237, 0.4000027, 0.01639812, -0.01947998, -1.59955E-06, 0.02636442, -0.02792143, 0.4000042
 193031090, -0.002765702, -0.01555599, -3.069837E-05, 0.02590806, -0.02781918, 0.4000037, -0.01797342, -0.02360472, -7.221309E-05, 0.02560173, -0.02803237, 0.4000027
 193231010, 0.01014378, -0.0176496, -1.005068E-05, 0.02620326, -0.02787277, 0.4000043, -0.002765702, -0.01555599, -3.069837E-05, 0.02590806, -0.02781918, 0.4000037
 193430930, -0.003800348, 0.0213832, 2.804685E-05, 0.02588049, -0.02701767, 0.4000053, 0.01014378, -0.0176496, -1.005068E-05, 0.02620326, -0.02787277, 0.4000043
 193630850, -0.01218714, 0.01864863, 7.803323E-06, 0.02570833, -0.02706606, 0.4000049, -0.003800348, 0.0213832, 2.804685E-05, 0.02588049, -0.02701767, 0.4000053
 193830770, 0.01173046, -0.004195801, 1.496285E-05, 0.02624501, -0.02753895, 0.400005, -0.01218714, 0.01864863, 7.803323E-06, 0.02570833, -0.02706606, 0.4000049
 194030690, 0.005166716, 0.01630681, 3.612221E-05, 0.02609024, -0.02710519, 0.4000054, 0.01173046, -0.004195801, 1.496285E-05, 0.02624501, -0.02753895, 0.400005
 194231443, -0.01448376, 0.01070753, -9.389731E-06, 0.02567233, -0.02721213, 0.4000045, 0.005166716, 0.01630681, 3.612221E-05, 0.02609024, -0.02710519, 0.4000054
 194431363, 0.001139225, 0.02051528, 3.517028E-05, 0.02600155, -0.02702098, 0.4000055, -0.01448376, 0.01070753, -9.389731E-06, 0.02567233, -0.02721213, 0.4000045
 194631283, -0.001213391, -0.01487497, -2.610675E-05, 0.0259522, -0.02778744, 0.4000041, 0.001139225, 0.02051528, 3.517028E-05, 0.02600155, -0.02702098, 0.4000055
 194831203, -0.01817663, -0.02488314, -7.301923E-05, 0.02560778, -0.02804824, 0.4000033, -0.001213391, -0.01487497, -2.610675E-05, 0.0259522, -0.02778744, 0.4000041
 195031123, -0.02276927, 0.02471656, -2.630528E-06, 0.02552251, -0.026937, 0.4000053, -0.01817663, -0.02488314, -7.301923E-05, 0.02560778, -0.02804824, 0.4000033
 195231043, 0.01399134, -0.01837083, -3.216939E-06, 0.02630466, -0.02786897, 0.4000057, -0.02276927, 0.02471656, -2.630528E-06, 0.02552251, -0.026937, 0.4000053
 195430963, 0.02306284, 0.02275198, 7.887589E-05, 0.02653843, -0.02696983, 0.4000078, 0.01399134, -0.01837083, -3.216939E-06, 0.02630466, -0.02786897, 0.4000057
 195630883, 0.02264708, 0.01347205, 6.337189E-05, 0.02652741, -0.02714114, 0.4000076, 0.02306284, 0.02275198, 7.887589E-05, 0.02653843, -0.02696983, 0.4000078
 195830803, -0.005712274, -0.02458272, -4.932229E-05, 0.0258423, -0.02803057, 0.4000053, 0.02264708, 0.01347205, 6.337189E-05, 0.02652741, -0.02714114, 0.4000076
 196030723, 0.005154308, -0.01094684, -7.452738E-06, 0.02608156, -0.02767187, 0.4000068, -0.005712274, -0.02458272, -4.932229E-05, 0.0258423, -0.02803057, 0.4000053
 196231476, 0.01303201, -0.01030706, 8.252662E-06, 0.02627393, -0.02765553, 0.4000071, 0.005154308, -0.01094684, -7.452738E-06, 0.02608156, -0.02767187, 0.4000068
 196431396, -0.005030674, -0.01208979, -2.826127E-05, 0.02585904, -0.02770043, 0.4000059, 0.01303201, -0.01030706, 8.252662E-06, 0.02627393, -0.02765553, 0.4000071
 196631316, -0.0007870514, 0.01771595, 2.625894E-05, 0.025952, -0.02705323, 0.400007, -0.005030674, -0.01208979, -2.826127E-05, 0.02585904, -0.02770043, 0.4000059
 196831236, 0.01382098, -0.009368198, 1.116175E-05, 0.02629272, -0.02763559, 0.400007, -0.0007870514, 0.01771595, 2.625894E-05, 0.025952, -0.02705323, 0.400007
 197031156, 0.02261154, -0.00806545, 2.984636E-05, 0.0265181, -0.02760574, 0.4000077, 0.01382098, -0.009368198, 1.116175E-05, 0.02629272, -0.02763559, 0.400007
 197231076, -0.01047011, -0.01144526, -3.77999E-05, 0.02573797, -0.02769067, 0.4000059, 0.02261154, -0.00806545, 2.984636E-05, 0.0265181, -0.02760574, 0.4000077
 197430996, -0.02214549, 0.01611476, -1.617453E-05, 0.02551582, -0.02709187, 0.4000063, -0.01047011, -0.01144526, -3.77999E-05, 0.02573797, -0.02769067, 0.4000059
 197630916, 0.004536418, -0.01086836, -8.814621E-06, 0.02606441, -0.02768255, 0.400006, -0.02214549, 0.01611476, -1.617453E-05, 0.02551582, -0.02709187, 0.4000063
 197830836, -0.006783534, -0.009343766, -2.774318E-05, 0.02581603, -0.02764895, 0.4000053, 0.004536418, -0.01086836, -8.814621E-06, 0.02606441, -0.02768255, 0.400006
 198030756, -0.01414913, -0.006630367, -3.731195E-05, 0.02566624, -0.02758609, 0.4000051, -0.006783534, -0.009343766, -2.774318E-05, 0.02581603, -0.02764895, 0.4000053
 198230676, -0.01404767, 0.007768593, -1.400697E-05, 0.02566558, -0.02726699, 0.4000057, -0.01414913, -0.006630367, -3.731195E-05, 0.02566624, -0.02758609, 0.4000051
 198431429, 0.006963532, -0.01598729, -1.271915E-05, 0.02611922, -0.02781899, 0.4000055, -0.01404767, 0.007768593, -1.400697E-05, 0.02566558, -0.02726699, 0.4000057
 198631349, 0.02235784, 0.002317953, 4.580469E-05, 0.02651317, -0.02739068, 0.4000063, 0.006963532, -0.01598729, -1.271915E-05, 0.02611922, -0.02781899, 0.4000055
 198831269, 0.008138929, 0.00698557, 2.662835E-05, 0.026155, -0.02729124, 0.4000055, 0.02235784, 0.002317953, 4.580469E-05, 0.02651317, -0.02739068, 0.4000063
 199031189, -0.01709114, 0.0220686, 3.978857E-06, 0.02561834, -0.02699552, 0.4000051, 0.008138929, 0.00698557, 2.662835E-05, 0.026155, -0.02729124, 0.4000055
 199231109, -0.02299241, 0.01516455, -1.828055E-05, 0.02551235, -0.0271193, 0.4000049, -0.01709114, 0.0220686, 3.978857E-06, 0.02561834, -0.02699552, 0.4000051
 199431029, -0.005174753, 0.0114972, 8.796751E-06, 0.0258576, -0.02718698, 0.4000057, -0.02299241, 0.01516455, -1.828055E-05, 0.02551235, -0.0271193, 0.4000049
 199630949, 0.0207851, -0.009656413, 2.322401E-05, 0.02647812, -0.02765403, 0.4000062, -0.005174753, 0.0114972, 8.796751E-06, 0.0258576, -0.02718698, 0.4000057
 199830869, -0.01522065, -0.003129303, -3.341178E-05, 0.02565145, -0.02749839, 0.4000052, 0.0207851, -0.009656413, 2.322401E-05, 0.02647812, -0.02765403, 0.4000062
 200030789, -0.0215705, 0.01333244, -1.910737E-05, 0.02553274, -0.02714691, 0.4000057, -0.01522065, -0.003129303, -3.341178E-05, 0.02565145, -0.02749839, 0.4000052
 200230709, -0.01722711, 0.01821385, -3.290555E-06, 0.02561306, -0.02705143, 0.4000061, -0.0215705, 0.01333244, -1.910737E-05, 0.02553274, -0.02714691, 0.4000057
 200431462, -0.024557, 0.007548512, -3.390482E-05, 0.02548142, -0.02725953, 0.4000056, -0.01722711, 0.01821385, -3.290555E-06, 0.02561306, -0.02705143, 0.4000061
 200631382, 0.00750185, -0.01375913, -7.855615E-06, 0.02614304, -0.02774966, 0.4000058, -0.024557, 0.007548512, -3.390482E-05, 0.02548142, -0.02725953, 0.4000056
 200831302, -0.02457494, -0.002228803, -4.92353E-05, 0.02548364, -0.02747053, 0.4000053, 0.00750185, -0.01375913, -7.855615E-06, 0.02614304, -0.02774966, 0.4000058
 201031222, -0.01915337, 0.003695327, -2.996283E-05, 0.0255777, -0.02733544, 0.4000061, -0.02457494, -0.002228803, -4.92353E-05, 0.02548364, -0.02747053, 0.4000053
 201231142, -0.005117025, 0.02446864, 2.855818E-05, 0.02585285, -0.02692845, 0.4000076, -0.01915337, 0.003695327, -2.996283E-05, 0.0255777, -0.02733544, 0.4000061
 201431062, 0.02157428, 0.02111195, 7.343449E-05, 0.02648932, -0.02698494, 0.4000092, -0.005117025, 0.02446864, 2.855818E-05, 0.02585285, -0.02692845, 0.4000076
 201630982, -0.0189506, -0.01954699, -6.617712E-05, 0.02557283, -0.02788622, 0.4000061, 0.02157428, 0.02111195, 7.343449E-05, 0.02648932, -0.02698494, 0.4000092
 201830902, -0.01361102, -0.0227309, -6.11834E-05, 0.02567266, -0.02797258, 0.4000062, -0.0189506, -0.01954699, -6.617712E-05, 0.02557283, -0.02788622, 0.4000061
 202030822, -0.01694254, -0.02314051, -6.823946E-05, 0.02560645, -0.02798364, 0.4000062, -0.01361102, -0.0227309, -6.11834E-05, 0.02567266, -0.02797258, 0.4000062
 202230742, -0.02545991, 0.02285239, -1.270974E-05, 0.02545302, -0.02695715, 0.4000075, -0.01694254, -0.02314051, -6.823946E-05, 0.02560645, -0.02798364, 0.4000062
 202430662, 0.01462277, 0.01022974, 4.393252E-05, 0.02630204, -0.02720077, 0.4000084, -0.02545991, 0.02285239, -1.270974E-05, 0.02545302, -0.02695715, 0.4000075
 202631415, 0.01396081, -0.007428417, 1.48645E-05, 0.02628329, -0.02759367, 0.4000076, 0.01462277, 0.01022974, 4.393252E-05, 0.02630204, -0.02720077, 0.4000084
 202831335, 0.01279258, 0.02126711, 5.814754E-05, 0.02625403, -0.02699462, 0.4000085, 0.01396081, -0.007428417, 1.48645E-05, 0.02628329, -0.02759367, 0.4000076
 203031255, -0.0176532, -0.01184829, -5.249833E-05, 0.02559107, -0.02770278, 0.4000059, 0.01279258, 0.02126711, 5.814754E-05, 0.02625403, -0.02699462, 0.4000085
 203231175, -0.02084349, 0.01434272, -1.669938E-05, 0.02553398, -0.02712957, 0.4000064, -0.0176532, -0.01184829, -5.249833E-05, 0.02559107, -0.02770278, 0.4000059
 203431095, 0.01525582, 0.02545181, 7.001047E-05, 0.02631854, -0.02693024, 0.400008, -0.02084349, 0.01434272, -1.669938E-05, 0.02553398, -0.02712957, 0.4000064
 203631015, -0.005919766, 0.02398226, 2.733679E-05, 0.02582425, -0.02695565, 0.4000071, 0.01525582, 0.02545181, 7.001047E-05, 0.02631854, -0.02693024, 0.400008
 203830935, -0.0197524, 0.0244506, 1.863758E-06, 0.02555136, -0.02695097, 0.4000064, -0.005919766, 0.02398226, 2.733679E-05, 0.02582425, -0.02695565, 0.4000071
 204030855, -0.02295566, -0.01509292, -6.843769E-05, 0.0254935, -0.02779796, 0.4000048, -0.0197524, 0.0244506, 1.863758E-06, 0.02555136, -0.02695097, 0.4000064
 204230775, 0.005156211, 0.00246995, 1.383769E-05, 0.02607069, -0.02738065, 0.4000066, -0.02295566, -0.01509292, -6.843769E-05, 0.0254935, -0.02779796, 0.4000048
 204430695, 0.0001695132, 0.0209238, 3.401859E-05, 0.02596066, -0.02700975, 0.400007, 0.005156211, 0.00246995, 1.383769E-05, 0.02607069, -0.02738065, 0.4000066
 204631448, 0.01225947, 0.009804106, 3.88527E-05, 0.02624986, -0.02722001, 0.4000071, 0.0001695132, 0.0209238, 3.401859E-05, 0.02596066, -0.02700975, 0.400007
 204831368, -0.01009648, -0.00602963, -2.860263E-05, 0.02574909, -0.02756431, 0.4000056, 0.01225947, 0.009804106, 3.88527E-05, 0.02624986, -0.02722001, 0.4000071
 205031288, -0.01600964, -0.005271762, -3.834186E-05, 0.0256371, -0.02754683, 0.4000052, -0.01009648, -0.00602963, -2.860263E-05, 0.02574909, -0.02756431, 0.4000056
 205231208, -0.01035637, 0.002301249, -1.558771E-05, 0.02575097, -0.02737807, 0.4000053, -0.01600964, -0.005271762, -3.834186E-05, 0.0256371, -0.02754683, 0.4000052
 205431128, 0.02518388, -0.02397074, 8.37231E-06, 0.02660019, -0.02802221, 0.4000057, -0.01035637, 0.002301249, -1.558771E-05, 0.02575097, -0.02737807, 0.4000053
 205631048, -0.02405318, 0.01326137, -2.341687E-05, 0.02549719, -0.02714817, 0.4000051, 0.02518388, -0.02397074, 8.37231E-06, 0.02660019, -0.02802221, 0.4000057
 205830968, -0.01938155, 0.0002974221, -3.540659E-05, 0.02558121, -0.02741809, 0.4000049, -0.02405318, 0.01326137, -2.341687E-05, 0.02549719, -0.02714817, 0.4000051
 206030888, -0.0148962, 0.005183795, -1.929184E-05, 0.02566605, -0.02731252, 0.4000051, -0.01938155, 0.0002974221, -3.540659E-05, 0.02558121, -0.02741809, 0.4000049
 206230808, 0.02203608, -0.01092454, 2.334619E-05, 0.02651747, -0.027681, 0.4000061, -0.0148962, 0.005183795, -1.929184E-05, 0.02566605, -0.02731252, 0.4000051
 206430728, 0.0105142, 0.01026919, 3.581111E-05, 0.02622197, -0.02720731, 0.4000063, 0.02203608, -0.01092454, 2.334619E-05, 0.02651747, -0.027681, 0.4000061
 206631481, -0.01497908, -0.01601725, -5.326082E-05, 0.02566661, -0.02781158, 0.400004, 0.0105142, 0.01026919, 3.581111E-05, 0.02622197, -0.02720731, 0.4000063
 206831401, 0.004918768, -0.0002864843, 8.639679E-06, 0.02608785, -0.02743519, 0.4000055, -0.01497908, -0.01601725, -5.326082E-05, 0.02566661, -0.02781158, 0.400004
 207031321, 0.01782282, 0.006706048, 4.384213E-05, 0.02640345, -0.02728421, 0.4000065, 0.004918768, -0.0002864843, 8.639679E-06, 0.02608785, -0.02743519, 0.4000055
 207231241, -0.006123149, -0.003909586, -1.763101E-05, 0.02584022, -0.02751673, 0.4000051, 0.01782282, 0.006706048, 4.384213E-05, 0.02640345, -0.02728421, 0.4000065
 207431161, 0.0206129, 0.01816908, 6.739239E-05, 0.02647616, -0.02705669, 0.4000071, -0.006123149, -0.003909586, -1.763101E-05, 0.02584022, -0.02751673, 0.4000051
 207631081, -0.0008397132, -0.001895247, -4.60598E-06, 0.02595328, -0.02747233, 0.4000053, 0.0206129, 0.01816908, 6.739239E-05, 0.02647616, -0.02705669, 0.4000071
 207831001, -0.01061719, 0.006538738, -9.254359E-06, 0.02574507, -0.02729042, 0.4000052, -0.0008397132, -0.001895247, -4.60598E-06, 0.02595328, -0.02747233, 0.4000053
 208030921, -0.00722056, -0.01155925, -3.215314E-05, 0.02581334, -0.02770453, 0.4000047, -0.01061719, 0.006538738, -9.254359E-06, 0.02574507, -0.02729042, 0.4000052
 208230841, 0.0009319467, 0.002866072, 6.386471E-06, 0.02598848, -0.02737159, 0.4000055, -0.00722056, -0.01155925, -3.215314E-05, 0.02581334, -0.02770453, 0.4000047
 208430761, 0.01129256, -0.007625749, 8.750191E-06, 0.02623218, -0.02761343, 0.4000054, 0.0009319467, 0.002866072, 6.386471E-06, 0.02598848, -0.02737159, 0.4000055
 208630681, 0.0230807, -0.01342776, 2.132469E-05, 0.02653739, -0.02775712, 0.4000056, 0.01129256, -0.007625749, 8.750191E-06, 0.02623218, -0.02761343, 0.4000054
 208831434, 0.01727319, -0.01116472, 1.414275E-05, 0.02638126, -0.02770443, 0.4000054, 0.0230807, -0.01342776, 2.132469E-05, 0.02653739, -0.02775712, 0.4000056
 209031354, -0.0123299, -0.003050587, -2.832204E-05, 0.02570174, -0.02751408, 0.4000045, 0.01727319, -0.01116472, 1.414275E-05, 0.02638126, -0.02770443, 0.4000054
 209231274, -0.01586467, 0.01564875, -4.332156E-06, 0.02563458, -0.02711637, 0.4000053, -0.0123299, -0.003050587, -2.832204E-05, 0.02570174, -0.02751408, 0.4000045
 209431194, 0.01029401, -0.002410518, 1.536608E-05, 0.02620816, -0.02748975, 0.4000057, -0.01586467, 0.01564875, -4.332156E-06, 0.02563458, -0.02711637, 0.4000053
 209631114, 0.00053039, 0.01972247, 3.284023E-05, 0.02598345, -0.02703274, 0.4000059, 0.01029401, -0.002410518, 1.536608E-05, 0.02620816, -0.02748975, 0.4000057
 209831034, 0.01208038, 0.01990954, 5.429209E-05, 0.02625929, -0.02702448, 0.4000066, 0.00053039, 0.01972247, 3.284023E-05, 0.02598345, -0.02703274, 0.4000059
 210030954, -0.0006652294, -0.02528312, -4.152137E-05, 0.02596194, -0.02805441, 0.4000044, 0.01208038, 0.01990954, 5.429209E-05, 0.02625929, -0.02702448, 0.4000066
 210230874, -0.01433979, 0.01855767, 3.03753E-06, 0.02567988, -0.02704384, 0.4000055, -0.0006652294, -0.02528312, -4.152137E-05, 0.02596194, -0.02805441, 0.4000044
 210430794, -0.01967863, -0.002168996, -3.959204E-05, 0.02558185, -0.02746842, 0.4000047, -0.01433979, 0.01855767, 3.03753E-06, 0.02567988, -0.02704384, 0.4000055
 210630714, -0.009478995, -0.01037841, -3.3717E-05, 0.02577899, -0.02765824, 0.400005, -0.01967863, -0.002168996, -3.959204E-05, 0.02558185, -0.02746842, 0.4000047
 210831467, -0.004186869, -0.01670438, -3.379442E-05, 0.02588955, -0.02781367, 0.4000052, -0.009478995, -0.01037841, -3.3717E-05, 0.02577899, -0.02765824, 0.400005
 211031387, -0.01156139, -0.02190185, -5.542418E-05, 0.02573882, -0.02795069, 0.4000046, -0.004186869, -0.01670438, -3.379442E-05, 0.02588955, -0.02781367, 0.4000052
 211231307, 0.001647321, 0.01830536, 3.169925E-05, 0.02602083, -0.02704006, 0.4000064, -0.01156139, -0.02190185, -5.542418E-05, 0.02573882, -0.02795069, 0.4000046
 211431227, 0.009682358, 0.007094112, 2.877937E-05, 0.02621118, -0.02725977, 0.4000064, 0.001647321, 0.01830536, 3.169925E-05, 0.02602083, -0.02704006, 0.4000064
 211631147, -0.004828715, 0.0122027, 1.027916E-05, 0.02588123, -0.02715577, 0.4000059, 0.009682358, 0.007094112, 2.877937E-05, 0.02621118, -0.02725977, 0.4000064
 211831067, 0.004012489, 0.01870215, 3.666729E-05, 0.02607792, -0.02703356, 0.4000063, -0.004828715, 0.0122027, 1.027916E-05, 0.02588123, -0.02715577, 0.4000059
 212030987, -0.01903916, 0.01600579, -9.5142E-06, 0.02559985, -0.02708563, 0.4000052, 0.004012489, 0.01870215, 3.666729E-05, 0.02607792, -0.02703356, 0.4000063
 212230907, -0.00388465, 0.01754449, 2.055689E-05, 0.02590135, -0.02705744, 0.4000058, -0.01903916, 0.01600579, -9.5142E-06, 0.02559985, -0.02708563, 0.4000052
 212430827, -0.006519427, -0.004849078, -1.95616E-05, 0.02584343, -0.02752705, 0.4000051, -0.00388465, 0.01754449, 2.055689E-05, 0.02590135, -0.02705744, 0.4000058
 212630747, 0.01481245, 0.001020053, 2.874235E-05, 0.02633684, -0.02739557, 0.4000062, -0.006519427, -0.004849078, -1.95616E-05, 0.02584343, -0.02752705, 0.4000051
 212830667, -0.02327263, -0.008603475, -5.644386E-05, 0.02551768, -0.02762105, 0.4000042, 0.01481245, 0.001020053, 2.874235E-05, 0.02633684, -0.02739557, 0.4000062
 213031420, -0.02145196, -0.006991423, -5.072621E-05, 0.0255469, -0.02758344, 0.4000045, -0.02327263, -0.008603475, -5.644386E-05, 0.02551768, -0.02762105, 0.4000042
 213231340, -0.01369649, -0.008804787, -3.942212E-05, 0.02568956, -0.02762895, 0.4000047, -0.02145196, -0.006991423, -5.072621E-05, 0.0255469, -0.02758344, 0.4000045
 213431260, 0.02500249, 0.0165769, 7.300128E-05, 0.02659592, -0.02708538, 0.4000072, -0.01369649, -0.008804787, -3.942212E-05, 0.02568956, -0.02762895, 0.4000047
 213631180, -0.01965389, 0.008319261, -2.319315E-05, 0.02557449, -0.02725008, 0.400005, 0.02500249, 0.0165769, 7.300128E-05, 0.02659592, -0.02708538, 0.4000072
 213831100, -0.01515293, 0.02108461, 5.839056E-06, 0.02565766, -0.02700759, 0.4000053, -0.01965389, 0.008319261, -2.319315E-05, 0.02557449, -0.02725008, 0.400005
 214031020, -0.004597359, 0.01119589, 9.620137E-06, 0.02587126, -0.02719878, 0.4000053, -0.01515293, 0.02108461, 5.839056E-06, 0.02565766, -0.02700759, 0.4000053
 214230940, 0.01407162, 0.02213319, 6.250668E-05, 0.02630302, -0.02699591, 0.4000063, -0.004597359, 0.01119589, 9.620137E-06, 0.02587126, -0.02719878, 0.4000053
 214430860, 0.001773922, -0.00999084, -1.301498E-05, 0.0260093, -0.02767264, 0.4000046, 0.01407162, 0.02213319, 6.250668E-05, 0.02630302, -0.02699591, 0.4000063
 214630780, -0.02533506, 0.02354939, -8.778403E-06, 0.02547562, -0.02696735, 0.4000047, 0.001773922, -0.00999084, -1.301498E-05, 0.0260093, -0.02767264, 0.4000046
 214830700, -0.00500696, -0.01366381, -3.143639E-05, 0.02586842, -0.02775945, 0.4000039, -0.02533506, 0.02354939, -8.778403E-06, 0.02547562, -0.02696735, 0.4000047
 215031453, 0.006841324, 0.01662541, 3.953015E-05, 0.02613706, -0.02709161, 0.4000055, -0.00500696, -0.01366381, -3.143639E-05, 0.02586842, -0.02775945, 0.4000039
 215231373, -0.01594686, -0.01312889, -5.044977E-05, 0.02564988, -0.02773878, 0.400004, 0.006841324, 0.01662541, 3.953015E-05, 0.02613706, -0.02709161, 0.4000055
 215431293, -0.0002712977, 0.01797887, 2.813641E-05, 0.02597395, -0.02705587, 0.4000059, -0.01594686, -0.01312889, -5.044977E-05, 0.02564988, -0.02773878, 0.400004
 215631213, 0.01366237, -0.006311107, 1.508041E-05, 0.02630617, -0.02756547, 0.4000058, -0.0002712977, 0.01797887, 2.813641E-05, 0.02597395, -0.02705587, 0.4000059
 215831133, 0.02482636, 0.00706835, 5.683456E-05, 0.02659778, -0.02726494, 0.4000072, 0.01366237, -0.006311107, 1.508041E-05, 0.02630617, -0.02756547, 0.4000058
 216031053, 0.002653922, -0.004405229, -2.03339E-06, 0.02603989, -0.02751525, 0.4000059, 0.02482636, 0.00706835, 5.683456E-05, 0.02659778, -0.02726494, 0.4000072
 216230973, -0.003844197, 0.02114972, 2.615573E-05, 0.02589922, -0.02698882, 0.4000063, 0.002653922, -0.004405229, -2.03339E-06, 0.02603989, -0.02751525, 0.4000059
 216430893, -0.02226491, -0.004239494, -4.725367E-05, 0.0255414, -0.02751132, 0.4000045, -0.003844197, 0.02114972, 2.615573E-05, 0.02589922, -0.02698882, 0.4000063
 216630813, 0.004541741, -0.001422449, 6.016118E-06, 0.02609305, -0.02744747, 0.4000054, -0.02226491, -0.004239494, -4.725367E-05, 0.0255414, -0.02751132, 0.4000045
 216830733, -0.02160504, 0.01596317, -1.411715E-05, 0.02555726, -0.02708474, 0.400005, 0.004541741, -0.001422449, 6.016118E-06, 0.02609305, -0.02744747, 0.4000054
 217031486, 0.01917071, -0.01834883, 6.116234E-06, 0.02645569, -0.02785629, 0.4000056, -0.02160504, 0.01596317, -1.411715E-05, 0.02555726, -0.02708474, 0.400005
 217231406, -0.0009060744, 0.01478306, 2.149577E-05, 0.02596816, -0.02710561, 0.400006, 0.01917071, -0.01834883, 6.116234E-06, 0.02645569, -0.02785629, 0.4000056
 217431326, -0.02062585, -0.01765672, -6.528279E-05, 0.02557204, -0.02784115, 0.400004, -0.0009060744, 0.01478306, 2.149577E-05, 0.02596816, -0.02710561, 0.400006
 217631246, 0.008002888, -0.01303728, -6.026966E-06, 0.02617201, -0.02772767, 0.400005, -0.02062585, -0.01765672, -6.528279E-05, 0.02557204, -0.02784115, 0.400004
 217831166, -0.01878558, -0.01089856, -5.194155E-05, 0.02559925, -0.02768163, 0.4000039, 0.008002888, -0.01303728, -6.026966E-06, 0.02617201, -0.02772767, 0.400005
 218031086, -0.005413876, 0.001380378, -7.769605E-06, 0.02586077, -0.02740013, 0.4000048, -0.01878558, -0.01089856, -5.194155E-05, 0.02559925, -0.02768163, 0.4000039
 218231006, -0.008715627, 0.01658162, 1.059076E-05, 0.02578919, -0.0270896, 0.4000053, -0.005413876, 0.001380378, -7.769605E-06, 0.02586077, -0.02740013, 0.4000048
 218430926, -0.004591192, -0.01273921, -2.921799E-05, 0.02587348, -0.0277365, 0.4000042, -0.008715627, 0.01658162, 1.059076E-05, 0.02578919, -0.0270896, 0.4000053
 218630846, -0.01340028, 0.01115941, -6.667291E-06, 0.02569194, -0.02720524, 0.4000045, -0.004591192, -0.01273921, -2.921799E-05, 0.02587348, -0.0277365, 0.4000042
 218830766, -0.0008409087, -0.00575125, -1.105024E-05, 0.02595157, -0.02757688, 0.4000042, -0.01340028, 0.01115941, -6.667291E-06, 0.02569194, -0.02720524, 0.4000045
 219030686, 0.003849035, 0.006366299, 1.77612E-05, 0.02605539, -0.02731083, 0.4000048, -0.0008409087, -0.00575125, -1.105024E-05, 0.02595157, -0.02757688, 0.4000042
 219231439, 0.01971717, -0.01730711, 8.26772E-06, 0.02644655, -0.02786704, 0.4000046, 0.003849035, 0.006366299, 1.77612E-05, 0.02605539, -0.02731083, 0.4000048
 219431359, 0.01536856, 0.004917036, 3.710519E-05, 0.02633182, -0.02734362, 0.4000053, 0.01971717, -0.01730711, 8.26772E-06, 0.02644655, -0.02786704, 0.4000046
 219631279, 0.02200919, 0.01317949, 6.322285E-05, 0.02650609, -0.02717238, 0.4000061, 0.01536856, 0.004917036, 3.710519E-05, 0.02633182, -0.02734362, 0.4000053
 219831199, 0.024726, -0.006733876, 3.516982E-05, 0.02658338, -0.02760037, 0.4000055, 0.02200919, 0.01317949, 6.322285E-05, 0.02650609, -0.02717238, 0.4000061
 220031119, 0.02465805, 0.01912659, 7.732576E-05, 0.0265862, -0.027056, 0.4000061, 0.024726, -0.006733876, 3.516982E-05, 0.02658338, -0.02760037, 0.4000055
 220231039, 0.01996631, -0.01645673, 9.843441E-06, 0.02646453, -0.02783854, 0.4000044, 0.02465805, 0.01912659, 7.732576E-05, 0.0265862, -0.027056, 0.4000061
 220430959, 0.01957427, -0.006647547, 2.514024E-05, 0.02645692, -0.02759357, 0.4000047, 0.01996631, -0.01645673, 9.843441E-06, 0.02646453, -0.02783854, 0.4000044
 220630879, 0.01835059, -0.01340558, 1.179678E-05, 0.02642771, -0.02775545, 0.4000044, 0.01957427, -0.006647547, 2.514024E-05, 0.02645692, -0.02759357, 0.4000047
 220830799, 0.007833941, 0.0124639, 3.455615E-05, 0.02616751, -0.0271752, 0.4000047, 0.01835059, -0.01340558, 1.179678E-05, 0.02642771, -0.02775545, 0.4000044
 221030719, -0.02026836, 0.0007345344, -3.562166E-05, 0.0255797, -0.02742112, 0.4000031, 0.007833941, 0.0124639, 3.455615E-05, 0.02616751, -0.0271752, 0.4000047
 221231472, -0.0132384, 0.02349926, 1.410973E-05, 0.02571469, -0.02696775, 0.400004, -0.02026836, 0.0007345344, -3.562166E-05, 0.0255797, -0.02742112, 0.4000031
 221431392, 0.0166768, 0.003156355, 3.518091E-05, 0.02639491, -0.02736307, 0.4000047, -0.0132384, 0.02349926, 1.410973E-05, 0.02571469, -0.02696775, 0.400004
 221631312, 0.01999829, 0.01365717, 5.806238E-05, 0.02648205, -0.02714665, 0.4000051, 0.0166768, 0.003156355, 3.518091E-05, 0.02639491, -0.02736307, 0.4000047
 221831232, 0.02342091, 0.01415467, 6.512967E-05, 0.02657295, -0.02713855, 0.4000053, 0.01999829, 0.01365717, 5.806238E-05, 0.02648205, -0.02714665, 0.4000051
 222031152, 0.01812728, 0.002668595, 3.700672E-05, 0.02643257, -0.02737478, 0.4000046, 0.02342091, 0.01415467, 6.512967E-05, 0.02657295, -0.02713855, 0.4000053
 222231072, -0.01066246, 0.02213825, 1.650787E-05, 0.02576997, -0.02698879, 0.400004, 0.01812728, 0.002668595, 3.700672E-05, 0.02643257, -0.02737478, 0.4000046
 222430992, -0.002895841, 0.02284803, -0.06961899, 0.02673699, -0.02779661, 0.4000044, -0.01066246, 0.02213825, 1.650787E-05, 0.02576997, -0.02698879, 0.400004
 222630912, 0.0001723678, -0.001057964, -0.1211237, 0.02879535, -0.02898324, 0.4000117, -0.002895841, 0.02284803, -0.06961899, 0.02673699, -0.02779661, 0.4000044
 222830832, 0.01455327, 0.0199112, -0.4891675, 0.03415141, -0.03022113, 0.4000124, 0.0001723678, -0.001057964, -0.1211237, 0.02879535, -0.02898324, 0.4000117
 223030752, 0.02153691, -0.03837239, -0.9054819, 0.04243918, -0.03785966, 0.4000211, 0.01455327, 0.0199112, -0.4891675, 0.03415141, -0.03022113, 0.4000124
 223230672, -0.03707767, 0.007648511, -1.206849, 0.05296767, -0.04821331, 0.4000265, 0.02153691, -0.03837239, -0.9054819, 0.04243918, -0.03785966, 0.4000211
 223431425, 0.03839934, -0.06558262, -1.51629, 0.06840835, -0.06381284, 0.4000257, -0.03707767, 0.007648511, -1.206849, 0.05296767, -0.04821331, 0.4000265
 223631345, 0.02931478, 0.01675222, -1.808979, 0.08584306, -0.08079464, 0.4000014, 0.03839934, -0.06558262, -1.51629, 0.06840835, -0.06381284, 0.4000257
 223831265, 0.0409526, 0.007531954, -2.112321, 0.1062592, -0.1015773, 0.3999549, 0.02931478, 0.01675222, -1.808979, 0.08584306, -0.08079464, 0.4000014
 224031185, 0.07368634, -0.04531952, -2.348014, 0.1295899, -0.1253688, 0.3998937, 0.0409526, 0.007531954, -2.112321, 0.1062592, -0.1015773, 0.3999549
 224231105, -0.07089318, 0.01821138, -2.504775, 0.1536778, -0.1502815, 0.3998623, 0.07368634, -0.04531952, -2.348014, 0.1295899, -0.1253688, 0.3998937
 224431025, 0.173689, -0.1595974, -2.70467, 0.1828637, -0.1791088, 0.3998342, -0.07089318, 0.01821138, -2.504775, 0.1536778, -0.1502815, 0.3998623
 224630945, 0.1785487, -0.2464468, -2.911853, 0.2118223, -0.2091874, 0.3998399, 0.173689, -0.1595974, -2.70467, 0.1828637, -0.1791088, 0.3998342
 224830865, 0.08482005, 0.1366744, -2.997595, 0.2413886, -0.2376026, 0.3998758, 0.1785487, -0.2464468, -2.911853, 0.2118223, -0.2091874, 0.3998399
 225030785, 0.1064906, -0.1279585, -3.15312, 0.2770194, -0.2692981, 0.9999167, 0.08482005, 0.1366744, -2.997595, 0.2413886, -0.2376026, 0.3998758
 225230705, 0.1551664, -0.04872688, -3.319247, 0.3109175, -0.3024453, 0.9998941, 0.1064906, -0.1279585, -3.15312, 0.2770194, -0.2692981, 0.9999167
 225431458, -0.06287148, -0.3362962, -3.389405, 0.3437329, -0.3397623, 0.9999466, 0.1551664, -0.04872688, -3.319247, 0.3109175, -0.3024453, 0.9998941
 225631378, -0.2698353, 0.06916206, -3.507378, 0.3785351, -0.3721196, 1.000022, -0.06287148, -0.3362962, -3.389405, 0.3437329, -0.3397623, 0.9999466
 225831298, -0.058767, -0.478164, -3.610541, 0.4158633, -0.4132914, 1.000139, -0.2698353, 0.06916206, -3.507378, 0.3785351, -0.3721196, 1.000022
 226031218, -0.08291604, -0.1768206, -3.584305, 0.4523984, -0.4469149, 1.000382, -0.058767, -0.478164, -3.610541, 0.4158633, -0.4132914, 1.000139
 226231138, 0.313266, -0.09589627, -3.483281, 0.4910155, -0.4826447, 1.000588, -0.08291604, -0.1768206, -3.584305, 0.4523984, -0.4469149, 1.000382
 226431058, 0.3469236, -0.3355508, -3.196442, 0.5246797, -0.5186452, 1.000797, 0.313266, -0.09589627, -3.483281, 0.4910155, -0.4826447, 1.000588
 226630978, 0.3755607, -0.2666219, -2.990642, 0.5598234, -0.5502365, 0.9985765, 0.3469236, -0.3355508, -3.196442, 0.5246797, -0.5186452, 1.000797
 226830898, -0.3683401, 0.3494525, -2.654878, 0.5935402, -0.5827613, 0.9895055, 0.3755607, -0.2666219, -2.990642, 0.5598234, -0.5502365, 0.9985765
 227030818, -0.2996839, -0.3688704, -2.41964, 0.610707, -0.6298534, 0.9837846, -0.3683401, 0.3494525, -2.654878, 0.5935402, -0.5827613, 0.9895055
 227230738, -0.1164408, 0.6116593, -2.126098, 0.5771982, -0.6878135, 0.9918378, -0.2996839, -0.3688704, -2.41964, 0.610707, -0.6298534, 0.9837846
 227430658, -0.06556214, 0.09377509, -1.901172, 0.5271689, -0.7516313, 1.000875, -0.1164408, 0.6116593, -2.126098, 0.5771982, -0.6878135, 0.9918378
 227631411, -0.2039549, 0.5926344, -1.733269, 0.5110397, -0.7750807, 1.014608, -0.06556214, 0.09377509, -1.901172, 0.5271689, -0.7516313, 1.000875
 227831331, 0.0897413, 0.9483679, -1.504077, 0.5298473, -0.7662481, 1.034626, -0.2039549, 0.5926344, -1.733269, 0.5110397, -0.7750807, 1.014608
 228031251, -0.6138857, 1.004856, -1.472725, 0.5590881, -0.7690056, 1.037535, 0.0897413, 0.9483679, -1.504077, 0.5298473, -0.7662481, 1.034626
 228231171, 0.08935575, 1.121675, -1.266324, 0.5655707, -0.789156, 1.038962, -0.6138857, 1.004856, -1.472725, 0.5590881, -0.7690056, 1.037535
 228431091, -0.4391608, 1.232191, -1.287785, 0.5581339, -0.8091094, 1.04644, 0.08935575, 1.121675, -1.266324, 0.5655707, -0.789156, 1.038962
 228631011, -0.6182984, 0.8105952, -1.282038, 0.6141797, -0.790574, 1.047065, -0.4391608, 1.232191, -1.287785, 0.5581339, -0.8091094, 1.04644
 228830931, -1.084035, 0.4942088, -1.414503, 0.7384587, -0.6672599, 1.071609, -0.6182984, 0.8105952, -1.282038, 0.6141797, -0.790574, 1.047065
 229030851, -1.078008, -0.5355099, -1.502856, 0.8607841, -0.4290158, 1.121007, -1.084035, 0.4942088, -1.414503, 0.7384587, -0.6672599, 1.071609
 229230771, -0.6779634, -0.7173144, -1.469574, 0.8974965, -0.09800139, 1.185187, -1.078008, -0.5355099, -1.502856, 0.8607841, -0.4290158, 1.121007
 229430691, 0.0327937, -1.94787, -1.548249, 0.82884, 0.2590483, 1.234432, -0.6779634, -0.7173144, -1.469574, 0.8974965, -0.09800139, 1.185187
 229631444, 0.9935474, -0.7117631, -1.294563, 0.6768663, 0.567646, 1.239453, 0.0327937, -1.94787, -1.548249, 0.82884, 0.2590483, 1.234432
 229831364, 2.671376, -1.214517, -1.014279, 0.5231569, 0.8087362, 1.215383, 0.9935474, -0.7117631, -1.294563, 0.6768663, 0.567646, 1.239453
 230031284, 2.699722, 1.306456, -0.9265585, 0.3537093, 0.968616, 1.188329, 2.671376, -1.214517, -1.014279, 0.5231569, 0.8087362, 1.215383
 230231204, 2.471384, 0.4720641, -1.090399, 0.1631132, 1.062582, 1.162467, 2.699722, 1.306456, -0.9265585, 0.3537093, 0.968616, 1.188329
 230431124, 2.548599, 2.530977, -1.02445, 0.03484973, 1.159739, 1.129363, 2.471384, 0.4720641, -1.090399, 0.1631132, 1.062582, 1.162467
 230631044, 1.189466, 2.06103, -1.508136, -0.03152612, 1.191507, 1.106778, 2.548599, 2.530977, -1.02445, 0.03484973, 1.159739, 1.129363
 230830964, 2.289783, 2.652264, -1.159976, 0.03930163, 1.212554, 1.13357, 1.189466, 2.06103, -1.508136, -0.03152612, 1.191507, 1.106778
 231030884, 3.086863, 1.43308, -1.19957, 0.1624949, 1.187857, 1.174448, 2.289783, 2.652264, -1.159976, 0.03930163, 1.212554, 1.13357
 231230804, 2.063375, 1.376259, -1.426139, 0.2676528, 1.14589, 1.216092, 3.086863, 1.43308, -1.19957, 0.1624949, 1.187857, 1.174448
 231430724, 3.722733, 1.603543, -0.9979599, 0.3814737, 1.130121, 1.258408, 2.063375, 1.376259, -1.426139, 0.2676528, 1.14589, 1.216092
 231631477, 3.6057, 0.7463887, -1.11114, 0.409987, 1.130502, 1.271402, 3.722733, 1.603543, -0.9979599, 0.3814737, 1.130121, 1.258408
 231831397, 3.652946, 1.602399, -0.9958675, 0.4101787, 1.184244, 1.262644, 3.6057, 0.7463887, -1.11114, 0.409987, 1.130502, 1.271402
 232031317, 2.964626, 1.638529, -1.118929, 0.3612617, 1.25203, 1.233569, 3.652946, 1.602399, -0.9958675, 0.4101787, 1.184244, 1.262644
 232231237, 2.549211, 0.800257, -1.253491, 0.3117175, 1.300057, 1.216833, 2.964626, 1.638529, -1.118929, 0.3612617, 1.25203, 1.233569
 232431157, 2.088697, 2.121969, -1.211708, 0.2875661, 1.3372, 1.22468, 2.549211, 0.800257, -1.253491, 0.3117175, 1.300057, 1.216833
 232631077, 3.253872, 1.341238, -1.107484, 0.2941446, 1.349469, 1.248249, 2.088697, 2.121969, -1.211708, 0.2875661, 1.3372, 1.22468
 232830997, 3.105434, 2.280082, -0.9555208, 0.2977108, 1.370704, 1.266618, 3.253872, 1.341238, -1.107484, 0.2941446, 1.349469, 1.248249
 233030917, 3.936642, 1.967452, -0.7693589, 0.3160934, 1.398937, 1.274397, 3.105434, 2.280082, -0.9555208, 0.2977108, 1.370704, 1.266618
 233230837, 2.467399, 1.646732, -1.131975, 0.2940783, 1.427117, 1.256121, 3.936642, 1.967452, -0.7693589, 0.3160934, 1.398937, 1.274397
 233430757, 3.806901, 2.454526, -0.75332, 0.3283706, 1.482847, 1.248169, 2.467399, 1.646732, -1.131975, 0.2940783, 1.427117, 1.256121
 233630677, 4.114769, 1.783203, -0.7402574, 0.3451434, 1.513273, 1.237826, 3.806901, 2.454526, -0.75332, 0.3283706, 1.482847, 1.248169
 233831430, 4.140606, 0.8519538, -0.8431371, 0.3641053, 1.524951, 1.244062, 4.114769, 1.783203, -0.7402574, 0.3451434, 1.513273, 1.237826
 234031350, 2.505626, 1.996743, -1.073142, 0.3761856, 1.532985, 1.253235, 4.140606, 0.8519538, -0.8431371, 0.3641053, 1.524951, 1.244062
 234231270, 3.686457, 0.664111, -0.8975998, 0.4148604, 1.55351, 1.254916, 2.505626, 1.996743, -1.073142, 0.3761856, 1.532985, 1.253235
 234431190, 4.707826, 0.6456512, -0.6472784, 0.4627668, 1.59081, 1.247831, 3.686457, 0.664111, -0.8975998, 0.4148604, 1.55351, 1.254916
 234631110, 1.878093, 1.633716, -1.236522, 0.46166, 1.596111, 1.243011, 4.707826, 0.6456512, -0.6472784, 0.4627668, 1.59081, 1.247831
 234831030, 3.46313, 1.909431, -0.8521335, 0.5216777, 1.607193, 1.266373, 1.878093, 1.633716, -1.236522, 0.46166, 1.596111, 1.243011
 235030950, 3.540869, 2.440618, -0.7802898, 0.5521425, 1.609484, 1.295833, 3.46313, 1.909431, -0.8521335, 0.5216777, 1.607193, 1.266373
 235230870, 2.640204, -0.3013951, -1.222655, 0.5378531, 1.593301, 1.320374, 3.540869, 2.440618, -0.7802898, 0.5521425, 1.609484, 1.295833
 235430790, 2.228979, 0.7127463, -1.246082, 0.5272532, 1.618291, 1.331151, 2.640204, -0.3013951, -1.222655, 0.5378531, 1.593301, 1.320374
 235630710, 3.497106, 0.2251246, -1.050836, 0.5153841, 1.669595, 1.322222, 2.228979, 0.7127463, -1.246082, 0.5272532, 1.618291, 1.331151
 235831463, 4.005829, 1.551292, -0.6922382, 0.5064833, 1.726187, 1.30986, 3.497106, 0.2251246, -1.050836, 0.5153841, 1.669595, 1.322222
 236031383, 4.409131, 1.874301, -0.6614898, 0.5100222, 1.770038, 1.299326, 4.005829, 1.551292, -0.6922382, 0.5064833, 1.726187, 1.30986
 236231303, 3.559203, 0.3524696, -0.9878569, 0.5333807, 1.815956, 1.233322, 4.409131, 1.874301, -0.6614898, 0.5100222, 1.770038, 1.299326
 236431223, 1.900991, 2.139919, -1.218509, 0.555203, 1.873358, 1.17277, 3.559203, 0.3524696, -0.9878569, 0.5333807, 1.815956, 1.233322
 236631143, 3.799792, 0.5567467, -0.6537429, 0.6413702, 1.874736, 1.176249, 1.900991, 2.139919, -1.218509, 0.555203, 1.873358, 1.17277
 236831063, 4.275766, 0.8677529, -0.2905682, 0.7678198, 1.825419, 1.228141, 3.799792, 0.5567467, -0.6537429, 0.6413702, 1.874736, 1.176249
 237030983, 3.355564, -0.2864732, -0.3256435, 0.8846015, 1.743702, 1.275512, 4.275766, 0.8677529, -0.2905682, 0.7678198, 1.825419, 1.228141
 237230903, 3.996703, 0.8201088, 0.09307909, 1.007291, 1.668579, 1.330534, 3.355564, -0.2864732, -0.3256435, 0.8846015, 1.743702, 1.275512
 237430823, 2.831347, -1.447899, -0.02560401, 1.055402, 1.601195, 1.370331, 3.996703, 0.8201088, 0.09307909, 1.007291, 1.668579, 1.330534
 237630743, 2.72199, -1.004835, 0.09053028, 1.086708, 1.570315, 1.39797, 2.831347, -1.447899, -0.02560401, 1.055402, 1.601195, 1.370331
 237830663, 4.297448, -0.8283122, 0.7697822, 1.117874, 1.56329, 1.425238, 2.72199, -1.004835, 0.09053028, 1.086708, 1.570315, 1.39797
 238031416, 2.521534, 0.2031245, 0.3206715, 1.078024, 1.570165, 1.432346, 4.297448, -0.8283122, 0.7697822, 1.117874, 1.56329, 1.425238
 238231336, 4.823956, -1.340589, 1.368773, 1.1022, 1.586735, 1.447375, 2.521534, 0.2031245, 0.3206715, 1.078024, 1.570165, 1.432346
 238431256, 3.229509, -1.493901, 0.917389, 1.075469, 1.597333, 1.431324, 4.823956, -1.340589, 1.368773, 1.1022, 1.586735, 1.447375
 238631176, 4.187574, 0.7114896, 1.344993, 1.096828, 1.583141, 1.462264, 3.229509, -1.493901, 0.917389, 1.075469, 1.597333, 1.431324
 238831096, 2.568902, -0.4722202, 0.749615, 1.074923, 1.547683, 1.487893, 4.187574, 0.7114896, 1.344993, 1.096828, 1.583141, 1.462264
 239031016, 3.787436, -0.5113647, 1.373999, 1.097256, 1.523003, 1.523187, 2.568902, -0.4722202, 0.749615, 1.074923, 1.547683, 1.487893
 239230936, 4.33183, 0.1802761, 1.644277, 1.107261, 1.510268, 1.546502, 3.787436, -0.5113647, 1.373999, 1.097256, 1.523003, 1.523187
 239430856, 3.522044, 0.2324255, 1.357098, 1.08551, 1.504336, 1.555931, 4.33183, 0.1802761, 1.644277, 1.107261, 1.510268, 1.546502
 239630776, 5.375137, 0.6762881, 2.261711, 1.107444, 1.50511, 1.588058, 3.522044, 0.2324255, 1.357098, 1.08551, 1.504336, 1.555931
 239830696, 5.460279, -1.754166, 2.353327, 1.095871, 1.504638, 1.599555, 5.375137, 0.6762881, 2.261711, 1.107444, 1.50511, 1.588058
 240031449, 5.719385, 0.7061747, 2.490231, 1.097599, 1.517679, 1.600403, 5.460279, -1.754166, 2.353327, 1.095871, 1.504638, 1.599555
 240231369, 5.948438, 0.558221, 2.60269, 1.107796, 1.524147, 1.596005, 5.719385, 0.7061747, 2.490231, 1.097599, 1.517679, 1.600403
 240431289, 3.391663, 0.3452603, 1.401595, 1.046534, 1.524936, 1.578143, 5.948438, 0.558221, 2.60269, 1.107796, 1.524147, 1.596005
 240631209, 4.273638, 1.26405, 1.882291, 1.041784, 1.522098, 1.610396, 3.391663, 0.3452603, 1.401595, 1.046534, 1.524936, 1.578143
 240831129, 3.863264, -0.1283049, 1.769275, 1.018683, 1.506028, 1.628303, 4.273638, 1.26405, 1.882291, 1.041784, 1.522098, 1.610396
 241031049, 6.048458, 0.8225135, 2.871762, 1.067297, 1.509298, 1.655924, 3.863264, -0.1283049, 1.769275, 1.018683, 1.506028, 1.628303
 241230969, 5.297883, 0.7249635, 2.535291, 1.058613, 1.514548, 1.638266, 6.048458, 0.8225135, 2.871762, 1.067297, 1.509298, 1.655924
 241430889, 5.375366, -1.243893, 2.615292, 1.067225, 1.508585, 1.639131, 5.297883, 0.7249635, 2.535291, 1.058613, 1.514548, 1.638266
 241630809, 3.795109, -1.429132, 1.771429, 1.030716, 1.503422, 1.632998, 5.375366, -1.243893, 2.615292, 1.067225, 1.508585, 1.639131
 241830729, 5.597207, 0.3859076, 2.735203, 1.056136, 1.495259, 1.67329, 3.795109, -1.429132, 1.771429, 1.030716, 1.503422, 1.632998
 242031482, 3.763782, 0.9510543, 1.847136, 1.008666, 1.493309, 1.667195, 5.597207, 0.3859076, 2.735203, 1.056136, 1.495259, 1.67329
 242231402, 4.338588, -1.000064, 2.098253, 1.018908, 1.487352, 1.674933, 3.763782, 0.9510543, 1.847136, 1.008666, 1.493309, 1.667195
 242431322, 4.344313, 0.9492426, 2.079101, 1.016734, 1.505103, 1.669042, 4.338588, -1.000064, 2.098253, 1.018908, 1.487352, 1.674933
 242631242, 5.761274, -0.9174245, 2.838898, 1.041462, 1.506466, 1.685828, 4.344313, 0.9492426, 2.079101, 1.016734, 1.505103, 1.669042
 242831162, 4.251232, -0.9356651, 2.091415, 1.000226, 1.515964, 1.667957, 5.761274, -0.9174245, 2.838898, 1.041462, 1.506466, 1.685828
 243031082, 5.891261, -1.811394, 2.946829, 1.040747, 1.517396, 1.688223, 4.251232, -0.9356651, 2.091415, 1.000226, 1.515964, 1.667957
 243231002, 6.423429, 0.7592265, 3.284918, 1.053406, 1.517053, 1.704451, 5.891261, -1.811394, 2.946829, 1.040747, 1.517396, 1.688223
 243430922, 4.736043, 0.9319019, 2.341017, 1.00639, 1.514038, 1.692823, 6.423429, 0.7592265, 3.284918, 1.053406, 1.517053, 1.704451
 243630842, 4.322625, -0.7357953, 2.150123, 0.9983003, 1.506089, 1.693138, 4.736043, 0.9319019, 2.341017, 1.00639, 1.514038, 1.692823
 243830762, 4.148453, 0.5184713, 2.083451, 0.9991, 1.516389, 1.686389, 4.322625, -0.7357953, 2.150123, 0.9983003, 1.506089, 1.693138
 244030682, 6.385562, -1.766492, 3.264875, 1.05351, 1.517796, 1.711741, 4.148453, 0.5184713, 2.083451, 0.9991, 1.516389, 1.686389
 244231435, 4.673769, -0.2304287, 2.368131, 1.007846, 1.521174, 1.69262, 6.385562, -1.766492, 3.264875, 1.05351, 1.517796, 1.711741
 244431355, 6.337285, -0.8875467, 3.246811, 1.044865, 1.514179, 1.724372, 4.673769, -0.2304287, 2.368131, 1.007846, 1.521174, 1.69262
 244631275, 5.920462, 0.165809, 3.081621, 1.023874, 1.516108, 1.729187, 6.337285, -0.8875467, 3.246811, 1.044865, 1.514179, 1.724372
 244831195, 5.415756, -1.468548, 2.819657, 1.005869, 1.516959, 1.726709, 5.920462, 0.165809, 3.081621, 1.023874, 1.516108, 1.729187
 245031115, 6.80021, 0.544719, 3.573814, 1.037634, 1.523853, 1.750193, 5.415756, -1.468548, 2.819657, 1.005869, 1.516959, 1.726709
 245231035, 5.974168, 0.9058512, 3.116796, 1.012767, 1.532667, 1.736519, 6.80021, 0.544719, 3.573814, 1.037634, 1.523853, 1.750193
 245430955, 5.500068, -0.1860516, 2.853477, 1.001558, 1.535161, 1.726154, 5.974168, 0.9058512, 3.116796, 1.012767, 1.532667, 1.736519
 245630875, 4.202488, -1.185298, 2.120075, 0.9770657, 1.542258, 1.704726, 5.500068, -0.1860516, 2.853477, 1.001558, 1.535161, 1.726154
 245830795, 6.50564, 0.004892658, 3.473987, 1.036966, 1.550502, 1.729989, 4.202488, -1.185298, 2.120075, 0.9770657, 1.542258, 1.704726
 246030715, 4.383763, -0.5616282, 2.28775, 0.9889069, 1.552366, 1.700551, 6.50564, 0.004892658, 3.473987, 1.036966, 1.550502, 1.729989
 246231468, 4.855381, 0.08563143, 2.66154, 0.9981915, 1.545903, 1.717744, 4.383763, -0.5616282, 2.28775, 0.9889069, 1.552366, 1.700551
 246431388, 6.165504, 0.8067352, 3.364869, 1.027796, 1.539062, 1.748639, 4.855381, 0.08563143, 2.66154, 0.9981915, 1.545903, 1.717744
 246631308, 4.378168, 0.4182231, 2.363082, 0.9859607, 1.533488, 1.731711, 6.165504, 0.8067352, 3.364869, 1.027796, 1.539062, 1.748639
 246831228, 5.875399, 0.4523385, 3.22565, 1.020696, 1.535129, 1.752249, 4.378168, 0.4182231, 2.363082, 0.9859607, 1.533488, 1.731711
 247031148, 4.413764, -0.419607, 2.399147, 0.9827987, 1.533604, 1.738014, 5.875399, 0.4523385, 3.22565, 1.020696, 1.535129, 1.752249
 247231068, 4.243429, 0.372229, 2.359881, 0.9793057, 1.532021, 1.743515, 4.413764, -0.419607, 2.399147, 0.9827987, 1.533604, 1.738014
 247430988, 5.480782, -0.5480864, 3.04929, 1.013253, 1.529193, 1.757278, 4.243429, 0.372229, 2.359881, 0.9793057, 1.532021, 1.743515
 247630908, 4.984849, 0.9227658, 2.700673, 1.00564, 1.548301, 1.738753, 5.480782, -0.5480864, 3.04929, 1.013253, 1.529193, 1.757278
 247830828, 6.76755, -0.01941741, 3.829928, 1.051304, 1.550935, 1.762384, 4.984849, 0.9227658, 2.700673, 1.00564, 1.548301, 1.738753
 248030748, 7.007825, 0.2143248, 3.95749, 1.05471, 1.552288, 1.771022, 6.76755, -0.01941741, 3.829928, 1.051304, 1.550935, 1.762384
 248230668, 5.036128, 0.9520361, 2.837156, 0.9988516, 1.546078, 1.756078, 7.007825, 0.2143248, 3.95749, 1.05471, 1.552288, 1.771022
 248431421, 5.167989, -1.43876, 2.905683, 1.002617, 1.526381, 1.771556, 5.036128, 0.9520361, 2.837156, 0.9988516, 1.546078, 1.756078
 248631341, 5.038871, -1.573118, 2.763197, 0.9989149, 1.52368, 1.774843, 5.167989, -1.43876, 2.905683, 1.002617, 1.526381, 1.771556
