TimeUS,CAN,CAE,CAD,CAe
 195760831, 0, 0, 0, 0
 195835801, 0.3716846, 3.817953, 0.5006645, 0.5081878
 195935761, 0.0001760605, 0.003562729, -5.48334E-05, 0.0002593961
 196035721, 0.0001193469, 0.003586232, 7.712616E-05, 0.0002593961
 196135681, -3.216961E-05, 0.003448121, 2.12191E-05, 0.0002593961
 196236474, -0.0002636816, 0.003531915, -8.660625E-05, 0.0002615578
 196336434, 1.708192E-05, 0.003653475, -0.0001268368, 0.0002593961
 196436394, 0.000118029, 0.003524065, -0.0001186802, 0.0002593961
 196536354, 5.709197E-05, 0.003463119, -2.965933E-05, 0.0002593961
 196636314, -0.0002112071, 0.003520144, -6.374547E-05, 0.0002593961
 196736274, -4.113841E-05, 0.003442707, -0.0001094869, 0.0002593961
 196836234, 3.173234E-05, 0.00328282, -3.020866E-05, 0.0002593961
 196936194, -0.0001982224, 0.003513699, -1.980943E-05, 0.0002593961
 197036154, -0.0001370984, 0.00337896, 6.335822E-05, 0.0002593961
 197136114, 1.0131E-05, 0.003724894, -7.065212E-05, 0.0002593961
 197236074, 0.0002624834, 0.003549631, -6.492998E-05, 0.0002593961
 197336034, 0.0001029459, 0.00352211, -8.653873E-05, 0.0002593961
 197435994, -8.528161E-05, 0.003605639, -0.0001016865, 0.0002593961
 197535954, -6.871687E-05, 0.003355464, -0.0001693072, 0.0002593961
 197635914, -2.042504E-05, 0.003557946, -0.0001720348, 0.0002593961
 197735874, 0.0002858599, 0.003622298, -0.000114295, 0.0002593961
 197835834, 0.0001808411, 0.003664695, -0.0001484897, 0.0002593961
 197935794, 0.0001826658, 0.003656854, -0.0001511946, 0.0002593961
 198035754, 0.0001531082, 0.003609257, -0.0002899607, 0.0002593961
 198135714, 3.328258E-05, 0.003750925, -4.102853E-05, 0.0002593961
 198235674, 0.0002192519, 0.003593043, 2.977968E-05, 0.0002593961
 198336467, -3.659743E-05, 0.003520411, -9.658565E-05, 0.0002615578
 198436427, -8.973099E-05, 0.003640711, -5.612511E-05, 0.0002593961
 198536387, -0.0001346739, 0.00361934, 3.758356E-06, 0.0002593961
 198636347, 5.611605E-05, 0.003508569, -0.0001368917, 0.0002593961
 198736307, 0.0001114314, 0.003480464, 0.000218714, 0.0002593961
 198836267, 0.0001386466, 0.003542141, -0.0001648732, 0.0002593961
 198936227, 0.0002167066, 0.003702696, -0.000116434, 0.0002593961
 199036187, -9.638318E-05, 0.003862807, -2.523248E-05, 0.0002593961
 199136147, -8.453168E-05, 0.003381515, -0.000122715, 0.0002593961
 199236107, -6.199645E-05, 0.00358251, 1.650865E-05, 0.0002593961
 199336067, -0.0001663036, 0.003424341, -9.78436E-06, 0.0002593961
 199436027, 0.0001898913, 0.003589308, -0.0001598899, 0.0002593961
 199535987, -9.144689E-05, 0.003547678, 1.406822E-05, 0.0002593961
 199635947, 7.94896E-05, 0.003372231, 7.5048E-06, 0.0002593961
 199735907, -1.35199E-05, 0.003604211, 9.246956E-06, 0.0002593961
 199835867, -0.0002513687, 0.00386894, -0.0001283716, 0.0002593961
 199935827, -0.0001226033, 0.003520688, -5.243349E-05, 0.0002593961
 200035787, 0.0001918799, 0.003485211, 4.439008E-05, 0.0002593961
 200135747, -2.797912E-05, 0.003482027, 8.811166E-05, 0.0002593961
 200235707, 0.0002491049, 0.003436181, 0.0001051422, 0.0002593961
 200335667, -0.0001925309, 0.00349857, -0.0003636336, 0.0002593961
 200436460, 0.0001578815, 0.003542336, -0.0001833679, 0.0002615578
 200536420, -8.610312E-05, 0.003711901, -0.0001493464, 0.0002593961
 200636380, -0.0001925548, 0.003634511, -5.72762E-05, 0.0002593961
 200736340, 7.162501E-05, 0.003518051, 0.0001277925, 0.0002593961
 200836300, 8.681504E-05, 0.00342989, -7.793881E-05, 0.0002593961
 200936260, -6.865962E-05, 0.003528075, 8.638619E-05, 0.0002593961
 201036220, 0.00016499, 0.003604235, 2.885499E-05, 0.0002593961
 201136180, -8.718298E-05, 0.003484069, -0.0001726473, 0.0002593961
 201236140, -6.994588E-05, 0.003368448, 1.482609E-05, 0.0002593961
 201336100, -0.000228538, 0.003487309, 8.178777E-05, 0.0002593961
 201436060, -0.0001695667, 0.003557317, -8.383972E-05, 0.0002593961
 201536020, 4.500962E-05, 0.003475885, -8.870033E-05, 0.0002593961
 201635980, 5.245974E-05, 0.003373294, 0.0001619037, 0.0002593961
 201735940, -8.516178E-05, 0.003495286, -8.750988E-05, 0.0002593961
 201835900, -0.0001673259, 0.003576749, -9.032436E-07, 0.0002593961
 201935860, 6.225197E-06, 0.003590035, -8.050915E-05, 0.0002593961
 202035820, 0.0001510149, 0.00350791, -0.0001319893, 0.0002593961
 202135780, 5.622808E-05, 0.003683104, 9.372536E-05, 0.0002593961
 202235740, -1.087189E-05, 0.003527807, -0.0002709032, 0.0002593961
 202335700, 0.0001806095, 0.003611502, -7.744432E-05, 0.0002593961
 202435660, -2.307628E-05, 0.003412438, -0.0001906657, 0.0002593961
 202536453, 0.0002205406, 0.003549772, -5.068818E-05, 0.0002615578
 202636413, 8.942295E-05, 0.003434895, 1.197691E-05, 0.0002593961
 202736373, 5.378257E-05, 0.003645709, -7.229058E-05, 0.0002593961
 202836333, 9.661257E-05, 0.003482176, -7.641594E-05, 0.0002593961
 202936293, -4.880077E-05, 0.003517918, -0.0002274223, 0.0002593961
 203036253, 0.00012599, 0.003723291, 7.465476E-05, 0.0002593961
 203136213, 7.033798E-05, 0.003553863, -8.677108E-05, 0.0002593961
 203236173, -0.0001805592, 0.003619814, -0.000258446, 0.0002593961
 203336133, -7.561634E-05, 0.003595593, -0.0001406762, 0.0002593961
 203436093, 0.0001645323, 0.003334117, 4.213436E-05, 0.0002593961
 203536053, -0.0001920105, 0.003748298, 0.0001903452, 0.0002593961
 203636013, 0.0002399971, 0.003594434, 2.871914E-05, 0.0002593961
 203735973, 2.125162E-05, 0.003703662, -0.000110414, 0.0002593961
 203835933, -2.195964E-06, 0.003710414, -1.942334E-05, 0.0002593961
 203935893, 0.0001373022, 0.003741089, -5.586654E-05, 0.0002593961
 204035853, 8.620481E-05, 0.003509181, -0.0001340139, 0.0002593961
 204135813, -2.652074E-05, 0.003521064, 2.236903E-05, 0.0002593961
 204235773, 8.412413E-05, 0.003665058, -0.0001567571, 0.0002593961
 204335733, 7.428682E-05, 0.003675305, -0.0002370303, 0.0002593961
 204435693, 5.953708E-06, 0.003476759, -7.82999E-05, 0.0002593961
 204536486, 8.142521E-06, 0.003520831, 8.68974E-05, 0.0002593961
 204636446, 3.234606E-05, 0.003552508, 0.000149827, 0.0002615578
 204736406, 0.0001224798, 0.003391397, 0.0001353223, 0.0002593961
 204836366, 5.109992E-05, 0.003374613, 3.482379E-05, 0.0002593961
 204936326, 2.650391E-05, 0.003530917, -0.0001139674, 0.0002593961
 205036286, -8.117937E-05, 0.003693648, -0.0002718934, 0.0002593961
 205136246, -4.403716E-05, 0.003573511, -1.292903E-05, 0.0002593961
 205236206, 1.228376E-05, 0.003556767, -0.0001617059, 0.0002593961
 205336166, -4.454521E-05, 0.003418021, 4.704977E-05, 0.0002593961
 205436126, 0.000109101, 0.003440773, 2.142288E-05, 0.0002593961
 205536086, 0.000218094, 0.003702143, -0.0001449267, 0.0002593961
 205636046, 5.253486E-05, 0.003573738, -0.0001077269, 0.0002593961
 205736006, -4.904165E-05, 0.003430091, -9.685336E-05, 0.0002593961
 205835966, -0.0001095776, 0.00373886, -4.617514E-06, 0.0002593961
 205935926, 0.0001809127, 0.003523867, -0.0001277901, 0.0002593961
 206035886, -5.612001E-05, 0.003447723, -0.0002065404, 0.0002593961
 206135846, 0.0002992948, 0.003467425, -0.000109245, 0.0002593961
 206235806, -8.421775E-05, 0.00348121, -2.9819E-05, 0.0002593961
 206335766, 0.0001142722, 0.003405295, 1.395621E-05, 0.0002593961
 206435726, 9.829489E-05, 0.003438054, 4.625256E-05, 0.0002593961
 206535686, 4.939234E-05, 0.003442379, -0.0001011563, 0.0002593961
 206636479, 1.784892E-05, 0.003702459, 5.147899E-05, 0.0002615578
 206736439, 0.0001545993, 0.003593029, -6.304841E-06, 0.0002593961
 206836399, -0.0001433792, 0.003705808, 1.889188E-05, 0.0002593961
 206936359, -0.0001481442, 0.003271182, -5.348569E-05, 0.0002593961
 207036319, 8.981325E-05, 0.003668398, -0.0002546567, 0.0002593961
 207136279, 4.475322E-05, 0.003660798, -5.047686E-05, 0.0002593961
 207236239, 9.135524E-05, 0.003396667, 2.630373E-05, 0.0002593961
 207336199, 5.430342E-06, 0.00344383, -3.318294E-05, 0.0002593961
 207436159, -0.0001395879, 0.003455245, 8.773393E-05, 0.0002593961
 207536119, 0.0001596027, 0.003373765, -0.0002500285, 0.0002593961
 207636079, 3.40517E-05, 0.003659057, 5.516467E-05, 0.0002593961
 207736039, -5.005045E-05, 0.003436963, -7.802713E-06, 0.0002593961
 207835999, -3.569216E-06, 0.003397454, 5.711416E-05, 0.0002593961
 207935959, 4.764053E-05, 0.003713103, -0.0001750722, 0.0002593961
 208035919, -0.0001527532, 0.003738687, 0.0001086289, 0.0002593961
 208135879, 2.006529E-05, 0.003496432, 7.351796E-05, 0.0002593961
 208235839, 0.0002020066, 0.003630353, -0.0001266187, 0.0002593961
 208335799, -0.000164137, 0.003595601, 0.0002487248, 0.0002593961
 208435759, 1.500821E-06, 0.003544404, -8.871937E-05, 0.0002593961
 208535719, 0.0001058089, 0.003640438, -0.0001183299, 0.0002593961
 208635679, -3.13831E-05, 0.003667166, -0.0001389663, 0.0002593961
 208736472, -4.158547E-05, 0.003785188, 7.747887E-06, 0.0002615578
 208836432, 0.0001536737, 0.00365807, -5.010984E-05, 0.0002593961
 208936392, 9.683046E-05, 0.003651337, -0.0001234264, 0.0002593961
 209036352, 0.0002101181, 0.003455755, 0.0002522211, 0.0002593961
 209136312, 0.0001261338, 0.003567221, -1.516214E-05, 0.0002593961
 209236272, -9.830108E-06, 0.003556483, 3.224274E-05, 0.0002593961
 209336232, 8.370761E-05, 0.003765771, -2.041596E-05, 0.0002593961
 209436192, -5.429994E-05, 0.003394812, -0.0001028794, 0.0002593961
 209536152, -0.0002195048, 0.003490722, -4.165413E-05, 0.0002593961
 209636112, 1.558171E-05, 0.003585363, 0.0001289305, 0.0002593961
 209736072, -6.708213E-05, 0.003429368, -9.358834E-05, 0.0002593961
 209836032, -8.502234E-05, 0.003764514, 5.275879E-05, 0.0002593961
 209935992, 6.606086E-05, 0.003501595, 0.0001035574, 0.0002593961
 210035952, 7.650335E-05, 0.003640993, -3.39551E-05, 0.0002593961
 210135912, -0.0001582018, 0.003533839, 1.42839E-05, 0.0002593961
 210235872, -5.982028E-05, 0.003600873, 0.0001929107, 0.0002593961
 210335832, 3.694642E-05, 0.003609047, -0.0001433895, 0.0002593961
 210435792, 4.785065E-06, 0.003521348, 6.539946E-05, 0.0002593961
 210535752, -0.0001310316, 0.003222461, 2.305778E-06, 0.0002593961
 210635712, 6.766367E-05, 0.003412174, -4.027901E-05, 0.0002593961
 210735672, -0.0001202691, 0.003534036, 0.00012121, 0.0002593961
 210836465, 2.256648E-05, 0.003715036, -6.468093E-06, 0.0002615578
 210936425, -7.595568E-05, 0.00364311, 2.288854E-05, 0.0002593961
 211036385, 0.0001798669, 0.003600394, -7.295091E-06, 0.0002593961
 211136345, -1.457084E-05, 0.003344486, -1.634182E-05, 0.0002593961
 211236305, -3.265288E-05, 0.003485778, -0.000287693, 0.0002593961
 211336265, -0.0001794571, 0.00349936, -0.0002011365, 0.0002593961
 211436225, -0.0001059051, 0.003694455, 1.290043E-05, 0.0002593961
 211536185, -4.941525E-05, 0.003421772, -0.0003959728, 0.0002593961
 211636145, -6.710495E-05, 0.003536862, -3.488933E-05, 0.0002593961
 211736105, -0.0001997327, 0.00350745, 4.271703E-05, 0.0002593961
 211836065, -0.0001851988, 0.003519327, -8.732518E-05, 0.0002593961
 211936025, 8.370548E-05, 0.003652239, 7.964524E-05, 0.0002593961
 212035985, 3.08134E-05, 0.00364118, -0.0001057071, 0.0002593961
 212135945, 7.788093E-05, 0.003370017, -6.341423E-05, 0.0002593961
 212235905, -8.821231E-06, 0.00359183, 0.0001736447, 0.0002593961
 212335865, -2.797673E-05, 0.003587419, 1.469501E-05, 0.0002593961
 212435825, 0.0001508289, 0.003324359, -0.0001403187, 0.0002593961
 212535785, -3.817921E-05, 0.003601021, 9.228827E-05, 0.0002593961
 212635745, 7.574217E-05, 0.003435372, -2.733567E-06, 0.0002593961
 212735705, -0.0001272026, 0.003444409, -5.814967E-05, 0.0002593961
 212835665, -0.0002212629, 0.003455952, -6.851197E-05, 0.0002593961
 212936458, 9.752315E-05, 0.003476913, -0.000209077, 0.0002615578
 213036418, -0.0001088042, 0.003482279, -0.0002513976, 0.0002593961
 213136378, 0.0001383872, 0.00363234, 8.207616E-05, 0.0002593961
 213236338, -2.323639E-05, 0.003659853, 0.0001279605, 0.0002593961
 213336298, 2.113057E-05, 0.003500904, -2.544815E-05, 0.0002593961
 213436258, 7.414392E-06, 0.003550027, -6.222977E-05, 0.0002593961
 213536218, -2.188525E-05, 0.00355933, -6.266471E-05, 0.0002593961
 213636178, 1.766506E-05, 0.003381726, -0.0001760779, 0.0002593961
 213736138, -0.0001038653, 0.003569749, -3.904449E-05, 0.0002593961
 213836098, 5.503652E-05, 0.003442993, -7.018499E-05, 0.0002593961
 213936058, 9.349117E-05, 0.003608122, -7.124672E-05, 0.0002593961
 214036018, 0.0002128566, 0.003728635, 6.602387E-05, 0.0002593961
 214135978, 1.024722E-05, 0.00371604, -2.458542E-05, 0.0002593961
 214235938, 3.529299E-05, 0.003529909, -1.59319E-05, 0.0002593961
 214335898, 0.0004421609, 0.003516995, 8.307354E-05, 0.0002593961
 214435858, 7.909385E-05, 0.003555192, -3.376921E-05, 0.0002593961
 214535818, 0.0001432758, 0.003642472, -0.0001801021, 0.0002593961
 214635778, 5.817877E-05, 0.003640636, -9.062717E-05, 0.0002593961
 214735738, 3.193977E-05, 0.003797819, -1.265734E-05, 0.0002593961
 214835698, 9.442209E-05, 0.003719824, -7.687949E-05, 0.0002593961
 214935658, -5.938279E-06, 0.003583724, -0.0003338217, 0.0002593961
 215036451, 6.252382E-05, 0.003573274, -0.0002012846, 0.0002615578
 215136411, -0.0001202803, 0.003721547, -2.462354E-05, 0.0002593961
 215236371, -1.809891E-05, 0.003719382, -6.731446E-06, 0.0002593961
 215336331, -6.358224E-05, 0.003524274, -3.374655E-06, 0.0002593961
 215436291, 0.0001002995, 0.003301307, 1.869525E-05, 0.0002593961
 215536251, -5.046538E-05, 0.003599249, -8.654828E-05, 0.0002593961
 215636211, 2.255917E-06, 0.003492357, 2.539572E-05, 0.0002593961
 215736171, 0.0002519755, 0.003425873, -0.0001272169, 0.0002593961
 215836131, 0.000146775, 0.003413467, 0.0001114351, 0.0002593961
 215936091, 0.0001077889, 0.003420388, -5.967137E-05, 0.0002593961
 216036051, -4.121232E-06, 0.003427469, -4.498357E-06, 0.0002593961
 216136011, -1.141069E-05, 0.003549271, -7.459753E-05, 0.0002593961
 216235971, 6.004623E-05, 0.00339873, 8.380039E-05, 0.0002593961
 216335931, 0.0002141277, 0.003289102, -0.0002070612, 0.0002593961
 216435891, 0.000110818, 0.003727354, -0.0001102543, 0.0002593961
 216535851, -9.140643E-05, 0.003458185, -0.0001114614, 0.0002593961
 216635811, -0.0001097982, 0.003464878, 8.746344E-05, 0.0002593961
 216735771, -0.0002465828, 0.003501612, -0.0002010816, 0.0002593961
 216835731, 2.846407E-05, 0.003370982, -0.0002574868, 0.0002593961
 216935691, -9.298335E-06, 0.003499866, -0.000280672, 0.0002593961
 217036484, 5.664487E-05, 0.003479411, -0.0002466356, 0.0002615578
 217136444, 1.074643E-05, 0.003428617, -8.29174E-05, 0.0002593961
 217236404, 0.000140702, 0.003543751, 0.0001654428, 0.0002593961
 217336364, 3.83625E-06, 0.003456049, 6.040776E-05, 0.0002593961
 217436324, 1.464288E-05, 0.003463912, -0.0002030442, 0.0002593961
 217536284, -0.0002091228, 0.003512745, 2.535401E-05, 0.0002593961
 217636244, -0.0001404375, 0.00345881, -0.0001197229, 0.0002593961
 217736204, -0.0001208965, 0.003695222, 9.131354E-05, 0.0002593961
 217836164, -0.0001638344, 0.003656788, -3.040051E-05, 0.0002593961
 217936124, 8.28226E-05, 0.003528663, -0.000193665, 0.0002593961
 218036084, -8.696969E-05, 0.003560883, -3.0615E-05, 0.0002593961
 218136044, -5.877664E-05, 0.00351041, -2.041834E-05, 0.0002593961
 218236004, 4.273767E-05, 0.00346548, -7.343812E-05, 0.0002593961
 218335964, 1.608737E-05, 0.00370133, 2.430421E-05, 0.0002593961
 218435924, 0.000191583, 0.003561654, -0.0001547933, 0.0002593961
 218535884, 1.99572E-05, 0.003527056, -0.0003288276, 0.0002593961
 218635844, -7.185133E-05, 0.003549595, -6.402545E-06, 0.0002593961
 218735804, 4.788425E-05, 0.003578085, -8.515169E-05, 0.0002593961
 218835764, 6.279411E-05, 0.003618269, -0.0001929537, 0.0002593961
 218935724, -5.782798E-05, 0.003681684, 2.508234E-05, 0.0002593961
 219035684, -5.715054E-05, 0.003578679, -0.0001672922, 0.0002593961
 219136477, 0.000199272, 0.003924035, -0.0001568929, 0.0002615578
 219236437, 6.090291E-05, 0.003616587, -7.243715E-05, 0.0002593961
 219336397, 4.352339E-05, 0.003487612, 0.0001194548, 0.0002593961
 219436357, 0.0002008648, 0.003601217, -0.0001553701, 0.0002593961
 219536317, 1.981209E-05, 0.003505473, -0.0003666484, 0.0002593961
 219636277, -8.056886E-05, 0.003442726, 5.124904E-05, 0.0002593961
 219736237, -2.441414E-05, 0.003699521, -0.0001482347, 0.0002593961
 219836197, 9.336242E-05, 0.00356611, -1.885852E-05, 0.0002593961
 219936157, -2.734827E-05, 0.003497892, -0.0002029453, 0.0002593961
 220036117, 4.30892E-05, 0.00368066, 9.461429E-06, 0.0002593961
 220136077, 0.0001020832, 0.003590713, -0.0001487423, 0.0002593961
 220236037, -4.508636E-06, 0.003244264, -4.483457E-05, 0.0002593961
 220335997, -8.513743E-05, 0.003525986, 3.023487E-05, 0.0002593961
 220435957, 3.716112E-05, 0.003632166, -1.73118E-05, 0.0002593961
 220535917, -3.769231E-05, 0.003514513, -4.039937E-05, 0.0002593961
 220635877, -8.388749E-05, 0.003788515, -7.9992E-05, 0.0002593961
 220735837, 5.062982E-05, 0.003532986, 0.0001194941, 0.0002593961
 220835797, -0.000177716, 0.003778736, -2.60225E-05, 0.0002593961
 220935757, 4.723596E-05, 0.00363518, -0.0002530671, 0.0002593961
 221035717, 3.184221E-05, 0.003557863, 5.518612E-05, 0.0002593961
 221135677, 0.0002285912, 0.003538935, -2.050057E-05, 0.0002593961
 221236470, -2.484728E-05, 0.003516093, -0.0002893328, 0.0002615578
 221336430, -0.0001346012, 0.003623075, -0.0002934985, 0.0002593961
 221436390, 5.313792E-05, 0.003657392, 3.358926E-05, 0.0002593961
 221536350, 0.0001241831, 0.003561228, 0.0002138438, 0.0002593961
 221636310, 0.0002192257, 0.00345384, -0.0002395911, 0.0002593961
 221736270, -0.0001295045, 0.00343188, -0.0002026784, 0.0002593961
 221836230, -0.000127535, 0.00362167, -0.0001413757, 0.0002593961
 221936190, 0.0001028628, 0.003711989, -6.180197E-05, 0.0002593961
 222036150, 9.715559E-05, 0.003638176, -7.392791E-06, 0.0002593961
 222136110, 3.462747E-05, 0.003576756, -5.083435E-05, 0.0002593961
 222236070, -1.169033E-05, 0.003659887, -0.0001257345, 0.0002593961
 222336030, -6.875355E-05, 0.003683628, -0.0002209316, 0.0002593961
 222435990, 2.244954E-05, 0.003594354, -0.0001564568, 0.0002593961
 222535950, -0.0003300932, 0.003377897, -0.0002166859, 0.0002593961
 222635910, -2.321889E-05, 0.003525677, -7.02851E-05, 0.0002593961
 222735870, 0.000151911, 0.003544267, -9.759337E-05, 0.0002593961
 222835830, 0.0001657272, 0.003795967, 9.245983E-05, 0.0002593961
 222935790, -0.000104776, 0.003467108, -0.0002059565, 0.0002593961
 223035750, 5.227785E-05, 0.003434363, -0.0002580421, 0.0002593961
 223135710, -0.0001261685, 0.00350715, -7.07844E-05, 0.0002593961
 223235670, -0.0001468724, 0.003427438, -2.385258E-05, 0.0002593961
 223336463, -4.711789E-06, 0.003467377, -1.800532E-05, 0.0002615578
 223436423, -7.886404E-05, 0.003617986, -0.0001599733, 0.0002593961
 223536383, 0.0001471371, 0.003622057, -0.0001659432, 0.0002593961
 223636343, -0.0002395606, 0.003622698, -3.232259E-05, 0.0002593961
 223736303, -3.767179E-05, 0.003573333, -7.362994E-05, 0.0002593961
 223836263, -0.000205927, 0.003637663, -2.119409E-05, 0.0002593961
 223936223, -0.0001296682, 0.003738142, 0.0001557264, 0.0002593961
 224036183, -0.0003114445, 0.003684039, -0.0001425137, 0.0002593961
 224136143, -7.463248E-05, 0.00368978, -7.626938E-05, 0.0002593961
 224236103, 1.675802E-05, 0.003565442, -0.0001223647, 0.0002593961
 224336063, 0.0001147825, 0.003415355, -0.0001873221, 0.0002593961
 224436023, 5.547034E-05, 0.003561999, -6.643021E-05, 0.0002593961
 224535983, -6.522306E-05, 0.003584579, -0.0001090388, 0.0002593961
 224635943, -0.000154441, 0.003598813, -0.0001582168, 0.0002593961
 224735903, 0.0002298521, 0.00366954, -5.938776E-05, 0.0002593961
 224835863, 2.711776E-06, 0.003449356, -3.324848E-05, 0.0002593961
 224935823, -4.797239E-05, 0.003577934, 1.564353E-05, 0.0002593961
 225035783, -7.758975E-05, 0.003536815, -8.76553E-06, 0.0002593961
 225135743, 0.000177392, 0.003463755, 6.058652E-05, 0.0002593961
 225235703, 0.0001213075, 0.00354225, -2.907186E-05, 0.0002593961
 225335663, -4.052711E-05, 0.003708241, -0.0002474283, 0.0002593961
 225436456, -1.191164E-05, 0.003489851, -6.228418E-05, 0.0002615578
 225536416, -0.000191633, 0.003550775, -0.0001936531, 0.0002593961
 225636376, -0.0001610881, 0.003568182, -0.0001443297, 0.0002593961
 225736336, -2.927594E-05, 0.003762991, -3.672203E-05, 0.0002593961
 225836296, 0.0003209741, 0.003743439, 4.854634E-06, 0.0002593961
 225936256, 7.463936E-05, 0.00354203, 3.230946E-05, 0.0002593961
 226036216, -6.323019E-05, 0.003568708, -6.177695E-05, 0.0002593961
 226136176, 7.583984E-05, 0.003485616, -0.0001342975, 0.0002593961
 226236136, 8.81961E-05, 0.003512902, -5.513608E-05, 0.0002593961
 226336096, -0.0002057212, 0.003625175, -0.0003160356, 0.0002593961
 226436056, 8.958697E-05, 0.003571684, -0.0002337248, 0.0002593961
 226536016, 2.511302E-05, 0.003623783, 3.877042E-05, 0.0002593961
 226635976, -0.000118904, 0.003769988, -0.0001812198, 0.0002593961
 226735936, -2.917302E-05, 0.003564095, -0.0002468016, 0.0002593961
 226835896, -0.0001592554, 0.003559112, -6.162799E-05, 0.0002593961
 226935856, -0.0001468365, 0.003613517, -6.092137E-05, 0.0002593961
 227035816, 7.753196E-05, 0.0035412, -7.319381E-05, 0.0002593961
 227135776, 0.0001172445, 0.00387122, -4.02671E-05, 0.0002593961
 227235736, 4.716689E-06, 0.003546224, -0.0002304002, 0.0002593961
 227335696, 6.319563E-05, 0.003486985, -0.0001930776, 0.0002593961
 227435656, -4.693714E-05, 0.003724662, -2.369053E-05, 0.0002593961
 227536449, -8.531046E-05, 0.003770765, 5.931945E-05, 0.0002615578
 227636409, 1.404762E-05, 0.003705006, 0.0001045405, 0.0002593961
 227736369, 0.0002093912, 0.003861689, -0.0002642909, 0.0002593961
 227836329, 3.223596E-05, 0.003614236, -0.0002477954, 0.0002593961
 227936289, 6.446071E-06, 0.003340136, -7.047575E-05, 0.0002593961
 228036249, 0.0001002015, 0.003606764, -0.000161203, 0.0002593961
 228136209, -7.093817E-05, 0.003567438, 5.630267E-05, 0.0002593961
 228236169, 5.778733E-05, 0.003728232, -0.0001275625, 0.0002593961
 228336129, 3.585922E-05, 0.003625971, 0.0001778785, 0.0002593961
 228436089, 0.0003008112, 0.003460687, -0.0002295565, 0.0002593961
 228536049, 1.088949E-05, 0.003726956, 9.655666E-05, 0.0002593961
 228636009, 0.0002772943, 0.003455647, -6.949387E-05, 0.0002593961
 228735969, 4.665378E-05, 0.003712203, -3.23762E-05, 0.0002593961
 228835929, 9.908211E-05, 0.003694383, 7.81569E-05, 0.0002593961
 228935889, 0.0001731327, 0.003756562, 6.543165E-05, 0.0002593961
 229035849, -0.0002348251, 0.00358748, -8.478706E-05, 0.0002593961
 229135809, -0.0001076331, 0.003562221, -7.364664E-05, 0.0002593961
 229235769, -8.881064E-05, 0.003607213, -0.0002100223, 0.0002593961
 229335729, 0.0001535905, 0.003699689, -0.0001905739, 0.0002593961
 229435689, 0.0001154921, 0.003676767, 7.44772E-05, 0.0002593961
 229536482, 0.0001294369, 0.003648823, 0.0001058767, 0.0002615578
 229636442, 0.000119613, 0.003477044, -4.621085E-06, 0.0002593961
 229736402, -0.0001053633, 0.003825122, 7.422696E-05, 0.0002593961
 229836362, 0.0002303489, 0.003767411, -0.0001214376, 0.0002593961
 229936322, -0.000144627, 0.003543468, -0.0002663453, 0.0002593961
 230036282, -0.000141983, 0.003661223, -0.0002459698, 0.0002593961
 230136242, -0.0001076255, 0.003475051, -0.0001277317, 0.0002593961
 230236202, 8.899382E-05, 0.003730472, -2.916123E-05, 0.0002593961
 230336162, 4.415398E-05, 0.003661677, -4.597731E-05, 0.0002593961
 230436122, -0.0001044858, 0.003484958, 4.177686E-05, 0.0002593961
 230536082, 2.946933E-05, 0.003631599, 3.948778E-05, 0.0002593961
 230636042, 6.908574E-05, 0.003539993, -8.370389E-05, 0.0002593961
 230736002, 2.203173E-05, 0.003773742, 6.618594E-05, 0.0002593961
 230835962, 6.650839E-05, 0.00376697, -0.0001039065, 0.0002593961
 230935922, -0.0001261744, 0.003646282, -0.0001013362, 0.0002593961
 231035882, 8.939833E-05, 0.003489064, -0.0001261218, 0.0002593961
 231135842, -0.0001407452, 0.003788148, -0.0001486934, 0.0002593961
 231235802, -7.921905E-05, 0.003645787, -0.0001861936, 0.0002593961
 231335762, -0.0002841856, 0.003575387, -0.000177347, 0.0002593961
 231435722, -1.196681E-05, 0.003590536, -5.010149E-05, 0.0002593961
 231535682, 0.0001885427, 0.003579665, -0.0003041099, 0.0002593961
 231636475, -0.0001866552, 0.003588145, -0.0001667599, 0.0002615578
 231736435, -0.0001783321, 0.003481599, -0.0001092962, 0.0002593961
 231836395, 3.128339E-05, 0.003707695, 9.595963E-05, 0.0002593961
 231936355, -9.571812E-05, 0.00353165, 1.246311E-05, 0.0002593961
 232036315, -6.127369E-05, 0.003455129, -0.0001232489, 0.0002593961
 232136275, -0.0001912153, 0.003587894, -1.573767E-05, 0.0002593961
 232236235, -7.761712E-05, 0.003396014, -0.000105657, 0.0002593961
 232336195, 0.000188597, 0.003566412, -0.0001335253, 0.0002593961
 232436155, -8.917661E-06, 0.003467745, -9.126588E-06, 0.0002593961
 232536115, -0.0002148061, 0.003397183, -0.0002775977, 0.0002593961
 232636075, 0.0001682712, 0.003591001, 0.0001408705, 0.0002593961
 232736035, 9.757761E-05, 0.00371458, 0.0001086265, 0.0002593961
 232835995, 3.048754E-05, 0.003528344, 1.60475E-05, 0.0002593961
 232935955, 6.737018E-06, 0.003705776, -0.0001571682, 0.0002593961
 233035915, 0.0001932383, 0.003847442, -3.000489E-05, 0.0002593961
 233135875, -0.0001395753, 0.003537478, -0.0002113284, 0.0002593961
 233235835, -0.000232432, 0.003386502, -3.044338E-05, 0.0002593961
 233335795, -0.0001183501, 0.003489977, 1.407061E-05, 0.0002593961
 233435755, -0.0001688382, 0.003523916, -5.454623E-05, 0.0002593961
 233535715, -7.223953E-05, 0.003513428, -0.0001517702, 0.0002593961
 233635675, -0.0002427492, 0.003720649, 0.0001062969, 0.0002593961
 233736468, -0.0001559588, 0.003603915, -8.123206E-05, 0.0002615578
 233836428, -2.450876E-06, 0.003464538, -0.0002275379, 0.0002593961
 233936388, 0.0001869852, 0.003715087, 6.95737E-05, 0.0002593961
 234036348, 1.48207E-05, 0.003603215, -0.0002216251, 0.0002593961
 234136308, 0.0001028758, 0.003557773, -9.77864E-05, 0.0002593961
 234236268, 0.0001401256, 0.003671523, -0.000148336, 0.0002593961
 234336228, 7.456237E-05, 0.003532573, 0.0001679666, 0.0002593961
 234436188, 7.589691E-05, 0.003551517, -0.0001021894, 0.0002593961
 234536148, -0.0001870232, 0.003762611, -5.754433E-05, 0.0002593961
 234636108, 5.447006E-05, 0.003800865, -0.0002128846, 0.0002593961
 234736068, -6.065028E-05, 0.003812817, -4.817346E-05, 0.0002593961
 234836028, 5.461164E-05, 0.003676129, -0.0001278533, 0.0002593961
 234935988, 0.0001031501, 0.003519202, -8.551753E-05, 0.0002593961
 235035948, -0.000182284, 0.003598736, -0.0001165639, 0.0002593961
 235135908, -4.883641E-05, 0.003583171, -0.0003074297, 0.0002593961
 235235868, 0.0001466947, 0.003530339, -1.552914E-05, 0.0002593961
 235335828, 4.781706E-05, 0.003577379, -3.708784E-05, 0.0002593961
 235435788, -1.897199E-05, 0.003593448, -4.637293E-05, 0.0002593961
 235535748, 0.0001154219, 0.003563262, -0.0001157798, 0.0002593961
 235635708, -9.744238E-05, 0.003721975, -0.0001042962, 0.0002593961
 235735668, -5.692556E-05, 0.003526086, -0.0001012039, 0.0002593961
 235836461, -0.0001635398, 0.003471842, 4.853492E-05, 0.0002615578
 235936421, -0.0001839217, 0.003497669, -0.0001923995, 0.0002593961
 236036381, -0.0003723452, 0.003604357, 1.318642E-05, 0.0002593961
 236136341, -9.480274E-05, 0.003467448, 0.0001994313, 0.0002593961
 236236301, 2.517518E-05, 0.003575608, -0.0001843716, 0.0002593961
 236336261, 8.01453E-05, 0.003461286, -3.13407E-05, 0.0002593961
 236436221, 0.0001289252, 0.003599526, -0.0001900246, 0.0002593961
 236536181, -3.634047E-05, 0.00337185, -0.0001127602, 0.0002593961
 236636141, 3.064602E-06, 0.003477222, -0.0002506266, 0.0002593961
 236736101, -2.31516E-05, 0.003454667, 2.336641E-05, 0.0002593961
 236836061, -9.645653E-05, 0.003570356, 3.988697E-05, 0.0002593961
 236936021, 6.764688E-05, 0.003607651, -5.21475E-05, 0.0002593961
 237035981, 0.0001537354, 0.003801727, 8.522318E-05, 0.0002593961
 237135941, -0.0002212213, 0.003697692, 9.888865E-05, 0.0002593961
 237235901, 5.677418E-05, 0.003710274, -0.0001754429, 0.0002593961
 237335861, -0.000153872, 0.00356964, -0.0002242991, 0.0002593961
 237435821, -0.0003059082, 0.003664308, 1.711756E-05, 0.0002593961
 237535781, 2.974998E-05, 0.003667329, -1.603676E-05, 0.0002593961
 237635741, -0.0001033016, 0.003294829, 3.338431E-05, 0.0002593961
 237735701, -4.111098E-05, 0.003376339, 9.421987E-05, 0.0002593961
 237835661, 1.404242E-06, 0.003697931, 6.041256E-05, 0.0002593961
 237936454, 5.877027E-05, 0.003717514, -0.0002668719, 0.0002615578
 238036414, -7.831072E-06, 0.003764899, -1.377627E-05, 0.0002593961
 238136374, -0.0001599315, 0.003604005, 5.838084E-05, 0.0002593961
 238236334, 6.837158E-06, 0.003529571, -0.0001091723, 0.0002593961
 238336294, -1.739479E-06, 0.003426659, -1.54207E-05, 0.0002593961
 238436254, 5.329624E-05, 0.003706579, -0.0001130796, 0.0002593961
 238536214, 1.218479E-05, 0.003704538, -3.075084E-05, 0.0002593961
 238636174, -5.127157E-05, 0.003626103, 5.330814E-05, 0.0002593961
 238736134, -0.0002951614, 0.003442951, -8.981925E-05, 0.0002593961
 238836094, 1.132515E-05, 0.003650913, -8.325106E-05, 0.0002593961
 238936054, 0.0001771143, 0.003484374, -1.647528E-05, 0.0002593961
 239036014, -1.584018E-05, 0.003460426, -5.893613E-05, 0.0002593961
 239135974, -8.761281E-05, 0.003590517, -0.0001518441, 0.0002593961
 239235934, -7.472433E-05, 0.003560121, -0.0001244941, 0.0002593961
 239335894, 0.000140093, 0.003531827, -0.00019438, 0.0002593961
 239435854, 1.646554E-05, 0.003652156, 3.735477E-05, 0.0002593961
 239535814, -6.202858E-05, 0.003677732, 6.373718E-05, 0.0002593961
 239635774, -0.0001460183, 0.00362242, -0.0002239773, 0.0002593961
 239735734, 2.676527E-05, 0.003865506, -6.330102E-05, 0.0002593961
 239835694, 0.0001879568, 0.003567994, 0.0001019606, 0.0002593961
 239935654, 0.0001152667, 0.0036834, 0.0001567523, 0.0002593961
 240036447, 5.217195E-05, 0.00362054, 9.370907E-05, 0.0002615578
 240136407, -0.0001850153, 0.003689307, -1.062564E-05, 0.0002593961
 240236367, -0.0001716351, 0.003694408, -0.000166489, 0.0002593961
 240336327, 5.590251E-05, 0.003677088, 1.873221E-05, 0.0002593961
 240436287, -4.920049E-05, 0.003488091, 0.0001556501, 0.0002593961
 240536247, -0.0003272945, 0.003615164, -0.0001499459, 0.0002593961
 240636207, -4.790404E-05, 0.003623827, -9.61634E-05, 0.0002593961
 240736167, 0.0001163831, 0.003651736, -0.0001313459, 0.0002593961
 240836127, -0.0001882274, 0.003516649, -0.0001665152, 0.0002593961
 240936087, 0.0001125258, 0.003325481, 4.29113E-05, 0.0002593961
 241036047, 3.95344E-05, 0.003356359, -0.0001278389, 0.0002593961
 241136007, -0.0002573251, 0.003671904, -4.014553E-05, 0.0002593961
 241235967, -0.0001821535, 0.003614807, 4.835459E-05, 0.0002593961
 241335927, -6.878E-06, 0.003621989, 7.535183E-05, 0.0002593961
 241435887, -0.0001476766, 0.003500699, -0.0001099027, 0.0002593961
 241535847, 0.0001028856, 0.003535416, -1.760255E-05, 0.0002593961
 241635807, -0.0001566725, 0.003566666, -0.0001055796, 0.0002593961
 241735767, 9.413038E-05, 0.003572668, -9.7728E-05, 0.0002593961
 241835727, 1.107453E-05, 0.00340974, -0.0002523687, 0.0002593961
 241935687, -9.770546E-06, 0.003696052, -8.352752E-05, 0.0002593961
 242036480, 1.904444E-05, 0.003705437, 0.0001162954, 0.0002615578
 242136440, 1.537967E-05, 0.003414727, -0.000105744, 0.0002593961
 242236400, -1.672723E-05, 0.003610166, 6.824862E-05, 0.0002593961
 242336360, -4.410376E-05, 0.003529782, -0.0003028373, 0.0002593961
 242436320, -0.000108522, 0.003518285, -3.791603E-05, 0.0002593961
 242536280, -2.986045E-05, 0.003736017, -8.936286E-05, 0.0002593961
 242636240, 6.443134E-05, 0.003462623, -0.000200605, 0.0002593961
 242736200, -0.0001675866, 0.003509001, -0.0003121044, 0.0002593961
 242836160, -0.0001015131, 0.003441094, -5.696043E-05, 0.0002593961
 242936120, -3.606016E-05, 0.003658328, -0.0001909088, 0.0002593961
 243036080, 5.307948E-05, 0.00371206, -1.496907E-05, 0.0002593961
 243136040, -0.0001486187, 0.003651799, 8.883736E-05, 0.0002593961
 243236000, -8.580986E-05, 0.003528689, -3.993463E-05, 0.0002593961
 243335960, -0.0001517829, 0.00359317, -0.0001387887, 0.0002593961
 243435920, 0.0002529589, 0.003493525, -8.01648E-05, 0.0002593961
 243535880, 0.0001945086, 0.003814174, -2.306135E-05, 0.0002593961
 243635840, -4.139394E-05, 0.003562742, 5.412558E-05, 0.0002593961
 243735800, -3.894339E-05, 0.003798137, -0.0001553462, 0.0002593961
 243835760, -8.191681E-05, 0.003655934, -4.638128E-05, 0.0002593961
 243935720, -0.0001052225, 0.00347869, 0.000184766, 0.0002593961
 244035680, -3.80371E-05, 0.003604124, -0.0001790689, 0.0002593961
 244136473, -0.0003325116, 0.00372209, -9.711314E-05, 0.0002615578
 244236433, -0.0001348788, 0.003618247, -0.0001903833, 0.0002593961
 244336393, -5.037711E-05, 0.00358455, -6.103219E-05, 0.0002593961
 244436353, 0.0001205508, 0.003679409, -8.59882E-05, 0.0002593961
 244536313, -0.0001846738, 0.003713301, -0.0001951486, 0.0002593961
 244636273, 9.067557E-05, 0.003618325, -0.0001092891, 0.0002593961
 244736233, -3.067112E-05, 0.003663114, -8.48371E-05, 0.0002593961
 244836193, -7.316323E-05, 0.003545595, -5.868591E-05, 0.0002593961
 244936153, 4.202427E-05, 0.003698517, -4.822231E-05, 0.0002593961
 245036113, 4.850003E-06, 0.003560618, -6.693428E-05, 0.0002593961
 245136073, 0.0001170121, 0.003731725, -0.0001574566, 0.0002593961
 245236033, 0.0001435103, 0.003725837, 9.356449E-05, 0.0002593961
 245335993, -6.569757E-05, 0.003570903, -6.55508E-06, 0.0002593961
 245435953, -6.634634E-05, 0.003644899, -0.0001421157, 0.0002593961
 245535913, -0.000217439, 0.003686169, -0.0001233954, 0.0002593961
 245635873, -0.0001916216, 0.003498698, 9.008617E-05, 0.0002593961
 245735833, -0.0001441077, 0.003380566, -5.812227E-05, 0.0002593961
 245835793, 5.301357E-05, 0.003387458, -0.0001681787, 0.0002593961
 245935753, 0.000155249, 0.003516961, -0.00014208, 0.0002593961
 246035713, 0.0003068991, 0.003442228, 1.854869E-05, 0.0002593961
 246135673, 0.000128689, 0.00345147, -0.0001536624, 0.0002593961
 246236466, -8.987556E-05, 0.00358069, -1.598752E-05, 0.0002615578
 246336426, -0.0001267531, 0.003756649, -0.0004151292, 0.0002593961
 246436386, -8.411086E-05, 0.003648749, -0.0002506755, 0.0002593961
 246536346, 8.517873E-05, 0.003645458, -4.775758E-05, 0.0002593961
 246636306, -3.849984E-05, 0.00371218, -0.0001266914, 0.0002593961
 246736266, 0.0001206786, 0.003350797, -3.972133E-05, 0.0002593961
 246836226, -8.760802E-05, 0.003399755, -4.237744E-05, 0.0002593961
 246936186, -6.607192E-06, 0.003706531, -1.034323E-05, 0.0002593961
 247036146, -6.107798E-05, 0.003729368, -6.373939E-06, 0.0002593961
 247136106, -0.0001121357, 0.00365091, -4.604881E-05, 0.0002593961
 247236066, -4.430615E-05, 0.003631726, 8.272436E-05, 0.0002593961
 247336026, -0.0001209377, 0.003724269, 1.761924E-05, 0.0002593961
 247435986, -9.245844E-06, 0.003588687, -4.093199E-06, 0.0002593961
 247535946, -8.637903E-05, 0.003466134, 7.132537E-05, 0.0002593961
 247635906, -0.000146633, 0.00376384, -0.0004694812, 0.0002593961
 247735866, 0.0002842004, 0.003826028, -0.1459397, 0.0002593961
 247835826, 0.000356207, 0.00375832, -0.1478528, 0.0002593961
 247935786, -5.739536E-06, 0.003550211, -0.01487749, 0.0002593961
 248035746, -0.000169852, 0.003453279, 0.05082142, 0.0002593961
 248135706, -0.0002385566, 0.003443088, 0.05303817, 0.0002593961
 248235666, -7.527989E-05, 0.003554464, -0.04126561, 0.0002593961
 248336459, -0.0006666598, 0.002736704, -0.6242825, 0.0002615578
 248436419, -0.003437003, 1.733795E-05, -0.668233, 0.0002593961
 248536379, -0.006324473, -0.002984444, -0.3880209, 0.0002593961
 248636339, -0.008098448, -0.004763986, -0.1455774, 0.0002593961
 248736299, -0.008785092, -0.005131861, -0.05303853, 0.0002593961
 248836259, -0.008804602, -0.004888766, -0.06417587, 0.0002593961
 248936219, -0.008254744, -0.004373527, -0.1020633, 0.0002593961
 249036179, -0.007852187, -0.003813827, -0.1232165, 0.0002593961
 249136139, -0.007323198, -0.002996518, -0.1217729, 0.0002593961
 249236099, -0.00667187, -0.002534058, -0.1088379, 0.0002593961
 249336059, -0.006096693, -0.001747551, -0.0956963, 0.0002593961
 249436019, -0.005724239, -0.001299512, -0.08650074, 0.0002593961
 249535979, -0.005131552, -0.0007429156, -0.08102379, 0.0002593961
 249635939, -0.004652388, -0.0003161282, -0.07681213, 0.0002593961
 249735899, -0.004264232, 0.0001359988, -0.07283054, 0.0002593961
 249835859, -0.003773604, 0.0004943246, -0.06816885, 0.0002593961
 249935819, -0.003429311, 0.0008790256, -0.06385178, 0.0002593961
 250035779, -0.003269346, 0.001145198, -0.05987735, 0.0002593961
 250135739, -0.002802952, 0.001477159, -0.05616575, 0.0002593961
 250235699, -0.002615931, 0.001463373, -0.05243066, 0.0002593961
 250335659, -0.002317011, 0.001757513, -0.04912724, 0.0002593961
 250436452, -0.001957485, 0.001803297, -0.04654947, 0.0002615578
 250536412, -0.001428425, 0.002080336, -0.04319832, 0.0002593961
 250636372, -0.001344187, 0.002280827, -0.03986549, 0.0002593961
 250736332, -0.001281316, 0.002275792, -0.03728725, 0.0002593961
 250836292, -0.001129219, 0.002509342, -0.03495537, 0.0002593961
 250936252, -0.001002559, 0.002523546, -0.03317865, 0.0002593961
 251036212, -0.001020585, 0.002674952, -0.03126839, 0.0002593961
 251136172, -0.000983233, 0.002419066, -0.02934479, 0.0002593961
 251236132, -0.0009140061, 0.002497199, -0.02753728, 0.0002593961
 251336092, -0.0008425366, 0.002544564, -0.02560765, 0.0002593961
 251436052, -0.0009780147, 0.00239853, -0.02420107, 0.0002593961
 251536012, -0.0008256765, 0.002251311, -0.02264751, 0.0002593961
 251635972, -0.000843901, 0.002229579, -0.02124884, 0.0002593961
 251735932, -0.0006351817, 0.002391395, -0.01981299, 0.0002593961
 251835892, -0.0006512093, 0.002127546, -0.01864893, 0.0002593961
 251935852, -0.0007465384, 0.002145785, -0.0173332, 0.0002593961
 252035812, -0.000843155, 0.001971375, -0.01633279, 0.0002593961
 252135772, -0.0006792957, 0.002067048, -0.01535496, 0.0002593961
 252235732, -0.0005774731, 0.001942641, -0.01426695, 0.0002593961
 252335692, -0.0008404892, 0.002101846, -0.01339257, 0.0002593961
 252436485, -0.000650304, 0.00191991, -0.01267876, 0.0002615578
 252536445, -0.0006604582, 0.001959739, -0.01173754, 0.0002593961
 252636405, -0.0004981852, 0.001833226, -0.0112324, 0.0002593961
 252736365, -0.0004549379, 0.001773779, -0.01052632, 0.0002593961
 252836325, -0.0004783206, 0.001895743, -0.009801116, 0.0002593961
 252936285, -0.0004641255, 0.00215801, -0.00908041, 0.0002593961
 253036245, -0.0001653149, 0.002249319, -0.008234319, 0.0002593961
 253136205, -9.16162E-05, 0.002368675, -0.008071242, 0.0002593961
 253236165, -3.062203E-05, 0.002601343, -0.007455037, 0.0002593961
 253336125, -4.127207E-05, 0.002743297, -0.00709357, 0.0002593961
 253436085, 0.000222031, 0.003027741, -0.006123439, 0.0002593961
 253536045, 0.0001709742, 0.003156885, -0.005731618, 0.0002593961
 253636005, 0.0002425523, 0.003460876, -0.005662794, 0.0002593961
 253735965, 0.0003495532, 0.003805269, -0.005447225, 0.0002593961
 253835925, 0.0003438052, 0.004138326, -0.005194242, 0.0002593961
 253935885, 0.0003983751, 0.004373797, -0.004770238, 0.0002593961
 254035845, 0.0003528634, 0.004513244, -0.004605317, 0.0002593961
 254135805, 0.0002022322, 0.004704682, -0.004167985, 0.0002593961
 254235765, 0.0005359529, 0.004948286, -0.003930351, 0.0002593961
 254335725, 0.0003055129, 0.00501162, -0.003755985, 0.0002593961
 254435685, 0.000342444, 0.00509495, -0.003359052, 0.0002593961
 254536478, 0.0004166365, 0.005331437, -0.003277439, 0.0002615578
 254636438, 0.0004708348, 0.005542292, -0.003196547, 0.0002593961
 254736398, 0.0004456285, 0.005525557, -0.002926595, 0.0002593961
 254836358, 0.000517462, 0.005835011, -0.002584482, 0.0002593961
 254936318, 0.000670868, 0.005746628, -0.002802061, 0.0002593961
 255036278, 0.0008269401, 0.005854448, 0.02005615, 0.0002593961
 255136238, 0.0009019833, 0.005519416, 0.03532563, 0.0002593961
 255236198, 0.0009387443, 0.005115079, 0.03304551, 0.0002593961
 255336158, 0.001311334, 0.005266834, 0.1174103, 0.0002593961
 255436118, 0.002298494, 0.00591228, 0.3251032, 0.0002593961
 255536078, 0.002079481, 0.005581787, 0.3023903, 0.0002593961
 255636038, 0.002104971, 0.005326278, 0.2825373, 0.0002593961
 255735998, 0.001962363, 0.005113586, 0.2644977, 0.0002593961
 255835958, 0.001689782, 0.005003281, 0.2478682, 0.0002593961
 255935918, 0.0017097, 0.004778412, 0.2323473, 0.0002593961
 256035878, 0.001498214, 0.004589379, 0.2178683, 0.0002593961
 256135838, 0.001157205, 0.004333792, 0.1933051, 0.0002593961
 256235798, 0.001561598, 0.003759648, 0.1440209, 0.0002593961
 256335758, 0.006881163, 0.00150219, 0.1249298, 0.0002593961
 256435718, 0.01649596, -0.003852519, 0.1111305, 0.0002593961
 256535678, 0.02656475, -0.00840078, 0.1014354, 0.0002593961
 256636471, 0.0340336, -0.007888899, 0.09617498, 0.0002615578
 256736431, 0.034871, -9.864802E-06, 0.09107473, 0.0002593961
 256836391, 0.0305488, 0.01342077, 0.0894684, 0.0002593961
 256936351, 0.02246477, 0.0265976, 0.08962894, 0.0002593961
 257036311, 0.01388724, 0.03499181, 0.09046135, 0.0002593961
 257136271, 0.009569828, 0.03787033, 0.09121507, 0.0002593961
 257236231, 0.01149194, 0.03684352, 0.08770934, 0.0002593961
 257336191, 0.01899675, 0.03241479, 0.08271876, 0.0002593961
 257436151, 0.02945516, 0.02630612, 0.07669794, 0.0002593961
 257536111, 0.03886168, 0.02400754, 0.07033832, 0.0002593961
 257636071, 0.04440053, 0.02746638, 0.06416047, 0.0002593961
 257736031, 0.04278366, 0.02810988, 0.05750044, 0.0002593961
 257835991, 0.03380938, 0.02084887, 0.0507612, 0.0002593961
 257935951, 0.01906487, 0.008502908, 0.04467164, 0.0002593961
 258035911, 0.001735893, -0.00358609, 0.03917704, 0.0002593961
 258135871, -0.01590184, -0.01280996, 0.03495708, 0.0002593961
 258235831, -0.03062811, -0.01765906, 0.03043417, 0.0002593961
 258335791, -0.04041724, -0.01750457, 0.0263625, 0.0002593961
 258435751, -0.04464913, -0.01333495, 0.02256985, 0.0002593961
 258535711, -0.04287487, -0.007082055, 0.01886523, 0.0002593961
 258635671, -0.03635804, -0.0007255212, 0.0157501, 0.0002593961
 258736464, -0.0266801, 0.003327379, 0.01343428, 0.0002615578
 258836424, -0.01513611, 0.00470076, 0.0112253, 0.0002593961
 258936384, -0.007918235, 0.00339017, 0.009837064, 0.0002593961
 259036344, -0.007628778, 0.0008641882, 0.007701905, 0.0002593961
 259136304, -0.0153696, -0.00111084, 0.006849109, 0.0002593961
 259236264, -0.02894947, -0.001757989, 0.00550093, 0.0002593961
 259336224, -0.03728702, -0.001958016, 0.004829671, 0.0002593961
 259436184, -0.0350313, -0.003200723, 0.004162376, 0.0002593961
 259536144, -0.02476794, -0.007564235, 0.003283708, 0.0002593961
 259636104, -0.01305112, -0.01495456, 0.002926867, 0.0002593961
 259736064, -0.004437947, -0.02190704, 0.002671683, 0.0002593961
 259836024, -0.001429481, -0.02479022, 0.002229119, 0.0002593961
 259935984, -0.002108266, -0.02178313, 0.00156057, 0.0002593961
 260035944, -0.003807066, -0.01283323, 0.00115469, 0.0002593961
 260135904, -0.004289478, -0.00228946, 0.001011608, 0.0002593961
 260235864, -0.003284065, 0.006597532, 0.0009388635, 0.0002593961
 260335824, -0.0007547897, 0.01101752, 0.0009669976, 0.0002593961
 260435784, 0.002393278, 0.01105833, 0.000309353, 0.0002593961
 260535744, 0.001260285, 0.01101206, 0.0002512987, 0.0002593961
 260635704, -0.005467444, 0.01469316, 0.0003777161, 0.0002593961
 260735664, -0.0127221, 0.01995124, 0.0003187418, 0.0002593961
 260836457, -0.01551297, 0.0238431, 0.0001633785, 0.0002615578
 260936417, -0.0119684, 0.02278676, 4.4912E-06, 0.0002593961
 261036377, -0.003412408, 0.01681984, -0.0005571364, 0.0002593961
 261136337, 0.007522889, 0.006928271, -0.0001986019, 0.0002593961
 261236297, 0.01670506, -0.003574045, -0.0001880168, 0.0002593961
 261336257, 0.01991482, -0.009826445, -0.0003032805, 0.0002593961
 261436217, 0.01536892, -0.009875624, -0.0004523089, 0.0002593961
 261536177, 0.00663911, -0.009502394, -0.0001862436, 0.0002593961
 261636137, -0.001694281, -0.01222607, -0.0005171601, 0.0002593961
 261736097, -0.0068266, -0.01841798, -0.0001196561, 0.0002593961
 261836057, -0.00912746, -0.02513211, 7.081894E-05, 0.0002593961
 261936017, -0.0125013, -0.02705589, -0.0002806912, 0.0002593961
 262035977, -0.01942118, -0.02154048, -0.0002692766, 0.0002593961
 262135937, -0.02886159, -0.01130686, -0.0002026283, 0.0002593961
 262235897, -0.03791491, -0.000463219, -3.349513E-05, 0.0002593961
 262335857, -0.03781205, 0.009462692, -0.0004742918, 0.0002593961
 262435817, -0.02491598, 0.01694723, -0.0009510955, 0.0002593961
 262535777, -0.005518444, 0.01848526, -0.0008835286, 0.0002593961
 262635737, 0.01367984, 0.01380466, -0.0008483223, 0.0002593961
 262735697, 0.02752628, 0.005581946, -0.0008067134, 0.0002593961
 262835657, 0.03358947, -0.003664793, -0.000563701, 0.0002593961
 262936450, 0.0323281, -0.01167511, -0.000377844, 0.0002615578
 263036410, 0.02621345, -0.01660052, -0.0007575795, 0.0002593961
 263136370, 0.01862263, -0.01814564, -0.0003190731, 0.0002593961
 263236330, 0.01219, -0.01692648, -0.0004803929, 0.0002593961
 263336290, 0.008805661, -0.01450414, -0.0004872483, 0.0002593961
 263436250, 0.008037974, -0.01165431, -0.000762434, 0.0002593961
 263536210, 0.009872563, -0.009491232, -0.001166139, 0.0002593961
 263636170, 0.01323646, -0.008384366, -0.0006845738, 0.0002593961
 263736130, 0.01682382, -0.008440064, -0.0006436575, 0.0002593961
 263836090, 0.01934881, -0.009079395, -0.0003744368, 0.0002593961
 263936050, 0.02110114, -0.0106276, -0.0002717052, 0.0002593961
 264036010, 0.0218376, -0.0119669, -0.0005944091, 0.0002593961
 264135970, 0.02229935, -0.01327996, -0.0004483872, 0.0002593961
 264235930, 0.02206356, -0.0140124, -0.0007072323, 0.0002593961
 264335890, 0.02204238, -0.01422737, -0.00059411, 0.0002593961
 264435850, 0.02197257, -0.01399042, -0.0005043014, 0.0002593961
 264535810, 0.02235221, -0.014146, -0.0004048134, 0.0002593961
 264635770, 0.0231109, -0.01403795, -0.0007217534, 0.0002593961
 264735730, 0.02410313, -0.01412221, 0.0004053175, 0.0002593961
 264835690, 0.02502561, -0.01444242, -0.000113648, 0.0002593961
 264936483, 0.02599652, -0.0147188, -0.0008326212, 0.0002615578
 265036443, 0.02674935, -0.01493528, 7.265398E-05, 0.0002593961
 265136403, 0.02748625, -0.0153096, -0.000208217, 0.0002593961
 265236363, 0.02821131, -0.01540113, -0.0001329939, 0.0002593961
 265336323, 0.02875259, -0.01553115, -0.00014412, 0.0002593961
 265436283, 0.02946508, -0.01572151, -0.0003186882, 0.0002593961
 265536243, 0.03023985, -0.01590011, -8.423057E-05, 0.0002593961
 265636203, 0.03072147, -0.01621951, -6.689137E-05, 0.0002593961
 265736163, 0.03128123, -0.016866, -0.0002545971, 0.0002593961
 265836123, 0.03194803, -0.01697437, -0.0004539902, 0.0002593961
 265936083, 0.03284954, -0.0172188, -4.573184E-05, 0.0002593961
 266036043, 0.03344359, -0.01712594, -0.0002024293, 0.0002593961
 266136003, 0.03423344, -0.01760689, -0.0003459417, 0.0002593961
 266235963, 0.03475395, -0.01769639, -0.0002872891, 0.0002593961
 266335923, 0.03524991, -0.01771855, 1.751318E-05, 0.0002593961
 266435883, 0.03603866, -0.01795562, -5.869424E-05, 0.0002593961
 266535843, 0.03639637, -0.0184662, 0.0003015408, 0.0002593961
 266635803, 0.03701106, -0.01858384, 0.0003286465, 0.0002593961
 266735763, 0.03746282, -0.01883625, 0.0003585692, 0.0002593961
 266835723, 0.03782212, -0.01878765, 5.004072E-05, 0.0002593961
 266935683, 0.03844475, -0.01865035, -8.23478E-05, 0.0002593961
 267036476, 0.03922242, -0.01879107, -0.0002137493, 0.0002615578
 267136436, 0.0395006, -0.01884433, -0.000122012, 0.0002593961
 267236396, 0.03997807, -0.01881323, -0.0001344226, 0.0002593961
 267336356, 0.04041411, -0.01912435, -0.0002966433, 0.0002593961
 267436316, 0.04078016, -0.01927237, -0.000433554, 0.0002593961
 267536276, 0.04129806, -0.0193313, -0.0003730413, 0.0002593961
 267636236, 0.04152397, -0.01935389, -0.0005617219, 0.0002593961
 267736196, 0.04194266, -0.01920459, -0.0005432435, 0.0002593961
 267836156, 0.04249337, -0.01950147, -0.000489336, 0.0002593961
 267936116, 0.04315826, -0.01976336, -0.0009730869, 0.0002593961
 268036076, 0.04354681, -0.01975335, -0.0007665439, 0.0002593961
 268136036, 0.04385972, -0.01951658, -0.0005235972, 0.0002593961
 268235996, 0.04442803, -0.0192213, -0.0009319784, 0.0002593961
 268335956, 0.04482854, -0.01961253, -0.0009635408, 0.0002593961
 268435916, 0.04518453, -0.01965117, -0.0009605116, 0.0002593961
 268535876, 0.04575436, -0.01970004, -0.0009294426, 0.0002593961
 268635836, 0.04608684, -0.01979413, -0.001111082, 0.0002593961
 268735796, 0.04635749, -0.01988319, -0.00100458, 0.0002593961
 268835756, 0.04686351, -0.01996232, -0.001087751, 0.0002593961
 268935716, 0.04735787, -0.01996024, -0.001283271, 0.0002593961
 269035676, 0.04762736, -0.01960852, -0.001599508, 0.0002593961
 269136469, 0.04837668, -0.01974456, -0.001397516, 0.0002615578
 269236429, 0.04827944, -0.01992285, -0.00159681, 0.0002593961
 269336389, 0.04885392, -0.01971574, -0.001539757, 0.0002593961
 269436349, 0.04924366, -0.02008556, -0.001797643, 0.0002593961
 269536309, 0.04964054, -0.01996899, -0.001759569, 0.0002593961
 269636269, 0.05010579, -0.02009855, -0.002037115, 0.0002593961
 269736229, 0.05027899, -0.02008722, -0.00205185, 0.0002593961
 269836189, 0.05073841, -0.01989878, -0.002260729, 0.0002593961
 269936149, 0.05102616, -0.01979996, -0.002424063, 0.0002593961
 270036109, 0.05155099, -0.01973472, -0.002625795, 0.0002593961
 270136069, 0.05188847, -0.01984861, -0.002561217, 0.0002593961
 270236029, 0.05237989, -0.01986043, -0.002789773, 0.0002593961
 270335989, 0.05269038, -0.01988675, -0.002851949, 0.0002593961
 270435949, 0.05297755, -0.0201839, -0.00294297, 0.0002593961
 270535909, 0.05347674, -0.02005431, -0.002998795, 0.0002593961
 270635869, 0.05396801, -0.02005228, -0.003097458, 0.0002593961
 270735829, 0.05456436, -0.02009981, -0.003048161, 0.0002593961
 270835789, 0.05483955, -0.02001804, -0.003804342, 0.0002593961
 270935749, 0.05511956, -0.01980593, -0.003674841, 0.0002593961
 271035709, 0.05510273, -0.01982688, -0.004235215, 0.0002593961
 271135669, 0.05530874, -0.01963044, -0.004206507, 0.0002593961
 271236462, 0.05600426, -0.01973712, -0.004696726, 0.0002615578
 271336422, 0.0556157, -0.01970294, -0.00470173, 0.0002593961
 271436382, 0.05575997, -0.01947181, -0.004798708, 0.0002593961
 271536342, 0.05609715, -0.01968922, -0.004665838, 0.0002593961
 271636302, 0.0567897, -0.01936223, -0.005106392, 0.0002593961
 271736262, 0.05695584, -0.0191684, -0.00499468, 0.0002593961
 271836222, 0.05729228, -0.01893329, -0.005487195, 0.0002593961
 271936182, 0.05754403, -0.01882931, -0.005534739, 0.0002593961
 272036142, 0.05806915, -0.01875759, -0.005659034, 0.0002593961
 272136102, 0.05844441, -0.01861068, -0.005732132, 0.0002593961
 272236062, 0.05904922, -0.01828014, -0.006184169, 0.0002593961
 272336022, 0.05909978, -0.01803981, -0.006190048, 0.0002593961
 272435982, 0.05949067, -0.0179321, -0.006574595, 0.0002593961
 272535942, 0.05966679, -0.01763613, -0.006500271, 0.0002593961
 272635902, 0.05996768, -0.01743648, -0.006936966, 0.0002593961
 272735862, 0.06017529, -0.01726511, -0.006665779, 0.0002593961
 272835822, 0.06045007, -0.01708061, -0.007172877, 0.0002593961
 272935782, 0.06072698, -0.01686681, -0.0067214, 0.0002593961
 273035742, 0.06149321, -0.01698665, -0.007587359, 0.0002593961
 273135702, 0.0614284, -0.01641272, -0.007568454, 0.0002593961
 273235662, 0.0620436, -0.01626526, -0.008053631, 0.0002593961
 273336455, 0.06269816, -0.01593391, -0.007880803, 0.0002615578
 273436415, 0.06273166, -0.01588995, -0.008440291, 0.0002593961
 273536375, 0.06273795, -0.01552717, -0.008293652, 0.0002593961
 273636335, 0.06343099, -0.01550852, -0.008744014, 0.0002593961
 273736295, 0.06346741, -0.01535144, -0.008716753, 0.0002593961
 273836255, 0.06405527, -0.0151862, -0.009313486, 0.0002593961
 273936215, 0.06455177, -0.01480424, -0.009101313, 0.0002593961
 274036175, 0.06527317, -0.0146944, -0.00963172, 0.0002593961
 274136135, 0.06568313, -0.01414843, -0.009523295, 0.0002593961
 274236095, 0.06643897, -0.01404713, -0.01022667, 0.0002593961
 274336055, 0.06661216, -0.01358184, -0.009988572, 0.0002593961
 274436015, 0.06723685, -0.01346836, -0.01037159, 0.0002593961
 274535975, 0.06784038, -0.01293973, -0.01019015, 0.0002593961
 274635935, 0.0687146, -0.01315923, -0.01075498, 0.0002593961
 274735895, 0.06926547, -0.01264534, -0.01056008, 0.0002593961
 274835855, 0.07030143, -0.01279292, -0.01141105, 0.0002593961
 274935815, 0.07068217, -0.01230487, -0.01142096, 0.0002593961
 275035775, 0.07136045, -0.01231158, -0.011957, 0.0002593961
 275135735, 0.07158898, -0.01163831, -0.01208279, 0.0002593961
 275235695, 0.07251322, -0.01126057, -0.01262336, 0.0002593961
 275335655, 0.07276917, -0.01054463, -0.01241255, 0.0002593961
 275436448, 0.07402363, -0.01024675, -0.0128846, 0.0002615578
 275536408, 0.07383831, -0.009743873, -0.01278229, 0.0002593961
 275636368, 0.07473299, -0.009841954, -0.01315031, 0.0002593961
 275736328, 0.07539963, -0.009450913, -0.01306807, 0.0002593961
 275836288, 0.07671215, -0.00971445, -0.01367669, 0.0002593961
 275936248, 0.07704807, -0.009153198, -0.01361649, 0.0002593961
 276036208, 0.0782267, -0.009209573, -0.01435942, 0.0002593961
 276136168, 0.07843163, -0.008708211, -0.01427279, 0.0002593961
 276236128, 0.0793097, -0.008874584, -0.01496712, 0.0002593961
 276336088, 0.07970905, -0.008288605, -0.01492092, 0.0002593961
 276436048, 0.08057167, -0.008315974, -0.01560459, 0.0002593961
 276536008, 0.08101787, -0.00770487, -0.01568375, 0.0002593961
 276635968, 0.08154195, -0.007370304, -0.01642763, 0.0002593961
 276735928, 0.08182937, -0.006628646, -0.01642512, 0.0002593961
 276835888, 0.08260686, -0.006551212, -0.01694503, 0.0002593961
 276935848, 0.08308591, -0.006003367, -0.01681958, 0.0002593961
 277035808, 0.0841652, -0.005877958, -0.01755986, 0.0002593961
 277135768, 0.08120278, -0.002890931, -0.01903257, 0.0002593961
 277235728, 0.07352155, 0.003933311, -0.02291314, 0.0002593961
 277335688, 0.05901824, 0.01562515, -0.02593439, 0.0002593961
 277436481, 0.0411808, 0.02966693, -0.0283547, 0.0002615578
 277536441, 0.02109675, 0.0445314, -0.02827264, 0.0002593961
 277636401, 0.003129443, 0.05914094, -0.02812452, 0.0002593961
 277736361, -0.01278595, 0.07292149, -0.02625395, 0.0002593961
 277836321, -0.02454604, 0.08435974, -0.02482772, 0.0002593961
 277936281, -0.03363467, 0.09495502, -0.02269077, 0.0002593961
 278036241, -0.03949331, 0.1032998, -0.02178051, 0.0002593961
 278136201, -0.04403564, 0.110522, -0.02030273, 0.0002593961
 278236161, -0.04724202, 0.1161667, -0.02029955, 0.0002593961
 278336121, -0.05017721, 0.1212211, -0.01968086, 0.0002593961
 278436081, -0.05280348, 0.1251619, -0.01985042, 0.0002593961
 278536041, -0.05633688, 0.1283039, -0.01940512, 0.0002593961
 278636001, -0.06002982, 0.1310008, -0.01994032, 0.0002593961
 278735961, -0.06417173, 0.1334071, -0.01925863, 0.0002593961
 278835921, -0.06782812, 0.1351655, -0.01894493, 0.0002593961
 278935881, -0.07203621, 0.1370124, -0.01777047, 0.0002593961
 279035841, -0.0757179, 0.1381642, -0.01692066, 0.0002593961
 279135801, -0.07927019, 0.1392827, -0.01492439, 0.0002593961
 279235761, -0.08246018, 0.1397862, -0.01306853, 0.0002593961
 279335721, -0.08495817, 0.1400672, -0.01059077, 0.0002593961
 279435681, -0.08671323, 0.1399437, -0.008304892, 0.0002593961
 279536474, -0.08909182, 0.1408445, -0.005507707, 0.0002615578
 279636434, -0.08882225, 0.13928, -0.002662586, 0.0002593961
 279736394, -0.08833592, 0.1384561, 0.0001510611, 0.0002593961
 279836354, -0.08747913, 0.1373401, 0.003350577, 0.0002593961
 279936314, -0.08579601, 0.1361188, 0.006217562, 0.0002593961
 280036274, -0.08370678, 0.1346625, 0.009101014, 0.0002593961
 280136234, -0.08150443, 0.1331429, 0.01201898, 0.0002593961
 280236194, -0.07850441, 0.1314048, 0.01470143, 0.0002593961
 280336154, -0.07541504, 0.1292746, 0.0173093, 0.0002593961
 280436114, -0.07220588, 0.127239, 0.01933362, 0.0002593961
 280536074, -0.06884438, 0.1248394, 0.02183061, 0.0002593961
 280636034, -0.06518515, 0.1219913, 0.02307194, 0.0002593961
 280735994, -0.06184032, 0.1190995, 0.0247645, 0.0002593961
 280835954, -0.0580592, 0.115973, 0.0259357, 0.0002593961
 280935914, -0.05483302, 0.1127059, 0.02699202, 0.0002593961
 281035874, -0.05128866, 0.1089253, 0.02739026, 0.0002593961
 281135834, -0.04794211, 0.1052052, 0.02747498, 0.0002593961
 281235794, -0.04448805, 0.1015762, 0.02711947, 0.0002593961
 281335754, -0.04134434, 0.09812458, 0.02692868, 0.0002593961
 281435714, -0.0382643, 0.09502343, 0.02627061, 0.0002593961
 281535674, -0.03584498, 0.09144855, 0.02512485, 0.0002593961
 281636467, -0.03397999, 0.08940237, 0.02438258, 0.0002615578
 281736427, -0.03122973, 0.08537336, 0.02272496, 0.0002593961
 281836387, -0.02906542, 0.0826375, 0.02131043, 0.0002593961
 281936347, -0.02703838, 0.08036728, 0.01964043, 0.0002593961
 282036307, -0.02496062, 0.07792978, 0.01788619, 0.0002593961
 282136267, -0.02319594, 0.07610603, 0.01654131, 0.0002593961
 282236227, -0.02133889, 0.07453497, 0.01481653, 0.0002593961
 282336187, -0.01972798, 0.07327385, 0.01310076, 0.0002593961
 282436147, -0.01850628, 0.07218695, 0.01177313, 0.0002593961
 282536107, -0.01728369, 0.07101273, 0.01027603, 0.0002593961
 282636067, -0.01669573, 0.07045809, 0.008836131, 0.0002593961
 282736027, -0.01761431, 0.07110421, 0.006866443, 0.0002593961
 282835987, -0.01991909, 0.07232849, 0.005021995, 0.0002593961
 282935947, -0.02265964, 0.07433184, 0.003736075, 0.0002593961
 283035907, -0.02574974, 0.07643367, 0.002500895, 0.0002593961
 283135867, -0.02935182, 0.07851748, 0.001623715, 0.0002593961
 283235827, -0.03227408, 0.08031752, 0.0009173846, 0.0002593961
 283335787, -0.03473648, 0.08165473, 0.0006257914, 0.0002593961
 283435747, -0.03679584, 0.08278069, 0.0004914249, 0.0002593961
 283535707, -0.03804875, 0.08351693, 0.0002476679, 0.0002593961
 283635667, -0.03937964, 0.08403479, 0.0001074933, 0.0002593961
 283736460, -0.04088058, 0.08525592, 0.0001605655, 0.0002615578
 283836420, -0.04149436, 0.08417784, -9.21989E-05, 0.0002593961
 283936380, -0.04198768, 0.08397167, -0.0001515259, 0.0002593961
 284036340, -0.04297871, 0.08349514, -3.722728E-05, 0.0002593961
 284136300, -0.04378285, 0.08277102, -0.0002364786, 0.0002593961
 284236260, -0.04419733, 0.08219066, -5.789945E-05, 0.0002593961
 284336220, -0.04484737, 0.08139607, 0.0001905322, 0.0002593961
 284436180, -0.04541954, 0.08042655, 0.000282643, 0.0002593961
 284536140, -0.04572429, 0.07956414, 0.0002076368, 0.0002593961
 284636100, -0.04611569, 0.07855237, 0.0005138678, 0.0002593961
 284736060, -0.0464493, 0.07754057, 0.0006636705, 0.0002593961
 284836020, -0.04651995, 0.07663126, 0.000962173, 0.0002593961
 284935980, -0.04686607, 0.07559642, 0.0009609216, 0.0002593961
 285035940, -0.04674811, 0.07454193, 0.001376645, 0.0002593961
 285135900, -0.04657585, 0.07348613, 0.001382372, 0.0002593961
 285235860, -0.04634106, 0.07256342, 0.001556668, 0.0002593961
 285335820, -0.04611073, 0.07160647, 0.00157465, 0.0002593961
 285435780, -0.04566101, 0.07041068, 0.001945404, 0.0002593961
 285535740, -0.04523844, 0.06937939, 0.001858006, 0.0002593961
 285635700, -0.04490251, 0.06827578, 0.001738789, 0.0002593961
 285735660, -0.0443896, 0.06714208, 0.001787754, 0.0002593961
 285836453, -0.04428688, 0.06660781, 0.002149232, 0.0002615578
 285936413, -0.04319733, 0.06447743, 0.001939386, 0.0002593961
 286036373, -0.04236249, 0.06320383, 0.001554952, 0.0002593961
 286136333, -0.04195189, 0.06195542, 0.001821128, 0.0002593961
 286236293, -0.0413302, 0.06054674, 0.001802813, 0.0002593961
 286336253, -0.04062342, 0.05898599, 0.001720918, 0.0002593961
 286436213, -0.04020471, 0.05745976, 0.001432718, 0.0002593961
 286536173, -0.03959712, 0.05584526, 0.001528486, 0.0002593961
 286636133, -0.03868046, 0.05420883, 0.0009428732, 0.0002593961
 286736093, -0.03823939, 0.05263638, 0.001109156, 0.0002593961
 286836053, -0.0375495, 0.05065896, 0.001112715, 0.0002593961
 286936013, -0.03696436, 0.04899447, 0.0008648738, 0.0002593961
 287035973, -0.03613509, 0.04728268, 0.0007110099, 0.0002593961
 287135933, -0.03541079, 0.04544118, 0.0004788628, 0.0002593961
 287235893, -0.03459934, 0.04367652, 0.0006504984, 0.0002593961
