TimeUS,CAN,CAE,CAD,CAe,NAN,NAE,NAD,NAe,m10,m00,Gye
 195760831, 4.744564E-06, 4.870428E-05, 6.390637E-06, 6.484905E-06, 0, 0, 0, 0, -0.9999978, -0.00145013, 2.131091
 195830803, 0.4722856, 3.974379, 0.3790095, 0.5081811, -0.09582952, 3.349608, 0.1184953, 0.5081746, -0.9999978, -0.00145057, 29.84594
 196030723, -0.09544645, 3.356968, 0.1184865, 0.5087007, 0.0003778925, 0.004177934, 0.000331087, 0.0005187925, -0.9999978, -0.001446735, 170.7224
 196231476, 4.641557E-05, 0.01135922, 0.0002908119, 0.001046232, -0.0002058387, 0.00412373, -3.5903E-05, 0.0005209541, -0.9999978, -0.00144279, 0.3511209
 196431396, -0.0001291522, 0.01155053, -0.0002837091, 0.001046232, -4.894207E-05, 0.004182619, -0.0001885447, 0.0005187925, -0.9999978, -0.001438866, 0.3511209
 196631316, -0.0002407305, 0.0114176, -0.000362666, 0.00104407, -0.0003997826, 0.003962047, 1.318047E-05, 0.0005187925, -0.9999978, -0.001432786, 0.3503954
 196831236, -0.0004354811, 0.01084287, -0.0001382573, 0.00104407, 0.0001914076, 0.004110435, -6.748121E-05, 0.0005187925, -0.9999978, -0.001425883, 0.3503954
 197031156, -0.0002820149, 0.01118777, -2.129772E-05, 0.00104407, -0.0005198378, 0.003931869, -0.0002414047, 0.0005187925, -0.9999978, -0.001420059, 0.3503954
 197231076, -0.0002434062, 0.01145603, -0.0004343608, 0.00104407, 0.0001157297, 0.004260469, -0.0001620407, 0.0005187925, -0.9999978, -0.001414016, 0.3503954
 197430996, 0.0001364762, 0.01157139, -0.0004641607, 0.00104407, -8.917524E-06, 0.003886625, -0.0004918098, 0.0005187925, -0.9999978, -0.001408897, 0.3503954
 197630916, -5.999726E-05, 0.01100599, -0.0008781615, 0.00104407, 5.056091E-05, 0.003995379, -0.0001958123, 0.0005187925, -0.9999978, -0.0014037, 0.3503954
 197830836, 0.0004302564, 0.01156981, -0.0004591082, 0.00104407, 0.0001650116, 0.004324673, -0.0003298238, 0.0005187925, -0.9999978, -0.001396811, 0.3503954
 198030756, 0.0004124762, 0.01175487, -0.0008530304, 0.00104407, -1.771181E-05, 0.004380876, -0.0003550826, 0.0005187925, -0.9999978, -0.001390295, 0.3503954
 198230676, 0.0001009395, 0.01191876, -0.0003385525, 0.00104407, 0.0003557465, 0.004039867, -0.0003211799, 0.0005187925, -0.9999978, -0.001383463, 0.3503954
 198431429, 0.0002724635, 0.01138164, -0.0004876358, 0.001046232, 0.0001024027, 0.00412875, -0.0001289968, 0.0005209541, -0.9999978, -0.001379021, 0.3511209
 198631349, -2.384682E-05, 0.01145077, -0.0001951208, 0.001046232, -0.0002285978, 0.004208493, -0.000140171, 0.0005187925, -0.9999978, -0.001384838, 0.3511209
 198831269, 2.589529E-05, 0.01142691, -0.0001012397, 0.00104407, 0.0001886064, 0.004126183, -0.0005031409, 0.0005187925, -0.9999978, -0.001389498, 0.3503954
 199031189, 0.0002959961, 0.01192001, -0.000658107, 0.00104407, 0.0002362707, 0.004750015, -0.0002917302, 0.0005187925, -0.9999978, -0.001395063, 0.3503954
 199231109, 0.000125141, 0.01191438, -0.0004091844, 0.00104407, -0.0001394789, 0.004263507, -2.244529E-05, 0.0005187925, -0.9999978, -0.001398915, 0.3503954
 199431029, -0.0001980573, 0.01145128, -2.877515E-05, 0.00104407, 7.068351E-05, 0.004133675, 3.421365E-05, 0.0005187925, -0.9999978, -0.001401676, 0.3503954
 199630949, 2.738435E-05, 0.01125005, 0.0001487268, 0.00104407, 0.0001536807, 0.003789976, 5.464513E-05, 0.0005187925, -0.9999978, -0.001403694, 0.3503954
 199830869, -7.44117E-05, 0.01144116, 2.813051E-05, 0.00104407, -0.0003777898, 0.004603556, -0.0001558634, 0.0005187925, -0.9999978, -0.001405186, 0.3503954
 200030789, -0.0003062879, 0.01184456, -0.0003071295, 0.00104407, 0.0005348414, 0.003849324, -0.0002644827, 0.0005187925, -0.9999978, -0.001405728, 0.3503954
 200230709, 0.0007569588, 0.01102303, -4.010851E-05, 0.00104407, 0.0003060591, 0.004245569, 4.712724E-05, 0.0005187925, -0.9999978, -0.001405695, 0.3503954
 200431462, 0.000321513, 0.01140497, -0.0004571608, 0.001046232, 0.0001486199, 0.003896334, -0.0004012318, 0.0005209541, -0.9999978, -0.001406929, 0.3511209
 200631382, -3.281607E-05, 0.01145045, -0.0006555725, 0.001046232, -0.0001112916, 0.004230798, -0.0002682173, 0.0005187925, -0.9999978, -0.001406044, 0.3511209
 200831302, 2.014203E-05, 0.01129656, -0.0002760451, 0.00104407, -2.862573E-05, 0.004238135, -3.425777E-05, 0.0005187925, -0.9999978, -0.001403679, 0.3503954
 201031222, 4.462167E-05, 0.01151225, 5.431388E-05, 0.00104407, 0.000379263, 0.003986965, -0.0002436747, 0.0005187925, -0.9999979, -0.001398147, 0.3503954
 201231142, 0.0002768915, 0.01096322, -0.0003636846, 0.00104407, -0.0001026268, 0.003900462, 0.0001474541, 0.0005187925, -0.9999979, -0.001393225, 0.3503954
 201431062, -0.0004275309, 0.01112573, 0.0001666892, 0.00104407, -0.0002322967, 0.003975242, 1.023956E-05, 0.0005187925, -0.9999979, -0.001388214, 0.3503954
 201630982, -5.002605E-05, 0.01093985, 5.349403E-05, 0.00104407, 0.000102343, 0.0037689, 0.0003837957, 0.0005187925, -0.9999979, -0.001382701, 0.3503954
 201830902, -0.0001409617, 0.01095776, 0.0002154181, 0.00104407, -0.0007028098, 0.004352409, 5.610124E-06, 0.0005187925, -0.9999979, -0.001376478, 0.3503954
 202030822, -0.0006026381, 0.01172105, -0.0002060102, 0.00104407, 0.0002154834, 0.003955976, -0.0001714664, 0.0005187925, -0.9999979, -0.001370417, 0.3503954
 202230742, 0.000305227, 0.01131538, -0.0003445105, 0.00104407, 0.0002768624, 0.004248705, 0.0002803062, 0.0005187925, -0.9999978, -0.001363494, 0.3503954
 202430662, 0.0005185342, 0.01145753, -2.361427E-05, 0.00104407, 0.0002092446, 0.004097187, -0.0003604734, 0.0005187925, -0.9999978, -0.001357292, 0.3503954
 202631415, 0.0004172818, 0.01131604, -0.0005498597, 0.001046232, 0.0003040385, 0.003832063, -0.0001981621, 0.0005209541, -0.9999978, -0.001352737, 0.3511209
 202831335, 0.0004925724, 0.01108661, -0.0003855412, 0.001046232, -0.0001092648, 0.003811939, 3.983096E-05, 0.0005187925, -0.9999978, -0.001346351, 0.3511209
 203031255, -9.818243E-05, 0.0112816, -1.722958E-05, 0.00104407, 0.0004489561, 0.004692519, 0.0002135066, 0.0005187925, -0.9999978, -0.001338868, 0.3503954
 203231175, 0.0003383291, 0.01198957, -0.0001434824, 0.00104407, 5.061271E-05, 0.004317613, -0.000544739, 0.0005187925, -0.9999978, -0.001331675, 0.3503954
 203431095, 0.0001531852, 0.0114071, -0.0005681256, 0.00104407, 0.0002674533, 0.004122782, 0.0001733194, 0.0005187925, -0.9999978, -0.001322748, 0.3503954
 203631015, 0.0004270972, 0.01161811, 0.0003301123, 0.00104407, 0.0004293319, 0.004209472, 2.927086E-05, 0.0005187925, -0.9999978, -0.001315509, 0.3503954
 203830935, 0.0004584241, 0.01177238, -6.546732E-06, 0.00104407, -0.0002133736, 0.00433022, -4.802332E-05, 0.0005187925, -0.9999978, -0.001322408, 0.3503954
 204030855, 9.064128E-05, 0.01174193, -0.0002933175, 0.00104407, 0.0001573728, 0.004287787, -0.0003120068, 0.0005187925, -0.9999978, -0.001329195, 0.3503954
 204230775, 0.0002634905, 0.01160765, -0.0005006003, 0.00104407, 0.0004287055, 0.004100525, -0.0002536653, 0.0005187925, -0.9999978, -0.001334444, 0.3503954
 204430695, 0.0005877644, 0.01133928, -0.0005841505, 0.00104407, -0.0001407668, 0.004242819, -0.0002133791, 0.0005187925, -0.9999978, -0.001338779, 0.3503954
 204631448, -0.0001166678, 0.01153561, -2.838827E-05, 0.001046232, -1.134881E-05, 0.004491295, -0.0003112227, 0.0005209541, -0.9999979, -0.001344768, 0.3511209
 204831368, 0.0001422458, 0.01142729, -0.0001606811, 0.001046232, -0.0001008558, 0.003903056, 0.000135961, 0.0005187925, -0.9999978, -0.001346504, 0.3511209
 205031288, -0.0002093548, 0.01128733, -0.0003041039, 0.00104407, 1.420961E-05, 0.004399454, -0.0002613679, 0.0005187925, -0.9999978, -0.001347652, 0.3503954
 205231208, -7.437087E-05, 0.01165417, -0.0003775194, 0.00104407, 0.0002169916, 0.00417592, -0.0002479526, 0.0005187925, -0.9999978, -0.001348746, 0.3503954
 205431128, 0.000296377, 0.01130727, -0.0001950055, 0.00104407, -0.0001764507, 0.003595594, 0.0003029398, 0.0005187925, -0.9999978, -0.00135015, 0.3503954
 205631048, 7.532375E-05, 0.01106127, -1.446625E-05, 0.00104407, 1.794846E-05, 0.003892643, 0.0003027146, 0.0005187925, -0.9999978, -0.001350206, 0.3503954
 205830968, -7.010288E-05, 0.01122311, 0.0001830657, 0.00104407, -0.0001541118, 0.004424958, 0.0001733706, 0.0005187925, -0.9999978, -0.001348299, 0.3503954
 206030888, 3.235131E-06, 0.01159726, -0.0001346419, 0.00104407, -0.0001854547, 0.003976328, -0.0001994253, 0.0005187925, -0.9999978, -0.001346545, 0.3503954
 206230808, 6.435425E-05, 0.01111366, -0.0002049663, 0.00104407, 5.551426E-05, 0.004210118, 6.559488E-05, 0.0005187925, -0.9999978, -0.001344774, 0.3503954
 206430728, 0.0002124894, 0.01134969, 0.0001664676, 0.00104407, 0.0003179814, 0.004109024, -0.0001383478, 0.0005187925, -0.9999978, -0.001342901, 0.3503954
 206631481, 0.0004874475, 0.01137936, -0.0001144667, 0.001046232, -1.846338E-06, 0.004371576, 1.113924E-05, 0.0005209541, -0.9999978, -0.001342095, 0.3511209
 206831401, -8.878269E-05, 0.0118777, 9.83703E-05, 0.001046232, -5.916205E-05, 0.004159162, -8.739312E-06, 0.0005187925, -0.9999979, -0.001340573, 0.3511209
 207031321, -0.0001876878, 0.01120485, -0.0003269425, 0.00104407, -0.0001213226, 0.004476124, -0.0004623733, 0.0005187925, -0.9999979, -0.001337991, 0.3503954
 207231241, 3.799073E-05, 0.01174287, -0.0004856181, 0.00104407, -9.360989E-05, 0.003841344, 3.575224E-09, 0.0005187925, -0.9999978, -0.001333253, 0.3503954
 207431161, -0.0001852205, 0.01089847, 4.136575E-05, 0.00104407, -0.0002822612, 0.004178576, 0.0001071334, 0.0005187925, -0.9999978, -0.001328357, 0.3503954
 207631081, -0.0001175144, 0.01138987, -6.647788E-05, 0.00104407, 0.00023504, 0.004461486, 0.0001374064, 0.0005187925, -0.9999978, -0.001323485, 0.3503954
 207831001, 0.000128272, 0.01151584, 0.0001873077, 0.00104407, -1.532226E-05, 0.003711113, 0.0006093984, 0.0005187925, -0.9999978, -0.001318677, 0.3503954
 208030921, -0.0001883957, 0.01136325, 0.0004816262, 0.00104407, -0.0001760582, 0.004352608, 0.0004450721, 0.0005187925, -0.9999978, -0.001313293, 0.3503954
 208230841, -1.375154E-05, 0.01164289, 0.000343973, 0.00104407, 0.0002114437, 0.004017033, -0.0002621352, 0.0005187925, -0.9999978, -0.001307344, 0.3503954
 208430761, -3.500323E-05, 0.01129255, -0.0003014824, 0.00104407, -0.0002279873, 0.004470329, -0.0002211687, 0.0005187925, -0.9999978, -0.0013024, 0.3503954
 208630681, -0.0001643683, 0.01190576, -0.000439337, 0.00104407, -3.878547E-05, 0.004207369, -0.0001087385, 0.0005187925, -0.9999978, -0.001296205, 0.3503954
 208831434, 4.365307E-05, 0.01200723, -0.0001048086, 0.001046232, 0.0002313235, 0.004456247, -4.078027E-05, 0.0005209541, -0.9999979, -0.001292189, 0.3511209
 209031354, 0.0005193825, 0.0118426, 8.559176E-05, 0.001046232, 0.0005770979, 0.004156955, 0.0007124386, 0.0005187925, -0.9999979, -0.001300871, 0.3511209
 209231274, 0.0006516654, 0.01145609, 0.0007759886, 0.00104407, 0.0001202629, 0.003985781, 0.0005131504, 0.0005187925, -0.9999979, -0.001307267, 0.3503954
 209431194, 6.314085E-05, 0.01139883, 0.0003424347, 0.00104407, -0.0003790516, 0.00372188, -0.0002998189, 0.0005187925, -0.9999979, -0.00131292, 0.3503954
 209631114, -0.0006331201, 0.01103109, -0.0002210364, 0.00104407, 1.38507E-05, 0.004256118, 2.978206E-05, 0.0005187925, -0.9999979, -0.001317776, 0.3503954
 209831034, -0.0001153979, 0.01159659, 2.140977E-05, 0.00104407, 0.0001320106, 0.004795416, 2.367145E-05, 0.0005187925, -0.9999979, -0.001321251, 0.3503954
 210030954, 0.0002500693, 0.01213039, 0.0001616451, 0.00104407, 2.690464E-05, 0.004245621, -0.0002166084, 0.0005187925, -0.9999979, -0.001324998, 0.3503954
 210230874, -0.0001648728, 0.01159499, -7.672696E-05, 0.00104407, -0.0003055683, 0.004163151, 0.0002457184, 0.0005187925, -0.9999979, -0.001327641, 0.3503954
 210430794, -0.0002152492, 0.01150048, 0.0001358037, 0.00104407, 0.0001866465, 0.004379545, -4.576163E-05, 0.0005187925, -0.9999979, -0.001328825, 0.3503954
 210630714, 0.0001049037, 0.01115061, -5.910892E-05, 0.00104407, 0.0003999065, 0.003874136, -0.0001427044, 0.0005187925, -0.9999979, -0.001327206, 0.3503954
 210831467, 0.0002817055, 0.01135589, -1.449716E-05, 0.001046232, 0.0001115612, 0.003763862, 7.761036E-05, 0.0005209541, -0.9999979, -0.001327744, 0.3511209
 211031387, 0.0001471295, 0.01117812, 9.923463E-05, 0.001046232, 2.70158E-06, 0.004262746, -0.0003939149, 0.0005187925, -0.9999979, -0.001327649, 0.3511209
 211231307, 5.573267E-05, 0.01126011, -0.0007032322, 0.00104407, -6.84181E-05, 0.003741422, 2.308154E-06, 0.0005187925, -0.9999979, -0.001326652, 0.3503954
 211431227, -0.000293399, 0.01109128, -0.0003001109, 0.00104407, 0.0003243921, 0.004328381, 0.000183889, 0.0005187925, -0.9999979, -0.001323969, 0.3503954
 211631147, 0.0002346216, 0.01148852, -0.0001235181, 0.00104407, -0.0004255123, 0.004056622, -0.0001927618, 0.0005187925, -0.9999979, -0.001322264, 0.3503954
 211831067, -0.0008263799, 0.01129229, -0.0001996958, 0.00104407, -0.00010245, 0.004309867, -0.0004187613, 0.0005187925, -0.9999979, -0.001319887, 0.3503954
 212030987, 1.234143E-05, 0.01175696, -0.000402124, 0.00104407, 0.0002290861, 0.004443245, 6.17698E-05, 0.0005187925, -0.9999979, -0.001316278, 0.3503954
 212230907, 0.0002350089, 0.01152805, 0.0001854107, 0.00104407, 5.95592E-05, 0.004017271, 0.0002956602, 0.0005187925, -0.9999979, -0.001313005, 0.3503954
 212430827, 0.0001937225, 0.01110502, 0.0001600234, 0.00104407, 0.0003179032, 0.004049317, -0.0003077504, 0.0005187925, -0.9999979, -0.001308361, 0.3503954
 212630747, 0.0003744063, 0.01117869, -0.0002402775, 0.00104407, 0.0001135299, 0.003731936, 0.0001288685, 0.0005187925, -0.9999979, -0.001303892, 0.3503954
 212830667, -0.0002013185, 0.01071321, -5.649213E-05, 0.00104407, -0.0003151284, 0.004181107, -0.0001602569, 0.0005187925, -0.9999979, -0.001299034, 0.3503954
 213031420, -0.0002884524, 0.01138864, -0.000610493, 0.001046232, -0.0005178305, 0.003701578, -0.0001810692, 0.0005209541, -0.9999979, -0.001295616, 0.3511209
 213231340, -0.000463106, 0.01124618, 4.988625E-05, 0.001046232, 0.0002274827, 0.004087002, 0.0004872149, 0.0005187925, -0.9999979, -0.001290731, 0.3511209
 213431260, 0.0002496443, 0.01138256, 0.0005330828, 0.00104407, -0.0001855349, 0.00432105, -0.0001556048, 0.0005187925, -0.9999979, -0.001283395, 0.3503954
 213631180, -0.0001572332, 0.01144967, -0.0003549359, 0.00104407, -4.367446E-05, 0.003946986, -0.0005134221, 0.0005187925, -0.9999979, -0.001277928, 0.3503954
 213831100, -0.0001276048, 0.01119094, -0.0007186635, 0.00104407, -8.830427E-05, 0.003804411, -0.0003248846, 0.0005187925, -0.9999979, -0.001272149, 0.3503954
 214031020, 0.0002365571, 0.01140516, -0.000392305, 0.00104407, 3.191914E-05, 0.004446442, 7.635637E-05, 0.0005187925, -0.9999979, -0.001266188, 0.3503954
 214230940, 0.0002017614, 0.01195219, 8.471316E-05, 0.00104407, -7.248621E-05, 0.003902665, 6.564611E-06, 0.0005187925, -0.9999979, -0.001275673, 0.3503954
 214430860, 0.0003889762, 0.01115088, 6.04508E-06, 0.00104407, -6.848289E-05, 0.00413938, 9.982168E-06, 0.0005187925, -0.9999979, -0.001284298, 0.3503954
 214630780, 0.00017489, 0.01169592, -0.0003013704, 0.00104407, -8.467015E-05, 0.004247779, -0.0003313991, 0.0005187925, -0.9999979, -0.001291671, 0.3503954
 214830700, 3.848646E-05, 0.01190728, -0.0003823454, 0.00104407, 7.749555E-05, 0.004640871, -6.626219E-05, 0.0005187925, -0.9999979, -0.001298483, 0.3503954
 215031453, 0.0001126906, 0.01204284, -0.0006285208, 0.001046232, 0.0001910511, 0.004572056, -0.0003603526, 0.0005209541, -0.9999979, -0.001303837, 0.3511209
 215231373, 5.965057E-05, 0.01221578, -0.0005462233, 0.001046232, -6.384358E-06, 0.004387859, 1.247622E-05, 0.0005187925, -0.9999979, -0.001307905, 0.3511209
 215431293, 0.0001427205, 0.01150232, 6.90613E-05, 0.00104407, 6.660239E-05, 0.003891656, 0.0003599002, 0.0005187925, -0.9999979, -0.001310055, 0.3503954
 215631213, 8.723058E-05, 0.01117348, 0.0002802742, 0.00104407, -0.0001532875, 0.003716949, -0.0002351512, 0.0005187925, -0.9999979, -0.001311686, 0.3503954
 215831133, 0.0002286572, 0.01068965, -0.000185755, 0.00104407, 0.000329536, 0.004201678, -7.739547E-06, 0.0005187925, -0.9999979, -0.001313014, 0.3503954
 216031053, 0.0005007431, 0.01130776, -7.611328E-05, 0.00104407, 0.0001607636, 0.004339438, -9.307713E-05, 0.0005187925, -0.9999979, -0.001313288, 0.3503954
 216230973, 0.0003358203, 0.01159473, -0.0002207004, 0.00104407, 0.0002431485, 0.003625658, 2.541836E-05, 0.0005187925, -0.9999979, -0.001313508, 0.3503954
 216430893, 0.0007120803, 0.01083202, -0.0002915694, 0.00104407, 0.0003037051, 0.004293854, -0.0002441491, 0.0005187925, -0.9999979, -0.001312872, 0.3503954
 216630813, 9.498536E-05, 0.01144535, -0.0002802753, 0.00104407, 0.0002373413, 0.004285805, 0.0004989653, 0.0005187925, -0.9999979, -0.001312292, 0.3503954
 216830733, -5.188496E-05, 0.01149167, 5.418268E-05, 0.00104407, -0.0003337544, 0.003684233, -0.0003040731, 0.0005187925, -0.9999979, -0.001309966, 0.3503954
 217031486, -0.0001980807, 0.01078713, -0.0009141776, 0.001046232, -0.0001136756, 0.003814664, -0.0002772926, 0.0005187925, -0.9999979, -0.001306185, 0.3511209
 217231406, 0.0001185952, 0.01101671, -0.0001200939, 0.001046232, -6.696963E-05, 0.004165317, 0.0001164396, 0.0005209541, -0.9999979, -0.00130464, 0.3511209
 217431326, -1.552959E-05, 0.01130242, 2.474832E-05, 0.001046232, 0.0003235328, 0.004173096, -9.689864E-05, 0.0005187925, -0.9999979, -0.001301343, 0.3511209
 217631246, -0.0001293138, 0.01124356, -0.0002985427, 0.00104407, -0.0003479191, 0.004236478, -0.0003409416, 0.0005187925, -0.9999979, -0.001295936, 0.3503954
 217831166, -0.000690053, 0.01179397, -0.000370495, 0.00104407, -0.0001962365, 0.004251537, 2.160042E-05, 0.0005187925, -0.9999979, -0.001293579, 0.3503954
 218031086, -0.0001162238, 0.0115489, -0.0003005232, 0.00104407, -0.000118167, 0.004104565, -0.0001543751, 0.0005187925, -0.9999979, -0.001290663, 0.3503954
 218231006, -0.0001721816, 0.01123126, -0.0003618271, 0.00104407, -0.0001487792, 0.00399576, -0.0001006308, 0.0005187925, -0.9999979, -0.00128718, 0.3503954
 218430926, 9.723569E-05, 0.01141948, -0.0001480166, 0.00104407, -5.482443E-05, 0.004404078, -0.0001273766, 0.0005187925, -0.9999979, -0.001283932, 0.3503954
 218630846, -9.462563E-05, 0.01161855, -0.000509074, 0.00104407, 0.0001021838, 0.004277773, 0.0004054772, 0.0005187925, -0.9999978, -0.001280114, 0.3503954
 218830766, 0.0001679328, 0.01174691, 7.829628E-05, 0.00104407, -0.0002452705, 0.004368416, -0.0003880475, 0.0005187925, -0.9999978, -0.001276288, 0.3503954
 219030686, -0.0004079335, 0.01180816, -0.0003632665, 0.00104407, -5.274167E-05, 0.004250652, -0.0002316251, 0.0005187925, -0.9999978, -0.001273118, 0.3503954
 219231439, 0.0002352742, 0.01198475, -0.0005413393, 0.001046232, 0.0001588044, 0.004229193, -0.0002889379, 0.0005209541, -0.9999978, -0.001269583, 0.3511209
 219431359, 0.0004245366, 0.01146032, -0.0002791892, 0.001046232, 0.000492048, 0.004494512, -9.679855E-05, 0.0005187925, -0.9999978, -0.00127945, 0.3511209
 219631279, 0.0005645279, 0.01160453, -0.0004372706, 0.00104407, 3.599137E-05, 0.004071611, -0.0001958648, 0.0005187925, -0.9999978, -0.001287561, 0.3503954
 219831199, 0.0001198158, 0.01147637, -0.0004070251, 0.00104407, 0.0001227794, 0.004236226, 5.652073E-05, 0.0005187925, -0.9999978, -0.001295759, 0.3503954
 220031119, 0.0001551657, 0.01161327, -0.0001691881, 0.00104407, -1.143505E-05, 0.004499206, 9.784122E-05, 0.0005187925, -0.9999978, -0.001303637, 0.3503954
 220231039, 7.062085E-05, 0.01152824, -0.0002141024, 0.00104407, -0.0001181653, 0.003856347, 5.445447E-05, 0.0005187925, -0.9999978, -0.001311799, 0.3503954
 220430959, -0.0002493454, 0.01115457, 0.0001317844, 0.00104407, -0.0001170446, 0.004248777, 4.224636E-05, 0.0005187925, -0.9999978, -0.001319241, 0.3503954
 220630879, -0.0003341479, 0.01176387, -4.820921E-05, 0.00104407, -0.0002735726, 0.004211493, -8.135401E-05, 0.0005187925, -0.9999978, -0.001324563, 0.3503954
 220830799, -0.0003934073, 0.011698, 0.0001396252, 0.00104407, -0.0004781683, 0.00497009, 0.0001576293, 0.0005187925, -0.9999978, -0.001329474, 0.3503954
 221030719, -0.0004132361, 0.01240194, -0.0001189221, 0.00104407, 0.0004447912, 0.004025851, 0.0002145206, 0.0005187925, -0.9999978, -0.00133331, 0.3503954
 221231472, 0.0006507893, 0.01115401, -8.26446E-05, 0.001046232, 0.0002800883, 0.003800395, -6.524694E-05, 0.0005209541, -0.9999978, -0.00133437, 0.3511209
 221431392, 0.0001781065, 0.01128575, -0.000358848, 0.001046232, 0.0001645274, 0.004455405, 0.0004611304, 0.0005187925, -0.9999978, -0.001338086, 0.3511209
 221631312, 0.000530917, 0.01166051, 0.0004828239, 0.00104407, 0.0004455507, 0.004115053, -0.00016425, 0.0005187925, -0.9999978, -0.001341025, 0.3503954
 221831232, 0.0002629169, 0.01137743, -0.0005917173, 0.00104407, -0.0004920877, 0.004323425, -0.0001540318, 0.0005187925, -0.9999978, -0.001341241, 0.3503954
 222031152, -0.0003690751, 0.0118348, -0.0002912024, 0.00104407, -0.0001201136, 0.004105114, 0.0001849686, 0.0005187925, -0.9999978, -0.001341439, 0.3503954
 222231072, -0.0001050113, 0.01152985, -2.659214E-05, 0.00104407, 0.0002304917, 0.00417676, 0.000242103, 0.0005187925, -0.9999978, -0.001341297, 0.3503954
 222430992, 0.0001930573, 0.01161068, -0.0001697791, 0.00104407, 0.0001052392, 0.004286645, -0.0003981582, 0.0005187925, -0.9999978, -0.00134154, 0.3503954
 222630912, -0.0002553302, 0.01133127, -0.0007047124, 0.00104407, -0.0002175847, 0.00414347, -0.0006997752, 0.0005187925, -0.9999978, -0.001343155, 0.3503954
 222830832, 6.119258E-05, 0.01154709, -0.0007091258, 0.00104407, -0.0002404184, 0.004871027, -0.0001413507, 0.0005187925, -0.9999978, -0.001343718, 0.3503954
 223030752, -0.0002801604, 0.01195596, -0.000505698, 0.00104407, -0.0002882213, 0.003944909, -0.0002476047, 0.0005187925, -0.9999978, -0.001342892, 0.3503954
 223230672, -0.0006395654, 0.01106259, -0.0003203661, 0.00104407, -1.955208E-05, 0.004243992, -0.0001712948, 0.0005187925, -0.9999978, -0.001341315, 0.3503954
 223431425, 5.509139E-06, 0.01149107, -0.000364886, 0.001046232, -1.824142E-06, 0.004093163, -0.0005185878, 0.0005209541, -0.9999978, -0.001339267, 0.3511209
 223631345, -6.217584E-05, 0.01148212, -0.000840566, 0.001046232, -0.0003538845, 0.004370227, -0.0001818466, 0.0005187925, -0.9999978, -0.001336765, 0.3511209
 223831265, -0.0005877429, 0.01168268, -0.0002750619, 0.00104407, -0.0001741028, 0.004401173, 6.810442E-05, 0.0005187925, -0.9999978, -0.001333036, 0.3503954
 224031185, -0.0005584925, 0.01198722, 6.38909E-05, 0.00104407, -0.0005575543, 0.004588149, -0.0001805536, 0.0005187925, -0.9999978, -0.001330189, 0.3503954
 224231105, -0.0005529344, 0.01201029, -0.0004204462, 0.00104407, -9.822948E-05, 0.004081077, -0.0003369592, 0.0005187925, -0.9999978, -0.001327181, 0.3503954
 224431025, 4.363669E-05, 0.01131495, -0.000529727, 0.00104407, -0.0003101221, 0.004490433, 0.0001043748, 0.0005187925, -0.9999978, -0.001323851, 0.3503954
 224630945, -0.0005154047, 0.01173699, -0.0001915487, 0.00104407, -0.0002847087, 0.00428324, -8.380041E-05, 0.0005187925, -0.9999977, -0.00133633, 0.3503954
 224830865, -2.627666E-05, 0.01171698, -6.294833E-05, 0.00104407, -1.311561E-05, 0.003886503, -0.0001017581, 0.0005187925, -0.9999977, -0.001347728, 0.3503954
 225030785, -0.0001387162, 0.011237, -1.328058E-05, 0.00104407, -0.0004826252, 0.004211279, 0.0001707324, 0.0005187925, -0.9999977, -0.001360138, 0.3503954
 225230705, -0.0001168201, 0.01138533, 0.0001196811, 0.00104407, 0.000275037, 0.004646874, -7.87682E-05, 0.0005187925, -0.9999977, -0.00136966, 0.3503954
 225431458, 0.0002095207, 0.01197252, -0.0004021868, 0.001046232, 0.0001499115, 0.004383488, 7.70856E-06, 0.0005209541, -0.9999977, -0.001378776, 0.3511209
 225631378, -0.0001738615, 0.01170952, -0.0004088817, 0.001046232, -0.0001380576, 0.003928328, -0.0003476838, 0.0005187925, -0.9999977, -0.00138657, 0.3511209
 225831298, 0.0001355057, 0.01176087, -0.0004243369, 0.00104407, 0.000121275, 0.004354584, -0.0001185432, 0.0005187925, -0.9999977, -0.001392291, 0.3503954
 226031218, 0.0002259123, 0.01162645, -0.0001577938, 0.00104407, -0.0002041456, 0.004172299, 6.905773E-05, 0.0005187925, -0.9999977, -0.001396856, 0.3503954
 226231138, -8.884625E-05, 0.01136288, -0.0001634218, 0.00104407, -0.0001366843, 0.004223545, 1.292427E-05, 0.0005187925, -0.9999977, -0.001402162, 0.3503954
 226431058, -0.0002252302, 0.01156854, -0.0005002797, 0.00104407, 3.542966E-05, 0.004191805, -0.0003434512, 0.0005187925, -0.9999977, -0.001407345, 0.3503954
 226630978, -2.470832E-05, 0.0117648, -0.0004422837, 0.00104407, 0.0001224081, 0.004446616, -0.0002760534, 0.0005187925, -0.9999977, -0.001411089, 0.3503954
 226830898, -0.0001263367, 0.01177521, -0.0006758393, 0.00104407, -0.0002257082, 0.004071315, -0.0001975163, 0.0005187925, -0.9999977, -0.001414683, 0.3503954
 227030818, -0.000277813, 0.01145657, -0.0003397893, 0.00104407, 0.0002615743, 0.004098788, -0.0002304943, 0.0005187925, -0.9999977, -0.001417802, 0.3503954
 227230738, 0.0003694845, 0.01173366, -0.0004159014, 0.00104407, 0.0002494438, 0.004069335, -0.0003959502, 0.0005187925, -0.9999977, -0.001419455, 0.3503954
 227430658, 0.000312509, 0.01151997, -0.0005951684, 0.00104407, -0.0003781774, 0.00442735, -7.380154E-05, 0.0005187925, -0.9999977, -0.001423042, 0.3503954
 227631411, -0.0004784909, 0.01204874, 9.200786E-05, 0.001046232, -2.022056E-05, 0.004352672, 0.0001123543, 0.0005209541, -0.9999977, -0.001424335, 0.3511209
 227831331, 0.000172454, 0.0121448, -0.0004156698, 0.001046232, 0.0001852625, 0.004392759, -0.0003488289, 0.0005187925, -0.9999977, -0.001424668, 0.3511209
 228031251, 0.0003559809, 0.01148963, -0.0006324275, 0.00104407, -0.0001642272, 0.004447302, -2.666718E-05, 0.0005187925, -0.9999977, -0.001423747, 0.3503954
 228231171, -0.0001509488, 0.01199556, -9.655902E-05, 0.00104407, 0.0003402089, 0.004502573, -0.0005715217, 0.0005187925, -0.9999977, -0.001422876, 0.3503954
 228431091, 0.0006473663, 0.01180876, -0.0006079993, 0.00104407, 0.0005425048, 0.004382006, -0.0003131936, 0.0005187925, -0.9999977, -0.001421174, 0.3503954
 228631011, 0.000790403, 0.01173665, -0.0002691539, 0.00104407, 0.0001178812, 0.003965505, -2.535044E-05, 0.0005187925, -0.9999977, -0.001420617, 0.3503954
 228830931, 0.0003388562, 0.01154049, -3.711167E-05, 0.00104407, 0.0001839326, 0.004741258, 0.0002585926, 0.0005187925, -0.9999976, -0.001418781, 0.3503954
 229030851, 0.000149068, 0.01220976, 0.0002479002, 0.00104407, -0.0002228775, 0.00436467, -0.0003448846, 0.0005187925, -0.9999976, -0.001416743, 0.3503954
 229230771, -0.0004849592, 0.01171235, -0.0006215243, 0.00104407, -7.581632E-05, 0.00401346, -0.0001959589, 0.0005187925, -0.9999976, -0.001414554, 0.3503954
 229430691, 0.0002462723, 0.01155295, -0.0003994784, 0.00104407, -0.0001356805, 0.004343258, 0.0003458033, 0.0005187925, -0.9999976, -0.001412844, 0.3503954
 229631444, 9.239485E-05, 0.01161138, 0.0003879095, 0.001046232, -4.09715E-05, 0.004370228, 8.412611E-05, 0.0005209541, -0.9999976, -0.001413011, 0.3511209
 229831364, 9.99398E-05, 0.01207878, -8.625742E-06, 0.001046232, 0.0001548233, 0.004813076, -0.0001188411, 0.0005187925, -0.9999976, -0.001425556, 0.3511209
 230031284, -0.0001448121, 0.01216718, -0.0007162612, 0.00104407, -3.458513E-05, 0.004230595, -0.0003427767, 0.0005187925, -0.9999976, -0.001436011, 0.3503954
 230231204, -9.278924E-05, 0.01149938, -0.0005590693, 0.00104407, -0.0001595522, 0.004497198, 7.277915E-05, 0.0005187925, -0.9999976, -0.001447091, 0.3503954
 230431124, -0.0002017493, 0.01187953, 0.0001041973, 0.00104407, -0.0001844421, 0.00397071, 0.0002721627, 0.0005187925, -0.9999976, -0.001455887, 0.3503954
 230631044, -3.412788E-07, 0.0114162, 0.0002065691, 0.00104407, 0.0001080628, 0.004723541, -9.920562E-05, 0.0005187925, -0.9999976, -0.001463921, 0.3503954
 230830964, 0.0001663387, 0.01232569, -0.0001758802, 0.00104407, -0.0003013631, 0.004614772, -0.0001942584, 0.0005187925, -0.9999976, -0.001470426, 0.3503954
 231030884, -0.0004162456, 0.01187229, -0.0003738255, 0.00104407, 9.622097E-05, 0.004311176, 0.0001148253, 0.0005187925, -0.9999976, -0.001476314, 0.3503954
 231230804, -0.0001288187, 0.01186666, -0.0002693291, 0.00104407, -0.000428534, 0.00431385, -0.0001236838, 0.0005187925, -0.9999976, -0.001481414, 0.3503954
 231430724, -0.0007117689, 0.01158949, -0.0004133846, 0.00104407, 3.516399E-05, 0.004219781, -2.707352E-06, 0.0005187925, -0.9999976, -0.001483914, 0.3503954
 231631477, -2.248983E-05, 0.01158811, -0.0005000326, 0.001046232, -8.286273E-05, 0.003977736, -0.0001622115, 0.0005209541, -0.9999976, -0.001487038, 0.3511209
 231831397, -0.0002534427, 0.01123649, -0.0001268764, 0.001046232, -0.0001673803, 0.00440288, 0.0001441617, 0.0005187925, -0.9999976, -0.001491097, 0.3511209
 232031317, -0.0003492496, 0.01157183, 0.0001064626, 0.00104407, -0.0001286271, 0.004074037, 5.710224E-05, 0.0005187925, -0.9999976, -0.001492777, 0.3503954
 232231237, -0.0003468945, 0.01127012, -9.294601E-06, 0.00104407, -0.0002364208, 0.004027667, -0.0002016155, 0.0005187925, -0.9999976, -0.00149175, 0.3503954
 232431157, -5.774499E-06, 0.0112526, -0.0003121701, 0.00104407, 0.0001070376, 0.004035491, -0.0002211854, 0.0005187925, -0.9999976, -0.00149132, 0.3503954
 232631077, 2.795558E-05, 0.01110891, -0.0004076674, 0.00104407, -0.000175375, 0.004322097, 0.0001788175, 0.0005187925, -0.9999976, -0.001491249, 0.3503954
 232830997, -6.907988E-05, 0.01188838, 0.0003172261, 0.00104407, -3.164529E-05, 0.004364974, -9.848232E-05, 0.0005187925, -0.9999976, -0.00149104, 0.3503954
 233030917, 0.0001209245, 0.01215552, -0.0003109319, 0.00104407, -0.0001118138, 0.004574458, 3.267888E-05, 0.0005187925, -0.9999976, -0.001489931, 0.3503954
 233230837, -0.0003921517, 0.01172527, -0.0003121808, 0.00104407, -0.0005616305, 0.004195272, 0.0003717282, 0.0005187925, -0.9999976, -0.001487921, 0.3503954
 233430757, -0.0008419267, 0.01140413, 0.0004427008, 0.00104407, -0.0003037905, 0.00407183, 0.0001852248, 0.0005187925, -0.9999976, -0.001485892, 0.3503954
 233630677, -0.000554701, 0.01145611, 7.924486E-05, 0.00104407, -0.0001294204, 0.004210724, 0.000251773, 0.0005187925, -0.9999976, -0.001482593, 0.3503954
 233831430, -0.0003289072, 0.011524, -0.0001090635, 0.001046232, -0.0001071394, 0.004149775, -2.92367E-05, 0.0005209541, -0.9999976, -0.001482273, 0.3511209
 234031350, 0.0001232585, 0.01164433, -0.0001659568, 0.001046232, -0.0003505035, 0.003992476, -0.0001673863, 0.0005187925, -0.9999976, -0.001478762, 0.3511209
 234231270, -0.0001197352, 0.0113934, -0.0004360159, 0.00104407, 0.0004297207, 0.004074154, -0.0004444787, 0.0005187925, -0.9999976, -0.001474516, 0.3503954
 234431190, 0.0006273383, 0.01133891, -0.0003191207, 0.00104407, -0.0001621501, 0.004001116, -0.0003283093, 0.0005187925, -0.9999976, -0.00147094, 0.3503954
 234631110, -0.0001728142, 0.01165492, -0.0006345581, 0.00104407, 8.602403E-05, 0.004387188, 0.000104581, 0.0005187925, -0.9999976, -0.001468218, 0.3503954
 234831030, 4.493182E-05, 0.01213711, -9.674611E-05, 0.00104407, 0.000154277, 0.004380651, -0.0002392968, 0.0005187925, -0.9999976, -0.001464208, 0.3503954
 235030950, 6.929717E-05, 0.01160272, -0.000524099, 0.00104407, -9.844725E-05, 0.004070138, -0.0005247269, 0.0005187925, -0.9999976, -0.001474892, 0.3503954
 235230870, -9.732725E-05, 0.01131595, -0.0008771187, 0.00104407, 0.0001098707, 0.004152836, -6.639088E-05, 0.0005187925, -0.9999974, -0.001485132, 0.3503954
 235430790, 0.0002038441, 0.01146736, -0.0001481334, 0.00104407, 0.0002921133, 0.004600235, -0.0001139042, 0.0005187925, -0.9999974, -0.00149353, 0.3503954
 235630710, 0.0003533045, 0.01197078, -0.0003179469, 0.00104407, 0.0001534571, 0.004477365, 0.0002138415, 0.0005187925, -0.9999974, -0.001502455, 0.3503954
 235831463, -7.622708E-05, 0.01167462, 0.0002593354, 0.001046232, -0.0002169613, 0.003764871, -2.088982E-05, 0.0005209541, -0.9999974, -0.001511163, 0.3511209
 236031383, -0.0007526798, 0.01112636, -0.0001848038, 0.001046232, -0.0007419141, 0.004498129, -5.625382E-05, 0.0005187925, -0.9999974, -0.001517522, 0.3511209
 236231303, -0.0008058173, 0.01168241, -8.969771E-05, 0.00104407, -7.072206E-05, 0.0042169, 0.0001194333, 0.0005187925, -0.9999976, -0.001522907, 0.3503954
 236431223, 0.0002557856, 0.01139035, -0.0001697993, 0.00104407, 0.0003456835, 0.004517738, -0.0005000426, 0.0005187925, -0.9999974, -0.001526146, 0.3503954
 236631143, 0.0003460892, 0.01139249, -0.0007716772, 0.00104407, -0.0001909945, 0.004154643, -0.0004151245, 0.0005187925, -0.9999974, -0.001530846, 0.3503954
 236831063, -0.0002889349, 0.01132351, -0.0002929289, 0.00104407, -0.0005256939, 0.004156533, 0.0002097244, 0.0005187925, -0.9999974, -0.001534209, 0.3503954
 237030983, -0.0003100723, 0.01162045, 0.0001858957, 0.00104407, 0.0002379187, 0.004502806, -0.0002639644, 0.0005187925, -0.9999974, -0.001537673, 0.3503954
 237230903, 5.777862E-05, 0.01216337, -0.0004019715, 0.00104407, 0.0005169701, 0.00415071, -0.0002957484, 0.0005187925, -0.9999974, -0.001539999, 0.3503954
 237430823, 2.425006E-05, 0.01159739, -0.0005104083, 0.00104407, -0.0002254373, 0.004437687, -0.0001619406, 0.0005187925, -0.9999974, -0.001542134, 0.3503954
 237630743, -0.0002346237, 0.01158919, -5.374539E-05, 0.00104407, -0.0001755425, 0.003664305, -0.0001498136, 0.0005187925, -0.9999974, -0.001543146, 0.3503954
 237830663, -0.0002247505, 0.0108577, -8.616576E-05, 0.00104407, 0.0003263372, 0.004357933, -0.0001161087, 0.0005187925, -0.9999974, -0.001544212, 0.3503954
 238031416, 0.0004697177, 0.01205713, -0.0004326889, 0.001046232, 4.050088E-05, 0.004448785, -0.0002223472, 0.0005209541, -0.9999974, -0.001546362, 0.3511209
 238231336, -9.279378E-05, 0.01175261, -0.0003879485, 0.001046232, -5.093245E-05, 0.004115007, -0.00019313, 0.0005187925, -0.9999974, -0.001547177, 0.3511209
 238431256, 7.916628E-05, 0.01152634, -0.0002730291, 0.00104407, 0.0001524951, 0.004339082, -0.0001700758, 0.0005187925, -0.9999974, -0.001544849, 0.3503954
 238631176, 0.0001171757, 0.01179262, -5.814245E-05, 0.00104407, -1.304392E-05, 0.00423791, -0.0001043689, 0.0005187925, -0.9999974, -0.001544156, 0.3503954
 238831096, -0.0002538539, 0.01138586, -0.0002377035, 0.00104407, -0.0002019661, 0.004279817, -0.0001302472, 0.0005187925, -0.9999974, -0.001541886, 0.3503954
 239031016, -0.0001759673, 0.01131408, -0.0001607717, 0.00104407, -0.0004818245, 0.003837529, -0.000187359, 0.0005187925, -0.9999974, -0.001539866, 0.3503954
 239230936, -0.0004849195, 0.01115402, -0.0004936269, 0.00104407, -0.0004943751, 0.004248512, -0.0003581092, 0.0005187925, -0.9999974, -0.001537596, 0.3503954
 239430856, -0.0003255364, 0.01157093, -0.0004920957, 0.00104407, 5.402791E-05, 0.004133323, 0.0002854933, 0.0005187925, -0.9999974, -0.001535033, 0.3503954
 239630776, -5.986135E-05, 0.01165447, 0.0001305714, 0.00104407, -4.54994E-05, 0.004282114, -6.714767E-06, 0.0005187925, -0.9999974, -0.001532434, 0.3503954
 239830696, 0.0002070476, 0.01180334, -6.223789E-06, 0.00104407, 0.0002959385, 0.004186744, 0.0001301721, 0.0005187925, -0.9999974, -0.001530072, 0.3503954
 240031449, 0.0004068525, 0.01162211, 0.0004075473, 0.001046232, -1.821101E-05, 0.004196557, 1.695272E-06, 0.0005209541, -0.9999974, -0.001530178, 0.3511209
 240231369, -0.0004483537, 0.01175586, -0.0001108827, 0.001046232, -0.0002409489, 0.004481574, -0.0001179378, 0.0005187925, -0.9999974, -0.001539658, 0.3511209
 240431289, -0.0002030439, 0.0118717, 0.0001168701, 0.00104407, -6.498144E-05, 0.003977922, -1.497623E-05, 0.0005187925, -0.9999974, -0.00154693, 0.3503954
 240631209, -0.0005268865, 0.01138374, -0.0002438154, 0.00104407, -0.0001438055, 0.004380631, -0.0003756295, 0.0005187925, -0.9999974, -0.001554187, 0.3503954
 240831129, -0.0003206493, 0.01184587, -0.0007069763, 0.00104407, -0.0004125055, 0.004246439, -0.0003251468, 0.0005187925, -0.9999974, -0.001561708, 0.3503954
 241031049, -0.0002296936, 0.01115593, -0.0004376878, 0.00104407, -9.326195E-05, 0.003695025, -9.186526E-05, 0.0005187925, -0.9999974, -0.001567572, 0.3503954
 241230969, -0.0005474873, 0.01115176, -0.0001155237, 0.00104407, -0.0002841157, 0.004351163, 0.0001180057, 0.0005187925, -0.9999974, -0.001572665, 0.3503954
 241430889, -0.0003536389, 0.01170956, 0.0001135634, 0.00104407, -0.0001563022, 0.004259409, -0.0003565911, 0.0005187925, -0.9999974, -0.001577513, 0.3503954
 241630809, -0.0002476054, 0.01156127, -0.0005040048, 0.00104407, -0.0002521432, 0.004239421, 3.72094E-05, 0.0005187925, -0.9999974, -0.00158166, 0.3503954
 241830729, -9.596156E-05, 0.01144725, -0.0002903051, 0.00104407, 0.0003333999, 0.003645697, -0.0001551365, 0.0005187925, -0.9999974, -0.001584606, 0.3503954
 242031482, 0.0003442338, 0.01132892, -9.385404E-05, 0.001046232, -1.776019E-05, 0.00428121, -3.054271E-05, 0.0005209541, -0.9999973, -0.001589048, 0.3511209
 242231402, -3.409942E-05, 0.01152781, -4.990767E-05, 0.001046232, -0.0001898166, 0.004748577, 7.968456E-05, 0.0005187925, -0.9999973, -0.001592599, 0.3511209
 242431322, -0.0002947769, 0.01205954, -0.0003376694, 0.00104407, 6.799351E-06, 0.004461161, -0.0002450701, 0.0005187925, -0.9999973, -0.001594716, 0.3503954
 242631242, 5.484104E-06, 0.01185548, -0.0004965524, 0.00104407, 0.0001911965, 0.003768957, 3.020749E-05, 0.0005187925, -0.9999973, -0.001593096, 0.3503954
 242831162, 1.387843E-05, 0.01093739, -0.0003294853, 0.00104407, -0.000242434, 0.004185582, 4.523017E-05, 0.0005187925, -0.9999973, -0.001593612, 0.3503954
 243031082, -0.0002930122, 0.01176585, -0.0001406095, 0.00104407, 0.0003238128, 0.004108059, 0.0004340688, 0.0005187925, -0.9999973, -0.001593164, 0.3503954
 243231002, 5.551135E-05, 0.01146718, 0.0004559111, 0.00104407, -0.0002309857, 0.004369305, -7.174959E-05, 0.0005187925, -0.9999973, -0.00159367, 0.3503954
 243430922, -0.000121026, 0.01162391, -0.0002530016, 0.00104407, 0.0004871257, 0.004029528, -3.598323E-05, 0.0005187925, -0.9999973, -0.001592962, 0.3503954
 243630842, 0.0006069864, 0.01171114, -1.674935E-05, 0.00104407, -0.0001379478, 0.004441487, -0.0001210956, 0.0005187925, -0.9999973, -0.001591791, 0.3503954
 243830762, -0.0003119619, 0.01209101, -0.0002979064, 0.00104407, -0.0003461312, 0.004484968, 8.407565E-05, 0.0005187925, -0.9999973, -0.001590041, 0.3503954
 244030682, -0.0005302934, 0.01167435, 0.0001229747, 0.00104407, 7.939634E-05, 0.004525045, -0.0001763985, 0.0005187925, -0.9999973, -0.001587218, 0.3503954
 244231435, -0.000464791, 0.0120549, -0.0004106607, 0.001046232, -0.0001431982, 0.004508386, 0.0001418154, 0.0005209541, -0.9999973, -0.001587861, 0.3511209
 244431355, -7.263554E-05, 0.01197162, -0.0001440521, 0.001046232, 0.000187081, 0.0044583, -0.0001717572, 0.0005187925, -0.9999973, -0.001584698, 0.3511209
 244631275, 8.808642E-05, 0.01197637, -0.0004847876, 0.00104407, 0.0002904149, 0.004350441, 7.742764E-05, 0.0005187925, -0.9999973, -0.001578388, 0.3503954
 244831195, 0.0002110666, 0.01167366, -0.0002148174, 0.00104407, -0.0002595445, 0.004243967, 1.160277E-05, 0.0005187925, -0.9999973, -0.001573919, 0.3503954
 245031115, -0.0003623898, 0.01174176, -0.000192073, 0.00104407, 0.0002538217, 0.004472847, -8.494792E-05, 0.0005187925, -0.9999973, -0.001567311, 0.3503954
 245231035, 0.0005318925, 0.01206451, -0.0001283382, 0.00104407, -0.0003308016, 0.004428375, -2.879779E-05, 0.0005187925, -0.9999973, -0.001562462, 0.3503954
 245430955, -0.0004463034, 0.01183318, -0.0001423671, 0.00104407, -0.0003026661, 0.004431034, -0.000556362, 0.0005187925, -0.9999973, -0.00157194, 0.3503954
 245630875, -0.0007351171, 0.01186934, -0.0006202124, 0.00104407, -0.0002502138, 0.004148053, 0.0002497508, 0.0005187925, -0.9999974, -0.001579653, 0.3503954
 245830795, -0.0003689286, 0.01096847, 0.000142808, 0.00104407, 0.0001928564, 0.003995411, -0.0004876474, 0.0005187925, -0.9999974, -0.001586629, 0.3503954
 246030715, 0.0006539398, 0.01115029, -0.0006242233, 0.00104407, 0.0004606535, 0.003921085, -0.0003637122, 0.0005187925, -0.9999974, -0.001591426, 0.3503954
 246231468, 0.0005591956, 0.01115232, -0.0005427259, 0.001046232, -0.000498811, 0.004041446, -0.0002364913, 0.0005209541, -0.9999974, -0.001597103, 0.3511209
 246431388, -0.0005702461, 0.01163309, -0.0009819604, 0.001046232, -1.933091E-05, 0.004037523, -0.000112336, 0.0005187925, -0.9999973, -0.001602366, 0.3511209
 246631308, 0.0001112879, 0.01154347, -0.000272569, 0.00104407, 7.047571E-05, 0.004674247, -0.0001677736, 0.0005187925, -0.9999974, -0.001605798, 0.3503954
 246831228, 8.340566E-05, 0.01153713, -0.0003054028, 0.00104407, -0.0001882165, 0.003819637, -0.0006566591, 0.0005187925, -0.9999974, -0.001606505, 0.3503954
 247031148, -0.0002547139, 0.01133325, -0.0005985894, 0.00104407, -4.903309E-05, 0.004392174, 0.0004437209, 0.0005187925, -0.9999974, -0.001608063, 0.3503954
 247231068, -0.000291245, 0.01186528, 0.0005118434, 0.00104407, 3.213619E-05, 0.004312064, 4.336886E-05, 0.0005187925, -0.9999974, -0.001609212, 0.3503954
 247430988, -0.0001385477, 0.0117514, 3.922204E-05, 0.00104407, -4.281961E-05, 0.004245712, 0.0002699821, 0.0005187925, -0.9999974, -0.00160853, 0.3503954
 247630908, -0.0001707532, 0.01161257, -0.001035053, 0.00104407, -7.012514E-06, 0.004327105, 7.848459E-05, 0.0005187925, -0.9999974, -0.001608483, 0.3503954
 247830828, 0.0006852096, 0.01215756, -0.2950919, 0.00104407, 0.0004650672, 0.004687555, -0.1450092, 0.0005187925, -0.9999974, -0.001607108, 0.3503954
 248030748, 0.0002879261, 0.01195701, -0.1153924, 0.00104407, -0.0003933925, 0.004021831, 0.06690778, 0.0005187925, -0.9999974, -0.001605007, 0.3503954
 248230668, -0.0008004914, 0.0111208, 0.08600416, 0.00104407, -0.0001267139, 0.004398624, -0.04006018, 0.0005187925, -0.9999979, -0.001608062, 0.3503954
 248431421, -0.004115724, 0.007383027, -1.347914, 0.001046232, -0.004888509, -0.0006430266, -0.7575261, 0.0005209541, -0.9999928, -0.001708214, 0.3511209
 248631341, -0.01943058, -0.008405934, -1.327732, 0.001046232, -0.009836674, -0.006030365, -0.134326, 0.0005187925, -0.9999768, -0.001840885, 0.3511209
 248831261, -0.02783629, -0.0163753, -0.255005, 0.00104407, -0.01053068, -0.005722386, -0.081967, 0.0005187925, -0.9999724, -0.001967813, 0.3503954
 249031181, -0.02709357, -0.01415227, -0.3107081, 0.00104407, -0.009064585, -0.004380282, -0.1471237, 0.0005187925, -0.9999734, -0.002112705, 0.3503954
 249231101, -0.0234889, -0.009986182, -0.3845376, 0.00104407, -0.007667927, -0.002809584, -0.1251232, 0.0005187925, -0.9999751, -0.002264512, 0.3503954
 249431021, -0.0197919, -0.006006972, -0.312774, 0.00104407, -0.006586792, -0.001461087, -0.1005641, 0.0005187925, -0.9999766, -0.002415784, 0.3503954
 249630941, -0.0166552, -0.002503192, -0.262765, 0.00104407, -0.005443281, -0.0004032626, -0.08987019, 0.0005187925, -0.9999783, -0.002553553, 0.3503954
 249830861, -0.01371145, 0.0002067014, -0.2348778, 0.00104407, -0.004208425, 0.0005831954, -0.07944027, 0.0005187925, -0.9999802, -0.002629634, 0.3503954
 250030781, -0.01110838, 0.002581619, -0.2066937, 0.00104407, -0.00372859, 0.001346988, -0.06945342, 0.0005187925, -0.9999812, -0.002509791, 0.3503954
 250230701, -0.009339238, 0.004346643, -0.1811218, 0.00104407, -0.003194198, 0.001884626, -0.06097145, 0.0005187925, -0.9999819, -0.002375824, 0.3503954
 250431454, -0.007631681, 0.005480701, -0.1593809, 0.001046232, -0.002169822, 0.002115985, -0.05369723, 0.0005209541, -0.9999825, -0.002259748, 0.3511209
 250631374, -0.005025417, 0.006550053, -0.1391411, 0.001046232, -0.001605706, 0.002453527, -0.04659569, 0.0005187925, -0.9999828, -0.002245983, 0.3511209
 250831294, -0.004056409, 0.007389847, -0.1209293, 0.00104407, -0.001458153, 0.002948641, -0.04087695, 0.0005187925, -0.9999822, -0.002618274, 0.3503954
 251031214, -0.003576412, 0.008259838, -0.1071247, 0.00104407, -0.001059831, 0.003097738, -0.0364162, 0.0005187925, -0.9999806, -0.003209879, 0.3503954
 251231134, -0.002999072, 0.008250695, -0.09488706, 0.00104407, -0.001124756, 0.002835821, -0.03220757, 0.0005187925, -0.9999776, -0.003768269, 0.3503954
 251431054, -0.002963722, 0.007945321, -0.08346795, 0.00104407, -0.0008567945, 0.002892643, -0.0284241, 0.0005187925, -0.999974, -0.004285605, 0.3503954
 251630974, -0.002600919, 0.007488637, -0.07355237, 0.00104407, -0.001148149, 0.002717447, -0.02493286, 0.0005187925, -0.9999703, -0.004773496, 0.3503954
 251830894, -0.002490075, 0.007406175, -0.06450269, 0.00104407, -0.0006499949, 0.002532387, -0.02170932, 0.0005187925, -0.9999665, -0.005233598, 0.3503954
 252030814, -0.002220271, 0.006792308, -0.05635103, 0.00104407, -0.0009956826, 0.00239131, -0.0188813, 0.0005187925, -0.9999627, -0.00566813, 0.3503954
 252230734, -0.002311507, 0.006467243, -0.04929949, 0.00104407, -0.0007886326, 0.002464501, -0.01657559, 0.0005187925, -0.9999589, -0.006077916, 0.3503954
 252430654, -0.002311883, 0.006546876, -0.04332932, 0.00104407, -0.0007173482, 0.002292594, -0.01487185, 0.0005187925, -0.9999551, -0.006466164, 0.3503954
 252631407, -0.001914088, 0.006201257, -0.03861251, 0.001046232, -0.0004505104, 0.002181054, -0.01317338, 0.0005209541, -0.9999512, -0.006835148, 0.3511209
 252831327, -0.001445439, 0.005985792, -0.03399773, 0.001046232, -0.0008933922, 0.002271759, -0.01134274, 0.0005187925, -0.9999484, -0.007181473, 0.3511209
 253031247, -0.001608945, 0.006795728, -0.02918397, 0.00104407, -0.0003307387, 0.002640025, -0.009845263, 0.0005187925, -0.9999468, -0.007502575, 0.3503954
 253231167, -0.0004740744, 0.007809671, -0.02582882, 0.00104407, 0.0001457146, 0.003234316, -0.008615811, 0.0005187925, -0.9999457, -0.007804364, 0.3503954
 253431087, 0.0003341206, 0.009051999, -0.02215969, 0.00104407, 0.0005187518, 0.003667322, -0.007195411, 0.0005187925, -0.9999445, -0.008149533, 0.3503954
 253631007, 0.0009568997, 0.01042175, -0.01890659, 0.00104407, 0.0004264439, 0.004141642, -0.006759514, 0.0005187925, -0.9999423, -0.00869199, 0.3503954
 253830927, 0.001115446, 0.01225027, -0.01773926, 0.00104407, 0.0001365742, 0.00522479, -0.006121905, 0.0005187925, -0.9999405, -0.00922705, 0.3503954
 254030847, 0.0008824995, 0.01437664, -0.01572582, 0.00104407, 0.0003254661, 0.005043082, -0.0053232, 0.0005187925, -0.9999382, -0.009732879, 0.3503954
 254230767, 0.001058465, 0.01487586, -0.01366518, 0.00104407, 0.0006480319, 0.005990926, -0.004619561, 0.0005187925, -0.9999357, -0.0102109, 0.3503954
 254430687, 0.001309675, 0.01641581, -0.01192664, 0.00104407, 0.0002613484, 0.005863637, -0.003686901, 0.0005187925, -0.9999329, -0.01066192, 0.3503954
 254631440, 0.001188062, 0.01699, -0.01033249, 0.001046232, 0.00063475, 0.006731756, -0.00367591, 0.0005209541, -0.9999299, -0.01109606, 0.3511209
 254831360, 0.001672135, 0.01834227, -0.00946128, 0.001046232, 0.0005684136, 0.0071088, -0.003062298, 0.0005187925, -0.9999267, -0.01150825, 0.3511209
 255031280, 0.002132832, 0.01890898, 0.01302422, 0.00104407, 0.001072621, 0.00680976, 0.04576084, 0.0005187925, -0.9999228, -0.01190914, 0.3503954
 255231200, 0.002950801, 0.0177425, 0.1160505, 0.00104407, 0.000757636, 0.006107107, 0.03823045, 0.0005187925, -0.9999148, -0.0124476, 0.3503954
 255431120, 0.004400392, 0.01757439, 0.4792453, 0.00104407, 0.002477458, 0.006899391, 0.3773199, 0.0005187925, -0.9999067, -0.01299066, 0.3503954
 255631040, 0.006794235, 0.01812708, 0.978922, 0.00104407, 0.002474572, 0.00649395, 0.3289195, 0.0005187925, -0.9998987, -0.0135033, 0.3503954
 255830960, 0.006220532, 0.01685195, 0.8556982, 0.00104407, 0.001917228, 0.006106373, 0.288656, 0.0005187925, -0.9998907, -0.013986, 0.3503954
 256030880, 0.005147132, 0.01571592, 0.7515463, 0.00104407, 0.001845833, 0.005303915, 0.2537993, 0.0005187925, -0.999883, -0.01443887, 0.3503954
 256230800, 0.004651473, 0.01365947, 0.603107, 0.00104407, 0.002102439, 0.004508643, 0.1643828, 0.0005187925, -0.9998733, -0.01485765, 0.3503954
 256430720, 0.02525987, 0.002588779, 0.4077169, 0.00104407, 0.0215163, -0.005561941, 0.1285113, 0.0005187925, -0.9997495, -0.01516305, 0.3503954
 256631473, 0.08294548, -0.02224312, 0.3317519, 0.001046232, 0.04113673, -0.008734933, 0.112386, 0.0005209541, -0.9997457, -0.01527929, 0.3511209
 256831393, 0.1084837, 0.003989888, 0.2977178, 0.001046232, 0.03476814, 0.01845492, 0.1048396, 0.0005187925, -0.9998326, -0.01511679, 0.3511209
 257031313, 0.07277654, 0.08078907, 0.2894343, 0.00104407, 0.01449201, 0.04250087, 0.1064347, 0.0005187925, -0.9993607, -0.01604075, 0.3503954
 257231233, 0.03608127, 0.1191906, 0.29009, 0.00104407, 0.01425513, 0.04333347, 0.1021041, 0.0005187925, -0.999232, -0.01738332, 0.3503954
 257431153, 0.0630303, 0.1040231, 0.2661606, 0.00104407, 0.03649035, 0.02972534, 0.08918096, 0.0005187925, -0.9994603, -0.01851142, 0.3503954
 257631073, 0.1213178, 0.08223139, 0.2276203, 0.00104407, 0.05308013, 0.03334462, 0.07412445, 0.0005187925, -0.9991906, -0.01853325, 0.3503954
 257830993, 0.1323274, 0.08407738, 0.1856619, 0.00104407, 0.03769474, 0.02249391, 0.05844556, 0.0005187925, -0.999517, -0.01955067, 0.3503954
 258030913, 0.06048633, 0.02864067, 0.1448167, 0.00104407, -0.001329868, -0.006604069, 0.04481494, 0.0005187925, -0.9998021, -0.01980686, 0.3503954
 258230833, -0.04768112, -0.03737151, 0.1123201, 0.00104407, -0.03856156, -0.02133919, 0.03482241, 0.0005187925, -0.9997022, -0.01890044, 0.3503954
 258430753, -0.1253522, -0.05330255, 0.0852868, 0.00104407, -0.05304615, -0.01463853, 0.02600658, 0.0005187925, -0.9997758, -0.0185282, 0.3503954
 258630673, -0.1347662, -0.0232798, 0.06174429, 0.00104407, -0.04149742, 0.0002597294, 0.01763068, 0.0005187925, -0.9998202, -0.0189035, 0.3503954
 258831426, -0.08531075, 0.008307256, 0.04316444, 0.001046232, -0.01568725, 0.005868259, 0.01295331, 0.0005209541, -0.9997987, -0.01947958, 0.3511209
 259031346, -0.03180281, 0.01044248, 0.03110766, 0.001046232, -0.009353651, 0.0007037692, 0.008460636, 0.0005187925, -0.9997975, -0.02012492, 0.3511209
 259231266, -0.05367729, -0.00219385, 0.02124197, 0.00104407, -0.03672991, -0.002169935, 0.006498308, 0.0005187925, -0.9997789, -0.02082407, 0.3503954
 259431186, -0.1108691, -0.007401144, 0.0157783, 0.00104407, -0.04015492, -0.003911974, 0.004480508, 0.0005187925, -0.9997503, -0.02139322, 0.3503954
 259631106, -0.07998078, -0.02631789, 0.01089283, 0.00104407, -0.01317166, -0.01909348, 0.003238339, 0.0005187925, -0.9995171, -0.0214701, 0.3503954
 259831026, -0.01945537, -0.06660061, 0.008264804, 0.00104407, -0.001491773, -0.0293914, 0.002208292, 0.0005187925, -0.9992478, -0.02173599, 0.3503954
 260030946, -0.007397929, -0.06559449, 0.005039419, 0.00104407, -0.004659928, -0.01335967, 0.001004375, 0.0005187925, -0.9995851, -0.02244028, 0.3503954
 260230866, -0.01250216, -0.009715106, 0.002908047, 0.00104407, -0.00362218, 0.009604906, 0.0007781777, 0.0005187925, -0.9997317, -0.02316367, 0.3503954
 260430786, -0.002285525, 0.03212767, 0.00209735, 0.00104407, 0.003204636, 0.01268526, -0.0001442928, 0.0005187925, -0.9997242, -0.02341301, 0.3503954
 260630706, -0.0006653208, 0.0387181, 0.0004791046, 0.00104407, -0.008206092, 0.01840034, 0.0002535771, 0.0005187925, -0.999673, -0.02380123, 0.3503954
 260831459, -0.0368508, 0.06290187, 0.0007405616, 0.001046232, -0.01820325, 0.02873405, -0.0001075803, 0.0005209541, -0.9995137, -0.02454767, 0.3511209
 261031379, -0.03467176, 0.06979711, -0.0006199216, 0.001046232, -0.002249552, 0.01834302, -0.000803253, 0.0005187925, -0.999641, -0.02490488, 0.3511209
 261231299, 0.0217752, 0.02271634, -0.001160088, 0.00104407, 0.0214113, -0.006111147, -0.0004378617, 0.0005187925, -0.9996268, -0.02518664, 0.3503954
 261431219, 0.05788335, -0.02624142, -0.001118232, 0.00104407, 0.01675283, -0.01108623, -0.0005744864, 0.0005187925, -0.9995738, -0.02548837, 0.3503954
 261631139, 0.0225827, -0.03322852, -0.001289673, 0.00104407, -0.003431641, -0.01526514, -0.001059572, 0.0005187925, -0.9994256, -0.02578236, 0.3503954
 261831059, -0.01961725, -0.05926742, -0.001117267, 0.00104407, -0.01109973, -0.03065232, -8.317838E-05, 0.0005187925, -0.9989287, -0.02573631, 0.3503954
 262030979, -0.04329151, -0.08079362, -0.0006600696, 0.00104407, -0.0245958, -0.02378952, -0.0006403137, 0.0005187925, -0.9991249, -0.02628259, 0.3503954
 262230899, -0.09218093, -0.03680896, -0.0009249634, 0.00104407, -0.04610741, 0.001575677, 2.547198E-05, 0.0005187925, -0.9995362, -0.02770974, 0.3503954
 262430819, -0.1113271, 0.02789551, -0.001435701, 0.00104407, -0.02615964, 0.02140999, -0.00170115, 0.0005187925, -0.9995833, -0.02855098, 0.3503954
 262630739, -0.019475, 0.05480862, -0.003537364, 0.00104407, 0.01959549, 0.01507451, -0.001673097, 0.0005187925, -0.9995944, -0.02840914, 0.3503954
 262830659, 0.08160763, 0.01784088, -0.003189261, 0.00104407, 0.04013465, -0.006098895, -0.0001664878, 0.0005187925, -0.9993668, -0.02853019, 0.3503954
 263031412, 0.1005908, -0.03459129, -0.001349682, 0.001046232, 0.02959965, -0.02013461, -0.000941028, 0.0005209541, -0.9989923, -0.02871517, 0.3511209
 263231332, 0.06191233, -0.05609486, -0.001718242, 0.001046232, 0.01301664, -0.01956705, -0.0005910332, 0.0005187925, -0.9989185, -0.02904047, 0.3511209
 263431252, 0.03041492, -0.04659317, -0.001797157, 0.00104407, 0.009226381, -0.01316685, -0.00117295, 0.0005187925, -0.9990065, -0.02953273, 0.3503954
 263631172, 0.03266317, -0.03166135, -0.003101819, 0.00104407, 0.01639722, -0.009722228, -0.001134491, 0.0005187925, -0.9990069, -0.03007031, 0.3503954
 263831092, 0.05321098, -0.02759373, -0.002277554, 0.00104407, 0.02303949, -0.01081981, -0.0007412577, 0.0005187925, -0.9988585, -0.03062615, 0.3503954
 264031012, 0.06700465, -0.03389961, -0.001462583, 0.00104407, 0.02605931, -0.01436827, -0.000731352, 0.0005187925, -0.9986162, -0.0312987, 0.3503954
 264230932, 0.07149713, -0.04228225, -0.001981191, 0.00104407, 0.02562778, -0.01664643, -0.001300356, 0.0005187925, -0.9983985, -0.03191944, 0.3503954
 264430852, 0.07075101, -0.04565834, -0.002376973, 0.00104407, 0.02557652, -0.01619941, -0.001157753, 0.0005187925, -0.9982263, -0.03258038, 0.3503954
 264630772, 0.07220756, -0.04505593, -0.002327895, 0.00104407, 0.0272915, -0.01641342, -0.0008434686, 0.0005187925, -0.9980421, -0.0332399, 0.3503954
 264830692, 0.07762078, -0.04567141, -0.0004640689, 0.00104407, 0.02940101, -0.01708181, -0.0002127654, 0.0005187925, -0.9978179, -0.03390233, 0.3503954
 265031445, 0.08334389, -0.04745757, -0.0009030046, 0.001046232, 0.03192666, -0.01775263, 0.0002620197, 0.0005209541, -0.9975617, -0.03452141, 0.3511209
 265231365, 0.08893054, -0.04920444, -0.0001097038, 0.001046232, 0.03333436, -0.01806487, -0.0004552843, 0.0005187925, -0.9972904, -0.03521949, 0.3511209
 265431285, 0.09291131, -0.05013703, -0.0008931138, 0.00104407, 0.03453941, -0.01865258, -0.0002002642, 0.0005187925, -0.9969923, -0.03605898, 0.3503954
 265631205, 0.09698164, -0.05150776, -0.0004287339, 0.00104407, 0.0359452, -0.0190686, -0.0003399204, 0.0005187925, -0.9966473, -0.0370274, 0.3503954
 265831125, 0.1006973, -0.05376301, -0.001053039, 0.00104407, 0.03728471, -0.01991717, -0.0007509326, 0.0005187925, -0.9962506, -0.03807598, 0.3503954
 266031045, 0.1051243, -0.05513121, -0.001031191, 0.00104407, 0.03957859, -0.02011769, -0.0007057716, 0.0005187925, -0.9958756, -0.03913024, 0.3503954
 266230965, 0.110252, -0.05629534, -0.001345721, 0.00104407, 0.04103157, -0.02075195, -0.0003173345, 0.0005187925, -0.9954265, -0.04037331, 0.3503954
 266430885, 0.1141029, -0.05726243, -0.0003241492, 0.00104407, 0.04258699, -0.02134067, -0.0001527282, 0.0005187925, -0.994957, -0.04163629, 0.3503954
 266630805, 0.1177717, -0.05930861, 0.0004729477, 0.00104407, 0.04340192, -0.02213986, 0.0001989224, 0.0005187925, -0.9944218, -0.04303463, 0.3503954
 266830725, 0.1205752, -0.06065528, 0.0005847248, 0.00104407, 0.04448026, -0.02190612, 0.0002815097, 0.0005187925, -0.9938949, -0.04448559, 0.3503954
 267031478, 0.1240525, -0.0602765, -7.659988E-05, 0.001046232, 0.04629472, -0.02216152, 9.963022E-05, 0.0005209541, -0.993326, -0.0460134, 0.3511209
 267231398, 0.1277927, -0.06081899, -7.838052E-05, 0.001046232, 0.04682251, -0.02207971, -1.882755E-05, 0.0005187925, -0.9927018, -0.04757085, 0.3511209
 267431318, 0.1300577, -0.0614414, -0.0008576943, 0.00104407, 0.04797343, -0.02267194, -0.0004716714, 0.0005187925, -0.9920451, -0.04920638, 0.3503954
 267631238, 0.132808, -0.06232769, -0.001418339, 0.00104407, 0.04865531, -0.02260968, -0.000782588, 0.0005187925, -0.9913422, -0.05101752, 0.3503954
 267831158, 0.1351993, -0.06229924, -0.001852334, 0.00104407, 0.05002714, -0.02298286, -0.0005157791, 0.0005187925, -0.9905493, -0.05306048, 0.3503954
 268031078, 0.1388387, -0.06356698, -0.002320574, 0.00104407, 0.05138197, -0.02317866, -0.001029698, 0.0005187925, -0.989746, -0.05518455, 0.3503954
 268230998, 0.1418689, -0.06295825, -0.002432543, 0.00104407, 0.05235704, -0.0224755, -0.0009524742, 0.0005187925, -0.9889634, -0.05734251, 0.3503954
 268430918, 0.144623, -0.06278366, -0.00306435, 0.00104407, 0.05299322, -0.02316593, -0.001551615, 0.0005187925, -0.9880516, -0.05962477, 0.3503954
 268630838, 0.1471058, -0.06368917, -0.003599224, 0.00104407, 0.05450098, -0.02317344, -0.001154763, 0.0005187925, -0.9870678, -0.06207994, 0.3503954
 268830758, 0.1500209, -0.06407037, -0.003304596, 0.00104407, 0.05506826, -0.02342939, -0.001641955, 0.0005187925, -0.9860825, -0.0645465, 0.3503954
 269030678, 0.1524693, -0.06400404, -0.004594686, 0.00104407, 0.05603106, -0.02306758, -0.002141315, 0.0005187925, -0.9850666, -0.06707479, 0.3503954
 269231431, 0.1550906, -0.06369995, -0.005248359, 0.001046232, 0.0569484, -0.02351239, -0.002066853, 0.0005209541, -0.9839482, -0.06979222, 0.3511209
 269431351, 0.157437, -0.06424782, -0.005505432, 0.001046232, 0.05785485, -0.02379111, -0.002196564, 0.0005187925, -0.982765, -0.07250553, 0.3511209
 269631271, 0.1600909, -0.06485411, -0.00606097, 0.00104407, 0.0589267, -0.02364759, -0.002595065, 0.0005187925, -0.9815534, -0.07522675, 0.3503954
 269831191, 0.1625083, -0.06463693, -0.007089896, 0.00104407, 0.05969166, -0.02335165, -0.002796054, 0.0005187925, -0.9803491, -0.0779458, 0.3503954
 270031111, 0.1647533, -0.06391982, -0.007893606, 0.00104407, 0.06070946, -0.02341949, -0.003502498, 0.0005187925, -0.9790615, -0.08084521, 0.3503954
 270231031, 0.1675299, -0.0641193, -0.008883863, 0.00104407, 0.06153701, -0.02319358, -0.003558941, 0.0005187925, -0.9776532, -0.08397885, 0.3503954
 270430951, 0.1698635, -0.06428009, -0.009502736, 0.00104407, 0.06248986, -0.02414119, -0.003893537, 0.0005187925, -0.9761802, -0.08727329, 0.3503954
 270630871, 0.1726277, -0.06523473, -0.01013002, 0.00104407, 0.06351332, -0.02357784, -0.004137311, 0.0005187925, -0.9747145, -0.09062117, 0.3503954
 270830791, 0.1757016, -0.06463816, -0.01108204, 0.00104407, 0.06456509, -0.02374666, -0.004644655, 0.0005187925, -0.9732175, -0.09408014, 0.3503954
 271030711, 0.1775901, -0.06438578, -0.0127251, 0.00104407, 0.06481337, -0.02328947, -0.005377297, 0.0005187925, -0.9716712, -0.09765129, 0.3503954
 271231464, 0.1789633, -0.06375546, -0.01459129, 0.001046232, 0.06561371, -0.02312686, -0.005822192, 0.0005209541, -0.9700272, -0.1013318, 0.3511209
 271431384, 0.17975, -0.06332563, -0.01546787, 0.001046232, 0.06587645, -0.02285492, -0.006146928, 0.0005187925, -0.9683465, -0.1051356, 0.3511209
 271631304, 0.1815982, -0.06291332, -0.01618078, 0.00104407, 0.06685667, -0.02308253, -0.006488579, 0.0005187925, -0.9666827, -0.1089171, 0.3503954
 271831224, 0.1840133, -0.06217807, -0.01726196, 0.00104407, 0.06742942, -0.02226011, -0.00713086, 0.0005187925, -0.9649724, -0.1128177, 0.3503954
 272031144, 0.1858812, -0.06082239, -0.01848856, 0.00104407, 0.06837231, -0.02208578, -0.007063837, 0.0005187925, -0.9631844, -0.1168451, 0.3503954
 272231064, 0.1888494, -0.0599181, -0.01930128, 0.00104407, 0.06966244, -0.02150311, -0.007707571, 0.0005187925, -0.9613891, -0.1208917, 0.3503954
 272430984, 0.1912498, -0.05840495, -0.02072717, 0.00104407, 0.07018705, -0.02125886, -0.008123311, 0.0005187925, -0.9595647, -0.1249761, 0.3503954
 272630904, 0.1928896, -0.05724399, -0.0218764, 0.00104407, 0.07050341, -0.02054661, -0.008991743, 0.0005187925, -0.9576835, -0.1291166, 0.3503954
 272830824, 0.1941485, -0.05579043, -0.0230874, 0.00104407, 0.07147861, -0.01999923, -0.009044989, 0.0005187925, -0.9557375, -0.1333072, 0.3503954
