TimeUS,CAN,CAE,CAD,CAe
 140993580, -0.002781237, 0.003419033, 2.702585E-05, 0.0002593962
 141093540, -0.002688273, 0.003540667, 9.657809E-05, 0.0002593962
 141193500, -0.002902185, 0.003601267, 5.49478E-05, 0.0002593962
 141294293, -0.001692535, 0.003636175, -4.457995E-05, 0.0002615578
 141394253, 0.03089185, -0.0001934361, -0.0001260825, 0.0002593962
 141494213, 0.1081337, -0.008688468, -0.0001482942, 0.0002593962
 141594173, 0.2061092, -0.01950568, 0.001856719, 0.0002593962
 141694133, 0.3121088, -0.02951141, 0.004675778, 0.0002593962
 141794093, 0.420002, -0.04279175, 0.008201674, 0.0002593962
 141894053, 0.5282615, -0.05474729, 0.01049322, 0.0002593962
 141994013, 0.6286298, -0.0662928, 0.0124286, 0.0002593962
 142113965, 0.9008011, -0.09190704, 0.01836665, 0.0003112754
 142213925, 0.8344821, -0.08966248, 0.0173144, 0.0002593962
 142313885, 0.9222233, -0.09802224, 0.01925834, 0.0002593962
 142413845, 0.9558741, -0.0972534, 0.02120028, 0.0002593962
 142513805, 0.9485772, -0.1020275, 0.0224762, 0.0002593962
 142613765, 0.9149828, -0.09609102, 0.0224742, 0.0002593962
 142713725, 0.874469, -0.09040466, 0.02180354, 0.0002593962
 142813685, 0.8307238, -0.08768633, 0.02069435, 0.0002593962
 142913645, 0.78077, -0.08124486, 0.01378692, 0.0002593962
 143013605, 0.7294004, -0.07747695, -0.03603834, 0.0002593962
 143113565, 0.6814964, -0.07171494, -0.03833329, 0.0002593962
 143213525, 0.6353328, -0.06305216, 0.008505546, 0.0002593962
 143313485, 0.5877227, -0.05914836, 0.03506481, 0.0002593962
 143414278, 0.8932112, -0.0943338, -0.2008489, 0.0002615578
 143514238, 0.8702341, -0.09799145, -0.5781153, 0.0002593962
 143614198, 0.8070381, -0.09866501, -0.593879, 0.0002593962
 143714158, 0.7378075, -0.09227861, -0.4418153, 0.0002593962
 143814118, 0.6883819, -0.09252957, -0.3171875, 0.0002593962
 143914078, 0.635671, -0.08620695, -0.2612613, 0.0002593962
 144014038, 0.5991917, -0.07345309, -0.2311504, 0.0002593962
 144113998, 0.5745564, -0.05141086, -0.1953268, 0.0002593962
 144233950, 0.6386763, -0.04915267, -0.2578617, 0.0003112754
 144333910, 0.4812765, -0.03601787, -0.2139534, 0.0002593962
 144433870, 0.4490996, -0.03513258, -0.2114258, 0.0002593962
 144533830, 0.4143933, -0.05624863, -0.172958, 0.0002593962
 144633790, 0.3811113, -0.05442029, -0.1564634, 0.0002593962
 144733750, 0.3527431, -0.04567066, -0.1561489, 0.0002593962
 144833710, 0.3313293, -0.03072204, -0.1266882, 0.0002593962
 144933670, 0.3095158, -0.02399073, -0.1279176, 0.0002593962
 145033630, 0.2795376, -0.02174256, -0.1432858, 0.0002593962
 145133590, 0.2462588, -0.02929684, -0.1607174, 0.0002593962
 145233550, 0.2272678, -0.02456162, -0.1418066, 0.0002593962
 145333510, 0.2164032, -0.01863305, -0.1126574, 0.0002593962
 145434303, 0.2143078, -0.01291282, -0.06939406, 0.0002593962
 145534263, 0.1877343, -0.009876754, -0.08663929, 0.0002615578
 145634223, 0.1619223, -0.02183229, -0.09933472, 0.0002593962
 145734183, 0.1513957, -0.02507658, -0.07819538, 0.0002593962
 145834143, 0.1411598, -0.01700909, -0.08682727, 0.0002593962
 145934103, 0.1111144, -0.02151227, -0.1205945, 0.0002593962
 146034063, 0.09571803, -0.02057686, -0.1226547, 0.0002593962
 146134023, 0.1078629, -0.01700862, -0.06001153, 0.0002593962
 146253975, 0.131062, -0.0177589, 0.0005442349, 0.0003112754
 146353935, 0.0947496, -0.003746594, -0.03195623, 0.0002593962
 146453895, 0.07686306, -0.01252052, -0.0644466, 0.0002593962
 146553855, 0.07510579, -0.01310237, -0.03862729, 0.0002593962
 146653815, 0.06444668, -0.003411015, -0.02606444, 0.0002593962
 146753775, 0.06240109, 0.01189489, -0.01886536, 0.0002593962
 146853735, 0.0447302, 0.02446894, -0.04080189, 0.0002593962
 146953695, 0.04483221, 0.01497264, -0.02757097, 0.0002593962
 147053655, 0.03617941, 0.0003865449, -0.04915927, 0.0002593962
 147153615, 0.04427302, -0.01164286, 0.01963929, 0.0002593962
 147253575, 0.04591628, -0.006394974, 0.03203055, 0.0002593962
 147353535, 0.03243342, -0.01077196, -0.0002195814, 0.0002593962
 147453495, 0.0254283, -0.008103937, -0.0236312, 0.0002593962
 147554288, 0.01076918, -0.01321123, -0.04876701, 0.0002615578
 147654248, 0.01975184, -0.01307887, -0.02749838, 0.0002593962
 147754208, 0.03455202, -0.005477162, 0.03714737, 0.0002593962
 147854168, 0.05283673, -0.007802511, 0.1104171, 0.0002593962
 147954128, 0.05253177, 0.003802003, 0.1206776, 0.0002593962
 148054088, 0.04559239, 0.01077286, 0.08829649, 0.0002593962
 148154048, 0.05095875, -0.00717303, 0.1152587, 0.0002593962
 148254008, 0.04701295, -0.03135284, 0.09312023, 0.0002593962
 148373960, 0.04630898, -0.02192879, 0.06529944, 0.0003112754
 148473920, 0.04461473, -0.004172218, 0.07237686, 0.0002593962
 148573880, 0.04789262, -0.00659957, 0.107644, 0.0002593962
 148673840, 0.05455469, -0.004067712, 0.1118886, 0.0002593962
 148773800, 0.04413997, -0.00714866, 0.0754322, 0.0002593962
 148873760, 0.02772881, -0.01026373, 0.07782701, 0.0002593962
 148973720, 0.01237341, 0.004815689, 0.1301925, 0.0002593962
 149073680, 0.006719267, 0.0001087303, 0.1151081, 0.0002593962
 149173640, 0.0008491654, 0.007933772, 0.08303703, 0.0002593962
 149273600, 0.001714238, -0.0086597, 0.06384391, 0.0002593962
 149373560, 0.01176341, -0.006841605, 0.09466294, 0.0002593962
 149473520, 0.01510442, -0.003323732, 0.1198553, 0.0002593962
 149573480, -0.001143717, -0.03096659, 0.1150658, 0.0002593962
 149674273, 0.00574137, 0.06586034, 0.1291869, 0.0002615578
 149774233, 0.01705937, 0.1971212, 0.1652617, 0.0002593962
 149874193, 0.01861386, 0.2438668, 0.2137039, 0.0002593962
 149974153, 0.01142475, 0.2136808, 0.1530019, 0.0002593962
 150074113, -0.01290535, 0.1323033, 0.04322453, 0.0002593962
 150174073, -0.03256899, 0.06164785, -2.437565E-05, 0.0002593962
 150274033, -0.0332009, 0.01105224, 0.03378541, 0.0002593962
 150373993, -0.03430145, 2.903317E-05, 0.1023376, 0.0002593962
 150493945, -0.02764039, 0.04427539, 0.1869225, 0.0003112754
 150593905, -0.02220883, 0.07590839, 0.1497214, 0.0002593962
 150693865, -0.02591055, 0.08541579, 0.1272522, 0.0002593962
 150793825, -0.02641525, 0.09273253, 0.1211417, 0.0002593962
 150893785, -0.02353063, 0.08416035, 0.1357843, 0.0002593962
 150993745, -0.01994598, 0.05634941, 0.1691067, 0.0002593962
 151093705, -0.01649995, 0.02654885, 0.1677619, 0.0002593962
 151193665, -0.02237144, 0.02692741, 0.1266401, 0.0002593962
 151293625, -0.02762943, 0.03626576, 0.05662666, 0.0002593962
 151393585, -0.02807471, 0.05009304, 0.07639562, 0.0002593962
 151493545, -0.02866428, 0.05432232, 0.1074293, 0.0002593962
 151593505, -0.02168591, 0.06787022, 0.0655515, 0.0002593962
 151694298, -0.02399736, 0.06378838, 0.04972137, 0.0002593962
 151794258, -0.02584824, 0.05772086, 0.06248957, 0.0002615578
 151894218, -0.01907755, 0.04224582, 0.1058183, 0.0002593962
 151994178, -0.01923504, 0.03326592, 0.1062741, 0.0002593962
 152094138, -0.02221255, 0.03713538, 0.1024405, 0.0002593962
 152194098, -0.0231178, 0.03203069, 0.1174276, 0.0002593962
 152294058, -0.02020941, 0.02705128, 0.09147156, 0.0002593962
 152394018, -0.01531964, 0.02617531, 0.05595136, 0.0002593962
 152513970, -0.02065281, 0.03784901, 0.1380265, 0.0003112754
 152613930, -0.01218793, 0.03582875, 0.1287394, 0.0002593962
 152713890, -0.0130257, 0.05006994, 0.06067598, 0.0002593962
 152813850, -0.0109409, 0.04007634, 0.04250656, 0.0002593962
 152913810, -0.01584413, 0.03487882, 0.01884278, 0.0002593962
 153013770, -0.01899739, 0.04487952, 0.03353632, 0.0002593962
 153113730, -0.01272857, 0.03679881, 0.05269453, 0.0002593962
 153213690, -0.01412106, 0.0285407, 0.08605521, 0.0002593962
 153313650, -0.009447852, 0.02280952, 0.08812831, 0.0002593962
 153413610, -0.007252167, 0.02520565, 0.06910922, 0.0002593962
 153513570, -0.005611951, 0.0268606, 0.08079871, 0.0002593962
 153613530, -0.01319473, 0.02960661, 0.07658908, 0.0002593962
 153713490, -0.008428622, 0.02914511, 0.05013629, 0.0002593962
 153814283, -0.007362362, 0.02807588, 0.0283735, 0.0002615578
 153914243, -0.01051468, 0.02832245, -0.008484831, 0.0002593962
 154014203, -0.003573136, 0.03041373, 0.03920988, 0.0002593962
 154114163, -0.006416248, 0.02616085, 0.04847007, 0.0002593962
 154214123, -0.006750009, 0.02256097, 0.03980931, 0.0002593962
 154314083, -0.004631254, 0.02158517, 0.04929452, 0.0002593962
 154414043, -0.004404011, 0.02293964, 0.03770378, 0.0002593962
 154514003, 0.004550221, 0.02907471, 0.02202071, 0.0002593962
 154633955, 0.0019383, 0.03461369, 0.02478162, 0.0003112754
 154733915, -0.005568034, 0.02790548, 0.03260727, 0.0002593962
 154833875, -0.003280141, 0.02315495, 0.05057693, 0.0002593962
 154933835, 0.002736464, 0.01482538, 0.06406669, 0.0002593962
 155033795, -0.001304249, 0.009750444, 0.06290282, 0.0002593962
 155133755, 0.003000422, 0.01436134, 0.02602005, 0.0002593962
 155233715, 0.01014101, 0.009524933, 0.01755098, 0.0002593962
 155333675, 0.003479153, 0.017843, 0.02153838, 0.0002593962
 155433635, 0.002823394, 0.00683602, 0.02638925, 0.0002593962
 155533595, 0.004590683, 0.006398325, -0.02595483, 0.0002593962
 155633555, 0.005093517, 0.01446621, 0.001027697, 0.0002593962
 155733515, 0.003866166, 0.01363822, 0.00144197, 0.0002593962
 155833475, 0.004188472, 0.01657477, 0.0004551208, 0.0002593962
 155934268, -0.0001203485, 0.02516072, -0.001150545, 0.0002615578
 156034228, 0.0006113802, 0.0184189, 0.02213576, 0.0002593962
 156134188, 0.004018961, 0.01920944, 0.0264607, 0.0002593962
 156234148, 0.01072384, 0.01656171, 0.035603, 0.0002593962
 156334108, 0.01162934, 0.0189148, 0.006354192, 0.0002593962
 156434068, 0.003929735, 0.02459361, -0.005031155, 0.0002593962
 156534028, 0.005430546, 0.02482884, 0.01089769, 0.0002593962
 156653980, 0.009820259, 0.01566532, 0.01328943, 0.0003112754
 156753940, 0.01070297, 0.01714042, 0.03395518, 0.0002593962
 156853900, 0.00760988, 0.007952532, 0.01988934, 0.0002593962
 156953860, 0.003750228, 0.006844854, 0.02186518, 0.0002593962
 157053820, -0.003010556, 0.001401621, -0.01100489, 0.0002593962
 157153780, 0.004862273, 0.01132202, -0.01593566, 0.0002593962
 157253740, 0.00650242, 0.0143679, -0.02169592, 0.0002593962
 157353700, 0.007732569, 0.01994028, -0.006644728, 0.0002593962
 157453660, 0.00820533, 0.01619102, -0.02906597, 0.0002593962
 157553620, 0.002834723, 0.01627122, -0.002622423, 0.0002593962
 157653580, 0.003597699, 0.004735867, -0.007121651, 0.0002593962
 157753540, 0.004736139, 0.002771852, 0.01717353, 0.0002593962
 157853500, 0.01762575, 0.0100293, 0.0326224, 0.0002593962
 157954293, 0.01512314, 0.00416394, 0.03376207, 0.0002615578
 158054253, 0.004536763, 0.009232048, -0.006200445, 0.0002593962
 158154213, 0.0003933418, 0.003169826, 9.477633E-05, 0.0002593962
 158254173, 0.005146006, 0.008107887, -0.01662352, 0.0002593962
 158354133, 0.0116703, 0.00331143, -0.005155904, 0.0002593962
 158454093, 0.01881897, 0.007720032, 0.0373363, 0.0002593962
 158554053, 0.01676119, 0.009461945, 0.03833716, 0.0002593962
 158654013, 0.0090038, 0.009638723, -0.01393463, 0.0002593962
 158773965, 0.01130168, 0.004975199, -0.02137014, 0.0003112754
 158873925, 0.009643, 0.002792372, 0.01150368, 0.0002593962
 158973885, 0.008003914, 0.0004364949, 0.01600662, 0.0002593962
 159073845, 0.009707265, 0.006391981, -0.009714482, 0.0002593962
 159173805, 0.001919464, 0.009699942, -0.04263483, 0.0002593962
 159273765, 0.003729803, 0.01390141, -0.04936329, 0.0002593962
 159373725, 0.005799896, 0.01669923, -0.003060309, 0.0002593962
 159473685, 0.01502555, 0.01967569, -0.01010888, 0.0002593962
 159573645, 0.011587, 0.01443334, 0.01012325, 0.0002593962
 159673605, 0.01079183, 0.00996802, -0.009916419, 0.0002593962
 159773565, 0.009967482, -0.003242641, -0.05812572, 0.0002593962
 159873525, 0.001686323, 0.001007714, -0.02043748, 0.0002593962
 159973485, 0.007520096, -0.0154983, -0.002001963, 0.0002593962
 160074278, 0.01056291, -0.01762628, 0.02047995, 0.0002615578
 160174238, 0.005033385, -0.008666292, -0.01036682, 0.0002593962
 160274198, 0.006858207, 0.001218752, 0.0184815, 0.0002593962
 160374158, 0.007269399, 0.025553, 0.01721278, 0.0002593962
 160474118, 0.004234256, 0.03476221, -0.0161552, 0.0002593962
 160574078, 0.003539711, 0.0189495, -0.05040345, 0.0002593962
 160674038, 0.00153164, 0.005034696, 0.01121888, 0.0002593962
 160773998, 0.005797126, -0.005575566, 0.03413325, 0.0002593962
 160893950, 0.01062398, -0.006567794, -0.0200486, 0.0003112754
 160993910, 0.0115724, 0.002021687, -0.02797971, 0.0002593962
 161093870, 0.01176482, 0.01970683, -0.05665094, 0.0002593962
 161193830, 0.003721589, 0.02229808, -0.03185762, 0.0002593962
 161293790, 0.00111347, 0.008338936, -0.01183191, 0.0002593962
 161393750, 0.0009391472, 0.00813877, 0.005352511, 0.0002593962
 161493710, 0.003088223, 0.01589874, -0.00665121, 0.0002593962
 161593670, 0.001571105, 0.01815288, 0.01439138, 0.0002593962
 161693630, 0.0009737678, 0.00905892, -0.02649733, 0.0002593962
 161793590, 0.005998686, 0.01482076, -0.01282858, 0.0002593962
 161893550, 0.01538759, 0.007695295, 0.02747086, 0.0002593962
 161993510, 0.01008174, 0.002309849, 0.0234019, 0.0002593962
 162094303, 0.004925149, 0.001018623, 0.01054404, 0.0002593962
 162194263, 0.003373946, 0.01072375, -0.00280497, 0.0002615578
 162294223, 0.003675104, 0.008901497, 0.002488256, 0.0002593962
 162394183, 0.005349617, 0.01231629, -0.01495452, 0.0002593962
 162494143, 0.005892945, 0.01430746, -0.03082191, 0.0002593962
 162594103, -0.007338529, 0.004299725, -0.0321182, 0.0002593962
 162694063, 0.008210341, -0.0103417, 0.02071216, 0.0002593962
 162794023, 0.008775751, -0.004160543, 0.01859821, 0.0002593962
 162913975, 0.01172843, 0.002848842, 0.01982092, 0.0003112754
 163013935, 0.008577725, 0.002813712, 0.01345893, 0.0002593962
 163113895, 0.009089125, -0.007025283, 0.001498815, 0.0002593962
 163213855, 0.005520128, -0.00135358, -0.02306632, 0.0002593962
 163313815, -0.002261827, -0.003197543, -0.007811691, 0.0002593962
 163413775, 0.00364977, 0.00645702, 0.001674011, 0.0002593962
 163513735, 0.01231532, 0.005517808, -0.0440005, 0.0002593962
 163613695, 0.013913, -0.00112098, -0.01652581, 0.0002593962
 163713655, 0.009090546, 0.000593297, 0.01126197, 0.0002593962
 163813615, 0.01254257, 0.006061545, 0.01244533, 0.0002593962
 163913575, 0.01422977, 0.005209006, -0.03268547, 0.0002593962
 164013535, 0.01215761, 0.0150618, -0.02383727, 0.0002593962
 164113495, 0.01175553, 0.01183488, -0.01295762, 0.0002593962
 164214288, 0.004852424, 0.0004727537, 0.002283522, 0.0002615578
 164314248, -0.006224674, 0.001984169, 0.03555587, 0.0002593962
 164414208, 0.002266959, -0.003956018, -0.0413775, 0.0002593962
 164514168, 0.004948108, -0.002008393, -0.01648878, 0.0002593962
 164614128, 0.002244678, 0.0009013254, 0.008426566, 0.0002593962
 164714088, 0.0010101, 0.001486257, -0.02013211, 0.0002593962
 164814048, 0.006147233, 0.006123029, 0.02416809, 0.0002593962
 164914008, 0.006562007, 0.01122066, 0.01431863, 0.0002593962
 165033960, 0.0008114055, 0.008415301, -0.01665994, 0.0003112754
 165133920, 0.002055848, -0.003617862, -0.02402348, 0.0002593962
 165233880, 0.003139945, 0.006256414, 0.001668358, 0.0002593962
 165333840, 0.001718927, 0.01508317, 0.01147539, 0.0002593962
 165433800, 0.006209397, 0.01503591, -0.006359388, 0.0002593962
 165533760, 0.006616992, -0.005499989, -0.03614122, 0.0002593962
 165633720, 0.003867073, -0.008857599, -0.01393917, 0.0002593962
 165733680, 0.005772699, -0.00194379, -0.004212754, 0.0002593962
 165833640, 0.0003838035, -0.001775068, -0.02775359, 0.0002593962
 165933600, 0.004116804, -0.0005590593, -0.02267135, 0.0002593962
 166033560, 0.001239316, 0.007097137, 0.009118769, 0.0002593962
 166133520, 0.001856875, 0.007245381, 0.0009357617, 0.0002593962
 166233480, 0.01223454, 0.006331167, -0.03463557, 0.0002593962
 166334273, 0.00987936, 0.004261873, -0.03407918, 0.0002615578
 166434233, -0.001307293, 0.005620121, -0.001734993, 0.0002593962
 166534193, 0.002927078, 0.00110261, -0.01358409, 0.0002593962
 166634153, -0.002049671, -0.000189955, -0.03487515, 0.0002593962
 166734113, -0.00138025, 0.001260962, -0.02704972, 0.0002593962
 166834073, -0.001652671, 0.001152057, -0.01478101, 0.0002593962
 166934033, 0.0009935362, 0.0009699403, 0.005016151, 0.0002593962
 167033993, 0.005535766, 0.003768895, 0.04394355, 0.0002593962
 167153945, 0.005635773, 0.003385554, -0.001421608, 0.0003112754
 167253905, 0.000354208, 0.003746741, -0.0147087, 0.0002593962
 167353865, 0.0004885716, 0.008722574, -0.02505066, 0.0002593962
 167453825, -0.003898848, 0.01414923, -0.002181277, 0.0002593962
 167553785, -0.005247141, 0.007830992, -0.01372479, 0.0002593962
 167653745, 0.005638543, 0.01896825, 0.00850994, 0.0002593962
 167753705, 0.0148687, 0.01649253, -0.003949788, 0.0002593962
 167853665, 0.001662625, 0.006866707, -0.01142229, 0.0002593962
 167953625, 0.001632897, 0.004118156, -0.01497874, 0.0002593962
 168053585, -0.003482691, 0.00895628, -0.03113834, 0.0002593962
 168153545, -0.008149664, 0.008326797, -0.02150971, 0.0002593962
 168253505, -0.00436813, 0.009000681, -0.03088741, 0.0002593962
 168354298, -0.008732879, -0.01270929, 0.01716, 0.0002593962
 168454258, 0.001580145, -0.005952773, 0.01346519, 0.0002615578
 168554218, -0.0006970154, 0.0006248902, 0.01949603, 0.0002593962
 168654178, -0.002874266, 0.009343188, -0.01010584, 0.0002593962
 168754138, -0.007967067, 0.01099653, -0.02176565, 0.0002593962
 168854098, -0.01013399, 0.005577147, -0.05041682, 0.0002593962
 168954058, -0.004676181, 0.003322256, -0.002092526, 0.0002593962
 169054018, -0.003151397, 0.007557908, 0.02439118, 0.0002593962
 169173970, -0.004192803, 0.01459751, 0.0547271, 0.0003112754
 169273930, 0.002857777, -0.003671231, 0.06476991, 0.0002593962
 169373890, 0.002088911, -0.003933002, 0.01525139, 0.0002593962
 169473850, 0.001786726, -0.007858045, 0.003923553, 0.0002593962
 169573810, 0.004830965, 0.00993399, -0.03337794, 0.0002593962
 169673770, 0.00324347, 0.01449825, -0.0270239, 0.0002593962
 169773730, -0.004543087, 0.007300826, -0.04477037, 0.0002593962
 169873690, -0.002481471, 0.0001716613, -0.04212424, 0.0002593962
 169973650, -0.004921602, -0.007409054, 0.00680817, 0.0002593962
 170073610, -0.001533589, -0.007951519, 0.03578025, 0.0002593962
 170173570, 0.002928902, 0.007478538, 0.01541084, 0.0002593962
 170273530, -0.004124499, 0.0130518, -0.001180644, 0.0002593962
 170373490, 0.01089378, 0.01083106, 0.0213732, 0.0002593962
 170474283, 0.007230866, -0.008947215, 0.03670124, 0.0002615578
 170574243, 0.002703385, -0.002540784, 0.01468544, 0.0002593962
 170674203, -0.00221862, -0.007650516, -0.005248115, 0.0002593962
 170774163, 0.001294698, -0.009327239, -0.02510607, 0.0002593962
 170874123, 0.003467067, -0.004878158, -0.0610235, 0.0002593962
 170974083, 0.0008094368, 0.01144104, -0.04236624, 0.0002593962
 171074043, 0.005269081, 0.01442883, 0.0124997, 0.0002593962
 171174003, 0.004070175, 0.004445882, 0.005008858, 0.0002593962
 171293955, 0.001685508, -0.0007420941, -0.006906177, 0.0003112754
 171393915, -0.002143765, 0.004568931, -0.01362061, 0.0002593962
 171493875, -0.0064571, 0.002935404, 0.02046291, 0.0002593962
 171593835, 0.004474373, 0.003465754, 0.02694526, 0.0002593962
 171693795, -0.002376375, 0.02458616, -0.001859407, 0.0002593962
 171793755, -0.008643012, 0.02199904, -0.02408294, 0.0002593962
 171893715, -0.0117651, 0.01800812, 0.004852203, 0.0002593962
 171993675, -0.006357519, -0.001255201, -0.003217011, 0.0002593962
 172093635, -0.001074787, -0.01139117, -0.01451758, 0.0002593962
 172193595, 0.0007151931, -0.004409296, -0.0004771612, 0.0002593962
 172293555, 0.001351387, 0.002298177, -0.01205573, 0.0002593962
 172393515, 0.007742718, 0.004480724, -0.004408932, 0.0002593962
 172493475, -0.0215772, 0.002570057, -0.02696247, 0.0002593962
 172594268, -0.01927623, -0.00771297, -0.0175474, 0.0002615578
 172694228, -0.006686537, -0.005662038, -0.03719243, 0.0002593962
 172794188, -0.004477698, 0.01379138, -0.0006472571, 0.0002593962
 172894148, -0.004994317, 0.02198669, 0.03704925, 0.0002593962
 172994108, 0.002662299, 0.02330217, 0.02336965, 0.0002593962
 173094068, -0.006855867, 0.009050361, 0.02800335, 0.0002593962
 173194028, -0.00659714, 0.008759684, -0.00778068, 0.0002593962
 173313980, -0.007918553, 0.008326896, 0.01077997, 0.0003112754
 173413940, -0.009930747, 0.008599542, -0.009312756, 0.0002593962
 173513900, -0.005153868, 0.01885781, -0.02023092, 0.0002593962
 173613860, -0.0003279451, 0.01941699, -0.01608874, 0.0002593962
 173713820, 0.001389893, 0.01083908, -0.01131525, 0.0002593962
 173813780, -0.001260209, 0.00286671, -0.03203217, 0.0002593962
 173913740, 0.0004299977, 0.01402209, -0.01953094, 0.0002593962
 174013700, -9.562005E-06, 0.01495434, 0.01344063, 0.0002593962
 174113660, 0.0037478, 0.009759986, 0.02060194, 0.0002593962
 174213620, -0.001051144, 0.01945589, -0.0025937, 0.0002593962
 174313580, -0.008957639, 0.01644323, -0.02315525, 0.0002593962
 174413540, -0.006382848, 0.01663629, -0.02364235, 0.0002593962
 174513500, -0.007587688, 0.006831214, 0.008584507, 0.0002593962
 174614293, -0.008080212, -0.001109856, 0.01343051, 0.0002615578
 174714253, -0.006049305, -0.002845234, 0.02551223, 0.0002593962
 174814213, -0.0003069192, -0.003253032, 0.02704991, 0.0002593962
 174914173, 0.001992063, 0.005658465, 0.003182292, 0.0002593962
 175014133, 0.001280918, 0.00736788, 0.02195376, 0.0002593962
 175114093, 0.003434025, 0.006681203, 0.02054186, 0.0002593962
 175214053, 0.01080785, 0.002721809, 0.008146011, 0.0002593962
 175314013, 0.02200176, 0.01112869, -0.02183177, 0.0002593962
 175433965, 0.005085795, 0.009640603, 0.0125975, 0.0003112754
 175533925, -0.01025775, 0.005938508, -0.03107454, 0.0002593962
 175633885, -0.02967214, 0.006993754, -0.0404544, 0.0002593962
 175733845, -0.02584909, 0.01242861, -0.01586509, 0.0002593962
 175833805, -0.006059625, 0.01414433, 0.01771765, 0.0002593962
 175933765, 0.02782776, -0.0008661294, 0.03545519, 0.0002593962
 176033725, 0.03068799, 0.003453611, 0.02179869, 0.0002593962
 176133685, 0.006527712, -0.00435234, -0.02183206, 0.0002593962
 176233645, -0.005534646, -0.0006587091, -0.05076789, 0.0002593962
 176333605, -0.006175861, -0.0006778846, -0.04216181, 0.0002593962
 176433565, -0.006272719, -0.008279742, -0.0211381, 0.0002593962
 176533525, -0.008192468, -0.004696865, 0.01852113, 0.0002593962
 176633485, -0.004376804, 0.004035953, -0.001921247, 0.0002593962
 176734278, -0.006554239, 0.01106899, -0.01656106, 0.0002615578
 176834238, -0.005384323, 0.01461459, 0.03457575, 0.0002593962
 176934198, -0.001450082, 0.0119512, 0.03999693, 0.0002593962
 177034158, 0.004180278, 0.002767843, 0.03978424, 0.0002593962
 177134118, 0.004702064, 0.002812692, 0.01409997, 0.0002593962
 177234078, -0.0007728387, 0.01278458, 0.01614986, 0.0002593962
 177334038, 0.001751575, 0.004250531, 0.02910177, 0.0002593962
 177433998, -0.003213199, -0.004428485, 0.0006801551, 0.0002593962
 177553950, 0.001803509, -0.002349669, -0.006611582, 0.0003112754
 177653910, -0.001525449, -0.002410856, -0.02382103, 0.0002593962
 177753870, -0.006463656, 0.01169946, -0.02926557, 0.0002593962
 177853830, -0.002818453, 0.005194398, -0.04969574, 0.0002593962
 177953790, -0.004960993, -0.0005168687, -0.05532483, 0.0002593962
 178053750, -0.01091187, -0.003704396, -0.03845859, 0.0002593962
 178153710, -0.006329062, 0.00487652, 0.01570167, 0.0002593962
 178253670, -0.005760126, 0.003636648, 0.02979401, 0.0002593962
 178353630, -0.002305436, 0.002317158, 0.02365489, 0.0002593962
 178453590, 0.002368592, 0.003179978, 0.01872012, 0.0002593962
 178553550, 0.001106658, 0.00198863, 0.02191566, 0.0002593962
 178653510, -0.004592381, 0.01014046, 0.00793091, 0.0002593962
 178754303, -0.004367538, 0.01557527, 0.007729765, 0.0002593962
 178854263, -0.001600652, 0.02231523, 0.02819305, 0.0002615578
 178954223, -0.00267095, 0.015591, 0.01725549, 0.0002593962
 179054183, 0.003191335, 0.01313377, 0.01382198, 0.0002593962
 179154143, -0.002581741, 0.02383418, -0.01951304, 0.0002593962
 179254103, -0.0003696767, 0.01474376, -0.03259645, 0.0002593962
 179354063, -0.003361345, 0.0144471, -0.02172292, 0.0002593962
 179454023, -0.001996072, 0.00385886, 0.03066973, 0.0002593962
 179573975, -0.002623785, 0.01417463, 0.00242655, 0.0003112754
 179673935, -0.006558571, 0.004994177, -0.02474392, 0.0002593962
 179773895, -0.003898364, -0.006327366, -0.01978412, 0.0002593962
 179873855, -0.007723019, -0.002572305, -0.02461711, 0.0002593962
 179973815, -0.005232309, 0.008158615, -0.01889061, 0.0002593962
 180073775, -0.003610505, 0.01498685, 0.01907578, 0.0002593962
 180173735, -0.006328103, 0.004090417, 0.006143705, 0.0002593962
 180273695, -0.005077547, 0.00903572, 0.00201366, 0.0002593962
 180373655, 0.0003592373, 0.002747796, -0.001811314, 0.0002593962
 180473615, -0.001994903, 0.005768194, -0.01427162, 0.0002593962
 180573575, -0.00595442, 0.01836652, 0.01294989, 0.0002593962
 180673535, -0.006550433, 0.02975188, -0.009435378, 0.0002593962
 180773495, -0.0008502228, 0.02324273, 0.0143138, 0.0002593962
 180874288, -0.006635956, 0.007455685, 0.02767206, 0.0002615578
 180974248, -0.004084249, 0.003084045, 0.01766067, 0.0002593962
 181074208, -0.002419077, 0.008915602, -0.008728931, 0.0002593962
 181174168, -0.002086233, 0.01749114, -0.01849595, 0.0002593962
 181274128, -0.002651053, 0.02187996, -0.02875099, 0.0002593962
 181374088, -0.003566215, 0.006194762, 0.02960986, 0.0002593962
 181474048, 0.001793451, -0.1313621, -0.01309132, 0.0002593962
 181574008, -0.01299754, 0.327606, -0.1813503, 0.0002593962
 181693960, -0.1372798, 1.546333, 0.08442947, 0.0003112754
 181793920, -0.1611006, 1.495037, 0.7347922, 0.0002593962
 181893880, -0.2754104, 1.879681, 0.6235052, 0.0002593962
 181993840, -0.7955302, 3.054306, -0.1566028, 0.0002593962
 182093800, -1.508636, 3.563679, -1.122032, 0.0002593962
 182193760, -1.749012, 2.818105, -1.534434, 0.0002593962
 182293720, -1.392318, 1.746955, -1.146879, 0.0002593962
 182393680, -0.8770424, 1.016714, -0.4543942, 0.0002593962
 182493640, -0.5691146, 0.667742, 0.04690296, 0.0002593962
 182593600, -0.4903923, 0.5242955, 0.2900024, 0.0002593962
 182693560, -0.5544763, 0.5623463, 0.2903534, 0.0002593962
 182793520, -0.6731384, 0.6524332, 0.1857247, 0.0002593962
 182893480, -0.7542942, 0.7016047, 0.07662999, 0.0002593962
 182994273, -0.8281952, 0.7099618, -0.005738776, 0.0002615578
 183094233, -0.8280574, 0.6358612, -0.001668195, 0.0002593962
 183194193, -0.8512377, 0.5656246, 0.0195248, 0.0002593962
 183294153, -0.8776042, 0.5095623, 0.04181496, 0.0002593962
 183394113, -0.8620398, 0.4439258, 0.1011558, 0.0002593962
 183494073, -0.8899922, 0.4187373, 0.1028713, 0.0002593962
 183594033, -0.9314728, 0.4032741, 0.07789139, 0.0002593962
 183693993, -0.9285344, 0.3677945, 0.0817451, 0.0002593962
 183813945, -1.195308, 0.425272, 0.06906936, 0.0003112754
 183913905, -0.9897532, 0.2977501, 0.0451128, 0.0002593962
 184013865, -1.010973, 0.2553494, 0.03378739, 0.0002593962
 184113825, -1.037161, 0.2147928, 0.02920668, 0.0002593962
 184213785, -1.019023, 0.1685836, 0.05365446, 0.0002593962
 184313745, -1.028493, 0.1273913, 0.05535227, 0.0002593962
 184413705, -1.031238, 0.09650502, 0.05613338, 0.0002593962
 184513665, -1.020138, 0.05691912, 0.06273656, 0.0002593962
 184613625, -1.010309, 0.01704771, 0.05536888, 0.0002593962
 184713585, -1.012927, -0.02289768, 0.05375409, 0.0002593962
 184813545, -1.038053, -0.06604314, 0.04592976, 0.0002593962
 184913505, -1.021257, -0.1014075, 0.06120619, 0.0002593962
 185014298, -1.042048, -0.1524577, 0.03047404, 0.0002593962
 185114258, -1.024829, -0.1913953, 0.03308504, 0.0002615578
 185214218, -0.9652869, -0.2167263, 0.06065641, 0.0002593962
 185314178, -0.9512636, -0.2497382, 0.06625032, 0.0002593962
 185414138, -0.9940721, -0.3068572, 0.03615405, 0.0002593962
 185514098, -0.9654084, -0.3422191, 0.04443457, 0.0002593962
 185614058, -0.9182962, -0.3652791, 0.05403406, 0.0002593962
 185714018, -0.9040543, -0.4035176, 0.03559242, 0.0002593962
 185833970, -1.073975, -0.5428958, 0.05659472, 0.0003112754
 185933930, -0.8358694, -0.4635286, 0.05520198, 0.0002593962
 186033890, -0.8078305, -0.5046938, 0.05099341, 0.0002593962
 186133850, -0.7586004, -0.5209265, 0.06599247, 0.0002593962
 186233810, -0.7006359, -0.5230311, 0.08961214, 0.0002593962
 186333770, -0.6794755, -0.5395601, 0.101345, 0.0002593962
 186433730, -0.6511844, -0.5616537, 0.09197833, 0.0002593962
 186533690, -0.6193576, -0.5663974, 0.08930787, 0.0002593962
 186633650, -0.5884334, -0.5733985, 0.08776477, 0.0002593962
 186733610, -0.5490003, -0.5768358, 0.09809648, 0.0002593962
 186833570, -0.4973016, -0.5666272, 0.101126, 0.0002593962
 186933530, -0.4609425, -0.567186, 0.1129905, 0.0002593962
 187033490, -0.4132927, -0.5484053, 0.1408206, 0.0002593962
 187134283, -0.3873086, -0.5489523, 0.1347411, 0.0002615578
 187234243, -0.3525304, -0.5323297, 0.130362, 0.0002593962
 187334203, -0.3376047, -0.5311671, 0.1245454, 0.0002593962
 187434163, -0.3178079, -0.5251512, 0.1322967, 0.0002593962
 187534123, -0.2973347, -0.5210447, 0.1401065, 0.0002593962
 187634083, -0.2905264, -0.5271248, 0.1341649, 0.0002593962
 187734043, -0.2604844, -0.494095, 0.1401049, 0.0002593962
 187834003, -0.2344613, -0.4762297, 0.1402831, 0.0002593962
 187953955, -0.2631708, -0.563128, 0.174958, 0.0003112754
 188053915, -0.2216148, -0.4787125, 0.1123866, 0.0002593962
 188153875, -0.2148667, -0.4955049, 0.1038275, 0.0002593962
 188253835, -0.2068921, -0.4933765, 0.09006745, 0.0002593962
 188353795, -0.1904655, -0.4719865, 0.09562372, 0.0002593962
 188453755, -0.1721236, -0.4583072, 0.09133819, 0.0002593962
 188553715, -0.1719362, -0.4565969, 0.07632984, 0.0002593962
 188653675, -0.1721013, -0.461056, 0.0504441, 0.0002593962
 188753635, -0.1637439, -0.4445253, 0.05832527, 0.0002593962
 188853595, -0.1473374, -0.4230631, 0.07240681, 0.0002593962
 188953555, -0.1401227, -0.4178872, 0.05120486, 0.0002593962
 189053515, -0.1311141, -0.4041537, 0.04920916, 0.0002593962
 189153475, -0.1243226, -0.3976637, 0.04568808, 0.0002593962
 189254268, -0.1102648, -0.3775737, 0.07113482, 0.0002615578
 189354228, -0.1065965, -0.3801831, 0.05843659, 0.0002593962
 189454188, -0.1093894, -0.3958838, 0.02206666, 0.0002593962
 189554148, -0.1013321, -0.3863944, 0.0108013, 0.0002593962
 189654108, -0.1022405, -0.3818015, -0.03551802, 0.0002593962
 189754068, -0.09028959, -0.3560531, -0.0129092, 0.0002593962
 189854028, -0.08695234, -0.3516863, 0.005511282, 0.0002593962
 189973980, -0.101, -0.4134521, 0.007861968, 0.0003112754
 190073940, -0.07685661, -0.3242918, -0.005590262, 0.0002593962
 190173900, -0.07338867, -0.3178048, -0.03429964, 0.0002593962
 190273860, -0.06374086, -0.2902206, -0.01422476, 0.0002593962
 190373820, -0.05870817, -0.2784791, 0.006880944, 0.0002593962
 190473780, -0.05870425, -0.2645217, 0.009971119, 0.0002593962
 190573740, -0.05159358, -0.251815, 0.01182044, 0.0002593962
 190673700, -0.05196839, -0.2337041, 0.01314259, 0.0002593962
 190773660, -0.0576401, -0.2440737, -0.03906408, 0.0002593962
 190873620, -0.05732134, -0.2432355, -0.05968008, 0.0002593962
 190973580, -0.05084921, -0.2276368, -0.04910139, 0.0002593962
 191073540, -0.05580733, -0.222552, -0.04722009, 0.0002593962
 191173500, -0.05170215, -0.2194881, -0.0662604, 0.0002593962
 191274293, -0.04642747, -0.2203798, -0.06458949, 0.0002615578
 191374253, -0.03887127, -0.1843448, -0.04050041, 0.0002593962
 191474213, -0.04123471, -0.1695433, -0.02126228, 0.0002593962
 191574173, -0.0357003, -0.168225, -0.05755231, 0.0002593962
 191674133, -0.03898305, -0.156433, -0.04541551, 0.0002593962
 191774093, -0.04038128, -0.172642, -0.06272484, 0.0002593962
 191874053, -0.03147159, -0.1736349, -0.04659619, 0.0002593962
 191974013, -0.03140868, -0.1640177, -0.05142288, 0.0002593962
 192093965, -0.03448126, -0.1824948, -0.08540092, 0.0003112754
 192193925, -0.02059676, -0.126684, -0.05507087, 0.0002593962
 192293885, -0.01488477, -0.1162351, -0.0355968, 0.0002593962
 192393845, -0.01388825, -0.124201, -0.05735234, 0.0002593962
 192493805, -0.01525486, -0.1202411, -0.05622211, 0.0002593962
 192593765, -0.01392968, -0.1078329, -0.04352342, 0.0002593962
 192693725, -0.002453809, -0.09303129, -0.03979645, 0.0002593962
 192793685, 0.005098004, -0.08298081, -0.02547768, 0.0002593962
 192893645, 0.01965975, -0.08248824, -0.04873772, 0.0002593962
 192993605, 0.01207403, -0.08026865, -0.06587696, 0.0002593962
 193093565, 0.009990221, -0.09049246, -0.04904449, 0.0002593962
 193193525, 0.004792143, -0.08752421, -0.02998264, 0.0002593962
 193293485, 0.01086814, -0.08015513, -0.01714847, 0.0002593962
 193394278, 0.005578555, -0.07436895, -0.0517974, 0.0002615578
 193494238, -0.0002410943, -0.06674469, -0.06816842, 0.0002593962
 193594198, -0.0008057158, -0.06644338, -0.03643405, 0.0002593962
 193694158, -0.003040701, -0.05111479, -0.02245909, 0.0002593962
 193794118, 0.01640759, -0.05438421, -0.00415364, 0.0002593962
 193894078, 0.01203737, -0.05577108, 0.003346125, 0.0002593962
 193994038, 0.004140305, -0.05124075, -0.02288624, 0.0002593962
 194093998, 0.009809693, -0.0496126, -0.0783167, 0.0002593962
 194213950, 0.001558013, -0.05634706, -0.08393312, 0.0003112754
 194313910, -0.00138638, -0.03732838, -0.01235653, 0.0002593962
 194413870, 0.00550596, -0.03394112, -0.008281607, 0.0002593962
 194513830, 0.007761649, -0.02568679, 0.001838749, 0.0002593962
 194613790, -0.00391334, -0.03880949, -0.04886887, 0.0002593962
 194713750, -0.003879796, -0.03683429, -0.02629939, 0.0002593962
 194813710, -0.006182482, -0.03141903, -0.02284191, 0.0002593962
 194913670, -0.005400694, -0.03654496, -0.004016251, 0.0002593962
 195013630, -0.00918337, -0.035923, -0.009152078, 0.0002593962
 195113590, -0.003449003, -0.03230035, -0.02354451, 0.0002593962
 195213550, -0.002716468, -0.02644235, 0.008689178, 0.0002593962
 195313510, -0.0002243055, -0.02503582, 0.03424477, 0.0002593962
 195414303, -0.002963348, -0.02443484, 0.02742769, 0.0002593962
 195514263, -0.006315313, -0.0245753, -0.04564204, 0.0002615578
 195614223, -0.009065668, -0.02802268, -0.09240662, 0.0002593962
 195714183, 0.007658749, -0.03123903, -0.04204261, 0.0002593962
 195814143, -0.006325105, -0.01693554, -0.01220819, 0.0002593962
 195914103, 0.008692233, -0.01521295, 0.0004889723, 0.0002593962
 196014063, -0.003700464, -0.01322199, -0.04254694, 0.0002593962
 196114023, -0.005756989, -0.01424304, -0.04497106, 0.0002593962
 196233975, -0.005084926, -0.009893235, -0.02292989, 0.0003112754
 196333935, -0.005814949, -0.004419096, -0.02752401, 0.0002593962
 196433895, -0.004208272, -0.01073292, -0.02504468, 0.0002593962
 196533855, -0.002004071, -0.0121334, -0.02152408, 0.0002593962
 196633815, -0.001421373, -0.02386251, -0.027867, 0.0002593962
 196733775, 0.0002509359, -0.02150181, -0.02936355, 0.0002593962
 196833735, 0.002323146, -0.02636312, -0.02053189, 0.0002593962
 196933695, -0.002061106, -0.01761435, -0.002216034, 0.0002593962
 197033655, 0.002303487, -0.01530098, -0.01415473, 0.0002593962
 197133615, 0.0001089542, -0.01683281, -0.0222591, 0.0002593962
 197233575, -0.004450709, -0.008760122, -0.01819256, 0.0002593962
 197333535, -0.0003421052, -0.0106252, -0.01178089, 0.0002593962
 197433495, -0.005371454, -0.004194763, -0.02499777, 0.0002593962
 197534288, -0.01076724, -0.005768497, -0.005840837, 0.0002615578
 197634248, -0.008096689, -0.008709976, 0.001260949, 0.0002593962
 197734208, -0.002540265, -0.01505827, -0.03988452, 0.0002593962
 197834168, 0.007568949, -0.01414179, -0.04241295, 0.0002593962
 197934128, -0.00620322, -0.008167762, -0.01998843, 0.0002593962
 198034088, -0.006723687, -0.006001116, -0.01426602, 0.0002593962
 198134048, -0.006372709, -0.005009626, -0.03787552, 0.0002593962
 198234008, 0.003600919, -0.002726846, -0.04133638, 0.0002593962
 198353960, 0.002705225, -0.01129079, -0.006207376, 0.0003112754
 198453920, -0.009231109, -0.005706059, -0.02954667, 0.0002593962
 198553880, -0.001756961, -0.004980462, 0.003395229, 0.0002593962
 198653840, -0.001719339, -0.0074738, 0.01461428, 0.0002593962
 198753800, 0.002120623, -0.01347093, 0.008625366, 0.0002593962
 198853760, -0.001503411, -0.01461228, -0.008376384, 0.0002593962
 198953720, -0.003099549, -0.01397894, -0.07582944, 0.0002593962
 199053680, -0.000762089, -0.001521267, -0.07470135, 0.0002593962
 199153640, -0.002717694, 0.004259739, -0.01378319, 0.0002593962
 199253600, -0.006028242, 0.004105562, 0.02396064, 0.0002593962
 199353560, -0.00520721, -0.004917439, 0.01512017, 0.0002593962
 199453520, -0.003767143, -0.02089353, 0.02388946, 0.0002593962
 199553480, -0.002848966, -0.01025999, 0.0130702, 0.0002593962
 199654273, -0.006665116, -0.003733201, -0.01082366, 0.0002615578
 199754233, 0.0001786256, 0.006117363, -0.03594062, 0.0002593962
 199854193, 0.0002473277, -0.01013761, -0.02920817, 0.0002593962
 199954153, -0.002597059, -0.01223627, -0.004695549, 0.0002593962
 200054113, -0.0129592, -0.006259201, 0.01197182, 0.0002593962
 200154073, 0.002045137, 0.001354721, 0.004208244, 0.0002593962
 200254033, -0.0060492, 0.01126251, -0.03575698, 0.0002593962
 200353993, -0.01251986, 0.003830586, -0.02168623, 0.0002593962
 200473945, -0.003003327, -0.01535865, -5.208817E-05, 0.0003112754
 200573905, 0.0003228264, -0.02023797, -0.04089483, 0.0002593962
 200673865, -0.0005171637, -0.002600102, -0.06576895, 0.0002593962
 200773825, -0.001566893, 0.0001063019, -0.004258235, 0.0002593962
 200873785, -0.00333774, 0.0005109948, 0.00739085, 0.0002593962
 200973745, -0.003437593, -0.00641625, 0.005099908, 0.0002593962
 201073705, 0.004221177, -0.002641479, -0.05017367, 0.0002593962
 201173665, 0.001165412, -0.0006307281, -0.02941683, 0.0002593962
 201273625, -0.006182853, 0.003209731, 0.03240166, 0.0002593962
 201373585, -0.008561332, -0.007444974, 0.04156429, 0.0002593962
 201473545, -0.02186009, -0.002737083, -0.01852883, 0.0002593962
 201573505, -0.01355482, -0.005131608, -0.07277493, 0.0002593962
 201674298, -0.00349573, -0.004873661, -0.003571121, 0.0002593962
 201774258, 0.006500725, -0.004542579, 0.003000471, 0.0002615578
 201874218, 0.03344895, -0.01154926, 0.01517545, 0.0002593962
 201974178, 0.006891777, -0.01046878, 0.0264044, 0.0002593962
 202074138, -0.03283663, -0.01299439, 0.0073676, 0.0002593962
 202174098, -0.01900922, -0.005334993, -0.01079998, 0.0002593962
 202274058, -0.009519272, -0.01558595, -0.01576992, 0.0002593962
 202374018, -0.006384109, -0.01485222, -0.0003495343, 0.0002593962
 202493970, -0.006976048, 9.564532E-05, -0.01874192, 0.0003112754
 202593930, -0.002005689, 0.01227198, 0.001857272, 0.0002593962
 202693890, 0.003132167, 0.01109731, -0.006027242, 0.0002593962
 202793850, 0.001326961, 0.01244733, 0.00154545, 0.0002593962
 202893810, -0.002873674, 0.007485875, -0.01981387, 0.0002593962
 202993770, -0.004479994, -0.006794213, -0.007700852, 0.0002593962
 203093730, -0.01111174, -0.02693439, 0.01837703, 0.0002593962
 203193690, -0.008454503, -0.01450039, -0.008546185, 0.0002593962
 203293650, -0.004138192, -0.004389889, -0.02635719, 0.0002593962
 203393610, 0.002822651, -0.00317079, -0.01136393, 0.0002593962
 203493570, 0.002190999, -0.01330915, -0.04424123, 0.0002593962
 203593530, -0.005900141, -0.001798936, -0.008108061, 0.0002593962
 203693490, -0.01158092, -0.0004623068, 0.04000888, 0.0002593962
 203794283, -0.01045921, 0.006259608, 0.01705969, 0.0002615578
 203894243, -0.0006225747, 0.01028257, -0.006182438, 0.0002593962
 203994203, -0.0076141, 0.0126263, 0.012269, 0.0002593962
 204094163, -0.004069593, 0.006446409, 0.01471388, 0.0002593962
 204194123, -0.006762987, -0.003931425, -0.0003848446, 0.0002593962
 204294083, -0.005691796, -0.002145905, -0.03767618, 0.0002593962
 204394043, -0.0008626555, -0.004976015, -0.03043281, 0.0002593962
 204494003, -0.002754255, -0.008339093, -0.01831043, 0.0002593962
 204613955, -0.003891433, -0.00166151, -0.01773329, 0.0003112754
 204713915, 0.003036964, 0.008724094, -0.01596716, 0.0002593962
 204813875, -0.003097977, 0.01696406, -0.004627465, 0.0002593962
 204913835, -0.001918304, 0.008227536, -0.01153247, 0.0002593962
 205013795, -0.0004920734, -0.004292601, 0.01465961, 0.0002593962
 205113755, 0.003798592, -0.01492576, 0.009427894, 0.0002593962
 205213715, 0.007707639, -0.01201178, -0.03667049, 0.0002593962
 205313675, -0.004075646, -0.003917218, -0.03292672, 0.0002593962
 205413635, -0.01402562, 0.005211154, 0.03840639, 0.0002593962
 205513595, -0.02979773, 0.01358617, 0.0347341, 0.0002593962
 205613555, -0.01334972, 0.004014985, 0.03387793, 0.0002593962
 205713515, -0.002840876, -0.001108118, 0.0313322, 0.0002593962
 205813475, -0.00845088, 0.01290919, 0.007792701, 0.0002593962
 205914268, -0.002865711, 0.003615774, -0.02738706, 0.0002615578
 206014228, 0.002414474, 0.004025035, -0.05567549, 0.0002593962
 206114188, -0.0007776141, 0.01683218, -0.01479146, 0.0002593962
 206214148, -0.0138722, 0.01465613, -0.006054793, 0.0002593962
 206314108, -0.00901665, 0.002577654, 0.02941547, 0.0002593962
 206414068, -0.009658795, -0.007304818, 0.0188844, 0.0002593962
 206514028, -0.004401345, -0.007711235, 0.006898427, 0.0002593962
 206633980, -0.007034099, 0.0009704812, -0.02058788, 0.0003112754
 206733940, -0.005304237, 0.005746529, 0.005915668, 0.0002593962
 206833900, 0.0006285909, 1.988985E-05, -0.02657705, 0.0002593962
 206933860, 0.001496788, 0.001499987, -0.02095245, 0.0002593962
 207033820, -0.0002088721, -0.006527496, 0.00210202, 0.0002593962
 207133780, 0.005957013, -0.01682997, 0.01089454, 0.0002593962
 207233740, -0.005723666, -0.02034548, 0.02079478, 0.0002593962
 207333700, -0.01158756, -0.01637113, 0.0214708, 0.0002593962
 207433660, -0.01206651, -0.005564774, 0.05149836, 0.0002593962
 207533620, -0.01040496, 0.002155004, -0.0007855794, 0.0002593962
 207633580, -4.445255E-05, 0.001493214, -0.01913511, 0.0002593962
 207733540, 0.006574648, -0.001932412, -0.03956313, 0.0002593962
 207833500, 0.004205533, 0.004226347, -0.01621933, 0.0002593962
 207934293, 0.008036513, 0.01117598, 0.003926927, 0.0002615578
 208034253, 0.0004565645, 0.008888547, 0.001142369, 0.0002593962
 208134213, 0.001220874, 0.002825165, -0.02026472, 0.0002593962
 208234173, 0.008462388, 0.004114855, 0.01920367, 0.0002593962
 208334133, 0.007274022, -0.004887672, 0.03159098, 0.0002593962
 208434093, 0.009797385, 0.001307536, 0.03929561, 0.0002593962
 208534053, 0.008329321, 0.003039647, 0.03022818, 0.0002593962
 208634013, 0.01921734, -0.009214717, -0.009355683, 0.0002593962
 208753965, 0.001690947, -0.01719624, -0.0189178, 0.0003112754
 208853925, 0.01023314, -0.009979266, -0.006537987, 0.0002593962
 208953885, 0.01706099, -0.00497841, -0.02516345, 0.0002593962
 209053845, 0.02519838, -0.00529098, -0.02285483, 0.0002593962
 209153805, 0.0171745, -0.006895095, -0.01342805, 0.0002593962
 209253765, 0.002748889, 0.007725257, 0.02417067, 0.0002593962
 209353725, -0.006144464, 0.01711935, 0.06389748, 0.0002593962
 209453685, 0.000363474, -0.0006047886, 0.03344678, 0.0002593962
 209553645, 0.01194069, -0.00468189, 0.05194895, 0.0002593962
 209653605, 0.01379105, 0.002185332, 0.03157511, 0.0002593962
 209753565, 0.007703293, 0.007136398, 0.008263133, 0.0002593962
 209853525, 0.007888474, 0.002179143, 0.003132225, 0.0002593962
 209953485, 0.004515981, 0.003218142, 0.0207852, 0.0002593962
 210054278, 0.004602476, -0.0005957058, -0.00413695, 0.0002615578
 210154238, 0.001377748, -0.01100989, -0.001844765, 0.0002593962
 210254198, -0.005946034, 0.002951081, 0.05305499, 0.0002593962
 210354158, 0.01236814, 0.01022583, 0.007731243, 0.0002593962
 210454118, 0.00858123, 0.002783813, 0.007242604, 0.0002593962
 210554078, 0.005790914, 0.006957874, 0.02845026, 0.0002593962
 210654038, 0.001592923, 0.01044456, 0.006962269, 0.0002593962
 210753998, -0.0009945189, 0.00615716, -0.0001183033, 0.0002593962
 210873950, 0.003740138, 0.008392621, -0.02377754, 0.0003112754
 210973910, 0.002726069, 0.01558461, -0.007782883, 0.0002593962
 211073870, 0.001228483, 0.01888795, -0.003380367, 0.0002593962
 211173830, 0.0004930748, 0.005705021, 0.0007197649, 0.0002593962
 211273790, 0.000490132, 0.0182341, 0.008234553, 0.0002593962
 211373750, -0.01444443, 0.07063463, 0.007161574, 0.0002593962
 211473710, -0.02623749, 0.1512272, 0.01686938, 0.0002593962
 211573670, -0.02510333, 0.2098864, 0.04992508, 0.0002593962
 211673630, -0.02505055, 0.2541711, 0.03606191, 0.0002593962
 211773590, -0.03307649, 0.2750799, 0.01455011, 0.0002593962
 211873550, -0.02822662, 0.2870291, -0.004459694, 0.0002593962
 211973510, -0.02928561, 0.3247595, -0.05068668, 0.0002593962
 212074303, -0.03615039, 0.3587437, -0.07326689, 0.0002593962
 212174263, -0.03474101, 0.3745055, -0.03640253, 0.0002615578
 212274223, -0.03263117, 0.3970116, 0.002025824, 0.0002593962
 212374183, -0.0289737, 0.4451808, 0.008714984, 0.0002593962
 212474143, -0.02668916, 0.4795439, -0.009418953, 0.0002593962
 212574103, -0.01606792, 0.5005166, -0.007315998, 0.0002593962
 212674063, -0.01715902, 0.5406057, -0.05158191, 0.0002593962
 212774023, -0.003757982, 0.5543615, -0.03477363, 0.0002593962
 212893975, 0.01350072, 0.7332439, -0.07643945, 0.0003112754
 212993935, 0.02896121, 0.6468185, -0.08530977, 0.0002593962
 213093895, 0.0492359, 0.6625029, -0.07437485, 0.0002593962
 213193855, 0.07441499, 0.6805085, -0.06638886, 0.0002593962
 213293815, 0.09041385, 0.6833904, -0.04517244, 0.0002593962
 213393775, 0.1201005, 0.7281377, -0.07063515, 0.0002593962
 213493735, 0.1416425, 0.7344196, -0.0677456, 0.0002593962
 213593695, 0.1572836, 0.7244153, -0.04561893, 0.0002593962
 213693655, 0.1880631, 0.72413, -0.04613225, 0.0002593962
 213793615, 0.2065749, 0.7237228, -0.04290358, 0.0002593962
 213893575, 0.232248, 0.7217374, -0.03329115, 0.0002593962
 213993535, 0.263017, 0.7248974, -0.03797761, 0.0002593962
 214093495, 0.3043816, 0.7349467, -0.04336515, 0.0002593962
 214194288, 0.3389685, 0.7326786, -0.04601577, 0.0002615578
 214294248, 0.3438241, 0.6936626, -0.03334858, 0.0002593962
 214394208, 0.3258678, 0.6368839, 0.02510819, 0.0002593962
 214494168, 0.3585181, 0.6314518, 0.02401887, 0.0002593962
 214594128, 0.3933204, 0.6302047, -0.01205617, 0.0002593962
 214694088, 0.4169688, 0.6184384, -0.01516146, 0.0002593962
 214794048, 0.4135108, 0.5610248, 0.02059037, 0.0002593962
 214894008, 0.4009628, 0.5107172, 0.05825802, 0.0002593962
 215013960, 0.5345755, 0.639793, 0.02601041, 0.0003112754
 215113920, 0.4334136, 0.4789826, 0.02898008, 0.0002593962
 215213880, 0.4115948, 0.4259456, 0.07075155, 0.0002593962
 215313840, 0.3982974, 0.3904153, 0.08509822, 0.0002593962
 215413800, 0.4089117, 0.3779508, 0.0711336, 0.0002593962
 215513760, 0.3954507, 0.3399076, 0.07690344, 0.0002593962
 215613720, 0.379811, 0.3172622, 0.0980476, 0.0002593962
 215713680, 0.3923855, 0.3112432, 0.08918855, 0.0002593962
 215813640, 0.3760178, 0.2860627, 0.09636262, 0.0002593962
 215913600, 0.369711, 0.2764731, 0.09712353, 0.0002593962
 216013560, 0.3529333, 0.2535545, 0.1152557, 0.0002593962
 216113520, 0.3508026, 0.2413633, 0.1004578, 0.0002593962
 216213480, 0.3338625, 0.2121733, 0.1113376, 0.0002593962
 216314273, 0.3475624, 0.2278546, 0.08789299, 0.0002615578
 216414233, 0.3312058, 0.2040056, 0.09805344, 0.0002593962
 216514193, 0.3265402, 0.2001031, 0.08621792, 0.0002593962
 216614153, 0.3048711, 0.1789438, 0.1015494, 0.0002593962
 216714113, 0.2904524, 0.1675769, 0.09323224, 0.0002593962
 216814073, 0.2997181, 0.170978, 0.06635895, 0.0002593962
 216914033, 0.270723, 0.1497292, 0.09134567, 0.0002593962
 217013993, 0.2515134, 0.1382127, 0.09995417, 0.0002593962
 217133945, 0.2854486, 0.1569844, 0.1010901, 0.0003112754
 217233905, 0.2421799, 0.1263817, 0.03361826, 0.0002593962
 217333865, 0.2363918, 0.1181296, 0.03906997, 0.0002593962
 217433825, 0.2062959, 0.1027916, 0.07507885, 0.0002593962
 217533785, 0.1815402, 0.09150568, 0.07948354, 0.0002593962
 217633745, 0.1645429, 0.08709326, 0.07390194, 0.0002593962
 217733705, 0.1682104, 0.08407554, 0.04388509, 0.0002593962
 217833665, 0.1484039, 0.07620434, 0.04556878, 0.0002593962
 217933625, 0.1361603, 0.06747924, 0.05134838, 0.0002593962
 218033585, 0.1411098, 0.06738497, 0.001649711, 0.0002593962
 218133545, 0.1268202, 0.05902182, 0.01035938, 0.0002593962
 218233505, 0.09916878, 0.04593848, 0.03778101, 0.0002593962
 218334298, 0.0792586, 0.04713183, 0.02867443, 0.0002593962
 218434258, 0.07400904, 0.04373477, -0.001415588, 0.0002615578
 218534218, 0.05617603, 0.03638025, -0.006768675, 0.0002593962
 218634178, 0.04483449, 0.02891193, -0.02577644, 0.0002593962
 218734138, 0.03272707, 0.02391619, -0.01113327, 0.0002593962
 218834098, 0.02054736, 0.02285298, -0.0002282087, 0.0002593962
 218934058, 0.01415982, 0.02112016, -0.01963941, 0.0002593962
 219034018, -0.003302666, 0.01391322, -0.04482311, 0.0002593962
 219153970, -0.03538015, -0.001232628, -0.02526693, 0.0003112754
 219253930, -0.04535159, -0.01604243, -0.04050355, 0.0002593962
 219353890, -0.05540767, -0.01797531, 0.0007906039, 0.0002593962
 219453850, -0.06717004, -0.01873745, 0.007327847, 0.0002593962
 219553810, -0.08178852, -0.02165053, -0.06291017, 0.0002593962
 219653770, -0.09434605, -0.03624553, -0.07879485, 0.0002593962
 219753730, -0.09248239, -0.04017862, -0.02723957, 0.0002593962
 219853690, -0.1054591, -0.04164081, -0.01625736, 0.0002593962
 219953650, -0.1092223, -0.04010623, -0.03802107, 0.0002593962
 220053610, -0.1075042, -0.03879116, -0.05149703, 0.0002593962
 220153570, -0.1124764, -0.05024288, -0.05720684, 0.0002593962
 220253530, -0.1274719, -0.06350616, -0.06062128, 0.0002593962
 220353490, -0.1465212, -0.06987357, -0.03135489, 0.0002593962
 220454283, -0.1554172, -0.07709071, -0.01503539, 0.0002615578
 220554243, -0.1618217, -0.07996856, -0.05703425, 0.0002593962
 220654203, -0.1752619, -0.09062821, -0.05320979, 0.0002593962
 220754163, -0.1775669, -0.09848471, -0.0367226, 0.0002593962
 220854123, -0.1842484, -0.1044789, -0.06771588, 0.0002593962
 220954083, -0.1777946, -0.109479, -0.04707468, 0.0002593962
 221054043, -0.1815707, -0.1106946, -0.04594273, 0.0002593962
 221154003, -0.1909637, -0.1199298, -0.09204127, 0.0002593962
 221273955, -0.2274904, -0.1421117, -0.08346907, 0.0003112754
 221373915, -0.187703, -0.1219513, -0.005198154, 0.0002593962
 221473875, -0.1951448, -0.1228122, 0.02515408, 0.0002593962
 221573835, -0.2004187, -0.1361183, -0.009667038, 0.0002593962
 221673795, -0.2093998, -0.1498738, -0.03776554, 0.0002593962
 221773755, -0.2169695, -0.1556752, -0.04700276, 0.0002593962
 221873715, -0.2077052, -0.1568483, -0.0154635, 0.0002593962
 221973675, -0.210304, -0.1533863, -0.0268605, 0.0002593962
 222073635, -0.2200879, -0.1593941, -0.04840912, 0.0002593962
 222173595, -0.218097, -0.1696831, -0.02803233, 0.0002593962
 222273555, -0.2252292, -0.1769475, -0.05608727, 0.0002593962
 222373515, -0.2189081, -0.1762911, -0.04759972, 0.0002593962
 222473475, -0.2134542, -0.1811968, -0.02550702, 0.0002593962
 222574268, -0.2324644, -0.2000886, 0.0008931945, 0.0002615578
 222674228, -0.2167946, -0.1920031, 0.01601701, 0.0002593962
 222774188, -0.2293821, -0.2029311, -0.004567302, 0.0002593962
 222874148, -0.2289161, -0.205036, -0.02072512, 0.0002593962
 222974108, -0.2204291, -0.2152581, -0.02609143, 0.0002593962
 223074068, -0.2162063, -0.2211211, -0.04310748, 0.0002593962
 223174028, -0.2148872, -0.2267087, -0.03889111, 0.0002593962
 223293980, -0.2569959, -0.2691273, -0.0258512, 0.0003112754
 223393940, -0.21816, -0.2365827, -0.02127248, 0.0002593962
 223493900, -0.2202412, -0.2457494, -0.006371114, 0.0002593962
 223593860, -0.2140368, -0.2421225, 0.01344456, 0.0002593962
 223693820, -0.2169906, -0.2495583, 0.01538213, 0.0002593962
 223793780, -0.2204804, -0.2614699, -0.01515822, 0.0002593962
 223893740, -0.2147062, -0.2542142, -0.01426071, 0.0002593962
 223993700, -0.2067159, -0.2575672, -0.02513591, 0.0002593962
 224093660, -0.186033, -0.2403255, 0.0107251, 0.0002593962
 224193620, -0.1818742, -0.2466618, 0.01595612, 0.0002593962
 224293580, -0.1899559, -0.2640777, 0.01803491, 0.0002593962
 224393540, -0.1936605, -0.2799586, -0.02516708, 0.0002593962
 224493500, -0.1820378, -0.2703179, -0.01122829, 0.0002593962
 224594293, -0.1704738, -0.2654385, 0.00189167, 0.0002615578
 224694253, -0.1751186, -0.2597443, -0.005996593, 0.0002593962
 224794213, -0.1747631, -0.2740763, -0.03194516, 0.0002593962
 224894173, -0.1628946, -0.2677171, -0.02991984, 0.0002593962
 224994133, -0.1527588, -0.2617023, -0.005470729, 0.0002593962
 225094093, -0.1464374, -0.2469581, 0.03646727, 0.0002593962
 225194053, -0.1397051, -0.2418547, 0.02832062, 0.0002593962
 225294013, -0.1370249, -0.2534699, 0.005457583, 0.0002593962
 225413965, -0.1755663, -0.3177056, 0.002316911, 0.0003112754
 225513925, -0.1317387, -0.2446231, 0.05183463, 0.0002593962
 225613885, -0.1360936, -0.2584018, -0.0006803751, 0.0002593962
 225713845, -0.1401158, -0.2715222, -0.01549747, 0.0002593962
 225813805, -0.1329775, -0.2712227, 0.0113723, 0.0002593962
 225913765, -0.1278302, -0.2803557, -0.01240197, 0.0002593962
 226013725, -0.1199193, -0.252326, -4.153489E-05, 0.0002593962
 226113685, -0.1131674, -0.2508209, -0.004778838, 0.0002593962
 226213645, -0.1164284, -0.2677559, -0.02377238, 0.0002593962
 226313605, -0.1198538, -0.270294, 0.01048615, 0.0002593962
 226413565, -0.1087667, -0.260479, 0.03270195, 0.0002593962
 226513525, -0.1054957, -0.2532586, 0.01552961, 0.0002593962
 226613485, -0.1002525, -0.2594076, 0.02060329, 0.0002593962
 226714278, -0.1037934, -0.2801023, -0.01932412, 0.0002615578
 226814238, -0.08664413, -0.2548227, -0.002303575, 0.0002593962
 226914198, -0.07941627, -0.2375889, 0.009887219, 0.0002593962
 227014158, -0.07588685, -0.2394415, 0.01144618, 0.0002593962
 227114118, -0.07574531, -0.2359151, 0.03112939, 0.0002593962
 227214078, -0.07932103, -0.2437073, 0.02619369, 0.0002593962
 227314038, -0.08473726, -0.2620233, -0.01978225, 0.0002593962
 227413998, -0.07724798, -0.258923, -0.003181691, 0.0002593962
 227533950, -0.09026461, -0.3129569, 0.02209823, 0.0003112754
 227633910, -0.07138783, -0.2565407, 0.01495548, 0.0002593962
 227733870, -0.07101931, -0.2744122, -0.00462532, 0.0002593962
 227833830, -0.07064365, -0.2572175, 0.0139825, 0.0002593962
 227933790, -0.06160463, -0.254247, 0.02692232, 0.0002593962
 228033750, -0.0619766, -0.2542683, -8.206908E-05, 0.0002593962
 228133710, -0.06086148, -0.2526027, 0.004509056, 0.0002593962
 228233670, -0.0523223, -0.2422383, 0.00754558, 0.0002593962
 228333630, -0.0532758, -0.2417064, 0.01632806, 0.0002593962
 228433590, -0.0560829, -0.2656714, -0.01120343, 0.0002593962
 228533550, -0.04998866, -0.2662933, -0.01844709, 0.0002593962
 228633510, -0.04363667, -0.252507, -0.02226294, 0.0002593962
 228734303, -0.04065993, -0.2340347, 0.01387833, 0.0002593962
 228834263, -0.04076319, -0.2418028, 0.02175777, 0.0002615578
 228934223, -0.03206612, -0.261865, -0.007201508, 0.0002593962
 229034183, -0.02594806, -0.2547489, -0.02054385, 0.0002593962
 229134143, -0.02432767, -0.2422999, 0.01070351, 0.0002593962
 229234103, -0.02967751, -0.217916, 0.04318215, 0.0002593962
 229334063, -0.02716607, -0.2193636, 0.02394122, 0.0002593962
 229434023, -0.02742715, -0.2342051, 0.0003970084, 0.0002593962
 229553975, -0.03194588, -0.2753937, 0.02245795, 0.0003112754
 229653935, -0.02350161, -0.2255, 0.008858159, 0.0002593962
 229753895, -0.01795286, -0.2510916, -0.02283239, 0.0002593962
 229853855, -0.009519525, -0.2568375, -0.03326537, 0.0002593962
 229953815, -0.01389647, -0.2469003, -0.01195924, 0.0002593962
 230053775, -0.0128309, -0.2266366, 0.01056924, 0.0002593962
 230153735, -0.00667271, -0.2112821, 0.01608739, 0.0002593962
 230253695, -0.004265169, -0.214014, 0.01934941, 0.0002593962
 230353655, -0.0003635531, -0.2264376, 0.01042475, 0.0002593962
 230453615, -0.004352613, -0.2345715, -0.004908114, 0.0002593962
 230553575, -0.004588189, -0.2187935, 0.01711382, 0.0002593962
 230653535, -0.005094103, -0.206846, 0.02844629, 0.0002593962
 230753495, -0.007410859, -0.2122147, -0.001372494, 0.0002593962
 230854288, 0.00540552, -0.2270159, -0.000942287, 0.0002615578
 230954248, 0.003514295, -0.2417233, -0.008197813, 0.0002593962
 231054208, 0.002790194, -0.2444281, -0.005402015, 0.0002593962
 231154168, 0.006547966, -0.236031, -0.006710972, 0.0002593962
 231254128, 0.00498856, -0.2084787, 0.009186569, 0.0002593962
 231354088, 0.01026006, -0.2143908, 0.01145111, 0.0002593962
 231454048, 0.01704827, -0.221522, -0.02064002, 0.0002593962
 231554008, 0.02435666, -0.214389, -0.0002744438, 0.0002593962
 231673960, 0.02444596, -0.2665468, 0.01264346, 0.0003112754
 231773920, 0.01707503, -0.2173967, 0.002476073, 0.0002593962
 231873880, 0.01963211, -0.2200289, -0.008482333, 0.0002593962
 231973840, 0.02082001, -0.2117633, 0.03286801, 0.0002593962
 232073800, 0.0192069, -0.2128516, 0.01143984, 0.0002593962
 232173760, 0.02311493, -0.2157505, 0.01073238, 0.0002593962
 232273720, 0.03099949, -0.2151545, 0.004817618, 0.0002593962
 232373680, 0.03076258, -0.2047473, 0.03065592, 0.0002593962
 232473640, 0.02561746, -0.2118169, 0.009102108, 0.0002593962
 232573600, 0.02939291, -0.2256393, -0.04007974, 0.0002593962
 232673560, 0.03277686, -0.221735, -0.03184071, 0.0002593962
 232773520, 0.03809464, -0.2312989, -0.03902782, 0.0002593962
 232873480, 0.04014236, -0.2110838, -0.004622641, 0.0002593962
 232974273, 0.03881524, -0.2214377, 0.0009195909, 0.0002615578
 233074233, 0.0440784, -0.2136396, 0.01697161, 0.0002593962
 233174193, 0.04459453, -0.2085018, 0.01411051, 0.0002593962
 233274153, 0.05063733, -0.2100398, 0.002148846, 0.0002593962
 233374113, 0.05434224, -0.1910747, 0.03943141, 0.0002593962
 233474073, 0.0530113, -0.1944419, 0.02591096, 0.0002593962
 233574033, 0.05006327, -0.2109555, -0.02257208, 0.0002593962
 233673993, 0.0501418, -0.2180346, -0.02839626, 0.0002593962
 233793945, 0.05481524, -0.2341146, 0.0346361, 0.0003112754
 233893905, 0.05290499, -0.1954479, 0.04379288, 0.0002593962
 233993865, 0.06068728, -0.2184594, -0.01729098, 0.0002593962
 234093825, 0.06118034, -0.2104837, -0.02457756, 0.0002593962
 234193785, 0.06439639, -0.1955387, -0.005606926, 0.0002593962
 234293745, 0.06181937, -0.1857159, 0.018799, 0.0002593962
 234393705, 0.05685229, -0.1936255, 0.01169593, 0.0002593962
 234493665, 0.06951009, -0.2038921, -0.02236216, 0.0002593962
 234593625, 0.06702457, -0.1934271, -0.008467404, 0.0002593962
 234693585, 0.06399508, -0.1800848, 0.005474456, 0.0002593962
 234793545, 0.0537135, -0.1712079, 0.02225584, 0.0002593962
 234893505, 0.06552027, -0.1837963, 0.01118759, 0.0002593962
 234994298, 0.07648641, -0.1995092, -0.00897937, 0.0002593962
 235094258, 0.0706431, -0.1975867, 0.002774874, 0.0002615578
 235194218, 0.06779645, -0.1921989, 0.01391482, 0.0002593962
 235294178, 0.072428, -0.1926251, -0.004258884, 0.0002593962
 235394138, 0.07982761, -0.2042314, -0.02501491, 0.0002593962
 235494098, 0.07848522, -0.202076, -0.01661271, 0.0002593962
 235594058, 0.0738391, -0.1862643, 0.04013431, 0.0002593962
 235694018, 0.07526241, -0.1873904, 0.01906854, 0.0002593962
 235813970, 0.1001084, -0.2406041, -0.006742126, 0.0003112754
 235913930, 0.08170606, -0.1942583, -0.007077132, 0.0002593962
 236013890, 0.08981515, -0.191949, -0.01693978, 0.0002593962
 236113850, 0.08952338, -0.1924862, -0.01588866, 0.0002593962
 236213810, 0.09481299, -0.1967954, -0.03369226, 0.0002593962
 236313770, 0.09520099, -0.1990301, -0.05348225, 0.0002593962
 236413730, 0.09544201, -0.184916, -0.02678153, 0.0002593962
 236513690, 0.08856029, -0.1743554, 0.01389003, 0.0002593962
 236613650, 0.09012525, -0.1750494, 0.03023049, 0.0002593962
 236713610, 0.09935796, -0.1786127, 0.01011315, 0.0002593962
 236813570, 0.09774467, -0.1676629, -0.005803847, 0.0002593962
 236913530, 0.1101103, -0.1773834, -0.001698606, 0.0002593962
 237013490, 0.1047603, -0.1870073, 0.03282576, 0.0002593962
 237114283, 0.116419, -0.2034927, -0.01578306, 0.0002615578
 237214243, 0.1277419, -0.2106366, -0.044756, 0.0002593962
 237314203, 0.1127181, -0.1924248, 7.615867E-05, 0.0002593962
 237414163, 0.09927222, -0.1675822, 0.01498742, 0.0002593962
 237514123, 0.1034684, -0.1669861, -0.01883593, 0.0002593962
 237614083, 0.1057144, -0.1630991, 0.01370353, 0.0002593962
