TimeUS,CGpN,CGpE,CGpD,CGpe,PGpN,PGpE,PGpD,PGpe
 170563414, 0, 0, 0, 2.5, 0, 0, 0, 0
 170630887, 0, 0, 0, 2.5, 0, 0, 0, 2.5
 170830807, 0, 0, 0, 2.5, 0, 0, 0, 2.5
 171030727, 0, 0, 0, 2.5, 0, 0, 0, 2.5
 171231480, 0, 0, 0, 2.5, 0, 0, 0, 2.5
 171431400, 0, 0, 0, 2.5, 0, 0, 0, 2.5
 171631320, 0, 0, 0, 2.5, 0, 0, 0, 2.5
 171831240, 0, 0, 0, 2.5, 0, 0, 0, 2.5
 172031160, 0, 0, 0, 2.5, 0, 0, 0, 2.5
 172231080, 0, 0, 0, 2.5, 0, 0, 0, 2.5
 172431000, 0, 0, 0, 2.5, 0, 0, 0, 2.5
 172630920, 0, 0, 0, 2.5, 0, 0, 0, 2.5
 172830840, 0, 0, 0, 2.5, 0, 0, 0, 2.5
 173030760, 0, 0, 0, 2.5, 0, 0, 0, 2.5
 173230680, 0, 0, 0, 2.5, 0, 0, 0, 2.5
 173431433, 0, 0, 0, 2.5, 0, 0, 0, 2.5
 173631353, 0, 0, 0, 2.5, 0, 0, 0, 2.5
 173831273, 0, 0, 0, 2.5, 0, 0, 0, 2.5
 174031193, 0, 0, 0, 2.5, 0, 0, 0, 2.5
 174231113, 0, 0, 0, 2.5, 0, 0, 0, 2.5
 174431033, 0, 0, 0, 2.5, 0, 0, 0, 2.5
 174630953, 0, 0, 0, 2.5, 0, 0, 0, 2.5
 174830873, 0, 0, 0, 2.5, 0, 0, 0, 2.5
 175030793, 0, 0, 0, 2.5, 0, 0, 0, 2.5
 175230713, 0, 0, 0, 2.5, 0, 0, 0, 2.5
 175431466, 0, 0, 0, 2.5, 0, 0, 0, 2.5
 175631386, 0, 0, 0, 2.5, 0, 0, 0, 2.5
 175831306, 0, 0, 0, 2.5, 0, 0, 0, 2.5
 176031226, 0, 0, 0, 2.5, 0, 0, 0, 2.5
 176231146, 0, 0, 0, 2.5, 0, 0, 0, 2.5
 176431066, 0, 0, 0, 2.5, 0, 0, 0, 2.5
 176630986, 0, 0, 0, 2.5, 0, 0, 0, 2.5
 176830906, 0, 0, 0, 2.5, 0, 0, 0, 2.5
 177030826, 0, 0, 0, 2.5, 0, 0, 0, 2.5
 177230746, 0, 0, 0, 2.5, 0, 0, 0, 2.5
 177430666, 0, 0, 0, 2.5, 0, 0, 0, 2.5
 177631419, 0, 0, 0, 2.5, 0, 0, 0, 2.5
 177831339, 0, 0, 0, 2.5, 0, 0, 0, 2.5
 178031259, 0, 0, 0, 2.5, 0, 0, 0, 2.5
 178231179, 0, 0, 0, 2.5, 0, 0, 0, 2.5
 178431099, 0, 0, 0, 2.5, 0, 0, 0, 2.5
 178631019, 0, 0, 0, 2.5, 0, 0, 0, 2.5
 178830939, 0, 0, 0, 2.5, 0, 0, 0, 2.5
 179030859, 0, 0, 0, 2.5, 0, 0, 0, 2.5
 179230779, 0, 0, 0, 2.5, 0, 0, 0, 2.5
 179430699, 0, 0, 0, 2.5, 0, 0, 0, 2.5
 179631452, 0, 0, 0, 2.5, 0, 0, 0, 2.5
 179831372, 0, 0, 0, 2.5, 0, 0, 0, 2.5
 180031292, 0, 0, 0, 2.5, 0, 0, 0, 2.5
 180231212, 0, 0, 0, 2.5, 0, 0, 0, 2.5
 180431132, 0, 0, 0, 2.5, 0, 0, 0, 2.5
 180631052, 0, 0, 0, 2.5, 0, 0, 0, 2.5
 180830972, 0, 0, 0, 2.5, 0, 0, 0, 2.5
 181030892, 0, 0, 0, 2.5, 0, 0, 0, 2.5
 181230812, 0, 0, 0, 2.5, 0, 0, 0, 2.5
 181430732, 0, 0, 0, 2.5, 0, 0, 0, 2.5
 181631485, 0, 0, 0, 2.5, 0, 0, 0, 2.5
 181831405, 0, 0, 0, 2.5, 0, 0, 0, 2.5
 182031325, 0, 0, 0, 2.5, 0, 0, 0, 2.5
 182231245, 0, 0, 0, 2.5, 0, 0, 0, 2.5
 182431165, 0, 0, 0, 2.5, 0, 0, 0, 2.5
 182631085, 0, 0, 0, 2.5, 0, 0, 0, 2.5
 182831005, 0, 0, 0, 2.5, 0, 0, 0, 2.5
 183030925, 0, 0, 0, 2.5, 0, 0, 0, 2.5
 183230845, 0, 0, 0, 2.5, 0, 0, 0, 2.5
 183430765, 0, 0, 0, 2.5, 0, 0, 0, 2.5
 183630685, 0, 0, 0, 2.5, 0, 0, 0, 2.5
 183831438, 0, 0, 0, 2.5, 0, 0, 0, 2.5
 184031358, 0, 0, 0, 2.5, 0, 0, 0, 2.5
 184231278, 0, 0, 0, 2.5, 0, 0, 0, 2.5
 184431198, 0, 0, 0, 2.5, 0, 0, 0, 2.5
 184631118, 0, 0, 0, 2.5, 0, 0, 0, 2.5
 184831038, 0, 0, 0, 2.5, 0, 0, 0, 2.5
 185030958, 0, 0, 0, 2.5, 0, 0, 0, 2.5
 185230878, 0, 0, 0, 2.5, 0, 0, 0, 2.5
 185430798, 0, 0, 0, 2.5, 0, 0, 0, 2.5
 185630718, 0, 0, 0, 2.5, 0, 0, 0, 2.5
 185831471, 0, 0, 0, 2.5, 0, 0, 0, 2.5
 186031391, 0, 0, 0, 2.5, 0, 0, 0, 2.5
 186231311, 0, 0, 0, 2.5, 0, 0, 0, 2.5
 186431231, 0, 0, 0, 2.5, 0, 0, 0, 2.5
 186631151, 0, 0, 0, 2.5, 0, 0, 0, 2.5
 186831071, 0, 0, 0, 2.5, 0, 0, 0, 2.5
 187030991, 0, 0, 0, 2.5, 0, 0, 0, 2.5
 187230911, 0, 0, 0, 2.5, 0, 0, 0, 2.5
 187430831, 0, 0, 0, 2.5, 0, 0, 0, 2.5
 187630751, 0, 0, 0, 2.5, 0, 0, 0, 2.5
 187830671, 0, 0, 0, 2.5, 0, 0, 0, 2.5
 188031424, 0, 0, 0, 2.5, 0, 0, 0, 2.5
 188231344, 0, 0, 0, 2.5, 0, 0, 0, 2.5
 188431264, 0, 0, 0, 2.5, 0, 0, 0, 2.5
 188631184, 0, 0, 0, 2.5, 0, 0, 0, 2.5
 188831104, 0, 0, 0, 2.5, 0, 0, 0, 2.5
 189031024, 0, 0, 0, 2.5, 0, 0, 0, 2.5
 189230944, 0, 0, 0, 2.5, 0, 0, 0, 2.5
 189430864, 0, 0, 0, 2.5, 0, 0, 0, 2.5
 189630784, 0, 0, 0, 2.5, 0, 0, 0, 2.5
 189830704, 0, 0, 0, 2.5, 0, 0, 0, 2.5
 190031457, 0, 0, 0, 2.5, 0, 0, 0, 2.5
 190231377, 0, 0, 0, 2.5, 0, 0, 0, 2.5
 190431297, 0, 0, 0, 2.5, 0, 0, 0, 2.5
 190631217, 0, 0, 0, 2.5, 0, 0, 0, 2.5
 190831137, 0, 0, 0, 2.5, 0, 0, 0, 2.5
 191031057, 0, 0, 0, 2.5, 0, 0, 0, 2.5
 191230977, 0, 0, 0, 2.5, 0, 0, 0, 2.5
 191430897, 0, 0, 0, 2.5, 0, 0, 0, 2.5
 191630817, 0, 0, 0, 2.5, 0, 0, 0, 2.5
 191830737, 0, 0, 0, 2.5, 0, 0, 0, 2.5
 192030657, 0, 0, 0, 2.5, 0, 0, 0, 2.5
 192231410, 0, 0, 0, 2.5, 0, 0, 0, 2.5
 192431330, 0, 0, 0, 2.5, 0, 0, 0, 2.5
 192631250, 0, 0, 0, 2.5, 0, 0, 0, 2.5
 192831170, 0, 0, 0, 2.5, 0, 0, 0, 2.5
 193031090, 0, 0, 0, 2.5, 0, 0, 0, 2.5
 193231010, 0, 0, 0, 2.5, 0, 0, 0, 2.5
 193430930, 0, 0, 0, 2.5, 0, 0, 0, 2.5
 193630850, 0, 0, 0, 2.5, 0, 0, 0, 2.5
 193830770, 0, 0, 0, 2.5, 0, 0, 0, 2.5
 194030690, 0, 0, 0, 2.5, 0, 0, 0, 2.5
 194231443, 0, 0, 0, 2.5, 0, 0, 0, 2.5
 194431363, 0, 0, 0, 2.5, 0, 0, 0, 2.5
 194631283, 0, 0, 0, 2.5, 0, 0, 0, 2.5
 194831203, 0, 0, 0, 2.5, 0, 0, 0, 2.5
 195031123, 0, 0, 0, 2.5, 0, 0, 0, 2.5
 195231043, 0, 0, 0, 2.5, 0, 0, 0, 2.5
 195430963, 0, 0, 0, 2.5, 0, 0, 0, 2.5
 195630883, 0, 0, 0, 2.5, 0, 0, 0, 2.5
 195830803, 0, 0, 0, 2.5, 0, 0, 0, 2.5
 196030723, 0, 0, 0, 2.5, 0, 0, 0, 2.5
 196231476, 0, 0, 0, 2.5, 0, 0, 0, 2.5
 196431396, 0, 0, 0, 2.5, 0, 0, 0, 2.5
 196631316, 0, 0, 0, 2.5, 0, 0, 0, 2.5
 196831236, 0, 0, 0, 2.5, 0, 0, 0, 2.5
 197031156, 0, 0, 0, 2.5, 0, 0, 0, 2.5
 197231076, 0, 0, 0, 2.5, 0, 0, 0, 2.5
 197430996, 0, 0, 0, 2.5, 0, 0, 0, 2.5
 197630916, 0, 0, 0, 2.5, 0, 0, 0, 2.5
 197830836, 0, 0, 0, 2.5, 0, 0, 0, 2.5
 198030756, 0, 0, 0, 2.5, 0, 0, 0, 2.5
 198230676, 0, 0, 0, 2.5, 0, 0, 0, 2.5
 198431429, 0, 0, 0, 2.5, 0, 0, 0, 2.5
 198631349, 0, 0, 0, 2.5, 0, 0, 0, 2.5
 198831269, 0, 0, 0, 2.5, 0, 0, 0, 2.5
 199031189, 0, 0, 0, 2.5, 0, 0, 0, 2.5
 199231109, 0, 0, 0, 2.5, 0, 0, 0, 2.5
 199431029, 0, 0, 0, 2.5, 0, 0, 0, 2.5
 199630949, 0, 0, 0, 2.5, 0, 0, 0, 2.5
 199830869, 0, 0, 0, 2.5, 0, 0, 0, 2.5
 200030789, 0, 0, 0, 2.5, 0, 0, 0, 2.5
 200230709, 0, 0, 0, 2.5, 0, 0, 0, 2.5
 200431462, 0, 0, 0, 2.5, 0, 0, 0, 2.5
 200631382, 0, 0, 0, 2.5, 0, 0, 0, 2.5
 200831302, 0, 0, 0, 2.5, 0, 0, 0, 2.5
 201031222, 0, 0, 0, 2.5, 0, 0, 0, 2.5
 201231142, 0, 0, 0, 2.5, 0, 0, 0, 2.5
 201431062, 0, 0, 0, 2.5, 0, 0, 0, 2.5
 201630982, 0, 0, 0, 2.5, 0, 0, 0, 2.5
 201830902, 0, 0, 0, 2.5, 0, 0, 0, 2.5
 202030822, 0, 0, 0, 2.5, 0, 0, 0, 2.5
 202230742, 0, 0, 0, 2.5, 0, 0, 0, 2.5
 202430662, 0, 0, 0, 2.5, 0, 0, 0, 2.5
 202631415, 0, 0, 0, 2.5, 0, 0, 0, 2.5
 202831335, 0, 0, 0, 2.5, 0, 0, 0, 2.5
 203031255, 0, 0, 0, 2.5, 0, 0, 0, 2.5
 203231175, 0, 0, 0, 2.5, 0, 0, 0, 2.5
 203431095, 0, 0, 0, 2.5, 0, 0, 0, 2.5
 203631015, 0, 0, 0, 2.5, 0, 0, 0, 2.5
 203830935, 0, 0, 0, 2.5, 0, 0, 0, 2.5
 204030855, 0, 0, 0, 2.5, 0, 0, 0, 2.5
 204230775, 0, 0, 0, 2.5, 0, 0, 0, 2.5
 204430695, 0, 0, 0, 2.5, 0, 0, 0, 2.5
 204631448, 0, 0, 0, 2.5, 0, 0, 0, 2.5
 204831368, 0, 0, 0, 2.5, 0, 0, 0, 2.5
 205031288, 0, 0, 0, 2.5, 0, 0, 0, 2.5
 205231208, 0, 0, 0, 2.5, 0, 0, 0, 2.5
 205431128, 0, 0, 0, 2.5, 0, 0, 0, 2.5
 205631048, 0, 0, 0, 2.5, 0, 0, 0, 2.5
 205830968, 0, 0, 0, 2.5, 0, 0, 0, 2.5
 206030888, 0, 0, 0, 2.5, 0, 0, 0, 2.5
 206230808, 0, 0, 0, 2.5, 0, 0, 0, 2.5
 206430728, 0, 0, 0, 2.5, 0, 0, 0, 2.5
 206631481, 0, 0, 0, 2.5, 0, 0, 0, 2.5
 206831401, 0, 0, 0, 2.5, 0, 0, 0, 2.5
 207031321, 0, 0, 0, 2.5, 0, 0, 0, 2.5
 207231241, 0, 0, 0, 2.5, 0, 0, 0, 2.5
 207431161, 0, 0, 0, 2.5, 0, 0, 0, 2.5
 207631081, 0, 0, 0, 2.5, 0, 0, 0, 2.5
 207831001, 0, 0, 0, 2.5, 0, 0, 0, 2.5
 208030921, 0, 0, 0, 2.5, 0, 0, 0, 2.5
 208230841, 0, 0, 0, 2.5, 0, 0, 0, 2.5
 208430761, 0, 0, 0, 2.5, 0, 0, 0, 2.5
 208630681, 0, 0, 0, 2.5, 0, 0, 0, 2.5
 208831434, 0, 0, 0, 2.5, 0, 0, 0, 2.5
 209031354, 0, 0, 0, 2.5, 0, 0, 0, 2.5
 209231274, 0, 0, 0, 2.5, 0, 0, 0, 2.5
 209431194, 0, 0, 0, 2.5, 0, 0, 0, 2.5
 209631114, 0, 0, 0, 2.5, 0, 0, 0, 2.5
 209831034, 0, 0, 0, 2.5, 0, 0, 0, 2.5
 210030954, 0, 0, 0, 2.5, 0, 0, 0, 2.5
 210230874, 0, 0, 0, 2.5, 0, 0, 0, 2.5
 210430794, 0, 0, 0, 2.5, 0, 0, 0, 2.5
 210630714, 0, 0, 0, 2.5, 0, 0, 0, 2.5
 210831467, 0, 0, 0, 2.5, 0, 0, 0, 2.5
 211031387, 0, 0, 0, 2.5, 0, 0, 0, 2.5
 211231307, 0, 0, 0, 2.5, 0, 0, 0, 2.5
 211431227, 0, 0, 0, 2.5, 0, 0, 0, 2.5
 211631147, 0, 0, 0, 2.5, 0, 0, 0, 2.5
 211831067, 0, 0, 0, 2.5, 0, 0, 0, 2.5
 212030987, 0, 0, 0, 2.5, 0, 0, 0, 2.5
 212230907, 0, 0, 0, 2.5, 0, 0, 0, 2.5
 212430827, 0, 0, 0, 2.5, 0, 0, 0, 2.5
 212630747, 0, 0, 0, 2.5, 0, 0, 0, 2.5
 212830667, 0, 0, 0, 2.5, 0, 0, 0, 2.5
 213031420, 0, 0, 0, 2.5, 0, 0, 0, 2.5
 213231340, 0, 0, 0, 2.5, 0, 0, 0, 2.5
 213431260, 0, 0, 0, 2.5, 0, 0, 0, 2.5
 213631180, 0, 0, 0, 2.5, 0, 0, 0, 2.5
 213831100, 0, 0, 0, 2.5, 0, 0, 0, 2.5
 214031020, 0, 0, 0, 2.5, 0, 0, 0, 2.5
 214230940, 0, 0, 0, 2.5, 0, 0, 0, 2.5
 214430860, 0, 0, 0, 2.5, 0, 0, 0, 2.5
 214630780, 0, 0, 0, 2.5, 0, 0, 0, 2.5
 214830700, 0, 0, 0, 2.5, 0, 0, 0, 2.5
 215031453, 0, 0, 0, 2.5, 0, 0, 0, 2.5
 215231373, 0, 0, 0, 2.5, 0, 0, 0, 2.5
 215431293, 0, 0, 0, 2.5, 0, 0, 0, 2.5
 215631213, 0, 0, 0, 2.5, 0, 0, 0, 2.5
 215831133, 0, 0, 0, 2.5, 0, 0, 0, 2.5
 216031053, 0, 0, 0, 2.5, 0, 0, 0, 2.5
 216230973, 0, 0, 0, 2.5, 0, 0, 0, 2.5
 216430893, 0, 0, 0, 2.5, 0, 0, 0, 2.5
 216630813, 0, 0, 0, 2.5, 0, 0, 0, 2.5
 216830733, 0, 0, 0, 2.5, 0, 0, 0, 2.5
 217031486, 0, 0, 0, 2.5, 0, 0, 0, 2.5
 217231406, 0, 0, 0, 2.5, 0, 0, 0, 2.5
 217431326, 0, 0, 0, 2.5, 0, 0, 0, 2.5
 217631246, 0, 0, 0, 2.5, 0, 0, 0, 2.5
 217831166, 0, 0, 0, 2.5, 0, 0, 0, 2.5
 218031086, 0, 0, 0, 2.5, 0, 0, 0, 2.5
 218231006, 0, 0, 0, 2.5, 0, 0, 0, 2.5
 218430926, 0, 0, 0, 2.5, 0, 0, 0, 2.5
 218630846, 0, 0, 0, 2.5, 0, 0, 0, 2.5
 218830766, 0, 0, 0, 2.5, 0, 0, 0, 2.5
 219030686, 0, 0, 0, 2.5, 0, 0, 0, 2.5
 219231439, 0, 0, 0, 2.5, 0, 0, 0, 2.5
 219431359, 0, 0, 0, 2.5, 0, 0, 0, 2.5
 219631279, 0, 0, 0, 2.5, 0, 0, 0, 2.5
 219831199, 0, 0, 0, 2.5, 0, 0, 0, 2.5
 220031119, 0, 0, 0, 2.5, 0, 0, 0, 2.5
 220231039, 0, 0, 0, 2.5, 0, 0, 0, 2.5
 220430959, 0, 0, 0, 2.5, 0, 0, 0, 2.5
 220630879, 0, 0, 0, 2.5, 0, 0, 0, 2.5
 220830799, 0, 0, 0, 2.5, 0, 0, 0, 2.5
 221030719, 0, 0, 0, 2.5, 0, 0, 0, 2.5
 221231472, 0, 0, 0, 2.5, 0, 0, 0, 2.5
 221431392, 0, 0, 0, 2.5, 0, 0, 0, 2.5
 221631312, 0, 0, 0, 2.5, 0, 0, 0, 2.5
 221831232, 0, 0, -0.011, 2.5, 0, 0, 0, 2.5
 222031152, 0, 0, -0.31, 2.5, 0, 0, -0.011, 2.5
 222231072, 0, 0, -0.245, 2.5, 0, 0, -0.31, 2.5
 222430992, 0, 0, -0.351, 2.5, 0, 0, -0.245, 2.5
 222630912, -0.005, -0.006, -1.668, 2.5, 0, 0, -0.351, 2.5
 222830832, -0.019, -0.021, -2.109, 2.5, -0.005, -0.006, -1.668, 2.5
 223030752, -0.034, -0.037, -2.233, 2.5, -0.019, -0.021, -2.109, 2.5
 223230672, -0.048, -0.052, -2.469, 2.5, -0.034, -0.037, -2.233, 2.5
 223431425, -0.06, -0.06500001, -2.696, 2.5, -0.048, -0.052, -2.469, 2.5
 223631345, -0.071, -0.075, -2.876, 2.5, -0.06, -0.06500001, -2.696, 2.5
 223831265, -0.08000001, -0.082, -3.034, 2.5, -0.071, -0.075, -2.876, 2.5
 224031185, -0.087, -0.087, -3.175, 2.5, -0.08000001, -0.082, -3.034, 2.5
 224231105, -0.094, -0.09200001, -3.298, 2.5, -0.087, -0.087, -3.175, 2.5
 224431025, -0.09900001, -0.09500001, -3.406, 2.5, -0.094, -0.09200001, -3.298, 2.5
 224630945, -0.103, -0.098, -3.501, 2.5, -0.09900001, -0.09500001, -3.406, 2.5
 224830865, -0.106, -0.1, -3.584, 2.5, -0.103, -0.098, -3.501, 2.5
 225030785, -0.108, -0.102, -3.656, 2.5, -0.106, -0.1, -3.584, 2.5
 225230705, -0.11, -0.103, -3.72, 2.5, -0.108, -0.102, -3.656, 2.5
 225431458, -0.111, -0.105, -3.776, 2.5, -0.11, -0.103, -3.72, 2.5
 225631378, -0.111, -0.105, -3.453, 2.5, -0.111, -0.105, -3.776, 2.5
 225831298, -0.108, -0.105, -2.931, 2.5, -0.111, -0.105, -3.453, 2.5
 226031218, -0.107, -0.106, -2.475, 2.5, -0.108, -0.105, -2.931, 2.5
 226231138, -0.105, -0.107, -2.075, 2.5, -0.107, -0.106, -2.475, 2.5
 226431058, -0.105, -0.108, -1.773, 2.5, -0.105, -0.107, -2.075, 2.5
 226630978, -0.113, -0.109, -1.54, 2.5, -0.105, -0.108, -1.773, 2.5
 226830898, -0.138, -0.09900001, -1.338, 2.5, -0.113, -0.109, -1.54, 2.5
 227030818, -0.127, -0.064, -1.164, 2.5, -0.138, -0.09900001, -1.338, 2.5
 227230738, -0.013, 0.01, -1.008, 2.5, -0.127, -0.064, -1.164, 2.5
 227430658, 0.187, 0.11, -0.862, 2.5, -0.013, 0.01, -1.008, 2.5
 227631411, 0.405, 0.186, -0.735, 2.5, 0.187, 0.11, -0.862, 2.5
 227831331, 0.601, 0.201, -0.634, 2.5, 0.405, 0.186, -0.735, 2.5
 228031251, 0.768, 0.187, -0.559, 2.5, 0.601, 0.201, -0.634, 2.5
 228231171, 0.9220001, 0.171, -0.506, 2.5, 0.768, 0.187, -0.559, 2.5
 228431091, 1.088, 0.144, -0.478, 2.5, 0.9220001, 0.171, -0.506, 2.5
 228631011, 1.269, 0.1, -0.474, 2.5, 1.088, 0.144, -0.478, 2.5
 228830931, 1.457, 0.093, -0.486, 2.5, 1.269, 0.1, -0.474, 2.5
 229030851, 1.634, 0.175, -0.522, 2.5, 1.457, 0.093, -0.486, 2.5
 229230771, 1.799, 0.267, -0.581, 2.5, 1.634, 0.175, -0.522, 2.5
 229430691, 1.983, 0.303, -0.649, 2.5, 1.799, 0.267, -0.581, 2.5
 229631444, 2.201, 0.288, -0.7180001, 2.5, 1.983, 0.303, -0.649, 2.5
 229831364, 2.42, 0.245, -0.79, 2.5, 2.201, 0.288, -0.7180001, 2.5
 230031284, 2.622, 0.194, -0.864, 2.5, 2.42, 0.245, -0.79, 2.5
 230231204, 2.83, 0.132, -0.9350001, 2.5, 2.622, 0.194, -0.864, 2.5
 230431124, 3.057, 0.037, -1.007, 2.5, 2.83, 0.132, -0.9350001, 2.5
 230631044, 3.283, -0.056, -1.084, 2.5, 3.057, 0.037, -1.007, 2.5
 230830964, 3.5, -0.102, -1.162, 2.5, 3.283, -0.056, -1.084, 2.5
 231030884, 3.727, -0.071, -1.233, 2.5, 3.5, -0.102, -1.162, 2.5
 231230804, 3.966, 0.027, -1.299, 2.5, 3.727, -0.071, -1.233, 2.5
 231430724, 4.198, 0.159, -1.363, 2.5, 3.966, 0.027, -1.299, 2.5
 231631477, 4.408, 0.292, -1.427, 2.5, 4.198, 0.159, -1.363, 2.5
 231831397, 4.608, 0.384, -1.492, 2.5, 4.408, 0.292, -1.427, 2.5
 232031317, 4.816, 0.409, -1.554, 2.5, 4.608, 0.384, -1.492, 2.5
 232231237, 5.027, 0.39, -1.616, 2.5, 4.816, 0.409, -1.554, 2.5
 232431157, 5.215, 0.367, -1.658, 2.5, 5.027, 0.39, -1.616, 2.5
 232631077, 5.33, 0.375, -1.618, 2.5, 5.215, 0.367, -1.658, 2.5
 232830997, 5.358, 0.414, -1.549, 2.5, 5.33, 0.375, -1.618, 2.5
 233030917, 5.338, 0.463, -1.455, 2.5, 5.358, 0.414, -1.549, 2.5
 233230837, 5.326, 0.499, -1.354, 2.5, 5.338, 0.463, -1.455, 2.5
 233430757, 5.332, 0.511, -1.266, 2.5, 5.326, 0.499, -1.354, 2.5
 233630677, 5.341, 0.496, -1.193, 2.5, 5.332, 0.511, -1.266, 2.5
 233831430, 5.345, 0.478, -1.144, 2.5, 5.341, 0.496, -1.193, 2.5
 234031350, 5.346, 0.463, -1.109, 2.5, 5.345, 0.478, -1.144, 2.5
 234231270, 5.35, 0.437, -1.085, 2.5, 5.346, 0.463, -1.109, 2.5
 234431190, 5.359, 0.388, -1.068, 2.5, 5.35, 0.437, -1.085, 2.5
 234631110, 5.371, 0.337, -1.064, 2.5, 5.359, 0.388, -1.068, 2.5
 234831030, 5.378, 0.304, -1.061, 2.5, 5.371, 0.337, -1.064, 2.5
 235030950, 5.382, 0.304, -1.059, 2.5, 5.378, 0.304, -1.061, 2.5
 235230870, 5.383, 0.34, -1.054, 2.5, 5.382, 0.304, -1.059, 2.5
 235430790, 5.383, 0.39, -1.048, 2.5, 5.383, 0.34, -1.054, 2.5
 235630710, 5.385, 0.423, -1.046, 2.5, 5.383, 0.39, -1.048, 2.5
 235831463, 5.394, 0.432, -1.06, 2.5, 5.385, 0.423, -1.046, 2.5
 236031383, 5.402, 0.421, -1.076, 2.5, 5.394, 0.432, -1.06, 2.5
 236231303, 5.406, 0.39, -1.088, 2.5, 5.402, 0.421, -1.076, 2.5
 236431223, 5.41, 0.349, -1.1, 2.5, 5.406, 0.39, -1.088, 2.5
 236631143, 5.413, 0.314, -1.11, 2.5, 5.41, 0.349, -1.1, 2.5
 236831063, 5.412, 0.296, -1.113, 2.5, 5.413, 0.314, -1.11, 2.5
 237030983, 5.411, 0.283, -1.113, 2.5, 5.412, 0.296, -1.113, 2.5
 237230903, 5.41, 0.273, -1.111, 2.5, 5.411, 0.283, -1.113, 2.5
 237430823, 5.408, 0.27, -1.108, 2.5, 5.41, 0.273, -1.111, 2.5
 237630743, 5.408, 0.27, -1.106, 2.5, 5.408, 0.27, -1.108, 2.5
 237830663, 5.401, 0.274, -1.083, 2.5, 5.408, 0.27, -1.106, 2.5
 238031416, 5.39, 0.284, -1.045, 2.5, 5.401, 0.274, -1.083, 2.5
 238231336, 5.396, 0.284, -1.034, 2.5, 5.39, 0.284, -1.045, 2.5
 238431256, 5.409, 0.262, -1.039, 2.5, 5.396, 0.284, -1.034, 2.5
 238631176, 5.42, 0.246, -1.053, 2.5, 5.409, 0.262, -1.039, 2.5
 238831096, 5.426, 0.248, -1.071, 2.5, 5.42, 0.246, -1.053, 2.5
 239031016, 5.43, 0.254, -1.089, 2.5, 5.426, 0.248, -1.071, 2.5
 239230936, 5.432, 0.256, -1.103, 2.5, 5.43, 0.254, -1.089, 2.5
 239430856, 5.432, 0.255, -1.11, 2.5, 5.432, 0.256, -1.103, 2.5
 239630776, 5.428, 0.257, -1.107, 2.5, 5.432, 0.255, -1.11, 2.5
 239830696, 5.427, 0.26, -1.109, 2.5, 5.428, 0.257, -1.107, 2.5
 240031449, 5.432, 0.262, -1.125, 2.5, 5.427, 0.26, -1.109, 2.5
 240231369, 5.432, 0.256, -1.133, 2.5, 5.432, 0.262, -1.125, 2.5
 240431289, 5.423, 0.244, -1.12, 2.5, 5.432, 0.256, -1.133, 2.5
 240631209, 5.411, 0.24, -1.089, 2.5, 5.423, 0.244, -1.12, 2.5
 240831129, 5.405, 0.243, -1.057, 2.5, 5.411, 0.24, -1.089, 2.5
 241031049, 5.406, 0.24, -1.036, 2.5, 5.405, 0.243, -1.057, 2.5
 241230969, 5.41, 0.217, -1.025, 2.5, 5.406, 0.24, -1.036, 2.5
 241430889, 5.413, 0.186, -1.017, 2.5, 5.41, 0.217, -1.025, 2.5
 241630809, 5.359, 0.166, -0.897, 2.5, 5.413, 0.186, -1.017, 2.5
 241830729, 5.233, 0.165, -0.739, 2.5, 5.359, 0.166, -0.897, 2.5
 242031482, 5.059, 0.179, -0.574, 2.5, 5.233, 0.165, -0.739, 2.5
 242231402, 4.877, 0.198, -0.423, 2.5, 5.059, 0.179, -0.574, 2.5
 242431322, 4.692, 0.211, -0.279, 2.5, 4.877, 0.198, -0.423, 2.5
 242631242, 4.537, 0.211, -0.103, 2.5, 4.692, 0.211, -0.279, 2.5
 242831162, 4.478, 0.191, 0.06500001, 2.5, 4.537, 0.211, -0.103, 2.5
 243031082, 4.483, 0.161, 0.21, 2.5, 4.478, 0.191, 0.06500001, 2.5
 243231002, 4.505, 0.144, 0.33, 2.5, 4.483, 0.161, 0.21, 2.5
 243430922, 4.54, 0.141, 0.429, 2.5, 4.505, 0.144, 0.33, 2.5
 243630842, 4.593, 0.142, 0.511, 2.5, 4.54, 0.141, 0.429, 2.5
 243830762, 4.663, 0.133, 0.5790001, 2.5, 4.593, 0.142, 0.511, 2.5
 244030682, 4.755, 0.108, 0.638, 2.5, 4.663, 0.133, 0.5790001, 2.5
 244231435, 4.861, 0.086, 0.689, 2.5, 4.755, 0.108, 0.638, 2.5
 244431355, 4.987, 0.078, 0.687, 2.5, 4.861, 0.086, 0.689, 2.5
 244631275, 5.081, 0.086, 0.646, 2.5, 4.987, 0.078, 0.687, 2.5
 244831195, 5.109, 0.098, 0.6, 2.5, 5.081, 0.086, 0.646, 2.5
 245031115, 5.115, 0.115, 0.563, 2.5, 5.109, 0.098, 0.6, 2.5
 245231035, 5.127, 0.13, 0.538, 2.5, 5.115, 0.115, 0.563, 2.5
 245430955, 5.144, 0.132, 0.523, 2.5, 5.127, 0.13, 0.538, 2.5
 245630875, 5.158, 0.12, 0.513, 2.5, 5.144, 0.132, 0.523, 2.5
 245830795, 5.165, 0.09, 0.508, 2.5, 5.158, 0.12, 0.513, 2.5
 246030715, 5.169, 0.046, 0.504, 2.5, 5.165, 0.09, 0.508, 2.5
 246231468, 5.172, 0.014, 0.502, 2.5, 5.169, 0.046, 0.504, 2.5
 246431388, 5.177, 0.001, 0.501, 2.5, 5.172, 0.014, 0.502, 2.5
 246631308, 5.184, -0.001, 0.497, 2.5, 5.177, 0.001, 0.501, 2.5
 246831228, 5.19, -0.014, 0.488, 2.5, 5.184, -0.001, 0.497, 2.5
 247031148, 5.194, -0.024, 0.48, 2.5, 5.19, -0.014, 0.488, 2.5
 247231068, 5.196, -0.013, 0.48, 2.5, 5.194, -0.024, 0.48, 2.5
 247430988, 5.2, 0, 0.484, 2.5, 5.196, -0.013, 0.48, 2.5
 247630908, 5.204, -0.009000001, 0.488, 2.5, 5.2, 0, 0.484, 2.5
 247830828, 5.206, -0.041, 0.492, 2.5, 5.204, -0.009000001, 0.488, 2.5
 248030748, 5.204, -0.07300001, 0.5, 2.5, 5.206, -0.041, 0.492, 2.5
 248230668, 5.206, -0.075, 0.507, 2.5, 5.204, -0.07300001, 0.5, 2.5
 248431421, 5.21, -0.05, 0.511, 2.5, 5.206, -0.075, 0.507, 2.5
 248631341, 5.209, -0.018, 0.52, 2.5, 5.21, -0.05, 0.511, 2.5
 248831261, 5.209, 0.012, 0.529, 2.5, 5.209, -0.018, 0.52, 2.5
 249031181, 5.213, 0.027, 0.526, 2.5, 5.209, 0.012, 0.529, 2.5
 249231101, 5.217, 0.04, 0.513, 2.5, 5.213, 0.027, 0.526, 2.5
 249431021, 5.218, 0.054, 0.5, 2.5, 5.217, 0.04, 0.513, 2.5
 249630941, 5.216, 0.064, 0.494, 2.5, 5.218, 0.054, 0.5, 2.5
 249830861, 5.215, 0.06900001, 0.5, 2.5, 5.216, 0.064, 0.494, 2.5
 250030781, 5.212, 0.086, 0.508, 2.5, 5.215, 0.06900001, 0.5, 2.5
 250230701, 5.21, 0.116, 0.52, 2.5, 5.212, 0.086, 0.508, 2.5
 250431454, 5.209, 0.155, 0.53, 2.5, 5.21, 0.116, 0.52, 2.5
 250631374, 5.211, 0.181, 0.531, 2.5, 5.209, 0.155, 0.53, 2.5
 250831294, 5.212, 0.199, 0.526, 2.5, 5.211, 0.181, 0.531, 2.5
 251031214, 5.214, 0.206, 0.5190001, 2.5, 5.212, 0.199, 0.526, 2.5
 251231134, 5.213, 0.178, 0.511, 2.5, 5.214, 0.206, 0.5190001, 2.5
 251431054, 5.21, 0.128, 0.507, 2.5, 5.213, 0.178, 0.511, 2.5
 251630974, 5.209, 0.096, 0.497, 2.5, 5.21, 0.128, 0.507, 2.5
 251830894, 5.209, 0.08400001, 0.487, 2.5, 5.209, 0.096, 0.497, 2.5
 252030814, 5.207, 0.067, 0.484, 2.5, 5.209, 0.08400001, 0.487, 2.5
 252230734, 5.204, 0.05, 0.483, 2.5, 5.207, 0.067, 0.484, 2.5
 252430654, 5.201, 0.041, 0.49, 2.5, 5.204, 0.05, 0.483, 2.5
 252631407, 5.201, 0.023, 0.498, 2.5, 5.201, 0.041, 0.49, 2.5
 252831327, 5.202, -0.011, 0.504, 2.5, 5.201, 0.023, 0.498, 2.5
 253031247, 5.202, -0.041, 0.511, 2.5, 5.202, -0.011, 0.504, 2.5
 253231167, 5.199, -0.049, 0.522, 2.5, 5.202, -0.041, 0.511, 2.5
 253431087, 5.198, -0.055, 0.534, 2.5, 5.199, -0.049, 0.522, 2.5
 253631007, 5.195, -0.085, 0.538, 2.5, 5.198, -0.055, 0.534, 2.5
 253830927, 5.201, -0.121, 0.534, 2.5, 5.195, -0.085, 0.538, 2.5
 254030847, 5.202, -0.128, 0.527, 2.5, 5.201, -0.121, 0.534, 2.5
 254230767, 5.2, -0.109, 0.518, 2.5, 5.202, -0.128, 0.527, 2.5
 254430687, 5.195, -0.078, 0.5100001, 2.5, 5.2, -0.109, 0.518, 2.5
 254631440, 5.206, -0.049, 0.498, 2.5, 5.195, -0.078, 0.5100001, 2.5
 254831360, 5.211, -0.031, 0.483, 2.5, 5.206, -0.049, 0.498, 2.5
 255031280, 5.209, -0.023, 0.472, 2.5, 5.211, -0.031, 0.483, 2.5
 255231200, 5.211, -0.019, 0.466, 2.5, 5.209, -0.023, 0.472, 2.5
 255431120, 5.216, -0.008, 0.464, 2.5, 5.211, -0.019, 0.466, 2.5
 255631040, 5.214, 0.013, 0.476, 2.5, 5.216, -0.008, 0.464, 2.5
 255830960, 5.21, 0.02, 0.487, 2.5, 5.214, 0.013, 0.476, 2.5
 256030880, 5.22, 0.008, 0.489, 2.5, 5.21, 0.02, 0.487, 2.5
 256230800, 5.224, 0, 0.488, 2.5, 5.22, 0.008, 0.489, 2.5
 256430720, 5.226, 0.005, 0.484, 2.5, 5.224, 0, 0.488, 2.5
 256631473, 5.227, 0.01, 0.477, 2.5, 5.226, 0.005, 0.484, 2.5
 256831393, 5.227, -0.006, 0.472, 2.5, 5.227, 0.01, 0.477, 2.5
 257031313, 5.227, -0.015, 0.472, 2.5, 5.227, -0.006, 0.472, 2.5
 257231233, 5.227, 0.003, 0.473, 2.5, 5.227, -0.015, 0.472, 2.5
 257431153, 5.229, 0.036, 0.47, 2.5, 5.227, 0.003, 0.473, 2.5
 257631073, 5.232, 0.06, 0.462, 2.5, 5.229, 0.036, 0.47, 2.5
 257830993, 5.236, 0.075, 0.454, 2.5, 5.232, 0.06, 0.462, 2.5
 258030913, 5.235, 0.089, 0.455, 2.5, 5.236, 0.075, 0.454, 2.5
 258230833, 5.23, 0.081, 0.466, 2.5, 5.235, 0.089, 0.455, 2.5
 258430753, 5.219, 0.056, 0.485, 2.5, 5.23, 0.081, 0.466, 2.5
 258630673, 5.217, 0.033, 0.503, 2.5, 5.219, 0.056, 0.485, 2.5
 258831426, 5.219, 0.028, 0.514, 2.5, 5.217, 0.033, 0.503, 2.5
 259031346, 5.22, 0.036, 0.515, 2.5, 5.219, 0.028, 0.514, 2.5
 259231266, 5.217, 0.043, 0.518, 2.5, 5.22, 0.036, 0.515, 2.5
 259431186, 5.212, 0.044, 0.524, 2.5, 5.217, 0.043, 0.518, 2.5
 259631106, 5.213, 0.041, 0.523, 2.5, 5.212, 0.044, 0.524, 2.5
 259831026, 5.213, 0.027, 0.5190001, 2.5, 5.213, 0.041, 0.523, 2.5
 260030946, 5.211, -0.002, 0.518, 2.5, 5.213, 0.027, 0.5190001, 2.5
 260230866, 5.211, -0.028, 0.517, 2.5, 5.211, -0.002, 0.518, 2.5
 260430786, 5.208, -0.032, 0.515, 2.5, 5.211, -0.028, 0.517, 2.5
 260630706, 5.206, -0.024, 0.512, 2.5, 5.208, -0.032, 0.515, 2.5
 260831459, 5.206, -0.016, 0.506, 2.5, 5.206, -0.024, 0.512, 2.5
 261031379, 5.206, 0, 0.437, 2.5, 5.206, -0.016, 0.506, 2.5
 261231299, 5.116, 0.021, 0.346, 2.5, 5.206, 0, 0.437, 2.5
 261431219, 4.954, 0.024, 0.26, 2.5, 5.116, 0.021, 0.346, 2.5
 261631139, 4.784, 0.012, 0.155, 2.5, 4.954, 0.024, 0.26, 2.5
 261831059, 4.667, -0.002, -0.067, 2.5, 4.784, 0.012, 0.155, 2.5
 262030979, 4.634, -0.034, -0.323, 2.5, 4.667, -0.002, -0.067, 2.5
 262230899, 4.642, -0.07600001, -0.589, 2.5, 4.634, -0.034, -0.323, 2.5
 262430819, 4.633, -0.093, -0.844, 2.5, 4.642, -0.07600001, -0.589, 2.5
 262630739, 4.615, -0.085, -1.069, 2.5, 4.633, -0.093, -0.844, 2.5
 262830659, 4.639, -0.072, -1.251, 2.5, 4.615, -0.085, -1.069, 2.5
 263031412, 4.714, -0.071, -1.396, 2.5, 4.639, -0.072, -1.251, 2.5
 263231332, 4.811, -0.089, -1.515, 2.5, 4.714, -0.071, -1.396, 2.5
 263431252, 4.889, -0.113, -1.566, 2.5, 4.811, -0.089, -1.515, 2.5
 263631172, 4.91, -0.123, -1.56, 2.5, 4.889, -0.113, -1.566, 2.5
 263831092, 4.883, -0.132, -1.519, 2.5, 4.91, -0.123, -1.56, 2.5
 264031012, 4.856, -0.139, -1.457, 2.5, 4.883, -0.132, -1.519, 2.5
 264230932, 4.849, -0.136, -1.397, 2.5, 4.856, -0.139, -1.457, 2.5
 264430852, 4.854, -0.122, -1.353, 2.5, 4.849, -0.136, -1.397, 2.5
 264630772, 4.854, -0.102, -1.315, 2.5, 4.854, -0.122, -1.353, 2.5
 264830692, 4.852, -0.08800001, -1.292, 2.5, 4.854, -0.102, -1.315, 2.5
 265031445, 4.854, -0.086, -1.283, 2.5, 4.852, -0.08800001, -1.292, 2.5
 265231365, 4.857, -0.09, -1.279, 2.5, 4.854, -0.086, -1.283, 2.5
 265431285, 4.858, -0.09500001, -1.27, 2.5, 4.857, -0.09, -1.279, 2.5
 265631205, 4.86, -0.096, -1.266, 2.5, 4.858, -0.09500001, -1.27, 2.5
 265831125, 4.866, -0.093, -1.278, 2.5, 4.86, -0.096, -1.266, 2.5
 266031045, 4.875, -0.09100001, -1.301, 2.5, 4.866, -0.093, -1.278, 2.5
 266230965, 4.88, -0.083, -1.327, 2.5, 4.875, -0.09100001, -1.301, 2.5
 266430885, 4.878, -0.07700001, -1.34, 2.5, 4.88, -0.083, -1.327, 2.5
 266630805, 4.873, -0.072, -1.342, 2.5, 4.878, -0.07700001, -1.34, 2.5
 266830725, 4.87, -0.058, -1.335, 2.5, 4.873, -0.072, -1.342, 2.5
 267031478, 4.867, -0.045, -1.32, 2.5, 4.87, -0.058, -1.335, 2.5
 267231398, 4.864, -0.04, -1.302, 2.5, 4.867, -0.045, -1.32, 2.5
 267431318, 4.861, -0.034, -1.285, 2.5, 4.864, -0.04, -1.302, 2.5
 267631238, 4.868, -0.021, -1.282, 2.5, 4.861, -0.034, -1.285, 2.5
 267831158, 4.873, -0.012, -1.29, 2.5, 4.868, -0.021, -1.282, 2.5
 268031078, 4.873, -0.032, -1.305, 2.5, 4.873, -0.012, -1.29, 2.5
 268230998, 4.867, -0.075, -1.31, 2.5, 4.873, -0.032, -1.305, 2.5
 268430918, 4.853, -0.116, -1.308, 2.5, 4.867, -0.075, -1.31, 2.5
 268630838, 4.855, -0.132, -1.315, 2.5, 4.853, -0.116, -1.308, 2.5
 268830758, 4.866, -0.117, -1.318, 2.5, 4.855, -0.132, -1.315, 2.5
 269030678, 4.872, -0.074, -1.318, 2.5, 4.866, -0.117, -1.318, 2.5
 269231431, 4.858, -0.035, -1.316, 2.5, 4.872, -0.074, -1.318, 2.5
 269431351, 4.855, -0.009000001, -1.321, 2.5, 4.858, -0.035, -1.316, 2.5
 269631271, 4.873, 0.015, -1.328, 2.5, 4.855, -0.009000001, -1.321, 2.5
 269831191, 4.875, 0.034, -1.317, 2.5, 4.873, 0.015, -1.328, 2.5
 270031111, 4.863, 0.043, -1.291, 2.5, 4.875, 0.034, -1.317, 2.5
 270231031, 4.853, 0.053, -1.269, 2.5, 4.863, 0.043, -1.291, 2.5
 270430951, 4.858, 0.081, -1.251, 2.5, 4.853, 0.053, -1.269, 2.5
 270630871, 4.874, 0.126, -1.236, 2.5, 4.858, 0.081, -1.251, 2.5
 270830791, 4.874, 0.15, -1.225, 2.5, 4.874, 0.126, -1.236, 2.5
 271030711, 4.872, 0.135, -1.225, 2.5, 4.874, 0.15, -1.225, 2.5
 271231464, 4.877, 0.111, -1.241, 2.5, 4.872, 0.135, -1.225, 2.5
 271431384, 4.88, 0.106, -1.258, 2.5, 4.877, 0.111, -1.241, 2.5
 271631304, 4.876, 0.108, -1.263, 2.5, 4.88, 0.106, -1.258, 2.5
 271831224, 4.876, 0.094, -1.27, 2.5, 4.876, 0.108, -1.263, 2.5
 272031144, 4.876, 0.07300001, -1.277, 2.5, 4.876, 0.094, -1.27, 2.5
 272231064, 4.873, 0.061, -1.278, 2.5, 4.876, 0.07300001, -1.277, 2.5
 272430984, 4.868, 0.056, -1.27, 2.5, 4.873, 0.061, -1.278, 2.5
 272630904, 4.867, 0.055, -1.268, 2.5, 4.868, 0.056, -1.27, 2.5
 272830824, 4.869, 0.058, -1.274, 2.5, 4.867, 0.055, -1.268, 2.5
 273030744, 4.87, 0.063, -1.279, 2.5, 4.869, 0.058, -1.274, 2.5
 273230664, 4.867, 0.068, -1.277, 2.5, 4.87, 0.063, -1.279, 2.5
 273431417, 4.865, 0.075, -1.274, 2.5, 4.867, 0.068, -1.277, 2.5
 273631337, 4.864, 0.08400001, -1.268, 2.5, 4.865, 0.075, -1.274, 2.5
 273831257, 4.863, 0.109, -1.257, 2.5, 4.864, 0.08400001, -1.268, 2.5
 274031177, 4.864, 0.139, -1.247, 2.5, 4.863, 0.109, -1.257, 2.5
 274231097, 4.864, 0.146, -1.236, 2.5, 4.864, 0.139, -1.247, 2.5
 274431017, 4.862, 0.145, -1.22, 2.5, 4.864, 0.146, -1.236, 2.5
 274630937, 4.86, 0.135, -1.204, 2.5, 4.862, 0.145, -1.22, 2.5
 274830857, 4.865, 0.12, -1.21, 2.5, 4.86, 0.135, -1.204, 2.5
 275030777, 4.87, 0.103, -1.22, 2.5, 4.865, 0.12, -1.21, 2.5
 275230697, 4.871, 0.083, -1.235, 2.5, 4.87, 0.103, -1.22, 2.5
 275431450, 4.874, 0.061, -1.262, 2.5, 4.871, 0.083, -1.235, 2.5
 275631370, 4.872, 0.045, -1.281, 2.5, 4.874, 0.061, -1.262, 2.5
 275831290, 4.868, 0.038, -1.287, 2.5, 4.872, 0.045, -1.281, 2.5
 276031210, 4.864, 0.031, -1.286, 2.5, 4.868, 0.038, -1.287, 2.5
 276231130, 4.813, 0.017, -1.172, 2.5, 4.864, 0.031, -1.286, 2.5
 276431050, 4.676, 0.014, -0.9850001, 2.5, 4.813, 0.017, -1.172, 2.5
 276630970, 4.486, 0.032, -0.777, 2.5, 4.676, 0.014, -0.9850001, 2.5
 276830890, 4.293, 0.058, -0.58, 2.5, 4.486, 0.032, -0.777, 2.5
 277030810, 4.109, 0.08800001, -0.414, 2.5, 4.293, 0.058, -0.58, 2.5
 277230730, 3.927, 0.131, -0.231, 2.5, 4.109, 0.08800001, -0.414, 2.5
 277431483, 3.805, 0.172, -0.029, 2.5, 3.927, 0.131, -0.231, 2.5
 277631403, 3.789, 0.186, 0.159, 2.5, 3.805, 0.172, -0.029, 2.5
 277831323, 3.84, 0.161, 0.322, 2.5, 3.789, 0.186, 0.159, 2.5
 278031243, 3.91, 0.115, 0.458, 2.5, 3.84, 0.161, 0.322, 2.5
 278231163, 3.985, 0.089, 0.572, 2.5, 3.91, 0.115, 0.458, 2.5
 278431083, 4.069, 0.08000001, 0.669, 2.5, 3.985, 0.089, 0.572, 2.5
 278631003, 4.181, 0.081, 0.721, 2.5, 4.069, 0.08000001, 0.669, 2.5
 278830923, 4.289, 0.083, 0.712, 2.5, 4.181, 0.081, 0.721, 2.5
 279030843, 4.34, 0.079, 0.682, 2.5, 4.289, 0.083, 0.712, 2.5
 279230763, 4.357, 0.074, 0.652, 2.5, 4.34, 0.079, 0.682, 2.5
 279430683, 4.375, 0.064, 0.623, 2.5, 4.357, 0.074, 0.652, 2.5
 279631436, 4.392, 0.036, 0.614, 2.5, 4.375, 0.064, 0.623, 2.5
 279831356, 4.405, 0.006, 0.6160001, 2.5, 4.392, 0.036, 0.614, 2.5
 280031276, 4.417, 0.013, 0.62, 2.5, 4.405, 0.006, 0.6160001, 2.5
 280231196, 4.426, 0.051, 0.626, 2.5, 4.417, 0.013, 0.62, 2.5
 280431116, 4.438, 0.093, 0.623, 2.5, 4.426, 0.051, 0.626, 2.5
 280631036, 4.451, 0.124, 0.609, 2.5, 4.438, 0.093, 0.623, 2.5
 280830956, 4.46, 0.152, 0.595, 2.5, 4.451, 0.124, 0.609, 2.5
 281030876, 4.463, 0.171, 0.587, 2.5, 4.46, 0.152, 0.595, 2.5
 281230796, 4.466, 0.162, 0.586, 2.5, 4.463, 0.171, 0.587, 2.5
 281430716, 4.466, 0.126, 0.591, 2.5, 4.466, 0.162, 0.586, 2.5
 281631469, 4.464, 0.094, 0.605, 2.5, 4.466, 0.126, 0.591, 2.5
 281831389, 4.465, 0.08400001, 0.612, 2.5, 4.464, 0.094, 0.605, 2.5
 282031309, 4.468, 0.08400001, 0.609, 2.5, 4.465, 0.08400001, 0.612, 2.5
 282231229, 4.469, 0.075, 0.605, 2.5, 4.468, 0.08400001, 0.609, 2.5
 282431149, 4.466, 0.054, 0.606, 2.5, 4.469, 0.075, 0.605, 2.5
 282631069, 4.468, 0.045, 0.595, 2.5, 4.466, 0.054, 0.606, 2.5
 282830989, 4.474, 0.048, 0.573, 2.5, 4.468, 0.045, 0.595, 2.5
 283030909, 4.475, 0.035, 0.554, 2.5, 4.474, 0.048, 0.573, 2.5
 283230829, 4.471, 0.01, 0.546, 2.5, 4.475, 0.035, 0.554, 2.5
 283430749, 4.466, -0.005, 0.555, 2.5, 4.471, 0.01, 0.546, 2.5
 283630669, 4.466, -0.009000001, 0.568, 2.5, 4.466, -0.005, 0.555, 2.5
 283831422, 4.47, 0.008, 0.576, 2.5, 4.466, -0.009000001, 0.568, 2.5
 284031342, 4.474, 0.035, 0.581, 2.5, 4.47, 0.008, 0.576, 2.5
 284231262, 4.476, 0.051, 0.587, 2.5, 4.474, 0.035, 0.581, 2.5
 284431182, 4.477, 0.058, 0.5930001, 2.5, 4.476, 0.051, 0.587, 2.5
 284631102, 4.479, 0.062, 0.597, 2.5, 4.477, 0.058, 0.5930001, 2.5
 284831022, 4.481, 0.063, 0.597, 2.5, 4.479, 0.062, 0.597, 2.5
 285030942, 4.482, 0.066, 0.599, 2.5, 4.481, 0.063, 0.597, 2.5
 285230862, 4.477, 0.052, 0.612, 2.5, 4.482, 0.066, 0.599, 2.5
 285430782, 4.475, 0.026, 0.617, 2.5, 4.477, 0.052, 0.612, 2.5
 285630702, 4.474, 0.008, 0.6210001, 2.5, 4.475, 0.026, 0.617, 2.5
 285831455, 4.472, 0, 0.624, 2.5, 4.474, 0.008, 0.6210001, 2.5
 286031375, 4.47, -0.007, 0.624, 2.5, 4.472, 0, 0.624, 2.5
 286231295, 4.471, -0.022, 0.613, 2.5, 4.47, -0.007, 0.624, 2.5
 286431215, 4.469, -0.043, 0.6070001, 2.5, 4.471, -0.022, 0.613, 2.5
 286631135, 4.466, -0.063, 0.605, 2.5, 4.469, -0.043, 0.6070001, 2.5
 286831055, 4.466, -0.06500001, 0.6020001, 2.5, 4.466, -0.063, 0.605, 2.5
 287030975, 4.467, -0.051, 0.6020001, 2.5, 4.466, -0.06500001, 0.6020001, 2.5
 287230895, 4.466, -0.038, 0.609, 2.5, 4.467, -0.051, 0.6020001, 2.5
 287430815, 4.468, -0.036, 0.606, 2.5, 4.466, -0.038, 0.609, 2.5
 287630735, 4.47, -0.047, 0.601, 2.5, 4.468, -0.036, 0.606, 2.5
 287830655, 4.471, -0.055, 0.596, 2.5, 4.47, -0.047, 0.601, 2.5
 288031408, 4.474, -0.055, 0.587, 2.5, 4.471, -0.055, 0.596, 2.5
 288231328, 4.475, -0.053, 0.581, 2.5, 4.474, -0.055, 0.587, 2.5
 288431248, 4.473, -0.053, 0.588, 2.5, 4.475, -0.053, 0.581, 2.5
 288631168, 4.472, -0.056, 0.598, 2.5, 4.473, -0.053, 0.588, 2.5
 288831088, 4.472, -0.06, 0.611, 2.5, 4.472, -0.056, 0.598, 2.5
 289031008, 4.476, -0.07300001, 0.608, 2.5, 4.472, -0.06, 0.611, 2.5
 289230928, 4.48, -0.08400001, 0.597, 2.5, 4.476, -0.07300001, 0.608, 2.5
 289430848, 4.478, -0.09200001, 0.592, 2.5, 4.48, -0.08400001, 0.597, 2.5
 289630768, 4.475, -0.103, 0.592, 2.5, 4.478, -0.09200001, 0.592, 2.5
 289830688, 4.474, -0.11, 0.594, 2.5, 4.475, -0.103, 0.592, 2.5
 290031441, 4.476, -0.112, 0.594, 2.5, 4.474, -0.11, 0.594, 2.5
 290231361, 4.477, -0.101, 0.598, 2.5, 4.476, -0.112, 0.594, 2.5
 290431281, 4.479, -0.064, 0.606, 2.5, 4.477, -0.101, 0.598, 2.5
 290631201, 4.486, -0.032, 0.599, 2.5, 4.479, -0.064, 0.606, 2.5
 290831121, 4.494, -0.038, 0.59, 2.5, 4.486, -0.032, 0.599, 2.5
 291031041, 4.494, -0.062, 0.581, 2.5, 4.494, -0.038, 0.59, 2.5
 291230961, 4.493, -0.072, 0.569, 2.5, 4.494, -0.062, 0.581, 2.5
 291430881, 4.476, -0.066, 0.563, 2.5, 4.493, -0.072, 0.569, 2.5
 291630801, 4.499, -0.061, 0.561, 2.5, 4.476, -0.066, 0.563, 2.5
 291830721, 4.511, -0.06900001, 0.559, 2.5, 4.499, -0.061, 0.561, 2.5
 292031474, 4.49, -0.087, 0.566, 2.5, 4.511, -0.06900001, 0.559, 2.5
 292231394, 4.461, -0.093, 0.583, 2.5, 4.49, -0.087, 0.566, 2.5
 292431314, 4.469, -0.09500001, 0.594, 2.5, 4.461, -0.093, 0.583, 2.5
 292631234, 4.503, -0.081, 0.601, 2.5, 4.469, -0.09500001, 0.594, 2.5
 292831154, 4.531, -0.042, 0.515, 2.5, 4.503, -0.081, 0.601, 2.5
 293031074, 4.553, 0.005, 0.338, 2.5, 4.531, -0.042, 0.515, 2.5
 293230994, 4.599, 0.023, 0.137, 2.5, 4.553, 0.005, 0.338, 2.5
 293430914, 4.643, 0.004, -0.058, 2.5, 4.599, 0.023, 0.137, 2.5
 293630834, 4.693, -0.021, -0.237, 2.5, 4.643, 0.004, -0.058, 2.5
 293830754, 4.742, -0.045, -0.393, 2.5, 4.693, -0.021, -0.237, 2.5
 294030674, 4.786, -0.06, -0.522, 2.5, 4.742, -0.045, -0.393, 2.5
 294231427, 4.836, -0.064, -0.628, 2.5, 4.786, -0.06, -0.522, 2.5
 294431347, 4.904, -0.053, -0.7130001, 2.5, 4.836, -0.064, -0.628, 2.5
 294631267, 4.996, -0.039, -0.785, 2.5, 4.904, -0.053, -0.7130001, 2.5
 294831187, 5.103, -0.033, -0.849, 2.5, 4.996, -0.039, -0.785, 2.5
 295031107, 5.211, -0.05, -0.9080001, 2.5, 5.103, -0.033, -0.849, 2.5
 295231027, 5.318, -0.081, -0.9630001, 2.5, 5.211, -0.05, -0.9080001, 2.5
 295430947, 5.433, -0.113, -1.015, 2.5, 5.318, -0.081, -0.9630001, 2.5
 295630867, 5.562, -0.146, -1.065, 2.5, 5.433, -0.113, -1.015, 2.5
 295830787, 5.698, -0.161, -1.11, 2.5, 5.562, -0.146, -1.065, 2.5
 296030707, 5.83, -0.154, -1.148, 2.5, 5.698, -0.161, -1.11, 2.5
 296231460, 5.95, -0.135, -1.177, 2.5, 5.83, -0.154, -1.148, 2.5
 296431380, 6.069, -0.112, -1.198, 2.5, 5.95, -0.135, -1.177, 2.5
 296631300, 6.193, -0.09, -1.212, 2.5, 6.069, -0.112, -1.198, 2.5
 296831220, 6.322001, -0.07300001, -1.222, 2.5, 6.193, -0.09, -1.212, 2.5
 297031140, 6.453, -0.068, -1.229, 2.5, 6.322001, -0.07300001, -1.222, 2.5
 297231060, 6.577, -0.08400001, -1.236, 2.5, 6.453, -0.068, -1.229, 2.5
 297430980, 6.682, -0.108, -1.229, 2.5, 6.577, -0.08400001, -1.236, 2.5
 297630900, 6.735, -0.109, -1.163, 2.5, 6.682, -0.108, -1.229, 2.5
 297830820, 6.735, -0.07700001, -1.087, 2.5, 6.735, -0.109, -1.163, 2.5
 298030740, 6.706, -0.052, -1, 2.5, 6.735, -0.07700001, -1.087, 2.5
 298230660, 6.683, -0.056, -0.9080001, 2.5, 6.706, -0.052, -1, 2.5
 298431413, 6.679, -0.056, -0.8330001, 2.5, 6.683, -0.056, -0.9080001, 2.5
 298631333, 6.698, -0.024, -0.794, 2.5, 6.679, -0.056, -0.8330001, 2.5
 298831253, 6.723001, 0.017, -0.791, 2.5, 6.698, -0.024, -0.794, 2.5
 299031173, 6.735, 0.037, -0.807, 2.5, 6.723001, 0.017, -0.791, 2.5
 299231093, 6.747, 0.037, -0.8280001, 2.5, 6.735, 0.037, -0.807, 2.5
 299431013, 6.764, 0.035, -0.854, 2.5, 6.747, 0.037, -0.8280001, 2.5
 299630933, 6.78, 0.043, -0.8840001, 2.5, 6.764, 0.035, -0.854, 2.5
 299830853, 6.776, 0.066, -0.9, 2.5, 6.78, 0.043, -0.8840001, 2.5
 300030773, 6.761, 0.089, -0.9, 2.5, 6.776, 0.066, -0.9, 2.5
 300230693, 6.738, 0.103, -0.89, 2.5, 6.761, 0.089, -0.9, 2.5
 300431446, 6.736001, 0.112, -0.878, 2.5, 6.738, 0.103, -0.89, 2.5
 300631366, 6.739, 0.124, -0.8710001, 2.5, 6.736001, 0.112, -0.878, 2.5
 300831286, 6.738, 0.132, -0.867, 2.5, 6.739, 0.124, -0.8710001, 2.5
 301031206, 6.733, 0.142, -0.862, 2.5, 6.738, 0.132, -0.867, 2.5
 301231126, 6.727, 0.153, -0.855, 2.5, 6.733, 0.142, -0.862, 2.5
 301431046, 6.724, 0.15, -0.849, 2.5, 6.727, 0.153, -0.855, 2.5
 301630966, 6.722, 0.126, -0.841, 2.5, 6.724, 0.15, -0.849, 2.5
 301830886, 6.722, 0.1, -0.8330001, 2.5, 6.722, 0.126, -0.841, 2.5
 302030806, 6.722, 0.085, -0.825, 2.5, 6.722, 0.1, -0.8330001, 2.5
 302230726, 6.721, 0.06900001, -0.809, 2.5, 6.722, 0.085, -0.825, 2.5
 302431479, 6.713, 0.035, -0.793, 2.5, 6.721, 0.06900001, -0.809, 2.5
 302631399, 6.711, -0.007, -0.7870001, 2.5, 6.713, 0.035, -0.793, 2.5
 302831319, 6.714, -0.034, -0.785, 2.5, 6.711, -0.007, -0.7870001, 2.5
 303031239, 6.716001, -0.036, -0.779, 2.5, 6.714, -0.034, -0.785, 2.5
 303231159, 6.712, -0.033, -0.757, 2.5, 6.716001, -0.036, -0.779, 2.5
 303431079, 6.651, -0.03, -0.66, 2.5, 6.712, -0.033, -0.757, 2.5
 303630999, 6.512, -0.019, -0.5420001, 2.5, 6.651, -0.03, -0.66, 2.5
 303830919, 6.329, -0.008, -0.419, 2.5, 6.512, -0.019, -0.5420001, 2.5
 304030839, 6.149, -0.012, -0.305, 2.5, 6.329, -0.008, -0.419, 2.5
 304230759, 5.979, -0.034, -0.212, 2.5, 6.149, -0.012, -0.305, 2.5
 304430679, 5.793, -0.047, -0.144, 2.5, 5.979, -0.034, -0.212, 2.5
 304631432, 5.584, -0.033, -0.094, 2.5, 5.793, -0.047, -0.144, 2.5
 304831352, 5.365, -0.006, -0.035, 2.5, 5.584, -0.033, -0.094, 2.5
 305031272, 5.193, 0.005, 0.07600001, 2.5, 5.365, -0.006, -0.035, 2.5
 305231192, 5.142, -0.013, 0.198, 2.5, 5.193, 0.005, 0.07600001, 2.5
 305431112, 5.165, -0.036, 0.309, 2.5, 5.142, -0.013, 0.198, 2.5
 305631032, 5.203, -0.055, 0.403, 2.5, 5.165, -0.036, 0.309, 2.5
 305830952, 5.245, -0.086, 0.485, 2.5, 5.203, -0.055, 0.403, 2.5
 306030872, 5.303, -0.13, 0.546, 2.5, 5.245, -0.086, 0.485, 2.5
 306230792, 5.378, -0.163, 0.557, 2.5, 5.303, -0.13, 0.546, 2.5
 306430712, 5.423, -0.177, 0.54, 2.5, 5.378, -0.163, 0.557, 2.5
 306631465, 5.44, -0.179, 0.511, 2.5, 5.423, -0.177, 0.54, 2.5
 306831385, 5.447, -0.181, 0.488, 2.5, 5.44, -0.179, 0.511, 2.5
 307031305, 5.459, -0.195, 0.472, 2.5, 5.447, -0.181, 0.488, 2.5
 307231225, 5.473, -0.208, 0.461, 2.5, 5.459, -0.195, 0.472, 2.5
 307431145, 5.488, -0.195, 0.455, 2.5, 5.473, -0.208, 0.461, 2.5
 307631065, 5.498, -0.166, 0.456, 2.5, 5.488, -0.195, 0.455, 2.5
 307830985, 5.507, -0.137, 0.462, 2.5, 5.498, -0.166, 0.456, 2.5
 308030905, 5.514, -0.105, 0.47, 2.5, 5.507, -0.137, 0.462, 2.5
 308230825, 5.522, -0.06, 0.483, 2.5, 5.514, -0.105, 0.47, 2.5
 308430745, 5.531, -0.011, 0.497, 2.5, 5.522, -0.06, 0.483, 2.5
 308630665, 5.541, 0.036, 0.504, 2.5, 5.531, -0.011, 0.497, 2.5
 308831418, 5.56, 0.06500001, 0.502, 2.5, 5.541, 0.036, 0.504, 2.5
 309031338, 5.567, 0.071, 0.496, 2.5, 5.56, 0.06500001, 0.502, 2.5
 309231258, 5.564, 0.068, 0.489, 2.5, 5.567, 0.071, 0.496, 2.5
 309431178, 5.561, 0.06900001, 0.485, 2.5, 5.564, 0.068, 0.489, 2.5
 309631098, 5.563, 0.075, 0.475, 2.5, 5.561, 0.06900001, 0.485, 2.5
 309831018, 5.566, 0.085, 0.462, 2.5, 5.563, 0.075, 0.475, 2.5
 310030938, 5.564, 0.09100001, 0.455, 2.5, 5.566, 0.085, 0.462, 2.5
 310230858, 5.56, 0.09, 0.454, 2.5, 5.564, 0.09100001, 0.455, 2.5
 310430778, 5.536, 0.09500001, 0.46, 2.5, 5.56, 0.09, 0.454, 2.5
 310630698, 5.548, 0.121, 0.467, 2.5, 5.536, 0.09500001, 0.46, 2.5
 310831451, 5.576, 0.148, 0.472, 2.5, 5.548, 0.121, 0.467, 2.5
 311031371, 5.572, 0.152, 0.473, 2.5, 5.576, 0.148, 0.472, 2.5
 311231291, 5.543, 0.136, 0.481, 2.5, 5.572, 0.152, 0.473, 2.5
 311431211, 5.529, 0.133, 0.486, 2.5, 5.543, 0.136, 0.481, 2.5
 311631131, 5.556, 0.155, 0.483, 2.5, 5.529, 0.133, 0.486, 2.5
 311831051, 5.579, 0.182, 0.472, 2.5, 5.556, 0.155, 0.483, 2.5
 312030971, 5.571, 0.201, 0.461, 2.5, 5.579, 0.182, 0.472, 2.5
 312230891, 5.56, 0.216, 0.451, 2.5, 5.571, 0.201, 0.461, 2.5
 312430811, 5.533, 0.217, 0.447, 2.5, 5.56, 0.216, 0.451, 2.5
 312630731, 5.546, 0.211, 0.456, 2.5, 5.533, 0.217, 0.447, 2.5
 312831484, 5.573, 0.215, 0.47, 2.5, 5.546, 0.211, 0.456, 2.5
 313031404, 5.559, 0.221, 0.486, 2.5, 5.573, 0.215, 0.47, 2.5
 313231324, 5.524, 0.208, 0.495, 2.5, 5.559, 0.221, 0.486, 2.5
 313431244, 5.528, 0.189, 0.496, 2.5, 5.524, 0.208, 0.495, 2.5
 313631164, 5.551, 0.183, 0.494, 2.5, 5.528, 0.189, 0.496, 2.5
 313831084, 5.566, 0.171, 0.491, 2.5, 5.551, 0.183, 0.494, 2.5
 314031004, 5.53, 0.133, 0.488, 2.5, 5.566, 0.171, 0.491, 2.5
 314230924, 5.515, 0.09500001, 0.484, 2.5, 5.53, 0.133, 0.488, 2.5
 314430844, 5.525, 0.078, 0.476, 2.5, 5.515, 0.09500001, 0.484, 2.5
 314630764, 5.534, 0.07300001, 0.466, 2.5, 5.525, 0.078, 0.476, 2.5
 314830684, 5.535, 0.063, 0.455, 2.5, 5.534, 0.07300001, 0.466, 2.5
 315031437, 5.531, 0.051, 0.447, 2.5, 5.535, 0.063, 0.455, 2.5
 315231357, 5.529, 0.04, 0.446, 2.5, 5.531, 0.051, 0.447, 2.5
 315431277, 5.53, 0.029, 0.45, 2.5, 5.529, 0.04, 0.446, 2.5
 315631197, 5.534, 0.016, 0.454, 2.5, 5.53, 0.029, 0.45, 2.5
 315831117, 5.54, 0.005, 0.454, 2.5, 5.534, 0.016, 0.454, 2.5
 316031037, 5.559, -0.001, 0.457, 2.5, 5.54, 0.005, 0.454, 2.5
 316230957, 5.528, -0.007, 0.46, 2.5, 5.559, -0.001, 0.457, 2.5
 316430877, 5.53, -0.012, 0.458, 2.5, 5.528, -0.007, 0.46, 2.5
 316630797, 5.561, -0.013, 0.457, 2.5, 5.53, -0.012, 0.458, 2.5
 316830717, 5.572, -0.005, 0.459, 2.5, 5.561, -0.013, 0.457, 2.5
 317031470, 5.548, -0.002, 0.469, 2.5, 5.572, -0.005, 0.459, 2.5
 317231390, 5.526, -0.005, 0.478, 2.5, 5.548, -0.002, 0.469, 2.5
 317431310, 5.535, -0.008, 0.483, 2.5, 5.526, -0.005, 0.478, 2.5
 317631230, 5.567, -0.015, 0.485, 2.5, 5.535, -0.008, 0.483, 2.5
 317831150, 5.566, -0.035, 0.488, 2.5, 5.567, -0.015, 0.485, 2.5
 318031070, 5.532, -0.068, 0.491, 2.5, 5.566, -0.035, 0.488, 2.5
 318230990, 5.522, -0.087, 0.495, 2.5, 5.532, -0.068, 0.491, 2.5
 318430910, 5.536, -0.083, 0.486, 2.5, 5.522, -0.087, 0.495, 2.5
 318630830, 5.565, -0.07700001, 0.474, 2.5, 5.536, -0.083, 0.486, 2.5
 318830750, 5.563, -0.08800001, 0.464, 2.5, 5.565, -0.07700001, 0.474, 2.5
 319030670, 5.529, -0.09200001, 0.456, 2.5, 5.563, -0.08800001, 0.464, 2.5
 319231423, 5.53, -0.083, 0.449, 2.5, 5.529, -0.09200001, 0.456, 2.5
 319431343, 5.555, -0.075, 0.445, 2.5, 5.53, -0.083, 0.449, 2.5
 319631263, 5.572, -0.079, 0.441, 2.5, 5.555, -0.075, 0.445, 2.5
 319831183, 5.56, -0.102, 0.442, 2.5, 5.572, -0.079, 0.441, 2.5
 320031103, 5.527, -0.131, 0.448, 2.5, 5.56, -0.102, 0.442, 2.5
 320231023, 5.529, -0.152, 0.456, 2.5, 5.527, -0.131, 0.448, 2.5
 320430943, 5.55, -0.156, 0.463, 2.5, 5.529, -0.152, 0.456, 2.5
 320630863, 5.57, -0.147, 0.468, 2.5, 5.55, -0.156, 0.463, 2.5
 320830783, 5.558, -0.123, 0.473, 2.5, 5.57, -0.147, 0.468, 2.5
 321030703, 5.527, -0.111, 0.479, 2.5, 5.558, -0.123, 0.473, 2.5
 321231456, 5.529, -0.123, 0.49, 2.5, 5.527, -0.111, 0.479, 2.5
 321431376, 5.557, -0.138, 0.494, 2.5, 5.529, -0.123, 0.49, 2.5
 321631296, 5.569, -0.134, 0.498, 2.5, 5.557, -0.138, 0.494, 2.5
 321831216, 5.537, -0.112, 0.502, 2.5, 5.569, -0.134, 0.498, 2.5
 322031136, 5.523, -0.09900001, 0.499, 2.5, 5.537, -0.112, 0.502, 2.5
 322231056, 5.535, -0.094, 0.49, 2.5, 5.523, -0.09900001, 0.499, 2.5
 322430976, 5.567, -0.064, 0.481, 2.5, 5.535, -0.094, 0.49, 2.5
 322630896, 5.569, -0.01, 0.471, 2.5, 5.567, -0.064, 0.481, 2.5
 322830816, 5.548, 0.026, 0.463, 2.5, 5.569, -0.01, 0.471, 2.5
 323030736, 5.532, 0.031, 0.45, 2.5, 5.548, 0.026, 0.463, 2.5
 323230656, 5.563, 0.021, 0.439, 2.5, 5.532, 0.031, 0.45, 2.5
 323431409, 5.576, 0.011, 0.434, 2.5, 5.563, 0.021, 0.439, 2.5
 323631329, 5.559, -0.007, 0.44, 2.5, 5.576, 0.011, 0.434, 2.5
 323831249, 5.526, -0.019, 0.453, 2.5, 5.559, -0.007, 0.44, 2.5
 324031169, 5.531, 0, 0.469, 2.5, 5.526, -0.019, 0.453, 2.5
 324231089, 5.56, 0.051, 0.48, 2.5, 5.531, 0, 0.469, 2.5
 324431009, 5.572, 0.09900001, 0.489, 2.5, 5.56, 0.051, 0.48, 2.5
 324630929, 5.567, 0.106, 0.484, 2.5, 5.572, 0.09900001, 0.489, 2.5
 324830849, 5.557, 0.094, 0.419, 2.5, 5.567, 0.106, 0.484, 2.5
 325030769, 5.453, 0.106, 0.333, 2.5, 5.557, 0.094, 0.419, 2.5
 325230689, 5.293, 0.138, 0.25, 2.5, 5.453, 0.106, 0.333, 2.5
 325431442, 5.117, 0.161, 0.181, 2.5, 5.293, 0.138, 0.25, 2.5
 325631362, 4.933, 0.157, 0.134, 2.5, 5.117, 0.161, 0.181, 2.5
 325831282, 4.743, 0.146, 0.179, 2.5, 4.933, 0.157, 0.134, 2.5
 326031202, 4.63, 0.131, 0.27, 2.5, 4.743, 0.146, 0.179, 2.5
 326231122, 4.592, 0.103, 0.375, 2.5, 4.63, 0.131, 0.27, 2.5
 326431042, 4.582, 0.074, 0.478, 2.5, 4.592, 0.103, 0.375, 2.5
 326630962, 4.586, 0.051, 0.575, 2.5, 4.582, 0.074, 0.478, 2.5
 326830882, 4.628, 0.043, 0.633, 2.5, 4.586, 0.051, 0.575, 2.5
 327030802, 4.682, 0.055, 0.6390001, 2.5, 4.628, 0.043, 0.633, 2.5
 327230722, 4.704, 0.068, 0.618, 2.5, 4.682, 0.055, 0.6390001, 2.5
 327431475, 4.705, 0.051, 0.589, 2.5, 4.704, 0.068, 0.618, 2.5
 327631395, 4.704, -0.004, 0.562, 2.5, 4.705, 0.051, 0.589, 2.5
 327831315, 4.705, -0.075, 0.545, 2.5, 4.704, -0.004, 0.562, 2.5
 328031235, 4.704, -0.136, 0.543, 2.5, 4.705, -0.075, 0.545, 2.5
 328231155, 4.703, -0.173, 0.5470001, 2.5, 4.704, -0.136, 0.543, 2.5
 328431075, 4.703, -0.175, 0.561, 2.5, 4.703, -0.173, 0.5470001, 2.5
 328630995, 4.709, -0.154, 0.575, 2.5, 4.703, -0.175, 0.561, 2.5
 328830915, 4.72, -0.149, 0.573, 2.5, 4.709, -0.154, 0.575, 2.5
 329030835, 4.722, -0.177, 0.574, 2.5, 4.72, -0.149, 0.573, 2.5
 329230755, 4.722, -0.203, 0.577, 2.5, 4.722, -0.177, 0.574, 2.5
 329430675, 4.725, -0.202, 0.576, 2.5, 4.722, -0.203, 0.577, 2.5
 329631428, 4.736, -0.18, 0.573, 2.5, 4.725, -0.202, 0.576, 2.5
 329831348, 4.74, -0.158, 0.576, 2.5, 4.736, -0.18, 0.573, 2.5
 330031268, 4.743, -0.158, 0.569, 2.5, 4.74, -0.158, 0.576, 2.5
 330231188, 4.748, -0.169, 0.552, 2.5, 4.743, -0.158, 0.569, 2.5
 330431108, 4.75, -0.178, 0.538, 2.5, 4.748, -0.169, 0.552, 2.5
 330631028, 4.751, -0.165, 0.53, 2.5, 4.75, -0.178, 0.538, 2.5
 330830948, 4.752, -0.134, 0.531, 2.5, 4.751, -0.165, 0.53, 2.5
 331030868, 4.754, -0.109, 0.535, 2.5, 4.752, -0.134, 0.531, 2.5
 331230788, 4.758, -0.09, 0.54, 2.5, 4.754, -0.109, 0.535, 2.5
 331430708, 4.761, -0.06500001, 0.544, 2.5, 4.758, -0.09, 0.54, 2.5
 331631461, 4.765, -0.028, 0.5420001, 2.5, 4.761, -0.06500001, 0.544, 2.5
 331831381, 4.768, 0.015, 0.541, 2.5, 4.765, -0.028, 0.5420001, 2.5
 332031301, 4.768, 0.048, 0.543, 2.5, 4.768, 0.015, 0.541, 2.5
 332231221, 4.768, 0.053, 0.546, 2.5, 4.768, 0.048, 0.543, 2.5
 332431141, 4.77, 0.05, 0.5470001, 2.5, 4.768, 0.053, 0.546, 2.5
 332631061, 4.768, 0.06500001, 0.553, 2.5, 4.77, 0.05, 0.5470001, 2.5
 332830981, 4.767, 0.082, 0.557, 2.5, 4.768, 0.06500001, 0.553, 2.5
 333030901, 4.766, 0.075, 0.554, 2.5, 4.767, 0.082, 0.557, 2.5
 333230821, 4.764, 0.051, 0.549, 2.5, 4.766, 0.075, 0.554, 2.5
 333430741, 4.761, 0.021, 0.539, 2.5, 4.764, 0.051, 0.549, 2.5
 333630661, 4.755, -0.009000001, 0.537, 2.5, 4.761, 0.021, 0.539, 2.5
 333831414, 4.748, -0.03, 0.541, 2.5, 4.755, -0.009000001, 0.537, 2.5
 334031334, 4.743, -0.048, 0.545, 2.5, 4.748, -0.03, 0.541, 2.5
 334231254, 4.739, -0.07700001, 0.552, 2.5, 4.743, -0.048, 0.545, 2.5
 334431174, 4.735, -0.106, 0.558, 2.5, 4.739, -0.07700001, 0.552, 2.5
 334631094, 4.734, -0.108, 0.56, 2.5, 4.735, -0.106, 0.558, 2.5
 334831014, 4.736, -0.07300001, 0.558, 2.5, 4.734, -0.108, 0.56, 2.5
 335030934, 4.738, -0.033, 0.554, 2.5, 4.736, -0.07300001, 0.558, 2.5
 335230854, 4.738, -0.014, 0.548, 2.5, 4.738, -0.033, 0.554, 2.5
 335430774, 4.736, -0.016, 0.546, 2.5, 4.738, -0.014, 0.548, 2.5
 335630694, 4.739, -0.027, 0.534, 2.5, 4.736, -0.016, 0.546, 2.5
 335831447, 4.741, -0.046, 0.516, 2.5, 4.739, -0.027, 0.534, 2.5
 336031367, 4.738, -0.056, 0.507, 2.5, 4.741, -0.046, 0.516, 2.5
 336231287, 4.735, -0.047, 0.506, 2.5, 4.738, -0.056, 0.507, 2.5
 336431207, 4.735, -0.026, 0.506, 2.5, 4.735, -0.047, 0.506, 2.5
 336631127, 4.735, 0, 0.512, 2.5, 4.735, -0.026, 0.506, 2.5
 336831047, 4.734, 0.024, 0.522, 2.5, 4.735, 0, 0.512, 2.5
 337030967, 4.735, 0.046, 0.532, 2.5, 4.734, 0.024, 0.522, 2.5
 337230887, 4.736, 0.057, 0.54, 2.5, 4.735, 0.046, 0.532, 2.5
 337430807, 4.739, 0.055, 0.541, 2.5, 4.736, 0.057, 0.54, 2.5
 337630727, 4.741, 0.048, 0.537, 2.5, 4.739, 0.055, 0.541, 2.5
 337831480, 4.738, 0.035, 0.54, 2.5, 4.741, 0.048, 0.537, 2.5
 338031400, 4.732, 0.013, 0.551, 2.5, 4.738, 0.035, 0.54, 2.5
 338231320, 4.706, 0.007, 0.563, 2.5, 4.732, 0.013, 0.551, 2.5
 338431240, 4.716, 0.033, 0.574, 2.5, 4.706, 0.007, 0.563, 2.5
 338631160, 4.766, 0.07600001, 0.574, 2.5, 4.716, 0.033, 0.574, 2.5
 338831080, 4.762, 0.098, 0.56, 2.5, 4.766, 0.07600001, 0.574, 2.5
 339031000, 4.695, 0.096, 0.551, 2.5, 4.762, 0.098, 0.56, 2.5
 339230920, 4.683, 0.096, 0.5470001, 2.5, 4.695, 0.096, 0.551, 2.5
 339430840, 4.738, 0.093, 0.5470001, 2.5, 4.683, 0.096, 0.5470001, 2.5
 339630760, 4.77, 0.07600001, 0.546, 2.5, 4.738, 0.093, 0.5470001, 2.5
 339830680, 4.727, 0.054, 0.555, 2.5, 4.77, 0.07600001, 0.546, 2.5
 340031433, 4.672, 0.031, 0.566, 2.5, 4.727, 0.054, 0.555, 2.5
 340231353, 4.682, 0.005, 0.575, 2.5, 4.672, 0.031, 0.566, 2.5
 340431273, 4.701, -0.004, 0.578, 2.5, 4.682, 0.005, 0.575, 2.5
 340631193, 4.756, 0.019, 0.576, 2.5, 4.701, -0.004, 0.578, 2.5
 340831113, 4.716, 0.051, 0.567, 2.5, 4.756, 0.019, 0.576, 2.5
 341031033, 4.675, 0.056, 0.552, 2.5, 4.716, 0.051, 0.567, 2.5
 341230953, 4.691, 0.023, 0.538, 2.5, 4.675, 0.056, 0.552, 2.5
 341430873, 4.761, -0.024, 0.525, 2.5, 4.691, 0.023, 0.538, 2.5
 341630793, 4.763, -0.063, 0.512, 2.5, 4.761, -0.024, 0.525, 2.5
 341830713, 4.694, -0.078, 0.511, 2.5, 4.763, -0.063, 0.512, 2.5
 342031466, 4.676, -0.057, 0.52, 2.5, 4.694, -0.078, 0.511, 2.5
 342231386, 4.702, -0.011, 0.531, 2.5, 4.676, -0.057, 0.52, 2.5
 342431306, 4.764, 0.032, 0.54, 2.5, 4.702, -0.011, 0.531, 2.5
 342631226, 4.758, 0.074, 0.553, 2.5, 4.764, 0.032, 0.54, 2.5
 342831146, 4.707, 0.122, 0.541, 2.5, 4.758, 0.074, 0.553, 2.5
 343031066, 4.695, 0.171, 0.525, 2.5, 4.707, 0.122, 0.541, 2.5
 343230986, 4.779, 0.208, 0.5100001, 2.5, 4.695, 0.171, 0.525, 2.5
 343430906, 4.792, 0.22, 0.495, 2.5, 4.779, 0.208, 0.5100001, 2.5
 343630826, 4.783, 0.212, 0.491, 2.5, 4.792, 0.22, 0.495, 2.5
 343830746, 4.803, 0.197, 0.501, 2.5, 4.783, 0.212, 0.491, 2.5
 344030666, 4.858, 0.185, 0.518, 2.5, 4.803, 0.197, 0.501, 2.5
 344231419, 4.965, 0.169, 0.538, 2.5, 4.858, 0.185, 0.518, 2.5
 344431339, 5.038, 0.144, 0.559, 2.5, 4.965, 0.169, 0.538, 2.5
 344631259, 5.107, 0.136, 0.585, 2.5, 5.038, 0.144, 0.559, 2.5
 344831179, 5.2, 0.15, 0.614, 2.5, 5.107, 0.136, 0.585, 2.5
 345031099, 5.312, 0.152, 0.643, 2.5, 5.2, 0.15, 0.614, 2.5
 345231019, 5.442, 0.138, 0.67, 2.5, 5.312, 0.152, 0.643, 2.5
 345430939, 5.596, 0.13, 0.6390001, 2.5, 5.442, 0.138, 0.67, 2.5
 345630859, 5.68, 0.143, 0.58, 2.5, 5.596, 0.13, 0.6390001, 2.5
 345830779, 5.687, 0.153, 0.523, 2.5, 5.68, 0.143, 0.58, 2.5
 346030699, 5.678, 0.14, 0.479, 2.5, 5.687, 0.153, 0.523, 2.5
 346231452, 5.686, 0.123, 0.452, 2.5, 5.678, 0.14, 0.479, 2.5
 346431372, 5.694, 0.122, 0.446, 2.5, 5.686, 0.123, 0.452, 2.5
 346631292, 5.695, 0.124, 0.452, 2.5, 5.694, 0.122, 0.446, 2.5
 346831212, 5.692, 0.122, 0.462, 2.5, 5.695, 0.124, 0.452, 2.5
 347031132, 5.69, 0.115, 0.471, 2.5, 5.692, 0.122, 0.462, 2.5
 347231052, 5.687, 0.108, 0.482, 2.5, 5.69, 0.115, 0.471, 2.5
 347430972, 5.686, 0.104, 0.492, 2.5, 5.687, 0.108, 0.482, 2.5
 347630892, 5.687, 0.098, 0.493, 2.5, 5.686, 0.104, 0.492, 2.5
 347830812, 5.688, 0.083, 0.481, 2.5, 5.687, 0.098, 0.493, 2.5
 348030732, 5.685, 0.066, 0.469, 2.5, 5.688, 0.083, 0.481, 2.5
 348231485, 5.674, 0.054, 0.461, 2.5, 5.685, 0.066, 0.469, 2.5
 348431405, 5.658, 0.039, 0.462, 2.5, 5.674, 0.054, 0.461, 2.5
 348631325, 5.656, 0.013, 0.467, 2.5, 5.658, 0.039, 0.462, 2.5
 348831245, 5.66, -0.008, 0.466, 2.5, 5.656, 0.013, 0.467, 2.5
 349031165, 5.661, -0.026, 0.463, 2.5, 5.66, -0.008, 0.466, 2.5
 349231085, 5.658, -0.063, 0.463, 2.5, 5.661, -0.026, 0.463, 2.5
 349431005, 5.656, -0.113, 0.461, 2.5, 5.658, -0.063, 0.463, 2.5
 349630925, 5.659, -0.143, 0.453, 2.5, 5.656, -0.113, 0.461, 2.5
 349830845, 5.663, -0.136, 0.446, 2.5, 5.659, -0.143, 0.453, 2.5
 350030765, 5.685, -0.127, 0.441, 2.5, 5.663, -0.136, 0.446, 2.5
 350230685, 5.704, -0.134, 0.438, 2.5, 5.685, -0.127, 0.441, 2.5
 350431438, 5.636, -0.16, 0.447, 2.5, 5.704, -0.134, 0.438, 2.5
 350631358, 5.631, -0.184, 0.463, 2.5, 5.636, -0.16, 0.447, 2.5
 350831278, 5.678, -0.188, 0.472, 2.5, 5.631, -0.184, 0.463, 2.5
 351031198, 5.725, -0.183, 0.472, 2.5, 5.678, -0.188, 0.472, 2.5
 351231118, 5.709, -0.179, 0.462, 2.5, 5.725, -0.183, 0.472, 2.5
 351431038, 5.639, -0.18, 0.451, 2.5, 5.709, -0.179, 0.462, 2.5
 351630958, 5.637, -0.195, 0.45, 2.5, 5.639, -0.18, 0.451, 2.5
 351830878, 5.685, -0.216, 0.453, 2.5, 5.637, -0.195, 0.45, 2.5
 352030798, 5.721, -0.218, 0.454, 2.5, 5.685, -0.216, 0.453, 2.5
 352230718, 5.693, -0.198, 0.455, 2.5, 5.721, -0.218, 0.454, 2.5
 352431471, 5.634, -0.171, 0.457, 2.5, 5.693, -0.198, 0.455, 2.5
 352631391, 5.652, -0.149, 0.454, 2.5, 5.634, -0.171, 0.457, 2.5
 352831311, 5.725, -0.133, 0.446, 2.5, 5.652, -0.149, 0.454, 2.5
 353031231, 5.726, -0.128, 0.439, 2.5, 5.725, -0.133, 0.446, 2.5
 353231151, 5.705, -0.133, 0.435, 2.5, 5.726, -0.128, 0.439, 2.5
 353431071, 5.652, -0.13, 0.433, 2.5, 5.705, -0.133, 0.435, 2.5
 353630991, 5.687, -0.123, 0.437, 2.5, 5.652, -0.13, 0.433, 2.5
 353830911, 5.736, -0.117, 0.438, 2.5, 5.687, -0.123, 0.437, 2.5
 354030831, 5.725, -0.112, 0.441, 2.5, 5.736, -0.117, 0.438, 2.5
 354230751, 5.687, -0.108, 0.454, 2.5, 5.725, -0.112, 0.441, 2.5
 354430671, 5.643, -0.108, 0.463, 2.5, 5.687, -0.108, 0.454, 2.5
 354631424, 5.702, -0.104, 0.463, 2.5, 5.643, -0.108, 0.463, 2.5
 354831344, 5.739, -0.089, 0.452, 2.5, 5.702, -0.104, 0.463, 2.5
 355031264, 5.723, -0.061, 0.442, 2.5, 5.739, -0.089, 0.452, 2.5
 355231184, 5.703, -0.03, 0.434, 2.5, 5.723, -0.061, 0.442, 2.5
 355431104, 5.646, 0, 0.438, 2.5, 5.703, -0.03, 0.434, 2.5
 355631024, 5.688, 0.036, 0.444, 2.5, 5.646, 0, 0.438, 2.5
 355830944, 5.732, 0.068, 0.446, 2.5, 5.688, 0.036, 0.444, 2.5
 356030864, 5.717, 0.085, 0.447, 2.5, 5.732, 0.068, 0.446, 2.5
 356230784, 5.654, 0.08800001, 0.447, 2.5, 5.717, 0.085, 0.447, 2.5
 356430704, 5.636, 0.098, 0.454, 2.5, 5.654, 0.08800001, 0.447, 2.5
 356631457, 5.683, 0.128, 0.459, 2.5, 5.636, 0.098, 0.454, 2.5
 356831377, 5.726, 0.154, 0.451, 2.5, 5.683, 0.128, 0.459, 2.5
 357031297, 5.703, 0.151, 0.444, 2.5, 5.726, 0.154, 0.451, 2.5
 357231217, 5.631, 0.122, 0.448, 2.5, 5.703, 0.151, 0.444, 2.5
 357431137, 5.63, 0.085, 0.458, 2.5, 5.631, 0.122, 0.448, 2.5
 357631057, 5.651, 0.063, 0.462, 2.5, 5.63, 0.085, 0.458, 2.5
 357830977, 5.706, 0.063, 0.459, 2.5, 5.651, 0.063, 0.462, 2.5
 358030897, 5.685, 0.07700001, 0.453, 2.5, 5.706, 0.063, 0.459, 2.5
 358230817, 5.623, 0.089, 0.453, 2.5, 5.685, 0.07700001, 0.453, 2.5
 358430737, 5.629, 0.08400001, 0.455, 2.5, 5.623, 0.089, 0.453, 2.5
 358630657, 5.655, 0.063, 0.454, 2.5, 5.629, 0.08400001, 0.455, 2.5
 358831410, 5.715, 0.036, 0.447, 2.5, 5.655, 0.063, 0.454, 2.5
 359031330, 5.684, -0.002, 0.44, 2.5, 5.715, 0.036, 0.447, 2.5
 359231250, 5.621, -0.046, 0.441, 2.5, 5.684, -0.002, 0.44, 2.5
 359431170, 5.631, -0.079, 0.441, 2.5, 5.621, -0.046, 0.441, 2.5
 359631090, 5.663, -0.101, 0.44, 2.5, 5.631, -0.079, 0.441, 2.5
 359831010, 5.713, -0.117, 0.437, 2.5, 5.663, -0.101, 0.44, 2.5
 360030930, 5.671, -0.131, 0.433, 2.5, 5.713, -0.117, 0.437, 2.5
 360230850, 5.624, -0.138, 0.43, 2.5, 5.671, -0.131, 0.433, 2.5
 360430770, 5.638, -0.14, 0.425, 2.5, 5.624, -0.138, 0.43, 2.5
 360630690, 5.681, -0.128, 0.425, 2.5, 5.638, -0.14, 0.425, 2.5
 360831443, 5.712, -0.093, 0.429, 2.5, 5.681, -0.128, 0.425, 2.5
 361031363, 5.644, -0.062, 0.439, 2.5, 5.712, -0.093, 0.429, 2.5
 361231283, 5.623, -0.057, 0.447, 2.5, 5.644, -0.062, 0.439, 2.5
 361431203, 5.645, -0.078, 0.45, 2.5, 5.623, -0.057, 0.447, 2.5
 361631123, 5.704, -0.096, 0.448, 2.5, 5.645, -0.078, 0.45, 2.5
 361831043, 5.708, -0.097, 0.447, 2.5, 5.704, -0.096, 0.448, 2.5
 362030963, 5.636, -0.09, 0.445, 2.5, 5.708, -0.097, 0.447, 2.5
 362230883, 5.625, -0.087, 0.455, 2.5, 5.636, -0.09, 0.445, 2.5
 362430803, 5.647, -0.086, 0.46, 2.5, 5.625, -0.087, 0.455, 2.5
 362630723, 5.713, -0.08400001, 0.451, 2.5, 5.647, -0.086, 0.46, 2.5
 362831476, 5.71, -0.085, 0.438, 2.5, 5.713, -0.08400001, 0.451, 2.5
 363031396, 5.636, -0.09, 0.434, 2.5, 5.71, -0.085, 0.438, 2.5
 363231316, 5.629, -0.087, 0.42, 2.5, 5.636, -0.09, 0.434, 2.5
 363431236, 5.647, -0.081, 0.316, 2.5, 5.629, -0.087, 0.42, 2.5
 363631156, 5.589, -0.07700001, 0.141, 2.5, 5.647, -0.081, 0.316, 2.5
 363831076, 5.471, -0.062, -0.064, 2.5, 5.589, -0.07700001, 0.141, 2.5
 364030996, 5.283, -0.022, -0.282, 2.5, 5.471, -0.062, -0.064, 2.5
 364230916, 5.106, 0.026, -0.505, 2.5, 5.283, -0.022, -0.282, 2.5
 364430836, 4.942, 0.053, -0.7320001, 2.5, 5.106, 0.026, -0.505, 2.5
 364630756, 4.743, 0.049, -0.9580001, 2.5, 4.942, 0.053, -0.7320001, 2.5
 364830676, 4.5, 0.043, -1.173, 2.5, 4.743, 0.049, -0.9580001, 2.5
 365031429, 4.234, 0.041, -1.375, 2.5, 4.5, 0.043, -1.173, 2.5
 365231349, 3.955, 0.023, -1.551, 2.5, 4.234, 0.041, -1.375, 2.5
 365431269, 3.678, 0, -1.693, 2.5, 3.955, 0.023, -1.551, 2.5
 365631189, 3.408, -0.01, -1.805, 2.5, 3.678, 0, -1.693, 2.5
 365831109, 3.122, -0.01, -1.89, 2.5, 3.408, -0.01, -1.805, 2.5
 366031029, 2.818, -0.015, -1.956, 2.5, 3.122, -0.01, -1.89, 2.5
 366230949, 2.511, -0.003, -1.879, 2.5, 2.818, -0.015, -1.956, 2.5
 366430869, 2.218, 0.037, -1.693, 2.5, 2.511, -0.003, -1.879, 2.5
 366630789, 1.928, 0.079, -1.448, 2.5, 2.218, 0.037, -1.693, 2.5
 366830709, 1.617, 0.102, -1.167, 2.5, 1.928, 0.079, -1.448, 2.5
 367031462, 1.271, 0.109, -0.886, 2.5, 1.617, 0.102, -1.167, 2.5
 367231382, 0.9110001, 0.121, -0.643, 2.5, 1.271, 0.109, -0.886, 2.5
 367431302, 0.608, 0.136, -0.452, 2.5, 0.9110001, 0.121, -0.643, 2.5
 367631222, 0.375, 0.128, -0.307, 2.5, 0.608, 0.136, -0.452, 2.5
 367831142, 0.165, 0.11, -0.203, 2.5, 0.375, 0.128, -0.307, 2.5
 368031062, -0.079, 0.09200001, -0.131, 2.5, 0.165, 0.11, -0.203, 2.5
 368230982, -0.344, 0.068, -0.08400001, 2.5, -0.079, 0.09200001, -0.131, 2.5
 368430902, -0.591, 0.041, -0.058, 2.5, -0.344, 0.068, -0.08400001, 2.5
 368630822, -0.811, 0.024, -0.043, 2.5, -0.591, 0.041, -0.058, 2.5
 368830742, -1.006, 0.025, -0.035, 2.5, -0.811, 0.024, -0.043, 2.5
 369030662, -1.175, 0.024, -0.031, 2.5, -1.006, 0.025, -0.035, 2.5
 369231415, -1.327, 0, -0.027, 2.5, -1.175, 0.024, -0.031, 2.5
 369431335, -1.476, -0.032, -0.023, 2.5, -1.327, 0, -0.027, 2.5
 369631255, -1.631, -0.072, -0.02, 2.5, -1.476, -0.032, -0.023, 2.5
 369831175, -1.789, -0.098, -0.017, 2.5, -1.631, -0.072, -0.02, 2.5
 370031095, -1.95, -0.083, -0.013, 2.5, -1.789, -0.098, -0.017, 2.5
 370231015, -2.116, -0.045, -0.01, 2.5, -1.95, -0.083, -0.013, 2.5
 370430935, -2.29, -0.001, -0.007, 2.5, -2.116, -0.045, -0.01, 2.5
 370630855, -2.49, 0.039, -0.002, 2.5, -2.29, -0.001, -0.007, 2.5
 370830775, -2.705, 0.078, 0, 2.5, -2.49, 0.039, -0.002, 2.5
 371030695, -2.907, 0.1, 0, 2.5, -2.705, 0.078, 0, 2.5
 371231448, -3.096, 0.09200001, 0, 2.5, -2.907, 0.1, 0, 2.5
 371431368, -3.298, 0.059, 0.003, 2.5, -3.096, 0.09200001, 0, 2.5
 371631288, -3.515, 0.034, 0.006, 2.5, -3.298, 0.059, 0.003, 2.5
 371831208, -3.73, 0.031, 0.005, 2.5, -3.515, 0.034, 0.006, 2.5
 372031128, -3.938, 0.032, 0.004, 2.5, -3.73, 0.031, 0.005, 2.5
 372231048, -4.147, 0.027, 0.003, 2.5, -3.938, 0.032, 0.004, 2.5
 372430968, -4.356, 0.015, 0.002, 2.5, -4.147, 0.027, 0.003, 2.5
 372630888, -4.562, 0.001, 0, 2.5, -4.356, 0.015, 0.002, 2.5
 372830808, -4.753, -0.006, -0.003, 2.5, -4.562, 0.001, 0, 2.5
 373030728, -4.941, -0.008, -0.003, 2.5, -4.753, -0.006, -0.003, 2.5
 373231481, -5.139, -0.011, -0.001, 2.5, -4.941, -0.008, -0.003, 2.5
 373431401, -5.335, -0.023, -0.001, 2.5, -5.139, -0.011, -0.001, 2.5
 373631321, -5.518, -0.031, -0.002, 2.5, -5.335, -0.023, -0.001, 2.5
 373831241, -5.688, -0.03, -0.002, 2.5, -5.518, -0.031, -0.002, 2.5
 374031161, -5.841, -0.019, -0.001, 2.5, -5.688, -0.03, -0.002, 2.5
 374231081, -5.986, 0, 0, 2.5, -5.841, -0.019, -0.001, 2.5
 374431001, -6.125, 0.013, 0.003, 2.5, -5.986, 0, 0, 2.5
 374630921, -6.263, 0.02, 0.005, 2.5, -6.125, 0.013, 0.003, 2.5
 374830841, -6.398, 0.027, 0.005, 2.5, -6.263, 0.02, 0.005, 2.5
