TimeUS,CAN,CAE,CAD,CAe,NAN,NAE,NAD,NAe,m10,m00,Gye
 196458885, 3.767106E-06, 4.344612E-05, 2.619172E-06, 6.484905E-06, 0, 0, 0, 0, -0.9999978, -0.00143704, 2.13869
 196631316, 0.2707882, 3.497247, 0.2041427, 0.5102589, -0.3833901, 3.376418, -0.06508736, 0.5102519, -0.9999978, -0.00143287, 117.7312
 196831236, -0.3834239, 3.3833, -0.06524517, 0.510778, 0.0001925928, 0.004111512, -7.113828E-05, 0.0005187925, -0.9999978, -0.001425967, 171.4195
 197031156, -0.0002787653, 0.01119072, -3.132519E-05, 0.00104407, -0.0005186528, 0.003932946, -0.0002450618, 0.0005187925, -0.9999978, -0.001420143, 0.3503954
 197231076, -0.000240157, 0.01145898, -0.0004443882, 0.00104407, 0.0001169148, 0.004261546, -0.0001656978, 0.0005187925, -0.9999978, -0.001414099, 0.3503954
 197430996, 0.0001397256, 0.01157434, -0.0004741881, 0.00104407, -7.732462E-06, 0.003887702, -0.0004954668, 0.0005187925, -0.9999978, -0.001408981, 0.3503954
 197630916, -5.674788E-05, 0.01100894, -0.0008881888, 0.00104407, 5.174597E-05, 0.003996457, -0.0001994694, 0.0005187925, -0.9999978, -0.001403784, 0.3503954
 197830836, 0.0004335058, 0.01157276, -0.0004691357, 0.00104407, 0.0001661968, 0.004325749, -0.0003334809, 0.0005187925, -0.9999978, -0.001396895, 0.3503954
 198030756, 0.0004157259, 0.01175782, -0.0008630578, 0.00104407, -1.652654E-05, 0.004381953, -0.0003587396, 0.0005187925, -0.9999978, -0.001390379, 0.3503954
 198230676, 0.0001041893, 0.01192172, -0.0003485798, 0.00104407, 0.0003569318, 0.004040944, -0.0003248369, 0.0005187925, -0.9999978, -0.001383547, 0.3503954
 198431429, 0.0002757219, 0.0113846, -0.0004976896, 0.001046232, 0.0001035922, 0.004129831, -0.000132667, 0.0005209541, -0.9999978, -0.001379105, 0.3511209
 198631349, -2.059266E-05, 0.01145372, -0.0002051613, 0.001046232, -0.0002274125, 0.004209571, -0.0001438281, 0.0005187925, -0.9999978, -0.001384923, 0.3511209
 198831269, 2.914513E-05, 0.01142986, -0.0001112672, 0.00104407, 0.0001897916, 0.004127259, -0.0005067978, 0.0005187925, -0.9999978, -0.001389582, 0.3503954
 199031189, 0.000299246, 0.01192296, -0.0006681341, 0.00104407, 0.0002374561, 0.004751091, -0.0002953873, 0.0005187925, -0.9999978, -0.001395147, 0.3503954
 199231109, 0.000128391, 0.01191733, -0.0004192117, 0.00104407, -0.0001382937, 0.004264584, -2.610235E-05, 0.0005187925, -0.9999978, -0.001398999, 0.3503954
 199431029, -0.0001948075, 0.01145424, -3.880261E-05, 0.00104407, 7.186874E-05, 0.00413475, 3.055663E-05, 0.0005187925, -0.9999978, -0.00140176, 0.3503954
 199630949, 3.063418E-05, 0.011253, 0.0001386994, 0.00104407, 0.0001548659, 0.003791053, 5.098806E-05, 0.0005187925, -0.9999978, -0.001403779, 0.3503954
 199830869, -7.11618E-05, 0.01144411, 1.810301E-05, 0.00104407, -0.0003766044, 0.004604634, -0.0001595205, 0.0005187925, -0.9999978, -0.00140527, 0.3503954
 200030789, -0.0003030378, 0.01184751, -0.000317157, 0.00104407, 0.0005360265, 0.003850401, -0.0002681398, 0.0005187925, -0.9999978, -0.001405813, 0.3503954
 200230709, 0.0007602085, 0.01102598, -5.013611E-05, 0.00104407, 0.0003072443, 0.004246646, 4.347016E-05, 0.0005187925, -0.9999978, -0.00140578, 0.3503954
 200431462, 0.0003247713, 0.01140794, -0.0004672144, 0.001046232, 0.0001498094, 0.003897415, -0.000404902, 0.0005209541, -0.9999978, -0.001407013, 0.3511209
 200631382, -2.956193E-05, 0.01145341, -0.0006656133, 0.001046232, -0.0001101064, 0.004231875, -0.0002718744, 0.0005187925, -0.9999978, -0.00140613, 0.3511209
 200831302, 2.339189E-05, 0.01129952, -0.0002860724, 0.00104407, -2.744049E-05, 0.004239212, -3.791485E-05, 0.0005187925, -0.9999978, -0.001403764, 0.3503954
 201031222, 4.787151E-05, 0.01151521, 4.428643E-05, 0.00104407, 0.0003804483, 0.003988042, -0.0002473318, 0.0005187925, -0.9999979, -0.001398232, 0.3503954
 201231142, 0.0002801414, 0.01096618, -0.0003737123, 0.00104407, -0.0001014415, 0.003901539, 0.0001437971, 0.0005187925, -0.9999979, -0.00139331, 0.3503954
 201431062, -0.0004242809, 0.01112869, 0.0001566641, 0.00104407, -0.0002311116, 0.003976319, 6.58249E-06, 0.0005187925, -0.9999979, -0.001388299, 0.3503954
 201630982, -4.677661E-05, 0.0109428, 4.346659E-05, 0.00104407, 0.000103528, 0.003769977, 0.0003801386, 0.0005187925, -0.9999979, -0.001382786, 0.3503954
 201830902, -0.0001377122, 0.01096072, 0.0002053904, 0.00104407, -0.0007016246, 0.004353487, 1.953059E-06, 0.0005187925, -0.9999979, -0.001376563, 0.3503954
 202030822, -0.0005993884, 0.01172401, -0.0002160376, 0.00104407, 0.0002166686, 0.003957053, -0.0001751234, 0.0005187925, -0.9999979, -0.001370503, 0.3503954
 202230742, 0.0003084766, 0.01131834, -0.0003545534, 0.00104407, 0.0002780475, 0.004249781, 0.0002765693, 0.0005187925, -0.9999979, -0.001363581, 0.3503954
 202430662, 0.0005217837, 0.01146048, -3.371675E-05, 0.00104407, 0.0002104297, 0.004098265, -0.0003642103, 0.0005187925, -0.9999979, -0.001357379, 0.3503954
 202631415, 0.0004205398, 0.011319, -0.0005600171, 0.001046232, 0.000305228, 0.003833144, -0.0002019222, 0.0005209541, -0.9999979, -0.001352824, 0.3511209
 202831335, 0.0004958264, 0.01108957, -0.000395673, 0.001046232, -0.0001080797, 0.003813016, 3.617389E-05, 0.0005187925, -0.9999979, -0.001346439, 0.3511209
 203031255, -9.493293E-05, 0.01128456, -2.725699E-05, 0.00104407, 0.0004501411, 0.004693598, 0.0002098495, 0.0005187925, -0.9999978, -0.001338956, 0.3503954
 203231175, 0.0003415783, 0.01199252, -0.00015351, 0.00104407, 5.179775E-05, 0.004318689, -0.0005483961, 0.0005187925, -0.9999978, -0.001331763, 0.3503954
 203431095, 0.0001564345, 0.01141006, -0.0005781531, 0.00104407, 0.0002686385, 0.004123859, 0.0001696623, 0.0005187925, -0.9999978, -0.001322836, 0.3503954
 203631015, 0.0004303468, 0.01162107, 0.0003200847, 0.00104407, 0.0004305172, 0.004210549, 2.561379E-05, 0.0005187925, -0.9999978, -0.001315597, 0.3503954
 203830935, 0.0004616735, 0.01177534, -1.65742E-05, 0.00104407, -0.0002121887, 0.004331297, -5.168039E-05, 0.0005187925, -0.9999978, -0.001322496, 0.3503954
 204030855, 9.389073E-05, 0.01174488, -0.0003033449, 0.00104407, 0.0001585579, 0.004288862, -0.0003156638, 0.0005187925, -0.9999978, -0.001329283, 0.3503954
 204230775, 0.0002667398, 0.0116106, -0.0005106277, 0.00104407, 0.0004298908, 0.004101602, -0.0002573223, 0.0005187925, -0.9999978, -0.001334533, 0.3503954
 204430695, 0.0005910139, 0.01134223, -0.0005941781, 0.00104407, -0.0001395818, 0.004243896, -0.0002170362, 0.0005187925, -0.9999978, -0.001338868, 0.3503954
 204631448, -0.0001134102, 0.01153857, -3.844191E-05, 0.001046232, -1.015939E-05, 0.004492376, -0.0003148929, 0.0005209541, -0.9999979, -0.001344857, 0.3511209
 204831368, 0.0001454994, 0.01143024, -0.0001707217, 0.001046232, -9.967092E-05, 0.003904133, 0.0001323039, 0.0005187925, -0.9999978, -0.001346593, 0.3511209
 205031288, -0.0002061059, 0.01129028, -0.0003141314, 0.00104407, 1.539463E-05, 0.004400531, -0.0002650249, 0.0005187925, -0.9999978, -0.001347742, 0.3503954
 205231208, -7.112166E-05, 0.01165712, -0.0003875374, 0.00104407, 0.0002181764, 0.004176996, -0.0002516097, 0.0005187925, -0.9999978, -0.001348836, 0.3503954
 205431128, 0.0002996259, 0.01131022, -0.0002050307, 0.00104407, -0.0001752659, 0.003596672, 0.0002992827, 0.0005187925, -0.9999978, -0.001350239, 0.3503954
 205631048, 7.857273E-05, 0.01106423, -2.449371E-05, 0.00104407, 1.913332E-05, 0.00389372, 0.0002990575, 0.0005187925, -0.9999978, -0.001350295, 0.3503954
 205830968, -6.685394E-05, 0.01122606, 0.0001730406, 0.00104407, -0.000152927, 0.004426036, 0.0001697135, 0.0005187925, -0.9999978, -0.001348388, 0.3503954
 206030888, 6.48386E-06, 0.01160021, -0.0001446646, 0.00104407, -0.0001842697, 0.003977406, -0.0002030776, 0.0005187925, -0.9999978, -0.001346634, 0.3503954
 206230808, 6.760348E-05, 0.01111661, -0.0002149794, 0.00104407, 5.669926E-05, 0.004211195, 6.193781E-05, 0.0005187925, -0.9999978, -0.001344863, 0.3503954
 206430728, 0.0002157385, 0.01135264, 0.0001564401, 0.00104407, 0.0003191665, 0.0041101, -0.0001420049, 0.0005187925, -0.9999979, -0.00134299, 0.3503954
 206631481, 0.0004907052, 0.01138232, -0.0001245226, 0.001046232, -6.529663E-07, 0.00437266, 7.455947E-06, 0.0005209541, -0.9999978, -0.001342186, 0.3511209
 206831401, -8.552512E-05, 0.01188066, 8.831664E-05, 0.001046232, -5.797717E-05, 0.004160238, -1.239638E-05, 0.0005187925, -0.9999979, -0.001340664, 0.3511209
 207031321, -0.0001844388, 0.0112078, -0.00033697, 0.00104407, -0.0001201376, 0.004477202, -0.0004660304, 0.0005187925, -0.9999979, -0.001338081, 0.3503954
 207231241, 4.123988E-05, 0.01174583, -0.0004956493, 0.00104407, -9.242488E-05, 0.00384242, -3.733321E-06, 0.0005187925, -0.9999979, -0.001333343, 0.3503954
 207431161, -0.0001819715, 0.01090142, 3.126205E-05, 0.00104407, -0.0002810762, 0.004179652, 0.0001034764, 0.0005187925, -0.9999979, -0.001328447, 0.3503954
 207631081, -0.0001142651, 0.01139282, -7.65053E-05, 0.00104407, 0.0002362249, 0.004462563, 0.0001337494, 0.0005187925, -0.9999979, -0.001323577, 0.3503954
 207831001, 0.000131521, 0.01151879, 0.0001772803, 0.00104407, -1.413742E-05, 0.003712189, 0.0006057413, 0.0005187925, -0.9999979, -0.001318768, 0.3503954
 208030921, -0.000185147, 0.01136621, 0.0004715977, 0.00104407, -0.0001748734, 0.004353684, 0.0004413353, 0.0005187925, -0.9999979, -0.001313385, 0.3503954
 208230841, -1.050274E-05, 0.01164584, 0.0003338956, 0.00104407, 0.0002126285, 0.004018109, -0.0002657923, 0.0005187925, -0.9999979, -0.001307436, 0.3503954
 208430761, -3.175423E-05, 0.0112955, -0.0003115075, 0.00104407, -0.0002268022, 0.004471406, -0.0002248258, 0.0005187925, -0.9999979, -0.001302493, 0.3503954
 208630681, -0.000161119, 0.01190871, -0.0004493645, 0.00104407, -3.760045E-05, 0.004208446, -0.0001123956, 0.0005187925, -0.9999978, -0.001296298, 0.3503954
 208831434, 4.691078E-05, 0.01201019, -0.0001148622, 0.001046232, 0.0002325129, 0.004457328, -4.445045E-05, 0.0005209541, -0.9999979, -0.001292282, 0.3511209
 209031354, 0.0005226361, 0.01184555, 7.555127E-05, 0.001046232, 0.0005782829, 0.004158032, 0.0007087816, 0.0005187925, -0.9999979, -0.001300963, 0.3511209
 209231274, 0.0006549148, 0.01145905, 0.0007659661, 0.00104407, 0.0001214478, 0.003986858, 0.0005094934, 0.0005187925, -0.9999979, -0.00130736, 0.3503954
 209431194, 6.638982E-05, 0.01140178, 0.0003324074, 0.00104407, -0.0003778666, 0.003722957, -0.000303476, 0.0005187925, -0.9999979, -0.001313012, 0.3503954
 209631114, -0.0006298709, 0.01103405, -0.0002310638, 0.00104407, 1.503589E-05, 0.004257195, 2.612499E-05, 0.0005187925, -0.9999979, -0.001317868, 0.3503954
 209831034, -0.0001121486, 0.01159954, 1.138232E-05, 0.00104407, 0.0001331955, 0.004796493, 2.001439E-05, 0.0005187925, -0.9999979, -0.001321343, 0.3503954
 210030954, 0.0002533183, 0.01213335, 0.0001516176, 0.00104407, 2.808951E-05, 0.004246698, -0.0002202655, 0.0005187925, -0.9999979, -0.00132509, 0.3503954
 210230874, -0.0001616238, 0.01159794, -8.67592E-05, 0.00104407, -0.0003043831, 0.004164228, 0.0002420613, 0.0005187925, -0.9999979, -0.001327733, 0.3503954
 210430794, -0.0002119999, 0.01150343, 0.0001257763, 0.00104407, 0.0001878316, 0.004380622, -4.94187E-05, 0.0005187925, -0.9999979, -0.001328918, 0.3503954
 210630714, 0.0001081528, 0.01115356, -6.913636E-05, 0.00104407, 0.0004010914, 0.003875213, -0.0001463614, 0.0005187925, -0.9999979, -0.001327298, 0.3503954
 210831467, 0.000284963, 0.01135885, -2.45509E-05, 0.001046232, 0.0001127503, 0.003764944, 7.394017E-05, 0.0005209541, -0.9999979, -0.001327837, 0.3511209
 211031387, 0.0001503828, 0.01118107, 8.91988E-05, 0.001046232, 3.886606E-06, 0.004263822, -0.0003975719, 0.0005187925, -0.9999979, -0.001327742, 0.3511209
 211231307, 5.898182E-05, 0.01126306, -0.0007132549, 0.00104407, -6.723308E-05, 0.003742499, -1.346528E-06, 0.0005187925, -0.9999979, -0.001326744, 0.3503954
 211431227, -0.0002901498, 0.01109424, -0.0003101359, 0.00104407, 0.0003255769, 0.004329458, 0.0001802319, 0.0005187925, -0.9999979, -0.001324061, 0.3503954
 211631147, 0.0002378704, 0.01149147, -0.0001335456, 0.00104407, -0.0004243274, 0.0040577, -0.0001964188, 0.0005187925, -0.9999979, -0.001322356, 0.3503954
 211831067, -0.0008231308, 0.01129525, -0.0002097232, 0.00104407, -0.000101265, 0.004310945, -0.0004224184, 0.0005187925, -0.9999979, -0.001319979, 0.3503954
 212030987, 1.559062E-05, 0.01175991, -0.0004121515, 0.00104407, 0.0002302712, 0.004444322, 5.811273E-05, 0.0005187925, -0.9999979, -0.00131637, 0.3503954
 212230907, 0.0002382582, 0.011531, 0.0001753832, 0.00104407, 6.074424E-05, 0.004018348, 0.0002920031, 0.0005187925, -0.9999979, -0.001313097, 0.3503954
 212430827, 0.0001969717, 0.01110798, 0.0001499959, 0.00104407, 0.0003190881, 0.004050394, -0.0003114074, 0.0005187925, -0.9999979, -0.001308454, 0.3503954
 212630747, 0.0003776552, 0.01118164, -0.0002503026, 0.00104407, 0.0001147148, 0.003733013, 0.0001252114, 0.0005187925, -0.9999979, -0.001303985, 0.3503954
 212830667, -0.0001980695, 0.01071616, -6.651006E-05, 0.00104407, -0.0003139434, 0.004182183, -0.000163914, 0.0005187925, -0.9999979, -0.001299126, 0.3503954
 213031420, -0.0002851948, 0.0113916, -0.0006205468, 0.001046232, -0.0005166411, 0.003702658, -0.0001847394, 0.0005209541, -0.9999979, -0.001295708, 0.3511209
 213231340, -0.0004598525, 0.01124914, 3.984562E-05, 0.001046232, 0.0002286676, 0.004088079, 0.0004835578, 0.0005187925, -0.9999979, -0.001290823, 0.3511209
 213431260, 0.0002528933, 0.01138551, 0.0005230551, 0.00104407, -0.0001843499, 0.004322127, -0.0001592619, 0.0005187925, -0.9999979, -0.001283487, 0.3503954
 213631180, -0.0001539842, 0.01145262, -0.0003649634, 0.00104407, -4.248962E-05, 0.003948062, -0.0005170791, 0.0005187925, -0.9999979, -0.00127802, 0.3503954
 213831100, -0.0001243558, 0.01119389, -0.0007286911, 0.00104407, -8.711925E-05, 0.003805488, -0.0003285417, 0.0005187925, -0.9999979, -0.001272241, 0.3503954
 214031020, 0.0002398063, 0.01140811, -0.0004023323, 0.00104407, 3.310417E-05, 0.004447519, 7.26993E-05, 0.0005187925, -0.9999979, -0.00126628, 0.3503954
 214230940, 0.0002050106, 0.01195514, 7.468571E-05, 0.00104407, -7.130118E-05, 0.003903743, 2.907545E-06, 0.0005187925, -0.9999979, -0.001275765, 0.3503954
 214430860, 0.0003922253, 0.01115383, -3.982413E-06, 0.00104407, -6.729802E-05, 0.004140456, 6.325102E-06, 0.0005187925, -0.9999979, -0.00128439, 0.3503954
 214630780, 0.0001781391, 0.01169887, -0.0003113979, 0.00104407, -8.348525E-05, 0.004248855, -0.0003350562, 0.0005187925, -0.9999979, -0.001291763, 0.3503954
 214830700, 4.173561E-05, 0.01191023, -0.0003923729, 0.00104407, 7.868042E-05, 0.004641948, -6.991927E-05, 0.0005187925, -0.9999979, -0.001298574, 0.3503954
 215031453, 0.0001159482, 0.0120458, -0.0006385742, 0.001046232, 0.0001922404, 0.004573137, -0.0003640228, 0.0005209541, -0.9999979, -0.001303929, 0.3511209
 215231373, 6.290392E-05, 0.01221874, -0.0005562639, 0.001046232, -5.199343E-06, 0.004388936, 8.819156E-06, 0.0005187925, -0.9999979, -0.001307997, 0.3511209
 215431293, 0.0001459696, 0.01150527, 5.903385E-05, 0.00104407, 6.778722E-05, 0.003892733, 0.0003562431, 0.0005187925, -0.9999979, -0.001310147, 0.3503954
 215631213, 9.047964E-05, 0.01117643, 0.0002702465, 0.00104407, -0.0001521027, 0.003718026, -0.0002388082, 0.0005187925, -0.9999979, -0.001311777, 0.3503954
 215831133, 0.0002319062, 0.0106926, -0.0001957824, 0.00104407, 0.0003307209, 0.004202756, -1.139661E-05, 0.0005187925, -0.9999979, -0.001313105, 0.3503954
 216031053, 0.0005039921, 0.01131071, -8.614075E-05, 0.00104407, 0.0001619488, 0.004340516, -9.673421E-05, 0.0005187925, -0.9999979, -0.001313379, 0.3503954
 216230973, 0.0003390696, 0.01159768, -0.0002307278, 0.00104407, 0.0002443334, 0.003626735, 2.176129E-05, 0.0005187925, -0.9999979, -0.001313599, 0.3503954
 216430893, 0.0007153292, 0.01083498, -0.0003015969, 0.00104407, 0.0003048901, 0.004294931, -0.0002478061, 0.0005187925, -0.9999979, -0.001312963, 0.3503954
 216630813, 9.823438E-05, 0.0114483, -0.0002903027, 0.00104407, 0.0002385263, 0.004286882, 0.0004953083, 0.0005187925, -0.9999979, -0.001312383, 0.3503954
 216830733, -4.863581E-05, 0.01149462, 4.415531E-05, 0.00104407, -0.0003325694, 0.003685311, -0.00030773, 0.0005187925, -0.9999979, -0.001310057, 0.3503954
 217031486, -0.0001948232, 0.01079009, -0.0009242313, 0.001046232, -0.0001124908, 0.003815742, -0.0002809497, 0.0005187925, -0.9999979, -0.001306277, 0.3511209
 217231406, 0.0001218527, 0.01101967, -0.0001301475, 0.001046232, -6.57802E-05, 0.004166398, 0.0001127694, 0.0005209541, -0.9999979, -0.001304731, 0.3511209
 217431326, -1.227601E-05, 0.01130537, 1.470053E-05, 0.001046232, 0.0003247179, 0.004174174, -0.0001005581, 0.0005187925, -0.9999979, -0.001301434, 0.3511209
 217631246, -0.0001260647, 0.01124651, -0.0003085725, 0.00104407, -0.000346734, 0.004237555, -0.0003445987, 0.0005187925, -0.9999979, -0.001296027, 0.3503954
 217831166, -0.0006868036, 0.01179693, -0.0003805224, 0.00104407, -0.0001950515, 0.004252614, 1.794335E-05, 0.0005187925, -0.9999979, -0.001293669, 0.3503954
 218031086, -0.0001129747, 0.01155185, -0.0003105507, 0.00104407, -0.0001169821, 0.004105642, -0.0001580321, 0.0005187925, -0.9999979, -0.001290754, 0.3503954
 218231006, -0.0001689325, 0.01123422, -0.0003718545, 0.00104407, -0.0001475941, 0.003996837, -0.0001042878, 0.0005187925, -0.9999979, -0.001287271, 0.3503954
 218430926, 0.0001004847, 0.01142244, -0.000158044, 0.00104407, -5.363957E-05, 0.004405155, -0.0001310337, 0.0005187925, -0.9999979, -0.001284023, 0.3503954
 218630846, -9.137689E-05, 0.01162151, -0.0005191037, 0.00104407, 0.0001033686, 0.004278852, 0.0004018201, 0.0005187925, -0.9999978, -0.001280204, 0.3503954
 218830766, 0.0001711815, 0.01174986, 6.826888E-05, 0.00104407, -0.0002440857, 0.004369495, -0.0003917044, 0.0005187925, -0.9999978, -0.001276379, 0.3503954
 219030686, -0.0004046847, 0.01181111, -0.000373294, 0.00104407, -5.155686E-05, 0.004251729, -0.0002352822, 0.0005187925, -0.9999978, -0.001273209, 0.3503954
 219231439, 0.0002385315, 0.01198771, -0.000551393, 0.001046232, 0.0001599935, 0.004230273, -0.0002926081, 0.0005209541, -0.9999978, -0.001269673, 0.3511209
 219431359, 0.0004277895, 0.01146327, -0.00028923, 0.001046232, 0.0004932331, 0.00449559, -0.0001003746, 0.0005187925, -0.9999978, -0.00127954, 0.3511209
 219631279, 0.0005677768, 0.01160749, -0.0004472171, 0.00104407, 3.71762E-05, 0.004072689, -0.0001995218, 0.0005187925, -0.9999978, -0.001287651, 0.3503954
 219831199, 0.0001230645, 0.01147932, -0.0004170525, 0.00104407, 0.0001239642, 0.004237304, 5.286365E-05, 0.0005187925, -0.9999978, -0.001295848, 0.3503954
 220031119, 0.0001584144, 0.01161622, -0.0001792155, 0.00104407, -1.025023E-05, 0.004500284, 9.418416E-05, 0.0005187925, -0.9999978, -0.001303726, 0.3503954
 220231039, 7.386952E-05, 0.01153119, -0.0002241298, 0.00104407, -0.0001169805, 0.003857425, 5.07974E-05, 0.0005187925, -0.9999978, -0.001311888, 0.3503954
 220430959, -0.0002460968, 0.01115752, 0.0001217569, 0.00104407, -0.0001158597, 0.004249854, 3.85893E-05, 0.0005187925, -0.9999978, -0.00131933, 0.3503954
 220630879, -0.0003308992, 0.01176682, -5.823667E-05, 0.00104407, -0.0002723878, 0.004212569, -8.501108E-05, 0.0005187925, -0.9999978, -0.001324652, 0.3503954
 220830799, -0.0003901584, 0.01170095, 0.0001295894, 0.00104407, -0.0004769833, 0.004971168, 0.0001539723, 0.0005187925, -0.9999978, -0.001329562, 0.3503954
 221030719, -0.0004099868, 0.01240489, -0.0001289495, 0.00104407, 0.000445976, 0.004026928, 0.0002108636, 0.0005187925, -0.9999978, -0.001333399, 0.3503954
 221231472, 0.0006540471, 0.01115698, -9.269816E-05, 0.001046232, 0.0002812774, 0.003801476, -6.891711E-05, 0.0005209541, -0.9999978, -0.001334458, 0.3511209
 221431392, 0.0001813596, 0.01128871, -0.0003688886, 0.001046232, 0.0001657123, 0.004456481, 0.0004574733, 0.0005187925, -0.9999978, -0.001338174, 0.3511209
 221631312, 0.000534166, 0.01166346, 0.0004727963, 0.00104407, 0.0004467356, 0.00411613, -0.000167907, 0.0005187925, -0.9999978, -0.001341112, 0.3503954
 221831232, 0.000266166, 0.01138039, -0.0006017445, 0.00104407, -0.0004909026, 0.004324502, -0.0001576889, 0.0005187925, -0.9999978, -0.001341328, 0.3503954
 222031152, -0.0003658257, 0.01183775, -0.0003012298, 0.00104407, -0.0001189284, 0.004106191, 0.0001813115, 0.0005187925, -0.9999978, -0.001341526, 0.3503954
 222231072, -0.0001017617, 0.0115328, -3.661952E-05, 0.00104407, 0.0002316767, 0.004177837, 0.000238446, 0.0005187925, -0.9999978, -0.001341384, 0.3503954
 222430992, 0.0001963068, 0.01161363, -0.0001798065, 0.00104407, 0.0001064242, 0.004287723, -0.0004018153, 0.0005187925, -0.9999978, -0.001341628, 0.3503954
 222630912, -0.0002520808, 0.01133422, -0.0007147397, 0.00104407, -0.0002163996, 0.004144546, -0.0007034324, 0.0005187925, -0.9999978, -0.001343242, 0.3503954
 222830832, 6.444188E-05, 0.01155004, -0.0007191536, 0.00104407, -0.0002392334, 0.004872104, -0.0001450078, 0.0005187925, -0.9999978, -0.001343805, 0.3503954
 223030752, -0.0002769111, 0.01195891, -0.0005157255, 0.00104407, -0.0002870364, 0.003945984, -0.0002512618, 0.0005187925, -0.9999978, -0.001342979, 0.3503954
 223230672, -0.0006363165, 0.01106554, -0.0003303933, 0.00104407, -1.836708E-05, 0.00424507, -0.0001749519, 0.0005187925, -0.9999978, -0.001341401, 0.3503954
 223431425, 8.766716E-06, 0.01149403, -0.0003749396, 0.001046232, -6.34873E-07, 0.004094245, -0.0005222579, 0.0005209541, -0.9999978, -0.001339354, 0.3511209
 223631345, -5.892247E-05, 0.01148508, -0.0008506064, 0.001046232, -0.0003526994, 0.004371303, -0.0001855036, 0.0005187925, -0.9999978, -0.001336851, 0.3511209
 223831265, -0.0005844939, 0.01168563, -0.0002850894, 0.00104407, -0.0001729177, 0.00440225, 6.444737E-05, 0.0005187925, -0.9999978, -0.001333122, 0.3503954
 224031185, -0.0005552433, 0.01199017, 5.386339E-05, 0.00104407, -0.0005563692, 0.004589227, -0.0001842108, 0.0005187925, -0.9999978, -0.001330275, 0.3503954
 224231105, -0.000549685, 0.01201324, -0.0004304737, 0.00104407, -9.704463E-05, 0.004082154, -0.0003406163, 0.0005187925, -0.9999978, -0.001327267, 0.3503954
 224431025, 4.688568E-05, 0.0113179, -0.0005397545, 0.00104407, -0.0003089371, 0.00449151, 0.0001007225, 0.0005187925, -0.9999978, -0.001323938, 0.3503954
 224630945, -0.0005121556, 0.01173995, -0.0002015715, 0.00104407, -0.0002835236, 0.004284317, -8.745747E-05, 0.0005187925, -0.9999977, -0.001336416, 0.3503954
 224830865, -2.30275E-05, 0.01171994, -7.297578E-05, 0.00104407, -1.193061E-05, 0.003887581, -0.0001054127, 0.0005187925, -0.9999977, -0.001347814, 0.3503954
 225030785, -0.0001354671, 0.01123995, -2.330565E-05, 0.00104407, -0.0004814402, 0.004212356, 0.0001670753, 0.0005187925, -0.9999977, -0.001360224, 0.3503954
 225230705, -0.0001135709, 0.01138828, 0.0001096537, 0.00104407, 0.0002762221, 0.004647952, -8.242528E-05, 0.0005187925, -0.9999977, -0.001369747, 0.3503954
 225431458, 0.0002127786, 0.01197548, -0.0004122404, 0.001046232, 0.0001511007, 0.004384568, 4.038393E-06, 0.0005209541, -0.9999977, -0.001378862, 0.3511209
 225631378, -0.0001706081, 0.01171248, -0.0004189223, 0.001046232, -0.0001368727, 0.003929405, -0.0003513409, 0.0005187925, -0.9999977, -0.001386656, 0.3511209
 225831298, 0.0001387548, 0.01176383, -0.0004343643, 0.00104407, 0.0001224602, 0.004355661, -0.0001222002, 0.0005187925, -0.9999977, -0.001392376, 0.3503954
 226031218, 0.0002291618, 0.0116294, -0.0001678213, 0.00104407, -0.0002029606, 0.004173376, 6.540063E-05, 0.0005187925, -0.9999977, -0.001396942, 0.3503954
 226231138, -8.559671E-05, 0.01136584, -0.0001734493, 0.00104407, -0.0001354993, 0.004224623, 9.267197E-06, 0.0005187925, -0.9999977, -0.001402247, 0.3503954
 226431058, -0.0002219806, 0.01157149, -0.0005103072, 0.00104407, 3.661471E-05, 0.004192882, -0.0003471082, 0.0005187925, -0.9999977, -0.00140743, 0.3503954
 226630978, -2.145881E-05, 0.01176776, -0.0004523113, 0.00104407, 0.0001235933, 0.004447694, -0.0002797104, 0.0005187925, -0.9999977, -0.001411174, 0.3503954
 226830898, -0.0001230871, 0.01177816, -0.0006858669, 0.00104407, -0.0002245231, 0.004072392, -0.0002011734, 0.0005187925, -0.9999977, -0.001414768, 0.3503954
 227030818, -0.0002745637, 0.01145952, -0.0003498167, 0.00104407, 0.0002627593, 0.004099865, -0.0002341514, 0.0005187925, -0.9999977, -0.001417887, 0.3503954
 227230738, 0.0003727332, 0.01173661, -0.0004259288, 0.00104407, 0.0002506287, 0.004070411, -0.0003996072, 0.0005187925, -0.9999977, -0.00141954, 0.3503954
 227430658, 0.000315758, 0.01152293, -0.0006051956, 0.00104407, -0.0003769927, 0.004428428, -7.745861E-05, 0.0005187925, -0.9999977, -0.001423127, 0.3503954
 227631411, -0.0004752337, 0.0120517, 8.19542E-05, 0.001046232, -1.903128E-05, 0.004353752, 0.0001086841, 0.0005209541, -0.9999977, -0.00142442, 0.3511209
 227831331, 0.0001757073, 0.01214776, -0.0004257104, 0.001046232, 0.0001864475, 0.004393836, -0.000352486, 0.0005187925, -0.9999977, -0.001424753, 0.3511209
 228031251, 0.0003592301, 0.01149258, -0.0006424548, 0.00104407, -0.0001630423, 0.00444838, -3.032425E-05, 0.0005187925, -0.9999977, -0.001423832, 0.3503954
 228231171, -0.0001476999, 0.01199851, -0.0001065865, 0.00104407, 0.0003413939, 0.00450365, -0.0005751788, 0.0005187925, -0.9999977, -0.00142296, 0.3503954
 228431091, 0.0006506155, 0.01181171, -0.0006180267, 0.00104407, 0.0005436896, 0.004383083, -0.0003168507, 0.0005187925, -0.9999977, -0.001421258, 0.3503954
 228631011, 0.0007936519, 0.0117396, -0.0002791813, 0.00104407, 0.0001190663, 0.003966582, -2.900751E-05, 0.0005187925, -0.9999977, -0.001420702, 0.3503954
 228830931, 0.0003421058, 0.01154344, -4.713914E-05, 0.00104407, 0.0001851178, 0.004742335, 0.0002549355, 0.0005187925, -0.9999976, -0.001418866, 0.3503954
 229030851, 0.0001523176, 0.0122127, 0.0002378727, 0.00104407, -0.0002216923, 0.004365748, -0.0003485417, 0.0005187925, -0.9999976, -0.001416828, 0.3503954
 229230771, -0.0004817094, 0.0117153, -0.0006315518, 0.00104407, -7.46311E-05, 0.004014537, -0.0001996159, 0.0005187925, -0.9999976, -0.001414639, 0.3503954
 229430691, 0.0002495218, 0.0115559, -0.0004095037, 0.00104407, -0.0001344953, 0.004344335, 0.0003421463, 0.0005187925, -0.9999976, -0.001412929, 0.3503954
 229631444, 9.565285E-05, 0.01161434, 0.0003778607, 0.001046232, -3.978219E-05, 0.00437131, 8.045592E-05, 0.0005209541, -0.9999976, -0.001413095, 0.3511209
 229831364, 0.0001031935, 0.01208174, -1.86663E-05, 0.001046232, 0.0001560087, 0.004814153, -0.0001224981, 0.0005187925, -0.9999976, -0.001425641, 0.3511209
 230031284, -0.0001415622, 0.01217013, -0.000726284, 0.00104407, -3.340006E-05, 0.004231673, -0.0003464337, 0.0005187925, -0.9999976, -0.001436096, 0.3503954
 230231204, -8.953986E-05, 0.01150233, -0.0005690966, 0.00104407, -0.000158367, 0.004498275, 6.912207E-05, 0.0005187925, -0.9999976, -0.001447175, 0.3503954
 230431124, -0.0001984997, 0.01188248, 9.416985E-05, 0.00104407, -0.0001832571, 0.003971788, 0.0002685057, 0.0005187925, -0.9999976, -0.001455971, 0.3503954
 230631044, 2.908251E-06, 0.01141915, 0.0001965415, 0.00104407, 0.0001092478, 0.004724619, -0.0001028627, 0.0005187925, -0.9999976, -0.001464005, 0.3503954
 230830964, 0.0001695882, 0.01232864, -0.0001859076, 0.00104407, -0.0003001779, 0.004615849, -0.0001979155, 0.0005187925, -0.9999976, -0.00147051, 0.3503954
 231030884, -0.0004129961, 0.01187524, -0.0003838505, 0.00104407, 9.740604E-05, 0.004312253, 0.0001111682, 0.0005187925, -0.9999976, -0.001476398, 0.3503954
 231230804, -0.0001255693, 0.01186962, -0.0002793565, 0.00104407, -0.0004273488, 0.004314928, -0.0001273409, 0.0005187925, -0.9999976, -0.001481498, 0.3503954
 231430724, -0.0007085194, 0.01159244, -0.0004234122, 0.00104407, 3.634904E-05, 0.004220858, -6.364425E-06, 0.0005187925, -0.9999976, -0.001483998, 0.3503954
 231631477, -1.923178E-05, 0.01159107, -0.0005100864, 0.001046232, -8.166915E-05, 0.003978821, -0.0001658948, 0.0005209541, -0.9999976, -0.001487122, 0.3511209
 231831397, -0.0002501845, 0.01123946, -0.0001369303, 0.001046232, -0.000166195, 0.004403957, 0.0001405046, 0.0005187925, -0.9999976, -0.001491181, 0.3511209
 232031317, -0.0003459998, 0.01157479, 9.643506E-05, 0.00104407, -0.0001274418, 0.004075113, 5.344517E-05, 0.0005187925, -0.9999976, -0.001492861, 0.3503954
 232231237, -0.0003436447, 0.01127307, -1.932445E-05, 0.00104407, -0.0002352355, 0.004028743, -0.0002052701, 0.0005187925, -0.9999976, -0.001491833, 0.3503954
 232431157, -2.52467E-06, 0.01125556, -0.0003221903, 0.00104407, 0.0001082229, 0.004036568, -0.0002248424, 0.0005187925, -0.9999976, -0.001491404, 0.3503954
 232631077, 3.120549E-05, 0.01111186, -0.0004176947, 0.00104407, -0.0001741898, 0.004323175, 0.0001751604, 0.0005187925, -0.9999976, -0.001491333, 0.3503954
 232830997, -6.582994E-05, 0.01189133, 0.0003071986, 0.00104407, -3.046003E-05, 0.004366052, -0.0001021394, 0.0005187925, -0.9999976, -0.001491123, 0.3503954
 233030917, 0.0001241744, 0.01215848, -0.0003209594, 0.00104407, -0.0001106286, 0.004575536, 2.902181E-05, 0.0005187925, -0.9999976, -0.001490014, 0.3503954
 233230837, -0.0003889019, 0.01172823, -0.0003222082, 0.00104407, -0.0005604453, 0.004196349, 0.0003680711, 0.0005187925, -0.9999976, -0.001488005, 0.3503954
 233430757, -0.0008386771, 0.01140709, 0.0004326734, 0.00104407, -0.0003026052, 0.004072908, 0.0001815677, 0.0005187925, -0.9999976, -0.001485976, 0.3503954
 233630677, -0.0005514509, 0.01145907, 6.921739E-05, 0.00104407, -0.0001282351, 0.004211803, 0.0002481159, 0.0005187925, -0.9999976, -0.001482677, 0.3503954
 233831430, -0.0003256488, 0.01152696, -0.0001191171, 0.001046232, -0.0001059501, 0.004150855, -3.290687E-05, 0.0005209541, -0.9999976, -0.001482356, 0.3511209
 234031350, 0.0001265124, 0.01164729, -0.0001759973, 0.001046232, -0.0003493182, 0.003993553, -0.0001710434, 0.0005187925, -0.9999976, -0.001478845, 0.3511209
 234231270, -0.0001164853, 0.01139635, -0.0004460457, 0.00104407, 0.000430906, 0.004075232, -0.0004481358, 0.0005187925, -0.9999976, -0.001474599, 0.3503954
 234431190, 0.0006305884, 0.01134186, -0.0003291506, 0.00104407, -0.0001609648, 0.004002195, -0.0003319664, 0.0005187925, -0.9999976, -0.001471024, 0.3503954
 234631110, -0.0001695642, 0.01165787, -0.0006445858, 0.00104407, 8.720929E-05, 0.004388264, 0.0001009239, 0.0005187925, -0.9999976, -0.001468301, 0.3503954
 234831030, 4.818166E-05, 0.01214007, -0.0001067736, 0.00104407, 0.0001554623, 0.004381729, -0.0002429538, 0.0005187925, -0.9999976, -0.001464291, 0.3503954
 235030950, 7.254689E-05, 0.01160567, -0.0005341264, 0.00104407, -9.7262E-05, 0.004071217, -0.000528384, 0.0005187925, -0.9999976, -0.001474975, 0.3503954
 235230870, -9.407736E-05, 0.01131891, -0.000887146, 0.00104407, 0.0001110559, 0.004153913, -7.004795E-05, 0.0005187925, -0.9999976, -0.001485215, 0.3503954
 235430790, 0.000207094, 0.01147031, -0.0001581608, 0.00104407, 0.0002932984, 0.004601312, -0.0001175613, 0.0005187925, -0.9999976, -0.001493614, 0.3503954
 235630710, 0.0003565542, 0.01197374, -0.0003279721, 0.00104407, 0.0001546425, 0.004478442, 0.0002100247, 0.0005187925, -0.9999976, -0.001502539, 0.3503954
 235831463, -7.296864E-05, 0.01167758, 0.0002491244, 0.001046232, -0.0002157718, 0.003765952, -2.456001E-05, 0.0005209541, -0.9999976, -0.001511247, 0.3511209
 236031383, -0.0007494256, 0.01112932, -0.0001948443, 0.001046232, -0.0007407289, 0.004499206, -5.991088E-05, 0.0005187925, -0.9999974, -0.001517607, 0.3511209
 236231303, -0.0008025675, 0.01168537, -9.972515E-05, 0.00104407, -6.9537E-05, 0.004217977, 0.0001157762, 0.0005187925, -0.9999974, -0.001522992, 0.3503954
 236431223, 0.000259035, 0.0113933, -0.0001798268, 0.00104407, 0.0003468686, 0.004518816, -0.0005036996, 0.0005187925, -0.9999974, -0.00152623, 0.3503954
 236631143, 0.0003493385, 0.01139545, -0.0007817046, 0.00104407, -0.0001898095, 0.00415572, -0.0004187816, 0.0005187925, -0.9999974, -0.00153093, 0.3503954
 236831063, -0.0002856855, 0.01132647, -0.0003029565, 0.00104407, -0.0005245088, 0.00415761, 0.0002060674, 0.0005187925, -0.9999974, -0.001534293, 0.3503954
 237030983, -0.0003068229, 0.0116234, 0.0001758682, 0.00104407, 0.0002391038, 0.004503883, -0.0002676214, 0.0005187925, -0.9999974, -0.001537756, 0.3503954
 237230903, 6.102792E-05, 0.01216632, -0.0004119988, 0.00104407, 0.0005181552, 0.004151786, -0.0002994055, 0.0005187925, -0.9999974, -0.001540082, 0.3503954
 237430823, 2.749938E-05, 0.01160034, -0.000520436, 0.00104407, -0.0002242523, 0.004438764, -0.0001655977, 0.0005187925, -0.9999974, -0.001542217, 0.3503954
 237630743, -0.0002313743, 0.01159214, -6.377294E-05, 0.00104407, -0.0001743574, 0.003665381, -0.0001534706, 0.0005187925, -0.9999974, -0.001543229, 0.3503954
 237830663, -0.000221501, 0.01086066, -9.619318E-05, 0.00104407, 0.0003275223, 0.004359011, -0.0001197657, 0.0005187925, -0.9999974, -0.001544295, 0.3503954
 238031416, 0.0004729756, 0.01206009, -0.0004427425, 0.001046232, 4.169034E-05, 0.004449865, -0.0002260174, 0.0005209541, -0.9999974, -0.001546444, 0.3511209
 238231336, -8.953991E-05, 0.01175557, -0.000397989, 0.001046232, -4.974724E-05, 0.004116085, -0.000196787, 0.0005187925, -0.9999974, -0.001547259, 0.3511209
 238431256, 8.241584E-05, 0.0115293, -0.0002830565, 0.00104407, 0.0001536801, 0.00434016, -0.0001737328, 0.0005187925, -0.9999974, -0.001544931, 0.3503954
 238631176, 0.0001204251, 0.01179557, -6.817001E-05, 0.00104407, -1.185868E-05, 0.004238986, -0.000108026, 0.0005187925, -0.9999974, -0.001544237, 0.3503954
 238831096, -0.0002506045, 0.01138881, -0.0002477311, 0.00104407, -0.0002007811, 0.004280894, -0.0001339043, 0.0005187925, -0.9999974, -0.001541967, 0.3503954
 239031016, -0.0001727179, 0.01131703, -0.0001707991, 0.00104407, -0.0004806395, 0.003838606, -0.0001910161, 0.0005187925, -0.9999974, -0.001539948, 0.3503954
 239230936, -0.00048167, 0.01115697, -0.0005036545, 0.00104407, -0.00049319, 0.00424959, -0.0003617663, 0.0005187925, -0.9999974, -0.001537677, 0.3503954
 239430856, -0.0003222867, 0.01157389, -0.0005021231, 0.00104407, 5.521296E-05, 0.004134399, 0.0002818363, 0.0005187925, -0.9999974, -0.001535115, 0.3503954
 239630776, -5.661194E-05, 0.01165742, 0.0001205438, 0.00104407, -4.431435E-05, 0.004283193, -1.036945E-05, 0.0005187925, -0.9999974, -0.001532516, 0.3503954
 239830696, 0.000210297, 0.0118063, -1.62489E-05, 0.00104407, 0.0002971237, 0.004187821, 0.0001265151, 0.0005187925, -0.9999974, -0.001530154, 0.3503954
 240031449, 0.0004101103, 0.01162507, 0.0003974937, 0.001046232, -1.702155E-05, 0.004197638, -1.974906E-06, 0.0005209541, -0.9999974, -0.001530259, 0.3511209
 240231369, -0.0004451, 0.01175881, -0.0001209232, 0.001046232, -0.0002397637, 0.004482652, -0.0001215949, 0.0005187925, -0.9999974, -0.001539739, 0.3511209
 240431289, -0.0001997944, 0.01187465, 0.0001068427, 0.00104407, -6.379638E-05, 0.003978999, -1.86333E-05, 0.0005187925, -0.9999974, -0.001547011, 0.3503954
 240631209, -0.000523637, 0.01138669, -0.0002538428, 0.00104407, -0.0001426205, 0.004381709, -0.0003792866, 0.0005187925, -0.9999974, -0.001554267, 0.3503954
 240831129, -0.0003173998, 0.01184883, -0.0007170038, 0.00104407, -0.0004113205, 0.004247516, -0.0003288038, 0.0005187925, -0.9999974, -0.001561789, 0.3503954
 241031049, -0.0002264443, 0.01115889, -0.0004477152, 0.00104407, -9.207687E-05, 0.003696102, -9.552232E-05, 0.0005187925, -0.9999974, -0.001567652, 0.3503954
 241230969, -0.0005442378, 0.01115472, -0.0001255534, 0.00104407, -0.0002829306, 0.004352241, 0.0001143487, 0.0005187925, -0.9999974, -0.001572746, 0.3503954
 241430889, -0.0003503896, 0.01171251, 0.0001035359, 0.00104407, -0.0001551169, 0.004260487, -0.0003602482, 0.0005187925, -0.9999974, -0.001577594, 0.3503954
 241630809, -0.0002443558, 0.01156423, -0.0005140323, 0.00104407, -0.0002509581, 0.004240498, 3.355233E-05, 0.0005187925, -0.9999973, -0.00158174, 0.3503954
 241830729, -9.271205E-05, 0.0114502, -0.0003003325, 0.00104407, 0.0003345851, 0.003646775, -0.0001587936, 0.0005187925, -0.9999974, -0.001584686, 0.3503954
 242031482, 0.0003474917, 0.01133188, -0.0001039077, 0.001046232, -1.656664E-05, 0.004282294, -3.422598E-05, 0.0005209541, -0.9999973, -0.001589129, 0.3511209
 242231402, -3.08415E-05, 0.01153077, -5.996133E-05, 0.001046232, -0.0001886315, 0.004749654, 7.602749E-05, 0.0005187925, -0.9999973, -0.001592679, 0.3511209
 242431322, -0.0002915275, 0.01206249, -0.0003476969, 0.00104407, 7.984736E-06, 0.004462239, -0.0002487272, 0.0005187925, -0.9999973, -0.001594796, 0.3503954
 242631242, 8.733805E-06, 0.01185844, -0.0005065798, 0.00104407, 0.0001923814, 0.003770034, 2.65504E-05, 0.0005187925, -0.9999973, -0.001593177, 0.3503954
 242831162, 1.712751E-05, 0.01094035, -0.0003395128, 0.00104407, -0.0002412491, 0.004186659, 4.15731E-05, 0.0005187925, -0.9999973, -0.001593693, 0.3503954
 243031082, -0.0002897631, 0.0117688, -0.0001506369, 0.00104407, 0.0003249979, 0.004109136, 0.0004304117, 0.0005187925, -0.9999973, -0.001593244, 0.3503954
 243231002, 5.876065E-05, 0.01147013, 0.0004458837, 0.00104407, -0.0002298007, 0.004370382, -7.540666E-05, 0.0005187925, -0.9999973, -0.001593751, 0.3503954
 243430922, -0.0001177769, 0.01162686, -0.000263029, 0.00104407, 0.0004883107, 0.004030606, -3.96403E-05, 0.0005187925, -0.9999973, -0.001593043, 0.3503954
 243630842, 0.0006102354, 0.01171409, -2.67768E-05, 0.00104407, -0.0001367628, 0.004442564, -0.0001247527, 0.0005187925, -0.9999973, -0.001591872, 0.3503954
 243830762, -0.0003087129, 0.01209396, -0.0003079338, 0.00104407, -0.0003449461, 0.004486046, 8.041859E-05, 0.0005187925, -0.9999973, -0.001590122, 0.3503954
 244030682, -0.0005270441, 0.0116773, 0.0001129474, 0.00104407, 8.058139E-05, 0.004526122, -0.0001800556, 0.0005187925, -0.9999973, -0.001587299, 0.3503954
 244231435, -0.0004615333, 0.01205786, -0.0004207144, 0.001046232, -0.0001420089, 0.004509466, 0.0001381453, 0.0005209541, -0.9999973, -0.001587942, 0.3511209
 244431355, -6.938206E-05, 0.01197457, -0.0001540926, 0.001046232, 0.0001882659, 0.004459377, -0.0001754142, 0.0005187925, -0.9999973, -0.00158478, 0.3511209
 244631275, 9.133574E-05, 0.01197932, -0.0004948151, 0.00104407, 0.0002915997, 0.004351518, 7.377056E-05, 0.0005187925, -0.9999973, -0.00157847, 0.3503954
 244831195, 0.0002143159, 0.01167661, -0.0002248448, 0.00104407, -0.0002583593, 0.004245045, 7.945701E-06, 0.0005187925, -0.9999973, -0.001574001, 0.3503954
 245031115, -0.0003591403, 0.01174471, -0.0002021028, 0.00104407, 0.0002550068, 0.004473924, -8.860498E-05, 0.0005187925, -0.9999973, -0.001567394, 0.3503954
 245231035, 0.000535142, 0.01206746, -0.0001383657, 0.00104407, -0.0003296165, 0.004429453, -3.245485E-05, 0.0005187925, -0.9999973, -0.001562544, 0.3503954
 245430955, -0.000443054, 0.01183614, -0.0001523946, 0.00104407, -0.000301481, 0.004432111, -0.000560019, 0.0005187925, -0.9999973, -0.001572022, 0.3503954
 245630875, -0.0007318677, 0.01187229, -0.0006302395, 0.00104407, -0.0002490288, 0.00414913, 0.0002460938, 0.0005187925, -0.9999974, -0.001579734, 0.3503954
 245830795, -0.0003656791, 0.01097142, 0.0001327806, 0.00104407, 0.0001940414, 0.003996488, -0.0004913045, 0.0005187925, -0.9999974, -0.00158671, 0.3503954
 246030715, 0.0006571891, 0.01115324, -0.0006342508, 0.00104407, 0.0004618384, 0.003922162, -0.0003673693, 0.0005187925, -0.9999974, -0.001591508, 0.3503954
 246231468, 0.0005624533, 0.01115528, -0.0005527795, 0.001046232, -0.0004976217, 0.004042528, -0.0002401615, 0.0005209541, -0.9999974, -0.001597185, 0.3511209
 246431388, -0.0005669926, 0.01163605, -0.0009920008, 0.001046232, -1.814607E-05, 0.004038601, -0.0001159931, 0.0005187925, -0.9999973, -0.001602447, 0.3511209
 246631308, 0.0001145369, 0.01154643, -0.0002825964, 0.00104407, 7.166057E-05, 0.004675324, -0.0001714306, 0.0005187925, -0.9999974, -0.001605879, 0.3503954
 246831228, 8.665457E-05, 0.01154009, -0.0003154303, 0.00104407, -0.0001870318, 0.003820714, -0.0006603162, 0.0005187925, -0.9999974, -0.001606586, 0.3503954
 247031148, -0.000251465, 0.01133621, -0.0006086167, 0.00104407, -4.78482E-05, 0.004393251, 0.0004400638, 0.0005187925, -0.9999974, -0.001608144, 0.3503954
 247231068, -0.000287996, 0.01186824, 0.0005018157, 0.00104407, 3.332122E-05, 0.004313141, 3.971181E-05, 0.0005187925, -0.9999974, -0.001609294, 0.3503954
 247430988, -0.0001352985, 0.01175436, 2.919222E-05, 0.00104407, -4.16346E-05, 0.004246789, 0.0002663202, 0.0005187925, -0.9999974, -0.001608612, 0.3503954
 247630908, -0.000167504, 0.01161552, -0.00104509, 0.00104407, -5.825358E-06, 0.004328181, 7.482514E-05, 0.0005187925, -0.9999974, -0.001608566, 0.3503954
 247830828, 0.0006883343, 0.0121604, -0.2950318, 0.00104407, 0.0004663437, 0.004688717, -0.1450641, 0.0005187925, -0.9999974, -0.001607191, 0.3503954
 248030748, 0.0002914131, 0.01196019, -0.1155355, 0.00104407, -0.0003921578, 0.004022956, 0.06687615, 0.0005187925, -0.9999973, -0.00160509, 0.3503954
 248230668, -0.0007972536, 0.01112375, 0.08600049, 0.00104407, -0.0001255148, 0.004399714, -0.04007146, 0.0005187925, -0.9999979, -0.001608145, 0.3503954
 248431421, -0.004104375, 0.00736494, -1.347924, 0.001046232, -0.00487055, -0.000657697, -0.7572898, 0.0005209541, -0.9999928, -0.001721307, 0.3511209
 248631341, -0.01910098, -0.008649376, -1.327514, 0.001046232, -0.009570152, -0.006264917, -0.1344436, 0.0005187925, -0.9999753, -0.001896369, 0.3511209
 248831261, -0.02690838, -0.01729508, -0.2551237, 0.00104407, -0.01010039, -0.006171273, -0.08188854, 0.0005187925, -0.9999695, -0.002056245, 0.3503954
 249031181, -0.02597101, -0.01536416, -0.3106358, 0.00104407, -0.008716966, -0.004780322, -0.1471228, 0.0005187925, -0.9999706, -0.002210474, 0.3503954
 249231101, -0.02269736, -0.01094907, -0.3845614, 0.00104407, -0.007468018, -0.0030853, -0.1251595, 0.0005187925, -0.999973, -0.002362313, 0.3503954
 249431021, -0.0194273, -0.006482953, -0.3128177, 0.00104407, -0.006546685, -0.001492411, -0.1005388, 0.0005187925, -0.9999756, -0.002508622, 0.3503954
 249630941, -0.01654878, -0.002389633, -0.2627981, 0.00104407, -0.00540503, -0.0002850326, -0.08987173, 0.0005187925, -0.9999777, -0.002652673, 0.3503954
 249830861, -0.0136424, 0.0005337776, -0.2353562, 0.00104407, -0.004206133, 0.0007205881, -0.07998905, 0.0005187925, -0.9999797, -0.002786172, 0.3503954
 250030781, -0.01109585, 0.003247108, -0.2075552, 0.00104407, -0.003716481, 0.001766833, -0.06939189, 0.0005187925, -0.9999812, -0.00291137, 0.3503954
 250230701, -0.009329513, 0.005673339, -0.1809519, 0.00104407, -0.003206491, 0.002433625, -0.06092115, 0.0005187925, -0.9999821, -0.003014937, 0.3503954
 250431454, -0.007787818, 0.007012406, -0.1592879, 0.001046232, -0.002319551, 0.002672175, -0.05370329, 0.0005209541, -0.9999823, -0.00310938, 0.3511209
 250631374, -0.005680631, 0.008029084, -0.1398287, 0.001046232, -0.001917037, 0.002971131, -0.04730417, 0.0005187925, -0.9999823, -0.00320513, 0.3511209
 250831294, -0.004729583, 0.008601184, -0.1220556, 0.00104407, -0.001629745, 0.003270439, -0.04067926, 0.0005187925, -0.9999816, -0.003360203, 0.3503954
 251031214, -0.003984717, 0.008933103, -0.1060781, 0.00104407, -0.001200114, 0.003249178, -0.03583948, 0.0005187925, -0.9999794, -0.003809143, 0.3503954
 251231134, -0.003407057, 0.008375153, -0.09413468, 0.00104407, -0.001276036, 0.002728695, -0.03216164, 0.0005187925, -0.9999753, -0.004348386, 0.3503954
 251431054, -0.003352869, 0.007452045, -0.08337684, 0.00104407, -0.0009839402, 0.002628709, -0.02839209, 0.0005187925, -0.9999709, -0.004853888, 0.3503954
 251630974, -0.00292152, 0.006677435, -0.07344717, 0.00104407, -0.001250525, 0.002380317, -0.02488447, 0.0005187925, -0.9999664, -0.005331975, 0.3503954
 251830894, -0.0008269161, 0.008492279, 0.2712146, 0.00104407, 0.001342761, 0.00436923, 0.3404122, 0.0005187925, -0.9999607, -0.005842251, 0.3503954
 252030814, 0.002968648, 0.01154497, 0.8840531, 0.00104407, 0.0007568538, 0.004007434, 0.2971675, 0.0005187925, -0.9999548, -0.006520656, 0.3503954
 252230734, 0.002318628, 0.01075021, 0.7724277, 0.00104407, 0.0008326411, 0.003968756, 0.2601258, 0.0005187925, -0.9999492, -0.007158043, 0.3503954
 252430654, 0.002106653, 0.01078723, 0.6770918, 0.00104407, 0.0008759558, 0.003945024, 0.2283851, 0.0005187925, -0.9999468, -0.007575313, 0.3503954
 252631407, 0.002384255, 0.01121975, 0.5965159, 0.001046232, 0.001070781, 0.004281122, 0.201373, 0.0005209541, -0.9999471, -0.007886008, 0.3511209
 252831327, 0.002496774, 0.01212062, 0.5227888, 0.001046232, 0.00041469, 0.004651772, 0.1761533, 0.0005187925, -0.9999472, -0.008182479, 0.3511209
 253031247, 0.001594654, 0.01316275, 0.4580172, 0.00104407, 0.000642047, 0.004829976, 0.1542744, 0.0005187925, -0.9999453, -0.00856322, 0.3503954
 253231167, 0.001861151, 0.01347354, 0.3965986, 0.00104407, 0.000873398, 0.005154653, 0.1347494, 0.0005187925, -0.9999431, -0.009077137, 0.3503954
 253431087, -0.002042023, 0.01772188, 0.349911, 0.00104407, -0.004805378, 0.009141613, 0.1152169, 0.0005187925, -0.9999513, -0.009812995, 0.3503954
 253631007, -0.04961363, 0.03086874, 0.2921073, 0.00104407, -0.04077026, 0.01407194, 0.09407883, 0.0005187925, -0.9999391, -0.01042226, 0.3503954
 253830927, -0.1775485, 0.04017308, 0.2347886, 0.00104407, -0.10093, 0.01520191, 0.07346786, 0.0005187925, -0.9999381, -0.01028457, 0.3503954
 254030847, -0.3447818, 0.03782536, 0.1846528, 0.00104407, -0.1608949, 0.01117781, 0.05887209, 0.0005187925, -0.9999589, -0.008952563, 0.3503954
 254230767, -0.4989671, 0.02492925, 0.1460358, 0.00104407, -0.2112105, 0.005835931, 0.04486852, 0.0005187925, -0.9999744, -0.006244595, 0.3503954
 254430687, -0.6288888, 0.006527393, 0.1104404, 0.00104407, -0.2547795, -0.003064195, 0.03459634, 0.0005187925, -0.9999403, -0.001763188, 0.3503954
 254631440, -0.7469834, -0.02112596, 0.08352762, 0.001046232, -0.2969, -0.01482722, 0.0248282, 0.0005209541, -0.9997606, 0.005256948, 0.3511209
 254831360, -0.8525179, -0.05908295, 0.06082281, 0.001046232, -0.3298072, -0.03110177, 0.0182023, 0.0005187925, -0.9992855, 0.01514412, 0.3511209
 255031280, -0.9060569, -0.1049173, 0.03681696, 0.00104407, -0.324863, -0.0480513, 0.006763409, 0.0005187925, -0.9985112, 0.02685839, 0.3503954
 255231200, -0.8322827, -0.144989, 0.008909632, 0.00104407, -0.2701128, -0.05911844, -0.002298561, 0.0005187925, -0.9975439, 0.04026147, 0.3503954
 255431120, -0.6687827, -0.1698828, -0.008529537, 0.00104407, -0.2089703, -0.06593962, -0.004660886, 0.0005187925, -0.9962886, 0.05707289, 0.3503954
 255631040, -0.5252098, -0.1878121, -0.00947057, 0.00104407, -0.1692897, -0.07195103, -0.002031391, 0.0005187925, -0.9944459, 0.07858605, 0.3503954
 255830960, -0.4352287, -0.2043646, -0.00332991, 0.00104407, -0.1447725, -0.07785938, -0.001344602, 0.0005187925, -0.9918007, 0.1043704, 0.3503954
 256030880, -0.3575002, -0.217121, -0.006979019, 0.00104407, -0.1062541, -0.08020653, -0.005049078, 0.0005187925, -0.9882823, 0.1330697, 0.3503954
 256230800, -0.2329387, -0.2172555, -0.01482347, 0.00104407, -0.0551233, -0.07777241, -0.005431733, 0.0005187925, -0.983586, 0.1640685, 0.3503954
 256430720, -0.1145548, -0.2131513, -0.01258354, 0.00104407, -0.02593217, -0.07810772, -0.003760205, 0.0005187925, -0.9774672, 0.196583, 0.3503954
 256631473, -0.05990531, -0.2195385, -0.009534909, 0.001046232, -0.01706622, -0.0825835, -0.00362117, 0.0005209541, -0.9702546, 0.229057, 0.3511209
 256831393, -0.03962954, -0.227494, -0.01092154, 0.001046232, -0.009915393, -0.08385824, -0.004551447, 0.0005187925, -0.9622431, 0.2605822, 0.3511209
 257031313, -0.01370747, -0.2302916, -0.01221478, 0.00104407, 0.002089715, -0.08442836, -0.005046804, 0.0005187925, -0.9529538, 0.2922803, 0.3503954
 257231233, 0.02287084, -0.2336809, -0.01427821, 0.00104407, 0.01652239, -0.08635072, -0.006676039, 0.0005187925, -0.9421707, 0.3243884, 0.3503954
 257431153, 0.06020851, -0.239655, -0.01480985, 0.00104407, 0.02899491, -0.08869178, -0.003200092, 0.0005187925, -0.9302379, 0.3560855, 0.3503954
 257631073, 0.08908527, -0.2457806, -0.007779618, 0.00104407, 0.03697675, -0.09091385, -0.002600235, 0.0005187925, -0.917263, 0.38734, 0.3503954
 257830993, 0.1079409, -0.2509432, -0.00501986, 0.00104407, 0.04253465, -0.0923539, -0.001837676, 0.0005187925, -0.9032888, 0.4182146, 0.3503954
 258030913, 0.1229744, -0.2528403, -0.005051782, 0.00104407, 0.04845545, -0.09176338, -0.001878777, 0.0005187925, -0.8882368, 0.4488437, 0.3503954
 258230833, 0.1397353, -0.2494161, -0.003581574, 0.00104407, 0.05461337, -0.08970077, -0.0007465701, 0.0005187925, -0.8720381, 0.4791791, 0.3503954
 258430753, 0.1560488, -0.2452694, -0.00216196, 0.00104407, 0.05995361, -0.08912424, -0.001062495, 0.0005187925, -0.8544714, 0.5093361, 0.3503954
 258630673, 0.1686386, -0.2420812, -0.002898048, 0.00104407, 0.06310911, -0.08704823, -0.001474351, 0.0005187925, -0.8362148, 0.5386501, 0.3503954
 258831426, 0.17785, -0.234375, -0.0003246423, 0.001046232, 0.06682771, -0.08266263, 0.000903328, 0.0005209541, -0.8169689, 0.5674416, 0.3511209
 259031346, 0.186765, -0.2225157, 0.006743346, 0.001046232, 0.06948741, -0.07923771, 0.003546811, 0.0005187925, -0.7967447, 0.5954671, 0.3511209
 259231266, 0.1928528, -0.2136317, 0.01148259, 0.00104407, 0.07160273, -0.07558278, 0.005943796, 0.0005187925, -0.7759315, 0.6224335, 0.3503954
 259431186, 0.1974435, -0.2032259, 0.01785005, 0.00104407, 0.07259963, -0.07216004, 0.007655466, 0.0005187925, -0.7541917, 0.6486524, 0.3503954
 259631106, 0.2016449, -0.1949212, 0.02102587, 0.00104407, 0.07455789, -0.06940801, 0.008199725, 0.0005187925, -0.7314389, 0.674189, 0.3503954
 259831026, 0.2070017, -0.1865196, 0.02404225, 0.00104407, 0.07641786, -0.06610366, 0.00930417, 0.0005187925, -0.7079269, 0.6988638, 0.3503954
 260030946, 0.2113652, -0.1798887, 0.02267843, 0.00104407, 0.07825536, -0.06522771, 0.006212698, 0.0005187925, -0.6834978, 0.722644, 0.3503954
 260230866, 0.2166716, -0.176209, 0.01827214, 0.00104407, 0.07973254, -0.06254522, 0.007432032, 0.0005187925, -0.6587123, 0.7452416, 0.3503954
 260430786, 0.2203516, -0.1686778, 0.01741261, 0.00104407, 0.08106033, -0.06006721, 0.00398652, 0.0005187925, -0.6333784, 0.7669121, 0.3503954
 260630706, 0.2243022, -0.1593232, 0.01087403, 0.00104407, 0.08209819, -0.05537705, 0.003247039, 0.0005187925, -0.6075535, 0.7876824, 0.3503954
 260831459, 0.2269297, -0.1477657, 0.008281172, 0.001046232, 0.08361543, -0.05142957, 0.002587324, 0.0005209541, -0.5807235, 0.8077698, 0.3511209
 261031379, 0.2301826, -0.1384127, 0.005586222, 0.001046232, 0.08434433, -0.04952364, 0.0007188114, 0.0005187925, -0.5530984, 0.8269336, 0.3511209
 261231299, 0.2318898, -0.132953, 0.001313072, 0.00104407, 0.08465067, -0.0470858, -0.0001410409, 0.0005187925, -0.5250483, 0.8451318, 0.3503954
 261431219, 0.2325267, -0.124799, -0.001013386, 0.00104407, 0.08484171, -0.04286516, -0.0002687547, 0.0005187925, -0.4961723, 0.8625888, 0.3503954
 261631139, 0.2343585, -0.1127262, 0.001860341, 0.00104407, 0.08614485, -0.0395471, -0.0007217869, 0.0005187925, -0.466298, 0.8791956, 0.3503954
 261831059, 0.2390846, -0.1047126, 0.0004412019, 0.00104407, 0.08847628, -0.03627788, 0.00150016, 0.0005187925, -0.4356813, 0.8946965, 0.3503954
 262030979, 0.2444824, -0.0963488, 0.004885503, 0.00104407, 0.08968852, -0.03401122, 0.00131889, 0.0005187925, -0.4052011, 0.9089401, 0.3503954
 262230899, 0.2459435, -0.08988465, 0.003024461, 0.00104407, 0.08966217, -0.03091917, 0.0006428113, 0.0005187925, -0.374895, 0.9219651, 0.3503954
 262430819, 0.246574, -0.08108249, 0.0006125002, 0.00104407, 0.09027123, -0.02757219, -0.0004273981, 0.0005187925, -0.3440473, 0.9339519, 0.3503954
 262630739, 0.250108, -0.07132147, 0.0002331541, 0.00104407, 0.09242085, -0.02426483, -0.0002668172, 0.0005187925, -0.312605, 0.9448943, 0.3503954
 262830659, 0.2554686, -0.06169084, 0.001699259, 0.00104407, 0.09405725, -0.02041059, 0.001047184, 0.0005187925, -0.2806472, 0.9548087, 0.3503954
 263031412, 0.2600774, -0.05382188, 0.001460974, 0.001046232, 0.09559, -0.01824024, -0.0003452588, 0.0005209541, -0.2480697, 0.9637688, 0.3511209
 263231332, 0.2620447, -0.04686991, -0.0007503888, 0.001046232, 0.09546595, -0.01551084, 0.0003612134, 0.0005187925, -0.2154225, 0.971628, 0.3511209
 263431252, 0.2624, -0.03759634, 0.0006964948, 0.00104407, 0.09593799, -0.01125792, 0.0004489521, 0.0005187925, -0.1825844, 0.9783733, 0.3503954
 263631172, 0.2644311, -0.0227339, 0.0004600638, 0.00104407, 0.09729016, -0.003630463, 0.0006397894, 0.0005187925, -0.1495658, 0.9839573, 0.3503954
 263831092, 0.2674967, -0.004066416, 0.002550828, 0.00104407, 0.09786879, 0.0009782756, 0.001796422, 0.0005187925, -0.1162068, 0.9884015, 0.3503954
 264031012, 0.2692502, 0.004537574, 0.004255142, 0.00104407, 0.0983982, 0.002612484, 0.001034261, 0.0005187925, -0.08279424, 0.9917258, 0.3503954
 264230932, 0.2699641, 0.009964894, 0.002704174, 0.00104407, 0.09859554, 0.005269215, 0.001135542, 0.0005187925, -0.04965411, 0.9939198, 0.3503954
 264430852, 0.2706524, 0.0188897, 0.003249734, 0.00104407, 0.09868534, 0.00835347, 0.0006968416, 0.0005187925, -0.01642375, 0.9949383, 0.3503954
 264630772, 0.2716247, 0.02600206, 0.001329796, 0.00104407, 0.0991144, 0.01112495, 0.0008099223, 0.0005187925, 0.01657477, 0.9948886, 0.3503954
 264830692, 0.2706218, 0.03407354, 0.0009756203, 0.00104407, 0.09806725, 0.01420809, -6.873481E-05, 0.0005187925, 0.04927836, 0.9938604, 0.3503954
 265031445, 0.2674718, 0.04328237, 0.0001926823, 0.001046232, 0.09681964, 0.01835709, 0.0001185876, 0.0005209541, 0.08221761, 0.9917381, 0.3511209
 265231365, 0.263562, 0.05258457, 0.001803505, 0.001046232, 0.09551558, 0.01996404, 0.0003200371, 0.0005187925, 0.1152581, 0.9884663, 0.3511209
 265431285, 0.2608232, 0.05703171, 0.001262182, 0.00104407, 0.09458473, 0.02206536, 0.000405221, 0.0005187925, 0.1479835, 0.9841567, 0.3503954
 265631205, 0.2577364, 0.06501964, -5.98911E-06, 0.00104407, 0.09343525, 0.026036, 5.429836E-05, 0.0005187925, 0.1804704, 0.9787106, 0.3503954
 265831125, 0.2561369, 0.07689929, -0.0008578718, 0.00104407, 0.09322094, 0.03036994, -0.0006627101, 0.0005187925, 0.2129299, 0.9720717, 0.3503954
 266031045, 0.2553471, 0.08734781, -0.001001, 0.00104407, 0.09289081, 0.03320015, -0.0006694713, 0.0005187925, 0.244931, 0.9644569, 0.3503954
 266230965, 0.254088, 0.09307929, -0.001093988, 0.00104407, 0.0921646, 0.03498345, -0.0005524129, 0.0005187925, 0.2765807, 0.9558396, 0.3503954
 266430885, 0.2518766, 0.09949029, -0.0009978724, 0.00104407, 0.09173208, 0.03849494, -0.000554957, 0.0005187925, 0.30803, 0.9461081, 0.3503954
 266630805, 0.249574, 0.1085307, -0.0001483097, 0.00104407, 0.09023439, 0.04114044, 0.0002507708, 0.0005187925, 0.3388754, 0.9355119, 0.3503954
 266830725, 0.2445891, 0.1157895, 0.001261265, 0.00104407, 0.08756848, 0.04380994, 0.001187785, 0.0005187925, 0.3692988, 0.9239928, 0.3503954
 267031478, 0.2375566, 0.124293, 0.002662095, 0.001046232, 0.08547189, 0.04787616, 0.001270354, 0.0005209541, 0.3993893, 0.9114439, 0.3511209
 267231398, 0.2320646, 0.1334424, 0.002747368, 0.001046232, 0.08390078, 0.04977503, 0.001066109, 0.0005187925, 0.4288415, 0.8978882, 0.3511209
 267431318, 0.2297526, 0.1389003, 0.002530299, 0.00104407, 0.08336706, 0.05192624, 0.001437936, 0.0005187925, 0.4576237, 0.8835132, 0.3503954
 267631238, 0.2255335, 0.1457043, 0.005630884, 0.00104407, 0.08050694, 0.0548006, 0.003325385, 0.0005187925, 0.4860542, 0.8682305, 0.3503954
 267831158, 0.2177216, 0.1531945, 0.007643662, 0.00104407, 0.07809418, 0.05725852, 0.001508589, 0.0005187925, 0.5143389, 0.8518665, 0.3503954
 268031078, 0.2113755, 0.1590661, 0.004728755, 0.00104407, 0.07576665, 0.05903307, 0.001894924, 0.0005187925, 0.5422951, 0.8344283, 0.3503954
 268230998, 0.2059387, 0.1640532, 0.004088846, 0.00104407, 0.07396146, 0.06137487, 0.001212915, 0.0005187925, 0.5697672, 0.8159049, 0.3503954
 268430918, 0.2031064, 0.1718192, 0.001676376, 0.00104407, 0.07380329, 0.0643442, 0.0003504364, 0.0005187925, 0.5965074, 0.7964434, 0.3503954
 268630838, 0.2002587, 0.1812817, 0.00145015, 0.00104407, 0.07192001, 0.0685813, 8.956186E-05, 0.0005187925, 0.6223423, 0.7762411, 0.3503954
 268830758, 0.1955776, 0.1920519, 0.0005665335, 0.00104407, 0.07030061, 0.0719729, -0.0004970147, 0.0005187925, 0.6471598, 0.7555491, 0.3503954
 269030678, 0.188089, 0.2011026, -0.002161248, 0.00104407, 0.06617188, 0.07484393, -0.001012441, 0.0005187925, 0.6711028, 0.7343975, 0.3503954
 269231431, 0.1780341, 0.2086188, -0.001459996, 0.001046232, 0.06312387, 0.07750309, 0.0003061139, 0.0005209541, 0.6948791, 0.7119831, 0.3511209
 269431351, 0.1694711, 0.2134452, 0.0008255501, 0.001046232, 0.06057402, 0.07867117, 0.0001891512, 0.0005187925, 0.717959, 0.6887408, 0.3511209
 269631271, 0.1629297, 0.2172396, 0.00097343, 0.00104407, 0.05805109, 0.0801494, 0.0004892513, 0.0005187925, 0.7403921, 0.664566, 0.3503954
 269831191, 0.1572545, 0.221135, 0.0005664062, 0.00104407, 0.05644685, 0.08131438, 4.15469E-05, 0.0005187925, 0.76204, 0.6396121, 0.3503954
 270031111, 0.1534942, 0.2241101, -0.0009799553, 0.00104407, 0.05509988, 0.0825345, -0.0007165902, 0.0005187925, 0.7827423, 0.6140918, 0.3503954
 270231031, 0.1479092, 0.2278768, -0.002572027, 0.00104407, 0.05240342, 0.08372588, -0.001675919, 0.0005187925, 0.8025527, 0.5879607, 0.3503954
 270430951, 0.1400442, 0.2337319, -0.004340701, 0.00104407, 0.04927471, 0.08770736, -0.001348465, 0.0005187925, 0.8215491, 0.5609322, 0.3503954
 270630871, 0.1287509, 0.2433283, 0.001028899, 0.00104407, 0.04426933, 0.09005429, 0.002157579, 0.0005187925, 0.8394673, 0.5336766, 0.3503954
 270830791, 0.1166281, 0.248922, 0.009679453, 0.00104407, 0.04047325, 0.09176771, 0.005217135, 0.0005187925, 0.8564597, 0.5059468, 0.3503954
 271030711, 0.1063228, 0.2520188, 0.01710002, 0.00104407, 0.03697843, 0.09194257, 0.00656888, 0.0005187925, 0.872561, 0.4777771, 0.3503954
 271231464, 0.09687955, 0.2519438, 0.02240599, 0.001046232, 0.03356349, 0.09118642, 0.009162115, 0.0005209541, 0.8878577, 0.4490374, 0.3511209
 271431384, 0.09164849, 0.249448, 0.02414105, 0.001046232, 0.03330506, 0.09084188, 0.008073704, 0.0005187925, 0.9023195, 0.4191646, 0.3511209
 271631304, 0.08942271, 0.251568, 0.02248822, 0.00104407, 0.03155312, 0.09293872, 0.007785877, 0.0005187925, 0.9156947, 0.3889646, 0.3503954
 271831224, 0.08161762, 0.2563344, 0.02110405, 0.00104407, 0.0271899, 0.09413356, 0.008376063, 0.0005187925, 0.927985, 0.3586256, 0.3503954
 272031144, 0.07047957, 0.2597948, 0.02211285, 0.00104407, 0.02397329, 0.09531364, 0.00736582, 0.0005187925, 0.9392385, 0.3280258, 0.3503954
 272231064, 0.06345005, 0.2621754, 0.01817563, 0.00104407, 0.02190351, 0.09604661, 0.005650671, 0.0005187925, 0.9494613, 0.2970176, 0.3503954
 272430984, 0.05650117, 0.2636072, 0.01824715, 0.00104407, 0.0189243, 0.09620495, 0.007367309, 0.0005187925, 0.9586437, 0.2661223, 0.3503954
 272630904, 0.04912513, 0.2621584, 0.01804063, 0.00104407, 0.01685495, 0.09472481, 0.005818093, 0.0005187925, 0.9669301, 0.2347977, 0.3503954
 272830824, 0.04306298, 0.2612474, 0.01233157, 0.00104407, 0.01421327, 0.09604561, 0.002216317, 0.0005187925, 0.9741524, 0.2024359, 0.3503954
 273030744, 0.03266942, 0.2677839, 0.008693676, 0.00104407, 0.008774982, 0.09991837, 0.003259613, 0.0005187925, 0.9801742, 0.1696507, 0.3503954
 273230664, 0.01895299, 0.2756052, 0.0128502, 0.00104407, 0.00458412, 0.1011393, 0.005096775, 0.0005187925, 0.9851152, 0.1373749, 0.3503954
 273431417, 0.01055317, 0.2779047, 0.01274719, 0.001046232, 0.003019602, 0.1013264, 0.003126256, 0.0005209541, 0.9890532, 0.1051878, 0.3511209
 273631337, 0.006382437, 0.2764989, 0.008746971, 0.001046232, 0.001187772, 0.1004571, 0.002871943, 0.0005187925, 0.9919864, 0.07295819, 0.3511209
 273831257, -0.00100034, 0.2747639, 0.005958776, 0.00104407, -0.003216624, 0.09955062, 0.00224967, 0.0005187925, 0.993915, 0.04028195, 0.3503954
 274031177, -0.01444086, 0.2724546, 0.004568674, 0.00104407, -0.008300429, 0.09909949, 0.001374632, 0.0005187925, 0.9947464, 0.007069082, 0.3503954
 274231097, -0.02684721, 0.2732407, 0.003448343, 0.00104407, -0.01170785, 0.1009137, 0.0006769702, 0.0005187925, 0.9942231, -0.0267599, 0.3503954
 274431017, -0.03582713, 0.2791662, 0.002196284, 0.00104407, -0.01490495, 0.1029948, 0.0008575953, 0.0005187925, 0.9925135, -0.06016548, 0.3503954
