TimeUS,CAN,CAE,CAD,CAe,NAN,NAE,NAD,NAe,m10,m00,Gye
 170748340, 2.47906E-06, 4.928912E-05, 1.659921E-06, 6.484905E-06, 0, 0, 0, 0, -0.9999976, -0.00144493, 1.8588
 170830807, 0.1621262, 3.360604, 0.05508016, 0.4433061, -0.09623957, 3.253673, -0.1435053, 0.4432996, -0.9999977, -0.001444289, 35.33426
 171030727, -0.09637468, 3.261007, -0.1438147, 0.4438257, 7.587617E-06, 0.00438894, 5.540776E-05, 0.0005187925, -0.9999977, -0.001441022, 148.95
 171231480, 0.0003280114, 0.01173445, -0.0001862278, 0.001046232, 0.0002344274, 0.004455718, -0.0003338718, 0.0005209541, -0.9999977, -0.001435848, 0.3511209
 171431400, 8.173074E-05, 0.01184448, -0.0006179818, 0.001046232, 0.0001336935, 0.004277375, 0.0001288459, 0.0005187925, -0.9999977, -0.001433032, 0.3511209
 171631320, 0.0001239807, 0.01166159, -0.0003169401, 0.00104407, 0.0002624801, 0.004600775, -0.000285292, 0.0005187925, -0.9999977, -0.001428797, 0.3503954
 171831240, 0.0001766278, 0.01211822, -0.0005211068, 0.00104407, 0.0002361543, 0.004337682, 0.0003328958, 0.0005187925, -0.9999977, -0.00142159, 0.3503954
 172031160, 0.0002494678, 0.01203254, 0.0001853107, 0.00104407, 9.691773E-05, 0.004762919, -0.0001242045, 0.0005187925, -0.9999977, -0.001414917, 0.3503954
 172231080, 0.0002504582, 0.0120943, -0.0004115436, 0.00104407, -0.0002152774, 0.003952406, -0.0003437991, 0.0005187925, -0.9999977, -0.00140788, 0.3503954
 172431000, 1.450376E-05, 0.01124463, -0.0004564783, 0.00104407, 0.0002377328, 0.004076621, 4.89754E-06, 0.0005187925, -0.9999977, -0.001400388, 0.3503954
 172630920, 0.0004267334, 0.01145806, 1.709736E-05, 0.00104407, -0.0001520668, 0.004285794, 0.0003412026, 0.0005187925, -0.9999977, -0.0014085, 0.3503954
 172830840, 5.450662E-06, 0.01179092, 0.0005397853, 0.00104407, -3.496365E-05, 0.004369922, -5.019088E-05, 0.0005187925, -0.9999977, -0.001415894, 0.3503954
 173030760, -0.0003279245, 0.01167631, -0.0003346952, 0.00104407, -0.0005330888, 0.004032695, -0.0004054295, 0.0005187925, -0.9999977, -0.001422447, 0.3503954
 173230680, -0.0005315673, 0.01146195, -0.000762801, 0.00104407, -0.0001029671, 0.004296214, -0.0002168634, 0.0005187925, -0.9999977, -0.001428277, 0.3503954
 173431433, -0.0002562105, 0.01193359, -0.0004798376, 0.001046232, 0.0001520562, 0.00452421, -0.0005887197, 0.0005209541, -0.9999977, -0.001433201, 0.3511209
 173631353, 0.000119238, 0.0121797, -0.0009210434, 0.001046232, 0.0003037013, 0.004525857, 4.990964E-05, 0.0005187925, -0.9999976, -0.001437442, 0.3511209
 173831273, 0.0004299581, 0.01192329, -0.0001198158, 0.00104407, 0.0001451678, 0.003886069, 5.26039E-05, 0.0005187925, -0.9999976, -0.001441592, 0.3503954
 174031193, 0.000213726, 0.01129673, -0.0001519072, 0.00104407, 0.00024691, 0.004033167, -0.0004402938, 0.0005187925, -0.9999976, -0.001445917, 0.3503954
 174231113, 1.375129E-05, 0.01123494, -0.0005927919, 0.00104407, -4.611121E-05, 0.003832048, 0.0004703583, 0.0005187925, -0.9999976, -0.001448895, 0.3503954
 174431033, -0.0001938312, 0.01131133, 0.0007165689, 0.00104407, -0.0001329073, 0.004420119, -2.381921E-05, 0.0005187925, -0.9999977, -0.001450169, 0.3503954
 174630953, -0.000211273, 0.01181852, -0.0001768442, 0.00104407, 0.0003028027, 0.004360963, -0.0002786844, 0.0005187925, -0.9999977, -0.001451251, 0.3503954
 174830873, 0.0002423805, 0.01188997, -0.0002845663, 0.00104407, 0.000188022, 0.003622477, 7.175674E-05, 0.0005187925, -0.9999977, -0.001451249, 0.3503954
 175030793, 4.727462E-05, 0.01080077, -0.0001664247, 0.00104407, -0.000130863, 0.004082155, -0.0004540629, 0.0005187925, -0.9999977, -0.0014514, 0.3503954
 175230713, -0.0004641694, 0.01129751, -0.0005188701, 0.00104407, -0.0002832474, 0.004373387, -0.000443641, 0.0005187925, -0.9999977, -0.001451038, 0.3503954
 175431466, -0.0003865663, 0.0118865, -0.0004240303, 0.001046232, -0.0004335999, 0.003996059, 0.0002398314, 0.0005209541, -0.9999977, -0.001447636, 0.3511209
 175631386, -0.0005416421, 0.01171015, 0.0001022034, 0.001046232, -0.0002961721, 0.004353769, -0.0001706621, 0.0005187925, -0.9999977, -0.001445474, 0.3511209
 175831306, -0.0001276091, 0.01163647, -0.000391956, 0.00104407, 0.0003659865, 0.004203943, 1.780751E-05, 0.0005187925, -0.9999977, -0.001441467, 0.3503954
 176031226, 0.0003254709, 0.01168026, -0.0003048964, 0.00104407, -0.0001075703, 0.00402655, 0.0002349879, 0.0005187925, -0.9999977, -0.001436628, 0.3503954
 176231146, -0.0001575442, 0.01123333, 0.0003984406, 0.00104407, 0.0002201884, 0.004156274, 0.0001385826, 0.0005187925, -0.9999977, -0.001432662, 0.3503954
 176431066, 0.0002560249, 0.01128857, -0.0002768123, 0.00104407, -0.0001205606, 0.00447826, -0.0001928059, 0.0005187925, -0.9999977, -0.001428797, 0.3503954
 176630986, -5.441099E-05, 0.01207314, -0.00036511, 0.00104407, -6.009553E-05, 0.004378092, -0.0002761284, 0.0005187925, -0.9999977, -0.001422953, 0.3503954
 176830906, 0.0001010436, 0.01153063, -0.0003737885, 0.00104407, -0.0004214804, 0.004361105, -0.0004905562, 0.0005187925, -0.9999977, -0.001417881, 0.3503954
 177030826, -0.0003543197, 0.01192766, -0.0005776312, 0.00104407, -0.0002364781, 0.004410085, -0.0003776255, 0.0005187925, -0.9999977, -0.001412971, 0.3503954
 177230746, 8.06937E-05, 0.01191225, -0.0005862955, 0.00104407, 1.070499E-05, 0.004317889, -0.0003706104, 0.0005187925, -0.9999977, -0.001405995, 0.3503954
 177430666, 0.0002162947, 0.0117351, -0.0006374692, 0.00104407, 0.0003508251, 0.004111052, -0.0005592457, 0.0005187925, -0.9999977, -0.001398443, 0.3503954
 177631419, 0.0005312872, 0.01129299, -0.0004312345, 0.001046232, 7.646986E-05, 0.00376776, 0.0001913493, 0.0005209541, -0.9999978, -0.001389141, 0.3511209
 177831339, 0.0004805636, 0.01128021, 0.000138706, 0.001046232, 0.0002044648, 0.004029741, 0.0002225057, 0.0005187925, -0.9999978, -0.001396457, 0.3511209
 178031259, 0.0002476473, 0.01122342, -0.0001212112, 0.00104407, 0.0001675795, 0.003919773, 0.0002212247, 0.0005187925, -0.9999978, -0.00140099, 0.3503954
 178231179, 0.0002442947, 0.01129091, 0.0002372282, 0.00104407, 0.0002531237, 0.004152922, -3.178279E-05, 0.0005187925, -0.9999977, -0.001405406, 0.3503954
 178431099, 0.0001005616, 0.01137147, -0.0002418563, 0.00104407, -0.0001092801, 0.004180782, 0.0002386426, 0.0005187925, -0.9999977, -0.001410543, 0.3503954
 178631019, -0.0003201189, 0.01153183, 0.0001068152, 0.00104407, -0.0001112033, 0.003971065, 0.0004141545, 0.0005187925, -0.9999978, -0.001415155, 0.3503954
 178830939, 0.000108491, 0.01131996, 0.0003010355, 0.00104407, -4.576235E-05, 0.004314188, 0.0001683825, 0.0005187925, -0.9999978, -0.001417269, 0.3503954
 179030859, 0.0002657229, 0.01166642, -4.235066E-06, 0.00104407, 0.0001497052, 0.004253914, -1.78504E-06, 0.0005187925, -0.9999978, -0.001419043, 0.3503954
 179230779, -5.009715E-07, 0.01113907, -0.0004025851, 0.00104407, -4.151529E-06, 0.003914876, 4.169345E-05, 0.0005187925, -0.9999978, -0.001419974, 0.3503954
 179430699, -0.0002421325, 0.0108274, -0.0003079457, 0.00104407, -0.0003811016, 0.004159034, -0.0005473699, 0.0005187925, -0.9999978, -0.001419906, 0.3503954
 179631452, -0.0002194251, 0.01173148, -0.0007439759, 0.001046232, 7.321917E-05, 0.004623784, -0.0003935991, 0.0005209541, -0.9999978, -0.001419804, 0.3511209
 179831372, 8.85135E-05, 0.0119614, -0.0005599832, 0.001046232, 0.0001247837, 0.004362955, 0.0002424843, 0.0005187925, -0.9999977, -0.001420883, 0.3511209
 180031292, -8.657295E-05, 0.01155737, 0.0003086309, 0.00104407, -0.000196009, 0.004210325, -0.0003030113, 0.0005187925, -0.9999977, -0.001419247, 0.3503954
 180231212, -0.0002305285, 0.01160909, -0.0004447981, 0.00104407, -9.70602E-05, 0.00424196, -0.0002027165, 0.0005187925, -0.9999977, -0.001419262, 0.3503954
 180431132, -0.0002095706, 0.01161408, -0.000584931, 0.00104407, 0.0002173531, 0.004303755, 0.0001930096, 0.0005187925, -0.9999977, -0.001418973, 0.3503954
 180631052, 0.0001172596, 0.01168941, 1.842953E-05, 0.00104407, -0.0001377566, 0.004340324, -0.0001582728, 0.0005187925, -0.9999977, -0.00141661, 0.3503954
 180830972, -0.0001877433, 0.01129922, -0.0003574192, 0.00104407, 0.0002974501, 0.003880438, -0.0001946219, 0.0005187925, -0.9999977, -0.001414105, 0.3503954
 181030892, 0.0001257531, 0.01090729, -0.0003815662, 0.00104407, -0.0003827362, 0.004336058, -5.506815E-05, 0.0005187925, -0.9999977, -0.001413194, 0.3503954
 181230812, -0.0006563121, 0.01159286, -0.0002403644, 0.00104407, 0.0002710278, 0.004184622, -0.0001502926, 0.0005187925, -0.9999977, -0.001411347, 0.3503954
 181430732, -3.671006E-05, 0.01130523, -0.000228042, 0.00104407, 0.0001973322, 0.003897748, 0.0001001375, 0.0005187925, -0.9999977, -0.00140828, 0.3503954
 181631485, 0.0004709877, 0.01097751, 0.000150662, 0.001046232, 0.000301809, 0.004214453, 0.0004302461, 0.0005209541, -0.9999977, -0.001403913, 0.3511209
 181831405, 0.0004207829, 0.01170276, 0.0003319104, 0.001046232, -0.0002367834, 0.004371089, -0.0001041985, 0.0005187925, -0.9999977, -0.001401493, 0.3511209
 182031325, 5.282588E-05, 0.01181831, -0.0002923093, 0.00104407, -7.529628E-05, 0.004497198, -0.00012843, 0.0005187925, -0.9999977, -0.001397987, 0.3503954
 182231245, 0.0003510364, 0.01184288, 2.607501E-05, 0.00104407, 0.0002064234, 0.004352747, 0.0001740915, 0.0005187925, -0.9999977, -0.001392796, 0.3503954
 182431165, -0.0002093555, 0.0116211, 0.0001826747, 0.00104407, -0.000516812, 0.003890446, -4.896827E-05, 0.0005187925, -0.9999977, -0.001389004, 0.3503954
 182631085, -0.0002826296, 0.01130215, -0.0001223182, 0.00104407, 0.0002118191, 0.004431081, -2.978921E-05, 0.0005187925, -0.9999977, -0.001384275, 0.3503954
 182831005, 8.267674E-06, 0.01199937, 0.0002134982, 0.00104407, -6.864977E-06, 0.004468713, 6.898741E-05, 0.0005187925, -0.9999977, -0.001379892, 0.3503954
 183030925, 0.0001220771, 0.01196015, 0.0001091591, 0.00104407, 0.0003505031, 0.004499753, -0.0001166413, 0.0005187925, -0.9999977, -0.001390527, 0.3503954
 183230845, 0.0003839682, 0.01181093, -8.469645E-05, 0.00104407, 0.0001110055, 0.00433244, 4.795063E-05, 0.0005187925, -0.9999977, -0.001399624, 0.3503954
 183430765, -0.0001338804, 0.01150496, 0.0001018284, 0.00104407, 4.510975E-05, 0.004136533, 6.28494E-05, 0.0005187925, -0.9999977, -0.001408924, 0.3503954
 183630685, 4.9959E-05, 0.01163498, 4.477735E-05, 0.00104407, 6.120091E-05, 0.004464455, 0.000195941, 0.0005187925, -0.9999977, -0.00141663, 0.3503954
 183831438, -0.0001916263, 0.01180247, 1.676604E-05, 0.001046232, 0.0001464944, 0.004121353, -0.0003538277, 0.0005209541, -0.9999977, -0.001423969, 0.3511209
 184031358, -4.994001E-05, 0.01134634, -0.0006832215, 0.001046232, -0.0002387265, 0.004083203, 2.833068E-05, 0.0005187925, -0.9999976, -0.001429769, 0.3511209
 184231278, -0.0003285623, 0.01154387, -0.000214591, 0.00104407, -7.167703E-06, 0.00460765, -6.445689E-05, 0.0005187925, -0.9999976, -0.001432785, 0.3503954
 184431198, 5.960788E-05, 0.01205475, -0.0003393771, 0.00104407, -9.548054E-05, 0.004570965, -3.222131E-05, 0.0005187925, -0.9999976, -0.0014363, 0.3503954
 184631118, -9.930746E-05, 0.01207164, -5.542242E-06, 0.00104407, 0.0001350316, 0.004170149, 7.755274E-05, 0.0005187925, -0.9999976, -0.001440931, 0.3503954
 184831038, 5.423754E-05, 0.01131762, -5.386137E-06, 0.00104407, -0.0003156397, 0.003878355, -0.0001420192, 0.0005187925, -0.9999976, -0.001445393, 0.3503954
 185030958, -0.0002052872, 0.01133396, 2.361779E-05, 0.00104407, -0.0002887359, 0.004842618, -0.0003914447, 0.0005187925, -0.9999976, -0.001448006, 0.3503954
 185230878, -0.0004701692, 0.01244293, -0.000868096, 0.00104407, -0.0003880197, 0.004568761, 0.0001430058, 0.0005187925, -0.9999976, -0.001450164, 0.3503954
 185430798, -0.000403951, 0.01202125, 0.0002180967, 0.00104407, 0.0003732457, 0.003835756, 0.0001915046, 0.0005187925, -0.9999976, -0.001452326, 0.3503954
 185630718, 0.0003862445, 0.01103639, -4.728364E-06, 0.00104407, -0.0001208598, 0.00416914, -0.0003232997, 0.0005187925, -0.9999976, -0.001452378, 0.3503954
 185831471, -0.0002365517, 0.01165665, -0.0005118837, 0.001046232, -3.267443E-05, 0.004074785, 0.0001780183, 0.0005209541, -0.9999976, -0.001452442, 0.3511209
 186031391, 0.0001583988, 0.01138416, -0.0003239201, 0.001046232, 0.0001821678, 0.003898124, -0.0004772386, 0.0005187925, -0.9999976, -0.001453527, 0.3511209
 186231311, 0.0004434137, 0.01108788, -0.0005155038, 0.00104407, 0.0003789626, 0.004075311, 0.000175593, 0.0005187925, -0.9999976, -0.001452474, 0.3503954
 186431231, 0.0001891888, 0.01172675, -4.145392E-05, 0.00104407, -0.0001016199, 0.004760218, 4.088077E-05, 0.0005187925, -0.9999976, -0.00145019, 0.3503954
 186631151, -0.000132172, 0.01234314, -0.0004927762, 0.00104407, 0.0004170405, 0.004643457, -0.0003506187, 0.0005187925, -0.9999976, -0.001449357, 0.3503954
 186831071, 0.0007987905, 0.01246862, -0.0002152321, 0.00104407, -0.0003208729, 0.004801938, 0.0002512606, 0.0005187925, -0.9999976, -0.001447158, 0.3503954
 187030991, -0.0004154902, 0.01208293, -0.0001014923, 0.00104407, -0.0002184429, 0.004172161, -0.0001948137, 0.0005187925, -0.9999976, -0.001444063, 0.3503954
 187230911, -9.886714E-05, 0.01167241, -0.000108692, 0.00104407, 0.0002207623, 0.004237378, 0.0002579527, 0.0005187925, -0.9999976, -0.001439828, 0.3503954
 187430831, 0.0001728106, 0.01187681, 7.477986E-05, 0.00104407, -1.508729E-05, 0.004482692, -0.0001124135, 0.0005187925, -0.9999976, -0.001435877, 0.3503954
 187630751, -8.844693E-05, 0.01192684, -0.000410837, 0.00104407, -0.0001372671, 0.004211032, 0.000156184, 0.0005187925, -0.9999976, -0.00143051, 0.3503954
 187830671, -0.0001274151, 0.01181239, 0.0001147395, 0.00104407, 0.000270789, 0.004694572, -0.000103095, 0.0005187925, -0.9999976, -0.001425471, 0.3503954
 188031424, 0.0004121504, 0.01200721, -0.0001582613, 0.001046232, -0.0001275908, 0.003822641, 4.532908E-06, 0.0005209541, -0.9999977, -0.001420739, 0.3511209
 188231344, 0.0002154778, 0.01121589, -9.458214E-05, 0.001046232, 0.0002032936, 0.003999691, -2.921604E-05, 0.0005187925, -0.9999976, -0.00143053, 0.3511209
 188431264, 0.0002823097, 0.011428, 6.603818E-05, 0.00104407, 0.0003777993, 0.004319801, -0.0002882066, 0.0005187925, -0.9999976, -0.001438515, 0.3503954
 188631184, 0.0002833507, 0.01152614, -0.0004959959, 0.00104407, 0.0001532233, 0.004094103, -0.0002028095, 0.0005187925, -0.9999976, -0.00144669, 0.3503954
 188831104, 6.176902E-05, 0.01166274, -6.230244E-05, 0.00104407, -0.0001561888, 0.004059774, 0.0001597207, 0.0005187925, -0.9999976, -0.001453829, 0.3503954
 189031024, -2.880611E-05, 0.01128501, -0.0001062945, 0.00104407, 1.689184E-05, 0.004310167, -2.281939E-06, 0.0005187925, -0.9999976, -0.001460083, 0.3503954
 189230944, 0.0002842486, 0.01147346, -2.800893E-05, 0.00104407, -0.0001369415, 0.004351306, -9.391129E-06, 0.0005187925, -0.9999976, -0.001465045, 0.3503954
 189430864, 7.536339E-05, 0.01158302, -0.0001411028, 0.00104407, -6.106678E-05, 0.004137886, -0.0005021625, 0.0005187925, -0.9999976, -0.001468342, 0.3503954
 189630784, -2.38584E-05, 0.01147484, -0.0007452916, 0.00104407, 0.0002692108, 0.004150882, -0.0004450817, 0.0005187925, -0.9999976, -0.001470824, 0.3503954
 189830704, 0.0003479455, 0.01153952, -0.0009719295, 0.00104407, 0.0006097906, 0.004053402, -0.0006281938, 0.0005187925, -0.9999976, -0.001472091, 0.3503954
 190031457, 0.0005402587, 0.01118257, -0.0009633544, 0.001046232, -2.848405E-05, 0.004057542, -0.0002153957, 0.0005209541, -0.9999977, -0.001474006, 0.3511209
 190231377, 0.0001755795, 0.01129251, -0.0003198802, 0.001046232, -6.029994E-05, 0.004001564, 0.0001306071, 0.0005187925, -0.9999977, -0.001474354, 0.3511209
 190431297, -3.059302E-05, 0.01145008, -2.595392E-06, 0.00104407, 0.0003036469, 0.004224852, -0.0001642393, 0.0005187925, -0.9999977, -0.001473125, 0.3503954
 190631217, 0.0002673433, 0.01169879, -0.000264603, 0.00104407, 0.0001918416, 0.004787488, -0.0001289495, 0.0005187925, -0.9999977, -0.001472447, 0.3503954
 190831137, 0.0001216224, 0.01227289, -0.0003533631, 0.00104407, 0.0002310569, 0.004362287, 0.0001522909, 0.0005187925, -0.9999977, -0.00147089, 0.3503954
 191031057, 7.479043E-05, 0.0113268, -5.237634E-05, 0.00104407, -0.0003133205, 0.004184508, -0.0004767036, 0.0005187925, -0.9999977, -0.001470123, 0.3503954
 191230977, -0.0002304145, 0.01140241, -0.0005374522, 0.00104407, 0.0003224916, 0.004197811, -0.0003354209, 0.0005187925, -0.9999976, -0.001468563, 0.3503954
 191430897, 0.0003290329, 0.01136804, -0.0006463944, 0.00104407, -0.0003326818, 0.00412264, -0.0004227163, 0.0005187925, -0.9999976, -0.001466474, 0.3503954
 191630817, -0.0004156462, 0.01144518, -0.000760916, 0.00104407, -0.0002035931, 0.004210015, -0.0002733436, 0.0005187925, -0.9999976, -0.001463075, 0.3503954
 191830737, -0.0001636241, 0.01154905, -0.0001328593, 0.00104407, -4.716441E-05, 0.003859692, -5.352858E-05, 0.0005187925, -0.9999977, -0.001459284, 0.3503954
 192030657, 0.0001234391, 0.0111698, 5.123235E-05, 0.00104407, 0.0001061257, 0.004316325, -0.0002662213, 0.0005187925, -0.9999976, -0.001456267, 0.3503954
 192231410, -9.618366E-05, 0.01163888, -0.0003465089, 0.001046232, 2.513023E-05, 0.003963664, -0.0001369941, 0.0005209541, -0.9999977, -0.001453791, 0.3511209
 192431330, 0.0002489572, 0.01160295, -0.0001838544, 0.001046232, 0.000197972, 0.00415598, 0.0002218134, 0.0005187925, -0.9999977, -0.001448321, 0.3511209
 192631250, 0.0002314997, 0.01186824, 0.0003845631, 0.00104407, -0.0002043729, 0.004600019, 5.459389E-05, 0.0005187925, -0.9999977, -0.001441866, 0.3503954
 192831170, -0.0004090531, 0.0119585, -0.0002183708, 0.00104407, -2.345303E-05, 0.004127091, 9.868846E-05, 0.0005187925, -0.9999977, -0.001436772, 0.3503954
 193031090, 0.0001826275, 0.01178383, 0.0001619156, 0.00104407, 9.188219E-05, 0.004372044, 6.139325E-05, 0.0005187925, -0.9999977, -0.001430443, 0.3503954
 193231010, -4.15466E-05, 0.01165816, -8.97704E-05, 0.00104407, 0.0003593509, 0.003708174, -0.0001140079, 0.0005187925, -0.9999977, -0.001423752, 0.3503954
 193430930, 0.0004038961, 0.0113618, -0.0005100403, 0.00104407, -0.0001056208, 0.004171194, 0.000105744, 0.0005187925, -0.9999977, -0.001431463, 0.3503954
 193630850, -6.295255E-05, 0.0115517, -1.815666E-05, 0.00104407, -0.0001196522, 0.004514296, -0.0003337979, 0.0005187925, -0.9999977, -0.001438493, 0.3503954
 193830770, -7.10573E-05, 0.01181188, -0.0002888406, 0.00104407, 0.0001316323, 0.004477094, 0.000406851, 0.0005187925, -0.9999977, -0.001444179, 0.3503954
 194030690, 0.0002152055, 0.01156477, -2.813411E-05, 0.00104407, -7.235175E-05, 0.003986726, -0.0003813207, 0.0005187925, -0.9999977, -0.001449442, 0.3503954
 194231443, -6.745866E-05, 0.01125037, -0.0003881427, 0.001046232, 3.525916E-05, 0.003636173, 0.0001402874, 0.0005209541, -0.9999977, -0.00145407, 0.3511209
 194431363, 0.0002126777, 0.01099623, 0.0001279506, 0.001046232, -1.748402E-05, 0.004473216, 0.0002362033, 0.0005187925, -0.9999977, -0.001457559, 0.3511209
 194631283, -1.617591E-07, 0.01205523, 0.0001350578, 0.00104407, -8.18122E-05, 0.004310378, -0.0002524546, 0.0005187925, -0.9999977, -0.001457952, 0.3503954
 194831203, 6.018422E-05, 0.0115828, -0.000475705, 0.00104407, 7.143028E-05, 0.004221119, 0.0002740908, 0.0005187925, -0.9999977, -0.001458402, 0.3503954
 195031123, -3.26159E-05, 0.01144274, 0.0001409337, 0.00104407, -0.0001614638, 0.003941171, 0.0003429327, 0.0005187925, -0.9999977, -0.001457536, 0.3503954
 195231043, -0.0004124504, 0.01114371, 5.517133E-06, 0.00104407, -0.0001358715, 0.004122101, -0.0001717762, 0.0005187925, -0.9999977, -0.001456943, 0.3503954
 195430963, -8.658363E-05, 0.01141847, -0.0003964054, 0.00104407, 0.0001178056, 0.004266143, 6.736086E-05, 0.0005187925, -0.9999977, -0.001456229, 0.3503954
 195630883, 0.000235633, 0.01160558, -0.0001181797, 0.00104407, -7.932819E-05, 0.004227169, -2.559949E-05, 0.0005187925, -0.9999978, -0.001453429, 0.3503954
 195830803, 0.0001205674, 0.0112797, -0.0001049218, 0.00104407, -6.763305E-05, 0.003995428, 0.0001196132, 0.0005187925, -0.9999978, -0.00145057, 0.3503954
 196030723, 0.0003349577, 0.01134408, 0.0001114316, 0.00104407, 0.0003890913, 0.004171173, 0.0003314194, 0.0005187925, -0.9999978, -0.001446735, 0.3503954
 196231476, 7.72024E-05, 0.01134063, 0.0002917259, 0.001046232, -0.0001945595, 0.00411692, -3.556815E-05, 0.0005209541, -0.9999978, -0.00144279, 0.3511209
 196431396, -9.836537E-05, 0.01153194, -0.0002827951, 0.001046232, -3.774318E-05, 0.004175858, -0.0001882122, 0.0005187925, -0.9999978, -0.001438866, 0.3511209
 196631316, -0.0002100238, 0.01139906, -0.0003617544, 0.00104407, -0.0003885837, 0.003955286, 1.351293E-05, 0.0005187925, -0.9999978, -0.001432786, 0.3503954
 196831236, -0.0004047744, 0.01082433, -0.0001373457, 0.00104407, 0.0002026065, 0.004103674, -6.714875E-05, 0.0005187925, -0.9999978, -0.001425883, 0.3503954
 197031156, -0.0002513082, 0.01116923, -2.038615E-05, 0.00104407, -0.0005086389, 0.003925108, -0.0002410723, 0.0005187925, -0.9999978, -0.001420059, 0.3503954
 197231076, -0.0002126998, 0.01143749, -0.0004334492, 0.00104407, 0.0001269286, 0.004253708, -0.0001617083, 0.0005187925, -0.9999978, -0.001414016, 0.3503954
 197430996, 0.0001671829, 0.01155285, -0.000463249, 0.00104407, 2.281388E-06, 0.003879864, -0.0004914773, 0.0005187925, -0.9999978, -0.001408897, 0.3503954
 197630916, -2.929056E-05, 0.01098745, -0.0008772498, 0.00104407, 6.175982E-05, 0.003988618, -0.0001954798, 0.0005187925, -0.9999978, -0.0014037, 0.3503954
 197830836, 0.0004609631, 0.01155127, -0.0004581967, 0.00104407, 0.0001762105, 0.004317911, -0.0003294914, 0.0005187925, -0.9999978, -0.001396811, 0.3503954
 198030756, 0.0004431829, 0.01173633, -0.0008521188, 0.00104407, -6.512886E-06, 0.004374115, -0.00035475, 0.0005187925, -0.9999978, -0.001390295, 0.3503954
 198230676, 0.0001316462, 0.01190023, -0.0003376408, 0.00104407, 0.0003669455, 0.004033106, -0.0003208474, 0.0005187925, -0.9999978, -0.001383463, 0.3503954
 198431429, 0.0003032505, 0.01136305, -0.000486722, 0.001046232, 0.0001136418, 0.004121964, -0.0001286632, 0.0005209541, -0.9999978, -0.001379021, 0.3511209
 198631349, 6.900022E-06, 0.0114322, -0.000194208, 0.001046232, -0.0002173989, 0.004201733, -0.0001398385, 0.0005187925, -0.9999978, -0.001384838, 0.3511209
 198831269, 5.660186E-05, 0.01140837, -0.0001003281, 0.00104407, 0.0001998053, 0.004119421, -0.0005028083, 0.0005187925, -0.9999978, -0.001389498, 0.3503954
 199031189, 0.0003267028, 0.01190147, -0.0006571952, 0.00104407, 0.0002474697, 0.004743254, -0.0002913978, 0.0005187925, -0.9999978, -0.001395063, 0.3503954
 199231109, 0.0001558478, 0.01189584, -0.0004082726, 0.00104407, -0.00012828, 0.004256746, -2.211282E-05, 0.0005187925, -0.9999978, -0.001398915, 0.3503954
 199431029, -0.0001673506, 0.01143274, -2.786356E-05, 0.00104407, 8.188242E-05, 0.004126912, 3.454616E-05, 0.0005187925, -0.9999978, -0.001401676, 0.3503954
 199630949, 5.809108E-05, 0.01123151, 0.0001496384, 0.00104407, 0.0001648796, 0.003783214, 5.497759E-05, 0.0005187925, -0.9999978, -0.001403694, 0.3503954
 199830869, -4.370495E-05, 0.01142262, 2.90421E-05, 0.00104407, -0.0003665908, 0.004596796, -0.0001555309, 0.0005187925, -0.9999978, -0.001405186, 0.3503954
 200030789, -0.0002755811, 0.01182602, -0.0003062179, 0.00104407, 0.0005460404, 0.003842562, -0.0002641503, 0.0005187925, -0.9999978, -0.001405728, 0.3503954
 200230709, 0.0007876653, 0.01100449, -3.919701E-05, 0.00104407, 0.0003172579, 0.004238808, 4.745967E-05, 0.0005187925, -0.9999978, -0.001405695, 0.3503954
 200431462, 0.0003522999, 0.01138639, -0.0004562468, 0.001046232, 0.000159859, 0.003889548, -0.0004008982, 0.0005209541, -0.9999978, -0.001406929, 0.3511209
 200631382, -2.069286E-06, 0.01143189, -0.00065466, 0.001046232, -0.0001000927, 0.004224037, -0.0002678849, 0.0005187925, -0.9999978, -0.001406044, 0.3511209
 200831302, 5.084871E-05, 0.01127803, -0.0002751334, 0.00104407, -1.742682E-05, 0.004231374, -3.392531E-05, 0.0005187925, -0.9999978, -0.001403679, 0.3503954
 201031222, 7.532831E-05, 0.01149372, 5.522544E-05, 0.00104407, 0.000390462, 0.003980203, -0.0002433423, 0.0005187925, -0.9999979, -0.001398147, 0.3503954
 201231142, 0.0003075984, 0.01094468, -0.0003627733, 0.00104407, -9.142786E-05, 0.0038937, 0.0001477866, 0.0005187925, -0.9999979, -0.001393225, 0.3503954
 201431062, -0.0003968242, 0.01110719, 0.0001676008, 0.00104407, -0.0002210978, 0.003968481, 1.057201E-05, 0.0005187925, -0.9999979, -0.001388214, 0.3503954
 201630982, -1.931941E-05, 0.01092131, 5.440559E-05, 0.00104407, 0.0001135419, 0.003762139, 0.0003841281, 0.0005187925, -0.9999979, -0.001382701, 0.3503954
 201830902, -0.000110255, 0.01093923, 0.0002163295, 0.00104407, -0.0006916108, 0.004345648, 5.942589E-06, 0.0005187925, -0.9999979, -0.001376478, 0.3503954
 202030822, -0.000571931, 0.01170252, -0.0002050986, 0.00104407, 0.0002266823, 0.003949214, -0.0001711339, 0.0005187925, -0.9999979, -0.001370417, 0.3503954
 202230742, 0.0003359337, 0.01129684, -0.0003435989, 0.00104407, 0.0002880614, 0.004241943, 0.0002806387, 0.0005187925, -0.9999978, -0.001363494, 0.3503954
 202430662, 0.000549241, 0.01143899, -2.270265E-05, 0.00104407, 0.0002204435, 0.004090426, -0.0003601409, 0.0005187925, -0.9999978, -0.001357292, 0.3503954
 202631415, 0.0004480688, 0.01129745, -0.0005489458, 0.001046232, 0.0003152775, 0.003825277, -0.0001978285, 0.0005209541, -0.9999978, -0.001352737, 0.3511209
 202831335, 0.0005233193, 0.01106805, -0.0003846287, 0.001046232, -9.806586E-05, 0.003805177, 4.016342E-05, 0.0005187925, -0.9999978, -0.001346351, 0.3511209
 203031255, -6.747573E-05, 0.01126307, -1.631796E-05, 0.00104407, 0.000460155, 0.00468576, 0.000213839, 0.0005187925, -0.9999978, -0.001338868, 0.3503954
 203231175, 0.0003690355, 0.01197103, -0.0001425709, 0.00104407, 6.18116E-05, 0.004310851, -0.0005444065, 0.0005187925, -0.9999978, -0.001331675, 0.3503954
 203431095, 0.0001838919, 0.01138856, -0.0005672141, 0.00104407, 0.0002786522, 0.004116021, 0.0001736518, 0.0005187925, -0.9999978, -0.001322748, 0.3503954
 203631015, 0.000457804, 0.01159957, 0.0003310237, 0.00104407, 0.0004405308, 0.004202711, 2.960332E-05, 0.0005187925, -0.9999978, -0.001315509, 0.3503954
 203830935, 0.0004891308, 0.01175384, -5.635145E-06, 0.00104407, -0.0002021748, 0.004323459, -4.769086E-05, 0.0005187925, -0.9999978, -0.001322408, 0.3503954
 204030855, 0.000121348, 0.01172339, -0.0002924059, 0.00104407, 0.0001685717, 0.004281024, -0.0003116743, 0.0005187925, -0.9999978, -0.001329195, 0.3503954
 204230775, 0.0002941971, 0.01158911, -0.0004996886, 0.00104407, 0.0004399044, 0.004093764, -0.0002533328, 0.0005187925, -0.9999978, -0.001334444, 0.3503954
 204430695, 0.0006184712, 0.01132074, -0.000583239, 0.00104407, -0.0001295679, 0.004236057, -0.0002130467, 0.0005187925, -0.9999978, -0.001338779, 0.3503954
 204631448, -8.588091E-05, 0.01151702, -2.747429E-05, 0.001046232, -1.097667E-07, 0.004484509, -0.0003108891, 0.0005209541, -0.9999979, -0.001344768, 0.3511209
 204831368, 0.0001729927, 0.01140872, -0.0001597684, 0.001046232, -8.965687E-05, 0.003896295, 0.0001362935, 0.0005187925, -0.9999978, -0.001346504, 0.3511209
 205031288, -0.0001786481, 0.01126879, -0.0003031924, 0.00104407, 2.540852E-05, 0.004392693, -0.0002610354, 0.0005187925, -0.9999978, -0.001347652, 0.3503954
 205231208, -4.366417E-05, 0.01163563, -0.0003766079, 0.00104407, 0.0002281904, 0.004169159, -0.0002476202, 0.0005187925, -0.9999978, -0.001348746, 0.3503954
 205431128, 0.0003270835, 0.01128873, -0.000194094, 0.00104407, -0.0001652518, 0.003588833, 0.0003032722, 0.0005187925, -0.9999978, -0.00135015, 0.3503954
 205631048, 0.0001060305, 0.01104274, -1.355465E-05, 0.00104407, 2.914737E-05, 0.003885882, 0.000303047, 0.0005187925, -0.9999978, -0.001350206, 0.3503954
 205830968, -3.939619E-05, 0.01120457, 0.0001839772, 0.00104407, -0.0001429128, 0.004418198, 0.0001737031, 0.0005187925, -0.9999978, -0.001348299, 0.3503954
 206030888, 3.394179E-05, 0.01157872, -0.0001337303, 0.00104407, -0.0001742558, 0.003969567, -0.0001990929, 0.0005187925, -0.9999978, -0.001346545, 0.3503954
 206230808, 9.506092E-05, 0.01109512, -0.0002040546, 0.00104407, 6.671316E-05, 0.004203357, 6.592735E-05, 0.0005187925, -0.9999978, -0.001344774, 0.3503954
 206430728, 0.0002431961, 0.01133115, 0.0001673792, 0.00104407, 0.0003291804, 0.004102263, -0.0001380153, 0.0005187925, -0.9999978, -0.001342901, 0.3503954
 206631481, 0.0005182344, 0.01136077, -0.0001135526, 0.001046232, 9.432846E-06, 0.004364766, 1.147406E-05, 0.0005209541, -0.9999978, -0.001342095, 0.3511209
 206831401, -5.79957E-05, 0.01185911, 9.928425E-05, 0.001046232, -4.796315E-05, 0.0041524, -8.406851E-06, 0.0005187925, -0.9999979, -0.001340573, 0.3511209
 207031321, -0.0001569811, 0.01118631, -0.0003260309, 0.00104407, -0.0001101237, 0.004469364, -0.0004620408, 0.0005187925, -0.9999979, -0.001337991, 0.3503954
 207231241, 6.869737E-05, 0.01172433, -0.0004847067, 0.00104407, -8.241099E-05, 0.003834582, 3.360346E-07, 0.0005187925, -0.9999978, -0.001333253, 0.3503954
 207431161, -0.0001545139, 0.01087993, 4.227736E-05, 0.00104407, -0.0002710623, 0.004171814, 0.0001074659, 0.0005187925, -0.9999978, -0.001328357, 0.3503954
 207631081, -8.68077E-05, 0.01137133, -6.556628E-05, 0.00104407, 0.0002462389, 0.004454724, 0.0001377389, 0.0005187925, -0.9999978, -0.001323485, 0.3503954
 207831001, 0.0001589787, 0.0114973, 0.0001882193, 0.00104407, -4.123345E-06, 0.00370435, 0.000609731, 0.0005187925, -0.9999978, -0.001318677, 0.3503954
 208030921, -0.0001576891, 0.01134472, 0.0004825378, 0.00104407, -0.0001648593, 0.004345845, 0.0004454046, 0.0005187925, -0.9999978, -0.001313293, 0.3503954
 208230841, 1.695515E-05, 0.01162435, 0.0003448846, 0.00104407, 0.0002226425, 0.004010271, -0.0002618028, 0.0005187925, -0.9999978, -0.001307344, 0.3503954
 208430761, -4.296584E-06, 0.01127401, -0.0003005709, 0.00104407, -0.0002167883, 0.004463567, -0.0002208363, 0.0005187925, -0.9999978, -0.0013024, 0.3503954
 208630681, -0.0001336615, 0.01188722, -0.0004384255, 0.00104407, -2.758656E-05, 0.004200608, -0.0001084061, 0.0005187925, -0.9999978, -0.001296205, 0.3503954
 208831434, 7.444003E-05, 0.01198864, -0.0001038946, 0.001046232, 0.0002425626, 0.004449461, -4.044663E-05, 0.0005209541, -0.9999979, -0.001292189, 0.3511209
 209031354, 0.0005501295, 0.01182403, 8.650457E-05, 0.001046232, 0.0005882969, 0.004150194, 0.0007127711, 0.0005187925, -0.9999979, -0.001300871, 0.3511209
 209231274, 0.0006823723, 0.01143755, 0.0007769002, 0.00104407, 0.0001314618, 0.00397902, 0.0005134829, 0.0005187925, -0.9999979, -0.001307267, 0.3503954
 209431194, 9.384754E-05, 0.01138029, 0.0003433464, 0.00104407, -0.0003678527, 0.003715119, -0.0002994865, 0.0005187925, -0.9999979, -0.00131292, 0.3503954
 209631114, -0.0006024134, 0.01101255, -0.0002201249, 0.00104407, 2.504961E-05, 0.004249357, 3.011452E-05, 0.0005187925, -0.9999979, -0.001317776, 0.3503954
 209831034, -8.469124E-05, 0.01157805, 2.232135E-05, 0.00104407, 0.0001432095, 0.004788654, 2.400392E-05, 0.0005187925, -0.9999979, -0.001321251, 0.3503954
 210030954, 0.0002807759, 0.01211186, 0.0001625567, 0.00104407, 3.810355E-05, 0.00423886, -0.0002162759, 0.0005187925, -0.9999979, -0.001324998, 0.3503954
 210230874, -0.0001341661, 0.01157645, -7.581541E-05, 0.00104407, -0.0002943693, 0.00415639, 0.0002460508, 0.0005187925, -0.9999979, -0.001327641, 0.3503954
 210430794, -0.0001845425, 0.01148194, 0.0001367153, 0.00104407, 0.0001978454, 0.004372784, -4.542918E-05, 0.0005187925, -0.9999979, -0.001328825, 0.3503954
 210630714, 0.0001356104, 0.01113207, -5.819734E-05, 0.00104407, 0.0004111054, 0.003867375, -0.0001423719, 0.0005187925, -0.9999979, -0.001327206, 0.3503954
 210831467, 0.0003124924, 0.0113373, -1.358321E-05, 0.001046232, 0.0001228003, 0.003757077, 7.794401E-05, 0.0005209541, -0.9999979, -0.001327744, 0.3511209
 211031387, 0.0001778764, 0.01115955, 0.0001001474, 0.001046232, 1.390049E-05, 0.004255984, -0.0003935824, 0.0005187925, -0.9999979, -0.001327649, 0.3511209
 211231307, 8.643936E-05, 0.01124156, -0.0007023207, 0.00104407, -5.721919E-05, 0.00373466, 2.640625E-06, 0.0005187925, -0.9999979, -0.001326652, 0.3503954
 211431227, -0.0002626923, 0.01107274, -0.0002991993, 0.00104407, 0.000335591, 0.00432162, 0.0001842215, 0.0005187925, -0.9999979, -0.001323969, 0.3503954
 211631147, 0.0002653284, 0.01146998, -0.0001226065, 0.00104407, -0.0004143133, 0.004049861, -0.0001924293, 0.0005187925, -0.9999979, -0.001322264, 0.3503954
 211831067, -0.000795673, 0.01127376, -0.0001987842, 0.00104407, -9.125114E-05, 0.004303107, -0.0004184289, 0.0005187925, -0.9999979, -0.001319887, 0.3503954
 212030987, 4.304812E-05, 0.01173842, -0.0004012124, 0.00104407, 0.0002402851, 0.004436484, 6.210226E-05, 0.0005187925, -0.9999979, -0.001316278, 0.3503954
 212230907, 0.0002657156, 0.01150951, 0.0001863223, 0.00104407, 7.075811E-05, 0.00401051, 0.0002959926, 0.0005187925, -0.9999979, -0.001313005, 0.3503954
 212430827, 0.0002244292, 0.01108649, 0.0001609349, 0.00104407, 0.0003291022, 0.004042556, -0.0003074179, 0.0005187925, -0.9999979, -0.001308361, 0.3503954
 212630747, 0.000405113, 0.01116015, -0.0002393659, 0.00104407, 0.0001247288, 0.003725175, 0.000129201, 0.0005187925, -0.9999979, -0.001303892, 0.3503954
 212830667, -0.0001706118, 0.01069467, -5.558056E-05, 0.00104407, -0.0003039295, 0.004174345, -0.0001599244, 0.0005187925, -0.9999979, -0.001299034, 0.3503954
 213031420, -0.0002576655, 0.01137005, -0.0006095792, 0.001046232, -0.0005065912, 0.003694791, -0.0001807356, 0.0005209541, -0.9999979, -0.001295616, 0.3511209
 213231340, -0.000432359, 0.01122762, 5.079902E-05, 0.001046232, 0.0002386816, 0.00408024, 0.0004875473, 0.0005187925, -0.9999979, -0.001290731, 0.3511209
 213431260, 0.000280351, 0.01136402, 0.0005339941, 0.00104407, -0.0001743359, 0.004314289, -0.0001552723, 0.0005187925, -0.9999979, -0.001283395, 0.3503954
 213631180, -0.0001265265, 0.01143113, -0.0003540243, 0.00104407, -3.247556E-05, 0.003940224, -0.0005130896, 0.0005187925, -0.9999979, -0.001277928, 0.3503954
 213831100, -9.689802E-05, 0.01117239, -0.0007177522, 0.00104407, -7.710535E-05, 0.003797649, -0.0003245521, 0.0005187925, -0.9999979, -0.001272149, 0.3503954
 214031020, 0.0002672639, 0.01138662, -0.0003913934, 0.00104407, 4.311806E-05, 0.00443968, 7.668884E-05, 0.0005187925, -0.9999979, -0.001266188, 0.3503954
 214230940, 0.0002324681, 0.01193365, 8.562474E-05, 0.00104407, -6.128731E-05, 0.003895905, 6.897063E-06, 0.0005187925, -0.9999979, -0.001275673, 0.3503954
 214430860, 0.0004196829, 0.01113234, 6.956619E-06, 0.00104407, -5.728397E-05, 0.004132618, 1.031462E-05, 0.0005187925, -0.9999979, -0.001284298, 0.3503954
 214630780, 0.0002055968, 0.01167738, -0.0003004588, 0.00104407, -7.347122E-05, 0.004241017, -0.0003310667, 0.0005187925, -0.9999979, -0.001291671, 0.3503954
 214830700, 6.919317E-05, 0.01188874, -0.0003814339, 0.00104407, 8.869446E-05, 0.004634108, -6.592973E-05, 0.0005187925, -0.9999979, -0.001298483, 0.3503954
 215031453, 0.0001434776, 0.01202425, -0.0006276067, 0.001046232, 0.0002022901, 0.00456527, -0.000360019, 0.0005209541, -0.9999979, -0.001303837, 0.3511209
 215231373, 9.039738E-05, 0.01219722, -0.0005453106, 0.001046232, 4.814553E-06, 0.004381097, 1.280867E-05, 0.0005187925, -0.9999979, -0.001307905, 0.3511209
 215431293, 0.0001734272, 0.01148378, 6.997287E-05, 0.00104407, 7.78013E-05, 0.003884895, 0.0003602327, 0.0005187925, -0.9999979, -0.001310055, 0.3503954
 215631213, 0.0001179372, 0.01115493, 0.0002811856, 0.00104407, -0.0001420886, 0.003710187, -0.0002348186, 0.0005187925, -0.9999979, -0.001311686, 0.3503954
 215831133, 0.0002593639, 0.01067111, -0.0001848435, 0.00104407, 0.0003407349, 0.004194917, -7.407086E-06, 0.0005187925, -0.9999979, -0.001313014, 0.3503954
 216031053, 0.0005314497, 0.01128922, -7.52017E-05, 0.00104407, 0.0001719625, 0.004332677, -9.274467E-05, 0.0005187925, -0.9999979, -0.001313288, 0.3503954
 216230973, 0.000366527, 0.01157619, -0.0002197888, 0.00104407, 0.0002543474, 0.003618897, 2.575083E-05, 0.0005187925, -0.9999979, -0.001313508, 0.3503954
 216430893, 0.000742787, 0.01081348, -0.0002906578, 0.00104407, 0.0003149039, 0.004287093, -0.0002438166, 0.0005187925, -0.9999979, -0.001312872, 0.3503954
 216630813, 0.000125692, 0.01142681, -0.0002793637, 0.00104407, 0.0002485402, 0.004279044, 0.0004992978, 0.0005187925, -0.9999979, -0.001312292, 0.3503954
 216830733, -2.117831E-05, 0.01147313, 5.509434E-05, 0.00104407, -0.0003225555, 0.003677472, -0.0003037405, 0.0005187925, -0.9999979, -0.001309966, 0.3503954
 217031486, -0.0001672938, 0.01076854, -0.0009132637, 0.001046232, -0.0001024767, 0.003807904, -0.0002769602, 0.0005187925, -0.9999979, -0.001306185, 0.3511209
 217231406, 0.0001493822, 0.01099812, -0.0001191799, 0.001046232, -5.57306E-05, 0.004158531, 0.0001167732, 0.0005209541, -0.9999979, -0.00130464, 0.3511209
 217431326, 1.521719E-05, 0.01128385, 2.566102E-05, 0.001046232, 0.0003347317, 0.004166335, -9.65662E-05, 0.0005187925, -0.9999979, -0.001301343, 0.3511209
 217631246, -9.860715E-05, 0.01122502, -0.0002976311, 0.00104407, -0.0003367201, 0.004229716, -0.0003406092, 0.0005187925, -0.9999979, -0.001295936, 0.3503954
 217831166, -0.0006593464, 0.01177544, -0.0003695833, 0.00104407, -0.0001850376, 0.004244775, 2.193289E-05, 0.0005187925, -0.9999979, -0.001293579, 0.3503954
 218031086, -8.551708E-05, 0.01153036, -0.0002996116, 0.00104407, -0.0001069681, 0.004097804, -0.0001540426, 0.0005187925, -0.9999979, -0.001290663, 0.3503954
 218231006, -0.0001414749, 0.01121273, -0.0003609155, 0.00104407, -0.0001375803, 0.003988999, -0.0001002983, 0.0005187925, -0.9999979, -0.00128718, 0.3503954
 218430926, 0.0001279423, 0.01140094, -0.000147105, 0.00104407, -4.36255E-05, 0.004397316, -0.0001270441, 0.0005187925, -0.9999979, -0.001283932, 0.3503954
 218630846, -6.391893E-05, 0.01160001, -0.0005081623, 0.00104407, 0.0001133827, 0.004271013, 0.0004058096, 0.0005187925, -0.9999978, -0.001280114, 0.3503954
 218830766, 0.0001986394, 0.01172837, 7.920782E-05, 0.00104407, -0.0002340716, 0.004361656, -0.0003877149, 0.0005187925, -0.9999978, -0.001276288, 0.3503954
 219030686, -0.0003772268, 0.01178962, -0.0003623549, 0.00104407, -4.154276E-05, 0.004243891, -0.0002312927, 0.0005187925, -0.9999978, -0.001273118, 0.3503954
 219231439, 0.0002660611, 0.01196616, -0.0005404252, 0.001046232, 0.0001700435, 0.004222407, -0.0002886043, 0.0005209541, -0.9999978, -0.001269583, 0.3511209
 219431359, 0.0004552834, 0.01144175, -0.0002782766, 0.001046232, 0.000503247, 0.004487751, -9.646609E-05, 0.0005187925, -0.9999978, -0.00127945, 0.3511209
 219631279, 0.0005952346, 0.01158599, -0.0004363591, 0.00104407, 4.719028E-05, 0.00406485, -0.0001955323, 0.0005187925, -0.9999978, -0.001287561, 0.3503954
 219831199, 0.0001505225, 0.01145783, -0.0004061135, 0.00104407, 0.0001339783, 0.004229465, 5.685319E-05, 0.0005187925, -0.9999978, -0.001295759, 0.3503954
 220031119, 0.0001858723, 0.01159473, -0.0001682764, 0.00104407, -2.361407E-07, 0.004492446, 9.81737E-05, 0.0005187925, -0.9999978, -0.001303637, 0.3503954
 220231039, 0.0001013275, 0.0115097, -0.0002131908, 0.00104407, -0.0001069664, 0.003849587, 5.478693E-05, 0.0005187925, -0.9999978, -0.001311799, 0.3503954
 220430959, -0.0002176341, 0.01112931, 0.000132696, 0.00104407, -0.000104856, 0.004235395, 4.257884E-05, 0.0005187925, -0.9999978, -0.001319118, 0.3503954
 220630879, -0.0002996617, 0.01172826, -4.72821E-05, 0.00104407, -0.0002604607, 0.004200025, -8.101916E-05, 0.0005187925, -0.9999978, -0.001324145, 0.3503954
 220830799, -0.0003601231, 0.01167622, 0.0001405511, 0.00104407, -0.0004677809, 0.004967747, 0.0001579642, 0.0005187925, -0.9999978, -0.001328857, 0.3503954
 221030719, -0.0003831753, 0.01239434, -0.0001180081, 0.00104407, 0.0004571012, 0.004021255, 0.0002148531, 0.0005187925, -0.9999978, -0.00133294, 0.3503954
 221231472, 0.0006742442, 0.01113116, -8.173058E-05, 0.001046232, 0.0002818944, 0.0037862, -6.491329E-05, 0.0005209541, -0.9999978, -0.001333964, 0.3511209
 221431392, 0.0001883121, 0.01124715, -0.0003579425, 0.001046232, 0.0001729173, 0.00444262, 0.0004614628, 0.0005187925, -0.9999978, -0.001337432, 0.3511209
 221631312, 0.0005546878, 0.01163577, 0.0004837354, 0.00104407, 0.0004535984, 0.004112058, -0.0001639175, 0.0005187925, -0.9999978, -0.001340355, 0.3503954
 221831232, 0.0002945088, 0.01136527, -0.0005908056, 0.00104407, -0.0004744135, 0.004315352, -0.0001536994, 0.0005187925, -0.9999978, -0.001340646, 0.3503954
 222031152, -0.0003298601, 0.01181487, -0.0002902908, 0.00104407, -0.0001128283, 0.004100084, 0.0001853821, 0.0005187925, -0.9999978, -0.001340835, 0.3503954
 222231072, -9.563009E-05, 0.01150508, -3.098199E-05, 0.00104407, 0.0002421786, 0.004150706, 0.0002421554, 0.0005187925, -0.9999978, -0.001340459, 0.3503954
 222430992, 4.586139E-05, 0.01158927, -0.0001172419, 0.00104407, -3.266021E-05, 0.004170949, -0.000302363, 0.0005187925, -0.9999978, -0.001340164, 0.3503954
 222630912, -0.000156637, 0.01130493, -0.01985274, 0.00104407, -0.0001143312, 0.00408484, -0.017265, 0.0005187925, -0.9999978, -0.001341343, 0.3503954
 222830832, 0.0007109834, 0.01191786, -0.3165601, 0.00104407, -3.560968E-06, 0.004784286, -0.08825547, 0.0005187925, -0.9999978, -0.001341174, 0.3503954
 223030752, -0.0003269567, 0.01189803, -0.02006631, 0.00104407, -0.0002919491, 0.004112467, 0.06923337, 0.0005187925, -0.9999978, -0.001340163, 0.3503954
 223230672, -0.000531696, 0.0112734, -0.06830858, 0.00104407, 0.0001617942, 0.004116887, -0.4002806, 0.0005187925, -0.9999987, -0.001356728, 0.3503954
 223431425, -0.004800012, 0.005770043, -1.730714, 0.001046232, -0.005282464, -0.001356107, -0.6468683, 0.0005209541, -0.9999921, -0.001444811, 0.3511209
 223631345, -0.01975645, -0.008728142, -1.071295, 0.001046232, -0.009520132, -0.004848211, -0.09114165, 0.0005187925, -0.9999811, -0.001517053, 0.3511209
 223831265, -0.02626169, -0.01321164, -0.2189303, 0.00104407, -0.00919254, -0.004317896, -0.09805665, 0.0005187925, -0.9999793, -0.001614538, 0.3503954
 224031185, -0.02423925, -0.01036357, -0.3388244, 0.00104407, -0.008309669, -0.002857843, -0.1476541, 0.0005187925, -0.9999803, -0.001733567, 0.3503954
 224231105, -0.02088375, -0.00661457, -0.3768373, 0.00104407, -0.006888392, -0.001998913, -0.1200448, 0.0005187925, -0.9999821, -0.001847073, 0.3503954
 224431025, -0.01743524, -0.003618113, -0.3017283, 0.00104407, -0.005797076, -0.0003124719, -0.09754011, 0.0005187925, -0.9999836, -0.001945369, 0.3503954
 224630945, -0.01445621, -0.0004042403, -0.2567456, 0.00104407, -0.004304674, 0.0003141747, -0.08859655, 0.0005187925, -0.9999846, -0.001914958, 0.3503954
 224830865, -0.01054535, 0.001483549, -0.2310051, 0.00104407, -0.003185042, 0.0009232443, -0.07818539, 0.0005187925, -0.9999852, -0.001878057, 0.3503954
 225030785, -0.007317905, 0.003154451, -0.2029947, 0.00104407, -0.002090537, 0.001532169, -0.06816947, 0.0005187925, -0.9999858, -0.001847449, 0.3503954
 225230705, -0.004025358, 0.004694058, -0.1774575, 0.00104407, -0.0006367704, 0.002215799, -0.05979327, 0.0005187925, -0.9999863, -0.001816386, 0.3503954
 225431458, -0.001409836, 0.006107486, -0.1560535, 0.001046232, -0.000171189, 0.002396121, -0.05275643, 0.0005209541, -0.9999868, -0.001824025, 0.3511209
 225631378, -0.001641091, 0.006981909, -0.1366318, 0.001046232, -0.001212505, 0.002686328, -0.04576266, 0.0005187925, -0.999987, -0.001931393, 0.3511209
 225831298, -0.003023276, 0.008084401, -0.1190664, 0.00104407, -0.001233019, 0.003472878, -0.04035252, 0.0005187925, -0.9999866, -0.002288272, 0.3503954
 226031218, -0.003662028, 0.0088019, -0.1050806, 0.00104407, -0.001595019, 0.00318805, -0.03561615, 0.0005187925, -0.9999851, -0.002766427, 0.3503954
 226231138, -0.004276265, 0.008424108, -0.09290487, 0.00104407, -0.001571216, 0.003182229, -0.03140863, 0.0005187925, -0.999983, -0.003208995, 0.3503954
 226431058, -0.004706537, 0.008261809, -0.08176078, 0.00104407, -0.001965973, 0.00277701, -0.02780024, 0.0005187925, -0.9999805, -0.003634481, 0.3503954
 226630978, -0.004641088, 0.007912613, -0.07176383, 0.00104407, -0.001205195, 0.002838028, -0.02428939, 0.0005187925, -0.999978, -0.004054682, 0.3503954
 226830898, -0.001172888, 0.009886256, 0.3927972, 0.00104407, 0.0006333784, 0.004362433, 0.3313535, 0.0005187925, -0.9999729, -0.004594069, 0.3503954
 227030818, 0.001458235, 0.01143086, 0.8600245, 0.00104407, 0.0007024442, 0.003944459, 0.2889071, 0.0005187925, -0.9999673, -0.005324593, 0.3503954
 227230738, 0.002132122, 0.01098447, 0.7627348, 0.00104407, 0.001092538, 0.004110633, 0.2970596, 0.0005187925, -0.9999661, -0.005933573, 0.3503954
 227430658, 0.006548305, 0.01366031, 0.8092201, 0.00104407, 0.004360952, 0.005809271, 0.2701693, 0.0005187925, -0.9999693, -0.006358837, 0.3503954
 227631411, 0.007881709, 0.01679639, 0.6497709, 0.001046232, -0.0005607834, 0.006899999, 0.1859586, 0.0005209541, -0.9999749, -0.006685271, 0.3511209
 227831331, 0.01417675, 0.0347478, 0.4283106, 0.001046232, 0.01972808, 0.02361176, 0.1186826, 0.0005187925, -0.9998322, -0.007017948, 0.3511209
 228031251, 0.1226998, 0.0903606, 0.2788237, 0.00104407, 0.08191091, 0.04490702, 0.08068207, 0.0005187925, -0.9992966, -0.006779127, 0.3503954
 228231171, 0.2771302, 0.1268016, 0.1910357, 0.00104407, 0.1235534, 0.04618672, 0.05540716, 0.0005187925, -0.9991704, -0.007430024, 0.3503954
 228431091, 0.3431036, 0.1134432, 0.1283416, 0.00104407, 0.124121, 0.03453298, 0.03463084, 0.0005187925, -0.9993687, -0.008895006, 0.3503954
 228631011, 0.3200862, 0.1032465, 0.0783101, 0.00104407, 0.1053121, 0.04588733, 0.02086448, 0.0005187925, -0.998654, -0.00769453, 0.3503954
 228830931, 0.2701439, 0.1530085, 0.04010891, 0.00104407, 0.09013311, 0.06883603, 0.005058379, 0.0005187925, -0.9972885, -0.007309083, 0.3503954
 229030851, 0.2518571, 0.1944512, -0.005921333, 0.00104407, 0.09692022, 0.07200667, -0.01243561, 0.0005187925, -0.996735, -0.009280445, 0.3503954
 229230771, 0.2864753, 0.1928445, -0.0506049, 0.00104407, 0.1140756, 0.06980705, -0.02548653, 0.0005187925, -0.9962483, -0.005010871, 0.3503954
 229430691, 0.304121, 0.2164645, -0.07997624, 0.00104407, 0.1025438, 0.09409977, -0.03584417, 0.0005187925, -0.9926452, 0.06262081, 0.3503954
 229631444, 0.2529355, 0.2816909, -0.118842, 0.001046232, 0.07755977, 0.111378, -0.05381627, 0.0005209541, -0.9689755, 0.2282227, 0.3511209
 229831364, 0.2127638, 0.2823109, -0.1579817, 0.001046232, 0.08310495, 0.08740941, -0.06198237, 0.0005187925, -0.8898007, 0.4552188, 0.3511209
 230031284, 0.2713835, 0.1996234, -0.1717932, 0.00104407, 0.1227153, 0.05353272, -0.06368218, 0.0005187925, -0.7243912, 0.686232, 0.3503954
 230231204, 0.3720071, 0.1338203, -0.1738799, 0.00104407, 0.1502291, 0.04473097, -0.06305836, 0.0005187925, -0.4790955, 0.8644018, 0.3503954
 230431124, 0.4104423, 0.112219, -0.1748247, 0.00104407, 0.1466065, 0.03280657, -0.06482979, 0.0005187925, -0.2015472, 0.9564154, 0.3503954
 230631044, 0.3974994, 0.06213775, -0.1745589, 0.00104407, 0.1439755, 0.008594973, -0.06083136, 0.0005187925, 0.05297798, 0.9669735, 0.3503954
 230830964, 0.3946543, 0.01476746, -0.157825, 0.00104407, 0.1421725, 0.003799333, -0.05298764, 0.0005187925, 0.258692, 0.9288045, 0.3503954
 231030884, 0.3695513, 0.02325033, -0.1374452, 0.00104407, 0.1230043, 0.0141303, -0.04543838, 0.0005187925, 0.4176262, 0.8697245, 0.3503954
 231230804, 0.3209504, 0.02806384, -0.1133895, 0.00104407, 0.1101524, 0.002530354, -0.03574159, 0.0005187925, 0.5189043, 0.815866, 0.3503954
 231430724, 0.2929367, -0.007967414, -0.09021962, 0.00104407, 0.1015385, -0.008615637, -0.0297816, 0.0005187925, 0.5508662, 0.7959939, 0.3503954
 231631477, 0.2436046, -0.02389801, -0.02675647, 0.001046232, 0.07051065, -0.007118523, 0.008865517, 0.0005209541, 0.5262232, 0.8139673, 0.3511209
 231831397, 0.1386381, 0.001599378, 0.03326659, 0.001046232, 0.02208477, 0.01478357, 0.01433464, 0.0005187925, 0.465909, 0.8531048, 0.3511209
 232031317, 0.01926534, 0.08303414, 0.04689234, 0.00104407, -0.01166058, 0.05263884, 0.02175011, 0.0005187925, 0.39506, 0.8890834, 0.3503954
 232231237, -0.04661876, 0.1804518, 0.06873279, 0.00104407, -0.02325089, 0.08223204, 0.03206866, 0.0005187925, 0.3438402, 0.9095846, 0.3503954
 232431157, -0.06296443, 0.2328148, 0.08729066, 0.00104407, -0.02103, 0.08553027, 0.02816823, 0.0005187925, 0.3321186, 0.9134722, 0.3503954
 232631077, -0.05438092, 0.2160817, 0.07041992, 0.00104407, -0.01910392, 0.06773428, 0.02483298, 0.0005187925, 0.3587794, 0.903612, 0.3503954
 232830997, -0.04486345, 0.1516717, 0.06366918, 0.00104407, -0.01113591, 0.03645278, 0.0209926, 0.0005187925, 0.4059875, 0.883385, 0.3503954
 233030917, -0.0118915, 0.06326446, 0.05174026, 0.00104407, 0.005687997, 0.005362042, 0.01393882, 0.0005187925, 0.4510875, 0.8606837, 0.3503954
 233230837, 0.03141075, -0.0117934, 0.03295558, 0.00104407, 0.01794719, -0.01785563, 0.01161446, 0.0005187925, 0.4776654, 0.8464211, 0.3503954
 233430757, 0.05096984, -0.05744761, 0.0257103, 0.00104407, 0.01828902, -0.022852, 0.004576529, 0.0005187925, 0.4790289, 0.8463333, 0.3503954
 233630677, 0.03904736, -0.05014396, 0.007772814, 0.00104407, 0.007972918, -0.01096569, 0.001480803, 0.0005187925, 0.459453, 0.8575169, 0.3503954
 233831430, 0.01328392, -0.01594455, 0.002030635, 0.001046232, 0.001599271, 0.0003801289, -0.001166126, 0.0005209541, 0.4290507, 0.8730475, 0.3511209
 234031350, 0.007850409, -0.005854534, -0.002424276, 0.001046232, 0.005731333, -0.00826461, 0.0006963768, 0.0005187925, 0.3975974, 0.8876041, 0.3511209
 234231270, 0.02195052, -0.03706435, 0.001728911, 0.00104407, 0.0111208, -0.01935438, -0.001136707, 0.0005187925, 0.3711219, 0.8987797, 0.3503954
 234431190, 0.02913308, -0.05123689, -0.002833847, 0.00104407, 0.008692619, -0.01627442, 0.0009793309, 0.0005187925, 0.3537062, 0.9057571, 0.3503954
 234631110, 0.01589767, -0.03188833, 0.007490161, 0.00104407, 0.001411167, -0.004725995, 0.006478486, 0.0005187925, 0.346362, 0.9086642, 0.3503954
 234831030, -0.01147635, 0.005055016, 0.05514066, 0.00104407, -0.009436667, 0.0131318, 0.02703031, 0.0005187925, 0.3493465, 0.9071222, 0.3503954
 235030950, -0.02552089, 0.05634111, 0.05912337, 0.00104407, -0.009100493, 0.02923689, 0.01560096, 0.0005187925, 0.3621145, 0.9012602, 0.3503954
 235230870, -0.02146488, 0.07913375, 0.03367249, 0.00104407, -0.005833042, 0.02648359, 0.008863396, 0.0005187925, 0.3808001, 0.8932805, 0.3503954
 235430790, -0.009150922, 0.05576886, 0.01293574, 0.00104407, 0.001026072, 0.01105259, -0.004239879, 0.0005187925, 0.3986291, 0.8857735, 0.3503954
 235630710, 0.006131851, 0.01995837, -0.02280231, 0.00104407, 0.002762948, 0.003786965, -0.01437787, 0.0005187925, 0.4102297, 0.8811516, 0.3503954
 235831463, 0.005972989, 0.005476497, -0.04227298, 0.001046232, 0.001941316, -0.001642064, -0.01632989, 0.0005209541, 0.4132952, 0.880429, 0.3511209
 236031383, 0.007603979, -0.01638683, -0.04419193, 0.001046232, 0.00449093, -0.01225947, -0.01710462, 0.0005187925, 0.4066864, 0.8838331, 0.3511209
 236231303, 0.01516742, -0.04144403, -0.04470703, 0.00104407, 0.006850466, -0.01870814, -0.01550674, 0.0005187925, 0.392094, 0.8904485, 0.3503954
 236431223, 0.0144627, -0.04393448, -0.03867507, 0.00104407, 0.002069984, -0.01025134, -0.01245811, 0.0005187925, 0.3741471, 0.8981456, 0.3503954
 236631143, -0.002468491, -0.01761393, -0.01611301, 0.00104407, -0.007637533, -0.003749517, 0.01653454, 0.0005187925, 0.35865, 0.9045845, 0.3503954
 236831063, -0.06139179, -0.02823021, 0.1377248, 0.00104407, -0.04577251, -0.02160234, 0.08659058, 0.0005187925, 0.3504644, 0.9142798, 0.3503954
 237030983, -0.1647339, -0.08835381, 0.2772958, 0.00104407, -0.07234026, -0.04810133, 0.1215685, 0.0005187925, 0.3446586, 0.9206272, 0.3503954
 237230903, -0.1554171, -0.1638397, 0.3644988, 0.00104407, -0.0299636, -0.07501231, 0.1481638, 0.0005187925, 0.3273828, 0.9201258, 0.3503954
 237430823, -0.02961131, -0.2166315, 0.4102592, 0.00104407, 0.01363049, -0.08195603, 0.1475994, 0.0005187925, 0.2919917, 0.923509, 0.3503954
 237630743, 0.0596841, -0.2113237, 0.381975, 0.00104407, 0.03122096, -0.06833467, 0.1263737, 0.0005187925, 0.2413575, 0.93311, 0.3503954
 237830663, 0.09496783, -0.170482, 0.3186424, 0.00104407, 0.04024233, -0.05410308, 0.1011725, 0.0005187925, 0.1857446, 0.9418755, 0.3503954
 238031416, 0.1256185, -0.1547131, 0.2512118, 0.001046232, 0.05407386, -0.06198811, 0.07751841, 0.0005209541, 0.1331732, 0.9467573, 0.3511209
 238231336, 0.1615854, -0.176717, 0.1871738, 0.001046232, 0.06550401, -0.0654725, 0.05540181, 0.0005187925, 0.088502, 0.9479017, 0.3511209
 238431256, 0.1889184, -0.1658587, 0.1309572, 0.00104407, 0.07328492, -0.05247113, 0.03733541, 0.0005187925, 0.05552725, 0.9465936, 0.3503954
 238631176, 0.2066086, -0.1323438, 0.08673739, 0.00104407, 0.07809778, -0.0430681, 0.02382885, 0.0005187925, 0.03466362, 0.9443753, 0.3503954
 238831096, 0.218106, -0.1173783, 0.0546484, 0.00104407, 0.08143817, -0.042769, 0.01482146, 0.0005187925, 0.02284199, 0.9416127, 0.3503954
 239031016, 0.2261517, -0.1178276, 0.03384136, 0.00104407, 0.08417253, -0.04342354, 0.008963517, 0.0005187925, 0.01571986, 0.9384491, 0.3503954
 239230936, 0.2341077, -0.1156983, 0.02029867, 0.00104407, 0.08754143, -0.04019981, 0.00539727, 0.0005187925, 0.009873065, 0.9345153, 0.3503954
 239430856, 0.2470372, -0.1018057, 0.01285778, 0.00104407, 0.09415244, -0.03268114, 0.003371108, 0.0005187925, 0.003608838, 0.9293222, 0.3503954
 239630776, 0.2629544, -0.08206392, 0.007715778, 0.00104407, 0.0976615, -0.02597607, 0.001519937, 0.0005187925, -0.003392335, 0.9250087, 0.3503954
 239830696, 0.2625524, -0.06648245, 0.002081741, 0.00104407, 0.09183786, -0.02222366, -0.0006552555, 0.0005187925, -0.01062871, 0.9234887, 0.3503954
 240031449, 0.2461076, -0.06122936, -0.0007992835, 0.001046232, 0.08783676, -0.02289997, 9.040393E-05, 0.0005209541, -0.01753531, 0.9204757, 0.3511209
 240231369, 0.2494287, -0.05836355, 0.001297871, 0.001046232, 0.09675336, -0.01823897, 0.001045044, 0.0005187925, -0.02348401, 0.9134213, 0.3511209
 240431289, 0.2792788, -0.03889679, 0.004233154, 0.00104407, 0.1091622, -0.008556378, 0.001657578, 0.0005187925, -0.02747577, 0.9055969, 0.3503954
 240631209, 0.3023498, -0.01758642, 0.003365707, 0.00104407, 0.1106634, -0.004051166, -3.478684E-05, 0.0005187925, -0.02919799, 0.9013814, 0.3503954
 240831129, 0.2922418, -0.0176204, -0.001064357, 0.00104407, 0.1002284, -0.01100541, -0.001091656, 0.0005187925, -0.02975812, 0.9006441, 0.3503954
 241031049, 0.2610772, -0.0401601, -0.002395282, 0.00104407, 0.08938674, -0.01952185, -0.001040433, 0.0005187925, -0.03096545, 0.8997356, 0.3503954
 241230969, 0.2362334, -0.05410113, -0.001871815, 0.00104407, 0.08188729, -0.01906774, -4.270276E-05, 0.0005187925, -0.03354663, 0.8978925, 0.3503954
 241430889, 0.2223111, -0.03900069, 0.0001260623, 0.00104407, 0.08060452, -0.006491461, -0.0001448779, 0.0005187925, -0.03690816, 0.8947241, 0.3503954
 241630809, 0.2185358, 0.000746794, -0.0005126428, 0.00104407, 0.07763717, 0.008942369, -0.0002538071, 0.0005187925, -0.03951941, 0.8926147, 0.3503954
 241830729, 0.2051204, 0.03628793, -0.001264392, 0.00104407, 0.07047433, 0.01835207, -0.0006742545, 0.0005187925, -0.03985019, 0.8922056, 0.3503954
 242031482, 0.1813072, 0.04905448, -0.001943147, 0.001046232, 0.06058886, 0.01605329, -0.001276623, 0.0005209541, -0.03767692, 0.8926249, 0.3511209
 242231402, 0.1579409, 0.03659099, -0.001268417, 0.001046232, 0.05450241, 0.009540834, 0.0003456604, 0.0005187925, -0.03416621, 0.8912609, 0.3511209
 242431322, 0.1519065, 0.02047386, 0.001900325, 0.00104407, 0.0573747, 0.004544498, 0.0007519573, 0.0005187925, -0.03067986, 0.8877273, 0.3503954
 242631242, 0.1567728, 0.007704694, 0.001227723, 0.00104407, 0.05590549, 0.0006005106, -0.0004107751, 0.0005187925, -0.02870763, 0.8864646, 0.3503954
 242831162, 0.1439798, 0.003186841, -0.002151345, 0.00104407, 0.04753523, 0.002979392, -0.0009326898, 0.0005187925, -0.0289115, 0.8869017, 0.3503954
 243031082, 0.1237884, 0.01745879, -0.002330637, 0.00104407, 0.04239595, 0.01113499, -0.0009825387, 0.0005187925, -0.03024117, 0.8863366, 0.3503954
 243231002, 0.1143391, 0.03651477, -0.002379894, 0.00104407, 0.04109807, 0.01599513, -0.0009701054, 0.0005187925, -0.03139918, 0.8849572, 0.3503954
 243430922, 0.1073524, 0.04367513, -0.003127038, 0.00104407, 0.03586134, 0.0153942, -0.001485944, 0.0005187925, -0.03173394, 0.8852305, 0.3503954
 243630842, 0.09361529, 0.0330605, -0.003977707, 0.00104407, 0.03251282, 0.006355615, -0.0007887855, 0.0005187925, -0.03153066, 0.8841366, 0.3503954
 243830762, 0.08858728, 0.01138817, -0.001896138, 0.00104407, 0.03157294, 0.002425066, -0.0002945329, 0.0005187925, -0.03141139, 0.8829315, 0.3503954
 244030682, 0.08230622, 0.01096055, -0.0006680831, 0.00104407, 0.02740719, 0.006559603, -0.0008971069, 0.0005187925, -0.03136721, 0.883055, 0.3503954
 244231435, 0.07312229, 0.02578111, -0.0006939217, 0.001046232, 0.02621003, 0.01344255, 0.0008229141, 0.0005209541, -0.03099041, 0.8817446, 0.3511209
 244431355, 0.07641827, 0.03964115, 0.002602762, 0.001046232, 0.03060441, 0.01485928, 0.001316618, 0.0005187925, -0.030087, 0.8789029, 0.3511209
 244631275, 0.08654453, 0.03991355, 0.002030029, 0.00104407, 0.03208588, 0.01484165, 0.0003809502, 0.0005187925, -0.02866114, 0.8773609, 0.3503954
 244831195, 0.08529845, 0.04102676, -0.0007937688, 0.00104407, 0.02931032, 0.01491708, -0.0009520905, 0.0005187925, -0.02672327, 0.8770767, 0.3503954
 245031115, 0.07687587, 0.03622212, -0.002026956, 0.00104407, 0.02666931, 0.01037257, -0.0009691854, 0.0005187925, -0.02487023, 0.8764594, 0.3503954
 245231035, 0.07120933, 0.02213206, -0.003041232, 0.00104407, 0.02467346, 0.004447827, -0.001601253, 0.0005187925, -0.02383078, 0.875984, 0.3503954
 245430955, 0.06585614, 0.003820081, -0.002937059, 0.00104407, 0.02361979, -0.003219279, -0.001145163, 0.0005187925, -0.0241965, 0.8748482, 0.3503954
 245630875, 0.06581303, -0.02029039, -0.001919419, 0.00104407, 0.02442306, -0.01329128, -0.000805523, 0.0005187925, -0.02644552, 0.8730541, 0.3503954
 245830795, 0.06896911, -0.03956378, -0.0001129652, 0.00104407, 0.02629797, -0.0144637, 0.0002878801, 0.0005187925, -0.03043964, 0.8712045, 0.3503954
 246030715, 0.07326834, -0.03062557, 0.0005186485, 0.00104407, 0.02760053, -0.006089638, -0.000291505, 0.0005187925, -0.03483509, 0.8695183, 0.3503954
 246231468, 0.0754005, -0.007584021, -0.0004085, 0.001046232, 0.02743804, 0.001667531, 0.0003253549, 0.0005209541, -0.03822725, 0.8681313, 0.3511209
 246431388, 0.07450861, 0.005357756, -0.0006331322, 0.001046232, 0.02663445, 0.001017372, -0.0005711142, 0.0005187925, -0.04013675, 0.8670152, 0.3511209
 246631308, 0.07415172, -0.003156333, -0.0005540111, 0.00104407, 0.02823393, -0.003876722, -0.0003704103, 0.0005187925, -0.04089611, 0.8646666, 0.3503954
 246831228, 0.08167234, -0.007313298, 0.0004316283, 0.00104407, 0.03214052, 0.0006802333, -0.0001397265, 0.0005187925, -0.04080024, 0.8623725, 0.3503954
 247031148, 0.08545893, 0.01361418, -0.0008387547, 0.00104407, 0.02955135, 0.01028686, -0.000829279, 0.0005187925, -0.0397885, 0.8621494, 0.3503954
 247231068, 0.07376732, 0.02588874, -0.001831078, 0.00104407, 0.02308317, 0.006155998, -0.0005087056, 0.0005187925, -0.03837999, 0.863052, 0.3503954
 247430988, 0.05822065, 0.00374686, -0.001157643, 0.00104407, 0.01922987, -0.005353645, -5.975954E-06, 0.0005187925, -0.0376987, 0.8626606, 0.3503954
 247630908, 0.05381107, -0.02420334, 0.001040411, 0.00104407, 0.02041278, -0.0128786, 0.0008025629, 0.0005187925, -0.03858503, 0.8608084, 0.3503954
 247830828, 0.05401619, -0.02952808, 0.001165674, 0.00104407, 0.01723925, -0.005781083, -0.001505293, 0.0005187925, -0.04096615, 0.862011, 0.3503954
 248030748, 0.03465598, 0.00175825, -0.00496921, 0.00104407, 0.006162776, 0.009737969, -0.001872404, 0.0005187925, -0.04345324, 0.8651503, 0.3503954
 248230668, 0.01126757, 0.03631446, -0.003524101, 0.00104407, 0.002110257, 0.01676495, -0.000349252, 0.0005187925, -0.04480752, 0.8653268, 0.3503954
 248431421, 0.00892685, 0.04796591, 0.0004511673, 0.001046232, 0.004827795, 0.01838583, 0.0007072464, 0.0005209541, -0.04439614, 0.8639941, 0.3511209
 248631341, 0.01562995, 0.0462827, 0.001724346, 0.001046232, 0.006545755, 0.01336872, 0.0008168195, 0.0005187925, -0.04247072, 0.8631694, 0.3511209
