TimeUS,CAN,CAE,CAD,CAe,NAN,NAE,NAD,NAe,m10,m00,Gye
 139033531, -0.009917707, 0.01234624, 0.000146626, 0.001089464, -0.002868384, 0.004371384, -0.0003066743, 0.0005187924, -0.1083984, 0.9941062, 0.04570375
 139234284, 0.00536449, 0.01126442, -0.0007539443, 0.001091626, 0.01408646, 0.002453613, -0.0001394366, 0.000520954, -0.1083954, 0.9941067, 0.04121499
 139434204, 0.2745055, -0.0187331, 0.0001941778, 0.001091626, 0.2083894, -0.02010914, 0.0008688979, 0.0005187924, -0.108382, 0.994108, 0.04579443
 139634124, 0.9569402, -0.09327113, 0.01244327, 0.001089464, 0.4705831, -0.04487184, 0.009308447, 0.0005187924, -0.1083547, 0.9941107, 0.04570375
 139834044, 1.74461, -0.1757709, 0.03452078, 0.001089464, 0.7292776, -0.07914671, 0.01465982, 0.0005187924, -0.1083173, 0.9941127, 0.04570375
 140033964, 2.492164, -0.267631, 0.05036297, 0.001089464, 0.9001218, -0.08979106, 0.01808826, 0.0005187924, -0.1082686, 0.9941164, 0.05027412
 140233884, 3.097188, -0.3211505, 0.06433016, 0.001089464, 1.05889, -0.1210825, 0.0227674, 0.0005187924, -0.1082287, 0.9941193, 0.04570375
 140433804, 3.377586, -0.3626392, 0.0770647, 0.001089464, 1.039881, -0.117938, 0.02507303, 0.0005187924, -0.108236, 0.9941156, 0.04570375
 140633724, 3.207545, -0.3518301, 0.07882198, 0.001089464, 0.931088, -0.09786905, 0.02367303, 0.0005187924, -0.1082206, 0.9941151, 0.04570375
 140833644, 2.862309, -0.2999879, 0.04909548, 0.001089464, 0.8291693, -0.08266996, -0.02393909, 0.0005187924, -0.1081865, 0.9941186, 0.04570375
 141033564, 2.521112, -0.2567501, -0.1001324, 0.001089464, 0.716305, -0.08452122, -0.006629008, 0.0005187924, -0.1081526, 0.9941229, 0.04570375
 141233484, 2.313231, -0.253533, -0.01176608, 0.001089464, 1.057703, -0.1256038, -0.09801509, 0.0005187924, -0.1083345, 0.9941, 0.04570375
 141434237, 3.22475, -0.3561494, -1.26839, 0.001091626, 1.022601, -0.1099475, -0.7531661, 0.000520954, -0.1090999, 0.99351, 0.04121499
 141634157, 2.876609, -0.3102145, -1.845911, 0.001091626, 0.8647125, -0.0805461, -0.4125735, 0.0005187924, -0.1070863, 0.9924376, 0.04579443
 141834077, 2.485193, -0.2435231, -0.9615949, 0.001089464, 0.7890707, -0.09058411, -0.2109195, 0.0005187924, -0.1087343, 0.9916537, 0.04570375
 142033997, 2.214148, -0.2633484, -0.6650059, 0.001089464, 0.6672527, -0.08236951, -0.2800424, 0.0005187924, -0.1099924, 0.9907431, 0.04570375
 142233917, 1.892292, -0.2200712, -0.7864109, 0.001089464, 0.5175933, -0.05718618, -0.2566971, 0.0005187924, -0.1076164, 0.9901173, 0.05027412
 142433837, 1.559815, -0.1674551, -0.7707968, 0.001089464, 0.442656, -0.04986229, -0.2024312, 0.0005187924, -0.1090919, 0.9890226, 0.04570375
 142633757, 1.344505, -0.1516027, -0.5716341, 0.001089464, 0.3816395, -0.04655445, -0.1547293, 0.0005187924, -0.109391, 0.9884353, 0.04570375
 142833677, 1.163509, -0.1083535, -0.4746932, 0.001089464, 0.3144735, -0.01888468, -0.1880941, 0.0005187924, -0.1086579, 0.987816, 0.04570375
 143033597, 0.9716078, -0.08005377, -0.5274805, 0.001089464, 0.2716432, -0.01857369, -0.1649477, 0.0005187924, -0.1095283, 0.9870799, 0.04570375
 143233517, 0.81375, -0.09593885, -0.4913513, 0.001089464, 0.2223083, -0.02226749, -0.1402648, 0.0005187924, -0.1098397, 0.9862184, 0.04570375
 143434270, 0.6899021, -0.077898, -0.390205, 0.001091626, 0.2259838, -0.02640283, -0.0994828, 0.000520954, -0.1109858, 0.9856173, 0.04121499
 143634190, 0.6249289, -0.08099631, -0.2767774, 0.001091626, 0.2060951, -0.02575756, -0.05449816, 0.0005187924, -0.1107743, 0.9854116, 0.04579443
 143834110, 0.5276212, -0.07378349, -0.2410785, 0.001089464, 0.1419993, -0.0317638, -0.1299348, 0.0005187924, -0.1128948, 0.9845321, 0.04570375
 144034030, 0.3923741, -0.07576808, -0.3541319, 0.001089464, 0.1262349, -0.007406547, -0.09132153, 0.0005187924, -0.1118824, 0.984082, 0.04570375
 144233950, 0.3453543, 0.007056758, -0.2554579, 0.001089464, 0.08515626, 0.005524055, -0.08474669, 0.0005187924, -0.1106395, 0.9836739, 0.05027412
 144433870, 0.2642838, 0.01793899, -0.2240757, 0.001089464, 0.06858219, -0.003792378, -0.04487436, 0.0005187924, -0.1116911, 0.9832804, 0.04570375
 144633790, 0.20958, -0.04943873, -0.0703886, 0.001089464, 0.06145785, -0.01031098, 0.001269214, 0.0005187924, -0.1126709, 0.9833185, 0.04570375
 144833710, 0.1905818, -0.01961897, 0.01989161, 0.001089464, 0.04686446, 0.006244803, 0.02975408, 0.0005187924, -0.111734, 0.9837213, 0.04570375
 145033630, 0.1508737, 0.007734895, 0.004462672, 0.001089464, 0.03185728, 0.00174913, -0.02820384, 0.0005187924, -0.1135818, 0.9832513, 0.04570375
 145233550, 0.09448951, -0.004691582, -0.1110682, 0.001089464, 0.01608679, -0.0008850911, -0.04382192, 0.0005187924, -0.1121763, 0.9831783, 0.04570375
 145434303, 0.1040011, 0.006605954, -0.01572073, 0.001091626, 0.04442129, 0.01408797, 0.02373899, 0.0005187924, -0.1124267, 0.9835375, 0.04579443
 145634223, 0.1094623, 0.01029725, 0.02843485, 0.001091626, 0.03361494, -0.009506409, 0.0192412, 0.000520954, -0.114258, 0.9834429, 0.04121499
 145834143, 0.1098771, -0.02966743, 0.1076991, 0.001091626, 0.04463159, -0.0006820175, 0.06850626, 0.0005187924, -0.1142902, 0.983924, 0.04579443
 146034063, 0.1073949, -0.02434117, 0.1617734, 0.001089464, 0.02877409, -0.0115454, 0.04797408, 0.0005187924, -0.1149617, 0.984405, 0.04570375
 146233983, 0.1485725, -0.03779995, 0.358672, 0.001089464, 0.06882367, -0.01409368, 0.1650824, 0.0005187924, -0.1152415, 0.985924, 0.05027412
 146433903, 0.1873318, -0.02722473, 0.4123015, 0.001089464, 0.05750261, -0.01693536, 0.09465264, 0.0005187924, -0.1165779, 0.9865841, 0.04570375
 146633823, 0.1741883, -0.03443192, 0.3402831, 0.001089464, 0.02620496, 0.004522511, 0.1160611, 0.0005187924, -0.1154189, 0.9876754, 0.04570375
 146833743, 0.04298121, 0.0533782, 0.3539059, 0.001089464, -0.005020534, 0.03004519, 0.09483529, 0.0005187924, -0.1137736, 0.9885516, 0.04570375
 147033663, -0.003792644, 0.06266682, 0.2903264, 0.001089464, 0.001244924, 0.001796752, 0.08006801, 0.0005187924, -0.1149103, 0.9890016, 0.04570375
 147233583, 0.04903065, -0.008384789, 0.397149, 0.001089464, 0.01893217, -0.004152484, 0.134753, 0.0005187924, -0.1148446, 0.9899583, 0.04570375
 147433503, 0.06369536, -0.02212808, 0.3692135, 0.001089464, 0.009391741, -0.004273492, 0.07827193, 0.0005187924, -0.1158433, 0.9903384, 0.04570375
 147634256, -0.001065015, -0.05489294, 0.2197463, 0.001091626, -0.01759768, -0.07077825, 0.08350642, 0.000520954, -0.1130643, 0.9910319, 0.04121499
 147834176, -0.01474231, 0.1296311, 0.3965721, 0.001091626, 0.02281541, 0.2248141, 0.1988516, 0.0005187924, -0.1038111, 0.9928959, 0.04579443
 148034096, 0.05177264, 0.8411857, 0.5846722, 0.001089464, 0.006818553, 0.302467, 0.1563798, 0.0005187924, -0.1136926, 0.9921107, 0.04570375
 148234016, -0.03666856, 0.5619176, 0.3297892, 0.001089464, -0.03830446, 0.02999288, 0.02566145, 0.0005187924, -0.11908, 0.9915831, 0.04570375
 148433936, -0.128255, -0.01269038, 0.1352381, 0.001089464, -0.04087467, -0.01806455, 0.1095251, 0.0005187924, -0.1029711, 0.9937844, 0.05027412
 148633856, -0.09681609, 0.04050549, 0.4739133, 0.001089464, -0.02266613, 0.07210113, 0.1815068, 0.0005187924, -0.08966041, 0.995541, 0.04570375
 148833776, -0.07733345, 0.3138643, 0.4875473, 0.001089464, -0.02737762, 0.1208318, 0.1214609, 0.0005187924, -0.08800263, 0.9958932, 0.04570375
 149033696, -0.07511555, 0.3426673, 0.4382594, 0.001089464, -0.02178603, 0.07734771, 0.125443, 0.0005187924, -0.08792175, 0.9960457, 0.04570375
 149233616, -0.08786049, 0.1994605, 0.3142677, 0.001089464, -0.04129073, 0.02980738, 0.06420494, 0.0005187924, -0.08332025, 0.9964945, 0.04570375
 149433536, -0.1133852, 0.103587, 0.3044894, 0.001089464, -0.0266763, 0.03970566, 0.1347593, 0.0005187924, -0.07557427, 0.9971386, 0.04570375
 149634289, -0.09410878, 0.1735238, 0.4060566, 0.001091626, -0.03297997, 0.08163941, 0.1329297, 0.000520954, -0.0702895, 0.9974708, 0.04121499
 149834209, -0.09873691, 0.222786, 0.4766031, 0.001091626, -0.03093378, 0.0691109, 0.1988496, 0.0005187924, -0.06749903, 0.9974782, 0.04579443
 150034129, -0.07272693, 0.2052814, 0.4708696, 0.001089464, -0.01899503, 0.05485417, 0.08249049, 0.0005187924, -0.06367283, 0.997564, 0.04570375
 150234049, -0.05443209, 0.1856938, 0.1946027, 0.001089464, -0.01730496, 0.07460047, 0.05449987, 0.0005187924, -0.05790073, 0.9978073, 0.04570375
 150433969, -0.05736799, 0.1959545, 0.2136071, 0.001089464, -0.01477864, 0.0541981, 0.09376112, 0.0005187924, -0.05359863, 0.9978407, 0.05027412
 150633889, -0.04465963, 0.1597501, 0.2843799, 0.001089464, -0.01882041, 0.03887997, 0.0763538, 0.0005187924, -0.0518104, 0.9977266, 0.04570375
 150833809, -0.0438902, 0.1126468, 0.2230192, 0.001089464, -0.0110061, 0.04368894, 0.07433053, 0.0005187924, -0.04683154, 0.9977272, 0.04570375
 151033729, -0.03313944, 0.1221962, 0.34932, 0.001089464, 0.004542722, 0.02269537, 0.1452753, 0.0005187924, -0.04520126, 0.9972823, 0.04570375
 151233649, -0.006726769, 0.08508412, 0.3295384, 0.001089464, -0.0117769, 0.03192331, 0.01846423, 0.0005187924, -0.04276281, 0.9971862, 0.04570375
 151433569, -0.04116326, 0.1191624, 0.0823999, 0.001089464, -0.01922995, 0.03553361, 0.05942246, 0.0005187924, -0.03946742, 0.9971101, 0.04570375
 151633489, -0.0497602, 0.1250871, 0.1039787, 0.001089464, -0.01732587, 0.02843605, -0.006307748, 0.0005187924, -0.03597976, 0.9972376, 0.04570375
 151834242, -0.03985649, 0.09914148, 0.03198738, 0.001091626, -0.01246955, 0.02746399, 0.0592797, 0.000520954, -0.035251, 0.9970981, 0.04121499
 152034162, -0.01953393, 0.07036012, 0.1952383, 0.001091626, -0.007673244, 0.03565885, 0.06206128, 0.0005187924, -0.03272359, 0.9968579, 0.04579443
 152234082, -0.02526516, 0.09078558, 0.2150838, 0.001089464, -0.0129662, 0.02113776, 0.07742152, 0.0005187924, -0.0322791, 0.9965453, 0.04570375
 152434002, -0.03208824, 0.05619235, 0.1382726, 0.001089464, -0.008366771, 0.01382589, 0.03756465, 0.0005187924, -0.03025655, 0.9964263, 0.04570375
 152633922, -0.01496438, 0.06367337, 0.2141234, 0.001089464, 0.01112778, 0.0301706, 0.02851156, 0.0005187924, -0.02768018, 0.9961067, 0.05027412
 152833842, 0.02879299, 0.08161895, 0.05063314, 0.001089464, 0.001672083, 0.008010639, -0.007687639, 0.0005187924, -0.02799771, 0.9960948, 0.04570375
 153033762, 4.80446E-05, 0.06002823, -0.01356169, 0.001089464, 0.008662246, 0.03208942, 0.01042407, 0.0005187924, -0.02540741, 0.9961314, 0.04570375
 153233682, 0.01090842, 0.07213715, 0.1053168, 0.001089464, 0.003346923, 0.0173376, 0.06408559, 0.0005187924, -0.0252406, 0.9957955, 0.04570375
 153433602, 0.009132593, 0.05104082, 0.1507446, 0.001089464, 0.002075647, 0.01757422, 0.03525982, 0.0005187924, -0.02357171, 0.9956269, 0.04570375
 153633522, -0.005549527, 0.05685055, 0.1232397, 0.001089464, 0.003794744, 0.0220788, 0.01545793, 0.0005187924, -0.02213309, 0.9954255, 0.04570375
 153834275, 0.004816648, 0.05579836, 0.0161571, 0.001091626, 0.0001568606, 0.01701791, -0.03698795, 0.000520954, -0.02136134, 0.995559, 0.04121499
 154034195, 0.01175939, 0.05264203, -0.04230127, 0.001091626, 0.009998659, 0.0147342, 0.03055843, 0.0005187924, -0.02034435, 0.9954436, 0.04579443
 154234115, 0.01452019, 0.04176306, 0.07256214, 0.001089464, -0.001322343, 0.01662127, 0.01656513, 0.0005187924, -0.01987243, 0.9953406, 0.04570375
 154434035, 0.01604645, 0.05154505, 0.04525057, 0.001089464, 0.008172705, 0.02187591, -0.001932153, 0.0005187924, -0.01761989, 0.9953726, 0.04570375
 154633955, 0.0350977, 0.06524192, -0.03806766, 0.001089464, 0.007089504, 0.02369138, -0.001427461, 0.0005187924, -0.01628755, 0.9954869, 0.05027412
 154833875, -0.002967298, 0.05993187, 0.02061458, 0.001089464, 0.00214939, 0.007694101, 0.01930952, 0.0005187924, -0.01677032, 0.9953451, 0.04570375
 155033795, 0.008441979, 0.02185327, 0.1090753, 0.001089464, -0.006088603, 0.009887838, 0.0359298, 0.0005187924, -0.01642762, 0.9950589, 0.04570375
 155233715, 0.006963669, 0.02735895, 0.06594981, 0.001089464, 0.01834824, 0.002829987, 0.009894894, 0.0005187924, -0.01549107, 0.9950217, 0.04570375
 155433635, 0.03395285, 0.009070825, 0.0500381, 0.001089464, 0.006739657, -0.008814502, -0.0015736, 0.0005187924, -0.01664301, 0.994936, 0.04570375
 155633555, 0.0214266, -0.007496089, -0.05055123, 0.001089464, 0.003129346, 0.0116441, 0.008628254, 0.0005187924, -0.01587842, 0.9950791, 0.04570375
 155833475, 0.01520296, 0.02584544, -0.02179173, 0.001089464, 0.009477001, 0.01229132, -0.03160376, 0.0005187924, -0.01511284, 0.9952497, 0.04570375
 156034228, 0.03043929, 0.03756982, -0.05374961, 0.001091626, 0.01047551, 0.004190776, 0.008907403, 0.000520954, -0.01487377, 0.9952391, 0.04121499
 156234148, 0.03848419, 0.02571688, 0.03571738, 0.001091626, 0.01287683, 0.009276576, 0.03777833, 0.0005187924, -0.01492561, 0.9951403, 0.04579443
 156434068, 0.03143644, 0.04042343, 0.00703896, 0.001089464, 0.01677508, 0.0209179, -0.00732249, 0.0005187924, -0.01312031, 0.9953048, 0.04570375
 156633988, 0.03561667, 0.04699489, -0.01362576, 0.001089464, 0.008990854, 0.003130416, 0.009146969, 0.0005187924, -0.01375018, 0.9953027, 0.04570375
 156833908, 0.01898468, 0.02302162, 0.05627253, 0.001089464, 0.008960097, 0.001449408, 0.01073903, 0.0005187924, -0.01373026, 0.9951497, 0.05027412
 157033828, 0.01968504, 0.007394808, 0.02596474, 0.001089464, -0.003912676, -0.006260116, -0.01802324, 0.0005187924, -0.01410963, 0.9951673, 0.04570375
 157233748, 0.01604609, 0.01569114, -0.05747991, 0.001089464, 0.01334215, 0.01005692, -0.02165691, 0.0005187924, -0.01188286, 0.995325, 0.04570375
 157433668, 0.04305091, 0.04278451, -0.06830803, 0.001089464, 0.008213393, 0.01037643, -0.0278536, 0.0005187924, -0.01209397, 0.9954671, 0.04570375
 157633588, 0.03202341, 0.02707292, -0.05386659, 0.001089464, 0.007926239, -0.0009812239, -0.02342393, 0.0005187924, -0.01329034, 0.9955394, 0.04570375
 157833508, 0.02343078, 0.006480295, 0.006935731, 0.001089464, 0.01805958, 0.008742016, 0.0229328, 0.0005187924, -0.01323362, 0.9953629, 0.04570375
 158034261, 0.0384287, 0.02281817, 0.03871155, 0.001091626, 0.003199693, 0.01352128, -0.03311269, 0.000520954, -0.01271876, 0.9954009, 0.04121499
 158234181, 0.01717207, 0.02876015, -0.06995427, 0.001091626, 0.006128196, 0.01346709, -0.02619797, 0.0005187924, -0.01240848, 0.9955494, 0.04579443
 158434101, 0.02858446, 0.02725858, -0.009259554, 0.001089464, 0.01355604, 0.009196852, 0.0437563, 0.0005187924, -0.01143579, 0.995333, 0.04570375
 158634021, 0.04616779, 0.03086375, 0.07757205, 0.001089464, 0.01530637, 0.008060934, -0.03218998, 0.0005187924, -0.01179328, 0.9954081, 0.04570375
 158833941, 0.04299162, 0.01737367, -0.07726441, 0.001089464, 0.01178555, 0.007894094, 0.01046296, 0.0005187924, -0.01193206, 0.995433, 0.05027412
 159033861, 0.03118541, 0.01629524, 0.01135476, 0.001089464, 0.01405676, 0.0155521, -0.02723033, 0.0005187924, -0.0110406, 0.9954959, 0.04570375
 159233781, 0.02688416, 0.04073421, -0.1488933, 0.001089464, 0.002422699, 0.02685857, -0.05720625, 0.0005187924, -0.01002986, 0.995903, 0.04570375
 159433701, 0.01192047, 0.07284441, -0.1021998, 0.001089464, -0.001664192, 0.0222423, -0.02691518, 0.0005187924, -0.009550181, 0.995982, 0.04570375
 159633621, 0.004915845, 0.05949993, -0.02798873, 0.001089464, 0.006021642, 0.01130363, -0.01164581, 0.0005187924, -0.009346564, 0.9959858, 0.04570375
 159833541, 0.00390742, 0.01602901, -0.09789862, 0.001089464, 0.001107233, 0.0004662857, -0.01196659, 0.0005187924, -0.009992194, 0.9961689, 0.04570375
 160034294, 0.01939318, -0.03530708, 0.01201299, 0.001091626, 0.02072624, -0.02592591, 0.02843441, 0.000520954, -0.01121599, 0.9960514, 0.04579443
 160234214, 0.04617845, -0.05728626, 0.0481033, 0.001091626, 0.009176143, -0.01149061, 0.02540369, 0.0005187924, -0.01058921, 0.9959792, 0.04121499
 160434134, 0.02908212, 0.03399486, 0.06165117, 0.001089464, 0.009643304, 0.04203542, -0.008997436, 0.0005187924, -0.009566383, 0.9959969, 0.04570375
 160634054, 0.02013526, 0.06976683, -0.07733862, 0.001089464, 0.009391489, 0.006398911, -0.005030707, 0.0005187924, -0.01133648, 0.996057, 0.04570375
 160833974, 0.01807799, 0.00268478, 0.03188977, 0.001089464, 0.006483829, -0.00104471, -0.02450754, 0.0005187924, -0.0112603, 0.996078, 0.05027412
 161033894, 0.01930161, -0.0001309966, -0.1166211, 0.001089464, 0.0003125143, 0.02074765, -0.07390793, 0.0005187924, -0.009485016, 0.9964065, 0.04570375
 161233814, -0.0004405675, 0.05456214, -0.1655172, 0.001089464, -0.002382891, -0.003250445, -0.02550106, 0.0005187924, -0.01080046, 0.9965242, 0.04570375
 161433734, 0.004654122, 0.005971282, -0.02189822, 0.001089464, -4.846786E-05, 0.009428384, -0.005008219, 0.0005187924, -0.009581881, 0.9965205, 0.04570375
 161633654, 0.00222725, 0.03794213, -0.001752474, 0.001089464, 0.0001683646, 0.00809417, -0.02399276, 0.0005187924, -0.009029883, 0.9965627, 0.04570375
 161833574, 0.009934166, 0.03138721, -0.0548841, 0.001089464, 0.008678333, 0.007539307, 0.02227636, 0.0005187924, -0.008343207, 0.9965589, 0.04570375
 162033494, 0.02476946, 0.01063518, 0.06670552, 0.001089464, 0.005237547, -0.004056802, 0.01058994, 0.0005187924, -0.008815978, 0.9964558, 0.04570375
 162234247, 0.005002498, 0.01540289, 0.001370104, 0.001091626, -0.0006237099, 0.01220026, -0.02169019, 0.000520954, -0.007662588, 0.9965236, 0.04121499
 162434167, 0.01331622, 0.04290721, -0.07227319, 0.001091626, 0.0008417589, 0.02422744, -0.05135293, 0.0005187924, -0.007619619, 0.9967192, 0.04579443
 162634087, 0.01106015, 0.03689174, -0.1043151, 0.001089464, 0.008144493, -0.004347567, 0.01342429, 0.0005187924, -0.009520998, 0.9967466, 0.04570375
 162834007, 0.009865388, -0.01818163, 0.05585958, 0.001089464, 0.003060988, 0.006532952, 0.01440684, 0.0005187924, -0.008139426, 0.9966805, 0.04570375
 163033927, 0.002389908, 0.008432809, 0.05187356, 0.001089464, -0.0008451526, 0.002232935, 0.02209056, 0.0005187924, -0.008241129, 0.996581, 0.05027412
 163233847, 0.01287762, -0.000318685, 0.01125789, 0.001089464, -0.004481089, 0.002445524, -0.008586595, 0.0005187924, -0.009254179, 0.9966344, 0.04570375
 163433767, 0.01028138, 0.01124509, -0.008187022, 0.001089464, 0.004275246, 0.01253786, -0.03451692, 0.0005187924, -0.009189242, 0.9966952, 0.04570375
 163633687, 0.02877165, 0.01624527, -0.09193806, 0.001089464, 0.007678239, 0.008426395, -0.005528145, 0.0005187924, -0.009695874, 0.9967506, 0.04570375
 163833607, 0.01318089, 0.01620357, -0.001012912, 0.001089464, 0.01675928, 0.00351486, -0.03548404, 0.0005187924, -0.009850275, 0.9968174, 0.04570375
 164033527, 0.03982178, 0.02932881, -0.1141999, 0.001089464, 0.01746941, 0.01704493, -0.02114032, 0.0005187924, -0.009216159, 0.9969885, 0.04570375
 164234280, 0.02784326, 0.02571908, -0.01784895, 0.001091626, 0.009303899, 0.01033162, 0.03144609, 0.000520954, -0.009355456, 0.9968796, 0.04121499
 164434200, 0.01157654, 0.008385795, 0.01160957, 0.001091626, -0.002349067, -0.001319655, -0.0675107, 0.0005187924, -0.009447377, 0.9970445, 0.04579443
 164634120, -0.009901898, -0.001793843, -0.08346587, 0.001089464, -0.01076031, 0.001148567, -0.0159285, 0.0005187924, -0.009001371, 0.9970986, 0.04570375
 164834040, -0.01620856, 0.00603564, 0.006305996, 0.001089464, -0.01687493, 0.005629029, 0.03609981, 0.0005187924, -0.008776454, 0.9969534, 0.04570375
 165033960, -0.005387319, 0.01584206, 0.02885036, 0.001089464, 0.004920946, -0.002687231, -0.00608525, 0.0005187924, -0.01009334, 0.9970152, 0.05027412
 165233880, 0.002664065, -0.006518816, -0.0271848, 0.001089464, -0.007754565, 0.002885002, 0.03893982, 0.0005187924, -0.009615194, 0.997014, 0.04570375
 165433800, -0.009597342, 0.03190719, 0.05430526, 0.001089464, -0.001506541, 0.002337068, -0.008264096, 0.0005187924, -0.01036906, 0.9970363, 0.04570375
 165633720, 0.002504796, 0.0008078016, -0.03912864, 0.001089464, 0.008295967, -0.006255739, 0.02234061, 0.0005187924, -0.01045562, 0.9970647, 0.04570375
 165833640, 0.01974989, -0.003624166, -0.0007732548, 0.001089464, -0.01043658, 0.004572075, -0.0472635, 0.0005187924, -0.0103501, 0.997188, 0.04570375
 166033560, -0.01542543, 0.0110238, -0.05603659, 0.001089464, 0.00342355, 0.01443867, 0.02447265, 0.0005187924, -0.009064652, 0.9971482, 0.04570375
 166233480, 0.00962789, 0.0237756, -0.009055452, 0.001089464, 0.0008086556, 0.003916324, -0.02970899, 0.0005187924, -0.009999909, 0.9972997, 0.04570375
 166434233, -0.01167981, 0.005088778, -0.05338956, 0.001091626, -0.00510264, 0.008331474, 0.01971999, 0.000520954, -0.01041717, 0.9972801, 0.04121499
 166634153, -0.001640538, 0.007305205, -0.02544814, 0.001091626, -0.009422022, 0.0003814234, -0.03096741, 0.0005187924, -0.01101995, 0.9974078, 0.04579443
 166834073, -0.0104479, -0.002467299, -0.06218854, 0.001089464, 0.0005204467, 0.008639855, 0.006205937, 0.0005187924, -0.01070648, 0.9974287, 0.04570375
 167033993, 0.002484856, 0.02254487, 0.08478478, 0.001089464, 0.001330605, 0.002186762, 0.05391501, 0.0005187924, -0.0102723, 0.9972127, 0.04570375
 167233913, 0.001916698, 0.01434415, 0.04116018, 0.001089464, -0.005808948, 0.007182409, -0.003868463, 0.0005187924, -0.01062583, 0.9973058, 0.05027412
 167433833, -0.007010784, 0.04009762, -0.04956048, 0.001089464, 0.001106101, 0.008976534, -0.00650794, 0.0005187924, -0.009437089, 0.9974263, 0.04570375
 167633753, -0.00291505, 0.04305803, -0.02245142, 0.001089464, -0.009624985, 0.02485963, 0.009436551, 0.0005187924, -0.008057198, 0.9974037, 0.04570375
 167833673, -0.0124593, 0.05690075, -0.001770484, 0.001089464, -0.004704082, 0.0144144, -0.006082485, 0.0005187924, -0.008828244, 0.9974585, 0.04570375
 168033593, -0.007091146, 0.02643106, -0.05468987, 0.001089464, 0.003009332, 0.008322531, -0.03748967, 0.0005187924, -0.007190031, 0.9975902, 0.04570375
 168233513, -0.009261408, 0.02374025, -0.0856446, 0.001089464, -0.007580917, 0.009066029, -0.02724273, 0.0005187924, -0.008519272, 0.9976704, 0.04570375
 168434266, -0.02165659, -0.0139091, 0.02558345, 0.001091626, -0.004520938, -0.006706181, 0.02513743, 0.000520954, -0.00841108, 0.9975153, 0.04121499
 168634186, -0.01067869, 0.005906712, 0.05688322, 0.001091626, -0.006280434, 0.01426196, -0.0005184483, 0.0005187924, -0.007317765, 0.9975111, 0.04579443
 168834106, -0.0142805, 0.03313516, -0.06958941, 0.001089464, -0.00462122, 0.002155219, -0.05997677, 0.0005187924, -0.00757493, 0.9976776, 0.04570375
 169034026, -0.01673525, 0.01423037, -0.03797826, 0.001089464, -0.009519939, 0.01353809, 0.0247355, 0.0005187924, -0.00674622, 0.9975336, 0.04570375
 169233946, -0.01543489, 0.03081788, 0.1444191, 0.001089464, -0.002333171, -0.01170768, 0.05879586, 0.0005187924, -0.007241139, 0.9972329, 0.05027412
 169433866, -0.001679689, -0.0260894, 0.08582579, 0.001089464, -0.0001340021, -0.004865208, -0.01864422, 0.0005187924, -0.007939659, 0.9973083, 0.04570375
 169633786, 0.001445725, 0.01853569, -0.1115637, 0.001089464, 0.01135499, 0.02582465, -0.04549104, 0.0005187924, -0.007417076, 0.9975273, 0.04570375
 169833706, 0.02470638, 0.04650613, -0.1501982, 0.001089464, 0.01477226, 0.001712164, -0.03982924, 0.0005187924, -0.008002981, 0.9977339, 0.04570375
 170033626, 0.03692824, -0.006598133, -0.009499365, 0.001089464, -0.003824085, 0.005888215, 0.03054865, 0.0005187924, -0.007938189, 0.997585, 0.04570375
 170233546, -0.007741184, 0.03604458, 0.05687833, 0.001089464, -0.0003718546, 0.0178999, -0.005590776, 0.0005187924, -0.006861909, 0.9975936, 0.04570375
 170434299, 0.0001522127, 0.03961931, 0.06414333, 0.001091626, 0.01202682, -0.006447535, 0.04540181, 0.0005187924, -0.00739323, 0.9973707, 0.04579443
 170634219, 0.02943365, -0.007090126, 0.08673718, 0.001091626, 0.009938562, -0.002747631, 0.01245287, 0.000520954, -0.006873033, 0.9973227, 0.04121499
 170834139, 0.009343801, -0.006268233, -0.04042331, 0.001091626, -0.02013796, -0.0007915352, -0.05044664, 0.0005187924, -0.007006812, 0.997542, 0.04579443
 171034059, 0.003041712, 0.02459008, -0.1289661, 0.001089464, 0.01239706, 0.01136108, 0.01384017, 0.0005187924, -0.006010299, 0.9975845, 0.04570375
 171233979, 0.01598679, 0.02070422, 0.01689916, 0.001089464, -0.01083604, -0.004785151, -0.01322923, 0.0005187924, -0.006840838, 0.9976326, 0.05027412
 171433899, -0.03164776, 0.00431677, -0.0477157, 0.001089464, -0.007049158, 0.003076487, 0.00986944, 0.0005187924, -0.006776536, 0.9976587, 0.04570375
 171633819, -0.009811151, 0.01820865, 0.06199215, 0.001089464, -0.005064749, 0.02805069, 0.001164066, 0.0005187924, -0.004828087, 0.9975796, 0.04570375
 171833739, -0.06223816, 0.07750732, -0.02535794, 0.001089464, -0.03054311, 0.02213829, 0.009520154, 0.0005187924, -0.004393294, 0.9976218, 0.04570375
 172033659, -0.05613632, 0.02644256, 0.0191043, 0.001089464, -0.006081626, -0.0107822, -0.003192292, 0.0005187924, -0.005812053, 0.9976313, 0.04570375
 172233579, 0.01061434, -0.008809962, 0.001530359, 0.001089464, 0.02568912, 0.01052233, -0.01698024, 0.0005187924, -0.005270265, 0.997641, 0.04570375
 172433499, 0.06796516, 0.02596381, -0.05088062, 0.001089464, -0.009975975, 0.01056871, -0.03306601, 0.0005187924, -0.005291922, 0.9977376, 0.04570375
 172634252, -0.09017323, 0.00629633, -0.1076823, 0.001091626, -0.03544011, -0.01119756, -0.05512193, 0.000520954, -0.006342022, 0.9979112, 0.04121499
 172834172, -0.05705174, 0.00934949, -0.0656509, 0.001091626, -0.01643441, 0.02233343, 0.03962072, 0.0005187924, -0.003540681, 0.9978159, 0.04579443
 173034092, -0.02144635, 0.05606243, 0.124014, 0.001089464, 0.007615224, 0.0001454388, 0.05237842, 0.0005187924, -0.004771744, 0.9976444, 0.04570375
 173234012, 0.008849086, 0.007830204, 0.07763667, 0.001089464, 0.001673021, 0.00958343, 0.01161246, 0.0005187924, -0.004773929, 0.9976391, 0.04570375
 173433932, 0.04686649, 0.01863978, -0.001021004, 0.001089464, -0.001223812, 0.009046866, -0.02072468, 0.0005187924, -0.003016462, 0.9977327, 0.05027412
 173633852, -0.05629008, 0.04351584, -0.09888768, 0.001089464, -0.01318875, 0.01452245, -0.03225466, 0.0005187924, -0.003462142, 0.9978802, 0.04570375
 173833772, -0.03861068, 0.02169953, -0.09689339, 0.001089464, -0.00470239, 0.005358716, -0.02488009, 0.0005187924, -0.002569287, 0.9979955, 0.04570375
 174033692, -0.009573807, 0.03355969, 0.006818386, 0.001089464, 0.001463514, 0.004217711, 0.03433704, 0.0005187924, -0.002306516, 0.9978675, 0.04570375
 174233612, 0.0006508441, 0.03177236, 0.07654728, 0.001089464, 0.001686799, 0.01184125, -0.01411989, 0.0005187924, -0.0004509435, 0.9978508, 0.04570375
 174433532, -0.005338576, 0.04151431, -0.05893248, 0.001089464, -0.01454204, 0.01142318, 0.0009682595, 0.0005187924, -0.0008312247, 0.9979189, 0.04570375
 174634285, -0.03402929, 0.01001241, 0.0252298, 0.001091626, -0.006836144, -0.009920195, 0.004591078, 0.000520954, -0.001713511, 0.9978449, 0.04121499
 174834205, -0.01093353, -0.01059308, 0.0556897, 0.001091626, 0.002080875, 0.0007228731, -0.007378163, 0.0005187924, -0.001020331, 0.9977885, 0.04579443
 175034125, 0.009060685, 0.02130965, 0.02963175, 0.001089464, 0.001583451, 0.01461624, 0.02433124, 0.0005187924, -0.0006930545, 0.997683, 0.04570375
 175234045, 0.02423388, 0.03301791, 0.0388211, 0.001089464, 0.04323393, 0.003603512, -0.01460819, 0.0005187924, -0.0005089641, 0.9977145, 0.04570375
 175433965, 0.0773272, 0.02030305, -0.02296096, 0.001089464, -0.001264315, 0.001068209, -0.01139843, 0.0005187924, -0.0005453705, 0.9977335, 0.05027412
 175633885, -0.06063376, 0.009903454, -0.09656395, 0.001089464, -0.0525116, 0.0050416, -0.03569986, 0.0005187924, 4.295819E-05, 0.9979105, 0.04570375
 175833805, -0.09137646, 0.0239405, -0.03396975, 0.001089464, -0.001169338, 0.0111216, 0.02401535, 0.0005187924, 6.043136E-05, 0.9978195, 0.04570375
 176033725, 0.06023818, 0.006827428, 0.08768706, 0.001089464, 0.02929517, -0.005155258, 0.01033989, 0.0005187924, -0.001624385, 0.9977041, 0.04570375
 176233645, 0.03810593, -0.02071319, -0.06789182, 0.001089464, -0.01488913, -0.004060141, -0.03194198, 0.0005187924, -0.001670723, 0.9979367, 0.04570375
 176433565, -0.04038769, -0.02654763, -0.1070511, 0.001089464, -0.01177376, -0.02030244, -0.01043055, 0.0005187924, -0.002959675, 0.9980522, 0.04570375
 176633485, -0.07581608, -0.02224569, -0.006943299, 0.001089464, -0.02695987, 0.004256962, -0.04039617, 0.0005187924, -0.002095659, 0.998072, 0.04570375
 176834238, -0.04515557, 0.04447283, -0.02116236, 0.001091626, -0.0001953059, 0.01229153, 0.04631749, 0.000520954, -0.001079418, 0.9979336, 0.04121499
 177034158, 0.08361886, 0.03641124, 0.1459077, 0.001091626, 0.03561194, -0.00569602, 0.04541278, 0.0005187924, -0.002209322, 0.9977558, 0.04579443
 177234078, 0.04479741, 0.01377606, 0.07363236, 0.001089464, -0.003552964, 0.02174977, -0.007456332, 0.0005187924, -0.00130947, 0.9977183, 0.04570375
 177433998, -0.02734618, 0.02613142, 0.01005251, 0.001089464, -0.01135464, -0.003850175, -0.02509981, 0.0005187924, -0.001648472, 0.9977219, 0.04570375
 177633918, -0.0204627, -0.008690224, -0.05535298, 0.001089464, 6.063054E-05, 0.008687316, -0.0302761, 0.0005187924, -0.001369459, 0.9977955, 0.05027412
 177833838, -0.009708578, 0.03268604, -0.102672, 0.001089464, -0.00530505, 0.009224032, -0.04215423, 0.0005187924, -0.001370084, 0.9979426, 0.04570375
 178033758, -0.0195361, 0.01156676, -0.1267989, 0.001089464, -0.01498678, 0.008414203, -0.02374443, 0.0005187924, -0.001607236, 0.9980782, 0.04570375
 178233678, -0.0299905, 0.02593799, 0.02633129, 0.001089464, 0.003603847, 0.005851961, 0.03010241, 0.0005187924, -0.001688708, 0.9979439, 0.04570375
 178433598, 0.002543726, 0.02119445, 0.07481895, 0.001089464, 0.009309913, 0.00438574, 0.01868692, 0.0005187924, -0.001176689, 0.9978508, 0.04570375
 178633518, 0.007649896, 0.0244558, 0.04612876, 0.001089464, 0.002121942, 0.02012398, -0.005769233, 0.0005187924, 5.794412E-06, 0.9978305, 0.04570375
 178834271, -0.002526423, 0.06444941, 0.003887033, 0.001091626, -0.006083049, 0.03981953, 0.02819002, 0.000520954, 0.001419699, 0.9977844, 0.04121499
 179034191, -0.001455, 0.07775057, 0.05881892, 0.001091626, -0.001310072, 0.02334788, 0.01486603, 0.0005187924, 0.002170154, 0.997759, 0.04579443
 179234111, -0.007058023, 0.07020002, -0.0421722, 0.001089464, 0.006561535, 0.02470427, -0.04905821, 0.0005187924, 0.002193213, 0.9979228, 0.04570375
 179434031, -0.004512656, 0.03589334, -0.1961144, 0.001089464, -0.01515127, 0.1902574, -0.141708, 0.0005187924, 0.05317735, 0.9955663, 0.04570375
 179633951, -0.2687617, 3.065855, 0.1983466, 0.001089464, -0.1849377, 1.706637, 0.7563006, 0.0005187924, 0.07077976, 0.9927536, 0.05027412
 179833871, -0.9759414, 6.559875, 2.050782, 0.001089464, -0.7278962, 3.181416, 0.01448805, 0.0005187924, 0.2127217, 0.9770784, 0.04570375
 180033791, -4.13769, 11.37813, -2.366003, 0.001089464, -2.007463, 3.398854, -1.751349, 0.0005187924, 0.4690171, 0.8789155, 0.04570375
 180233711, -5.497096, 8.023537, -4.593112, 0.001089464, -1.081474, 1.236252, -0.6474038, 0.0005187924, 0.6000437, 0.7920016, 0.04570375
 180433631, -2.615694, 2.995193, -0.7323734, 0.001089464, -0.5442535, 0.6034784, 0.2890926, 0.0005187924, 0.6510416, 0.7534701, 0.04570375
 180633551, -1.858241, 1.930912, 1.013878, 0.001089464, -0.7147998, 0.6740174, 0.2475437, 0.0005187924, 0.6916555, 0.7174013, 0.04570375
 180834304, -2.508143, 2.335117, 0.4958659, 0.001091626, -0.8818962, 0.7703331, 0.006228815, 0.0005187924, 0.7429152, 0.6637108, 0.04579443
 181034224, -2.909712, 2.348639, -0.03413662, 0.001091626, -1.032608, 0.7141097, -0.00432155, 0.000520954, 0.7941332, 0.6020975, 0.04121499
 181234144, -3.111453, 1.933306, 0.1237413, 0.001091626, -1.05364, 0.5584269, 0.09049717, 0.0005187924, 0.8373707, 0.5415078, 0.04579443
 181434064, -3.122108, 1.523857, 0.3479615, 0.001089464, -1.04357, 0.4578835, 0.1301669, 0.0005187924, 0.873411, 0.4822395, 0.04570375
 181633984, -3.274616, 1.342094, 0.321834, 0.001089464, -1.115963, 0.4207225, 0.1027501, 0.0005187924, 0.9068906, 0.4165937, 0.04570375
 181833904, -3.44241, 1.168057, 0.2360705, 0.001089464, -1.082139, 0.3053563, 0.05349527, 0.0005187924, 0.9361051, 0.3465979, 0.05027412
 182033824, -3.477747, 0.8785198, 0.1693278, 0.001089464, -1.093555, 0.2227605, 0.05606077, 0.0005187924, 0.9600555, 0.27438, 0.04570375
 182233744, -3.474358, 0.5958067, 0.2275866, 0.001089464, -1.107539, 0.142167, 0.07809089, 0.0005187924, 0.978186, 0.2018526, 0.04570375
 182433664, -3.564795, 0.337504, 0.2289751, 0.001089464, -1.131799, 0.05514716, 0.05739243, 0.0005187924, 0.9908314, 0.1270705, 0.04570375
 182633584, -3.637894, 0.06465048, 0.1788989, 0.001089464, -1.157242, -0.02527493, 0.0516516, 0.0005187924, 0.9979425, 0.0490876, 0.04570375
 182833504, -3.706925, -0.2135899, 0.1467829, 0.001089464, -1.134826, -0.1257431, 0.04561144, 0.0005187924, 0.9988306, -0.02954698, 0.04570375
 183034257, -3.603603, -0.5148182, 0.1663956, 0.001091626, -1.220505, -0.2307271, 0.07211605, 0.000520954, 0.9937319, -0.1065626, 0.04121499
 183234177, -3.673355, -0.8107752, 0.1992488, 0.001091626, -1.262545, -0.3379664, 0.05494726, 0.0005187924, 0.9822547, -0.1849792, 0.04579443
 183434097, -3.700482, -1.110424, 0.1637132, 0.001089464, -1.194112, -0.4141896, 0.07204232, 0.0005187924, 0.9646689, -0.2620705, 0.04570375
 183634017, -3.532549, -1.365985, 0.1686969, 0.001089464, -1.118982, -0.5073069, 0.0621691, 0.0005187924, 0.9415796, -0.3360156, 0.04570375
 183833937, -3.25636, -1.607074, 0.2068795, 0.001089464, -0.9240494, -0.5309939, 0.0801827, 0.0005187924, 0.9141996, -0.4048521, 0.05027412
 184033857, -2.877968, -1.760355, 0.2259996, 0.001089464, -0.8686724, -0.597356, 0.06354469, 0.0005187924, 0.8827589, -0.4696415, 0.04570375
 184233777, -2.647414, -1.926574, 0.2244571, 0.001089464, -0.770647, -0.624343, 0.07678879, 0.0005187924, 0.8484278, -0.5292689, 0.04570375
 184433697, -2.341508, -1.998567, 0.2973027, 0.001089464, -0.6650627, -0.6236712, 0.1172455, 0.0005187924, 0.8125284, -0.5829186, 0.04570375
 184633617, -2.01968, -1.988308, 0.3837723, 0.001089464, -0.564789, -0.6168888, 0.1253196, 0.0005187924, 0.776253, -0.6303127, 0.04570375
 184833537, -1.749722, -1.999249, 0.3961446, 0.001089464, -0.5010107, -0.6126615, 0.1411749, 0.0005187924, 0.7387454, -0.673632, 0.04570375
 185034290, -1.550632, -2.001065, 0.4133369, 0.001091626, -0.452739, -0.6217407, 0.1170012, 0.000520954, 0.7003118, -0.7131586, 0.04579443
 185234210, -1.318741, -1.908827, 0.4414887, 0.001091626, -0.3837308, -0.6122424, 0.1873011, 0.0005187924, 0.6645647, -0.7458878, 0.04121499
 185434130, -1.149142, -1.888746, 0.5058561, 0.001089464, -0.3755029, -0.653785, 0.1548733, 0.0005187924, 0.6266231, -0.7772779, 0.04570375
 185634050, -1.043559, -1.89057, 0.4819509, 0.001089464, -0.31258, -0.6029066, 0.1732111, 0.0005187924, 0.5911644, -0.8036716, 0.04570375
 185833970, -0.9267014, -1.819396, 0.4510544, 0.001089464, -0.260379, -0.5405028, 0.1457697, 0.0005187924, 0.5532224, -0.8291559, 0.05027412
 186033890, -0.8170369, -1.743184, 0.398463, 0.001089464, -0.2575296, -0.550196, 0.1153149, 0.0005187924, 0.5148986, -0.8524595, 0.04570375
 186233810, -0.7458754, -1.709199, 0.3763053, 0.001089464, -0.2088078, -0.5146579, 0.1268019, 0.0005187924, 0.4781901, -0.8723521, 0.04570375
 186433730, -0.6626307, -1.668369, 0.3548436, 0.001089464, -0.1993731, -0.5197434, 0.09628105, 0.0005187924, 0.4406773, -0.8908687, 0.04570375
 186633650, -0.6226422, -1.654838, 0.2426557, 0.001089464, -0.1796454, -0.5070737, 0.05645353, 0.0005187924, 0.4027488, -0.9078076, 0.04570375
 186833570, -0.5508072, -1.593983, 0.1729892, 0.001089464, -0.1498852, -0.4622318, 0.06864147, 0.0005187924, 0.3672001, -0.9220308, 0.04570375
 187033490, -0.4606572, -1.477573, 0.2115755, 0.001089464, -0.129601, -0.432978, 0.07696296, 0.0005187924, 0.3335572, -0.9338098, 0.04570375
 187234243, -0.3896932, -1.377696, 0.1887629, 0.001091626, -0.1362678, -0.4553294, 0.05514967, 0.000520954, 0.3017153, -0.943899, 0.04121499
 187434163, -0.3776961, -1.369979, 0.1105422, 0.001091626, -0.1154287, -0.4398319, 0.03684736, 0.0005187924, 0.2692661, -0.9530166, 0.04579443
 187634083, -0.3402325, -1.33583, 0.07946454, 0.001089464, -0.1066761, -0.4382484, 0.03726374, 0.0005187924, 0.2385367, -0.9607354, 0.04570375
 187834003, -0.2987314, -1.216278, 0.1061263, 0.001089464, -0.09391212, -0.367647, 0.05541301, 0.0005187924, 0.2123093, -0.9662727, 0.04570375
 188033923, -0.2717038, -1.091819, 0.09486544, 0.001089464, -0.08548853, -0.3412538, -0.02138941, 0.0005187924, 0.1846892, -0.971643, 0.05027412
 188233843, -0.2541268, -1.105963, -0.1037904, 0.001089464, -0.07239684, -0.342182, -0.04294784, 0.0005187924, 0.1577381, -0.9766037, 0.04570375
 188433763, -0.2216767, -1.026183, -0.09069334, 0.001089464, -0.05474233, -0.2833099, -0.02400144, 0.0005187924, 0.1345987, -0.9801517, 0.04570375
 188633683, -0.1910315, -0.9194543, -0.1338788, 0.001089464, -0.06111541, -0.2864248, -0.07582806, 0.0005187924, 0.110759, -0.9835412, 0.04570375
 188833603, -0.1862697, -0.8769989, -0.1877667, 0.001089464, -0.05122653, -0.254538, -0.02755073, 0.0005187924, 0.08962277, -0.9859653, 0.04570375
 189033523, -0.1595172, -0.7828202, -0.1314768, 0.001089464, -0.05101967, -0.2301776, -0.05198544, 0.0005187924, 0.07112359, -0.9878566, 0.04570375
 189234276, -0.1524224, -0.7137594, -0.1176989, 0.001091626, -0.04634112, -0.2233741, 0.002152605, 0.000520954, 0.0522541, -0.9890234, 0.04121499
 189434196, -0.1346696, -0.6926654, -0.0846971, 0.001091626, -0.04654427, -0.2469, -0.08323897, 0.0005187924, 0.03444795, -0.9902808, 0.04579443
 189634116, -0.1310597, -0.6926293, -0.276543, 0.001089464, -0.04850418, -0.2012412, -0.1399382, 0.0005187924, 0.02045834, -0.9916055, 0.04570375
 189834036, -0.1342055, -0.5847155, -0.2925952, 0.001089464, -0.03621577, -0.1993518, -0.0519481, 0.0005187924, 0.003510132, -0.9921425, 0.04570375
 190033956, -0.101919, -0.5641512, -0.1538134, 0.001089464, -0.03020539, -0.1619789, -0.04083134, 0.0005187924, -0.008816558, -0.9924901, 0.05027412
 190233876, -0.08320282, -0.4793002, -0.1728789, 0.001089464, -0.006349066, -0.1264291, -0.033352, 0.0005187924, -0.02023766, -0.9927368, 0.04570375
 190433796, -0.02822331, -0.410045, -0.07137285, 0.001089464, -0.01908608, -0.1210342, -0.01118546, 0.0005187924, -0.03129594, -0.9925316, 0.04570375
 190633716, -0.02298997, -0.3613602, -0.02399534, 0.001089464, 0.006698391, -0.08892697, 0.002555873, 0.0005187924, -0.03943426, -0.9922417, 0.04570375
 190833636, 0.0003248261, -0.3032418, -0.1241453, 0.001089464, -0.009178511, -0.1008033, -0.08817931, 0.0005187924, -0.04802446, -0.9924554, 0.04570375
 191033556, -0.01429651, -0.2923165, -0.2087957, 0.001089464, -0.005348299, -0.09481239, -0.03921742, 0.0005187924, -0.05593396, -0.9923742, 0.04570375
 191233476, -0.007600583, -0.2987307, -0.1676098, 0.001089464, 0.004722048, -0.09726682, -0.05765677, 0.0005187924, -0.06358916, -0.9923206, 0.04570375
 191434229, 0.01955323, -0.2528817, -0.08424752, 0.001091626, -0.004194913, -0.06680893, 0.008957703, 0.000520954, -0.06933157, -0.9919175, 0.04121499
 191634149, -0.009326966, -0.1850445, -0.03670586, 0.001091626, -0.005951326, -0.05816703, -0.02555397, 0.0005187924, -0.07520624, -0.9916943, 0.04579443
 191834069, -0.01129353, -0.2145811, -0.1049204, 0.001089464, 0.002387418, -0.07958625, -0.02798889, 0.0005187924, -0.08247951, -0.9913957, 0.04570375
 192033989, 0.002228324, -0.2270657, -0.1135367, 0.001089464, -0.004318327, -0.06792332, -0.06110581, 0.0005187924, -0.08585417, -0.9914297, 0.04570375
 192233909, -0.002236672, -0.1558831, -0.1367054, 0.001089464, -2.898494E-05, -0.04068916, -0.01840713, 0.0005187924, -0.0898721, -0.9912126, 0.05027412
 192433829, 0.007152779, -0.1392731, -0.09365925, 0.001089464, 0.004302545, -0.05626332, -0.03978015, 0.0005187924, -0.09567448, -0.9909408, 0.04570375
 192633749, 0.001343721, -0.1424296, -0.08314464, 0.001089464, -0.003224119, -0.02266778, -0.01457785, 0.0005187924, -0.09788827, -0.9908364, 0.04570375
 192833669, -0.007873509, -0.07381006, -0.04268605, 0.001089464, 0.001272635, -0.02308599, -0.03087563, 0.0005187924, -0.1005598, -0.9906579, 0.04570375
 193033589, 0.01329006, -0.08847771, -0.1402376, 0.001089464, 0.008005106, -0.04132684, -0.04145012, 0.0005187924, -0.1051618, -0.9905114, 0.04570375
 193233509, 0.02458922, -0.1333093, -0.1086124, 0.001089464, 0.008033484, -0.04313526, -0.009385073, 0.0005187924, -0.1084716, -0.9902911, 0.04570375
 193434262, 0.02128071, -0.1096544, -0.1108784, 0.001091626, -0.00478598, -0.02961301, -0.07289618, 0.000520954, -0.1096336, -0.9905453, 0.04121499
 193634182, -0.002272285, -0.07826182, -0.1622839, 0.001091626, 0.004368317, -0.01356448, -0.03646305, 0.0005187924, -0.1126443, -0.9903374, 0.04579443
 193834102, 0.01332858, -0.05988425, -0.01575625, 0.001089464, 0.002583141, -0.03750959, 0.01960707, 0.0005187924, -0.1162278, -0.9898543, 0.04570375
 194034022, -0.0109729, -0.09091157, -0.02096136, 0.001089464, 0.002901377, -0.02176061, -0.05375439, 0.0005187924, -0.1177616, -0.9899318, 0.04570375
 194233942, 0.00262485, -0.0569336, -0.2101798, 0.001089464, 0.0003831355, -0.006699453, -0.04818905, 0.0005187924, -0.1186228, -0.9901097, 0.05027412
 194433862, -0.003617651, -0.02607586, -0.0567415, 0.001089464, 0.00748938, -0.009084561, 0.009363528, 0.0005187924, -0.1194672, -0.9899811, 0.04570375
 194633782, 0.003105642, -0.03368602, -0.05929668, 0.001089464, 0.003481051, -0.008008865, -0.04265871, 0.0005187924, -0.1216616, -0.9899585, 0.04570375
 194833702, -0.003897845, -0.03327776, -0.1050777, 0.001089464, 0.0008705839, -0.01105116, -0.01476613, 0.0005187924, -0.1227303, -0.9899406, 0.04570375
 195033622, -0.001162368, -0.04421489, -0.03785349, 0.001089464, -0.009262704, -0.01087524, -0.02420678, 0.0005187924, -0.1232694, -0.9899511, 0.04570375
 195233542, -0.0007385919, -0.0293723, -0.01655389, 0.001089464, -0.007450024, -0.002983548, 0.03860474, 0.0005187924, -0.124856, -0.9896426, 0.04570375
 195434295, -0.05360501, -0.02610139, 0.1126313, 0.001091626, -0.02143764, -0.01015816, -0.02068544, 0.000520954, -0.1256413, -0.9894869, 0.04579443
 195634215, -0.03450986, -0.0386559, -0.1805626, 0.001091626, 0.002384029, -0.02374262, -0.09528413, 0.0005187924, -0.1287995, -0.9894745, 0.04121499
 195834135, -0.009786513, -0.04977662, -0.1230173, 0.001089464, -0.002514327, -0.009719954, 0.01410227, 0.0005187924, -0.1285659, -0.9894693, 0.04570375
 196034055, -0.01063661, -0.02344876, -0.02440676, 0.001089464, -0.002021734, -0.01361652, -0.05819108, 0.0005187924, -0.1291835, -0.9895688, 0.04570375
 196233975, 0.006008778, -0.01942323, -0.1138827, 0.001089464, 4.898659E-06, -0.004478074, -0.02156349, 0.0005187924, -0.1284696, -0.9897445, 0.05027412
 196433895, -0.004438346, -0.01165483, -0.05793538, 0.001089464, 0.007715686, -0.01117951, -0.01889922, 0.0005187924, -0.1302436, -0.9895723, 0.04570375
 196633815, -0.02311036, -0.04286825, -0.04110899, 0.001089464, -0.006572875, -0.01693093, -0.02597828, 0.0005187924, -0.1317409, -0.9894199, 0.04570375
 196833735, -0.02505863, -0.06145379, -0.06254002, 0.001089464, -0.004595609, -0.02150544, 0.006512611, 0.0005187924, -0.1335504, -0.9892234, 0.04570375
 197033655, -0.01902941, -0.0489563, -0.009724331, 0.001089464, 0.00144704, -0.009656065, -0.02823253, 0.0005187924, -0.1338691, -0.9892472, 0.04570375
 197233575, -0.001858568, -0.02566453, -0.07681789, 0.001089464, -0.0003681486, -0.006433004, 0.001855584, 0.0005187924, -0.1349576, -0.9891776, 0.04570375
 197433495, 0.0006984714, -0.007607921, -0.04622221, 0.001089464, -0.004343285, -0.002041928, -0.02252498, 0.0005187924, -0.1350772, -0.9892651, 0.04570375
 197634248, -0.01203412, -0.006429666, -0.03266475, 0.001091626, 0.005077504, -0.01401412, 0.007365827, 0.000520954, -0.1362232, -0.9891323, 0.04121499
 197834168, -0.01325256, -0.03471914, -0.06623112, 0.001091626, -0.00824901, -0.008705792, -0.02880085, 0.0005187924, -0.1363969, -0.9892241, 0.04579443
 198034088, -0.03318041, -0.01044367, -0.04296035, 0.001089464, -6.182815E-05, -0.00811931, -0.01730141, 0.0005187924, -0.1365267, -0.9892415, 0.04570375
 198234008, -0.006459688, -0.008876601, -0.09574441, 0.001089464, 0.007074213, 0.002948709, -0.04446037, 0.0005187924, -0.1373443, -0.9892702, 0.04570375
 198433928, -0.0003301816, -0.007858457, -0.08267687, 0.001089464, -0.000235775, -0.006976421, -0.03755917, 0.0005187924, -0.1379303, -0.9892577, 0.05027412
 198633848, -0.006015371, -0.0161201, -0.02229039, 0.001089464, -0.004517567, -0.003118669, 0.001015734, 0.0005187924, -0.1390675, -0.989033, 0.04570375
 198833768, -0.01043817, -0.03058062, 0.009210239, 0.001089464, -0.004785171, -0.01374527, -0.02147244, 0.0005187924, -0.1395654, -0.9889959, 0.04570375
 199033688, 0.0003473945, -0.02844884, -0.1773613, 0.001089464, -0.001215552, -0.0005896477, -0.05907403, 0.0005187924, -0.1390092, -0.9893228, 0.04570375
 199233608, -0.0007147921, 0.005955648, -0.04446629, 0.001089464, 0.001248237, 0.009459858, 0.0334479, 0.0005187924, -0.1402862, -0.9890431, 0.04570375
 199433528, 0.0004221904, -0.01802418, 0.1052546, 0.001089464, 0.0109329, -0.01997123, 0.03358984, 0.0005187924, -0.1425498, -0.9886156, 0.04570375
 199634281, -0.01496968, -0.03887697, 0.0646812, 0.001091626, -0.02832504, -0.001780344, -0.01476533, 0.000520954, -0.141101, -0.9888384, 0.04121499
 199834201, -0.03368877, -0.007218427, -0.07620643, 0.001091626, 0.008697227, -0.009050555, -0.0387137, 0.0005187924, -0.1435567, -0.9885851, 0.04579443
 200034121, 0.04065745, -0.03001374, -0.02508313, 0.001089464, 0.01957983, -0.01044314, 0.01383415, 0.0005187924, -0.1430614, -0.9885936, 0.04570375
 200234041, -0.002311918, 0.003819937, 0.002934245, 0.001089464, -0.02386063, 0.008868395, -0.02772509, 0.0005187924, -0.1419788, -0.9888006, 0.04570375
 200433961, -0.05401866, 0.003773214, -0.0319849, 0.001089464, -0.005045718, -0.02168272, 0.02176615, 0.0005187924, -0.1441155, -0.9884555, 0.05027412
 200633881, -0.05103044, -0.04338489, -0.06479362, 0.001089464, -0.02504239, -0.002969021, -0.07578544, 0.0005187924, -0.1430648, -0.9888123, 0.04570375
 200833801, -0.05169646, 0.008507063, -0.098871, 0.001089464, -0.006130897, -0.006657493, 0.01209795, 0.0005187924, -0.1431737, -0.988773, 0.04570375
 201033721, -0.01111503, -0.01426249, -0.01995928, 0.001089464, 0.01019763, -0.004426842, -0.06588026, 0.0005187924, -0.1440534, -0.9887365, 0.04570375
 201233641, 0.01168577, 6.305176E-05, -0.09345452, 0.001089464, -0.008624469, 0.01006725, 0.03404009, 0.0005187924, -0.1438504, -0.9887167, 0.04570375
 201433561, -0.03377233, 0.0008319522, 0.1021984, 0.001089464, -0.002617804, 0.003612486, -0.01725765, 0.0005187924, -0.1446936, -0.9885843, 0.04570375
 201633481, 0.005559547, -0.00423278, -0.1163905, 0.001089464, -0.001140763, 0.003352382, 0.01306068, 0.0005187924, -0.1448473, -0.9886504, 0.04570375
 201834234, -0.002180666, -0.01656254, 0.05127914, 0.001091626, -0.0005310479, -0.008514386, 0.0388665, 0.000520954, -0.1460027, -0.9884158, 0.04121499
 202034154, -0.02342648, -0.03112942, 0.0922914, 0.001091626, -0.009675718, -0.01400081, 0.01641062, 0.0005187924, -0.1457386, -0.9884008, 0.04579443
 202234074, -0.017305, -0.02799918, -0.02200007, 0.001089464, -0.0006912835, -0.009017193, -0.03674437, 0.0005187924, -0.1474601, -0.9882197, 0.04570375
 202433994, -0.009885576, -0.02889731, -0.05643859, 0.001089464, 0.004112978, 0.003310375, -0.01271177, 0.0005187924, -0.1467281, -0.9883427, 0.04570375
 202633914, -0.01057135, 0.03059438, -0.01257237, 0.001089464, -0.001331168, 0.02325264, -0.004560553, 0.0005187924, -0.1463085, -0.9883941, 0.05027412
 202833834, -0.01018747, 0.05205978, -0.009656885, 0.001089464, -0.00881236, 0.01440413, -0.026535, 0.0005187924, -0.145684, -0.9885136, 0.04570375
 203033754, -0.002351062, 0.003345911, -0.03964397, 0.001089464, 0.009510858, -0.02121703, 0.01440406, 0.0005187924, -0.1484897, -0.9880781, 0.04570375
 203233674, 0.007643371, -0.04231878, 0.01623522, 0.001089464, -0.01572892, -0.003586496, -0.005313368, 0.0005187924, -0.1471308, -0.9883218, 0.04570375
 203433594, -0.05754117, -0.008142211, -0.03596174, 0.001089464, -0.0001259229, -0.006664563, -0.03875631, 0.0005187924, -0.1475903, -0.9882956, 0.04570375
 203633514, -0.006395454, -0.005992127, -0.03913773, 0.001089464, -0.01745248, -0.004852239, 0.05131871, 0.0005187924, -0.1471735, -0.9882835, 0.04570375
 203834267, -0.04360991, 0.009284196, 0.1047733, 0.001091626, -0.01105939, 0.0136991, -0.01028194, 0.000520954, -0.1458095, -0.9884543, 0.04121499
 204034187, -0.01565986, 0.04260594, 0.02831173, 0.001091626, -0.005309936, 0.01499276, 0.01536291, 0.0005187924, -0.1457348, -0.9883936, 0.04579443
 204234107, -0.02892979, 0.01837051, 0.03549176, 0.001089464, -0.02025675, 0.0008560937, -0.01580876, 0.0005187924, -0.1461237, -0.9883606, 0.04570375
 204434027, -0.03238998, -0.01127705, -0.07391077, 0.001089464, -0.01033695, -0.007668742, -0.008551828, 0.0005187924, -0.1460838, -0.988425, 0.04570375
 204633947, -0.0232527, -0.01432582, -0.04198925, 0.001089464, 0.00325639, 0.005842677, -0.005258745, 0.0005187924, -0.1452678, -0.9885906, 0.05027412
 204833867, -0.006861615, 0.04225565, -0.02657362, 0.001089464, -0.01119875, 0.01550597, -0.006606033, 0.0005187924, -0.1449907, -0.9886554, 0.04570375
 205033787, -0.02332278, 0.01403149, 0.01681426, 0.001089464, -0.0004732879, -0.01837607, 0.03859616, 0.0005187924, -0.1468564, -0.9883187, 0.04570375
 205233707, 0.01015108, -0.04769298, -0.02475166, 0.001089464, 0.004674687, 3.098165E-05, -0.07627725, 0.0005187924, -0.14677, -0.9884749, 0.04570375
 205433627, 0.0003362189, 0.0129546, -0.04096025, 0.001089464, -0.008678795, 0.02014069, 0.05488307, 0.0005187924, -0.1452058, -0.9885881, 0.04570375
 205633547, -0.02609262, 0.03095609, 0.1532326, 0.001089464, -0.008805555, -0.0009681683, 0.05879262, 0.0005187924, -0.1460116, -0.9883312, 0.04570375
 205834300, -0.01318357, 0.01362535, 0.1113176, 0.001091626, 0.002048279, 0.005236439, 0.001083703, 0.0005187924, -0.1456115, -0.9883713, 0.04579443
 206034220, 0.01614634, 0.02001335, -0.09533875, 0.001091626, 0.01004842, 0.01528927, -0.05378604, 0.000520954, -0.1438533, -0.9887599, 0.04121499
 206234140, 0.005099022, 0.04927099, -0.0393798, 0.001091626, -0.01819713, 0.003891313, 0.0577343, 0.0005187924, -0.1444796, -0.9885971, 0.04579443
 206434060, -0.02019724, -0.006303598, 0.1443719, 0.001089464, 0.0005243189, -0.01600285, 0.03867727, 0.0005187924, -0.1455926, -0.9883312, 0.04570375
 206633980, 0.01524159, -0.01952549, 0.04825278, 0.001089464, 0.006643851, 0.003143977, 0.0127175, 0.0005187924, -0.1442783, -0.9885303, 0.05027412
 206833900, 0.04154486, 0.01408343, 0.0008260282, 0.001089464, 0.01297533, 0.008431718, -0.03906594, 0.0005187924, -0.144629, -0.9885393, 0.04570375
 207033820, 0.03918594, 0.01774191, -0.04763521, 0.001089464, 0.0102827, -0.009488968, 0.005392301, 0.0005187924, -0.1451635, -0.9884387, 0.04570375
 207233740, 0.02437338, -0.03409151, 0.06199159, 0.001089464, 0.00395331, -0.01800525, 0.01692076, 0.0005187924, -0.1464024, -0.9881477, 0.04570375
 207433660, 0.008460765, -0.02899713, 0.1126369, 0.001089464, -0.0008650257, -0.006356798, 0.03494047, 0.0005187924, -0.145311, -0.9881591, 0.04570375
 207633580, 0.01742927, -0.004858627, 0.02067175, 0.001089464, 0.01353258, -0.001200513, -0.02081391, 0.0005187924, -0.1463903, -0.98808, 0.04570375
 207833500, 0.04498147, -0.0008565777, -0.05144796, 0.001089464, 0.01198205, 0.009541691, 0.00973884, 0.0005187924, -0.1454704, -0.988233, 0.04570375
 208034253, 0.03117825, 0.0256149, 0.03409464, 0.001091626, 0.01238823, 0.01296133, -0.01855916, 0.000520954, -0.1459314, -0.9881677, 0.04121499
 208234173, 0.03230401, 0.01634822, -0.01037282, 0.001091626, 0.01754229, -0.003569653, 0.04116024, 0.0005187924, -0.1464238, -0.9880198, 0.04579443
 208434093, 0.02796421, -0.008197982, 0.1401835, 0.001089464, 0.01576358, 0.003711424, 0.06299067, 0.0005187924, -0.1463044, -0.9878722, 0.04570375
 208634013, 0.03102877, -0.006303404, 0.08974669, 0.001089464, 0.006768138, -0.01072149, 0.003621703, 0.0005187924, -0.1481506, -0.9876104, 0.04570375
 208833933, 0.02117333, -0.03539714, -0.02801165, 0.001089464, 0.001512004, 0.0002714617, 0.003941866, 0.0005187924, -0.1478754, -0.9877195, 0.05027412
 209033853, 0.02194152, -0.01040372, -0.05238695, 0.001089464, 0.02021396, -0.005056063, -0.01228966, 0.0005187924, -0.1484578, -0.9877181, 0.04570375
 209233773, 0.05092391, -0.01318262, -0.009812233, 0.001089464, 0.00660678, 0.01525929, 0.02090037, 0.0005187924, -0.1431536, -0.9884475, 0.04570375
 209433693, -0.0138939, 0.1959203, 0.1178452, 0.001089464, -0.02929747, 0.1328568, 0.02012496, 0.0005187924, -0.1353533, -0.9893481, 0.04570375
 209633613, -0.08788379, 0.5996613, 0.128671, 0.001089464, -0.03281419, 0.268396, 0.03156191, 0.0005187924, -0.1287731, -0.9900668, 0.04570375
 209833533, -0.1189867, 0.9369605, 0.05132963, 0.001089464, -0.04311857, 0.3228005, -0.01146192, 0.0005187924, -0.1208722, -0.9912609, 0.04570375
 210034286, -0.142252, 1.082441, -0.05691458, 0.001091626, -0.05052453, 0.4108212, -0.05927884, 0.000520954, -0.1051108, -0.9933366, 0.04121499
 210234206, -0.1407851, 1.286591, -0.1042816, 0.001091626, -0.0497837, 0.4529943, 0.02269911, 0.0005187924, -0.0813247, -0.995703, 0.04579443
 210434126, -0.1333344, 1.545735, -0.0389464, 0.001089464, -0.03845278, 0.5834011, -0.0479863, 0.0005187924, -0.05310199, -0.9978836, 0.04570375
 210634046, -0.09490967, 1.849348, -0.1329448, 0.001089464, -0.02031398, 0.6810982, -0.07486057, 0.0005187924, -0.01795939, -0.999387, 0.04570375
 210833966, -0.02513389, 2.146293, -0.2574845, 0.001089464, 0.01747479, 0.6888773, -0.0893551, 0.0005187924, 0.02397128, -0.9995138, 0.05027412
 211033886, 0.09815677, 2.30653, -0.2591615, 0.001089464, 0.04991716, 0.7615085, -0.06846788, 0.0005187924, 0.07056063, -0.9974437, 0.04570375
 211233806, 0.2139077, 2.462093, -0.2247656, 0.001089464, 0.09948692, 0.7900107, -0.06781296, 0.0005187924, 0.1201883, -0.9927489, 0.04570375
 211433726, 0.3869705, 2.54762, -0.2215876, 0.001089464, 0.1533033, 0.8196473, -0.06578521, 0.0005187924, 0.1729202, -0.9849248, 0.04570375
 211633646, 0.5477214, 2.579986, -0.159054, 0.001089464, 0.2078109, 0.8250852, -0.05005197, 0.0005187924, 0.2259959, -0.9740789, 0.04570375
 211833566, 0.7219611, 2.617032, -0.1558775, 0.001089464, 0.2616143, 0.807671, -0.04760944, 0.0005187924, 0.2799517, -0.9598888, 0.04570375
 212033486, 0.9510921, 2.646198, -0.1809008, 0.001089464, 0.3467185, 0.8468568, -0.0621668, 0.0005187924, 0.3379798, -0.9409184, 0.04570375
 212234239, 1.143635, 2.620814, -0.1314899, 0.001091626, 0.4003152, 0.8351104, 0.01058447, 0.000520954, 0.3916928, -0.9198273, 0.04121499
 212434159, 1.25001, 2.473266, 0.02868851, 0.001091626, 0.4420488, 0.806924, -0.005889558, 0.0005187924, 0.441404, -0.8970108, 0.04579443
 212634079, 1.359662, 2.292642, 0.03460455, 0.001089464, 0.4838822, 0.7420634, -0.003802666, 0.0005187924, 0.4883119, -0.8723791, 0.04570375
 212833999, 1.452727, 2.102142, 0.06910385, 0.001089464, 0.4982881, 0.6571736, 0.03586443, 0.0005187924, 0.5327901, -0.8460439, 0.04570375
 213033919, 1.537035, 1.92553, 0.09803592, 0.001089464, 0.4824404, 0.5461931, 0.0389239, 0.0005187924, 0.5743818, -0.8184261, 0.05027412
 213233839, 1.511667, 1.65731, 0.1701016, 0.001089464, 0.4516743, 0.4618095, 0.09126206, 0.0005187924, 0.6112238, -0.7913861, 0.04570375
 213433759, 1.475225, 1.451656, 0.2508168, 0.001089464, 0.468734, 0.4233435, 0.07336494, 0.0005187924, 0.6459912, -0.7633312, 0.04570375
 213633679, 1.437723, 1.270927, 0.2992985, 0.001089464, 0.4238402, 0.356555, 0.1116321, 0.0005187924, 0.6753645, -0.7374725, 0.04570375
 213833599, 1.328354, 1.076854, 0.3633108, 0.001089464, 0.4074992, 0.3074635, 0.1216606, 0.0005187924, 0.7011357, -0.7129045, 0.04570375
 214033519, 1.28665, 0.9498002, 0.3827453, 0.001089464, 0.4025662, 0.2833575, 0.1046054, 0.0005187924, 0.7261709, -0.6871092, 0.04570375
 214234272, 1.294214, 0.8804026, 0.3366458, 0.001091626, 0.4218884, 0.2784468, 0.1059648, 0.000520954, 0.7489849, -0.6617919, 0.04121499
 214434192, 1.199671, 0.7847033, 0.4176109, 0.001091626, 0.3833802, 0.2340433, 0.1748078, 0.0005187924, 0.7680935, -0.6387571, 0.04579443
 214634112, 1.182717, 0.712901, 0.3693947, 0.001089464, 0.4164237, 0.2480581, 0.06474574, 0.0005187924, 0.7873975, -0.6142883, 0.04570375
 214834032, 1.169544, 0.6602851, 0.2467535, 0.001089464, 0.3454267, 0.1993887, 0.1270335, 0.0005187924, 0.8038267, -0.591717, 0.04570375
 215033952, 1.04143, 0.5667453, 0.2835088, 0.001089464, 0.3123011, 0.1635187, 0.04761841, 0.0005187924, 0.8192706, -0.56949, 0.05027412
 215233872, 0.9221918, 0.4647487, 0.2280767, 0.001089464, 0.2416, 0.1231091, 0.1065724, 0.0005187924, 0.8316346, -0.5500874, 0.04570375
 215433792, 0.7676867, 0.378159, 0.2871566, 0.001089464, 0.226957, 0.1076266, 0.05541901, 0.0005187924, 0.8427786, -0.5317174, 0.04570375
 215633712, 0.6895288, 0.3201755, 0.2019952, 0.001089464, 0.2068791, 0.09457035, 0.04730392, 0.0005187924, 0.8529035, -0.5141672, 0.04570375
 215833632, 0.6299381, 0.2879474, 0.1200767, 0.001089464, 0.182337, 0.08802512, 0.009602615, 0.0005187924, 0.8614606, -0.4989346, 0.04570375
 216033552, 0.5386859, 0.2520109, 0.07121325, 0.001089464, 0.1515246, 0.06535172, 0.003026514, 0.0005187924, 0.8685361, -0.4858477, 0.04570375
 216234305, 0.4204668, 0.1787952, 0.0597333, 0.001091626, 0.1086605, 0.05657198, 0.02192583, 0.0005187924, 0.8745485, -0.4742436, 0.04579443
 216434225, 0.325569, 0.171954, 0.03013193, 0.001091626, 0.1076265, 0.05518895, -0.001628254, 0.000520954, 0.880362, -0.4630147, 0.04121499
 216634145, 0.257613, 0.1359191, -0.002242204, 0.001091626, 0.05633708, 0.02744919, 0.01268974, 0.0005187924, 0.8834667, -0.4567245, 0.04579443
 216834065, 0.1324585, 0.08094169, -0.04286785, 0.001089464, 0.0247151, 0.01235648, -0.02614049, 0.0005187924, 0.886605, -0.4509058, 0.04570375
 217033985, 0.01828935, 0.02588648, -0.02496003, 0.001089464, -0.0137575, 0.00379968, 0.01373549, 0.0005187924, 0.8874425, -0.4489668, 0.04570375
 217233905, -0.1031214, -0.009385759, -0.06480628, 0.001089464, -0.05001919, -0.0216737, -0.06977217, 0.0005187924, 0.8886263, -0.447448, 0.05027412
 217433825, -0.1720901, -0.05468065, -0.1480279, 0.001089464, -0.07059329, -0.01037964, -0.009852568, 0.0005187924, 0.8885416, -0.4478359, 0.04570375
 217633745, -0.2576595, -0.06592444, -0.03180031, 0.001089464, -0.1030333, -0.03106456, -0.02209981, 0.0005187924, 0.8872836, -0.450604, 0.04570375
 217833665, -0.3450648, -0.1167793, -0.1078511, 0.001089464, -0.1233937, -0.03796363, 0.00428915, 0.0005187924, 0.8850244, -0.4555586, 0.04570375
 218033585, -0.4158157, -0.1464587, -0.1038649, 0.001089464, -0.143551, -0.05570554, -0.08290873, 0.0005187924, 0.8827149, -0.4610228, 0.04570375
 218233505, -0.4633938, -0.1926815, -0.169294, 0.001089464, -0.1562697, -0.06352746, -0.01237365, 0.0005187924, 0.878871, -0.4687217, 0.04570375
 218434258, -0.5266783, -0.2202024, -0.099052, 0.001091626, -0.1979998, -0.08602397, -0.08283395, 0.000520954, 0.8741069, -0.4782814, 0.04121499
 218634178, -0.6140848, -0.2814366, -0.2386278, 0.001091626, -0.2174535, -0.1148012, -0.1050452, 0.0005187924, 0.8691639, -0.4881817, 0.04579443
 218834098, -0.6406568, -0.3503408, -0.2191319, 0.001089464, -0.2184013, -0.125189, -0.03889734, 0.0005187924, 0.8629611, -0.4995317, 0.04570375
 219034018, -0.6738158, -0.3893875, -0.180125, 0.001089464, -0.2453579, -0.1369121, -0.08162307, 0.0005187924, 0.8547798, -0.5140187, 0.04570375
 219233938, -0.7582105, -0.4371024, -0.1904008, 0.001089464, -0.2312744, -0.1598638, -0.0564827, 0.0005187924, 0.8461924, -0.5285413, 0.05027412
 219433858, -0.7317793, -0.4782948, -0.08553897, 0.001089464, -0.2323188, -0.1437246, 0.00706533, 0.0005187924, 0.8373642, -0.5425382, 0.04570375
 219633778, -0.7891333, -0.517208, -0.1507058, 0.001089464, -0.2673927, -0.1753151, -0.07486238, 0.0005187924, 0.8264062, -0.5597538, 0.04570375
 219833698, -0.803857, -0.5573681, -0.1299441, 0.001089464, -0.247975, -0.1750336, -0.01097621, 0.0005187924, 0.8157573, -0.5752932, 0.04570375
 220033618, -0.7889842, -0.5585043, -0.09681544, 0.001089464, -0.2374311, -0.1745531, -0.03388851, 0.0005187924, 0.8053961, -0.5900803, 0.04570375
 220233538, -0.7745852, -0.5914557, -0.1366466, 0.001089464, -0.2584817, -0.1995685, -0.03032148, 0.0005187924, 0.7916149, -0.6086531, 0.04570375
