TimeUS,CGpN,CGpE,CGpD,CGpe,PGpN,PGpE,PGpD,PGpe
 195760831, 0, 0, 0, 2.5, 0, 0, 0, 0
 195830803, 0, 0, 0, 2.5, 0, 0, 0, 2.5
 196030723, 0, 0, 0, 2.5, 0, 0, 0, 2.5
 196231476, 0, 0, 0, 2.5, 0, 0, 0, 2.5
 196431396, 0, 0, 0, 2.5, 0, 0, 0, 2.5
 196631316, 0, 0, 0, 2.5, 0, 0, 0, 2.5
 196831236, 0, 0, 0, 2.5, 0, 0, 0, 2.5
 197031156, 0, 0, 0, 2.5, 0, 0, 0, 2.5
 197231076, 0, 0, 0, 2.5, 0, 0, 0, 2.5
 197430996, 0, 0, 0, 2.5, 0, 0, 0, 2.5
 197630916, 0, 0, 0, 2.5, 0, 0, 0, 2.5
 197830836, 0, 0, 0, 2.5, 0, 0, 0, 2.5
 198030756, 0, 0, 0, 2.5, 0, 0, 0, 2.5
 198230676, 0, 0, 0, 2.5, 0, 0, 0, 2.5
 198431429, 0, 0, 0, 2.5, 0, 0, 0, 2.5
 198631349, 0, 0, 0, 2.5, 0, 0, 0, 2.5
 198831269, 0, 0, 0, 2.5, 0, 0, 0, 2.5
 199031189, 0, 0, 0, 2.5, 0, 0, 0, 2.5
 199231109, 0, 0, 0, 2.5, 0, 0, 0, 2.5
 199431029, 0, 0, 0, 2.5, 0, 0, 0, 2.5
 199630949, 0, 0, 0, 2.5, 0, 0, 0, 2.5
 199830869, 0, 0, 0, 2.5, 0, 0, 0, 2.5
 200030789, 0, 0, 0, 2.5, 0, 0, 0, 2.5
 200230709, 0, 0, 0, 2.5, 0, 0, 0, 2.5
 200431462, 0, 0, 0, 2.5, 0, 0, 0, 2.5
 200631382, 0, 0, 0, 2.5, 0, 0, 0, 2.5
 200831302, 0, 0, 0, 2.5, 0, 0, 0, 2.5
 201031222, 0, 0, 0, 2.5, 0, 0, 0, 2.5
 201231142, 0, 0, 0, 2.5, 0, 0, 0, 2.5
 201431062, 0, 0, 0, 2.5, 0, 0, 0, 2.5
 201630982, 0, 0, 0, 2.5, 0, 0, 0, 2.5
 201830902, 0, 0, 0, 2.5, 0, 0, 0, 2.5
 202030822, 0, 0, 0, 2.5, 0, 0, 0, 2.5
 202230742, 0, 0, 0, 2.5, 0, 0, 0, 2.5
 202430662, 0, 0, 0, 2.5, 0, 0, 0, 2.5
 202631415, 0, 0, 0, 2.5, 0, 0, 0, 2.5
 202831335, 0, 0, 0, 2.5, 0, 0, 0, 2.5
 203031255, 0, 0, 0, 2.5, 0, 0, 0, 2.5
 203231175, 0, 0, 0, 2.5, 0, 0, 0, 2.5
 203431095, 0, 0, 0, 2.5, 0, 0, 0, 2.5
 203631015, 0, 0, 0, 2.5, 0, 0, 0, 2.5
 203830935, 0, 0, 0, 2.5, 0, 0, 0, 2.5
 204030855, 0, 0, 0, 2.5, 0, 0, 0, 2.5
 204230775, 0, 0, 0, 2.5, 0, 0, 0, 2.5
 204430695, 0, 0, 0, 2.5, 0, 0, 0, 2.5
 204631448, 0, 0, 0, 2.5, 0, 0, 0, 2.5
 204831368, 0, 0, 0, 2.5, 0, 0, 0, 2.5
 205031288, 0, 0, 0, 2.5, 0, 0, 0, 2.5
 205231208, 0, 0, 0, 2.5, 0, 0, 0, 2.5
 205431128, 0, 0, 0, 2.5, 0, 0, 0, 2.5
 205631048, 0, 0, 0, 2.5, 0, 0, 0, 2.5
 205830968, 0, 0, 0, 2.5, 0, 0, 0, 2.5
 206030888, 0, 0, 0, 2.5, 0, 0, 0, 2.5
 206230808, 0, 0, 0, 2.5, 0, 0, 0, 2.5
 206430728, 0, 0, 0, 2.5, 0, 0, 0, 2.5
 206631481, 0, 0, 0, 2.5, 0, 0, 0, 2.5
 206831401, 0, 0, 0, 2.5, 0, 0, 0, 2.5
 207031321, 0, 0, 0, 2.5, 0, 0, 0, 2.5
 207231241, 0, 0, 0, 2.5, 0, 0, 0, 2.5
 207431161, 0, 0, 0, 2.5, 0, 0, 0, 2.5
 207631081, 0, 0, 0, 2.5, 0, 0, 0, 2.5
 207831001, 0, 0, 0, 2.5, 0, 0, 0, 2.5
 208030921, 0, 0, 0, 2.5, 0, 0, 0, 2.5
 208230841, 0, 0, 0, 2.5, 0, 0, 0, 2.5
 208430761, 0, 0, 0, 2.5, 0, 0, 0, 2.5
 208630681, 0, 0, 0, 2.5, 0, 0, 0, 2.5
 208831434, 0, 0, 0, 2.5, 0, 0, 0, 2.5
 209031354, 0, 0, 0, 2.5, 0, 0, 0, 2.5
 209231274, 0, 0, 0, 2.5, 0, 0, 0, 2.5
 209431194, 0, 0, 0, 2.5, 0, 0, 0, 2.5
 209631114, 0, 0, 0, 2.5, 0, 0, 0, 2.5
 209831034, 0, 0, 0, 2.5, 0, 0, 0, 2.5
 210030954, 0, 0, 0, 2.5, 0, 0, 0, 2.5
 210230874, 0, 0, 0, 2.5, 0, 0, 0, 2.5
 210430794, 0, 0, 0, 2.5, 0, 0, 0, 2.5
 210630714, 0, 0, 0, 2.5, 0, 0, 0, 2.5
 210831467, 0, 0, 0, 2.5, 0, 0, 0, 2.5
 211031387, 0, 0, 0, 2.5, 0, 0, 0, 2.5
 211231307, 0, 0, 0, 2.5, 0, 0, 0, 2.5
 211431227, 0, 0, 0, 2.5, 0, 0, 0, 2.5
 211631147, 0, 0, 0, 2.5, 0, 0, 0, 2.5
 211831067, 0, 0, 0, 2.5, 0, 0, 0, 2.5
 212030987, 0, 0, 0, 2.5, 0, 0, 0, 2.5
 212230907, 0, 0, 0, 2.5, 0, 0, 0, 2.5
 212430827, 0, 0, 0, 2.5, 0, 0, 0, 2.5
 212630747, 0, 0, 0, 2.5, 0, 0, 0, 2.5
 212830667, 0, 0, 0, 2.5, 0, 0, 0, 2.5
 213031420, 0, 0, 0, 2.5, 0, 0, 0, 2.5
 213231340, 0, 0, 0, 2.5, 0, 0, 0, 2.5
 213431260, 0, 0, 0, 2.5, 0, 0, 0, 2.5
 213631180, 0, 0, 0, 2.5, 0, 0, 0, 2.5
 213831100, 0, 0, 0, 2.5, 0, 0, 0, 2.5
 214031020, 0, 0, 0, 2.5, 0, 0, 0, 2.5
 214230940, 0, 0, 0, 2.5, 0, 0, 0, 2.5
 214430860, 0, 0, 0, 2.5, 0, 0, 0, 2.5
 214630780, 0, 0, 0, 2.5, 0, 0, 0, 2.5
 214830700, 0, 0, 0, 2.5, 0, 0, 0, 2.5
 215031453, 0, 0, 0, 2.5, 0, 0, 0, 2.5
 215231373, 0, 0, 0, 2.5, 0, 0, 0, 2.5
 215431293, 0, 0, 0, 2.5, 0, 0, 0, 2.5
 215631213, 0, 0, 0, 2.5, 0, 0, 0, 2.5
 215831133, 0, 0, 0, 2.5, 0, 0, 0, 2.5
 216031053, 0, 0, 0, 2.5, 0, 0, 0, 2.5
 216230973, 0, 0, 0, 2.5, 0, 0, 0, 2.5
 216430893, 0, 0, 0, 2.5, 0, 0, 0, 2.5
 216630813, 0, 0, 0, 2.5, 0, 0, 0, 2.5
 216830733, 0, 0, 0, 2.5, 0, 0, 0, 2.5
 217031486, 0, 0, 0, 2.5, 0, 0, 0, 2.5
 217231406, 0, 0, 0, 2.5, 0, 0, 0, 2.5
 217431326, 0, 0, 0, 2.5, 0, 0, 0, 2.5
 217631246, 0, 0, 0, 2.5, 0, 0, 0, 2.5
 217831166, 0, 0, 0, 2.5, 0, 0, 0, 2.5
 218031086, 0, 0, 0, 2.5, 0, 0, 0, 2.5
 218231006, 0, 0, 0, 2.5, 0, 0, 0, 2.5
 218430926, 0, 0, 0, 2.5, 0, 0, 0, 2.5
 218630846, 0, 0, 0, 2.5, 0, 0, 0, 2.5
 218830766, 0, 0, 0, 2.5, 0, 0, 0, 2.5
 219030686, 0, 0, 0, 2.5, 0, 0, 0, 2.5
 219231439, 0, 0, 0, 2.5, 0, 0, 0, 2.5
 219431359, 0, 0, 0, 2.5, 0, 0, 0, 2.5
 219631279, 0, 0, 0, 2.5, 0, 0, 0, 2.5
 219831199, 0, 0, 0, 2.5, 0, 0, 0, 2.5
 220031119, 0, 0, 0, 2.5, 0, 0, 0, 2.5
 220231039, 0, 0, 0, 2.5, 0, 0, 0, 2.5
 220430959, 0, 0, 0, 2.5, 0, 0, 0, 2.5
 220630879, 0, 0, 0, 2.5, 0, 0, 0, 2.5
 220830799, 0, 0, 0, 2.5, 0, 0, 0, 2.5
 221030719, 0, 0, 0, 2.5, 0, 0, 0, 2.5
 221231472, 0, 0, 0, 2.5, 0, 0, 0, 2.5
 221431392, 0, 0, 0, 2.5, 0, 0, 0, 2.5
 221631312, 0, 0, 0, 2.5, 0, 0, 0, 2.5
 221831232, 0, 0, 0, 2.5, 0, 0, 0, 2.5
 222031152, 0, 0, 0, 2.5, 0, 0, 0, 2.5
 222231072, 0, 0, 0, 2.5, 0, 0, 0, 2.5
 222430992, 0, 0, 0, 2.5, 0, 0, 0, 2.5
 222630912, 0, 0, 0, 2.5, 0, 0, 0, 2.5
 222830832, 0, 0, 0, 2.5, 0, 0, 0, 2.5
 223030752, 0, 0, 0, 2.5, 0, 0, 0, 2.5
 223230672, 0, 0, 0, 2.5, 0, 0, 0, 2.5
 223431425, 0, 0, 0, 2.5, 0, 0, 0, 2.5
 223631345, 0, 0, 0, 2.5, 0, 0, 0, 2.5
 223831265, 0, 0, 0, 2.5, 0, 0, 0, 2.5
 224031185, 0, 0, 0, 2.5, 0, 0, 0, 2.5
 224231105, 0, 0, 0, 2.5, 0, 0, 0, 2.5
 224431025, 0, 0, 0, 2.5, 0, 0, 0, 2.5
 224630945, 0, 0, 0, 2.5, 0, 0, 0, 2.5
 224830865, 0, 0, 0, 2.5, 0, 0, 0, 2.5
 225030785, 0, 0, 0, 2.5, 0, 0, 0, 2.5
 225230705, 0, 0, 0, 2.5, 0, 0, 0, 2.5
 225431458, 0, 0, 0, 2.5, 0, 0, 0, 2.5
 225631378, 0, 0, 0, 2.5, 0, 0, 0, 2.5
 225831298, 0, 0, 0, 2.5, 0, 0, 0, 2.5
 226031218, 0, 0, 0, 2.5, 0, 0, 0, 2.5
 226231138, 0, 0, 0, 2.5, 0, 0, 0, 2.5
 226431058, 0, 0, 0, 2.5, 0, 0, 0, 2.5
 226630978, 0, 0, 0, 2.5, 0, 0, 0, 2.5
 226830898, 0, 0, 0, 2.5, 0, 0, 0, 2.5
 227030818, 0, 0, 0, 2.5, 0, 0, 0, 2.5
 227230738, 0, 0, 0, 2.5, 0, 0, 0, 2.5
 227430658, 0, 0, 0, 2.5, 0, 0, 0, 2.5
 227631411, 0, 0, 0, 2.5, 0, 0, 0, 2.5
 227831331, 0, 0, 0, 2.5, 0, 0, 0, 2.5
 228031251, 0, 0, 0, 2.5, 0, 0, 0, 2.5
 228231171, 0, 0, 0, 2.5, 0, 0, 0, 2.5
 228431091, 0, 0, 0, 2.5, 0, 0, 0, 2.5
 228631011, 0, 0, 0, 2.5, 0, 0, 0, 2.5
 228830931, 0, 0, 0, 2.5, 0, 0, 0, 2.5
 229030851, 0, 0, 0, 2.5, 0, 0, 0, 2.5
 229230771, 0, 0, 0, 2.5, 0, 0, 0, 2.5
 229430691, 0, 0, 0, 2.5, 0, 0, 0, 2.5
 229631444, 0, 0, 0, 2.5, 0, 0, 0, 2.5
 229831364, 0, 0, 0, 2.5, 0, 0, 0, 2.5
 230031284, 0, 0, 0, 2.5, 0, 0, 0, 2.5
 230231204, 0, 0, 0, 2.5, 0, 0, 0, 2.5
 230431124, 0, 0, 0, 2.5, 0, 0, 0, 2.5
 230631044, 0, 0, 0, 2.5, 0, 0, 0, 2.5
 230830964, 0, 0, 0, 2.5, 0, 0, 0, 2.5
 231030884, 0, 0, 0, 2.5, 0, 0, 0, 2.5
 231230804, 0, 0, 0, 2.5, 0, 0, 0, 2.5
 231430724, 0, 0, 0, 2.5, 0, 0, 0, 2.5
 231631477, 0, 0, 0, 2.5, 0, 0, 0, 2.5
 231831397, 0, 0, 0, 2.5, 0, 0, 0, 2.5
 232031317, 0, 0, 0, 2.5, 0, 0, 0, 2.5
 232231237, 0, 0, 0, 2.5, 0, 0, 0, 2.5
 232431157, 0, 0, 0, 2.5, 0, 0, 0, 2.5
 232631077, 0, 0, 0, 2.5, 0, 0, 0, 2.5
 232830997, 0, 0, 0, 2.5, 0, 0, 0, 2.5
 233030917, 0, 0, 0, 2.5, 0, 0, 0, 2.5
 233230837, 0, 0, 0, 2.5, 0, 0, 0, 2.5
 233430757, 0, 0, 0, 2.5, 0, 0, 0, 2.5
 233630677, 0, 0, 0, 2.5, 0, 0, 0, 2.5
 233831430, 0, 0, 0, 2.5, 0, 0, 0, 2.5
 234031350, 0, 0, 0, 2.5, 0, 0, 0, 2.5
 234231270, 0, 0, 0, 2.5, 0, 0, 0, 2.5
 234431190, 0, 0, 0, 2.5, 0, 0, 0, 2.5
 234631110, 0, 0, 0, 2.5, 0, 0, 0, 2.5
 234831030, 0, 0, 0, 2.5, 0, 0, 0, 2.5
 235030950, 0, 0, 0, 2.5, 0, 0, 0, 2.5
 235230870, 0, 0, 0, 2.5, 0, 0, 0, 2.5
 235430790, 0, 0, 0, 2.5, 0, 0, 0, 2.5
 235630710, 0, 0, 0, 2.5, 0, 0, 0, 2.5
 235831463, 0, 0, 0, 2.5, 0, 0, 0, 2.5
 236031383, 0, 0, 0, 2.5, 0, 0, 0, 2.5
 236231303, 0, 0, 0, 2.5, 0, 0, 0, 2.5
 236431223, 0, 0, 0, 2.5, 0, 0, 0, 2.5
 236631143, 0, 0, 0, 2.5, 0, 0, 0, 2.5
 236831063, 0, 0, 0, 2.5, 0, 0, 0, 2.5
 237030983, 0, 0, 0, 2.5, 0, 0, 0, 2.5
 237230903, 0, 0, 0, 2.5, 0, 0, 0, 2.5
 237430823, 0, 0, 0, 2.5, 0, 0, 0, 2.5
 237630743, 0, 0, 0, 2.5, 0, 0, 0, 2.5
 237830663, 0, 0, 0, 2.5, 0, 0, 0, 2.5
 238031416, 0, 0, 0, 2.5, 0, 0, 0, 2.5
 238231336, 0, 0, 0, 2.5, 0, 0, 0, 2.5
 238431256, 0, 0, 0, 2.5, 0, 0, 0, 2.5
 238631176, 0, 0, 0, 2.5, 0, 0, 0, 2.5
 238831096, 0, 0, 0, 2.5, 0, 0, 0, 2.5
 239031016, 0, 0, 0, 2.5, 0, 0, 0, 2.5
 239230936, 0, 0, 0, 2.5, 0, 0, 0, 2.5
 239430856, 0, 0, 0, 2.5, 0, 0, 0, 2.5
 239630776, 0, 0, 0, 2.5, 0, 0, 0, 2.5
 239830696, 0, 0, 0, 2.5, 0, 0, 0, 2.5
 240031449, 0, 0, 0, 2.5, 0, 0, 0, 2.5
 240231369, 0, 0, 0, 2.5, 0, 0, 0, 2.5
 240431289, 0, 0, 0, 2.5, 0, 0, 0, 2.5
 240631209, 0, 0, 0, 2.5, 0, 0, 0, 2.5
 240831129, 0, 0, 0, 2.5, 0, 0, 0, 2.5
 241031049, 0, 0, 0, 2.5, 0, 0, 0, 2.5
 241230969, 0, 0, 0, 2.5, 0, 0, 0, 2.5
 241430889, 0, 0, 0, 2.5, 0, 0, 0, 2.5
 241630809, 0, 0, 0, 2.5, 0, 0, 0, 2.5
 241830729, 0, 0, 0, 2.5, 0, 0, 0, 2.5
 242031482, 0, 0, 0, 2.5, 0, 0, 0, 2.5
 242231402, 0, 0, 0, 2.5, 0, 0, 0, 2.5
 242431322, 0, 0, 0, 2.5, 0, 0, 0, 2.5
 242631242, 0, 0, 0, 2.5, 0, 0, 0, 2.5
 242831162, 0, 0, 0, 2.5, 0, 0, 0, 2.5
 243031082, 0, 0, 0, 2.5, 0, 0, 0, 2.5
 243231002, 0, 0, 0, 2.5, 0, 0, 0, 2.5
 243430922, 0, 0, 0, 2.5, 0, 0, 0, 2.5
 243630842, 0, 0, 0, 2.5, 0, 0, 0, 2.5
 243830762, 0, 0, 0, 2.5, 0, 0, 0, 2.5
 244030682, 0, 0, 0, 2.5, 0, 0, 0, 2.5
 244231435, 0, 0, 0, 2.5, 0, 0, 0, 2.5
 244431355, 0, 0, 0, 2.5, 0, 0, 0, 2.5
 244631275, 0, 0, 0, 2.5, 0, 0, 0, 2.5
 244831195, 0, 0, 0, 2.5, 0, 0, 0, 2.5
 245031115, 0, 0, 0, 2.5, 0, 0, 0, 2.5
 245231035, 0, 0, 0, 2.5, 0, 0, 0, 2.5
 245430955, 0, 0, 0, 2.5, 0, 0, 0, 2.5
 245630875, 0, 0, 0, 2.5, 0, 0, 0, 2.5
 245830795, 0, 0, 0, 2.5, 0, 0, 0, 2.5
 246030715, 0, 0, 0, 2.5, 0, 0, 0, 2.5
 246231468, 0, 0, 0, 2.5, 0, 0, 0, 2.5
 246431388, 0, 0, 0, 2.5, 0, 0, 0, 2.5
 246631308, 0, 0, 0, 2.5, 0, 0, 0, 2.5
 246831228, 0, 0, 0, 2.5, 0, 0, 0, 2.5
 247031148, 0, 0, 0, 2.5, 0, 0, 0, 2.5
 247231068, 0, 0, 0, 2.5, 0, 0, 0, 2.5
 247430988, 0, 0, 0, 2.5, 0, 0, 0, 2.5
 247630908, 0, 0, 0, 2.5, 0, 0, 0, 2.5
 247830828, 0, 0, 0, 2.5, 0, 0, 0, 2.5
 248030748, 0, 0, -0.288, 2.5, 0, 0, 0, 2.5
 248230668, 0, 0, -0.266, 2.5, 0, 0, -0.288, 2.5
 248431421, 0, 0, -0.217, 2.5, 0, 0, -0.266, 2.5
 248631341, -0.004, -0.005, -1.49, 2.5, 0, 0, -0.217, 2.5
 248831261, -0.019, -0.02, -2.084, 2.5, -0.004, -0.005, -1.49, 2.5
 249031181, -0.037, -0.037, -2.203, 2.5, -0.019, -0.02, -2.084, 2.5
 249231101, -0.054, -0.053, -2.426, 2.5, -0.037, -0.037, -2.203, 2.5
 249431021, -0.06900001, -0.067, -2.661, 2.5, -0.054, -0.053, -2.426, 2.5
 249630941, -0.081, -0.078, -2.847, 2.5, -0.06900001, -0.067, -2.661, 2.5
 249830861, -0.09200001, -0.087, -3.009, 2.5, -0.081, -0.078, -2.847, 2.5
 250030781, -0.1, -0.094, -3.152, 2.5, -0.09200001, -0.087, -3.009, 2.5
 250230701, -0.107, -0.1, -3.278, 2.5, -0.1, -0.094, -3.152, 2.5
 250431454, -0.113, -0.105, -3.388, 2.5, -0.107, -0.1, -3.278, 2.5
 250631374, -0.118, -0.109, -3.485, 2.5, -0.113, -0.105, -3.388, 2.5
 250831294, -0.121, -0.112, -3.57, 2.5, -0.118, -0.109, -3.485, 2.5
 251031214, -0.123, -0.115, -3.643, 2.5, -0.121, -0.112, -3.57, 2.5
 251231134, -0.126, -0.117, -3.709, 2.5, -0.123, -0.115, -3.643, 2.5
 251431054, -0.128, -0.12, -3.766, 2.5, -0.126, -0.117, -3.709, 2.5
 251630974, -0.129, -0.122, -3.817, 2.5, -0.128, -0.12, -3.766, 2.5
 251830894, -0.131, -0.125, -3.862, 2.5, -0.129, -0.122, -3.817, 2.5
 252030814, -0.133, -0.128, -3.901, 2.5, -0.131, -0.125, -3.862, 2.5
 252230734, -0.134, -0.131, -3.935, 2.5, -0.133, -0.128, -3.901, 2.5
 252430654, -0.136, -0.134, -3.965, 2.5, -0.134, -0.131, -3.935, 2.5
 252631407, -0.137, -0.137, -3.991, 2.5, -0.136, -0.134, -3.965, 2.5
 252831327, -0.138, -0.141, -4.014, 2.5, -0.137, -0.137, -3.991, 2.5
 253031247, -0.139, -0.144, -4.035, 2.5, -0.138, -0.141, -4.014, 2.5
 253231167, -0.14, -0.147, -4.052, 2.5, -0.139, -0.144, -4.035, 2.5
 253431087, -0.14, -0.149, -4.068, 2.5, -0.14, -0.147, -4.052, 2.5
 253631007, -0.139, -0.15, -4.081, 2.5, -0.14, -0.149, -4.068, 2.5
 253830927, -0.139, -0.151, -4.093, 2.5, -0.139, -0.15, -4.081, 2.5
 254030847, -0.138, -0.15, -4.103, 2.5, -0.139, -0.151, -4.093, 2.5
 254230767, -0.138, -0.149, -4.113, 2.5, -0.138, -0.15, -4.103, 2.5
 254430687, -0.137, -0.146, -4.121, 2.5, -0.138, -0.149, -4.113, 2.5
 254631440, -0.136, -0.143, -4.128, 2.5, -0.137, -0.146, -4.121, 2.5
 254831360, -0.136, -0.14, -4.135, 2.5, -0.136, -0.143, -4.128, 2.5
 255031280, -0.135, -0.136, -4.14, 2.5, -0.136, -0.14, -4.135, 2.5
 255231200, -0.133, -0.131, -4.126, 2.5, -0.135, -0.136, -4.14, 2.5
 255431120, -0.131, -0.127, -4.057, 2.5, -0.133, -0.131, -4.126, 2.5
 255631040, -0.127, -0.122, -3.64, 2.5, -0.131, -0.127, -4.057, 2.5
 255830960, -0.122, -0.117, -3.043, 2.5, -0.127, -0.122, -3.64, 2.5
 256030880, -0.117, -0.113, -2.519, 2.5, -0.122, -0.117, -3.043, 2.5
 256230800, -0.113, -0.11, -2.06, 2.5, -0.117, -0.113, -2.519, 2.5
 256430720, -0.109, -0.108, -1.711, 2.5, -0.113, -0.11, -2.06, 2.5
 256631473, -0.089, -0.115, -1.469, 2.5, -0.109, -0.108, -1.711, 2.5
 256831393, -0.031, -0.138, -1.268, 2.5, -0.089, -0.115, -1.469, 2.5
 257031313, 0.035, -0.137, -1.085, 2.5, -0.031, -0.138, -1.268, 2.5
 257231233, 0.07600001, -0.086, -0.9030001, 2.5, 0.035, -0.137, -1.085, 2.5
 257431153, 0.097, -0.018, -0.7220001, 2.5, 0.07600001, -0.086, -0.9030001, 2.5
 257631073, 0.142, 0.036, -0.559, 2.5, 0.097, -0.018, -0.7220001, 2.5
 257830993, 0.223, 0.08000001, -0.422, 2.5, 0.142, 0.036, -0.559, 2.5
 258030913, 0.304, 0.125, -0.31, 2.5, 0.223, 0.08000001, -0.422, 2.5
 258230833, 0.333, 0.129, -0.224, 2.5, 0.304, 0.125, -0.31, 2.5
 258430753, 0.294, 0.094, -0.157, 2.5, 0.333, 0.129, -0.224, 2.5
 258630673, 0.211, 0.054, -0.106, 2.5, 0.294, 0.094, -0.157, 2.5
 258831426, 0.128, 0.036, -0.07, 2.5, 0.211, 0.054, -0.106, 2.5
 259031346, 0.081, 0.036, -0.044, 2.5, 0.128, 0.036, -0.07, 2.5
 259231266, 0.06500001, 0.035, -0.026, 2.5, 0.081, 0.036, -0.044, 2.5
 259431186, 0.026, 0.025, -0.013, 2.5, 0.06500001, 0.035, -0.026, 2.5
 259631106, -0.047, 0.013, -0.004, 2.5, 0.026, 0.025, -0.013, 2.5
 259831026, -0.09, -0.012, 0.002, 2.5, -0.047, 0.013, -0.004, 2.5
 260030946, -0.098, -0.06500001, 0.008, 2.5, -0.09, -0.012, 0.002, 2.5
 260230866, -0.104, -0.111, 0.011, 2.5, -0.098, -0.06500001, 0.008, 2.5
 260430786, -0.112, -0.118, 0.013, 2.5, -0.104, -0.111, 0.011, 2.5
 260630706, -0.112, -0.103, 0.015, 2.5, -0.112, -0.118, 0.013, 2.5
 260831459, -0.114, -0.086, 0.015, 2.5, -0.112, -0.103, 0.015, 2.5
 261031379, -0.14, -0.051, 0.016, 2.5, -0.114, -0.086, 0.015, 2.5
 261231299, -0.159, -0.016, 0.016, 2.5, -0.14, -0.051, 0.016, 2.5
 261431219, -0.14, -0.015, 0.015, 2.5, -0.159, -0.016, 0.016, 2.5
 261631139, -0.103, -0.041, 0.015, 2.5, -0.14, -0.015, 0.015, 2.5
 261831059, -0.094, -0.06900001, 0.014, 2.5, -0.103, -0.041, 0.015, 2.5
 262030979, -0.108, -0.116, 0.014, 2.5, -0.094, -0.06900001, 0.014, 2.5
 262230899, 0, 0.0125, 0.014, 2.5, -0.108, -0.116, 0.014, 2.5
 262430819, 0, 0.0125, 0.013, 2.5, 0, 0.0125, 0.014, 2.5
 262630739, 0, 0.0125, 0.012, 2.5, 0, 0.0125, 0.013, 2.5
 262830659, 0, 0.0125, 0.01, 2.5, 0, 0.0125, 0.012, 2.5
 263031412, 0, 0.0125, 0.009000001, 2.5, 0, 0.0125, 0.01, 2.5
 263231332, 0, 0.0125, 0.008, 2.5, 0, 0.0125, 0.009000001, 2.5
 263431252, 0, 0.0125, 0.007, 2.5, 0, 0.0125, 0.008, 2.5
 263631172, 0, 0.0125, 0.006, 2.5, 0, 0.0125, 0.007, 2.5
 263831092, 0, 0.0125, 0.004, 2.5, 0, 0.0125, 0.006, 2.5
 264031012, 0, 0.0125, 0.003, 2.5, 0, 0.0125, 0.004, 2.5
 264230932, 0, 0.0125, 0.003, 2.5, 0, 0.0125, 0.003, 2.5
 264430852, 0, 0.0125, 0.002, 2.5, 0, 0.0125, 0.003, 2.5
 264630772, 0, 0.0125, 0.001, 2.5, 0, 0.0125, 0.002, 2.5
 264830692, 0, 0.0125, 0, 2.5, 0, 0.0125, 0.001, 2.5
 265031445, 0, 0.0125, 0.001, 2.5, 0, 0.0125, 0, 2.5
 265231365, 0, 0.0125, 0.001, 2.5, 0, 0.0125, 0.001, 2.5
 265431285, 0, 0.0125, 0.001, 2.5, 0, 0.0125, 0.001, 2.5
 265631205, 0, 0.0125, 0.002, 2.5, 0, 0.0125, 0.001, 2.5
 265831125, 0, 0.0125, 0.002, 2.5, 0, 0.0125, 0.002, 2.5
 266031045, 0, 0.0125, 0.003, 2.5, 0, 0.0125, 0.002, 2.5
 266230965, 0, 0.0125, 0.004, 2.5, 0, 0.0125, 0.003, 2.5
 266430885, 0, 0.0125, 0.005, 2.5, 0, 0.0125, 0.004, 2.5
 266630805, 0, 0.0125, 0.006, 2.5, 0, 0.0125, 0.005, 2.5
 266830725, 0, 0.0125, 0.009000001, 2.5, 0, 0.0125, 0.006, 2.5
 267031478, 0, 0.0125, 0.011, 2.5, 0, 0.0125, 0.009000001, 2.5
 267231398, 0, 0.0125, 0.014, 2.5, 0, 0.0125, 0.011, 2.5
 267431318, 0, 0.0125, 0.016, 2.5, 0, 0.0125, 0.014, 2.5
 267631238, 0, 0.0125, 0.019, 2.5, 0, 0.0125, 0.016, 2.5
 267831158, 0, 0.0125, 0.021, 2.5, 0, 0.0125, 0.019, 2.5
 268031078, 0, 0.0125, 0.024, 2.5, 0, 0.0125, 0.021, 2.5
 268230998, 0, 0.0125, 0.026, 2.5, 0, 0.0125, 0.024, 2.5
 268430918, 0, 0.0125, 0.029, 2.5, 0, 0.0125, 0.026, 2.5
 268630838, 0, 0.0125, 0.032, 2.5, 0, 0.0125, 0.029, 2.5
 268830758, 0, 0.0125, 0.035, 2.5, 0, 0.0125, 0.032, 2.5
 269030678, 0, 0.0125, 0.038, 2.5, 0, 0.0125, 0.035, 2.5
 269231431, 0, 0.0125, 0.041, 2.5, 0, 0.0125, 0.038, 2.5
 269431351, 0, 0.0125, 0.045, 2.5, 0, 0.0125, 0.041, 2.5
 269631271, 0, 0.0125, 0.049, 2.5, 0, 0.0125, 0.045, 2.5
 269831191, 0, 0.0125, 0.052, 2.5, 0, 0.0125, 0.049, 2.5
 270031111, 0, 0.0125, 0.056, 2.5, 0, 0.0125, 0.052, 2.5
 270231031, 0, 0.0125, 0.06, 2.5, 0, 0.0125, 0.056, 2.5
 270430951, 0, 0.0125, 0.063, 2.5, 0, 0.0125, 0.06, 2.5
 270630871, 0, 0.0125, 0.067, 2.5, 0, 0.0125, 0.063, 2.5
 270830791, 0, 0.0125, 0.072, 2.5, 0, 0.0125, 0.067, 2.5
 271030711, 0, 0.0125, 0.07600001, 2.5, 0, 0.0125, 0.072, 2.5
 271231464, 0, 0.0125, 0.079, 2.5, 0, 0.0125, 0.07600001, 2.5
 271431384, 0, 0.0125, 0.083, 2.5, 0, 0.0125, 0.079, 2.5
 271631304, 0, 0.0125, 0.086, 2.5, 0, 0.0125, 0.083, 2.5
 271831224, 0, 0.0125, 0.089, 2.5, 0, 0.0125, 0.086, 2.5
 272031144, 0, 0.0125, 0.093, 2.5, 0, 0.0125, 0.089, 2.5
 272231064, 0, 0.0125, 0.097, 2.5, 0, 0.0125, 0.093, 2.5
 272430984, 0, 0.0125, 0.101, 2.5, 0, 0.0125, 0.097, 2.5
 272630904, 0, 0.0125, 0.104, 2.5, 0, 0.0125, 0.101, 2.5
 272830824, 0, 0.0125, 0.108, 2.5, 0, 0.0125, 0.104, 2.5
 273030744, 0, 0.0125, 0.112, 2.5, 0, 0.0125, 0.108, 2.5
 273230664, 0, 0.0125, 0.117, 2.5, 0, 0.0125, 0.112, 2.5
 273431417, 0, 0.0125, 0.121, 2.5, 0, 0.0125, 0.117, 2.5
 273631337, 0, 0.0125, 0.126, 2.5, 0, 0.0125, 0.121, 2.5
 273831257, 0, 0.0125, 0.13, 2.5, 0, 0.0125, 0.126, 2.5
 274031177, 0, 0.0125, 0.135, 2.5, 0, 0.0125, 0.13, 2.5
 274231097, 0, 0.0125, 0.14, 2.5, 0, 0.0125, 0.135, 2.5
 274431017, 0, 0.0125, 0.145, 2.5, 0, 0.0125, 0.14, 2.5
 274630937, 0, 0.0125, 0.15, 2.5, 0, 0.0125, 0.145, 2.5
 274830857, 0, 0.0125, 0.156, 2.5, 0, 0.0125, 0.15, 2.5
 275030777, 0, 0.0125, 0.162, 2.5, 0, 0.0125, 0.156, 2.5
 275230697, 0, 0.0125, 0.167, 2.5, 0, 0.0125, 0.162, 2.5
 275431450, 0, 0.0125, 0.173, 2.5, 0, 0.0125, 0.167, 2.5
 275631370, 0, 0.0125, 0.179, 2.5, 0, 0.0125, 0.173, 2.5
 275831290, 0, 0.0125, 0.186, 2.5, 0, 0.0125, 0.179, 2.5
 276031210, 0, 0.0125, 0.193, 2.5, 0, 0.0125, 0.186, 2.5
 276231130, 0, 0.0125, 0.2, 2.5, 0, 0.0125, 0.193, 2.5
 276431050, 0, 0.0125, 0.207, 2.5, 0, 0.0125, 0.2, 2.5
 276630970, 0, 0.0125, 0.215, 2.5, 0, 0.0125, 0.207, 2.5
 276830890, 0, 0.0125, 0.222, 2.5, 0, 0.0125, 0.215, 2.5
 277030810, 0, 0.0125, 0.23, 2.5, 0, 0.0125, 0.222, 2.5
 277230730, 0, 0.0125, 0.238, 2.5, 0, 0.0125, 0.23, 2.5
 277431483, 0, 0.0125, 0.238, 2.5, 0, 0.0125, 0.238, 2.5
 277631403, 0, 0.0125, 0.217, 2.5, 0, 0.0125, 0.238, 2.5
 277831323, 0, 0.0125, 0.179, 2.5, 0, 0.0125, 0.217, 2.5
 278031243, 0, 0.0125, 0.132, 2.5, 0, 0.0125, 0.179, 2.5
 278231163, 0, 0.0125, 0.083, 2.5, 0, 0.0125, 0.132, 2.5
 278431083, 0, 0.0125, 0.032, 2.5, 0, 0.0125, 0.083, 2.5
 278631003, 0, 0.0125, -0.022, 2.5, 0, 0.0125, 0.032, 2.5
 278830923, 0, 0.0125, -0.079, 2.5, 0, 0.0125, -0.022, 2.5
 279030843, 0, 0.0125, -0.139, 2.5, 0, 0.0125, -0.079, 2.5
 279230763, 0, 0.0125, -0.198, 2.5, 0, 0.0125, -0.139, 2.5
 279430683, 0, 0.0125, -0.251, 2.5, 0, 0.0125, -0.198, 2.5
 279631436, 0, 0.0125, -0.297, 2.5, 0, 0.0125, -0.251, 2.5
 279831356, 0, 0.0125, -0.333, 2.5, 0, 0.0125, -0.297, 2.5
 280031276, 0, 0.0125, -0.356, 2.5, 0, 0.0125, -0.333, 2.5
 280231196, 0, 0.0125, -0.365, 2.5, 0, 0.0125, -0.356, 2.5
 280431116, 0, 0.0125, -0.362, 2.5, 0, 0.0125, -0.365, 2.5
 280631036, 0, 0.0125, -0.346, 2.5, 0, 0.0125, -0.362, 2.5
 280830956, 0, 0.0125, -0.321, 2.5, 0, 0.0125, -0.346, 2.5
 281030876, 0, 0.0125, -0.286, 2.5, 0, 0.0125, -0.321, 2.5
 281230796, 0, 0.0125, -0.246, 2.5, 0, 0.0125, -0.286, 2.5
 281430716, 0, 0.0125, -0.204, 2.5, 0, 0.0125, -0.246, 2.5
 281631469, 0, 0.0125, -0.16, 2.5, 0, 0.0125, -0.204, 2.5
 281831389, 0, 0.0125, -0.119, 2.5, 0, 0.0125, -0.16, 2.5
 282031309, 0, 0.0125, -0.082, 2.5, 0, 0.0125, -0.119, 2.5
 282231229, 0, 0.0125, -0.05, 2.5, 0, 0.0125, -0.082, 2.5
 282431149, 0, 0.0125, -0.024, 2.5, 0, 0.0125, -0.05, 2.5
 282631069, 0, 0.0125, -0.003, 2.5, 0, 0.0125, -0.024, 2.5
 282830989, 0, 0.0125, 0.011, 2.5, 0, 0.0125, -0.003, 2.5
 283030909, 0, 0.0125, 0.018, 2.5, 0, 0.0125, 0.011, 2.5
 283230829, 0, 0.0125, 0.019, 2.5, 0, 0.0125, 0.018, 2.5
 283430749, 0, 0.0125, 0.016, 2.5, 0, 0.0125, 0.019, 2.5
 283630669, 0, 0.0125, 0.01, 2.5, 0, 0.0125, 0.016, 2.5
 283831422, 0, 0.0125, 0.003, 2.5, 0, 0.0125, 0.01, 2.5
 284031342, 0, 0.0125, -0.003, 2.5, 0, 0.0125, 0.003, 2.5
 284231262, 0, 0.0125, -0.01, 2.5, 0, 0.0125, -0.003, 2.5
 284431182, 0, 0.0125, -0.017, 2.5, 0, 0.0125, -0.01, 2.5
 284631102, 0, 0.0125, -0.023, 2.5, 0, 0.0125, -0.017, 2.5
 284831022, 0, 0.0125, -0.028, 2.5, 0, 0.0125, -0.023, 2.5
 285030942, 0, 0.0125, -0.032, 2.5, 0, 0.0125, -0.028, 2.5
 285230862, 0, 0.0125, -0.035, 2.5, 0, 0.0125, -0.032, 2.5
 285430782, 0, 0.0125, -0.036, 2.5, 0, 0.0125, -0.035, 2.5
 285630702, 0, 0.0125, -0.037, 2.5, 0, 0.0125, -0.036, 2.5
 285831455, 0, 0.0125, -0.037, 2.5, 0, 0.0125, -0.037, 2.5
 286031375, 0, 0.0125, -0.036, 2.5, 0, 0.0125, -0.037, 2.5
 286231295, 0, 0.0125, -0.035, 2.5, 0, 0.0125, -0.036, 2.5
 286431215, 0, 0.0125, -0.034, 2.5, 0, 0.0125, -0.035, 2.5
 286631135, 0, 0.0125, -0.032, 2.5, 0, 0.0125, -0.034, 2.5
 286831055, 0, 0.0125, -0.031, 2.5, 0, 0.0125, -0.032, 2.5
 287030975, 0, 0.0125, -0.03, 2.5, 0, 0.0125, -0.031, 2.5
 287230895, 0, 0.0125, -0.029, 2.5, 0, 0.0125, -0.03, 2.5
 287430815, 0, 0.0125, -0.028, 2.5, 0, 0.0125, -0.029, 2.5
 287630735, 0, 0.0125, -0.028, 2.5, 0, 0.0125, -0.028, 2.5
 287830655, 0, 0.0125, -0.028, 2.5, 0, 0.0125, -0.028, 2.5
 288031408, 0, 0.0125, -0.029, 2.5, 0, 0.0125, -0.028, 2.5
 288231328, 0, 0.0125, -0.03, 2.5, 0, 0.0125, -0.029, 2.5
 288431248, 0, 0.0125, -0.031, 2.5, 0, 0.0125, -0.03, 2.5
 288631168, 0, 0.0125, -0.033, 2.5, 0, 0.0125, -0.031, 2.5
 288831088, 0, 0.0125, -0.034, 2.5, 0, 0.0125, -0.033, 2.5
 289031008, 0, 0.0125, -0.036, 2.5, 0, 0.0125, -0.034, 2.5
 289230928, 0, 0.0125, -0.037, 2.5, 0, 0.0125, -0.036, 2.5
 289430848, 0, 0.0125, -0.038, 2.5, 0, 0.0125, -0.037, 2.5
 289630768, 0, 0.0125, -0.04, 2.5, 0, 0.0125, -0.038, 2.5
 289830688, 0, 0.0125, -0.041, 2.5, 0, 0.0125, -0.04, 2.5
 290031441, 0, 0.0125, -0.043, 2.5, 0, 0.0125, -0.041, 2.5
 290231361, 0, 0.0125, -0.044, 2.5, 0, 0.0125, -0.043, 2.5
 290431281, 0, 0.0125, -0.046, 2.5, 0, 0.0125, -0.044, 2.5
 290631201, 0, 0.0125, -0.048, 2.5, 0, 0.0125, -0.046, 2.5
 290831121, 0, 0.0125, -0.049, 2.5, 0, 0.0125, -0.048, 2.5
 291031041, 0, 0.0125, -0.05, 2.5, 0, 0.0125, -0.049, 2.5
 291230961, 0, 0.0125, -0.051, 2.5, 0, 0.0125, -0.05, 2.5
 291430881, 0, 0.0125, -0.051, 2.5, 0, 0.0125, -0.051, 2.5
 291630801, 0, 0.0125, -0.051, 2.5, 0, 0.0125, -0.051, 2.5
 291830721, 0, 0.0125, -0.051, 2.5, 0, 0.0125, -0.051, 2.5
 292031474, 0, 0.0125, -0.051, 2.5, 0, 0.0125, -0.051, 2.5
 292231394, 0, 0.0125, -0.05, 2.5, 0, 0.0125, -0.051, 2.5
 292431314, 0, 0.0125, -0.049, 2.5, 0, 0.0125, -0.05, 2.5
 292631234, 0, 0.0125, -0.05, 2.5, 0, 0.0125, -0.049, 2.5
 292831154, 0, 0.0125, -0.051, 2.5, 0, 0.0125, -0.05, 2.5
 293031074, 0, 0.0125, -0.054, 2.5, 0, 0.0125, -0.051, 2.5
 293230994, 0, 0.0125, -0.056, 2.5, 0, 0.0125, -0.054, 2.5
 293430914, 0, 0.0125, -0.058, 2.5, 0, 0.0125, -0.056, 2.5
 293630834, 0, 0.0125, -0.06, 2.5, 0, 0.0125, -0.058, 2.5
 293830754, 0, 0.0125, -0.06, 2.5, 0, 0.0125, -0.06, 2.5
 294030674, 0, 0.0125, -0.06, 2.5, 0, 0.0125, -0.06, 2.5
 294231427, 0, 0.0125, -0.058, 2.5, 0, 0.0125, -0.06, 2.5
 294431347, 0, 0.0125, -0.056, 2.5, 0, 0.0125, -0.058, 2.5
 294631267, 0, 0.0125, -0.053, 2.5, 0, 0.0125, -0.056, 2.5
 294831187, 0, 0.0125, -0.051, 2.5, 0, 0.0125, -0.053, 2.5
 295031107, 0, 0.0125, -0.048, 2.5, 0, 0.0125, -0.051, 2.5
 295231027, 0, 0.0125, -0.046, 2.5, 0, 0.0125, -0.048, 2.5
 295430947, 0, 0.0125, -0.044, 2.5, 0, 0.0125, -0.046, 2.5
 295630867, 0, 0.0125, -0.041, 2.5, 0, 0.0125, -0.044, 2.5
 295830787, 0, 0.0125, -0.039, 2.5, 0, 0.0125, -0.041, 2.5
 296030707, 0, 0.0125, -0.037, 2.5, 0, 0.0125, -0.039, 2.5
 296231460, 0, 0.0125, -0.035, 2.5, 0, 0.0125, -0.037, 2.5
 296431380, 0, 0.0125, -0.033, 2.5, 0, 0.0125, -0.035, 2.5
 296631300, 0, 0.0125, -0.031, 2.5, 0, 0.0125, -0.033, 2.5
 296831220, 0, 0.0125, -0.029, 2.5, 0, 0.0125, -0.031, 2.5
 297031140, 0, 0.0125, -0.028, 2.5, 0, 0.0125, -0.029, 2.5
 297231060, 0, 0.0125, -0.026, 2.5, 0, 0.0125, -0.028, 2.5
 297430980, 0, 0.0125, -0.025, 2.5, 0, 0.0125, -0.026, 2.5
 297630900, 0, 0.0125, -0.023, 2.5, 0, 0.0125, -0.025, 2.5
 297830820, 0, 0.0125, -0.022, 2.5, 0, 0.0125, -0.023, 2.5
 298030740, 0, 0.0125, -0.02, 2.5, 0, 0.0125, -0.022, 2.5
 298230660, 0, 0.0125, -0.019, 2.5, 0, 0.0125, -0.02, 2.5
 298431413, 0, 0.0125, -0.018, 2.5, 0, 0.0125, -0.019, 2.5
 298631333, 0, 0.0125, -0.017, 2.5, 0, 0.0125, -0.018, 2.5
 298831253, 0, 0.0125, -0.017, 2.5, 0, 0.0125, -0.017, 2.5
 299031173, 0, 0.0125, -0.017, 2.5, 0, 0.0125, -0.017, 2.5
 299231093, 0, 0.0125, -0.016, 2.5, 0, 0.0125, -0.017, 2.5
 299431013, 0, 0.0125, -0.014, 2.5, 0, 0.0125, -0.016, 2.5
 299630933, 0, 0.0125, -0.01, 2.5, 0, 0.0125, -0.014, 2.5
 299830853, 0, 0.0125, -0.006, 2.5, 0, 0.0125, -0.01, 2.5
 300030773, 0, 0.0125, -0.002, 2.5, 0, 0.0125, -0.006, 2.5
 300230693, 0, 0.0125, 0.001, 2.5, 0, 0.0125, -0.002, 2.5
 300431446, 0, 0.0125, 0.004, 2.5, 0, 0.0125, 0.001, 2.5
 300631366, 0, 0.0125, 0.007, 2.5, 0, 0.0125, 0.004, 2.5
 300831286, 0, 0.0125, 0.009000001, 2.5, 0, 0.0125, 0.007, 2.5
 301031206, 0, 0.0125, 0.01, 2.5, 0, 0.0125, 0.009000001, 2.5
 301231126, 0, 0.0125, 0.01, 2.5, 0, 0.0125, 0.01, 2.5
 301431046, 0, 0.0125, 0.01, 2.5, 0, 0.0125, 0.01, 2.5
 301630966, 0, 0.0125, 0.01, 2.5, 0, 0.0125, 0.01, 2.5
 301830886, 0, 0.0125, 0.01, 2.5, 0, 0.0125, 0.01, 2.5
 302030806, 0, 0.0125, 0.009000001, 2.5, 0, 0.0125, 0.01, 2.5
 302230726, 0, 0.0125, 0.009000001, 2.5, 0, 0.0125, 0.009000001, 2.5
 302431479, 0, 0.0125, 0.008, 2.5, 0, 0.0125, 0.009000001, 2.5
 302631399, 0, 0.0125, 0.008, 2.5, 0, 0.0125, 0.008, 2.5
 302831319, 0, 0.0125, 0.008, 2.5, 0, 0.0125, 0.008, 2.5
 303031239, 0, 0.0125, 0.008, 2.5, 0, 0.0125, 0.008, 2.5
 303231159, 0, 0.0125, 0.007, 2.5, 0, 0.0125, 0.008, 2.5
 303431079, 0, 0.0125, 0.006, 2.5, 0, 0.0125, 0.007, 2.5
 303630999, 0, 0.0125, 0.006, 2.5, 0, 0.0125, 0.006, 2.5
 303830919, 0, 0.0125, 0.006, 2.5, 0, 0.0125, 0.006, 2.5
 304030839, 0, 0.0125, 0.006, 2.5, 0, 0.0125, 0.006, 2.5
 304230759, 0, 0.0125, 0.006, 2.5, 0, 0.0125, 0.006, 2.5
 304430679, 0, 0.0125, 0.006, 2.5, 0, 0.0125, 0.006, 2.5
 304631432, 0, 0.0125, 0.006, 2.5, 0, 0.0125, 0.006, 2.5
 304831352, 0, 0.0125, 0.006, 2.5, 0, 0.0125, 0.006, 2.5
 305031272, 0, 0.0125, 0.006, 2.5, 0, 0.0125, 0.006, 2.5
 305231192, 0, 0.0125, 0.006, 2.5, 0, 0.0125, 0.006, 2.5
 305431112, 0, 0.0125, 0.006, 2.5, 0, 0.0125, 0.006, 2.5
 305631032, 0, 0.0125, 0.006, 2.5, 0, 0.0125, 0.006, 2.5
 305830952, 0, 0.0125, 0.005, 2.5, 0, 0.0125, 0.006, 2.5
 306030872, 0, 0.0125, 0.005, 2.5, 0, 0.0125, 0.005, 2.5
 306230792, 0, 0.0125, 0.005, 2.5, 0, 0.0125, 0.005, 2.5
 306430712, 0, 0.0125, 0.006, 2.5, 0, 0.0125, 0.005, 2.5
 306631465, 0, 0.0125, 0.005, 2.5, 0, 0.0125, 0.006, 2.5
 306831385, 0, 0.0125, 0.005, 2.5, 0, 0.0125, 0.005, 2.5
 307031305, 0, 0.0125, 0.005, 2.5, 0, 0.0125, 0.005, 2.5
 307231225, 0, 0.0125, 0.005, 2.5, 0, 0.0125, 0.005, 2.5
 307431145, 0, 0.0125, 0.004, 2.5, 0, 0.0125, 0.005, 2.5
 307631065, 0, 0.0125, 0.004, 2.5, 0, 0.0125, 0.004, 2.5
 307830985, 0, 0.0125, 0.005, 2.5, 0, 0.0125, 0.004, 2.5
 308030905, 0, 0.0125, 0.005, 2.5, 0, 0.0125, 0.005, 2.5
 308230825, 0, 0.0125, 0.005, 2.5, 0, 0.0125, 0.005, 2.5
 308430745, 0, 0.0125, 0.004, 2.5, 0, 0.0125, 0.005, 2.5
 308630665, 0, 0.0125, 0.004, 2.5, 0, 0.0125, 0.004, 2.5
 308831418, 0, 0.0125, 0.004, 2.5, 0, 0.0125, 0.004, 2.5
 309031338, 0, 0.0125, 0.004, 2.5, 0, 0.0125, 0.004, 2.5
 309231258, 0, 0.0125, 0.004, 2.5, 0, 0.0125, 0.004, 2.5
 309431178, 0, 0.0125, 0.003, 2.5, 0, 0.0125, 0.004, 2.5
 309631098, 0, 0.0125, 0.003, 2.5, 0, 0.0125, 0.003, 2.5
 309831018, 0, 0.0125, 0.003, 2.5, 0, 0.0125, 0.003, 2.5
 310030938, 0, 0.0125, 0.003, 2.5, 0, 0.0125, 0.003, 2.5
 310230858, 0, 0.0125, 0.003, 2.5, 0, 0.0125, 0.003, 2.5
 310430778, 0, 0.0125, 0.003, 2.5, 0, 0.0125, 0.003, 2.5
 310630698, 0, 0.0125, 0.003, 2.5, 0, 0.0125, 0.003, 2.5
 310831451, 0, 0.0125, 0.003, 2.5, 0, 0.0125, 0.003, 2.5
 311031371, 0, 0.0125, 0.002, 2.5, 0, 0.0125, 0.003, 2.5
 311231291, 0, 0.0125, 0.002, 2.5, 0, 0.0125, 0.002, 2.5
 311431211, 0, 0.0125, 0.002, 2.5, 0, 0.0125, 0.002, 2.5
 311631131, 0, 0.0125, 0.001, 2.5, 0, 0.0125, 0.002, 2.5
 311831051, 0, 0.0125, 0.001, 2.5, 0, 0.0125, 0.001, 2.5
 312030971, 0, 0.0125, 0.001, 2.5, 0, 0.0125, 0.001, 2.5
 312230891, 0, 0.0125, 0.001, 2.5, 0, 0.0125, 0.001, 2.5
 312430811, 0, 0.0125, 0.001, 2.5, 0, 0.0125, 0.001, 2.5
 312630731, 0, 0.0125, 0.001, 2.5, 0, 0.0125, 0.001, 2.5
 312831484, 0, 0.0125, 0.002, 2.5, 0, 0.0125, 0.001, 2.5
 313031404, 0, 0.0125, 0.001, 2.5, 0, 0.0125, 0.002, 2.5
 313231324, 0, 0.0125, 0.001, 2.5, 0, 0.0125, 0.001, 2.5
 313431244, 0, 0.0125, 0.001, 2.5, 0, 0.0125, 0.001, 2.5
 313631164, 0, 0.0125, 0.001, 2.5, 0, 0.0125, 0.001, 2.5
 313831084, 0, 0.0125, 0.001, 2.5, 0, 0.0125, 0.001, 2.5
 314031004, 0, 0.0125, 0.001, 2.5, 0, 0.0125, 0.001, 2.5
 314230924, 0, 0.0125, 0.001, 2.5, 0, 0.0125, 0.001, 2.5
 314430844, 0, 0.0125, 0.001, 2.5, 0, 0.0125, 0.001, 2.5
 314630764, 0, 0.0125, 0, 2.5, 0, 0.0125, 0.001, 2.5
 314830684, 0, 0.0125, 0, 2.5, 0, 0.0125, 0, 2.5
 315031437, 0, 0.0125, 0, 2.5, 0, 0.0125, 0, 2.5
 315231357, 0, 0.0125, -0.001, 2.5, 0, 0.0125, 0, 2.5
 315431277, 0, 0.0125, -0.002, 2.5, 0, 0.0125, -0.001, 2.5
 315631197, 0, 0.0125, -0.002, 2.5, 0, 0.0125, -0.002, 2.5
 315831117, 0, 0.0125, -0.002, 2.5, 0, 0.0125, -0.002, 2.5
 316031037, 0, 0.0125, -0.002, 2.5, 0, 0.0125, -0.002, 2.5
 316230957, 0, 0.0125, -0.002, 2.5, 0, 0.0125, -0.002, 2.5
 316430877, 0, 0.0125, -0.002, 2.5, 0, 0.0125, -0.002, 2.5
 316630797, 0, 0.0125, -0.001, 2.5, 0, 0.0125, -0.002, 2.5
 316830717, 0, 0.0125, 0, 2.5, 0, 0.0125, -0.001, 2.5
 317031470, 0, 0.0125, -0.001, 2.5, 0, 0.0125, 0, 2.5
 317231390, 0, 0.0125, -0.001, 2.5, 0, 0.0125, -0.001, 2.5
 317431310, 0, 0.0125, 0, 2.5, 0, 0.0125, -0.001, 2.5
 317631230, 0, 0.0125, 0, 2.5, 0, 0.0125, 0, 2.5
 317831150, 0, 0.0125, 0, 2.5, 0, 0.0125, 0, 2.5
 318031070, 0, 0.0125, 0, 2.5, 0, 0.0125, 0, 2.5
 318230990, 0, 0.0125, 0, 2.5, 0, 0.0125, 0, 2.5
 318430910, 0, 0.0125, 0, 2.5, 0, 0.0125, 0, 2.5
 318630830, 0, 0.0125, 0, 2.5, 0, 0.0125, 0, 2.5
 318830750, 0, 0.0125, 0, 2.5, 0, 0.0125, 0, 2.5
 319030670, 0, 0.0125, 0, 2.5, 0, 0.0125, 0, 2.5
 319231423, 0, 0.0125, 0, 2.5, 0, 0.0125, 0, 2.5
 319431343, 0, 0.0125, 0, 2.5, 0, 0.0125, 0, 2.5
 319631263, 0, 0.0125, 0, 2.5, 0, 0.0125, 0, 2.5
 319831183, 0, 0.0125, 0, 2.5, 0, 0.0125, 0, 2.5
 320031103, 0, 0.0125, 0, 2.5, 0, 0.0125, 0, 2.5
 320231023, 0, 0.0125, 0, 2.5, 0, 0.0125, 0, 2.5
 320430943, 0, 0.0125, 0, 2.5, 0, 0.0125, 0, 2.5
 320630863, 0, 0.0125, 0, 2.5, 0, 0.0125, 0, 2.5
 320830783, 0, 0.0125, 0, 2.5, 0, 0.0125, 0, 2.5
 321030703, 0, 0.0125, 0, 2.5, 0, 0.0125, 0, 2.5
 321231456, 0, 0.0125, 0, 2.5, 0, 0.0125, 0, 2.5
 321431376, 0, 0.0125, 0, 2.5, 0, 0.0125, 0, 2.5
 321631296, 0, 0.0125, 0, 2.5, 0, 0.0125, 0, 2.5
 321831216, 0, 0.0125, 0, 2.5, 0, 0.0125, 0, 2.5
 322031136, 0, 0.0125, 0, 2.5, 0, 0.0125, 0, 2.5
 322231056, 0, 0.0125, 0, 2.5, 0, 0.0125, 0, 2.5
 322430976, 0, 0.0125, 0, 2.5, 0, 0.0125, 0, 2.5
 322630896, 0, 0.0125, 0, 2.5, 0, 0.0125, 0, 2.5
 322830816, 12.163, -8.549001, 0, 2.5, 0, 0.0125, 0, 2.5
 323030736, 12.161, -8.556001, 0, 2.5, 12.163, -8.549001, 0, 2.5
 323230656, 12.158, -8.563001, -0.001, 2.5, 12.161, -8.556001, 0, 2.5
 323431409, 12.155, -8.569, -0.001, 2.5, 12.158, -8.563001, -0.001, 2.5
 323631329, 12.138, -8.563001, 0.014, 2.5, 12.155, -8.569, -0.001, 2.5
 323831249, 12.101, -8.539001, 0.063, 2.5, 12.138, -8.563001, 0.014, 2.5
 324031169, 12.022, -8.487, 0.155, 2.5, 12.101, -8.539001, 0.063, 2.5
 324231089, 11.869, -8.389, 0.277, 2.5, 12.022, -8.487, 0.155, 2.5
 324431009, 11.109, -7.947001, 0.222, 2.5, 11.869, -8.389, 0.277, 2.5
 324630929, 9.777, -7.093, 0.146, 2.5, 11.109, -7.947001, 0.222, 2.5
 324830849, 8.456, -6.165, 0.173, 2.5, 9.777, -7.093, 0.146, 2.5
 325030769, 7.351, -5.359, 0.264, 2.5, 8.456, -6.165, 0.173, 2.5
 325230689, 6.431, -4.687, 0.41, 2.5, 7.351, -5.359, 0.264, 2.5
 325431442, 5.696, -4.144, 0.592, 2.5, 6.431, -4.687, 0.41, 2.5
 325631362, 5.088, -3.685, 0.807, 2.5, 5.696, -4.144, 0.592, 2.5
 325831282, 4.526, -3.268, 1.042, 2.5, 5.088, -3.685, 0.807, 2.5
 326031202, 3.992, -2.885, 1.283, 2.5, 4.526, -3.268, 1.042, 2.5
 326231122, 3.497, -2.538, 1.516, 2.5, 3.992, -2.885, 1.283, 2.5
 326431042, 3.052, -2.228, 1.729, 2.5, 3.497, -2.538, 1.516, 2.5
 326630962, 2.661, -1.956, 1.911, 2.5, 3.052, -2.228, 1.729, 2.5
 326830882, 2.318, -1.716, 2.063, 2.5, 2.661, -1.956, 1.911, 2.5
 327030802, 2.018, -1.508, 2.186, 2.5, 2.318, -1.716, 2.063, 2.5
 327230722, 1.755, -1.325, 2.285, 2.5, 2.018, -1.508, 2.186, 2.5
 327431475, 1.524, -1.165, 2.361, 2.5, 1.755, -1.325, 2.285, 2.5
 327631395, 1.319, -1.025, 2.414, 2.5, 1.524, -1.165, 2.361, 2.5
 327831315, 1.138, -0.9030001, 2.448, 2.5, 1.319, -1.025, 2.414, 2.5
 328031235, 0.9770001, -0.794, 2.463, 2.5, 1.138, -0.9030001, 2.448, 2.5
 328231155, 0.8340001, -0.6990001, 2.462, 2.5, 0.9770001, -0.794, 2.463, 2.5
 328431075, 0.706, -0.615, 2.447, 2.5, 0.8340001, -0.6990001, 2.462, 2.5
 328630995, 0.591, -0.541, 2.422, 2.5, 0.706, -0.615, 2.447, 2.5
 328830915, 0.488, -0.476, 2.391, 2.5, 0.591, -0.541, 2.422, 2.5
 329030835, 0.395, -0.417, 2.354, 2.5, 0.488, -0.476, 2.391, 2.5
 329230755, 0.311, -0.366, 2.315, 2.5, 0.395, -0.417, 2.354, 2.5
 329430675, 0.235, -0.321, 2.227, 2.5, 0.311, -0.366, 2.315, 2.5
 329631428, 0.164, -0.281, 2.055, 2.5, 0.235, -0.321, 2.227, 2.5
 329831348, 0.09900001, -0.247, 1.846, 2.5, 0.164, -0.281, 2.055, 2.5
 330031268, 0.041, -0.216, 1.636, 2.5, 0.09900001, -0.247, 1.846, 2.5
 330231188, -0.012, -0.19, 1.44, 2.5, 0.041, -0.216, 1.636, 2.5
 330431108, -0.06, -0.167, 1.267, 2.5, -0.012, -0.19, 1.44, 2.5
 330631028, -0.105, -0.144, 1.118, 2.5, -0.06, -0.167, 1.267, 2.5
 330830948, -0.146, -0.126, 0.998, 2.5, -0.105, -0.144, 1.118, 2.5
 331030868, -0.185, -0.111, 0.909, 2.5, -0.146, -0.126, 0.998, 2.5
 331230788, -0.221, -0.094, 0.845, 2.5, -0.185, -0.111, 0.909, 2.5
 331430708, -0.256, -0.06900001, 0.804, 2.5, -0.221, -0.094, 0.845, 2.5
 331631461, -0.289, -0.054, 0.785, 2.5, -0.256, -0.06900001, 0.804, 2.5
 331831381, -0.319, -0.044, 0.785, 2.5, -0.289, -0.054, 0.785, 2.5
 332031301, -0.348, -0.029, 0.802, 2.5, -0.319, -0.044, 0.785, 2.5
 332231221, -0.375, -0.014, 0.8330001, 2.5, -0.348, -0.029, 0.802, 2.5
 332431141, -0.4, -0.001, 0.874, 2.5, -0.375, -0.014, 0.8330001, 2.5
 332631061, -0.422, 0.011, 0.924, 2.5, -0.4, -0.001, 0.874, 2.5
 332830981, -0.443, 0.022, 0.979, 2.5, -0.422, 0.011, 0.924, 2.5
 333030901, -0.461, 0.033, 1.038, 2.5, -0.443, 0.022, 0.979, 2.5
 333230821, -0.478, 0.043, 1.097, 2.5, -0.461, 0.033, 1.038, 2.5
 333430741, -0.492, 0.053, 1.155, 2.5, -0.478, 0.043, 1.097, 2.5
 333630661, -0.505, 0.068, 1.21, 2.5, -0.492, 0.053, 1.155, 2.5
 333831414, -0.516, 0.07700001, 1.261, 2.5, -0.505, 0.068, 1.21, 2.5
 334031334, -0.525, 0.08400001, 1.308, 2.5, -0.516, 0.07700001, 1.261, 2.5
 334231254, -0.532, 0.09100001, 1.349, 2.5, -0.525, 0.08400001, 1.308, 2.5
 334431174, -0.538, 0.09100001, 1.384, 2.5, -0.532, 0.09100001, 1.349, 2.5
 334631094, -0.5420001, 0.096, 1.413, 2.5, -0.538, 0.09100001, 1.384, 2.5
 334831014, -0.544, 0.1, 1.436, 2.5, -0.5420001, 0.096, 1.413, 2.5
 335030934, -0.545, 0.102, 1.454, 2.5, -0.544, 0.1, 1.436, 2.5
 335230854, -0.544, 0.104, 1.467, 2.5, -0.545, 0.102, 1.454, 2.5
 335430774, -0.5420001, 0.105, 1.475, 2.5, -0.544, 0.104, 1.467, 2.5
 335630694, -0.538, 0.105, 1.479, 2.5, -0.5420001, 0.105, 1.475, 2.5
 335831447, -0.5330001, 0.105, 1.481, 2.5, -0.538, 0.105, 1.479, 2.5
 336031367, -0.527, 0.104, 1.479, 2.5, -0.5330001, 0.105, 1.481, 2.5
 336231287, -0.52, 0.102, 1.475, 2.5, -0.527, 0.104, 1.479, 2.5
 336431207, -0.512, 0.101, 1.47, 2.5, -0.52, 0.102, 1.475, 2.5
 336631127, -0.502, 0.098, 1.464, 2.5, -0.512, 0.101, 1.47, 2.5
 336831047, -0.49, 0.09500001, 1.457, 2.5, -0.502, 0.098, 1.464, 2.5
 337030967, -0.478, 0.09200001, 1.45, 2.5, -0.49, 0.09500001, 1.457, 2.5
 337230887, -0.464, 0.087, 1.442, 2.5, -0.478, 0.09200001, 1.45, 2.5
 337430807, -0.449, 0.081, 1.434, 2.5, -0.464, 0.087, 1.442, 2.5
 337630727, -0.434, 0.07600001, 1.426, 2.5, -0.449, 0.081, 1.434, 2.5
 337831480, -0.419, 0.071, 1.42, 2.5, -0.434, 0.07600001, 1.426, 2.5
 338031400, -0.403, 0.06500001, 1.414, 2.5, -0.419, 0.071, 1.42, 2.5
 338231320, -0.386, 0.059, 1.408, 2.5, -0.403, 0.06500001, 1.414, 2.5
 338431240, -0.368, 0.055, 1.406, 2.5, -0.386, 0.059, 1.408, 2.5
 338631160, -0.349, 0.046, 1.405, 2.5, -0.368, 0.055, 1.406, 2.5
 338831080, -0.33, 0.039, 1.404, 2.5, -0.349, 0.046, 1.405, 2.5
 339031000, -0.311, 0.032, 1.403, 2.5, -0.33, 0.039, 1.404, 2.5
 339230920, -0.291, 0.025, 1.403, 2.5, -0.311, 0.032, 1.403, 2.5
 339430840, -0.272, 0.019, 1.402, 2.5, -0.291, 0.025, 1.403, 2.5
 339630760, -0.253, 0.014, 1.398, 2.5, -0.272, 0.019, 1.402, 2.5
 339830680, -0.234, 0.005, 1.384, 2.5, -0.253, 0.014, 1.398, 2.5
 340031433, -0.215, -0.001, 1.354, 2.5, -0.234, 0.005, 1.384, 2.5
 340231353, -0.197, -0.007, 1.299, 2.5, -0.215, -0.001, 1.354, 2.5
 340431273, -0.18, -0.015, 0.997, 2.5, -0.197, -0.007, 1.299, 2.5
 340631193, -0.162, -0.019, 0.648, 2.5, -0.18, -0.015, 0.997, 2.5
 340831113, -0.145, -0.031, 0.394, 2.5, -0.162, -0.019, 0.648, 2.5
 341031033, -0.127, -0.039, 0.24, 2.5, -0.145, -0.031, 0.394, 2.5
 341230953, -0.11, -0.047, 0.178, 2.5, -0.127, -0.039, 0.24, 2.5
 341430873, -0.093, -0.054, 0.186, 2.5, -0.11, -0.047, 0.178, 2.5
 341630793, -0.07700001, -0.056, 0.23, 2.5, -0.093, -0.054, 0.186, 2.5
 341830713, -0.062, -0.06500001, 0.286, 2.5, -0.07700001, -0.056, 0.23, 2.5
 342031466, -0.047, -0.071, 0.342, 2.5, -0.062, -0.06500001, 0.286, 2.5
 342231386, -0.033, -0.07700001, 0.39, 2.5, -0.047, -0.071, 0.342, 2.5
 342431306, -0.019, -0.083, 0.426, 2.5, -0.033, -0.07700001, 0.39, 2.5
 342631226, -0.005, -0.089, 0.452, 2.5, -0.019, -0.083, 0.426, 2.5
 342831146, 0.006, -0.09, 0.468, 2.5, -0.005, -0.089, 0.452, 2.5
 343031066, 0.018, -0.09900001, 0.477, 2.5, 0.006, -0.09, 0.468, 2.5
 343230986, 0.03, -0.104, 0.481, 2.5, 0.018, -0.09900001, 0.477, 2.5
 343430906, 0.04, -0.109, 0.482, 2.5, 0.03, -0.104, 0.481, 2.5
 343630826, 0.05, -0.112, 0.482, 2.5, 0.04, -0.109, 0.482, 2.5
 343830746, 0.058, -0.116, 0.48, 2.5, 0.05, -0.112, 0.482, 2.5
 344030666, 0.066, -0.118, 0.478, 2.5, 0.058, -0.116, 0.48, 2.5
 344231419, 0.07300001, -0.121, 0.477, 2.5, 0.066, -0.118, 0.478, 2.5
 344431339, 0.078, -0.123, 0.476, 2.5, 0.07300001, -0.121, 0.477, 2.5
 344631259, 0.083, -0.124, 0.477, 2.5, 0.078, -0.123, 0.476, 2.5
 344831179, 0.087, -0.126, 0.478, 2.5, 0.083, -0.124, 0.477, 2.5
 345031099, 0.09100001, -0.127, 0.478, 2.5, 0.087, -0.126, 0.478, 2.5
 345231019, 0.093, -0.128, 0.48, 2.5, 0.09100001, -0.127, 0.478, 2.5
 345430939, 0.094, -0.128, 0.481, 2.5, 0.093, -0.128, 0.48, 2.5
 345630859, 0.09500001, -0.128, 0.482, 2.5, 0.094, -0.128, 0.481, 2.5
 345830779, 0.09500001, -0.128, 0.483, 2.5, 0.09500001, -0.128, 0.482, 2.5
 346030699, 0.09500001, -0.128, 0.484, 2.5, 0.09500001, -0.128, 0.483, 2.5
 346231452, 0.094, -0.127, 0.484, 2.5, 0.09500001, -0.128, 0.484, 2.5
 346431372, 0.09200001, -0.127, 0.485, 2.5, 0.094, -0.127, 0.484, 2.5
 346631292, 0.089, -0.126, 0.487, 2.5, 0.09200001, -0.127, 0.485, 2.5
 346831212, 0.085, -0.124, 0.488, 2.5, 0.089, -0.126, 0.487, 2.5
 347031132, 0.081, -0.122, 0.489, 2.5, 0.085, -0.124, 0.488, 2.5
 347231052, 0.075, -0.12, 0.49, 2.5, 0.081, -0.122, 0.489, 2.5
 347430972, 0.07, -0.117, 0.491, 2.5, 0.075, -0.12, 0.49, 2.5
 347630892, 0.064, -0.115, 0.493, 2.5, 0.07, -0.117, 0.491, 2.5
 347830812, 0.058, -0.112, 0.493, 2.5, 0.064, -0.115, 0.493, 2.5
 348030732, 0.051, -0.109, 0.492, 2.5, 0.058, -0.112, 0.493, 2.5
 348231485, 0.044, -0.107, 0.491, 2.5, 0.051, -0.109, 0.492, 2.5
 348431405, 0.036, -0.104, 0.488, 2.5, 0.044, -0.107, 0.491, 2.5
 348631325, 0.029, -0.101, 0.486, 2.5, 0.036, -0.104, 0.488, 2.5
 348831245, 0.021, -0.098, 0.485, 2.5, 0.029, -0.101, 0.486, 2.5
 349031165, 0.013, -0.09500001, 0.481, 2.5, 0.021, -0.098, 0.485, 2.5
 349231085, 0.004, -0.09100001, 0.479, 2.5, 0.013, -0.09500001, 0.481, 2.5
 349431005, -0.004, -0.08000001, 0.476, 2.5, 0.004, -0.09100001, 0.479, 2.5
 349630925, -0.013, -0.07700001, 0.474, 2.5, -0.004, -0.08000001, 0.476, 2.5
 349830845, -0.022, -0.074, 0.473, 2.5, -0.013, -0.07700001, 0.474, 2.5
 350030765, -0.031, -0.072, 0.471, 2.5, -0.022, -0.074, 0.473, 2.5
 350230685, -0.041, -0.07, 0.47, 2.5, -0.031, -0.072, 0.471, 2.5
 350431438, -0.05, -0.068, 0.469, 2.5, -0.041, -0.07, 0.47, 2.5
 350631358, -0.06, -0.066, 0.47, 2.5, -0.05, -0.068, 0.469, 2.5
 350831278, -0.068, -0.064, 0.471, 2.5, -0.06, -0.066, 0.47, 2.5
 351031198, -0.07600001, -0.062, 0.472, 2.5, -0.068, -0.064, 0.471, 2.5
 351231118, -0.08400001, -0.06, 0.473, 2.5, -0.07600001, -0.062, 0.472, 2.5
 351431038, -0.09200001, -0.058, 0.473, 2.5, -0.08400001, -0.06, 0.473, 2.5
 351630958, -0.1, -0.056, 0.473, 2.5, -0.09200001, -0.058, 0.473, 2.5
 351830878, -0.107, -0.054, 0.475, 2.5, -0.1, -0.056, 0.473, 2.5
 352030798, -0.115, -0.055, 0.476, 2.5, -0.107, -0.054, 0.475, 2.5
 352230718, -0.122, -0.054, 0.478, 2.5, -0.115, -0.055, 0.476, 2.5
 352431471, -0.128, -0.054, 0.48, 2.5, -0.122, -0.054, 0.478, 2.5
 352631391, -0.135, -0.054, 0.484, 2.5, -0.128, -0.054, 0.48, 2.5
 352831311, -0.14, -0.054, 0.488, 2.5, -0.135, -0.054, 0.484, 2.5
 353031231, -0.146, -0.054, 0.491, 2.5, -0.14, -0.054, 0.488, 2.5
 353231151, -0.151, -0.054, 0.497, 2.5, -0.146, -0.054, 0.491, 2.5
 353431071, -0.155, -0.054, 0.506, 2.5, -0.151, -0.054, 0.497, 2.5
 353630991, -0.159, -0.054, 0.516, 2.5, -0.155, -0.054, 0.506, 2.5
 353830911, -0.162, -0.053, 0.526, 2.5, -0.159, -0.054, 0.516, 2.5
 354030831, -0.165, -0.052, 0.536, 2.5, -0.162, -0.053, 0.526, 2.5
 354230751, -0.167, -0.052, 0.546, 2.5, -0.165, -0.052, 0.536, 2.5
 354430671, -0.168, -0.051, 0.558, 2.5, -0.167, -0.052, 0.546, 2.5
 354631424, -0.169, -0.051, 0.571, 2.5, -0.168, -0.051, 0.558, 2.5
 354831344, -0.169, -0.051, 0.589, 2.5, -0.169, -0.051, 0.571, 2.5
 355031264, -0.168, -0.05, 0.609, 2.5, -0.169, -0.051, 0.589, 2.5
 355231184, -0.167, -0.05, 0.633, 2.5, -0.168, -0.05, 0.609, 2.5
 355431104, -0.166, -0.05, 0.654, 2.5, -0.167, -0.05, 0.633, 2.5
 355631024, -0.164, -0.05, 0.6720001, 2.5, -0.166, -0.05, 0.654, 2.5
 355830944, -0.162, -0.049, 0.688, 2.5, -0.164, -0.05, 0.6720001, 2.5
 356030864, -0.158, -0.048, 0.703, 2.5, -0.162, -0.049, 0.688, 2.5
 356230784, -0.155, -0.046, 0.7180001, 2.5, -0.158, -0.048, 0.703, 2.5
 356430704, -0.15, -0.045, 0.729, 2.5, -0.155, -0.046, 0.7180001, 2.5
 356631457, -0.146, -0.043, 0.738, 2.5, -0.15, -0.045, 0.729, 2.5
 356831377, -0.141, -0.042, 0.752, 2.5, -0.146, -0.043, 0.738, 2.5
 357031297, -0.136, -0.039, 0.7590001, 2.5, -0.141, -0.042, 0.752, 2.5
 357231217, -0.13, -0.037, 0.753, 2.5, -0.136, -0.039, 0.7590001, 2.5
 357431137, -0.124, -0.034, 0.739, 2.5, -0.13, -0.037, 0.753, 2.5
 357631057, 0.013, 0.004, -0.08400001, 2.5, -0.124, -0.034, 0.739, 2.5
 357830977, 0.025, 0.015, -0.138, 2.5, 0.013, 0.004, -0.08400001, 2.5
 358030897, 0.016, 0.017, 0.028, 2.5, 0.025, 0.015, -0.138, 2.5
 358230817, 0.015, 0.017, 0.015, 2.5, 0.016, 0.017, 0.028, 2.5
 358430737, 0.015, 0.017, -0.005, 2.5, 0.015, 0.017, 0.015, 2.5
 358630657, 0.015, 0.017, -0.001, 2.5, 0.015, 0.017, -0.005, 2.5
 358831410, 0.015, 0.017, 0, 2.5, 0.015, 0.017, -0.001, 2.5
 359031330, 0.015, 0.017, 0, 2.5, 0.015, 0.017, 0, 2.5
 359231250, 0.015, 0.017, 0, 2.5, 0.015, 0.017, 0, 2.5
 359431170, 0.015, 0.017, 0, 2.5, 0.015, 0.017, 0, 2.5
 359631090, 0.015, 0.017, 0, 2.5, 0.015, 0.017, 0, 2.5
 359831010, 0.015, 0.017, 0, 2.5, 0.015, 0.017, 0, 2.5
 360030930, 0.015, 0.017, 0, 2.5, 0.015, 0.017, 0, 2.5
 360230850, 0.015, 0.017, 0, 2.5, 0.015, 0.017, 0, 2.5
 360430770, 0.015, 0.017, 0, 2.5, 0.015, 0.017, 0, 2.5
 360630690, 0.015, 0.017, 0, 2.5, 0.015, 0.017, 0, 2.5
