TimeUS,CAN,CAE,CAD,CAe
 169968652, 0, 0, 0, 0
 170036125, 0.271523, 3.13829, 0.04132001, 0.4412376
 170136085, -0.0002487195, 0.003652856, -0.0001592094, 0.0002593961
 170236045, 3.333436E-05, 0.003737223, -0.0001430642, 0.0002593961
 170336005, -0.0001643523, 0.003226985, -0.0001574149, 0.0002593961
 170435965, -0.0003141941, 0.00367224, -0.0001205737, 0.0002593961
 170535925, 3.272156E-05, 0.003765365, -8.831661E-05, 0.0002593961
 170635885, -9.154213E-05, 0.003621171, -0.0001565902, 0.0002593961
 170735845, -0.000148627, 0.003539155, -8.456779E-05, 0.0002593961
 170835805, 7.796184E-05, 0.00360268, 7.597766E-06, 0.0002593961
 170935765, -0.000184597, 0.003603687, -4.917203E-05, 0.0002593961
 171035725, 0.000108026, 0.003615007, -0.0001035788, 0.0002593961
 171135685, 0.0001401651, 0.003419623, -0.0001220835, 0.0002593961
 171236478, 0.0002051752, 0.003707084, -0.0001222566, 0.0002615578
 171336438, -0.0001274813, 0.003630118, -0.0002067061, 0.0002593961
 171436398, -3.198292E-05, 0.00361334, -3.474515E-05, 0.0002593961
 171536358, -0.0001036943, 0.003467133, -0.0001399637, 0.0002593961
 171636318, 0.00015408, 0.003798643, -0.0002238725, 0.0002593961
 171736278, -0.0001035537, 0.003691021, -0.0001742441, 0.0002593961
 171836238, 4.183944E-05, 0.003693039, -4.282906E-05, 0.0002593961
 171936198, -0.0001438021, 0.003672497, 6.485013E-05, 0.0002593961
 172036158, 0.0001367121, 0.003924782, -0.0001347503, 0.0002593961
 172136118, 1.334162E-05, 0.003636899, -9.858001E-05, 0.0002593961
 172236078, 7.894559E-05, 0.003494824, -0.0001300696, 0.0002593961
 172336038, 0.0001569995, 0.003569, -4.052209E-05, 0.0002593961
 172435998, 2.255795E-05, 0.003554735, -3.930904E-05, 0.0002593961
 172535958, 0.0002575706, 0.003668185, -5.597857E-05, 0.0002593961
 172635918, -5.041846E-05, 0.003542437, 8.645178E-06, 0.0002593961
 172735878, 0.0001093306, 0.003546307, 0.000199019, 0.0002593961
 172835838, 8.280783E-05, 0.003673878, -6.153495E-06, 0.0002593961
 172935798, -0.0001018881, 0.003575325, -0.0001072443, 0.0002593961
 173035758, -0.0003007486, 0.003528824, -0.0002546269, 0.0002593961
 173135718, -4.943707E-05, 0.003818308, -0.0001724197, 0.0002593961
 173235678, 4.676287E-05, 0.003480492, -7.724055E-05, 0.0002593961
 173336471, -4.096765E-05, 0.00357087, -9.405822E-05, 0.0002615578
 173436431, -0.0001072761, 0.003905542, -0.000156806, 0.0002593961
 173536391, -0.0001364381, 0.003788012, -0.0001451496, 0.0002593961
 173636351, 0.00013331, 0.003675642, -0.0001426341, 0.0002593961
 173736311, 3.972028E-05, 0.003529296, -4.14313E-05, 0.0002593961
 173836271, 5.425887E-05, 0.003613114, -0.0001466212, 0.0002593961
 173936231, 4.553939E-05, 0.003607223, -0.0001446348, 0.0002593961
 174036191, -0.000128646, 0.003583562, -0.0001511291, 0.0002593961
 174136151, -0.0001876345, 0.003550916, -0.0001701187, 0.0002593961
 174236111, -1.669554E-05, 0.003477978, -3.081044E-05, 0.0002593961
 174336071, -9.442472E-05, 0.003586481, 4.919468E-05, 0.0002593961
 174436031, -0.0001171873, 0.003646636, 0.0001433919, 0.0002593961
 174535991, -0.0002258257, 0.00359547, -6.937588E-05, 0.0002593961
 174635951, 0.0001484381, 0.003625732, -9.099895E-05, 0.0002593961
 174735911, -0.0001637544, 0.003791484, 5.742636E-05, 0.0002593961
 174835871, 0.0001468383, 0.003493527, -5.525046E-05, 0.0002593961
 174935831, -2.345399E-05, 0.003509452, -5.052462E-06, 0.0002593961
 175035791, -8.96013E-05, 0.003593314, -0.0002758591, 0.0002593961
 175135751, -4.448859E-05, 0.0035316, 2.521698E-05, 0.0002593961
 175235711, -0.0002048185, 0.003625609, -0.0001559134, 0.0002593961
 175335671, -2.8202E-05, 0.00371671, 3.850588E-05, 0.0002593961
 175436464, -5.310985E-05, 0.003538874, -8.161735E-05, 0.0002615578
 175536424, 1.261977E-05, 0.003826276, -7.529703E-05, 0.0002593961
 175636384, 1.032499E-05, 0.003662071, -3.599872E-05, 0.0002593961
 175736344, 2.562929E-05, 0.00340375, -4.045416E-05, 0.0002593961
 175836304, 0.0001200461, 0.003701743, -6.383965E-05, 0.0002593961
 175936264, 6.246698E-05, 0.003813964, -0.0001975592, 0.0002593961
 176036224, -8.728371E-05, 0.003598385, -0.0001460314, 0.0002593961
 176136184, -3.343972E-05, 0.00335102, -1.413614E-05, 0.0002593961
 176236144, -0.0001085207, 0.00366361, 0.0001054926, 0.0002593961
 176336104, 3.143499E-05, 0.003342248, -0.0002570173, 0.0002593961
 176436064, 2.987736E-05, 0.003574458, -0.0002448878, 0.0002593961
 176536024, -5.464929E-05, 0.003738647, 2.710212E-05, 0.0002593961
 176635984, 0.0001315652, 0.0037513, -4.810199E-05, 0.0002593961
 176735944, 0.0002053361, 0.003486031, -4.93198E-05, 0.0002593961
 176835904, -4.946901E-05, 0.003581679, -7.526604E-05, 0.0002593961
 176935864, 6.874805E-06, 0.003694295, 4.663747E-05, 0.0002593961
 177035824, -5.089998E-05, 0.003741952, -8.695819E-05, 0.0002593961
 177135784, 0.0002263852, 0.003524029, -8.512905E-05, 0.0002593961
 177235744, 0.0001937106, 0.003741272, -4.634195E-05, 0.0002593961
 177335704, 7.733249E-05, 0.003616491, -0.0001300423, 0.0002593961
 177435664, 5.193921E-05, 0.00362293, -0.0002057135, 0.0002593961
 177536457, 6.34516E-05, 0.003564638, -9.548618E-05, 0.0002615578
 177636417, 0.0001068369, 0.003414442, 0.0001658634, 0.0002593961
 177736377, 8.065475E-05, 0.003668797, -0.0001898566, 0.0002593961
 177836337, 0.0003181561, 0.003549072, 0.0001164852, 0.0002593961
 177936297, 7.639902E-05, 0.0035616, -0.0003460739, 0.0002593961
 178036257, -0.0001032607, 0.003416238, -1.531109E-05, 0.0002593961
 178136217, 0.0001229436, 0.003722058, 6.982512E-05, 0.0002593961
 178236177, 2.446684E-05, 0.003509725, -8.269458E-05, 0.0002593961
 178336137, 8.66294E-05, 0.003601883, -7.340594E-05, 0.0002593961
 178436097, -0.0002223369, 0.003560903, -5.990969E-05, 0.0002593961
 178536057, 4.262693E-05, 0.003447012, -2.132874E-05, 0.0002593961
 178636017, -0.0002110732, 0.003699257, -4.181621E-05, 0.0002593961
 178735977, 4.373916E-05, 0.003578716, -0.0001512554, 0.0002593961
 178835937, 0.0001892123, 0.003628332, -8.098103E-05, 0.0002593961
 178935897, 0.0001660772, 0.003646189, -6.286609E-05, 0.0002593961
 179035857, 9.406115E-05, 0.003527011, -7.937592E-05, 0.0002593961
 179135817, -0.0001434315, 0.003402573, -7.911139E-05, 0.0002593961
 179235777, 2.567533E-05, 0.003313166, -0.0001997506, 0.0002593961
 179335737, -7.746092E-05, 0.003343893, -0.0001850854, 0.0002593961
 179435697, -0.000115473, 0.003448317, -0.0001610017, 0.0002593961
 179535657, -5.863496E-05, 0.003649292, -5.912322E-05, 0.0002593961
 179636450, 0.0001938427, 0.003656012, -0.0001369838, 0.0002615578
 179736410, 2.484887E-05, 0.003458991, -0.0001509384, 0.0002593961
 179836370, -8.163639E-05, 0.003659829, 6.682226E-05, 0.0002593961
 179936330, -0.0001365857, 0.003591839, 0.0001096203, 0.0002593961
 180036290, -8.97405E-05, 0.003396465, -7.455107E-05, 0.0002593961
 180136250, 0.0001465166, 0.003689986, -5.428289E-05, 0.0002593961
 180236210, -0.0001129593, 0.003593489, -0.0001212171, 0.0002593961
 180336170, -0.000122973, 0.003538894, -0.0003282593, 0.0002593961
 180436130, 7.93035E-05, 0.003616016, -5.502882E-05, 0.0002593961
 180536090, -2.692965E-06, 0.003627213, -0.0001483121, 0.0002593961
 180636050, -6.187911E-05, 0.003631259, -4.046252E-05, 0.0002593961
 180736010, -1.234815E-05, 0.003469401, -0.0001704344, 0.0002593961
 180835970, -3.282295E-05, 0.003386527, -9.404353E-05, 0.0002593961
 180935930, -3.354873E-05, 0.003443787, 3.081521E-06, 0.0002593961
 181035890, -5.789896E-05, 0.003540208, -0.0002138272, 0.0002593961
 181135850, -0.0001653292, 0.003416666, -9.376707E-05, 0.0002593961
 181235810, 8.161191E-05, 0.00368458, -0.0001290079, 0.0002593961
 181335770, -7.401673E-05, 0.003421923, 6.167447E-05, 0.0002593961
 181435730, -0.0001668341, 0.0034628, -0.0001696623, 0.0002593961
 181535690, 5.489767E-05, 0.003483535, -1.474267E-05, 0.0002593961
 181636483, 0.0001955971, 0.003427353, 0.0001432676, 0.0002615578
 181736443, -2.515119E-05, 0.003621057, 8.491933E-05, 0.0002593961
 181836403, 6.477765E-05, 0.003708404, -0.0002048245, 0.0002593961
 181936363, 6.601033E-05, 0.003587903, -0.0002828515, 0.0002593961
 182036323, 0.0002274116, 0.003789825, 1.809231E-05, 0.0002593961
 182136283, 0.0001558627, 0.003689296, -8.248963E-05, 0.0002593961
 182236243, 0.0001465708, 0.003525019, 9.863488E-05, 0.0002593961
 182336203, -0.0001241704, 0.00363369, 2.465334E-05, 0.0002593961
 182436163, -0.0002711008, 0.003465833, -7.637902E-05, 0.0002593961
 182536123, -2.234947E-05, 0.003668531, -8.138739E-06, 0.0002593961
 182636083, 0.0001850664, 0.00354938, -5.207719E-05, 0.0002593961
 182736043, -0.0002367046, 0.00365253, 0.0001044404, 0.0002593961
 182836003, 0.0001472695, 0.003736477, 0.000103014, 0.0002593961
 182935963, 9.823681E-05, 0.00373113, 9.60383E-05, 0.0002593961
 183035923, 2.208496E-05, 0.003559931, -0.000104301, 0.0002593961
 183135883, 5.551571E-05, 0.003492352, -0.0001069356, 0.0002593961
 183235843, 3.366678E-05, 0.003700431, 0.0001146644, 0.0002593961
 183335803, -0.0001713228, 0.003621446, 5.318897E-05, 0.0002593961
 183435763, -9.961713E-05, 0.003343153, -6.935682E-05, 0.0002593961
 183535723, -7.442117E-05, 0.003773384, -2.17887E-05, 0.0002593961
 183635683, 0.0001129372, 0.003571377, -2.812095E-05, 0.0002593961
 183736476, -0.000132311, 0.003732386, 5.015232E-05, 0.0002615578
 183836436, -5.525295E-05, 0.003514702, -0.0002711761, 0.0002593961
 183936396, -0.0002140467, 0.003520622, -0.0002516502, 0.0002593961
 184036356, 3.531977E-05, 0.003467816, 2.980235E-06, 0.0002593961
 184136316, -0.0001347142, 0.003559955, -8.26493E-05, 0.0002593961
 184236276, 0.0001061415, 0.003651236, -0.0001435599, 0.0002593961
 184336236, 2.319211E-05, 0.003601591, -0.0001303962, 0.0002593961
 184436196, -1.858554E-05, 0.003619363, -6.310806E-06, 0.0002593961
 184536156, 2.533523E-05, 0.003778308, -5.394327E-05, 0.0002593961
 184636116, -2.670113E-05, 0.003553469, 6.348692E-05, 0.0002593961
 184736076, -2.203726E-05, 0.003494126, -0.0001304498, 0.0002593961
 184836036, -9.694584E-05, 0.003477884, -6.000983E-06, 0.0002593961
 184935996, 8.497212E-05, 0.003455747, 0.0002515191, 0.0002593961
 185035956, 6.189528E-05, 0.003742719, -0.0002028869, 0.0002593961
 185135916, 3.031527E-05, 0.003771115, -0.0002972963, 0.0002593961
 185235876, -0.0001736573, 0.003709459, -0.0001128949, 0.0002593961
 185335836, -4.042414E-05, 0.003735073, 9.591437E-05, 0.0002593961
 185435796, -2.527625E-05, 0.003527414, 1.540641E-05, 0.0002593961
 185535756, -4.486082E-05, 0.003416114, -4.623468E-06, 0.0002593961
 185635716, 3.445364E-05, 0.003584898, -0.0004098814, 0.0002593961
 185735676, -5.942031E-06, 0.003792833, -0.0001280034, 0.0002593961
 185836469, 4.232132E-05, 0.003425751, -0.0001674963, 0.0002615578
 185936429, 0.0001893999, 0.003613359, -0.0001860637, 0.0002593961
 186036389, -9.52409E-05, 0.003503408, -0.0002678883, 0.0002593961
 186136349, 0.0001643985, 0.003460607, -5.4016E-06, 0.0002593961
 186236309, 9.985901E-05, 0.003541236, 1.630488E-05, 0.0002593961
 186336269, -1.026365E-05, 0.003761243, -6.857391E-05, 0.0002593961
 186436229, -0.0001170653, 0.003790682, -0.0002052344, 0.0002593961
 186536189, -0.0001131401, 0.003719256, -0.0002658269, 0.0002593961
 186636149, 0.0001544049, 0.003725191, -0.0001651318, 0.0002593961
 186736109, 0.0003823064, 0.003818436, -7.585113E-05, 0.0002593961
 186836069, -0.0001211008, 0.003870291, 0.0001684278, 0.0002593961
 186936029, -7.289328E-05, 0.003528186, -0.0001070869, 0.0002593961
 187035989, 5.535005E-05, 0.003550201, -0.0001605095, 0.0002593961
 187135949, 7.364395E-05, 0.003667026, -6.633728E-05, 0.0002593961
 187235909, 7.389911E-06, 0.003621477, 3.160881E-05, 0.0002593961
 187335869, -1.475413E-05, 0.003700096, -7.762782E-05, 0.0002593961
 187435829, -1.327104E-05, 0.003768706, -8.924011E-05, 0.0002593961
 187535789, -5.141957E-05, 0.003607019, -0.0001084442, 0.0002593961
 187635749, -0.000101932, 0.003621036, -0.0001635672, 0.0002593961
 187735709, -5.338319E-05, 0.003491797, 3.922085E-05, 0.0002593961
 187835669, 4.066336E-05, 0.003954296, -0.0001153758, 0.0002593961
 187936462, -3.093049E-05, 0.003531076, -3.653813E-05, 0.0002615578
 188036422, 0.0001826263, 0.003576779, 3.600111E-05, 0.0002593961
 188136382, 0.0001031787, 0.00374296, -3.878353E-05, 0.0002593961
 188236342, 0.0002011078, 0.003533717, 2.734639E-05, 0.0002593961
 188336302, -5.26182E-05, 0.003610761, 5.51075E-05, 0.0002593961
 188436262, 0.0001880451, 0.003748816, 6.467019E-05, 0.0002593961
 188536222, -6.55374E-05, 0.003559159, 5.541968E-05, 0.0002593961
 188636182, 5.765603E-06, 0.003531182, -0.0001431048, 0.0002593961
 188736142, -2.278601E-05, 0.003765962, -1.29183E-05, 0.0002593961
 188836102, -5.906512E-05, 0.003673853, 0.0001499732, 0.0002593961
 188936062, 0.0001039291, 0.003676509, -0.0002343051, 0.0002593961
 189036022, 4.237722E-05, 0.003482582, -4.032548E-05, 0.0002593961
 189135982, 0.0001516431, 0.003557983, 0.0001374314, 0.0002593961
 189235942, 1.558843E-05, 0.003591426, -0.0001465485, 0.0002593961
 189335902, 0.0001023568, 0.00354357, -0.0001647767, 0.0002593961
 189435862, 5.195282E-05, 0.003570574, 2.563524E-05, 0.0002593961
 189535822, 0.0001022063, 0.003615823, -6.417566E-05, 0.0002593961
 189635782, -6.551432E-05, 0.00353201, -0.0001674924, 0.0002593961
 189735742, 3.872947E-05, 0.003673612, -0.0003474132, 0.0002593961
 189835702, 0.0001605496, 0.003591946, -0.0002263367, 0.0002593961
 189935662, 2.613632E-06, 0.003397617, -0.000257911, 0.0002593961
 190036455, -0.0001251168, 0.003529432, -8.59179E-05, 0.0002615578
 190136415, 0.0001160265, 0.003634055, -0.0001177459, 0.0002593961
 190236375, 0.000102622, 0.003455406, 1.184467E-05, 0.0002593961
 190336335, -1.52499E-05, 0.003625254, -2.372747E-05, 0.0002593961
 190436295, 0.0001309989, 0.00356372, -0.0001186123, 0.0002593961
 190536255, -5.535332E-05, 0.003729992, -0.0001144309, 0.0002593961
 190636215, 5.731229E-05, 0.00363537, 5.055074E-05, 0.0002593961
 190736175, -6.987401E-05, 0.003684946, -0.0001333145, 0.0002593961
 190836135, 8.21366E-05, 0.003683084, -5.037199E-05, 0.0002593961
 190936095, -0.0001225625, 0.003269298, -1.089613E-05, 0.0002593961
 191036055, -5.485146E-05, 0.003573544, -0.0002055609, 0.0002593961
 191136015, -0.0001396693, 0.003546586, -1.942094E-05, 0.0002593961
 191235975, 0.0002408851, 0.003528823, 4.059956E-05, 0.0002593961
 191335935, 9.571406E-05, 0.003596217, 6.719521E-05, 0.0002593961
 191435895, -0.0001760864, 0.003469643, -0.0002767671, 0.0002593961
 191535855, -2.432511E-05, 0.003561751, -0.0001824567, 0.0002593961
 191635815, -9.461856E-05, 0.003581833, -5.713918E-05, 0.0002593961
 191735775, 5.540399E-05, 0.003530168, 0.0001106094, 0.0002593961
 191835735, -6.164762E-05, 0.003578765, -1.623815E-05, 0.0002593961
 191935695, 9.988483E-05, 0.003549247, 9.241223E-05, 0.0002593961
 192035655, -3.141004E-05, 0.003707838, -3.80626E-05, 0.0002593961
 192136448, -8.981783E-05, 0.003620705, 1.029875E-05, 0.0002615578
 192236408, -5.425475E-05, 0.003541454, -0.0001868394, 0.0002593961
 192336368, 3.016533E-05, 0.003687202, -8.189859E-05, 0.0002593961
 192436328, 0.0001770848, 0.003678988, 4.969277E-05, 0.0002593961
 192536288, 2.935796E-05, 0.003601319, 0.0002291359, 0.0002593961
 192636248, -2.77286E-05, 0.00387828, -8.881829E-05, 0.0002593961
 192736208, -0.0002174321, 0.003601965, -0.0001849936, 0.0002593961
 192836168, -9.181186E-05, 0.003593837, 4.696516E-05, 0.0002593961
 192936128, 0.0001038679, 0.003782796, -2.26145E-05, 0.0002593961
 193036088, 5.754769E-05, 0.003649332, 8.465955E-05, 0.0002593961
 193136048, -0.0001860675, 0.003461766, -5.994661E-05, 0.0002593961
 193236008, 0.0001163465, 0.00353601, -9.326659E-05, 0.0002593961
 193335968, 4.579461E-05, 0.003782299, -0.0002123984, 0.0002593961
 193435928, 9.794172E-05, 0.003643376, -0.0001963628, 0.0002593961
 193535888, -8.795857E-06, 0.003577689, -0.0001448588, 0.0002593961
 193635848, -1.413215E-05, 0.003641773, -1.31185E-05, 0.0002593961
 193735808, -1.683826E-05, 0.003739994, -9.647917E-05, 0.0002593961
 193835768, -2.200095E-05, 0.003400999, 6.538039E-05, 0.0002593961
 193935728, 9.791683E-05, 0.003353121, -0.0001600853, 0.0002593961
 194035688, 1.51645E-05, 0.00357404, -0.0002166859, 0.0002593961
 194136481, -0.0002223287, 0.003707237, 4.868428E-05, 0.0002615578
 194236441, 0.0002018285, 0.003392943, -5.128001E-05, 0.0002593961
 194336401, 0.000140279, 0.003567452, 0.0001562661, 0.0002593961
 194436361, 3.814461E-05, 0.003620071, -0.0001092283, 0.0002593961
 194536321, 3.154104E-05, 0.003750406, 5.178644E-05, 0.0002593961
 194636281, -1.084563E-05, 0.00359946, -8.652203E-05, 0.0002593961
 194736241, 0.0001591266, 0.003664579, -0.0001091961, 0.0002593961
 194836201, -8.972653E-05, 0.00346007, -0.0001373838, 0.0002593961
 194936161, -0.0001538942, 0.003574144, 5.209984E-05, 0.0002593961
 195036121, 9.043611E-05, 0.003608271, -9.465956E-05, 0.0002593961
 195136081, -2.241964E-06, 0.003472312, -0.0003310821, 0.0002593961
 195236041, -0.0002153541, 0.003520512, -4.761578E-05, 0.0002593961
 195336001, 0.0001540673, 0.003474884, -7.655654E-05, 0.0002593961
 195435961, 3.864387E-05, 0.003600211, -0.0001280392, 0.0002593961
 195535921, 7.899149E-05, 0.003596631, -0.000138722, 0.0002593961
 195635881, 6.161776E-05, 0.003603592, -3.067219E-06, 0.0002593961
 195735841, 0.0002218148, 0.00334672, -0.000228714, 0.0002593961
 195835801, 1.951447E-05, 0.003541571, 0.0001684576, 0.0002593961
 195935761, 0.0001868158, 0.003558459, -5.699857E-05, 0.0002593961
 196035721, 0.0001301022, 0.003581962, 7.4961E-05, 0.0002593961
 196135681, -2.141421E-05, 0.00344385, 1.905394E-05, 0.0002593961
 196236474, -0.0002528354, 0.003527609, -8.878969E-05, 0.0002615578
 196336434, 2.783738E-05, 0.003649204, -0.000129002, 0.0002593961
 196436394, 0.0001287844, 0.003519794, -0.0001208453, 0.0002593961
 196536354, 6.784742E-05, 0.003458849, -3.182449E-05, 0.0002593961
 196636314, -0.0002004517, 0.003515875, -6.590351E-05, 0.0002593961
 196736274, -3.038295E-05, 0.003438437, -0.0001116521, 0.0002593961
 196836234, 4.248782E-05, 0.00327855, -3.237383E-05, 0.0002593961
 196936194, -0.000187467, 0.003509428, -2.197458E-05, 0.0002593961
 197036154, -0.000126343, 0.003374689, 6.119306E-05, 0.0002593961
 197136114, 2.08865E-05, 0.003720624, -7.281727E-05, 0.0002593961
 197236074, 0.0002732389, 0.003545361, -6.709514E-05, 0.0002593961
 197336034, 0.0001137013, 0.00351784, -8.87039E-05, 0.0002593961
 197435994, -7.452616E-05, 0.003601368, -0.0001038517, 0.0002593961
 197535954, -5.796143E-05, 0.003351194, -0.0001714723, 0.0002593961
 197635914, -9.669574E-06, 0.003553676, -0.0001742, 0.0002593961
 197735874, 0.0002966154, 0.003618028, -0.0001164602, 0.0002593961
 197835834, 0.0001915967, 0.003660425, -0.0001506548, 0.0002593961
 197935794, 0.0001934213, 0.003652583, -0.0001533598, 0.0002593961
 198035754, 0.0001638637, 0.003604986, -0.0002921258, 0.0002593961
 198135714, 4.403818E-05, 0.003746654, -4.31937E-05, 0.0002593961
 198235674, 0.0002300075, 0.003588773, 2.761453E-05, 0.0002593961
 198336467, -2.575109E-05, 0.003516105, -9.876908E-05, 0.0002615578
 198436427, -7.897543E-05, 0.003636441, -5.829028E-05, 0.0002593961
 198536387, -0.0001239183, 0.003615071, 1.593196E-06, 0.0002593961
 198636347, 6.687163E-05, 0.0035043, -0.0001390568, 0.0002593961
 198736307, 0.0001221869, 0.003476194, 0.0002165488, 0.0002593961
 198836267, 0.0001494022, 0.003537871, -0.0001670383, 0.0002593961
 198936227, 0.0002274622, 0.003698425, -0.0001185992, 0.0002593961
 199036187, -8.562759E-05, 0.003858536, -2.739764E-05, 0.0002593961
 199136147, -7.377614E-05, 0.003377246, -0.0001248802, 0.0002593961
 199236107, -5.124089E-05, 0.00357824, 1.434349E-05, 0.0002593961
 199336067, -0.000155548, 0.003420071, -1.194953E-05, 0.0002593961
 199436027, 0.0002006469, 0.003585037, -0.000162055, 0.0002593961
 199535987, -8.069131E-05, 0.003543408, 1.190306E-05, 0.0002593961
 199635947, 9.024513E-05, 0.00336796, 5.339627E-06, 0.0002593961
 199735907, -2.764311E-06, 0.00359994, 7.081768E-06, 0.0002593961
 199835867, -0.0002406131, 0.00386467, -0.0001305368, 0.0002593961
 199935827, -0.0001118477, 0.003516418, -5.459867E-05, 0.0002593961
 200035787, 0.0002026355, 0.003480941, 4.222492E-05, 0.0002593961
 200135747, -1.722357E-05, 0.003477756, 8.594651E-05, 0.0002593961
 200235707, 0.0002598605, 0.00343191, 0.0001029771, 0.0002593961
 200335667, -0.0001817754, 0.003494299, -0.0003657988, 0.0002593961
 200436460, 0.0001687278, 0.003538029, -0.0001855513, 0.0002615578
 200536420, -7.534753E-05, 0.003707631, -0.0001515116, 0.0002593961
 200636380, -0.0001817992, 0.003630241, -5.944139E-05, 0.0002593961
 200736340, 8.23806E-05, 0.00351378, 0.0001256273, 0.0002593961
 200836300, 9.757061E-05, 0.003425619, -8.010404E-05, 0.0002593961
 200936260, -5.790404E-05, 0.003523805, 8.422104E-05, 0.0002593961
 201036220, 0.0001757456, 0.003599965, 2.668981E-05, 0.0002593961
 201136180, -7.642745E-05, 0.003479799, -0.0001748125, 0.0002593961
 201236140, -5.91903E-05, 0.003364178, 1.266092E-05, 0.0002593961
 201336100, -0.0002177824, 0.003483038, 7.962498E-05, 0.0002593961
 201436060, -0.0001588111, 0.003553048, -8.600489E-05, 0.0002593961
 201536020, 5.576505E-05, 0.003471615, -9.086548E-05, 0.0002593961
 201635980, 6.321524E-05, 0.003369024, 0.0001597385, 0.0002593961
 201735940, -7.440633E-05, 0.003491016, -8.967504E-05, 0.0002593961
 201835900, -0.0001565704, 0.003572478, -3.06841E-06, 0.0002593961
 201935860, 1.698068E-05, 0.003585765, -8.267432E-05, 0.0002593961
 202035820, 0.0001617704, 0.003503639, -0.0001341545, 0.0002593961
 202135780, 6.698355E-05, 0.003678833, 9.156017E-05, 0.0002593961
 202235740, -1.164153E-07, 0.003523536, -0.0002730672, 0.0002593961
 202335700, 0.0001913649, 0.003607231, -7.961069E-05, 0.0002593961
 202435660, -1.232084E-05, 0.003408168, -0.0001928321, 0.0002593961
 202536453, 0.0002313868, 0.003545465, -5.287278E-05, 0.0002615578
 202636413, 0.0001001784, 0.003430624, 9.789108E-06, 0.0002593961
 202736373, 6.453804E-05, 0.003641438, -7.446529E-05, 0.0002593961
 202836333, 0.000107368, 0.003477905, -7.857875E-05, 0.0002593961
 202936293, -3.804531E-05, 0.003513648, -0.0002295875, 0.0002593961
 203036253, 0.0001367454, 0.003719021, 7.248957E-05, 0.0002593961
 203136213, 8.10935E-05, 0.003549593, -8.893626E-05, 0.0002593961
 203236173, -0.0001698037, 0.003615544, -0.0002606112, 0.0002593961
 203336133, -6.486086E-05, 0.003591323, -0.0001428414, 0.0002593961
 203436093, 0.0001752877, 0.003329847, 3.996919E-05, 0.0002593961
 203536053, -0.000181255, 0.003744028, 0.00018818, 0.0002593961
 203636013, 0.0002507526, 0.003590164, 2.655397E-05, 0.0002593961
 203735973, 3.200708E-05, 0.003699392, -0.0001125791, 0.0002593961
 203835933, 8.559483E-06, 0.003706143, -2.15885E-05, 0.0002593961
 203935893, 0.0001480577, 0.003736819, -5.803172E-05, 0.0002593961
 204035853, 9.696031E-05, 0.003504911, -0.0001361791, 0.0002593961
 204135813, -1.576528E-05, 0.003516794, 2.020386E-05, 0.0002593961
 204235773, 9.487964E-05, 0.003660788, -0.0001589223, 0.0002593961
 204335733, 8.504226E-05, 0.003671035, -0.0002391954, 0.0002593961
 204435693, 1.670905E-05, 0.003472489, -8.046507E-05, 0.0002593961
 204536486, 1.889787E-05, 0.00351656, 8.473227E-05, 0.0002593961
 204636446, 4.314681E-05, 0.00354822, 0.0001476528, 0.0002615578
 204736406, 0.0001332351, 0.003387125, 0.0001331571, 0.0002593961
 204836366, 6.185528E-05, 0.003370342, 3.265862E-05, 0.0002593961
 204936326, 3.725926E-05, 0.003526647, -0.0001161325, 0.0002593961
 205036286, -7.042403E-05, 0.003689377, -0.0002740586, 0.0002593961
 205136246, -3.328181E-05, 0.003569241, -1.508704E-05, 0.0002593961
 205236206, 2.30391E-05, 0.003552497, -0.0001638687, 0.0002593961
 205336166, -3.378986E-05, 0.00341375, 4.488697E-05, 0.0002593961
 205436126, 0.0001198563, 0.003436503, 1.925771E-05, 0.0002593961
 205536086, 0.0002288494, 0.003697872, -0.0001470919, 0.0002593961
 205636046, 6.329019E-05, 0.003569467, -0.000109892, 0.0002593961
 205736006, -3.828631E-05, 0.00342582, -9.901851E-05, 0.0002593961
 205835966, -9.882222E-05, 0.003734589, -6.780298E-06, 0.0002593961
 205935926, 0.000191668, 0.003519596, -0.0001299553, 0.0002593961
 206035886, -4.536467E-05, 0.003443453, -0.0002086961, 0.0002593961
 206135846, 0.0003100501, 0.003463155, -0.0001114054, 0.0002593961
 206235806, -7.346238E-05, 0.003476939, -3.197941E-05, 0.0002593961
 206335766, 0.0001250276, 0.003401025, 1.179104E-05, 0.0002593961
 206435726, 0.0001090502, 0.003433784, 4.408742E-05, 0.0002593961
 206535686, 6.01477E-05, 0.003438109, -0.0001033215, 0.0002593961
 206636479, 2.869504E-05, 0.003698152, 4.92932E-05, 0.0002615578
 206736439, 0.0001653548, 0.003588759, -8.469998E-06, 0.0002593961
 206836399, -0.0001326238, 0.003701537, 1.672671E-05, 0.0002593961
 206936359, -0.0001373889, 0.003266911, -5.565086E-05, 0.0002593961
 207036319, 0.0001005686, 0.003664126, -0.0002568219, 0.0002593961
 207136279, 5.550858E-05, 0.003656528, -5.26444E-05, 0.0002593961
 207236239, 0.0001021105, 0.003392396, 2.413736E-05, 0.0002593961
 207336199, 1.618559E-05, 0.003439559, -3.534928E-05, 0.0002593961
 207436159, -0.0001288325, 0.003450975, 8.556637E-05, 0.0002593961
 207536119, 0.0001703581, 0.003369494, -0.0002521936, 0.0002593961
 207636079, 4.480708E-05, 0.003654787, 5.29995E-05, 0.0002593961
 207736039, -3.929514E-05, 0.003432693, -9.967871E-06, 0.0002593961
 207835999, 7.1861E-06, 0.003393182, 5.494898E-05, 0.0002593961
 207935959, 5.839579E-05, 0.003708832, -0.0001772386, 0.0002593961
 208035919, -0.0001419979, 0.003734417, 0.0001064626, 0.0002593961
 208135879, 3.082053E-05, 0.003492162, 7.136826E-05, 0.0002593961
 208235839, 0.0002127619, 0.003626082, -0.0001287768, 0.0002593961
 208335799, -0.0001533816, 0.003591332, 0.0002465597, 0.0002593961
 208435759, 1.225617E-05, 0.003540134, -9.088217E-05, 0.0002593961
 208535719, 0.0001165643, 0.003636167, -0.000120495, 0.0002593961
 208635679, -2.062774E-05, 0.003662895, -0.0001411315, 0.0002593961
 208736472, -3.073933E-05, 0.003780881, 5.564452E-06, 0.0002615578
 208836432, 0.0001644291, 0.003653799, -5.227501E-05, 0.0002593961
 208936392, 0.0001075859, 0.003647067, -0.0001255916, 0.0002593961
 209036352, 0.0002208735, 0.003451484, 0.0002500558, 0.0002593961
 209136312, 0.0001368892, 0.003562951, -1.732489E-05, 0.0002593961
 209236272, 9.252356E-07, 0.003552213, 3.007996E-05, 0.0002593961
 209336232, 9.446301E-05, 0.0037615, -2.258112E-05, 0.0002593961
 209436192, -4.354457E-05, 0.003390542, -0.0001050445, 0.0002593961
 209536152, -0.0002087494, 0.003486452, -4.381929E-05, 0.0002593961
 209636112, 2.633709E-05, 0.003581092, 0.0001267653, 0.0002593961
 209736072, -5.63268E-05, 0.003425098, -9.575347E-05, 0.0002593961
 209836032, -7.426695E-05, 0.003760243, 5.059364E-05, 0.0002593961
 209935992, 7.681621E-05, 0.003497324, 0.0001013922, 0.0002593961
 210035952, 8.72587E-05, 0.003636722, -3.612027E-05, 0.0002593961
 210135912, -0.0001474464, 0.003529569, 1.211397E-05, 0.0002593961
 210235872, -4.90649E-05, 0.003596603, 0.0001907456, 0.0002593961
 210335832, 4.770183E-05, 0.003604776, -0.0001455547, 0.0002593961
 210435792, 1.554041E-05, 0.003517077, 6.323429E-05, 0.0002593961
 210535752, -0.0001202763, 0.00321819, 1.406145E-07, 0.0002593961
 210635712, 7.841901E-05, 0.003407903, -4.244417E-05, 0.0002593961
 210735672, -0.0001095138, 0.003529766, 0.0001190448, 0.0002593961
 210836465, 3.34126E-05, 0.00371073, -8.651528E-06, 0.0002615578
 210936425, -6.520029E-05, 0.00363884, 2.072578E-05, 0.0002593961
 211036385, 0.0001906223, 0.003596123, -9.45786E-06, 0.0002593961
 211136345, -3.815487E-06, 0.003340216, -1.850461E-05, 0.0002593961
 211236305, -2.189754E-05, 0.003481507, -0.0002898535, 0.0002593961
 211336265, -0.0001687017, 0.00349509, -0.0002033016, 0.0002593961
 211436225, -9.514977E-05, 0.003690185, 1.073526E-05, 0.0002593961
 211536185, -3.865994E-05, 0.003417501, -0.000398138, 0.0002593961
 211636145, -5.634958E-05, 0.003532592, -3.705449E-05, 0.0002593961
 211736105, -0.0001889773, 0.00350318, 4.055194E-05, 0.0002593961
 211836065, -0.0001744434, 0.003515056, -8.949039E-05, 0.0002593961
 211936025, 9.446088E-05, 0.003647969, 7.748008E-05, 0.0002593961
 212035985, 4.156879E-05, 0.00363691, -0.0001078722, 0.0002593961
 212135945, 8.863626E-05, 0.003365745, -6.55794E-05, 0.0002593961
 212235905, 1.934166E-06, 0.00358756, 0.0001714795, 0.0002593961
 212335865, -1.722135E-05, 0.003583148, 1.252984E-05, 0.0002593961
 212435825, 0.0001615842, 0.003320089, -0.0001424839, 0.0002593961
 212535785, -2.742388E-05, 0.00359675, 9.012314E-05, 0.0002593961
 212635745, 8.649751E-05, 0.003431102, -4.89635E-06, 0.0002593961
 212735705, -0.0001164473, 0.003440139, -6.03053E-05, 0.0002593961
 212835665, -0.0002105076, 0.003451682, -7.067714E-05, 0.0002593961
 212936458, 0.0001083692, 0.003472606, -0.0002112604, 0.0002615578
 213036418, -9.804879E-05, 0.003478007, -0.0002535628, 0.0002593961
 213136378, 0.0001491426, 0.003628069, 7.991095E-05, 0.0002593961
 213236338, -1.248103E-05, 0.003655583, 0.0001257953, 0.0002593961
 213336298, 3.18859E-05, 0.003496633, -2.761332E-05, 0.0002593961
 213436258, 1.81697E-05, 0.003545757, -6.439492E-05, 0.0002593961
 213536218, -1.112988E-05, 0.003555059, -6.482987E-05, 0.0002593961
 213636178, 2.842036E-05, 0.003377456, -0.0001782431, 0.0002593961
 213736138, -9.311E-05, 0.00356548, -4.120966E-05, 0.0002593961
 213836098, 6.579185E-05, 0.003438723, -7.235017E-05, 0.0002593961
 213936058, 0.0001042466, 0.003603852, -7.34119E-05, 0.0002593961
 214036018, 0.000223612, 0.003724364, 6.38587E-05, 0.0002593961
 214135978, 2.100259E-05, 0.00371177, -2.675058E-05, 0.0002593961
 214235938, 4.604834E-05, 0.003525638, -1.809708E-05, 0.0002593961
 214335898, 0.0004529163, 0.003512724, 8.090835E-05, 0.0002593961
 214435858, 8.984921E-05, 0.003550921, -3.593435E-05, 0.0002593961
 214535818, 0.0001540311, 0.003638203, -0.0001822672, 0.0002593961
 214635778, 6.893413E-05, 0.003636364, -9.279234E-05, 0.0002593961
 214735738, 4.269514E-05, 0.003793548, -1.482251E-05, 0.0002593961
 214835698, 0.0001051775, 0.003715554, -7.904467E-05, 0.0002593961
 214935658, 4.817072E-06, 0.003579454, -0.0003359869, 0.0002593961
 215036451, 7.336993E-05, 0.003568968, -0.0002034681, 0.0002615578
 215136411, -0.0001095249, 0.003717277, -2.678873E-05, 0.0002593961
 215236371, -7.343552E-06, 0.003715112, -8.896611E-06, 0.0002593961
 215336331, -5.282687E-05, 0.003520004, -5.539827E-06, 0.0002593961
 215436291, 0.0001110548, 0.003297037, 1.65301E-05, 0.0002593961
 215536251, -3.971E-05, 0.003594979, -8.871343E-05, 0.0002593961
 215636211, 1.30113E-05, 0.003488086, 2.323056E-05, 0.0002593961
 215736171, 0.0002627308, 0.003421603, -0.0001293821, 0.0002593961
 215836131, 0.0001575303, 0.003409196, 0.00010927, 0.0002593961
 215936091, 0.0001185442, 0.003416118, -6.183653E-05, 0.0002593961
 216036051, 6.634134E-06, 0.0034232, -6.6635E-06, 0.0002593961
 216136011, -6.553205E-07, 0.003545001, -7.676271E-05, 0.0002593961
 216235971, 7.080154E-05, 0.00339446, 8.163523E-05, 0.0002593961
 216335931, 0.000224883, 0.003284832, -0.0002092263, 0.0002593961
 216435891, 0.0001215733, 0.003723082, -0.0001124194, 0.0002593961
 216535851, -8.065107E-05, 0.003453915, -0.0001136265, 0.0002593961
 216635811, -9.904287E-05, 0.003460608, 8.529825E-05, 0.0002593961
 216735771, -0.0002358275, 0.003497342, -0.0002032468, 0.0002593961
 216835731, 3.921943E-05, 0.003366713, -0.000259652, 0.0002593961
 216935691, 1.456981E-06, 0.003495594, -0.0002828372, 0.0002593961
 217036484, 6.749099E-05, 0.003475105, -0.0002488189, 0.0002615578
 217136444, 2.150176E-05, 0.003424346, -8.508258E-05, 0.0002593961
 217236404, 0.0001514574, 0.003539481, 0.0001632776, 0.0002593961
 217336364, 1.45916E-05, 0.003451779, 5.823545E-05, 0.0002593961
 217436324, 2.539822E-05, 0.003459642, -0.0002052118, 0.0002593961
 217536284, -0.0001983675, 0.003508475, 2.318886E-05, 0.0002593961
 217636244, -0.0001296822, 0.00345454, -0.000121888, 0.0002593961
 217736204, -0.0001101412, 0.003690952, 8.914837E-05, 0.0002593961
 217836164, -0.000153079, 0.003652518, -3.256567E-05, 0.0002593961
 217936124, 9.357794E-05, 0.003524393, -0.0001958302, 0.0002593961
 218036084, -7.621433E-05, 0.003556612, -3.278016E-05, 0.0002593961
 218136044, -4.802133E-05, 0.003506139, -2.258351E-05, 0.0002593961
 218236004, 5.349301E-05, 0.00346121, -7.560327E-05, 0.0002593961
 218335964, 2.684272E-05, 0.003697061, 2.213903E-05, 0.0002593961
 218435924, 0.0002023383, 0.003557383, -0.0001569585, 0.0002593961
 218535884, 3.071243E-05, 0.003522787, -0.0003309928, 0.0002593961
 218635844, -6.109608E-05, 0.003545324, -8.570098E-06, 0.0002593961
 218735804, 5.863949E-05, 0.003573815, -8.731685E-05, 0.0002593961
 218835764, 7.354934E-05, 0.003613998, -0.0001951188, 0.0002593961
 218935724, -4.707268E-05, 0.003677414, 2.291716E-05, 0.0002593961
 219035684, -4.639529E-05, 0.003574409, -0.0001694573, 0.0002593961
 219136477, 0.000210118, 0.003919728, -0.0001590764, 0.0002615578
 219236437, 7.165911E-05, 0.003612316, -7.460231E-05, 0.0002593961
 219336397, 5.586574E-05, 0.0034807, 0.000117292, 0.0002593961
 219436357, 0.0002161961, 0.003589336, -0.0001575662, 0.0002593961
 219536317, 3.80227E-05, 0.003492084, -0.0003688326, 0.0002593961
 219636277, -5.958391E-05, 0.003430898, 4.908385E-05, 0.0002593961
 219736237, -4.533546E-06, 0.003688408, -0.0001504022, 0.0002593961
 219836197, 0.0001087044, 0.003554973, -2.102368E-05, 0.0002593961
 219936157, -1.407081E-05, 0.003488599, -0.0002051105, 0.0002593961
 220036117, 5.648595E-05, 0.003674862, 7.293876E-06, 0.0002593961
 220136077, 0.0001156263, 0.003585567, -0.0001509075, 0.0002593961
 220236037, 9.204157E-06, 0.00323726, -4.699972E-05, 0.0002593961
 220335997, -7.109604E-05, 0.003516362, 2.806733E-05, 0.0002593961
 220435957, 5.167292E-05, 0.00361925, -1.947697E-05, 0.0002593961
 220535917, -2.277838E-05, 0.003500874, -4.256929E-05, 0.0002593961
 220635877, -6.863259E-05, 0.003776425, -8.225249E-05, 0.0002593961
 220735837, 6.526586E-05, 0.003523917, 0.0001172145, 0.0002593961
 220835797, -0.0001645457, 0.003773984, -2.82258E-05, 0.0002593961
 220935757, 6.034987E-05, 0.003631462, -0.000255237, 0.0002593961
 221035717, 4.614076E-05, 0.003552275, 5.302095E-05, 0.0002593961
 221135677, 0.0002405315, 0.003530136, -2.266337E-05, 0.0002593961
 221236470, -1.836484E-05, 0.003502769, -0.0002915185, 0.0002615578
 221336430, -6.603093E-05, 0.003543211, -0.0002970628, 0.0002593961
 221436390, 0.0001026899, 0.003644497, -0.0001020476, 0.0002593961
 221536350, 8.386133E-05, 0.003558227, 8.417219E-05, 0.0002593961
 221636310, 0.0001987293, 0.003471862, -0.0001678844, 0.0002593961
 221736270, 7.148581E-05, 0.003501151, -0.0596161, 0.0002593961
 221836230, 0.0003070681, 0.003949632, -0.1928698, 0.0002593961
 221936190, 0.0001270059, 0.003719041, -0.06176946, 0.0002593961
 222036150, -2.996186E-05, 0.003543366, 0.03392228, 0.0002593961
 222136110, -6.821388E-05, 0.003477148, 0.05702146, 0.0002593961
 222236070, -0.0001040625, 0.00347052, 0.03952884, 0.0002593961
 222336030, -8.900586E-05, 0.003537158, -0.3930051, 0.0002593961
 222435990, -0.001728176, 0.001572671, -0.7159416, 0.0002593961
 222535950, -0.004630893, -0.001334728, -0.512193, 0.0002593961
 222635910, -0.006454754, -0.003632609, -0.2278256, 0.0002593961
 222735870, -0.007293646, -0.004539837, -0.07400481, 0.0002593961
 222835830, -0.00746632, -0.004457365, -0.05255958, 0.0002593961
 222935790, -0.007384622, -0.004275607, -0.0872805, 0.0002593961
 223035750, -0.006958189, -0.003532312, -0.1177732, 0.0002593961
 223135710, -0.006394611, -0.003015725, -0.1244042, 0.0002593961
 223235670, -0.0060547, -0.002341057, -0.1146352, 0.0002593961
 223336463, -0.00557383, -0.001767798, -0.1013781, 0.0002615578
 223436423, -0.005123744, -0.001230098, -0.08960371, 0.0002593961
 223536383, -0.004594104, -0.0006877242, -0.08297095, 0.0002593961
 223636343, -0.004417585, -0.0001737409, -0.07845115, 0.0002593961
 223736303, -0.00394279, 0.0003158533, -0.074592, 0.0002593961
 223836263, -0.003706838, 0.0008213171, -0.0702635, 0.0002593961
 223936223, -0.003277918, 0.001173994, -0.06575752, 0.0002593961
 224036183, -0.002857457, 0.001490992, -0.06153916, 0.0002593961
 224136143, -0.002360139, 0.001826988, -0.05753087, 0.0002593961
 224236103, -0.001984461, 0.002085662, -0.05384129, 0.0002593961
 224336063, -0.001627511, 0.002237774, -0.05057497, 0.0002593961
 224436023, -0.001372856, 0.002542805, -0.04729841, 0.0002593961
 224535983, -0.001188051, 0.002587638, -0.04437128, 0.0002593961
 224635943, -0.0008230811, 0.002705151, -0.04169816, 0.0002593961
 224735903, -0.0005431965, 0.002808002, -0.03883729, 0.0002593961
 224835863, -0.0007023852, 0.002859383, -0.03633506, 0.0002593961
 224935823, -0.0007657598, 0.002899416, -0.03403656, 0.0002593961
 225035783, -0.0009840046, 0.003068717, -0.03148597, 0.0002593961
 225135743, -0.0009129394, 0.003033618, -0.02942033, 0.0002593961
 225235703, -0.001024148, 0.002993031, -0.02770405, 0.0002593961
 225335663, -0.001055763, 0.002957249, -0.02626667, 0.0002593961
 225436456, -0.00116004, 0.002616911, -0.02506839, 0.0002615578
 225536416, -0.001310884, 0.002458843, -0.02329757, 0.0002593961
 225636376, -0.001434633, 0.002383225, -0.02177793, 0.0002593961
 225736336, -0.001263072, 0.002328352, -0.0203378, 0.0002593961
 225836296, 0.0004539322, 0.003641302, 0.2612182, 0.0002593961
 225936256, 0.0004849425, 0.003287399, 0.2770325, 0.0002593961
 226036216, 0.0003102867, 0.003104598, 0.258418, 0.0002593961
 226136176, 0.0004411283, 0.002903952, 0.2416174, 0.0002593961
 226236136, 0.0005095891, 0.002800472, 0.2197368, 0.0002593961
 226336096, 0.001410304, 0.003546447, 0.2676609, 0.0002593961
 226436056, 0.005298793, 0.005619656, 0.2575795, 0.0002593961
 226536016, 0.01327277, 0.008807313, 0.222134, 0.0002593961
 226635976, 0.0212619, 0.01214438, 0.1889511, 0.0002593961
 226735936, 0.02389449, 0.01402965, 0.1623176, 0.0002593961
 226835896, 0.02135175, 0.01464455, 0.14313, 0.0002593961
 226935856, 0.01937244, 0.01432379, 0.1294149, 0.0002593961
 227035816, 0.02560424, 0.01435426, 0.1197683, 0.0002593961
 227135776, 0.03978842, 0.01539781, 0.1145341, 0.0002593961
 227235736, 0.05677581, 0.01638832, 0.1106608, 0.0002593961
 227335696, 0.07213119, 0.01736862, 0.1044512, 0.0002593961
 227435656, 0.08243568, 0.01788891, 0.0962135, 0.0002593961
 227536449, 0.08816777, 0.01806702, 0.08835213, 0.0002615578
 227636409, 0.08887601, 0.01747054, 0.07879804, 0.0002593961
 227736369, 0.08886723, 0.01713916, 0.07044451, 0.0002593961
 227836329, 0.08828994, 0.01666545, 0.06300087, 0.0002593961
 227936289, 0.08760482, 0.01588002, 0.05598139, 0.0002593961
 228036249, 0.08655433, 0.01532191, 0.04967315, 0.0002593961
 228136209, 0.08478194, 0.01439093, 0.04375883, 0.0002593961
 228236169, 0.08291925, 0.0134788, 0.03835539, 0.0002593961
 228336129, 0.08086249, 0.01266114, 0.03402689, 0.0002593961
 228436089, 0.07954414, 0.01210952, 0.03028882, 0.0002593961
 228536049, 0.07875253, 0.01225212, 0.02762401, 0.0002593961
 228636009, 0.07906251, 0.01598244, 0.02582666, 0.0002593961
 228735969, 0.0788803, 0.0265832, 0.02691125, 0.0002593961
 228835929, 0.07914099, 0.0408223, 0.02595183, 0.0002593961
 228935889, 0.07995737, 0.05203748, 0.02071399, 0.0002593961
 229035849, 0.08020195, 0.05594721, 0.0156979, 0.0002593961
 229135809, 0.080713, 0.05169251, 0.01218665, 0.0002593961
 229235769, 0.08277062, 0.04136452, 0.01018816, 0.0002593961
 229335729, 0.08671064, 0.0280274, 0.00968447, 0.0002593961
 229435689, 0.09184586, 0.01440259, 0.01005946, 0.0002593961
 229536482, 0.09803694, 0.00259489, 0.01080348, 0.0002615578
 229636442, 0.1015344, -0.007013189, 0.01135381, 0.0002593961
 229736402, 0.1034296, -0.01446863, 0.01206123, 0.0002593961
 229836362, 0.1040472, -0.01978849, 0.0120319, 0.0002593961
 229936322, 0.1032684, -0.0233381, 0.01158819, 0.0002593961
 230036282, 0.1012991, -0.02399556, 0.01088808, 0.0002593961
 230136242, 0.09928688, -0.02351936, 0.01130192, 0.0002593961
 230236202, 0.09815688, -0.02731782, 0.01297796, 0.0002593961
 230336162, 0.09949399, -0.03548737, 0.01328527, 0.0002593961
 230436122, 0.1017759, -0.04347447, 0.01137497, 0.0002593961
 230536082, 0.1023613, -0.04632914, 0.008866828, 0.0002593961
 230636042, 0.1005496, -0.04153331, 0.006962991, 0.0002593961
 230736002, 0.0971049, -0.02898797, 0.00598243, 0.0002593961
 230835962, 0.0944203, -0.01012025, 0.006069469, 0.0002593961
 230935922, 0.09346823, 0.01132055, 0.00708546, 0.0002593961
 231035882, 0.09461896, 0.03229015, 0.008713449, 0.0002593961
 231135842, 0.09675767, 0.0495975, 0.009971647, 0.0002593961
 231235802, 0.09864481, 0.06196985, 0.01061751, 0.0002593961
 231335762, 0.09959412, 0.06865212, 0.01026579, 0.0002593961
 231435722, 0.09915411, 0.07001207, 0.008975233, 0.0002593961
 231535682, 0.09769745, 0.0661709, 0.007714817, 0.0002593961
 231636475, 0.09711932, 0.05850568, 0.006827865, 0.0002615578
 231736435, 0.09539, 0.04778592, 0.006334185, 0.0002593961
 231836395, 0.09539099, 0.03630729, 0.00645617, 0.0002593961
 231936355, 0.09657796, 0.02515668, 0.006912161, 0.0002593961
 232036315, 0.0986032, 0.01512908, 0.007693158, 0.0002593961
 232136275, 0.1006106, 0.007382584, 0.008075066, 0.0002593961
 232236235, 0.1020598, 0.002125288, 0.008373243, 0.0002593961
 232336195, 0.102785, -0.0004854885, 0.008044056, 0.0002593961
 232436155, 0.1026687, -0.0008708225, 0.007244254, 0.0002593961
 232536115, 0.1014173, 0.0008558126, 0.006369817, 0.0002593961
 232636075, 0.09899307, 0.00474908, 0.005124082, 0.0002593961
 232736035, 0.09580074, 0.009267841, 0.004022873, 0.0002593961
 232835995, 0.09260079, 0.01427289, 0.002774323, 0.0002593961
 232935955, 0.08908016, 0.01871582, 0.002582325, 0.0002593961
 233035915, 0.08584115, 0.0225486, 0.002579642, 0.0002593961
 233135875, 0.08354789, 0.0248533, 0.002260878, 0.0002593961
 233235835, 0.08154051, 0.02596082, 0.00204452, 0.0002593961
 233335795, 0.07936805, 0.02583431, 0.001995548, 0.0002593961
 233435755, 0.07737456, 0.02473016, 0.001746827, 0.0002593961
 233535715, 0.07552867, 0.0226705, 0.001121292, 0.0002593961
 233635675, 0.07342254, 0.0198047, 0.0006253853, 0.0002593961
 233736468, 0.07203767, 0.01737213, 0.0001679865, 0.0002615578
 233836428, 0.06938053, 0.01482521, 0.0002471483, 0.0002593961
 233936388, 0.06718214, 0.01237637, 0.0003664327, 0.0002593961
 234036348, 0.06539137, 0.01004448, 0.0004071216, 0.0002593961
 234136308, 0.06335127, 0.008135594, 0.001193729, 0.0002593961
 234236268, 0.06155892, 0.006962328, 0.001360179, 0.0002593961
 234336228, 0.06003147, 0.006191622, 0.0009654056, 0.0002593961
 234436188, 0.05868835, 0.006322208, 0.0002044169, 0.0002593961
 234536148, 0.05674113, 0.006941287, -0.0002661892, 0.0002593961
 234636108, 0.05447588, 0.007924674, 0.0006395786, 0.0002593961
 234736068, 0.05258031, 0.009188689, 0.0009292592, 0.0002593961
 234836028, 0.05090189, 0.01056839, 0.001137382, 0.0002593961
 234935988, 0.04981007, 0.01166783, 0.000822152, 0.0002593961
 235035948, 0.04862794, 0.01239641, 0.0005200999, 0.0002593961
 235135908, 0.04789471, 0.01286567, -0.0007458086, 0.0002593961
 235235868, 0.04681081, 0.01255636, -0.0006687825, 0.0002593961
 235335828, 0.04503335, 0.01173316, -0.0001697409, 0.0002593961
 235435788, 0.04351984, 0.0102567, -0.0001035967, 0.0002593961
 235535748, 0.04177233, 0.008907289, 0.0004302902, 0.0002593961
 235635708, 0.04043971, 0.007875348, 6.313062E-05, 0.0002593961
 235735668, 0.03955493, 0.007222281, 6.957966E-05, 0.0002593961
 235836461, 0.03924152, 0.006730562, -0.0003059657, 0.0002615578
 235936421, 0.0385669, 0.006303613, -0.001238654, 0.0002593961
 236036381, 0.03799665, 0.005882047, -0.002063594, 0.0002593961
 236136341, 0.03708802, 0.005936459, -0.002678375, 0.0002593961
 236236301, 0.03626444, 0.006170798, -0.003429665, 0.0002593961
 236336261, 0.03464333, 0.006261578, -0.002671579, 0.0002593961
 236436221, 0.0332205, 0.006294657, -0.002175655, 0.0002593961
 236536181, 0.0320874, 0.006441367, -0.00203256, 0.0002593961
 236636141, 0.03092908, 0.00648198, -0.001867633, 0.0002593961
 236736101, 0.02971451, 0.006698905, -0.001065499, 0.0002593961
 236836061, 0.02933252, 0.006730354, -0.001051234, 0.0002593961
 236936021, 0.02927301, 0.006078652, -0.001207242, 0.0002593961
 237035981, 0.02915858, 0.005466653, -0.0008793268, 0.0002593961
 237135941, 0.02888591, 0.00461062, -0.001035749, 0.0002593961
 237235901, 0.02851272, 0.004292899, -0.001566457, 0.0002593961
 237335861, 0.02948345, 0.004485781, -0.004739602, 0.0002593961
 237435821, 0.0290595, 0.004801221, -0.01038334, 0.0002593961
 237535781, 0.02146813, 0.004464856, -0.01230721, 0.0002593961
 237635741, 0.01049246, 0.004069244, -0.01239487, 0.0002593961
 237735701, -6.325389E-05, 0.003584315, -0.01117574, 0.0002593961
 237835661, -0.006238651, 0.003378071, -0.009940066, 0.0002593961
 237936454, -0.009032325, 0.003226804, -0.00739323, 0.0002615578
 238036414, -0.008954462, 0.003212135, -0.003466088, 0.0002593961
 238136374, -0.006235993, 0.003322591, -0.001141075, 0.0002593961
 238236334, -0.001840352, 0.00360166, -0.001454864, 0.0002593961
 238336294, 0.001286631, 0.00384559, -0.001928203, 0.0002593961
 238436254, 0.001152055, 0.003737848, -0.001554104, 0.0002593961
 238536214, -0.0004862132, 0.003388261, -0.001405748, 0.0002593961
 238636174, -0.002697447, 0.003254318, -0.0008067121, 0.0002593961
 238736134, -0.004597021, 0.002854314, 0.0004074993, 0.0002593961
 238836094, -0.006467752, 0.002904833, 0.003034885, 0.0002593961
 238936054, -0.006044857, 0.003307831, 0.00507638, 0.0002593961
 239036014, -0.003758875, 0.003556254, 0.005975475, 0.0002593961
 239135974, -0.0005506646, 0.004230534, 0.005317081, 0.0002593961
 239235934, 0.002405907, 0.004804403, 0.003915108, 0.0002593961
 239335894, 0.002641056, 0.005245272, 0.00329495, 0.0002593961
 239435854, 0.001050562, 0.005287625, 0.003191286, 0.0002593961
 239535814, -9.940865E-05, 0.005161174, 0.001880392, 0.0002593961
 239635774, -0.0002064575, 0.00523949, -0.000571841, 0.0002593961
 239735734, -0.0007630506, 0.005207036, -0.002969483, 0.0002593961
 239835694, -0.001797216, 0.004727877, -0.00499881, 0.0002593961
 239935654, -0.003875944, 0.003583594, -0.005847135, 0.0002593961
 240036447, -0.00592435, 0.002707189, -0.006237741, 0.0002615578
 240136407, -0.007057588, 0.001945523, -0.006754377, 0.0002593961
 240236367, -0.007639347, 0.001605947, -0.007279043, 0.0002593961
 240336327, -0.008857848, 0.00174613, -0.005715318, 0.0002593961
 240436287, -0.01012577, 0.001777067, -0.002622538, 0.0002593961
 240536247, -0.01013983, 0.001861846, 0.0003596309, 0.0002593961
 240636207, -0.008508968, 0.002343894, 0.003142887, 0.0002593961
 240736167, -0.005336876, 0.00287678, 0.004007049, 0.0002593961
 240836127, -0.002149491, 0.002970303, 0.004513926, 0.0002593961
 240936087, -0.0004084762, 0.003481005, 0.004464636, 0.0002593961
 241036047, 0.00102344, 0.003605204, 0.003273473, 0.0002593961
 241136007, 0.0005966042, 0.003563733, 0.001911965, 0.0002593961
 241235967, 4.978714E-06, 0.003371342, 0.0008106981, 0.0002593961
 241335927, -0.001802037, 0.003201971, 0.001074915, 0.0002593961
 241435887, -0.002372995, 0.002851383, 0.0007868205, 0.0002593961
 241535847, -0.003106356, 0.002880227, 0.0005680183, 0.0002593961
 241635807, -0.007006046, 0.002427773, 0.001870157, 0.0002593961
 241735767, -0.005276563, 0.002560138, 0.003226276, 0.0002593961
 241835727, -0.002691231, 0.002867634, 0.003376464, 0.0002593961
 241935687, 0.00069925, 0.003085112, 0.00365714, 0.0002593961
 242036480, 0.003029756, 0.003176224, 0.004423118, 0.0002615578
 242136440, 0.001154665, 0.003364844, 0.004222356, 0.0002593961
 242236400, 0.0002326763, 0.0034421, 0.003947003, 0.0002593961
 242336360, 0.0008759302, 0.003784677, 0.002808759, 0.0002593961
 242436320, 0.001401631, 0.004256815, 0.001019592, 0.0002593961
 242536280, 0.0004018834, 0.004786842, -0.0001546908, 0.0002593961
 242636240, -0.0009010612, 0.005412872, -0.001495043, 0.0002593961
 242736200, -0.002405392, 0.005470214, -0.002170176, 0.0002593961
 242836160, -0.00385136, 0.00527463, -0.002225232, 0.0002593961
 242936120, -0.005199917, 0.00459, -0.001693125, 0.0002593961
 243036080, -0.005008051, 0.003896247, -0.001275372, 0.0002593961
 243136040, -0.002462579, 0.003342201, -0.004493993, 0.0002593961
 243236000, 0.00557789, 0.002730867, -0.01847415, 0.0002593961
 243335960, 0.0087532, -0.0009783572, -0.0252168, 0.0002593961
 243435920, 0.009206659, -0.006570908, -0.02805771, 0.0002593961
 243535880, 0.007847809, -0.01253268, -0.02914526, 0.0002593961
 243635840, 0.006353725, -0.01710272, -0.02849433, 0.0002593961
 243735800, 0.004612028, -0.01956644, -0.02670303, 0.0002593961
 243835760, 0.003977308, -0.01981024, -0.02406909, 0.0002593961
 243935720, 0.004041453, -0.01876609, -0.02074, 0.0002593961
 244035680, 0.005196206, -0.01671785, -0.01838537, 0.0002593961
 244136473, 0.006848538, -0.01474707, -0.01610871, 0.0002615578
 244236433, 0.008894571, -0.01289229, -0.0134109, 0.0002593961
 244336393, 0.01065387, -0.0122751, -0.01085751, 0.0002593961
 244436353, 0.01235369, -0.01269072, -0.009225653, 0.0002593961
 244536313, 0.01383698, -0.01414159, -0.008268599, 0.0002593961
 244636273, 0.01472199, -0.01550202, -0.007484203, 0.0002593961
 244736233, 0.01439884, -0.01684786, -0.006644521, 0.0002593961
 244836193, 0.01413384, -0.01752202, -0.006128076, 0.0002593961
 244936153, 0.01358857, -0.01744413, -0.005567102, 0.0002593961
 245036113, 0.01376685, -0.0170404, -0.00524765, 0.0002593961
 245136073, 0.01449742, -0.01628756, -0.005645817, 0.0002593961
 245236033, 0.01519851, -0.01528979, -0.005331553, 0.0002593961
 245335993, 0.0157048, -0.01470468, -0.004481887, 0.0002593961
 245435953, 0.01598908, -0.01432015, -0.004042138, 0.0002593961
 245535913, 0.01591058, -0.01416111, -0.003519821, 0.0002593961
 245635873, 0.01536677, -0.01396777, -0.002030219, 0.0002593961
 245735833, 0.01565859, -0.01363428, -0.001918234, 0.0002593961
 245835793, 0.01584156, -0.0129051, -0.002186681, 0.0002593961
 245935753, 0.01560468, -0.01197043, -0.001617801, 0.0002593961
 246035713, 0.01523596, -0.01120825, -0.0007090676, 0.0002593961
 246135673, 0.01438988, -0.01088348, 0.0004427473, 0.0002593961
 246236466, 0.014379, -0.01082365, 0.001365055, 0.0002615578
 246336426, 0.01485047, -0.01041977, 0.0006208607, 0.0002593961
 246436386, 0.01518143, -0.01006901, 0.0003614874, 0.0002593961
 246536346, 0.01558238, -0.009449467, -1.667907E-05, 0.0002593961
 246636306, 0.01557263, -0.008894404, 0.0004126627, 0.0002593961
 246736266, 0.01558952, -0.00801497, 0.0003032961, 0.0002593961
 246836226, 0.01539461, -0.007501669, -9.788888E-05, 0.0002593961
 246936186, 0.01472177, -0.006748532, 6.650528E-05, 0.0002593961
 247036146, 0.01388552, -0.006192219, 0.0007532455, 0.0002593961
 247136106, 0.01352635, -0.00580172, 0.001254766, 0.0002593961
 247236066, 0.01309598, -0.00571055, 0.002170717, 0.0002593961
 247336026, 0.01336727, -0.005437623, 0.001654663, 0.0002593961
 247435986, 0.01394147, -0.005157962, 0.001028821, 0.0002593961
 247535946, 0.01412991, -0.004864492, 0.0009337527, 0.0002593961
 247635906, 0.01364268, -0.004565158, 0.001096577, 0.0002593961
 247735866, 0.01342863, -0.004065549, 0.001662008, 0.0002593961
 247835826, 0.01357742, -0.003631007, 0.00123135, 0.0002593961
 247935786, 0.01358212, -0.003161879, 0.0003003016, 0.0002593961
 248035746, 0.01357963, -0.002570886, -0.0008170471, 0.0002593961
 248135706, 0.01314187, -0.002005076, -0.001299324, 0.0002593961
 248235666, 0.01240208, -0.001537042, -0.001256619, 0.0002593961
 248336459, 0.01227809, -0.001250374, -0.001829135, 0.0002615578
 248436419, 0.01130368, -0.001120074, -0.00127517, 0.0002593961
 248536379, 0.01099115, -0.0010535, -0.001068825, 0.0002593961
 248636339, 0.01037182, -0.0009950864, -0.0002533316, 0.0002593961
 248736299, 0.01002182, -0.0008631364, -0.0001841798, 0.0002593961
 248836259, 0.009461267, -0.0007288695, 0.000743827, 0.0002593961
 248936219, 0.009877907, -0.0003333849, 0.00017175, 0.0002593961
 249036179, 0.009913862, -0.0002289166, 0.0001078615, 0.0002593961
 249136139, 0.009596708, -0.0001239964, -5.123958E-06, 0.0002593961
 249236099, 0.009704752, 3.495081E-05, -0.0002367026, 0.0002593961
 249336059, 0.009399292, 0.0001313888, -0.0005489287, 0.0002593961
 249436019, 0.009071566, 7.968853E-06, -0.0001766357, 0.0002593961
 249535979, 0.008931988, 0.0001935385, -0.0002290251, 0.0002593961
 249635939, 0.009225503, 0.0003445922, -0.0007921614, 0.0002593961
 249735899, 0.009467226, 0.000363755, -0.001178262, 0.0002593961
 249835859, 0.009908043, 0.0005190545, -0.002046697, 0.0002593961
 249935819, 0.009648712, 0.0005896271, -0.002222091, 0.0002593961
 250035779, 0.009127593, 0.0004981298, -0.001931389, 0.0002593961
 250135739, 0.008476728, 0.0007399658, -0.002054998, 0.0002593961
 250235699, 0.007807872, 0.0007503433, -0.001902889, 0.0002593961
 250335659, 0.006785553, 0.001022968, -0.001491683, 0.0002593961
 250436452, 0.006258211, 0.00133534, -0.00108149, 0.0002615578
 250536412, 0.005079933, 0.001613554, 0.000440662, 0.0002593961
 250636372, 0.004833371, 0.001493034, 0.0009073227, 0.0002593961
 250736332, 0.005161082, 0.001476862, 0.001142265, 0.0002593961
 250836292, 0.005283051, 0.001575645, 0.001275121, 0.0002593961
 250936252, 0.006318745, 0.001571699, 0.0005883997, 0.0002593961
 251036212, 0.006514085, 0.00130623, 0.0007268012, 0.0002593961
 251136172, 0.007030955, 0.00102241, 0.001024052, 0.0002593961
 251236132, 0.007367808, 0.000740051, 0.0002111591, 0.0002593961
 251336092, 0.007194053, 6.154544E-05, -0.0004780274, 0.0002593961
 251436052, 0.007034615, -0.0008072707, -0.0011799, 0.0002593961
 251536012, 0.006425552, -0.001302113, -0.001169749, 0.0002593961
 251635972, 0.005324803, -0.001668317, -0.0005458721, 0.0002593961
 251735932, 0.004445731, -0.001633174, -0.000389121, 0.0002593961
 251835892, 0.004534091, -0.001526206, -0.0002926096, 0.0002593961
 251935852, 0.004355668, -0.001142254, 0.0003038275, 0.0002593961
 252035812, 0.004344988, -0.0006912513, 0.0005929769, 0.0002593961
 252135772, 0.00399412, -1.554383E-05, 0.0007208455, 0.0002593961
 252235732, 0.004040977, 0.0005328953, 0.001250314, 0.0002593961
 252335692, 0.003661771, 0.0004642218, 0.002108865, 0.0002593961
 252436485, 0.004351665, 0.000517916, 0.00185899, 0.0002615578
 252536445, 0.004742529, 0.0003310114, 0.001374085, 0.0002593961
 252636405, 0.00522164, 0.0001768639, 0.0007123183, 0.0002593961
 252736365, 0.005352725, -0.0001106122, 0.0002646174, 0.0002593961
 252836325, 0.005544687, -0.0003414551, -0.0005287701, 0.0002593961
 252936285, 0.005282892, -8.85854E-05, -0.00123656, 0.0002593961
 253036245, 0.005222161, 0.0004993554, -0.002010325, 0.0002593961
 253136205, 0.004975875, 0.0009552865, -0.002150494, 0.0002593961
 253236165, 0.003872588, 0.001308051, -0.0009035309, 0.0002593961
 253336125, 0.003804883, 0.001557905, -0.001062491, 0.0002593961
 253436085, 0.004255434, 0.001984334, -0.001954092, 0.0002593961
 253536045, 0.004218885, 0.00194267, -0.001742744, 0.0002593961
 253636005, 0.004397896, 0.002077163, -0.002112024, 0.0002593961
 253735965, 0.004608557, 0.002425475, -0.002919486, 0.0002593961
 253835925, 0.004144603, 0.002669418, -0.002891267, 0.0002593961
 253935885, 0.00411335, 0.002954964, -0.003345111, 0.0002593961
 254035845, 0.003755321, 0.003108344, -0.00279477, 0.0002593961
 254135805, 0.00350848, 0.003108761, -0.002413109, 0.0002593961
 254235765, 0.003790821, 0.003535754, -0.002900772, 0.0002593961
 254335725, 0.003874219, 0.003335457, -0.002962603, 0.0002593961
 254435685, 0.003411469, 0.00336777, -0.00233214, 0.0002593961
 254536478, 0.002287389, 0.003421669, -0.001009376, 0.0002615578
 254636438, 0.001773025, 0.003412199, -0.0009315279, 0.0002593961
 254736398, 0.001214183, 0.003305641, -0.0001267176, 0.0002593961
 254836358, 0.0004848704, 0.003293712, 0.001148937, 0.0002593961
 254936318, 0.001032016, 0.003355632, 0.001321906, 0.0002593961
 255036278, 0.001798596, 0.003433041, 0.0008453788, 0.0002593961
 255136238, 0.002203613, 0.003757273, 0.000907816, 0.0002593961
 255236198, 0.002538162, 0.004116897, 0.0006173727, 0.0002593961
 255336158, 0.001892764, 0.00423169, 0.001280306, 0.0002593961
 255436118, 0.0009381125, 0.004227423, 0.002134948, 0.0002593961
 255536078, 0.001134614, 0.003968565, 0.002414522, 0.0002593961
 255636038, 0.001806041, 0.003999169, 0.001690802, 0.0002593961
 255735998, 0.002864811, 0.003964737, 0.001186836, 0.0002593961
 255835958, 0.00317134, 0.003905716, 0.0007875236, 0.0002593961
 255935918, 0.003282146, 0.004236773, -0.0003606748, 0.0002593961
 256035878, 0.001747243, 0.004346659, -0.0003650028, 0.0002593961
 256135838, 0.001486538, 0.00426681, 0.000158479, 0.0002593961
 256235798, 0.001321029, 0.004144794, 0.001403113, 0.0002593961
 256335758, 0.002115124, 0.004165445, 0.001458878, 0.0002593961
 256435718, 0.003049938, 0.003975077, 0.001356745, 0.0002593961
 256535678, 0.002546837, 0.003779048, 0.000366789, 0.0002593961
 256636471, 0.001495358, 0.003990102, 0.0002453132, 0.0002615578
 256736431, -0.001929472, 0.003841588, -0.0002833699, 0.0002593961
 256836391, 0.0005872744, 0.004074186, -0.0005892386, 0.0002593961
 256936351, 0.002221178, 0.004200265, -0.001148242, 0.0002593961
 257036311, 0.005275901, 0.004267875, -0.000953083, 0.0002593961
 257136271, 0.00525911, 0.004372498, -0.0002983473, 0.0002593961
 257236231, 0.002489385, 0.00451956, -0.0005129073, 0.0002593961
 257336191, -0.004058047, 0.004406681, 2.16743E-05, 0.0002593961
 257436151, 0.0006643891, 0.004163117, 0.0003435989, 0.0002593961
 257536111, 0.0008307918, 0.003950065, 0.0001074385, 0.0002593961
 257636071, 0.001472743, 0.004179834, -0.0005957425, 0.0002593961
 257736031, 0.001719984, 0.004427704, -0.0004231405, 0.0002593961
 257835991, 0.0007020389, 0.004533913, -0.0004340867, 0.0002593961
 257935951, 0.001835556, 0.004654346, -0.001266253, 0.0002593961
 258035911, 0.001803163, 0.004887817, -0.001515559, 0.0002593961
 258135871, 0.002766353, 0.004625527, -0.001364351, 0.0002593961
 258235831, 0.001691154, 0.004412771, -0.0002567551, 0.0002593961
 258335791, 0.0002071328, 0.004243701, -0.0001543822, 0.0002593961
 258435751, -0.0007482316, 0.003987403, 0.0001781549, 0.0002593961
 258535711, -0.001630798, 0.004170874, 0.001253749, 0.0002593961
 258635671, -0.001521011, 0.004604788, 0.0004796814, 0.0002593961
 258736464, -0.002151003, 0.004281661, 0.001406042, 0.0002615578
 258836424, 0.001098935, 0.004560459, 0.001088671, 0.0002593961
 258936384, 0.001034382, 0.004730447, 0.0011499, 0.0002593961
 259036344, 0.001057744, 0.004623148, 0.001167533, 0.0002593961
 259136304, 0.0003408089, 0.004736868, 0.001287692, 0.0002593961
 259236264, -0.0009186483, 0.004626022, 0.001495062, 0.0002593961
 259336224, -0.0003651253, 0.004612446, 0.002041215, 0.0002593961
 259436184, -0.0002221886, 0.004197439, 0.002008974, 0.0002593961
 259536144, -0.0004047752, 0.00444984, 0.002072416, 0.0002593961
 259636104, -0.0009745296, 0.004241153, 0.002390628, 0.0002593961
 259736064, 0.002536561, 0.004348692, 0.002409878, 0.0002593961
 259836024, 0.001638661, 0.004261761, 0.002455455, 0.0002593961
 259935984, -0.0002221731, 0.00444626, 0.002484765, 0.0002593961
 260035944, -0.001298254, 0.004550765, 0.002722358, 0.0002593961
 260135904, -0.0009402932, 0.004743021, 0.002281438, 0.0002593961
 260235864, -0.0004136378, 0.004815598, 0.001366589, 0.0002593961
 260335824, -0.003918191, 0.004578195, -0.0001470717, 0.0002593961
 260435784, 0.0001371456, 0.004517965, -0.00168483, 0.0002593961
 260535744, 0.002496431, 0.004369143, -0.002086528, 0.0002593961
 260635704, 0.002668591, 0.004287294, -0.002079821, 0.0002593961
 260735664, 0.005012717, 0.004139149, -0.001871455, 0.0002593961
 260836457, 0.002081593, 0.004454093, -0.001305228, 0.0002615578
 260936417, -0.0002786283, 0.004522302, -0.001155741, 0.0002593961
 261036377, -0.000519324, 0.004528757, -0.002382545, 0.0002593961
 261136337, -0.003593433, 0.004827037, -0.00239442, 0.0002593961
 261236297, -0.0009865336, 0.004546349, -0.00229503, 0.0002593961
 261336257, 0.0002436904, 0.004534288, -0.00192867, 0.0002593961
