TimeUS,CGpN,CGpE,CGpD,CGpe,PGpN,PGpE,PGpD,PGpe
 170760835, 0, 0, 0, 0.01, 0, 0, 0, 0
 170830807, 0, 0, 0, 0.01, 0, 0, 0, 0.01
 171030727, 0, 0, 0, 0.01, 0, 0, 0, 0.01
 171231480, 0, 0, 0, 0.01, 0, 0, 0, 0.01
 171431400, 0, 0, 0, 0.01, 0, 0, 0, 0.01
 171631320, 0, 0, 0, 0.01, 0, 0, 0, 0.01
 171831240, 0, 0, 0, 0.01, 0, 0, 0, 0.01
 172031160, 0, 0, 0, 0.01, 0, 0, 0, 0.01
 172231080, 0, 0, 0, 0.01, 0, 0, 0, 0.01
 172431000, 0, 0, 0, 0.01, 0, 0, 0, 0.01
 172630920, 0, 0, 0, 0.01, 0, 0, 0, 0.01
 172830840, 0, 0, 0, 0.01, 0, 0, 0, 0.01
 173030760, 0, 0, 0, 0.01, 0, 0, 0, 0.01
 173230680, 0, 0, 0, 0.01, 0, 0, 0, 0.01
 173431433, 0, 0, 0, 0.01, 0, 0, 0, 0.01
 173631353, 0, 0, 0, 0.01, 0, 0, 0, 0.01
 173831273, 0, 0, 0, 0.01, 0, 0, 0, 0.01
 174031193, 0, 0, 0, 0.01, 0, 0, 0, 0.01
 174231113, 0, 0, 0, 0.01, 0, 0, 0, 0.01
 174431033, 0, 0, 0, 0.01, 0, 0, 0, 0.01
 174630953, 0, 0, 0, 0.01, 0, 0, 0, 0.01
 174830873, 0, 0, 0, 0.01, 0, 0, 0, 0.01
 175030793, 0, 0, 0, 0.01, 0, 0, 0, 0.01
 175230713, 0, 0, 0, 0.01, 0, 0, 0, 0.01
 175431466, 0, 0, 0, 0.01, 0, 0, 0, 0.01
 175631386, 0, 0, 0, 0.01, 0, 0, 0, 0.01
 175831306, 0, 0, 0, 0.01, 0, 0, 0, 0.01
 176031226, 0, 0, 0, 0.01, 0, 0, 0, 0.01
 176231146, 0, 0, 0, 0.01, 0, 0, 0, 0.01
 176431066, 0, 0, 0, 0.01, 0, 0, 0, 0.01
 176630986, 0, 0, 0, 0.01, 0, 0, 0, 0.01
 176830906, 0, 0, 0, 0.01, 0, 0, 0, 0.01
 177030826, 0, 0, 0, 0.01, 0, 0, 0, 0.01
 177230746, 0, 0, 0, 0.01, 0, 0, 0, 0.01
 177430666, 0, 0, 0, 0.01, 0, 0, 0, 0.01
 177631419, 0, 0, 0, 0.01, 0, 0, 0, 0.01
 177831339, 0, 0, 0, 0.01, 0, 0, 0, 0.01
 178031259, 0, 0, 0, 0.01, 0, 0, 0, 0.01
 178231179, 0, 0, 0, 0.01, 0, 0, 0, 0.01
 178431099, 0, 0, 0, 0.01, 0, 0, 0, 0.01
 178631019, 0, 0, 0, 0.01, 0, 0, 0, 0.01
 178830939, 0, 0, 0, 0.01, 0, 0, 0, 0.01
 179030859, 0, 0, 0, 0.01, 0, 0, 0, 0.01
 179230779, 0, 0, 0, 0.01, 0, 0, 0, 0.01
 179430699, 0, 0, 0, 0.01, 0, 0, 0, 0.01
 179631452, 0, 0, 0, 0.01, 0, 0, 0, 0.01
 179831372, 0, 0, 0, 0.01, 0, 0, 0, 0.01
 180031292, 0, 0, 0, 0.01, 0, 0, 0, 0.01
 180231212, 0, 0, 0, 0.01, 0, 0, 0, 0.01
 180431132, 0, 0, 0, 0.01, 0, 0, 0, 0.01
 180631052, 0, 0, 0, 0.01, 0, 0, 0, 0.01
 180830972, 0, 0, 0, 0.01, 0, 0, 0, 0.01
 181030892, 0, 0, 0, 0.01, 0, 0, 0, 0.01
 181230812, 0, 0, 0, 0.01, 0, 0, 0, 0.01
 181430732, 0, 0, 0, 0.01, 0, 0, 0, 0.01
 181631485, 0, 0, 0, 0.01, 0, 0, 0, 0.01
 181831405, 0, 0, 0, 0.01, 0, 0, 0, 0.01
 182031325, 0, 0, 0, 0.01, 0, 0, 0, 0.01
 182231245, 0, 0, 0, 0.01, 0, 0, 0, 0.01
 182431165, 0, 0, 0, 0.01, 0, 0, 0, 0.01
 182631085, 0, 0, 0, 0.01, 0, 0, 0, 0.01
 182831005, 0, 0, 0, 0.01, 0, 0, 0, 0.01
 183030925, 0, 0, 0, 0.01, 0, 0, 0, 0.01
 183230845, 0, 0, 0, 0.01, 0, 0, 0, 0.01
 183430765, 0, 0, 0, 0.01, 0, 0, 0, 0.01
 183630685, 0, 0, 0, 0.01, 0, 0, 0, 0.01
 183831438, 0, 0, 0, 0.01, 0, 0, 0, 0.01
 184031358, 0, 0, 0, 0.01, 0, 0, 0, 0.01
 184231278, 0, 0, 0, 0.01, 0, 0, 0, 0.01
 184431198, 0, 0, 0, 0.01, 0, 0, 0, 0.01
 184631118, 0, 0, 0, 0.01, 0, 0, 0, 0.01
 184831038, 0, 0, 0, 0.01, 0, 0, 0, 0.01
 185030958, 0, 0, 0, 0.01, 0, 0, 0, 0.01
 185230878, 0, 0, 0, 0.01, 0, 0, 0, 0.01
 185430798, 0, 0, 0, 0.01, 0, 0, 0, 0.01
 185630718, 0, 0, 0, 0.01, 0, 0, 0, 0.01
 185831471, 0, 0, 0, 0.01, 0, 0, 0, 0.01
 186031391, 0, 0, 0, 0.01, 0, 0, 0, 0.01
 186231311, 0, 0, 0, 0.01, 0, 0, 0, 0.01
 186431231, 0, 0, 0, 0.01, 0, 0, 0, 0.01
 186631151, 0, 0, 0, 0.01, 0, 0, 0, 0.01
 186831071, 0, 0, 0, 0.01, 0, 0, 0, 0.01
 187030991, 0, 0, 0, 0.01, 0, 0, 0, 0.01
 187230911, 0, 0, 0, 0.01, 0, 0, 0, 0.01
 187430831, 0, 0, 0, 0.01, 0, 0, 0, 0.01
 187630751, 0, 0, 0, 0.01, 0, 0, 0, 0.01
 187830671, 0, 0, 0, 0.01, 0, 0, 0, 0.01
 188031424, 0, 0, 0, 0.01, 0, 0, 0, 0.01
 188231344, 0, 0, 0, 0.01, 0, 0, 0, 0.01
 188431264, 0, 0, 0, 0.01, 0, 0, 0, 0.01
 188631184, 0, 0, 0, 0.01, 0, 0, 0, 0.01
 188831104, 0, 0, 0, 0.01, 0, 0, 0, 0.01
 189031024, 0, 0, 0, 0.01, 0, 0, 0, 0.01
 189230944, 0, 0, 0, 0.01, 0, 0, 0, 0.01
 189430864, 0, 0, 0, 0.01, 0, 0, 0, 0.01
 189630784, 0, 0, 0, 0.01, 0, 0, 0, 0.01
 189830704, 0, 0, 0, 0.01, 0, 0, 0, 0.01
 190031457, 0, 0, 0, 0.01, 0, 0, 0, 0.01
 190231377, 0, 0, 0, 0.01, 0, 0, 0, 0.01
 190431297, 0, 0, 0, 0.01, 0, 0, 0, 0.01
 190631217, 0, 0, 0, 0.01, 0, 0, 0, 0.01
 190831137, 0, 0, 0, 0.01, 0, 0, 0, 0.01
 191031057, 0, 0, 0, 0.01, 0, 0, 0, 0.01
 191230977, 0, 0, 0, 0.01, 0, 0, 0, 0.01
 191430897, 0, 0, 0, 0.01, 0, 0, 0, 0.01
 191630817, 0, 0, 0, 0.01, 0, 0, 0, 0.01
 191830737, 0, 0, 0, 0.01, 0, 0, 0, 0.01
 192030657, 0, 0, 0, 0.01, 0, 0, 0, 0.01
 192231410, 0, 0, 0, 0.01, 0, 0, 0, 0.01
 192431330, 0, 0, 0, 0.01, 0, 0, 0, 0.01
 192631250, 0, 0, 0, 0.01, 0, 0, 0, 0.01
 192831170, 0, 0, 0, 0.01, 0, 0, 0, 0.01
 193031090, 0, 0, 0, 0.01, 0, 0, 0, 0.01
 193231010, 0, 0, 0, 0.01, 0, 0, 0, 0.01
 193430930, 0, 0, 0, 0.01, 0, 0, 0, 0.01
 193630850, 0, 0, 0, 0.01, 0, 0, 0, 0.01
 193830770, 0, 0, 0, 0.01, 0, 0, 0, 0.01
 194030690, 0, 0, 0, 0.01, 0, 0, 0, 0.01
 194231443, 0, 0, 0, 0.01, 0, 0, 0, 0.01
 194431363, 0, 0, 0, 0.01, 0, 0, 0, 0.01
 194631283, 0, 0, 0, 0.01, 0, 0, 0, 0.01
 194831203, 0, 0, 0, 0.01, 0, 0, 0, 0.01
 195031123, 0, 0, 0, 0.01, 0, 0, 0, 0.01
 195231043, 0, 0, 0, 0.01, 0, 0, 0, 0.01
 195430963, 0, 0, 0, 0.01, 0, 0, 0, 0.01
 195630883, 0, 0, 0, 0.01, 0, 0, 0, 0.01
 195830803, 0, 0, 0, 0.01, 0, 0, 0, 0.01
 196030723, 0, 0, 0, 0.01, 0, 0, 0, 0.01
 196231476, 0, 0, 0, 0.01, 0, 0, 0, 0.01
 196431396, 0, 0, 0, 0.01, 0, 0, 0, 0.01
 196631316, 0, 0, 0, 0.01, 0, 0, 0, 0.01
 196831236, 0, 0, 0, 0.01, 0, 0, 0, 0.01
 197031156, 0, 0, 0, 0.01, 0, 0, 0, 0.01
 197231076, 0, 0, 0, 0.01, 0, 0, 0, 0.01
 197430996, 0, 0, 0, 0.01, 0, 0, 0, 0.01
 197630916, 0, 0, 0, 0.01, 0, 0, 0, 0.01
 197830836, 0, 0, 0, 0.01, 0, 0, 0, 0.01
 198030756, 0, 0, 0, 0.01, 0, 0, 0, 0.01
 198230676, 0, 0, 0, 0.01, 0, 0, 0, 0.01
 198431429, 0, 0, 0, 0.01, 0, 0, 0, 0.01
 198631349, 0, 0, 0, 0.01, 0, 0, 0, 0.01
 198831269, 0, 0, 0, 0.01, 0, 0, 0, 0.01
 199031189, 0, 0, 0, 0.01, 0, 0, 0, 0.01
 199231109, 0, 0, 0, 0.01, 0, 0, 0, 0.01
 199431029, 0, 0, 0, 0.01, 0, 0, 0, 0.01
 199630949, 0, 0, 0, 0.01, 0, 0, 0, 0.01
 199830869, 0, 0, 0, 0.01, 0, 0, 0, 0.01
 200030789, 0, 0, 0, 0.01, 0, 0, 0, 0.01
 200230709, 0, 0, 0, 0.01, 0, 0, 0, 0.01
 200431462, 0, 0, 0, 0.01, 0, 0, 0, 0.01
 200631382, 0, 0, 0, 0.01, 0, 0, 0, 0.01
 200831302, 0, 0, 0, 0.01, 0, 0, 0, 0.01
 201031222, 0, 0, 0, 0.01, 0, 0, 0, 0.01
 201231142, 0, 0, 0, 0.01, 0, 0, 0, 0.01
 201431062, 0, 0, 0, 0.01, 0, 0, 0, 0.01
 201630982, 0, 0, 0, 0.01, 0, 0, 0, 0.01
 201830902, 0, 0, 0, 0.01, 0, 0, 0, 0.01
 202030822, 0, 0, 0, 0.01, 0, 0, 0, 0.01
 202230742, 0, 0, 0, 0.01, 0, 0, 0, 0.01
 202430662, 0, 0, 0, 0.01, 0, 0, 0, 0.01
 202631415, 0, 0, 0, 0.01, 0, 0, 0, 0.01
 202831335, 0, 0, 0, 0.01, 0, 0, 0, 0.01
 203031255, 0, 0, 0, 0.01, 0, 0, 0, 0.01
 203231175, 0, 0, 0, 0.01, 0, 0, 0, 0.01
 203431095, 0, 0, 0, 0.01, 0, 0, 0, 0.01
 203631015, 0, 0, 0, 0.01, 0, 0, 0, 0.01
 203830935, 0, 0, 0, 0.01, 0, 0, 0, 0.01
 204030855, 0, 0, 0, 0.01, 0, 0, 0, 0.01
 204230775, 0, 0, 0, 0.01, 0, 0, 0, 0.01
 204430695, 0, 0, 0, 0.01, 0, 0, 0, 0.01
 204631448, 0, 0, 0, 0.01, 0, 0, 0, 0.01
 204831368, 0, 0, 0, 0.01, 0, 0, 0, 0.01
 205031288, 0, 0, 0, 0.01, 0, 0, 0, 0.01
 205231208, 0, 0, 0, 0.01, 0, 0, 0, 0.01
 205431128, 0, 0, 0, 0.01, 0, 0, 0, 0.01
 205631048, 0, 0, 0, 0.01, 0, 0, 0, 0.01
 205830968, 0, 0, 0, 0.01, 0, 0, 0, 0.01
 206030888, 0, 0, 0, 0.01, 0, 0, 0, 0.01
 206230808, 0, 0, 0, 0.01, 0, 0, 0, 0.01
 206430728, 0, 0, 0, 0.01, 0, 0, 0, 0.01
 206631481, 0, 0, 0, 0.01, 0, 0, 0, 0.01
 206831401, 0, 0, 0, 0.01, 0, 0, 0, 0.01
 207031321, 0, 0, 0, 0.01, 0, 0, 0, 0.01
 207231241, 0, 0, 0, 0.01, 0, 0, 0, 0.01
 207431161, 0, 0, 0, 0.01, 0, 0, 0, 0.01
 207631081, 0, 0, 0, 0.01, 0, 0, 0, 0.01
 207831001, 0, 0, 0, 0.01, 0, 0, 0, 0.01
 208030921, 0, 0, 0, 0.01, 0, 0, 0, 0.01
 208230841, 0, 0, 0, 0.01, 0, 0, 0, 0.01
 208430761, 0, 0, 0, 0.01, 0, 0, 0, 0.01
 208630681, 0, 0, 0, 0.01, 0, 0, 0, 0.01
 208831434, 0, 0, 0, 0.01, 0, 0, 0, 0.01
 209031354, 0, 0, 0, 0.01, 0, 0, 0, 0.01
 209231274, 0, 0, 0, 0.01, 0, 0, 0, 0.01
 209431194, 0, 0, 0, 0.01, 0, 0, 0, 0.01
 209631114, 0, 0, 0, 0.01, 0, 0, 0, 0.01
 209831034, 0, 0, 0, 0.01, 0, 0, 0, 0.01
 210030954, 0, 0, 0, 0.01, 0, 0, 0, 0.01
 210230874, 0, 0, 0, 0.01, 0, 0, 0, 0.01
 210430794, 0, 0, 0, 0.01, 0, 0, 0, 0.01
 210630714, 0, 0, 0, 0.01, 0, 0, 0, 0.01
 210831467, 0, 0, 0, 0.01, 0, 0, 0, 0.01
 211031387, 0, 0, 0, 0.01, 0, 0, 0, 0.01
 211231307, 0, 0, 0, 0.01, 0, 0, 0, 0.01
 211431227, 0, 0, 0, 0.01, 0, 0, 0, 0.01
 211631147, 0, 0, 0, 0.01, 0, 0, 0, 0.01
 211831067, 0, 0, 0, 0.01, 0, 0, 0, 0.01
 212030987, 0, 0, 0, 0.01, 0, 0, 0, 0.01
 212230907, 0, 0, 0, 0.01, 0, 0, 0, 0.01
 212430827, 0, 0, 0, 0.01, 0, 0, 0, 0.01
 212630747, 0, 0, 0, 0.01, 0, 0, 0, 0.01
 212830667, 0, 0, 0, 0.01, 0, 0, 0, 0.01
 213031420, 0, 0, 0, 0.01, 0, 0, 0, 0.01
 213231340, 0, 0, 0, 0.01, 0, 0, 0, 0.01
 213431260, 0, 0, 0, 0.01, 0, 0, 0, 0.01
 213631180, 0, 0, 0, 0.01, 0, 0, 0, 0.01
 213831100, 0, 0, 0, 0.01, 0, 0, 0, 0.01
 214031020, 0, 0, 0, 0.01, 0, 0, 0, 0.01
 214230940, 0, 0, 0, 0.01, 0, 0, 0, 0.01
 214430860, 0, 0, 0, 0.01, 0, 0, 0, 0.01
 214630780, 0, 0, 0, 0.01, 0, 0, 0, 0.01
 214830700, 0, 0, 0, 0.01, 0, 0, 0, 0.01
 215031453, 0, 0, 0, 0.01, 0, 0, 0, 0.01
 215231373, 0, 0, 0, 0.01, 0, 0, 0, 0.01
 215431293, 0, 0, 0, 0.01, 0, 0, 0, 0.01
 215631213, 0, 0, 0, 0.01, 0, 0, 0, 0.01
 215831133, 0, 0, 0, 0.01, 0, 0, 0, 0.01
 216031053, 0, 0, 0, 0.01, 0, 0, 0, 0.01
 216230973, 0, 0, 0, 0.01, 0, 0, 0, 0.01
 216430893, 0, 0, 0, 0.01, 0, 0, 0, 0.01
 216630813, 0, 0, 0, 0.01, 0, 0, 0, 0.01
 216830733, 0, 0, 0, 0.01, 0, 0, 0, 0.01
 217031486, 0, 0, 0, 0.01, 0, 0, 0, 0.01
 217231406, 0, 0, 0, 0.01, 0, 0, 0, 0.01
 217431326, 0, 0, 0, 0.01, 0, 0, 0, 0.01
 217631246, 0, 0, 0, 0.01, 0, 0, 0, 0.01
 217831166, 0, 0, 0, 0.01, 0, 0, 0, 0.01
 218031086, 0, 0, 0, 0.01, 0, 0, 0, 0.01
 218231006, 0, 0, 0, 0.01, 0, 0, 0, 0.01
 218430926, 0, 0, 0, 0.01, 0, 0, 0, 0.01
 218630846, 0, 0, 0, 0.01, 0, 0, 0, 0.01
 218830766, 0, 0, 0, 0.01, 0, 0, 0, 0.01
 219030686, 0, 0, 0, 0.01, 0, 0, 0, 0.01
 219231439, 0, 0, 0, 0.01, 0, 0, 0, 0.01
 219431359, 0, 0, 0, 0.01, 0, 0, 0, 0.01
 219631279, 0, 0, 0, 0.01, 0, 0, 0, 0.01
 219831199, 0, 0, 0, 0.01, 0, 0, 0, 0.01
 220031119, 0, 0, 0, 0.01, 0, 0, 0, 0.01
 220231039, 0, 0, 0, 0.01, 0, 0, 0, 0.01
 220430959, 0, 0, 0, 0.01, 0, 0, 0, 0.01
 220630879, 0, 0, 0, 0.01, 0, 0, 0, 0.01
 220830799, 0, 0, 0, 0.01, 0, 0, 0, 0.01
 221030719, 0, 0, 0, 0.01, 0, 0, 0, 0.01
 221231472, 0, 0, 0, 0.01, 0, 0, 0, 0.01
 221431392, 0, 0, 0, 0.01, 0, 0, 0, 0.01
 221631312, 0, 0, 0, 0.01, 0, 0, 0, 0.01
 221831232, 0, 0, -0.004, 0.01, 0, 0, 0, 0.01
 222031152, 0, 0, -0.305, 0.01, 0, 0, -0.004, 0.01
 222231072, 0, 0, -0.251, 0.01, 0, 0, -0.305, 0.01
 222430992, 0, 0, -0.305, 0.01, 0, 0, -0.251, 0.01
 222630912, -0.005, -0.005, -1.621, 0.01, 0, 0, -0.305, 0.01
 222830832, -0.018, -0.02, -2.102, 0.01, -0.005, -0.005, -1.621, 0.01
 223030752, -0.034, -0.036, -2.224, 0.01, -0.018, -0.02, -2.102, 0.01
 223230672, -0.048, -0.051, -2.457, 0.01, -0.034, -0.036, -2.224, 0.01
 223431425, -0.06, -0.064, -2.687, 0.01, -0.048, -0.051, -2.457, 0.01
 223631345, -0.071, -0.074, -2.868, 0.01, -0.06, -0.064, -2.687, 0.01
 223831265, -0.08000001, -0.081, -3.027, 0.01, -0.071, -0.074, -2.868, 0.01
 224031185, -0.087, -0.087, -3.168, 0.01, -0.08000001, -0.081, -3.027, 0.01
 224231105, -0.093, -0.09200001, -3.293, 0.01, -0.087, -0.087, -3.168, 0.01
 224431025, -0.098, -0.09500001, -3.401, 0.01, -0.093, -0.09200001, -3.293, 0.01
 224630945, -0.102, -0.097, -3.497, 0.01, -0.098, -0.09500001, -3.401, 0.01
 224830865, -0.105, -0.09900001, -3.581, 0.01, -0.102, -0.097, -3.497, 0.01
 225030785, -0.108, -0.101, -3.654, 0.01, -0.105, -0.09900001, -3.581, 0.01
 225230705, -0.109, -0.102, -3.717, 0.01, -0.108, -0.101, -3.654, 0.01
 225431458, -0.111, -0.104, -3.774, 0.01, -0.109, -0.102, -3.717, 0.01
 225631378, -0.113, -0.107, -3.824, 0.01, -0.111, -0.104, -3.774, 0.01
 225831298, -0.113, -0.107, -3.558, 0.01, -0.113, -0.107, -3.824, 0.01
 226031218, -0.111, -0.107, -3.023, 0.01, -0.113, -0.107, -3.558, 0.01
 226231138, -0.109, -0.108, -2.555, 0.01, -0.111, -0.107, -3.023, 0.01
 226431058, -0.108, -0.109, -2.174, 0.01, -0.109, -0.108, -2.555, 0.01
 226630978, -0.103, -0.106, -1.856, 0.01, -0.108, -0.109, -2.174, 0.01
 226830898, -0.09, -0.094, -1.599, 0.01, -0.103, -0.106, -1.856, 0.01
 227030818, -0.058, -0.068, -1.415, 0.01, -0.09, -0.094, -1.599, 0.01
 227230738, 0.051, -0.01, -1.283, 0.01, -0.058, -0.068, -1.415, 0.01
 227430658, 0.254, 0.08400001, -1.185, 0.01, 0.051, -0.01, -1.283, 0.01
 227631411, 0.495, 0.193, -1.114, 0.01, 0.254, 0.08400001, -1.185, 0.01
 227831331, 0.721, 0.294, -1.069, 0.01, 0.495, 0.193, -1.114, 0.01
 228031251, 0.9170001, 0.382, -1.054, 0.01, 0.721, 0.294, -1.069, 0.01
 228231171, 1.106, 0.468, -1.066, 0.01, 0.9170001, 0.382, -1.054, 0.01
 228431091, 1.293, 0.592, -1.099, 0.01, 1.106, 0.468, -1.066, 0.01
 228631011, 1.464, 0.767, -1.16, 0.01, 1.293, 0.592, -1.099, 0.01
 228830931, 1.628, 0.933, -1.248, 0.01, 1.464, 0.767, -1.16, 0.01
 229030851, 1.816, 1.043, -1.349, 0.01, 1.628, 0.933, -1.248, 0.01
 229230771, 2.042, 1.105, -1.454, 0.01, 1.816, 1.043, -1.349, 0.01
 229430691, 2.285, 1.14, -1.56, 0.01, 2.042, 1.105, -1.454, 0.01
 229631444, 2.522, 1.157, -1.666, 0.01, 2.285, 1.14, -1.56, 0.01
 229831364, 2.738, 1.167, -1.763, 0.01, 2.522, 1.157, -1.666, 0.01
 230031284, 2.928, 1.19, -1.847, 0.01, 2.738, 1.167, -1.763, 0.01
 230231204, 3.107, 1.21, -1.913, 0.01, 2.928, 1.19, -1.847, 0.01
 230431124, 3.294, 1.192, -1.969, 0.01, 3.107, 1.21, -1.913, 0.01
 230631044, 3.458, 1.169, -2.004, 0.01, 3.294, 1.192, -1.969, 0.01
 230830964, 3.55, 1.187, -1.986, 0.01, 3.458, 1.169, -2.004, 0.01
 231030884, 3.566, 1.257, -1.944, 0.01, 3.55, 1.187, -1.986, 0.01
 231230804, 3.55, 1.359, -1.889, 0.01, 3.566, 1.257, -1.944, 0.01
 231430724, 3.538, 1.459, -1.833, 0.01, 3.55, 1.359, -1.889, 0.01
 231631477, 3.535, 1.533, -1.785, 0.01, 3.538, 1.459, -1.833, 0.01
 231831397, 3.54, 1.572, -1.747, 0.01, 3.535, 1.533, -1.785, 0.01
 232031317, 3.55, 1.585, -1.717, 0.01, 3.54, 1.572, -1.747, 0.01
 232231237, 3.566, 1.582, -1.694, 0.01, 3.55, 1.585, -1.717, 0.01
 232431157, 3.581, 1.577, -1.678, 0.01, 3.566, 1.582, -1.694, 0.01
 232631077, 3.593, 1.576, -1.667, 0.01, 3.581, 1.577, -1.678, 0.01
 232830997, 3.6, 1.579, -1.661, 0.01, 3.593, 1.576, -1.667, 0.01
 233030917, 3.603, 1.586, -1.658, 0.01, 3.6, 1.579, -1.661, 0.01
 233230837, 3.604, 1.596, -1.656, 0.01, 3.603, 1.586, -1.658, 0.01
 233430757, 3.605, 1.607, -1.655, 0.01, 3.604, 1.596, -1.656, 0.01
 233630677, 3.607, 1.612, -1.655, 0.01, 3.605, 1.607, -1.655, 0.01
 233831430, 3.611, 1.613, -1.655, 0.01, 3.607, 1.612, -1.655, 0.01
 234031350, 3.609, 1.607, -1.623, 0.01, 3.611, 1.613, -1.655, 0.01
 234231270, 3.615, 1.603, -1.613, 0.01, 3.609, 1.607, -1.623, 0.01
 234431190, 3.627, 1.598, -1.618, 0.01, 3.615, 1.603, -1.613, 0.01
 234631110, 3.638, 1.591, -1.631, 0.01, 3.627, 1.598, -1.618, 0.01
 234831030, 3.645, 1.586, -1.644, 0.01, 3.638, 1.591, -1.631, 0.01
 235030950, 3.649, 1.585, -1.655, 0.01, 3.645, 1.586, -1.644, 0.01
 235230870, 3.653, 1.585, -1.664, 0.01, 3.649, 1.585, -1.655, 0.01
 235430790, 3.656, 1.586, -1.669, 0.01, 3.653, 1.585, -1.664, 0.01
 235630710, 3.659, 1.588, -1.673, 0.01, 3.656, 1.586, -1.669, 0.01
 235831463, 3.659, 1.59, -1.665, 0.01, 3.659, 1.588, -1.673, 0.01
 236031383, 3.615, 1.574, -1.541, 0.01, 3.659, 1.59, -1.665, 0.01
 236231303, 3.51, 1.515, -1.35, 0.01, 3.615, 1.574, -1.541, 0.01
 236431223, 3.441, 1.401, -1.11, 0.01, 3.51, 1.515, -1.35, 0.01
 236631143, 3.45, 1.258, -0.854, 0.01, 3.441, 1.401, -1.11, 0.01
 236831063, 3.503, 1.118, -0.628, 0.01, 3.45, 1.258, -0.854, 0.01
 237030983, 3.567, 0.994, -0.442, 0.01, 3.503, 1.118, -0.628, 0.01
 237230903, 3.644, 0.886, -0.299, 0.01, 3.567, 0.994, -0.442, 0.01
 237430823, 3.742, 0.788, -0.193, 0.01, 3.644, 0.886, -0.299, 0.01
 237630743, 3.862, 0.697, -0.12, 0.01, 3.742, 0.788, -0.193, 0.01
 237830663, 3.998, 0.609, -0.072, 0.01, 3.862, 0.697, -0.12, 0.01
 238031416, 4.144, 0.522, -0.042, 0.01, 3.998, 0.609, -0.072, 0.01
 238231336, 4.296, 0.437, -0.024, 0.01, 4.144, 0.522, -0.042, 0.01
 238431256, 4.456, 0.358, -0.013, 0.01, 4.296, 0.437, -0.024, 0.01
 238631176, 4.622, 0.289, -0.007, 0.01, 4.456, 0.358, -0.013, 0.01
 238831096, 4.793, 0.234, -0.003, 0.01, 4.622, 0.289, -0.007, 0.01
 239031016, 4.966, 0.19, 0, 0.01, 4.793, 0.234, -0.003, 0.01
 239230936, 5.143, 0.156, 0.002, 0.01, 4.966, 0.19, 0, 0.01
 239430856, 5.324, 0.128, 0.005, 0.01, 5.143, 0.156, 0.002, 0.01
 239630776, 5.503, 0.106, 0.007, 0.01, 5.324, 0.128, 0.005, 0.01
 239830696, 5.676, 0.087, 0.008, 0.01, 5.503, 0.106, 0.007, 0.01
 240031449, 5.84, 0.071, 0.007, 0.01, 5.676, 0.087, 0.008, 0.01
 240231369, 5.996, 0.057, 0.006, 0.01, 5.84, 0.071, 0.007, 0.01
 240431289, 6.144, 0.045, 0.005, 0.01, 5.996, 0.057, 0.006, 0.01
 240631209, 6.285, 0.037, 0.004, 0.01, 6.144, 0.045, 0.005, 0.01
 240831129, 6.42, 0.033, 0.004, 0.01, 6.285, 0.037, 0.004, 0.01
 241031049, 6.547, 0.031, 0.005, 0.01, 6.42, 0.033, 0.004, 0.01
 241230969, 6.666, 0.031, 0.005, 0.01, 6.547, 0.031, 0.005, 0.01
 241430889, 6.78, 0.031, 0.005, 0.01, 6.666, 0.031, 0.005, 0.01
 241630809, 6.888, 0.031, 0.005, 0.01, 6.78, 0.031, 0.005, 0.01
 241830729, 6.993001, 0.033, 0.004, 0.01, 6.888, 0.031, 0.005, 0.01
 242031482, 7.091001, 0.034, 0.004, 0.01, 6.993001, 0.033, 0.004, 0.01
 242231402, 7.182, 0.035, 0.004, 0.01, 7.091001, 0.034, 0.004, 0.01
 242431322, 7.269001, 0.035, 0.005, 0.01, 7.182, 0.035, 0.004, 0.01
 242631242, 7.351, 0.036, 0.005, 0.01, 7.269001, 0.035, 0.005, 0.01
 242831162, 7.43, 0.037, 0.006, 0.01, 7.351, 0.036, 0.005, 0.01
 243031082, 7.506001, 0.038, 0.005, 0.01, 7.43, 0.037, 0.006, 0.01
 243231002, 7.578001, 0.039, 0.005, 0.01, 7.506001, 0.038, 0.005, 0.01
 243430922, 7.648, 0.04, 0.004, 0.01, 7.578001, 0.039, 0.005, 0.01
 243630842, 7.716001, 0.041, 0.002, 0.01, 7.648, 0.04, 0.004, 0.01
 243830762, 7.78, 0.042, 0.001, 0.01, 7.716001, 0.041, 0.002, 0.01
 244030682, 7.841001, 0.042, 0, 0.01, 7.78, 0.042, 0.001, 0.01
 244231435, 7.898, 0.041, 0, 0.01, 7.841001, 0.042, 0, 0.01
 244431355, 7.954, 0.04, 0, 0.01, 7.898, 0.041, 0, 0.01
 244631275, 8.008, 0.04, 0, 0.01, 7.954, 0.04, 0, 0.01
 244831195, 8.06, 0.04, 0, 0.01, 8.008, 0.04, 0, 0.01
 245031115, 8.112, 0.039, 0, 0.01, 8.06, 0.04, 0, 0.01
 245231035, 8.162001, 0.039, 0, 0.01, 8.112, 0.039, 0, 0.01
 245430955, 8.211, 0.038, 0, 0.01, 8.162001, 0.039, 0, 0.01
 245630875, 8.259001, 0.036, -0.001, 0.01, 8.211, 0.038, 0, 0.01
 245830795, 8.303, 0.035, -0.002, 0.01, 8.259001, 0.036, -0.001, 0.01
 246030715, 8.347, 0.032, -0.003, 0.01, 8.303, 0.035, -0.002, 0.01
 246231468, 8.388, 0.028, -0.003, 0.01, 8.347, 0.032, -0.003, 0.01
 246431388, 8.429001, 0.021, -0.003, 0.01, 8.388, 0.028, -0.003, 0.01
 246631308, 8.469001, 0.013, -0.002, 0.01, 8.429001, 0.021, -0.003, 0.01
 246831228, 8.508, 0.005, -0.002, 0.01, 8.469001, 0.013, -0.002, 0.01
 247031148, 8.543, 0, -0.002, 0.01, 8.508, 0.005, -0.002, 0.01
 247231068, 8.565001, -0.005, -0.003, 0.01, 8.543, 0, -0.002, 0.01
 247430988, 8.579, -0.008, -0.003, 0.01, 8.565001, -0.005, -0.003, 0.01
 247630908, 8.596001, -0.011, -0.002, 0.01, 8.579, -0.008, -0.003, 0.01
 247830828, 8.623, -0.014, 0, 0.01, 8.596001, -0.011, -0.002, 0.01
 248030748, 8.656, -0.017, 0.001, 0.01, 8.623, -0.014, 0, 0.01
 248230668, 8.688001, -0.02, 0.001, 0.01, 8.656, -0.017, 0.001, 0.01
 248431421, 8.718, -0.022, 0, 0.01, 8.688001, -0.02, 0.001, 0.01
 248631341, 8.747001, -0.024, 0, 0.01, 8.718, -0.022, 0, 0.01
 248831261, 8.774, -0.025, 0, 0.01, 8.747001, -0.024, 0, 0.01
 249031181, 8.803, -0.025, 0, 0.01, 8.774, -0.025, 0, 0.01
 249231101, 8.833, -0.026, 0.001, 0.01, 8.803, -0.025, 0, 0.01
 249431021, 8.863001, -0.027, 0.002, 0.01, 8.833, -0.026, 0.001, 0.01
 249630941, 8.892, -0.026, 0.001, 0.01, 8.863001, -0.027, 0.002, 0.01
 249830861, 8.919001, -0.026, 0.001, 0.01, 8.892, -0.026, 0.001, 0.01
 250030781, 8.946, -0.025, 0, 0.01, 8.919001, -0.026, 0.001, 0.01
 250230701, 8.973001, -0.025, -0.001, 0.01, 8.946, -0.025, 0, 0.01
 250431454, 8.997001, -0.023, -0.002, 0.01, 8.973001, -0.025, -0.001, 0.01
 250631374, 9.022, -0.022, -0.002, 0.01, 8.997001, -0.023, -0.002, 0.01
 250831294, 9.046, -0.021, -0.002, 0.01, 9.022, -0.022, -0.002, 0.01
 251031214, 9.069, -0.021, -0.002, 0.01, 9.046, -0.021, -0.002, 0.01
 251231134, 9.092, -0.02, -0.001, 0.01, 9.069, -0.021, -0.002, 0.01
 251431054, 9.114, -0.019, -0.001, 0.01, 9.092, -0.02, -0.001, 0.01
 251630974, 9.135, -0.018, -0.002, 0.01, 9.114, -0.019, -0.001, 0.01
 251830894, 9.155001, -0.017, -0.001, 0.01, 9.135, -0.018, -0.002, 0.01
 252030814, 9.175, -0.015, -0.001, 0.01, 9.155001, -0.017, -0.001, 0.01
 252230734, 9.195001, -0.014, -0.001, 0.01, 9.175, -0.015, -0.001, 0.01
 252430654, 9.215, -0.014, 0, 0.01, 9.195001, -0.014, -0.001, 0.01
 252631407, 9.235001, -0.014, 0, 0.01, 9.215, -0.014, 0, 0.01
 252831327, 9.253, -0.014, 0.001, 0.01, 9.235001, -0.014, 0, 0.01
 253031247, 9.271001, -0.012, 0, 0.01, 9.253, -0.014, 0.001, 0.01
 253231167, 9.288, -0.01, 0, 0.01, 9.271001, -0.012, 0, 0.01
 253431087, 0, 5E-05, 0, 0.01, 9.288, -0.01, 0, 0.01
 253631007, 0, 5E-05, -0.001, 0.01, 0, 5E-05, 0, 0.01
 253830927, 0, 5E-05, -0.002, 0.01, 0, 5E-05, -0.001, 0.01
 254030847, 0, 5E-05, -0.002, 0.01, 0, 5E-05, -0.002, 0.01
 254230767, 0, 5E-05, 0, 0.01, 0, 5E-05, -0.002, 0.01
 254430687, 0, 5E-05, 0.003, 0.01, 0, 5E-05, 0, 0.01
 254631440, 0, 5E-05, 0.009000001, 0.01, 0, 5E-05, 0.003, 0.01
 254831360, 0, 5E-05, 0.019, 0.01, 0, 5E-05, 0.009000001, 0.01
 255031280, 0, 5E-05, 0.023, 0.01, 0, 5E-05, 0.019, 0.01
 255231200, 0, 5E-05, 0.016, 0.01, 0, 5E-05, 0.023, 0.01
 255431120, 0, 5E-05, 0.016, 0.01, 0, 5E-05, 0.016, 0.01
 255631040, 0, 5E-05, 0.066, 0.01, 0, 5E-05, 0.016, 0.01
 255830960, 0, 5E-05, 0.093, 0.01, 0, 5E-05, 0.066, 0.01
 256030880, 0, 5E-05, 0.078, 0.01, 0, 5E-05, 0.093, 0.01
 256230800, 0, 5E-05, 0.051, 0.01, 0, 5E-05, 0.078, 0.01
 256430720, 0, 5E-05, 0.04, 0.01, 0, 5E-05, 0.051, 0.01
 256631473, 0, 5E-05, 0.058, 0.01, 0, 5E-05, 0.04, 0.01
 256831393, 0, 5E-05, 0.108, 0.01, 0, 5E-05, 0.058, 0.01
 257031313, 0, 5E-05, 0.181, 0.01, 0, 5E-05, 0.108, 0.01
 257231233, 0, 5E-05, 0.265, 0.01, 0, 5E-05, 0.181, 0.01
 257431153, 0, 5E-05, 0.345, 0.01, 0, 5E-05, 0.265, 0.01
 257631073, 0, 5E-05, 0.411, 0.01, 0, 5E-05, 0.345, 0.01
 257830993, 0, 5E-05, 0.457, 0.01, 0, 5E-05, 0.411, 0.01
 258030913, 0, 5E-05, 0.481, 0.01, 0, 5E-05, 0.457, 0.01
 258230833, 0, 5E-05, 0.487, 0.01, 0, 5E-05, 0.481, 0.01
 258430753, 0, 5E-05, 0.477, 0.01, 0, 5E-05, 0.487, 0.01
 258630673, 0, 5E-05, 0.455, 0.01, 0, 5E-05, 0.477, 0.01
 258831426, 0, 5E-05, 0.41, 0.01, 0, 5E-05, 0.455, 0.01
 259031346, 0, 5E-05, 0.337, 0.01, 0, 5E-05, 0.41, 0.01
 259231266, 0, 5E-05, 0.248, 0.01, 0, 5E-05, 0.337, 0.01
 259431186, 0, 5E-05, 0.152, 0.01, 0, 5E-05, 0.248, 0.01
 259631106, 0, 5E-05, 0.052, 0.01, 0, 5E-05, 0.152, 0.01
 259831026, 0, 5E-05, -0.048, 0.01, 0, 5E-05, 0.052, 0.01
 260030946, 0, 5E-05, -0.146, 0.01, 0, 5E-05, -0.048, 0.01
 260230866, 0, 5E-05, -0.238, 0.01, 0, 5E-05, -0.146, 0.01
 260430786, 0, 5E-05, -0.318, 0.01, 0, 5E-05, -0.238, 0.01
 260630706, 0, 5E-05, -0.381, 0.01, 0, 5E-05, -0.318, 0.01
 260831459, 0, 5E-05, -0.422, 0.01, 0, 5E-05, -0.381, 0.01
 261031379, 0, 5E-05, -0.441, 0.01, 0, 5E-05, -0.422, 0.01
 261231299, 0, 5E-05, -0.436, 0.01, 0, 5E-05, -0.441, 0.01
 261431219, 0, 5E-05, -0.41, 0.01, 0, 5E-05, -0.436, 0.01
 261631139, 0, 5E-05, -0.366, 0.01, 0, 5E-05, -0.41, 0.01
 261831059, 0, 5E-05, -0.308, 0.01, 0, 5E-05, -0.366, 0.01
 262030979, 0, 5E-05, -0.242, 0.01, 0, 5E-05, -0.308, 0.01
 262230899, 0, 5E-05, -0.173, 0.01, 0, 5E-05, -0.242, 0.01
 262430819, 0, 5E-05, -0.105, 0.01, 0, 5E-05, -0.173, 0.01
 262630739, 0, 5E-05, -0.042, 0.01, 0, 5E-05, -0.105, 0.01
 262830659, 0, 5E-05, 0.011, 0.01, 0, 5E-05, -0.042, 0.01
 263031412, 0, 5E-05, 0.054, 0.01, 0, 5E-05, 0.011, 0.01
 263231332, 0, 5E-05, 0.087, 0.01, 0, 5E-05, 0.054, 0.01
 263431252, 0, 5E-05, 0.105, 0.01, 0, 5E-05, 0.087, 0.01
 263631172, 0, 5E-05, 0.111, 0.01, 0, 5E-05, 0.105, 0.01
 263831092, 0, 5E-05, 0.109, 0.01, 0, 5E-05, 0.111, 0.01
 264031012, 0, 5E-05, 0.102, 0.01, 0, 5E-05, 0.109, 0.01
 264230932, 0, 5E-05, 0.09100001, 0.01, 0, 5E-05, 0.102, 0.01
 264430852, 0, 5E-05, 0.078, 0.01, 0, 5E-05, 0.09100001, 0.01
 264630772, 0, 5E-05, 0.064, 0.01, 0, 5E-05, 0.078, 0.01
 264830692, 0, 5E-05, 0.051, 0.01, 0, 5E-05, 0.064, 0.01
 265031445, 0, 5E-05, 0.038, 0.01, 0, 5E-05, 0.051, 0.01
 265231365, 0, 5E-05, 0.027, 0.01, 0, 5E-05, 0.038, 0.01
 265431285, 0, 5E-05, 0.018, 0.01, 0, 5E-05, 0.027, 0.01
 265631205, 0, 5E-05, 0.009000001, 0.01, 0, 5E-05, 0.018, 0.01
 265831125, 0, 5E-05, 0.003, 0.01, 0, 5E-05, 0.009000001, 0.01
 266031045, 0, 5E-05, -0.002, 0.01, 0, 5E-05, 0.003, 0.01
 266230965, 0, 5E-05, -0.005, 0.01, 0, 5E-05, -0.002, 0.01
 266430885, 0, 5E-05, -0.009000001, 0.01, 0, 5E-05, -0.005, 0.01
 266630805, 0, 5E-05, -0.011, 0.01, 0, 5E-05, -0.009000001, 0.01
 266830725, 0, 5E-05, -0.013, 0.01, 0, 5E-05, -0.011, 0.01
 267031478, 0, 5E-05, -0.015, 0.01, 0, 5E-05, -0.013, 0.01
 267231398, 0, 5E-05, -0.017, 0.01, 0, 5E-05, -0.015, 0.01
 267431318, 0, 5E-05, -0.018, 0.01, 0, 5E-05, -0.017, 0.01
 267631238, 0, 5E-05, -0.019, 0.01, 0, 5E-05, -0.018, 0.01
 267831158, 0, 5E-05, -0.021, 0.01, 0, 5E-05, -0.019, 0.01
 268031078, 0, 5E-05, -0.023, 0.01, 0, 5E-05, -0.021, 0.01
 268230998, 0, 5E-05, -0.025, 0.01, 0, 5E-05, -0.023, 0.01
 268430918, 0, 5E-05, -0.027, 0.01, 0, 5E-05, -0.025, 0.01
 268630838, 0, 5E-05, -0.029, 0.01, 0, 5E-05, -0.027, 0.01
 268830758, 0, 5E-05, -0.031, 0.01, 0, 5E-05, -0.029, 0.01
 269030678, 0, 5E-05, -0.034, 0.01, 0, 5E-05, -0.031, 0.01
 269231431, 0, 5E-05, -0.036, 0.01, 0, 5E-05, -0.034, 0.01
 269431351, 0, 5E-05, -0.039, 0.01, 0, 5E-05, -0.036, 0.01
 269631271, 0, 5E-05, -0.042, 0.01, 0, 5E-05, -0.039, 0.01
 269831191, 0, 5E-05, -0.044, 0.01, 0, 5E-05, -0.042, 0.01
 270031111, 0, 5E-05, -0.046, 0.01, 0, 5E-05, -0.044, 0.01
 270231031, 0, 5E-05, -0.048, 0.01, 0, 5E-05, -0.046, 0.01
 270430951, 0, 5E-05, -0.05, 0.01, 0, 5E-05, -0.048, 0.01
 270630871, 0, 5E-05, -0.052, 0.01, 0, 5E-05, -0.05, 0.01
 270830791, 0, 5E-05, -0.053, 0.01, 0, 5E-05, -0.052, 0.01
 271030711, 0, 5E-05, -0.054, 0.01, 0, 5E-05, -0.053, 0.01
 271231464, 0, 5E-05, -0.055, 0.01, 0, 5E-05, -0.054, 0.01
 271431384, 0, 5E-05, -0.056, 0.01, 0, 5E-05, -0.055, 0.01
 271631304, 0, 5E-05, -0.056, 0.01, 0, 5E-05, -0.056, 0.01
 271831224, 0, 5E-05, -0.057, 0.01, 0, 5E-05, -0.056, 0.01
 272031144, 0, 5E-05, -0.058, 0.01, 0, 5E-05, -0.057, 0.01
 272231064, 0, 5E-05, -0.057, 0.01, 0, 5E-05, -0.058, 0.01
 272430984, 0, 5E-05, -0.057, 0.01, 0, 5E-05, -0.057, 0.01
 272630904, 0, 5E-05, -0.055, 0.01, 0, 5E-05, -0.057, 0.01
 272830824, 0, 5E-05, -0.054, 0.01, 0, 5E-05, -0.055, 0.01
 273030744, 0, 5E-05, -0.053, 0.01, 0, 5E-05, -0.054, 0.01
 273230664, 0, 5E-05, -0.052, 0.01, 0, 5E-05, -0.053, 0.01
 273431417, 0, 5E-05, -0.05, 0.01, 0, 5E-05, -0.052, 0.01
 273631337, 0, 5E-05, -0.049, 0.01, 0, 5E-05, -0.05, 0.01
 273831257, 0, 5E-05, -0.048, 0.01, 0, 5E-05, -0.049, 0.01
 274031177, 0, 5E-05, -0.048, 0.01, 0, 5E-05, -0.048, 0.01
 274231097, 0, 5E-05, -0.048, 0.01, 0, 5E-05, -0.048, 0.01
 274431017, 0, 5E-05, -0.05, 0.01, 0, 5E-05, -0.048, 0.01
 274630937, 0, 5E-05, -0.051, 0.01, 0, 5E-05, -0.05, 0.01
 274830857, 0, 5E-05, -0.052, 0.01, 0, 5E-05, -0.051, 0.01
 275030777, 0, 5E-05, -0.052, 0.01, 0, 5E-05, -0.052, 0.01
 275230697, 0, 5E-05, -0.052, 0.01, 0, 5E-05, -0.052, 0.01
 275431450, 0, 5E-05, -0.051, 0.01, 0, 5E-05, -0.052, 0.01
 275631370, 0, 5E-05, -0.05, 0.01, 0, 5E-05, -0.051, 0.01
 275831290, 0, 5E-05, -0.048, 0.01, 0, 5E-05, -0.05, 0.01
 276031210, 0, 5E-05, -0.047, 0.01, 0, 5E-05, -0.048, 0.01
 276231130, 0, 5E-05, -0.045, 0.01, 0, 5E-05, -0.047, 0.01
 276431050, 0, 5E-05, -0.042, 0.01, 0, 5E-05, -0.045, 0.01
 276630970, 0, 5E-05, -0.04, 0.01, 0, 5E-05, -0.042, 0.01
 276830890, 0, 5E-05, -0.038, 0.01, 0, 5E-05, -0.04, 0.01
 277030810, 0, 5E-05, -0.036, 0.01, 0, 5E-05, -0.038, 0.01
 277230730, 0, 5E-05, -0.033, 0.01, 0, 5E-05, -0.036, 0.01
 277431483, 0, 5E-05, -0.031, 0.01, 0, 5E-05, -0.033, 0.01
 277631403, 0, 5E-05, -0.029, 0.01, 0, 5E-05, -0.031, 0.01
 277831323, 0, 5E-05, -0.028, 0.01, 0, 5E-05, -0.029, 0.01
 278031243, 0, 5E-05, -0.025, 0.01, 0, 5E-05, -0.028, 0.01
 278231163, 0, 5E-05, -0.022, 0.01, 0, 5E-05, -0.025, 0.01
 278431083, 0, 5E-05, -0.018, 0.01, 0, 5E-05, -0.022, 0.01
 278631003, 0, 5E-05, -0.014, 0.01, 0, 5E-05, -0.018, 0.01
 278830923, 0, 5E-05, -0.009000001, 0.01, 0, 5E-05, -0.014, 0.01
 279030843, 0, 5E-05, -0.005, 0.01, 0, 5E-05, -0.009000001, 0.01
 279230763, 0, 5E-05, -0.001, 0.01, 0, 5E-05, -0.005, 0.01
 279430683, 0, 5E-05, 0, 0.01, 0, 5E-05, -0.001, 0.01
 279631436, 0, 5E-05, 0.002, 0.01, 0, 5E-05, 0, 0.01
 279831356, 0, 5E-05, 0.002, 0.01, 0, 5E-05, 0.002, 0.01
 280031276, 0, 5E-05, 0.003, 0.01, 0, 5E-05, 0.002, 0.01
 280231196, 0, 5E-05, 0.003, 0.01, 0, 5E-05, 0.003, 0.01
 280431116, 0, 5E-05, 0.004, 0.01, 0, 5E-05, 0.003, 0.01
 280631036, 0, 5E-05, 0.002, 0.01, 0, 5E-05, 0.004, 0.01
 280830956, 0, 5E-05, 0.003, 0.01, 0, 5E-05, 0.002, 0.01
 281030876, 0, 5E-05, 0.002, 0.01, 0, 5E-05, 0.003, 0.01
 281230796, 0, 5E-05, 0.002, 0.01, 0, 5E-05, 0.002, 0.01
 281430716, 0, 5E-05, 0.001, 0.01, 0, 5E-05, 0.002, 0.01
 281631469, 0, 5E-05, 0, 0.01, 0, 5E-05, 0.001, 0.01
 281831389, 0, 5E-05, 0, 0.01, 0, 5E-05, 0, 0.01
 282031309, 0, 5E-05, 0, 0.01, 0, 5E-05, 0, 0.01
 282231229, 0, 5E-05, -0.001, 0.01, 0, 5E-05, 0, 0.01
 282431149, 0, 5E-05, -0.001, 0.01, 0, 5E-05, -0.001, 0.01
 282631069, 0, 5E-05, -0.001, 0.01, 0, 5E-05, -0.001, 0.01
 282830989, 0, 5E-05, -0.001, 0.01, 0, 5E-05, -0.001, 0.01
 283030909, 0, 5E-05, -0.001, 0.01, 0, 5E-05, -0.001, 0.01
 283230829, 0, 5E-05, -0.001, 0.01, 0, 5E-05, -0.001, 0.01
 283430749, 0, 5E-05, -0.001, 0.01, 0, 5E-05, -0.001, 0.01
 283630669, 0, 5E-05, -0.002, 0.01, 0, 5E-05, -0.001, 0.01
 283831422, 0, 5E-05, -0.002, 0.01, 0, 5E-05, -0.002, 0.01
 284031342, 0, 5E-05, -0.002, 0.01, 0, 5E-05, -0.002, 0.01
 284231262, 0, 5E-05, -0.002, 0.01, 0, 5E-05, -0.002, 0.01
 284431182, 0, 5E-05, -0.002, 0.01, 0, 5E-05, -0.002, 0.01
 284631102, 0, 5E-05, -0.002, 0.01, 0, 5E-05, -0.002, 0.01
 284831022, 0, 5E-05, -0.002, 0.01, 0, 5E-05, -0.002, 0.01
 285030942, 0, 5E-05, -0.002, 0.01, 0, 5E-05, -0.002, 0.01
 285230862, 0, 5E-05, -0.001, 0.01, 0, 5E-05, -0.002, 0.01
 285430782, 0, 5E-05, 0, 0.01, 0, 5E-05, -0.001, 0.01
 285630702, 0, 5E-05, 0, 0.01, 0, 5E-05, 0, 0.01
 285831455, 0, 5E-05, 0, 0.01, 0, 5E-05, 0, 0.01
 286031375, 0, 5E-05, 0, 0.01, 0, 5E-05, 0, 0.01
 286231295, 0, 5E-05, 0, 0.01, 0, 5E-05, 0, 0.01
 286431215, 0, 5E-05, 0.002, 0.01, 0, 5E-05, 0, 0.01
 286631135, 0, 5E-05, 0.002, 0.01, 0, 5E-05, 0.002, 0.01
 286831055, 0, 5E-05, 0.003, 0.01, 0, 5E-05, 0.002, 0.01
 287030975, 0, 5E-05, 0.003, 0.01, 0, 5E-05, 0.003, 0.01
 287230895, 0, 5E-05, 0.004, 0.01, 0, 5E-05, 0.003, 0.01
 287430815, 0, 5E-05, 0.004, 0.01, 0, 5E-05, 0.004, 0.01
 287630735, 0, 5E-05, 0.004, 0.01, 0, 5E-05, 0.004, 0.01
 287830655, 0, 5E-05, 0.004, 0.01, 0, 5E-05, 0.004, 0.01
 288031408, 0, 5E-05, 0.004, 0.01, 0, 5E-05, 0.004, 0.01
 288231328, 0, 5E-05, 0.003, 0.01, 0, 5E-05, 0.004, 0.01
 288431248, 0, 5E-05, 0.003, 0.01, 0, 5E-05, 0.003, 0.01
 288631168, 0, 5E-05, 0.003, 0.01, 0, 5E-05, 0.003, 0.01
 288831088, 0, 5E-05, 0.002, 0.01, 0, 5E-05, 0.003, 0.01
 289031008, 0, 5E-05, 0.002, 0.01, 0, 5E-05, 0.002, 0.01
 289230928, 0, 5E-05, 0.002, 0.01, 0, 5E-05, 0.002, 0.01
 289430848, 0, 5E-05, 0.002, 0.01, 0, 5E-05, 0.002, 0.01
 289630768, 0, 5E-05, 0.002, 0.01, 0, 5E-05, 0.002, 0.01
 289830688, 0, 5E-05, 0.003, 0.01, 0, 5E-05, 0.002, 0.01
 290031441, 0, 5E-05, 0.003, 0.01, 0, 5E-05, 0.003, 0.01
 290231361, 0, 5E-05, 0.003, 0.01, 0, 5E-05, 0.003, 0.01
 290431281, 0, 5E-05, 0.002, 0.01, 0, 5E-05, 0.003, 0.01
 290631201, 0, 5E-05, 0.003, 0.01, 0, 5E-05, 0.002, 0.01
 290831121, 0, 5E-05, 0.003, 0.01, 0, 5E-05, 0.003, 0.01
 291031041, 0, 5E-05, 0.002, 0.01, 0, 5E-05, 0.003, 0.01
 291230961, 0, 5E-05, 0.001, 0.01, 0, 5E-05, 0.002, 0.01
 291430881, 0, 5E-05, 0, 0.01, 0, 5E-05, 0.001, 0.01
 291630801, 0, 5E-05, 0, 0.01, 0, 5E-05, 0, 0.01
 291830721, 0, 5E-05, 0, 0.01, 0, 5E-05, 0, 0.01
 292031474, 0, 5E-05, 0, 0.01, 0, 5E-05, 0, 0.01
 292231394, 0, 5E-05, 0, 0.01, 0, 5E-05, 0, 0.01
 292431314, 0, 5E-05, 0, 0.01, 0, 5E-05, 0, 0.01
 292631234, 0, 5E-05, 0, 0.01, 0, 5E-05, 0, 0.01
 292831154, 0, 5E-05, 0, 0.01, 0, 5E-05, 0, 0.01
 293031074, 0, 5E-05, 0, 0.01, 0, 5E-05, 0, 0.01
 293230994, 0, 5E-05, 0, 0.01, 0, 5E-05, 0, 0.01
 293430914, 0, 5E-05, 0, 0.01, 0, 5E-05, 0, 0.01
 293630834, 0, 5E-05, 0, 0.01, 0, 5E-05, 0, 0.01
 293830754, 0, 5E-05, 0, 0.01, 0, 5E-05, 0, 0.01
 294030674, 0, 5E-05, 0, 0.01, 0, 5E-05, 0, 0.01
 294231427, 0, 5E-05, 0, 0.01, 0, 5E-05, 0, 0.01
 294431347, 0, 5E-05, 0, 0.01, 0, 5E-05, 0, 0.01
 294631267, 0, 5E-05, -0.001, 0.01, 0, 5E-05, 0, 0.01
 294831187, 0, 5E-05, -0.001, 0.01, 0, 5E-05, -0.001, 0.01
 295031107, 0, 5E-05, -0.001, 0.01, 0, 5E-05, -0.001, 0.01
 295231027, 0, 5E-05, 0, 0.01, 0, 5E-05, -0.001, 0.01
 295430947, 0, 5E-05, 0, 0.01, 0, 5E-05, 0, 0.01
 295630867, 0, 5E-05, 0, 0.01, 0, 5E-05, 0, 0.01
 295830787, 0, 5E-05, 0, 0.01, 0, 5E-05, 0, 0.01
 296030707, 0, 5E-05, -0.001, 0.01, 0, 5E-05, 0, 0.01
 296231460, 0, 5E-05, -0.001, 0.01, 0, 5E-05, -0.001, 0.01
 296431380, 0, 5E-05, -0.001, 0.01, 0, 5E-05, -0.001, 0.01
 296631300, 0, 5E-05, -0.001, 0.01, 0, 5E-05, -0.001, 0.01
 296831220, 0, 5E-05, -0.001, 0.01, 0, 5E-05, -0.001, 0.01
 297031140, 0, 5E-05, -0.002, 0.01, 0, 5E-05, -0.001, 0.01
 297231060, 0, 5E-05, -0.002, 0.01, 0, 5E-05, -0.002, 0.01
 297430980, 0, 5E-05, -0.001, 0.01, 0, 5E-05, -0.002, 0.01
 297630900, 0, 5E-05, -0.001, 0.01, 0, 5E-05, -0.001, 0.01
 297830820, 0, 5E-05, -0.001, 0.01, 0, 5E-05, -0.001, 0.01
 298030740, 0, 5E-05, 0, 0.01, 0, 5E-05, -0.001, 0.01
 298230660, 0, 5E-05, 0, 0.01, 0, 5E-05, 0, 0.01
 298431413, 0, 5E-05, 0, 0.01, 0, 5E-05, 0, 0.01
 298631333, 0, 5E-05, 0, 0.01, 0, 5E-05, 0, 0.01
 298831253, 0, 5E-05, 0, 0.01, 0, 5E-05, 0, 0.01
 299031173, 0, 5E-05, 0, 0.01, 0, 5E-05, 0, 0.01
 299231093, 0, 5E-05, -0.001, 0.01, 0, 5E-05, 0, 0.01
 299431013, 0, 5E-05, 0, 0.01, 0, 5E-05, -0.001, 0.01
 299630933, 0, 5E-05, 0, 0.01, 0, 5E-05, 0, 0.01
 299830853, 0, 5E-05, 0, 0.01, 0, 5E-05, 0, 0.01
 300030773, 0, 5E-05, -0.001, 0.01, 0, 5E-05, 0, 0.01
 300230693, 0, 5E-05, 0, 0.01, 0, 5E-05, -0.001, 0.01
 300431446, 0, 5E-05, 0, 0.01, 0, 5E-05, 0, 0.01
 300631366, 0, 5E-05, 0, 0.01, 0, 5E-05, 0, 0.01
 300831286, 0, 5E-05, -0.001, 0.01, 0, 5E-05, 0, 0.01
 301031206, 0, 5E-05, -0.001, 0.01, 0, 5E-05, -0.001, 0.01
 301231126, 0, 5E-05, 0, 0.01, 0, 5E-05, -0.001, 0.01
 301431046, 0, 5E-05, 0, 0.01, 0, 5E-05, 0, 0.01
 301630966, 0, 5E-05, -0.001, 0.01, 0, 5E-05, 0, 0.01
 301830886, 0, 5E-05, -0.001, 0.01, 0, 5E-05, -0.001, 0.01
 302030806, 0, 5E-05, -0.001, 0.01, 0, 5E-05, -0.001, 0.01
 302230726, 0, 5E-05, 0, 0.01, 0, 5E-05, -0.001, 0.01
 302431479, 0, 5E-05, 0, 0.01, 0, 5E-05, 0, 0.01
 302631399, 0, 5E-05, 0, 0.01, 0, 5E-05, 0, 0.01
 302831319, 0, 5E-05, -0.001, 0.01, 0, 5E-05, 0, 0.01
 303031239, 0, 5E-05, -0.001, 0.01, 0, 5E-05, -0.001, 0.01
 303231159, 0, 5E-05, -0.001, 0.01, 0, 5E-05, -0.001, 0.01
 303431079, 0, 5E-05, 0, 0.01, 0, 5E-05, -0.001, 0.01
 303630999, 0, 5E-05, 0, 0.01, 0, 5E-05, 0, 0.01
 303830919, 0, 5E-05, 0, 0.01, 0, 5E-05, 0, 0.01
 304030839, 0, 5E-05, 0, 0.01, 0, 5E-05, 0, 0.01
 304230759, 0, 5E-05, 0, 0.01, 0, 5E-05, 0, 0.01
 304430679, 0, 5E-05, 0, 0.01, 0, 5E-05, 0, 0.01
 304631432, 0, 5E-05, 0, 0.01, 0, 5E-05, 0, 0.01
 304831352, 0, 5E-05, -0.001, 0.01, 0, 5E-05, 0, 0.01
 305031272, 0, 5E-05, -0.001, 0.01, 0, 5E-05, -0.001, 0.01
 305231192, 0, 5E-05, -0.001, 0.01, 0, 5E-05, -0.001, 0.01
 305431112, 0, 5E-05, -0.001, 0.01, 0, 5E-05, -0.001, 0.01
 305631032, 0, 5E-05, -0.001, 0.01, 0, 5E-05, -0.001, 0.01
 305830952, 0, 5E-05, 0, 0.01, 0, 5E-05, -0.001, 0.01
 306030872, 0, 5E-05, 0, 0.01, 0, 5E-05, 0, 0.01
 306230792, 0, 5E-05, 0, 0.01, 0, 5E-05, 0, 0.01
 306430712, 0, 5E-05, 0, 0.01, 0, 5E-05, 0, 0.01
 306631465, 0, 5E-05, 0, 0.01, 0, 5E-05, 0, 0.01
 306831385, 0, 5E-05, 0, 0.01, 0, 5E-05, 0, 0.01
 307031305, 0, 5E-05, 0, 0.01, 0, 5E-05, 0, 0.01
 307231225, 0, 5E-05, 0, 0.01, 0, 5E-05, 0, 0.01
 307431145, 0, 5E-05, 0, 0.01, 0, 5E-05, 0, 0.01
 307631065, 0, 5E-05, 0, 0.01, 0, 5E-05, 0, 0.01
 307830985, 0, 5E-05, 0, 0.01, 0, 5E-05, 0, 0.01
 308030905, 0, 5E-05, 0, 0.01, 0, 5E-05, 0, 0.01
 308230825, 0, 5E-05, 0, 0.01, 0, 5E-05, 0, 0.01
 308430745, 0, 5E-05, 0, 0.01, 0, 5E-05, 0, 0.01
 308630665, 0, 5E-05, 0, 0.01, 0, 5E-05, 0, 0.01
 308831418, 0, 5E-05, 0, 0.01, 0, 5E-05, 0, 0.01
 309031338, 0, 5E-05, 0, 0.01, 0, 5E-05, 0, 0.01
 309231258, 0, 5E-05, 0, 0.01, 0, 5E-05, 0, 0.01
 309431178, 0, 5E-05, 0, 0.01, 0, 5E-05, 0, 0.01
 309631098, 0, 5E-05, 0, 0.01, 0, 5E-05, 0, 0.01
 309831018, 0, 5E-05, 0, 0.01, 0, 5E-05, 0, 0.01
 310030938, 0, 5E-05, 0, 0.01, 0, 5E-05, 0, 0.01
 310230858, 0, 5E-05, 0, 0.01, 0, 5E-05, 0, 0.01
 310430778, 0, 5E-05, 0, 0.01, 0, 5E-05, 0, 0.01
 310630698, 0, 5E-05, 0, 0.01, 0, 5E-05, 0, 0.01
 310831451, 0, 5E-05, 0, 0.01, 0, 5E-05, 0, 0.01
 311031371, 0, 5E-05, 0, 0.01, 0, 5E-05, 0, 0.01
 311231291, 0, 5E-05, 0, 0.01, 0, 5E-05, 0, 0.01
 311431211, 0, 5E-05, 0, 0.01, 0, 5E-05, 0, 0.01
 311631131, 0, 5E-05, 0, 0.01, 0, 5E-05, 0, 0.01
 311831051, 0, 5E-05, 0, 0.01, 0, 5E-05, 0, 0.01
 312030971, 0, 5E-05, 0, 0.01, 0, 5E-05, 0, 0.01
 312230891, 0, 5E-05, 0, 0.01, 0, 5E-05, 0, 0.01
 312430811, 0, 5E-05, 0, 0.01, 0, 5E-05, 0, 0.01
 312630731, 0, 5E-05, 0, 0.01, 0, 5E-05, 0, 0.01
 312831484, 0, 5E-05, 0, 0.01, 0, 5E-05, 0, 0.01
 313031404, 0, 5E-05, 0, 0.01, 0, 5E-05, 0, 0.01
 313231324, 0, 5E-05, 0, 0.01, 0, 5E-05, 0, 0.01
 313431244, 0, 5E-05, 0, 0.01, 0, 5E-05, 0, 0.01
 313631164, 0, 5E-05, 0, 0.01, 0, 5E-05, 0, 0.01
 313831084, 14.999, -1.517, 0, 0.01, 0, 5E-05, 0, 0.01
 314031004, 14.994, -1.53, 0, 0.01, 14.999, -1.517, 0, 0.01
 314230924, 14.989, -1.542, 0, 0.01, 14.994, -1.53, 0, 0.01
 314430844, 14.98, -1.552, 0, 0.01, 14.989, -1.542, 0, 0.01
 314630764, 14.546, -1.511, -0.102, 0.01, 14.98, -1.552, 0, 0.01
 314830684, 13.504, -1.405, -0.067, 0.01, 14.546, -1.511, -0.102, 0.01
 315031437, 12.919, -1.335, 0.155, 0.01, 13.504, -1.405, -0.067, 0.01
 315231357, 12.264, -1.154, 0.264, 0.01, 12.919, -1.335, 0.155, 0.01
 315431277, 10.345, -0.832, 0.484, 0.01, 12.264, -1.154, 0.264, 0.01
 315631197, 7.648, -0.361, 0.846, 0.01, 10.345, -0.832, 0.484, 0.01
 315831117, 4.911, 0.191, 1.086, 0.01, 7.648, -0.361, 0.846, 0.01
 316031037, 2.638, 0.568, 1.238, 0.01, 4.911, 0.191, 1.086, 0.01
 316230957, 0.964, 0.678, 1.349, 0.01, 2.638, 0.568, 1.238, 0.01
 316430877, -0.189, 0.624, 1.466, 0.01, 0.964, 0.678, 1.349, 0.01
 316630797, -1.038, 0.497, 1.577, 0.01, -0.189, 0.624, 1.466, 0.01
 316830717, -1.72, 0.291, 1.652, 0.01, -1.038, 0.497, 1.577, 0.01
 317031470, -2.234, -0.016, 1.68, 0.01, -1.72, 0.291, 1.652, 0.01
 317231390, -2.523, -0.387, 1.675, 0.01, -2.234, -0.016, 1.68, 0.01
 317431310, -2.578, -0.757, 1.648, 0.01, -2.523, -0.387, 1.675, 0.01
 317631230, -2.452, -1.071, 1.605, 0.01, -2.578, -0.757, 1.648, 0.01
 317831150, -2.195, -1.3, 1.546, 0.01, -2.452, -1.071, 1.605, 0.01
 318031070, -1.85, -1.427, 1.478, 0.01, -2.195, -1.3, 1.546, 0.01
 318230990, -1.455, -1.449, 1.406, 0.01, -1.85, -1.427, 1.478, 0.01
 318430910, -1.035, -1.38, 1.339, 0.01, -1.455, -1.449, 1.406, 0.01
 318630830, -0.622, -1.239, 1.287, 0.01, -1.035, -1.38, 1.339, 0.01
 318830750, -0.237, -1.047, 1.253, 0.01, -0.622, -1.239, 1.287, 0.01
 319030670, 0.105, -0.8290001, 1.239, 0.01, -0.237, -1.047, 1.253, 0.01
 319231423, 0.398, -0.597, 1.244, 0.01, 0.105, -0.8290001, 1.239, 0.01
 319431343, 0.6300001, -0.353, 1.262, 0.01, 0.398, -0.597, 1.244, 0.01
 319631263, 0.799, -0.105, 1.291, 0.01, 0.6300001, -0.353, 1.262, 0.01
 319831183, 0.905, 0.129, 1.325, 0.01, 0.799, -0.105, 1.291, 0.01
 320031103, 0.956, 0.337, 1.36, 0.01, 0.905, 0.129, 1.325, 0.01
 320231023, 0.96, 0.505, 1.395, 0.01, 0.956, 0.337, 1.36, 0.01
 320430943, 0.9400001, 0.623, 1.428, 0.01, 0.96, 0.505, 1.395, 0.01
 320630863, 0.8890001, 0.6900001, 1.457, 0.01, 0.9400001, 0.623, 1.428, 0.01
 320830783, 0.808, 0.7180001, 1.482, 0.01, 0.8890001, 0.6900001, 1.457, 0.01
 321030703, 0.688, 0.72, 1.499, 0.01, 0.808, 0.7180001, 1.482, 0.01
 321231456, 0.606, 0.703, 1.51, 0.01, 0.688, 0.72, 1.499, 0.01
 321431376, 0.478, 0.671, 1.516, 0.01, 0.606, 0.703, 1.51, 0.01
 321631296, 0.336, 0.627, 1.517, 0.01, 0.478, 0.671, 1.516, 0.01
 321831216, 0.228, 0.574, 1.515, 0.01, 0.336, 0.627, 1.517, 0.01
 322031136, 0.112, 0.514, 1.51, 0.01, 0.228, 0.574, 1.515, 0.01
 322231056, 0.031, 0.449, 1.504, 0.01, 0.112, 0.514, 1.51, 0.01
 322430976, -0.044, 0.381, 1.498, 0.01, 0.031, 0.449, 1.504, 0.01
 322630896, -0.14, 0.314, 1.491, 0.01, -0.044, 0.381, 1.498, 0.01
 322830816, -0.192, 0.25, 1.484, 0.01, -0.14, 0.314, 1.491, 0.01
 323030736, -0.215, 0.19, 1.477, 0.01, -0.192, 0.25, 1.484, 0.01
 323230656, -0.216, 0.136, 1.471, 0.01, -0.215, 0.19, 1.477, 0.01
 323431409, -0.219, 0.086, 1.465, 0.01, -0.216, 0.136, 1.471, 0.01
 323631329, -0.216, 0.043, 1.459, 0.01, -0.219, 0.086, 1.465, 0.01
 323831249, -0.202, 0.008, 1.454, 0.01, -0.216, 0.043, 1.459, 0.01
 324031169, -0.18, -0.018, 1.448, 0.01, -0.202, 0.008, 1.454, 0.01
 324231089, -0.153, -0.037, 1.444, 0.01, -0.18, -0.018, 1.448, 0.01
 324431009, -0.124, -0.049, 1.441, 0.01, -0.153, -0.037, 1.444, 0.01
 324630929, -0.09500001, -0.056, 1.438, 0.01, -0.124, -0.049, 1.441, 0.01
 324830849, -0.046, -0.057, 1.436, 0.01, -0.09500001, -0.056, 1.438, 0.01
 325030769, -0.012, -0.055, 1.434, 0.01, -0.046, -0.057, 1.436, 0.01
 325230689, -0.001, -0.047, 1.432, 0.01, -0.012, -0.055, 1.434, 0.01
 325431442, 0.008, -0.036, 1.43, 0.01, -0.001, -0.047, 1.432, 0.01
 325631362, 0.022, -0.024, 1.428, 0.01, 0.008, -0.036, 1.43, 0.01
 325831282, 0.035, -0.01, 1.428, 0.01, 0.022, -0.024, 1.428, 0.01
 326031202, 0.046, 0.002, 1.427, 0.01, 0.035, -0.01, 1.428, 0.01
 326231122, 0.054, 0.015, 1.426, 0.01, 0.046, 0.002, 1.427, 0.01
 326431042, 0.059, 0.027, 1.425, 0.01, 0.054, 0.015, 1.426, 0.01
 326630962, 0.062, 0.038, 1.424, 0.01, 0.059, 0.027, 1.425, 0.01
 326830882, 0.063, 0.048, 1.424, 0.01, 0.062, 0.038, 1.424, 0.01
 327030802, 0.063, 0.057, 1.424, 0.01, 0.063, 0.048, 1.424, 0.01
 327230722, 0.059, 0.064, 1.424, 0.01, 0.063, 0.057, 1.424, 0.01
 327431475, 0.052, 0.06900001, 1.424, 0.01, 0.059, 0.064, 1.424, 0.01
 327631395, 0.045, 0.07, 1.424, 0.01, 0.052, 0.06900001, 1.424, 0.01
 327831315, 0.039, 0.06900001, 1.424, 0.01, 0.045, 0.07, 1.424, 0.01
 328031235, 0.033, 0.068, 1.424, 0.01, 0.039, 0.06900001, 1.424, 0.01
 328231155, 0.028, 0.06500001, 1.424, 0.01, 0.033, 0.068, 1.424, 0.01
 328431075, 0.023, 0.062, 1.424, 0.01, 0.028, 0.06500001, 1.424, 0.01
 328630995, 0.018, 0.058, 1.424, 0.01, 0.023, 0.062, 1.424, 0.01
 328830915, 0.012, 0.053, 1.424, 0.01, 0.018, 0.058, 1.424, 0.01
 329030835, 0.008, 0.046, 1.425, 0.01, 0.012, 0.053, 1.424, 0.01
 329230755, 0.005, 0.039, 1.425, 0.01, 0.008, 0.046, 1.425, 0.01
 329430675, 0.006, 0.032, 1.425, 0.01, 0.005, 0.039, 1.425, 0.01
 329631428, 0.008, 0.026, 1.425, 0.01, 0.006, 0.032, 1.425, 0.01
 329831348, 0.009000001, 0.02, 1.424, 0.01, 0.008, 0.026, 1.425, 0.01
 330031268, 0.008, 0.016, 1.425, 0.01, 0.009000001, 0.02, 1.424, 0.01
 330231188, 0.009000001, 0.011, 1.425, 0.01, 0.008, 0.016, 1.425, 0.01
 330431108, 0.013, 0.007, 1.425, 0.01, 0.009000001, 0.011, 1.425, 0.01
 330631028, 0.016, 0.004, 1.425, 0.01, 0.013, 0.007, 1.425, 0.01
 330830948, 0.016, 0.002, 1.425, 0.01, 0.016, 0.004, 1.425, 0.01
 331030868, 0.015, 0.002, 1.426, 0.01, 0.016, 0.002, 1.425, 0.01
 331230788, 0.016, 0.002, 1.427, 0.01, 0.015, 0.002, 1.426, 0.01
 331430708, 0.016, 0.003, 1.427, 0.01, 0.016, 0.002, 1.427, 0.01
 331631461, 0.017, 0.003, 1.427, 0.01, 0.016, 0.003, 1.427, 0.01
 331831381, 0.017, 0.004, 1.427, 0.01, 0.017, 0.003, 1.427, 0.01
 332031301, 0.018, 0.004, 1.427, 0.01, 0.017, 0.004, 1.427, 0.01
 332231221, 0.018, 0.004, 1.427, 0.01, 0.018, 0.004, 1.427, 0.01
 332431141, 0.019, 0.004, 1.426, 0.01, 0.018, 0.004, 1.427, 0.01
 332631061, 0.02, 0.004, 1.425, 0.01, 0.019, 0.004, 1.426, 0.01
 332830981, 0.021, 0.004, 1.425, 0.01, 0.02, 0.004, 1.425, 0.01
 333030901, 0.021, 0.004, 1.425, 0.01, 0.021, 0.004, 1.425, 0.01
 333230821, 0.021, 0.003, 1.425, 0.01, 0.021, 0.004, 1.425, 0.01
 333430741, 0.022, 0.004, 1.426, 0.01, 0.021, 0.003, 1.425, 0.01
 333630661, 0.023, 0.004, 1.426, 0.01, 0.022, 0.004, 1.426, 0.01
 333831414, 0.022, 0.004, 1.426, 0.01, 0.023, 0.004, 1.426, 0.01
 334031334, 0.022, 0.003, 1.426, 0.01, 0.022, 0.004, 1.426, 0.01
 334231254, 0.021, 0.003, 1.421, 0.01, 0.022, 0.003, 1.426, 0.01
 334431174, 0.022, 0.002, 1.388, 0.01, 0.021, 0.003, 1.421, 0.01
 334631094, 0.022, 0.003, 1.317, 0.01, 0.022, 0.002, 1.388, 0.01
 334831014, 0.022, 0.005, 1.201, 0.01, 0.022, 0.003, 1.317, 0.01
 335030934, 0.022, 0.006, 1.038, 0.01, 0.022, 0.005, 1.201, 0.01
 335230854, 0.021, 0.006, 0.8380001, 0.01, 0.022, 0.006, 1.038, 0.01
 335430774, 0.019, 0.004, 0.647, 0.01, 0.021, 0.006, 0.8380001, 0.01
 335630694, 0.018, 0.002, 0.491, 0.01, 0.019, 0.004, 0.647, 0.01
 335831447, 0.018, 0.001, 0.383, 0.01, 0.018, 0.002, 0.491, 0.01
 336031367, 0.018, 0.001, 0.328, 0.01, 0.018, 0.001, 0.383, 0.01
 336231287, 0.018, 0.004, 0.323, 0.01, 0.018, 0.001, 0.328, 0.01
 336431207, 0.017, 0.007, 0.344, 0.01, 0.018, 0.004, 0.323, 0.01
 336631127, 0.016, 0.01, 0.375, 0.01, 0.017, 0.007, 0.344, 0.01
 336831047, 0.014, 0.013, 0.408, 0.01, 0.016, 0.01, 0.375, 0.01
 337030967, 0.013, 0.017, 0.437, 0.01, 0.014, 0.013, 0.408, 0.01
 337230887, 0.013, 0.018, 0.46, 0.01, 0.013, 0.017, 0.437, 0.01
 337430807, 0.014, 0.019, 0.476, 0.01, 0.013, 0.018, 0.46, 0.01
 337630727, 0.015, 0.018, 0.486, 0.01, 0.014, 0.019, 0.476, 0.01
 337831480, 0.016, 0.017, 0.491, 0.01, 0.015, 0.018, 0.486, 0.01
 338031400, 0.017, 0.014, 0.494, 0.01, 0.016, 0.017, 0.491, 0.01
 338231320, 0.016, 0.011, 0.493, 0.01, 0.017, 0.014, 0.494, 0.01
 338431240, 0.015, 0.009000001, 0.492, 0.01, 0.016, 0.011, 0.493, 0.01
 338631160, 0.012, 0.007, 0.491, 0.01, 0.015, 0.009000001, 0.492, 0.01
 338831080, 0.011, 0.005, 0.489, 0.01, 0.012, 0.007, 0.491, 0.01
 339031000, 0.012, 0.002, 0.488, 0.01, 0.011, 0.005, 0.489, 0.01
 339230920, 0.013, 0, 0.486, 0.01, 0.012, 0.002, 0.488, 0.01
 339430840, 0.012, -0.002, 0.485, 0.01, 0.013, 0, 0.486, 0.01
 339630760, 0.009000001, -0.005, 0.484, 0.01, 0.012, -0.002, 0.485, 0.01
 339830680, 0.005, -0.007, 0.484, 0.01, 0.009000001, -0.005, 0.484, 0.01
 340031433, 0.001, -0.008, 0.484, 0.01, 0.005, -0.007, 0.484, 0.01
 340231353, 0, -0.007, 0.483, 0.01, 0.001, -0.008, 0.484, 0.01
 340431273, 0.001, -0.007, 0.483, 0.01, 0, -0.007, 0.483, 0.01
 340631193, 0.005, -0.005, 0.483, 0.01, 0.001, -0.007, 0.483, 0.01
 340831113, 0.01, -0.002, 0.483, 0.01, 0.005, -0.005, 0.483, 0.01
 341031033, 0.014, -0.001, 0.483, 0.01, 0.01, -0.002, 0.483, 0.01
 341230953, 0.019, -0.001, 0.483, 0.01, 0.014, -0.001, 0.483, 0.01
 341430873, 0.023, -0.002, 0.483, 0.01, 0.019, -0.001, 0.483, 0.01
 341630793, 0.026, -0.003, 0.482, 0.01, 0.023, -0.002, 0.483, 0.01
 341830713, 0.026, -0.003, 0.482, 0.01, 0.026, -0.003, 0.482, 0.01
 342031466, 0.026, -0.001, 0.482, 0.01, 0.026, -0.003, 0.482, 0.01
 342231386, 0.026, 0, 0.481, 0.01, 0.026, -0.001, 0.482, 0.01
 342431306, 0.028, 0.002, 0.481, 0.01, 0.026, 0, 0.481, 0.01
 342631226, 0.028, 0.004, 0.48, 0.01, 0.028, 0.002, 0.481, 0.01
 342831146, 0.024, 0.008, 0.48, 0.01, 0.028, 0.004, 0.48, 0.01
 343031066, 0.021, 0.011, 0.48, 0.01, 0.024, 0.008, 0.48, 0.01
 343230986, 0.02, 0.014, 0.48, 0.01, 0.021, 0.011, 0.48, 0.01
 343430906, 0.02, 0.016, 0.48, 0.01, 0.02, 0.014, 0.48, 0.01
 343630826, 0.018, 0.017, 0.48, 0.01, 0.02, 0.016, 0.48, 0.01
 343830746, 0.014, 0.017, 0.48, 0.01, 0.018, 0.017, 0.48, 0.01
 344030666, 0.009000001, 0.016, 0.48, 0.01, 0.014, 0.017, 0.48, 0.01
 344231419, 0.007, 0.015, 0.48, 0.01, 0.009000001, 0.016, 0.48, 0.01
 344431339, 0.007, 0.014, 0.479, 0.01, 0.007, 0.015, 0.48, 0.01
 344631259, 0.007, 0.011, 0.479, 0.01, 0.007, 0.014, 0.479, 0.01
 344831179, 0.006, 0.009000001, 0.48, 0.01, 0.007, 0.011, 0.479, 0.01
 345031099, 0.005, 0.007, 0.48, 0.01, 0.006, 0.009000001, 0.48, 0.01
 345231019, 0.003, 0.007, 0.48, 0.01, 0.005, 0.007, 0.48, 0.01
 345430939, 0.003, 0.007, 0.479, 0.01, 0.003, 0.007, 0.48, 0.01
 345630859, 0.004, 0.005, 0.478, 0.01, 0.003, 0.007, 0.479, 0.01
 345830779, 0.005, 0.003, 0.479, 0.01, 0.004, 0.005, 0.478, 0.01
 346030699, 0.006, 0.002, 0.479, 0.01, 0.005, 0.003, 0.479, 0.01
 346231452, 0.007, 0.001, 0.478, 0.01, 0.006, 0.002, 0.479, 0.01
 346431372, 0.01, 0, 0.476, 0.01, 0.007, 0.001, 0.478, 0.01
 346631292, 0.013, -0.003, 0.476, 0.01, 0.01, 0, 0.476, 0.01
 346831212, 0.013, -0.007, 0.476, 0.01, 0.013, -0.003, 0.476, 0.01
 347031132, 0.011, -0.008, 0.476, 0.01, 0.013, -0.007, 0.476, 0.01
 347231052, 0.012, -0.009000001, 0.475, 0.01, 0.011, -0.008, 0.476, 0.01
 347430972, 0.016, -0.01, 0.474, 0.01, 0.012, -0.009000001, 0.475, 0.01
 347630892, 0.019, -0.011, 0.475, 0.01, 0.016, -0.01, 0.474, 0.01
 347830812, 0.017, -0.011, 0.476, 0.01, 0.019, -0.011, 0.475, 0.01
 348030732, 0.01, -0.007, 0.477, 0.01, 0.017, -0.011, 0.476, 0.01
 348231485, 0.004, -0.001, 0.478, 0.01, 0.01, -0.007, 0.477, 0.01
 348431405, 0.001, 0.007, 0.48, 0.01, 0.004, -0.001, 0.478, 0.01
 348631325, 0.001, 0.017, 0.481, 0.01, 0.001, 0.007, 0.48, 0.01
 348831245, 0.001, 0.025, 0.481, 0.01, 0.001, 0.017, 0.481, 0.01
 349031165, 0.001, 0.027, 0.481, 0.01, 0.001, 0.025, 0.481, 0.01
 349231085, 0.001, 0.024, 0.481, 0.01, 0.001, 0.027, 0.481, 0.01
 349431005, 0.004, 0.022, 0.481, 0.01, 0.001, 0.024, 0.481, 0.01
 349630925, 0.007, 0.021, 0.482, 0.01, 0.004, 0.022, 0.481, 0.01
 349830845, 0.01, 0.021, 0.482, 0.01, 0.007, 0.021, 0.482, 0.01
 350030765, 0.01, 0.02, 0.482, 0.01, 0.01, 0.021, 0.482, 0.01
 350230685, 0.01, 0.019, 0.482, 0.01, 0.01, 0.02, 0.482, 0.01
 350431438, 0.011, 0.015, 0.481, 0.01, 0.01, 0.019, 0.482, 0.01
 350631358, 0.013, 0.009000001, 0.481, 0.01, 0.011, 0.015, 0.481, 0.01
 350831278, 0.013, 0.007, 0.483, 0.01, 0.013, 0.009000001, 0.481, 0.01
 351031198, 0.01, 0.01, 0.484, 0.01, 0.013, 0.007, 0.483, 0.01
 351231118, 0.003, 0.013, 0.485, 0.01, 0.01, 0.01, 0.484, 0.01
 351431038, -0.004, 0.016, 0.485, 0.01, 0.003, 0.013, 0.485, 0.01
 351630958, -0.009000001, 0.017, 0.488, 0.01, -0.004, 0.016, 0.485, 0.01
 351830878, -0.011, 0.018, 0.489, 0.01, -0.009000001, 0.017, 0.488, 0.01
 352030798, -0.011, 0.02, 0.489, 0.01, -0.011, 0.018, 0.489, 0.01
 352230718, -0.01, 0.021, 0.488, 0.01, -0.011, 0.02, 0.489, 0.01
 352431471, -0.009000001, 0.019, 0.487, 0.01, -0.01, 0.021, 0.488, 0.01
 352631391, -0.007, 0.014, 0.491, 0.01, -0.009000001, 0.019, 0.487, 0.01
 352831311, -0.001, 0.011, 0.494, 0.01, -0.007, 0.014, 0.491, 0.01
 353031231, 0.005, 0.012, 0.495, 0.01, -0.001, 0.011, 0.494, 0.01
 353231151, 0.01, 0.012, 0.498, 0.01, 0.005, 0.012, 0.495, 0.01
 353431071, 0.012, 0.012, 0.502, 0.01, 0.01, 0.012, 0.498, 0.01
 353630991, 0.019, 0.006, 0.22, 0.01, 0.012, 0.012, 0.502, 0.01
 353830911, 0.026, -0.004, -0.144, 0.01, 0.019, 0.006, 0.22, 0.01
 354030831, 0.027, 0, -0.011, 0.01, 0.026, -0.004, -0.144, 0.01
 354230751, 0.028, 0, 0.02, 0.01, 0.027, 0, -0.011, 0.01
 354430671, 0.028, 0, 0, 0.01, 0.028, 0, 0.02, 0.01
 354631424, 0.028, 0, -0.002, 0.01, 0.028, 0, 0, 0.01
 354831344, 0.028, 0, 0, 0.01, 0.028, 0, -0.002, 0.01
 355031264, 0.028, 0, 0, 0.01, 0.028, 0, 0, 0.01
 355231184, 0.028, 0, 0, 0.01, 0.028, 0, 0, 0.01
 355431104, 0.028, 0, 0, 0.01, 0.028, 0, 0, 0.01
 355631024, 0.028, 0, 0, 0.01, 0.028, 0, 0, 0.01
 355830944, 0.028, 0, 0, 0.01, 0.028, 0, 0, 0.01
 356030864, 0.028, 0, 0, 0.01, 0.028, 0, 0, 0.01
 356230784, 0.028, 0, 0, 0.01, 0.028, 0, 0, 0.01
 356430704, 0.028, 0, 0, 0.01, 0.028, 0, 0, 0.01
