TimeUS,COFN,COFE,COFD,CNe,CEe,CDe,POFN,POFE,POFD,PNe,PEe,PDe
 139033531, 0, 0, 0, 0, 0, 0, 0, 0, 0, 0, 0, 0
 139234284, 0, 0, 0, 0, 0, 0, 0, 0, 0, 0, 0, 0
 139434204, 0, 0, 0, 0, 0, 0, 0, 0, 0, 0, 0, 0
 139634124, 0, 0, 0, 0, 0, 0, 0, 0, 0, 0, 0, 0
 139834044, 0, 0, 0, 0, 0, 0, 0, 0, 0, 0, 0, 0
 140033964, 0, 0, 0, 0, 0, 0, 0, 0, 0, 0, 0, 0
 140233884, 0, 0, 0, 0, 0, 0, 0, 0, 0, 0, 0, 0
 140433804, 0, 0, 0, 0, 0, 0, 0, 0, 0, 0, 0, 0
 140633724, 0, 0, 0, 0, 0, 0, 0, 0, 0, 0, 0, 0
 140833644, 0, 0, 0, 0, 0, 0, 0, 0, 0, 0, 0, 0
 141033564, 0, 0, 0, 0, 0, 0, 0, 0, 0, 0, 0, 0
 141233484, 0, 0, 0, 0, 0, 0, 0, 0, 0, 0, 0, 0
 141434237, 0, 0, 0, 0, 0, 0, 0, 0, 0, 0, 0, 0
 141634157, 0, 0, 0, 0, 0, 0, 0, 0, 0, 0, 0, 0
 141834077, 0, 0, 0, 0, 0, 0, 0, 0, 0, 0, 0, 0
 142033997, 0, 0, 0, 0, 0, 0, 0, 0, 0, 0, 0, 0
 142233917, 0, 0, 0, 0, 0, 0, 0, 0, 0, 0, 0, 0
 142433837, 0, 0, 0, 0, 0, 0, 0, 0, 0, 0, 0, 0
 142633757, -0.2223179, 0.0255042, -0.03805745, 0.1061405, -0.00429645, 0.9943724, 0, 0, 0, 0, 0, 0
 142833677, 0.1334412, -0.01387719, -0.07443736, 0.1577887, -0.01046409, 0.9888847, -0.2223179, 0.0255042, -0.03805745, 0.1061405, -0.00429645, 0.9943724
 143033597, 0.04860106, -0.006766002, -0.03564138, 0.1248058, -0.0101625, 0.992245, 0.1334412, -0.01387719, -0.07443736, 0.1577887, -0.01046409, 0.9888847
 143233517, 0.007932536, 0.001762195, -0.06132147, 0.1231957, -0.00634318, 0.9923958, 0.04860106, -0.006766002, -0.03564138, 0.1248058, -0.0101625, 0.992245
 143434270, -0.01976854, 0.0008704729, -0.05800134, 0.1273239, -0.002818887, 0.9918758, 0.007932536, 0.001762195, -0.06132147, 0.1231957, -0.00634318, 0.9923958
 143634190, -0.05239372, 0.01026199, -0.05369555, 0.1296522, -0.002616701, 0.9915769, -0.01976854, 0.0008704729, -0.05800134, 0.1273239, -0.002818887, 0.9918758
 143834110, -0.09019579, 0.007869107, -0.04368746, 0.1309199, -0.00577889, 0.9913961, -0.05239372, 0.01026199, -0.05369555, 0.1296522, -0.002616701, 0.9915769
 144034030, -0.1798654, 0.01570118, -0.03619798, 0.138898, -0.00443776, 0.9903306, -0.09019579, 0.007869107, -0.04368746, 0.1309199, -0.00577889, 0.9913961
 144233950, -0.2649414, 0.02555048, -0.02350333, 0.1506314, -0.008089665, 0.9886653, -0.1798654, 0.01570118, -0.03619798, 0.138898, -0.00443776, 0.9903306
 144433870, -0.4667596, 0.04704773, 0.001584619, 0.1851462, -0.01493187, 0.9836213, -0.2649414, 0.02555048, -0.02350333, 0.1506314, -0.008089665, 0.9886653
 144633790, -1.430566, 0.1573583, 0.1535895, 0.5353506, -0.05097438, 0.9323516, -0.4667596, 0.04704773, 0.001584619, 0.1851462, -0.01493187, 0.9836213
 144833710, -6.032968, 0.6870733, 0.7851086, 3.882999, -0.4295575, 0.4466574, -1.430566, 0.1573583, 0.1535895, 0.5353506, -0.05097438, 0.9323516
 145033630, 6.285028, -0.7174537, -0.959856, 15.37458, -1.734928, -1.189421, -6.032968, 0.6870733, 0.7851086, 3.882999, -0.4295575, 0.4466574
 145233550, 1.695728, -0.1875363, -0.3012437, 1.665267, -0.1812361, 0.7691011, 6.285028, -0.7174537, -0.959856, 15.37458, -1.734928, -1.189421
 145434303, 0.847788, -0.1010661, -0.1900395, 0.4367256, -0.03585443, 0.9467239, 1.695728, -0.1875363, -0.3012437, 1.665267, -0.1812361, 0.7691011
 145634223, 0.7872819, -0.1003798, -0.1992736, 0.3804907, -0.03158565, 0.9556226, 0.847788, -0.1010661, -0.1900395, 0.4367256, -0.03585443, 0.9467239
 145834143, 0.5903503, -0.06071874, -0.1449185, 0.2742192, -0.01756687, 0.9710416, 0.7872819, -0.1003798, -0.1992736, 0.3804907, -0.03158565, 0.9556226
 146034063, 0.4910095, -0.06313787, -0.1291323, 0.2329089, -0.01030169, 0.9772838, 0.5903503, -0.06071874, -0.1449185, 0.2742192, -0.01756687, 0.9710416
 146233983, 0.5286869, -0.06062353, -0.1370829, 0.2361682, -0.01083253, 0.9772625, 0.4910095, -0.06313787, -0.1291323, 0.2329089, -0.01030169, 0.9772838
 146433903, 0.519416, -0.06616861, -0.127524, 0.224025, -0.0113016, 0.979495, 0.5286869, -0.06062353, -0.1370829, 0.2361682, -0.01083253, 0.9772625
 146633823, 0.5057924, -0.04780233, -0.1202724, 0.2073638, -0.009955965, 0.9825289, 0.519416, -0.06616861, -0.127524, 0.224025, -0.0113016, 0.979495
 146833743, 0.4070495, -0.05377636, -0.1054929, 0.1753152, -0.002561356, 0.9868065, 0.5057924, -0.04780233, -0.1202724, 0.2073638, -0.009955965, 0.9825289
 147033663, 0.3770179, -0.03618961, -0.0991096, 0.1602065, -0.003407876, 0.9889116, 0.4070495, -0.05377636, -0.1054929, 0.1753152, -0.002561356, 0.9868065
 147233583, 0.415752, -0.04258145, -0.1004293, 0.1604641, -0.001987747, 0.9892745, 0.3770179, -0.03618961, -0.0991096, 0.1602065, -0.003407876, 0.9889116
 147433503, 0.3716111, -0.0463822, -0.06231733, 0.1421558, 0.007152825, 0.9914856, 0.415752, -0.04258145, -0.1004293, 0.1604641, -0.001987747, 0.9892745
 147634256, 0.4238953, -0.05145185, -0.09346581, 0.1433302, 0.009056738, 0.9918441, 0.3716111, -0.0463822, -0.06231733, 0.1421558, 0.007152825, 0.9914856
 147834176, 0.3749926, -0.03807102, -0.08301792, 0.1298355, 0.0100467, 0.9931401, 0.4238953, -0.05145185, -0.09346581, 0.1433302, 0.009056738, 0.9918441
 148034096, 0.3542764, -0.01509381, -0.08116166, 0.1065293, -0.07684432, 0.9927921, 0.3749926, -0.03807102, -0.08301792, 0.1298355, 0.0100467, 0.9931401
 148234016, 0.3772563, -0.01581031, -0.1068701, 0.08346997, -0.206762, 0.9764663, 0.3542764, -0.01509381, -0.08116166, 0.1065293, -0.07684432, 0.9927921
 148433936, 0.3919905, -0.06108595, -0.05394488, 0.08366282, -0.1924619, 0.9794868, 0.3772563, -0.01581031, -0.1068701, 0.08346997, -0.206762, 0.9764663
 148633856, 0.3442078, -0.04020502, -0.04635189, 0.08358631, -0.09681734, 0.9931431, 0.3919905, -0.06108595, -0.05394488, 0.08366282, -0.1924619, 0.9794868
 148833776, 0.3526404, -0.04366016, -0.04277432, 0.0743973, -0.08150018, 0.9952954, 0.3442078, -0.04020502, -0.04635189, 0.08358631, -0.09681734, 0.9931431
 149033696, 0.3605996, -0.01667032, -0.03686544, 0.06335562, -0.1148559, 0.9928132, 0.3526404, -0.04366016, -0.04277432, 0.0743973, -0.08150018, 0.9952954
 149233616, 0.3491161, -0.04369019, -0.006921604, 0.05202847, -0.1233871, 0.9923688, 0.3605996, -0.01667032, -0.03686544, 0.06335562, -0.1148559, 0.9928132
 149433536, 0.365825, -0.04460907, -0.004775524, 0.05099243, -0.09772182, 0.9953867, 0.3491161, -0.04369019, -0.006921604, 0.05202847, -0.1233871, 0.9923688
 149634289, 0.3780884, -0.02791978, -0.0001886025, 0.0468646, -0.07576916, 0.9975836, 0.365825, -0.04460907, -0.004775524, 0.05099243, -0.09772182, 0.9953867
 149834209, 0.3159764, -0.03018769, 0.00166668, 0.03103872, -0.07497165, 0.9978788, 0.3780884, -0.02791978, -0.0001886025, 0.0468646, -0.07576916, 0.9975836
 150034129, 0.334675, -0.02796831, -0.0244395, 0.02214687, -0.07882856, 0.9979175, 0.3159764, -0.03018769, 0.00166668, 0.03103872, -0.07497165, 0.9978788
 150234049, 0.3437035, -0.02719009, 0.008985078, 0.01508375, -0.07300004, 0.9985494, 0.334675, -0.02796831, -0.0244395, 0.02214687, -0.07882856, 0.9979175
 150433969, 0.3575224, -0.002670523, 0.01255427, 0.01422124, -0.06071769, 0.9994746, 0.3437035, -0.02719009, 0.008985078, 0.01508375, -0.07300004, 0.9985494
 150633889, 0.3240124, -0.004420619, 0.0126463, 0.005681485, -0.05411573, 0.9997427, 0.3575224, -0.002670523, 0.01255427, 0.01422124, -0.06071769, 0.9994746
 150833809, 0.3061346, -0.01685181, 0.01298434, -0.002433375, -0.04744296, 0.9999988, 0.3240124, -0.004420619, 0.0126463, 0.005681485, -0.05411573, 0.9997427
 151033729, 0.299119, -0.01629501, 0.01396335, -0.007126115, -0.03969431, 1.00028, 0.3061346, -0.01685181, 0.01298434, -0.002433375, -0.04744296, 0.9999988
 151233649, 0.3460281, -0.0006557079, 0.02040841, -0.01082531, -0.03620281, 1.000636, 0.299119, -0.01629501, 0.01396335, -0.007126115, -0.03969431, 1.00028
 151433569, 0.3450589, -0.003254125, 0.02194241, -0.01595272, -0.03379945, 1.000644, 0.3460281, -0.0006557079, 0.02040841, -0.01082531, -0.03620281, 1.000636
 151633489, 0.3616178, -0.007408298, 0.02361594, -0.01614061, -0.03189155, 1.000805, 0.3450589, -0.003254125, 0.02194241, -0.01595272, -0.03379945, 1.000644
 151834242, 0.3399776, -0.00675772, 0.02237963, -0.01934798, -0.02608863, 1.000783, 0.3616178, -0.007408298, 0.02361594, -0.01614061, -0.03189155, 1.000805
 152034162, 0.3458294, -0.002076917, 0.02353432, -0.02022197, -0.02248903, 1.00089, 0.3399776, -0.00675772, 0.02237963, -0.01934798, -0.02608863, 1.000783
 152234082, 0.3111984, -0.006525191, 0.0223353, -0.02869261, -0.01960757, 1.000551, 0.3458294, -0.002076917, 0.02353432, -0.02022197, -0.02248903, 1.00089
 152434002, 0.31346, 0.00587481, 0.02459639, -0.03361553, -0.01701513, 1.000464, 0.3111984, -0.006525191, 0.0223353, -0.02869261, -0.01960757, 1.000551
 152633922, 0.3594381, -0.02267719, 0.02761547, -0.02910843, -0.01479733, 1.000891, 0.31346, 0.00587481, 0.02459639, -0.03361553, -0.01701513, 1.000464
 152833842, 0.3689324, -0.008790019, 0.03101076, -0.03371768, -0.01110001, 1.000862, 0.3594381, -0.02267719, 0.02761547, -0.02910843, -0.01479733, 1.000891
 153033762, 0.3349097, -0.01251477, 0.06325731, -0.03788627, -0.01045207, 1.000522, 0.3689324, -0.008790019, 0.03101076, -0.03371768, -0.01110001, 1.000862
 153233682, 0.3666843, 0.0071539, 0.03139077, -0.03416622, -0.008828059, 1.000863, 0.3349097, -0.01251477, 0.06325731, -0.03788627, -0.01045207, 1.000522
 153433602, 0.3188761, 0.00616463, 0.02846487, -0.04390642, -0.007669503, 1.000201, 0.3666843, 0.0071539, 0.03139077, -0.03416622, -0.008828059, 1.000863
 153633522, 0.335562, -0.02702428, 0.0298854, -0.04403328, -0.005417192, 1.000289, 0.3188761, 0.00616463, 0.02846487, -0.04390642, -0.007669503, 1.000201
 153834275, 0.3146418, 0.001597967, 0.02952, -0.04934878, -0.002787288, 0.999945, 0.335562, -0.02702428, 0.0298854, -0.04403328, -0.005417192, 1.000289
 154034195, 0.3357683, -0.009488008, 0.0611138, -0.04547238, -0.002697526, 1.000259, 0.3146418, 0.001597967, 0.02952, -0.04934878, -0.002787288, 0.999945
 154234115, 0.323513, -0.02517311, 0.02987137, -0.04846236, -0.002622724, 1.000023, 0.3357683, -0.009488008, 0.0611138, -0.04547238, -0.002697526, 1.000259
 154434035, 0.377802, 0.003856289, 0.03595316, -0.04204194, -0.0007280931, 1.00069, 0.323513, -0.02517311, 0.02987137, -0.04846236, -0.002622724, 1.000023
 154633955, 0.3682263, -0.001436286, 0.06525195, -0.04338776, 0.003274674, 1.000577, 0.377802, 0.003856289, 0.03595316, -0.04204194, -0.0007280931, 1.00069
 154833875, 0.3157038, -0.02226064, 0.05951544, -0.04923081, 0.002591513, 0.9999545, 0.3682263, -0.001436286, 0.06525195, -0.04338776, 0.003274674, 1.000577
 155033795, 0.3651202, -0.02357902, 0.06468283, -0.04380187, 0.00254167, 1.000533, 0.3157038, -0.02226064, 0.05951544, -0.04923081, 0.002591513, 0.9999545
 155233715, 0.3209047, -0.01669097, 0.03141969, -0.05324636, 0.004391477, 0.9997583, 0.3651202, -0.02357902, 0.06468283, -0.04380187, 0.00254167, 1.000533
 155433635, 0.3335764, -0.008826882, 0.03296635, -0.05201399, 0.008013581, 0.9998816, 0.3209047, -0.01669097, 0.03141969, -0.05324636, 0.004391477, 0.9997583
 155633555, 0.3454812, -0.01750386, 0.06948677, -0.05044938, 0.008795968, 1.000055, 0.3335764, -0.008826882, 0.03296635, -0.05201399, 0.008013581, 0.9998816
 155833475, 0.369053, -0.01249846, 0.03621964, -0.04613775, 0.009904793, 1.000404, 0.3454812, -0.01750386, 0.06948677, -0.05044938, 0.008795968, 1.000055
 156034228, 0.3589231, -0.0133454, 0.06475371, -0.04551702, 0.008736124, 1.000389, 0.369053, -0.01249846, 0.03621964, -0.04613775, 0.009904793, 1.000404
 156234148, 0.343584, -0.009046581, 0.06335844, -0.04784345, 0.008522491, 1.000175, 0.3589231, -0.0133454, 0.06475371, -0.04551702, 0.008736124, 1.000389
 156434068, 0.331366, -0.007816318, 0.03238438, -0.05091808, 0.009121081, 0.9999171, 0.343584, -0.009046581, 0.06335844, -0.04784345, 0.008522491, 1.000175
 156633988, 0.3732928, -0.01137072, 0.03591378, -0.04328221, 0.009551896, 1.000578, 0.331366, -0.007816318, 0.03238438, -0.05091808, 0.009121081, 0.9999171
 156833908, 0.3622338, -0.002284768, 0.0648055, -0.04437938, 0.01017221, 1.00043, 0.3732928, -0.01137072, 0.03591378, -0.04328221, 0.009551896, 1.000578
 157033828, 0.3744258, -0.003870287, 0.03648346, -0.04400747, 0.009448236, 1.000566, 0.3622338, -0.002284768, 0.0648055, -0.04437938, 0.01017221, 1.00043
 157233748, 0.387149, 0.005059545, 0.03807322, -0.04262948, 0.01158406, 1.000721, 0.3744258, -0.003870287, 0.03648346, -0.04400747, 0.009448236, 1.000566
 157433668, 0.3752957, -0.01914012, 0.03624121, -0.04308451, 0.0103881, 1.000604, 0.387149, 0.005059545, 0.03807322, -0.04262948, 0.01158406, 1.000721
 157633588, 0.3388907, -0.009778606, 0.06248627, -0.04686636, 0.01071018, 1.000175, 0.3752957, -0.01914012, 0.03624121, -0.04308451, 0.0103881, 1.000604
 157833508, 0.3624646, 0.009548839, 0.06452044, -0.04228983, 0.01078566, 1.000571, 0.3388907, -0.009778606, 0.06248627, -0.04686636, 0.01071018, 1.000175
 158034261, 0.4073628, 0.0001150062, 0.06897775, -0.03540022, 0.00971126, 1.001265, 0.3624646, 0.009548839, 0.06452044, -0.04228983, 0.01078566, 1.000571
 158234181, 0.3923662, -0.007797807, 0.06636611, -0.03408571, 0.009242459, 0.9536045, 0.4073628, 0.0001150062, 0.06897775, -0.03540022, 0.00971126, 1.001265
 158434101, 0.3674571, 0.008521259, 0.06521835, -0.04182493, 0.01013367, 1.000648, 0.3923662, -0.007797807, 0.06636611, -0.03408571, 0.009242459, 0.9536045
 158634021, 0.3421532, 0.01072008, 0.06265167, -0.04523771, 0.01085622, 1.000293, 0.3674571, 0.008521259, 0.06521835, -0.04182493, 0.01013367, 1.000648
 158833941, 0.3758361, -0.01211075, 0.03633409, -0.04233124, 0.01050271, 1.000667, 0.3421532, 0.01072008, 0.06265167, -0.04523771, 0.01085622, 1.000293
 159033861, 0.4095273, -0.01667877, 0.03880325, -0.03471628, 0.0103574, 1.001289, 0.3758361, -0.01211075, 0.03633409, -0.04233124, 0.01050271, 1.000667
 159233781, 0.4059955, -0.001347825, 0.03866743, -0.03565958, 0.01108143, 1.001216, 0.4095273, -0.01667877, 0.03880325, -0.03471628, 0.0103574, 1.001289
 159433701, 0.3978646, -0.01503718, 0.03620344, -0.03311959, 0.009876894, 1.001225, 0.4059955, -0.001347825, 0.03866743, -0.03565958, 0.01108143, 1.001216
 159633621, 0.3683724, -0.008453097, 0.002992239, -0.03738017, 0.009161863, 1.000786, 0.3978646, -0.01503718, 0.03620344, -0.03311959, 0.009876894, 1.001225
 159833541, 0.3616242, 0.006289831, 0.0327126, -0.03826548, 0.008769208, 1.00073, 0.3683724, -0.008453097, 0.002992239, -0.03738017, 0.009161863, 1.000786
 160034294, 0.370068, -0.01436114, 0.0321098, -0.03359073, 0.01270306, 1.000914, 0.3616242, 0.006289831, 0.0327126, -0.03826548, 0.008769208, 1.00073
 160234214, 0.3614454, -0.01136633, 0.03179184, -0.0359482, 0.01726304, 1.000693, 0.370068, -0.01436114, 0.0321098, -0.03359073, 0.01270306, 1.000914
 160434134, 0.3494152, -0.0007527422, 0.03090672, -0.03837139, 0.01747592, 1.000508, 0.3614454, -0.01136633, 0.03179184, -0.0359482, 0.01726304, 1.000693
 160634054, 0.35037, -0.004722374, 0.03150503, -0.03984947, 0.009372776, 1.000564, 0.3494152, -0.0007527422, 0.03090672, -0.03837139, 0.01747592, 1.000508
 160833974, 0.384703, -0.00967505, 0.03339839, -0.03145913, 0.006655564, 1.001169, 0.35037, -0.004722374, 0.03150503, -0.03984947, 0.009372776, 1.000564
 161033894, 0.395967, 0.005035878, 0.03519675, -0.03134363, 0.01270872, 1.001227, 0.384703, -0.00967505, 0.03339839, -0.03145913, 0.006655564, 1.001169
 161233814, 0.4050524, -0.0003365376, 0.03462378, -0.02654579, 0.01341302, 1.001441, 0.395967, 0.005035878, 0.03519675, -0.03134363, 0.01270872, 1.001227
 161433734, 0.3734644, 0.002638448, 0.03092575, -0.02915745, 0.01174054, 1.001093, 0.4050524, -0.0003365376, 0.03462378, -0.02654579, 0.01341302, 1.001441
 161633654, 0.3588338, -0.01045428, 0.02975156, -0.03186425, 0.01017707, 1.000898, 0.3734644, 0.002638448, 0.03092575, -0.02915745, 0.01174054, 1.001093
 161833574, 0.4053769, -0.01903955, 0.0336247, -0.02438552, 0.01204826, 1.001499, 0.3588338, -0.01045428, 0.02975156, -0.03186425, 0.01017707, 1.000898
 162033494, 0.3502326, 0.003756453, 0.02883618, -0.03250105, 0.01651281, 1.000732, 0.4053769, -0.01903955, 0.0336247, -0.02438552, 0.01204826, 1.001499
 162234247, 0.3938926, -0.002248283, 0.03302479, -0.02712281, 0.0158935, 1.001266, 0.3502326, 0.003756453, 0.02883618, -0.03250105, 0.01651281, 1.000732
 162434167, 0.3877389, -0.007058373, 0.03223812, -0.02755465, 0.01411964, 1.001219, 0.3938926, -0.002248283, 0.03302479, -0.02712281, 0.0158935, 1.001266
 162634087, 0.418185, -0.01389882, 0.03396044, -0.02069592, 0.01065051, 1.001721, 0.3877389, -0.007058373, 0.03223812, -0.02755465, 0.01411964, 1.001219
 162834007, 0.3746279, -0.01178099, -0.0002727062, -0.02664941, 0.01406979, 1.001103, 0.418185, -0.01389882, 0.03396044, -0.02069592, 0.01065051, 1.001721
 163033927, 0.3647759, -0.01589793, 0.029566, -0.02907418, 0.01962642, 1.000878, 0.3746279, -0.01178099, -0.0002727062, -0.02664941, 0.01406979, 1.001103
 163233847, 0.3905052, 0.0008230787, 0.03220511, -0.02655414, 0.01837275, 1.001199, 0.3647759, -0.01589793, 0.029566, -0.02907418, 0.01962642, 1.000878
 163433767, 0.3599756, -0.01999018, 0.02940167, -0.0306216, 0.01626378, 1.000852, 0.3905052, 0.0008230787, 0.03220511, -0.02655414, 0.01837275, 1.001199
 163633687, 0.3784047, -0.004323793, 0.00573137, -0.02791813, 0.01299585, 1.001116, 0.3599756, -0.01999018, 0.02940167, -0.0306216, 0.01626378, 1.000852
 163833607, 0.4126348, 0.002344407, 0.03306356, -0.02065616, 0.01402742, 1.001614, 0.3784047, -0.004323793, 0.00573137, -0.02791813, 0.01299585, 1.001116
 164033527, 0.3832645, -0.01639968, 0.03047396, -0.02518553, 0.01108784, 1.001262, 0.4126348, 0.002344407, 0.03306356, -0.02065616, 0.01402742, 1.001614
 164234280, 0.3896188, -0.01484951, 0.03004072, -0.02188172, 0.009108221, 1.001414, 0.3832645, -0.01639968, 0.03047396, -0.02518553, 0.01108784, 1.001262
 164434200, 0.3696693, -0.007295031, 0.02886464, -0.02584293, 0.01186233, 1.001124, 0.3896188, -0.01484951, 0.03004072, -0.02188172, 0.009108221, 1.001414
 164634120, 0.3521932, 0.005174307, 0.02694335, -0.02676199, 0.01533882, 1.000924, 0.3696693, -0.007295031, 0.02886464, -0.02584293, 0.01186233, 1.001124
 164834040, 0.3950483, -0.008415196, 0.03000283, -0.01974935, 0.01608977, 1.001415, 0.3521932, 0.005174307, 0.02694335, -0.02676199, 0.01533882, 1.000924
 165033960, 0.3701074, -0.009928521, 0.02874303, -0.02542109, 0.01621412, 1.001071, 0.3950483, -0.008415196, 0.03000283, -0.01974935, 0.01608977, 1.001415
 165233880, 0.3760899, 0.004642438, -0.001185883, -0.0240151, 0.01500486, 1.00116, 0.3701074, -0.009928521, 0.02874303, -0.02542109, 0.01621412, 1.001071
 165433800, 0.3496905, -0.002293402, 0.02687965, -0.02770991, 0.01264828, 1.000911, 0.3760899, 0.004642438, -0.001185883, -0.0240151, 0.01500486, 1.00116
 165633720, 0.3809214, 0.002250746, 0.02916628, -0.02269427, 0.01176199, 1.001289, 0.3496905, -0.002293402, 0.02687965, -0.02770991, 0.01264828, 1.000911
 165833640, 0.3425265, 0.003694001, 0.02609347, -0.02796675, 0.01346332, 1.000847, 0.3809214, 0.002250746, 0.02916628, -0.02269427, 0.01176199, 1.001289
 166033560, 0.3465551, 0.00340417, 0.02583023, -0.02575193, 0.0135045, 1.000933, 0.3425265, 0.003694001, 0.02609347, -0.02796675, 0.01346332, 1.000847
 166233480, 0.4045771, -0.01576271, 0.03034686, -0.01756328, 0.01368338, 1.001569, 0.3465551, 0.00340417, 0.02583023, -0.02575193, 0.0135045, 1.000933
 166434233, 0.3615145, 0.003236968, 0.02640577, -0.02208719, 0.01380565, 1.001125, 0.4045771, -0.01576271, 0.03034686, -0.01756328, 0.01368338, 1.001569
 166634153, 0.3786943, 0.000714703, 0.02773828, -0.01971324, 0.01178143, 1.001334, 0.3615145, 0.003236968, 0.02640577, -0.02208719, 0.01380565, 1.001125
 166834073, 0.3528053, -0.02082347, 0.02503502, -0.02168031, 0.01080851, 1.001095, 0.3786943, 0.000714703, 0.02773828, -0.01971324, 0.01178143, 1.001334
 167033993, 0.3721924, 0.008184893, 0.02651745, -0.01857881, 0.01244567, 1.0013, 0.3528053, -0.02082347, 0.02503502, -0.02168031, 0.01080851, 1.001095
 167233913, 0.3769279, -0.01594936, 0.02784859, -0.02087732, 0.01086552, 1.0013, 0.3721924, 0.008184893, 0.02651745, -0.01857881, 0.01244567, 1.0013
 167433833, 0.3792775, -0.00387317, 0.02766889, -0.02002065, 0.008577711, 1.001327, 0.3769279, -0.01594936, 0.02784859, -0.02087732, 0.01086552, 1.0013
 167633753, 0.3843621, -0.02030961, 0.02742737, -0.01749077, 0.007164009, 1.001457, 0.3792775, -0.00387317, 0.02766889, -0.02002065, 0.008577711, 1.001327
 167833673, 0.3599296, -0.01637363, 0.02555422, -0.02078398, 0.007263241, 1.001201, 0.3843621, -0.02030961, 0.02742737, -0.01749077, 0.007164009, 1.001457
 168033593, 0.4121493, -0.01305327, 0.02920971, -0.01228399, 0.007239673, 1.001792, 0.3599296, -0.01637363, 0.02555422, -0.02078398, 0.007263241, 1.001201
 168233513, 0.3604283, 0.00596793, 0.02523299, -0.01915734, 0.01188042, 1.001204, 0.4121493, -0.01305327, 0.02920971, -0.01228399, 0.007239673, 1.001792
 168434266, 0.4029356, 0.004720077, 0.02748843, -0.01083385, 0.01448712, 1.00165, 0.3604283, 0.00596793, 0.02523299, -0.01915734, 0.01188042, 1.001204
 168634186, 0.3942283, -0.003863624, 0.02729725, -0.01329861, 0.01561918, 1.00152, 0.4029356, 0.004720077, 0.02748843, -0.01083385, 0.01448712, 1.00165
 168834106, 0.3853994, -0.01941999, 0.02715928, -0.01620219, 0.01166864, 1.001446, 0.3942283, -0.003863624, 0.02729725, -0.01329861, 0.01561918, 1.00152
 169034026, 0.3558457, 0.01401651, 0.0246101, -0.01887365, 0.01275999, 1.001169, 0.3853994, -0.01941999, 0.02715928, -0.01620219, 0.01166864, 1.001446
 169233946, 0.4164526, 0.01355825, 0.02886118, -0.00955284, 0.01475171, 1.001797, 0.3558457, 0.01401651, 0.0246101, -0.01887365, 0.01275999, 1.001169
 169433866, 0.3957204, -0.01079331, 0.02886035, -0.01674994, 0.01455305, 1.001497, 0.4164526, 0.01355825, 0.02886118, -0.00955284, 0.01475171, 1.001797
 169633786, 0.3554906, 0.000626407, 0.05636323, -0.0234543, 0.01445693, 1.001058, 0.3957204, -0.01079331, 0.02886035, -0.01674994, 0.01455305, 1.001497
 169833706, 0.4022894, -0.007652235, 0.0284553, -0.0134391, 0.01026462, 1.001666, 0.3554906, 0.000626407, 0.05636323, -0.0234543, 0.01445693, 1.001058
 170033626, 0.3559394, 0.01469619, 0.02420278, -0.01743025, 0.009865866, 1.001233, 0.4022894, -0.007652235, 0.0284553, -0.0134391, 0.01026462, 1.001666
 170233546, 0.3815498, -0.004828379, 0.02616341, -0.01445697, 0.01092346, 1.001464, 0.3559394, 0.01469619, 0.02420278, -0.01743025, 0.009865866, 1.001233
 170434299, 0.3731829, 0.002682017, 0.02589071, -0.01644251, 0.01045119, 1.001373, 0.3815498, -0.004828379, 0.02616341, -0.01445697, 0.01092346, 1.001464
 170634219, 0.3625057, 0.002588535, 0.02593413, -0.02019492, 0.01126595, 1.001212, 0.3731829, 0.002682017, 0.02589071, -0.01644251, 0.01045119, 1.001373
 170834139, 0.4262496, -0.01223871, 0.0309755, -0.01094556, 0.01444154, 1.001899, 0.3625057, 0.002588535, 0.02593413, -0.02019492, 0.01126595, 1.001212
 171034059, 0.3684993, -0.01112664, 0.05644792, -0.0189755, 0.01481176, 1.001251, 0.4262496, -0.01223871, 0.0309755, -0.01094556, 0.01444154, 1.001899
 171233979, 0.3803398, -0.008837027, 0.02612288, -0.01461515, 0.01264687, 1.001437, 0.3684993, -0.01112664, 0.05644792, -0.0189755, 0.01481176, 1.001251
 171433899, 0.3926617, 0.01319524, 0.02718902, -0.01280435, 0.01213799, 1.001592, 0.3803398, -0.008837027, 0.02612288, -0.01461515, 0.01264687, 1.001437
 171633819, 0.3737418, 0.006429176, 0.02533778, -0.01445573, 0.01210318, 1.001401, 0.3926617, 0.01319524, 0.02718902, -0.01280435, 0.01213799, 1.001592
 171833739, 0.3937179, -0.004722727, 0.02739252, -0.01313693, 0.01258135, 1.001586, 0.3737418, 0.006429176, 0.02533778, -0.01445573, 0.01210318, 1.001401
 172033659, 0.3692431, -0.01363588, 0.02527149, -0.01612743, 0.01098348, 1.001342, 0.3937179, -0.004722727, 0.02739252, -0.01313693, 0.01258135, 1.001586
 172233579, 0.377572, -0.007709472, 0.02590009, -0.01475442, 0.01326627, 1.00141, 0.3692431, -0.01363588, 0.02527149, -0.01612743, 0.01098348, 1.001342
 172433499, 0.4302751, 0.003062408, 0.02967147, -0.005920254, 0.01302958, 1.002039, 0.377572, -0.007709472, 0.02590009, -0.01475442, 0.01326627, 1.00141
 172634252, 0.4136057, 0.001300698, 0.02806611, -0.007859085, 0.01018292, 1.001873, 0.4302751, 0.003062408, 0.02967147, -0.005920254, 0.01302958, 1.002039
 172834172, 0.3942717, 0.007174327, 0.02577192, -0.008610409, 0.01216963, 1.001654, 0.4136057, 0.001300698, 0.02806611, -0.007859085, 0.01018292, 1.001873
 173034092, 0.4103521, -0.009001987, 0.02676285, -0.006005928, 0.01435266, 1.001791, 0.3942717, 0.007174327, 0.02577192, -0.008610409, 0.01216963, 1.001654
 173234012, 0.3634371, -0.0152976, 0.0246917, -0.01655457, 0.01249622, 1.001268, 0.4103521, -0.009001987, 0.02676285, -0.006005928, 0.01435266, 1.001791
 173433932, 0.3660638, -0.01472737, 0.02501886, -0.01661838, 0.0116245, 1.001297, 0.3634371, -0.0152976, 0.0246917, -0.01655457, 0.01249622, 1.001268
 173633852, 0.4031456, 0.01052399, 0.02738244, -0.009885099, 0.01333298, 1.001706, 0.3660638, -0.01472737, 0.02501886, -0.01661838, 0.0116245, 1.001297
 173833772, 0.4014947, 0.005200793, 0.02621232, -0.007685296, 0.01220329, 1.001716, 0.4031456, 0.01052399, 0.02738244, -0.009885099, 0.01333298, 1.001706
 174033692, 0.372803, 0.01590327, 0.02366838, -0.0104629, 0.01414955, 1.001415, 0.4014947, 0.005200793, 0.02621232, -0.007685296, 0.01220329, 1.001716
 174233612, 0.4213029, -0.003176963, 0.0273793, -0.004262425, 0.01408406, 1.001901, 0.372803, 0.01590327, 0.02366838, -0.0104629, 0.01414955, 1.001415
 174433532, 0.3863911, -0.001127566, 0.02539313, -0.01085804, 0.01468549, 1.001505, 0.4213029, -0.003176963, 0.0273793, -0.004262425, 0.01408406, 1.001901
 174634285, 0.4129968, 0.003984097, -0.003407739, -0.005651549, 0.01502826, 1.001773, 0.3863911, -0.001127566, 0.02539313, -0.01085804, 0.01468549, 1.001505
 174834205, 0.4079993, -0.004842579, 0.02672197, -0.004075866, 0.01682498, 0.9541826, 0.4129968, 0.003984097, -0.003407739, -0.005651549, 0.01502826, 1.001773
 175034125, 0.3493299, -0.01574183, 0.0231692, -0.01735498, 0.01559021, 1.001093, 0.4079993, -0.004842579, 0.02672197, -0.004075866, 0.01682498, 0.9541826
 175234045, 0.4064059, -0.01693882, 0.02768387, -0.01017376, 0.01811015, 1.001624, 0.3493299, -0.01574183, 0.0231692, -0.01735498, 0.01559021, 1.001093
 175433965, 0.394434, 0.001397253, 0.02679163, -0.01197668, 0.01777305, 1.001507, 0.4064059, -0.01693882, 0.02768387, -0.01017376, 0.01811015, 1.001624
 175633885, 0.3945966, -0.002574333, 0.001555361, -0.01180679, 0.01861427, 1.001475, 0.394434, 0.001397253, 0.02679163, -0.01197668, 0.01777305, 1.001507
 175833805, 0.3988935, -0.01742989, 0.02582611, -0.008214928, 0.01817518, 1.001563, 0.3945966, -0.002574333, 0.001555361, -0.01180679, 0.01861427, 1.001475
 176033725, 0.4066545, 0.008915748, 0.02691371, -0.008375283, 0.01736649, 1.001662, 0.3988935, -0.01742989, 0.02582611, -0.008214928, 0.01817518, 1.001563
 176233645, 0.3650958, 0.01460022, 0.02480066, -0.0165794, 0.01752296, 1.001206, 0.4066545, 0.008915748, 0.02691371, -0.008375283, 0.01736649, 1.001662
 176433565, 0.3968862, 0.01674214, 0.02555651, -0.008156665, 0.01756177, 1.001574, 0.3650958, 0.01460022, 0.02480066, -0.0165794, 0.01752296, 1.001206
 176633485, 0.3855349, 0.01071385, 0.02407324, -0.008091386, 0.01886251, 1.001446, 0.3968862, 0.01674214, 0.02555651, -0.008156665, 0.01756177, 1.001574
 176834238, 0.3684891, 0.007934783, 0.02293802, -0.01047517, 0.01494397, 1.001348, 0.3855349, 0.01071385, 0.02407324, -0.008091386, 0.01886251, 1.001446
 177034158, 0.3686411, 0.007004438, 0.02378434, -0.01270941, 0.01206926, 1.001361, 0.3684891, 0.007934783, 0.02293802, -0.01047517, 0.01494397, 1.001348
 177234078, 0.4170651, 0.0004015344, 0.02798315, -0.007740352, 0.01185462, 1.001836, 0.3686411, 0.007004438, 0.02378434, -0.01270941, 0.01206926, 1.001361
 177433998, 0.3791692, -0.001190967, 0.02564934, -0.01441681, 0.01248045, 1.001411, 0.4170651, 0.0004015344, 0.02798315, -0.007740352, 0.01185462, 1.001836
 177633918, 0.4113806, -0.0132251, -0.002337869, -0.009602241, 0.01259687, 1.001726, 0.3791692, -0.001190967, 0.02564934, -0.01441681, 0.01248045, 1.001411
 177833838, 0.398802, -0.002036937, 0.02693529, -0.01191718, 0.01286712, 1.001565, 0.4113806, -0.0132251, -0.002337869, -0.009602241, 0.01259687, 1.001726
 178033758, 0.3719627, -0.01547989, 0.0242503, -0.01332726, 0.01277578, 1.001356, 0.398802, -0.002036937, 0.02693529, -0.01191718, 0.01286712, 1.001565
 178233678, 0.3542329, 0.0008155131, 0.02212258, -0.01294805, 0.01245684, 1.001241, 0.3719627, -0.01547989, 0.0242503, -0.01332726, 0.01277578, 1.001356
 178433598, 0.344831, 0.01181442, 0.0220526, -0.0155759, 0.01158187, 1.001155, 0.3542329, 0.0008155131, 0.02212258, -0.01294805, 0.01245684, 1.001241
 178633518, 0.4020899, 0.00378892, -0.003899455, -0.00863304, 0.01008276, 1.001681, 0.344831, 0.01181442, 0.0220526, -0.0155759, 0.01158187, 1.001155
 178834271, 0.3742958, -0.00191162, 0.02473968, -0.01379076, 0.009093251, 1.001413, 0.4020899, 0.00378892, -0.003899455, -0.00863304, 0.01008276, 1.001681
 179034191, 0.3461724, 0.01831209, 0.0231579, -0.01809842, 0.0089774, 1.001152, 0.3742958, -0.00191162, 0.02473968, -0.01379076, 0.009093251, 1.001413
 179234111, 0.3512687, 0.01869566, 0.02385346, -0.01848853, 0.01047637, 1.001165, 0.3461724, 0.01831209, 0.0231579, -0.01809842, 0.0089774, 1.001152
 179434031, 0.3624172, 0.006462603, 0.02408152, -0.01572096, 0.005022757, 1.001325, 0.3512687, 0.01869566, 0.02385346, -0.01848853, 0.01047637, 1.001165
 179633951, 0.3957287, 0.03408907, -0.0009166319, -0.00910404, -0.09308096, 0.9973511, 0.3624172, 0.006462603, 0.02408152, -0.01572096, 0.005022757, 1.001325
 179833871, 0.2246093, 0.485797, -0.3421476, 0.02264567, -0.7664835, 0.6431076, 0.3957287, 0.03408907, -0.0009166319, -0.00910404, -0.09308096, 0.9973511
 180033791, 0.008926921, 0.5831801, -0.1456661, 0.1502541, -0.9511449, 0.2716182, 0.2246093, 0.485797, -0.3421476, 0.02264567, -0.7664835, 0.6431076
 180233711, -0.1224024, 0.5257429, -0.2766984, 0.4097276, -0.7977426, 0.4436523, 0.008926921, 0.5831801, -0.1456661, 0.1502541, -0.9511449, 0.2716182
 180433631, -0.1481839, 0.4810661, -0.3739665, 0.5409288, -0.591575, 0.5990671, -0.1224024, 0.5257429, -0.2766984, 0.4097276, -0.7977426, 0.4436523
 180633551, -0.198225, 0.4585028, -0.3696811, 0.5888536, -0.5668361, 0.5773027, -0.1481839, 0.4810661, -0.3739665, 0.5409288, -0.591575, 0.5990671
 180834304, -0.2586325, 0.4754849, -0.2936794, 0.6363835, -0.5803446, 0.5094107, -0.198225, 0.4585028, -0.3696811, 0.5888536, -0.5668361, 0.5773027
 181034224, -0.2821785, 0.4497143, -0.3139044, 0.6800919, -0.5380611, 0.4992293, -0.2586325, 0.4754849, -0.2936794, 0.6363835, -0.5803446, 0.5094107
 181234144, -0.3139395, 0.429369, -0.3143513, 0.7115809, -0.4723304, 0.5213991, -0.2821785, 0.4497143, -0.3139044, 0.6800919, -0.5380611, 0.4992293
 181434064, -0.3568264, 0.3935544, -0.3066424, 0.7409964, -0.4193322, 0.5256643, -0.3139395, 0.429369, -0.3143513, 0.7115809, -0.4723304, 0.5213991
 181633984, -0.3910318, 0.356769, -0.3025257, 0.7693076, -0.3737839, 0.5192575, -0.3568264, 0.3935544, -0.3066424, 0.7409964, -0.4193322, 0.5256643
 181833904, -0.4041118, 0.3531346, -0.3027282, 0.7961642, -0.3180845, 0.5159686, -0.3910318, 0.356769, -0.3025257, 0.7693076, -0.3737839, 0.5192575
 182033824, -0.4186049, 0.3121473, -0.3274074, 0.8178325, -0.252462, 0.5183237, -0.4041118, 0.3531346, -0.3027282, 0.7961642, -0.3180845, 0.5159686
 182233744, -0.4615197, 0.2740942, -0.295385, 0.8317463, -0.1914732, 0.5222735, -0.4186049, 0.3121473, -0.3274074, 0.8178325, -0.252462, 0.5183237
 182433664, -0.4762214, 0.2312307, -0.3044258, 0.8442114, -0.1329148, 0.5204121, -0.4615197, 0.2740942, -0.295385, 0.8317463, -0.1914732, 0.5222735
 182633584, -0.4871987, 0.1949744, -0.3126127, 0.8528027, -0.07093056, 0.5185296, -0.4762214, 0.2312307, -0.3044258, 0.8442114, -0.1329148, 0.5204121
 182833504, -0.5017486, 0.1741184, -0.3093001, 0.8553632, -0.005470755, 0.5191973, -0.4871987, 0.1949744, -0.3126127, 0.8528027, -0.07093056, 0.5185296
 183034257, -0.5066887, 0.1386484, -0.3215871, 0.852554, 0.06102253, 0.5202626, -0.5017486, 0.1741184, -0.3093001, 0.8553632, -0.005470755, 0.5191973
 183234177, -0.5201689, 0.09360576, -0.3126881, 0.8445833, 0.1244859, 0.5219309, -0.5066887, 0.1386484, -0.3215871, 0.852554, 0.06102253, 0.5202626
 183434097, -0.5220536, 0.04218262, -0.3153068, 0.8337857, 0.1876793, 0.5203431, -0.5201689, 0.09360576, -0.3126881, 0.8445833, 0.1244859, 0.5219309
 183634017, -0.5221872, 0.0007060915, -0.3173264, 0.8161682, 0.2509517, 0.5215974, -0.5220536, 0.04218262, -0.3153068, 0.8337857, 0.1876793, 0.5203431
 183833937, -0.5320287, -0.04525009, -0.2958406, 0.7898867, 0.3110277, 0.5296574, -0.5221872, 0.0007060915, -0.3173264, 0.8161682, 0.2509517, 0.5215974
 184033857, -0.5160671, -0.08469165, -0.3137189, 0.7581748, 0.3697927, 0.5381396, -0.5320287, -0.04525009, -0.2958406, 0.7898867, 0.3110277, 0.5296574
 184233777, -0.4996312, -0.121451, -0.3258992, 0.7252855, 0.4178935, 0.54815, -0.5160671, -0.08469165, -0.3137189, 0.7581748, 0.3697927, 0.5381396
 184433697, -0.510079, -0.1358581, -0.314784, 0.6896612, 0.4620218, 0.5587142, -0.4996312, -0.121451, -0.3258992, 0.7252855, 0.4178935, 0.54815
 184633617, -0.4736857, -0.1832834, -0.3338091, 0.6561725, 0.4963416, 0.5693975, -0.510079, -0.1358581, -0.314784, 0.6896612, 0.4620218, 0.5587142
 184833537, -0.4694836, -0.1839287, -0.3485237, 0.6188787, 0.5242597, 0.5859557, -0.4736857, -0.1832834, -0.3338091, 0.6561725, 0.4963416, 0.5693975
 185034290, -0.4802645, -0.1975484, -0.3356112, 0.5827906, 0.5484248, 0.6007519, -0.4694836, -0.1839287, -0.3485237, 0.6188787, 0.5242597, 0.5859557
 185234210, -0.4493408, -0.2351979, -0.3426385, 0.5474646, 0.5646179, 0.618636, -0.4802645, -0.1975484, -0.3356112, 0.5827906, 0.5484248, 0.6007519
 185434130, -0.4578233, -0.2275465, -0.3502682, 0.5145977, 0.5753168, 0.6368232, -0.4493408, -0.2351979, -0.3426385, 0.5474646, 0.5646179, 0.618636
 185634050, -0.4258471, -0.2375611, -0.3764172, 0.4839033, 0.5830445, 0.6535716, -0.4578233, -0.2275465, -0.3502682, 0.5145977, 0.5753168, 0.6368232
 185833970, -0.4250197, -0.2347853, -0.3860028, 0.4548226, 0.5872356, 0.6705329, -0.4258471, -0.2375611, -0.3764172, 0.4839033, 0.5830445, 0.6535716
 186033890, -0.4176647, -0.2340852, -0.3989604, 0.42075, 0.5854864, 0.6939323, -0.4250197, -0.2347853, -0.3860028, 0.4548226, 0.5872356, 0.6705329
 186233810, -0.4025022, -0.2639727, -0.3899063, 0.3922961, 0.5818736, 0.7133477, -0.4176647, -0.2340852, -0.3989604, 0.42075, 0.5854864, 0.6939323
 186433730, -0.4094033, -0.2441779, -0.4079005, 0.365065, 0.5771585, 0.7314815, -0.4025022, -0.2639727, -0.3899063, 0.3922961, 0.5818736, 0.7133477
 186633650, -0.3800876, -0.2628648, -0.4145226, 0.3397126, 0.5672408, 0.7511222, -0.4094033, -0.2441779, -0.4079005, 0.365065, 0.5771585, 0.7314815
 186833570, -0.4018639, -0.2577116, -0.4141947, 0.3095954, 0.5555155, 0.772725, -0.3800876, -0.2628648, -0.4145226, 0.3397126, 0.5672408, 0.7511222
 187033490, -0.39205, -0.2510521, -0.429326, 0.2845149, 0.5408713, 0.7925117, -0.4018639, -0.2577116, -0.4141947, 0.3095954, 0.5555155, 0.772725
 187234243, -0.3805405, -0.239602, -0.446332, 0.2639607, 0.5252643, 0.8099245, -0.39205, -0.2510521, -0.429326, 0.2845149, 0.5408713, 0.7925117
 187434163, -0.3879749, -0.2406411, -0.4474607, 0.2420479, 0.5035771, 0.8303574, -0.3805405, -0.239602, -0.446332, 0.2639607, 0.5252643, 0.8099245
 187634083, -0.4013348, -0.2259729, -0.4567267, 0.2212052, 0.4849881, 0.847166, -0.3879749, -0.2406411, -0.4474607, 0.2420479, 0.5035771, 0.8303574
 187834003, -0.3819477, -0.2158306, -0.4726136, 0.2047237, 0.4644619, 0.8626212, -0.4013348, -0.2259729, -0.4567267, 0.2212052, 0.4849881, 0.847166
 188033923, -0.3886392, -0.1921717, -0.4859641, 0.1898148, 0.4387489, 0.8793874, -0.3819477, -0.2158306, -0.4726136, 0.2047237, 0.4644619, 0.8626212
 188233843, -0.4173419, -0.1901816, -0.4812435, 0.1787747, 0.4234081, 0.8892983, -0.3886392, -0.1921717, -0.4859641, 0.1898148, 0.4387489, 0.8793874
 188433763, -0.4195504, -0.1957364, -0.4826124, 0.1615238, 0.4012799, 0.9028403, -0.4173419, -0.1901816, -0.4812435, 0.1787747, 0.4234081, 0.8892983
 188633683, -0.4280366, -0.1720072, -0.4951851, 0.1467384, 0.379882, 0.9146277, -0.4195504, -0.1957364, -0.4826124, 0.1615238, 0.4012799, 0.9028403
 188833603, -0.4010227, -0.1797885, -0.5009676, 0.1365419, 0.3527142, 0.9268931, -0.4280366, -0.1720072, -0.4951851, 0.1467384, 0.379882, 0.9146277
 189033523, -0.3978251, -0.1644106, -0.5108944, 0.1242394, 0.3269258, 0.9380249, -0.4010227, -0.1797885, -0.5009676, 0.1365419, 0.3527142, 0.9268931
 189234276, -0.4633794, -0.1564801, -0.505325, 0.1060783, 0.3039079, 0.9483822, -0.3978251, -0.1644106, -0.5108944, 0.1242394, 0.3269258, 0.9380249
 189434196, -0.3192352, 0.04655714, 0.06755947, 0.1040337, 0.2817063, 0.9551175, -0.4633794, -0.1564801, -0.505325, 0.1060783, 0.3039079, 0.9483822
 189634116, -0.3306328, 0.03160161, 0.1035107, 0.09565774, 0.2598282, 0.962271, -0.3192352, 0.04655714, 0.06755947, 0.1040337, 0.2817063, 0.9551175
 189834036, -0.3536004, 0.01442265, 0.1079051, 0.08293664, 0.2385008, 0.9691179, -0.3306328, 0.03160161, 0.1035107, 0.09565774, 0.2598282, 0.962271
 190033956, -0.3649229, 0.008839553, 0.07624197, 0.07375219, 0.2159215, 0.9751908, -0.3536004, 0.01442265, 0.1079051, 0.08293664, 0.2385008, 0.9691179
 190233876, -0.3522412, -0.001503954, 0.07456668, 0.06978653, 0.196642, 0.9794608, -0.3649229, 0.008839553, 0.07624197, 0.07375219, 0.2159215, 0.9751908
 190433796, -0.3419364, 0.01060538, 0.06836184, 0.06530844, 0.1789615, 0.9830643, -0.3522412, -0.001503954, 0.07456668, 0.06978653, 0.196642, 0.9794608
 190633716, -0.3461682, -0.01751385, 0.04262801, 0.06336899, 0.1590666, 0.9866331, -0.3419364, 0.01060538, 0.06836184, 0.06530844, 0.1789615, 0.9830643
 190833636, -0.3705694, -0.01333563, 0.04402649, 0.0587758, 0.1438406, 0.9894479, -0.3461682, -0.01751385, 0.04262801, 0.06336899, 0.1590666, 0.9866331
 191033556, -0.3435214, -0.02083275, 0.07087537, 0.05818957, 0.1292555, 0.9913151, -0.3705694, -0.01333563, 0.04402649, 0.0587758, 0.1438406, 0.9894479
 191233476, -0.3867187, -0.015684, 0.0424881, 0.04796139, 0.1169506, 0.9937286, -0.3435214, -0.02083275, 0.07087537, 0.05818957, 0.1292555, 0.9913151
 191434229, -0.3928737, -0.01731497, 0.06657729, 0.04159432, 0.1071121, 0.9952238, -0.3867187, -0.015684, 0.0424881, 0.04796139, 0.1169506, 0.9937286
 191634149, -0.376051, -0.03719091, 0.07189873, 0.04390845, 0.09386774, 0.996335, -0.3928737, -0.01731497, 0.06657729, 0.04159432, 0.1071121, 0.9952238
 191834069, -0.4256826, -0.02587619, 0.07474402, 0.03424303, 0.07951102, 0.9985027, -0.376051, -0.03719091, 0.07189873, 0.04390845, 0.09386774, 0.996335
 192033989, -0.3598192, -0.03635109, 0.03787593, 0.04385737, 0.07428105, 0.9978173, -0.4256826, -0.02587619, 0.07474402, 0.03424303, 0.07951102, 0.9985027
 192233909, -0.3976182, -0.03824007, 0.0403807, 0.03422863, 0.07088631, 0.9988223, -0.3598192, -0.03635109, 0.03787593, 0.04385737, 0.07428105, 0.9978173
 192433829, -0.3677672, -0.01645046, 0.06996516, 0.03742397, 0.05821731, 0.9992344, -0.3976182, -0.03824007, 0.0403807, 0.03422863, 0.07088631, 0.9988223
 192633749, -0.3984665, -0.02698805, 0.0372125, 0.03016626, 0.04920069, 1.000265, -0.3677672, -0.01645046, 0.06996516, 0.03742397, 0.05821731, 0.9992344
 192833669, -0.4137331, -0.02851458, 0.06840691, 0.02582031, 0.04368114, 1.000871, -0.3984665, -0.02698805, 0.0372125, 0.03016626, 0.04920069, 1.000265
 193033589, -0.4280546, -0.03219996, 0.06952982, 0.02245858, 0.03637995, 1.001447, -0.4137331, -0.02851458, 0.06840691, 0.02582031, 0.04368114, 1.000871
 193233509, -0.3824313, -0.04784196, 0.03479327, 0.02803988, 0.03273268, 1.000884, -0.4280546, -0.03219996, 0.06952982, 0.02245858, 0.03637995, 1.001447
 193434262, -0.4071617, -0.0320034, 0.0653408, 0.02120374, 0.03136501, 1.001389, -0.3824313, -0.04784196, 0.03479327, 0.02803988, 0.03273268, 1.000884
 193634182, -0.4079781, -0.05790226, 0.0350684, 0.01767934, 0.02650245, 1.001632, -0.4071617, -0.0320034, 0.0653408, 0.02120374, 0.03136501, 1.001389
 193834102, -0.4480206, -0.03632805, 0.0358974, 0.007591814, 0.01882337, 1.002451, -0.4079781, -0.05790226, 0.0350684, 0.01767934, 0.02650245, 1.001632
 194034022, -0.4569371, -0.04246456, 0.06735519, 0.005933702, 0.01441356, 1.002754, -0.4480206, -0.03632805, 0.0358974, 0.007591814, 0.01882337, 1.002451
 194233942, -0.4153102, -0.04811668, 0.06365424, 0.01330834, 0.01112976, 1.002132, -0.4569371, -0.04246456, 0.06735519, 0.005933702, 0.01441356, 1.002754
 194433862, -0.4660889, -0.05453379, 0.03512632, -0.002731651, 0.008251473, 1.003018, -0.4153102, -0.04811668, 0.06365424, 0.01330834, 0.01112976, 1.002132
 194633782, -0.4193972, -0.04055612, 0.03152004, 0.008067191, 0.008530671, 1.002243, -0.4660889, -0.05453379, 0.03512632, -0.002731651, 0.008251473, 1.003018
 194833702, -0.4065901, -0.04897271, 0.0597165, 0.007173408, 0.006000688, 1.002156, -0.4193972, -0.04055612, 0.03152004, 0.008067191, 0.008530671, 1.002243
 195033622, -0.4632839, -0.04869829, 0.0327429, -0.006383896, 0.003225327, 1.003019, -0.4065901, -0.04897271, 0.0597165, 0.007173408, 0.006000688, 1.002156
 195233542, -0.4481145, -0.06762239, 0.03178332, -0.004706703, 0.003644096, 1.002832, -0.4632839, -0.04869829, 0.0327429, -0.006383896, 0.003225327, 1.003019
 195434295, -0.4696387, -0.06606148, 0.03370209, -0.008866802, 0.004246222, 1.003193, -0.4481145, -0.06762239, 0.03178332, -0.004706703, 0.003644096, 1.002832
 195634215, -0.4316026, -0.04701645, 0.03119579, 0.0016343, 0.004700214, 1.002546, -0.4696387, -0.06606148, 0.03370209, -0.008866802, 0.004246222, 1.003193
 195834135, -0.4335204, -0.04829485, 0.02873192, -0.004374228, -0.0006942917, 1.002589, -0.4316026, -0.04701645, 0.03119579, 0.0016343, 0.004700214, 1.002546
 196034055, -0.4058557, -0.05269837, 0.02725094, 0.001864061, -0.001252735, 1.002215, -0.4335204, -0.04829485, 0.02873192, -0.004374228, -0.0006942917, 1.002589
 196233975, -0.4789358, -0.07324944, 0.03121502, -0.01760507, -0.004926717, 1.003334, -0.4058557, -0.05269837, 0.02725094, 0.001864061, -0.001252735, 1.002215
 196433895, -0.4030064, -0.04201182, 0.0252121, -0.001473811, -0.001357757, 1.002166, -0.4789358, -0.07324944, 0.03121502, -0.01760507, -0.004926717, 1.003334
 196633815, -0.477274, -0.05969782, 0.02960278, -0.01961526, -0.005189776, 1.003245, -0.4030064, -0.04201182, 0.0252121, -0.001473811, -0.001357757, 1.002166
 196833735, -0.4195513, -0.05364573, 0.02571819, -0.007231962, -0.001571514, 1.002411, -0.477274, -0.05969782, 0.02960278, -0.01961526, -0.005189776, 1.003245
 197033655, -0.4354511, -0.05065913, 0.02623283, -0.01158976, -0.00138692, 1.002614, -0.4195513, -0.05364573, 0.02571819, -0.007231962, -0.001571514, 1.002411
 197233575, -0.4717898, -0.06865898, 0.02819914, -0.02172424, -0.003074907, 1.003148, -0.4354511, -0.05065913, 0.02623283, -0.01158976, -0.00138692, 1.002614
 197433495, -0.4450322, -0.05750766, 0.02584326, -0.01583669, -0.00690891, 1.002718, -0.4717898, -0.06865898, 0.02819914, -0.02172424, -0.003074907, 1.003148
 197634248, -0.5051897, -0.07750468, 0.02859994, -0.03273196, -0.01242043, 1.003548, -0.4450322, -0.05750766, 0.02584326, -0.01583669, -0.00690891, 1.002718
 197834168, -0.5081934, -0.06219684, 0.02830611, -0.03366769, -0.01172181, 1.003552, -0.5051897, -0.07750468, 0.02859994, -0.03273196, -0.01242043, 1.003548
 198034088, -0.4668259, -0.05334266, 0.02493415, -0.02535519, -0.008971099, 1.002912, -0.5081934, -0.06219684, 0.02830611, -0.03366769, -0.01172181, 1.003552
 198234008, -0.4421446, -0.06781155, 0.02359791, -0.0205555, -0.008995079, 1.002615, -0.4668259, -0.05334266, 0.02493415, -0.02535519, -0.008971099, 1.002912
 198433928, -0.4739439, -0.07410367, 0.02399922, -0.03113315, -0.00995536, 1.002948, -0.4421446, -0.06781155, 0.02359791, -0.0205555, -0.008995079, 1.002615
 198633848, -0.421847, -0.06073275, 0.02109139, -0.01801779, -0.00920233, 1.002253, -0.4739439, -0.07410367, 0.02399922, -0.03113315, -0.00995536, 1.002948
 198833768, -0.4875517, -0.06911292, 0.02439637, -0.03437078, -0.01371599, 1.003077, -0.421847, -0.06073275, 0.02109139, -0.01801779, -0.00920233, 1.002253
 199033688, -0.4126465, -0.06374639, 0.02094419, -0.01633766, -0.009139446, 1.002216, -0.4875517, -0.06911292, 0.02439637, -0.03437078, -0.01371599, 1.003077
 199233608, -0.4422788, -0.0669177, 0.02030044, -0.02825393, -0.007508915, 1.002444, -0.4126465, -0.06374639, 0.02094419, -0.01633766, -0.009139446, 1.002216
 199433528, -0.469155, -0.06014882, 0.02125277, -0.03406259, -0.01169091, 1.002689, -0.4422788, -0.0669177, 0.02030044, -0.02825393, -0.007508915, 1.002444
 199634281, -0.510428, -0.06253535, 0.0242948, -0.0420896, -0.0140723, 1.003263, -0.469155, -0.06014882, 0.02125277, -0.03406259, -0.01169091, 1.002689
 199834201, -0.422428, -0.05993422, -0.009237543, -0.01886876, -0.01124642, 1.002251, -0.510428, -0.06253535, 0.0242948, -0.0420896, -0.0140723, 1.003263
 200034121, -0.5148118, -0.07766576, -0.00569332, -0.04373429, -0.01594465, 1.003285, -0.422428, -0.05993422, -0.009237543, -0.01886876, -0.01124642, 1.002251
 200234041, -0.5065973, -0.06604549, 0.02380891, -0.0412298, -0.0177603, 1.003149, -0.5148118, -0.07766576, -0.00569332, -0.04373429, -0.01594465, 1.003285
 200433961, -0.4865999, -0.07220045, 0.0229142, -0.03612405, -0.01923774, 1.002891, -0.5065973, -0.06604549, 0.02380891, -0.0412298, -0.0177603, 1.003149
 200633881, -0.4879575, -0.05786859, 0.02260904, -0.03652891, -0.0172619, 1.002876, -0.4865999, -0.07220045, 0.0229142, -0.03612405, -0.01923774, 1.002891
 200833801, -0.4893138, -0.07190144, 0.02144194, -0.0404907, -0.01494669, 1.00284, -0.4879575, -0.05786859, 0.02260904, -0.03652891, -0.0172619, 1.002876
 201033721, -0.4377643, -0.06939686, 0.0189695, -0.02833569, -0.01536298, 1.002258, -0.4893138, -0.07190144, 0.02144194, -0.0404907, -0.01494669, 1.00284
 201233641, -0.451176, -0.07110087, 0.01916897, -0.03216051, -0.01669571, 1.002358, -0.4377643, -0.06939686, 0.0189695, -0.02833569, -0.01536298, 1.002258
 201433561, -0.4530444, -0.07309534, 0.01863676, -0.03394825, -0.01696062, 1.002329, -0.451176, -0.07110087, 0.01916897, -0.03216051, -0.01669571, 1.002358
 201633481, -0.4178601, -0.0626458, 0.01827462, -0.02308949, -0.01492936, 1.002062, -0.4530444, -0.07309534, 0.01863676, -0.03394825, -0.01696062, 1.002329
 201834234, -0.5057787, -0.06023668, 0.02004982, -0.04782272, -0.01697704, 1.002801, -0.4178601, -0.0626458, 0.01827462, -0.02308949, -0.01492936, 1.002062
 202034154, -0.456924, -0.0671448, 0.01897782, -0.03410296, -0.01702237, 1.002373, -0.5057787, -0.06023668, 0.02004982, -0.04782272, -0.01697704, 1.002801
 202234074, -0.4212521, -0.05225522, 0.01817336, -0.02417492, -0.01210297, 1.002096, -0.456924, -0.0671448, 0.01897782, -0.03410296, -0.01702237, 1.002373
 202433994, -0.5042953, -0.06268969, 0.02101797, -0.04563682, -0.01590838, 1.002895, -0.4212521, -0.05225522, 0.01817336, -0.02417492, -0.01210297, 1.002096
 202633914, -0.4731013, -0.07214473, 0.01966803, -0.03806934, -0.01811717, 1.002537, -0.5042953, -0.06268969, 0.02101797, -0.04563682, -0.01590838, 1.002895
 202833834, -0.5091146, -0.07679066, 0.02114234, -0.04691949, -0.02271703, 1.002875, -0.4731013, -0.07214473, 0.01966803, -0.03806934, -0.01811717, 1.002537
 203033754, -0.4811766, -0.06622179, 0.01982157, -0.03941109, -0.02355581, 1.002516, -0.5091146, -0.07679066, 0.02114234, -0.04691949, -0.02271703, 1.002875
 203233674, -0.4914388, -0.06124555, 0.01999781, -0.04268039, -0.02006254, 1.002656, -0.4811766, -0.06622179, 0.01982157, -0.03941109, -0.02355581, 1.002516
 203433594, -0.4757642, -0.08204357, 0.01950824, -0.03993646, -0.01770097, 1.002562, -0.4914388, -0.06124555, 0.01999781, -0.04268039, -0.02006254, 1.002656
 203633514, -0.4474891, -0.05767667, 0.0176346, -0.03341826, -0.01743549, 1.00219, -0.4757642, -0.08204357, 0.01950824, -0.03993646, -0.01770097, 1.002562
 203834267, -0.4218818, -0.07703269, 0.01698582, -0.0274109, -0.01944145, 1.001977, -0.4474891, -0.05767667, 0.0176346, -0.03341826, -0.01743549, 1.00219
 204034187, -0.4957577, -0.06232981, 0.02054686, -0.04280789, -0.02267172, 1.002695, -0.4218818, -0.07703269, 0.01698582, -0.0274109, -0.01944145, 1.001977
 204234107, -0.4399151, -0.05544141, 0.03883567, -0.02847464, -0.01774263, 1.002223, -0.4957577, -0.06232981, 0.02054686, -0.04280789, -0.02267172, 1.002695
 204434027, -0.4952234, -0.07913323, 0.02147165, -0.04173686, -0.02161647, 1.002817, -0.4399151, -0.05544141, 0.03883567, -0.02847464, -0.01774263, 1.002223
 204633947, -0.493639, -0.08534598, 0.02073807, -0.04360049, -0.0180624, 1.002797, -0.4952234, -0.07913323, 0.02147165, -0.04173686, -0.02161647, 1.002817
 204833867, -0.4574414, -0.08149634, -0.01135192, -0.03562085, -0.01548377, 1.002372, -0.493639, -0.08534598, 0.02073807, -0.04360049, -0.0180624, 1.002797
 205033787, -0.4872313, -0.06563834, 0.01933705, -0.04262615, -0.02114111, 1.002552, -0.4574414, -0.08149634, -0.01135192, -0.03562085, -0.01548377, 1.002372
 205233707, -0.4733205, -0.05678868, 0.01938968, -0.03747575, -0.01977633, 1.002461, -0.4872313, -0.06563834, 0.01933705, -0.04262615, -0.02114111, 1.002552
 205433627, -0.4735631, -0.07932676, -0.01709099, -0.04146463, -0.01873901, 1.002369, -0.4733205, -0.05678868, 0.01938968, -0.03747575, -0.01977633, 1.002461
 205633547, -0.4193118, -0.06051299, -0.01310067, -0.02552648, -0.01820083, 1.001922, -0.4735631, -0.07932676, -0.01709099, -0.04146463, -0.01873901, 1.002369
 205834300, -0.5043436, -0.0708031, 0.02203747, -0.04273243, -0.02184147, 1.002896, -0.4193118, -0.06051299, -0.01310067, -0.02552648, -0.01820083, 1.001922
 206034220, -0.4562602, -0.05814708, 0.02032469, -0.02966259, -0.01972193, 1.002392, -0.5043436, -0.0708031, 0.02203747, -0.04273243, -0.02184147, 1.002896
 206234140, -0.4286909, -0.07380322, 0.01769256, -0.0274135, -0.01886842, 1.002052, -0.4562602, -0.05814708, 0.02032469, -0.02966259, -0.01972193, 1.002392
 206434060, -0.4289662, -0.0572833, 0.01823841, -0.02558749, -0.01776033, 1.002078, -0.4286909, -0.07380322, 0.01769256, -0.0274135, -0.01886842, 1.002052
 206633980, -0.4415974, -0.06134022, 0.01988993, -0.02663884, -0.01377767, 1.002327, -0.4289662, -0.0572833, 0.01823841, -0.02558749, -0.01776033, 1.002078
 206833900, -0.4275974, -0.07620464, 0.01946836, -0.02385807, -0.01375077, 1.002211, -0.4415974, -0.06134022, 0.01988993, -0.02663884, -0.01377767, 1.002327
 207033820, -0.4349127, -0.05241632, 0.01894126, -0.02573144, -0.01617424, 1.002174, -0.4275974, -0.07620464, 0.01946836, -0.02385807, -0.01375077, 1.002211
 207233740, -0.484505, -0.0715161, 0.0214621, -0.03755138, -0.01715427, 1.002744, -0.4349127, -0.05241632, 0.01894126, -0.02573144, -0.01617424, 1.002174
 207433660, -0.4789416, -0.0671543, 0.02232958, -0.03377996, -0.0158473, 1.002772, -0.484505, -0.0715161, 0.0214621, -0.03755138, -0.01715427, 1.002744
 207633580, -0.4709927, -0.08333184, 0.0236392, -0.02930291, -0.01575984, 1.002817, -0.4789416, -0.0671543, 0.02232958, -0.03377996, -0.0158473, 1.002772
 207833500, -0.4283009, -0.06923269, -0.00932363, -0.02034026, -0.01369201, 1.002253, -0.4709927, -0.08333184, 0.0236392, -0.02930291, -0.01575984, 1.002817
 208034253, -0.4743477, -0.06473403, 0.0226268, -0.03115057, -0.01479976, 1.002741, -0.4283009, -0.06923269, -0.00932363, -0.02034026, -0.01369201, 1.002253
 208234173, -0.4126494, -0.05714699, 0.01968862, -0.01614738, -0.01800271, 1.001991, -0.4743477, -0.06473403, 0.0226268, -0.03115057, -0.01479976, 1.002741
 208434093, -0.4439321, -0.06436258, 0.0218951, -0.02133832, -0.01831305, 1.002357, -0.4126494, -0.05714699, 0.01968862, -0.01614738, -0.01800271, 1.001991
 208634013, -0.4470479, -0.06214647, -0.006541038, -0.01793511, -0.01857361, 1.002414, -0.4439321, -0.06436258, 0.0218951, -0.02133832, -0.01831305, 1.002357
 208833933, -0.4555786, -0.06521887, 0.02384574, -0.02027644, -0.01907789, 1.002521, -0.4470479, -0.06214647, -0.006541038, -0.01793511, -0.01857361, 1.002414
 209033853, -0.4472828, -0.08120383, 0.02305449, -0.01929646, -0.01721931, 1.002407, -0.4555786, -0.06521887, 0.02384574, -0.02027644, -0.01907789, 1.002521
 209233773, -0.4547451, -0.06578426, 0.02255329, -0.02264656, -0.01719684, 1.002458, -0.4472828, -0.08120383, 0.02305449, -0.01929646, -0.01721931, 1.002407
 209433693, -0.4623014, -0.07492557, 0.02279449, -0.02388466, -0.0230597, 1.002445, -0.4547451, -0.06578426, 0.02255329, -0.02264656, -0.01719684, 1.002458
 209633613, -0.387963, -0.04593204, -0.009066315, 0.004527364, -0.07987101, 0.9986587, -0.4623014, -0.07492557, 0.02279449, -0.02388466, -0.0230597, 1.002445
 209833533, -0.418933, -0.044935, -0.03033204, 0.0176147, -0.1993686, 0.9819878, -0.387963, -0.04593204, -0.009066315, 0.004527364, -0.07987101, 0.9986587
 210034286, -0.3986097, -0.03591779, -0.005162191, 0.03146661, -0.3066669, 0.9532837, -0.418933, -0.044935, -0.03033204, 0.0176147, -0.1993686, 0.9819878
 210234206, -0.3665969, -0.03197241, -0.04234793, 0.03741342, -0.384368, 0.9240889, -0.3986097, -0.03591779, -0.005162191, 0.03146661, -0.3066669, 0.9532837
 210434126, -0.4274488, -0.01155413, -0.06166544, 0.02068114, -0.4531291, 0.8935216, -0.3665969, -0.03197241, -0.04234793, 0.03741342, -0.384368, 0.9240889
 210634046, -0.3700745, 0.01855992, -0.05879396, 0.01722727, -0.5220544, 0.8544767, -0.4274488, -0.01155413, -0.06166544, 0.02068114, -0.4531291, 0.8935216
 210833966, -0.3850851, 0.04842763, -0.054397, -0.006173741, -0.5807639, 0.815985, -0.3700745, 0.01855992, -0.05879396, 0.01722727, -0.5220544, 0.8544767
 211033886, -0.3423032, 0.08303972, -0.08107726, -0.03222742, -0.627058, 0.7799736, -0.3850851, 0.04842763, -0.054397, -0.006173741, -0.5807639, 0.815985
 211233806, -0.3008954, 0.08375979, -0.09702909, -0.07027619, -0.669461, 0.7410315, -0.3423032, 0.08303972, -0.08107726, -0.03222742, -0.627058, 0.7799736
 211433726, -0.2973193, 0.1097837, -0.08998738, -0.1126065, -0.6930017, 0.7136721, -0.3008954, 0.08375979, -0.09702909, -0.07027619, -0.669461, 0.7410315
 211633646, -0.2747693, 0.1408758, -0.07456207, -0.1560185, -0.7066584, 0.6916683, -0.2973193, 0.1097837, -0.08998738, -0.1126065, -0.6930017, 0.7136721
 211833566, -0.2857528, 0.158343, -0.07679454, -0.2031098, -0.7149189, 0.6707764, -0.2747693, 0.1408758, -0.07456207, -0.1560185, -0.7066584, 0.6916683
 212033486, -0.2414731, 0.1484063, -0.09473331, -0.2453728, -0.7161819, 0.6548645, -0.2857528, 0.158343, -0.07679454, -0.2031098, -0.7149189, 0.6707764
 212234239, -0.2335114, 0.1781392, -0.08016865, -0.2937394, -0.7070149, 0.6448628, -0.2414731, 0.1484063, -0.09473331, -0.2453728, -0.7161819, 0.6548645
 212434159, -0.182579, 0.1737846, -0.0818221, -0.3350818, -0.6946825, 0.6378214, -0.2335114, 0.1781392, -0.08016865, -0.2937394, -0.7070149, 0.6448628
 212634079, -0.2060741, 0.1842632, -0.09869773, -0.3772658, -0.6750661, 0.6355205, -0.182579, 0.1737846, -0.0818221, -0.3350818, -0.6946825, 0.6378214
 212833999, -0.1905074, 0.1985082, -0.0918812, -0.4111504, -0.6521695, 0.6383745, -0.2060741, 0.1842632, -0.09869773, -0.3772658, -0.6750661, 0.6355205
 213033919, -0.1883995, 0.2292601, -0.0758712, -0.4404779, -0.6233812, 0.6475987, -0.1905074, 0.1985082, -0.0918812, -0.4111504, -0.6521695, 0.6383745
 213233839, -0.1487479, 0.2218787, -0.07417663, -0.4657058, -0.5935005, 0.6577482, -0.1883995, 0.2292601, -0.0758712, -0.4404779, -0.6233812, 0.6475987
 213433759, -0.1424364, 0.2022817, -0.09815011, -0.4838176, -0.5662805, 0.6685486, -0.1487479, 0.2218787, -0.07417663, -0.4657058, -0.5935005, 0.6577482
 213633679, -0.1594951, 0.2438525, -0.08592641, -0.499651, -0.5323858, 0.6847748, -0.1424364, 0.2022817, -0.09815011, -0.4838176, -0.5662805, 0.6685486
 213833599, -0.1576537, 0.2501449, -0.08880771, -0.5050751, -0.5024335, 0.703216, -0.1594951, 0.2438525, -0.08592641, -0.499651, -0.5323858, 0.6847748
 214033519, -0.1435052, 0.2559766, -0.08277117, -0.5060769, -0.47647, 0.7203268, -0.1576537, 0.2501449, -0.08880771, -0.5050751, -0.5024335, 0.703216
 214234272, -0.163779, 0.273332, -0.09052997, -0.5040852, -0.4466782, 0.7407153, -0.1435052, 0.2559766, -0.08277117, -0.5060769, -0.47647, 0.7203268
 214434192, -0.1502855, 0.2955922, -0.07553728, -0.4968023, -0.4173883, 0.7624472, -0.163779, 0.273332, -0.09052997, -0.5040852, -0.4466782, 0.7407153
 214634112, -0.1654351, 0.2988465, -0.08629964, -0.4848904, -0.3929316, 0.7829442, -0.1502855, 0.2955922, -0.07553728, -0.4968023, -0.4173883, 0.7624472
 214834032, -0.1292818, 0.2879251, -0.07722281, -0.4670554, -0.3670566, 0.8058056, -0.1654351, 0.2988465, -0.08629964, -0.4848904, -0.3929316, 0.7829442
 215033952, -0.1674545, 0.3037323, -0.09253915, -0.4498864, -0.33782, 0.8283033, -0.1292818, 0.2879251, -0.07722281, -0.4670554, -0.3670566, 0.8058056
 215233872, -0.1470989, 0.302106, -0.0865165, -0.4197477, -0.3078449, 0.8552762, -0.1674545, 0.3037323, -0.09253915, -0.4498864, -0.33782, 0.8283033
 215433792, -0.1573768, 0.3217101, -0.0843891, -0.3902927, -0.281652, 0.8780953, -0.1470989, 0.302106, -0.0865165, -0.4197477, -0.3078449, 0.8552762
 215633712, -0.2330906, 0.2927319, 0.07868694, -0.3553859, -0.2523785, 0.9017331, -0.1573768, 0.3217101, -0.0843891, -0.3902927, -0.281652, 0.8780953
 215833632, -0.1959405, 0.2749026, 0.08521973, -0.3145642, -0.2323482, 0.9217913, -0.2330906, 0.2927319, 0.07868694, -0.3553859, -0.2523785, 0.9017331
 216033552, -0.2123777, 0.3205281, 0.06040621, -0.2815415, -0.2036205, 0.9394646, -0.1959405, 0.2749026, 0.08521973, -0.3145642, -0.2323482, 0.9217913
 216234305, -0.1938461, 0.3136507, 0.06300618, -0.2388037, -0.1813189, 0.9556094, -0.2123777, 0.3205281, 0.06040621, -0.2815415, -0.2036205, 0.9394646
 216434225, -0.1677219, 0.3052295, 0.06608708, -0.1922796, -0.1601819, 0.9696216, -0.1938461, 0.3136507, 0.06300618, -0.2388037, -0.1813189, 0.9556094
 216634145, -0.1983367, 0.3386905, 0.06802166, -0.1533272, -0.1308525, 0.9813012, -0.1677219, 0.3052295, 0.06608708, -0.1922796, -0.1601819, 0.9696216
 216834065, -0.1622996, 0.3305521, 0.0700688, -0.1069615, -0.1118139, 0.9895504, -0.1983367, 0.3386905, 0.06802166, -0.1533272, -0.1308525, 0.9813012
 217033985, -0.2017404, 0.3701014, 0.07288361, -0.07134656, -0.08103301, 0.9963043, -0.1622996, 0.3305521, 0.0700688, -0.1069615, -0.1118139, 0.9895504
 217233905, -0.1689252, 0.3372256, 0.06972511, -0.02466368, -0.06731413, 0.9991118, -0.2017404, 0.3701014, 0.07288361, -0.07134656, -0.08103301, 0.9963043
 217433825, -0.1516709, 0.3302565, 0.0365466, 0.02037175, -0.04380272, 1.00036, -0.1689252, 0.3372256, 0.06972511, -0.02466368, -0.06731413, 0.9991118
 217633745, -0.1803744, 0.389828, 0.04219438, 0.05125584, -0.01368648, 1.000821, -0.1516709, 0.3302565, 0.0365466, 0.02037175, -0.04380272, 1.00036
 217833665, -0.1999872, 0.3935007, 0.04366222, 0.08346244, 0.007282052, 0.9988896, -0.1803744, 0.389828, 0.04219438, 0.05125584, -0.01368648, 1.000821
 218033585, -0.2025709, 0.3780157, 0.04225631, 0.1149204, 0.02450991, 0.9953332, -0.1999872, 0.3935007, 0.04366222, 0.08346244, 0.007282052, 0.9988896
 218233505, -0.1886514, 0.3464084, 0.03717377, 0.1463023, 0.04049155, 0.9902816, -0.2025709, 0.3780157, 0.04225631, 0.1149204, 0.02450991, 0.9953332
 218434258, -0.1854676, 0.3446476, 0.035188, 0.1728785, 0.05842872, 0.9850523, -0.1886514, 0.3464084, 0.03717377, 0.1463023, 0.04049155, 0.9902816
 218634178, -0.1757432, 0.3341462, 0.03067265, 0.1960819, 0.07558074, 0.9793757, -0.1854676, 0.3446476, 0.035188, 0.1728785, 0.05842872, 0.9850523
 218834098, -0.2064776, 0.3614934, 0.03376105, 0.2149071, 0.1039518, 0.9732309, -0.1757432, 0.3341462, 0.03067265, 0.1960819, 0.07558074, 0.9793757
 219034018, -0.2068212, 0.3481004, 0.03216093, 0.2314468, 0.1183858, 0.9676342, -0.2064776, 0.3614934, 0.03376105, 0.2149071, 0.1039518, 0.9732309
 219233938, -0.2299911, 0.384479, 0.03186607, 0.2417798, 0.1445234, 0.9620797, -0.2068212, 0.3481004, 0.03216093, 0.2314468, 0.1183858, 0.9676342
 219433858, -0.2289702, 0.3571279, 0.000366386, 0.2544986, 0.1519257, 0.9572425, -0.2299911, 0.384479, 0.03186607, 0.2417798, 0.1445234, 0.9620797
 219633778, -0.2332813, 0.3271213, 0.002654858, 0.2691363, 0.1650015, 0.9508403, -0.2289702, 0.3571279, 0.000366386, 0.2544986, 0.1519257, 0.9572425
