TimeUS,CGpN,CGpE,CGpD,CGpe,PGpN,PGpE,PGpD,PGpe
 140033964, 0, 0, 0, 2.5, 0, 0, 0, 2.5
 140233884, 0, 0, 0, 2.5, 0, 0, 0, 2.5
 140433804, 0.009000001, -0.001, 0, 2.5, 0, 0, 0, 2.5
 140633724, 0.248, -0.026, 0, 2.5, 0.009000001, -0.001, 0, 2.5
 140833644, 0.932, -0.098, 0.012, 2.5, 0.248, -0.026, 0, 2.5
 141033564, 2.091, -0.219, 0.037, 2.5, 0.932, -0.098, 0.012, 2.5
 141233484, 3.697, -0.388, 0.074, 2.5, 2.091, -0.219, 0.037, 2.5
 141434237, 5.712, -0.601, 0.124, 2.5, 3.697, -0.388, 0.074, 2.5
 141634157, 7.838, -0.823, 0.181, 2.5, 5.712, -0.601, 0.124, 2.5
 141834077, 9.820001, -1.029, 0.239, 2.5, 7.838, -0.823, 0.181, 2.5
 142033997, 11.597, -1.218, 0.274, 2.5, 9.820001, -1.029, 0.239, 2.5
 142233917, 13.148, -1.382, 0.205, 2.5, 11.597, -1.218, 0.274, 2.5
 142433837, 14.594, -1.536, 0.238, 2.5, 13.148, -1.382, 0.205, 2.5
 142633757, 16.553, -1.757, -0.9160001, 2.5, 14.594, -1.536, 0.238, 2.5
 142833677, 18.224, -1.975, -1.925, 2.5, 16.553, -1.757, -0.9160001, 2.5
 143033597, 19.7, -2.113, -2.401, 2.5, 18.224, -1.975, -1.925, 2.5
 143233517, 21.002, -2.22, -2.833, 2.5, 19.7, -2.113, -2.401, 2.5
 143434270, 22.126, -2.359, -3.294, 2.5, 21.002, -2.22, -2.833, 2.5
 143634190, 23.093, -2.488, -3.726, 2.5, 22.126, -2.359, -3.294, 2.5
 143834110, 23.919, -2.593, -4.087, 2.5, 23.093, -2.488, -3.726, 2.5
 144034030, 24.616, -2.682, -4.437, 2.5, 23.919, -2.593, -4.087, 2.5
 144233950, 25.187, -2.764, -4.812, 2.5, 24.616, -2.682, -4.437, 2.5
 144433870, 25.679, -2.789, -5.109, 2.5, 25.187, -2.764, -4.812, 2.5
 144633790, 26.092, -2.801, -5.371, 2.5, 25.679, -2.789, -5.109, 2.5
 144833710, 26.448, -2.868, -5.51, 2.5, 26.092, -2.801, -5.371, 2.5
 145033630, 26.754, -2.901, -5.611, 2.5, 26.448, -2.868, -5.51, 2.5
 145233550, 27.016, -2.919, -5.723, 2.5, 26.754, -2.901, -5.611, 2.5
 145434303, 27.21, -2.947, -5.883, 2.5, 27.016, -2.919, -5.723, 2.5
 145634223, 27.407, -2.956, -5.928, 2.5, 27.21, -2.947, -5.883, 2.5
 145834143, 27.542, -2.971, -5.996, 2.5, 27.407, -2.956, -5.928, 2.5
 146034063, 27.651, -3, -6.053, 2.5, 27.542, -2.971, -5.996, 2.5
 146233983, 27.705, -3.027, -6.204, 2.5, 27.651, -3, -6.053, 2.5
 146433903, 27.793, -3.049, -6.162, 2.5, 27.705, -3.027, -6.204, 2.5
 146633823, 27.867, -3.057, -6.175, 2.5, 27.793, -3.049, -6.162, 2.5
 146833743, 27.949, -3.074, -6.112, 2.5, 27.867, -3.057, -6.175, 2.5
 147033663, 28.049, -3.042, -5.954, 2.5, 27.949, -3.074, -6.112, 2.5
 147233583, 28.156, -3.03, -5.778, 2.5, 28.049, -3.042, -5.954, 2.5
 147433503, 28.29, -3.054, -5.483, 2.5, 28.156, -3.03, -5.778, 2.5
 147634256, 28.405, -3.082, -5.263, 2.5, 28.29, -3.054, -5.483, 2.5
 147834176, 28.491, -3.126, -5.16, 2.5, 28.405, -3.082, -5.263, 2.5
 148034096, 28.562, -3.146, -4.934, 2.5, 28.491, -3.126, -5.16, 2.5
 148234016, 28.574, -3.13, -4.681, 2.5, 28.562, -3.146, -4.934, 2.5
 148433936, 28.595, -3.166, -4.452, 2.5, 28.574, -3.13, -4.681, 2.5
 148633856, 28.595, -3.191, -4.319, 2.5, 28.595, -3.166, -4.452, 2.5
 148833776, 28.581, -3.229, -4.015, 2.5, 28.595, -3.191, -4.319, 2.5
 149033696, 28.588, -2.816, -3.719, 2.5, 28.581, -3.229, -4.015, 2.5
 149233616, 28.584, -2.414, -3.38, 2.5, 28.588, -2.816, -3.719, 2.5
 149433536, 28.515, -2.335, -3.265, 2.5, 28.584, -2.414, -3.38, 2.5
 149634289, 28.442, -2.37, -3.004, 2.5, 28.515, -2.335, -3.265, 2.5
 149834209, 28.38, -2.22, -2.68, 2.5, 28.442, -2.37, -3.004, 2.5
 150034129, 28.335, -2.021, -2.293, 2.5, 28.38, -2.22, -2.68, 2.5
 150234049, 28.301, -1.877, -2.013, 2.5, 28.335, -2.021, -2.293, 2.5
 150433969, 28.255, -1.768, -1.894, 2.5, 28.301, -1.877, -2.013, 2.5
 150633889, 28.21, -1.653, -1.693, 2.5, 28.255, -1.768, -1.894, 2.5
 150833809, 28.176, -1.541, -1.454, 2.5, 28.21, -1.653, -1.693, 2.5
 151033729, 28.137, -1.451, -1.269, 2.5, 28.176, -1.541, -1.454, 2.5
 151233649, 28.119, -1.379, -0.946, 2.5, 28.137, -1.451, -1.269, 2.5
 151433569, 28.107, -1.323, -0.7180001, 2.5, 28.119, -1.379, -0.946, 2.5
 151633489, 28.086, -1.24, -0.624, 2.5, 28.107, -1.323, -0.7180001, 2.5
 151834242, 28.054, -1.145, -0.56, 2.5, 28.086, -1.24, -0.624, 2.5
 152034162, 28.026, -1.067, -0.49, 2.5, 28.054, -1.145, -0.56, 2.5
 152234082, 28.009, -1.021, -0.329, 2.5, 28.026, -1.067, -0.49, 2.5
 152434002, 27.989, -0.973, -0.151, 2.5, 28.009, -1.021, -0.329, 2.5
 152633922, 27.971, -0.9440001, -0.07, 2.5, 27.989, -0.973, -0.151, 2.5
 152833842, 27.97, -0.896, 0.115, 2.5, 27.971, -0.9440001, -0.07, 2.5
 153033762, 27.958, -0.839, 0.147, 2.5, 27.97, -0.896, 0.115, 2.5
 153233682, 27.952, -0.7830001, 0.169, 2.5, 27.958, -0.839, 0.147, 2.5
 153433602, 27.956, -0.742, 0.303, 2.5, 27.952, -0.7830001, 0.169, 2.5
 153633522, 27.955, -0.71, 0.431, 2.5, 27.956, -0.742, 0.303, 2.5
 153834275, 27.95, -0.669, 0.55, 2.5, 27.955, -0.71, 0.431, 2.5
 154034195, 27.952, -0.632, 0.569, 2.5, 27.95, -0.669, 0.55, 2.5
 154234115, 27.953, -0.5930001, 0.577, 2.5, 27.952, -0.632, 0.569, 2.5
 154434035, 27.953, -0.565, 0.6210001, 2.5, 27.953, -0.5930001, 0.577, 2.5
 154633955, 27.958, -0.53, 0.669, 2.5, 27.953, -0.565, 0.6210001, 2.5
 154833875, 27.964, -0.484, 0.671, 2.5, 27.958, -0.53, 0.669, 2.5
 155033795, 27.962, -0.45, 0.739, 2.5, 27.964, -0.484, 0.671, 2.5
 155233715, 27.971, -0.443, 0.8560001, 2.5, 27.962, -0.45, 0.739, 2.5
 155433635, 28.005, -0.437, 0.904, 2.5, 27.971, -0.443, 0.8560001, 2.5
 155633555, 28.022, -0.434, 0.95, 2.5, 28.005, -0.437, 0.904, 2.5
 155833475, 28.038, -0.422, 0.899, 2.5, 28.022, -0.434, 0.95, 2.5
 156034228, 28.068, -0.402, 0.8850001, 2.5, 28.038, -0.422, 0.899, 2.5
 156234148, 28.089, -0.371, 0.89, 2.5, 28.068, -0.402, 0.8850001, 2.5
 156434068, 28.112, -0.35, 0.932, 2.5, 28.089, -0.371, 0.89, 2.5
 156633988, 28.136, -0.319, 0.9080001, 2.5, 28.112, -0.35, 0.932, 2.5
 156833908, 28.153, -0.294, 0.915, 2.5, 28.136, -0.319, 0.9080001, 2.5
 157033828, 28.181, -0.277, 0.9720001, 2.5, 28.153, -0.294, 0.915, 2.5
 157233748, 28.21, -0.278, 0.989, 2.5, 28.181, -0.277, 0.9720001, 2.5
 157433668, 28.227, -0.266, 0.933, 2.5, 28.21, -0.278, 0.989, 2.5
 157633588, 28.25, -0.24, 0.872, 2.5, 28.227, -0.266, 0.933, 2.5
 157833508, 28.277, -0.229, 0.8420001, 2.5, 28.25, -0.24, 0.872, 2.5
 158034261, 28.3, -0.226, 0.878, 2.5, 28.277, -0.229, 0.8420001, 2.5
 158234181, 28.316, -0.224, 0.9020001, 2.5, 28.3, -0.226, 0.878, 2.5
 158434101, 28.338, -0.222, 0.882, 2.5, 28.316, -0.224, 0.9020001, 2.5
 158634021, 28.378, -0.22, 0.895, 2.5, 28.338, -0.222, 0.882, 2.5
 158833941, 28.401, -0.211, 0.9300001, 2.5, 28.378, -0.22, 0.895, 2.5
 159033861, 28.433, -0.213, 0.9080001, 2.5, 28.401, -0.211, 0.9300001, 2.5
 159233781, 28.45, -0.221, 0.923, 2.5, 28.433, -0.213, 0.9080001, 2.5
 159433701, 28.466, -0.209, 0.8290001, 2.5, 28.45, -0.221, 0.923, 2.5
 159633621, 28.498, -0.183, 0.802, 2.5, 28.466, -0.209, 0.8290001, 2.5
 159833541, 28.522, -0.158, 0.804, 2.5, 28.498, -0.183, 0.802, 2.5
 160034294, 28.524, -0.163, 0.7040001, 2.5, 28.522, -0.158, 0.804, 2.5
 160234214, 28.548, -0.204, 0.717, 2.5, 28.524, -0.163, 0.7040001, 2.5
 160434134, 28.585, -0.232, 0.735, 2.5, 28.548, -0.204, 0.717, 2.5
 160634054, 28.601, -0.185, 0.7730001, 2.5, 28.585, -0.232, 0.735, 2.5
 160833974, 28.633, -0.158, 0.692, 2.5, 28.601, -0.185, 0.7730001, 2.5
 161033894, 28.652, -0.176, 0.729, 2.5, 28.633, -0.158, 0.692, 2.5
 161233814, 28.668, -0.177, 0.643, 2.5, 28.652, -0.176, 0.729, 2.5
 161433734, 28.675, -0.145, 0.557, 2.5, 28.668, -0.177, 0.643, 2.5
 161633654, 28.682, -0.135, 0.576, 2.5, 28.675, -0.145, 0.557, 2.5
 161833574, 28.714, -0.11, 0.603, 2.5, 28.682, -0.135, 0.576, 2.5
 162033494, 28.736, -0.093, 0.585, 2.5, 28.714, -0.11, 0.603, 2.5
 162234247, 28.758, -0.096, 0.623, 2.5, 28.736, -0.093, 0.585, 2.5
 162434167, 28.769, -0.086, 0.605, 2.5, 28.758, -0.096, 0.623, 2.5
 162634087, 28.786, -0.064, 0.573, 2.5, 28.769, -0.086, 0.605, 2.5
 162834007, 28.811, -0.07, 0.522, 2.5, 28.786, -0.064, 0.573, 2.5
 163033927, 28.832, -0.09100001, 0.562, 2.5, 28.811, -0.07, 0.522, 2.5
 163233847, 28.831, -0.09500001, 0.592, 2.5, 28.832, -0.09100001, 0.562, 2.5
 163433767, 28.879, -0.117, 0.573, 2.5, 28.831, -0.09500001, 0.592, 2.5
 163633687, 28.906, -0.122, 0.571, 2.5, 28.879, -0.117, 0.573, 2.5
 163833607, 28.902, -0.125, 0.5100001, 2.5, 28.906, -0.122, 0.571, 2.5
 164033527, 28.941, -0.126, 0.535, 2.5, 28.902, -0.125, 0.5100001, 2.5
 164234280, 28.976, -0.111, 0.48, 2.5, 28.941, -0.126, 0.535, 2.5
 164434200, 28.984, -0.11, 0.473, 2.5, 28.976, -0.111, 0.48, 2.5
 164634120, 28.998, -0.124, 0.438, 2.5, 28.984, -0.11, 0.473, 2.5
 164834040, 28.998, -0.13, 0.409, 2.5, 28.998, -0.124, 0.438, 2.5
 165033960, 29.016, -0.127, 0.426, 2.5, 28.998, -0.13, 0.409, 2.5
 165233880, 29.031, -0.118, 0.426, 2.5, 29.016, -0.127, 0.426, 2.5
 165433800, 29.045, -0.127, 0.417, 2.5, 29.031, -0.118, 0.426, 2.5
 165633720, 29.045, -0.103, 0.431, 2.5, 29.045, -0.127, 0.417, 2.5
 165833640, 29.049, -0.128, 0.378, 2.5, 29.045, -0.103, 0.431, 2.5
 166033560, 29.076, -0.137, 0.342, 2.5, 29.049, -0.128, 0.378, 2.5
 166233480, 29.085, -0.136, 0.321, 2.5, 29.076, -0.137, 0.342, 2.5
 166434233, 29.098, -0.127, 0.281, 2.5, 29.085, -0.136, 0.321, 2.5
 166634153, 29.11, -0.125, 0.258, 2.5, 29.098, -0.127, 0.281, 2.5
 166834073, 29.12, -0.13, 0.229, 2.5, 29.11, -0.125, 0.258, 2.5
 167033993, 29.139, -0.135, 0.206, 2.5, 29.12, -0.13, 0.229, 2.5
 167233913, 29.154, -0.14, 0.271, 2.5, 29.139, -0.135, 0.206, 2.5
 167433833, 29.167, -0.14, 0.249, 2.5, 29.154, -0.14, 0.271, 2.5
 167633753, 29.177, -0.124, 0.195, 2.5, 29.167, -0.14, 0.249, 2.5
 167833673, 29.181, -0.104, 0.163, 2.5, 29.177, -0.124, 0.195, 2.5
 168033593, 29.184, -0.083, 0.146, 2.5, 29.181, -0.104, 0.163, 2.5
 168233513, 29.188, -0.07600001, 0.098, 2.5, 29.184, -0.083, 0.146, 2.5
 168434266, 29.184, -0.062, 0.05, 2.5, 29.188, -0.07600001, 0.098, 2.5
 168634186, 29.177, -0.09, 0.094, 2.5, 29.184, -0.062, 0.05, 2.5
 168834106, 29.179, -0.08800001, 0.126, 2.5, 29.177, -0.09, 0.094, 2.5
 169034026, 29.178, -0.075, 0.071, 2.5, 29.179, -0.08800001, 0.126, 2.5
 169233946, 29.175, -0.066, 0.098, 2.5, 29.178, -0.075, 0.071, 2.5
 169433866, 29.175, -0.06, 0.208, 2.5, 29.175, -0.066, 0.098, 2.5
 169633786, 29.185, -0.082, 0.24, 2.5, 29.175, -0.06, 0.208, 2.5
 169833706, 29.192, -0.07300001, 0.16, 2.5, 29.185, -0.082, 0.24, 2.5
 170033626, 29.196, -0.068, 0.06900001, 2.5, 29.192, -0.07300001, 0.16, 2.5
 170233546, 29.214, -0.09200001, 0.097, 2.5, 29.196, -0.068, 0.06900001, 2.5
 170434299, 29.227, -0.083, 0.122, 2.5, 29.214, -0.09200001, 0.097, 2.5
 170634219, 29.247, -0.08400001, 0.172, 2.5, 29.227, -0.083, 0.122, 2.5
 170834139, 29.254, -0.106, 0.197, 2.5, 29.247, -0.08400001, 0.172, 2.5
 171034059, 29.268, -0.133, 0.131, 2.5, 29.254, -0.106, 0.197, 2.5
 171233979, 29.267, -0.121, 0.064, 2.5, 29.268, -0.133, 0.131, 2.5
 171433899, 29.293, -0.119, 0.082, 2.5, 29.267, -0.121, 0.064, 2.5
 171633819, 29.299, -0.116, 0.071, 2.5, 29.293, -0.119, 0.082, 2.5
 171833739, 29.291, -0.108, 0.115, 2.5, 29.299, -0.116, 0.071, 2.5
 172033659, 29.251, -0.067, 0.083, 2.5, 29.291, -0.108, 0.115, 2.5
 172233579, 29.274, -0.067, 0.08800001, 2.5, 29.251, -0.067, 0.083, 2.5
 172433499, 29.305, -0.086, 0.083, 2.5, 29.274, -0.067, 0.08800001, 2.5
 172634252, 29.236, -0.08400001, 0.047, 2.5, 29.305, -0.086, 0.083, 2.5
 172834172, 29.222, -0.1, -0.005, 2.5, 29.236, -0.08400001, 0.047, 2.5
 173034092, 29.266, -0.086, -0.001, 2.5, 29.222, -0.1, -0.005, 2.5
 173234012, 29.317, -0.052, 0.064, 2.5, 29.266, -0.086, -0.001, 2.5
 173433932, 29.251, -0.038, 0.053, 2.5, 29.317, -0.052, 0.064, 2.5
 173633852, 29.219, -0.026, 0.045, 2.5, 29.251, -0.038, 0.053, 2.5
 173833772, 29.241, 0.012, 0.023, 2.5, 29.219, -0.026, 0.045, 2.5
 174033692, 29.309, 0.017, -0.022, 2.5, 29.241, 0.012, 0.023, 2.5
 174233612, 29.301, 0.043, -0.042, 2.5, 29.309, 0.017, -0.022, 2.5
 174433532, 29.225, 0.068, -0.046, 2.5, 29.301, 0.043, -0.042, 2.5
 174634285, 29.221, 0.097, -0.06500001, 2.5, 29.225, 0.068, -0.046, 2.5
 174834205, 29.231, 0.093, -0.009000001, 2.5, 29.221, 0.097, -0.06500001, 2.5
 175034125, 29.272, 0.083, 0.033, 2.5, 29.231, 0.093, -0.009000001, 2.5
 175234045, 29.313, 0.086, 0.043, 2.5, 29.272, 0.083, 0.033, 2.5
 175433965, 29.257, 0.087, 0.033, 2.5, 29.313, 0.086, 0.043, 2.5
 175633885, 29.226, 0.102, 0.035, 2.5, 29.257, 0.087, 0.033, 2.5
 175833805, 29.264, 0.111, 0.007, 2.5, 29.226, 0.102, 0.035, 2.5
 176033725, 29.321, 0.132, 0.023, 2.5, 29.264, 0.111, 0.007, 2.5
 176233645, 29.319, 0.131, 0.04, 2.5, 29.321, 0.132, 0.023, 2.5
 176433565, 29.309, 0.118, -0.059, 2.5, 29.319, 0.131, 0.04, 2.5
 176633485, 29.31, 0.101, -0.102, 2.5, 29.309, 0.118, -0.059, 2.5
 176834238, 29.309, 0.093, -0.06, 2.5, 29.31, 0.101, -0.102, 2.5
 177034158, 29.306, 0.114, -0.04, 2.5, 29.309, 0.093, -0.06, 2.5
 177234078, 29.275, 0.126, 0.039, 2.5, 29.306, 0.114, -0.04, 2.5
 177433998, 29.301, 0.134, 0.07300001, 2.5, 29.275, 0.126, 0.039, 2.5
 177633918, 29.313, 0.128, 0.106, 2.5, 29.301, 0.134, 0.07300001, 2.5
 177833838, 29.321, 0.114, 0.074, 2.5, 29.313, 0.128, 0.106, 2.5
 178033758, 29.318, 0.126, -0.019, 2.5, 29.321, 0.114, 0.074, 2.5
 178233678, 29.309, 0.115, -0.133, 2.5, 29.318, 0.126, -0.019, 2.5
 178433598, 29.299, 0.118, -0.096, 2.5, 29.309, 0.115, -0.133, 2.5
 178633518, 29.301, 0.114, -0.043, 2.5, 29.299, 0.118, -0.096, 2.5
 178834271, 29.3, 0.118, -0.003, 2.5, 29.301, 0.114, -0.043, 2.5
 179034191, 29.3, 0.151, 0.022, 2.5, 29.3, 0.118, -0.003, 2.5
 179234111, 29.303, 0.177, 0.057, 2.5, 29.3, 0.151, 0.022, 2.5
 179434031, 29.306, 0.213, 0.014, 2.5, 29.303, 0.177, 0.057, 2.5
 179633951, 29.308, 0.232, 0.008, 2.5, 29.306, 0.213, 0.014, 2.5
 179833871, 29.307, 0.256, 0.009000001, 2.5, 29.308, 0.232, 0.008, 2.5
 180033791, 29.301, 0.248, -0.04, 2.5, 29.307, 0.256, 0.009000001, 2.5
 180233711, 29.295, 0.395, -0.06, 2.5, 29.301, 0.248, -0.04, 2.5
 180433631, 29.247, -0.522, -0.399, 2.5, 29.295, 0.395, -0.06, 2.5
 180633551, 29, -3.748, 0.7820001, 2.5, 29.247, -0.522, -0.399, 2.5
 180834304, 27.704, -9.682, 0.5330001, 2.5, 29, -3.748, 0.7820001, 2.5
 181034224, 24.796, -15.565, -2.429, 2.5, 27.704, -9.682, 0.5330001, 2.5
 181234144, 23.458, -17.466, -3.325, 2.5, 24.796, -15.565, -2.429, 2.5
 181434064, 22.931, -18.037, -2.541, 2.5, 23.458, -17.466, -3.325, 2.5
 181633984, 22.233, -18.55, -1.625, 2.5, 22.931, -18.037, -2.541, 2.5
 181833904, 21.248, -19.427, -1.166, 2.5, 22.233, -18.55, -1.625, 2.5
 182033824, 20.152, -20.458, -0.9300001, 2.5, 21.248, -19.427, -1.166, 2.5
 182233744, 18.998, -21.474, -0.753, 2.5, 20.152, -20.458, -0.9300001, 2.5
 182433664, 17.842, -22.385, -0.55, 2.5, 18.998, -21.474, -0.753, 2.5
 182633584, 16.645, -23.231, -0.374, 2.5, 17.842, -22.385, -0.55, 2.5
 182833504, 15.413, -24.011, -0.207, 2.5, 16.645, -23.231, -0.374, 2.5
 183034257, 14.148, -24.74, -0.083, 2.5, 15.413, -24.011, -0.207, 2.5
 183234177, 12.897, -25.381, 0.081, 2.5, 14.148, -24.74, -0.083, 2.5
 183434097, 11.644, -25.948, 0.201, 2.5, 12.897, -25.381, 0.081, 2.5
 183634017, 10.413, -26.445, 0.294, 2.5, 11.644, -25.948, 0.201, 2.5
 183833937, 9.226001, -26.851, 0.431, 2.5, 10.413, -26.445, 0.294, 2.5
 184033857, 8.092, -27.189, 0.588, 2.5, 9.226001, -26.851, 0.431, 2.5
 184233777, 6.945, -27.486, 0.716, 2.5, 8.092, -27.189, 0.588, 2.5
 184433697, 5.789001, -27.745, 0.7870001, 2.5, 6.945, -27.486, 0.716, 2.5
 184633617, 4.698, -27.932, 0.845, 2.5, 5.789001, -27.745, 0.7870001, 2.5
 184833537, 3.714, -28.05, 0.969, 2.5, 4.698, -27.932, 0.845, 2.5
 185034290, 2.752, -28.137, 1.065, 2.5, 3.714, -28.05, 0.969, 2.5
 185234210, 1.809, -28.192, 1.134, 2.5, 2.752, -28.137, 1.065, 2.5
 185434130, 0.941, -28.22, 1.255, 2.5, 1.809, -28.192, 1.134, 2.5
 185634050, 0.111, -28.229, 1.304, 2.5, 0.941, -28.22, 1.255, 2.5
 185833970, -0.647, -28.237, 1.37, 2.5, 0.111, -28.229, 1.304, 2.5
 186033890, -1.366, -28.226, 1.413, 2.5, -0.647, -28.237, 1.37, 2.5
 186233810, -2.037, -28.212, 1.402, 2.5, -1.366, -28.226, 1.413, 2.5
 186433730, -2.624, -28.182, 1.406, 2.5, -2.037, -28.212, 1.402, 2.5
 186633650, -3.124, -28.149, 1.391, 2.5, -2.624, -28.182, 1.406, 2.5
 186833570, -3.593, -28.113, 1.349, 2.5, -3.124, -28.149, 1.391, 2.5
 187033490, -4.016, -28.072, 1.293, 2.5, -3.593, -28.113, 1.349, 2.5
 187234243, -4.358, -28.038, 1.28, 2.5, -4.016, -28.072, 1.293, 2.5
 187434163, -4.667, -28.015, 1.287, 2.5, -4.358, -28.038, 1.28, 2.5
 187634083, -4.958, -28, 1.226, 2.5, -4.667, -28.015, 1.287, 2.5
 187834003, -5.184, -27.995, 1.138, 2.5, -4.958, -28, 1.226, 2.5
 188033923, -5.376, -27.995, 1.171, 2.5, -5.184, -27.995, 1.138, 2.5
 188233843, -5.528, -28.006, 1.171, 2.5, -5.376, -27.995, 1.171, 2.5
 188433763, -5.617, -28.026, 1.001, 2.5, -5.528, -28.006, 1.171, 2.5
 188633683, -5.677, -28.039, 0.932, 2.5, -5.617, -28.026, 1.001, 2.5
 188833603, -5.702, -28.06, 0.826, 2.5, -5.677, -28.039, 0.932, 2.5
 189033523, -5.693, -28.081, 0.734, 2.5, -5.702, -28.06, 0.826, 2.5
 189234276, -5.678, -28.091, 0.657, 2.5, -5.693, -28.081, 0.734, 2.5
 189434196, -5.627, -28.108, 0.637, 2.5, -5.678, -28.091, 0.657, 2.5
 189634116, -5.514, -28.134, 0.61, 2.5, -5.627, -28.108, 0.637, 2.5
 189834036, -5.397, -28.156, 0.486, 2.5, -5.514, -28.134, 0.61, 2.5
 190033956, -5.274, -28.183, 0.395, 2.5, -5.397, -28.156, 0.486, 2.5
 190233876, -5.112, -28.222, 0.348, 2.5, -5.274, -28.183, 0.395, 2.5
 190433796, -4.962, -28.258, 0.262, 2.5, -5.112, -28.222, 0.348, 2.5
 190633716, -4.801, -28.289, 0.278, 2.5, -4.962, -28.258, 0.262, 2.5
 190833636, -4.65, -28.315, 0.322, 2.5, -4.801, -28.289, 0.278, 2.5
 191033556, -4.486, -28.365, 0.259, 2.5, -4.65, -28.315, 0.322, 2.5
 191233476, -4.3, -28.406, 0.189, 2.5, -4.486, -28.365, 0.259, 2.5
 191434229, -4.079, -28.45, 0.08000001, 2.5, -4.3, -28.406, 0.189, 2.5
 191634149, -3.878, -28.474, 0.083, 2.5, -4.079, -28.45, 0.08000001, 2.5
 191834069, -3.684, -28.506, 0.061, 2.5, -3.878, -28.474, 0.083, 2.5
 192033989, -3.451, -28.538, 0.013, 2.5, -3.684, -28.506, 0.061, 2.5
 192233909, -3.209, -28.569, -0.036, 2.5, -3.451, -28.538, 0.013, 2.5
 192433829, -3.008, -28.595, -0.07, 2.5, -3.209, -28.569, -0.036, 2.5
 192633749, -2.782, -28.632, -0.108, 2.5, -3.008, -28.595, -0.07, 2.5
 192833669, -2.585, -28.669, -0.13, 2.5, -2.782, -28.632, -0.108, 2.5
 193033589, -2.421, -28.681, -0.129, 2.5, -2.585, -28.669, -0.13, 2.5
 193233509, -2.239, -28.705, -0.193, 2.5, -2.421, -28.681, -0.129, 2.5
 193434262, -2.03, -28.735, -0.22, 2.5, -2.239, -28.705, -0.193, 2.5
 193634182, -1.836, -28.741, -0.285, 2.5, -2.03, -28.735, -0.22, 2.5
 193834102, -1.658, -28.754, -0.335, 2.5, -1.836, -28.741, -0.285, 2.5
 194034022, -1.499, -28.762, -0.275, 2.5, -1.658, -28.754, -0.335, 2.5
 194233942, -1.341, -28.778, -0.27, 2.5, -1.499, -28.762, -0.275, 2.5
 194433862, -1.188, -28.784, -0.397, 2.5, -1.341, -28.778, -0.27, 2.5
 194633782, -1.059, -28.787, -0.377, 2.5, -1.188, -28.784, -0.397, 2.5
 194833702, -0.927, -28.804, -0.411, 2.5, -1.059, -28.787, -0.377, 2.5
 195033622, -0.8010001, -28.828, -0.416, 2.5, -0.927, -28.804, -0.411, 2.5
 195233542, -0.68, -28.853, -0.389, 2.5, -0.8010001, -28.828, -0.416, 2.5
 195434295, -0.5930001, -28.866, -0.342, 2.5, -0.68, -28.853, -0.389, 2.5
 195634215, -0.499, -28.903, -0.232, 2.5, -0.5930001, -28.866, -0.342, 2.5
 195834135, -0.375, -28.922, -0.372, 2.5, -0.499, -28.903, -0.232, 2.5
 196034055, -0.281, -28.928, -0.389, 2.5, -0.375, -28.922, -0.372, 2.5
 196233975, -0.197, -28.932, -0.434, 2.5, -0.281, -28.928, -0.389, 2.5
 196433895, -0.135, -28.94, -0.472, 2.5, -0.197, -28.932, -0.434, 2.5
 196633815, -0.087, -28.957, -0.486, 2.5, -0.135, -28.94, -0.472, 2.5
 196833735, -0.046, -28.985, -0.486, 2.5, -0.087, -28.957, -0.486, 2.5
 197033655, 0.033, -28.994, -0.49, 2.5, -0.046, -28.985, -0.486, 2.5
 197233575, 0.167, -29.001, -0.465, 2.5, 0.033, -28.994, -0.49, 2.5
 197433495, 0.211, -29.019, -0.468, 2.5, 0.167, -29.001, -0.465, 2.5
 197634248, 0.254, -29.024, -0.481, 2.5, 0.211, -29.019, -0.468, 2.5
 197834168, 0.271, -29.037, -0.449, 2.5, 0.254, -29.024, -0.481, 2.5
 198034088, 0.306, -29.039, -0.505, 2.5, 0.271, -29.037, -0.449, 2.5
 198234008, 0.321, -29.05, -0.504, 2.5, 0.306, -29.039, -0.505, 2.5
 198433928, 0.324, -29.055, -0.557, 2.5, 0.321, -29.05, -0.504, 2.5
 198633848, 0.33, -29.057, -0.569, 2.5, 0.324, -29.055, -0.557, 2.5
 198833768, 0.329, -29.057, -0.525, 2.5, 0.33, -29.057, -0.569, 2.5
 199033688, 0.349, -29.054, -0.479, 2.5, 0.329, -29.057, -0.525, 2.5
 199233608, 0.357, -29.04, -0.606, 2.5, 0.349, -29.054, -0.479, 2.5
 199433528, 0.333, -29.016, -0.577, 2.5, 0.357, -29.04, -0.606, 2.5
 199634281, 0.356, -29.006, -0.492, 2.5, 0.333, -29.016, -0.577, 2.5
 199834201, 0.361, -28.998, -0.427, 2.5, 0.356, -29.006, -0.492, 2.5
 200034121, 0.356, -28.99, -0.441, 2.5, 0.361, -28.998, -0.427, 2.5
 200234041, 0.4, -28.992, -0.386, 2.5, 0.356, -28.99, -0.441, 2.5
 200433961, 0.361, -28.994, -0.367, 2.5, 0.4, -28.992, -0.386, 2.5
 200633881, 0.31, -29.005, -0.346, 2.5, 0.361, -28.994, -0.367, 2.5
 200833801, 0.402, -29.019, -0.394, 2.5, 0.31, -29.005, -0.346, 2.5
 201033721, 0.459, -29.017, -0.375, 2.5, 0.402, -29.019, -0.394, 2.5
 201233641, 0.486, -29.012, -0.364, 2.5, 0.459, -29.017, -0.375, 2.5
 201433561, 0.473, -29.002, -0.374, 2.5, 0.486, -29.012, -0.364, 2.5
 201633481, 0.45, -29, -0.296, 2.5, 0.473, -29.002, -0.374, 2.5
 201834234, 0.429, -28.994, -0.397, 2.5, 0.45, -29, -0.296, 2.5
 202034154, 0.303, -28.99, -0.353, 2.5, 0.429, -28.994, -0.397, 2.5
 202234074, 0.278, -28.993, -0.289, 2.5, 0.303, -28.99, -0.353, 2.5
 202433994, 0.268, -28.992, -0.295, 2.5, 0.278, -28.993, -0.289, 2.5
 202633914, 0.261, -28.992, -0.276, 2.5, 0.268, -28.992, -0.295, 2.5
 202833834, 0.219, -28.994, -0.265, 2.5, 0.261, -28.992, -0.276, 2.5
 203033754, 0.219, -28.98, -0.258, 2.5, 0.219, -28.994, -0.265, 2.5
 203233674, 0.198, -28.963, -0.248, 2.5, 0.219, -28.98, -0.258, 2.5
 203433594, 0.186, -28.962, -0.228, 2.5, 0.198, -28.963, -0.248, 2.5
 203633514, 0.16, -28.992, -0.249, 2.5, 0.186, -28.962, -0.228, 2.5
 203834267, 0.139, -28.958, -0.24, 2.5, 0.16, -28.992, -0.249, 2.5
 204034187, 0.1, -29.011, -0.184, 2.5, 0.139, -28.958, -0.24, 2.5
 204234107, 0.066, -29.013, -0.152, 2.5, 0.1, -29.011, -0.184, 2.5
 204434027, 0.046, -29.003, -0.153, 2.5, 0.066, -29.013, -0.152, 2.5
 204633947, 0.036, -29.003, -0.194, 2.5, 0.046, -29.003, -0.153, 2.5
 204833867, 0.024, -29.01, -0.201, 2.5, 0.036, -29.003, -0.194, 2.5
 205033787, -0.012, -29.015, -0.197, 2.5, 0.024, -29.01, -0.201, 2.5
 205233707, -0.017, -29.021, -0.167, 2.5, -0.012, -29.015, -0.197, 2.5
 205433627, -0.009000001, -29.012, -0.225, 2.5, -0.017, -29.021, -0.167, 2.5
 205633547, -0.038, -29.014, -0.199, 2.5, -0.009000001, -29.012, -0.225, 2.5
 205834300, -0.082, -29.014, -0.127, 2.5, -0.038, -29.014, -0.199, 2.5
 206034220, -0.121, -29.006, -0.097, 2.5, -0.082, -29.014, -0.127, 2.5
 206234140, -0.142, -28.979, -0.195, 2.5, -0.121, -29.006, -0.097, 2.5
 206434060, -0.182, -28.954, -0.188, 2.5, -0.142, -28.979, -0.195, 2.5
 206633980, -0.183, -29.019, -0.11, 2.5, -0.182, -28.954, -0.188, 2.5
 206833900, -0.192, -29.017, -0.114, 2.5, -0.183, -29.019, -0.11, 2.5
 207033820, -0.209, -28.946, -0.144, 2.5, -0.192, -29.017, -0.114, 2.5
 207233740, -0.215, -28.925, -0.139, 2.5, -0.209, -28.946, -0.144, 2.5
 207433660, -0.187, -28.942, -0.071, 2.5, -0.215, -28.925, -0.139, 2.5
 207633580, -0.171, -28.993, 0.01, 2.5, -0.187, -28.942, -0.071, 2.5
 207833500, -0.166, -29.011, -0.035, 2.5, -0.171, -28.993, 0.01, 2.5
 208034253, -0.158, -28.939, -0.122, 2.5, -0.166, -29.011, -0.035, 2.5
 208234173, -0.163, -28.922, -0.125, 2.5, -0.158, -28.939, -0.122, 2.5
 208434093, -0.156, -28.935, -0.113, 2.5, -0.163, -28.922, -0.125, 2.5
 208634013, -0.131, -28.943, -0.035, 2.5, -0.156, -28.935, -0.113, 2.5
 208833933, -0.09900001, -28.939, -0.041, 2.5, -0.131, -28.943, -0.035, 2.5
 209033853, 0.005, -28.932, -0.103, 2.5, -0.09900001, -28.939, -0.041, 2.5
 209233773, 0.052, -28.919, -0.183, 2.5, 0.005, -28.932, -0.103, 2.5
 209433693, 0.062, -28.906, -0.193, 2.5, 0.052, -28.919, -0.183, 2.5
 209633613, 0.051, -28.914, -0.108, 2.5, 0.062, -28.906, -0.193, 2.5
 209833533, 0.06900001, -28.917, -0.036, 2.5, 0.051, -28.914, -0.108, 2.5
 210034286, 0.081, -28.92, -0.054, 2.5, 0.06900001, -28.917, -0.036, 2.5
 210234206, 0.129, -28.923, -0.059, 2.5, 0.081, -28.92, -0.054, 2.5
 210434126, 0.159, -28.92, -0.034, 2.5, 0.129, -28.923, -0.059, 2.5
 210634046, 0.143, -28.921, -0.035, 2.5, 0.159, -28.92, -0.034, 2.5
 210833966, 0.227, -28.922, -0.14, 2.5, 0.143, -28.921, -0.035, 2.5
 211033886, -2.262, -28.761, -0.038, 2.5, 0.227, -28.922, -0.14, 2.5
 211233806, -6.258, -28.303, 1.111, 2.5, -2.262, -28.761, -0.038, 2.5
 211433726, -13.174, -25.923, -0.9620001, 2.5, -6.258, -28.303, 1.111, 2.5
 211633646, -16.759, -23.684, -3.254, 2.5, -13.174, -25.923, -0.9620001, 2.5
 211833566, -17.677, -23.027, -2.984, 2.5, -16.759, -23.684, -3.254, 2.5
 212033486, -18.101, -22.47, -1.996, 2.5, -17.677, -23.027, -2.984, 2.5
 212234239, -18.824, -21.588, -1.344, 2.5, -18.101, -22.47, -1.996, 2.5
 212434159, -19.811, -20.536, -1.022, 2.5, -18.824, -21.588, -1.344, 2.5
 212634079, -20.835, -19.434, -0.7960001, 2.5, -19.811, -20.536, -1.022, 2.5
 212833999, -21.789, -18.291, -0.612, 2.5, -20.835, -19.434, -0.7960001, 2.5
 213033919, -22.665, -17.129, -0.437, 2.5, -21.789, -18.291, -0.612, 2.5
 213233839, -23.493, -15.898, -0.302, 2.5, -22.665, -17.129, -0.437, 2.5
 213433759, -24.226, -14.688, -0.15, 2.5, -23.493, -15.898, -0.302, 2.5
 213633679, -24.888, -13.479, 0.004, 2.5, -24.226, -14.688, -0.15, 2.5
 213833599, -25.476, -12.289, 0.17, 2.5, -24.888, -13.479, 0.004, 2.5
 214033519, -25.98, -11.114, 0.32, 2.5, -25.476, -12.289, 0.17, 2.5
 214234272, -26.422, -9.931001, 0.447, 2.5, -25.98, -11.114, 0.32, 2.5
 214434192, -26.814, -8.716001, 0.538, 2.5, -26.422, -9.931001, 0.447, 2.5
 214634112, -27.136, -7.602, 0.6990001, 2.5, -26.814, -8.716001, 0.538, 2.5
 214834032, -27.424, -6.451, 0.786, 2.5, -27.136, -7.602, 0.6990001, 2.5
 215033952, -27.64, -5.34, 0.867, 2.5, -27.424, -6.451, 0.786, 2.5
 215233872, -27.811, -4.264, 0.9310001, 2.5, -27.64, -5.34, 0.867, 2.5
 215433792, -27.937, -3.266, 1.018, 2.5, -27.811, -4.264, 0.9310001, 2.5
 215633712, -28.027, -2.328, 1.106, 2.5, -27.937, -3.266, 1.018, 2.5
 215833632, -28.07, -1.447, 1.178, 2.5, -28.027, -2.328, 1.106, 2.5
 216033552, -28.084, -0.596, 1.215, 2.5, -28.07, -1.447, 1.178, 2.5
 216234305, -28.079, 0.192, 1.268, 2.5, -28.084, -0.596, 1.215, 2.5
 216434225, -28.055, 0.9080001, 1.311, 2.5, -28.079, 0.192, 1.268, 2.5
 216634145, -28.027, 1.6, 1.313, 2.5, -28.055, 0.9080001, 1.311, 2.5
 216834065, -28.002, 2.21, 1.329, 2.5, -28.027, 1.6, 1.313, 2.5
 217033985, -27.976, 2.767, 1.318, 2.5, -28.002, 2.21, 1.329, 2.5
 217233905, -27.944, 3.248, 1.361, 2.5, -27.976, 2.767, 1.318, 2.5
 217433825, -27.92, 3.677, 1.332, 2.5, -27.944, 3.248, 1.361, 2.5
 217633745, -27.902, 4.064, 1.31, 2.5, -27.92, 3.677, 1.332, 2.5
 217833665, -27.888, 4.37, 1.334, 2.5, -27.902, 4.064, 1.31, 2.5
 218033585, -27.896, 4.645, 1.301, 2.5, -27.888, 4.37, 1.334, 2.5
 218233505, -27.902, 4.886, 1.242, 2.5, -27.896, 4.645, 1.301, 2.5
 218434258, -27.905, 5.084, 1.196, 2.5, -27.902, 4.886, 1.242, 2.5
 218634178, -27.931, 5.225, 1.142, 2.5, -27.905, 5.084, 1.196, 2.5
 218834098, -27.959, 5.317, 1.035, 2.5, -27.931, 5.225, 1.142, 2.5
 219034018, -27.986, 5.388, 0.9710001, 2.5, -27.959, 5.317, 1.035, 2.5
 219233938, -28.022, 5.445, 0.8610001, 2.5, -27.986, 5.388, 0.9710001, 2.5
 219433858, -28.061, 5.428, 0.754, 2.5, -28.022, 5.445, 0.8610001, 2.5
 219633778, -28.099, 5.365, 0.744, 2.5, -28.061, 5.428, 0.754, 2.5
 219833698, -28.131, 5.283, 0.6, 2.5, -28.099, 5.365, 0.744, 2.5
 220033618, -28.156, 5.197, 0.558, 2.5, -28.131, 5.283, 0.6, 2.5
 220233538, -28.2, 5.123, 0.479, 2.5, -28.156, 5.197, 0.558, 2.5
 220434291, -28.217, 5.041, 0.377, 2.5, -28.2, 5.123, 0.479, 2.5
 220634211, -28.246, 4.895, 0.352, 2.5, -28.217, 5.041, 0.377, 2.5
 220834131, -28.28, 4.739, 0.277, 2.5, -28.246, 4.895, 0.352, 2.5
 221034051, -28.316, 4.57, 0.213, 2.5, -28.28, 4.739, 0.277, 2.5
 221233971, -28.344, 4.401, 0.168, 2.5, -28.316, 4.57, 0.213, 2.5
 221433891, -28.373, 4.244, 0.035, 2.5, -28.344, 4.401, 0.168, 2.5
 221633811, -28.415, 4.074, 0.071, 2.5, -28.373, 4.244, 0.035, 2.5
 221833731, -28.453, 3.89, 0.089, 2.5, -28.415, 4.074, 0.071, 2.5
 222033651, -28.487, 3.697, 0.034, 2.5, -28.453, 3.89, 0.089, 2.5
 222233571, -28.521, 3.523, -0.014, 2.5, -28.487, 3.697, 0.034, 2.5
 222433491, -28.544, 3.344, -0.07, 2.5, -28.521, 3.523, -0.014, 2.5
 222634244, -28.563, 3.178, -0.134, 2.5, -28.544, 3.344, -0.07, 2.5
 222834164, -28.578, 2.965, -0.122, 2.5, -28.563, 3.178, -0.134, 2.5
 223034084, -28.615, 2.756, -0.113, 2.5, -28.578, 2.965, -0.122, 2.5
 223234004, -28.646, 2.551, -0.147, 2.5, -28.615, 2.756, -0.113, 2.5
 223433924, -28.671, 2.361, -0.206, 2.5, -28.646, 2.551, -0.147, 2.5
 223633844, -28.693, 2.165, -0.26, 2.5, -28.671, 2.361, -0.206, 2.5
 223833764, -28.716, 1.957, -0.239, 2.5, -28.693, 2.165, -0.26, 2.5
 224033684, -28.738, 1.749, -0.238, 2.5, -28.716, 1.957, -0.239, 2.5
 224233604, -28.766, 1.567, -0.263, 2.5, -28.738, 1.749, -0.238, 2.5
 224433524, -28.791, 1.403, -0.227, 2.5, -28.766, 1.567, -0.263, 2.5
 224634277, -28.811, 1.214, -0.289, 2.5, -28.791, 1.403, -0.227, 2.5
 224834197, -28.819, 1.071, -0.314, 2.5, -28.811, 1.214, -0.289, 2.5
 225034117, -28.827, 0.946, -0.405, 2.5, -28.819, 1.071, -0.314, 2.5
 225234037, -28.831, 0.839, -0.42, 2.5, -28.827, 0.946, -0.405, 2.5
 225433957, -28.848, 0.7460001, -0.372, 2.5, -28.831, 0.839, -0.42, 2.5
 225633877, -28.874, 0.649, -0.389, 2.5, -28.848, 0.7460001, -0.372, 2.5
 225833797, -28.887, 0.568, -0.385, 2.5, -28.874, 0.649, -0.389, 2.5
 226033717, -28.895, 0.469, -0.423, 2.5, -28.887, 0.568, -0.385, 2.5
 226233637, -28.9, 0.407, -0.426, 2.5, -28.895, 0.469, -0.423, 2.5
 226433557, -28.901, 0.352, -0.459, 2.5, -28.9, 0.407, -0.426, 2.5
 226633477, -28.907, 0.273, -0.425, 2.5, -28.901, 0.352, -0.459, 2.5
 226834230, -28.94, 0.221, -0.399, 2.5, -28.907, 0.273, -0.425, 2.5
 227034150, -28.948, 0.2, -0.449, 2.5, -28.94, 0.221, -0.399, 2.5
 227234070, -28.946, 0.202, -0.45, 2.5, -28.948, 0.2, -0.449, 2.5
 227433990, -28.951, 0.189, -0.436, 2.5, -28.946, 0.202, -0.45, 2.5
 227633910, -28.955, 0.158, -0.482, 2.5, -28.951, 0.189, -0.436, 2.5
 227833830, -28.954, 0.12, -0.448, 2.5, -28.955, 0.158, -0.482, 2.5
 228033750, -28.955, 0.06900001, -0.444, 2.5, -28.954, 0.12, -0.448, 2.5
 228233670, -28.956, 0.04, -0.414, 2.5, -28.955, 0.06900001, -0.444, 2.5
 228433590, -28.956, 0.033, -0.403, 2.5, -28.956, 0.04, -0.414, 2.5
 228633510, -28.944, 0.002, -0.414, 2.5, -28.956, 0.033, -0.403, 2.5
 228834263, -28.936, -0.017, -0.456, 2.5, -28.944, 0.002, -0.414, 2.5
 229034183, -28.922, -0.026, -0.406, 2.5, -28.936, -0.017, -0.456, 2.5
 229234103, -28.873, -0.06500001, -0.441, 2.5, -28.922, -0.026, -0.406, 2.5
 229434023, -28.866, -0.072, -0.369, 2.5, -28.873, -0.06500001, -0.441, 2.5
 229633943, -28.862, -0.059, -0.342, 2.5, -28.866, -0.072, -0.369, 2.5
 229833863, -28.853, -0.053, -0.323, 2.5, -28.862, -0.059, -0.342, 2.5
 230033783, -28.839, -0.07300001, -0.393, 2.5, -28.853, -0.053, -0.323, 2.5
 230233703, -28.832, -0.086, -0.388, 2.5, -28.839, -0.07300001, -0.393, 2.5
 230433623, -28.835, -0.071, -0.325, 2.5, -28.832, -0.086, -0.388, 2.5
 230633543, -28.837, -0.209, -0.317, 2.5, -28.835, -0.071, -0.325, 2.5
 230834296, -28.787, 0.6670001, -0.606, 2.5, -28.837, -0.209, -0.317, 2.5
 231034216, -28.53, 3.871, 0.551, 2.5, -28.787, 0.6670001, -0.606, 2.5
 231234136, -27.317, 9.726001, 0.303, 2.5, -28.53, 3.871, 0.551, 2.5
 231434056, -24.448, 15.585, -2.64, 2.5, -27.317, 9.726001, 0.303, 2.5
 231633976, -23.101, 17.529, -3.595, 2.5, -24.448, 15.585, -2.64, 2.5
 231833896, -22.634, 18.117, -2.776, 2.5, -23.101, 17.529, -3.595, 2.5
 232033816, -21.96, 18.682, -1.9, 2.5, -22.634, 18.117, -2.776, 2.5
 232233736, -21.038, 19.552, -1.397, 2.5, -21.96, 18.682, -1.9, 2.5
 232433656, -19.953, 20.606, -1.159, 2.5, -21.038, 19.552, -1.397, 2.5
 232633576, -18.833, 21.609, -0.9580001, 2.5, -19.953, 20.606, -1.159, 2.5
 232833496, -17.596, 22.599, -0.8340001, 2.5, -18.833, 21.609, -0.9580001, 2.5
 233034249, -16.321, 23.478, -0.725, 2.5, -17.596, 22.599, -0.8340001, 2.5
 233234169, -15.08, 24.239, -0.591, 2.5, -16.321, 23.478, -0.725, 2.5
 233434089, -13.878, 24.896, -0.424, 2.5, -15.08, 24.239, -0.591, 2.5
 233634009, -12.716, 25.45, -0.202, 2.5, -13.878, 24.896, -0.424, 2.5
 233833929, -11.487, 25.984, -0.064, 2.5, -12.716, 25.45, -0.202, 2.5
 234033849, -10.31, 26.438, 0.123, 2.5, -11.487, 25.984, -0.064, 2.5
 234233769, -9.105, 26.847, 0.219, 2.5, -10.31, 26.438, 0.123, 2.5
 234433689, -7.918, 27.177, 0.336, 2.5, -9.105, 26.847, 0.219, 2.5
 234633609, -6.785, 27.443, 0.449, 2.5, -7.918, 27.177, 0.336, 2.5
 234833529, -5.693, 27.652, 0.551, 2.5, -6.785, 27.443, 0.449, 2.5
 235034282, -4.681, 27.805, 0.717, 2.5, -5.693, 27.652, 0.551, 2.5
 235234202, -3.683, 27.924, 0.798, 2.5, -4.681, 27.805, 0.717, 2.5
 235434122, -2.75, 28.009, 0.924, 2.5, -3.683, 27.924, 0.798, 2.5
 235634042, -1.834, 28.069, 0.998, 2.5, -2.75, 28.009, 0.924, 2.5
 235833962, -1.029, 28.105, 1.124, 2.5, -1.834, 28.069, 0.998, 2.5
 236033882, -0.267, 28.13, 1.193, 2.5, -1.029, 28.105, 1.124, 2.5
 236233802, 0.448, 28.122, 1.256, 2.5, -0.267, 28.13, 1.193, 2.5
 236433722, 1.131, 28.101, 1.259, 2.5, 0.448, 28.122, 1.256, 2.5
 236633642, 1.776, 28.075, 1.253, 2.5, 1.131, 28.101, 1.259, 2.5
 236833562, 2.315, 28.054, 1.333, 2.5, 1.776, 28.075, 1.253, 2.5
 237033482, 2.829, 28.035, 1.355, 2.5, 2.315, 28.054, 1.333, 2.5
 237234235, 3.259, 28.015, 1.375, 2.5, 2.829, 28.035, 1.355, 2.5
 237434155, 3.663, 27.991, 1.29, 2.5, 3.259, 28.015, 1.375, 2.5
 237634075, 4.032, 27.976, 1.307, 2.5, 3.663, 27.991, 1.29, 2.5
 237833995, 4.375, 27.968, 1.269, 2.5, 4.032, 27.976, 1.307, 2.5
 238033915, 4.606, 27.969, 1.173, 2.5, 4.375, 27.968, 1.269, 2.5
 238233835, 4.773, 27.971, 1.143, 2.5, 4.606, 27.969, 1.173, 2.5
 238433755, 4.946, 27.978, 1.101, 2.5, 4.773, 27.971, 1.143, 2.5
 238633675, 5.085, 27.993, 1.038, 2.5, 4.946, 27.978, 1.101, 2.5
 238833595, 5.183, 28.019, 0.9160001, 2.5, 5.085, 27.993, 1.038, 2.5
 239033515, 5.223, 28.07, 0.899, 2.5, 5.183, 28.019, 0.9160001, 2.5
 239234268, 5.219, 28.099, 0.777, 2.5, 5.223, 28.07, 0.899, 2.5
 239434188, 5.208, 28.134, 0.728, 2.5, 5.219, 28.099, 0.777, 2.5
 239634108, 5.189, 28.173, 0.748, 2.5, 5.208, 28.134, 0.728, 2.5
 239834028, 5.109, 28.205, 0.6580001, 2.5, 5.189, 28.173, 0.748, 2.5
 240033948, 4.98, 28.254, 0.454, 2.5, 5.109, 28.205, 0.6580001, 2.5
 240233868, 4.881, 28.292, 0.385, 2.5, 4.98, 28.254, 0.454, 2.5
 240433788, 4.753, 28.319, 0.344, 2.5, 4.881, 28.292, 0.385, 2.5
 240633708, 4.606, 28.335, 0.228, 2.5, 4.753, 28.319, 0.344, 2.5
 240833628, 4.455, 28.352, 0.223, 2.5, 4.606, 28.335, 0.228, 2.5
 241033548, 4.291, 28.382, 0.192, 2.5, 4.455, 28.352, 0.223, 2.5
 241234301, 4.11, 28.424, 0.135, 2.5, 4.291, 28.382, 0.192, 2.5
 241434221, 3.942, 28.447, 0.117, 2.5, 4.11, 28.424, 0.135, 2.5
 241634141, 3.788, 28.467, 0.046, 2.5, 3.942, 28.447, 0.117, 2.5
 241834061, 3.631, 28.479, -0.045, 2.5, 3.788, 28.467, 0.046, 2.5
 242033981, 3.458, 28.521, 0.052, 2.5, 3.631, 28.479, -0.045, 2.5
 242233901, 3.258, 28.537, -0.038, 2.5, 3.458, 28.521, 0.052, 2.5
 242433821, 3.051, 28.572, -0.11, 2.5, 3.258, 28.537, -0.038, 2.5
 242633741, 2.847, 28.599, -0.176, 2.5, 3.051, 28.572, -0.11, 2.5
 242833661, 2.665, 28.616, -0.221, 2.5, 2.847, 28.599, -0.176, 2.5
 243033581, 2.469, 28.644, -0.194, 2.5, 2.665, 28.616, -0.221, 2.5
 243233501, 2.267, 28.675, -0.185, 2.5, 2.469, 28.644, -0.194, 2.5
 243434254, 2.089, 28.734, -0.231, 2.5, 2.267, 28.675, -0.185, 2.5
 243634174, 1.922, 28.739, -0.294, 2.5, 2.089, 28.734, -0.231, 2.5
 243834094, 1.752, 28.745, -0.375, 2.5, 1.922, 28.739, -0.294, 2.5
 244034014, 1.57, 28.759, -0.435, 2.5, 1.752, 28.745, -0.375, 2.5
 244233934, 1.42, 28.768, -0.358, 2.5, 1.57, 28.759, -0.435, 2.5
 244433854, 1.293, 28.804, -0.324, 2.5, 1.42, 28.768, -0.358, 2.5
 244633774, 1.161, 28.817, -0.39, 2.5, 1.293, 28.804, -0.324, 2.5
 244833694, 1.022, 28.815, -0.45, 2.5, 1.161, 28.817, -0.39, 2.5
 245033614, 0.91, 28.816, -0.442, 2.5, 1.022, 28.815, -0.45, 2.5
 245233534, 0.809, 28.829, -0.47, 2.5, 0.91, 28.816, -0.442, 2.5
 245434287, 0.696, 28.839, -0.498, 2.5, 0.809, 28.829, -0.47, 2.5
 245634207, 0.604, 28.85, -0.468, 2.5, 0.696, 28.839, -0.498, 2.5
 245834127, 0.501, 28.868, -0.434, 2.5, 0.604, 28.85, -0.468, 2.5
 246034047, 0.403, 28.874, -0.451, 2.5, 0.501, 28.868, -0.434, 2.5
 246233967, 0.31, 28.858, -0.53, 2.5, 0.403, 28.874, -0.451, 2.5
 246433887, 0.233, 28.844, -0.553, 2.5, 0.31, 28.858, -0.53, 2.5
 246633807, 0.2, 28.861, -0.447, 2.5, 0.233, 28.844, -0.553, 2.5
 246833727, 0.145, 28.868, -0.398, 2.5, 0.2, 28.861, -0.447, 2.5
 247033647, 0.078, 28.862, -0.402, 2.5, 0.145, 28.868, -0.398, 2.5
 247233567, 0.027, 28.856, -0.347, 2.5, 0.078, 28.862, -0.402, 2.5
 247433487, -0.019, 28.831, -0.386, 2.5, 0.027, 28.856, -0.347, 2.5
 247634240, -0.07, 28.835, -0.383, 2.5, -0.019, 28.831, -0.386, 2.5
 247834160, -0.101, 28.855, -0.38, 2.5, -0.07, 28.835, -0.383, 2.5
 248034080, -0.106, 28.833, -0.404, 2.5, -0.101, 28.855, -0.38, 2.5
 248234000, -0.124, 28.825, -0.342, 2.5, -0.106, 28.833, -0.404, 2.5
 248433920, -0.164, 28.825, -0.326, 2.5, -0.124, 28.825, -0.342, 2.5
 248633840, -0.219, 28.817, -0.362, 2.5, -0.164, 28.825, -0.326, 2.5
 248833760, -0.235, 28.815, -0.345, 2.5, -0.219, 28.817, -0.362, 2.5
 249033680, -0.248, 28.818, -0.35, 2.5, -0.235, 28.815, -0.345, 2.5
 249233600, -0.267, 28.817, -0.338, 2.5, -0.248, 28.818, -0.35, 2.5
 249433520, -0.263, 28.81, -0.362, 2.5, -0.267, 28.817, -0.338, 2.5
 249634273, -0.294, 28.812, -0.287, 2.5, -0.263, 28.81, -0.362, 2.5
 249834193, -0.308, 28.813, -0.26, 2.5, -0.294, 28.812, -0.287, 2.5
 250034113, -0.312, 28.814, -0.308, 2.5, -0.308, 28.813, -0.26, 2.5
 250234033, -0.334, 28.818, -0.296, 2.5, -0.312, 28.814, -0.308, 2.5
 250433953, -0.334, 28.816, -0.255, 2.5, -0.334, 28.818, -0.296, 2.5
 250633873, -0.336, 28.825, -0.184, 2.5, -0.334, 28.816, -0.255, 2.5
 250833793, -0.332, 28.833, -0.175, 2.5, -0.336, 28.825, -0.184, 2.5
 251033713, -0.329, 28.839, -0.189, 2.5, -0.332, 28.833, -0.175, 2.5
 251233633, -0.317, 28.846, -0.212, 2.5, -0.329, 28.839, -0.189, 2.5
 251433553, -0.312, 28.832, -0.27, 2.5, -0.317, 28.846, -0.212, 2.5
 251633473, -0.294, 28.815, -0.314, 2.5, -0.312, 28.832, -0.27, 2.5
 251834226, -0.236, 28.818, -0.213, 2.5, -0.294, 28.815, -0.314, 2.5
 252034146, -0.183, 28.826, -0.146, 2.5, -0.236, 28.818, -0.213, 2.5
 252234066, -0.182, 28.843, -0.147, 2.5, -0.183, 28.826, -0.146, 2.5
 252433986, -0.158, 28.847, -0.141, 2.5, -0.182, 28.843, -0.147, 2.5
 252633906, -0.149, 28.855, -0.111, 2.5, -0.158, 28.847, -0.141, 2.5
 252833826, -0.144, 28.861, -0.143, 2.5, -0.149, 28.855, -0.111, 2.5
 253033746, -0.13, 28.861, -0.152, 2.5, -0.144, 28.861, -0.143, 2.5
 253233666, -0.127, 28.847, -0.08400001, 2.5, -0.13, 28.861, -0.152, 2.5
 253433586, -0.134, 28.828, -0.097, 2.5, -0.127, 28.847, -0.08400001, 2.5
 253633506, -0.118, 28.826, -0.09500001, 2.5, -0.134, 28.828, -0.097, 2.5
 253834259, -0.104, 28.843, -0.085, 2.5, -0.118, 28.826, -0.09500001, 2.5
 254034179, -0.097, 28.857, -0.049, 2.5, -0.104, 28.843, -0.085, 2.5
 254234099, -0.09, 28.864, -0.07, 2.5, -0.097, 28.857, -0.049, 2.5
 254434019, -0.07700001, 28.872, -0.117, 2.5, -0.09, 28.864, -0.07, 2.5
 254633939, -0.054, 28.879, -0.066, 2.5, -0.07700001, 28.872, -0.117, 2.5
 254833859, -0.026, 28.889, 0.026, 2.5, -0.054, 28.879, -0.066, 2.5
 255033779, 0.031, 28.89, -0.103, 2.5, -0.026, 28.889, 0.026, 2.5
 255233699, 0.094, 28.874, -0.128, 2.5, 0.031, 28.89, -0.103, 2.5
 255433619, 0.09500001, 28.873, -0.081, 2.5, 0.094, 28.874, -0.128, 2.5
 255633539, 0.093, 28.861, -0.137, 2.5, 0.09500001, 28.873, -0.081, 2.5
 255834292, 0.097, 28.857, -0.127, 2.5, 0.093, 28.861, -0.137, 2.5
 256034212, 0.113, 28.836, -0.159, 2.5, 0.097, 28.857, -0.127, 2.5
 256234132, 0.119, 28.834, -0.131, 2.5, 0.113, 28.836, -0.159, 2.5
 256434052, 0.147, 28.822, -0.102, 2.5, 0.119, 28.834, -0.131, 2.5
 256633972, 0.168, 28.814, -0.09500001, 2.5, 0.147, 28.822, -0.102, 2.5
 256833892, 0.142, 28.801, -0.103, 2.5, 0.168, 28.814, -0.09500001, 2.5
 257033812, 0.097, 28.794, -0.158, 2.5, 0.142, 28.801, -0.103, 2.5
 257233732, 0.081, 28.782, -0.182, 2.5, 0.097, 28.794, -0.158, 2.5
 257433652, 0.09200001, 28.793, -0.104, 2.5, 0.081, 28.782, -0.182, 2.5
 257633572, 0.131, 28.81, -0.027, 2.5, 0.09200001, 28.793, -0.104, 2.5
 257833492, 0.156, 28.831, -0.024, 2.5, 0.131, 28.81, -0.027, 2.5
 258034245, 0.102, 28.845, -0.047, 2.5, 0.156, 28.831, -0.024, 2.5
 258234165, 0.074, 28.863, -0.082, 2.5, 0.102, 28.845, -0.047, 2.5
 258434085, 0.096, 28.878, -0.026, 2.5, 0.074, 28.863, -0.082, 2.5
 258634005, 0.149, 28.889, 0.02, 2.5, 0.096, 28.878, -0.026, 2.5
 258833925, 0.151, 28.899, 0.056, 2.5, 0.149, 28.889, 0.02, 2.5
 259033845, 0.117, 28.9, -0.026, 2.5, 0.151, 28.899, 0.056, 2.5
 259233765, 0.062, 28.894, -0.119, 2.5, 0.117, 28.9, -0.026, 2.5
 259433685, 0.039, 28.896, -0.07600001, 2.5, 0.062, 28.894, -0.119, 2.5
 259633605, 0.038, 28.877, -0.141, 2.5, 0.039, 28.896, -0.07600001, 2.5
 259833525, 0.037, 28.879, -0.145, 2.5, 0.038, 28.877, -0.141, 2.5
 260034278, 0.037, 28.888, -0.006, 2.5, 0.037, 28.879, -0.145, 2.5
 260234198, 0.014, 28.896, 0.003, 2.5, 0.037, 28.888, -0.006, 2.5
 260434118, -0.011, 28.898, -0.067, 2.5, 0.014, 28.896, 0.003, 2.5
 260634038, -0.133, 28.906, -0.131, 2.5, -0.011, 28.898, -0.067, 2.5
 260833958, 2.298, 28.721, 0.013, 2.5, -0.133, 28.906, -0.131, 2.5
 261033878, 6.304, 28.252, 1.148, 2.5, 2.298, 28.721, 0.013, 2.5
 261233798, 13.274, 25.827, -0.9580001, 2.5, 6.304, 28.252, 1.148, 2.5
 261433718, 16.902, 23.522, -3.343, 2.5, 13.274, 25.827, -0.9580001, 2.5
 261633638, 17.849, 22.833, -3.139, 2.5, 16.902, 23.522, -3.343, 2.5
 261833558, 18.168, 22.383, -2.014, 2.5, 17.849, 22.833, -3.139, 2.5
 262033478, 18.841, 21.554, -1.315, 2.5, 18.168, 22.383, -2.014, 2.5
 262234231, 19.867, 20.44, -1.069, 2.5, 18.841, 21.554, -1.315, 2.5
 262434151, 20.848, 19.363, -0.8700001, 2.5, 19.867, 20.44, -1.069, 2.5
 262634071, 21.772, 18.264, -0.675, 2.5, 20.848, 19.363, -0.8700001, 2.5
 262833991, 22.609, 17.145, -0.478, 2.5, 21.772, 18.264, -0.675, 2.5
 263033911, 23.406, 15.967, -0.302, 2.5, 22.609, 17.145, -0.478, 2.5
 263233831, 24.141, 14.786, -0.141, 2.5, 23.406, 15.967, -0.302, 2.5
 263433751, 24.841, 13.54, -0.023, 2.5, 24.141, 14.786, -0.141, 2.5
 263633671, 25.464, 12.277, 0.072, 2.5, 24.841, 13.54, -0.023, 2.5
 263833591, 25.976, 11.09, 0.204, 2.5, 25.464, 12.277, 0.072, 2.5
 264033511, 26.412, 9.908001, 0.31, 2.5, 25.976, 11.09, 0.204, 2.5
 264234264, 26.771, 8.779, 0.431, 2.5, 26.412, 9.908001, 0.31, 2.5
 264434184, 27.058, 7.716001, 0.6070001, 2.5, 26.771, 8.779, 0.431, 2.5
 264634104, 27.323, 6.614, 0.7410001, 2.5, 27.058, 7.716001, 0.6070001, 2.5
 264834024, 27.546, 5.513, 0.849, 2.5, 27.323, 6.614, 0.7410001, 2.5
 265033944, 27.735, 4.429, 0.89, 2.5, 27.546, 5.513, 0.849, 2.5
 265233864, 27.867, 3.45, 0.984, 2.5, 27.735, 4.429, 0.89, 2.5
 265433784, 27.949, 2.496, 1.05, 2.5, 27.867, 3.45, 0.984, 2.5
 265633704, 28.007, 1.588, 1.126, 2.5, 27.949, 2.496, 1.05, 2.5
 265833624, 28.035, 0.744, 1.191, 2.5, 28.007, 1.588, 1.126, 2.5
 266033544, 28.042, -0.07300001, 1.193, 2.5, 28.035, 0.744, 1.191, 2.5
 266234297, 28.024, -0.77, 1.228, 2.5, 28.042, -0.07300001, 1.193, 2.5
 266434217, 27.997, -1.375, 1.298, 2.5, 28.024, -0.77, 1.228, 2.5
 266634137, 27.984, -1.947, 1.395, 2.5, 27.997, -1.375, 1.298, 2.5
 266834057, 27.974, -2.459, 1.447, 2.5, 27.984, -1.947, 1.395, 2.5
 267033977, 27.961, -2.923, 1.457, 2.5, 27.974, -2.459, 1.447, 2.5
 267233897, 27.942, -3.381, 1.33, 2.5, 27.961, -2.923, 1.457, 2.5
 267433817, 27.914, -3.716, 1.309, 2.5, 27.942, -3.381, 1.33, 2.5
 267633737, 27.896, -4.016, 1.234, 2.5, 27.914, -3.716, 1.309, 2.5
 267833657, 27.884, -4.274, 1.209, 2.5, 27.896, -4.016, 1.234, 2.5
 268033577, 27.866, -4.51, 1.196, 2.5, 27.884, -4.274, 1.209, 2.5
 268233497, 27.905, -4.686, 1.15, 2.5, 27.866, -4.51, 1.196, 2.5
 268434250, 27.931, -4.817, 1.119, 2.5, 27.905, -4.686, 1.15, 2.5
 268634170, 27.953, -4.942, 0.9820001, 2.5, 27.931, -4.817, 1.119, 2.5
 268834090, 27.954, -5.039, 0.89, 2.5, 27.953, -4.942, 0.9820001, 2.5
 269034010, 27.977, -5.091, 0.8150001, 2.5, 27.954, -5.039, 0.89, 2.5
 269233930, 28.018, -5.116, 0.849, 2.5, 27.977, -5.091, 0.8150001, 2.5
 269433850, 28.087, -5.092, 0.765, 2.5, 28.018, -5.116, 0.849, 2.5
 269633770, 28.101, -5.074, 0.641, 2.5, 28.087, -5.092, 0.765, 2.5
 269833690, 28.15, -5.04, 0.507, 2.5, 28.101, -5.074, 0.641, 2.5
 270033610, 28.184, -4.98, 0.44, 2.5, 28.15, -5.04, 0.507, 2.5
 270233530, 28.229, -4.881, 0.446, 2.5, 28.184, -4.98, 0.44, 2.5
 270434283, 28.274, -4.769, 0.362, 2.5, 28.229, -4.881, 0.446, 2.5
 270634203, 28.285, -4.657, 0.291, 2.5, 28.274, -4.769, 0.362, 2.5
 270834123, 28.305, -4.54, 0.229, 2.5, 28.285, -4.657, 0.291, 2.5
 271034043, 28.313, -4.408, 0.143, 2.5, 28.305, -4.54, 0.229, 2.5
 271233963, 28.349, -4.28, 0.159, 2.5, 28.313, -4.408, 0.143, 2.5
 271433883, 28.384, -4.123, 0.182, 2.5, 28.349, -4.28, 0.159, 2.5
 271633803, 28.395, -3.961, 0.152, 2.5, 28.384, -4.123, 0.182, 2.5
 271833723, 28.441, -3.771, 0.035, 2.5, 28.395, -3.961, 0.152, 2.5
 272033643, 28.487, -3.596, -0.008, 2.5, 28.441, -3.771, 0.035, 2.5
 272233563, 28.531, -3.422, 0.033, 2.5, 28.487, -3.596, -0.008, 2.5
 272433483, 28.545, -3.228, -0.005, 2.5, 28.531, -3.422, 0.033, 2.5
 272634236, 28.579, -3.046, -0.08000001, 2.5, 28.545, -3.228, -0.005, 2.5
 272834156, 28.603, -2.863, -0.161, 2.5, 28.579, -3.046, -0.08000001, 2.5
 273034076, 28.615, -2.701, -0.194, 2.5, 28.603, -2.863, -0.161, 2.5
 273233996, 28.646, -2.519, -0.124, 2.5, 28.615, -2.701, -0.194, 2.5
 273433916, 28.679, -2.322, -0.171, 2.5, 28.646, -2.519, -0.124, 2.5
 273633836, 28.726, -2.16, -0.133, 2.5, 28.679, -2.322, -0.171, 2.5
 273833756, 28.739, -1.985, -0.215, 2.5, 28.726, -2.16, -0.133, 2.5
 274033676, 28.751, -1.816, -0.277, 2.5, 28.739, -1.985, -0.215, 2.5
 274233596, 28.754, -1.663, -0.307, 2.5, 28.751, -1.816, -0.277, 2.5
 274433516, 28.763, -1.498, -0.319, 2.5, 28.754, -1.663, -0.307, 2.5
 274634269, 28.788, -1.37, -0.307, 2.5, 28.763, -1.498, -0.319, 2.5
 274834189, 28.822, -1.233, -0.292, 2.5, 28.788, -1.37, -0.307, 2.5
 275034109, 28.87, -1.077, -0.313, 2.5, 28.822, -1.233, -0.292, 2.5
 275234029, 28.878, -0.9160001, -0.37, 2.5, 28.87, -1.077, -0.313, 2.5
 275433949, 28.875, -0.7730001, -0.426, 2.5, 28.878, -0.9160001, -0.37, 2.5
 275633869, 28.887, -0.646, -0.461, 2.5, 28.875, -0.7730001, -0.426, 2.5
 275833789, 28.9, -0.5330001, -0.499, 2.5, 28.887, -0.646, -0.461, 2.5
 276033709, 28.903, -0.407, -0.508, 2.5, 28.9, -0.5330001, -0.499, 2.5
 276233629, 28.895, -0.294, -0.517, 2.5, 28.903, -0.407, -0.508, 2.5
 276433549, 28.897, -0.224, -0.491, 2.5, 28.895, -0.294, -0.517, 2.5
 276634302, 28.886, -0.174, -0.449, 2.5, 28.897, -0.224, -0.491, 2.5
 276834222, 28.866, -0.125, -0.49, 2.5, 28.886, -0.174, -0.449, 2.5
 277034142, 28.866, -0.082, -0.471, 2.5, 28.866, -0.125, -0.49, 2.5
 277234062, 28.858, -0.037, -0.412, 2.5, 28.866, -0.082, -0.471, 2.5
 277433982, 28.858, 0.003, -0.363, 2.5, 28.858, -0.037, -0.412, 2.5
 277633902, 28.85, -0.001, -0.42, 2.5, 28.858, 0.003, -0.363, 2.5
 277833822, 28.839, -0.001, -0.479, 2.5, 28.85, -0.001, -0.42, 2.5
 278033742, 28.846, 0.011, -0.376, 2.5, 28.839, -0.001, -0.479, 2.5
 278233662, 28.847, 0.033, -0.286, 2.5, 28.846, 0.011, -0.376, 2.5
 278433582, 28.847, 0.052, -0.243, 2.5, 28.847, 0.033, -0.286, 2.5
 278633502, 28.842, 0.08800001, -0.335, 2.5, 28.847, 0.052, -0.243, 2.5
 278834255, 28.844, 0.136, -0.32, 2.5, 28.842, 0.08800001, -0.335, 2.5
 279034175, 27.68, 0.036, -0.404, 2.5, 28.844, 0.136, -0.32, 2.5
 279234095, 25.76, 2.062, -0.24, 2.5, 27.68, 0.036, -0.404, 2.5
 279434015, 23.635, 4.945, 0.998, 2.5, 25.76, 2.062, -0.24, 2.5
 279633935, 20.311, 9.839001, 0.025, 2.5, 23.635, 4.945, 0.998, 2.5
 279833855, 16.796, 12.492, -1.716, 2.5, 20.311, 9.839001, 0.025, 2.5
 280033775, 14.783, 12.822, -1.669, 2.5, 16.796, 12.492, -1.716, 2.5
 280233695, 13.325, 12.798, -0.835, 2.5, 14.783, 12.822, -1.669, 2.5
 280433615, 11.745, 12.994, -0.247, 2.5, 13.325, 12.798, -0.835, 2.5
 280633535, 10.012, 13.294, -0.081, 2.5, 11.745, 12.994, -0.247, 2.5
 280834288, 8.378, 13.449, -0.027, 2.5, 10.012, 13.294, -0.081, 2.5
 281034208, 6.939, 13.446, 0.147, 2.5, 8.378, 13.449, -0.027, 2.5
 281234128, 5.603, 13.378, 0.385, 2.5, 6.939, 13.446, 0.147, 2.5
 281434048, 4.276, 13.276, 0.562, 2.5, 5.603, 13.378, 0.385, 2.5
 281633968, 2.969, 13.114, 0.654, 2.5, 4.276, 13.276, 0.562, 2.5
 281833888, 1.733, 12.874, 0.721, 2.5, 2.969, 13.114, 0.654, 2.5
 282033808, 0.589, 12.564, 0.8100001, 2.5, 1.733, 12.874, 0.721, 2.5
 282233728, -0.479, 12.199, 0.915, 2.5, 0.589, 12.564, 0.8100001, 2.5
 282433648, -1.5, 11.784, 1.004, 2.5, -0.479, 12.199, 0.915, 2.5
 282633568, -2.476, 11.316, 1.061, 2.5, -1.5, 11.784, 1.004, 2.5
 282833488, -3.393, 10.795, 1.102, 2.5, -2.476, 11.316, 1.061, 2.5
 283034241, -4.239, 10.229, 1.14, 2.5, -3.393, 10.795, 1.102, 2.5
 283234161, -5.002, 9.631001, 1.173, 2.5, -4.239, 10.229, 1.14, 2.5
 283434081, -5.681, 9.013, 1.2, 2.5, -5.002, 9.631001, 1.173, 2.5
 283634001, -6.273, 8.389, 1.234, 2.5, -5.681, 9.013, 1.2, 2.5
 283833921, -6.78, 7.774, 1.279, 2.5, -6.273, 8.389, 1.234, 2.5
 284033841, -7.218, 7.176, 1.322, 2.5, -6.78, 7.774, 1.279, 2.5
 284233761, -7.594, 6.596, 1.355, 2.5, -7.218, 7.176, 1.322, 2.5
 284433681, -7.916, 6.039001, 1.383, 2.5, -7.594, 6.596, 1.355, 2.5
 284633601, -8.187, 5.51, 1.406, 2.5, -7.916, 6.039001, 1.383, 2.5
 284833521, -8.414001, 5.01, 1.425, 2.5, -8.187, 5.51, 1.406, 2.5
 285034274, -8.601001, 4.543, 1.44, 2.5, -8.414001, 5.01, 1.425, 2.5
 285234194, -8.757, 4.107, 1.448, 2.5, -8.601001, 4.543, 1.44, 2.5
 285434114, -8.882, 3.705, 1.447, 2.5, -8.757, 4.107, 1.448, 2.5
 285634034, -8.981001, 3.334, 1.45, 2.5, -8.882, 3.705, 1.447, 2.5
 285833954, -9.06, 2.993, 1.46, 2.5, -8.981001, 3.334, 1.45, 2.5
 286033874, -9.125, 2.678, 1.462, 2.5, -9.06, 2.993, 1.46, 2.5
 286233794, -9.175, 2.389, 1.455, 2.5, -9.125, 2.678, 1.462, 2.5
 286433714, -9.212001, 2.124, 1.443, 2.5, -9.175, 2.389, 1.455, 2.5
 286633634, -9.237, 1.882, 1.432, 2.5, -9.212001, 2.124, 1.443, 2.5
 286833554, -9.252001, 1.663, 1.42, 2.5, -9.237, 1.882, 1.432, 2.5
 287033474, -9.257, 1.472, 1.408, 2.5, -9.252001, 1.663, 1.42, 2.5
 287234227, -9.255, 1.305, 1.399, 2.5, -9.257, 1.472, 1.408, 2.5
 287434147, -9.249001, 1.159, 1.394, 2.5, -9.255, 1.305, 1.399, 2.5
 287634067, -9.240001, 1.026, 1.39, 2.5, -9.249001, 1.159, 1.394, 2.5
 287833987, -9.229, 0.9020001, 1.382, 2.5, -9.240001, 1.026, 1.39, 2.5
 288033907, -9.216001, 0.79, 1.369, 2.5, -9.229, 0.9020001, 1.382, 2.5
 288233827, -9.199, 0.6950001, 1.354, 2.5, -9.216001, 0.79, 1.369, 2.5
 288433747, -9.179001, 0.617, 1.341, 2.5, -9.199, 0.6950001, 1.354, 2.5
 288633667, -9.157001, 0.548, 1.331, 2.5, -9.179001, 0.617, 1.341, 2.5
 288833587, -9.134001, 0.484, 1.326, 2.5, -9.157001, 0.548, 1.331, 2.5
 289033507, -9.111, 0.423, 1.321, 2.5, -9.134001, 0.484, 1.326, 2.5
 289234260, -9.088, 0.371, 1.311, 2.5, -9.111, 0.423, 1.321, 2.5
 289434180, -9.064, 0.334, 1.299, 2.5, -9.088, 0.371, 1.311, 2.5
 289634100, -9.039001, 0.309, 1.293, 2.5, -9.064, 0.334, 1.299, 2.5
 289834020, -9.014001, 0.288, 1.292, 2.5, -9.039001, 0.309, 1.293, 2.5
 290033940, -8.991, 0.266, 1.291, 2.5, -9.014001, 0.288, 1.292, 2.5
 290233860, -8.968, 0.241, 1.285, 2.5, -8.991, 0.266, 1.291, 2.5
 290433780, -8.946, 0.218, 1.277, 2.5, -8.968, 0.241, 1.285, 2.5
 290633700, -8.923, 0.2, 1.269, 2.5, -8.946, 0.218, 1.277, 2.5
 290833620, -8.900001, 0.187, 1.263, 2.5, -8.923, 0.2, 1.269, 2.5
 291033540, -8.878, 0.179, 1.26, 2.5, -8.900001, 0.187, 1.263, 2.5
 291234293, -8.856, 0.171, 1.256, 2.5, -8.878, 0.179, 1.26, 2.5
 291434213, -8.834001, 0.161, 1.25, 2.5, -8.856, 0.171, 1.256, 2.5
 291634133, -8.813001, 0.147, 1.243, 2.5, -8.834001, 0.161, 1.25, 2.5
 291834053, -8.791, 0.132, 1.237, 2.5, -8.813001, 0.147, 1.243, 2.5
 292033973, -8.77, 0.119, 1.232, 2.5, -8.791, 0.132, 1.237, 2.5
 292233893, -8.749001, 0.105, 1.23, 2.5, -8.77, 0.119, 1.232, 2.5
 292433813, -8.728001, 0.089, 1.23, 2.5, -8.749001, 0.105, 1.23, 2.5
 292633733, -8.709001, 0.07, 1.23, 2.5, -8.728001, 0.089, 1.23, 2.5
 292833653, -8.692, 0.05, 1.228, 2.5, -8.709001, 0.07, 1.23, 2.5
 293033573, -8.674001, 0.032, 1.222, 2.5, -8.692, 0.05, 1.228, 2.5
 293233493, -8.656, 0.022, 1.216, 2.5, -8.674001, 0.032, 1.222, 2.5
 293434246, -8.638, 0.02, 1.212, 2.5, -8.656, 0.022, 1.216, 2.5
