TimeUS,CAN,CAE,CAD,CAe,NAN,NAE,NAD,NAe,m10,m00,Gye
 140033964, -0.009449981, 0.01256956, 0.0003415362, 0.001089464, -0.002791177, 0.003806933, 4.099159E-05, 0.0005187924, -0.1083743, 0.9941089, 0.05027412
 140233884, 0.00423259, 0.01089089, -4.101067E-05, 0.001089464, 0.02230617, 0.001105062, -0.0003154446, 0.0005187924, -0.1083687, 0.9941095, 0.04570375
 140433804, 0.2827649, -0.01911113, -0.0001214781, 0.001089464, 0.2114599, -0.02096586, 0.0004979048, 0.0005187924, -0.1083594, 0.9941104, 0.04570375
 140633724, 0.9613978, -0.09606218, 0.01233028, 0.001089464, 0.4452914, -0.04420369, 0.008208995, 0.0005187924, -0.108325, 0.9941139, 0.04570375
 140833644, 1.713878, -0.1744137, 0.0333318, 0.001089464, 0.6808331, -0.06906036, 0.0136135, 0.0005187924, -0.1082724, 0.9941175, 0.04570375
 141033564, 2.44453, -0.2531684, 0.04930332, 0.001089464, 0.8943496, -0.1014061, 0.01845432, 0.0005187924, -0.1082239, 0.9941212, 0.04570375
 141233484, 3.091412, -0.3353314, 0.06475765, 0.001089464, 1.057836, -0.1234757, 0.02317865, 0.0005187924, -0.1081882, 0.9941236, 0.04570375
 141434237, 3.392148, -0.3702468, 0.07775825, 0.001091626, 1.149795, -0.1202504, 0.02840523, 0.000520954, -0.1081668, 0.9941231, 0.04121499
 141634157, 3.326854, -0.3446736, 0.08219572, 0.001091626, 1.037642, -0.09673985, 0.02619858, 0.0005187924, -0.1081341, 0.9941248, 0.04579443
 141834077, 2.978177, -0.303777, 0.05351759, 0.001089464, 0.9374563, -0.108205, -0.006325889, 0.0005187924, -0.1081282, 0.9941255, 0.04570375
 142033997, 2.628416, -0.2841118, -0.0764598, 0.001089464, 0.7984079, -0.07817771, -0.01812553, 0.0005187924, -0.1081313, 0.9941259, 0.04570375
 142233917, 2.384847, -0.2432628, -0.0230672, 0.001089464, 1.059568, -0.1167727, -0.1234998, 0.0005187924, -0.1084513, 0.9940786, 0.05027412
 142433837, 3.199437, -0.3559557, -1.368317, 0.001089464, 0.901713, -0.1117951, -0.696524, 0.0005187924, -0.1098403, 0.9932314, 0.04570375
 142633757, 2.719896, -0.3427985, -1.815604, 0.001089464, 0.7720748, -0.09726709, -0.3499883, 0.0005187924, -0.1084984, 0.9919868, 0.04570375
 142833677, 2.38191, -0.240254, -0.8836056, 0.001089464, 0.6849471, -0.04524313, -0.2283946, 0.0005187924, -0.1066523, 0.9914301, 0.04570375
 143033597, 2.110762, -0.1588555, -0.7057518, 0.001089464, 0.6048116, -0.04480571, -0.239591, 0.0005187924, -0.108891, 0.9905536, 0.04570375
 143233517, 1.827363, -0.1934202, -0.7520491, 0.001089464, 0.5113369, -0.05881529, -0.2360618, 0.0005187924, -0.109747, 0.98947, 0.04570375
 143434270, 1.563906, -0.1892472, -0.716112, 0.001091626, 0.5020147, -0.05906838, -0.2177866, 0.000520954, -0.1098308, 0.9885642, 0.04121499
 143634190, 1.402715, -0.1646623, -0.6207191, 0.001091626, 0.4423534, -0.04890659, -0.1678424, 0.0005187924, -0.109381, 0.9879274, 0.04579443
 143834110, 1.197944, -0.1368176, -0.5529305, 0.001089464, 0.3481113, -0.0502767, -0.2242328, 0.0005187924, -0.1115639, 0.9866646, 0.04570375
 144034030, 0.9677507, -0.1269306, -0.6371357, 0.001089464, 0.299009, -0.02305887, -0.1846995, 0.0005187924, -0.1102941, 0.9858202, 0.04570375
 144233950, 0.8317786, -0.03420928, -0.5124465, 0.001089464, 0.217966, -0.005438836, -0.1532777, 0.0005187924, -0.1086027, 0.9851092, 0.05027412
 144433870, 0.6649209, -0.01650448, -0.4391686, 0.001089464, 0.1840533, -0.01351726, -0.1120249, 0.0005187924, -0.1093361, 0.9843838, 0.04570375
 144633790, 0.5645777, -0.08233558, -0.2765521, 0.001089464, 0.1642138, -0.02070479, -0.05892131, 0.0005187924, -0.1102163, 0.9840944, 0.04570375
 144833710, 0.501122, -0.04928244, -0.163873, 0.001089464, 0.1346036, -0.0002828308, -0.02268723, 0.0005187924, -0.1089503, 0.9842359, 0.04570375
 145033630, 0.4166955, -0.008721964, -0.1512671, 0.001089464, 0.1066962, -0.002595866, -0.07173482, 0.0005187924, -0.1108527, 0.9835055, 0.04570375
 145233550, 0.3180552, -0.02153339, -0.2447201, 0.001089464, 0.07805806, -0.006452953, -0.08268357, 0.0005187924, -0.1092015, 0.9832158, 0.04570375
 145434303, 0.2870682, -0.006840303, -0.1344784, 0.001091626, 0.09155633, 0.01231902, -0.007433492, 0.0005187924, -0.1091456, 0.9834294, 0.04579443
 145634223, 0.2383364, 0.005819731, -0.08182298, 0.001091626, 0.06676318, -0.01074497, -0.02978414, 0.000520954, -0.1108869, 0.983021, 0.04121499
 145834143, 0.1786932, -0.03230356, -0.1047431, 0.001091626, 0.05371204, -0.0006042152, -0.03350727, 0.0005187924, -0.1106253, 0.9827219, 0.04579443
 146034063, 0.1081229, -0.02007909, -0.189383, 0.001089464, 0.01850965, -0.008618355, -0.08434904, 0.0005187924, -0.1110723, 0.9820751, 0.04570375
 146233983, 0.1075152, -0.02733423, -0.04557882, 0.001089464, 0.05236327, -0.01022291, 0.04327931, 0.0005187924, -0.1111947, 0.9826429, 0.05027412
 146433903, 0.1263414, -0.01325988, 0.03867245, 0.001089464, 0.03572409, -0.01208997, -0.01115181, 0.0005187924, -0.1123605, 0.9824256, 0.04570375
 146633823, 0.1267648, -0.02269825, 0.06058203, 0.001089464, 0.03709201, 0.004629306, 0.06182934, 0.0005187924, -0.1110841, 0.9832287, 0.04570375
 146833743, 0.1438703, 0.04724897, 0.2377952, 0.001089464, 0.04768095, 0.02696145, 0.08510484, 0.0005187924, -0.1092094, 0.9843448, 0.04570375
 147033663, 0.1623207, 0.05058025, 0.2769471, 0.001089464, 0.04698509, -0.003724184, 0.08099005, 0.0005187924, -0.1104956, 0.9850982, 0.04570375
 147233583, 0.1867945, -0.02527053, 0.4019374, 0.001089464, 0.05544847, -0.007977646, 0.1357598, 0.0005187924, -0.1103146, 0.9865512, 0.04570375
 147433503, 0.1743707, -0.03310528, 0.3684049, 0.001089464, 0.04329916, -0.007243535, 0.07642777, 0.0005187924, -0.1112809, 0.9872261, 0.04570375
 147634256, 0.1348334, -0.0391925, 0.1899741, 0.001091626, 0.04683673, -0.02276442, 0.0559824, 0.000520954, -0.1115399, 0.9876776, 0.04121499
 147834176, 0.1145675, -0.03436054, 0.3102453, 0.001091626, 0.0236707, -0.01023141, 0.1703872, 0.0005187924, -0.1130368, 0.9885625, 0.04579443
 148034096, 0.02712684, 0.01775334, 0.4499804, 0.001089464, -0.001173532, 0.01972099, 0.1042753, 0.0005187924, -0.1120238, 0.9893822, 0.04570375
 148234016, 0.01844787, -0.005159969, 0.3446735, 0.001089464, 0.01155069, -0.03570758, 0.09788178, 0.0005187924, -0.1150678, 0.9896975, 0.04570375
 148433936, 0.007859562, -0.05939125, 0.2496214, 0.001089464, -0.01384036, 0.005252003, 0.090449, 0.0005187924, -0.1146485, 0.9901951, 0.05027412
 148633856, -0.03263541, -0.004405603, 0.4204951, 0.001089464, -0.005064683, 0.06552055, 0.1722487, 0.0005187924, -0.1042985, 0.9922318, 0.04570375
 148833776, 0.00155255, 0.5319746, 0.5076752, 0.001089464, 0.004317119, 0.2742146, 0.1620621, 0.0005187924, -0.1066691, 0.9925783, 0.04570375
 149033696, 0.0005048458, 0.7208829, 0.5265003, 0.001089464, -0.01610567, 0.1236101, 0.1110868, 0.0005187924, -0.1174714, 0.9916386, 0.04570375
 149233616, -0.09699037, 0.20662, 0.238143, 0.001089464, -0.05283425, -0.02712893, 0.04758972, 0.0005187924, -0.110859, 0.9926585, 0.04570375
 149433536, -0.1407149, -0.05510058, 0.3348806, 0.001089464, -0.03014383, 0.01805146, 0.1773832, 0.0005187924, -0.09482658, 0.9948612, 0.04570375
 149634289, -0.09830281, 0.1898637, 0.5399808, 0.001091626, -0.03129591, 0.1250611, 0.1761174, 0.000520954, -0.08762842, 0.9958637, 0.04121499
 149834209, -0.08981927, 0.3554116, 0.5957884, 0.001091626, -0.02666963, 0.1066734, 0.2328983, 0.0005187924, -0.08792997, 0.9960609, 0.04579443
 150034129, -0.07081279, 0.2717018, 0.5405994, 0.001089464, -0.02609043, 0.05770156, 0.09095955, 0.0005187924, -0.08452671, 0.9964118, 0.04570375
 150234049, -0.08385277, 0.1840698, 0.2231077, 0.001089464, -0.02588094, 0.0734481, 0.06975026, 0.0005187924, -0.07619476, 0.997093, 0.04570375
 150433969, -0.07599048, 0.2069181, 0.2898983, 0.001089464, -0.01859498, 0.06462648, 0.129192, 0.0005187924, -0.07043367, 0.9974803, 0.05027412
 150633889, -0.0602788, 0.1984016, 0.3948949, 0.001089464, -0.02824133, 0.05396143, 0.1071332, 0.0005187924, -0.06834118, 0.9975386, 0.04570375
 150833809, -0.07718519, 0.1571812, 0.3195397, 0.001089464, -0.01904618, 0.05348208, 0.1065394, 0.0005187924, -0.06322826, 0.9977316, 0.04570375
 151033729, -0.04482891, 0.1419828, 0.4568635, 0.001089464, 0.006423103, 0.02403117, 0.1783596, 0.0005187924, -0.06093238, 0.9975197, 0.04570375
 151233649, -0.008447917, 0.09159057, 0.4275069, 0.001089464, -0.01376562, 0.03612458, 0.0435692, 0.0005187924, -0.05744946, 0.9975243, 0.04570375
 151433569, -0.04190267, 0.1372316, 0.147799, 0.001089464, -0.01995411, 0.04289375, 0.07388802, 0.0005187924, -0.05338579, 0.9975631, 0.04570375
 151633489, -0.06081791, 0.1559613, 0.1470621, 0.001089464, -0.02404161, 0.04015873, 0.006363897, 0.0005187924, -0.04938709, 0.997727, 0.04570375
 151834242, -0.06147946, 0.134205, 0.07955637, 0.001091626, -0.01921208, 0.03827613, 0.0791032, 0.000520954, -0.04825792, 0.9976078, 0.04121499
 152034162, -0.03557209, 0.09565467, 0.2557616, 0.001091626, -0.01145301, 0.0412725, 0.0824514, 0.0005187924, -0.04530971, 0.9974316, 0.04579443
 152234082, -0.04353705, 0.1024513, 0.2743257, 0.001089464, -0.02033263, 0.02386614, 0.0971937, 0.0005187924, -0.04405857, 0.9971578, 0.04570375
 152434002, -0.04568338, 0.0666253, 0.1984451, 0.001089464, -0.009612496, 0.01813455, 0.05742586, 0.0005187924, -0.04142481, 0.9970453, 0.04570375
 152633922, -0.01956802, 0.07953364, 0.2584522, 0.001089464, -0.001802587, 0.03917139, 0.03443761, 0.0005187924, -0.03827224, 0.9968048, 0.05027412
 152833842, -0.0177494, 0.1134269, 0.0673162, 0.001089464, -0.01275784, 0.01829934, -0.001972649, 0.0005187924, -0.03839396, 0.9967761, 0.04570375
 153033762, -0.02951436, 0.08951823, 0.02461299, 0.001089464, 0.004446236, 0.03958219, 0.03270548, 0.0005187924, -0.03540799, 0.9967577, 0.04570375
 153233682, 0.002878439, 0.09354398, 0.1802188, 0.001089464, -0.006620243, 0.022523, 0.08816357, 0.0005187924, -0.03479226, 0.9963507, 0.04570375
 153433602, -0.01384407, 0.06642547, 0.2270817, 0.001089464, -0.001579898, 0.02238487, 0.05819472, 0.0005187924, -0.0325358, 0.9961104, 0.04570375
 153633522, -0.01424918, 0.07338151, 0.1869353, 0.001089464, 0.002211211, 0.02790224, 0.02882729, 0.0005187924, -0.03058921, 0.9958628, 0.04570375
 153834275, 0.0005676455, 0.07553136, 0.04540719, 0.001091626, -0.001150314, 0.02447815, -0.03071726, 0.000520954, -0.02933718, 0.9959791, 0.04121499
 154034195, -0.002258925, 0.07488275, -0.02359364, 0.001091626, 0.0002332154, 0.02200858, 0.03701723, 0.0005187924, -0.02788455, 0.9958578, 0.04579443
 154234115, -0.006378661, 0.0643609, 0.09082053, 0.001089464, -0.008382003, 0.02491953, 0.0220959, 0.0005187924, -0.02700665, 0.9957473, 0.04570375
 154434035, -0.01211955, 0.07233444, 0.07205348, 0.001089464, -0.001775207, 0.02751337, 0.01469921, 0.0005187924, -0.0243124, 0.9957174, 0.04570375
 154633955, -0.003738971, 0.08253895, 0.02186707, 0.001089464, 0.002712107, 0.02872705, 0.01949312, 0.0005187924, -0.02246756, 0.9957179, 0.05027412
 154833875, -0.005716905, 0.07685636, 0.09202512, 0.001089464, 0.002382274, 0.01220483, 0.04188483, 0.0005187924, -0.02278226, 0.9954296, 0.04570375
 155033795, 0.004920778, 0.02847704, 0.1669324, 0.001089464, -0.009074602, 0.008977324, 0.04827704, 0.0005187924, -0.02211004, 0.9950709, 0.04570375
 155233715, 0.01904489, 0.02716349, 0.09961361, 0.001089464, 0.02440418, 0.004189316, 0.01736499, 0.0005187924, -0.02061186, 0.994994, 0.04570375
 155433635, 0.03914683, 0.01634403, 0.06210225, 0.001089464, 0.005077733, -0.003166682, -0.002461783, 0.0005187924, -0.02133589, 0.9949179, 0.04570375
 155633555, 0.01716172, 0.01522663, -0.05397821, 0.001089464, 0.005362261, 0.02057898, 0.01063007, 0.0005187924, -0.02039029, 0.9950665, 0.04570375
 155833475, 0.02874816, 0.05382458, -0.0001936331, 0.001089464, 0.01206342, 0.02016086, -0.01750894, 0.0005187924, -0.01947561, 0.9951597, 0.04570375
 156034228, 0.03197352, 0.0608429, -0.01309083, 0.001091626, 0.008192846, 0.01142981, 0.01953473, 0.000520954, -0.01882332, 0.9950898, 0.04121499
 156234148, 0.03108838, 0.04716918, 0.0616079, 0.001091626, 0.01031947, 0.01616658, 0.04321006, 0.0005187924, -0.0183851, 0.994957, 0.04579443
 156434068, 0.02468969, 0.06168924, 0.02516753, 0.001089464, 0.01477955, 0.02792983, -0.0006872573, 0.0005187924, -0.01609842, 0.9950925, 0.04570375
 156633988, 0.03011147, 0.06761717, 0.009368571, 0.001089464, 0.007543715, 0.009842978, 0.01696162, 0.0005187924, -0.01623922, 0.9950477, 0.04570375
 156833908, 0.02697197, 0.04081936, 0.0774366, 0.001089464, 0.01754222, 0.004478311, 0.01588968, 0.0005187924, -0.01594036, 0.9948583, 0.05027412
 157033828, 0.04151078, 0.01229851, 0.0353585, 0.001089464, -0.00161962, -0.005490941, -0.0215163, 0.0005187924, -0.01578614, 0.9948893, 0.04570375
 157233748, 0.008912288, 0.01960488, -0.08081822, 0.001089464, 0.007853919, 0.01197077, -0.03269556, 0.0005187924, -0.01317893, 0.9951406, 0.04570375
 157433668, 0.0260588, 0.0496128, -0.1014779, 0.001089464, 0.005208078, 0.01286511, -0.03629062, 0.0005187924, -0.01322636, 0.9953471, 0.04570375
 157633588, 0.02767744, 0.03456316, -0.06741853, 0.001089464, 0.00850267, 0.001219825, -0.01988865, 0.0005187924, -0.01428953, 0.9954153, 0.04570375
 157833508, 0.02217983, 0.01112396, 0.021417, 0.001089464, 0.01690304, 0.009092409, 0.02874769, 0.0005187924, -0.01406487, 0.995203, 0.04570375
 158034261, 0.02655549, 0.02194891, 0.05851249, 0.001091626, 0.0002164088, 0.01207693, -0.02532768, 0.000520954, -0.01338585, 0.9952, 0.04121499
 158234181, 0.01753803, 0.02384559, -0.05291988, 0.001091626, 0.01258503, 0.01153306, -0.024553, 0.0005187924, -0.01300321, 0.9953371, 0.04579443
 158434101, 0.04890878, 0.0217622, -0.005652832, 0.001089464, 0.01427532, 0.00751624, 0.04522876, 0.0005187924, -0.01209208, 0.9951075, 0.04570375
 158634021, 0.03200276, 0.02598739, 0.08382928, 0.001089464, 0.008715302, 0.006501477, -0.02809872, 0.0005187924, -0.01254875, 0.9951659, 0.04570375
 158833941, 0.03762323, 0.01197322, -0.05945292, 0.001089464, 0.01355998, 0.005739207, 0.01703916, 0.0005187924, -0.01279972, 0.9951364, 0.05027412
 159033861, 0.02695842, 0.009158742, 0.03291726, 0.001089464, 0.006902842, 0.01311572, -0.01999513, 0.0005187924, -0.01201167, 0.9951555, 0.04570375
 159233781, 0.01518173, 0.03471638, -0.1253686, 0.001089464, 0.002734062, 0.02558558, -0.05008496, 0.0005187924, -0.01119183, 0.9955319, 0.04570375
 159433701, 0.03066887, 0.06941557, -0.08314438, 0.001089464, 0.01458459, 0.02139102, -0.02170667, 0.0005187924, -0.01088677, 0.9955797, 0.04570375
 159633621, 0.03006661, 0.05574801, -0.0237111, 0.001089464, -0.005857334, 0.009262318, -0.01717786, 0.0005187924, -0.01083875, 0.9956091, 0.04570375
 159833541, -0.01310435, 0.01133623, -0.1213247, 0.001089464, 0.0005081235, 8.821384E-05, -0.02197454, 0.0005187924, -0.01148129, 0.9958642, 0.04570375
 160034294, 0.01728431, -0.03600301, -0.01100125, 0.001091626, 0.01955746, -0.02473308, 0.02716679, 0.000520954, -0.01257213, 0.995753, 0.04579443
 160234214, 0.05813636, -0.04607484, 0.05157074, 0.001091626, 0.01329655, -0.004797333, 0.02877093, 0.0005187924, -0.01186206, 0.995665, 0.04121499
 160434134, 0.02283516, 0.05646525, 0.06762697, 0.001089464, 0.002046864, 0.04969501, -0.009389486, 0.0005187924, -0.01108868, 0.9956809, 0.04570375
 160634054, 0.02524965, 0.08653618, -0.08706124, 0.001089464, 0.01860865, 0.007920809, -0.01124557, 0.0005187924, -0.01301215, 0.9957684, 0.04570375
 160833974, 0.03365992, -0.0001662462, 0.02014877, 0.001089464, 0.007086119, -0.003114029, -0.02383756, 0.0005187924, -0.01235261, 0.9957998, 0.05027412
 161033894, 0.0200263, 0.001193283, -0.1181238, 0.001089464, 0.0002439839, 0.02588369, -0.07487915, 0.0005187924, -0.009992654, 0.9961601, 0.04570375
 161233814, 0.002080512, 0.07508122, -0.1694211, 0.001089464, 0.002563369, 0.003775299, -0.0265677, 0.0005187924, -0.0114051, 0.9962875, 0.04570375
 161433734, 0.00284294, 0.02469, -0.01543782, 0.001089464, -0.006388843, 0.01339229, 0.003873229, 0.0005187924, -0.01014288, 0.9962478, 0.04570375
 161633654, 0.0204166, 0.04821179, 0.03076988, 0.001089464, 0.008349535, 0.01014252, -0.01377308, 0.0005187924, -0.009289623, 0.9962322, 0.04570375
 161833574, 0.02448404, 0.0372558, -0.03101669, 0.001089464, 0.008744937, 0.009169862, 0.0247288, 0.0005187924, -0.008248851, 0.9962062, 0.04570375
 162033494, 0.02418596, 0.01449611, 0.06261671, 0.001089464, 0.009007385, -0.003676765, 0.003847013, 0.0005187924, -0.008488085, 0.9961371, 0.04570375
 162234247, 0.01460829, 0.01540306, -0.01077334, 0.001091626, 0.00974023, 0.01160614, -0.02074907, 0.000520954, -0.007175971, 0.9962016, 0.04121499
 162434167, 0.02821677, 0.03965843, -0.05561042, 0.001091626, 0.0007041944, 0.02139503, -0.04330131, 0.0005187924, -0.007206467, 0.996363, 0.04579443
 162634087, 0.01928212, 0.02664576, -0.09050083, 0.001089464, 0.01557598, -0.007096065, 0.01420934, 0.0005187924, -0.009003443, 0.996388, 0.04570375
 162834007, 0.02935934, -0.02127551, 0.05909984, 0.001089464, 0.008097933, 0.007503998, 0.01559945, 0.0005187924, -0.007804536, 0.9963055, 0.04570375
 163033927, 0.001826175, 0.006753666, 0.04771315, 0.001089464, 0.03206049, -0.002186048, 0.01491656, 0.0005187924, -0.008317928, 0.9962284, 0.05027412
 163233847, 0.07896382, -0.01530626, -0.005104215, 0.001089464, 0.005283817, -0.001753097, -0.01068441, 0.0005187924, -0.009194748, 0.9962986, 0.04570375
 163433767, 0.02235271, 0.001370399, -0.01750019, 0.001089464, -0.005365626, 0.0118118, -0.03963496, 0.0005187924, -0.009153492, 0.9963979, 0.04570375
 163633687, -0.01318698, 0.01613045, -0.1013838, 0.001089464, 0.005720669, 0.00899751, -0.00377237, 0.0005187924, -0.009960376, 0.996447, 0.04570375
 163833607, 0.03503789, 0.01752023, 0.01880508, 0.001089464, 0.01494179, 0.00376512, -0.02352612, 0.0005187924, -0.01028658, 0.9964401, 0.04570375
 164033527, 0.04307742, 0.02984664, -0.08278964, 0.001089464, 0.01822731, 0.01714472, -0.01563953, 0.0005187924, -0.009681056, 0.9965933, 0.04570375
 164234280, 0.01877135, 0.02698738, -0.01859139, 0.001091626, 0.02318178, 0.01086534, 0.02224065, 0.000520954, -0.009851479, 0.9965103, 0.04121499
 164434200, 0.02891856, 0.00820033, -0.0111541, 0.001091626, -0.004962978, -0.002191309, -0.07295532, 0.0005187924, -0.009962339, 0.9967197, 0.04579443
 164634120, -0.01434111, -0.003073333, -0.106189, 0.001089464, -0.007170611, 0.00167267, -0.02283414, 0.0005187924, -0.009481207, 0.9968199, 0.04570375
 164834040, 0.004496565, 0.01020877, -0.005846862, 0.001089464, 0.005636537, 0.00977161, 0.03776171, 0.0005187924, -0.009083183, 0.996666, 0.04570375
 165033960, 0.01252164, 0.02958682, 0.03766519, 0.001089464, 0.006865812, 0.000980531, -0.002275796, 0.0005187924, -0.01050458, 0.9967127, 0.05027412
 165233880, 0.01448845, 0.004045676, -0.01297713, 0.001089464, -0.002402571, 0.006042057, 0.04279388, 0.0005187924, -0.009958996, 0.9966871, 0.04570375
 165433800, -0.005936833, 0.03802008, 0.05573048, 0.001089464, -0.009626643, 0.0006572388, -0.01491732, 0.0005187924, -0.01084274, 0.9967313, 0.04570375
 165633720, -0.01256547, -0.01215282, -0.06843496, 0.001089464, 0.01332166, -0.01253104, 0.01058422, 0.0005187924, -0.01068993, 0.9968263, 0.04570375
 165833640, 0.03539435, -0.01904453, -0.03140147, 0.001089464, -0.0087908, 0.002936157, -0.05295447, 0.0005187924, -0.01033172, 0.9969912, 0.04570375
 166033560, -0.0119327, 0.00937807, -0.07376998, 0.001089464, 0.0007121639, 0.01553125, 0.01844622, 0.0005187924, -0.00916137, 0.9969861, 0.04570375
 166233480, 0.00565396, 0.03356257, -0.02739164, 0.001089464, 0.002170553, 0.008694972, -0.03397288, 0.0005187924, -0.01029182, 0.9971614, 0.04570375
 166434233, 0.00969838, 0.01765758, -0.06050242, 0.001091626, 0.001950379, 0.01135176, 0.02084851, 0.000520954, -0.01078144, 0.9971337, 0.04121499
 166634153, 0.00840262, 0.01481206, -0.01493827, 0.001091626, -0.01837888, 0.001998009, -0.02662274, 0.0005187924, -0.01121067, 0.9972486, 0.04579443
 166834073, -0.01076557, -0.000601624, -0.05639605, 0.001089464, 0.008881141, 0.008391595, 0.005310356, 0.0005187924, -0.01066891, 0.9972782, 0.04570375
 167033993, 0.01934845, 0.01789826, 0.07575899, 0.001089464, 0.004206188, -0.0007065181, 0.04841026, 0.0005187924, -0.01008311, 0.9970796, 0.04570375
 167233913, 0.008886927, 0.005565974, 0.02438328, 0.001089464, -0.004390139, 0.004665294, -0.00970414, 0.0005187924, -0.01042061, 0.9972047, 0.05027412
 167433833, -0.003382871, 0.0321372, -0.07242247, 0.001089464, 0.00177135, 0.006563691, -0.01286469, 0.0005187924, -0.00937255, 0.9973626, 0.04570375
 167633753, -0.001413626, 0.03563085, -0.04415737, 0.001089464, -0.00950968, 0.023009, 0.0009844655, 0.0005187924, -0.00816647, 0.9973748, 0.04570375
 167833673, -0.01248774, 0.05319794, -0.02119591, 0.001089464, -0.004859231, 0.01487685, -0.008590885, 0.0005187924, -0.009029335, 0.9974456, 0.04570375
 168033593, -0.007634872, 0.03317877, -0.06012619, 0.001089464, 0.002816546, 0.01170158, -0.03816717, 0.0005187924, -0.007597676, 0.9975817, 0.04570375
 168233513, -0.009912986, 0.03276728, -0.08863347, 0.001089464, -0.007811787, 0.01092202, -0.02923196, 0.0005187924, -0.009012858, 0.9976657, 0.04570375
 168434266, -0.02251582, -0.01045755, 0.02009313, 0.001091626, -0.004853729, -0.00688058, 0.02408608, 0.000520954, -0.008843937, 0.9975179, 0.04121499
 168634186, -0.01168815, 0.002669681, 0.0555135, 0.001091626, -0.00659906, 0.01264806, -0.0005261128, 0.0005187924, -0.007577083, 0.9975131, 0.04579443
 168834106, -0.01482635, 0.03076777, -0.06140234, 0.001089464, -0.004608168, 0.002523351, -0.0554231, 0.0005187924, -0.007826854, 0.9976601, 0.04570375
 169034026, -0.01650973, 0.01630529, -0.02942273, 0.001089464, -0.009383708, 0.01446632, 0.0257123, 0.0005187924, -0.007082478, 0.9975092, 0.04570375
 169233946, -0.01499184, 0.03189028, 0.149252, 0.001089464, -0.002162586, -0.01250743, 0.0622157, 0.0005187924, -0.007563006, 0.9971945, 0.05027412
 169433866, -0.0007592044, -0.03103327, 0.1004457, 0.001089464, 0.000345176, -0.007396439, -0.01375201, 0.0005187924, -0.008153176, 0.997243, 0.04570375
 169633786, 0.0001104804, 0.01029674, -0.099582, 0.001089464, 0.006675375, 0.02318296, -0.04387168, 0.0005187924, -0.007648284, 0.9974536, 0.04570375
 169833706, 0.00125443, 0.03885913, -0.146418, 0.001089464, -0.01699348, 0.0001848185, -0.03919883, 0.0005187924, -0.008433265, 0.9976608, 0.04570375
 170033626, -0.007868554, -0.01681884, -0.007803028, 0.001089464, 0.0003133181, 0.0008059571, 0.03146801, 0.0005187924, -0.008538789, 0.9975041, 0.04570375
 170233546, 0.008180128, 0.02057961, 0.05962813, 0.001089464, 0.007216285, 0.01417268, -0.007612234, 0.0005187924, -0.007588075, 0.9975069, 0.04570375
 170434299, 0.01785086, 0.02376524, 0.04931337, 0.001091626, 0.01349275, -0.01474034, 0.03871999, 0.0005187924, -0.008621416, 0.9973198, 0.04579443
 170634219, 0.01938031, -0.03384242, 0.06260943, 0.001091626, -0.0005503365, -0.0112998, 4.435195E-05, 0.000520954, -0.008221315, 0.9973204, 0.04121499
 170834139, 0.002596477, -0.02974115, -0.07675125, 0.001091626, 0.004381247, -0.007083098, -0.05907672, 0.0005187924, -0.008494097, 0.9975762, 0.04579443
 171034059, 0.006333381, 0.0170436, -0.1354967, 0.001089464, -0.002329609, 0.0140872, 0.01777689, 0.0005187924, -0.007862987, 0.9975992, 0.04570375
 171233979, 0.01207372, 0.02635126, 0.03894958, 0.001089464, -0.003455173, -0.004766955, -0.0003371797, 0.0005187924, -0.009286251, 0.9975963, 0.05027412
 171433899, -0.007735776, 0.003398144, -0.0101552, 0.001089464, -0.005872497, 0.002696797, 0.01644897, 0.0005187924, -0.009407286, 0.9975762, 0.04570375
 171633819, -0.01877975, 0.01889018, 0.06499541, 0.001089464, -0.009354101, 0.03095204, -0.004112314, 0.0005187924, -0.007385336, 0.9975222, 0.04570375
 171833739, -0.0583153, 0.08884924, -0.03714761, 0.001089464, -0.02297597, 0.02602192, 0.008207852, 0.0005187924, -0.007163716, 0.9975703, 0.04570375
 172033659, -0.006527009, 0.03091646, 0.01673292, 0.001089464, 0.03733089, -0.01451795, -0.005531386, 0.0005187924, -0.00884558, 0.9975793, 0.04570375
 172233579, 0.06323376, -0.0251263, -0.009938526, 0.001089464, -0.006436079, 0.004969603, -0.02097816, 0.0005187924, -0.007933607, 0.9976168, 0.04570375
 172433499, -0.08607594, 0.01107827, -0.0629468, 0.001089464, -0.03525854, 0.007121108, -0.03513475, 0.0005187924, -0.007880625, 0.9977373, 0.04570375
 172634252, -0.06260404, -0.001969938, -0.09219689, 0.001091626, -0.005623149, -0.01093758, -0.03885006, 0.000520954, -0.009033203, 0.9978262, 0.04121499
 172834172, 0.03978352, 0.01524554, -0.02710433, 0.001091626, 0.03735689, 0.02714006, 0.04528441, 0.0005187924, -0.006296439, 0.9977181, 0.04579443
 173034092, 0.07994303, 0.07753374, 0.1172314, 0.001089464, 0.009830043, 0.008583575, 0.04063921, 0.0005187924, -0.007775733, 0.9975922, 0.04570375
 173234012, -0.0683917, 0.0306742, 0.0350945, 0.001089464, -0.06114595, 0.01616488, -0.003542188, 0.0005187924, -0.007703419, 0.997666, 0.04570375
 173433932, -0.1037032, 0.03857616, -0.01610959, 0.001089464, 0.00224802, 0.01491947, -0.004879525, 0.0005187924, -0.005633202, 0.9977072, 0.05027412
 173633852, 0.02332915, 0.0619361, -0.02751208, 0.001089464, 0.03108654, 0.02010671, -0.007202413, 0.0005187924, -0.005718961, 0.9977233, 0.04570375
 173833772, 0.09457549, 0.03736116, -0.0566523, 0.001089464, 0.008934714, 0.008416124, -0.03422407, 0.0005187924, -0.004548592, 0.9978772, 0.04570375
 174033692, -0.008862101, 0.04375975, -0.05861733, 0.001089464, -0.02727011, 0.007947783, 0.0007009562, 0.0005187924, -0.003794492, 0.9978948, 0.04570375
 174233612, -0.1164749, 0.04414312, -0.005645096, 0.001089464, -0.0205805, 0.01576507, -0.0208733, 0.0005187924, -0.001613388, 0.9979289, 0.04570375
 174433532, -0.02786267, 0.05323417, -0.03830186, 0.001089464, -0.004147175, 0.01447773, 0.02255424, 0.0005187924, -0.001683758, 0.9978983, 0.04570375
 174634285, -0.008796949, 0.01826671, 0.08613542, 0.001091626, -0.002686117, -0.008792458, 0.01841602, 0.000520954, -0.002419773, 0.9977651, 0.04121499
 174834205, 0.03504507, -0.01335719, 0.06993697, 0.001091626, 0.04952007, -0.002685345, -0.01286031, 0.0005187924, -0.001361453, 0.9977361, 0.04579443
 175034125, 0.09041777, 0.01102782, -0.004128186, 0.001089464, 0.0002981746, 0.0115363, 0.005660062, 0.0005187924, -0.0007706361, 0.9976996, 0.04570375
 175234045, -0.07010677, 0.02612458, -0.01007442, 0.001089464, -0.05514906, 0.003861712, -0.02511092, 0.0005187924, -0.0003597816, 0.9977915, 0.04570375
 175433965, -0.09690017, 0.02838527, -0.02386681, 0.001089464, -0.0004151227, 0.005216533, 0.004756741, 0.0005187924, -0.0006859306, 0.9977432, 0.05027412
 175633885, 0.03554986, 0.0230105, -0.0274163, 0.001089464, 0.04548492, 0.009443128, -0.0127603, 0.0005187924, -0.0001962236, 0.997787, 0.04570375
 175833805, 0.09791536, 0.03855328, 0.006241359, 0.001089464, 0.001288602, 0.015708, 0.01705241, 0.0005187924, -8.360708E-05, 0.9977214, 0.04570375
 176033725, -0.01121201, 0.02170974, 0.03141488, 0.001089464, -0.01149538, -0.0004375324, -0.01731285, 0.0005187924, -0.001488362, 0.9977577, 0.04570375
 176233645, -0.0332619, -0.00573683, -0.1238555, 0.001089464, -0.01269023, 0.0002369491, -0.03026638, 0.0005187924, -0.001188783, 0.9979862, 0.04570375
 176433565, -0.02231175, -0.01346557, -0.07165191, 0.001089464, -0.00514964, -0.0163415, 0.01140071, 0.0005187924, -0.002203266, 0.9980081, 0.04570375
 176633485, -0.01620136, -0.01677059, 0.05024553, 0.001089464, 0.004768091, 0.001860291, -0.03029241, 0.0005187924, -0.001311745, 0.9979832, 0.04570375
 176834238, -0.005092256, 0.03269881, -0.007305572, 0.001091626, -0.01333485, 0.007918973, 0.04173846, 0.000520954, 0.0001487369, 0.9978537, 0.04121499
 177034158, -0.04999683, 0.0277945, 0.1266181, 0.001091626, 0.0107611, -0.006957867, 0.03924642, 0.0005187924, -0.000775988, 0.9977083, 0.04579443
 177234078, 0.03270088, 0.01054789, 0.08141076, 0.001089464, 0.01129604, 0.02100471, 0.005700643, 0.0005187924, 6.769552E-05, 0.9976008, 0.04570375
 177433998, 0.0140336, 0.02290753, 0.04104785, 0.001089464, -0.001461419, -0.005488605, -0.02191136, 0.0005187924, -0.0003156372, 0.9975896, 0.04570375
 177633918, -0.004089681, -0.01423379, -0.06194568, 0.001089464, 0.0003406061, 0.006805549, -0.04012076, 0.0005187924, -3.677041E-05, 0.9977075, 0.05027412
 177833838, -0.0122289, 0.02569798, -0.1452211, 0.001089464, -0.007535517, 0.006193066, -0.05904896, 0.0005187924, -8.572538E-05, 0.9979287, 0.04570375
 178033758, -0.02808355, 0.0006777621, -0.1782488, 0.001089464, -0.01824723, 0.004824744, -0.0370564, 0.0005187924, -0.0003727008, 0.9981239, 0.04570375
 178233678, -0.03958666, 0.0157607, 0.003940608, 0.001089464, 0.0009121946, 0.003092202, 0.03388222, 0.0005187924, -0.0006075256, 0.9979869, 0.04570375
 178433598, -0.005069869, 0.0122072, 0.09586406, 0.001089464, 0.007425491, 0.00147655, 0.0259329, 0.0005187924, -0.0002802227, 0.9978572, 0.04570375
 178633518, 0.002411634, 0.01477204, 0.06897868, 0.001089464, 0.000945816, 0.01693908, 0.003277516, 0.0005187924, 0.000726107, 0.9978018, 0.04570375
 178834271, -0.005505351, 0.05600009, 0.03004928, 0.001091626, -0.00677729, 0.03805909, 0.0351472, 0.000520954, 0.001939951, 0.9977255, 0.04121499
 179034191, -0.00309464, 0.07479718, 0.07346324, 0.001091626, -0.001678615, 0.0232461, 0.01879773, 0.0005187924, 0.002444922, 0.9976856, 0.04579443
 179234111, -0.007713181, 0.06973566, -0.03046991, 0.001089464, 0.006533182, 0.02452852, -0.04550325, 0.0005187924, 0.002362626, 0.997839, 0.04570375
 179434031, -0.002543225, 0.05576657, -0.0444482, 0.001089464, -0.0139433, -0.004971746, 0.03976901, 0.0005187924, 0.002753979, 0.9977241, 0.04570375
 179633951, -0.02074936, 0.02334491, 0.03723316, 0.001089464, -0.009944244, 0.0187856, -0.02169027, 0.0005187924, 0.002962152, 0.9978095, 0.05027412
 179833871, -0.02325444, 0.02548647, -0.07582305, 0.001089464, -0.01367012, -0.00443297, -0.03619224, 0.0005187924, 0.002626909, 0.997918, 0.04570375
 180033791, -0.02925882, 0.1635861, -0.06167725, 0.001089464, 0.0001353324, 0.2333602, 0.008847892, 0.0005187924, -0.008969323, 0.99782, 0.04570375
 180233711, -0.07566026, -0.9019496, -0.2729396, 0.001089464, -0.08605754, -1.363886, -0.06321742, 0.0005187924, -0.06364746, 0.9933399, 0.04570375
 180433631, -0.3599765, -4.946741, 1.299519, 0.001089464, -0.1483004, -1.774209, 0.8006738, 0.0005187924, -0.08696408, 0.994536, 0.04570375
 180633551, -1.663665, -8.23972, 0.4188848, 0.001089464, -1.31847, -3.758437, -1.152107, 0.0005187924, -0.3054875, 0.951057, 0.04570375
 180834304, -4.5245, -10.00307, -4.483941, 0.001091626, -1.224612, -1.77275, -1.279522, 0.0005187924, -0.4790714, 0.8712581, 0.04579443
 181034224, -2.735259, -3.8543, -2.329477, 0.001091626, -0.4287159, -0.5777025, 0.02567603, 0.000520954, -0.5407645, 0.8364826, 0.04121499
 181234144, -1.028018, -1.206608, 0.8683132, 0.001091626, -0.3095118, -0.2411348, 0.5342262, 0.0005187924, -0.5629092, 0.8246862, 0.04579443
 181434064, -1.089392, -0.8046136, 1.526495, 0.001089464, -0.447936, -0.3430002, 0.428059, 0.0005187924, -0.5863873, 0.8092989, 0.04570375
 181633984, -1.541828, -1.297667, 0.9355466, 0.001089464, -0.5648901, -0.5176246, 0.1916639, 0.0005187924, -0.6227401, 0.7820315, 0.04570375
 181833904, -1.77822, -1.631204, 0.4526893, 0.001089464, -0.5669748, -0.5100574, 0.09105033, 0.0005187924, -0.6640546, 0.7474859, 0.05027412
 182033824, -1.843351, -1.60667, 0.2796726, 0.001089464, -0.5889828, -0.4822926, 0.08531494, 0.0005187924, -0.70325, 0.7108653, 0.04570375
 182233744, -1.871706, -1.470113, 0.2980553, 0.001089464, -0.5911118, -0.4445204, 0.08076678, 0.0005187924, -0.7389495, 0.6737525, 0.04570375
 182433664, -1.921983, -1.365722, 0.2756951, 0.001089464, -0.6126164, -0.40625, 0.08854651, 0.0005187924, -0.7730418, 0.6343409, 0.04570375
 182633584, -1.978172, -1.250612, 0.2699431, 0.001089464, -0.6255173, -0.3773179, 0.06520361, 0.0005187924, -0.8040647, 0.5944656, 0.04570375
 182833504, -2.026438, -1.161389, 0.2021549, 0.001089464, -0.6302438, -0.3377271, 0.07856829, 0.0005187924, -0.8333772, 0.5524892, 0.04570375
 183034257, -2.015621, -1.025386, 0.2603593, 0.001091626, -0.6867694, -0.3220687, 0.09183664, 0.000520954, -0.8591847, 0.5111934, 0.04121499
 183234177, -2.076218, -0.9335611, 0.2225895, 0.001091626, -0.7132558, -0.2961288, 0.02472536, 0.0005187924, -0.8834189, 0.4678352, 0.04579443
 183434097, -2.085926, -0.8273742, 0.1310651, 0.001089464, -0.655372, -0.236931, 0.06717423, 0.0005187924, -0.9038879, 0.4265865, 0.04570375
 183634017, -1.969989, -0.6701258, 0.2174014, 0.001089464, -0.6373078, -0.1902641, 0.09741383, 0.0005187924, -0.9213559, 0.3867877, 0.04570375
 183833937, -1.893608, -0.5516211, 0.2717135, 0.001089464, -0.5622574, -0.1465869, 0.07760814, 0.0005187924, -0.9367965, 0.3468607, 0.05027412
 184033857, -1.835657, -0.464215, 0.2191304, 0.001089464, -0.5932885, -0.1322225, 0.03304446, 0.0005187924, -0.9506204, 0.3061381, 0.04570375
 184233777, -1.875196, -0.4016361, 0.1103091, 0.001089464, -0.5808616, -0.1061828, 0.02304462, 0.0005187924, -0.9624436, 0.2658726, 0.04570375
 184433697, -1.786563, -0.3020838, 0.090024, 0.001089464, -0.5214241, -0.07177782, 0.04492335, 0.0005187924, -0.9718468, 0.2279567, 0.04570375
 184633617, -1.618892, -0.1937845, 0.1834623, 0.001089464, -0.4854707, -0.03775022, 0.07968403, 0.0005187924, -0.9790067, 0.1925586, 0.04570375
 184833537, -1.556091, -0.1141897, 0.1939038, 0.001089464, -0.4631193, -0.0348714, 0.06099425, 0.0005187924, -0.9848806, 0.1573534, 0.04570375
 185034290, -1.510683, -0.08286018, 0.1413631, 0.001091626, -0.4778052, -0.02030476, 0.03412266, 0.000520954, -0.9895467, 0.1221372, 0.04579443
 185234210, -1.445262, -0.03904713, 0.1662502, 0.001091626, -0.4559655, 0.0008988267, 0.09816948, 0.0005187924, -0.9923035, 0.09149317, 0.04121499
 185434130, -1.383007, 0.002903142, 0.1550318, 0.001089464, -0.4539801, 0.004911001, -0.001100119, 0.0005187924, -0.9944897, 0.06013109, 0.04570375
 185634050, -1.299018, 0.01348765, 0.07207905, 0.001089464, -0.4009787, 0.007517589, 0.0563572, 0.0005187924, -0.9952851, 0.03022772, 0.04570375
 185833970, -1.207719, 0.03067522, 0.1088631, 0.001089464, -0.3317136, 0.01223152, 0.03308718, 0.0005187924, -0.9954794, 0.004278601, 0.05027412
 186033890, -1.077373, 0.0418849, 0.02654039, 0.001089464, -0.3166435, 0.00350788, -0.02741518, 0.0005187924, -0.9952073, -0.02130203, 0.04570375
 186233810, -0.9665439, 0.05003802, -0.02457488, 0.001089464, -0.2676298, 0.02290667, 0.01660598, 0.0005187924, -0.9942042, -0.04356932, 0.04570375
 186433730, -0.8259551, 0.07705768, 0.003500283, 0.001089464, -0.2371282, 0.02391861, -0.0004279332, 0.0005187924, -0.992923, -0.06448999, 0.04570375
 186633650, -0.7610294, 0.07841219, -0.04316228, 0.001089464, -0.2307367, 0.02830982, -0.02304824, 0.0005187924, -0.9914932, -0.08375183, 0.04570375
 186833570, -0.704326, 0.08797049, -0.08221337, 0.001089464, -0.1992316, 0.02805256, 0.005049401, 0.0005187924, -0.9897705, -0.1019623, 0.04570375
 187033490, -0.581319, 0.07815862, -0.007162661, 0.001089464, -0.1605095, 0.0156896, 0.02461793, 0.0005187924, -0.9879003, -0.1171314, 0.04570375
 187234243, -0.5127769, 0.06101196, 0.03683608, 0.001091626, -0.172408, 0.004861826, 0.01142049, 0.000520954, -0.9858581, -0.1322194, 0.04121499
 187434163, -0.499763, 0.03657107, -0.06034777, 0.001091626, -0.1574067, 0.0122528, -0.0242078, 0.0005187924, -0.9843603, -0.144119, 0.04579443
 187634083, -0.4167678, 0.03200488, -0.1157331, 0.001089464, -0.1089626, 0.006111202, -0.02004464, 0.0005187924, -0.9829398, -0.1545927, 0.04570375
 187834003, -0.3322227, 0.02222834, 0.01531973, 0.001089464, -0.09429426, 0.002448763, 0.04966426, 0.0005187924, -0.9811168, -0.1640062, 0.04570375
 188033923, -0.2664015, 0.005447251, 0.0472899, 0.001089464, -0.07138422, -0.008499791, -0.06002723, 0.0005187924, -0.9800689, -0.17118, 0.05027412
 188233843, -0.1791475, -0.01127103, -0.2416036, 0.001089464, -0.03885259, 0.004027896, -0.08182646, 0.0005187924, -0.9793138, -0.17816, 0.04570375
 188433763, -0.1107123, 0.00348075, -0.1604522, 0.001089464, -0.0378864, 0.0111882, -0.0199956, 0.0005187924, -0.9784225, -0.1837538, 0.04570375
 188633683, -0.0766802, 0.009166434, -0.1353152, 0.001089464, -0.01185661, -0.00266282, -0.07927736, 0.0005187924, -0.9781851, -0.1870501, 0.04570375
 188833603, -0.01494362, -0.008937908, -0.1844108, 0.001089464, 0.006588493, -0.0002650027, -0.0184099, 0.0005187924, -0.9778363, -0.1899093, 0.04570375
 189033523, 0.01495295, 0.001890459, -0.09700526, 0.001089464, 0.007498335, -0.00119494, -0.03795135, 0.0005187924, -0.9776005, -0.1921385, 0.04570375
 189234276, 0.06231042, -0.006139983, -0.05603457, 0.001091626, 0.03216635, -0.003234308, 0.03533996, 0.000520954, -0.9778412, -0.1905644, 0.04121499
 189434196, 0.1432046, -0.01425233, 0.007755697, 0.001091626, 0.06869222, -0.008384673, -0.05691214, 0.0005187924, -0.9783604, -0.188876, 0.04579443
 189634116, 0.1928072, -0.01410289, -0.1905269, 0.001089464, 0.03995132, -0.001915213, -0.1099472, 0.0005187924, -0.9786968, -0.1894355, 0.04570375
 189834036, 0.1682304, -0.01950531, -0.2103276, 0.001089464, 0.08661091, -0.01221188, -0.03164892, 0.0005187924, -0.979923, -0.1838737, 0.04570375
 190033956, 0.2534062, -0.04147032, -0.08784791, 0.001089464, 0.08014674, -0.01878289, -0.01904679, 0.0005187924, -0.9805565, -0.1812219, 0.05027412
 190233876, 0.2391357, -0.04809105, -0.1027444, 0.001089464, 0.06892141, 0.003055144, -0.007566762, 0.0005187924, -0.9813663, -0.1777326, 0.04570375
 190433796, 0.2406389, -0.01528382, 0.007101918, 0.001089464, 0.07164875, -0.02347575, 0.01189052, 0.0005187924, -0.982192, -0.1728867, 0.04570375
 190633716, 0.2294589, -0.04566938, 0.05967838, 0.001089464, 0.0604201, -0.001878403, 0.03583923, 0.0005187924, -0.9827228, -0.1690305, 0.04570375
 190833636, 0.2316004, -0.03675635, -0.03219148, 0.001089464, 0.08971493, -0.02488258, -0.06741507, 0.0005187924, -0.9838408, -0.1640786, 0.04570375
 191033556, 0.2846266, -0.05671741, -0.1500564, 0.001089464, 0.103784, -0.02153102, -0.02657561, 0.0005187924, -0.9848643, -0.1588262, 0.04570375
 191233476, 0.3450019, -0.06053802, -0.134949, 0.001089464, 0.1211219, -0.0111497, -0.04815244, 0.0005187924, -0.9860708, -0.1526308, 0.04570375
 191434229, 0.3388435, -0.02481595, -0.05444148, 0.001091626, 0.09771544, -0.01681985, 0.01869683, 0.000520954, -0.9868864, -0.1469877, 0.04121499
 191634149, 0.3009177, -0.03609413, -0.00792459, 0.001091626, 0.1024136, -0.01216615, -0.01517805, 0.0005187924, -0.9879352, -0.1404054, 0.04579443
 191834069, 0.3600998, -0.03832058, -0.06737064, 0.001089464, 0.1318614, -0.008869713, -0.01170707, 0.0005187924, -0.9892284, -0.1318524, 0.04570375
 192033989, 0.387978, -0.02906848, -0.06425922, 0.001089464, 0.1253824, -0.01283909, -0.04422247, 0.0005187924, -0.9901125, -0.1261136, 0.04570375
 192233909, 0.3415702, -0.02714632, -0.08025984, 0.001089464, 0.1020006, -0.01386017, 0.001031939, 0.0005187924, -0.9909628, -0.1192839, 0.05027412
 192433829, 0.3428012, -0.04705232, -0.04134316, 0.001089464, 0.1210703, -0.01731308, -0.02812738, 0.0005187924, -0.9920714, -0.110674, 0.04570375
 192633749, 0.3361519, -0.04410128, -0.05475709, 0.001089464, 0.07854994, 0.0003217788, -0.008116145, 0.0005187924, -0.9926998, -0.1052717, 0.04570375
 192833669, 0.2536473, -0.005668327, -0.01166437, 0.001089464, 0.08142848, -0.00542476, -0.0158483, 0.0005187924, -0.993327, -0.09906295, 0.04570375
 193033589, 0.2801581, -0.02310969, -0.0868056, 0.001089464, 0.10271, -0.0169134, -0.02134976, 0.0005187924, -0.9942247, -0.09090436, 0.04570375
 193233509, 0.32605, -0.03862016, -0.05069121, 0.001089464, 0.0999179, -0.006982518, 0.0065414, 0.0005187924, -0.9948544, -0.08404324, 0.04570375
 193434262, 0.3057853, -0.001909226, -0.0646611, 0.001091626, 0.1011814, 0.003045858, -0.05777557, 0.000520954, -0.9954693, -0.07889564, 0.04121499
 193634182, 0.290498, -0.005043994, -0.1076127, 0.001091626, 0.08281727, 0.001257525, -0.01566873, 0.0005187924, -0.9959539, -0.07246739, 0.04579443
 193834102, 0.2521386, 0.002082729, 0.05374299, 0.001089464, 0.09700634, -0.001304538, 0.04532133, 0.0005187924, -0.9962941, -0.065424, 0.04570375
 194034022, 0.2714268, -0.009498958, 0.03985766, 0.001089464, 0.08670922, 0.005773871, -0.04101296, 0.0005187924, -0.9967478, -0.06007627, 0.04570375
 194233942, 0.2526908, 0.006897323, -0.1764164, 0.001089464, 0.06356466, 0.003934651, -0.03822971, 0.0005187924, -0.9971469, -0.05570086, 0.05027412
 194433862, 0.2008466, 0.007887726, -0.02148603, 0.001089464, 0.06367487, 0.00844807, 0.02290801, 0.0005187924, -0.9972985, -0.05160509, 0.04570375
 194633782, 0.2076738, -0.001715387, -0.01215068, 0.001089464, 0.06033139, -0.000361327, -0.02201515, 0.0005187924, -0.9976676, -0.04599349, 0.04570375
 194833702, 0.1968311, -0.01931551, -0.03162633, 0.001089464, 0.06040701, -0.01193679, 0.01114809, 0.0005187924, -0.9978343, -0.04184753, 0.04570375
 195033622, 0.1929107, -0.02977594, 0.04361594, 0.001089464, 0.05125082, -0.007149362, -0.002850536, 0.0005187924, -0.9979352, -0.03849125, 0.04570375
 195233542, 0.1478932, -0.01259346, 0.04705053, 0.001089464, 0.03655861, -0.003307455, 0.05853704, 0.0005187924, -0.9979324, -0.0341092, 0.04570375
 195434295, 0.133715, -0.03583343, 0.1751297, 0.001091626, 0.05324344, -0.02084515, -0.007600587, 0.000520954, -0.9979236, -0.0305253, 0.04579443
 195634215, 0.181376, -0.03408, -0.151468, 0.001091626, 0.07492569, 0.001706299, -0.08926813, 0.0005187924, -0.9983584, -0.02456644, 0.04121499
 195834135, 0.1776901, 0.003014574, -0.11014, 0.001089464, 0.04721304, 0.004779601, 0.01538541, 0.0005187924, -0.99837, -0.02274319, 0.04570375
 196034055, 0.1319291, 0.01052642, -0.02230015, 0.001089464, 0.05962657, 0.004902747, -0.05795904, 0.0005187924, -0.9985564, -0.02008108, 0.04570375
 196233975, 0.12623, 0.007071301, -0.1040046, 0.001089464, 0.02677966, -4.716342E-05, -0.01312293, 0.0005187924, -0.9986139, -0.0187642, 0.05027412
 196433895, 0.07852267, -0.01550515, -0.02975073, 0.001089464, 0.03311278, -0.001942369, -0.01194981, 0.0005187924, -0.9986866, -0.01500903, 0.04570375
 196633815, 0.08053371, -0.02010164, -0.01783926, 0.001089464, 0.02736263, -0.001549398, -0.01565631, 0.0005187924, -0.998727, -0.01201641, 0.04570375
 196833735, 0.1146228, -0.006629787, -0.01733081, 0.001089464, 0.04633066, -7.73113E-05, 0.02676351, 0.0005187924, -0.9987313, -0.008826016, 0.04570375
 197033655, 0.1917983, -0.001871937, 0.05611557, 0.001089464, 0.05758018, -0.0003018833, -0.007542835, 0.0005187924, -0.9987212, -0.007345108, 0.04570375
 197233575, 0.1061306, -0.005388517, -0.01079198, 0.001089464, -0.01212042, -0.0009925677, 0.02219113, 0.0005187924, -0.9987249, -0.005552114, 0.04570375
 197433495, 0.03004324, -0.0005881594, 0.01270503, 0.001089464, 0.01783639, -0.00544085, -0.003955975, 0.0005187924, -0.9987521, -0.004236038, 0.04570375
 197634248, 0.03948767, -0.01520605, 0.02497149, 0.001091626, 0.02040073, -0.002882224, 0.02617579, 0.000520954, -0.9987133, -0.001403457, 0.04121499
 197834168, 0.05636249, 0.004030672, -0.02625977, 0.001091626, 0.01566967, 0.003032465, -0.0207105, 0.0005187924, -0.9987882, -0.0004654846, 0.04579443
 198034088, 0.02685543, -0.004368949, -0.02021077, 0.001089464, 0.01398108, 0.003989657, -0.00966963, 0.0005187924, -0.9987872, 7.394229E-05, 0.04570375
 198234008, 0.02336171, 0.006039445, -0.0634158, 0.001089464, 0.00147004, 0.0134051, -0.03095982, 0.0005187924, -0.9988758, 0.0008561721, 0.04570375
 198433928, 0.007565102, 0.01518046, -0.04491793, 0.001089464, 0.003881344, 0.003029914, -0.02600182, 0.0005187924, -0.9989032, 0.001535792, 0.05027412
 198633848, 0.006990672, 0.005698028, 0.01934404, 0.001089464, 0.0004100399, -0.000712958, 0.01590293, 0.0005187924, -0.9987842, 0.002794239, 0.04570375
 198833768, 0.02190023, 0.008634813, 0.06187043, 0.001089464, 0.01023564, 0.005336594, -0.007290402, 0.0005187924, -0.998755, 0.00303479, 0.04570375
 199033688, 0.01673584, 0.03062963, -0.1427887, 0.001089464, -0.005396288, 0.01013628, -0.05109793, 0.0005187924, -0.9989797, 0.001819558, 0.04570375
 199233608, -0.02472849, 0.0369712, -0.01966157, 0.001089464, -0.01486245, 0.01383044, 0.04083306, 0.0005187924, -0.9988484, 0.002948305, 0.04570375
 199433528, 0.008306378, 0.03187867, 0.1320822, 0.001089464, 0.02287906, 0.007089443, 0.04529933, 0.0005187924, -0.9986961, 0.005200215, 0.04570375
 199634281, 0.02933669, 0.01951025, 0.1176779, 0.001091626, -0.006231603, 8.586819E-05, 0.008440716, 0.000520954, -0.9986432, 0.003150228, 0.04121499
 199834201, -0.001884829, 0.01907681, -0.002151626, 0.001091626, 0.008909182, 0.01453792, -0.01154866, 0.0005187924, -0.9986559, 0.005085996, 0.04579443
 200034121, 0.05169228, 0.01745739, 0.05224344, 0.001089464, 0.01461086, -0.006690941, 0.03636474, 0.0005187924, -0.9985049, 0.004701808, 0.04570375
 200234041, -0.02335346, -0.01042652, 0.05949924, 0.001089464, -0.05745289, -0.003197163, -0.01433029, 0.0005187924, -0.9985193, 0.003617478, 0.04570375
 200433961, -0.1129764, -0.01004825, 0.006660934, 0.001089464, 0.01319796, -0.004260134, 0.03505849, 0.0005187924, -0.9984233, 0.005810595, 0.05027412
 200633881, 0.1165361, -0.01010309, -0.01350287, 0.001089464, 0.07120362, -0.003924747, -0.05586744, 0.0005187924, -0.9985942, 0.004768442, 0.04570375
 200833801, 0.1382711, -0.0001051438, -0.03809898, 0.001089464, 0.02527945, 0.002067752, 0.03041691, 0.0005187924, -0.9985021, 0.004403371, 0.04570375
 201033721, 0.05256246, 0.01111054, 0.03914378, 0.001089464, 0.007964261, 0.01445347, -0.04974702, 0.0005187924, -0.9985439, 0.0050344, 0.04570375
 201233641, -0.00740854, 0.03040547, -0.05218992, 0.001089464, -0.02185631, 0.003101932, 0.04341725, 0.0005187924, -0.9984446, 0.00486071, 0.04570375
 201433561, -0.04513897, 0.005171236, 0.1195126, 0.001089464, -0.01674941, 0.01200789, -0.0183446, 0.0005187924, -0.9984217, 0.006170978, 0.04570375
 201633481, -0.03975765, 0.02735287, -0.1200265, 0.001089464, -0.01776218, 0.009012271, 0.0127236, 0.0005187924, -0.9985411, 0.00585485, 0.04570375
 201834234, -0.1419849, 0.02039457, 0.05308616, 0.001091626, -0.04941998, 0.0009465614, 0.03980362, 0.000520954, -0.9984485, 0.006359958, 0.04121499
 202034154, -0.07813419, 0.005827181, 0.1095473, 0.001091626, -0.001893497, 0.001995723, 0.02855699, 0.0005187924, -0.9983399, 0.005437376, 0.04579443
 202234074, -0.01154082, 0.01214978, 0.02795525, 0.001089464, -0.001801811, 0.006172375, -0.0162564, 0.0005187924, -0.9983611, 0.006390347, 0.04570375
 202433994, -0.008834355, 0.008151261, -0.001412847, 0.001089464, -0.01729405, 0.01053553, 0.002039494, 0.0005187924, -0.9983318, 0.004733131, 0.04570375
 202633914, -0.05659565, 0.0140151, 0.0165972, 0.001089464, 0.01729574, 0.01142031, -0.0009199276, 0.0005187924, -0.9983057, 0.0037213, 0.05027412
 202833834, 0.02209375, 0.02984228, 0.00768497, 0.001089464, -0.01668367, -0.009625692, -0.01522666, 0.0005187924, -0.9983165, 0.002156227, 0.04570375
 203033754, -0.03561034, 0.01252693, 7.130671E-05, 0.001089464, 0.00102328, 0.01148315, 0.02664091, 0.0005187924, -0.998234, 0.003979272, 0.04570375
 203233674, -0.01210363, 0.01558369, 0.04683226, 0.001089464, -0.01054192, -0.007167459, 0.0003563409, 0.0005187924, -0.9982688, 0.001564165, 0.04570375
 203433594, -0.03280171, -0.0321417, -0.02049077, 0.001089464, -0.003602091, 0.002467278, -0.0351992, 0.0005187924, -0.9983165, 0.0008778854, 0.04570375
 203633514, -0.02681177, 0.04177253, -0.02810417, 0.001089464, -0.006937432, -0.006691478, 0.05497201, 0.0005187924, -0.9981906, -0.0005167172, 0.04570375
 203834267, -0.04607128, -0.05612144, 0.1145696, 0.001091626, -0.02636996, -0.009355137, -0.007040526, 0.000520954, -0.9981309, -0.002565006, 0.04121499
 204034187, -0.05736196, -0.0108045, 0.0283623, 0.001091626, -0.02417527, 0.01771379, 0.008192198, 0.0005187924, -0.9980406, -0.003326657, 0.04579443
 204234107, -0.04533592, 0.03755641, 0.008153133, 0.001089464, -0.01101556, 0.005498951, -0.02226969, 0.0005187924, -0.998106, -0.00365362, 0.04570375
 204434027, -0.01590471, 0.01507626, -0.07181045, 0.001089464, -0.001219705, -0.003834187, 0.00219938, 0.0005187924, -0.9981443, -0.004394829, 0.04570375
 204633947, -0.01029552, -0.00966158, 0.0009734745, 0.001089464, -0.009987088, 0.006275968, 0.008123389, 0.0005187924, -0.9981448, -0.005576581, 0.05027412
 204833867, -0.04821759, 0.006208856, 0.01154019, 0.001089464, -0.01594509, -0.004858314, 0.002608686, 0.0005187924, -0.9981372, -0.006198003, 0.04570375
 205033787, -0.01852799, -0.005346808, 0.037948, 0.001089464, 0.01318216, 0.004649931, 0.03991895, 0.0005187924, -0.9980386, -0.004937311, 0.04570375
 205233707, 0.02616457, 0.01963432, -0.02271448, 0.001089464, -0.008562954, 0.005104217, -0.07661452, 0.0005187924, -0.9982547, -0.005420559, 0.04570375
 205433627, -0.0423732, 0.009362876, -0.05401808, 0.001089464, -0.03056154, 0.001797881, 0.04722393, 0.0005187924, -0.9980853, -0.007291874, 0.04570375
 205633547, -0.07593091, 0.009772394, 0.1241158, 0.001089464, -0.02827801, 0.003975667, 0.04664986, 0.0005187924, -0.9979334, -0.006488572, 0.04570375
 205834300, -0.06860713, 0.01736855, 0.07718091, 0.001091626, -0.009186269, 0.005430469, -0.006524241, 0.0005187924, -0.9979378, -0.007268818, 0.04579443
 206034220, -0.02574206, 0.03707157, -0.1092097, 0.001091626, -0.01473822, 0.0386263, -0.05455064, 0.000520954, -0.9981098, -0.00983706, 0.04121499
 206234140, -0.05550585, 0.06698777, -0.04746235, 0.001091626, -0.01106045, -0.01156431, 0.05182046, 0.0005187924, -0.9980261, -0.009691386, 0.04579443
 206434060, -0.01584179, -0.07662156, 0.1377389, 0.001089464, 0.008025575, -0.02378657, 0.04065876, 0.0005187924, -0.9978734, -0.008837926, 0.04570375
 206633980, -0.0003589969, -0.01368983, 0.03847074, 0.001089464, -0.007428806, 0.01445899, 0.001310587, 0.0005187924, -0.9979164, -0.01058989, 0.05027412
 206833900, -0.02443819, 0.09898551, -0.03209553, 0.001089464, -0.01084558, 0.02629252, -0.04328769, 0.0005187924, -0.9980329, -0.01053185, 0.04570375
 207033820, -0.01458875, 0.05323601, -0.04318234, 0.001089464, 0.01479964, 0.001174422, 0.01390797, 0.0005187924, -0.9979674, -0.01020828, 0.04570375
 207233740, 0.04962499, -0.00940478, 0.08569959, 0.001089464, 0.0216459, -0.009296445, 0.02213918, 0.0005187924, -0.9977979, -0.009320772, 0.04570375
 207433660, 0.04030905, -0.06058921, 0.1097519, 0.001089464, 0.009240769, -0.04361615, 0.02461154, 0.0005187924, -0.9976218, -0.0103846, 0.04570375
 207633580, 0.01757145, -0.06059979, -0.02569041, 0.001089464, 0.006259752, 0.01043615, -0.04402221, 0.0005187924, -0.9978362, -0.009228316, 0.04570375
 207833500, 0.01743297, 0.09595986, -0.1324046, 0.001089464, -0.004995716, 0.02957782, -0.01435163, 0.0005187924, -0.9979669, -0.01002686, 0.04570375
 208034253, -0.008467071, 0.04817007, -0.01565147, 0.001091626, -0.005456088, 0.002936262, -0.02269595, 0.000520954, -0.9979915, -0.00928328, 0.04121499
 208234173, 0.005437046, -0.007235112, -0.01277333, 0.001091626, 0.01324452, 0.001004461, 0.04249438, 0.0005187924, -0.9978911, -0.008278276, 0.04579443
 208434093, 0.04008608, -0.007512864, 0.1324991, 0.001089464, 0.01023157, 0.01157767, 0.05319686, 0.0005187924, -0.9977176, -0.007930366, 0.04570375
 208634013, 0.05637702, 0.02173084, 0.04856439, 0.001089464, 0.03015578, 0.004716149, -0.0145661, 0.0005187924, -0.9978224, -0.005579095, 0.04570375
 208833933, 0.146315, 0.01671789, -0.08386937, 0.001089464, 0.02685642, 0.003290827, -0.01384486, 0.0005187924, -0.9979841, -0.005572065, 0.05027412
 209033853, 0.08176575, 0.02241959, -0.09822664, 0.001089464, 0.0214293, 0.01580715, -0.01963011, 0.0005187924, -0.9981393, -0.004463911, 0.04570375
 209233773, 0.03457943, 0.0337364, -0.02525859, 0.001089464, -0.01618494, 0.006312223, 0.01807167, 0.0005187924, -0.9980816, -0.00548308, 0.04570375
 209433693, -0.0260915, 0.005312956, 0.1107613, 0.001089464, 0.0192782, -0.01091524, 0.01805527, 0.0005187924, -0.9979172, -0.003039279, 0.04570375
 209633613, 0.04209595, -0.01007172, 0.09597111, 0.001089464, -0.01070056, 0.001593817, 0.008539598, 0.0005187924, -0.9977995, -0.002821085, 0.04570375
 209833533, 0.007305573, 0.003014464, -0.007785199, 0.001089464, 0.04895149, 0.001062642, -0.01423953, 0.0005187924, -0.9978569, -0.001771645, 0.04570375
 210034286, 0.1111879, 0.0003265494, -0.01717895, 0.001091626, 0.01872654, -0.001464142, -0.02639843, 0.000520954, -0.9978778, -5.357316E-05, 0.04121499
 210234206, 0.04540417, 0.004508154, 0.001918066, 0.001091626, -8.42689E-05, -0.001432015, 0.05765031, 0.0005187924, -0.9977766, -0.0004570745, 0.04579443
 210434126, -0.01496311, 0.006206485, 0.06101894, 0.001089464, -0.005820034, 0.00382115, -0.01143919, 0.0005187924, -0.9977906, 0.0007961851, 0.04570375
 210634046, -0.02043885, 0.01331035, -0.1332985, 0.001089464, -0.2093156, 0.005126274, -0.1926263, 0.0005187924, -0.9956313, -0.05206342, 0.04570375
 210833966, -2.984597, 0.2034624, 0.07173863, 0.001089464, -1.627766, 0.1472772, 0.6942318, 0.0005187924, -0.9914938, -0.07751023, 0.05027412
 211033886, -6.098859, 0.7489159, 1.889637, 0.001089464, -2.855399, 0.5602072, -0.03269985, 0.0005187924, -0.9796159, -0.2000447, 0.04570375
 211233806, -10.15096, 3.265653, -2.542118, 0.001089464, -2.961146, 1.572722, -1.752292, 0.0005187924, -0.9019384, -0.424214, 0.04570375
 211433726, -6.738475, 4.02634, -4.375926, 0.001089464, -0.8964813, 0.655506, -0.5194908, 0.0005187924, -0.8429381, -0.5290463, 0.04570375
 211633646, -1.890021, 1.39747, -0.2672735, 0.001089464, -0.2489528, 0.2309508, 0.4452503, 0.0005187924, -0.8251334, -0.561528, 0.04570375
 211833566, -0.7111607, 0.8429711, 1.514913, 0.001089464, -0.2326822, 0.3394191, 0.4476851, 0.0005187924, -0.8137106, -0.5802396, 0.04570375
 212033486, -1.008916, 1.306893, 1.141982, 0.001089464, -0.4451886, 0.5034631, 0.2144639, 0.0005187924, -0.7897186, -0.6130514, 0.04570375
 212234239, -1.513801, 1.663773, 0.5516651, 0.001091626, -0.5358458, 0.5796146, 0.1536822, 0.000520954, -0.7578411, -0.6522949, 0.04121499
 212434159, -1.634723, 1.785797, 0.3802657, 0.001091626, -0.5491312, 0.6180285, 0.08600108, 0.0005187924, -0.7222957, -0.6915479, 0.04579443
 212634079, -1.563719, 1.866523, 0.2723266, 0.001089464, -0.5083655, 0.6498424, 0.06442147, 0.0005187924, -0.6850781, -0.7284687, 0.04570375
 212833999, -1.448232, 1.931973, 0.2378356, 0.001089464, -0.4540168, 0.6496648, 0.08064903, 0.0005187924, -0.6461152, -0.7632143, 0.04570375
 213033919, -1.335754, 1.998453, 0.2069306, 0.001089464, -0.3794852, 0.620955, 0.0588134, 0.0005187924, -0.6055715, -0.7957181, 0.05027412
 213233839, -1.161467, 1.951805, 0.2121057, 0.001089464, -0.3277723, 0.5841189, 0.09274577, 0.0005187924, -0.5656301, -0.8244745, 0.04570375
 213433759, -1.034561, 1.909337, 0.251272, 0.001089464, -0.3056512, 0.6102157, 0.06469531, 0.0005187924, -0.5239128, -0.8514417, 0.04570375
 213633679, -0.9275804, 1.920992, 0.235219, 0.001089464, -0.2644947, 0.5880433, 0.07406046, 0.0005187924, -0.4838473, -0.8746319, 0.04570375
 213833599, -0.7993358, 1.875842, 0.2215972, 0.001089464, -0.225704, 0.5905483, 0.06576901, 0.0005187924, -0.4440421, -0.8952945, 0.04570375
 214033519, -0.6904915, 1.893744, 0.1941597, 0.001089464, -0.2014815, 0.600983, 0.04315471, 0.0005187924, -0.4019962, -0.9146971, 0.04570375
 214234272, -0.6098507, 1.936631, 0.1382866, 0.001091626, -0.1904196, 0.6459907, 0.03482206, 0.000520954, -0.3600887, -0.9317911, 0.04121499
 214434192, -0.5350989, 1.871593, 0.2016774, 0.001091626, -0.1541795, 0.6037518, 0.1030116, 0.0005187924, -0.321135, -0.9455113, 0.04579443
 214634112, -0.4466412, 1.863401, 0.1907692, 0.001089464, -0.1431528, 0.6527124, 0.01999056, 0.0005187924, -0.2802737, -0.9582502, 0.04570375
 214834032, -0.3608948, 1.872035, 0.09936515, 0.001089464, -0.1069688, 0.5811972, 0.07136497, 0.0005187924, -0.2417556, -0.968331, 0.04570375
 215033952, -0.2756477, 1.762034, 0.133449, 0.001089464, -0.07366148, 0.5396535, 0.008625203, 0.0005187924, -0.2028304, -0.9770617, 0.05027412
 215233872, -0.1977876, 1.636021, 0.09991436, 0.001089464, -0.04905157, 0.4621587, 0.06302924, 0.0005187924, -0.167977, -0.9832544, 0.04570375
 215433792, -0.1313489, 1.487988, 0.1551425, 0.001089464, -0.02785173, 0.4613255, 0.01658062, 0.0005187924, -0.1336801, -0.9881717, 0.04570375
 215633712, -0.0603435, 1.432236, 0.08610409, 0.001089464, -0.00713352, 0.4397182, 0.02053202, 0.0005187924, -0.100509, -0.9917381, 0.04570375
 215833632, -0.008356799, 1.370725, 0.05487222, 0.001089464, 0.0002108272, 0.4168283, 0.002906304, 0.0005187924, -0.06952174, -0.9941167, 0.04570375
 216033552, 0.01747503, 1.283137, 0.057158, 0.001089464, 0.01512283, 0.3900392, 0.00485655, 0.0005187924, -0.04073792, -0.9954286, 0.04570375
 216234305, 0.05737579, 1.178559, 0.04809383, 0.001091626, 0.01604095, 0.3504201, 0.01537604, 0.0005187924, -0.0136254, -0.9958888, 0.04579443
 216434225, 0.05440443, 1.108137, 0.01951603, 0.001091626, 0.02154525, 0.3757271, 0.003436582, 0.000520954, 0.01366509, -0.9956537, 0.04121499
 216634145, 0.06318881, 1.050661, 0.01853747, 0.001091626, 0.0239981, 0.3101455, 0.02187473, 0.0005187924, 0.03559403, -0.9948573, 0.04579443
 216834065, 0.06219159, 0.9228116, 0.01338516, 0.001089464, 0.02556656, 0.2892844, -0.0012342, 0.0005187924, 0.05787205, -0.9936743, 0.04570375
 217033985, 0.07224975, 0.8152899, 0.04361998, 0.001089464, 0.02487826, 0.2526954, 0.03352547, 0.0005187924, 0.07505799, -0.9922253, 0.04570375
 217233905, 0.05881943, 0.7267756, -0.001283657, 0.001089464, 0.0210777, 0.2080226, -0.04704367, 0.0005187924, 0.0932307, -0.9907666, 0.05027412
 217433825, 0.05547748, 0.6342386, -0.06922413, 0.001089464, 0.006766467, 0.1743931, 0.01527728, 0.0005187924, 0.1087263, -0.988965, 0.04570375
 217633745, 0.02808793, 0.5144191, 0.04076878, 0.001089464, 0.001045936, 0.1416768, -0.002079894, 0.0005187924, 0.1220833, -0.9872476, 0.04570375
 217833665, 0.004420165, 0.4472601, -0.03735947, 0.001089464, -0.00672781, 0.11829, 0.02186453, 0.0005187924, 0.1337181, -0.9857125, 0.04570375
 218033585, -0.004529452, 0.3842736, -0.03936262, 0.001089464, 0.001943127, 0.1198587, -0.06192962, 0.0005187924, 0.1452622, -0.9842895, 0.04570375
 218233505, 0.009280358, 0.3384599, -0.1159488, 0.001089464, -0.004385212, 0.08007324, -0.002545578, 0.0005187924, 0.1532574, -0.9831035, 0.04570375
 218434258, -0.01948083, 0.2380682, -0.05524696, 0.001091626, -0.009655823, 0.07344495, -0.06039687, 0.000520954, 0.1598702, -0.9822315, 0.04121499
 218634178, -0.03083305, 0.1788925, -0.1753629, 0.001091626, -0.003749842, 0.04363427, -0.08473561, 0.0005187924, 0.1671732, -0.981317, 0.04579443
 218834098, -0.01912537, 0.1242474, -0.1639993, 0.001089464, -0.01197857, 0.03077845, -0.02554893, 0.0005187924, 0.1719048, -0.9806105, 0.04570375
 219034018, -0.04015611, 0.09964509, -0.143891, 0.001089464, -0.02012666, 0.02340221, -0.07589679, 0.0005187924, 0.1730453, -0.9807569, 0.04570375
 219233938, -0.05725593, 0.01019454, -0.1937087, 0.001089464, 0.000714583, -0.02198988, -0.06099301, 0.0005187924, 0.1735216, -0.9809839, 0.05027412
 219433858, -0.02329746, -0.08261033, -0.08394331, 0.001089464, -0.01740091, -0.03685385, 0.0118501, 0.0005187924, 0.1741518, -0.9808585, 0.04570375
 219633778, -0.04332275, -0.1205132, -0.1366072, 0.001089464, -0.01988508, -0.04398027, -0.076456, 0.0005187924, 0.1731975, -0.9814898, 0.04570375
 219833698, -0.04129928, -0.1300622, -0.1296323, 0.001089464, -0.01467773, -0.04459856, -0.01187488, 0.0005187924, 0.171756, -0.9817939, 0.04570375
 220033618, -0.05158666, -0.1204636, -0.09523918, 0.001089464, -0.009746501, -0.03140968, -0.03399109, 0.0005187924, 0.1717069, -0.9820353, 0.04570375
 220233538, -0.01862442, -0.123384, -0.1467496, 0.001089464, -0.01232774, -0.06187898, -0.04413746, 0.0005187924, 0.1668255, -0.9831454, 0.04570375
 220434291, -0.03286304, -0.2172705, -0.0702302, 0.001091626, 0.004635227, -0.05914787, 0.009929805, 0.000520954, 0.1640727, -0.9836078, 0.04579443
 220634211, -0.02821212, -0.2158934, -0.07328282, 0.001091626, -0.01158533, -0.08329782, -0.04573537, 0.0005187924, 0.1586574, -0.9846881, 0.04121499
 220834131, -0.03867105, -0.2681662, -0.1105726, 0.001089464, -0.01700602, -0.08947925, -0.06225289, 0.0005187924, 0.1538299, -0.9856337, 0.04570375
