TimeUS,CGpN,CGpE,CGpD,CGpe,PGpN,PGpE,PGpD,PGpe
 170465953, 0, 0, 0, 0.01, 0, 0, 0, 0
 170630887, 0, 0, 0, 0.01, 0, 0, 0, 0.01
 170830807, 0, 0, 0, 0.01, 0, 0, 0, 0.01
 171030727, 0, 0, 0, 0.01, 0, 0, 0, 0.01
 171231480, 0, 0, 0, 0.01, 0, 0, 0, 0.01
 171431400, 0, 0, 0, 0.01, 0, 0, 0, 0.01
 171631320, 0, 0, 0, 0.01, 0, 0, 0, 0.01
 171831240, 0, 0, 0, 0.01, 0, 0, 0, 0.01
 172031160, 0, 0, 0, 0.01, 0, 0, 0, 0.01
 172231080, 0, 0, 0, 0.01, 0, 0, 0, 0.01
 172431000, 0, 0, 0, 0.01, 0, 0, 0, 0.01
 172630920, 0, 0, 0, 0.01, 0, 0, 0, 0.01
 172830840, 0, 0, 0, 0.01, 0, 0, 0, 0.01
 173030760, 0, 0, 0, 0.01, 0, 0, 0, 0.01
 173230680, 0, 0, 0, 0.01, 0, 0, 0, 0.01
 173431433, 0, 0, 0, 0.01, 0, 0, 0, 0.01
 173631353, 0, 0, 0, 0.01, 0, 0, 0, 0.01
 173831273, 0, 0, 0, 0.01, 0, 0, 0, 0.01
 174031193, 0, 0, 0, 0.01, 0, 0, 0, 0.01
 174231113, 0, 0, 0, 0.01, 0, 0, 0, 0.01
 174431033, 0, 0, 0, 0.01, 0, 0, 0, 0.01
 174630953, 0, 0, 0, 0.01, 0, 0, 0, 0.01
 174830873, 0, 0, 0, 0.01, 0, 0, 0, 0.01
 175030793, 0, 0, 0, 0.01, 0, 0, 0, 0.01
 175230713, 0, 0, 0, 0.01, 0, 0, 0, 0.01
 175431466, 0, 0, 0, 0.01, 0, 0, 0, 0.01
 175631386, 0, 0, 0, 0.01, 0, 0, 0, 0.01
 175831306, 0, 0, 0, 0.01, 0, 0, 0, 0.01
 176031226, 0, 0, 0, 0.01, 0, 0, 0, 0.01
 176231146, 0, 0, 0, 0.01, 0, 0, 0, 0.01
 176431066, 0, 0, 0, 0.01, 0, 0, 0, 0.01
 176630986, 0, 0, 0, 0.01, 0, 0, 0, 0.01
 176830906, 0, 0, 0, 0.01, 0, 0, 0, 0.01
 177030826, 0, 0, 0, 0.01, 0, 0, 0, 0.01
 177230746, 0, 0, 0, 0.01, 0, 0, 0, 0.01
 177430666, 0, 0, 0, 0.01, 0, 0, 0, 0.01
 177631419, 0, 0, 0, 0.01, 0, 0, 0, 0.01
 177831339, 0, 0, 0, 0.01, 0, 0, 0, 0.01
 178031259, 0, 0, 0, 0.01, 0, 0, 0, 0.01
 178231179, 0, 0, 0, 0.01, 0, 0, 0, 0.01
 178431099, 0, 0, 0, 0.01, 0, 0, 0, 0.01
 178631019, 0, 0, 0, 0.01, 0, 0, 0, 0.01
 178830939, 0, 0, 0, 0.01, 0, 0, 0, 0.01
 179030859, 0, 0, 0, 0.01, 0, 0, 0, 0.01
 179230779, 0, 0, 0, 0.01, 0, 0, 0, 0.01
 179430699, 0, 0, 0, 0.01, 0, 0, 0, 0.01
 179631452, 0, 0, 0, 0.01, 0, 0, 0, 0.01
 179831372, 0, 0, 0, 0.01, 0, 0, 0, 0.01
 180031292, 0, 0, 0, 0.01, 0, 0, 0, 0.01
 180231212, 0, 0, 0, 0.01, 0, 0, 0, 0.01
 180431132, 0, 0, 0, 0.01, 0, 0, 0, 0.01
 180631052, 0, 0, 0, 0.01, 0, 0, 0, 0.01
 180830972, 0, 0, 0, 0.01, 0, 0, 0, 0.01
 181030892, 0, 0, 0, 0.01, 0, 0, 0, 0.01
 181230812, 0, 0, 0, 0.01, 0, 0, 0, 0.01
 181430732, 0, 0, 0, 0.01, 0, 0, 0, 0.01
 181631485, 0, 0, 0, 0.01, 0, 0, 0, 0.01
 181831405, 0, 0, 0, 0.01, 0, 0, 0, 0.01
 182031325, 0, 0, 0, 0.01, 0, 0, 0, 0.01
 182231245, 0, 0, 0, 0.01, 0, 0, 0, 0.01
 182431165, 0, 0, 0, 0.01, 0, 0, 0, 0.01
 182631085, 0, 0, 0, 0.01, 0, 0, 0, 0.01
 182831005, 0, 0, 0, 0.01, 0, 0, 0, 0.01
 183030925, 0, 0, 0, 0.01, 0, 0, 0, 0.01
 183230845, 0, 0, 0, 0.01, 0, 0, 0, 0.01
 183430765, 0, 0, 0, 0.01, 0, 0, 0, 0.01
 183630685, 0, 0, 0, 0.01, 0, 0, 0, 0.01
 183831438, 0, 0, 0, 0.01, 0, 0, 0, 0.01
 184031358, 0, 0, 0, 0.01, 0, 0, 0, 0.01
 184231278, 0, 0, 0, 0.01, 0, 0, 0, 0.01
 184431198, 0, 0, 0, 0.01, 0, 0, 0, 0.01
 184631118, 0, 0, 0, 0.01, 0, 0, 0, 0.01
 184831038, 0, 0, 0, 0.01, 0, 0, 0, 0.01
 185030958, 0, 0, 0, 0.01, 0, 0, 0, 0.01
 185230878, 0, 0, 0, 0.01, 0, 0, 0, 0.01
 185430798, 0, 0, 0, 0.01, 0, 0, 0, 0.01
 185630718, 0, 0, 0, 0.01, 0, 0, 0, 0.01
 185831471, 0, 0, 0, 0.01, 0, 0, 0, 0.01
 186031391, 0, 0, 0, 0.01, 0, 0, 0, 0.01
 186231311, 0, 0, 0, 0.01, 0, 0, 0, 0.01
 186431231, 0, 0, 0, 0.01, 0, 0, 0, 0.01
 186631151, 0, 0, 0, 0.01, 0, 0, 0, 0.01
 186831071, 0, 0, 0, 0.01, 0, 0, 0, 0.01
 187030991, 0, 0, 0, 0.01, 0, 0, 0, 0.01
 187230911, 0, 0, 0, 0.01, 0, 0, 0, 0.01
 187430831, 0, 0, 0, 0.01, 0, 0, 0, 0.01
 187630751, 0, 0, 0, 0.01, 0, 0, 0, 0.01
 187830671, 0, 0, 0, 0.01, 0, 0, 0, 0.01
 188031424, 0, 0, 0, 0.01, 0, 0, 0, 0.01
 188231344, 0, 0, 0, 0.01, 0, 0, 0, 0.01
 188431264, 0, 0, 0, 0.01, 0, 0, 0, 0.01
 188631184, 0, 0, 0, 0.01, 0, 0, 0, 0.01
 188831104, 0, 0, 0, 0.01, 0, 0, 0, 0.01
 189031024, 0, 0, 0, 0.01, 0, 0, 0, 0.01
 189230944, 0, 0, 0, 0.01, 0, 0, 0, 0.01
 189430864, 0, 0, 0, 0.01, 0, 0, 0, 0.01
 189630784, 0, 0, 0, 0.01, 0, 0, 0, 0.01
 189830704, 0, 0, 0, 0.01, 0, 0, 0, 0.01
 190031457, 0, 0, 0, 0.01, 0, 0, 0, 0.01
 190231377, 0, 0, 0, 0.01, 0, 0, 0, 0.01
 190431297, 0, 0, 0, 0.01, 0, 0, 0, 0.01
 190631217, 0, 0, 0, 0.01, 0, 0, 0, 0.01
 190831137, 0, 0, 0, 0.01, 0, 0, 0, 0.01
 191031057, 0, 0, 0, 0.01, 0, 0, 0, 0.01
 191230977, 0, 0, 0, 0.01, 0, 0, 0, 0.01
 191430897, 0, 0, 0, 0.01, 0, 0, 0, 0.01
 191630817, 0, 0, 0, 0.01, 0, 0, 0, 0.01
 191830737, 0, 0, 0, 0.01, 0, 0, 0, 0.01
 192030657, 0, 0, 0, 0.01, 0, 0, 0, 0.01
 192231410, 0, 0, 0, 0.01, 0, 0, 0, 0.01
 192431330, 0, 0, 0, 0.01, 0, 0, 0, 0.01
 192631250, 0, 0, 0, 0.01, 0, 0, 0, 0.01
 192831170, 0, 0, 0, 0.01, 0, 0, 0, 0.01
 193031090, 0, 0, 0, 0.01, 0, 0, 0, 0.01
 193231010, 0, 0, 0, 0.01, 0, 0, 0, 0.01
 193430930, 0, 0, 0, 0.01, 0, 0, 0, 0.01
 193630850, 0, 0, 0, 0.01, 0, 0, 0, 0.01
 193830770, 0, 0, 0, 0.01, 0, 0, 0, 0.01
 194030690, 0, 0, 0, 0.01, 0, 0, 0, 0.01
 194231443, 0, 0, 0, 0.01, 0, 0, 0, 0.01
 194431363, 0, 0, 0, 0.01, 0, 0, 0, 0.01
 194631283, 0, 0, 0, 0.01, 0, 0, 0, 0.01
 194831203, 0, 0, 0, 0.01, 0, 0, 0, 0.01
 195031123, 0, 0, 0, 0.01, 0, 0, 0, 0.01
 195231043, 0, 0, 0, 0.01, 0, 0, 0, 0.01
 195430963, 0, 0, 0, 0.01, 0, 0, 0, 0.01
 195630883, 0, 0, 0, 0.01, 0, 0, 0, 0.01
 195830803, 0, 0, 0, 0.01, 0, 0, 0, 0.01
 196030723, 0, 0, 0, 0.01, 0, 0, 0, 0.01
 196231476, 0, 0, 0, 0.01, 0, 0, 0, 0.01
 196431396, 0, 0, 0, 0.01, 0, 0, 0, 0.01
 196631316, 0, 0, 0, 0.01, 0, 0, 0, 0.01
 196831236, 0, 0, 0, 0.01, 0, 0, 0, 0.01
 197031156, 0, 0, 0, 0.01, 0, 0, 0, 0.01
 197231076, 0, 0, 0, 0.01, 0, 0, 0, 0.01
 197430996, 0, 0, 0, 0.01, 0, 0, 0, 0.01
 197630916, 0, 0, 0, 0.01, 0, 0, 0, 0.01
 197830836, 0, 0, 0, 0.01, 0, 0, 0, 0.01
 198030756, 0, 0, 0, 0.01, 0, 0, 0, 0.01
 198230676, 0, 0, 0, 0.01, 0, 0, 0, 0.01
 198431429, 0, 0, 0, 0.01, 0, 0, 0, 0.01
 198631349, 0, 0, 0, 0.01, 0, 0, 0, 0.01
 198831269, 0, 0, 0, 0.01, 0, 0, 0, 0.01
 199031189, 0, 0, 0, 0.01, 0, 0, 0, 0.01
 199231109, 0, 0, 0, 0.01, 0, 0, 0, 0.01
 199431029, 0, 0, 0, 0.01, 0, 0, 0, 0.01
 199630949, 0, 0, 0, 0.01, 0, 0, 0, 0.01
 199830869, 0, 0, 0, 0.01, 0, 0, 0, 0.01
 200030789, 0, 0, 0, 0.01, 0, 0, 0, 0.01
 200230709, 0, 0, 0, 0.01, 0, 0, 0, 0.01
 200431462, 0, 0, 0, 0.01, 0, 0, 0, 0.01
 200631382, 0, 0, 0, 0.01, 0, 0, 0, 0.01
 200831302, 0, 0, 0, 0.01, 0, 0, 0, 0.01
 201031222, 0, 0, 0, 0.01, 0, 0, 0, 0.01
 201231142, 0, 0, 0, 0.01, 0, 0, 0, 0.01
 201431062, 0, 0, 0, 0.01, 0, 0, 0, 0.01
 201630982, 0, 0, 0, 0.01, 0, 0, 0, 0.01
 201830902, 0, 0, 0, 0.01, 0, 0, 0, 0.01
 202030822, 0, 0, 0, 0.01, 0, 0, 0, 0.01
 202230742, 0, 0, 0, 0.01, 0, 0, 0, 0.01
 202430662, 0, 0, 0, 0.01, 0, 0, 0, 0.01
 202631415, 0, 0, 0, 0.01, 0, 0, 0, 0.01
 202831335, 0, 0, 0, 0.01, 0, 0, 0, 0.01
 203031255, 0, 0, 0, 0.01, 0, 0, 0, 0.01
 203231175, 0, 0, 0, 0.01, 0, 0, 0, 0.01
 203431095, 0, 0, 0, 0.01, 0, 0, 0, 0.01
 203631015, 0, 0, 0, 0.01, 0, 0, 0, 0.01
 203830935, 0, 0, 0, 0.01, 0, 0, 0, 0.01
 204030855, 0, 0, 0, 0.01, 0, 0, 0, 0.01
 204230775, 0, 0, 0, 0.01, 0, 0, 0, 0.01
 204430695, 0, 0, 0, 0.01, 0, 0, 0, 0.01
 204631448, 0, 0, 0, 0.01, 0, 0, 0, 0.01
 204831368, 0, 0, 0, 0.01, 0, 0, 0, 0.01
 205031288, 0, 0, 0, 0.01, 0, 0, 0, 0.01
 205231208, 0, 0, 0, 0.01, 0, 0, 0, 0.01
 205431128, 0, 0, 0, 0.01, 0, 0, 0, 0.01
 205631048, 0, 0, 0, 0.01, 0, 0, 0, 0.01
 205830968, 0, 0, 0, 0.01, 0, 0, 0, 0.01
 206030888, 0, 0, 0, 0.01, 0, 0, 0, 0.01
 206230808, 0, 0, 0, 0.01, 0, 0, 0, 0.01
 206430728, 0, 0, 0, 0.01, 0, 0, 0, 0.01
 206631481, 0, 0, 0, 0.01, 0, 0, 0, 0.01
 206831401, 0, 0, 0, 0.01, 0, 0, 0, 0.01
 207031321, 0, 0, 0, 0.01, 0, 0, 0, 0.01
 207231241, 0, 0, 0, 0.01, 0, 0, 0, 0.01
 207431161, 0, 0, 0, 0.01, 0, 0, 0, 0.01
 207631081, 0, 0, 0, 0.01, 0, 0, 0, 0.01
 207831001, 0, 0, 0, 0.01, 0, 0, 0, 0.01
 208030921, 0, 0, 0, 0.01, 0, 0, 0, 0.01
 208230841, 0, 0, 0, 0.01, 0, 0, 0, 0.01
 208430761, 0, 0, 0, 0.01, 0, 0, 0, 0.01
 208630681, 0, 0, 0, 0.01, 0, 0, 0, 0.01
 208831434, 0, 0, 0, 0.01, 0, 0, 0, 0.01
 209031354, 0, 0, 0, 0.01, 0, 0, 0, 0.01
 209231274, 0, 0, 0, 0.01, 0, 0, 0, 0.01
 209431194, 0, 0, 0, 0.01, 0, 0, 0, 0.01
 209631114, 0, 0, 0, 0.01, 0, 0, 0, 0.01
 209831034, 0, 0, 0, 0.01, 0, 0, 0, 0.01
 210030954, 0, 0, 0, 0.01, 0, 0, 0, 0.01
 210230874, 0, 0, 0, 0.01, 0, 0, 0, 0.01
 210430794, 0, 0, 0, 0.01, 0, 0, 0, 0.01
 210630714, 0, 0, 0, 0.01, 0, 0, 0, 0.01
 210831467, 0, 0, 0, 0.01, 0, 0, 0, 0.01
 211031387, 0, 0, 0, 0.01, 0, 0, 0, 0.01
 211231307, 0, 0, 0, 0.01, 0, 0, 0, 0.01
 211431227, 0, 0, 0, 0.01, 0, 0, 0, 0.01
 211631147, 0, 0, 0, 0.01, 0, 0, 0, 0.01
 211831067, 0, 0, 0, 0.01, 0, 0, 0, 0.01
 212030987, 0, 0, 0, 0.01, 0, 0, 0, 0.01
 212230907, 0, 0, 0, 0.01, 0, 0, 0, 0.01
 212430827, 0, 0, 0, 0.01, 0, 0, 0, 0.01
 212630747, 0, 0, 0, 0.01, 0, 0, 0, 0.01
 212830667, 0, 0, 0, 0.01, 0, 0, 0, 0.01
 213031420, 0, 0, 0, 0.01, 0, 0, 0, 0.01
 213231340, 0, 0, 0, 0.01, 0, 0, 0, 0.01
 213431260, 0, 0, 0, 0.01, 0, 0, 0, 0.01
 213631180, 0, 0, 0, 0.01, 0, 0, 0, 0.01
 213831100, 0, 0, 0, 0.01, 0, 0, 0, 0.01
 214031020, 0, 0, 0, 0.01, 0, 0, 0, 0.01
 214230940, 0, 0, 0, 0.01, 0, 0, 0, 0.01
 214430860, 0, 0, 0, 0.01, 0, 0, 0, 0.01
 214630780, 0, 0, 0, 0.01, 0, 0, 0, 0.01
 214830700, 0, 0, 0, 0.01, 0, 0, 0, 0.01
 215031453, 0, 0, 0, 0.01, 0, 0, 0, 0.01
 215231373, 0, 0, 0, 0.01, 0, 0, 0, 0.01
 215431293, 0, 0, 0, 0.01, 0, 0, 0, 0.01
 215631213, 0, 0, 0, 0.01, 0, 0, 0, 0.01
 215831133, 0, 0, 0, 0.01, 0, 0, 0, 0.01
 216031053, 0, 0, 0, 0.01, 0, 0, 0, 0.01
 216230973, 0, 0, 0, 0.01, 0, 0, 0, 0.01
 216430893, 0, 0, 0, 0.01, 0, 0, 0, 0.01
 216630813, 0, 0, 0, 0.01, 0, 0, 0, 0.01
 216830733, 0, 0, 0, 0.01, 0, 0, 0, 0.01
 217031486, 0, 0, 0, 0.01, 0, 0, 0, 0.01
 217231406, 0, 0, 0, 0.01, 0, 0, 0, 0.01
 217431326, 0, 0, 0, 0.01, 0, 0, 0, 0.01
 217631246, 0, 0, 0, 0.01, 0, 0, 0, 0.01
 217831166, 0, 0, 0, 0.01, 0, 0, 0, 0.01
 218031086, 0, 0, 0, 0.01, 0, 0, 0, 0.01
 218231006, 0, 0, 0, 0.01, 0, 0, 0, 0.01
 218430926, 0, 0, 0, 0.01, 0, 0, 0, 0.01
 218630846, 0, 0, 0, 0.01, 0, 0, 0, 0.01
 218830766, 0, 0, 0, 0.01, 0, 0, 0, 0.01
 219030686, 0, 0, 0, 0.01, 0, 0, 0, 0.01
 219231439, 0, 0, 0, 0.01, 0, 0, 0, 0.01
 219431359, 0, 0, 0, 0.01, 0, 0, 0, 0.01
 219631279, 0, 0, 0, 0.01, 0, 0, 0, 0.01
 219831199, 0, 0, 0, 0.01, 0, 0, 0, 0.01
 220031119, 0, 0, 0, 0.01, 0, 0, 0, 0.01
 220231039, 0, 0, 0, 0.01, 0, 0, 0, 0.01
 220430959, 0, 0, 0, 0.01, 0, 0, 0, 0.01
 220630879, 0, 0, 0, 0.01, 0, 0, 0, 0.01
 220830799, 0, 0, 0, 0.01, 0, 0, 0, 0.01
 221030719, 0, 0, 0, 0.01, 0, 0, 0, 0.01
 221231472, 0, 0, 0, 0.01, 0, 0, 0, 0.01
 221431392, 0, 0, 0, 0.01, 0, 0, 0, 0.01
 221631312, 0, 0, 0, 0.01, 0, 0, 0, 0.01
 221831232, 0, 0, 0, 0.01, 0, 0, 0, 0.01
 222031152, 0, 0, -0.214, 0.01, 0, 0, 0, 0.01
 222231072, 0, 0, -0.297, 0.01, 0, 0, -0.214, 0.01
 222430992, 0, 0, -0.193, 0.01, 0, 0, -0.297, 0.01
 222630912, -0.002, -0.002, -1.121, 0.01, 0, 0, -0.193, 0.01
 222830832, -0.013, -0.014, -2.015, 0.01, -0.002, -0.002, -1.121, 0.01
 223030752, -0.028, -0.03, -2.165, 0.01, -0.013, -0.014, -2.015, 0.01
 223230672, -0.043, -0.046, -2.356, 0.01, -0.028, -0.03, -2.165, 0.01
 223431425, -0.056, -0.059, -2.601, 0.01, -0.043, -0.046, -2.356, 0.01
 223631345, -0.067, -0.07, -2.8, 0.01, -0.056, -0.059, -2.601, 0.01
 223831265, -0.07700001, -0.079, -2.965, 0.01, -0.067, -0.07, -2.8, 0.01
 224031185, -0.085, -0.085, -3.114, 0.01, -0.07700001, -0.079, -2.965, 0.01
 224231105, -0.09100001, -0.09, -3.245, 0.01, -0.085, -0.085, -3.114, 0.01
 224431025, -0.096, -0.094, -3.36, 0.01, -0.09100001, -0.09, -3.245, 0.01
 224630945, -0.09900001, -0.096, -3.46, 0.01, -0.096, -0.094, -3.36, 0.01
 224830865, -0.102, -0.09900001, -3.549, 0.01, -0.09900001, -0.096, -3.46, 0.01
 225030785, -0.103, -0.1, -3.626, 0.01, -0.102, -0.09900001, -3.549, 0.01
 225230705, -0.105, -0.102, -3.693, 0.01, -0.103, -0.1, -3.626, 0.01
 225431458, -0.107, -0.103, -3.752, 0.01, -0.105, -0.102, -3.693, 0.01
 225631378, -0.11, -0.105, -3.805, 0.01, -0.107, -0.103, -3.752, 0.01
 225831298, -0.112, -0.107, -3.794, 0.01, -0.11, -0.105, -3.805, 0.01
 226031218, -0.11, -0.107, -3.229, 0.01, -0.112, -0.107, -3.794, 0.01
 226231138, -0.109, -0.107, -2.736, 0.01, -0.11, -0.107, -3.229, 0.01
 226431058, -0.107, -0.108, -2.303, 0.01, -0.109, -0.107, -2.736, 0.01
 226630978, -0.101, -0.104, -1.878, 0.01, -0.107, -0.108, -2.303, 0.01
 226830898, -0.087, -0.09, -1.564, 0.01, -0.101, -0.104, -1.878, 0.01
 227030818, -0.034, -0.056, -1.362, 0.01, -0.087, -0.09, -1.564, 0.01
 227230738, 0.12, 0.021, -1.229, 0.01, -0.034, -0.056, -1.362, 0.01
 227430658, 0.354, 0.128, -1.141, 0.01, 0.12, 0.021, -1.229, 0.01
 227631411, 0.596, 0.238, -1.087, 0.01, 0.354, 0.128, -1.141, 0.01
 227831331, 0.809, 0.332, -1.063, 0.01, 0.596, 0.238, -1.087, 0.01
 228031251, 0.998, 0.417, -1.069, 0.01, 0.809, 0.332, -1.063, 0.01
 228231171, 1.188, 0.513, -1.098, 0.01, 0.998, 0.417, -1.069, 0.01
 228431091, 1.369, 0.663, -1.146, 0.01, 1.188, 0.513, -1.098, 0.01
 228631011, 1.534, 0.844, -1.224, 0.01, 1.369, 0.663, -1.146, 0.01
 228830931, 1.704, 0.987, -1.321, 0.01, 1.534, 0.844, -1.224, 0.01
 229030851, 1.909, 1.073, -1.425, 0.01, 1.704, 0.987, -1.321, 0.01
 229230771, 2.145, 1.122, -1.53, 0.01, 1.909, 1.073, -1.425, 0.01
 229430691, 2.387, 1.149, -1.637, 0.01, 2.145, 1.122, -1.53, 0.01
 229631444, 2.614, 1.16, -1.738, 0.01, 2.387, 1.149, -1.637, 0.01
 229831364, 2.816, 1.172, -1.826, 0.01, 2.614, 1.16, -1.738, 0.01
 230031284, 2.992, 1.198, -1.899, 0.01, 2.816, 1.172, -1.826, 0.01
 230231204, 3.17, 1.202, -1.956, 0.01, 2.992, 1.198, -1.899, 0.01
 230431124, 3.35, 1.176, -2.007, 0.01, 3.17, 1.202, -1.956, 0.01
 230631044, 3.483, 1.166, -2.01, 0.01, 3.35, 1.176, -2.007, 0.01
 230830964, 3.535, 1.204, -1.98, 0.01, 3.483, 1.166, -2.01, 0.01
 231030884, 3.53, 1.29, -1.931, 0.01, 3.535, 1.204, -1.98, 0.01
 231230804, 3.515, 1.394, -1.876, 0.01, 3.53, 1.29, -1.931, 0.01
 231430724, 3.509, 1.484, -1.825, 0.01, 3.515, 1.394, -1.876, 0.01
 231631477, 3.511, 1.539, -1.783, 0.01, 3.509, 1.484, -1.825, 0.01
 231831397, 3.519, 1.563, -1.75, 0.01, 3.511, 1.539, -1.783, 0.01
 232031317, 3.532, 1.567, -1.724, 0.01, 3.519, 1.563, -1.75, 0.01
 232231237, 3.548, 1.563, -1.706, 0.01, 3.532, 1.567, -1.724, 0.01
 232431157, 3.562, 1.559, -1.693, 0.01, 3.548, 1.563, -1.706, 0.01
 232631077, 3.573, 1.557, -1.685, 0.01, 3.562, 1.559, -1.693, 0.01
 232830997, 3.579, 1.56, -1.681, 0.01, 3.573, 1.557, -1.685, 0.01
 233030917, 3.581, 1.568, -1.678, 0.01, 3.579, 1.56, -1.681, 0.01
 233230837, 3.582, 1.58, -1.677, 0.01, 3.581, 1.568, -1.678, 0.01
 233430757, 3.583, 1.59, -1.677, 0.01, 3.582, 1.58, -1.677, 0.01
 233630677, 3.586, 1.593, -1.676, 0.01, 3.583, 1.59, -1.677, 0.01
 233831430, 3.59, 1.593, -1.676, 0.01, 3.586, 1.593, -1.676, 0.01
 234031350, 3.588, 1.588, -1.643, 0.01, 3.59, 1.593, -1.676, 0.01
 234231270, 3.592, 1.586, -1.633, 0.01, 3.588, 1.588, -1.643, 0.01
 234431190, 3.603, 1.583, -1.638, 0.01, 3.592, 1.586, -1.633, 0.01
 234631110, 3.614, 1.579, -1.651, 0.01, 3.603, 1.583, -1.638, 0.01
 234831030, 3.62, 1.575, -1.664, 0.01, 3.614, 1.579, -1.651, 0.01
 235030950, 3.623, 1.576, -1.675, 0.01, 3.62, 1.575, -1.664, 0.01
 235230870, 3.625, 1.579, -1.684, 0.01, 3.623, 1.576, -1.675, 0.01
 235430790, 3.628, 1.581, -1.689, 0.01, 3.625, 1.579, -1.684, 0.01
 235630710, 3.63, 1.582, -1.692, 0.01, 3.628, 1.581, -1.689, 0.01
 235831463, 3.627, 1.582, -1.676, 0.01, 3.63, 1.582, -1.692, 0.01
 236031383, 3.578, 1.562, -1.543, 0.01, 3.627, 1.582, -1.676, 0.01
 236231303, 3.468, 1.501, -1.347, 0.01, 3.578, 1.562, -1.543, 0.01
 236431223, 3.399, 1.386, -1.104, 0.01, 3.468, 1.501, -1.347, 0.01
 236631143, 3.412, 1.243, -0.8470001, 0.01, 3.399, 1.386, -1.104, 0.01
 236831063, 3.466, 1.103, -0.6210001, 0.01, 3.412, 1.243, -0.8470001, 0.01
 237030983, 3.531, 0.979, -0.437, 0.01, 3.466, 1.103, -0.6210001, 0.01
 237230903, 3.607, 0.8710001, -0.295, 0.01, 3.531, 0.979, -0.437, 0.01
 237430823, 3.707, 0.774, -0.191, 0.01, 3.607, 0.8710001, -0.295, 0.01
 237630743, 3.829, 0.683, -0.119, 0.01, 3.707, 0.774, -0.191, 0.01
 237830663, 3.966, 0.595, -0.072, 0.01, 3.829, 0.683, -0.119, 0.01
 238031416, 4.112, 0.509, -0.042, 0.01, 3.966, 0.595, -0.072, 0.01
 238231336, 4.266, 0.425, -0.025, 0.01, 4.112, 0.509, -0.042, 0.01
 238431256, 4.426, 0.346, -0.014, 0.01, 4.266, 0.425, -0.025, 0.01
 238631176, 4.593, 0.278, -0.007, 0.01, 4.426, 0.346, -0.014, 0.01
 238831096, 4.763, 0.223, -0.004, 0.01, 4.593, 0.278, -0.007, 0.01
 239031016, 4.937, 0.179, -0.001, 0.01, 4.763, 0.223, -0.004, 0.01
 239230936, 5.114, 0.146, 0.002, 0.01, 4.937, 0.179, -0.001, 0.01
 239430856, 5.295, 0.119, 0.005, 0.01, 5.114, 0.146, 0.002, 0.01
 239630776, 5.475, 0.098, 0.007, 0.01, 5.295, 0.119, 0.005, 0.01
 239830696, 5.649, 0.079, 0.008, 0.01, 5.475, 0.098, 0.007, 0.01
 240031449, 5.814, 0.063, 0.008, 0.01, 5.649, 0.079, 0.008, 0.01
 240231369, 5.972, 0.049, 0.007, 0.01, 5.814, 0.063, 0.008, 0.01
 240431289, 6.122, 0.039, 0.005, 0.01, 5.972, 0.049, 0.007, 0.01
 240631209, 6.265, 0.032, 0.004, 0.01, 6.122, 0.039, 0.005, 0.01
 240831129, 6.401, 0.028, 0.004, 0.01, 6.265, 0.032, 0.004, 0.01
 241031049, 6.53, 0.027, 0.004, 0.01, 6.401, 0.028, 0.004, 0.01
 241230969, 6.65, 0.027, 0.005, 0.01, 6.53, 0.027, 0.004, 0.01
 241430889, 6.764, 0.027, 0.004, 0.01, 6.65, 0.027, 0.005, 0.01
 241630809, 6.874001, 0.028, 0.004, 0.01, 6.764, 0.027, 0.004, 0.01
 241830729, 6.979001, 0.029, 0.004, 0.01, 6.874001, 0.028, 0.004, 0.01
 242031482, 7.078001, 0.03, 0.004, 0.01, 6.979001, 0.029, 0.004, 0.01
 242231402, 7.170001, 0.032, 0.004, 0.01, 7.078001, 0.03, 0.004, 0.01
 242431322, 7.257, 0.033, 0.004, 0.01, 7.170001, 0.032, 0.004, 0.01
 242631242, 7.34, 0.034, 0.005, 0.01, 7.257, 0.033, 0.004, 0.01
 242831162, 7.419, 0.034, 0.005, 0.01, 7.34, 0.034, 0.005, 0.01
 243031082, 7.496, 0.035, 0.005, 0.01, 7.419, 0.034, 0.005, 0.01
 243231002, 7.569, 0.037, 0.005, 0.01, 7.496, 0.035, 0.005, 0.01
 243430922, 7.639, 0.038, 0.004, 0.01, 7.569, 0.037, 0.005, 0.01
 243630842, 7.706, 0.039, 0.002, 0.01, 7.639, 0.038, 0.004, 0.01
 243830762, 7.77, 0.039, 0, 0.01, 7.706, 0.039, 0.002, 0.01
 244030682, 7.831, 0.04, 0, 0.01, 7.77, 0.039, 0, 0.01
 244231435, 7.89, 0.039, 0, 0.01, 7.831, 0.04, 0, 0.01
 244431355, 7.946001, 0.039, 0, 0.01, 7.89, 0.039, 0, 0.01
 244631275, 8, 0.039, 0, 0.01, 7.946001, 0.039, 0, 0.01
 244831195, 8.053, 0.039, 0, 0.01, 8, 0.039, 0, 0.01
 245031115, 8.105, 0.039, 0, 0.01, 8.053, 0.039, 0, 0.01
 245231035, 8.154, 0.038, 0, 0.01, 8.105, 0.039, 0, 0.01
 245430955, 8.204, 0.037, 0, 0.01, 8.154, 0.038, 0, 0.01
 245630875, 8.252001, 0.035, -0.001, 0.01, 8.204, 0.037, 0, 0.01
 245830795, 8.297, 0.033, -0.002, 0.01, 8.252001, 0.035, -0.001, 0.01
 246030715, 8.34, 0.028, -0.002, 0.01, 8.297, 0.033, -0.002, 0.01
 246231468, 8.382, 0.02, -0.003, 0.01, 8.34, 0.028, -0.002, 0.01
 246431388, 8.422, 0.012, -0.003, 0.01, 8.382, 0.02, -0.003, 0.01
 246631308, 8.462001, 0.006, -0.002, 0.01, 8.422, 0.012, -0.003, 0.01
 246831228, 8.501, 0, -0.002, 0.01, 8.462001, 0.006, -0.002, 0.01
 247031148, 8.535001, -0.004, -0.002, 0.01, 8.501, 0, -0.002, 0.01
 247231068, 8.557, -0.008, -0.004, 0.01, 8.535001, -0.004, -0.002, 0.01
 247430988, 8.572001, -0.012, -0.003, 0.01, 8.557, -0.008, -0.004, 0.01
 247630908, 8.591001, -0.016, -0.001, 0.01, 8.572001, -0.012, -0.003, 0.01
 247830828, 8.620001, -0.019, 0, 0.01, 8.591001, -0.016, -0.001, 0.01
 248030748, 8.652, -0.021, 0, 0.01, 8.620001, -0.019, 0, 0.01
 248230668, 8.684, -0.022, 0.001, 0.01, 8.652, -0.021, 0, 0.01
 248431421, 8.714001, -0.024, 0, 0.01, 8.684, -0.022, 0.001, 0.01
 248631341, 8.743, -0.024, 0, 0.01, 8.714001, -0.024, 0, 0.01
 248831261, 8.77, -0.025, 0, 0.01, 8.743, -0.024, 0, 0.01
 249031181, 8.799001, -0.025, 0, 0.01, 8.77, -0.025, 0, 0.01
 249231101, 8.829, -0.025, 0, 0.01, 8.799001, -0.025, 0, 0.01
 249431021, 8.859, -0.026, 0, 0.01, 8.829, -0.025, 0, 0.01
 249630941, 8.888, -0.025, 0, 0.01, 8.859, -0.026, 0, 0.01
 249830861, 8.916, -0.025, -0.001, 0.01, 8.888, -0.025, 0, 0.01
 250030781, 8.941, -0.024, -0.002, 0.01, 8.916, -0.025, -0.001, 0.01
 250230701, 8.967, -0.024, -0.003, 0.01, 8.941, -0.024, -0.002, 0.01
 250431454, 8.992001, -0.023, -0.003, 0.01, 8.967, -0.024, -0.003, 0.01
 250631374, 9.018001, -0.022, -0.003, 0.01, 8.992001, -0.023, -0.003, 0.01
 250831294, 9.041, -0.021, -0.002, 0.01, 9.018001, -0.022, -0.003, 0.01
 251031214, 9.065001, -0.019, -0.002, 0.01, 9.041, -0.021, -0.002, 0.01
 251231134, 9.087001, -0.018, -0.001, 0.01, 9.065001, -0.019, -0.002, 0.01
 251431054, 9.109, -0.018, 0, 0.01, 9.087001, -0.018, -0.001, 0.01
 251630974, 9.131001, -0.017, -0.001, 0.01, 9.109, -0.018, 0, 0.01
 251830894, 9.152, -0.015, 0, 0.01, 9.131001, -0.017, -0.001, 0.01
 252030814, 9.174001, -0.014, -0.001, 0.01, 9.152, -0.015, 0, 0.01
 252230734, 9.194, -0.013, -0.001, 0.01, 9.174001, -0.014, -0.001, 0.01
 252430654, 9.214001, -0.013, -0.001, 0.01, 9.194, -0.013, -0.001, 0.01
 252631407, 9.232, -0.012, 0, 0.01, 9.214001, -0.013, -0.001, 0.01
 252831327, 9.25, -0.011, 0.001, 0.01, 9.232, -0.012, 0, 0.01
 253031247, 9.269, -0.01, 0.001, 0.01, 9.25, -0.011, 0.001, 0.01
 253231167, 9.286, -0.009000001, 0, 0.01, 9.269, -0.01, 0.001, 0.01
 253431087, 9.303, -0.008, 0, 0.01, 9.286, -0.009000001, 0, 0.01
 253631007, 0, 0.0125, 0, 0.01, 9.303, -0.008, 0, 0.01
 253830927, 0, 0.0125, -0.002, 0.01, 0, 0.0125, 0, 0.01
 254030847, 0, 0.0125, -0.002, 0.01, 0, 0.0125, -0.002, 0.01
 254230767, 0, 0.0125, -0.003, 0.01, 0, 0.0125, -0.002, 0.01
 254430687, 0, 0.0125, -0.001, 0.01, 0, 0.0125, -0.003, 0.01
 254631440, 0, 0.0125, 0.002, 0.01, 0, 0.0125, -0.001, 0.01
 254831360, 0, 0.0125, 0.009000001, 0.01, 0, 0.0125, 0.002, 0.01
 255031280, 0, 0.0125, 0.018, 0.01, 0, 0.0125, 0.009000001, 0.01
 255231200, 0, 0.0125, 0.024, 0.01, 0, 0.0125, 0.018, 0.01
 255431120, 0, 0.0125, 0.017, 0.01, 0, 0.0125, 0.024, 0.01
 255631040, 0, 0.0125, 0.017, 0.01, 0, 0.0125, 0.017, 0.01
 255830960, 0, 0.0125, 0.067, 0.01, 0, 0.0125, 0.017, 0.01
 256030880, 0, 0.0125, 0.09500001, 0.01, 0, 0.0125, 0.067, 0.01
 256230800, 0, 0.0125, 0.08000001, 0.01, 0, 0.0125, 0.09500001, 0.01
 256430720, 0, 0.0125, 0.05, 0.01, 0, 0.0125, 0.08000001, 0.01
 256631473, 0, 0.0125, 0.029, 0.01, 0, 0.0125, 0.05, 0.01
 256831393, 0, 0.0125, 0.028, 0.01, 0, 0.0125, 0.029, 0.01
 257031313, 0, 0.0125, 0.047, 0.01, 0, 0.0125, 0.028, 0.01
 257231233, 0, 0.0125, 0.08400001, 0.01, 0, 0.0125, 0.047, 0.01
 257431153, 0, 0.0125, 0.134, 0.01, 0, 0.0125, 0.08400001, 0.01
 257631073, 0, 0.0125, 0.188, 0.01, 0, 0.0125, 0.134, 0.01
 257830993, 0, 0.0125, 0.239, 0.01, 0, 0.0125, 0.188, 0.01
 258030913, 0, 0.0125, 0.281, 0.01, 0, 0.0125, 0.239, 0.01
 258230833, 0, 0.0125, 0.311, 0.01, 0, 0.0125, 0.281, 0.01
 258430753, 0, 0.0125, 0.327, 0.01, 0, 0.0125, 0.311, 0.01
 258630673, 0, 0.0125, 0.332, 0.01, 0, 0.0125, 0.327, 0.01
 258831426, 0, 0.0125, 0.326, 0.01, 0, 0.0125, 0.332, 0.01
 259031346, 0, 0.0125, 0.313, 0.01, 0, 0.0125, 0.326, 0.01
 259231266, 0, 0.0125, 0.293, 0.01, 0, 0.0125, 0.313, 0.01
 259431186, 0, 0.0125, 0.257, 0.01, 0, 0.0125, 0.293, 0.01
 259631106, 0, 0.0125, 0.206, 0.01, 0, 0.0125, 0.257, 0.01
 259831026, 0, 0.0125, 0.15, 0.01, 0, 0.0125, 0.206, 0.01
 260030946, 0, 0.0125, 0.09100001, 0.01, 0, 0.0125, 0.15, 0.01
 260230866, 0, 0.0125, 0.033, 0.01, 0, 0.0125, 0.09100001, 0.01
 260430786, 0, 0.0125, -0.024, 0.01, 0, 0.0125, 0.033, 0.01
 260630706, 0, 0.0125, -0.083, 0.01, 0, 0.0125, -0.024, 0.01
 260831459, 0, 0.0125, -0.14, 0.01, 0, 0.0125, -0.083, 0.01
 261031379, 0, 0.0125, -0.193, 0.01, 0, 0.0125, -0.14, 0.01
 261231299, 0, 0.0125, -0.238, 0.01, 0, 0.0125, -0.193, 0.01
 261431219, 0, 0.0125, -0.272, 0.01, 0, 0.0125, -0.238, 0.01
 261631139, 0, 0.0125, -0.293, 0.01, 0, 0.0125, -0.272, 0.01
 261831059, 0, 0.0125, -0.3, 0.01, 0, 0.0125, -0.293, 0.01
 262030979, 0, 0.0125, -0.293, 0.01, 0, 0.0125, -0.3, 0.01
 262230899, 0, 0.0125, -0.275, 0.01, 0, 0.0125, -0.293, 0.01
 262430819, 0, 0.0125, -0.246, 0.01, 0, 0.0125, -0.275, 0.01
 262630739, 0, 0.0125, -0.21, 0.01, 0, 0.0125, -0.246, 0.01
 262830659, 0, 0.0125, -0.17, 0.01, 0, 0.0125, -0.21, 0.01
 263031412, 0, 0.0125, -0.127, 0.01, 0, 0.0125, -0.17, 0.01
 263231332, 0, 0.0125, -0.085, 0.01, 0, 0.0125, -0.127, 0.01
 263431252, 0, 0.0125, -0.046, 0.01, 0, 0.0125, -0.085, 0.01
 263631172, 0, 0.0125, -0.01, 0.01, 0, 0.0125, -0.046, 0.01
 263831092, 0, 0.0125, 0.018, 0.01, 0, 0.0125, -0.01, 0.01
 264031012, 0, 0.0125, 0.038, 0.01, 0, 0.0125, 0.018, 0.01
 264230932, 0, 0.0125, 0.049, 0.01, 0, 0.0125, 0.038, 0.01
 264430852, 0, 0.0125, 0.055, 0.01, 0, 0.0125, 0.049, 0.01
 264630772, 0, 0.0125, 0.056, 0.01, 0, 0.0125, 0.055, 0.01
 264830692, 0, 0.0125, 0.055, 0.01, 0, 0.0125, 0.056, 0.01
 265031445, 0, 0.0125, 0.052, 0.01, 0, 0.0125, 0.055, 0.01
 265231365, 0, 0.0125, 0.047, 0.01, 0, 0.0125, 0.052, 0.01
 265431285, 0, 0.0125, 0.041, 0.01, 0, 0.0125, 0.047, 0.01
 265631205, 0, 0.0125, 0.036, 0.01, 0, 0.0125, 0.041, 0.01
 265831125, 0, 0.0125, 0.03, 0.01, 0, 0.0125, 0.036, 0.01
 266031045, 0, 0.0125, 0.025, 0.01, 0, 0.0125, 0.03, 0.01
 266230965, 0, 0.0125, 0.021, 0.01, 0, 0.0125, 0.025, 0.01
 266430885, 0, 0.0125, 0.017, 0.01, 0, 0.0125, 0.021, 0.01
 266630805, 0, 0.0125, 0.014, 0.01, 0, 0.0125, 0.017, 0.01
 266830725, 0, 0.0125, 0.012, 0.01, 0, 0.0125, 0.014, 0.01
 267031478, 0, 0.0125, 0.01, 0.01, 0, 0.0125, 0.012, 0.01
 267231398, 0, 0.0125, 0.008, 0.01, 0, 0.0125, 0.01, 0.01
 267431318, 0, 0.0125, 0.007, 0.01, 0, 0.0125, 0.008, 0.01
 267631238, 0, 0.0125, 0.006, 0.01, 0, 0.0125, 0.007, 0.01
 267831158, 0, 0.0125, 0.004, 0.01, 0, 0.0125, 0.006, 0.01
 268031078, 0, 0.0125, 0.002, 0.01, 0, 0.0125, 0.004, 0.01
 268230998, 0, 0.0125, 0, 0.01, 0, 0.0125, 0.002, 0.01
 268430918, 0, 0.0125, -0.001, 0.01, 0, 0.0125, 0, 0.01
 268630838, 0, 0.0125, -0.004, 0.01, 0, 0.0125, -0.001, 0.01
 268830758, 0, 0.0125, -0.006, 0.01, 0, 0.0125, -0.004, 0.01
 269030678, 0, 0.0125, -0.009000001, 0.01, 0, 0.0125, -0.006, 0.01
 269231431, 0, 0.0125, -0.013, 0.01, 0, 0.0125, -0.009000001, 0.01
 269431351, 0, 0.0125, -0.016, 0.01, 0, 0.0125, -0.013, 0.01
 269631271, 0, 0.0125, -0.019, 0.01, 0, 0.0125, -0.016, 0.01
 269831191, 0, 0.0125, -0.022, 0.01, 0, 0.0125, -0.019, 0.01
 270031111, 0, 0.0125, -0.025, 0.01, 0, 0.0125, -0.022, 0.01
 270231031, 0, 0.0125, -0.028, 0.01, 0, 0.0125, -0.025, 0.01
 270430951, 0, 0.0125, -0.032, 0.01, 0, 0.0125, -0.028, 0.01
 270630871, 0, 0.0125, -0.035, 0.01, 0, 0.0125, -0.032, 0.01
 270830791, 0, 0.0125, -0.037, 0.01, 0, 0.0125, -0.035, 0.01
 271030711, 0, 0.0125, -0.041, 0.01, 0, 0.0125, -0.037, 0.01
 271231464, 0, 0.0125, -0.042, 0.01, 0, 0.0125, -0.041, 0.01
 271431384, 0, 0.0125, -0.044, 0.01, 0, 0.0125, -0.042, 0.01
 271631304, 0, 0.0125, -0.046, 0.01, 0, 0.0125, -0.044, 0.01
 271831224, 0, 0.0125, -0.047, 0.01, 0, 0.0125, -0.046, 0.01
 272031144, 0, 0.0125, -0.049, 0.01, 0, 0.0125, -0.047, 0.01
 272231064, 0, 0.0125, -0.05, 0.01, 0, 0.0125, -0.049, 0.01
 272430984, 0, 0.0125, -0.051, 0.01, 0, 0.0125, -0.05, 0.01
 272630904, 0, 0.0125, -0.051, 0.01, 0, 0.0125, -0.051, 0.01
 272830824, 0, 0.0125, -0.05, 0.01, 0, 0.0125, -0.051, 0.01
 273030744, 0, 0.0125, -0.05, 0.01, 0, 0.0125, -0.05, 0.01
 273230664, 0, 0.0125, -0.049, 0.01, 0, 0.0125, -0.05, 0.01
 273431417, 0, 0.0125, -0.048, 0.01, 0, 0.0125, -0.049, 0.01
 273631337, 0, 0.0125, -0.048, 0.01, 0, 0.0125, -0.048, 0.01
 273831257, 0, 0.0125, -0.048, 0.01, 0, 0.0125, -0.048, 0.01
 274031177, 0, 0.0125, -0.049, 0.01, 0, 0.0125, -0.048, 0.01
 274231097, 0, 0.0125, -0.051, 0.01, 0, 0.0125, -0.049, 0.01
 274431017, 0, 0.0125, -0.053, 0.01, 0, 0.0125, -0.051, 0.01
 274630937, 0, 0.0125, -0.054, 0.01, 0, 0.0125, -0.053, 0.01
 274830857, 0, 0.0125, -0.055, 0.01, 0, 0.0125, -0.054, 0.01
 275030777, 0, 0.0125, -0.055, 0.01, 0, 0.0125, -0.055, 0.01
 275230697, 0, 0.0125, -0.055, 0.01, 0, 0.0125, -0.055, 0.01
 275431450, 0, 0.0125, -0.054, 0.01, 0, 0.0125, -0.055, 0.01
 275631370, 0, 0.0125, -0.053, 0.01, 0, 0.0125, -0.054, 0.01
 275831290, 0, 0.0125, -0.05, 0.01, 0, 0.0125, -0.053, 0.01
 276031210, 0, 0.0125, -0.048, 0.01, 0, 0.0125, -0.05, 0.01
 276231130, 0, 0.0125, -0.045, 0.01, 0, 0.0125, -0.048, 0.01
 276431050, 0, 0.0125, -0.043, 0.01, 0, 0.0125, -0.045, 0.01
 276630970, 0, 0.0125, -0.04, 0.01, 0, 0.0125, -0.043, 0.01
 276830890, 0, 0.0125, -0.038, 0.01, 0, 0.0125, -0.04, 0.01
 277030810, 0, 0.0125, -0.036, 0.01, 0, 0.0125, -0.038, 0.01
 277230730, 0, 0.0125, -0.034, 0.01, 0, 0.0125, -0.036, 0.01
 277431483, 0, 0.0125, -0.032, 0.01, 0, 0.0125, -0.034, 0.01
 277631403, 0, 0.0125, -0.03, 0.01, 0, 0.0125, -0.032, 0.01
 277831323, 0, 0.0125, -0.028, 0.01, 0, 0.0125, -0.03, 0.01
 278031243, 0, 0.0125, -0.027, 0.01, 0, 0.0125, -0.028, 0.01
 278231163, 0, 0.0125, -0.025, 0.01, 0, 0.0125, -0.027, 0.01
 278431083, 0, 0.0125, -0.024, 0.01, 0, 0.0125, -0.025, 0.01
 278631003, 0, 0.0125, -0.023, 0.01, 0, 0.0125, -0.024, 0.01
 278830923, 0, 0.0125, -0.022, 0.01, 0, 0.0125, -0.023, 0.01
 279030843, 0, 0.0125, -0.019, 0.01, 0, 0.0125, -0.022, 0.01
 279230763, 0, 0.0125, -0.017, 0.01, 0, 0.0125, -0.019, 0.01
 279430683, 0, 0.0125, -0.013, 0.01, 0, 0.0125, -0.017, 0.01
 279631436, 0, 0.0125, -0.009000001, 0.01, 0, 0.0125, -0.013, 0.01
 279831356, 0, 0.0125, -0.005, 0.01, 0, 0.0125, -0.009000001, 0.01
 280031276, 0, 0.0125, -0.001, 0.01, 0, 0.0125, -0.005, 0.01
 280231196, 0, 0.0125, 0.001, 0.01, 0, 0.0125, -0.001, 0.01
 280431116, 0, 0.0125, 0.003, 0.01, 0, 0.0125, 0.001, 0.01
 280631036, 0, 0.0125, 0.005, 0.01, 0, 0.0125, 0.003, 0.01
 280830956, 0, 0.0125, 0.006, 0.01, 0, 0.0125, 0.005, 0.01
 281030876, 0, 0.0125, 0.006, 0.01, 0, 0.0125, 0.006, 0.01
 281230796, 0, 0.0125, 0.006, 0.01, 0, 0.0125, 0.006, 0.01
 281430716, 0, 0.0125, 0.005, 0.01, 0, 0.0125, 0.006, 0.01
 281631469, 0, 0.0125, 0.005, 0.01, 0, 0.0125, 0.005, 0.01
 281831389, 0, 0.0125, 0.005, 0.01, 0, 0.0125, 0.005, 0.01
 282031309, 0, 0.0125, 0.004, 0.01, 0, 0.0125, 0.005, 0.01
 282231229, 0, 0.0125, 0.003, 0.01, 0, 0.0125, 0.004, 0.01
 282431149, 0, 0.0125, 0.003, 0.01, 0, 0.0125, 0.003, 0.01
 282631069, 0, 0.0125, 0.002, 0.01, 0, 0.0125, 0.003, 0.01
 282830989, 0, 0.0125, 0.002, 0.01, 0, 0.0125, 0.002, 0.01
 283030909, 0, 0.0125, 0.002, 0.01, 0, 0.0125, 0.002, 0.01
 283230829, 0, 0.0125, 0.002, 0.01, 0, 0.0125, 0.002, 0.01
 283430749, 0, 0.0125, 0.001, 0.01, 0, 0.0125, 0.002, 0.01
 283630669, 0, 0.0125, 0.001, 0.01, 0, 0.0125, 0.001, 0.01
 283831422, 0, 0.0125, 0, 0.01, 0, 0.0125, 0.001, 0.01
 284031342, 0, 0.0125, 0.001, 0.01, 0, 0.0125, 0, 0.01
 284231262, 0, 0.0125, 0, 0.01, 0, 0.0125, 0.001, 0.01
 284431182, 0, 0.0125, 0.001, 0.01, 0, 0.0125, 0, 0.01
 284631102, 0, 0.0125, 0, 0.01, 0, 0.0125, 0.001, 0.01
 284831022, 0, 0.0125, 0.001, 0.01, 0, 0.0125, 0, 0.01
 285030942, 0, 0.0125, 0.001, 0.01, 0, 0.0125, 0.001, 0.01
 285230862, 0, 0.0125, 0.002, 0.01, 0, 0.0125, 0.001, 0.01
 285430782, 0, 0.0125, 0.002, 0.01, 0, 0.0125, 0.002, 0.01
 285630702, 0, 0.0125, 0.002, 0.01, 0, 0.0125, 0.002, 0.01
 285831455, 0, 0.0125, 0.002, 0.01, 0, 0.0125, 0.002, 0.01
 286031375, 0, 0.0125, 0.002, 0.01, 0, 0.0125, 0.002, 0.01
 286231295, 0, 0.0125, 0.003, 0.01, 0, 0.0125, 0.002, 0.01
 286431215, 0, 0.0125, 0.003, 0.01, 0, 0.0125, 0.003, 0.01
 286631135, 0, 0.0125, 0.003, 0.01, 0, 0.0125, 0.003, 0.01
 286831055, 0, 0.0125, 0.004, 0.01, 0, 0.0125, 0.003, 0.01
 287030975, 0, 0.0125, 0.004, 0.01, 0, 0.0125, 0.004, 0.01
 287230895, 0, 0.0125, 0.004, 0.01, 0, 0.0125, 0.004, 0.01
 287430815, 0, 0.0125, 0.004, 0.01, 0, 0.0125, 0.004, 0.01
 287630735, 0, 0.0125, 0.004, 0.01, 0, 0.0125, 0.004, 0.01
 287830655, 0, 0.0125, 0.004, 0.01, 0, 0.0125, 0.004, 0.01
 288031408, 0, 0.0125, 0.004, 0.01, 0, 0.0125, 0.004, 0.01
 288231328, 0, 0.0125, 0.004, 0.01, 0, 0.0125, 0.004, 0.01
 288431248, 0, 0.0125, 0.004, 0.01, 0, 0.0125, 0.004, 0.01
 288631168, 0, 0.0125, 0.005, 0.01, 0, 0.0125, 0.004, 0.01
 288831088, 0, 0.0125, 0.005, 0.01, 0, 0.0125, 0.005, 0.01
 289031008, 0, 0.0125, 0.005, 0.01, 0, 0.0125, 0.005, 0.01
 289230928, 0, 0.0125, 0.004, 0.01, 0, 0.0125, 0.005, 0.01
 289430848, 0, 0.0125, 0.004, 0.01, 0, 0.0125, 0.004, 0.01
 289630768, 0, 0.0125, 0.004, 0.01, 0, 0.0125, 0.004, 0.01
 289830688, 0, 0.0125, 0.004, 0.01, 0, 0.0125, 0.004, 0.01
 290031441, 0, 0.0125, 0.004, 0.01, 0, 0.0125, 0.004, 0.01
 290231361, 0, 0.0125, 0.004, 0.01, 0, 0.0125, 0.004, 0.01
 290431281, 0, 0.0125, 0.003, 0.01, 0, 0.0125, 0.004, 0.01
 290631201, 0, 0.0125, 0.004, 0.01, 0, 0.0125, 0.003, 0.01
 290831121, 0, 0.0125, 0.004, 0.01, 0, 0.0125, 0.004, 0.01
 291031041, 0, 0.0125, 0.003, 0.01, 0, 0.0125, 0.004, 0.01
 291230961, 0, 0.0125, 0.002, 0.01, 0, 0.0125, 0.003, 0.01
 291430881, 0, 0.0125, 0.002, 0.01, 0, 0.0125, 0.002, 0.01
 291630801, 0, 0.0125, 0.002, 0.01, 0, 0.0125, 0.002, 0.01
 291830721, 0, 0.0125, 0, 0.01, 0, 0.0125, 0.002, 0.01
 292031474, 0, 0.0125, 0.001, 0.01, 0, 0.0125, 0, 0.01
 292231394, 0, 0.0125, 0.001, 0.01, 0, 0.0125, 0.001, 0.01
 292431314, 0, 0.0125, 0.001, 0.01, 0, 0.0125, 0.001, 0.01
 292631234, 0, 0.0125, 0.001, 0.01, 0, 0.0125, 0.001, 0.01
 292831154, 0, 0.0125, 0.001, 0.01, 0, 0.0125, 0.001, 0.01
 293031074, 0, 0.0125, 0, 0.01, 0, 0.0125, 0.001, 0.01
 293230994, 0, 0.0125, 0, 0.01, 0, 0.0125, 0, 0.01
 293430914, 0, 0.0125, 0, 0.01, 0, 0.0125, 0, 0.01
 293630834, 0, 0.0125, 0, 0.01, 0, 0.0125, 0, 0.01
 293830754, 0, 0.0125, 0, 0.01, 0, 0.0125, 0, 0.01
 294030674, 0, 0.0125, 0, 0.01, 0, 0.0125, 0, 0.01
 294231427, 0, 0.0125, 0, 0.01, 0, 0.0125, 0, 0.01
 294431347, 0, 0.0125, 0, 0.01, 0, 0.0125, 0, 0.01
 294631267, 0, 0.0125, 0, 0.01, 0, 0.0125, 0, 0.01
 294831187, 0, 0.0125, 0, 0.01, 0, 0.0125, 0, 0.01
 295031107, 0, 0.0125, 0, 0.01, 0, 0.0125, 0, 0.01
 295231027, 0, 0.0125, 0, 0.01, 0, 0.0125, 0, 0.01
 295430947, 0, 0.0125, 0, 0.01, 0, 0.0125, 0, 0.01
 295630867, 0, 0.0125, 0, 0.01, 0, 0.0125, 0, 0.01
 295830787, 0, 0.0125, 0, 0.01, 0, 0.0125, 0, 0.01
 296030707, 0, 0.0125, 0, 0.01, 0, 0.0125, 0, 0.01
 296231460, 0, 0.0125, -0.001, 0.01, 0, 0.0125, 0, 0.01
 296431380, 0, 0.0125, -0.001, 0.01, 0, 0.0125, -0.001, 0.01
 296631300, 0, 0.0125, 0, 0.01, 0, 0.0125, -0.001, 0.01
 296831220, 0, 0.0125, 0, 0.01, 0, 0.0125, 0, 0.01
 297031140, 0, 0.0125, -0.001, 0.01, 0, 0.0125, 0, 0.01
 297231060, 0, 0.0125, 0, 0.01, 0, 0.0125, -0.001, 0.01
 297430980, 0, 0.0125, -0.001, 0.01, 0, 0.0125, 0, 0.01
 297630900, 0, 0.0125, -0.001, 0.01, 0, 0.0125, -0.001, 0.01
 297830820, 0, 0.0125, 0, 0.01, 0, 0.0125, -0.001, 0.01
 298030740, 0, 0.0125, -0.001, 0.01, 0, 0.0125, 0, 0.01
 298230660, 0, 0.0125, -0.001, 0.01, 0, 0.0125, -0.001, 0.01
 298431413, 0, 0.0125, 0, 0.01, 0, 0.0125, -0.001, 0.01
 298631333, 0, 0.0125, -0.001, 0.01, 0, 0.0125, 0, 0.01
 298831253, 0, 0.0125, -0.001, 0.01, 0, 0.0125, -0.001, 0.01
 299031173, 0, 0.0125, -0.001, 0.01, 0, 0.0125, -0.001, 0.01
 299231093, 0, 0.0125, -0.002, 0.01, 0, 0.0125, -0.001, 0.01
 299431013, 0, 0.0125, -0.001, 0.01, 0, 0.0125, -0.002, 0.01
 299630933, 0, 0.0125, -0.001, 0.01, 0, 0.0125, -0.001, 0.01
 299830853, 0, 0.0125, -0.002, 0.01, 0, 0.0125, -0.001, 0.01
 300030773, 0, 0.0125, -0.001, 0.01, 0, 0.0125, -0.002, 0.01
 300230693, 0, 0.0125, -0.001, 0.01, 0, 0.0125, -0.001, 0.01
 300431446, 0, 0.0125, -0.002, 0.01, 0, 0.0125, -0.001, 0.01
 300631366, 0, 0.0125, -0.002, 0.01, 0, 0.0125, -0.002, 0.01
 300831286, 0, 0.0125, -0.001, 0.01, 0, 0.0125, -0.002, 0.01
 301031206, 0, 0.0125, -0.002, 0.01, 0, 0.0125, -0.001, 0.01
 301231126, 0, 0.0125, -0.002, 0.01, 0, 0.0125, -0.002, 0.01
 301431046, 0, 0.0125, -0.002, 0.01, 0, 0.0125, -0.002, 0.01
 301630966, 0, 0.0125, -0.002, 0.01, 0, 0.0125, -0.002, 0.01
 301830886, 0, 0.0125, -0.001, 0.01, 0, 0.0125, -0.002, 0.01
 302030806, 0, 0.0125, -0.001, 0.01, 0, 0.0125, -0.001, 0.01
 302230726, 0, 0.0125, -0.001, 0.01, 0, 0.0125, -0.001, 0.01
 302431479, 0, 0.0125, -0.001, 0.01, 0, 0.0125, -0.001, 0.01
 302631399, 0, 0.0125, -0.001, 0.01, 0, 0.0125, -0.001, 0.01
 302831319, 0, 0.0125, -0.001, 0.01, 0, 0.0125, -0.001, 0.01
 303031239, 0, 0.0125, 0, 0.01, 0, 0.0125, -0.001, 0.01
 303231159, 0, 0.0125, 0, 0.01, 0, 0.0125, 0, 0.01
 303431079, 0, 0.0125, 0, 0.01, 0, 0.0125, 0, 0.01
 303630999, 0, 0.0125, 0, 0.01, 0, 0.0125, 0, 0.01
 303830919, 0, 0.0125, 0, 0.01, 0, 0.0125, 0, 0.01
 304030839, 0, 0.0125, 0, 0.01, 0, 0.0125, 0, 0.01
 304230759, 0, 0.0125, 0, 0.01, 0, 0.0125, 0, 0.01
 304430679, 0, 0.0125, 0, 0.01, 0, 0.0125, 0, 0.01
 304631432, 0, 0.0125, 0, 0.01, 0, 0.0125, 0, 0.01
 304831352, 0, 0.0125, 0, 0.01, 0, 0.0125, 0, 0.01
 305031272, 0, 0.0125, 0, 0.01, 0, 0.0125, 0, 0.01
 305231192, 0, 0.0125, -0.001, 0.01, 0, 0.0125, 0, 0.01
 305431112, 0, 0.0125, -0.001, 0.01, 0, 0.0125, -0.001, 0.01
 305631032, 0, 0.0125, -0.001, 0.01, 0, 0.0125, -0.001, 0.01
 305830952, 0, 0.0125, -0.001, 0.01, 0, 0.0125, -0.001, 0.01
 306030872, 0, 0.0125, 0, 0.01, 0, 0.0125, -0.001, 0.01
 306230792, 0, 0.0125, 0, 0.01, 0, 0.0125, 0, 0.01
 306430712, 0, 0.0125, 0, 0.01, 0, 0.0125, 0, 0.01
 306631465, 0, 0.0125, 0, 0.01, 0, 0.0125, 0, 0.01
 306831385, 0, 0.0125, 0, 0.01, 0, 0.0125, 0, 0.01
 307031305, 0, 0.0125, 0, 0.01, 0, 0.0125, 0, 0.01
 307231225, 0, 0.0125, 0, 0.01, 0, 0.0125, 0, 0.01
 307431145, 0, 0.0125, -0.001, 0.01, 0, 0.0125, 0, 0.01
 307631065, 0, 0.0125, -0.001, 0.01, 0, 0.0125, -0.001, 0.01
 307830985, 0, 0.0125, -0.001, 0.01, 0, 0.0125, -0.001, 0.01
 308030905, 0, 0.0125, 0, 0.01, 0, 0.0125, -0.001, 0.01
 308230825, 0, 0.0125, 0, 0.01, 0, 0.0125, 0, 0.01
 308430745, 0, 0.0125, 0, 0.01, 0, 0.0125, 0, 0.01
 308630665, 0, 0.0125, 0, 0.01, 0, 0.0125, 0, 0.01
 308831418, 0, 0.0125, 0, 0.01, 0, 0.0125, 0, 0.01
 309031338, 0, 0.0125, 0, 0.01, 0, 0.0125, 0, 0.01
 309231258, 0, 0.0125, 0, 0.01, 0, 0.0125, 0, 0.01
 309431178, 0, 0.0125, 0, 0.01, 0, 0.0125, 0, 0.01
 309631098, 0, 0.0125, 0, 0.01, 0, 0.0125, 0, 0.01
 309831018, 0, 0.0125, 0, 0.01, 0, 0.0125, 0, 0.01
 310030938, 0, 0.0125, 0, 0.01, 0, 0.0125, 0, 0.01
 310230858, 0, 0.0125, 0.001, 0.01, 0, 0.0125, 0, 0.01
 310430778, 0, 0.0125, 0, 0.01, 0, 0.0125, 0.001, 0.01
 310630698, 0, 0.0125, 0, 0.01, 0, 0.0125, 0, 0.01
 310831451, 0, 0.0125, 0, 0.01, 0, 0.0125, 0, 0.01
 311031371, 0, 0.0125, 0, 0.01, 0, 0.0125, 0, 0.01
 311231291, 0, 0.0125, 0, 0.01, 0, 0.0125, 0, 0.01
 311431211, 0, 0.0125, 0, 0.01, 0, 0.0125, 0, 0.01
 311631131, 0, 0.0125, 0, 0.01, 0, 0.0125, 0, 0.01
 311831051, 0, 0.0125, 0.001, 0.01, 0, 0.0125, 0, 0.01
 312030971, 0, 0.0125, 0.001, 0.01, 0, 0.0125, 0.001, 0.01
 312230891, 0, 0.0125, 0, 0.01, 0, 0.0125, 0.001, 0.01
 312430811, 0, 0.0125, 0, 0.01, 0, 0.0125, 0, 0.01
 312630731, 0, 0.0125, 0, 0.01, 0, 0.0125, 0, 0.01
 312831484, 0, 0.0125, 0, 0.01, 0, 0.0125, 0, 0.01
 313031404, 0, 0.0125, 0, 0.01, 0, 0.0125, 0, 0.01
 313231324, 0, 0.0125, 0, 0.01, 0, 0.0125, 0, 0.01
 313431244, 0, 0.0125, 0.001, 0.01, 0, 0.0125, 0, 0.01
 313631164, 0, 0.0125, 0.001, 0.01, 0, 0.0125, 0.001, 0.01
 313831084, 0, 0.0125, 0.001, 0.01, 0, 0.0125, 0.001, 0.01
 314031004, 14.959, -1.65, 0, 0.01, 0, 0.0125, 0.001, 0.01
 314230924, 14.954, -1.662, 0.001, 0.01, 14.959, -1.65, 0, 0.01
 314430844, 14.949, -1.673, 0.001, 0.01, 14.954, -1.662, 0.001, 0.01
 314630764, 14.716, -1.658, -0.07, 0.01, 14.949, -1.673, 0.001, 0.01
 314830684, 13.722, -1.556, -0.1, 0.01, 14.716, -1.658, -0.07, 0.01
 315031437, 12.993, -1.484, 0.098, 0.01, 13.722, -1.556, -0.1, 0.01
 315231357, 12.823, -1.462, 0.341, 0.01, 12.993, -1.484, 0.098, 0.01
 315431277, 12.231, -1.303, 0.407, 0.01, 12.823, -1.462, 0.341, 0.01
 315631197, 10.226, -0.984, 0.654, 0.01, 12.231, -1.303, 0.407, 0.01
 315831117, 7.48, -0.5190001, 1.021, 0.01, 10.226, -0.984, 0.654, 0.01
 316031037, 4.742, 0.009000001, 1.253, 0.01, 7.48, -0.5190001, 1.021, 0.01
 316230957, 2.491, 0.388, 1.378, 0.01, 4.742, 0.009000001, 1.253, 0.01
 316430877, 0.8610001, 0.545, 1.448, 0.01, 2.491, 0.388, 1.378, 0.01
 316630797, -0.243, 0.56, 1.513, 0.01, 0.8610001, 0.545, 1.448, 0.01
 316830717, -1.065, 0.501, 1.566, 0.01, -0.243, 0.56, 1.513, 0.01
 317031470, -1.72, 0.359, 1.587, 0.01, -1.065, 0.501, 1.566, 0.01
 317231390, -2.19, 0.127, 1.584, 0.01, -1.72, 0.359, 1.587, 0.01
 317431310, -2.43, -0.162, 1.569, 0.01, -2.19, 0.127, 1.584, 0.01
 317631230, -2.453, -0.459, 1.552, 0.01, -2.43, -0.162, 1.569, 0.01
 317831150, -2.321, -0.721, 1.533, 0.01, -2.453, -0.459, 1.552, 0.01
 318031070, -2.083, -0.92, 1.509, 0.01, -2.321, -0.721, 1.533, 0.01
 318230990, -1.775, -1.042, 1.478, 0.01, -2.083, -0.92, 1.509, 0.01
 318430910, -1.419, -1.084, 1.444, 0.01, -1.775, -1.042, 1.478, 0.01
 318630830, -1.043, -1.056, 1.409, 0.01, -1.419, -1.084, 1.444, 0.01
 318830750, -0.67, -0.9710001, 1.379, 0.01, -1.043, -1.056, 1.409, 0.01
 319030670, -0.318, -0.8470001, 1.357, 0.01, -0.67, -0.9710001, 1.379, 0.01
 319231423, -0.002, -0.701, 1.345, 0.01, -0.318, -0.8470001, 1.357, 0.01
 319431343, 0.269, -0.551, 1.344, 0.01, -0.002, -0.701, 1.345, 0.01
 319631263, 0.494, -0.408, 1.352, 0.01, 0.269, -0.551, 1.344, 0.01
 319831183, 0.668, -0.269, 1.367, 0.01, 0.494, -0.408, 1.352, 0.01
 320031103, 0.7920001, -0.133, 1.385, 0.01, 0.668, -0.269, 1.367, 0.01
 320231023, 0.8700001, -0.003, 1.404, 0.01, 0.7920001, -0.133, 1.385, 0.01
 320430943, 0.905, 0.12, 1.423, 0.01, 0.8700001, -0.003, 1.404, 0.01
 320630863, 0.901, 0.234, 1.44, 0.01, 0.905, 0.12, 1.423, 0.01
 320830783, 0.864, 0.336, 1.453, 0.01, 0.901, 0.234, 1.44, 0.01
 321030703, 0.799, 0.422, 1.464, 0.01, 0.864, 0.336, 1.453, 0.01
 321231456, 0.7130001, 0.49, 1.471, 0.01, 0.799, 0.422, 1.464, 0.01
 321431376, 0.614, 0.539, 1.474, 0.01, 0.7130001, 0.49, 1.471, 0.01
 321631296, 0.508, 0.569, 1.476, 0.01, 0.614, 0.539, 1.474, 0.01
 321831216, 0.397, 0.582, 1.476, 0.01, 0.508, 0.569, 1.476, 0.01
 322031136, 0.287, 0.577, 1.474, 0.01, 0.397, 0.582, 1.476, 0.01
 322231056, 0.183, 0.557, 1.472, 0.01, 0.287, 0.577, 1.474, 0.01
 322430976, 0.08800001, 0.526, 1.468, 0.01, 0.183, 0.557, 1.472, 0.01
 322630896, 0.005, 0.485, 1.465, 0.01, 0.08800001, 0.526, 1.468, 0.01
 322830816, -0.064, 0.436, 1.462, 0.01, 0.005, 0.485, 1.465, 0.01
 323030736, -0.121, 0.383, 1.458, 0.01, -0.064, 0.436, 1.462, 0.01
 323230656, -0.164, 0.327, 1.455, 0.01, -0.121, 0.383, 1.458, 0.01
 323431409, -0.193, 0.27, 1.451, 0.01, -0.164, 0.327, 1.455, 0.01
 323631329, -0.209, 0.212, 1.447, 0.01, -0.193, 0.27, 1.451, 0.01
 323831249, -0.215, 0.152, 1.444, 0.01, -0.209, 0.212, 1.447, 0.01
 324031169, -0.213, 0.09100001, 1.441, 0.01, -0.215, 0.152, 1.444, 0.01
 324231089, -0.203, 0.035, 1.438, 0.01, -0.213, 0.09100001, 1.441, 0.01
 324431009, -0.184, -0.012, 1.436, 0.01, -0.203, 0.035, 1.438, 0.01
 324630929, -0.163, -0.052, 1.435, 0.01, -0.184, -0.012, 1.436, 0.01
 324830849, -0.138, -0.08400001, 1.433, 0.01, -0.163, -0.052, 1.435, 0.01
 325030769, -0.112, -0.108, 1.432, 0.01, -0.138, -0.08400001, 1.433, 0.01
 325230689, -0.085, -0.125, 1.43, 0.01, -0.112, -0.108, 1.432, 0.01
 325431442, -0.057, -0.133, 1.429, 0.01, -0.085, -0.125, 1.43, 0.01
 325631362, -0.031, -0.134, 1.428, 0.01, -0.057, -0.133, 1.429, 0.01
 325831282, -0.007, -0.13, 1.427, 0.01, -0.031, -0.134, 1.428, 0.01
 326031202, 0.014, -0.122, 1.426, 0.01, -0.007, -0.13, 1.427, 0.01
 326231122, 0.031, -0.11, 1.425, 0.01, 0.014, -0.122, 1.426, 0.01
 326431042, 0.043, -0.096, 1.424, 0.01, 0.031, -0.11, 1.425, 0.01
 326630962, 0.05, -0.079, 1.423, 0.01, 0.043, -0.096, 1.424, 0.01
 326830882, 0.054, -0.062, 1.423, 0.01, 0.05, -0.079, 1.423, 0.01
 327030802, 0.056, -0.044, 1.423, 0.01, 0.054, -0.062, 1.423, 0.01
 327230722, 0.057, -0.027, 1.423, 0.01, 0.056, -0.044, 1.423, 0.01
 327431475, 0.058, -0.014, 1.422, 0.01, 0.057, -0.027, 1.423, 0.01
 327631395, 0.057, -0.002, 1.423, 0.01, 0.058, -0.014, 1.422, 0.01
 327831315, 0.055, 0.006, 1.423, 0.01, 0.057, -0.002, 1.423, 0.01
 328031235, 0.05, 0.014, 1.423, 0.01, 0.055, 0.006, 1.423, 0.01
 328231155, 0.043, 0.021, 1.423, 0.01, 0.05, 0.014, 1.423, 0.01
 328431075, 0.035, 0.025, 1.423, 0.01, 0.043, 0.021, 1.423, 0.01
 328630995, 0.029, 0.028, 1.424, 0.01, 0.035, 0.025, 1.423, 0.01
 328830915, 0.024, 0.029, 1.424, 0.01, 0.029, 0.028, 1.424, 0.01
 329030835, 0.02, 0.028, 1.424, 0.01, 0.024, 0.029, 1.424, 0.01
 329230755, 0.015, 0.026, 1.424, 0.01, 0.02, 0.028, 1.424, 0.01
 329430675, 0.012, 0.023, 1.424, 0.01, 0.015, 0.026, 1.424, 0.01
 329631428, 0.01, 0.019, 1.424, 0.01, 0.012, 0.023, 1.424, 0.01
 329831348, 0.008, 0.014, 1.424, 0.01, 0.01, 0.019, 1.424, 0.01
 330031268, 0.004, 0.01, 1.424, 0.01, 0.008, 0.014, 1.424, 0.01
 330231188, 0.002, 0.007, 1.425, 0.01, 0.004, 0.01, 1.424, 0.01
 330431108, 0.002, 0.004, 1.425, 0.01, 0.002, 0.007, 1.425, 0.01
 330631028, 0.002, 0, 1.425, 0.01, 0.002, 0.004, 1.425, 0.01
 330830948, 0, -0.002, 1.426, 0.01, 0.002, 0, 1.425, 0.01
 331030868, -0.002, -0.003, 1.428, 0.01, 0, -0.002, 1.426, 0.01
 331230788, -0.004, -0.005, 1.428, 0.01, -0.002, -0.003, 1.428, 0.01
 331430708, -0.003, -0.006, 1.429, 0.01, -0.004, -0.005, 1.428, 0.01
 331631461, -0.001, -0.008, 1.429, 0.01, -0.003, -0.006, 1.429, 0.01
 331831381, 0, -0.009000001, 1.428, 0.01, -0.001, -0.008, 1.429, 0.01
 332031301, 0, -0.01, 1.428, 0.01, 0, -0.009000001, 1.428, 0.01
 332231221, 0.001, -0.009000001, 1.427, 0.01, 0, -0.01, 1.428, 0.01
 332431141, 0.005, -0.009000001, 1.426, 0.01, 0.001, -0.009000001, 1.427, 0.01
 332631061, 0.008, -0.009000001, 1.426, 0.01, 0.005, -0.009000001, 1.426, 0.01
 332830981, 0.008, -0.009000001, 1.426, 0.01, 0.008, -0.009000001, 1.426, 0.01
 333030901, 0.006, -0.009000001, 1.426, 0.01, 0.008, -0.009000001, 1.426, 0.01
 333230821, 0.006, -0.007, 1.427, 0.01, 0.006, -0.009000001, 1.426, 0.01
 333430741, 0.007, -0.004, 1.428, 0.01, 0.006, -0.007, 1.427, 0.01
 333630661, 0.007, -0.002, 1.427, 0.01, 0.007, -0.004, 1.428, 0.01
 333831414, 0.007, -0.002, 1.429, 0.01, 0.007, -0.002, 1.427, 0.01
 334031334, 0.008, 0, 1.43, 0.01, 0.007, -0.002, 1.429, 0.01
 334231254, 0.01, 0.004, 1.43, 0.01, 0.008, 0, 1.43, 0.01
 334431174, 0.013, 0.01, 1.413, 0.01, 0.01, 0.004, 1.43, 0.01
 334631094, 0.014, 0.019, 1.364, 0.01, 0.013, 0.01, 1.413, 0.01
 334831014, 0.01, 0.036, 1.278, 0.01, 0.014, 0.019, 1.364, 0.01
 335030934, 0.003, 0.058, 1.162, 0.01, 0.01, 0.036, 1.278, 0.01
 335230854, -0.005, 0.083, 1.043, 0.01, 0.003, 0.058, 1.162, 0.01
 335430774, -0.016, 0.102, 1, 0.01, -0.005, 0.083, 1.043, 0.01
 335630694, -0.023, 0.096, 1.044, 0.01, -0.016, 0.102, 1, 0.01
 335831447, -0.026, 0.056, 1.146, 0.01, -0.023, 0.096, 1.044, 0.01
 336031367, -0.025, -0.004, 1.243, 0.01, -0.026, 0.056, 1.146, 0.01
 336231287, -0.026, -0.048, 1.285, 0.01, -0.025, -0.004, 1.243, 0.01
 336431207, -0.033, -0.043, 1.296, 0.01, -0.026, -0.048, 1.285, 0.01
 336631127, -0.043, -0.018, 1.282, 0.01, -0.033, -0.043, 1.296, 0.01
 336831047, -0.052, -0.015, 1.242, 0.01, -0.043, -0.018, 1.282, 0.01
 337030967, -0.058, -0.033, 1.194, 0.01, -0.052, -0.015, 1.242, 0.01
 337230887, -0.066, -0.048, 1.134, 0.01, -0.058, -0.033, 1.194, 0.01
 337430807, -0.075, -0.05, 1.065, 0.01, -0.066, -0.048, 1.134, 0.01
 337630727, -0.082, -0.046, 0.992, 0.01, -0.075, -0.05, 1.065, 0.01
 337831480, -0.087, -0.046, 0.9210001, 0.01, -0.082, -0.046, 0.992, 0.01
 338031400, -0.08800001, -0.052, 0.855, 0.01, -0.087, -0.046, 0.9210001, 0.01
 338231320, -0.086, -0.061, 0.798, 0.01, -0.08800001, -0.052, 0.855, 0.01
 338431240, -0.08000001, -0.068, 0.749, 0.01, -0.086, -0.061, 0.798, 0.01
 338631160, -0.06900001, -0.07600001, 0.708, 0.01, -0.08000001, -0.068, 0.749, 0.01
 338831080, -0.055, -0.083, 0.674, 0.01, -0.06900001, -0.07600001, 0.708, 0.01
 339031000, -0.041, -0.08800001, 0.646, 0.01, -0.055, -0.083, 0.674, 0.01
 339230920, -0.026, -0.09, 0.622, 0.01, -0.041, -0.08800001, 0.646, 0.01
 339430840, -0.009000001, -0.09, 0.6020001, 0.01, -0.026, -0.09, 0.622, 0.01
 339630760, 0.008, -0.08800001, 0.583, 0.01, -0.009000001, -0.09, 0.6020001, 0.01
 339830680, 0.025, -0.08400001, 0.568, 0.01, 0.008, -0.08800001, 0.583, 0.01
 340031433, 0.04, -0.075, 0.554, 0.01, 0.025, -0.08400001, 0.568, 0.01
 340231353, 0.049, -0.061, 0.541, 0.01, 0.04, -0.075, 0.554, 0.01
 340431273, 0.056, -0.044, 0.53, 0.01, 0.049, -0.061, 0.541, 0.01
 340631193, 0.064, -0.026, 0.52, 0.01, 0.056, -0.044, 0.53, 0.01
 340831113, 0.075, -0.01, 0.511, 0.01, 0.064, -0.026, 0.52, 0.01
 341031033, 0.086, 0.004, 0.503, 0.01, 0.075, -0.01, 0.511, 0.01
 341230953, 0.09, 0.017, 0.496, 0.01, 0.086, 0.004, 0.503, 0.01
 341430873, 0.089, 0.028, 0.49, 0.01, 0.09, 0.017, 0.496, 0.01
 341630793, 0.087, 0.038, 0.485, 0.01, 0.089, 0.028, 0.49, 0.01
 341830713, 0.087, 0.046, 0.48, 0.01, 0.087, 0.038, 0.485, 0.01
 342031466, 0.08400001, 0.052, 0.476, 0.01, 0.087, 0.046, 0.48, 0.01
 342231386, 0.07600001, 0.056, 0.472, 0.01, 0.08400001, 0.052, 0.476, 0.01
 342431306, 0.054, 0.059, 0.469, 0.01, 0.07600001, 0.056, 0.472, 0.01
 342631226, 0.042, 0.062, 0.467, 0.01, 0.054, 0.059, 0.469, 0.01
 342831146, 0.033, 0.064, 0.464, 0.01, 0.042, 0.062, 0.467, 0.01
 343031066, 0.022, 0.066, 0.463, 0.01, 0.033, 0.064, 0.464, 0.01
 343230986, 0.012, 0.06500001, 0.461, 0.01, 0.022, 0.066, 0.463, 0.01
 343430906, 0.002, 0.063, 0.46, 0.01, 0.012, 0.06500001, 0.461, 0.01
 343630826, -0.008, 0.059, 0.459, 0.01, 0.002, 0.063, 0.46, 0.01
 343830746, -0.018, 0.053, 0.458, 0.01, -0.008, 0.059, 0.459, 0.01
 344030666, -0.023, 0.046, 0.457, 0.01, -0.018, 0.053, 0.458, 0.01
 344231419, -0.024, 0.039, 0.457, 0.01, -0.023, 0.046, 0.457, 0.01
 344431339, -0.023, 0.031, 0.456, 0.01, -0.024, 0.039, 0.457, 0.01
 344631259, -0.023, 0.024, 0.456, 0.01, -0.023, 0.031, 0.456, 0.01
 344831179, -0.025, 0.017, 0.456, 0.01, -0.023, 0.024, 0.456, 0.01
 345031099, -0.029, 0.011, 0.456, 0.01, -0.025, 0.017, 0.456, 0.01
 345231019, -0.032, 0.01, 0.457, 0.01, -0.029, 0.011, 0.456, 0.01
 345430939, -0.032, 0.011, 0.456, 0.01, -0.032, 0.01, 0.457, 0.01
 345630859, -0.029, 0.009000001, 0.455, 0.01, -0.032, 0.011, 0.456, 0.01
 345830779, -0.024, 0.005, 0.455, 0.01, -0.029, 0.009000001, 0.455, 0.01
 346030699, -0.017, 0.003, 0.455, 0.01, -0.024, 0.005, 0.455, 0.01
 346231452, -0.008, 0.002, 0.452, 0.01, -0.017, 0.003, 0.455, 0.01
 346431372, -0.001, 0.001, 0.45, 0.01, -0.008, 0.002, 0.452, 0.01
 346631292, 0.001, 0, 0.448, 0.01, -0.001, 0.001, 0.45, 0.01
 346831212, 0, -0.004, 0.448, 0.01, 0.001, 0, 0.448, 0.01
 347031132, -0.002, -0.005, 0.448, 0.01, 0, -0.004, 0.448, 0.01
 347231052, -0.003, -0.002, 0.448, 0.01, -0.002, -0.005, 0.448, 0.01
 347430972, 0, 0, 0.447, 0.01, -0.003, -0.002, 0.448, 0.01
 347630892, 0.004, 0, 0.45, 0.01, 0, 0, 0.447, 0.01
 347830812, 0.001, 0.004, 0.454, 0.01, 0.004, 0, 0.45, 0.01
 348030732, -0.007, 0.013, 0.46, 0.01, 0.001, 0.004, 0.454, 0.01
 348231485, -0.016, 0.025, 0.466, 0.01, -0.007, 0.013, 0.46, 0.01
 348431405, -0.024, 0.04, 0.473, 0.01, -0.016, 0.025, 0.466, 0.01
 348631325, -0.028, 0.056, 0.478, 0.01, -0.024, 0.04, 0.473, 0.01
 348831245, -0.03, 0.066, 0.478, 0.01, -0.028, 0.056, 0.478, 0.01
 349031165, -0.028, 0.066, 0.491, 0.01, -0.03, 0.066, 0.478, 0.01
 349231085, -0.019, 0.017, 0.142, 0.01, -0.028, 0.066, 0.491, 0.01
 349431005, -0.014, -0.017, -0.139, 0.01, -0.019, 0.017, 0.142, 0.01
 349630925, -0.013, 0, -0.002, 0.01, -0.014, -0.017, -0.139, 0.01
 349830845, -0.013, 0.002, 0.018, 0.01, -0.013, 0, -0.002, 0.01
 350030765, -0.013, 0, -0.001, 0.01, -0.013, 0.002, 0.018, 0.01
 350230685, -0.013, 0, -0.002, 0.01, -0.013, 0, -0.001, 0.01
 350431438, -0.013, 0, 0, 0.01, -0.013, 0, -0.002, 0.01
 350631358, -0.013, 0, 0, 0.01, -0.013, 0, 0, 0.01
 350831278, -0.013, 0, 0, 0.01, -0.013, 0, 0, 0.01
 351031198, -0.013, 0, 0, 0.01, -0.013, 0, 0, 0.01
 351231118, -0.013, 0, 0, 0.01, -0.013, 0, 0, 0.01
 351431038, -0.013, 0, 0, 0.01, -0.013, 0, 0, 0.01
 351630958, -0.013, 0, 0, 0.01, -0.013, 0, 0, 0.01
