TimeUS,CGpN,CGpE,CGpD,CGpe,PGpN,PGpE,PGpD,PGpe
 196165669, 0, 0, 0, 2.5, 0, 0, 0, 0
 196231476, 0, 0, 0, 2.5, 0, 0, 0, 2.5
 196431396, 0, 0, 0, 2.5, 0, 0, 0, 2.5
 196631316, 0, 0, 0, 2.5, 0, 0, 0, 2.5
 196831236, 0, 0, 0, 2.5, 0, 0, 0, 2.5
 197031156, 0, 0, 0, 2.5, 0, 0, 0, 2.5
 197231076, 0, 0, 0, 2.5, 0, 0, 0, 2.5
 197430996, 0, 0, 0, 2.5, 0, 0, 0, 2.5
 197630916, 0, 0, 0, 2.5, 0, 0, 0, 2.5
 197830836, 0, 0, 0, 2.5, 0, 0, 0, 2.5
 198030756, 0, 0, 0, 2.5, 0, 0, 0, 2.5
 198230676, 0, 0, 0, 2.5, 0, 0, 0, 2.5
 198431429, 0, 0, 0, 2.5, 0, 0, 0, 2.5
 198631349, 0, 0, 0, 2.5, 0, 0, 0, 2.5
 198831269, 0, 0, 0, 2.5, 0, 0, 0, 2.5
 199031189, 0, 0, 0, 2.5, 0, 0, 0, 2.5
 199231109, 0, 0, 0, 2.5, 0, 0, 0, 2.5
 199431029, 0, 0, 0, 2.5, 0, 0, 0, 2.5
 199630949, 0, 0, 0, 2.5, 0, 0, 0, 2.5
 199830869, 0, 0, 0, 2.5, 0, 0, 0, 2.5
 200030789, 0, 0, 0, 2.5, 0, 0, 0, 2.5
 200230709, 0, 0, 0, 2.5, 0, 0, 0, 2.5
 200431462, 0, 0, 0, 2.5, 0, 0, 0, 2.5
 200631382, 0, 0, 0, 2.5, 0, 0, 0, 2.5
 200831302, 0, 0, 0, 2.5, 0, 0, 0, 2.5
 201031222, 0, 0, 0, 2.5, 0, 0, 0, 2.5
 201231142, 0, 0, 0, 2.5, 0, 0, 0, 2.5
 201431062, 0, 0, 0, 2.5, 0, 0, 0, 2.5
 201630982, 0, 0, 0, 2.5, 0, 0, 0, 2.5
 201830902, 0, 0, 0, 2.5, 0, 0, 0, 2.5
 202030822, 0, 0, 0, 2.5, 0, 0, 0, 2.5
 202230742, 0, 0, 0, 2.5, 0, 0, 0, 2.5
 202430662, 0, 0, 0, 2.5, 0, 0, 0, 2.5
 202631415, 0, 0, 0, 2.5, 0, 0, 0, 2.5
 202831335, 0, 0, 0, 2.5, 0, 0, 0, 2.5
 203031255, 0, 0, 0, 2.5, 0, 0, 0, 2.5
 203231175, 0, 0, 0, 2.5, 0, 0, 0, 2.5
 203431095, 0, 0, 0, 2.5, 0, 0, 0, 2.5
 203631015, 0, 0, 0, 2.5, 0, 0, 0, 2.5
 203830935, 0, 0, 0, 2.5, 0, 0, 0, 2.5
 204030855, 0, 0, 0, 2.5, 0, 0, 0, 2.5
 204230775, 0, 0, 0, 2.5, 0, 0, 0, 2.5
 204430695, 0, 0, 0, 2.5, 0, 0, 0, 2.5
 204631448, 0, 0, 0, 2.5, 0, 0, 0, 2.5
 204831368, 0, 0, 0, 2.5, 0, 0, 0, 2.5
 205031288, 0, 0, 0, 2.5, 0, 0, 0, 2.5
 205231208, 0, 0, 0, 2.5, 0, 0, 0, 2.5
 205431128, 0, 0, 0, 2.5, 0, 0, 0, 2.5
 205631048, 0, 0, 0, 2.5, 0, 0, 0, 2.5
 205830968, 0, 0, 0, 2.5, 0, 0, 0, 2.5
 206030888, 0, 0, 0, 2.5, 0, 0, 0, 2.5
 206230808, 0, 0, 0, 2.5, 0, 0, 0, 2.5
 206430728, 0, 0, 0, 2.5, 0, 0, 0, 2.5
 206631481, 0, 0, 0, 2.5, 0, 0, 0, 2.5
 206831401, 0, 0, 0, 2.5, 0, 0, 0, 2.5
 207031321, 0, 0, 0, 2.5, 0, 0, 0, 2.5
 207231241, 0, 0, 0, 2.5, 0, 0, 0, 2.5
 207431161, 0, 0, 0, 2.5, 0, 0, 0, 2.5
 207631081, 0, 0, 0, 2.5, 0, 0, 0, 2.5
 207831001, 0, 0, 0, 2.5, 0, 0, 0, 2.5
 208030921, 0, 0, 0, 2.5, 0, 0, 0, 2.5
 208230841, 0, 0, 0, 2.5, 0, 0, 0, 2.5
 208430761, 0, 0, 0, 2.5, 0, 0, 0, 2.5
 208630681, 0, 0, 0, 2.5, 0, 0, 0, 2.5
 208831434, 0, 0, 0, 2.5, 0, 0, 0, 2.5
 209031354, 0, 0, 0, 2.5, 0, 0, 0, 2.5
 209231274, 0, 0, 0, 2.5, 0, 0, 0, 2.5
 209431194, 0, 0, 0, 2.5, 0, 0, 0, 2.5
 209631114, 0, 0, 0, 2.5, 0, 0, 0, 2.5
 209831034, 0, 0, 0, 2.5, 0, 0, 0, 2.5
 210030954, 0, 0, 0, 2.5, 0, 0, 0, 2.5
 210230874, 0, 0, 0, 2.5, 0, 0, 0, 2.5
 210430794, 0, 0, 0, 2.5, 0, 0, 0, 2.5
 210630714, 0, 0, 0, 2.5, 0, 0, 0, 2.5
 210831467, 0, 0, 0, 2.5, 0, 0, 0, 2.5
 211031387, 0, 0, 0, 2.5, 0, 0, 0, 2.5
 211231307, 0, 0, 0, 2.5, 0, 0, 0, 2.5
 211431227, 0, 0, 0, 2.5, 0, 0, 0, 2.5
 211631147, 0, 0, 0, 2.5, 0, 0, 0, 2.5
 211831067, 0, 0, 0, 2.5, 0, 0, 0, 2.5
 212030987, 0, 0, 0, 2.5, 0, 0, 0, 2.5
 212230907, 0, 0, 0, 2.5, 0, 0, 0, 2.5
 212430827, 0, 0, 0, 2.5, 0, 0, 0, 2.5
 212630747, 0, 0, 0, 2.5, 0, 0, 0, 2.5
 212830667, 0, 0, 0, 2.5, 0, 0, 0, 2.5
 213031420, 0, 0, 0, 2.5, 0, 0, 0, 2.5
 213231340, 0, 0, 0, 2.5, 0, 0, 0, 2.5
 213431260, 0, 0, 0, 2.5, 0, 0, 0, 2.5
 213631180, 0, 0, 0, 2.5, 0, 0, 0, 2.5
 213831100, 0, 0, 0, 2.5, 0, 0, 0, 2.5
 214031020, 0, 0, 0, 2.5, 0, 0, 0, 2.5
 214230940, 0, 0, 0, 2.5, 0, 0, 0, 2.5
 214430860, 0, 0, 0, 2.5, 0, 0, 0, 2.5
 214630780, 0, 0, 0, 2.5, 0, 0, 0, 2.5
 214830700, 0, 0, 0, 2.5, 0, 0, 0, 2.5
 215031453, 0, 0, 0, 2.5, 0, 0, 0, 2.5
 215231373, 0, 0, 0, 2.5, 0, 0, 0, 2.5
 215431293, 0, 0, 0, 2.5, 0, 0, 0, 2.5
 215631213, 0, 0, 0, 2.5, 0, 0, 0, 2.5
 215831133, 0, 0, 0, 2.5, 0, 0, 0, 2.5
 216031053, 0, 0, 0, 2.5, 0, 0, 0, 2.5
 216230973, 0, 0, 0, 2.5, 0, 0, 0, 2.5
 216430893, 0, 0, 0, 2.5, 0, 0, 0, 2.5
 216630813, 0, 0, 0, 2.5, 0, 0, 0, 2.5
 216830733, 0, 0, 0, 2.5, 0, 0, 0, 2.5
 217031486, 0, 0, 0, 2.5, 0, 0, 0, 2.5
 217231406, 0, 0, 0, 2.5, 0, 0, 0, 2.5
 217431326, 0, 0, 0, 2.5, 0, 0, 0, 2.5
 217631246, 0, 0, 0, 2.5, 0, 0, 0, 2.5
 217831166, 0, 0, 0, 2.5, 0, 0, 0, 2.5
 218031086, 0, 0, 0, 2.5, 0, 0, 0, 2.5
 218231006, 0, 0, 0, 2.5, 0, 0, 0, 2.5
 218430926, 0, 0, 0, 2.5, 0, 0, 0, 2.5
 218630846, 0, 0, 0, 2.5, 0, 0, 0, 2.5
 218830766, 0, 0, 0, 2.5, 0, 0, 0, 2.5
 219030686, 0, 0, 0, 2.5, 0, 0, 0, 2.5
 219231439, 0, 0, 0, 2.5, 0, 0, 0, 2.5
 219431359, 0, 0, 0, 2.5, 0, 0, 0, 2.5
 219631279, 0, 0, 0, 2.5, 0, 0, 0, 2.5
 219831199, 0, 0, 0, 2.5, 0, 0, 0, 2.5
 220031119, 0, 0, 0, 2.5, 0, 0, 0, 2.5
 220231039, 0, 0, 0, 2.5, 0, 0, 0, 2.5
 220430959, 0, 0, 0, 2.5, 0, 0, 0, 2.5
 220630879, 0, 0, 0, 2.5, 0, 0, 0, 2.5
 220830799, 0, 0, 0, 2.5, 0, 0, 0, 2.5
 221030719, 0, 0, 0, 2.5, 0, 0, 0, 2.5
 221231472, 0, 0, 0, 2.5, 0, 0, 0, 2.5
 221431392, 0, 0, 0, 2.5, 0, 0, 0, 2.5
 221631312, 0, 0, 0, 2.5, 0, 0, 0, 2.5
 221831232, 0, 0, 0, 2.5, 0, 0, 0, 2.5
 222031152, 0, 0, 0, 2.5, 0, 0, 0, 2.5
 222231072, 0, 0, 0, 2.5, 0, 0, 0, 2.5
 222430992, 0, 0, 0, 2.5, 0, 0, 0, 2.5
 222630912, 0, 0, 0, 2.5, 0, 0, 0, 2.5
 222830832, 0, 0, 0, 2.5, 0, 0, 0, 2.5
 223030752, 0, 0, 0, 2.5, 0, 0, 0, 2.5
 223230672, 0, 0, 0, 2.5, 0, 0, 0, 2.5
 223431425, 0, 0, 0, 2.5, 0, 0, 0, 2.5
 223631345, 0, 0, 0, 2.5, 0, 0, 0, 2.5
 223831265, 0, 0, 0, 2.5, 0, 0, 0, 2.5
 224031185, 0, 0, 0, 2.5, 0, 0, 0, 2.5
 224231105, 0, 0, 0, 2.5, 0, 0, 0, 2.5
 224431025, 0, 0, 0, 2.5, 0, 0, 0, 2.5
 224630945, 0, 0, 0, 2.5, 0, 0, 0, 2.5
 224830865, 0, 0, 0, 2.5, 0, 0, 0, 2.5
 225030785, 0, 0, 0, 2.5, 0, 0, 0, 2.5
 225230705, 0, 0, 0, 2.5, 0, 0, 0, 2.5
 225431458, 0, 0, 0, 2.5, 0, 0, 0, 2.5
 225631378, 0, 0, 0, 2.5, 0, 0, 0, 2.5
 225831298, 0, 0, 0, 2.5, 0, 0, 0, 2.5
 226031218, 0, 0, 0, 2.5, 0, 0, 0, 2.5
 226231138, 0, 0, 0, 2.5, 0, 0, 0, 2.5
 226431058, 0, 0, 0, 2.5, 0, 0, 0, 2.5
 226630978, 0, 0, 0, 2.5, 0, 0, 0, 2.5
 226830898, 0, 0, 0, 2.5, 0, 0, 0, 2.5
 227030818, 0, 0, 0, 2.5, 0, 0, 0, 2.5
 227230738, 0, 0, 0, 2.5, 0, 0, 0, 2.5
 227430658, 0, 0, 0, 2.5, 0, 0, 0, 2.5
 227631411, 0, 0, 0, 2.5, 0, 0, 0, 2.5
 227831331, 0, 0, 0, 2.5, 0, 0, 0, 2.5
 228031251, 0, 0, 0, 2.5, 0, 0, 0, 2.5
 228231171, 0, 0, 0, 2.5, 0, 0, 0, 2.5
 228431091, 0, 0, 0, 2.5, 0, 0, 0, 2.5
 228631011, 0, 0, 0, 2.5, 0, 0, 0, 2.5
 228830931, 0, 0, 0, 2.5, 0, 0, 0, 2.5
 229030851, 0, 0, 0, 2.5, 0, 0, 0, 2.5
 229230771, 0, 0, 0, 2.5, 0, 0, 0, 2.5
 229430691, 0, 0, 0, 2.5, 0, 0, 0, 2.5
 229631444, 0, 0, 0, 2.5, 0, 0, 0, 2.5
 229831364, 0, 0, 0, 2.5, 0, 0, 0, 2.5
 230031284, 0, 0, 0, 2.5, 0, 0, 0, 2.5
 230231204, 0, 0, 0, 2.5, 0, 0, 0, 2.5
 230431124, 0, 0, 0, 2.5, 0, 0, 0, 2.5
 230631044, 0, 0, 0, 2.5, 0, 0, 0, 2.5
 230830964, 0, 0, 0, 2.5, 0, 0, 0, 2.5
 231030884, 0, 0, 0, 2.5, 0, 0, 0, 2.5
 231230804, 0, 0, 0, 2.5, 0, 0, 0, 2.5
 231430724, 0, 0, 0, 2.5, 0, 0, 0, 2.5
 231631477, 0, 0, 0, 2.5, 0, 0, 0, 2.5
 231831397, 0, 0, 0, 2.5, 0, 0, 0, 2.5
 232031317, 0, 0, 0, 2.5, 0, 0, 0, 2.5
 232231237, 0, 0, 0, 2.5, 0, 0, 0, 2.5
 232431157, 0, 0, 0, 2.5, 0, 0, 0, 2.5
 232631077, 0, 0, 0, 2.5, 0, 0, 0, 2.5
 232830997, 0, 0, 0, 2.5, 0, 0, 0, 2.5
 233030917, 0, 0, 0, 2.5, 0, 0, 0, 2.5
 233230837, 0, 0, 0, 2.5, 0, 0, 0, 2.5
 233430757, 0, 0, 0, 2.5, 0, 0, 0, 2.5
 233630677, 0, 0, 0, 2.5, 0, 0, 0, 2.5
 233831430, 0, 0, 0, 2.5, 0, 0, 0, 2.5
 234031350, 0, 0, 0, 2.5, 0, 0, 0, 2.5
 234231270, 0, 0, 0, 2.5, 0, 0, 0, 2.5
 234431190, 0, 0, 0, 2.5, 0, 0, 0, 2.5
 234631110, 0, 0, 0, 2.5, 0, 0, 0, 2.5
 234831030, 0, 0, 0, 2.5, 0, 0, 0, 2.5
 235030950, 0, 0, 0, 2.5, 0, 0, 0, 2.5
 235230870, 0, 0, 0, 2.5, 0, 0, 0, 2.5
 235430790, 0, 0, 0, 2.5, 0, 0, 0, 2.5
 235630710, 0, 0, 0, 2.5, 0, 0, 0, 2.5
 235831463, 0, 0, 0, 2.5, 0, 0, 0, 2.5
 236031383, 0, 0, 0, 2.5, 0, 0, 0, 2.5
 236231303, 0, 0, 0, 2.5, 0, 0, 0, 2.5
 236431223, 0, 0, 0, 2.5, 0, 0, 0, 2.5
 236631143, 0, 0, 0, 2.5, 0, 0, 0, 2.5
 236831063, 0, 0, 0, 2.5, 0, 0, 0, 2.5
 237030983, 0, 0, 0, 2.5, 0, 0, 0, 2.5
 237230903, 0, 0, 0, 2.5, 0, 0, 0, 2.5
 237430823, 0, 0, 0, 2.5, 0, 0, 0, 2.5
 237630743, 0, 0, 0, 2.5, 0, 0, 0, 2.5
 237830663, 0, 0, 0, 2.5, 0, 0, 0, 2.5
 238031416, 0, 0, 0, 2.5, 0, 0, 0, 2.5
 238231336, 0, 0, 0, 2.5, 0, 0, 0, 2.5
 238431256, 0, 0, 0, 2.5, 0, 0, 0, 2.5
 238631176, 0, 0, 0, 2.5, 0, 0, 0, 2.5
 238831096, 0, 0, 0, 2.5, 0, 0, 0, 2.5
 239031016, 0, 0, 0, 2.5, 0, 0, 0, 2.5
 239230936, 0, 0, 0, 2.5, 0, 0, 0, 2.5
 239430856, 0, 0, 0, 2.5, 0, 0, 0, 2.5
 239630776, 0, 0, 0, 2.5, 0, 0, 0, 2.5
 239830696, 0, 0, 0, 2.5, 0, 0, 0, 2.5
 240031449, 0, 0, 0, 2.5, 0, 0, 0, 2.5
 240231369, 0, 0, 0, 2.5, 0, 0, 0, 2.5
 240431289, 0, 0, 0, 2.5, 0, 0, 0, 2.5
 240631209, 0, 0, 0, 2.5, 0, 0, 0, 2.5
 240831129, 0, 0, 0, 2.5, 0, 0, 0, 2.5
 241031049, 0, 0, 0, 2.5, 0, 0, 0, 2.5
 241230969, 0, 0, 0, 2.5, 0, 0, 0, 2.5
 241430889, 0, 0, 0, 2.5, 0, 0, 0, 2.5
 241630809, 0, 0, 0, 2.5, 0, 0, 0, 2.5
 241830729, 0, 0, 0, 2.5, 0, 0, 0, 2.5
 242031482, 0, 0, 0, 2.5, 0, 0, 0, 2.5
 242231402, 0, 0, 0, 2.5, 0, 0, 0, 2.5
 242431322, 0, 0, 0, 2.5, 0, 0, 0, 2.5
 242631242, 0, 0, 0, 2.5, 0, 0, 0, 2.5
 242831162, 0, 0, 0, 2.5, 0, 0, 0, 2.5
 243031082, 0, 0, 0, 2.5, 0, 0, 0, 2.5
 243231002, 0, 0, 0, 2.5, 0, 0, 0, 2.5
 243430922, 0, 0, 0, 2.5, 0, 0, 0, 2.5
 243630842, 0, 0, 0, 2.5, 0, 0, 0, 2.5
 243830762, 0, 0, 0, 2.5, 0, 0, 0, 2.5
 244030682, 0, 0, 0, 2.5, 0, 0, 0, 2.5
 244231435, 0, 0, 0, 2.5, 0, 0, 0, 2.5
 244431355, 0, 0, 0, 2.5, 0, 0, 0, 2.5
 244631275, 0, 0, 0, 2.5, 0, 0, 0, 2.5
 244831195, 0, 0, 0, 2.5, 0, 0, 0, 2.5
 245031115, 0, 0, 0, 2.5, 0, 0, 0, 2.5
 245231035, 0, 0, 0, 2.5, 0, 0, 0, 2.5
 245430955, 0, 0, 0, 2.5, 0, 0, 0, 2.5
 245630875, 0, 0, 0, 2.5, 0, 0, 0, 2.5
 245830795, 0, 0, 0, 2.5, 0, 0, 0, 2.5
 246030715, 0, 0, 0, 2.5, 0, 0, 0, 2.5
 246231468, 0, 0, 0, 2.5, 0, 0, 0, 2.5
 246431388, 0, 0, 0, 2.5, 0, 0, 0, 2.5
 246631308, 0, 0, 0, 2.5, 0, 0, 0, 2.5
 246831228, 0, 0, 0, 2.5, 0, 0, 0, 2.5
 247031148, 0, 0, 0, 2.5, 0, 0, 0, 2.5
 247231068, 0, 0, 0, 2.5, 0, 0, 0, 2.5
 247430988, 0, 0, 0, 2.5, 0, 0, 0, 2.5
 247630908, 0, 0, 0, 2.5, 0, 0, 0, 2.5
 247830828, 0, 0, 0, 2.5, 0, 0, 0, 2.5
 248030748, 0, 0, -0.275, 2.5, 0, 0, 0, 2.5
 248230668, 0, 0, -0.274, 2.5, 0, 0, -0.275, 2.5
 248431421, 0, 0, -0.192, 2.5, 0, 0, -0.274, 2.5
 248631341, -0.004, -0.004, -1.415, 2.5, 0, 0, -0.192, 2.5
 248831261, -0.018, -0.019, -2.073, 2.5, -0.004, -0.004, -1.415, 2.5
 249031181, -0.036, -0.036, -2.193, 2.5, -0.018, -0.019, -2.073, 2.5
 249231101, -0.053, -0.052, -2.41, 2.5, -0.036, -0.036, -2.193, 2.5
 249431021, -0.068, -0.066, -2.648, 2.5, -0.053, -0.052, -2.41, 2.5
 249630941, -0.08000001, -0.078, -2.837, 2.5, -0.068, -0.066, -2.648, 2.5
 249830861, -0.09100001, -0.087, -2.999, 2.5, -0.08000001, -0.078, -2.837, 2.5
 250030781, -0.1, -0.094, -3.144, 2.5, -0.09100001, -0.087, -2.999, 2.5
 250230701, -0.107, -0.1, -3.27, 2.5, -0.1, -0.094, -3.144, 2.5
 250431454, -0.113, -0.104, -3.381, 2.5, -0.107, -0.1, -3.27, 2.5
 250631374, -0.117, -0.108, -3.479, 2.5, -0.113, -0.104, -3.381, 2.5
 250831294, -0.121, -0.111, -3.565, 2.5, -0.117, -0.108, -3.479, 2.5
 251031214, -0.123, -0.114, -3.638, 2.5, -0.121, -0.111, -3.565, 2.5
 251231134, -0.125, -0.116, -3.704, 2.5, -0.123, -0.114, -3.638, 2.5
 251431054, -0.127, -0.118, -3.762, 2.5, -0.125, -0.116, -3.704, 2.5
 251630974, -0.13, -0.12, -3.813, 2.5, -0.127, -0.118, -3.762, 2.5
 251830894, -0.133, -0.122, -3.858, 2.5, -0.13, -0.12, -3.813, 2.5
 252030814, -0.135, -0.125, -3.898, 2.5, -0.133, -0.122, -3.858, 2.5
 252230734, -0.137, -0.128, -3.932, 2.5, -0.135, -0.125, -3.898, 2.5
 252430654, -0.139, -0.132, -3.963, 2.5, -0.137, -0.128, -3.932, 2.5
 252631407, -0.141, -0.135, -3.989, 2.5, -0.139, -0.132, -3.963, 2.5
 252831327, -0.142, -0.139, -4.012, 2.5, -0.141, -0.135, -3.989, 2.5
 253031247, -0.143, -0.141, -4.033, 2.5, -0.142, -0.139, -4.012, 2.5
 253231167, -0.143, -0.143, -4.051, 2.5, -0.143, -0.141, -4.033, 2.5
 253431087, -0.142, -0.144, -4.067, 2.5, -0.143, -0.143, -4.051, 2.5
 253631007, -0.141, -0.144, -4.081, 2.5, -0.142, -0.144, -4.067, 2.5
 253830927, -0.14, -0.144, -4.093, 2.5, -0.141, -0.144, -4.081, 2.5
 254030847, -0.139, -0.144, -4.103, 2.5, -0.14, -0.144, -4.093, 2.5
 254230767, -0.137, -0.143, -4.112, 2.5, -0.139, -0.144, -4.103, 2.5
 254430687, -0.136, -0.142, -4.12, 2.5, -0.137, -0.143, -4.112, 2.5
 254631440, -0.135, -0.14, -4.128, 2.5, -0.136, -0.142, -4.12, 2.5
 254831360, -0.134, -0.138, -4.134, 2.5, -0.135, -0.14, -4.128, 2.5
 255031280, -0.133, -0.136, -4.14, 2.5, -0.134, -0.138, -4.134, 2.5
 255231200, -0.13, -0.132, -3.836, 2.5, -0.133, -0.136, -4.14, 2.5
 255431120, -0.125, -0.125, -3.228, 2.5, -0.13, -0.132, -3.836, 2.5
 255631040, -0.12, -0.118, -2.683, 2.5, -0.125, -0.125, -3.228, 2.5
 255830960, -0.116, -0.112, -2.204, 2.5, -0.12, -0.118, -2.683, 2.5
 256030880, -0.112, -0.107, -1.783, 2.5, -0.116, -0.112, -2.204, 2.5
 256230800, -0.109, -0.102, -1.415, 2.5, -0.112, -0.107, -1.783, 2.5
 256430720, -0.107, -0.09900001, -1.104, 2.5, -0.109, -0.102, -1.415, 2.5
 256631473, -0.09500001, -0.103, -0.864, 2.5, -0.107, -0.09900001, -1.104, 2.5
 256831393, -0.049, -0.124, -0.659, 2.5, -0.09500001, -0.103, -0.864, 2.5
 257031313, 0.014, -0.125, -0.497, 2.5, -0.049, -0.124, -0.659, 2.5
 257231233, 0.058, -0.079, -0.372, 2.5, 0.014, -0.125, -0.497, 2.5
 257431153, 0.08400001, -0.013, -0.278, 2.5, 0.058, -0.079, -0.372, 2.5
 257631073, 0.13, 0.04, -0.208, 2.5, 0.08400001, -0.013, -0.278, 2.5
 257830993, 0.213, 0.083, -0.155, 2.5, 0.13, 0.04, -0.208, 2.5
 258030913, 0.295, 0.127, -0.115, 2.5, 0.213, 0.083, -0.155, 2.5
 258230833, 0.325, 0.126, -0.085, 2.5, 0.295, 0.127, -0.115, 2.5
 258430753, 0.286, 0.08800001, -0.06, 2.5, 0.325, 0.126, -0.085, 2.5
 258630673, 0.203, 0.047, -0.04, 2.5, 0.286, 0.08800001, -0.06, 2.5
 258831426, 0.122, 0.03, -0.024, 2.5, 0.203, 0.047, -0.04, 2.5
 259031346, 0.07700001, 0.03, -0.012, 2.5, 0.122, 0.03, -0.024, 2.5
 259231266, 0.062, 0.028, -0.003, 2.5, 0.07700001, 0.03, -0.012, 2.5
 259431186, 0.025, 0.02, 0.004, 2.5, 0.062, 0.028, -0.003, 2.5
 259631106, -0.046, 0.009000001, 0.01, 2.5, 0.025, 0.02, 0.004, 2.5
 259831026, -0.08800001, -0.014, 0.013, 2.5, -0.046, 0.009000001, 0.01, 2.5
 260030946, -0.09500001, -0.06500001, 0.016, 2.5, -0.08800001, -0.014, 0.013, 2.5
 260230866, -0.09900001, -0.109, 0.018, 2.5, -0.09500001, -0.06500001, 0.016, 2.5
 260430786, -0.107, -0.115, 0.019, 2.5, -0.09900001, -0.109, 0.018, 2.5
 260630706, -0.107, -0.1, 0.018, 2.5, -0.107, -0.115, 0.019, 2.5
 260831459, -0.109, -0.083, 0.018, 2.5, -0.107, -0.1, 0.018, 2.5
 261031379, -0.137, -0.048, 0.017, 2.5, -0.109, -0.083, 0.018, 2.5
 261231299, -0.156, -0.016, 0.016, 2.5, -0.137, -0.048, 0.017, 2.5
 261431219, -0.137, -0.017, 0.015, 2.5, -0.156, -0.016, 0.016, 2.5
 261631139, -0.101, -0.044, 0.014, 2.5, -0.137, -0.017, 0.015, 2.5
 261831059, -0.09200001, -0.072, 0.013, 2.5, -0.101, -0.044, 0.014, 2.5
 262030979, -0.106, -0.119, 0.012, 2.5, -0.09200001, -0.072, 0.013, 2.5
 262230899, -0.136, -0.177, 0.012, 2.5, -0.106, -0.119, 0.012, 2.5
 262430819, 0, 5E-05, 0.012, 2.5, -0.136, -0.177, 0.012, 2.5
 262630739, 0, 5E-05, 0.01, 2.5, 0, 5E-05, 0.012, 2.5
 262830659, 0, 5E-05, 0.008, 2.5, 0, 5E-05, 0.01, 2.5
 263031412, 0, 5E-05, 0.006, 2.5, 0, 5E-05, 0.008, 2.5
 263231332, 0, 5E-05, 0.005, 2.5, 0, 5E-05, 0.006, 2.5
 263431252, 0, 5E-05, 0.004, 2.5, 0, 5E-05, 0.005, 2.5
 263631172, 0, 5E-05, 0.004, 2.5, 0, 5E-05, 0.004, 2.5
 263831092, 0, 5E-05, 0.003, 2.5, 0, 5E-05, 0.004, 2.5
 264031012, 0, 5E-05, 0.003, 2.5, 0, 5E-05, 0.003, 2.5
 264230932, 0, 5E-05, 0.002, 2.5, 0, 5E-05, 0.003, 2.5
 264430852, 0, 5E-05, 0.002, 2.5, 0, 5E-05, 0.002, 2.5
 264630772, 0, 5E-05, 0.002, 2.5, 0, 5E-05, 0.002, 2.5
 264830692, 0, 5E-05, 0.002, 2.5, 0, 5E-05, 0.002, 2.5
 265031445, 0, 5E-05, 0.002, 2.5, 0, 5E-05, 0.002, 2.5
 265231365, 0, 5E-05, 0.002, 2.5, 0, 5E-05, 0.002, 2.5
 265431285, 0, 5E-05, 0.002, 2.5, 0, 5E-05, 0.002, 2.5
 265631205, 0, 5E-05, 0.002, 2.5, 0, 5E-05, 0.002, 2.5
 265831125, 0, 5E-05, 0.003, 2.5, 0, 5E-05, 0.002, 2.5
 266031045, 0, 5E-05, 0.004, 2.5, 0, 5E-05, 0.003, 2.5
 266230965, 0, 5E-05, 0.005, 2.5, 0, 5E-05, 0.004, 2.5
 266430885, 0, 5E-05, 0.007, 2.5, 0, 5E-05, 0.005, 2.5
 266630805, 0, 5E-05, 0.008, 2.5, 0, 5E-05, 0.007, 2.5
 266830725, 0, 5E-05, 0.01, 2.5, 0, 5E-05, 0.008, 2.5
 267031478, 0, 5E-05, 0.012, 2.5, 0, 5E-05, 0.01, 2.5
 267231398, 0, 5E-05, 0.012, 2.5, 0, 5E-05, 0.012, 2.5
 267431318, 0, 5E-05, 0.014, 2.5, 0, 5E-05, 0.012, 2.5
 267631238, 0, 5E-05, 0.016, 2.5, 0, 5E-05, 0.014, 2.5
 267831158, 0, 5E-05, 0.017, 2.5, 0, 5E-05, 0.016, 2.5
 268031078, 0, 5E-05, 0.019, 2.5, 0, 5E-05, 0.017, 2.5
 268230998, 0, 5E-05, 0.021, 2.5, 0, 5E-05, 0.019, 2.5
 268430918, 0, 5E-05, 0.022, 2.5, 0, 5E-05, 0.021, 2.5
 268630838, 0, 5E-05, 0.025, 2.5, 0, 5E-05, 0.022, 2.5
 268830758, 0, 5E-05, 0.027, 2.5, 0, 5E-05, 0.025, 2.5
 269030678, 0, 5E-05, 0.03, 2.5, 0, 5E-05, 0.027, 2.5
 269231431, 0, 5E-05, 0.032, 2.5, 0, 5E-05, 0.03, 2.5
 269431351, 0, 5E-05, 0.035, 2.5, 0, 5E-05, 0.032, 2.5
 269631271, 0, 5E-05, 0.038, 2.5, 0, 5E-05, 0.035, 2.5
 269831191, 0, 5E-05, 0.041, 2.5, 0, 5E-05, 0.038, 2.5
 270031111, 0, 5E-05, 0.043, 2.5, 0, 5E-05, 0.041, 2.5
 270231031, 0, 5E-05, 0.046, 2.5, 0, 5E-05, 0.043, 2.5
 270430951, 0, 5E-05, 0.049, 2.5, 0, 5E-05, 0.046, 2.5
 270630871, 0, 5E-05, 0.052, 2.5, 0, 5E-05, 0.049, 2.5
 270830791, 0, 5E-05, 0.056, 2.5, 0, 5E-05, 0.052, 2.5
 271030711, 0, 5E-05, 0.058, 2.5, 0, 5E-05, 0.056, 2.5
 271231464, 0, 5E-05, 0.061, 2.5, 0, 5E-05, 0.058, 2.5
 271431384, 0, 5E-05, 0.064, 2.5, 0, 5E-05, 0.061, 2.5
 271631304, 0, 5E-05, 0.067, 2.5, 0, 5E-05, 0.064, 2.5
 271831224, 0, 5E-05, 0.07, 2.5, 0, 5E-05, 0.067, 2.5
 272031144, 0, 5E-05, 0.07300001, 2.5, 0, 5E-05, 0.07, 2.5
 272231064, 0, 5E-05, 0.075, 2.5, 0, 5E-05, 0.07300001, 2.5
 272430984, 0, 5E-05, 0.078, 2.5, 0, 5E-05, 0.075, 2.5
 272630904, 0, 5E-05, 0.081, 2.5, 0, 5E-05, 0.078, 2.5
 272830824, 0, 5E-05, 0.085, 2.5, 0, 5E-05, 0.081, 2.5
 273030744, 0, 5E-05, 0.08800001, 2.5, 0, 5E-05, 0.085, 2.5
 273230664, 0, 5E-05, 0.09200001, 2.5, 0, 5E-05, 0.08800001, 2.5
 273431417, 0, 5E-05, 0.09500001, 2.5, 0, 5E-05, 0.09200001, 2.5
 273631337, 0, 5E-05, 0.09900001, 2.5, 0, 5E-05, 0.09500001, 2.5
 273831257, 0, 5E-05, 0.102, 2.5, 0, 5E-05, 0.09900001, 2.5
 274031177, 0, 5E-05, 0.106, 2.5, 0, 5E-05, 0.102, 2.5
 274231097, 0, 5E-05, 0.11, 2.5, 0, 5E-05, 0.106, 2.5
 274431017, 0, 5E-05, 0.115, 2.5, 0, 5E-05, 0.11, 2.5
 274630937, 0, 5E-05, 0.119, 2.5, 0, 5E-05, 0.115, 2.5
 274830857, 0, 5E-05, 0.123, 2.5, 0, 5E-05, 0.119, 2.5
 275030777, 0, 5E-05, 0.128, 2.5, 0, 5E-05, 0.123, 2.5
 275230697, 0, 5E-05, 0.132, 2.5, 0, 5E-05, 0.128, 2.5
 275431450, 0, 5E-05, 0.136, 2.5, 0, 5E-05, 0.132, 2.5
 275631370, 0, 5E-05, 0.14, 2.5, 0, 5E-05, 0.136, 2.5
 275831290, 0, 5E-05, 0.144, 2.5, 0, 5E-05, 0.14, 2.5
 276031210, 0, 5E-05, 0.149, 2.5, 0, 5E-05, 0.144, 2.5
 276231130, 0, 5E-05, 0.154, 2.5, 0, 5E-05, 0.149, 2.5
 276431050, 0, 5E-05, 0.159, 2.5, 0, 5E-05, 0.154, 2.5
 276630970, 0, 5E-05, 0.163, 2.5, 0, 5E-05, 0.159, 2.5
 276830890, 0, 5E-05, 0.168, 2.5, 0, 5E-05, 0.163, 2.5
 277030810, 0, 5E-05, 0.173, 2.5, 0, 5E-05, 0.168, 2.5
 277230730, 0, 5E-05, 0.179, 2.5, 0, 5E-05, 0.173, 2.5
 277431483, 0, 5E-05, 0.185, 2.5, 0, 5E-05, 0.179, 2.5
 277631403, 0, 5E-05, 0.191, 2.5, 0, 5E-05, 0.185, 2.5
 277831323, 0, 5E-05, 0.197, 2.5, 0, 5E-05, 0.191, 2.5
 278031243, 0, 5E-05, 0.201, 2.5, 0, 5E-05, 0.197, 2.5
 278231163, 0, 5E-05, 0.19, 2.5, 0, 5E-05, 0.201, 2.5
 278431083, 0, 5E-05, 0.161, 2.5, 0, 5E-05, 0.19, 2.5
 278631003, 0, 5E-05, 0.12, 2.5, 0, 5E-05, 0.161, 2.5
 278830923, 0, 5E-05, 0.074, 2.5, 0, 5E-05, 0.12, 2.5
 279030843, 0, 5E-05, 0.027, 2.5, 0, 5E-05, 0.074, 2.5
 279230763, 0, 5E-05, -0.021, 2.5, 0, 5E-05, 0.027, 2.5
 279430683, 0, 5E-05, -0.072, 2.5, 0, 5E-05, -0.021, 2.5
 279631436, 0, 5E-05, -0.124, 2.5, 0, 5E-05, -0.072, 2.5
 279831356, 0, 5E-05, -0.176, 2.5, 0, 5E-05, -0.124, 2.5
 280031276, 0, 5E-05, -0.224, 2.5, 0, 5E-05, -0.176, 2.5
 280231196, 0, 5E-05, -0.266, 2.5, 0, 5E-05, -0.224, 2.5
 280431116, 0, 5E-05, -0.298, 2.5, 0, 5E-05, -0.266, 2.5
 280631036, 0, 5E-05, -0.32, 2.5, 0, 5E-05, -0.298, 2.5
 280830956, 0, 5E-05, -0.331, 2.5, 0, 5E-05, -0.32, 2.5
 281030876, 0, 5E-05, -0.33, 2.5, 0, 5E-05, -0.331, 2.5
 281230796, 0, 5E-05, -0.318, 2.5, 0, 5E-05, -0.33, 2.5
 281430716, 0, 5E-05, -0.296, 2.5, 0, 5E-05, -0.318, 2.5
 281631469, 0, 5E-05, -0.267, 2.5, 0, 5E-05, -0.296, 2.5
 281831389, 0, 5E-05, -0.232, 2.5, 0, 5E-05, -0.267, 2.5
 282031309, 0, 5E-05, -0.194, 2.5, 0, 5E-05, -0.232, 2.5
 282231229, 0, 5E-05, -0.155, 2.5, 0, 5E-05, -0.194, 2.5
 282431149, 0, 5E-05, -0.117, 2.5, 0, 5E-05, -0.155, 2.5
 282631069, 0, 5E-05, -0.081, 2.5, 0, 5E-05, -0.117, 2.5
 282830989, 0, 5E-05, -0.05, 2.5, 0, 5E-05, -0.081, 2.5
 283030909, 0, 5E-05, -0.024, 2.5, 0, 5E-05, -0.05, 2.5
 283230829, 0, 5E-05, -0.004, 2.5, 0, 5E-05, -0.024, 2.5
 283430749, 0, 5E-05, 0.01, 2.5, 0, 5E-05, -0.004, 2.5
 283630669, 0, 5E-05, 0.02, 2.5, 0, 5E-05, 0.01, 2.5
 283831422, 0, 5E-05, 0.026, 2.5, 0, 5E-05, 0.02, 2.5
 284031342, 0, 5E-05, 0.025, 2.5, 0, 5E-05, 0.026, 2.5
 284231262, 0, 5E-05, 0.021, 2.5, 0, 5E-05, 0.025, 2.5
 284431182, 0, 5E-05, 0.015, 2.5, 0, 5E-05, 0.021, 2.5
 284631102, 0, 5E-05, 0.009000001, 2.5, 0, 5E-05, 0.015, 2.5
 284831022, 0, 5E-05, 0.002, 2.5, 0, 5E-05, 0.009000001, 2.5
 285030942, 0, 5E-05, -0.003, 2.5, 0, 5E-05, 0.002, 2.5
 285230862, 0, 5E-05, -0.009000001, 2.5, 0, 5E-05, -0.003, 2.5
 285430782, 0, 5E-05, -0.014, 2.5, 0, 5E-05, -0.009000001, 2.5
 285630702, 0, 5E-05, -0.019, 2.5, 0, 5E-05, -0.014, 2.5
 285831455, 0, 5E-05, -0.022, 2.5, 0, 5E-05, -0.019, 2.5
 286031375, 0, 5E-05, -0.024, 2.5, 0, 5E-05, -0.022, 2.5
 286231295, 0, 5E-05, -0.026, 2.5, 0, 5E-05, -0.024, 2.5
 286431215, 0, 5E-05, -0.027, 2.5, 0, 5E-05, -0.026, 2.5
 286631135, 0, 5E-05, -0.027, 2.5, 0, 5E-05, -0.027, 2.5
 286831055, 0, 5E-05, -0.026, 2.5, 0, 5E-05, -0.027, 2.5
 287030975, 0, 5E-05, -0.025, 2.5, 0, 5E-05, -0.026, 2.5
 287230895, 0, 5E-05, -0.024, 2.5, 0, 5E-05, -0.025, 2.5
 287430815, 0, 5E-05, -0.023, 2.5, 0, 5E-05, -0.024, 2.5
 287630735, 0, 5E-05, -0.022, 2.5, 0, 5E-05, -0.023, 2.5
 287830655, 0, 5E-05, -0.021, 2.5, 0, 5E-05, -0.022, 2.5
 288031408, 0, 5E-05, -0.021, 2.5, 0, 5E-05, -0.021, 2.5
 288231328, 0, 5E-05, -0.021, 2.5, 0, 5E-05, -0.021, 2.5
 288431248, 0, 5E-05, -0.021, 2.5, 0, 5E-05, -0.021, 2.5
 288631168, 0, 5E-05, -0.021, 2.5, 0, 5E-05, -0.021, 2.5
 288831088, 0, 5E-05, -0.02, 2.5, 0, 5E-05, -0.021, 2.5
 289031008, 0, 5E-05, -0.02, 2.5, 0, 5E-05, -0.02, 2.5
 289230928, 0, 5E-05, -0.02, 2.5, 0, 5E-05, -0.02, 2.5
 289430848, 0, 5E-05, -0.021, 2.5, 0, 5E-05, -0.02, 2.5
 289630768, 0, 5E-05, -0.021, 2.5, 0, 5E-05, -0.021, 2.5
 289830688, 0, 5E-05, -0.022, 2.5, 0, 5E-05, -0.021, 2.5
 290031441, 0, 5E-05, -0.023, 2.5, 0, 5E-05, -0.022, 2.5
 290231361, 0, 5E-05, -0.024, 2.5, 0, 5E-05, -0.023, 2.5
 290431281, 0, 5E-05, -0.026, 2.5, 0, 5E-05, -0.024, 2.5
 290631201, 0, 5E-05, -0.027, 2.5, 0, 5E-05, -0.026, 2.5
 290831121, 0, 5E-05, -0.029, 2.5, 0, 5E-05, -0.027, 2.5
 291031041, 0, 5E-05, -0.031, 2.5, 0, 5E-05, -0.029, 2.5
 291230961, 0, 5E-05, -0.033, 2.5, 0, 5E-05, -0.031, 2.5
 291430881, 0, 5E-05, -0.036, 2.5, 0, 5E-05, -0.033, 2.5
 291630801, 0, 5E-05, -0.037, 2.5, 0, 5E-05, -0.036, 2.5
 291830721, 0, 5E-05, -0.038, 2.5, 0, 5E-05, -0.037, 2.5
 292031474, 0, 5E-05, -0.039, 2.5, 0, 5E-05, -0.038, 2.5
 292231394, 0, 5E-05, -0.041, 2.5, 0, 5E-05, -0.039, 2.5
 292431314, 0, 5E-05, -0.042, 2.5, 0, 5E-05, -0.041, 2.5
 292631234, 0, 5E-05, -0.042, 2.5, 0, 5E-05, -0.042, 2.5
 292831154, 0, 5E-05, -0.043, 2.5, 0, 5E-05, -0.042, 2.5
 293031074, 0, 5E-05, -0.043, 2.5, 0, 5E-05, -0.043, 2.5
 293230994, 0, 5E-05, -0.044, 2.5, 0, 5E-05, -0.043, 2.5
 293430914, 0, 5E-05, -0.044, 2.5, 0, 5E-05, -0.044, 2.5
 293630834, 0, 5E-05, -0.043, 2.5, 0, 5E-05, -0.044, 2.5
 293830754, 0, 5E-05, -0.043, 2.5, 0, 5E-05, -0.043, 2.5
 294030674, 0, 5E-05, -0.042, 2.5, 0, 5E-05, -0.043, 2.5
 294231427, 0, 5E-05, -0.041, 2.5, 0, 5E-05, -0.042, 2.5
 294431347, 0, 5E-05, -0.04, 2.5, 0, 5E-05, -0.041, 2.5
 294631267, 0, 5E-05, -0.039, 2.5, 0, 5E-05, -0.04, 2.5
 294831187, 0, 5E-05, -0.038, 2.5, 0, 5E-05, -0.039, 2.5
 295031107, 0, 5E-05, -0.039, 2.5, 0, 5E-05, -0.038, 2.5
 295231027, 0, 5E-05, -0.041, 2.5, 0, 5E-05, -0.039, 2.5
 295430947, 0, 5E-05, -0.044, 2.5, 0, 5E-05, -0.041, 2.5
 295630867, 0, 5E-05, -0.047, 2.5, 0, 5E-05, -0.044, 2.5
 295830787, 0, 5E-05, -0.05, 2.5, 0, 5E-05, -0.047, 2.5
 296030707, 0, 5E-05, -0.053, 2.5, 0, 5E-05, -0.05, 2.5
 296231460, 0, 5E-05, -0.054, 2.5, 0, 5E-05, -0.053, 2.5
 296431380, 0, 5E-05, -0.055, 2.5, 0, 5E-05, -0.054, 2.5
 296631300, 0, 5E-05, -0.054, 2.5, 0, 5E-05, -0.055, 2.5
 296831220, 0, 5E-05, -0.052, 2.5, 0, 5E-05, -0.054, 2.5
 297031140, 0, 5E-05, -0.05, 2.5, 0, 5E-05, -0.052, 2.5
 297231060, 0, 5E-05, -0.047, 2.5, 0, 5E-05, -0.05, 2.5
 297430980, 0, 5E-05, -0.044, 2.5, 0, 5E-05, -0.047, 2.5
 297630900, 0, 5E-05, -0.042, 2.5, 0, 5E-05, -0.044, 2.5
 297830820, 0, 5E-05, -0.038, 2.5, 0, 5E-05, -0.042, 2.5
 298030740, 0, 5E-05, -0.035, 2.5, 0, 5E-05, -0.038, 2.5
 298230660, 0, 5E-05, -0.03, 2.5, 0, 5E-05, -0.035, 2.5
 298431413, 0, 5E-05, -0.025, 2.5, 0, 5E-05, -0.03, 2.5
 298631333, 0, 5E-05, -0.021, 2.5, 0, 5E-05, -0.025, 2.5
 298831253, 0, 5E-05, -0.017, 2.5, 0, 5E-05, -0.021, 2.5
 299031173, 0, 5E-05, -0.015, 2.5, 0, 5E-05, -0.017, 2.5
 299231093, 0, 5E-05, -0.014, 2.5, 0, 5E-05, -0.015, 2.5
 299431013, 0, 5E-05, -0.013, 2.5, 0, 5E-05, -0.014, 2.5
 299630933, 0, 5E-05, -0.014, 2.5, 0, 5E-05, -0.013, 2.5
 299830853, 0, 5E-05, -0.014, 2.5, 0, 5E-05, -0.014, 2.5
 300030773, 0, 5E-05, -0.015, 2.5, 0, 5E-05, -0.014, 2.5
 300230693, 0, 5E-05, -0.017, 2.5, 0, 5E-05, -0.015, 2.5
 300431446, 0, 5E-05, -0.018, 2.5, 0, 5E-05, -0.017, 2.5
 300631366, 0, 5E-05, -0.018, 2.5, 0, 5E-05, -0.018, 2.5
 300831286, 0, 5E-05, -0.017, 2.5, 0, 5E-05, -0.018, 2.5
 301031206, 0, 5E-05, -0.016, 2.5, 0, 5E-05, -0.017, 2.5
 301231126, 0, 5E-05, -0.014, 2.5, 0, 5E-05, -0.016, 2.5
 301431046, 0, 5E-05, -0.011, 2.5, 0, 5E-05, -0.014, 2.5
 301630966, 0, 5E-05, -0.006, 2.5, 0, 5E-05, -0.011, 2.5
 301830886, 0, 5E-05, -0.001, 2.5, 0, 5E-05, -0.006, 2.5
 302030806, 0, 5E-05, 0.002, 2.5, 0, 5E-05, -0.001, 2.5
 302230726, 0, 5E-05, 0.007, 2.5, 0, 5E-05, 0.002, 2.5
 302431479, 0, 5E-05, 0.01, 2.5, 0, 5E-05, 0.007, 2.5
 302631399, 0, 5E-05, 0.012, 2.5, 0, 5E-05, 0.01, 2.5
 302831319, 0, 5E-05, 0.013, 2.5, 0, 5E-05, 0.012, 2.5
 303031239, 0, 5E-05, 0.014, 2.5, 0, 5E-05, 0.013, 2.5
 303231159, 0, 5E-05, 0.014, 2.5, 0, 5E-05, 0.014, 2.5
 303431079, 0, 5E-05, 0.014, 2.5, 0, 5E-05, 0.014, 2.5
 303630999, 0, 5E-05, 0.014, 2.5, 0, 5E-05, 0.014, 2.5
 303830919, 0, 5E-05, 0.013, 2.5, 0, 5E-05, 0.014, 2.5
 304030839, 0, 5E-05, 0.013, 2.5, 0, 5E-05, 0.013, 2.5
 304230759, 0, 5E-05, 0.012, 2.5, 0, 5E-05, 0.013, 2.5
 304430679, 0, 5E-05, 0.012, 2.5, 0, 5E-05, 0.012, 2.5
 304631432, 0, 5E-05, 0.011, 2.5, 0, 5E-05, 0.012, 2.5
 304831352, 0, 5E-05, 0.01, 2.5, 0, 5E-05, 0.011, 2.5
 305031272, 0, 5E-05, 0.009000001, 2.5, 0, 5E-05, 0.01, 2.5
 305231192, 0, 5E-05, 0.008, 2.5, 0, 5E-05, 0.009000001, 2.5
 305431112, 0, 5E-05, 0.008, 2.5, 0, 5E-05, 0.008, 2.5
 305631032, 0, 5E-05, 0.008, 2.5, 0, 5E-05, 0.008, 2.5
 305830952, 0, 5E-05, 0.008, 2.5, 0, 5E-05, 0.008, 2.5
 306030872, 0, 5E-05, 0.008, 2.5, 0, 5E-05, 0.008, 2.5
 306230792, 0, 5E-05, 0.008, 2.5, 0, 5E-05, 0.008, 2.5
 306430712, 0, 5E-05, 0.008, 2.5, 0, 5E-05, 0.008, 2.5
 306631465, 0, 5E-05, 0.008, 2.5, 0, 5E-05, 0.008, 2.5
 306831385, 0, 5E-05, 0.007, 2.5, 0, 5E-05, 0.008, 2.5
 307031305, 0, 5E-05, 0.007, 2.5, 0, 5E-05, 0.007, 2.5
 307231225, 0, 5E-05, 0.007, 2.5, 0, 5E-05, 0.007, 2.5
 307431145, 0, 5E-05, 0.007, 2.5, 0, 5E-05, 0.007, 2.5
 307631065, 0, 5E-05, 0.007, 2.5, 0, 5E-05, 0.007, 2.5
 307830985, 0, 5E-05, 0.007, 2.5, 0, 5E-05, 0.007, 2.5
 308030905, 0, 5E-05, 0.007, 2.5, 0, 5E-05, 0.007, 2.5
 308230825, 0, 5E-05, 0.007, 2.5, 0, 5E-05, 0.007, 2.5
 308430745, 0, 5E-05, 0.008, 2.5, 0, 5E-05, 0.007, 2.5
 308630665, 0, 5E-05, 0.007, 2.5, 0, 5E-05, 0.008, 2.5
 308831418, 0, 5E-05, 0.007, 2.5, 0, 5E-05, 0.007, 2.5
 309031338, 0, 5E-05, 0.008, 2.5, 0, 5E-05, 0.007, 2.5
 309231258, 0, 5E-05, 0.007, 2.5, 0, 5E-05, 0.008, 2.5
 309431178, 0, 5E-05, 0.007, 2.5, 0, 5E-05, 0.007, 2.5
 309631098, 0, 5E-05, 0.007, 2.5, 0, 5E-05, 0.007, 2.5
 309831018, 0, 5E-05, 0.007, 2.5, 0, 5E-05, 0.007, 2.5
 310030938, 0, 5E-05, 0.007, 2.5, 0, 5E-05, 0.007, 2.5
 310230858, 0, 5E-05, 0.007, 2.5, 0, 5E-05, 0.007, 2.5
 310430778, 0, 5E-05, 0.006, 2.5, 0, 5E-05, 0.007, 2.5
 310630698, 0, 5E-05, 0.006, 2.5, 0, 5E-05, 0.006, 2.5
 310831451, 0, 5E-05, 0.006, 2.5, 0, 5E-05, 0.006, 2.5
 311031371, 0, 5E-05, 0.006, 2.5, 0, 5E-05, 0.006, 2.5
 311231291, 0, 5E-05, 0.005, 2.5, 0, 5E-05, 0.006, 2.5
 311431211, 0, 5E-05, 0.005, 2.5, 0, 5E-05, 0.005, 2.5
 311631131, 0, 5E-05, 0.004, 2.5, 0, 5E-05, 0.005, 2.5
 311831051, 0, 5E-05, 0.004, 2.5, 0, 5E-05, 0.004, 2.5
 312030971, 0, 5E-05, 0.004, 2.5, 0, 5E-05, 0.004, 2.5
 312230891, 0, 5E-05, 0.003, 2.5, 0, 5E-05, 0.004, 2.5
 312430811, 0, 5E-05, 0.003, 2.5, 0, 5E-05, 0.003, 2.5
 312630731, 0, 5E-05, 0.002, 2.5, 0, 5E-05, 0.003, 2.5
 312831484, 0, 5E-05, 0.002, 2.5, 0, 5E-05, 0.002, 2.5
 313031404, 0, 5E-05, 0.002, 2.5, 0, 5E-05, 0.002, 2.5
 313231324, 0, 5E-05, 0.001, 2.5, 0, 5E-05, 0.002, 2.5
 313431244, 0, 5E-05, 0.001, 2.5, 0, 5E-05, 0.001, 2.5
 313631164, 0, 5E-05, 0.001, 2.5, 0, 5E-05, 0.001, 2.5
 313831084, 0, 5E-05, 0, 2.5, 0, 5E-05, 0.001, 2.5
 314031004, 0, 5E-05, 0, 2.5, 0, 5E-05, 0, 2.5
 314230924, 0, 5E-05, 0, 2.5, 0, 5E-05, 0, 2.5
 314430844, 0, 5E-05, -0.001, 2.5, 0, 5E-05, 0, 2.5
 314630764, 0, 5E-05, -0.002, 2.5, 0, 5E-05, -0.001, 2.5
 314830684, 0, 5E-05, -0.002, 2.5, 0, 5E-05, -0.002, 2.5
 315031437, 0, 5E-05, -0.002, 2.5, 0, 5E-05, -0.002, 2.5
 315231357, 0, 5E-05, -0.002, 2.5, 0, 5E-05, -0.002, 2.5
 315431277, 0, 5E-05, -0.002, 2.5, 0, 5E-05, -0.002, 2.5
 315631197, 0, 5E-05, -0.002, 2.5, 0, 5E-05, -0.002, 2.5
 315831117, 0, 5E-05, -0.002, 2.5, 0, 5E-05, -0.002, 2.5
 316031037, 0, 5E-05, -0.002, 2.5, 0, 5E-05, -0.002, 2.5
 316230957, 0, 5E-05, -0.003, 2.5, 0, 5E-05, -0.002, 2.5
 316430877, 0, 5E-05, -0.003, 2.5, 0, 5E-05, -0.003, 2.5
 316630797, 0, 5E-05, -0.003, 2.5, 0, 5E-05, -0.003, 2.5
 316830717, 0, 5E-05, -0.003, 2.5, 0, 5E-05, -0.003, 2.5
 317031470, 0, 5E-05, -0.004, 2.5, 0, 5E-05, -0.003, 2.5
 317231390, 0, 5E-05, -0.004, 2.5, 0, 5E-05, -0.004, 2.5
 317431310, 0, 5E-05, -0.004, 2.5, 0, 5E-05, -0.004, 2.5
 317631230, 0, 5E-05, -0.003, 2.5, 0, 5E-05, -0.004, 2.5
 317831150, 0, 5E-05, -0.003, 2.5, 0, 5E-05, -0.003, 2.5
 318031070, 0, 5E-05, -0.003, 2.5, 0, 5E-05, -0.003, 2.5
 318230990, 0, 5E-05, -0.004, 2.5, 0, 5E-05, -0.003, 2.5
 318430910, 0, 5E-05, -0.003, 2.5, 0, 5E-05, -0.004, 2.5
 318630830, 0, 5E-05, -0.004, 2.5, 0, 5E-05, -0.003, 2.5
 318830750, 0, 5E-05, -0.004, 2.5, 0, 5E-05, -0.004, 2.5
 319030670, 0, 5E-05, -0.004, 2.5, 0, 5E-05, -0.004, 2.5
 319231423, 0, 5E-05, -0.004, 2.5, 0, 5E-05, -0.004, 2.5
 319431343, 0, 5E-05, -0.003, 2.5, 0, 5E-05, -0.004, 2.5
 319631263, 0, 5E-05, -0.003, 2.5, 0, 5E-05, -0.003, 2.5
 319831183, 0, 5E-05, -0.003, 2.5, 0, 5E-05, -0.003, 2.5
 320031103, 0, 5E-05, -0.002, 2.5, 0, 5E-05, -0.003, 2.5
 320231023, 0, 5E-05, -0.002, 2.5, 0, 5E-05, -0.002, 2.5
 320430943, 0, 5E-05, -0.001, 2.5, 0, 5E-05, -0.002, 2.5
 320630863, 0, 5E-05, -0.001, 2.5, 0, 5E-05, -0.001, 2.5
 320830783, 0, 5E-05, -0.002, 2.5, 0, 5E-05, -0.001, 2.5
 321030703, 0, 5E-05, -0.003, 2.5, 0, 5E-05, -0.002, 2.5
 321231456, 0, 5E-05, -0.003, 2.5, 0, 5E-05, -0.003, 2.5
 321431376, 0, 5E-05, -0.003, 2.5, 0, 5E-05, -0.003, 2.5
 321631296, 0, 5E-05, -0.003, 2.5, 0, 5E-05, -0.003, 2.5
 321831216, 0, 5E-05, -0.003, 2.5, 0, 5E-05, -0.003, 2.5
 322031136, 0, 5E-05, -0.003, 2.5, 0, 5E-05, -0.003, 2.5
 322231056, 0, 5E-05, -0.003, 2.5, 0, 5E-05, -0.003, 2.5
 322430976, 0, 5E-05, -0.003, 2.5, 0, 5E-05, -0.003, 2.5
 322630896, 0, 5E-05, -0.004, 2.5, 0, 5E-05, -0.003, 2.5
 322830816, 0, 5E-05, -0.003, 2.5, 0, 5E-05, -0.004, 2.5
 323030736, 3.282, -14.665, -0.002, 2.5, 0, 5E-05, -0.003, 2.5
 323230656, 3.275, -14.675, -0.001, 2.5, 3.282, -14.665, -0.002, 2.5
 323431409, 3.272, -14.686, -0.001, 2.5, 3.275, -14.675, -0.001, 2.5
 323631329, 3.262, -14.684, 0.011, 2.5, 3.272, -14.686, -0.001, 2.5
 323831249, 3.238, -14.653, 0.054, 2.5, 3.262, -14.684, 0.011, 2.5
 324031169, 3.198, -14.581, 0.138, 2.5, 3.238, -14.653, 0.054, 2.5
 324231089, 3.142, -14.464, 0.269, 2.5, 3.198, -14.581, 0.138, 2.5
 324431009, 3.042, -14.269, 0.431, 2.5, 3.142, -14.464, 0.269, 2.5
 324630929, 2.661, -13.462, 0.411, 2.5, 3.042, -14.269, 0.431, 2.5
 324830849, 2.221, -11.947, 0.342, 2.5, 2.661, -13.462, 0.411, 2.5
 325030769, 1.888, -10.383, 0.366, 2.5, 2.221, -11.947, 0.342, 2.5
 325230689, 1.635, -9.045, 0.448, 2.5, 1.888, -10.383, 0.366, 2.5
 325431442, 1.421, -7.929, 0.582, 2.5, 1.635, -9.045, 0.448, 2.5
 325631362, 1.247, -7.028, 0.752, 2.5, 1.421, -7.929, 0.582, 2.5
 325831282, 1.103, -6.271, 0.97, 2.5, 1.247, -7.028, 0.752, 2.5
 326031202, 0.9670001, -5.578, 1.219, 2.5, 1.103, -6.271, 0.97, 2.5
 326231122, 0.8340001, -4.932, 1.477, 2.5, 0.9670001, -5.578, 1.219, 2.5
 326431042, 0.71, -4.34, 1.73, 2.5, 0.8340001, -4.932, 1.477, 2.5
 326630962, 0.598, -3.812, 1.965, 2.5, 0.71, -4.34, 1.73, 2.5
 326830882, 0.498, -3.346, 2.173, 2.5, 0.598, -3.812, 1.965, 2.5
 327030802, 0.411, -2.939, 2.357, 2.5, 0.498, -3.346, 2.173, 2.5
 327230722, 0.335, -2.584, 2.514, 2.5, 0.411, -2.939, 2.357, 2.5
 327431475, 0.268, -2.274, 2.649, 2.5, 0.335, -2.584, 2.514, 2.5
 327631395, 0.209, -2.002, 2.766, 2.5, 0.268, -2.274, 2.649, 2.5
 327831315, 0.156, -1.764, 2.865, 2.5, 0.209, -2.002, 2.766, 2.5
 328031235, 0.109, -1.553, 2.946, 2.5, 0.156, -1.764, 2.865, 2.5
 328231155, 0.066, -1.368, 3.014, 2.5, 0.109, -1.553, 2.946, 2.5
 328431075, 0.028, -1.206, 3.069, 2.5, 0.066, -1.368, 3.014, 2.5
 328630995, -0.006, -1.062, 3.1, 2.5, 0.028, -1.206, 3.069, 2.5
 328830915, -0.04, -0.9350001, 3.029, 2.5, -0.006, -1.062, 3.1, 2.5
 329030835, -0.072, -0.822, 2.867, 2.5, -0.04, -0.9350001, 3.029, 2.5
 329230755, -0.104, -0.723, 2.674, 2.5, -0.072, -0.822, 2.867, 2.5
 329430675, -0.135, -0.636, 2.431, 2.5, -0.104, -0.723, 2.674, 2.5
 329631428, -0.166, -0.56, 2.116, 2.5, -0.135, -0.636, 2.431, 2.5
 329831348, -0.196, -0.494, 1.781, 2.5, -0.166, -0.56, 2.116, 2.5
 330031268, -0.225, -0.436, 1.463, 2.5, -0.196, -0.494, 1.781, 2.5
 330231188, -0.251, -0.383, 1.176, 2.5, -0.225, -0.436, 1.463, 2.5
 330431108, -0.275, -0.335, 0.9310001, 2.5, -0.251, -0.383, 1.176, 2.5
 330631028, -0.296, -0.296, 0.729, 2.5, -0.275, -0.335, 0.9310001, 2.5
 330830948, -0.315, -0.256, 0.572, 2.5, -0.296, -0.296, 0.729, 2.5
 331030868, -0.333, -0.211, 0.463, 2.5, -0.315, -0.256, 0.572, 2.5
 331230788, -0.348, -0.18, 0.39, 2.5, -0.333, -0.211, 0.463, 2.5
 331430708, -0.362, -0.159, 0.35, 2.5, -0.348, -0.18, 0.39, 2.5
 331631461, -0.373, -0.127, 0.342, 2.5, -0.362, -0.159, 0.35, 2.5
 331831381, -0.383, -0.062, 0.362, 2.5, -0.373, -0.127, 0.342, 2.5
 332031301, -0.392, -0.038, 0.406, 2.5, -0.383, -0.062, 0.362, 2.5
 332231221, -0.399, -0.012, 0.47, 2.5, -0.392, -0.038, 0.406, 2.5
 332431141, -0.404, 0.02, 0.549, 2.5, -0.399, -0.012, 0.47, 2.5
 332631061, -0.408, 0.04, 0.638, 2.5, -0.404, 0.02, 0.549, 2.5
 332830981, -0.41, 0.06, 0.734, 2.5, -0.408, 0.04, 0.638, 2.5
 333030901, -0.412, 0.085, 0.8330001, 2.5, -0.41, 0.06, 0.734, 2.5
 333230821, -0.412, 0.133, 0.9310001, 2.5, -0.412, 0.085, 0.8330001, 2.5
 333430741, -0.411, 0.168, 1.026, 2.5, -0.412, 0.133, 0.9310001, 2.5
 333630661, -0.41, 0.18, 1.112, 2.5, -0.411, 0.168, 1.026, 2.5
 333831414, -0.408, 0.187, 1.184, 2.5, -0.41, 0.18, 1.112, 2.5
 334031334, -0.406, 0.204, 1.233, 2.5, -0.408, 0.187, 1.184, 2.5
 334231254, -0.404, 0.222, 1.252, 2.5, -0.406, 0.204, 1.233, 2.5
 334431174, -0.401, 0.24, 1.237, 2.5, -0.404, 0.222, 1.252, 2.5
 334631094, -0.398, 0.265, 1.191, 2.5, -0.401, 0.24, 1.237, 2.5
 334831014, -0.395, 0.292, 1.124, 2.5, -0.398, 0.265, 1.191, 2.5
 335030934, -0.391, 0.307, 1.041, 2.5, -0.395, 0.292, 1.124, 2.5
 335230854, -0.387, 0.319, 0.9450001, 2.5, -0.391, 0.307, 1.041, 2.5
 335430774, -0.382, 0.329, 0.844, 2.5, -0.387, 0.319, 0.9450001, 2.5
 335630694, -0.376, 0.329, 0.7460001, 2.5, -0.382, 0.329, 0.844, 2.5
 335831447, -0.37, 0.329, 0.657, 2.5, -0.376, 0.329, 0.7460001, 2.5
 336031367, -0.362, 0.334, 0.576, 2.5, -0.37, 0.329, 0.657, 2.5
 336231287, -0.354, 0.338, 0.508, 2.5, -0.362, 0.334, 0.576, 2.5
 336431207, -0.345, 0.34, 0.45, 2.5, -0.354, 0.338, 0.508, 2.5
 336631127, -0.335, 0.341, 0.403, 2.5, -0.345, 0.34, 0.45, 2.5
 336831047, -0.325, 0.339, 0.367, 2.5, -0.335, 0.341, 0.403, 2.5
 337030967, -0.313, 0.336, 0.342, 2.5, -0.325, 0.339, 0.367, 2.5
 337230887, -0.303, 0.332, 0.324, 2.5, -0.313, 0.336, 0.342, 2.5
 337430807, -0.291, 0.324, 0.317, 2.5, -0.303, 0.332, 0.324, 2.5
 337630727, -0.279, 0.314, 0.317, 2.5, -0.291, 0.324, 0.317, 2.5
 337831480, -0.261, 0.305, 0.323, 2.5, -0.279, 0.314, 0.317, 2.5
 338031400, -0.247, 0.296, 0.332, 2.5, -0.261, 0.305, 0.323, 2.5
 338231320, -0.238, 0.285, 0.342, 2.5, -0.247, 0.296, 0.332, 2.5
 338431240, -0.226, 0.274, 0.355, 2.5, -0.238, 0.285, 0.342, 2.5
 338631160, -0.212, 0.262, 0.371, 2.5, -0.226, 0.274, 0.355, 2.5
 338831080, -0.2, 0.257, 0.389, 2.5, -0.212, 0.262, 0.371, 2.5
 339031000, -0.193, 0.235, 0.409, 2.5, -0.2, 0.257, 0.389, 2.5
 339230920, -0.182, 0.22, 0.426, 2.5, -0.193, 0.235, 0.409, 2.5
 339430840, -0.17, 0.205, 0.441, 2.5, -0.182, 0.22, 0.426, 2.5
 339630760, -0.145, 0.19, 0.454, 2.5, -0.17, 0.205, 0.441, 2.5
 339830680, -0.131, 0.185, 0.475, 2.5, -0.145, 0.19, 0.454, 2.5
 340031433, -0.129, 0.162, 0.481, 2.5, -0.131, 0.185, 0.475, 2.5
 340231353, -0.121, 0.146, 0.486, 2.5, -0.129, 0.162, 0.481, 2.5
 340431273, -0.111, 0.13, 0.488, 2.5, -0.121, 0.146, 0.486, 2.5
 340631193, -0.101, 0.114, 0.488, 2.5, -0.111, 0.13, 0.488, 2.5
 340831113, -0.087, 0.103, 0.487, 2.5, -0.101, 0.114, 0.488, 2.5
 341031033, -0.072, 0.082, 0.487, 2.5, -0.087, 0.103, 0.487, 2.5
 341230953, -0.062, 0.06500001, 0.487, 2.5, -0.072, 0.082, 0.487, 2.5
 341430873, -0.054, 0.048, 0.485, 2.5, -0.062, 0.06500001, 0.487, 2.5
 341630793, -0.054, 0.038, 0.483, 2.5, -0.054, 0.048, 0.485, 2.5
 341830713, -0.05, 0.017, 0.478, 2.5, -0.054, 0.038, 0.483, 2.5
 342031466, -0.043, 0, 0.471, 2.5, -0.05, 0.017, 0.478, 2.5
 342231386, -0.036, -0.016, 0.463, 2.5, -0.043, 0, 0.471, 2.5
 342431306, -0.029, -0.032, 0.455, 2.5, -0.036, -0.016, 0.463, 2.5
 342631226, -0.023, -0.04, 0.445, 2.5, -0.029, -0.032, 0.455, 2.5
 342831146, -0.006, -0.061, 0.437, 2.5, -0.023, -0.04, 0.445, 2.5
 343031066, 0.002, -0.07600001, 0.43, 2.5, -0.006, -0.061, 0.437, 2.5
 343230986, 0.007, -0.089, 0.426, 2.5, 0.002, -0.07600001, 0.43, 2.5
 343430906, 0.011, -0.102, 0.422, 2.5, 0.007, -0.089, 0.426, 2.5
 343630826, 0.015, -0.108, 0.422, 2.5, 0.011, -0.102, 0.422, 2.5
 343830746, 0.018, -0.122, 0.423, 2.5, 0.015, -0.108, 0.422, 2.5
 344030666, 0.018, -0.134, 0.424, 2.5, 0.018, -0.122, 0.423, 2.5
 344231419, 0.018, -0.144, 0.426, 2.5, 0.018, -0.134, 0.424, 2.5
 344431339, 0.018, -0.153, 0.428, 2.5, 0.018, -0.144, 0.426, 2.5
 344631259, 0.018, -0.16, 0.431, 2.5, 0.018, -0.153, 0.428, 2.5
 344831179, 0.018, -0.168, 0.435, 2.5, 0.018, -0.16, 0.431, 2.5
 345031099, 0.017, -0.174, 0.44, 2.5, 0.018, -0.168, 0.435, 2.5
 345231019, 0.017, -0.18, 0.446, 2.5, 0.017, -0.174, 0.44, 2.5
 345430939, 0.015, -0.182, 0.452, 2.5, 0.017, -0.18, 0.446, 2.5
 345630859, 0.014, -0.183, 0.459, 2.5, 0.015, -0.182, 0.452, 2.5
 345830779, 0.011, -0.186, 0.467, 2.5, 0.014, -0.183, 0.459, 2.5
 346030699, 0.009000001, -0.188, 0.473, 2.5, 0.011, -0.186, 0.467, 2.5
 346231452, 0.006, -0.19, 0.479, 2.5, 0.009000001, -0.188, 0.473, 2.5
 346431372, 0.002, -0.191, 0.486, 2.5, 0.006, -0.19, 0.479, 2.5
 346631292, -0.001, -0.192, 0.495, 2.5, 0.002, -0.191, 0.486, 2.5
 346831212, -0.005, -0.191, 0.504, 2.5, -0.001, -0.192, 0.495, 2.5
 347031132, -0.009000001, -0.19, 0.512, 2.5, -0.005, -0.191, 0.504, 2.5
 347231052, -0.015, -0.188, 0.518, 2.5, -0.009000001, -0.19, 0.512, 2.5
 347430972, -0.034, -0.186, 0.524, 2.5, -0.015, -0.188, 0.518, 2.5
 347630892, -0.041, -0.183, 0.5330001, 2.5, -0.034, -0.186, 0.524, 2.5
 347830812, -0.046, -0.18, 0.543, 2.5, -0.041, -0.183, 0.5330001, 2.5
 348030732, -0.052, -0.176, 0.552, 2.5, -0.046, -0.18, 0.543, 2.5
 348231485, -0.054, -0.172, 0.557, 2.5, -0.052, -0.176, 0.552, 2.5
 348431405, -0.054, -0.167, 0.559, 2.5, -0.054, -0.172, 0.557, 2.5
 348631325, -0.056, -0.162, 0.561, 2.5, -0.054, -0.167, 0.559, 2.5
 348831245, -0.062, -0.156, 0.561, 2.5, -0.056, -0.162, 0.561, 2.5
 349031165, -0.067, -0.151, 0.558, 2.5, -0.062, -0.156, 0.561, 2.5
 349231085, -0.074, -0.145, 0.551, 2.5, -0.067, -0.151, 0.558, 2.5
 349431005, -0.08000001, -0.139, 0.549, 2.5, -0.074, -0.145, 0.551, 2.5
 349630925, -0.086, -0.133, 0.558, 2.5, -0.08000001, -0.139, 0.549, 2.5
 349830845, -0.098, -0.126, 0.566, 2.5, -0.086, -0.133, 0.558, 2.5
 350030765, -0.107, -0.12, 0.576, 2.5, -0.098, -0.126, 0.566, 2.5
 350230685, -0.113, -0.114, 0.581, 2.5, -0.107, -0.12, 0.576, 2.5
 350431438, -0.118, -0.107, 0.582, 2.5, -0.113, -0.114, 0.581, 2.5
 350631358, -0.122, -0.101, 0.589, 2.5, -0.118, -0.107, 0.582, 2.5
 350831278, -0.126, -0.094, 0.596, 2.5, -0.122, -0.101, 0.589, 2.5
 351031198, -0.127, -0.08800001, 0.605, 2.5, -0.126, -0.094, 0.596, 2.5
 351231118, -0.128, -0.081, 0.618, 2.5, -0.127, -0.08800001, 0.605, 2.5
 351431038, -0.128, -0.074, 0.626, 2.5, -0.128, -0.081, 0.618, 2.5
 351630958, -0.131, -0.067, 0.627, 2.5, -0.128, -0.074, 0.626, 2.5
 351830878, -0.132, -0.06, 0.626, 2.5, -0.131, -0.067, 0.627, 2.5
 352030798, -0.133, -0.053, 0.626, 2.5, -0.132, -0.06, 0.626, 2.5
 352230718, -0.134, -0.047, 0.625, 2.5, -0.133, -0.053, 0.626, 2.5
 352431471, -0.066, -0.021, 0.309, 2.5, -0.134, -0.047, 0.625, 2.5
 352631391, 0.038, 0.005, -0.181, 2.5, -0.066, -0.021, 0.309, 2.5
 352831311, 0.003, 0.008, -0.02, 2.5, 0.038, 0.005, -0.181, 2.5
 353031231, -0.006, 0.009000001, 0.026, 2.5, 0.003, 0.008, -0.02, 2.5
 353231151, -0.007, 0.009000001, 0, 2.5, -0.006, 0.009000001, 0.026, 2.5
 353431071, -0.007, 0.009000001, -0.003, 2.5, -0.007, 0.009000001, 0, 2.5
 353630991, -0.007, 0.009000001, 0, 2.5, -0.007, 0.009000001, -0.003, 2.5
 353830911, -0.007, 0.009000001, 0, 2.5, -0.007, 0.009000001, 0, 2.5
 354030831, -0.007, 0.009000001, 0, 2.5, -0.007, 0.009000001, 0, 2.5
 354230751, -0.007, 0.009000001, 0, 2.5, -0.007, 0.009000001, 0, 2.5
 354430671, -0.007, 0.009000001, 0, 2.5, -0.007, 0.009000001, 0, 2.5
 354631424, -0.007, 0.009000001, 0, 2.5, -0.007, 0.009000001, 0, 2.5
 354831344, -0.007, 0.009000001, 0, 2.5, -0.007, 0.009000001, 0, 2.5
 355031264, -0.007, 0.009000001, 0, 2.5, -0.007, 0.009000001, 0, 2.5
 355231184, -0.007, 0.009000001, 0, 2.5, -0.007, 0.009000001, 0, 2.5
 355431104, -0.007, 0.009000001, 0, 2.5, -0.007, 0.009000001, 0, 2.5
 355631024, -0.007, 0.009000001, 0, 2.5, -0.007, 0.009000001, 0, 2.5
