TimeUS,CGpN,CGpE,CGpD,CGpe,PGpN,PGpE,PGpD,PGpe
 196458885, 0, 0, 0, 0.01, 0, 0, 0, 0
 196631316, 0, 0, 0, 0.01, 0, 0, 0, 0.01
 196831236, 0, 0, 0, 0.01, 0, 0, 0, 0.01
 197031156, 0, 0, 0, 0.01, 0, 0, 0, 0.01
 197231076, 0, 0, 0, 0.01, 0, 0, 0, 0.01
 197430996, 0, 0, 0, 0.01, 0, 0, 0, 0.01
 197630916, 0, 0, 0, 0.01, 0, 0, 0, 0.01
 197830836, 0, 0, 0, 0.01, 0, 0, 0, 0.01
 198030756, 0, 0, 0, 0.01, 0, 0, 0, 0.01
 198230676, 0, 0, 0, 0.01, 0, 0, 0, 0.01
 198431429, 0, 0, 0, 0.01, 0, 0, 0, 0.01
 198631349, 0, 0, 0, 0.01, 0, 0, 0, 0.01
 198831269, 0, 0, 0, 0.01, 0, 0, 0, 0.01
 199031189, 0, 0, 0, 0.01, 0, 0, 0, 0.01
 199231109, 0, 0, 0, 0.01, 0, 0, 0, 0.01
 199431029, 0, 0, 0, 0.01, 0, 0, 0, 0.01
 199630949, 0, 0, 0, 0.01, 0, 0, 0, 0.01
 199830869, 0, 0, 0, 0.01, 0, 0, 0, 0.01
 200030789, 0, 0, 0, 0.01, 0, 0, 0, 0.01
 200230709, 0, 0, 0, 0.01, 0, 0, 0, 0.01
 200431462, 0, 0, 0, 0.01, 0, 0, 0, 0.01
 200631382, 0, 0, 0, 0.01, 0, 0, 0, 0.01
 200831302, 0, 0, 0, 0.01, 0, 0, 0, 0.01
 201031222, 0, 0, 0, 0.01, 0, 0, 0, 0.01
 201231142, 0, 0, 0, 0.01, 0, 0, 0, 0.01
 201431062, 0, 0, 0, 0.01, 0, 0, 0, 0.01
 201630982, 0, 0, 0, 0.01, 0, 0, 0, 0.01
 201830902, 0, 0, 0, 0.01, 0, 0, 0, 0.01
 202030822, 0, 0, 0, 0.01, 0, 0, 0, 0.01
 202230742, 0, 0, 0, 0.01, 0, 0, 0, 0.01
 202430662, 0, 0, 0, 0.01, 0, 0, 0, 0.01
 202631415, 0, 0, 0, 0.01, 0, 0, 0, 0.01
 202831335, 0, 0, 0, 0.01, 0, 0, 0, 0.01
 203031255, 0, 0, 0, 0.01, 0, 0, 0, 0.01
 203231175, 0, 0, 0, 0.01, 0, 0, 0, 0.01
 203431095, 0, 0, 0, 0.01, 0, 0, 0, 0.01
 203631015, 0, 0, 0, 0.01, 0, 0, 0, 0.01
 203830935, 0, 0, 0, 0.01, 0, 0, 0, 0.01
 204030855, 0, 0, 0, 0.01, 0, 0, 0, 0.01
 204230775, 0, 0, 0, 0.01, 0, 0, 0, 0.01
 204430695, 0, 0, 0, 0.01, 0, 0, 0, 0.01
 204631448, 0, 0, 0, 0.01, 0, 0, 0, 0.01
 204831368, 0, 0, 0, 0.01, 0, 0, 0, 0.01
 205031288, 0, 0, 0, 0.01, 0, 0, 0, 0.01
 205231208, 0, 0, 0, 0.01, 0, 0, 0, 0.01
 205431128, 0, 0, 0, 0.01, 0, 0, 0, 0.01
 205631048, 0, 0, 0, 0.01, 0, 0, 0, 0.01
 205830968, 0, 0, 0, 0.01, 0, 0, 0, 0.01
 206030888, 0, 0, 0, 0.01, 0, 0, 0, 0.01
 206230808, 0, 0, 0, 0.01, 0, 0, 0, 0.01
 206430728, 0, 0, 0, 0.01, 0, 0, 0, 0.01
 206631481, 0, 0, 0, 0.01, 0, 0, 0, 0.01
 206831401, 0, 0, 0, 0.01, 0, 0, 0, 0.01
 207031321, 0, 0, 0, 0.01, 0, 0, 0, 0.01
 207231241, 0, 0, 0, 0.01, 0, 0, 0, 0.01
 207431161, 0, 0, 0, 0.01, 0, 0, 0, 0.01
 207631081, 0, 0, 0, 0.01, 0, 0, 0, 0.01
 207831001, 0, 0, 0, 0.01, 0, 0, 0, 0.01
 208030921, 0, 0, 0, 0.01, 0, 0, 0, 0.01
 208230841, 0, 0, 0, 0.01, 0, 0, 0, 0.01
 208430761, 0, 0, 0, 0.01, 0, 0, 0, 0.01
 208630681, 0, 0, 0, 0.01, 0, 0, 0, 0.01
 208831434, 0, 0, 0, 0.01, 0, 0, 0, 0.01
 209031354, 0, 0, 0, 0.01, 0, 0, 0, 0.01
 209231274, 0, 0, 0, 0.01, 0, 0, 0, 0.01
 209431194, 0, 0, 0, 0.01, 0, 0, 0, 0.01
 209631114, 0, 0, 0, 0.01, 0, 0, 0, 0.01
 209831034, 0, 0, 0, 0.01, 0, 0, 0, 0.01
 210030954, 0, 0, 0, 0.01, 0, 0, 0, 0.01
 210230874, 0, 0, 0, 0.01, 0, 0, 0, 0.01
 210430794, 0, 0, 0, 0.01, 0, 0, 0, 0.01
 210630714, 0, 0, 0, 0.01, 0, 0, 0, 0.01
 210831467, 0, 0, 0, 0.01, 0, 0, 0, 0.01
 211031387, 0, 0, 0, 0.01, 0, 0, 0, 0.01
 211231307, 0, 0, 0, 0.01, 0, 0, 0, 0.01
 211431227, 0, 0, 0, 0.01, 0, 0, 0, 0.01
 211631147, 0, 0, 0, 0.01, 0, 0, 0, 0.01
 211831067, 0, 0, 0, 0.01, 0, 0, 0, 0.01
 212030987, 0, 0, 0, 0.01, 0, 0, 0, 0.01
 212230907, 0, 0, 0, 0.01, 0, 0, 0, 0.01
 212430827, 0, 0, 0, 0.01, 0, 0, 0, 0.01
 212630747, 0, 0, 0, 0.01, 0, 0, 0, 0.01
 212830667, 0, 0, 0, 0.01, 0, 0, 0, 0.01
 213031420, 0, 0, 0, 0.01, 0, 0, 0, 0.01
 213231340, 0, 0, 0, 0.01, 0, 0, 0, 0.01
 213431260, 0, 0, 0, 0.01, 0, 0, 0, 0.01
 213631180, 0, 0, 0, 0.01, 0, 0, 0, 0.01
 213831100, 0, 0, 0, 0.01, 0, 0, 0, 0.01
 214031020, 0, 0, 0, 0.01, 0, 0, 0, 0.01
 214230940, 0, 0, 0, 0.01, 0, 0, 0, 0.01
 214430860, 0, 0, 0, 0.01, 0, 0, 0, 0.01
 214630780, 0, 0, 0, 0.01, 0, 0, 0, 0.01
 214830700, 0, 0, 0, 0.01, 0, 0, 0, 0.01
 215031453, 0, 0, 0, 0.01, 0, 0, 0, 0.01
 215231373, 0, 0, 0, 0.01, 0, 0, 0, 0.01
 215431293, 0, 0, 0, 0.01, 0, 0, 0, 0.01
 215631213, 0, 0, 0, 0.01, 0, 0, 0, 0.01
 215831133, 0, 0, 0, 0.01, 0, 0, 0, 0.01
 216031053, 0, 0, 0, 0.01, 0, 0, 0, 0.01
 216230973, 0, 0, 0, 0.01, 0, 0, 0, 0.01
 216430893, 0, 0, 0, 0.01, 0, 0, 0, 0.01
 216630813, 0, 0, 0, 0.01, 0, 0, 0, 0.01
 216830733, 0, 0, 0, 0.01, 0, 0, 0, 0.01
 217031486, 0, 0, 0, 0.01, 0, 0, 0, 0.01
 217231406, 0, 0, 0, 0.01, 0, 0, 0, 0.01
 217431326, 0, 0, 0, 0.01, 0, 0, 0, 0.01
 217631246, 0, 0, 0, 0.01, 0, 0, 0, 0.01
 217831166, 0, 0, 0, 0.01, 0, 0, 0, 0.01
 218031086, 0, 0, 0, 0.01, 0, 0, 0, 0.01
 218231006, 0, 0, 0, 0.01, 0, 0, 0, 0.01
 218430926, 0, 0, 0, 0.01, 0, 0, 0, 0.01
 218630846, 0, 0, 0, 0.01, 0, 0, 0, 0.01
 218830766, 0, 0, 0, 0.01, 0, 0, 0, 0.01
 219030686, 0, 0, 0, 0.01, 0, 0, 0, 0.01
 219231439, 0, 0, 0, 0.01, 0, 0, 0, 0.01
 219431359, 0, 0, 0, 0.01, 0, 0, 0, 0.01
 219631279, 0, 0, 0, 0.01, 0, 0, 0, 0.01
 219831199, 0, 0, 0, 0.01, 0, 0, 0, 0.01
 220031119, 0, 0, 0, 0.01, 0, 0, 0, 0.01
 220231039, 0, 0, 0, 0.01, 0, 0, 0, 0.01
 220430959, 0, 0, 0, 0.01, 0, 0, 0, 0.01
 220630879, 0, 0, 0, 0.01, 0, 0, 0, 0.01
 220830799, 0, 0, 0, 0.01, 0, 0, 0, 0.01
 221030719, 0, 0, 0, 0.01, 0, 0, 0, 0.01
 221231472, 0, 0, 0, 0.01, 0, 0, 0, 0.01
 221431392, 0, 0, 0, 0.01, 0, 0, 0, 0.01
 221631312, 0, 0, 0, 0.01, 0, 0, 0, 0.01
 221831232, 0, 0, 0, 0.01, 0, 0, 0, 0.01
 222031152, 0, 0, 0, 0.01, 0, 0, 0, 0.01
 222231072, 0, 0, 0, 0.01, 0, 0, 0, 0.01
 222430992, 0, 0, 0, 0.01, 0, 0, 0, 0.01
 222630912, 0, 0, 0, 0.01, 0, 0, 0, 0.01
 222830832, 0, 0, 0, 0.01, 0, 0, 0, 0.01
 223030752, 0, 0, 0, 0.01, 0, 0, 0, 0.01
 223230672, 0, 0, 0, 0.01, 0, 0, 0, 0.01
 223431425, 0, 0, 0, 0.01, 0, 0, 0, 0.01
 223631345, 0, 0, 0, 0.01, 0, 0, 0, 0.01
 223831265, 0, 0, 0, 0.01, 0, 0, 0, 0.01
 224031185, 0, 0, 0, 0.01, 0, 0, 0, 0.01
 224231105, 0, 0, 0, 0.01, 0, 0, 0, 0.01
 224431025, 0, 0, 0, 0.01, 0, 0, 0, 0.01
 224630945, 0, 0, 0, 0.01, 0, 0, 0, 0.01
 224830865, 0, 0, 0, 0.01, 0, 0, 0, 0.01
 225030785, 0, 0, 0, 0.01, 0, 0, 0, 0.01
 225230705, 0, 0, 0, 0.01, 0, 0, 0, 0.01
 225431458, 0, 0, 0, 0.01, 0, 0, 0, 0.01
 225631378, 0, 0, 0, 0.01, 0, 0, 0, 0.01
 225831298, 0, 0, 0, 0.01, 0, 0, 0, 0.01
 226031218, 0, 0, 0, 0.01, 0, 0, 0, 0.01
 226231138, 0, 0, 0, 0.01, 0, 0, 0, 0.01
 226431058, 0, 0, 0, 0.01, 0, 0, 0, 0.01
 226630978, 0, 0, 0, 0.01, 0, 0, 0, 0.01
 226830898, 0, 0, 0, 0.01, 0, 0, 0, 0.01
 227030818, 0, 0, 0, 0.01, 0, 0, 0, 0.01
 227230738, 0, 0, 0, 0.01, 0, 0, 0, 0.01
 227430658, 0, 0, 0, 0.01, 0, 0, 0, 0.01
 227631411, 0, 0, 0, 0.01, 0, 0, 0, 0.01
 227831331, 0, 0, 0, 0.01, 0, 0, 0, 0.01
 228031251, 0, 0, 0, 0.01, 0, 0, 0, 0.01
 228231171, 0, 0, 0, 0.01, 0, 0, 0, 0.01
 228431091, 0, 0, 0, 0.01, 0, 0, 0, 0.01
 228631011, 0, 0, 0, 0.01, 0, 0, 0, 0.01
 228830931, 0, 0, 0, 0.01, 0, 0, 0, 0.01
 229030851, 0, 0, 0, 0.01, 0, 0, 0, 0.01
 229230771, 0, 0, 0, 0.01, 0, 0, 0, 0.01
 229430691, 0, 0, 0, 0.01, 0, 0, 0, 0.01
 229631444, 0, 0, 0, 0.01, 0, 0, 0, 0.01
 229831364, 0, 0, 0, 0.01, 0, 0, 0, 0.01
 230031284, 0, 0, 0, 0.01, 0, 0, 0, 0.01
 230231204, 0, 0, 0, 0.01, 0, 0, 0, 0.01
 230431124, 0, 0, 0, 0.01, 0, 0, 0, 0.01
 230631044, 0, 0, 0, 0.01, 0, 0, 0, 0.01
 230830964, 0, 0, 0, 0.01, 0, 0, 0, 0.01
 231030884, 0, 0, 0, 0.01, 0, 0, 0, 0.01
 231230804, 0, 0, 0, 0.01, 0, 0, 0, 0.01
 231430724, 0, 0, 0, 0.01, 0, 0, 0, 0.01
 231631477, 0, 0, 0, 0.01, 0, 0, 0, 0.01
 231831397, 0, 0, 0, 0.01, 0, 0, 0, 0.01
 232031317, 0, 0, 0, 0.01, 0, 0, 0, 0.01
 232231237, 0, 0, 0, 0.01, 0, 0, 0, 0.01
 232431157, 0, 0, 0, 0.01, 0, 0, 0, 0.01
 232631077, 0, 0, 0, 0.01, 0, 0, 0, 0.01
 232830997, 0, 0, 0, 0.01, 0, 0, 0, 0.01
 233030917, 0, 0, 0, 0.01, 0, 0, 0, 0.01
 233230837, 0, 0, 0, 0.01, 0, 0, 0, 0.01
 233430757, 0, 0, 0, 0.01, 0, 0, 0, 0.01
 233630677, 0, 0, 0, 0.01, 0, 0, 0, 0.01
 233831430, 0, 0, 0, 0.01, 0, 0, 0, 0.01
 234031350, 0, 0, 0, 0.01, 0, 0, 0, 0.01
 234231270, 0, 0, 0, 0.01, 0, 0, 0, 0.01
 234431190, 0, 0, 0, 0.01, 0, 0, 0, 0.01
 234631110, 0, 0, 0, 0.01, 0, 0, 0, 0.01
 234831030, 0, 0, 0, 0.01, 0, 0, 0, 0.01
 235030950, 0, 0, 0, 0.01, 0, 0, 0, 0.01
 235230870, 0, 0, 0, 0.01, 0, 0, 0, 0.01
 235430790, 0, 0, 0, 0.01, 0, 0, 0, 0.01
 235630710, 0, 0, 0, 0.01, 0, 0, 0, 0.01
 235831463, 0, 0, 0, 0.01, 0, 0, 0, 0.01
 236031383, 0, 0, 0, 0.01, 0, 0, 0, 0.01
 236231303, 0, 0, 0, 0.01, 0, 0, 0, 0.01
 236431223, 0, 0, 0, 0.01, 0, 0, 0, 0.01
 236631143, 0, 0, 0, 0.01, 0, 0, 0, 0.01
 236831063, 0, 0, 0, 0.01, 0, 0, 0, 0.01
 237030983, 0, 0, 0, 0.01, 0, 0, 0, 0.01
 237230903, 0, 0, 0, 0.01, 0, 0, 0, 0.01
 237430823, 0, 0, 0, 0.01, 0, 0, 0, 0.01
 237630743, 0, 0, 0, 0.01, 0, 0, 0, 0.01
 237830663, 0, 0, 0, 0.01, 0, 0, 0, 0.01
 238031416, 0, 0, 0, 0.01, 0, 0, 0, 0.01
 238231336, 0, 0, 0, 0.01, 0, 0, 0, 0.01
 238431256, 0, 0, 0, 0.01, 0, 0, 0, 0.01
 238631176, 0, 0, 0, 0.01, 0, 0, 0, 0.01
 238831096, 0, 0, 0, 0.01, 0, 0, 0, 0.01
 239031016, 0, 0, 0, 0.01, 0, 0, 0, 0.01
 239230936, 0, 0, 0, 0.01, 0, 0, 0, 0.01
 239430856, 0, 0, 0, 0.01, 0, 0, 0, 0.01
 239630776, 0, 0, 0, 0.01, 0, 0, 0, 0.01
 239830696, 0, 0, 0, 0.01, 0, 0, 0, 0.01
 240031449, 0, 0, 0, 0.01, 0, 0, 0, 0.01
 240231369, 0, 0, 0, 0.01, 0, 0, 0, 0.01
 240431289, 0, 0, 0, 0.01, 0, 0, 0, 0.01
 240631209, 0, 0, 0, 0.01, 0, 0, 0, 0.01
 240831129, 0, 0, 0, 0.01, 0, 0, 0, 0.01
 241031049, 0, 0, 0, 0.01, 0, 0, 0, 0.01
 241230969, 0, 0, 0, 0.01, 0, 0, 0, 0.01
 241430889, 0, 0, 0, 0.01, 0, 0, 0, 0.01
 241630809, 0, 0, 0, 0.01, 0, 0, 0, 0.01
 241830729, 0, 0, 0, 0.01, 0, 0, 0, 0.01
 242031482, 0, 0, 0, 0.01, 0, 0, 0, 0.01
 242231402, 0, 0, 0, 0.01, 0, 0, 0, 0.01
 242431322, 0, 0, 0, 0.01, 0, 0, 0, 0.01
 242631242, 0, 0, 0, 0.01, 0, 0, 0, 0.01
 242831162, 0, 0, 0, 0.01, 0, 0, 0, 0.01
 243031082, 0, 0, 0, 0.01, 0, 0, 0, 0.01
 243231002, 0, 0, 0, 0.01, 0, 0, 0, 0.01
 243430922, 0, 0, 0, 0.01, 0, 0, 0, 0.01
 243630842, 0, 0, 0, 0.01, 0, 0, 0, 0.01
 243830762, 0, 0, 0, 0.01, 0, 0, 0, 0.01
 244030682, 0, 0, 0, 0.01, 0, 0, 0, 0.01
 244231435, 0, 0, 0, 0.01, 0, 0, 0, 0.01
 244431355, 0, 0, 0, 0.01, 0, 0, 0, 0.01
 244631275, 0, 0, 0, 0.01, 0, 0, 0, 0.01
 244831195, 0, 0, 0, 0.01, 0, 0, 0, 0.01
 245031115, 0, 0, 0, 0.01, 0, 0, 0, 0.01
 245231035, 0, 0, 0, 0.01, 0, 0, 0, 0.01
 245430955, 0, 0, 0, 0.01, 0, 0, 0, 0.01
 245630875, 0, 0, 0, 0.01, 0, 0, 0, 0.01
 245830795, 0, 0, 0, 0.01, 0, 0, 0, 0.01
 246030715, 0, 0, 0, 0.01, 0, 0, 0, 0.01
 246231468, 0, 0, 0, 0.01, 0, 0, 0, 0.01
 246431388, 0, 0, 0, 0.01, 0, 0, 0, 0.01
 246631308, 0, 0, 0, 0.01, 0, 0, 0, 0.01
 246831228, 0, 0, 0, 0.01, 0, 0, 0, 0.01
 247031148, 0, 0, 0, 0.01, 0, 0, 0, 0.01
 247231068, 0, 0, 0, 0.01, 0, 0, 0, 0.01
 247430988, 0, 0, 0, 0.01, 0, 0, 0, 0.01
 247630908, 0, 0, 0, 0.01, 0, 0, 0, 0.01
 247830828, 0, 0, 0, 0.01, 0, 0, 0, 0.01
 248030748, 0, 0, -0.288, 0.01, 0, 0, 0, 0.01
 248230668, 0, 0, -0.266, 0.01, 0, 0, -0.288, 0.01
 248431421, 0, 0, -0.217, 0.01, 0, 0, -0.266, 0.01
 248631341, -0.004, -0.005, -1.49, 0.01, 0, 0, -0.217, 0.01
 248831261, -0.019, -0.02, -2.084, 0.01, -0.004, -0.005, -1.49, 0.01
 249031181, -0.036, -0.038, -2.203, 0.01, -0.019, -0.02, -2.084, 0.01
 249231101, -0.052, -0.055, -2.426, 0.01, -0.036, -0.038, -2.203, 0.01
 249431021, -0.066, -0.06900001, -2.661, 0.01, -0.052, -0.055, -2.426, 0.01
 249630941, -0.079, -0.081, -2.847, 0.01, -0.066, -0.06900001, -2.661, 0.01
 249830861, -0.089, -0.09, -3.008, 0.01, -0.079, -0.081, -2.847, 0.01
 250030781, -0.098, -0.096, -3.152, 0.01, -0.089, -0.09, -3.008, 0.01
 250230701, -0.105, -0.102, -3.279, 0.01, -0.098, -0.096, -3.152, 0.01
 250431454, -0.111, -0.106, -3.389, 0.01, -0.105, -0.102, -3.279, 0.01
 250631374, -0.115, -0.109, -3.486, 0.01, -0.111, -0.106, -3.389, 0.01
 250831294, -0.119, -0.111, -3.571, 0.01, -0.115, -0.109, -3.486, 0.01
 251031214, -0.122, -0.113, -3.645, 0.01, -0.119, -0.111, -3.571, 0.01
 251231134, -0.125, -0.115, -3.709, 0.01, -0.122, -0.113, -3.645, 0.01
 251431054, -0.127, -0.117, -3.767, 0.01, -0.125, -0.115, -3.709, 0.01
 251630974, -0.129, -0.12, -3.818, 0.01, -0.127, -0.117, -3.767, 0.01
 251830894, -0.131, -0.123, -3.862, 0.01, -0.129, -0.12, -3.818, 0.01
 252030814, -0.13, -0.124, -3.589, 0.01, -0.131, -0.123, -3.862, 0.01
 252230734, -0.127, -0.124, -3.051, 0.01, -0.13, -0.124, -3.589, 0.01
 252430654, -0.125, -0.123, -2.58, 0.01, -0.127, -0.124, -3.051, 0.01
 252631407, -0.123, -0.123, -2.167, 0.01, -0.125, -0.123, -2.58, 0.01
 252831327, -0.121, -0.123, -1.803, 0.01, -0.123, -0.123, -2.167, 0.01
 253031247, -0.119, -0.122, -1.484, 0.01, -0.121, -0.123, -1.803, 0.01
 253231167, -0.117, -0.12, -1.205, 0.01, -0.119, -0.122, -1.484, 0.01
 253431087, -0.115, -0.118, -0.964, 0.01, -0.117, -0.12, -1.205, 0.01
 253631007, -0.116, -0.113, -0.7500001, 0.01, -0.115, -0.118, -0.964, 0.01
 253830927, -0.153, -0.1, -0.575, 0.01, -0.116, -0.113, -0.7500001, 0.01
 254030847, -0.279, -0.081, -0.434, 0.01, -0.153, -0.1, -0.575, 0.01
 254230767, -0.509, -0.066, -0.324, 0.01, -0.279, -0.081, -0.434, 0.01
 254430687, -0.8340001, -0.059, -0.238, 0.01, -0.509, -0.066, -0.324, 0.01
 254631440, -1.238, -0.06500001, -0.173, 0.01, -0.8340001, -0.059, -0.238, 0.01
 254831360, -1.714, -0.089, -0.125, 0.01, -1.238, -0.06500001, -0.173, 0.01
 255031280, -2.256, -0.138, -0.089, 0.01, -1.714, -0.089, -0.125, 0.01
 255231200, -2.824, -0.216, -0.068, 0.01, -2.256, -0.138, -0.089, 0.01
 255431120, -3.332, -0.317, -0.064, 0.01, -2.824, -0.216, -0.068, 0.01
 255631040, -3.734, -0.433, -0.068, 0.01, -3.332, -0.317, -0.064, 0.01
 255830960, -4.05, -0.56, -0.072, 0.01, -3.734, -0.433, -0.068, 0.01
 256030880, -4.317, -0.698, -0.072, 0.01, -4.05, -0.56, -0.072, 0.01
 256230800, -4.531, -0.8430001, -0.07700001, 0.01, -4.317, -0.698, -0.072, 0.01
 256430720, -4.662, -0.9860001, -0.086, 0.01, -4.531, -0.8430001, -0.07700001, 0.01
 256631473, -4.724, -1.127, -0.09200001, 0.01, -4.662, -0.9860001, -0.086, 0.01
 256831393, -4.758, -1.273, -0.098, 0.01, -4.724, -1.127, -0.09200001, 0.01
 257031313, -4.78, -1.423, -0.104, 0.01, -4.758, -1.273, -0.098, 0.01
 257231233, -4.785, -1.575, -0.111, 0.01, -4.78, -1.423, -0.104, 0.01
 257431153, -4.765, -1.729, -0.12, 0.01, -4.785, -1.575, -0.111, 0.01
 257631073, -4.723, -1.886, -0.128, 0.01, -4.765, -1.729, -0.12, 0.01
 257830993, -4.664, -2.048, -0.132, 0.01, -4.723, -1.886, -0.128, 0.01
 258030913, -4.593, -2.212, -0.134, 0.01, -4.664, -2.048, -0.132, 0.01
 258230833, -4.513, -2.378, -0.137, 0.01, -4.593, -2.212, -0.134, 0.01
 258430753, -4.423, -2.54, -0.139, 0.01, -4.513, -2.378, -0.137, 0.01
 258630673, -4.322, -2.7, -0.14, 0.01, -4.423, -2.54, -0.139, 0.01
 258831426, -4.215, -2.858, -0.142, 0.01, -4.322, -2.7, -0.14, 0.01
 259031346, -4.101, -3.01, -0.141, 0.01, -4.215, -2.858, -0.142, 0.01
 259231266, -3.982, -3.155, -0.135, 0.01, -4.101, -3.01, -0.141, 0.01
 259431186, -3.859, -3.295, -0.127, 0.01, -3.982, -3.155, -0.135, 0.01
 259631106, -3.734, -3.428, -0.115, 0.01, -3.859, -3.295, -0.127, 0.01
 259831026, -3.606, -3.556, -0.102, 0.01, -3.734, -3.428, -0.115, 0.01
 260030946, -3.474, -3.678, -0.086, 0.01, -3.606, -3.556, -0.102, 0.01
 260230866, -3.339, -3.798, -0.072, 0.01, -3.474, -3.678, -0.086, 0.01
 260430786, -3.202, -3.914, -0.06, 0.01, -3.339, -3.798, -0.072, 0.01
 260630706, -3.062, -4.026, -0.05, 0.01, -3.202, -3.914, -0.06, 0.01
 260831459, -2.919, -4.131, -0.043, 0.01, -3.062, -4.026, -0.05, 0.01
 261031379, -2.775, -4.229, -0.038, 0.01, -2.919, -4.131, -0.043, 0.01
 261231299, -2.63, -4.322, -0.035, 0.01, -2.775, -4.229, -0.038, 0.01
 261431219, -2.483, -4.411, -0.034, 0.01, -2.63, -4.322, -0.035, 0.01
 261631139, -2.335, -4.495, -0.035, 0.01, -2.483, -4.411, -0.034, 0.01
 261831059, -2.186, -4.571, -0.033, 0.01, -2.335, -4.495, -0.035, 0.01
 262030979, -2.034, -4.642, -0.032, 0.01, -2.186, -4.571, -0.033, 0.01
 262230899, -1.878, -4.709, -0.029, 0.01, -2.034, -4.642, -0.032, 0.01
 262430819, -1.722, -4.771, -0.027, 0.01, -1.878, -4.709, -0.029, 0.01
 262630739, -1.566, -4.827, -0.027, 0.01, -1.722, -4.771, -0.027, 0.01
 262830659, -1.406, -4.877, -0.026, 0.01, -1.566, -4.827, -0.027, 0.01
 263031412, -1.244, -4.921, -0.024, 0.01, -1.406, -4.877, -0.026, 0.01
 263231332, -1.079, -4.961, -0.024, 0.01, -1.244, -4.921, -0.024, 0.01
 263431252, -0.913, -4.996, -0.024, 0.01, -1.079, -4.961, -0.024, 0.01
 263631172, -0.7460001, -5.025, -0.024, 0.01, -0.913, -4.996, -0.024, 0.01
 263831092, -0.578, -5.043, -0.024, 0.01, -0.7460001, -5.025, -0.024, 0.01
 264031012, -0.409, -5.051, -0.022, 0.01, -0.578, -5.043, -0.024, 0.01
 264230932, -0.237, -5.054, -0.02, 0.01, -0.409, -5.051, -0.022, 0.01
 264430852, -0.06500001, -5.054, -0.018, 0.01, -0.237, -5.054, -0.02, 0.01
 264630772, 0.106, -5.047, -0.016, 0.01, -0.06500001, -5.054, -0.018, 0.01
 264830692, 0.278, -5.036, -0.016, 0.01, 0.106, -5.047, -0.016, 0.01
 265031445, 0.45, -5.021, -0.015, 0.01, 0.278, -5.036, -0.016, 0.01
 265231365, 0.619, -4.999, -0.015, 0.01, 0.45, -5.021, -0.015, 0.01
 265431285, 0.7870001, -4.972, -0.014, 0.01, 0.619, -4.999, -0.015, 0.01
 265631205, 0.9530001, -4.942, -0.013, 0.01, 0.7870001, -4.972, -0.014, 0.01
 265831125, 1.117, -4.907, -0.014, 0.01, 0.9530001, -4.942, -0.013, 0.01
 266031045, 1.28, -4.864, -0.015, 0.01, 1.117, -4.907, -0.014, 0.01
 266230965, 1.443, -4.815, -0.015, 0.01, 1.28, -4.864, -0.015, 0.01
 266430885, 1.606, -4.763, -0.015, 0.01, 1.443, -4.815, -0.015, 0.01
 266630805, 1.767, -4.706, -0.016, 0.01, 1.606, -4.763, -0.015, 0.01
 266830725, 1.925, -4.643, -0.015, 0.01, 1.767, -4.706, -0.016, 0.01
 267031478, 2.081, -4.576, -0.015, 0.01, 1.925, -4.643, -0.015, 0.01
 267231398, 2.232, -4.504, -0.013, 0.01, 2.081, -4.576, -0.015, 0.01
 267431318, 2.38, -4.426, -0.012, 0.01, 2.232, -4.504, -0.013, 0.01
 267631238, 2.527, -4.345, -0.01, 0.01, 2.38, -4.426, -0.012, 0.01
 267831158, 2.671, -4.259, -0.006, 0.01, 2.527, -4.345, -0.01, 0.01
 268031078, 2.811, -4.169, -0.002, 0.01, 2.671, -4.259, -0.006, 0.01
 268230998, 2.946, -4.075, 0, 0.01, 2.811, -4.169, -0.002, 0.01
 268430918, 3.079, -3.978, 0.002, 0.01, 2.946, -4.075, 0, 0.01
 268630838, 3.21, -3.875, 0.003, 0.01, 3.079, -3.978, 0.002, 0.01
 268830758, 3.339, -3.767, 0.004, 0.01, 3.21, -3.875, 0.003, 0.01
 269030678, 3.465, -3.652, 0.004, 0.01, 3.339, -3.767, 0.004, 0.01
 269231431, 3.585, -3.531, 0.003, 0.01, 3.465, -3.652, 0.004, 0.01
 269431351, 3.7, -3.406, 0.002, 0.01, 3.585, -3.531, 0.003, 0.01
 269631271, 3.809, -3.278, 0.003, 0.01, 3.7, -3.406, 0.002, 0.01
 269831191, 3.915, -3.147, 0.003, 0.01, 3.809, -3.278, 0.003, 0.01
 270031111, 4.017, -3.014, 0.004, 0.01, 3.915, -3.147, 0.003, 0.01
 270231031, 4.117, -2.879, 0.003, 0.01, 4.017, -3.014, 0.004, 0.01
 270430951, 4.214, -2.742, 0.001, 0.01, 4.117, -2.879, 0.003, 0.01
 270630871, 4.305, -2.6, -0.001, 0.01, 4.214, -2.742, 0.001, 0.01
 270830791, 4.389, -2.452, 0, 0.01, 4.305, -2.6, -0.001, 0.01
 271030711, 4.466, -2.301, 0.007, 0.01, 4.389, -2.452, 0, 0.01
 271231464, 4.536, -2.149, 0.019, 0.01, 4.466, -2.301, 0.007, 0.01
 271431384, 4.6, -1.997, 0.034, 0.01, 4.536, -2.149, 0.019, 0.01
 271631304, 4.662, -1.846, 0.049, 0.01, 4.6, -1.997, 0.034, 0.01
 271831224, 4.723, -1.693, 0.063, 0.01, 4.662, -1.846, 0.049, 0.01
 272031144, 4.778, -1.537, 0.07600001, 0.01, 4.723, -1.693, 0.063, 0.01
 272231064, 4.826, -1.379, 0.09, 0.01, 4.778, -1.537, 0.07600001, 0.01
 272430984, 4.871, -1.22, 0.1, 0.01, 4.826, -1.379, 0.09, 0.01
 272630904, 4.911, -1.059, 0.112, 0.01, 4.871, -1.22, 0.1, 0.01
 272830824, 4.946, -0.9, 0.123, 0.01, 4.911, -1.059, 0.112, 0.01
 273030744, 4.978, -0.74, 0.13, 0.01, 4.946, -0.9, 0.123, 0.01
 273230664, 5.002, -0.576, 0.136, 0.01, 4.978, -0.74, 0.13, 0.01
 273431417, 5.018, -0.407, 0.145, 0.01, 5.002, -0.576, 0.136, 0.01
 273631337, 5.03, -0.238, 0.153, 0.01, 5.018, -0.407, 0.145, 0.01
 273831257, 5.039, -0.06900001, 0.159, 0.01, 5.03, -0.238, 0.153, 0.01
 274031177, 5.043, 0.098, 0.162, 0.01, 5.039, -0.06900001, 0.159, 0.01
 274231097, 5.038, 0.264, 0.164, 0.01, 5.043, 0.098, 0.162, 0.01
 274431017, 5.026, 0.432, 0.166, 0.01, 5.038, 0.264, 0.164, 0.01
 274630937, 5.008, 0.604, 0.168, 0.01, 5.026, 0.432, 0.166, 0.01
 274830857, 4.983, 0.78, 0.173, 0.01, 5.008, 0.604, 0.168, 0.01
 275030777, 4.951, 0.9580001, 0.178, 0.01, 4.983, 0.78, 0.173, 0.01
 275230697, 4.914, 1.136, 0.183, 0.01, 4.951, 0.9580001, 0.178, 0.01
 275431450, 4.873, 1.31, 0.186, 0.01, 4.914, 1.136, 0.183, 0.01
 275631370, 4.826, 1.481, 0.187, 0.01, 4.873, 1.31, 0.186, 0.01
 275831290, 4.775, 1.649, 0.187, 0.01, 4.826, 1.481, 0.187, 0.01
 276031210, 4.718, 1.81, 0.185, 0.01, 4.775, 1.649, 0.187, 0.01
 276231130, 4.658, 1.963, 0.18, 0.01, 4.718, 1.81, 0.185, 0.01
 276431050, 4.591, 2.112, 0.174, 0.01, 4.658, 1.963, 0.18, 0.01
 276630970, 4.52, 2.257, 0.17, 0.01, 4.591, 2.112, 0.174, 0.01
 276830890, 4.443, 2.4, 0.169, 0.01, 4.52, 2.257, 0.17, 0.01
 277030810, 4.362, 2.539, 0.167, 0.01, 4.443, 2.4, 0.169, 0.01
 277230730, 4.278, 2.674, 0.166, 0.01, 4.362, 2.539, 0.167, 0.01
 277431483, 4.188, 2.806, 0.166, 0.01, 4.278, 2.674, 0.166, 0.01
 277631403, 4.091, 2.937, 0.166, 0.01, 4.188, 2.806, 0.166, 0.01
 277831323, 3.99, 3.067, 0.166, 0.01, 4.091, 2.937, 0.166, 0.01
 278031243, 3.886, 3.196, 0.162, 0.01, 3.99, 3.067, 0.166, 0.01
 278231163, 3.778, 3.321, 0.156, 0.01, 3.886, 3.196, 0.162, 0.01
 278431083, 3.665, 3.443, 0.151, 0.01, 3.778, 3.321, 0.156, 0.01
 278631003, 3.546, 3.561, 0.147, 0.01, 3.665, 3.443, 0.151, 0.01
 278830923, 3.422, 3.678, 0.144, 0.01, 3.546, 3.561, 0.147, 0.01
 279030843, 3.294, 3.795, 0.142, 0.01, 3.422, 3.678, 0.144, 0.01
 279230763, 3.163, 3.907, 0.141, 0.01, 3.294, 3.795, 0.142, 0.01
 279430683, 3.03, 4.013, 0.139, 0.01, 3.163, 3.907, 0.141, 0.01
 279631436, 2.895, 4.113, 0.132, 0.01, 3.03, 4.013, 0.139, 0.01
 279831356, 2.755, 4.207, 0.125, 0.01, 2.895, 4.113, 0.132, 0.01
 280031276, 2.612, 4.296, 0.12, 0.01, 2.755, 4.207, 0.125, 0.01
 280231196, 2.467, 4.383, 0.113, 0.01, 2.612, 4.296, 0.12, 0.01
 280431116, 2.322, 4.465, 0.106, 0.01, 2.467, 4.383, 0.113, 0.01
 280631036, 2.173, 4.54, 0.09900001, 0.01, 2.322, 4.465, 0.106, 0.01
 280830956, 2.022, 4.608, 0.096, 0.01, 2.173, 4.54, 0.09900001, 0.01
 281030876, 1.868, 4.672, 0.09200001, 0.01, 2.022, 4.608, 0.096, 0.01
 281230796, 1.714, 4.734, 0.087, 0.01, 1.868, 4.672, 0.09200001, 0.01
 281430716, 1.557, 4.79, 0.08000001, 0.01, 1.714, 4.734, 0.087, 0.01
 281631469, 1.398, 4.837, 0.075, 0.01, 1.557, 4.79, 0.08000001, 0.01
 281831389, 1.238, 4.88, 0.06900001, 0.01, 1.398, 4.837, 0.075, 0.01
 282031309, 1.076, 4.918, 0.061, 0.01, 1.238, 4.88, 0.06900001, 0.01
 282231229, 0.9120001, 4.951, 0.056, 0.01, 1.076, 4.918, 0.061, 0.01
 282431149, 0.747, 4.978, 0.052, 0.01, 0.9120001, 4.951, 0.056, 0.01
 282631069, 0.5790001, 4.999, 0.046, 0.01, 0.747, 4.978, 0.052, 0.01
 282830989, 0.411, 5.014, 0.04, 0.01, 0.5790001, 4.999, 0.046, 0.01
 283030909, 0.242, 5.024, 0.034, 0.01, 0.411, 5.014, 0.04, 0.01
 283230829, 0.075, 5.029, 0.028, 0.01, 0.242, 5.024, 0.034, 0.01
 283430749, -0.093, 5.029, 0.019, 0.01, 0.075, 5.029, 0.028, 0.01
 283630669, -0.262, 5.022, 0.012, 0.01, -0.093, 5.029, 0.019, 0.01
 283831422, -0.431, 5.01, 0.006, 0.01, -0.262, 5.022, 0.012, 0.01
 284031342, -0.598, 4.992, 0, 0.01, -0.431, 5.01, 0.006, 0.01
 284231262, -0.765, 4.967, -0.007, 0.01, -0.598, 4.992, 0, 0.01
 284431182, -0.929, 4.936, -0.013, 0.01, -0.765, 4.967, -0.007, 0.01
 284631102, -1.092, 4.9, -0.016, 0.01, -0.929, 4.936, -0.013, 0.01
 284831022, -1.255, 4.86, -0.018, 0.01, -1.092, 4.9, -0.016, 0.01
 285030942, -1.419, 4.817, -0.024, 0.01, -1.255, 4.86, -0.018, 0.01
 285230862, -1.583, 4.77, -0.03, 0.01, -1.419, 4.817, -0.024, 0.01
 285430782, -1.743, 4.717, -0.037, 0.01, -1.583, 4.77, -0.03, 0.01
 285630702, -1.899, 4.656, -0.042, 0.01, -1.743, 4.717, -0.037, 0.01
 285831455, -2.054, 4.589, -0.05, 0.01, -1.899, 4.656, -0.042, 0.01
 286031375, -2.206, 4.516, -0.057, 0.01, -2.054, 4.589, -0.05, 0.01
 286231295, -2.356, 4.437, -0.061, 0.01, -2.206, 4.516, -0.057, 0.01
 286431215, -2.503, 4.355, -0.064, 0.01, -2.356, 4.437, -0.061, 0.01
 286631135, -2.646, 4.272, -0.066, 0.01, -2.503, 4.355, -0.064, 0.01
 286831055, -2.788, 4.183, -0.07, 0.01, -2.646, 4.272, -0.066, 0.01
 287030975, -2.927, 4.085, -0.07600001, 0.01, -2.788, 4.183, -0.07, 0.01
 287230895, -3.062, 3.981, -0.081, 0.01, -2.927, 4.085, -0.07600001, 0.01
 287430815, -3.192, 3.878, -0.085, 0.01, -3.062, 3.981, -0.081, 0.01
 287630735, -3.319, 3.775, -0.08800001, 0.01, -3.192, 3.878, -0.085, 0.01
 287830655, -3.441, 3.669, -0.09100001, 0.01, -3.319, 3.775, -0.08800001, 0.01
 288031408, -3.559, 3.555, -0.093, 0.01, -3.441, 3.669, -0.09100001, 0.01
 288231328, -3.672, 3.436, -0.094, 0.01, -3.559, 3.555, -0.093, 0.01
 288431248, -3.784, 3.315, -0.1, 0.01, -3.672, 3.436, -0.094, 0.01
 288631168, -3.894, 3.189, -0.106, 0.01, -3.784, 3.315, -0.1, 0.01
 288831088, -3.998, 3.057, -0.111, 0.01, -3.894, 3.189, -0.106, 0.01
 289031008, -4.096, 2.92, -0.114, 0.01, -3.998, 3.057, -0.111, 0.01
 289230928, -4.188, 2.78, -0.115, 0.01, -4.096, 2.92, -0.114, 0.01
 289430848, -4.277, 2.64, -0.116, 0.01, -4.188, 2.78, -0.115, 0.01
 289630768, -4.363, 2.499, -0.118, 0.01, -4.277, 2.64, -0.116, 0.01
 289830688, -4.444, 2.352, -0.12, 0.01, -4.363, 2.499, -0.118, 0.01
 290031441, -4.519, 2.201, -0.121, 0.01, -4.444, 2.352, -0.12, 0.01
 290231361, -4.589, 2.048, -0.12, 0.01, -4.519, 2.201, -0.121, 0.01
 290431281, -4.655, 1.892, -0.118, 0.01, -4.589, 2.048, -0.12, 0.01
 290631201, -4.718, 1.734, -0.117, 0.01, -4.655, 1.892, -0.118, 0.01
 290831121, -4.774, 1.574, -0.116, 0.01, -4.718, 1.734, -0.117, 0.01
 291031041, -4.825, 1.41, -0.114, 0.01, -4.774, 1.574, -0.116, 0.01
 291230961, -4.871, 1.243, -0.116, 0.01, -4.825, 1.41, -0.114, 0.01
 291430881, -4.912, 1.076, -0.123, 0.01, -4.871, 1.243, -0.116, 0.01
 291630801, -4.946, 0.9080001, -0.129, 0.01, -4.912, 1.076, -0.123, 0.01
 291830721, -4.973, 0.74, -0.134, 0.01, -4.946, 0.9080001, -0.129, 0.01
 292031474, -4.994, 0.572, -0.138, 0.01, -4.973, 0.74, -0.134, 0.01
 292231394, -5.008, 0.408, -0.141, 0.01, -4.994, 0.572, -0.138, 0.01
 292431314, -5.018, 0.247, -0.143, 0.01, -5.008, 0.408, -0.141, 0.01
 292631234, -5.023, 0.085, -0.143, 0.01, -5.018, 0.247, -0.143, 0.01
 292831154, -5.022, -0.078, -0.142, 0.01, -5.023, 0.085, -0.143, 0.01
 293031074, -5.016, -0.247, -0.139, 0.01, -5.022, -0.078, -0.142, 0.01
 293230994, -5.004, -0.418, -0.136, 0.01, -5.016, -0.247, -0.139, 0.01
 293430914, -4.988, -0.589, -0.131, 0.01, -5.004, -0.418, -0.136, 0.01
 293630834, -4.966, -0.758, -0.127, 0.01, -4.988, -0.589, -0.131, 0.01
 293830754, -4.939, -0.9260001, -0.124, 0.01, -4.966, -0.758, -0.127, 0.01
 294030674, -4.906, -1.094, -0.123, 0.01, -4.939, -0.9260001, -0.124, 0.01
 294231427, -4.868, -1.259, -0.122, 0.01, -4.906, -1.094, -0.123, 0.01
 294431347, -4.824, -1.423, -0.124, 0.01, -4.868, -1.259, -0.122, 0.01
 294631267, -4.775, -1.585, -0.128, 0.01, -4.824, -1.423, -0.124, 0.01
 294831187, -4.72, -1.746, -0.131, 0.01, -4.775, -1.585, -0.128, 0.01
 295031107, -4.661, -1.904, -0.132, 0.01, -4.72, -1.746, -0.131, 0.01
 295231027, -4.596, -2.056, -0.132, 0.01, -4.661, -1.904, -0.132, 0.01
 295430947, -4.527, -2.202, -0.133, 0.01, -4.596, -2.056, -0.132, 0.01
 295630867, -4.452, -2.346, -0.134, 0.01, -4.527, -2.202, -0.133, 0.01
 295830787, -4.373, -2.488, -0.132, 0.01, -4.452, -2.346, -0.134, 0.01
 296030707, -4.289, -2.627, -0.128, 0.01, -4.373, -2.488, -0.132, 0.01
 296231460, -4.201, -2.763, -0.122, 0.01, -4.289, -2.627, -0.128, 0.01
 296431380, -4.108, -2.9, -0.116, 0.01, -4.201, -2.763, -0.122, 0.01
 296631300, -4.009, -3.036, -0.11, 0.01, -4.108, -2.9, -0.116, 0.01
 296831220, -3.906, -3.17, -0.102, 0.01, -4.009, -3.036, -0.11, 0.01
 297031140, -3.799, -3.299, -0.098, 0.01, -3.906, -3.17, -0.102, 0.01
 297231060, -3.687, -3.419, -0.09100001, 0.01, -3.799, -3.299, -0.098, 0.01
 297430980, -3.572, -3.533, -0.083, 0.01, -3.687, -3.419, -0.09100001, 0.01
 297630900, -3.452, -3.646, -0.07600001, 0.01, -3.572, -3.533, -0.083, 0.01
 297830820, -3.328, -3.758, -0.068, 0.01, -3.452, -3.646, -0.07600001, 0.01
 298030740, -3.199, -3.869, -0.06, 0.01, -3.328, -3.758, -0.068, 0.01
 298230660, -3.067, -3.977, -0.054, 0.01, -3.199, -3.869, -0.06, 0.01
 298431413, -2.931, -4.077, -0.049, 0.01, -3.067, -3.977, -0.054, 0.01
 298631333, -2.791, -4.173, -0.044, 0.01, -2.931, -4.077, -0.049, 0.01
 298831253, -2.65, -4.267, -0.036, 0.01, -2.791, -4.173, -0.044, 0.01
 299031173, -2.506, -4.358, -0.03, 0.01, -2.65, -4.267, -0.036, 0.01
 299231093, -2.358, -4.443, -0.027, 0.01, -2.506, -4.358, -0.03, 0.01
 299431013, -2.208, -4.52, -0.026, 0.01, -2.358, -4.443, -0.027, 0.01
 299630933, -2.057, -4.589, -0.024, 0.01, -2.208, -4.52, -0.026, 0.01
 299830853, -1.904, -4.655, -0.023, 0.01, -2.057, -4.589, -0.024, 0.01
 300030773, -1.749, -4.715, -0.022, 0.01, -1.904, -4.655, -0.023, 0.01
 300230693, -1.593, -4.769, -0.021, 0.01, -1.749, -4.715, -0.022, 0.01
 300431446, -1.436, -4.818, -0.019, 0.01, -1.593, -4.769, -0.021, 0.01
 300631366, -1.275, -4.86, -0.018, 0.01, -1.436, -4.818, -0.019, 0.01
 300831286, -1.112, -4.895, -0.017, 0.01, -1.275, -4.86, -0.018, 0.01
 301031206, -0.946, -4.926, -0.016, 0.01, -1.112, -4.895, -0.017, 0.01
 301231126, -0.779, -4.952, -0.017, 0.01, -0.946, -4.926, -0.016, 0.01
 301431046, -0.613, -4.972, -0.017, 0.01, -0.779, -4.952, -0.017, 0.01
 301630966, -0.447, -4.989, -0.018, 0.01, -0.613, -4.972, -0.017, 0.01
 301830886, -0.28, -5.002, -0.019, 0.01, -0.447, -4.989, -0.018, 0.01
 302030806, -0.111, -5.01, -0.02, 0.01, -0.28, -5.002, -0.019, 0.01
 302230726, 0.058, -5.014, -0.021, 0.01, -0.111, -5.01, -0.02, 0.01
 302431479, 0.229, -5.013, -0.02, 0.01, 0.058, -5.014, -0.021, 0.01
 302631399, 0.398, -5.003, -0.015, 0.01, 0.229, -5.013, -0.02, 0.01
 302831319, 0.566, -4.985, -0.012, 0.01, 0.398, -5.003, -0.015, 0.01
 303031239, 0.7320001, -4.964, -0.01, 0.01, 0.566, -4.985, -0.012, 0.01
 303231159, 0.8980001, -4.94, -0.01, 0.01, 0.7320001, -4.964, -0.01, 0.01
 303431079, 1.063, -4.909, -0.007, 0.01, 0.8980001, -4.94, -0.01, 0.01
 303630999, 1.225, -4.873, -0.004, 0.01, 1.063, -4.909, -0.007, 0.01
 303830919, 1.384, -4.831, 0, 0.01, 1.225, -4.873, -0.004, 0.01
 304030839, 1.545, -4.783, 0.002, 0.01, 1.384, -4.831, 0, 0.01
 304230759, 1.705, -4.731, 0.003, 0.01, 1.545, -4.783, 0.002, 0.01
 304430679, 1.863, -4.673, 0.003, 0.01, 1.705, -4.731, 0.003, 0.01
 304631432, 2.016, -4.611, -0.001, 0.01, 1.863, -4.673, 0.003, 0.01
 304831352, 2.166, -4.543, -0.007, 0.01, 2.016, -4.611, -0.001, 0.01
 305031272, 2.314, -4.47, -0.013, 0.01, 2.166, -4.543, -0.007, 0.01
 305231192, 2.46, -4.392, -0.017, 0.01, 2.314, -4.47, -0.013, 0.01
 305431112, 2.603, -4.307, -0.021, 0.01, 2.46, -4.392, -0.017, 0.01
 305631032, 2.743, -4.217, -0.022, 0.01, 2.603, -4.307, -0.021, 0.01
 305830952, 2.88, -4.122, -0.018, 0.01, 2.743, -4.217, -0.022, 0.01
 306030872, 3.015, -4.023, -0.014, 0.01, 2.88, -4.122, -0.018, 0.01
 306230792, 3.146, -3.921, -0.008, 0.01, 3.015, -4.023, -0.014, 0.01
 306430712, 3.273, -3.814, -0.002, 0.01, 3.146, -3.921, -0.008, 0.01
 306631465, 3.398, -3.7, 0.002, 0.01, 3.273, -3.814, -0.002, 0.01
 306831385, 3.518, -3.582, 0.005, 0.01, 3.398, -3.7, 0.002, 0.01
 307031305, 3.636, -3.462, 0.007, 0.01, 3.518, -3.582, 0.005, 0.01
 307231225, 3.751, -3.341, 0.007, 0.01, 3.636, -3.462, 0.007, 0.01
 307431145, 3.862, -3.214, 0.007, 0.01, 3.751, -3.341, 0.007, 0.01
 307631065, 3.968, -3.081, 0.005, 0.01, 3.862, -3.214, 0.007, 0.01
 307830985, 4.069, -2.946, 0.005, 0.01, 3.968, -3.081, 0.005, 0.01
 308030905, 4.165, -2.81, 0.006, 0.01, 4.069, -2.946, 0.005, 0.01
 308230825, 4.257, -2.67, 0.01, 0.01, 4.165, -2.81, 0.006, 0.01
 308430745, 4.344, -2.521, 0.014, 0.01, 4.257, -2.67, 0.01, 0.01
 308630665, 4.426, -2.368, 0.019, 0.01, 4.344, -2.521, 0.014, 0.01
 308831418, 4.501, -2.215, 0.026, 0.01, 4.426, -2.368, 0.019, 0.01
 309031338, 4.57, -2.063, 0.034, 0.01, 4.501, -2.215, 0.026, 0.01
 309231258, 4.635, -1.911, 0.044, 0.01, 4.57, -2.063, 0.034, 0.01
 309431178, 4.697, -1.755, 0.056, 0.01, 4.635, -1.911, 0.044, 0.01
 309631098, 4.752, -1.596, 0.067, 0.01, 4.697, -1.755, 0.056, 0.01
 309831018, 4.801, -1.435, 0.079, 0.01, 4.752, -1.596, 0.067, 0.01
 310030938, 4.845, -1.276, 0.09100001, 0.01, 4.801, -1.435, 0.079, 0.01
 310230858, 4.886, -1.116, 0.103, 0.01, 4.845, -1.276, 0.09100001, 0.01
 310430778, 4.923, -0.956, 0.114, 0.01, 4.886, -1.116, 0.103, 0.01
 310630698, 4.954, -0.7970001, 0.124, 0.01, 4.923, -0.956, 0.114, 0.01
 310831451, 4.979, -0.634, 0.133, 0.01, 4.954, -0.7970001, 0.124, 0.01
 311031371, 4.997, -0.469, 0.144, 0.01, 4.979, -0.634, 0.133, 0.01
 311231291, 5.011, -0.302, 0.154, 0.01, 4.997, -0.469, 0.144, 0.01
 311431211, 5.022, -0.135, 0.16, 0.01, 5.011, -0.302, 0.154, 0.01
 311631131, 5.027, 0.029, 0.164, 0.01, 5.022, -0.135, 0.16, 0.01
 311831051, 5.026, 0.191, 0.167, 0.01, 5.027, 0.029, 0.164, 0.01
 312030971, 5.017, 0.353, 0.168, 0.01, 5.026, 0.191, 0.167, 0.01
 312230891, 5.003, 0.517, 0.17, 0.01, 5.017, 0.353, 0.168, 0.01
 312430811, 4.983, 0.687, 0.175, 0.01, 5.003, 0.517, 0.17, 0.01
 312630731, 4.959, 0.862, 0.18, 0.01, 4.983, 0.687, 0.175, 0.01
 312831484, 4.929, 1.039, 0.183, 0.01, 4.959, 0.862, 0.18, 0.01
 313031404, 4.893, 1.215, 0.185, 0.01, 4.929, 1.039, 0.183, 0.01
 313231324, 4.85, 1.389, 0.184, 0.01, 4.893, 1.215, 0.185, 0.01
 313431244, 4.802, 1.559, 0.183, 0.01, 4.85, 1.389, 0.184, 0.01
 313631164, 4.749, 1.721, 0.182, 0.01, 4.802, 1.559, 0.183, 0.01
 313831084, 4.689, 1.874, 0.183, 0.01, 4.749, 1.721, 0.182, 0.01
 314031004, 4.624, 2.024, 0.181, 0.01, 4.689, 1.874, 0.183, 0.01
 314230924, 4.555, 2.173, 0.178, 0.01, 4.624, 2.024, 0.181, 0.01
 314430844, 4.48, 2.322, 0.175, 0.01, 4.555, 2.173, 0.178, 0.01
 314630764, 4.401, 2.464, 0.173, 0.01, 4.48, 2.322, 0.175, 0.01
 314830684, 4.319, 2.6, 0.171, 0.01, 4.401, 2.464, 0.173, 0.01
 315031437, 4.231, 2.734, 0.172, 0.01, 4.319, 2.6, 0.171, 0.01
 315231357, 4.137, 2.866, 0.173, 0.01, 4.231, 2.734, 0.172, 0.01
 315431277, 4.039, 2.997, 0.175, 0.01, 4.137, 2.866, 0.173, 0.01
 315631197, 3.936, 3.129, 0.177, 0.01, 4.039, 2.997, 0.175, 0.01
 315831117, 3.828, 3.262, 0.172, 0.01, 3.936, 3.129, 0.177, 0.01
 316031037, 3.715, 3.392, 0.164, 0.01, 3.828, 3.262, 0.172, 0.01
 316230957, 3.598, 3.514, 0.157, 0.01, 3.715, 3.392, 0.164, 0.01
 316430877, 3.477, 3.631, 0.152, 0.01, 3.598, 3.514, 0.157, 0.01
 316630797, 3.353, 3.746, 0.149, 0.01, 3.477, 3.631, 0.152, 0.01
 316830717, 3.226, 3.862, 0.146, 0.01, 3.353, 3.746, 0.149, 0.01
 317031470, 3.096, 3.974, 0.139, 0.01, 3.226, 3.862, 0.146, 0.01
 317231390, 2.962, 4.079, 0.129, 0.01, 3.096, 3.974, 0.139, 0.01
 317431310, 2.823, 4.173, 0.123, 0.01, 2.962, 4.079, 0.129, 0.01
 317631230, 2.682, 4.263, 0.114, 0.01, 2.823, 4.173, 0.123, 0.01
 317831150, 2.538, 4.347, 0.105, 0.01, 2.682, 4.263, 0.114, 0.01
 318031070, 2.392, 4.423, 0.09900001, 0.01, 2.538, 4.347, 0.105, 0.01
 318230990, 2.242, 4.495, 0.096, 0.01, 2.392, 4.423, 0.09900001, 0.01
 318430910, 2.091, 4.566, 0.09500001, 0.01, 2.242, 4.495, 0.096, 0.01
 318630830, 1.939, 4.634, 0.094, 0.01, 2.091, 4.566, 0.09500001, 0.01
 318830750, 1.783, 4.698, 0.089, 0.01, 1.939, 4.634, 0.094, 0.01
 319030670, 1.624, 4.755, 0.08400001, 0.01, 1.783, 4.698, 0.089, 0.01
 319231423, 1.465, 4.805, 0.07700001, 0.01, 1.624, 4.755, 0.08400001, 0.01
 319431343, 1.305, 4.849, 0.06900001, 0.01, 1.465, 4.805, 0.07700001, 0.01
 319631263, 1.144, 4.887, 0.062, 0.01, 1.305, 4.849, 0.06900001, 0.01
 319831183, 0.9810001, 4.921, 0.056, 0.01, 1.144, 4.887, 0.062, 0.01
 320031103, 0.817, 4.948, 0.049, 0.01, 0.9810001, 4.921, 0.056, 0.01
 320231023, 0.651, 4.97, 0.042, 0.01, 0.817, 4.948, 0.049, 0.01
 320430943, 0.484, 4.989, 0.036, 0.01, 0.651, 4.97, 0.042, 0.01
 320630863, 0.316, 5.004, 0.032, 0.01, 0.484, 4.989, 0.036, 0.01
 320830783, 0.149, 5.014, 0.028, 0.01, 0.316, 5.004, 0.032, 0.01
 321030703, -0.016, 5.021, 0.021, 0.01, 0.149, 5.014, 0.028, 0.01
 321231456, -0.183, 5.022, 0.011, 0.01, -0.016, 5.021, 0.021, 0.01
 321431376, -0.35, 5.013, 0.003, 0.01, -0.183, 5.022, 0.011, 0.01
 321631296, -0.516, 4.997, -0.005, 0.01, -0.35, 5.013, 0.003, 0.01
 321831216, -0.682, 4.978, -0.013, 0.01, -0.516, 4.997, -0.005, 0.01
 322031136, -0.846, 4.951, -0.02, 0.01, -0.682, 4.978, -0.013, 0.01
 322231056, -1.007, 4.917, -0.023, 0.01, -0.846, 4.951, -0.02, 0.01
 322430976, -1.169, 4.876, -0.024, 0.01, -1.007, 4.917, -0.023, 0.01
 322630896, -1.331, 4.833, -0.026, 0.01, -1.169, 4.876, -0.024, 0.01
 322830816, -1.492, 4.788, -0.031, 0.01, -1.331, 4.833, -0.026, 0.01
 323030736, -1.652, 4.737, -0.036, 0.01, -1.492, 4.788, -0.031, 0.01
 323230656, -1.809, 4.679, -0.039, 0.01, -1.652, 4.737, -0.036, 0.01
 323431409, -1.963, 4.615, -0.042, 0.01, -1.809, 4.679, -0.039, 0.01
 323631329, -2.116, 4.546, -0.046, 0.01, -1.963, 4.615, -0.042, 0.01
 323831249, -2.269, 4.472, -0.052, 0.01, -2.116, 4.546, -0.046, 0.01
 324031169, -2.42, 4.393, -0.059, 0.01, -2.269, 4.472, -0.052, 0.01
 324231089, -2.569, 4.309, -0.066, 0.01, -2.42, 4.393, -0.059, 0.01
 324431009, -2.714, 4.22, -0.072, 0.01, -2.569, 4.309, -0.066, 0.01
 324630929, -2.854, 4.127, -0.075, 0.01, -2.714, 4.22, -0.072, 0.01
 324830849, -2.991, 4.028, -0.08000001, 0.01, -2.854, 4.127, -0.075, 0.01
 325030769, -3.124, 3.925, -0.087, 0.01, -2.991, 4.028, -0.08000001, 0.01
 325230689, -3.255, 3.82, -0.093, 0.01, -3.124, 3.925, -0.087, 0.01
 325431442, -3.381, 3.71, -0.09900001, 0.01, -3.255, 3.82, -0.093, 0.01
 325631362, -3.5, 3.598, -0.102, 0.01, -3.381, 3.71, -0.09900001, 0.01
 325831282, -3.614, 3.483, -0.103, 0.01, -3.5, 3.598, -0.102, 0.01
 326031202, -3.726, 3.368, -0.104, 0.01, -3.614, 3.483, -0.103, 0.01
 326231122, -3.833, 3.246, -0.104, 0.01, -3.726, 3.368, -0.104, 0.01
 326431042, -3.937, 3.116, -0.104, 0.01, -3.833, 3.246, -0.104, 0.01
 326630962, -4.039, 2.982, -0.109, 0.01, -3.937, 3.116, -0.104, 0.01
 326830882, -4.138, 2.844, -0.114, 0.01, -4.039, 2.982, -0.109, 0.01
 327030802, -4.231, 2.705, -0.118, 0.01, -4.138, 2.844, -0.114, 0.01
 327230722, -4.317, 2.562, -0.12, 0.01, -4.231, 2.705, -0.118, 0.01
 327431475, -4.398, 2.415, -0.121, 0.01, -4.317, 2.562, -0.12, 0.01
 327631395, -4.473, 2.266, -0.122, 0.01, -4.398, 2.415, -0.121, 0.01
 327831315, -4.544, 2.116, -0.122, 0.01, -4.473, 2.266, -0.122, 0.01
 328031235, -4.614, 1.967, -0.123, 0.01, -4.544, 2.116, -0.122, 0.01
 328231155, -4.68, 1.813, -0.124, 0.01, -4.614, 1.967, -0.123, 0.01
 328431075, -4.738, 1.656, -0.125, 0.01, -4.68, 1.813, -0.124, 0.01
 328630995, -4.79, 1.499, -0.124, 0.01, -4.738, 1.656, -0.125, 0.01
 328830915, -4.836, 1.337, -0.124, 0.01, -4.79, 1.499, -0.124, 0.01
 329030835, -4.877, 1.172, -0.122, 0.01, -4.836, 1.337, -0.124, 0.01
 329230755, -4.914, 1.006, -0.12, 0.01, -4.877, 1.172, -0.122, 0.01
 329430675, -4.947, 0.8380001, -0.12, 0.01, -4.914, 1.006, -0.12, 0.01
 329631428, -4.974, 0.67, -0.12, 0.01, -4.947, 0.8380001, -0.12, 0.01
 329831348, -4.995, 0.504, -0.121, 0.01, -4.974, 0.67, -0.12, 0.01
 330031268, -5.01, 0.341, -0.121, 0.01, -4.995, 0.504, -0.121, 0.01
 330231188, -5.019, 0.181, -0.122, 0.01, -5.01, 0.341, -0.121, 0.01
 330431108, -5.022, 0.022, -0.126, 0.01, -5.019, 0.181, -0.122, 0.01
 330631028, -5.02, -0.142, -0.131, 0.01, -5.022, 0.022, -0.126, 0.01
 330830948, -5.011, -0.311, -0.135, 0.01, -5.02, -0.142, -0.131, 0.01
 331030868, -4.997, -0.483, -0.137, 0.01, -5.011, -0.311, -0.135, 0.01
 331230788, -4.977, -0.655, -0.136, 0.01, -4.997, -0.483, -0.137, 0.01
 331430708, -4.952, -0.8240001, -0.132, 0.01, -4.977, -0.655, -0.136, 0.01
 331631461, -4.923, -0.992, -0.129, 0.01, -4.952, -0.8240001, -0.132, 0.01
 331831381, -4.888, -1.159, -0.126, 0.01, -4.923, -0.992, -0.129, 0.01
 332031301, -4.848, -1.324, -0.125, 0.01, -4.888, -1.159, -0.126, 0.01
 332231221, -4.801, -1.489, -0.123, 0.01, -4.848, -1.324, -0.125, 0.01
 332431141, -4.749, -1.654, -0.122, 0.01, -4.801, -1.489, -0.123, 0.01
 332631061, -4.692, -1.814, -0.122, 0.01, -4.749, -1.654, -0.122, 0.01
 332830981, -4.631, -1.968, -0.122, 0.01, -4.692, -1.814, -0.122, 0.01
 333030901, -4.565, -2.117, -0.124, 0.01, -4.631, -1.968, -0.122, 0.01
 333230821, -4.494, -2.264, -0.128, 0.01, -4.565, -2.117, -0.124, 0.01
 333430741, -4.416, -2.409, -0.128, 0.01, -4.494, -2.264, -0.128, 0.01
 333630661, -4.332, -2.552, -0.126, 0.01, -4.416, -2.409, -0.128, 0.01
 333831414, -4.244, -2.693, -0.125, 0.01, -4.332, -2.552, -0.126, 0.01
 334031334, -4.152, -2.832, -0.124, 0.01, -4.244, -2.693, -0.125, 0.01
 334231254, -4.056, -2.97, -0.123, 0.01, -4.152, -2.832, -0.124, 0.01
 334431174, -3.955, -3.104, -0.12, 0.01, -4.056, -2.97, -0.123, 0.01
 334631094, -3.849, -3.231, -0.116, 0.01, -3.955, -3.104, -0.12, 0.01
 334831014, -3.738, -3.352, -0.11, 0.01, -3.849, -3.231, -0.116, 0.01
 335030934, -3.625, -3.469, -0.1, 0.01, -3.738, -3.352, -0.11, 0.01
 335230854, -3.509, -3.582, -0.089, 0.01, -3.625, -3.469, -0.1, 0.01
 335430774, -3.39, -3.694, -0.07700001, 0.01, -3.509, -3.582, -0.089, 0.01
 335630694, -3.266, -3.804, -0.067, 0.01, -3.39, -3.694, -0.07700001, 0.01
 335831447, -3.137, -3.915, -0.061, 0.01, -3.266, -3.804, -0.067, 0.01
 336031367, -3.004, -4.019, -0.054, 0.01, -3.137, -3.915, -0.061, 0.01
 336231287, -2.868, -4.116, -0.047, 0.01, -3.004, -4.019, -0.054, 0.01
 336431207, -2.73, -4.21, -0.041, 0.01, -2.868, -4.116, -0.047, 0.01
 336631127, -2.589, -4.298, -0.039, 0.01, -2.73, -4.21, -0.041, 0.01
 336831047, -2.446, -4.381, -0.037, 0.01, -2.589, -4.298, -0.039, 0.01
 337030967, -2.3, -4.458, -0.035, 0.01, -2.446, -4.381, -0.037, 0.01
 337230887, -2.15, -4.53, -0.033, 0.01, -2.3, -4.458, -0.035, 0.01
 337430807, -1.996, -4.6, -0.031, 0.01, -2.15, -4.53, -0.033, 0.01
 337630727, -1.839, -4.668, -0.026, 0.01, -1.996, -4.6, -0.031, 0.01
 337831480, -1.682, -4.73, -0.02, 0.01, -1.839, -4.668, -0.026, 0.01
 338031400, -1.523, -4.786, -0.015, 0.01, -1.682, -4.73, -0.02, 0.01
 338231320, -1.363, -4.837, -0.01, 0.01, -1.523, -4.786, -0.015, 0.01
 338431240, -1.2, -4.883, -0.007, 0.01, -1.363, -4.837, -0.01, 0.01
 338631160, -1.034, -4.92, -0.005, 0.01, -1.2, -4.883, -0.007, 0.01
 338831080, -0.869, -4.95, -0.005, 0.01, -1.034, -4.92, -0.005, 0.01
 339031000, -0.705, -4.975, -0.004, 0.01, -0.869, -4.95, -0.005, 0.01
 339230920, -0.541, -4.994, -0.004, 0.01, -0.705, -4.975, -0.004, 0.01
 339430840, -0.376, -5.01, -0.007, 0.01, -0.541, -4.994, -0.004, 0.01
 339630760, -0.211, -5.022, -0.012, 0.01, -0.376, -5.01, -0.007, 0.01
 339830680, -0.046, -5.028, -0.016, 0.01, -0.211, -5.022, -0.012, 0.01
 340031433, 0.119, -5.025, -0.018, 0.01, -0.046, -5.028, -0.016, 0.01
 340231353, 0.285, -5.017, -0.022, 0.01, 0.119, -5.025, -0.018, 0.01
 340431273, 0.451, -5.004, -0.023, 0.01, 0.285, -5.017, -0.022, 0.01
 340631193, 0.617, -4.984, -0.024, 0.01, 0.451, -5.004, -0.023, 0.01
 340831113, 0.7830001, -4.959, -0.022, 0.01, 0.617, -4.984, -0.024, 0.01
 341031033, 0.9480001, -4.928, -0.018, 0.01, 0.7830001, -4.959, -0.022, 0.01
 341230953, 1.112, -4.892, -0.013, 0.01, 0.9480001, -4.928, -0.018, 0.01
 341430873, 1.278, -4.851, -0.01, 0.01, 1.112, -4.892, -0.013, 0.01
 341630793, 1.443, -4.804, -0.008, 0.01, 1.278, -4.851, -0.01, 0.01
 341830713, 1.607, -4.752, -0.006, 0.01, 1.443, -4.804, -0.008, 0.01
 342031466, 1.767, -4.695, -0.005, 0.01, 1.607, -4.752, -0.006, 0.01
 342231386, 1.924, -4.635, -0.005, 0.01, 1.767, -4.695, -0.005, 0.01
 342431306, 2.078, -4.572, -0.006, 0.01, 1.924, -4.635, -0.005, 0.01
 342631226, 2.23, -4.503, -0.008, 0.01, 2.078, -4.572, -0.006, 0.01
 342831146, 2.379, -4.427, -0.009000001, 0.01, 2.23, -4.503, -0.008, 0.01
 343031066, 2.523, -4.345, -0.01, 0.01, 2.379, -4.427, -0.009000001, 0.01
 343230986, 2.663, -4.257, -0.009000001, 0.01, 2.523, -4.345, -0.01, 0.01
 343430906, 2.801, -4.163, -0.008, 0.01, 2.663, -4.257, -0.009000001, 0.01
 343630826, 2.936, -4.068, -0.007, 0.01, 2.801, -4.163, -0.008, 0.01
 343830746, 3.069, -3.971, -0.006, 0.01, 2.936, -4.068, -0.007, 0.01
 344030666, 3.199, -3.869, -0.006, 0.01, 3.069, -3.971, -0.006, 0.01
 344231419, 3.324, -3.761, -0.006, 0.01, 3.199, -3.869, -0.006, 0.01
 344431339, 3.448, -3.647, -0.005, 0.01, 3.324, -3.761, -0.006, 0.01
 344631259, 3.569, -3.528, -0.004, 0.01, 3.448, -3.647, -0.005, 0.01
 344831179, 3.685, -3.406, -0.002, 0.01, 3.569, -3.528, -0.004, 0.01
 345031099, 3.796, -3.279, 0.002, 0.01, 3.685, -3.406, -0.002, 0.01
 345231019, 3.902, -3.15, 0.007, 0.01, 3.796, -3.279, 0.002, 0.01
 345430939, 4.005, -3.018, 0.011, 0.01, 3.902, -3.15, 0.007, 0.01
 345630859, 4.105, -2.885, 0.014, 0.01, 4.005, -3.018, 0.011, 0.01
 345830779, 4.204, -2.751, 0.014, 0.01, 4.105, -2.885, 0.014, 0.01
 346030699, 4.296, -2.613, 0.014, 0.01, 4.204, -2.751, 0.014, 0.01
 346231452, 4.38, -2.467, 0.018, 0.01, 4.296, -2.613, 0.014, 0.01
 346431372, 4.457, -2.316, 0.025, 0.01, 4.38, -2.467, 0.018, 0.01
 346631292, 4.529, -2.163, 0.035, 0.01, 4.457, -2.316, 0.025, 0.01
 346831212, 4.598, -2.011, 0.046, 0.01, 4.529, -2.163, 0.035, 0.01
 347031132, 4.662, -1.861, 0.057, 0.01, 4.598, -2.011, 0.046, 0.01
 347231052, 4.722, -1.706, 0.067, 0.01, 4.662, -1.861, 0.057, 0.01
 347430972, 4.777, -1.549, 0.079, 0.01, 4.722, -1.706, 0.067, 0.01
 347630892, 4.825, -1.389, 0.09100001, 0.01, 4.777, -1.549, 0.079, 0.01
 347830812, 4.868, -1.231, 0.1, 0.01, 4.825, -1.389, 0.09100001, 0.01
 348030732, 4.908, -1.072, 0.109, 0.01, 4.868, -1.231, 0.1, 0.01
 348231485, 4.942, -0.914, 0.115, 0.01, 4.908, -1.072, 0.109, 0.01
 348431405, 4.972, -0.756, 0.119, 0.01, 4.942, -0.914, 0.115, 0.01
 348631325, 4.994, -0.5930001, 0.126, 0.01, 4.972, -0.756, 0.119, 0.01
 348831245, 5.008, -0.425, 0.135, 0.01, 4.994, -0.5930001, 0.126, 0.01
 349031165, 5.019, -0.256, 0.143, 0.01, 5.008, -0.425, 0.135, 0.01
 349231085, 5.026, -0.08800001, 0.15, 0.01, 5.019, -0.256, 0.143, 0.01
 349431005, 5.026, 0.07700001, 0.158, 0.01, 5.026, -0.08800001, 0.15, 0.01
 349630925, 5.019, 0.243, 0.166, 0.01, 5.026, 0.07700001, 0.158, 0.01
 349830845, 5.008, 0.412, 0.171, 0.01, 5.019, 0.243, 0.166, 0.01
 350030765, 4.991, 0.587, 0.175, 0.01, 5.008, 0.412, 0.171, 0.01
 350230685, 4.97, 0.7640001, 0.178, 0.01, 4.991, 0.587, 0.175, 0.01
 350431438, 4.943, 0.942, 0.178, 0.01, 4.97, 0.7640001, 0.178, 0.01
 350631358, 4.908, 1.117, 0.177, 0.01, 4.943, 0.942, 0.178, 0.01
 350831278, 4.866, 1.292, 0.176, 0.01, 4.908, 1.117, 0.177, 0.01
 351031198, 4.817, 1.464, 0.175, 0.01, 4.866, 1.292, 0.176, 0.01
 351231118, 4.764, 1.631, 0.175, 0.01, 4.817, 1.464, 0.175, 0.01
 351431038, 4.707, 1.789, 0.176, 0.01, 4.764, 1.631, 0.175, 0.01
 351630958, 4.65, 1.939, 0.175, 0.01, 4.707, 1.789, 0.176, 0.01
 351830878, 4.588, 2.085, 0.175, 0.01, 4.65, 1.939, 0.175, 0.01
 352030798, 4.522, 2.231, 0.176, 0.01, 4.588, 2.085, 0.175, 0.01
 352230718, 4.448, 2.375, 0.178, 0.01, 4.522, 2.231, 0.176, 0.01
 352431471, 4.37, 2.516, 0.179, 0.01, 4.448, 2.375, 0.178, 0.01
 352631391, 4.288, 2.654, 0.18, 0.01, 4.37, 2.516, 0.179, 0.01
 352831311, 4.202, 2.79, 0.179, 0.01, 4.288, 2.654, 0.18, 0.01
 353031231, 4.11, 2.923, 0.174, 0.01, 4.202, 2.79, 0.179, 0.01
 353231151, 4.012, 3.055, 0.169, 0.01, 4.11, 2.923, 0.174, 0.01
 353431071, 3.907, 3.184, 0.163, 0.01, 4.012, 3.055, 0.169, 0.01
 353630991, 3.796, 3.308, 0.161, 0.01, 3.907, 3.184, 0.163, 0.01
 353830911, 3.68, 3.43, 0.159, 0.01, 3.796, 3.308, 0.161, 0.01
 354030831, 3.561, 3.552, 0.153, 0.01, 3.68, 3.43, 0.159, 0.01
 354230751, 3.439, 3.673, 0.145, 0.01, 3.561, 3.552, 0.153, 0.01
 354430671, 3.313, 3.79, 0.137, 0.01, 3.439, 3.673, 0.145, 0.01
 354631424, 3.182, 3.899, 0.132, 0.01, 3.313, 3.79, 0.137, 0.01
 354831344, 3.047, 4.001, 0.129, 0.01, 3.182, 3.899, 0.132, 0.01
 355031264, 2.909, 4.099, 0.125, 0.01, 3.047, 4.001, 0.129, 0.01
 355231184, 2.77, 4.195, 0.12, 0.01, 2.909, 4.099, 0.125, 0.01
 355431104, 2.628, 4.285, 0.114, 0.01, 2.77, 4.195, 0.12, 0.01
 355631024, 2.483, 4.371, 0.109, 0.01, 2.628, 4.285, 0.114, 0.01
 355830944, 2.335, 4.451, 0.104, 0.01, 2.483, 4.371, 0.109, 0.01
 356030864, 2.185, 4.528, 0.097, 0.01, 2.335, 4.451, 0.104, 0.01
 356230784, 2.033, 4.6, 0.09100001, 0.01, 2.185, 4.528, 0.097, 0.01
 356430704, 1.879, 4.666, 0.087, 0.01, 2.033, 4.6, 0.09100001, 0.01
 356631457, 1.723, 4.725, 0.08400001, 0.01, 1.879, 4.666, 0.087, 0.01
 356831377, 1.566, 4.777, 0.081, 0.01, 1.723, 4.725, 0.08400001, 0.01
 357031297, 1.408, 4.824, 0.075, 0.01, 1.566, 4.777, 0.081, 0.01
 357231217, 1.25, 4.867, 0.071, 0.01, 1.408, 4.824, 0.075, 0.01
 357431137, 1.089, 4.905, 0.067, 0.01, 1.25, 4.867, 0.071, 0.01
 357631057, 0.9250001, 4.939, 0.061, 0.01, 1.089, 4.905, 0.067, 0.01
 357830977, 0.7600001, 4.968, 0.052, 0.01, 0.9250001, 4.939, 0.061, 0.01
 358030897, 0.592, 4.99, 0.043, 0.01, 0.7600001, 4.968, 0.052, 0.01
 358230817, 0.423, 5.006, 0.034, 0.01, 0.592, 4.99, 0.043, 0.01
 358430737, 0.254, 5.015, 0.026, 0.01, 0.423, 5.006, 0.034, 0.01
 358630657, 0.085, 5.019, 0.02, 0.01, 0.254, 5.015, 0.026, 0.01
 358831410, -0.082, 5.015, 0.018, 0.01, 0.085, 5.019, 0.02, 0.01
 359031330, -0.251, 5.007, 0.013, 0.01, -0.082, 5.015, 0.018, 0.01
 359231250, -0.419, 4.997, 0.008, 0.01, -0.251, 5.007, 0.013, 0.01
 359431170, -0.585, 4.983, 0.002, 0.01, -0.419, 4.997, 0.008, 0.01
 359631090, -0.7500001, 4.959, -0.001, 0.01, -0.585, 4.983, 0.002, 0.01
 359831010, -0.913, 4.929, -0.003, 0.01, -0.7500001, 4.959, -0.001, 0.01
 360030930, -1.077, 4.899, -0.01, 0.01, -0.913, 4.929, -0.003, 0.01
 360230850, -1.24, 4.862, -0.017, 0.01, -1.077, 4.899, -0.01, 0.01
 360430770, -1.4, 4.818, -0.021, 0.01, -1.24, 4.862, -0.017, 0.01
 360630690, -1.558, 4.772, -0.025, 0.01, -1.4, 4.818, -0.021, 0.01
 360831443, -1.715, 4.722, -0.03, 0.01, -1.558, 4.772, -0.025, 0.01
 361031363, -1.872, 4.664, -0.039, 0.01, -1.715, 4.722, -0.03, 0.01
 361231283, -2.027, 4.599, -0.046, 0.01, -1.872, 4.664, -0.039, 0.01
 361431203, -2.18, 4.53, -0.053, 0.01, -2.027, 4.599, -0.046, 0.01
 361631123, -2.33, 4.453, -0.062, 0.01, -2.18, 4.53, -0.053, 0.01
 361831043, -2.477, 4.37, -0.07, 0.01, -2.33, 4.453, -0.062, 0.01
 362030963, -2.623, 4.284, -0.07700001, 0.01, -2.477, 4.37, -0.07, 0.01
 362230883, -2.766, 4.194, -0.08000001, 0.01, -2.623, 4.284, -0.07700001, 0.01
 362430803, -2.906, 4.1, -0.081, 0.01, -2.766, 4.194, -0.08000001, 0.01
 362630723, -3.042, 4.002, -0.081, 0.01, -2.906, 4.1, -0.081, 0.01
 362831476, -3.174, 3.899, -0.082, 0.01, -3.042, 4.002, -0.081, 0.01
 363031396, -3.301, 3.792, -0.085, 0.01, -3.174, 3.899, -0.082, 0.01
 363231316, -3.423, 3.68, -0.09200001, 0.01, -3.301, 3.792, -0.085, 0.01
 363431236, -3.543, 3.564, -0.098, 0.01, -3.423, 3.68, -0.09200001, 0.01
 363631156, -3.659, 3.444, -0.104, 0.01, -3.543, 3.564, -0.098, 0.01
 363831076, -3.77, 3.32, -0.106, 0.01, -3.659, 3.444, -0.104, 0.01
 364030996, -3.877, 3.194, -0.108, 0.01, -3.77, 3.32, -0.106, 0.01
 364230916, -3.978, 3.063, -0.108, 0.01, -3.877, 3.194, -0.108, 0.01
 364430836, -4.076, 2.927, -0.106, 0.01, -3.978, 3.063, -0.108, 0.01
 364630756, -4.169, 2.79, -0.106, 0.01, -4.076, 2.927, -0.106, 0.01
 364830676, -4.259, 2.65, -0.105, 0.01, -4.169, 2.79, -0.106, 0.01
 365031429, -4.345, 2.508, -0.105, 0.01, -4.259, 2.65, -0.105, 0.01
 365231349, -4.428, 2.363, -0.111, 0.01, -4.345, 2.508, -0.105, 0.01
 365431269, -4.504, 2.214, -0.118, 0.01, -4.428, 2.363, -0.111, 0.01
 365631189, -4.574, 2.065, -0.126, 0.01, -4.504, 2.214, -0.118, 0.01
 365831109, -4.638, 1.915, -0.131, 0.01, -4.574, 2.065, -0.126, 0.01
 366031029, -4.696, 1.761, -0.134, 0.01, -4.638, 1.915, -0.131, 0.01
 366230949, -4.749, 1.605, -0.134, 0.01, -4.696, 1.761, -0.134, 0.01
 366430869, -4.799, 1.441, -0.132, 0.01, -4.749, 1.605, -0.134, 0.01
 366630789, -4.845, 1.275, -0.132, 0.01, -4.799, 1.441, -0.132, 0.01
 366830709, -4.885, 1.105, -0.131, 0.01, -4.845, 1.275, -0.132, 0.01
 367031462, -4.918, 0.936, -0.13, 0.01, -4.885, 1.105, -0.131, 0.01
 367231382, -4.945, 0.767, -0.128, 0.01, -4.918, 0.936, -0.13, 0.01
 367431302, -4.965, 0.6020001, -0.125, 0.01, -4.945, 0.767, -0.128, 0.01
 367631222, -4.982, 0.439, -0.122, 0.01, -4.965, 0.6020001, -0.125, 0.01
 367831142, -4.995, 0.278, -0.121, 0.01, -4.982, 0.439, -0.122, 0.01
 368031062, -5.003, 0.118, -0.123, 0.01, -4.995, 0.278, -0.121, 0.01
 368230982, -5.006, -0.046, -0.126, 0.01, -5.003, 0.118, -0.123, 0.01
 368430902, -5.002, -0.216, -0.127, 0.01, -5.006, -0.046, -0.126, 0.01
 368630822, -4.99, -0.387, -0.128, 0.01, -5.002, -0.216, -0.127, 0.01
 368830742, -4.972, -0.5560001, -0.128, 0.01, -4.99, -0.387, -0.128, 0.01
 369030662, -4.948, -0.724, -0.126, 0.01, -4.972, -0.5560001, -0.128, 0.01
 369231415, -4.92, -0.89, -0.126, 0.01, -4.948, -0.724, -0.126, 0.01
 369431335, -4.888, -1.055, -0.126, 0.01, -4.92, -0.89, -0.126, 0.01
 369631255, -4.85, -1.219, -0.127, 0.01, -4.888, -1.055, -0.126, 0.01
 369831175, -4.807, -1.381, -0.128, 0.01, -4.85, -1.219, -0.127, 0.01
 370031095, -4.757, -1.542, -0.129, 0.01, -4.807, -1.381, -0.128, 0.01
 370231015, -4.703, -1.701, -0.131, 0.01, -4.757, -1.542, -0.129, 0.01
 370430935, -4.644, -1.856, -0.132, 0.01, -4.703, -1.701, -0.131, 0.01
 370630855, -4.581, -2.005, -0.133, 0.01, -4.644, -1.856, -0.132, 0.01
 370830775, -4.516, -2.148, -0.133, 0.01, -4.581, -2.005, -0.133, 0.01
 371030695, -4.446, -2.287, -0.131, 0.01, -4.516, -2.148, -0.133, 0.01
 371231448, -4.37, -2.427, -0.13, 0.01, -4.446, -2.287, -0.131, 0.01
 371431368, -4.29, -2.567, -0.129, 0.01, -4.37, -2.427, -0.13, 0.01
 371631288, -4.203, -2.704, -0.13, 0.01, -4.29, -2.567, -0.129, 0.01
 371831208, -4.11, -2.841, -0.13, 0.01, -4.203, -2.704, -0.13, 0.01
 372031128, -4.011, -2.976, -0.128, 0.01, -4.11, -2.841, -0.13, 0.01
 372231048, -3.907, -3.106, -0.121, 0.01, -4.011, -2.976, -0.128, 0.01
 372430968, -3.8, -3.233, -0.113, 0.01, -3.907, -3.106, -0.121, 0.01
 372630888, -3.688, -3.356, -0.104, 0.01, -3.8, -3.233, -0.113, 0.01
 372830808, -3.572, -3.476, -0.094, 0.01, -3.688, -3.356, -0.104, 0.01
 373030728, -3.453, -3.592, -0.083, 0.01, -3.572, -3.476, -0.094, 0.01
 373231481, -3.331, -3.704, -0.075, 0.01, -3.453, -3.592, -0.083, 0.01
 373431401, -3.206, -3.811, -0.068, 0.01, -3.331, -3.704, -0.075, 0.01
 373631321, -3.079, -3.912, -0.058, 0.01, -3.206, -3.811, -0.068, 0.01
 373831241, -2.948, -4.01, -0.049, 0.01, -3.079, -3.912, -0.058, 0.01
 374031161, -2.814, -4.104, -0.042, 0.01, -2.948, -4.01, -0.049, 0.01
 374231081, -2.679, -4.195, -0.037, 0.01, -2.814, -4.104, -0.042, 0.01
 374431001, -2.533, -4.284, -0.03, 0.01, -2.679, -4.195, -0.037, 0.01
 374630921, -2.279, -4.304, -0.006, 0.01, -2.533, -4.284, -0.03, 0.01
 374830841, -1.904, -4.045, -0.005, 0.01, -2.279, -4.304, -0.006, 0.01
 375030761, -1.504, -3.517, 0.003, 0.01, -1.904, -4.045, -0.005, 0.01
 375230681, -1.14, -2.905, 0.013, 0.01, -1.504, -3.517, 0.003, 0.01
 375431434, -0.8060001, -2.324, 0.02, 0.01, -1.14, -2.905, 0.013, 0.01
 375631354, -0.455, -1.761, 0.027, 0.01, -0.8060001, -2.324, 0.02, 0.01
 375831274, -0.06900001, -1.178, 0.036, 0.01, -0.455, -1.761, 0.027, 0.01
 376031194, 0.343, -0.582, 0.043, 0.01, -0.06900001, -1.178, 0.036, 0.01
 376231114, 0.776, -0.001, 0.047, 0.01, 0.343, -0.582, 0.043, 0.01
 376431034, 1.232, 0.549, 0.05, 0.01, 0.776, -0.001, 0.047, 0.01
 376630954, 1.714, 1.072, 0.053, 0.01, 1.232, 0.549, 0.05, 0.01
 376830874, 2.213, 1.567, 0.052, 0.01, 1.714, 1.072, 0.053, 0.01
 377030794, 2.673, 1.992, 0.041, 0.01, 2.213, 1.567, 0.052, 0.01
 377230714, 3.05, 2.317, 0.026, 0.01, 2.673, 1.992, 0.041, 0.01
 377431467, 3.343, 2.556, 0.013, 0.01, 3.05, 2.317, 0.026, 0.01
 377631387, 3.539, 2.715, 0.001, 0.01, 3.343, 2.556, 0.013, 0.01
 377831307, 3.657, 2.813, -0.005, 0.01, 3.539, 2.715, 0.001, 0.01
 378031227, 3.747, 2.881, -0.007, 0.01, 3.657, 2.813, -0.005, 0.01
 378231147, 3.834, 2.932, -0.009000001, 0.01, 3.747, 2.881, -0.007, 0.01
 378431067, 3.912, 2.961, -0.013, 0.01, 3.834, 2.932, -0.009000001, 0.01
 378630987, 3.973, 2.966, -0.018, 0.01, 3.912, 2.961, -0.013, 0.01
 378830907, 4.021, 2.952, -0.021, 0.01, 3.973, 2.966, -0.018, 0.01
 379030827, 4.061, 2.927, -0.021, 0.01, 4.021, 2.952, -0.021, 0.01
 379230747, 4.096, 2.899, -0.022, 0.01, 4.061, 2.927, -0.021, 0.01
 379430667, 4.123, 2.87, -0.025, 0.01, 4.096, 2.899, -0.022, 0.01
 379631420, 4.141, 2.841, -0.027, 0.01, 4.123, 2.87, -0.025, 0.01
 379831340, 4.151, 2.816, -0.028, 0.01, 4.141, 2.841, -0.027, 0.01
 380031260, 4.154, 2.794, -0.025, 0.01, 4.151, 2.816, -0.028, 0.01
 380231180, 4.154, 2.778, -0.02, 0.01, 4.154, 2.794, -0.025, 0.01
 380431100, 4.153, 2.767, -0.014, 0.01, 4.154, 2.778, -0.02, 0.01
 380631020, 4.152, 2.758, -0.008, 0.01, 4.153, 2.767, -0.014, 0.01
 380830940, 4.153, 2.749, -0.002, 0.01, 4.152, 2.758, -0.008, 0.01
 381030860, 4.156, 2.743, 0, 0.01, 4.153, 2.749, -0.002, 0.01
 381230780, 4.157, 2.739, 0.001, 0.01, 4.156, 2.743, 0, 0.01
 381430700, 4.155, 2.736, 0.003, 0.01, 4.157, 2.739, 0.001, 0.01
 381631453, 4.151, 2.733, 0.005, 0.01, 4.155, 2.736, 0.003, 0.01
 381831373, 4.148, 2.733, 0.007, 0.01, 4.151, 2.733, 0.005, 0.01
 382031293, 4.145, 2.735, 0.006, 0.01, 4.148, 2.733, 0.007, 0.01
 382231213, 4.141, 2.737, 0.004, 0.01, 4.145, 2.735, 0.006, 0.01
 382431133, 4.136, 2.737, 0.002, 0.01, 4.141, 2.737, 0.004, 0.01
 382631053, 4.132, 2.737, 0.002, 0.01, 4.136, 2.737, 0.002, 0.01
 382830973, 4.105, 2.726, 0, 0.01, 4.132, 2.737, 0.002, 0.01
 383030893, 3.993, 2.659, -0.007, 0.01, 4.105, 2.726, 0, 0.01
 383230813, 3.742, 2.498, -0.013, 0.01, 3.993, 2.659, -0.007, 0.01
 383430733, 3.321, 2.226, -0.011, 0.01, 3.742, 2.498, -0.013, 0.01
 383631486, 2.771, 1.869, -0.001, 0.01, 3.321, 2.226, -0.011, 0.01
 383831406, 2.212, 1.503, 0.008, 0.01, 2.771, 1.869, -0.001, 0.01
 384031326, 1.716, 1.177, 0.016, 0.01, 2.212, 1.503, 0.008, 0.01
 384231246, 1.282, 0.8890001, 0.023, 0.01, 1.716, 1.177, 0.016, 0.01
 384431166, 0.8890001, 0.631, 0.029, 0.01, 1.282, 0.8890001, 0.023, 0.01
 384631086, 0.537, 0.401, 0.032, 0.01, 0.8890001, 0.631, 0.029, 0.01
 384831006, 0.243, 0.203, 0.032, 0.01, 0.537, 0.401, 0.032, 0.01
 385030926, 0.013, 0.042, 0.029, 0.01, 0.243, 0.203, 0.032, 0.01
 385230846, -0.157, -0.082, 0.026, 0.01, 0.013, 0.042, 0.029, 0.01
 385430766, -0.275, -0.171, 0.02, 0.01, -0.157, -0.082, 0.026, 0.01
 385630686, -0.35, -0.231, 0.014, 0.01, -0.275, -0.171, 0.02, 0.01
 385831439, -0.388, -0.266, 0.008, 0.01, -0.35, -0.231, 0.014, 0.01
 386031359, -0.395, -0.277, 0.002, 0.01, -0.388, -0.266, 0.008, 0.01
 386231279, -0.377, -0.272, -0.002, 0.01, -0.395, -0.277, 0.002, 0.01
 386431199, -0.34, -0.256, -0.006, 0.01, -0.377, -0.272, -0.002, 0.01
 386631119, -0.294, -0.231, -0.008, 0.01, -0.34, -0.256, -0.006, 0.01
 386831039, -0.244, -0.201, -0.009000001, 0.01, -0.294, -0.231, -0.008, 0.01
 387030959, -0.194, -0.168, -0.01, 0.01, -0.244, -0.201, -0.009000001, 0.01
 387230879, -0.146, -0.133, -0.009000001, 0.01, -0.194, -0.168, -0.01, 0.01
 387430799, -0.1, -0.101, -0.009000001, 0.01, -0.146, -0.133, -0.009000001, 0.01
 387630719, -0.058, -0.072, -0.008, 0.01, -0.1, -0.101, -0.009000001, 0.01
 387831472, -0.022, -0.047, -0.007, 0.01, -0.058, -0.072, -0.008, 0.01
 388031392, 0.008, -0.025, -0.006, 0.01, -0.022, -0.047, -0.007, 0.01
 388231312, 0.03, -0.008, -0.005, 0.01, 0.008, -0.025, -0.006, 0.01
 388431232, 0.045, 0.005, -0.005, 0.01, 0.03, -0.008, -0.005, 0.01
 388631152, 0.053, 0.015, -0.003, 0.01, 0.045, 0.005, -0.005, 0.01
 388831072, 0.055, 0.021, 0.016, 0.01, 0.053, 0.015, -0.003, 0.01
 389030992, 0.054, 0.024, 0.07, 0.01, 0.055, 0.021, 0.016, 0.01
 389230912, 0.051, 0.025, 0.168, 0.01, 0.054, 0.024, 0.07, 0.01
 389430832, 0.046, 0.025, 0.314, 0.01, 0.051, 0.025, 0.168, 0.01
 389630752, 0.04, 0.024, 0.507, 0.01, 0.046, 0.025, 0.314, 0.01
 389830672, 0.032, 0.021, 0.729, 0.01, 0.04, 0.024, 0.507, 0.01
 390031425, 0.025, 0.018, 0.96, 0.01, 0.032, 0.021, 0.729, 0.01
 390231345, 0.019, 0.016, 1.183, 0.01, 0.025, 0.018, 0.96, 0.01
 390431265, 0.012, 0.014, 1.371, 0.01, 0.019, 0.016, 1.183, 0.01
 390631185, 0.007, 0.011, 1.509, 0.01, 0.012, 0.014, 1.371, 0.01
 390831105, 0.002, 0.007, 1.595, 0.01, 0.007, 0.011, 1.509, 0.01
 391031025, -0.001, 0.004, 1.627, 0.01, 0.002, 0.007, 1.595, 0.01
 391230945, -0.003, 0.001, 1.615, 0.01, -0.001, 0.004, 1.627, 0.01
 391430865, -0.005, 0, 1.583, 0.01, -0.003, 0.001, 1.615, 0.01
 391630785, -0.006, -0.002, 1.547, 0.01, -0.005, 0, 1.583, 0.01
 391830705, -0.006, -0.003, 1.513, 0.01, -0.006, -0.002, 1.547, 0.01
 392031458, -0.005, -0.004, 1.484, 0.01, -0.006, -0.003, 1.513, 0.01
