TimeUS,COFN,COFE,COFD,CNe,CEe,CDe,POFN,POFE,POFD,PNe,PEe,PDe
 140033964, 0, 0, 0, 0, 0, 0, 0, 0, 0, 0, 0, 0
 140233884, 0, 0, 0, 0, 0, 0, 0, 0, 0, 0, 0, 0
 140433804, 0, 0, 0, 0, 0, 0, 0, 0, 0, 0, 0, 0
 140633724, 0, 0, 0, 0, 0, 0, 0, 0, 0, 0, 0, 0
 140833644, 0, 0, 0, 0, 0, 0, 0, 0, 0, 0, 0, 0
 141033564, 0, 0, 0, 0, 0, 0, 0, 0, 0, 0, 0, 0
 141233484, 0, 0, 0, 0, 0, 0, 0, 0, 0, 0, 0, 0
 141434237, 0, 0, 0, 0, 0, 0, 0, 0, 0, 0, 0, 0
 141634157, 0, 0, 0, 0, 0, 0, 0, 0, 0, 0, 0, 0
 141834077, 0, 0, 0, 0, 0, 0, 0, 0, 0, 0, 0, 0
 142033997, 0, 0, 0, 0, 0, 0, 0, 0, 0, 0, 0, 0
 142233917, 0, 0, 0, 0, 0, 0, 0, 0, 0, 0, 0, 0
 142433837, 0, 0, 0, 0, 0, 0, 0, 0, 0, 0, 0, 0
 142633757, 0, 0, 0, 0, 0, 0, 0, 0, 0, 0, 0, 0
 142833677, 0, 0, 0, 0, 0, 0, 0, 0, 0, 0, 0, 0
 143033597, 0, 0, 0, 0, 0, 0, 0, 0, 0, 0, 0, 0
 143233517, 0, 0, 0, 0, 0, 0, 0, 0, 0, 0, 0, 0
 143434270, 0, 0, 0, 0, 0, 0, 0, 0, 0, 0, 0, 0
 143634190, -0.0715434, 0.009882943, 0.006351996, 0.007324411, 0.002454585, -0.0005923937, 0, 0, 0, 0, 0, 0
 143834110, 0.5455862, -0.06078383, -0.1146122, 1.01657, -0.1077862, 0.9037288, -0.0715434, 0.009882943, 0.006351996, 0.007324411, 0.002454585, -0.0005923937
 144034030, 0.06088932, -0.009410022, -0.06697692, 0.1268856, -0.007461595, 0.9920932, 0.5455862, -0.06078383, -0.1146122, 1.01657, -0.1077862, 0.9037288
 144233950, 0.02503641, -0.005354486, -0.06336467, 0.1253242, -0.007158481, 0.9921454, 0.06088932, -0.009410022, -0.06697692, 0.1268856, -0.007461595, 0.9920932
 144433870, -0.007692256, -0.002034326, -0.06457599, 0.1279955, -0.009199061, 0.9917542, 0.02503641, -0.005354486, -0.06336467, 0.1253242, -0.007158481, 0.9921454
 144633790, -0.04639342, 0.002121376, -0.05449973, 0.1303118, -0.006544813, 0.9914667, -0.007692256, -0.002034326, -0.06457599, 0.1279955, -0.009199061, 0.9917542
 144833710, -0.08499426, 0.006787299, -0.04936229, 0.1316869, -0.001800712, 0.9913081, -0.04639342, 0.002121376, -0.05449973, 0.1303118, -0.006544813, 0.9914667
 145033630, -0.1328088, 0.01241558, -0.04307412, 0.1325186, -0.005705387, 0.991189, -0.08499426, 0.006787299, -0.04936229, 0.1316869, -0.001800712, 0.9913081
 145233550, -0.2125689, 0.02929143, -0.03669482, 0.1411766, -0.00771797, 0.9900146, -0.1328088, 0.01241558, -0.04307412, 0.1325186, -0.005705387, 0.991189
 145434303, -0.3969522, 0.04123333, -0.005292166, 0.1686461, -0.008284494, 0.98618, -0.2125689, 0.02929143, -0.03669482, 0.1411766, -0.00771797, 0.9900146
 145634223, -0.6203677, 0.06199037, 0.02514921, 0.2141418, -0.01593244, 0.9799059, -0.3969522, 0.04123333, -0.005292166, 0.1686461, -0.008284494, 0.98618
 145834143, -1.868258, 0.2171524, 0.2017703, 0.7519276, -0.07523076, 0.9042794, -0.6203677, 0.06199037, 0.02514921, 0.2141418, -0.01593244, 0.9799059
 146034063, 3.983195, -0.4557941, -0.6351694, 33.3009, -3.760648, -3.750644, -1.868258, 0.2171524, 0.2017703, 0.7519276, -0.07523076, 0.9042794
 146233983, 2.330717, -0.2648973, -0.3986871, 4.417876, -0.4912692, 0.3604518, 3.983195, -0.4557941, -0.6351694, 33.3009, -3.760648, -3.750644
 146433903, 1.640376, -0.1911195, -0.3241856, 1.512121, -0.161941, 0.7909184, 2.330717, -0.2648973, -0.3986871, 4.417876, -0.4912692, 0.3604518
 146633823, 1.067164, -0.1136215, -0.2143706, 0.6039113, -0.05952259, 0.9232945, 1.640376, -0.1911195, -0.3241856, 1.512121, -0.161941, 0.7909184
 146833743, 0.6228965, -0.07630403, -0.1505027, 0.2957129, -0.02054174, 0.9677709, 1.067164, -0.1136215, -0.2143706, 0.6039113, -0.05952259, 0.9232945
 147033663, 0.5120569, -0.05154611, -0.1335561, 0.245359, -0.01723552, 0.9751906, 0.6228965, -0.07630403, -0.1505027, 0.2957129, -0.02054174, 0.9677709
 147233583, 0.5482215, -0.05760022, -0.1314221, 0.2485029, -0.0161433, 0.975206, 0.5120569, -0.05154611, -0.1335561, 0.245359, -0.01723552, 0.9751906
 147433503, 0.4543517, -0.05427352, -0.1188984, 0.2086759, -0.003791504, 0.9814935, 0.5482215, -0.05760022, -0.1314221, 0.2485029, -0.0161433, 0.975206
 147634256, 0.5150124, -0.06014843, -0.1218892, 0.2133921, -0.002314269, 0.9817046, 0.4543517, -0.05427352, -0.1188984, 0.2086759, -0.003791504, 0.9814935
 147834176, 0.4353526, -0.04492623, -0.1102793, 0.1862642, 2.767565E-05, 0.9852808, 0.5150124, -0.06014843, -0.1218892, 0.2133921, -0.002314269, 0.9817046
 148034096, 0.400817, -0.03592648, -0.1030999, 0.1694157, -0.0005001668, 0.9876963, 0.4353526, -0.04492623, -0.1102793, 0.1862642, 2.767565E-05, 0.9852808
 148234016, 0.4253216, -0.04608236, -0.1016964, 0.1638286, -0.00123096, 0.9888903, 0.400817, -0.03592648, -0.1030999, 0.1694157, -0.0005001668, 0.9876963
 148433936, 0.4389766, -0.06517109, -0.06953563, 0.1576354, 7.311162E-05, 0.9899905, 0.4253216, -0.04608236, -0.1016964, 0.1638286, -0.00123096, 0.9888903
 148633856, 0.3730957, -0.04563621, -0.09694012, 0.1405956, 0.004644361, 0.9917481, 0.4389766, -0.06517109, -0.06953563, 0.1576354, 7.311162E-05, 0.9899905
 148833776, 0.3812502, -0.05735196, -0.0595518, 0.1332786, 0.004723397, 0.9927844, 0.3730957, -0.04563621, -0.09694012, 0.1405956, 0.004644361, 0.9917481
 149033696, 0.3861341, -0.02953627, -0.08644989, 0.1221613, -0.02674608, 0.9938869, 0.3812502, -0.05735196, -0.0595518, 0.1332786, 0.004723397, 0.9927844
 149233616, 0.3696991, -0.02879512, -0.1108094, 0.09143972, -0.1674493, 0.9832183, 0.3861341, -0.02953627, -0.08644989, 0.1221613, -0.02674608, 0.9938869
 149433536, 0.3827449, -0.05757798, -0.02417198, 0.08322042, -0.2138998, 0.9749787, 0.3696991, -0.02879512, -0.1108094, 0.09143972, -0.1674493, 0.9832183
 149634289, 0.3951413, -0.04412908, -0.05049066, 0.09104317, -0.1372996, 0.9880933, 0.3827449, -0.05757798, -0.02417198, 0.08322042, -0.2138998, 0.9749787
 149834209, 0.330841, -0.03876694, -0.04396686, 0.07819688, -0.08136515, 0.9948781, 0.3951413, -0.04412908, -0.05049066, 0.09104317, -0.1372996, 0.9880933
 150034129, 0.3479689, -0.03392075, -0.03918773, 0.06424908, -0.09941232, 0.994338, 0.330841, -0.03876694, -0.04396686, 0.07819688, -0.08136515, 0.9948781
 150234049, 0.3577495, -0.03130788, -0.03544378, 0.05299521, -0.1229827, 0.9924242, 0.3479689, -0.03392075, -0.03918773, 0.06424908, -0.09941232, 0.994338
 150433969, 0.3709663, -0.01422233, -0.001909707, 0.05263383, -0.1085904, 0.9942107, 0.3577495, -0.03130788, -0.03544378, 0.05299521, -0.1229827, 0.9924242
 150633889, 0.336694, -0.01113595, -0.03000801, 0.04393256, -0.08320437, 0.9968567, 0.3709663, -0.01422233, -0.001909707, 0.05263383, -0.1085904, 0.9942107
 150833809, 0.317503, -0.02208746, -0.01827878, 0.03351252, -0.06999849, 0.998167, 0.336694, -0.01113595, -0.03000801, 0.04393256, -0.08320437, 0.9968567
 151033729, 0.3088494, -0.0224308, 0.003660028, 0.02603277, -0.06888429, 0.998426, 0.317503, -0.02208746, -0.01827878, 0.03351252, -0.06999849, 0.998167
 151233649, 0.3559682, -0.008022934, 0.0099301, 0.01998659, -0.06834825, 0.9988718, 0.3088494, -0.0224308, 0.003660028, 0.02603277, -0.06888429, 0.998426
 151433569, 0.3524336, -0.01036223, 0.01211795, 0.01262307, -0.06178809, 0.9993966, 0.3559682, -0.008022934, 0.0099301, 0.01998659, -0.06834825, 0.9988718
 151633489, 0.3665212, -0.01392711, 0.01388764, 0.01040952, -0.05567037, 0.9998702, 0.3524336, -0.01036223, 0.01211795, 0.01262307, -0.06178809, 0.9993966
 151834242, 0.3420264, -0.01211854, 0.01378048, 0.005193654, -0.04861758, 1.000126, 0.3665212, -0.01392711, 0.01388764, 0.01040952, -0.05567037, 0.9998702
 152034162, 0.3454799, -0.007102019, 0.01531784, 0.002604358, -0.04435277, 1.000356, 0.3420264, -0.01211854, 0.01378048, 0.005193654, -0.04861758, 1.000126
 152234082, 0.3084303, -0.01076693, 0.01520446, -0.007557444, -0.03912549, 1.000346, 0.3454799, -0.007102019, 0.01531784, 0.002604358, -0.04435277, 1.000356
 152434002, 0.3086784, 0.002069863, 0.01807178, -0.01444508, -0.03379247, 1.000472, 0.3084303, -0.01076693, 0.01520446, -0.007557444, -0.03912549, 1.000346
 152633922, 0.3511872, -0.02653709, 0.02016625, -0.01219256, -0.03050327, 1.000832, 0.3086784, 0.002069863, 0.01807178, -0.01444508, -0.03379247, 1.000472
 152833842, 0.3587582, -0.0124356, 0.02394149, -0.01848415, -0.02646056, 1.000903, 0.3511872, -0.02653709, 0.02016625, -0.01219256, -0.03050327, 1.000832
 153033762, 0.3321508, -0.01474297, 0.02249713, -0.0232188, -0.02530045, 1.000674, 0.3587582, -0.0124356, 0.02394149, -0.01848415, -0.02646056, 1.000903
 153233682, 0.3607745, 0.004220278, 0.02581263, -0.02105818, -0.02312818, 1.000954, 0.3321508, -0.01474297, 0.02249713, -0.0232188, -0.02530045, 1.000674
 153433602, 0.3141296, 0.003841451, 0.0240506, -0.03180676, -0.02029496, 1.000464, 0.3607745, 0.004220278, 0.02581263, -0.02105818, -0.02312818, 1.000954
 153633522, 0.3312845, -0.03028819, 0.02534947, -0.03345976, -0.01694707, 1.00055, 0.3141296, 0.003841451, 0.0240506, -0.03180676, -0.02029496, 1.000464
 153834275, 0.3113901, -0.0003448147, 0.02614835, -0.04008029, -0.01371212, 1.000263, 0.3312845, -0.03028819, 0.02534947, -0.03345976, -0.01694707, 1.00055
 154034195, 0.3364321, -0.01119237, 0.02800907, -0.03742891, -0.01313884, 1.000503, 0.3113901, -0.0003448147, 0.02614835, -0.04008029, -0.01371212, 1.000263
 154234115, 0.3163845, -0.0277054, 0.02651014, -0.04199805, -0.01256812, 1.000207, 0.3364321, -0.01119237, 0.02800907, -0.03742891, -0.01313884, 1.000503
 154434035, 0.3672093, 0.001400669, 0.06261913, -0.0369789, -0.01010576, 1.000772, 0.3163845, -0.0277054, 0.02651014, -0.04199805, -0.01256812, 1.000207
 154633955, 0.3604287, -0.003301024, 0.06238704, -0.03922216, -0.005253933, 1.000675, 0.3672093, 0.001400669, 0.06261913, -0.0369789, -0.01010576, 1.000772
 154833875, 0.3106852, -0.02383115, 0.02730754, -0.04591002, -0.005129565, 1.000067, 0.3604287, -0.003301024, 0.06238704, -0.03922216, -0.005253933, 1.000675
 155033795, 0.3592212, -0.02527915, 0.03280266, -0.04277455, -0.003893387, 1.000501, 0.3106852, -0.02383115, 0.02730754, -0.04591002, -0.005129565, 1.000067
 155233715, 0.3095018, -0.01885355, 0.0598411, -0.05299332, -0.0009273943, 0.9997382, 0.3592212, -0.02527915, 0.03280266, -0.04277455, -0.003893387, 1.000501
 155433635, 0.3218201, -0.01052927, 0.06659028, -0.05237254, 0.002875701, 0.9998411, 0.3095018, -0.01885355, 0.0598411, -0.05299332, -0.0009273943, 0.9997382
 155633555, 0.338267, -0.01899338, 0.06334237, -0.05101955, 0.003209224, 1.000004, 0.3218201, -0.01052927, 0.06659028, -0.05237254, 0.002875701, 0.9998411
 155833475, 0.3582883, -0.01409132, 0.06487162, -0.04673235, 0.004525406, 1.000346, 0.338267, -0.01899338, 0.06334237, -0.05101955, 0.003209224, 1.000004
 156034228, 0.3526478, -0.01453202, 0.05881994, -0.04622387, 0.004319809, 1.000327, 0.3582883, -0.01409132, 0.06487162, -0.04673235, 0.004525406, 1.000346
 156234148, 0.3401715, -0.009552568, 0.03273904, -0.04872024, 0.004342069, 1.000112, 0.3526478, -0.01453202, 0.05881994, -0.04622387, 0.004319809, 1.000327
 156434068, 0.3246218, -0.008456988, 0.03169482, -0.05210174, 0.004997171, 0.9998415, 0.3401715, -0.009552568, 0.03273904, -0.04872024, 0.004342069, 1.000112
 156633988, 0.3619186, -0.01248787, 0.06515974, -0.04567387, 0.005496759, 1.000423, 0.3246218, -0.008456988, 0.03169482, -0.05210174, 0.004997171, 0.9998415
 156833908, 0.3571905, -0.00245066, 0.03451352, -0.04686959, 0.006168841, 1.000279, 0.3619186, -0.01248787, 0.06515974, -0.04567387, 0.005496759, 1.000423
 157033828, 0.3629292, -0.00459113, 0.06586311, -0.04676885, 0.005861552, 1.000386, 0.3571905, -0.00245066, 0.03451352, -0.04686959, 0.006168841, 1.000279
 157233748, 0.3781512, 0.005073362, 0.03738881, -0.04503104, 0.009332087, 1.000544, 0.3629292, -0.00459113, 0.06586311, -0.04676885, 0.005861552, 1.000386
 157433668, 0.3664603, -0.01977896, 0.03535743, -0.04495941, 0.008789156, 1.000449, 0.3781512, 0.005073362, 0.03738881, -0.04503104, 0.009332087, 1.000544
 157633588, 0.3311309, -0.01009892, 0.05681626, -0.04871912, 0.009356812, 1.000037, 0.3664603, -0.01977896, 0.03535743, -0.04495941, 0.008789156, 1.000449
 157833508, 0.3531283, 0.009838264, 0.06391376, -0.04488721, 0.01049573, 1.000374, 0.3311309, -0.01009892, 0.05681626, -0.04871912, 0.009356812, 1.000037
 158034261, 0.3964155, 0.0002473648, 0.06842245, -0.03913032, 0.01163047, 1.000967, 0.3531283, 0.009838264, 0.06391376, -0.04488721, 0.01049573, 1.000374
 158234181, 0.3823164, -0.007782003, 0.06128678, -0.03801701, 0.01223622, 0.9532936, 0.3964155, 0.0002473648, 0.06842245, -0.03913032, 0.01163047, 1.000967
 158434101, 0.3605123, 0.009107752, 0.035225, -0.04612024, 0.01358222, 1.000322, 0.3823164, -0.007782003, 0.06128678, -0.03801701, 0.01223622, 0.9532936
 158634021, 0.336222, 0.01128648, 0.03281906, -0.04954606, 0.01436334, 0.999972, 0.3605123, 0.009107752, 0.035225, -0.04612024, 0.01358222, 1.000322
 158833941, 0.3670503, -0.01249656, 0.03648988, -0.04683077, 0.01373836, 1.000335, 0.336222, 0.01128648, 0.03281906, -0.04954606, 0.01436334, 0.999972
 159033861, 0.4014437, -0.01719297, 0.03922782, -0.03940647, 0.01334095, 1.000975, 0.3670503, -0.01249656, 0.03648988, -0.04683077, 0.01373836, 1.000335
 159233781, 0.3992217, -0.001654454, 0.03925676, -0.04015255, 0.01378557, 1.00093, 0.4014437, -0.01719297, 0.03922782, -0.03940647, 0.01334095, 1.000975
 159433701, 0.3899639, -0.01569443, 0.06693912, -0.03740089, 0.01096162, 1.001008, 0.3992217, -0.001654454, 0.03925676, -0.04015255, 0.01378557, 1.00093
 159633621, 0.3596278, -0.009411919, 0.06373665, -0.04136653, 0.008996918, 1.000606, 0.3899639, -0.01569443, 0.06693912, -0.03740089, 0.01096162, 1.001008
 159833541, 0.3606672, 0.005706775, 0.03387178, -0.04171469, 0.00820766, 1.000593, 0.3596278, -0.009411919, 0.06373665, -0.04136653, 0.008996918, 1.000606
 160034294, 0.372505, -0.01466247, 0.003298301, -0.03646014, 0.01149375, 1.000831, 0.3606672, 0.005706775, 0.03387178, -0.04171469, 0.00820766, 1.000593
 160234214, 0.3609608, -0.01182837, 0.03259107, -0.03823854, 0.01524481, 1.000642, 0.372505, -0.01466247, 0.003298301, -0.03646014, 0.01149375, 1.000831
 160434134, 0.3490123, -0.001291727, 0.03175603, -0.04081429, 0.01507858, 1.000451, 0.3609608, -0.01182837, 0.03259107, -0.03823854, 0.01524481, 1.000642
 160634054, 0.3502422, -0.005208828, 0.03247489, -0.04254301, 0.007189113, 1.000474, 0.3490123, -0.001291727, 0.03175603, -0.04081429, 0.01507858, 1.000451
 160833974, 0.384003, -0.01009129, 0.03442597, -0.03423215, 0.004536767, 1.001092, 0.3502422, -0.005208828, 0.03247489, -0.04254301, 0.007189113, 1.000474
 161033894, 0.3957609, 0.004532106, 0.03632186, -0.03399691, 0.01036431, 1.001175, 0.384003, -0.01009129, 0.03442597, -0.03423215, 0.004536767, 1.001092
 161233814, 0.4050064, -0.0007670745, 0.03581341, -0.02924641, 0.01065797, 1.001409, 0.3957609, 0.004532106, 0.03632186, -0.03399691, 0.01036431, 1.001175
 161433734, 0.3737458, 0.002247504, 0.03206907, -0.03189147, 0.009053428, 1.001047, 0.4050064, -0.0007670745, 0.03581341, -0.02924641, 0.01065797, 1.001409
 161633654, 0.3593523, -0.01066876, 0.03082434, -0.03450962, 0.007633255, 1.000844, 0.3737458, 0.002247504, 0.03206907, -0.03189147, 0.009053428, 1.001047
 161833574, 0.4067016, -0.0191424, 0.03475645, -0.02645558, 0.009992929, 1.001496, 0.3593523, -0.01066876, 0.03082434, -0.03450962, 0.007633255, 1.000844
 162033494, 0.350569, 0.003501351, 0.02961313, -0.03436171, 0.01464999, 1.000707, 0.4067016, -0.0191424, 0.03475645, -0.02645558, 0.009992929, 1.001496
 162234247, 0.3948612, -0.00242402, 0.03396932, -0.02890068, 0.01407246, 1.001263, 0.350569, 0.003501351, 0.02961313, -0.03436171, 0.01464999, 1.000707
 162434167, 0.3887205, -0.007144038, 0.03342177, -0.03000495, 0.01245612, 1.001189, 0.3948612, -0.00242402, 0.03396932, -0.02890068, 0.01407246, 1.001263
 162634087, 0.4185811, -0.01389172, 0.03555449, -0.02408529, 0.009141757, 1.001679, 0.3887205, -0.007144038, 0.03342177, -0.03000495, 0.01245612, 1.001189
 162834007, 0.372056, -0.01185343, 0.03128019, -0.03091954, 0.01276598, 1.001005, 0.4185811, -0.01389172, 0.03555449, -0.02408529, 0.009141757, 1.001679
 163033927, 0.3653781, -0.01583639, 0.03136303, -0.03357843, 0.01855085, 1.00077, 0.372056, -0.01185343, 0.03128019, -0.03091954, 0.01276598, 1.001005
 163233847, 0.3917799, 0.0007418303, 0.03402282, -0.03044015, 0.01738086, 1.001128, 0.3653781, -0.01583639, 0.03136303, -0.03357843, 0.01855085, 1.00077
 163433767, 0.3618155, -0.01984539, 0.03078953, -0.03359798, 0.01530421, 1.000792, 0.3917799, 0.0007418303, 0.03402282, -0.03044015, 0.01738086, 1.001128
 163633687, 0.3782319, -0.004456705, 0.03179172, -0.03000521, 0.01218958, 1.00109, 0.3618155, -0.01984539, 0.03078953, -0.03359798, 0.01530421, 1.000792
 163833607, 0.4145317, 0.002261281, 0.03413074, -0.0222173, 0.0135241, 1.001622, 0.3782319, -0.004456705, 0.03179172, -0.03000521, 0.01218958, 1.00109
 164033527, 0.3853818, -0.01624907, 0.03158269, -0.02702632, 0.01085057, 1.001245, 0.4145317, 0.002261281, 0.03413074, -0.0222173, 0.0135241, 1.001622
 164234280, 0.3915861, -0.01474566, 0.03120659, -0.0238726, 0.009220897, 1.001396, 0.3853818, -0.01624907, 0.03158269, -0.02702632, 0.01085057, 1.001245
 164434200, 0.3707836, -0.007213955, 0.02990147, -0.02797531, 0.01203196, 1.001081, 0.3915861, -0.01474566, 0.03120659, -0.0238726, 0.009220897, 1.001396
 164634120, 0.356349, 0.005227259, -0.001980966, -0.02870569, 0.01512369, 1.000892, 0.3707836, -0.007213955, 0.02990147, -0.02797531, 0.01203196, 1.001081
 164834040, 0.396425, -0.008350194, 0.03093368, -0.02131318, 0.01555567, 1.001416, 0.356349, 0.005227259, -0.001980966, -0.02870569, 0.01512369, 1.000892
 165033960, 0.3742279, -0.009802276, -0.0003091078, -0.02684658, 0.01597302, 1.00106, 0.396425, -0.008350194, 0.03093368, -0.02131318, 0.01555567, 1.001416
 165233880, 0.3749986, 0.00441245, 0.02963056, -0.02573643, 0.01583928, 1.001123, 0.3742279, -0.009802276, -0.0003091078, -0.02684658, 0.01597302, 1.00106
 165433800, 0.3541558, -0.00217769, -0.001905253, -0.02993268, 0.01386732, 1.00085, 0.3749986, 0.00441245, 0.02963056, -0.02573643, 0.01583928, 1.001123
 165633720, 0.3831823, 0.002147828, 0.03054539, -0.02523212, 0.01286445, 1.001243, 0.3541558, -0.00217769, -0.001905253, -0.02993268, 0.01386732, 1.00085
 165833640, 0.343189, 0.003572081, 0.02709519, -0.03049162, 0.01365657, 1.000778, 0.3831823, 0.002147828, 0.03054539, -0.02523212, 0.01286445, 1.001243
 166033560, 0.347034, 0.003288473, 0.02674116, -0.02810176, 0.01343832, 1.000876, 0.343189, 0.003572081, 0.02709519, -0.03049162, 0.01365657, 1.000778
 166233480, 0.4035101, -0.01577677, 0.03132635, -0.02022482, 0.01363941, 1.001515, 0.347034, 0.003288473, 0.02674116, -0.02810176, 0.01343832, 1.000876
 166434233, 0.3604946, 0.003172673, 0.02733729, -0.02500889, 0.01461068, 1.001037, 0.4035101, -0.01577677, 0.03132635, -0.02022482, 0.01363941, 1.001515
 166634153, 0.3796965, 0.0008314262, -0.001261907, -0.02260405, 0.01334711, 1.001242, 0.3604946, 0.003172673, 0.02733729, -0.02500889, 0.01461068, 1.001037
 166834073, 0.3522891, -0.02097374, 0.02579216, -0.02395055, 0.01260339, 1.001018, 0.3796965, 0.0008314262, -0.001261907, -0.02260405, 0.01334711, 1.001242
 167033993, 0.3715854, 0.008118258, 0.02703988, -0.02027636, 0.01471218, 1.00123, 0.3522891, -0.02097374, 0.02579216, -0.02395055, 0.01260339, 1.001018
 167233913, 0.3763488, -0.0161186, 0.02821501, -0.02197877, 0.01360006, 1.001236, 0.3715854, 0.008118258, 0.02703988, -0.02027636, 0.01471218, 1.00123
 167433833, 0.3786846, -0.003959791, 0.02793702, -0.02095156, 0.01109844, 1.001276, 0.3763488, -0.0161186, 0.02821501, -0.02197877, 0.01360006, 1.001236
 167633753, 0.3821737, -0.02050023, 0.02763813, -0.01869891, 0.009255422, 1.001399, 0.3786846, -0.003959791, 0.02793702, -0.02095156, 0.01109844, 1.001276
 167833673, 0.3589035, -0.01664665, 0.02608728, -0.02256174, 0.00924324, 1.001137, 0.3821737, -0.02050023, 0.02763813, -0.01869891, 0.009255422, 1.001399
 168033593, 0.4118927, -0.01335232, 0.03006957, -0.01446091, 0.008781975, 1.001746, 0.3589035, -0.01664665, 0.02608728, -0.02256174, 0.00924324, 1.001137
 168233513, 0.3596536, 0.005769462, 0.02589286, -0.02126847, 0.01267747, 1.001145, 0.4118927, -0.01335232, 0.03006957, -0.01446091, 0.008781975, 1.001746
 168434266, 0.4014247, 0.004386323, 0.02814955, -0.0129963, 0.01491157, 1.001603, 0.3596536, 0.005769462, 0.02589286, -0.02126847, 0.01267747, 1.001145
 168634186, 0.3921531, -0.004222824, 0.02792175, -0.01558797, 0.01587795, 1.001463, 0.4014247, 0.004386323, 0.02814955, -0.0129963, 0.01491157, 1.001603
 168834106, 0.3849864, -0.01980065, 0.02793193, -0.01836199, 0.01141883, 1.001408, 0.3921531, -0.004222824, 0.02792175, -0.01558797, 0.01587795, 1.001463
 169034026, 0.3561073, 0.01368679, 0.02505116, -0.02000334, 0.01213281, 1.001156, 0.3849864, -0.01980065, 0.02793193, -0.01836199, 0.01141883, 1.001408
 169233946, 0.4163286, 0.01318512, 0.02873642, -0.009341855, 0.01402441, 1.001805, 0.3561073, 0.01368679, 0.02505116, -0.02000334, 0.01213281, 1.001156
 169433866, 0.3931442, -0.01120704, 0.02849491, -0.01681831, 0.01384459, 1.001479, 0.4163286, 0.01318512, 0.02873642, -0.009341855, 0.01402441, 1.001805
 169633786, 0.3557156, 0.0004419596, 0.0266881, -0.0249296, 0.01383872, 1.001014, 0.3931442, -0.01120704, 0.02849491, -0.01681831, 0.01384459, 1.001479
 169833706, 0.3995785, -0.008041058, 0.02913023, -0.01621384, 0.009674442, 1.001599, 0.3557156, 0.0004419596, 0.0266881, -0.0249296, 0.01383872, 1.001014
 170033626, 0.3533314, 0.01460812, 0.02452934, -0.01934562, 0.009351079, 1.00118, 0.3995785, -0.008041058, 0.02913023, -0.01621384, 0.009674442, 1.001599
 170233546, 0.3776543, -0.005119021, 0.02621909, -0.01615094, 0.01045556, 1.001402, 0.3533314, 0.01460812, 0.02452934, -0.01934562, 0.009351079, 1.00118
 170434299, 0.3690681, 0.002471743, 0.02610179, -0.0185926, 0.009967278, 1.001301, 0.3776543, -0.005119021, 0.02621909, -0.01615094, 0.01045556, 1.001402
 170634219, 0.3589937, 0.002399818, 0.02613185, -0.0221258, 0.01059908, 1.001146, 0.3690681, 0.002471743, 0.02610179, -0.0185926, 0.009967278, 1.001301
 170834139, 0.4217103, -0.0126422, 0.03092799, -0.01272756, 0.01353945, 1.001828, 0.3589937, 0.002399818, 0.02613185, -0.0221258, 0.01059908, 1.001146
 171034059, 0.3644028, -0.01148628, 0.0561603, -0.01983031, 0.0142334, 1.001203, 0.4217103, -0.0126422, 0.03092799, -0.01272756, 0.01353945, 1.001828
 171233979, 0.3762572, -0.009166395, 0.02593846, -0.01574138, 0.01223872, 1.001382, 0.3644028, -0.01148628, 0.0561603, -0.01983031, 0.0142334, 1.001203
 171433899, 0.3882172, 0.01315494, 0.0270675, -0.01422039, 0.01179117, 1.001527, 0.3762572, -0.009166395, 0.02593846, -0.01574138, 0.01223872, 1.001382
 171633819, 0.3700365, 0.00631168, 0.02555786, -0.01649762, 0.01178521, 1.001336, 0.3882172, 0.01315494, 0.0270675, -0.01422039, 0.01179117, 1.001527
 171833739, 0.3898095, -0.005004224, 0.0277985, -0.01576386, 0.01229678, 1.001505, 0.3700365, 0.00631168, 0.02555786, -0.01649762, 0.01178521, 1.001336
 172033659, 0.3670146, -0.01402028, 0.02581527, -0.01857826, 0.0107128, 1.001278, 0.3898095, -0.005004224, 0.0277985, -0.01576386, 0.01229678, 1.001505
 172233579, 0.3754496, -0.008003117, 0.02623149, -0.01653909, 0.01320653, 1.001358, 0.3670146, -0.01402028, 0.02581527, -0.01857826, 0.0107128, 1.001278
 172433499, 0.4277881, 0.002867804, 0.02956451, -0.006847411, 0.01324899, 1.001985, 0.3754496, -0.008003117, 0.02623149, -0.01653909, 0.01320653, 1.001358
 172634252, 0.4070852, 0.0008503, 0.05778612, -0.009026617, 0.01054242, 1.001806, 0.4277881, 0.002867804, 0.02956451, -0.006847411, 0.01324899, 1.001985
 172834172, 0.392623, 0.006979568, 0.02623112, -0.01038184, 0.01232548, 1.001617, 0.4070852, 0.0008503, 0.05778612, -0.009026617, 0.01054242, 1.001806
 173034092, 0.4110424, -0.009282996, 0.02723303, -0.006902799, 0.01430319, 1.001793, 0.392623, 0.006979568, 0.02623112, -0.01038184, 0.01232548, 1.001617
 173234012, 0.3651891, -0.01550245, 0.02481688, -0.01619803, 0.01250621, 1.00129, 0.4110424, -0.009282996, 0.02723303, -0.006902799, 0.01430319, 1.001793
 173433932, 0.3689105, -0.01490142, 0.02500842, -0.01545378, 0.01162799, 1.001344, 0.3651891, -0.01550245, 0.02481688, -0.01619803, 0.01250621, 1.00129
 173633852, 0.405624, 0.01008278, 0.02738068, -0.008806854, 0.01341734, 1.001751, 0.3689105, -0.01490142, 0.02500842, -0.01545378, 0.01162799, 1.001344
 173833772, 0.4039281, 0.004795125, 0.02671237, -0.007828288, 0.01244605, 1.001749, 0.405624, 0.01008278, 0.02738068, -0.008806854, 0.01341734, 1.001751
 174033692, 0.3777939, 0.01550959, -0.0006295461, -0.0109011, 0.0144764, 1.001441, 0.4039281, 0.004795125, 0.02671237, -0.007828288, 0.01244605, 1.001749
 174233612, 0.4247058, -0.00351631, 0.02789759, -0.00401007, 0.01435616, 1.001951, 0.3777939, 0.01550959, -0.0006295461, -0.0109011, 0.0144764, 1.001441
 174433532, 0.389733, -0.001463263, 0.02580779, -0.0105518, 0.01497677, 1.001544, 0.4247058, -0.00351631, 0.02789759, -0.00401007, 0.01435616, 1.001951
 174634285, 0.4145197, 0.003439145, 0.02694251, -0.005215283, 0.01536072, 1.001819, 0.389733, -0.001463263, 0.02580779, -0.0105518, 0.01497677, 1.001544
 174834205, 0.4117129, -0.005199931, 0.02718731, -0.003648415, 0.01741505, 0.9542261, 0.4145197, 0.003439145, 0.02694251, -0.005215283, 0.01536072, 1.001819
 175034125, 0.3524199, -0.01591475, 0.02358878, -0.01727594, 0.01641668, 1.001108, 0.4117129, -0.005199931, 0.02718731, -0.003648415, 0.01741505, 0.9542261
 175234045, 0.4101406, -0.01717117, 0.02821309, -0.009871691, 0.01892979, 1.001661, 0.3524199, -0.01591475, 0.02358878, -0.01727594, 0.01641668, 1.001108
 175433965, 0.3976802, 0.000939518, 0.02735617, -0.01203706, 0.01813982, 1.00154, 0.4101406, -0.01717117, 0.02821309, -0.009871691, 0.01892979, 1.001661
 175633885, 0.3953535, -0.003019104, 0.02714824, -0.01233213, 0.01860834, 1.001502, 0.3976802, 0.000939518, 0.02735617, -0.01203706, 0.01813982, 1.00154
 175833805, 0.402401, -0.0176932, 0.0266316, -0.008720975, 0.01862562, 1.001596, 0.3953535, -0.003019104, 0.02714824, -0.01233213, 0.01860834, 1.001502
 176033725, 0.4107848, 0.008314511, 0.02750451, -0.008200478, 0.01854291, 1.001694, 0.402401, -0.0176932, 0.0266316, -0.008720975, 0.01862562, 1.001596
 176233645, 0.3677271, 0.01399156, 0.0249442, -0.01597772, 0.01894952, 1.001214, 0.4107848, 0.008314511, 0.02750451, -0.008200478, 0.01854291, 1.001694
 176433565, 0.3992458, 0.01603558, 0.02582754, -0.007905409, 0.01878664, 1.001583, 0.3677271, 0.01399156, 0.0249442, -0.01597772, 0.01894952, 1.001214
 176633485, 0.3883256, 0.01013645, 0.02442376, -0.007939264, 0.01907803, 1.001472, 0.3992458, 0.01603558, 0.02582754, -0.007905409, 0.01878664, 1.001583
 176834238, 0.370892, 0.007303204, 0.02304607, -0.009849045, 0.01468699, 1.001381, 0.3883256, 0.01013645, 0.02442376, -0.007939264, 0.01907803, 1.001472
 177034158, 0.3707419, 0.006339314, 0.02360069, -0.01142533, 0.01234028, 1.001393, 0.370892, 0.007303204, 0.02304607, -0.009849045, 0.01468699, 1.001381
 177234078, 0.4174137, -0.0002518166, 0.02755237, -0.006424628, 0.01234239, 1.00185, 0.3707419, 0.006339314, 0.02360069, -0.01142533, 0.01234028, 1.001393
 177433998, 0.3805549, -0.001778266, 0.02594397, -0.0145927, 0.01337291, 1.001412, 0.4174137, -0.0002518166, 0.02755237, -0.006424628, 0.01234239, 1.00185
 177633918, 0.4105864, -0.01394441, 0.02785414, -0.009575274, 0.013671, 1.001732, 0.3805549, -0.001778266, 0.02594397, -0.0145927, 0.01337291, 1.001412
 177833838, 0.4004287, -0.002669051, 0.0270836, -0.01159429, 0.01400806, 1.001573, 0.4105864, -0.01394441, 0.02785414, -0.009575274, 0.013671, 1.001732
 178033758, 0.3735982, -0.01600318, 0.02424831, -0.0126094, 0.01378405, 1.001368, 0.4004287, -0.002669051, 0.0270836, -0.01159429, 0.01400806, 1.001573
 178233678, 0.3558233, 0.000179465, 0.02203848, -0.012102, 0.01368818, 1.001248, 0.3735982, -0.01600318, 0.02424831, -0.0126094, 0.01378405, 1.001368
 178433598, 0.3462422, 0.01112796, 0.02198061, -0.01490564, 0.01398168, 1.001145, 0.3558233, 0.000179465, 0.02203848, -0.012102, 0.01368818, 1.001248
 178633518, 0.4011877, 0.002766637, 0.02598385, -0.008002117, 0.01278932, 1.001671, 0.3462422, 0.01112796, 0.02198061, -0.01490564, 0.01398168, 1.001145
 178834271, 0.3757075, -0.002617506, 0.02474707, -0.01321257, 0.01069695, 1.001419, 0.4011877, 0.002766637, 0.02598385, -0.008002117, 0.01278932, 1.001671
 179034191, 0.3474405, 0.01745764, 0.02312154, -0.01754497, 0.009907397, 1.001163, 0.3757075, -0.002617506, 0.02474707, -0.01321257, 0.01069695, 1.001419
 179234111, 0.3525672, 0.01779444, 0.0237983, -0.01786745, 0.01149418, 1.001176, 0.3474405, 0.01745764, 0.02312154, -0.01754497, 0.009907397, 1.001163
 179434031, 0.3631911, 0.005600861, 0.02403362, -0.0152587, 0.007769851, 1.001323, 0.3525672, 0.01779444, 0.0237983, -0.01786745, 0.01149418, 1.001176
 179633951, 0.3967878, 0.01487634, 0.02587948, -0.008948676, 0.008056652, 1.001675, 0.3631911, 0.005600861, 0.02403362, -0.0152587, 0.007769851, 1.001323
 179833871, 0.3518447, -0.01314068, 0.02275097, -0.01580076, 0.01386727, 1.001155, 0.3967878, 0.01487634, 0.02587948, -0.008948676, 0.008056652, 1.001675
 180033791, 0.3848258, -0.0008508151, 0.02427059, -0.009170186, 0.01490368, 1.00148, 0.3518447, -0.01314068, 0.02275097, -0.01580076, 0.01386727, 1.001155
 180233711, 0.3562339, -0.007997168, 0.02207223, -0.01259908, 0.008761708, 1.00129, 0.3848258, -0.0008508151, 0.02427059, -0.009170186, 0.01490368, 1.00148
 180433631, 0.3820831, -0.02110449, -0.004041303, -0.007355481, 0.144422, 0.9910977, 0.3562339, -0.007997168, 0.02207223, -0.01259908, 0.008761708, 1.00129
 180633551, 0.2370464, -0.445583, -0.2891585, 0.0231177, 0.7717899, 0.6367322, 0.3820831, -0.02110449, -0.004041303, -0.007355481, 0.144422, 0.9910977
 180834304, 0.03771309, -0.5106277, -0.166295, 0.1307396, 0.9542173, 0.2709696, 0.2370464, -0.445583, -0.2891585, 0.0231177, 0.7717899, 0.6367322
 181034224, -0.03585714, -0.4860744, -0.259425, 0.3687491, 0.8127671, 0.4523971, 0.03771309, -0.5106277, -0.166295, 0.1307396, 0.9542173, 0.2709696
 181234144, -0.03238934, -0.4336029, -0.3801406, 0.4744688, 0.6136167, 0.6324429, -0.03585714, -0.4860744, -0.259425, 0.3687491, 0.8127671, 0.4523971
 181434064, -0.0477241, -0.4195744, -0.3900291, 0.4836278, 0.574913, 0.6611872, -0.03238934, -0.4336029, -0.3801406, 0.4744688, 0.6136167, 0.6324429
 181633984, -0.08192907, -0.4263336, -0.3591966, 0.4913012, 0.6071739, 0.6255981, -0.0477241, -0.4195744, -0.3900291, 0.4836278, 0.574913, 0.6611872
 181833904, -0.0831756, -0.4470562, -0.3436295, 0.5160804, 0.6124731, 0.6000391, -0.08192907, -0.4263336, -0.3591966, 0.4913012, 0.6071739, 0.6255981
 182033824, -0.1163563, -0.4548809, -0.3216524, 0.5431811, 0.5862277, 0.6022924, -0.0831756, -0.4470562, -0.3436295, 0.5160804, 0.6124731, 0.6000391
 182233744, -0.131709, -0.4202341, -0.3536109, 0.5671172, 0.5541357, 0.6105341, -0.1163563, -0.4548809, -0.3216524, 0.5431811, 0.5862277, 0.6022924
 182433664, -0.158267, -0.4144128, -0.3464706, 0.5872232, 0.5217275, 0.619974, -0.131709, -0.4202341, -0.3536109, 0.5671172, 0.5541357, 0.6105341
 182633584, -0.1787203, -0.4134112, -0.3397106, 0.6069427, 0.4900964, 0.6267624, -0.158267, -0.4144128, -0.3464706, 0.5872232, 0.5217275, 0.619974
 182833504, -0.1809068, -0.4182655, -0.3449003, 0.6256286, 0.4575157, 0.6330809, -0.1787203, -0.4134112, -0.3397106, 0.6069427, 0.4900964, 0.6267624
 183034257, -0.201249, -0.4197538, -0.3367386, 0.6417809, 0.4242128, 0.6400897, -0.1809068, -0.4182655, -0.3449003, 0.6256286, 0.4575157, 0.6330809
 183234177, -0.213959, -0.4031721, -0.3464003, 0.6540822, 0.3933547, 0.6472951, -0.201249, -0.4197538, -0.3367386, 0.6417809, 0.4242128, 0.6400897
 183434097, -0.2345213, -0.3866867, -0.347398, 0.6616625, 0.3598871, 0.6589216, -0.213959, -0.4031721, -0.3464003, 0.6540822, 0.3933547, 0.6472951
 183634017, -0.2461991, -0.3783592, -0.3509469, 0.6671613, 0.3261143, 0.6708649, -0.2345213, -0.3866867, -0.347398, 0.6616625, 0.3598871, 0.6589216
 183833937, -0.239495, -0.358812, -0.3756032, 0.6720541, 0.2956963, 0.6800417, -0.2461991, -0.3783592, -0.3509469, 0.6671613, 0.3261143, 0.6708649
 184033857, -0.2586863, -0.3526387, -0.3691956, 0.6721669, 0.2637171, 0.6929536, -0.239495, -0.358812, -0.3756032, 0.6720541, 0.2956963, 0.6800417
 184233777, -0.2737761, -0.3398033, -0.3686341, 0.6705856, 0.234117, 0.7049948, -0.2586863, -0.3526387, -0.3691956, 0.6721669, 0.2637171, 0.6929536
 184433697, -0.2563988, -0.3565786, -0.3868486, 0.6662559, 0.2005778, 0.7194673, -0.2737761, -0.3398033, -0.3686341, 0.6705856, 0.234117, 0.7049948
 184633617, -0.2795166, -0.3195189, -0.3850699, 0.65418, 0.1757705, 0.7366823, -0.2563988, -0.3565786, -0.3868486, 0.6662559, 0.2005778, 0.7194673
 184833537, -0.2809155, -0.3407634, -0.3844146, 0.6430115, 0.1507967, 0.7520216, -0.2795166, -0.3195189, -0.3850699, 0.65418, 0.1757705, 0.7366823
 185034290, -0.2580238, -0.3603468, -0.4048445, 0.6274719, 0.1245188, 0.7699351, -0.2809155, -0.3407634, -0.3844146, 0.6430115, 0.1507967, 0.7520216
 185234210, -0.2614243, -0.323751, -0.4154157, 0.6114864, 0.1053651, 0.7853619, -0.2580238, -0.3603468, -0.4048445, 0.6274719, 0.1245188, 0.7699351
 185434130, -0.2544774, -0.3590892, -0.4187538, 0.5920177, 0.0848982, 0.8027905, -0.2614243, -0.323751, -0.4154157, 0.6114864, 0.1053651, 0.7853619
 185634050, -0.269267, -0.3405016, -0.4167872, 0.565232, 0.0682215, 0.8233435, -0.2544774, -0.3590892, -0.4187538, 0.5920177, 0.0848982, 0.8027905
 185833970, -0.2658451, -0.361903, -0.420454, 0.537392, 0.05331091, 0.8430052, -0.269267, -0.3405016, -0.4167872, 0.565232, 0.0682215, 0.8233435
 186033890, -0.2641088, -0.372719, -0.4253393, 0.5101189, 0.03869153, 0.8606703, -0.2658451, -0.361903, -0.420454, 0.537392, 0.05331091, 0.8430052
 186233810, -0.2329643, -0.3559617, -0.4480982, 0.4797124, 0.02919999, 0.8782897, -0.2641088, -0.372719, -0.4253393, 0.5101189, 0.03869153, 0.8606703
 186433730, -0.2385847, -0.3954615, -0.4446345, 0.4440742, 0.01819203, 0.8974007, -0.2329643, -0.3559617, -0.4480982, 0.4797124, 0.02919999, 0.8782897
 186633650, 0.01324891, -0.3180806, 0.08215499, 0.4091792, 0.01831562, 0.9135902, -0.2385847, -0.3954615, -0.4446345, 0.4440742, 0.01819203, 0.8974007
 186833570, 0.01140906, -0.3603421, 0.08361489, 0.3768795, 0.00848072, 0.9278166, 0.01324891, -0.3180806, 0.08215499, 0.4091792, 0.01831562, 0.9135902
 187033490, -0.01374593, -0.3588104, 0.05913597, 0.3424926, 0.006669, 0.9410522, 0.01140906, -0.3603421, 0.08361489, 0.3768795, 0.00848072, 0.9278166
 187234243, -0.03125199, -0.3501416, 0.06354653, 0.3030414, 0.009739149, 0.9544119, -0.01374593, -0.3588104, 0.05913597, 0.3424926, 0.006669, 0.9410522
 187434163, -0.02847412, -0.3629636, 0.06295876, 0.2695078, 0.01016583, 0.9645249, -0.03125199, -0.3501416, 0.06354653, 0.3030414, 0.009739149, 0.9544119
 187634083, -0.04361013, -0.3861763, 0.06711876, 0.2333326, 0.007582705, 0.9741666, -0.02847412, -0.3629636, 0.06295876, 0.2695078, 0.01016583, 0.9645249
 187834003, -0.05442903, -0.3609095, 0.0664591, 0.1993915, 0.01346921, 0.9814087, -0.04361013, -0.3861763, 0.06711876, 0.2333326, 0.007582705, 0.9741666
 188033923, -0.07686778, -0.3696356, 0.04094731, 0.1687729, 0.01867731, 0.9871426, -0.05442903, -0.3609095, 0.0664591, 0.1993915, 0.01346921, 0.9814087
 188233843, -0.0725122, -0.4041416, 0.07309397, 0.1496721, 0.01587217, 0.990609, -0.07686778, -0.3696356, 0.04094731, 0.1687729, 0.01867731, 0.9871426
 188433763, -0.06654902, -0.4058175, 0.07020785, 0.1172187, 0.01544148, 0.9950547, -0.0725122, -0.4041416, 0.07309397, 0.1496721, 0.01587217, 0.990609
 188633683, -0.08952004, -0.4156236, 0.04177995, 0.08664706, 0.01608983, 0.9983135, -0.06654902, -0.4058175, 0.07020785, 0.1172187, 0.01544148, 0.9950547
 188833603, -0.07249109, -0.3765626, 0.03575337, 0.06282464, 0.02474755, 0.9994681, -0.08952004, -0.4156236, 0.04177995, 0.08664706, 0.01608983, 0.9983135
 189033523, -0.07779602, -0.3663505, 0.03346835, 0.03811976, 0.02675275, 1.00058, -0.07249109, -0.3765626, 0.03575337, 0.06282464, 0.02474755, 0.9994681
 189234276, -0.08997129, -0.4401004, 0.03904247, 0.01199955, 0.01482866, 1.002397, -0.07779602, -0.3663505, 0.03346835, 0.03811976, 0.02675275, 1.00058
 189434196, -0.09036662, -0.3809772, 0.03313867, -0.007031666, 0.02880068, 1.001409, -0.08997129, -0.4401004, 0.03904247, 0.01199955, 0.01482866, 1.002397
 189634116, -0.07826184, -0.3982811, 0.03473134, -0.02618541, 0.02935474, 1.001258, -0.09036662, -0.3809772, 0.03313867, -0.007031666, 0.02880068, 1.001409
 189834036, -0.07373131, -0.4231638, 0.03559975, -0.04324868, 0.02369741, 1.001127, -0.07826184, -0.3982811, 0.03473134, -0.02618541, 0.02935474, 1.001258
 190033956, -0.08199856, -0.4220825, 0.06363639, -0.05569819, 0.02143963, 1.000608, -0.07373131, -0.4231638, 0.03559975, -0.04324868, 0.02369741, 1.001127
 190233876, -0.07075427, -0.404472, 0.0317863, -0.07194032, 0.02683237, 0.9991614, -0.08199856, -0.4220825, 0.06363639, -0.05569819, 0.02143963, 1.000608
 190433796, -0.08099434, -0.3843353, 0.02780398, -0.08304189, 0.02923101, 0.9980099, -0.07075427, -0.404472, 0.0317863, -0.07194032, 0.02683237, 0.9991614
 190633716, -0.06254917, -0.3848432, 0.02977267, -0.08812841, 0.03138151, 0.9974869, -0.08099434, -0.3843353, 0.02780398, -0.08304189, 0.02923101, 0.9980099
 190833636, -0.07276268, -0.4085627, 0.03155594, -0.09665124, 0.02929353, 0.9970566, -0.06254917, -0.3848432, 0.02977267, -0.08812841, 0.03138151, 0.9974869
 191033556, -0.05681503, -0.3803216, 0.02943945, -0.1026932, 0.03335344, 0.9959733, -0.07276268, -0.4085627, 0.03155594, -0.09665124, 0.02929353, 0.9970566
 191233476, -0.07488745, -0.4194757, 0.02979633, -0.1115348, 0.02361421, 0.9957974, -0.05681503, -0.3803216, 0.02943945, -0.1026932, 0.03335344, 0.9959733
 191434229, -0.07253989, -0.4275865, 0.02899341, -0.1185967, 0.01906643, 0.9951832, -0.07488745, -0.4194757, 0.02979633, -0.1115348, 0.02361421, 0.9957974
 191634149, -0.04984275, -0.4113875, 0.03030413, -0.1182397, 0.02283566, 0.9948974, -0.07253989, -0.4275865, 0.02899341, -0.1185967, 0.01906643, 0.9951832
 191834069, -0.07114222, -0.4607703, 0.03129444, -0.1193407, 0.01052479, 0.9957224, -0.04984275, -0.4113875, 0.03030413, -0.1182397, 0.02283566, 0.9948974
 192033989, -0.0470098, -0.3837341, 0.02638674, -0.1234007, 0.02437768, 0.9938998, -0.07114222, -0.4607703, 0.03129444, -0.1193407, 0.01052479, 0.9957224
 192233909, -0.05265994, -0.4213575, 0.02760538, -0.1307158, 0.01503742, 0.9936072, -0.0470098, -0.3837341, 0.02638674, -0.1234007, 0.02437768, 0.9938998
 192433829, -0.06301414, -0.3867325, 0.02238047, -0.1250373, 0.01852303, 0.9938605, -0.05265994, -0.4213575, 0.02760538, -0.1307158, 0.01503742, 0.9936072
 192633749, -0.06017575, -0.4139772, 0.02384785, -0.1229242, 0.01057656, 0.9945625, -0.06301414, -0.3867325, 0.02238047, -0.1250373, 0.01852303, 0.9938605
 192833669, -0.05946824, -0.4320037, 0.02500264, -0.1208527, 0.006072111, 0.9950911, -0.06017575, -0.4139772, 0.02384785, -0.1229242, 0.01057656, 0.9945625
 193033589, -0.05738506, -0.444428, 0.02602118, -0.1164897, 0.002643697, 0.9958034, -0.05946824, -0.4320037, 0.02500264, -0.1208527, 0.006072111, 0.9950911
 193233509, -0.03216698, -0.3945123, 0.02416644, -0.1131089, 0.009776801, 0.9954696, -0.05738506, -0.444428, 0.02602118, -0.1164897, 0.002643697, 0.9958034
 193434262, -0.04985464, -0.4171768, 0.02288581, -0.1145594, 0.003746308, 0.9956245, -0.03216698, -0.3945123, 0.02416644, -0.1131089, 0.009776801, 0.9954696
 193634182, -0.02368181, -0.4178252, 0.02478274, -0.1122775, 0.0006572753, 0.9958813, -0.04985464, -0.4171768, 0.02288581, -0.1145594, 0.003746308, 0.9956245
 193834102, -0.05088686, -0.4509988, 0.02262425, -0.108288, -0.009039663, 0.9967553, -0.02368181, -0.4178252, 0.02478274, -0.1122775, 0.0006572753, 0.9958813
 194034022, -0.04419795, -0.4605416, 0.02480296, -0.1041562, -0.009475425, 0.9973287, -0.05088686, -0.4509988, 0.02262425, -0.108288, -0.009039663, 0.9967553
 194233942, -0.02890478, -0.4170217, 0.02315588, -0.09712766, -0.001986936, 0.9974508, -0.04419795, -0.4605416, 0.02480296, -0.1041562, -0.009475425, 0.9973287
 194433862, -0.0301377, -0.4602956, 0.02329663, -0.0938188, -0.01628486, 0.9982443, -0.02890478, -0.4170217, 0.02315588, -0.09712766, -0.001986936, 0.9974508
 194633782, -0.03446984, -0.4106391, 0.02042784, -0.08764216, -0.005370121, 0.9982264, -0.0301377, -0.4602956, 0.02329663, -0.0938188, -0.01628486, 0.9982443
 194833702, -0.02132527, -0.3997177, 0.02034166, -0.08147317, -0.005208567, 0.9986146, -0.03446984, -0.4106391, 0.02042784, -0.08764216, -0.005370121, 0.9982264
 195033622, -0.0304861, -0.4456934, 0.0219456, -0.07824254, -0.01471772, 0.9993678, -0.02132527, -0.3997177, 0.02034166, -0.08147317, -0.005208567, 0.9986146
 195233542, -0.006529693, -0.4321662, 0.02345387, -0.07544199, -0.01152194, 0.9994313, -0.0304861, -0.4456934, 0.0219456, -0.07824254, -0.01471772, 0.9993678
 195434295, -0.01073613, -0.4497074, 0.0249492, -0.07171351, -0.01304254, 0.9999234, -0.006529693, -0.4321662, 0.02345387, -0.07544199, -0.01152194, 0.9994313
 195634215, -0.02337982, -0.4094494, 0.02249268, -0.06518482, -0.003004964, 0.9999138, -0.01073613, -0.4497074, 0.0249492, -0.07171351, -0.01304254, 0.9999234
 195834135, -0.02099223, -0.4077382, 0.02029404, -0.05740604, -0.008485116, 1.000336, -0.02337982, -0.4094494, 0.02249268, -0.06518482, -0.003004964, 0.9999138
 196034055, -0.00854088, -0.3841799, -0.00968994, -0.05328998, -0.002440955, 1.000318, -0.02099223, -0.4077382, 0.02029404, -0.05740604, -0.008485116, 1.000336
 196233975, 0.0008927016, -0.4453214, 0.02351512, -0.04869298, -0.01633143, 1.001178, -0.00854088, -0.3841799, -0.00968994, -0.05328998, -0.002440955, 1.000318
 196433895, -0.01995357, -0.3739471, 0.01800771, -0.04479158, -0.004060533, 1.000635, 0.0008927016, -0.4453214, 0.02351512, -0.04869298, -0.01633143, 1.001178
 196633815, -0.01161693, -0.4377988, 0.02150644, -0.03849135, -0.01661671, 1.001494, -0.01995357, -0.3739471, 0.01800771, -0.04479158, -0.004060533, 1.000635
 196833735, -0.008276893, -0.385673, 0.01902139, -0.03699205, -0.006719865, 1.001051, -0.01161693, -0.4377988, 0.02150644, -0.03849135, -0.01661671, 1.001494
 197033655, -0.01386617, -0.3967122, 0.0194899, -0.03360146, -0.008164279, 1.001268, -0.008276893, -0.385673, 0.01902139, -0.03699205, -0.006719865, 1.001051
 197233575, -0.0003904011, -0.4252262, 0.05163784, -0.02812158, -0.01386598, 1.001729, -0.01386617, -0.3967122, 0.0194899, -0.03360146, -0.008164279, 1.001268
 197433495, -0.006698873, -0.4047515, 0.0201705, -0.01965006, -0.01007703, 1.001717, -0.0003904011, -0.4252262, 0.05163784, -0.02812158, -0.01386598, 1.001729
 197634248, 0.005733286, -0.4544671, 0.05289623, -0.0147221, -0.02091532, 1.002315, -0.006698873, -0.4047515, 0.0201705, -0.01965006, -0.01007703, 1.001717
 197834168, -0.0104718, -0.4585727, 0.02289264, -0.01386613, -0.02088072, 1.002369, 0.005733286, -0.4544671, 0.05289623, -0.0147221, -0.02091532, 1.002315
 198034088, -0.01376821, -0.4251343, 0.02052256, -0.01077403, -0.01563716, 1.002044, -0.0104718, -0.4585727, 0.02289264, -0.01386613, -0.02088072, 1.002369
 198234008, 0.005693551, -0.4051541, 0.05014876, -0.003874009, -0.01200103, 1.001938, -0.01376821, -0.4251343, 0.02052256, -0.01077403, -0.01563716, 1.002044
 198433928, 0.008671809, -0.435412, 0.02087328, -0.0009453334, -0.01954302, 1.0022, 0.005693551, -0.4051541, 0.05014876, -0.003874009, -0.01200103, 1.001938
 198633848, 0.002078919, -0.3913497, 0.0186707, 0.0008318555, -0.01031116, 1.001755, 0.008671809, -0.435412, 0.02087328, -0.0009453334, -0.01954302, 1.0022
 198833768, 0.001208427, -0.4487097, 0.02187748, 0.004091585, -0.02138576, 1.002354, 0.002078919, -0.3913497, 0.0186707, 0.0008318555, -0.01031116, 1.001755
 199033688, 0.006684157, -0.3870358, 0.01975114, 0.003659772, -0.007175434, 1.001785, 0.001208427, -0.4487097, 0.02187748, 0.004091585, -0.02138576, 1.002354
 199233608, 0.005252249, -0.4135312, 0.04950945, 0.001908369, -0.01661032, 1.002012, 0.006684157, -0.3870358, 0.01975114, 0.003659772, -0.007175434, 1.001785
 199433528, -0.006029866, -0.4349668, 0.05028348, 0.007437296, -0.02136665, 1.002185, 0.005252249, -0.4135312, 0.04950945, 0.001908369, -0.01661032, 1.002012
 199634281, -0.009593703, -0.4748016, 0.02366968, 0.01007391, -0.02649392, 1.002648, -0.006029866, -0.4349668, 0.05028348, 0.007437296, -0.02136665, 1.002185
 199834201, 0.0005198416, -0.3964041, 0.05101759, 0.0108271, -0.007653862, 1.001876, -0.009593703, -0.4748016, 0.02366968, 0.01007391, -0.02649392, 1.002648
 200034121, 0.00564428, -0.4827489, 0.0251543, 0.01297519, -0.02674186, 1.002796, 0.0005198416, -0.3964041, 0.05101759, 0.0108271, -0.007653862, 1.001876
 200234041, -0.005482625, -0.4758914, 0.06038124, 0.01761978, -0.02473511, 1.002703, 0.00564428, -0.4827489, 0.0251543, 0.01297519, -0.02674186, 1.002796
 200433961, 0.004230896, -0.4657608, 0.02510639, 0.02126459, -0.0214975, 1.002517, -0.005482625, -0.4758914, 0.06038124, 0.01761978, -0.02473511, 1.002703
 200633881, -0.01105784, -0.4648587, 0.05510028, 0.02050712, -0.02207433, 1.002542, 0.004230896, -0.4657608, 0.02510639, 0.02126459, -0.0214975, 1.002517
 200833801, 0.002857628, -0.4682517, 0.02428635, 0.0182777, -0.02438511, 1.002571, -0.01105784, -0.4648587, 0.05510028, 0.02050712, -0.02207433, 1.002542
 201033721, 0.007638142, -0.4191509, 0.02195362, 0.02063862, -0.01290716, 1.001969, 0.002857628, -0.4682517, 0.02428635, 0.0182777, -0.02438511, 1.002571
 201233641, 0.00761093, -0.4296847, 0.02282258, 0.02188914, -0.01421356, 1.002064, 0.007638142, -0.4191509, 0.02195362, 0.02063862, -0.01290716, 1.001969
 201433561, 0.009332079, -0.4301642, 0.02269554, 0.02142196, -0.01450134, 1.002067, 0.00761093, -0.4296847, 0.02282258, 0.02188914, -0.01421356, 1.002064
 201633481, 0.003267578, -0.397945, -0.007696161, 0.02032695, -0.004189439, 1.001737, 0.009332079, -0.4301642, 0.02269554, 0.02142196, -0.01450134, 1.002067
 201834234, -0.01273469, -0.4704716, 0.02503191, 0.01843059, -0.02277571, 1.002573, 0.003267578, -0.397945, -0.007696161, 0.02032695, -0.004189439, 1.001737
 202034154, 0.001724254, -0.428648, 0.02358661, 0.02068916, -0.01161969, 1.002071, -0.01273469, -0.4704716, 0.02503191, 0.01843059, -0.02277571, 1.002573
 202234074, -0.008997688, -0.3956498, -0.00741411, 0.01837724, -0.002489556, 1.001731, 0.001724254, -0.428648, 0.02358661, 0.02068916, -0.01161969, 1.002071
 202433994, -0.01098708, -0.4625027, 0.02623516, 0.02098128, -0.01707299, 1.002473, -0.008997688, -0.3956498, -0.00741411, 0.01837724, -0.002489556, 1.001731
 202633914, 0.003580228, -0.4378692, -0.004786655, 0.0248563, -0.01009699, 1.002077, -0.01098708, -0.4625027, 0.02623516, 0.02098128, -0.01707299, 1.002473
 202833834, 0.003115843, -0.4642614, 0.02715516, 0.02676244, -0.01528931, 1.002384, 0.003580228, -0.4378692, -0.004786655, 0.0248563, -0.01009699, 1.002077
 203033754, -0.004592459, -0.4405832, -0.004078614, 0.0281343, -0.00942101, 1.002017, 0.003115843, -0.4642614, 0.02715516, 0.02676244, -0.01528931, 1.002384
 203233674, -0.01218806, -0.4448801, 0.02627574, 0.02469043, -0.01058912, 1.002174, -0.004592459, -0.4405832, -0.004078614, 0.0281343, -0.00942101, 1.002017
 203433594, 0.01279739, -0.4334744, 0.02548147, 0.02414934, -0.008002702, 1.002061, -0.01218806, -0.4448801, 0.02627574, 0.02469043, -0.01058912, 1.002174
 203633514, -0.009354191, -0.4043711, 0.02354332, 0.0250983, -0.00315439, 1.001677, 0.01279739, -0.4334744, 0.02548147, 0.02414934, -0.008002702, 1.002061
 203834267, 0.01552666, -0.3845299, 0.02263909, 0.027585, 0.00194677, 1.001405, -0.009354191, -0.4043711, 0.02354332, 0.0250983, -0.00315439, 1.001677
 204034187, -0.01259334, -0.4416344, 0.02711718, 0.02815277, -0.007395372, 1.002043, 0.01552666, -0.3845299, 0.02263909, 0.027585, 0.00194677, 1.001405
 204234107, -0.01104493, -0.3973685, 0.02479307, 0.02613833, 0.00234919, 1.001565, -0.01259334, -0.4416344, 0.02711718, 0.02815277, -0.007395372, 1.002043
 204434027, 0.005475704, -0.4451267, 0.02748096, 0.02806398, -0.007459607, 1.002115, -0.01104493, -0.3973685, 0.02479307, 0.02613833, 0.00234919, 1.001565
 204633947, 0.0122097, -0.4465327, 0.02729501, 0.0230133, -0.008559991, 1.002274, 0.005475704, -0.4451267, 0.02748096, 0.02806398, -0.007459607, 1.002115
 204833867, 0.01347622, -0.4158783, 0.05557378, 0.01995178, -0.002705738, 1.00199, 0.0122097, -0.4465327, 0.02729501, 0.0230133, -0.008559991, 1.002274
 205033787, -0.00783943, -0.4426318, 0.05741827, 0.02349979, -0.008207195, 1.00225, 0.01347622, -0.4158783, 0.05557378, 0.01995178, -0.002705738, 1.00199
 205233707, -0.01543249, -0.4346049, 0.02767036, 0.02223971, -0.004526936, 1.002166, -0.00783943, -0.4426318, 0.05741827, 0.02349979, -0.008207195, 1.00225
 205433627, 0.008220501, -0.437151, 0.05631106, 0.01828865, -0.008937106, 1.002303, -0.01543249, -0.4346049, 0.02767036, 0.02223971, -0.004526936, 1.002166
 205633547, -0.002957642, -0.392508, 0.02447338, 0.01872504, 0.002480909, 1.001731, 0.008220501, -0.437151, 0.05631106, 0.01828865, -0.008937106, 1.002303
 205834300, -0.00581317, -0.4718811, 0.03069645, 0.01939023, -0.01173957, 1.002803, -0.002957642, -0.392508, 0.02447338, 0.01872504, 0.002480909, 1.001731
 206034220, -0.01119293, -0.4281749, 0.058029, 0.01908079, -0.002632111, 1.002226, -0.00581317, -0.4718811, 0.03069645, 0.01939023, -0.01173957, 1.002803
 206234140, 0.009159539, -0.4104628, 0.0250599, 0.01818795, -0.002760544, 1.001991, -0.01119293, -0.4281749, 0.058029, 0.01908079, -0.002632111, 1.002226
 206434060, -0.007936623, -0.4087811, 0.05532582, 0.01677668, -0.002364095, 1.002023, 0.009159539, -0.4104628, 0.0250599, 0.01818795, -0.002760544, 1.001991
 206633980, -0.006095534, -0.4258175, 0.02717609, 0.01200213, -0.003598146, 1.002307, -0.007936623, -0.4087811, 0.05532582, 0.01677668, -0.002364095, 1.002023
 206833900, 0.01090542, -0.4151438, 0.05158279, 0.01239146, -0.001944713, 1.002202, -0.006095534, -0.4258175, 0.02717609, 0.01200213, -0.003598146, 1.002307
 207033820, -0.01419261, -0.423384, 0.02640072, 0.01490596, -0.005017865, 1.002248, 0.01090542, -0.4151438, 0.05158279, 0.01239146, -0.001944713, 1.002202
 207233740, -0.002655682, -0.4721891, 0.05971188, 0.01384759, -0.01633833, 1.003009, -0.01419261, -0.423384, 0.02640072, 0.01490596, -0.005017865, 1.002248
 207433660, -0.00619326, -0.4733627, 0.03088849, 0.01223487, -0.01391528, 1.00307, -0.002655682, -0.4721891, 0.05971188, 0.01384759, -0.01633833, 1.003009
 207633580, 0.01108954, -0.4728425, 0.03226842, 0.01239241, -0.01112582, 1.003119, -0.00619326, -0.4733627, 0.03088849, 0.01223487, -0.01391528, 1.00307
 207833500, 0.003376035, -0.4305389, 0.02811242, 0.01134579, -0.004397683, 1.002462, 0.01108954, -0.4728425, 0.03226842, 0.01239241, -0.01112582, 1.003119
 208034253, -0.007890738, -0.48172, 0.03076643, 0.01027262, -0.01787696, 1.003235, 0.003376035, -0.4305389, 0.02811242, 0.01134579, -0.004397683, 1.002462
 208234173, -0.00598346, -0.4229026, 0.02684334, 0.01509224, -0.004697658, 1.002301, -0.007890738, -0.48172, 0.03076643, 0.01027262, -0.01787696, 1.003235
 208434093, -0.003635196, -0.4628355, 0.03014969, 0.01428912, -0.01228856, 1.002924, -0.00598346, -0.4229026, 0.02684334, 0.01509224, -0.004697658, 1.002301
 208634013, -0.006181282, -0.4707057, 0.03174208, 0.01434661, -0.01205695, 1.003085, -0.003635196, -0.4628355, 0.03014969, 0.01428912, -0.01228856, 1.002924
 208833933, -0.004488515, -0.4858626, 0.0316628, 0.01425656, -0.01828649, 1.003317, -0.006181282, -0.4707057, 0.03174208, 0.01434661, -0.01205695, 1.003085
 209033853, 0.01172227, -0.4816307, 0.03052208, 0.01274467, -0.01807088, 1.003178, -0.004488515, -0.4858626, 0.0316628, 0.01425656, -0.01828649, 1.003317
 209233773, -0.003835105, -0.4921398, 0.03044538, 0.01224114, -0.02323298, 1.003381, 0.01172227, -0.4816307, 0.03052208, 0.01274467, -0.01807088, 1.003178
 209433693, 0.004329833, -0.5080568, 0.03142064, 0.01287892, -0.02759931, 1.003642, -0.003835105, -0.4921398, 0.03044538, 0.01224114, -0.02323298, 1.003381
 209633613, -0.004728189, -0.4214766, 0.02717084, 0.01431165, -0.003995508, 1.002335, 0.004329833, -0.5080568, 0.03142064, 0.01287892, -0.02759931, 1.003642
 209833533, 0.00185021, -0.46644, 0.03082696, 0.0162362, -0.01298782, 1.003016, -0.004728189, -0.4214766, 0.02717084, 0.01431165, -0.003995508, 1.002335
 210034286, -0.004730538, -0.4588653, 0.03013771, 0.01503173, -0.01168528, 1.002912, 0.00185021, -0.46644, 0.03082696, 0.0162362, -0.01298782, 1.003016
 210234206, 0.01056876, -0.4301673, 0.02841466, 0.0153479, -0.004636802, 1.002481, -0.004730538, -0.4588653, 0.03013771, 0.01503173, -0.01168528, 1.002912
 210434126, 0.007206294, -0.525492, 0.03491106, 0.01467867, -0.02868173, 1.004111, 0.01056876, -0.4301673, 0.02841466, 0.0153479, -0.004636802, 1.002481
 210634046, -0.0009625393, -0.4606149, 0.03069696, 0.01668925, -0.01160609, 1.002956, 0.007206294, -0.525492, 0.03491106, 0.01467867, -0.02868173, 1.004111
 210833966, -0.01159238, -0.501469, 0.03372974, 0.01602183, -0.02164938, 1.00368, -0.0009625393, -0.4606149, 0.03069696, 0.01668925, -0.01160609, 1.002956
 211033886, -0.1659169, -0.4339231, -0.2274626, 0.3857834, -0.01731252, 0.924992, -0.01159238, -0.501469, 0.03372974, 0.01602183, -0.02164938, 1.00368
 211233806, -1.265019, -0.1092398, -0.5285363, 0.9221443, -0.0738236, 0.3814003, -0.1659169, -0.4339231, -0.2274626, 0.3857834, -0.01731252, 0.924992
 211433726, -1.265971, 0.191422, -0.4917443, 0.9056728, -0.2630764, 0.3341914, -1.265019, -0.1092398, -0.5285363, 0.9221443, -0.0738236, 0.3814003
 211633646, -1.06091, 0.3389213, -0.8302717, 0.6836056, -0.4520248, 0.5745856, -1.265971, 0.191422, -0.4917443, 0.9056728, -0.2630764, 0.3341914
 211833566, -0.9822735, 0.3041983, -0.9672966, 0.5602463, -0.4901955, 0.6698337, -1.06091, 0.3389213, -0.8302717, 0.6836056, -0.4520248, 0.5745856
 212033486, -0.9726881, 0.34883, -0.9447827, 0.5769493, -0.4896438, 0.6554935, -0.9822735, 0.3041983, -0.9672966, 0.5602463, -0.4901955, 0.6698337
 212234239, -1.012798, 0.4020428, -0.8731027, 0.599887, -0.5077813, 0.6199936, -0.9726881, 0.34883, -0.9447827, 0.5769493, -0.4896438, 0.6554935
 212434159, -0.977559, 0.4841329, -0.8555953, 0.5933501, -0.5291039, 0.6080024, -1.012798, 0.4020428, -0.8731027, 0.599887, -0.5077813, 0.6199936
 212634079, -0.9630039, 0.4893417, -0.8796449, 0.5622491, -0.5551194, 0.6145731, -0.977559, 0.4841329, -0.8555953, 0.5933501, -0.5291039, 0.6080024
 212833999, -0.9375837, 0.5312217, -0.8831813, 0.5293769, -0.576239, 0.6242534, -0.9630039, 0.4893417, -0.8796449, 0.5622491, -0.5551194, 0.6145731
 213033919, -0.9304568, 0.563293, -0.8776978, 0.4944365, -0.5956661, 0.6347168, -0.9375837, 0.5312217, -0.8831813, 0.5293769, -0.576239, 0.6242534
 213233839, -0.8715262, 0.6287993, -0.8833541, 0.4611464, -0.6145137, 0.6415448, -0.9304568, 0.563293, -0.8776978, 0.4944365, -0.5956661, 0.6347168
 213433759, -0.8159115, 0.6537752, -0.914068, 0.4307975, -0.6302756, 0.6472757, -0.8715262, 0.6287993, -0.8833541, 0.4611464, -0.6145137, 0.6415448
 213633679, -0.8224666, 0.669272, -0.9098139, 0.3932171, -0.6456814, 0.6562176, -0.8159115, 0.6537752, -0.914068, 0.4307975, -0.6302756, 0.6472757
 213833599, -0.7919727, 0.6881845, -0.9249347, 0.3597115, -0.654368, 0.6668047, -0.8224666, 0.669272, -0.9098139, 0.3932171, -0.6456814, 0.6562176
 214033519, -0.7591096, 0.7179497, -0.9289151, 0.3293418, -0.661297, 0.6755751, -0.7919727, 0.6881845, -0.9249347, 0.3597115, -0.654368, 0.6668047
 214234272, -0.7487778, 0.7145354, -0.9504626, 0.2943116, -0.6660708, 0.6872142, -0.7591096, 0.7179497, -0.9289151, 0.3293418, -0.661297, 0.6755751
 214434192, -0.7292621, 0.7396601, -0.9508061, 0.2599719, -0.6659211, 0.7011554, -0.7487778, 0.7145354, -0.9504626, 0.2943116, -0.6660708, 0.6872142
 214634112, -0.7094582, 0.7321537, -0.9771367, 0.230919, -0.6640137, 0.7131944, -0.7292621, 0.7396601, -0.9508061, 0.2599719, -0.6659211, 0.7011554
 214834032, -0.304127, -0.1330498, 0.06835848, 0.2041007, -0.6576054, 0.7269169, -0.7094582, 0.7321537, -0.9771367, 0.230919, -0.6640137, 0.7131944
 215033952, -0.3326922, -0.1488653, 0.05296773, 0.1729968, -0.650706, 0.7413338, -0.304127, -0.1330498, 0.06835848, 0.2041007, -0.6576054, 0.7269169
 215233872, -0.3181821, -0.1183639, 0.06228785, 0.1456911, -0.6357052, 0.7597755, -0.3326922, -0.1488653, 0.05296773, 0.1729968, -0.650706, 0.7413338
 215433792, -0.3358606, -0.1083086, 0.06600556, 0.1214066, -0.6212515, 0.7759657, -0.3181821, -0.1183639, 0.06228785, 0.1456911, -0.6357052, 0.7597755
 215633712, -0.377638, -0.1060564, 0.06806406, 0.09382397, -0.6013802, 0.7956565, -0.3358606, -0.1083086, 0.06600556, 0.1214066, -0.6212515, 0.7759657
 215833632, -0.3496324, -0.07821617, 0.07570501, 0.08004692, -0.5780005, 0.8139474, -0.377638, -0.1060564, 0.06806406, 0.09382397, -0.6013802, 0.7956565
 216033552, -0.4048353, -0.07739237, 0.07746013, 0.05295322, -0.5575093, 0.8309979, -0.3496324, -0.07821617, 0.07570501, 0.08004692, -0.5780005, 0.8139474
 216234305, -0.3968071, -0.05889933, 0.08185695, 0.03955334, -0.5308694, 0.8489246, -0.4048353, -0.07739237, 0.07746013, 0.05295322, -0.5575093, 0.8309979
 216434225, -0.3872644, -0.02170045, 0.06271362, 0.03033162, -0.5001135, 0.8676535, -0.3968071, -0.05889933, 0.08185695, 0.03955334, -0.5308694, 0.8489246
 216634145, -0.4492194, -0.0364706, 0.09001303, 0.005249441, -0.4699514, 0.8860269, -0.3872644, -0.02170045, 0.06271362, 0.03033162, -0.5001135, 0.8676535
 216834065, -0.4320615, -0.006947076, 0.0993623, 0.001480542, -0.4359016, 0.9030905, -0.4492194, -0.0364706, 0.09001303, 0.005249441, -0.4699514, 0.8860269
 217033985, -0.5254067, -0.004131502, 0.09852572, -0.03053237, -0.4026809, 0.9204108, -0.4320615, -0.006947076, 0.0993623, 0.001480542, -0.4359016, 0.9030905
 217233905, -0.4834089, 0.02193827, 0.07744575, -0.02040374, -0.367744, 0.9341714, -0.5254067, -0.004131502, 0.09852572, -0.03053237, -0.4026809, 0.9204108
 217433825, -0.476865, 0.03847062, 0.08460078, -0.02384476, -0.3276704, 0.9489629, -0.4834089, 0.02193827, 0.07744575, -0.02040374, -0.367744, 0.9341714
 217633745, -0.6197066, 0.0650162, 0.09608057, -0.07437379, -0.2884479, 0.9653698, -0.476865, 0.03847062, 0.08460078, -0.02384476, -0.3276704, 0.9489629
 217833665, -0.6853454, 0.07968359, 0.07165514, -0.1022656, -0.250017, 0.9783877, -0.6197066, 0.0650162, 0.09608057, -0.07437379, -0.2884479, 0.9653698
 218033585, -0.6894733, 0.07736399, 0.1003361, -0.1068896, -0.2145995, 0.9874682, -0.6853454, 0.07968359, 0.07165514, -0.1022656, -0.250017, 0.9783877
 218233505, -0.6373879, 0.08543842, 0.06481029, -0.08474963, -0.1829574, 0.992324, -0.6894733, 0.07736399, 0.1003361, -0.1068896, -0.2145995, 0.9874682
 218434258, -0.6605385, 0.09857596, 0.06813041, -0.09463166, -0.1486282, 0.9994571, -0.6373879, 0.08543842, 0.06481029, -0.08474963, -0.1829574, 0.992324
 218634178, -0.651185, 0.1041021, 0.09667521, -0.09246764, -0.1169893, 1.003888, -0.6605385, 0.09857596, 0.06813041, -0.09463166, -0.1486282, 0.9994571
 218834098, -0.8307897, 0.1373297, 0.08183863, -0.1910899, -0.0665404, 1.017317, -0.651185, 0.1041021, 0.09667521, -0.09246764, -0.1169893, 1.003888
 219034018, -0.8214492, 0.1390885, 0.07984278, -0.1860822, -0.04233, 1.018874, -0.8307897, 0.1373297, 0.08183863, -0.1910899, -0.0665404, 1.017317
 219233938, -1.090985, 0.1925386, 0.1028771, -0.4034617, 0.0222972, 1.040454, -0.8214492, 0.1390885, 0.07984278, -0.1860822, -0.04233, 1.018874
 219433858, -0.9755001, 0.1732839, 0.09028228, -0.2961385, 0.02111541, 1.030626, -1.090985, 0.1925386, 0.1028771, -0.4034617, 0.0222972, 1.040454
 219633778, -0.9014347, 0.1532506, 0.08315526, -0.2415839, 0.03609906, 1.026361, -0.9755001, 0.1732839, 0.09028228, -0.2961385, 0.02111541, 1.030626
 219833698, -0.8304006, 0.1499597, 0.07293158, -0.1953014, 0.04607005, 1.021055, -0.9014347, 0.1532506, 0.08315526, -0.2415839, 0.03609906, 1.026361
 220033618, -0.793215, 0.1481818, 0.06788538, -0.1714876, 0.05794305, 1.018369, -0.8304006, 0.1499597, 0.07293158, -0.1953014, 0.04607005, 1.021055
 220233538, -1.213462, 0.2091901, 0.1008771, -0.5440133, 0.1403525, 1.048196, -0.793215, 0.1481818, 0.06788538, -0.1714876, 0.05794305, 1.018369
 220434291, -1.324295, 0.2431165, 0.1042623, -0.6923173, 0.1782531, 1.057073, -1.213462, 0.2091901, 0.1008771, -0.5440133, 0.1403525, 1.048196
