TimeUS,CAN,CAE,CAD,CAe,NAN,NAE,NAD,NAe,m10,m00,Gye
 196045717, -3.234969E-06, 4.239918E-05, -2.583424E-06, 6.484905E-06, 0, 0, 0, 0, -0.9999978, -0.001447375, 2.134192
 196231476, -0.3665528, 3.372894, -0.1606281, 0.5092214, -0.1924783, 3.434777, 0.001365196, 0.5092143, -0.9999978, -0.001442874, 128.1729
 196431396, -0.1923997, 3.442205, 0.001115652, 0.5097404, -4.782022E-05, 0.004182907, -0.000189542, 0.0005187925, -0.9999978, -0.001438949, 171.0713
 196631316, -0.0002376544, 0.01141839, -0.0003653817, 0.00104407, -0.0003986605, 0.003962334, 1.218784E-05, 0.0005187925, -0.9999978, -0.00143287, 0.3503954
 196831236, -0.0004324047, 0.01084366, -0.0001409873, 0.00104407, 0.0001925296, 0.004110722, -6.847861E-05, 0.0005187925, -0.9999978, -0.001425967, 0.3503954
 197031156, -0.0002789386, 0.01118855, -2.403249E-05, 0.00104407, -0.0005187161, 0.003932157, -0.0002424021, 0.0005187925, -0.9999978, -0.001420143, 0.3503954
 197231076, -0.0002403301, 0.01145681, -0.0004370956, 0.00104407, 0.0001168516, 0.004260756, -0.0001630381, 0.0005187925, -0.9999978, -0.001414099, 0.3503954
 197430996, 0.0001395523, 0.01157217, -0.0004668954, 0.00104407, -7.795663E-06, 0.003886913, -0.0004928071, 0.0005187925, -0.9999978, -0.001408981, 0.3503954
 197630916, -5.692116E-05, 0.01100678, -0.0008808962, 0.00104407, 5.168276E-05, 0.003995666, -0.0001968097, 0.0005187925, -0.9999978, -0.001403784, 0.3503954
 197830836, 0.0004333325, 0.0115706, -0.0004618429, 0.00104407, 0.0001661336, 0.00432496, -0.0003308212, 0.0005187925, -0.9999978, -0.001396895, 0.3503954
 198030756, 0.0004155526, 0.01175565, -0.000855765, 0.00104407, -1.658974E-05, 0.004381164, -0.00035608, 0.0005187925, -0.9999978, -0.001390379, 0.3503954
 198230676, 0.0001040161, 0.01191955, -0.0003412872, 0.00104407, 0.0003568686, 0.004040155, -0.0003221772, 0.0005187925, -0.9999978, -0.001383547, 0.3503954
 198431429, 0.0002755482, 0.01138243, -0.0004903778, 0.001046232, 0.0001035288, 0.004129039, -0.0001299977, 0.0005209541, -0.9999978, -0.001379105, 0.3511209
 198631349, -2.076617E-05, 0.01145156, -0.0001978591, 0.001046232, -0.0002274757, 0.004208781, -0.0001411684, 0.0005187925, -0.9999978, -0.001384923, 0.3511209
 198831269, 2.897178E-05, 0.01142769, -0.0001039745, 0.00104407, 0.0001897284, 0.004126471, -0.0005041382, 0.0005187925, -0.9999978, -0.001389582, 0.3503954
 199031189, 0.0002990726, 0.0119208, -0.0006608418, 0.00104407, 0.0002373929, 0.004750302, -0.0002927276, 0.0005187925, -0.9999978, -0.001395147, 0.3503954
 199231109, 0.0001282178, 0.01191517, -0.0004119191, 0.00104407, -0.0001383569, 0.004263795, -2.344267E-05, 0.0005187925, -0.9999978, -0.001398999, 0.3503954
 199431029, -0.0001949808, 0.01145207, -3.15099E-05, 0.00104407, 7.180554E-05, 0.004133961, 3.321628E-05, 0.0005187925, -0.9999978, -0.00140176, 0.3503954
 199630949, 3.046089E-05, 0.01125084, 0.000145992, 0.00104407, 0.0001548027, 0.003790264, 5.364774E-05, 0.0005187925, -0.9999978, -0.001403779, 0.3503954
 199830869, -7.133509E-05, 0.01144195, 2.539573E-05, 0.00104407, -0.0003766676, 0.004603844, -0.0001568608, 0.0005187925, -0.9999978, -0.00140527, 0.3503954
 200030789, -0.0003032112, 0.01184535, -0.0003098642, 0.00104407, 0.0005359633, 0.003849611, -0.0002654801, 0.0005187925, -0.9999978, -0.001405813, 0.3503954
 200230709, 0.0007600351, 0.01102382, -4.284328E-05, 0.00104407, 0.0003071811, 0.004245856, 4.612985E-05, 0.0005187925, -0.9999978, -0.00140578, 0.3503954
 200431462, 0.0003245975, 0.01140577, -0.0004599027, 0.001046232, 0.000149746, 0.003896622, -0.0004022327, 0.0005209541, -0.9999978, -0.001407013, 0.3511209
 200631382, -2.973548E-05, 0.01145124, -0.0006583111, 0.001046232, -0.0001101696, 0.004231085, -0.0002692147, 0.0005187925, -0.9999978, -0.00140613, 0.3511209
 200831302, 2.321859E-05, 0.01129735, -0.0002787798, 0.00104407, -2.75037E-05, 0.004238422, -3.525515E-05, 0.0005187925, -0.9999978, -0.001403764, 0.3503954
 201031222, 4.76982E-05, 0.01151305, 5.157912E-05, 0.00104407, 0.0003803851, 0.003987252, -0.0002446721, 0.0005187925, -0.9999979, -0.001398232, 0.3503954
 201231142, 0.0002799681, 0.01096401, -0.0003664194, 0.00104407, -0.0001015047, 0.00390075, 0.0001464568, 0.0005187925, -0.9999979, -0.00139331, 0.3503954
 201431062, -0.0004244544, 0.01112652, 0.0001639568, 0.00104407, -0.0002311748, 0.003975531, 9.242176E-06, 0.0005187925, -0.9999979, -0.001388299, 0.3503954
 201630982, -4.694994E-05, 0.01094063, 5.075927E-05, 0.00104407, 0.0001034648, 0.003769188, 0.0003827983, 0.0005187925, -0.9999979, -0.001382786, 0.3503954
 201830902, -0.0001378856, 0.01095856, 0.0002126833, 0.00104407, -0.0007016878, 0.004352697, 4.612749E-06, 0.0005187925, -0.9999979, -0.001376563, 0.3503954
 202030822, -0.0005995614, 0.01172184, -0.0002087449, 0.00104407, 0.0002166054, 0.003956263, -0.0001724638, 0.0005187925, -0.9999979, -0.001370503, 0.3503954
 202230742, 0.0003083034, 0.01131617, -0.0003472608, 0.00104407, 0.0002779843, 0.004248992, 0.000279229, 0.0005187925, -0.9999979, -0.001363581, 0.3503954
 202430662, 0.0005216104, 0.01145831, -2.642411E-05, 0.00104407, 0.0002103665, 0.004097475, -0.0003615506, 0.0005187925, -0.9999979, -0.001357379, 0.3503954
 202631415, 0.000420366, 0.01131682, -0.0005527052, 0.001046232, 0.0003051645, 0.003832352, -0.0001992529, 0.0005209541, -0.9999979, -0.001352824, 0.3511209
 202831335, 0.0004956528, 0.0110874, -0.0003883706, 0.001046232, -0.0001081429, 0.003812227, 3.883358E-05, 0.0005187925, -0.9999979, -0.001346439, 0.3511209
 203031255, -9.510626E-05, 0.0112824, -1.996433E-05, 0.00104407, 0.0004500779, 0.004692808, 0.0002125093, 0.0005187925, -0.9999978, -0.001338956, 0.3503954
 203231175, 0.0003414049, 0.01199036, -0.0001462172, 0.00104407, 5.173456E-05, 0.004317901, -0.0005457363, 0.0005187925, -0.9999978, -0.001331763, 0.3503954
 203431095, 0.0001562613, 0.01140789, -0.0005708604, 0.00104407, 0.0002685753, 0.004123071, 0.000172322, 0.0005187925, -0.9999978, -0.001322836, 0.3503954
 203631015, 0.0004301735, 0.0116189, 0.0003273775, 0.00104407, 0.0004304539, 0.004209759, 2.827347E-05, 0.0005187925, -0.9999978, -0.001315597, 0.3503954
 203830935, 0.0004615004, 0.01177317, -9.281495E-06, 0.00104407, -0.0002122518, 0.004330508, -4.90207E-05, 0.0005187925, -0.9999978, -0.001322496, 0.3503954
 204030855, 9.371746E-05, 0.01174271, -0.0002960523, 0.00104407, 0.0001584947, 0.004288074, -0.0003130042, 0.0005187925, -0.9999978, -0.001329283, 0.3503954
 204230775, 0.0002665667, 0.01160844, -0.000503335, 0.00104407, 0.0004298275, 0.004100813, -0.0002546627, 0.0005187925, -0.9999978, -0.001334533, 0.3503954
 204430695, 0.0005908406, 0.01134007, -0.0005868853, 0.00104407, -0.000139645, 0.004243106, -0.0002143765, 0.0005187925, -0.9999978, -0.001338868, 0.3503954
 204631448, -0.0001135839, 0.0115364, -3.11302E-05, 0.001046232, -1.022282E-05, 0.004491583, -0.0003122236, 0.0005209541, -0.9999979, -0.001344857, 0.3511209
 204831368, 0.0001453259, 0.01142808, -0.0001634194, 0.001046232, -9.973411E-05, 0.003903344, 0.0001349636, 0.0005187925, -0.9999978, -0.001346593, 0.3511209
 205031288, -0.0002062791, 0.01128812, -0.0003068387, 0.00104407, 1.533143E-05, 0.004399742, -0.0002623653, 0.0005187925, -0.9999978, -0.001347742, 0.3503954
 205231208, -7.129497E-05, 0.01165495, -0.0003802447, 0.00104407, 0.0002181132, 0.004176207, -0.00024895, 0.0005187925, -0.9999978, -0.001348836, 0.3503954
 205431128, 0.0002994527, 0.01130806, -0.0001977378, 0.00104407, -0.000175329, 0.003595882, 0.0003019424, 0.0005187925, -0.9999978, -0.001350239, 0.3503954
 205631048, 7.839944E-05, 0.01106206, -1.720103E-05, 0.00104407, 1.907012E-05, 0.003892931, 0.0003017172, 0.0005187925, -0.9999978, -0.001350295, 0.3503954
 205830968, -6.702724E-05, 0.0112239, 0.0001803333, 0.00104407, -0.0001529902, 0.004425246, 0.0001723732, 0.0005187925, -0.9999978, -0.001348388, 0.3503954
 206030888, 6.310544E-06, 0.01159805, -0.0001373719, 0.00104407, -0.0001843329, 0.003976617, -0.0002004179, 0.0005187925, -0.9999978, -0.001346634, 0.3503954
 206230808, 6.74302E-05, 0.01111445, -0.0002076868, 0.00104407, 5.663607E-05, 0.004210406, 6.459749E-05, 0.0005187925, -0.9999978, -0.001344863, 0.3503954
 206430728, 0.0002155652, 0.01135048, 0.0001637328, 0.00104407, 0.0003191032, 0.00410931, -0.0001393452, 0.0005187925, -0.9999979, -0.00134299, 0.3503954
 206631481, 0.0004905315, 0.01138015, -0.000117211, 0.001046232, -7.166313E-07, 0.004371865, 1.01347E-05, 0.0005209541, -0.9999978, -0.001342186, 0.3511209
 206831401, -8.56989E-05, 0.01187849, 9.562839E-05, 0.001046232, -5.804037E-05, 0.004159449, -9.736695E-06, 0.0005187925, -0.9999979, -0.001340664, 0.3511209
 207031321, -0.0001846121, 0.01120564, -0.0003296772, 0.00104407, -0.0001202008, 0.004476414, -0.0004633706, 0.0005187925, -0.9999979, -0.001338081, 0.3503954
 207231241, 4.106656E-05, 0.01174366, -0.0004883563, 0.00104407, -9.248809E-05, 0.003841631, -1.073651E-06, 0.0005187925, -0.9999979, -0.001333343, 0.3503954
 207431161, -0.0001821447, 0.01089925, 3.855474E-05, 0.00104407, -0.0002811394, 0.004178863, 0.000106136, 0.0005187925, -0.9999979, -0.001328447, 0.3503954
 207631081, -0.0001144384, 0.01139066, -6.921265E-05, 0.00104407, 0.0002361616, 0.004461773, 0.0001364091, 0.0005187925, -0.9999979, -0.001323577, 0.3503954
 207831001, 0.0001313476, 0.01151663, 0.000184573, 0.00104407, -1.420063E-05, 0.003711399, 0.000608401, 0.0005187925, -0.9999979, -0.001318768, 0.3503954
 208030921, -0.0001853202, 0.01136404, 0.0004788904, 0.00104407, -0.0001749366, 0.004352895, 0.0004439949, 0.0005187925, -0.9999979, -0.001313385, 0.3503954
 208230841, -1.067605E-05, 0.01164368, 0.0003411881, 0.00104407, 0.0002125653, 0.00401732, -0.0002631326, 0.0005187925, -0.9999979, -0.001307436, 0.3503954
 208430761, -3.192749E-05, 0.01129334, -0.0003042148, 0.00104407, -0.0002268654, 0.004470617, -0.0002221661, 0.0005187925, -0.9999979, -0.001302493, 0.3503954
 208630681, -0.0001612924, 0.01190655, -0.0004420716, 0.00104407, -3.766365E-05, 0.004207657, -0.0001097359, 0.0005187925, -0.9999978, -0.001296298, 0.3503954
 208831434, 4.673704E-05, 0.01200802, -0.0001075505, 0.001046232, 0.0002324495, 0.004456536, -4.178123E-05, 0.0005209541, -0.9999979, -0.001292282, 0.3511209
 209031354, 0.0005224626, 0.01184338, 8.285344E-05, 0.001046232, 0.0005782197, 0.004157242, 0.0007114412, 0.0005187925, -0.9999979, -0.001300963, 0.3511209
 209231274, 0.0006547412, 0.01145688, 0.0007732589, 0.00104407, 0.0001213846, 0.003986069, 0.000512153, 0.0005187925, -0.9999979, -0.00130736, 0.3503954
 209431194, 6.621663E-05, 0.01139962, 0.0003397001, 0.00104407, -0.0003779297, 0.003722168, -0.0003008163, 0.0005187925, -0.9999979, -0.001313012, 0.3503954
 209631114, -0.0006300441, 0.01103188, -0.0002237712, 0.00104407, 1.497269E-05, 0.004256406, 2.878468E-05, 0.0005187925, -0.9999979, -0.001317868, 0.3503954
 209831034, -0.0001123219, 0.01159737, 1.867501E-05, 0.00104407, 0.0001331323, 0.004795703, 2.267406E-05, 0.0005187925, -0.9999979, -0.001321343, 0.3503954
 210030954, 0.000253145, 0.01213118, 0.0001589103, 0.00104407, 2.802631E-05, 0.004245909, -0.0002176058, 0.0005187925, -0.9999979, -0.00132509, 0.3503954
 210230874, -0.0001617971, 0.01159578, -7.946653E-05, 0.00104407, -0.0003044464, 0.004163439, 0.000244721, 0.0005187925, -0.9999979, -0.001327733, 0.3503954
 210430794, -0.0002121732, 0.01150126, 0.000133069, 0.00104407, 0.0001877684, 0.004379833, -4.675901E-05, 0.0005187925, -0.9999979, -0.001328918, 0.3503954
 210630714, 0.0001079796, 0.01115139, -6.184368E-05, 0.00104407, 0.0004010282, 0.003874423, -0.0001437017, 0.0005187925, -0.9999979, -0.001327298, 0.3503954
 210831467, 0.0002847893, 0.01135668, -1.723909E-05, 0.001046232, 0.0001126869, 0.003764151, 7.66094E-05, 0.0005209541, -0.9999979, -0.001327837, 0.3511209
 211031387, 0.0001502092, 0.0111789, 9.650105E-05, 0.001046232, 3.823394E-06, 0.004263033, -0.0003949123, 0.0005187925, -0.9999979, -0.001327742, 0.3511209
 211231307, 5.880851E-05, 0.01126089, -0.0007059622, 0.00104407, -6.729629E-05, 0.00374171, 1.313155E-06, 0.0005187925, -0.9999979, -0.001326744, 0.3503954
 211431227, -0.0002903232, 0.01109207, -0.0003028433, 0.00104407, 0.0003255137, 0.004328668, 0.0001828916, 0.0005187925, -0.9999979, -0.001324061, 0.3503954
 211631147, 0.0002376972, 0.01148931, -0.0001262529, 0.00104407, -0.0004243906, 0.004056911, -0.0001937592, 0.0005187925, -0.9999979, -0.001322356, 0.3503954
 211831067, -0.0008233038, 0.01129308, -0.0002024306, 0.00104407, -0.0001013282, 0.004310155, -0.0004197586, 0.0005187925, -0.9999979, -0.001319979, 0.3503954
 212030987, 1.541731E-05, 0.01175775, -0.0004048587, 0.00104407, 0.000230208, 0.004443534, 6.07724E-05, 0.0005187925, -0.9999979, -0.00131637, 0.3503954
 212230907, 0.0002380848, 0.01152884, 0.0001826759, 0.00104407, 6.068103E-05, 0.004017558, 0.0002946628, 0.0005187925, -0.9999979, -0.001313097, 0.3503954
 212430827, 0.0001967984, 0.01110582, 0.0001572886, 0.00104407, 0.0003190249, 0.004049604, -0.0003087478, 0.0005187925, -0.9999979, -0.001308454, 0.3503954
 212630747, 0.0003774819, 0.01117947, -0.0002430099, 0.00104407, 0.0001146516, 0.003732224, 0.0001278711, 0.0005187925, -0.9999979, -0.001303985, 0.3503954
 212830667, -0.0001982427, 0.010714, -5.921735E-05, 0.00104407, -0.0003140066, 0.004181394, -0.0001612542, 0.0005187925, -0.9999979, -0.001299126, 0.3503954
 213031420, -0.0002853685, 0.01138943, -0.0006132349, 0.001046232, -0.0005167045, 0.003701865, -0.0001820702, 0.0005209541, -0.9999979, -0.001295708, 0.3511209
 213231340, -0.0004600258, 0.01124697, 4.71479E-05, 0.001046232, 0.0002286044, 0.004087289, 0.0004862175, 0.0005187925, -0.9999979, -0.001290823, 0.3511209
 213431260, 0.0002527199, 0.01138335, 0.0005303476, 0.00104407, -0.0001844132, 0.004321338, -0.0001566022, 0.0005187925, -0.9999979, -0.001283487, 0.3503954
 213631180, -0.0001541575, 0.01145046, -0.0003576707, 0.00104407, -4.255282E-05, 0.003947272, -0.0005144195, 0.0005187925, -0.9999979, -0.00127802, 0.3503954
 213831100, -0.0001245291, 0.01119172, -0.0007213985, 0.00104407, -8.718242E-05, 0.003804698, -0.0003258819, 0.0005187925, -0.9999979, -0.001272241, 0.3503954
 214031020, 0.000239633, 0.01140595, -0.0003950397, 0.00104407, 3.304097E-05, 0.00444673, 7.535899E-05, 0.0005187925, -0.9999979, -0.00126628, 0.3503954
 214230940, 0.0002048373, 0.01195298, 8.197841E-05, 0.00104407, -7.13644E-05, 0.003902953, 5.567235E-06, 0.0005187925, -0.9999979, -0.001275765, 0.3503954
 214430860, 0.000392052, 0.01115167, 3.310337E-06, 0.00104407, -6.736124E-05, 0.004139667, 8.984784E-06, 0.0005187925, -0.9999979, -0.00128439, 0.3503954
 214630780, 0.0001779658, 0.0116967, -0.0003041052, 0.00104407, -8.354845E-05, 0.004248066, -0.0003323965, 0.0005187925, -0.9999979, -0.001291763, 0.3503954
 214830700, 4.156233E-05, 0.01190807, -0.0003850802, 0.00104407, 7.861722E-05, 0.004641158, -6.725957E-05, 0.0005187925, -0.9999979, -0.001298574, 0.3503954
 215031453, 0.0001157744, 0.01204362, -0.0006312627, 0.001046232, 0.0001921769, 0.004572345, -0.0003613536, 0.0005209541, -0.9999979, -0.001303929, 0.3511209
 215231373, 6.273038E-05, 0.01221657, -0.0005489617, 0.001046232, -5.262544E-06, 0.004388146, 1.147883E-05, 0.0005187925, -0.9999979, -0.001307997, 0.3511209
 215431293, 0.0001457963, 0.01150311, 6.632654E-05, 0.00104407, 6.772403E-05, 0.003891944, 0.0003589028, 0.0005187925, -0.9999979, -0.001310147, 0.3503954
 215631213, 9.030635E-05, 0.01117427, 0.0002775394, 0.00104407, -0.0001521659, 0.003717236, -0.0002361485, 0.0005187925, -0.9999979, -0.001311777, 0.3503954
 215831133, 0.0002317329, 0.01069044, -0.0001884897, 0.00104407, 0.0003306578, 0.004201965, -8.736928E-06, 0.0005187925, -0.9999979, -0.001313105, 0.3503954
 216031053, 0.000503819, 0.01130855, -7.884802E-05, 0.00104407, 0.0001618856, 0.004339727, -9.407452E-05, 0.0005187925, -0.9999979, -0.001313379, 0.3503954
 216230973, 0.0003388964, 0.01159552, -0.0002234352, 0.00104407, 0.0002442701, 0.003625946, 2.442098E-05, 0.0005187925, -0.9999979, -0.001313599, 0.3503954
 216430893, 0.0007151559, 0.01083281, -0.0002943041, 0.00104407, 0.0003048269, 0.004294143, -0.0002451465, 0.0005187925, -0.9999979, -0.001312963, 0.3503954
 216630813, 9.806103E-05, 0.01144614, -0.00028301, 0.00104407, 0.0002384631, 0.004286092, 0.000497968, 0.0005187925, -0.9999979, -0.001312383, 0.3503954
 216830733, -4.880904E-05, 0.01149245, 5.144794E-05, 0.00104407, -0.0003326327, 0.003684522, -0.0003050705, 0.0005187925, -0.9999979, -0.001310057, 0.3503954
 217031486, -0.0001949968, 0.01078792, -0.0009169197, 0.001046232, -0.000112554, 0.003814953, -0.00027829, 0.0005187925, -0.9999979, -0.001306277, 0.3511209
 217231406, 0.0001216789, 0.0110175, -0.0001228359, 0.001046232, -6.584363E-05, 0.004165607, 0.0001154386, 0.0005209541, -0.9999979, -0.001304731, 0.3511209
 217431326, -1.244953E-05, 0.01130321, 2.200286E-05, 0.001046232, 0.0003246547, 0.004173384, -9.78984E-05, 0.0005187925, -0.9999979, -0.001301434, 0.3511209
 217631246, -0.0001262379, 0.01124435, -0.0003012799, 0.00104407, -0.0003467973, 0.004236765, -0.000341939, 0.0005187925, -0.9999979, -0.001296027, 0.3503954
 217831166, -0.0006869772, 0.01179476, -0.0003732298, 0.00104407, -0.0001951147, 0.004251825, 2.060304E-05, 0.0005187925, -0.9999979, -0.001293669, 0.3503954
 218031086, -0.000113148, 0.01154969, -0.0003032579, 0.00104407, -0.0001170453, 0.004104853, -0.0001553725, 0.0005187925, -0.9999979, -0.001290754, 0.3503954
 218231006, -0.0001691059, 0.01123205, -0.0003645618, 0.00104407, -0.0001476573, 0.003996048, -0.0001016282, 0.0005187925, -0.9999979, -0.001287271, 0.3503954
 218430926, 0.0001003115, 0.01142027, -0.0001507514, 0.00104407, -5.370276E-05, 0.004404366, -0.000128374, 0.0005187925, -0.9999979, -0.001284023, 0.3503954
 218630846, -9.155017E-05, 0.01161934, -0.0005118112, 0.00104407, 0.0001033054, 0.004278061, 0.0004044798, 0.0005187925, -0.9999978, -0.001280204, 0.3503954
 218830766, 0.0001710082, 0.0117477, 7.556148E-05, 0.00104407, -0.0002441489, 0.004368704, -0.0003890448, 0.0005187925, -0.9999978, -0.001276379, 0.3503954
 219030686, -0.000404858, 0.01180895, -0.0003660012, 0.00104407, -5.162006E-05, 0.004250941, -0.0002326225, 0.0005187925, -0.9999978, -0.001273209, 0.3503954
 219231439, 0.0002383577, 0.01198553, -0.0005440813, 0.001046232, 0.00015993, 0.004229481, -0.0002899388, 0.0005209541, -0.9999978, -0.001269673, 0.3511209
 219431359, 0.000427616, 0.0114611, -0.0002819276, 0.001046232, 0.0004931699, 0.0044948, -9.77149E-05, 0.0005187925, -0.9999978, -0.00127954, 0.3511209
 219631279, 0.0005676037, 0.01160533, -0.0004399243, 0.00104407, 3.711299E-05, 0.004071899, -0.0001968621, 0.0005187925, -0.9999978, -0.001287651, 0.3503954
 219831199, 0.0001228912, 0.01147716, -0.0004097598, 0.00104407, 0.000123901, 0.004236515, 5.552335E-05, 0.0005187925, -0.9999978, -0.001295848, 0.3503954
 220031119, 0.0001582411, 0.01161405, -0.0001719228, 0.00104407, -1.031343E-05, 0.004499495, 9.684383E-05, 0.0005187925, -0.9999978, -0.001303726, 0.3503954
 220231039, 7.369617E-05, 0.01152903, -0.0002168372, 0.00104407, -0.0001170437, 0.003856636, 5.345709E-05, 0.0005187925, -0.9999978, -0.001311888, 0.3503954
 220430959, -0.00024627, 0.01115536, 0.0001290496, 0.00104407, -0.000115923, 0.004249064, 4.124898E-05, 0.0005187925, -0.9999978, -0.00131933, 0.3503954
 220630879, -0.0003310725, 0.01176466, -5.094395E-05, 0.00104407, -0.0002724509, 0.00421178, -8.23514E-05, 0.0005187925, -0.9999978, -0.001324652, 0.3503954
 220830799, -0.0003903316, 0.01169879, 0.0001368821, 0.00104407, -0.0004770464, 0.004970379, 0.0001566319, 0.0005187925, -0.9999978, -0.001329562, 0.3503954
 221030719, -0.00041016, 0.01240273, -0.0001216569, 0.00104407, 0.0004459128, 0.004026138, 0.0002135233, 0.0005187925, -0.9999978, -0.001333399, 0.3503954
 221231472, 0.0006538731, 0.01115481, -8.538645E-05, 0.001046232, 0.000281214, 0.003800683, -6.624789E-05, 0.0005209541, -0.9999978, -0.001334458, 0.3511209
 221431392, 0.0001811863, 0.01128654, -0.0003615863, 0.001046232, 0.0001656491, 0.004455693, 0.000460133, 0.0005187925, -0.9999978, -0.001338174, 0.3511209
 221631312, 0.0005339927, 0.01166129, 0.0004800888, 0.00104407, 0.0004466725, 0.00411534, -0.0001652474, 0.0005187925, -0.9999978, -0.001341112, 0.3503954
 221831232, 0.0002659928, 0.01137822, -0.000594452, 0.00104407, -0.0004909658, 0.004323712, -0.0001550292, 0.0005187925, -0.9999978, -0.001341328, 0.3503954
 222031152, -0.0003659988, 0.01183558, -0.0002939371, 0.00104407, -0.0001189916, 0.004105402, 0.0001839712, 0.0005187925, -0.9999978, -0.001341526, 0.3503954
 222231072, -0.000101935, 0.01153063, -2.932692E-05, 0.00104407, 0.0002316135, 0.004177048, 0.0002411056, 0.0005187925, -0.9999978, -0.001341384, 0.3503954
 222430992, 0.0001961335, 0.01161147, -0.0001725138, 0.00104407, 0.000106361, 0.004286933, -0.0003991557, 0.0005187925, -0.9999978, -0.001341628, 0.3503954
 222630912, -0.0002522541, 0.01133206, -0.0007074469, 0.00104407, -0.0002164629, 0.004143757, -0.0007007728, 0.0005187925, -0.9999978, -0.001343242, 0.3503954
 222830832, 6.426851E-05, 0.01154787, -0.0007118605, 0.00104407, -0.0002392966, 0.004871314, -0.0001423481, 0.0005187925, -0.9999978, -0.001343805, 0.3503954
 223030752, -0.0002770845, 0.01195675, -0.0005084328, 0.00104407, -0.0002870996, 0.003945195, -0.0002486021, 0.0005187925, -0.9999978, -0.001342979, 0.3503954
 223230672, -0.0006364897, 0.01106338, -0.0003231008, 0.00104407, -1.843028E-05, 0.004244281, -0.0001722922, 0.0005187925, -0.9999978, -0.001341401, 0.3503954
 223431425, 8.592972E-06, 0.01149186, -0.0003676279, 0.001046232, -6.982889E-07, 0.004093452, -0.0005195887, 0.0005209541, -0.9999978, -0.001339354, 0.3511209
 223631345, -5.909597E-05, 0.01148291, -0.0008433043, 0.001046232, -0.0003527626, 0.004370514, -0.0001828439, 0.0005187925, -0.9999978, -0.001336851, 0.3511209
 223831265, -0.0005846671, 0.01168347, -0.0002777966, 0.00104407, -0.0001729809, 0.004401459, 6.710705E-05, 0.0005187925, -0.9999978, -0.001333122, 0.3503954
 224031185, -0.0005554167, 0.011988, 6.115616E-05, 0.00104407, -0.0005564324, 0.004588437, -0.000181551, 0.0005187925, -0.9999978, -0.001330275, 0.3503954
 224231105, -0.000549858, 0.01201108, -0.000423181, 0.00104407, -9.710783E-05, 0.004081365, -0.0003379566, 0.0005187925, -0.9999978, -0.001327267, 0.3503954
 224431025, 4.671239E-05, 0.01131574, -0.0005324617, 0.00104407, -0.0003090003, 0.004490721, 0.0001033822, 0.0005187925, -0.9999978, -0.001323938, 0.3503954
 224630945, -0.0005123289, 0.01173778, -0.0001942787, 0.00104407, -0.0002835869, 0.004283528, -8.479778E-05, 0.0005187925, -0.9999977, -0.001336416, 0.3503954
 224830865, -2.320087E-05, 0.01171777, -6.568307E-05, 0.00104407, -1.199381E-05, 0.003886791, -0.0001027531, 0.0005187925, -0.9999977, -0.001347814, 0.3503954
 225030785, -0.0001356404, 0.01123779, -1.601294E-05, 0.00104407, -0.0004815035, 0.004211566, 0.000169735, 0.0005187925, -0.9999977, -0.001360224, 0.3503954
 225230705, -0.0001137444, 0.01138612, 0.0001169464, 0.00104407, 0.0002761589, 0.004647163, -7.976558E-05, 0.0005187925, -0.9999977, -0.001369747, 0.3503954
 225431458, 0.0002126049, 0.01197331, -0.0004049288, 0.001046232, 0.0001510374, 0.004383776, 6.707603E-06, 0.0005209541, -0.9999977, -0.001378862, 0.3511209
 225631378, -0.0001707815, 0.01171031, -0.00041162, 0.001046232, -0.0001369359, 0.003928616, -0.0003486811, 0.0005187925, -0.9999977, -0.001386656, 0.3511209
 225831298, 0.0001385815, 0.01176166, -0.0004270716, 0.00104407, 0.000122397, 0.004354871, -0.0001195405, 0.0005187925, -0.9999977, -0.001392376, 0.3503954
 226031218, 0.0002289885, 0.01162723, -0.0001605286, 0.00104407, -0.0002030238, 0.004172587, 6.806034E-05, 0.0005187925, -0.9999977, -0.001396942, 0.3503954
 226231138, -8.577008E-05, 0.01136367, -0.0001661565, 0.00104407, -0.0001355625, 0.004223833, 1.192689E-05, 0.0005187925, -0.9999977, -0.001402247, 0.3503954
 226431058, -0.000222154, 0.01156933, -0.0005030145, 0.00104407, 3.655152E-05, 0.004192093, -0.0003444486, 0.0005187925, -0.9999977, -0.00140743, 0.3503954
 226630978, -2.163215E-05, 0.0117656, -0.0004450185, 0.00104407, 0.0001235301, 0.004446905, -0.0002770507, 0.0005187925, -0.9999977, -0.001411174, 0.3503954
 226830898, -0.0001232604, 0.011776, -0.0006785741, 0.00104407, -0.0002245863, 0.004071603, -0.0001985137, 0.0005187925, -0.9999977, -0.001414768, 0.3503954
 227030818, -0.000274737, 0.01145736, -0.0003425241, 0.00104407, 0.0002626961, 0.004099075, -0.0002314916, 0.0005187925, -0.9999977, -0.001417887, 0.3503954
 227230738, 0.0003725599, 0.01173445, -0.0004186362, 0.00104407, 0.0002505654, 0.004069623, -0.0003969476, 0.0005187925, -0.9999977, -0.00141954, 0.3503954
 227430658, 0.0003155846, 0.01152076, -0.0005979027, 0.00104407, -0.0003770558, 0.004427637, -7.479893E-05, 0.0005187925, -0.9999977, -0.001423127, 0.3503954
 227631411, -0.0004754073, 0.01204953, 8.926595E-05, 0.001046232, -1.909472E-05, 0.00435296, 0.0001113534, 0.0005209541, -0.9999977, -0.00142442, 0.3511209
 227831331, 0.0001755338, 0.01214559, -0.0004184081, 0.001046232, 0.0001863843, 0.004393047, -0.0003498262, 0.0005187925, -0.9999977, -0.001424753, 0.3511209
 228031251, 0.0003590567, 0.01149042, -0.0006351624, 0.00104407, -0.0001631055, 0.004447591, -2.766456E-05, 0.0005187925, -0.9999977, -0.001423832, 0.3503954
 228231171, -0.0001478731, 0.01199635, -9.929379E-05, 0.00104407, 0.0003413307, 0.004502861, -0.0005725191, 0.0005187925, -0.9999977, -0.00142296, 0.3503954
 228431091, 0.0006504421, 0.01180954, -0.0006107343, 0.00104407, 0.0005436265, 0.004382294, -0.000314191, 0.0005187925, -0.9999977, -0.001421258, 0.3503954
 228631011, 0.0007934789, 0.01173743, -0.0002718886, 0.00104407, 0.0001190031, 0.003965792, -2.634782E-05, 0.0005187925, -0.9999977, -0.001420702, 0.3503954
 228830931, 0.0003419324, 0.01154128, -3.984644E-05, 0.00104407, 0.0001850546, 0.004741546, 0.0002575952, 0.0005187925, -0.9999976, -0.001418866, 0.3503954
 229030851, 0.0001521443, 0.01221054, 0.0002451654, 0.00104407, -0.0002217555, 0.004364958, -0.000345882, 0.0005187925, -0.9999976, -0.001416828, 0.3503954
 229230771, -0.0004818828, 0.01171313, -0.0006242589, 0.00104407, -7.469429E-05, 0.004013748, -0.0001969563, 0.0005187925, -0.9999976, -0.001414639, 0.3503954
 229430691, 0.0002493486, 0.01155374, -0.0004022108, 0.00104407, -0.0001345585, 0.004343546, 0.000344806, 0.0005187925, -0.9999976, -0.001412929, 0.3503954
 229631444, 9.547918E-05, 0.01161217, 0.0003851723, 0.001046232, -3.984561E-05, 0.004370517, 8.312515E-05, 0.0005209541, -0.9999976, -0.001413095, 0.3511209
 229831364, 0.00010302, 0.01207957, -1.136406E-05, 0.001046232, 0.0001559455, 0.004813364, -0.0001198385, 0.0005187925, -0.9999976, -0.001425641, 0.3511209
 230031284, -0.0001417356, 0.01216796, -0.0007189913, 0.00104407, -3.346326E-05, 0.004230883, -0.0003437741, 0.0005187925, -0.9999976, -0.001436096, 0.3503954
 230231204, -8.971316E-05, 0.01150016, -0.0005618042, 0.00104407, -0.0001584301, 0.004497487, 7.178176E-05, 0.0005187925, -0.9999976, -0.001447175, 0.3503954
 230431124, -0.000198673, 0.01188032, 0.0001014625, 0.00104407, -0.0001833203, 0.003970998, 0.0002711653, 0.0005187925, -0.9999976, -0.001455971, 0.3503954
 230631044, 2.734931E-06, 0.01141698, 0.0002038343, 0.00104407, 0.0001091846, 0.004723828, -0.000100203, 0.0005187925, -0.9999976, -0.001464005, 0.3503954
 230830964, 0.0001694149, 0.01232648, -0.0001786149, 0.00104407, -0.0003002411, 0.00461506, -0.0001952558, 0.0005187925, -0.9999976, -0.00147051, 0.3503954
 231030884, -0.0004131693, 0.01187308, -0.0003765578, 0.00104407, 9.734283E-05, 0.004311463, 0.0001138279, 0.0005187925, -0.9999976, -0.001476398, 0.3503954
 231230804, -0.0001257426, 0.01186745, -0.0002720638, 0.00104407, -0.0004274119, 0.004314138, -0.0001246812, 0.0005187925, -0.9999976, -0.001481498, 0.3503954
 231430724, -0.0007086927, 0.01159028, -0.0004161194, 0.00104407, 3.628584E-05, 0.004220069, -3.704736E-06, 0.0005187925, -0.9999976, -0.001483998, 0.3503954
 231631477, -1.940552E-05, 0.0115889, -0.0005027746, 0.001046232, -8.173281E-05, 0.003978026, -0.0001632161, 0.0005209541, -0.9999976, -0.001487122, 0.3511209
 231831397, -0.0002503583, 0.01123729, -0.0001296184, 0.001046232, -0.0001662582, 0.004403168, 0.0001431643, 0.0005187925, -0.9999976, -0.001491181, 0.3511209
 232031317, -0.0003461731, 0.01157263, 0.0001037278, 0.00104407, -0.000127505, 0.004074325, 5.610488E-05, 0.0005187925, -0.9999976, -0.001492861, 0.3503954
 232231237, -0.0003438179, 0.01127091, -1.203174E-05, 0.00104407, -0.0002352988, 0.004027954, -0.0002026105, 0.0005187925, -0.9999976, -0.001491833, 0.3503954
 232431157, -2.697978E-06, 0.01125339, -0.0003148977, 0.00104407, 0.0001081597, 0.004035778, -0.0002221828, 0.0005187925, -0.9999976, -0.001491404, 0.3503954
 232631077, 3.103221E-05, 0.0111097, -0.0004104022, 0.00104407, -0.000174253, 0.004322386, 0.0001778201, 0.0005187925, -0.9999976, -0.001491333, 0.3503954
 232830997, -6.600333E-05, 0.01188917, 0.0003144914, 0.00104407, -3.052324E-05, 0.004365262, -9.947969E-05, 0.0005187925, -0.9999976, -0.001491123, 0.3503954
 233030917, 0.0001240011, 0.01215631, -0.0003136667, 0.00104407, -0.0001106918, 0.004574745, 3.168149E-05, 0.0005187925, -0.9999976, -0.001490014, 0.3503954
 233230837, -0.0003890752, 0.01172606, -0.0003149155, 0.00104407, -0.0005605087, 0.00419556, 0.0003707308, 0.0005187925, -0.9999976, -0.001488005, 0.3503954
 233430757, -0.0008388504, 0.01140492, 0.000439966, 0.00104407, -0.0003026685, 0.004072119, 0.0001842274, 0.0005187925, -0.9999976, -0.001485976, 0.3503954
 233630677, -0.0005516245, 0.0114569, 7.65101E-05, 0.00104407, -0.0001282983, 0.004211013, 0.0002507756, 0.0005187925, -0.9999976, -0.001482677, 0.3503954
 233831430, -0.0003258225, 0.01152479, -0.0001118054, 0.001046232, -0.0001060135, 0.004150064, -3.023765E-05, 0.0005209541, -0.9999976, -0.001482356, 0.3511209
 234031350, 0.0001263389, 0.01164513, -0.0001686951, 0.001046232, -0.0003493815, 0.003992763, -0.0001683837, 0.0005187925, -0.9999976, -0.001478845, 0.3511209
 234231270, -0.0001166587, 0.01139418, -0.000438753, 0.00104407, 0.0004308428, 0.004074443, -0.0004454761, 0.0005187925, -0.9999976, -0.001474599, 0.3503954
 234431190, 0.0006304146, 0.01133969, -0.0003218578, 0.00104407, -0.000161028, 0.004001406, -0.0003293067, 0.0005187925, -0.9999976, -0.001471024, 0.3503954
 234631110, -0.0001697376, 0.01165571, -0.0006372929, 0.00104407, 8.714609E-05, 0.004387476, 0.0001035836, 0.0005187925, -0.9999976, -0.001468301, 0.3503954
 234831030, 4.800837E-05, 0.0121379, -9.948086E-05, 0.00104407, 0.0001553991, 0.004380939, -0.0002402941, 0.0005187925, -0.9999976, -0.001464291, 0.3503954
 235030950, 7.237375E-05, 0.01160351, -0.0005268337, 0.00104407, -9.73252E-05, 0.004070427, -0.0005257243, 0.0005187925, -0.9999976, -0.001474975, 0.3503954
 235230870, -9.42507E-05, 0.01131674, -0.0008798536, 0.00104407, 0.0001109928, 0.004153125, -6.738828E-05, 0.0005187925, -0.9999976, -0.001485215, 0.3503954
 235430790, 0.0002069207, 0.01146815, -0.0001508681, 0.00104407, 0.0002932352, 0.004600522, -0.0001149016, 0.0005187925, -0.9999976, -0.001493614, 0.3503954
 235630710, 0.0003563808, 0.01197157, -0.0003206793, 0.00104407, 0.0001545793, 0.004477653, 0.0002126844, 0.0005187925, -0.9999976, -0.001502539, 0.3503954
 235831463, -7.314228E-05, 0.01167541, 0.0002564362, 0.001046232, -0.0002158352, 0.00376516, -2.189078E-05, 0.0005209541, -0.9999976, -0.001511247, 0.3511209
 236031383, -0.0007495992, 0.01112715, -0.0001875421, 0.001046232, -0.0007407921, 0.004498417, -5.72512E-05, 0.0005187925, -0.9999974, -0.001517607, 0.3511209
 236231303, -0.0008027412, 0.0116832, -9.243247E-05, 0.00104407, -6.960021E-05, 0.004217187, 0.0001184359, 0.0005187925, -0.9999974, -0.001522992, 0.3503954
 236431223, 0.0002588617, 0.01139114, -0.0001725341, 0.00104407, 0.0003468053, 0.004518026, -0.0005010401, 0.0005187925, -0.9999974, -0.00152623, 0.3503954
 236631143, 0.0003491653, 0.01139329, -0.0007744124, 0.00104407, -0.0001898727, 0.004154931, -0.0004161218, 0.0005187925, -0.9999974, -0.00153093, 0.3503954
 236831063, -0.0002858587, 0.0113243, -0.0002956637, 0.00104407, -0.0005245719, 0.004156821, 0.0002087271, 0.0005187925, -0.9999974, -0.001534293, 0.3503954
 237030983, -0.0003069959, 0.01162124, 0.000183161, 0.00104407, 0.0002390406, 0.004503094, -0.0002649618, 0.0005187925, -0.9999974, -0.001537756, 0.3503954
 237230903, 6.085473E-05, 0.01216416, -0.0004047062, 0.00104407, 0.0005180919, 0.004150997, -0.0002967458, 0.0005187925, -0.9999974, -0.001540082, 0.3503954
 237430823, 2.73261E-05, 0.01159818, -0.0005131433, 0.00104407, -0.0002243155, 0.004437976, -0.000162938, 0.0005187925, -0.9999974, -0.001542217, 0.3503954
 237630743, -0.0002315476, 0.01158997, -5.648017E-05, 0.00104407, -0.0001744206, 0.003664592, -0.0001508109, 0.0005187925, -0.9999974, -0.001543229, 0.3503954
 237830663, -0.0002216744, 0.01085849, -8.890053E-05, 0.00104407, 0.0003274592, 0.004358221, -0.0001171061, 0.0005187925, -0.9999974, -0.001544295, 0.3503954
 238031416, 0.000472802, 0.01205792, -0.0004354308, 0.001046232, 4.16269E-05, 0.004449074, -0.0002233482, 0.0005209541, -0.9999974, -0.001546444, 0.3511209
 238231336, -8.97135E-05, 0.0117534, -0.0003906868, 0.001046232, -4.981043E-05, 0.004115295, -0.0001941274, 0.0005187925, -0.9999974, -0.001547259, 0.3511209
 238431256, 8.224255E-05, 0.01152713, -0.0002757638, 0.00104407, 0.0001536169, 0.00433937, -0.0001710732, 0.0005187925, -0.9999974, -0.001544931, 0.3503954
 238631176, 0.0001202519, 0.01179341, -6.087724E-05, 0.00104407, -1.192189E-05, 0.004238197, -0.0001053663, 0.0005187925, -0.9999974, -0.001544237, 0.3503954
 238831096, -0.0002507777, 0.01138664, -0.0002404383, 0.00104407, -0.0002008442, 0.004280104, -0.0001312446, 0.0005187925, -0.9999974, -0.001541967, 0.3503954
 239031016, -0.0001728912, 0.01131486, -0.0001635065, 0.00104407, -0.0004807026, 0.003837816, -0.0001883564, 0.0005187925, -0.9999974, -0.001539948, 0.3503954
 239230936, -0.0004818431, 0.01115481, -0.0004963617, 0.00104407, -0.0004932532, 0.0042488, -0.0003591066, 0.0005187925, -0.9999974, -0.001537677, 0.3503954
 239430856, -0.0003224602, 0.01157172, -0.0004948304, 0.00104407, 5.514977E-05, 0.004133611, 0.0002844959, 0.0005187925, -0.9999974, -0.001535115, 0.3503954
 239630776, -5.67852E-05, 0.01165526, 0.0001278366, 0.00104407, -4.437755E-05, 0.004282403, -7.709748E-06, 0.0005187925, -0.9999974, -0.001532516, 0.3503954
 239830696, 0.0002101237, 0.01180413, -8.956151E-06, 0.00104407, 0.0002970604, 0.004187031, 0.0001291747, 0.0005187925, -0.9999974, -0.001530154, 0.3503954
 240031449, 0.0004099367, 0.0116229, 0.0004048054, 0.001046232, -1.708498E-05, 0.004196847, 6.943145E-07, 0.0005209541, -0.9999974, -0.001530259, 0.3511209
 240231369, -0.0004452735, 0.01175665, -0.000113621, 0.001046232, -0.000239827, 0.004481862, -0.0001189352, 0.0005187925, -0.9999974, -0.001539739, 0.3511209
 240431289, -0.0001999677, 0.01187249, 0.0001141353, 0.00104407, -6.385958E-05, 0.00397821, -1.597361E-05, 0.0005187925, -0.9999974, -0.001547011, 0.3503954
 240631209, -0.0005238104, 0.01138453, -0.0002465501, 0.00104407, -0.0001426836, 0.00438092, -0.0003766269, 0.0005187925, -0.9999974, -0.001554267, 0.3503954
 240831129, -0.0003175731, 0.01184667, -0.0007097109, 0.00104407, -0.0004113837, 0.004246726, -0.0003261442, 0.0005187925, -0.9999974, -0.001561789, 0.3503954
 241031049, -0.0002266176, 0.01115672, -0.0004404226, 0.00104407, -9.214008E-05, 0.003695313, -9.286264E-05, 0.0005187925, -0.9999974, -0.001567652, 0.3503954
 241230969, -0.0005444112, 0.01115255, -0.0001182608, 0.00104407, -0.0002829938, 0.004351451, 0.0001170083, 0.0005187925, -0.9999974, -0.001572746, 0.3503954
 241430889, -0.0003505628, 0.01171034, 0.0001108286, 0.00104407, -0.0001551801, 0.004259697, -0.0003575884, 0.0005187925, -0.9999974, -0.001577594, 0.3503954
 241630809, -0.0002445291, 0.01156206, -0.0005067395, 0.00104407, -0.0002510213, 0.004239709, 3.621202E-05, 0.0005187925, -0.9999973, -0.00158174, 0.3503954
 241830729, -9.288536E-05, 0.01144803, -0.0002930398, 0.00104407, 0.0003345218, 0.003645986, -0.0001561339, 0.0005187925, -0.9999974, -0.001584686, 0.3503954
 242031482, 0.000347318, 0.01132971, -9.659595E-05, 0.001046232, -1.66303E-05, 0.0042815, -3.154724E-05, 0.0005209541, -0.9999973, -0.001589129, 0.3511209
 242231402, -3.101525E-05, 0.0115286, -5.264959E-05, 0.001046232, -0.0001886948, 0.004748864, 7.868718E-05, 0.0005187925, -0.9999973, -0.001592679, 0.3511209
 242431322, -0.0002917009, 0.01206033, -0.0003404042, 0.00104407, 7.921531E-06, 0.004461449, -0.0002460675, 0.0005187925, -0.9999973, -0.001594796, 0.3503954
 242631242, 8.560509E-06, 0.01185627, -0.0004992872, 0.00104407, 0.0001923182, 0.003769245, 2.92101E-05, 0.0005187925, -0.9999973, -0.001593177, 0.3503954
 242831162, 1.695423E-05, 0.01093818, -0.0003322201, 0.00104407, -0.0002413123, 0.00418587, 4.423279E-05, 0.0005187925, -0.9999973, -0.001593693, 0.3503954
 243031082, -0.0002899364, 0.01176664, -0.0001433443, 0.00104407, 0.0003249346, 0.004108347, 0.0004330714, 0.0005187925, -0.9999973, -0.001593244, 0.3503954
 243231002, 5.858723E-05, 0.01146797, 0.0004531762, 0.00104407, -0.0002298639, 0.004369593, -7.274697E-05, 0.0005187925, -0.9999973, -0.001593751, 0.3503954
 243430922, -0.0001179502, 0.0116247, -0.0002557364, 0.00104407, 0.0004882476, 0.004029816, -3.698061E-05, 0.0005187925, -0.9999973, -0.001593043, 0.3503954
 243630842, 0.0006100623, 0.01171192, -1.948412E-05, 0.00104407, -0.000136826, 0.004441774, -0.000122093, 0.0005187925, -0.9999973, -0.001591872, 0.3503954
 243830762, -0.0003088861, 0.0120918, -0.0003006412, 0.00104407, -0.0003450094, 0.004485256, 8.307827E-05, 0.0005187925, -0.9999973, -0.001590122, 0.3503954
 244030682, -0.0005272175, 0.01167514, 0.00012024, 0.00104407, 8.051817E-05, 0.004525333, -0.0001773959, 0.0005187925, -0.9999973, -0.001587299, 0.3503954
 244231435, -0.0004617071, 0.01205569, -0.0004134026, 0.001046232, -0.0001420724, 0.004508675, 0.0001408145, 0.0005209541, -0.9999973, -0.001587942, 0.3511209
 244431355, -6.955562E-05, 0.01197241, -0.0001467904, 0.001046232, 0.0001882028, 0.004458588, -0.0001727545, 0.0005187925, -0.9999973, -0.00158478, 0.3511209
 244631275, 9.116245E-05, 0.01197716, -0.0004875223, 0.00104407, 0.0002915365, 0.004350727, 7.643027E-05, 0.0005187925, -0.9999973, -0.00157847, 0.3503954
 244831195, 0.0002141426, 0.01167445, -0.0002175522, 0.00104407, -0.0002584225, 0.004244254, 1.060538E-05, 0.0005187925, -0.9999973, -0.001574001, 0.3503954
 245031115, -0.0003593136, 0.01174255, -0.0001948102, 0.00104407, 0.0002549436, 0.004473135, -8.594531E-05, 0.0005187925, -0.9999973, -0.001567394, 0.3503954
 245231035, 0.0005349687, 0.0120653, -0.000131073, 0.00104407, -0.0003296798, 0.004428663, -2.979517E-05, 0.0005187925, -0.9999973, -0.001562544, 0.3503954
 245430955, -0.0004432273, 0.01183397, -0.0001451019, 0.00104407, -0.0003015442, 0.004431321, -0.0005573594, 0.0005187925, -0.9999973, -0.001572022, 0.3503954
 245630875, -0.0007320409, 0.01187013, -0.0006229469, 0.00104407, -0.000249092, 0.004148341, 0.0002487534, 0.0005187925, -0.9999974, -0.001579734, 0.3503954
 245830795, -0.0003658525, 0.01096925, 0.0001400732, 0.00104407, 0.0001939782, 0.003995699, -0.0004886448, 0.0005187925, -0.9999974, -0.00158671, 0.3503954
 246030715, 0.0006570159, 0.01115108, -0.000626958, 0.00104407, 0.0004617753, 0.003921372, -0.0003647096, 0.0005187925, -0.9999974, -0.001591508, 0.3503954
 246231468, 0.0005622797, 0.01115311, -0.0005454678, 0.001046232, -0.0004976852, 0.004041736, -0.0002374923, 0.0005209541, -0.9999974, -0.001597185, 0.3511209
 246431388, -0.0005671662, 0.01163389, -0.0009846987, 0.001046232, -1.820928E-05, 0.004037811, -0.0001133334, 0.0005187925, -0.9999973, -0.001602447, 0.3511209
 246631308, 0.0001143636, 0.01154426, -0.0002753038, 0.00104407, 7.159738E-05, 0.004674535, -0.000168771, 0.0005187925, -0.9999974, -0.001605879, 0.3503954
 246831228, 8.648128E-05, 0.01153792, -0.0003081376, 0.00104407, -0.000187095, 0.003819924, -0.0006576564, 0.0005187925, -0.9999974, -0.001606586, 0.3503954
 247031148, -0.0002516383, 0.01133404, -0.0006013241, 0.00104407, -4.791141E-05, 0.004392461, 0.0004427235, 0.0005187925, -0.9999974, -0.001608144, 0.3503954
 247231068, -0.0002881693, 0.01186607, 0.0005091086, 0.00104407, 3.325802E-05, 0.004312352, 4.237148E-05, 0.0005187925, -0.9999974, -0.001609294, 0.3503954
 247430988, -0.0001654052, 0.01175011, 0.0001003102, 0.00104407, -4.180533E-05, 0.00424604, 0.0002683352, 0.0005187925, -0.9999974, -0.001608679, 0.3503954
 247630908, -0.0001702803, 0.01161138, 0.0002355837, 0.00104407, -6.135122E-06, 0.004327309, 0.0001528879, 0.0005187925, -0.9999974, -0.001608634, 0.3503954
 247830828, 0.0006752029, 0.01213289, -0.2838923, 0.00104407, 0.0005135369, 0.004717484, -0.1672405, 0.0005187925, -0.9999974, -0.001607117, 0.3503954
 248030748, 0.0003856969, 0.01200654, -0.1567306, 0.00104407, -0.0003798198, 0.004020341, 0.06390765, 0.0005187925, -0.9999974, -0.001604664, 0.3503954
 248230668, -0.0007839344, 0.01110275, 0.1125978, 0.00104407, -0.0001624525, 0.004359734, 0.01297606, 0.0005187925, -0.9999977, -0.001604805, 0.3503954
 248431421, -0.003425298, 0.007902417, -1.252374, 0.001046232, -0.004307984, -0.00026626, -0.7933964, 0.0005209541, -0.9999937, -0.001702732, 0.3511209
 248631341, -0.0179699, -0.007905632, -1.426477, 0.001046232, -0.009384443, -0.006195581, -0.1566478, 0.0005187925, -0.9999758, -0.001861011, 0.3511209
 248831261, -0.02667883, -0.01732284, -0.278238, 0.00104407, -0.01013204, -0.006277482, -0.07626505, 0.0005187925, -0.9999695, -0.002005185, 0.3503954
 249031181, -0.02608066, -0.01570374, -0.2990854, 0.00104407, -0.00874679, -0.004930539, -0.1461649, 0.0005187925, -0.9999703, -0.002148928, 0.3503954
 249231101, -0.02279428, -0.01135828, -0.3864785, 0.00104407, -0.007508988, -0.003226524, -0.127329, 0.0005187925, -0.9999726, -0.002289171, 0.3503954
 249431021, -0.01951652, -0.006931695, -0.317426, 0.00104407, -0.006551311, -0.001682277, -0.101543, 0.0005187925, -0.9999748, -0.002428849, 0.3503954
 249630941, -0.01663689, -0.002961562, -0.2648844, 0.00104407, -0.005475598, -0.0005213226, -0.09044126, 0.0005187925, -0.9999769, -0.002560993, 0.3503954
 249830861, -0.01372144, -0.0001218654, -0.2369745, 0.00104407, -0.004120193, 0.0004813929, -0.08067696, 0.0005187925, -0.9999788, -0.002697878, 0.3503954
 250030781, -0.01057987, 0.002566359, -0.2093346, 0.00104407, -0.003386513, 0.001501838, -0.07000431, 0.0005187925, -0.9999803, -0.002831628, 0.3503954
 250230701, -0.008195577, 0.005121092, -0.1825234, 0.00104407, -0.002677269, 0.002345436, -0.06143656, 0.0005187925, -0.9999816, -0.002956879, 0.3503954
 250431454, -0.006195157, 0.007034942, -0.1605154, 0.001046232, -0.001713853, 0.002827571, -0.05413211, 0.0005209541, -0.9999827, -0.003084809, 0.3511209
 250631374, -0.00439814, 0.008351649, -0.1408234, 0.001046232, -0.00169781, 0.002989487, -0.0477183, 0.0005187925, -0.9999821, -0.003211619, 0.3511209
 250831294, -0.004835338, 0.00860636, -0.1234104, 0.00104407, -0.002018798, 0.003265721, -0.04105368, 0.0005187925, -0.9999812, -0.003376039, 0.3503954
 251031214, -0.005317601, 0.008946825, -0.106963, 0.00104407, -0.001782492, 0.003284388, -0.03603987, 0.0005187925, -0.9999794, -0.003807599, 0.3503954
 251231134, -0.005058978, 0.008711565, -0.09469781, 0.00104407, -0.001920669, 0.002959853, -0.03242148, 0.0005187925, -0.999976, -0.004368023, 0.3503954
 251431054, -0.005217646, 0.008266692, -0.08404788, 0.00104407, -0.001713798, 0.003017043, -0.02861571, 0.0005187925, -0.9999722, -0.0048973, 0.3503954
 251630974, -0.004899884, 0.007883321, -0.07401322, 0.00104407, -0.001943373, 0.002890632, -0.02509049, 0.0005187925, -0.9999683, -0.00540456, 0.3503954
 251830894, -0.004595017, 0.00791352, -0.0648572, 0.00104407, -0.001369554, 0.002732252, -0.02176484, 0.0005187925, -0.9999645, -0.005886765, 0.3503954
 252030814, -0.003896261, 0.007357148, -0.05663976, 0.00104407, -0.001451849, 0.002605685, -0.01900862, 0.0005187925, -0.9999604, -0.006350142, 0.3503954
 252230734, -0.003302594, 0.007084722, -0.04963638, 0.00104407, -0.001018186, 0.002706642, -0.01668962, 0.0005187925, -0.9999564, -0.006787192, 0.3503954
 252430654, -0.00266994, 0.007221127, -0.04360408, 0.00104407, -0.0006871331, 0.002541035, -0.01497474, 0.0005187925, -0.9999524, -0.007206786, 0.3503954
 252631407, -0.001510382, 0.006882118, -0.0388798, 0.001046232, -0.0001398079, 0.002428009, -0.01325711, 0.0005209541, -0.9999481, -0.007607017, 0.3511209
 252831327, -0.0004449313, 0.006580226, -0.03432231, 0.001046232, -0.0004677416, 0.002398799, -0.01144398, 0.0005187925, -0.9999442, -0.007982261, 0.3511209
 253031247, -0.0004996395, 0.00675981, -0.02939948, 0.00104407, 5.649102E-05, 0.002414393, -0.009896228, 0.0005187925, -0.9999403, -0.0083369, 0.3503954
 253231167, 0.0006543403, 0.006972164, -0.02595586, 0.00104407, 0.000589877, 0.002854029, -0.008708509, 0.0005187925, -0.999938, -0.008666118, 0.3503954
 253431087, 0.001623193, 0.007891026, -0.0228956, 0.00104407, 0.001028464, 0.003206167, -0.007806825, 0.0005187925, -0.9999363, -0.008969791, 0.3503954
 253631007, 0.002331729, 0.009072796, -0.01933377, 0.00104407, 0.0009088934, 0.003555949, -0.006163137, 0.0005187925, -0.9999341, -0.009370281, 0.3503954
 253830927, 0.002310722, 0.01044921, -0.01702251, 0.00104407, 0.0004888352, 0.004492927, -0.006157679, 0.0005187925, -0.9999314, -0.009877763, 0.3503954
 254030847, 0.001713386, 0.01228313, -0.0158031, 0.00104407, 0.0005647655, 0.004235986, -0.005326938, 0.0005187925, -0.9999286, -0.01036095, 0.3503954
 254230767, 0.001581325, 0.01258506, -0.01369559, 0.00104407, 0.0007664514, 0.005114822, -0.004634541, 0.0005187925, -0.9999256, -0.01081689, 0.3503954
 254430687, 0.00153144, 0.01399146, -0.01198888, 0.00104407, 0.0002926729, 0.004973585, -0.003706796, 0.0005187925, -0.9999226, -0.01124701, 0.3503954
 254631440, 0.001107051, 0.01450851, -0.01041574, 0.001046232, 0.00050189, 0.005806074, -0.003697144, 0.0005209541, -0.9999194, -0.01165581, 0.3511209
 254831360, 0.001023318, 0.01578161, -0.00949837, 0.001046232, 0.0001888088, 0.006162097, -0.003072551, 0.0005187925, -0.9999161, -0.01203912, 0.3511209
 255031280, 0.0010775, 0.01655603, 0.05453119, 0.00104407, 0.0006567761, 0.006102972, 0.07482189, 0.0005187925, -0.9999127, -0.0124108, 0.3503954
 255231200, 0.004265036, 0.01904649, 0.7237775, 0.00104407, 0.001657016, 0.007456583, 0.3607499, 0.0005187925, -0.999906, -0.01299774, 0.3503954
 255431120, 0.004861321, 0.02004326, 0.937669, 0.00104407, 0.001580753, 0.007100623, 0.3159954, 0.0005187925, -0.9998985, -0.01357346, 0.3503954
 255631040, 0.004287042, 0.01904635, 0.8225086, 0.00104407, 0.001534703, 0.007016337, 0.2775631, 0.0005187925, -0.9998912, -0.01411626, 0.3503954
 255830960, 0.003755108, 0.01857991, 0.722349, 0.00104407, 0.001116421, 0.006882936, 0.2436299, 0.0005187925, -0.9998838, -0.01464256, 0.3503954
 256030880, 0.003187695, 0.01800855, 0.6338568, 0.00104407, 0.001253027, 0.006213856, 0.2139075, 0.0005187925, -0.999876, -0.01514613, 0.3503954
 256230800, 0.002700897, 0.01648328, 0.5295429, 0.00104407, 0.0007521833, 0.005724946, 0.1536732, 0.0005187925, -0.9998693, -0.01560954, 0.3503954
 256430720, 0.006276634, 0.01784136, 0.3932121, 0.00104407, 0.005023884, 0.008137424, 0.1300203, 0.0005187925, -0.9998705, -0.01599517, 0.3503954
 256631473, 0.01923004, 0.0241177, 0.3414416, 0.001046232, 0.009823345, 0.01002239, 0.1179821, 0.0005209541, -0.9998667, -0.01631358, 0.3511209
 256831393, 0.02795374, 0.02862012, 0.2986296, 0.001046232, 0.01046192, 0.01060616, 0.09659655, 0.0005187925, -0.9998589, -0.0166599, 0.3511209
 257031313, 0.02597465, 0.03114405, 0.2434464, 0.00104407, 0.007690626, 0.01277138, 0.077084, 0.0005187925, -0.9998426, -0.01703692, 0.3503954
 257231233, 0.01964259, 0.03853891, 0.192795, 0.00104407, 0.006511902, 0.01631304, 0.05969209, 0.0005187925, -0.9998053, -0.0175261, 0.3503954
 257431153, 0.01740469, 0.04627581, 0.1485847, 0.00104407, 0.005913639, 0.01768951, 0.04641059, 0.0005187925, -0.9997677, -0.01806366, 0.3503954
 257631073, 0.01608245, 0.0482003, 0.1131239, 0.00104407, 0.005777609, 0.01727751, 0.03405371, 0.0005187925, -0.9997479, -0.01860319, 0.3503954
 257830993, 0.01412827, 0.04535656, 0.08417993, 0.00104407, 0.004311746, 0.01541893, 0.02563837, 0.0005187925, -0.9997413, -0.01909089, 0.3503954
 258030913, 0.01052509, 0.03999063, 0.06295471, 0.00104407, 0.003452851, 0.01333205, 0.01868965, 0.0005187925, -0.9997412, -0.01949593, 0.3503954
 258230833, 0.007343892, 0.03451677, 0.04687923, 0.00104407, 0.001798273, 0.01158596, 0.01402592, 0.0005187925, -0.9997429, -0.01985, 0.3503954
 258430753, 0.00349274, 0.02940608, 0.03562428, 0.00104407, 0.0006271226, 0.009658624, 0.01086401, 0.0005187925, -0.9997458, -0.02020549, 0.3503954
 258630673, 0.002052045, 0.0250433, 0.0268414, 0.00104407, 0.0006410301, 0.00847154, 0.008433917, 0.0005187925, -0.9997436, -0.02057777, 0.3503954
 258831426, 0.002265216, 0.02168674, 0.02095884, 0.001046232, 0.001189182, 0.007453438, 0.005330474, 0.0005209541, -0.9997436, -0.02097029, 0.3511209
 259031346, 0.002655542, 0.01760523, 0.01495753, 0.001046232, 0.0004670582, 0.005352625, 0.004635819, 0.0005187925, -0.9997455, -0.02139348, 0.3511209
 259231266, 0.0003145688, 0.01245674, 0.01217413, 0.00104407, -0.0003250665, 0.00347798, 0.004142316, 0.0005187925, -0.9997454, -0.02178586, 0.3503954
 259431186, -0.001580476, 0.008768027, 0.01022305, 0.00104407, -0.001087463, 0.002892082, 0.003072129, 0.0005187925, -0.9997414, -0.02216375, 0.3503954
 259631106, -0.001805137, 0.007291033, 0.007736678, 0.00104407, -0.0003424624, 0.00245473, 0.00183929, 0.0005187925, -0.9997363, -0.02251601, 0.3503954
 259831026, 0.00010264, 0.00587919, 0.004898992, 0.00104407, 0.0001696568, 0.001775358, 0.001134289, 0.0005187925, -0.9997284, -0.02302106, 0.3503954
 260030946, 7.945709E-05, 0.004007448, 0.003296753, 0.00104407, -8.390921E-05, 0.0008971982, 0.0001701556, 0.0005187925, -0.9997211, -0.02344443, 0.3503954
 260230866, -0.0003651579, 0.002602716, 0.001885582, 0.00104407, -0.0002792909, 0.001234847, 0.0005075533, 0.0005187925, -0.9997131, -0.02383189, 0.3503954
 260430786, -0.0007245722, 0.002846434, 0.001078066, 0.00104407, -0.0002833234, 0.001017866, 2.36786E-05, 0.0005187925, -0.9997053, -0.02418865, 0.3503954
 260630706, -0.0005695086, 0.002980126, 0.0004534945, 0.00104407, -0.0003116564, 0.001669542, 0.0002201154, 0.0005187925, -0.9996974, -0.024501, 0.3503954
 260831459, -0.0008949988, 0.004722579, 0.0005356246, 0.001046232, -6.03639E-05, 0.001998322, 0.000197284, 0.0005209541, -0.9996896, -0.02480099, 0.3511209
 261031379, -0.0002484558, 0.005838257, -0.0001396395, 0.001046232, -5.466174E-05, 0.002450847, -0.001301122, 0.0005187925, -0.9996808, -0.02513542, 0.3511209
 261231299, 0.001325837, 0.006958239, -0.002029831, 0.00104407, 0.001006101, 0.002540042, -0.0006691139, 0.0005187925, -0.999669, -0.02561449, 0.3503954
 261431219, 0.002758116, 0.007240547, -0.002090278, 0.00104407, 0.0008670178, 0.002965146, -0.001103579, 0.0005187925, -0.9996542, -0.02618744, 0.3503954
 261631139, 0.00157299, 0.007424153, -0.002359257, 0.00104407, 9.505589E-05, 0.002403175, -0.001758854, 0.0005187925, -0.9996434, -0.02662762, 0.3503954
 261831059, 0.0004637023, 0.00655926, -0.00290687, 0.00104407, 0.0001008921, 0.002542119, -0.001236279, 0.0005187925, -0.9996344, -0.02698364, 0.3503954
 262030979, 0.0004558732, 0.006984586, -0.002773735, 0.00104407, -0.0001108719, 0.002630061, -0.001278621, 0.0005187925, -0.9996253, -0.02731157, 0.3503954
 262230899, 1.201707E-05, 0.007883675, -0.002403148, 0.00104407, 6.442048E-05, 0.003174749, -0.001002069, 0.0005187925, -0.999613, -0.02773759, 0.3503954
 262430819, -0.0001450991, 0.009037048, -0.002436447, 0.00104407, -0.0001482432, 0.003640362, -0.00112144, 0.0005187925, -0.9995993, -0.02821658, 0.3503954
 262630739, 0.0004291235, 0.009915638, -0.002294966, 0.00104407, 0.000483955, 0.003620759, -0.001153908, 0.0005187925, -0.9995877, -0.02860936, 0.3503954
 262830659, 0.002123175, 0.01039774, -0.00229727, 0.00104407, 0.0009121465, 0.00400795, -0.0009564649, 0.0005187925, -0.9995775, -0.0289564, 0.3503954
 263031412, 0.002026716, 0.01078156, -0.001642569, 0.001046232, 0.0006160238, 0.00381767, -0.0004146789, 0.0005209541, -0.9995661, -0.02936044, 0.3511209
 263231332, 0.001528611, 0.01028427, -0.001360431, 0.001046232, 0.0001474956, 0.003706679, -0.0003133128, 0.0005187925, -0.9995558, -0.02971756, 0.3511209
 263431252, 0.000870556, 0.01070908, -0.001118913, 0.00104407, -7.922673E-05, 0.004252041, -0.0007395371, 0.0005187925, -0.9995435, -0.03007319, 0.3503954
 263631172, 0.000312378, 0.01234376, -0.002081639, 0.00104407, 0.0004529381, 0.004810001, -0.0008621234, 0.0005187925, -0.9995285, -0.03048042, 0.3503954
 263831092, 0.0009911231, 0.01417185, -0.001933037, 0.00104407, -9.158521E-05, 0.005559165, -0.0007241938, 0.0005187925, -0.9995136, -0.03091261, 0.3503954
 264031012, 2.052336E-05, 0.01504911, -0.00189852, 0.00104407, 0.0003213181, 0.005486491, -0.0007521135, 0.0005187925, -0.9994997, -0.03133682, 0.3503954
 264230932, 0.0009544385, 0.01478084, -0.001720048, 0.00104407, 0.0001109488, 0.005070388, -0.0007925511, 0.0005187925, -0.9994874, -0.03172379, 0.3503954
 264430852, 0.0008033372, 0.01429139, -0.001469674, 0.00104407, -4.586293E-05, 0.00564881, -0.0009961694, 0.0005187925, -0.9994764, -0.03203719, 0.3503954
 264630772, 0.0003349954, 0.01469204, -0.001557278, 0.00104407, 0.0001598153, 0.005195683, -0.0004835078, 0.0005187925, -0.9994651, -0.03238164, 0.3503954
 264830692, 0.0006551828, 0.01412857, -0.001101356, 0.00104407, 4.677179E-05, 0.004974646, -0.0005370626, 0.0005187925, -0.9994519, -0.03276068, 0.3503954
 265031445, 0.0003628496, 0.01413011, -0.001146232, 0.001046232, 0.0005508296, 0.005133044, -0.0004214083, 0.0005209541, -0.9994375, -0.03315349, 0.3511209
 265231365, 0.00112352, 0.01455423, -0.001394381, 0.001046232, 0.0003761498, 0.005485184, -0.0008106028, 0.0005187925, -0.9994223, -0.03354488, 0.3511209
 265431285, 0.0007454354, 0.01513452, -0.001230174, 0.00104407, 6.617976E-05, 0.005388153, -0.0004837199, 0.0005187925, -0.9994068, -0.03395401, 0.3503954
 265631205, 0.0004935242, 0.01496381, -0.001001634, 0.00104407, -0.000109721, 0.005360804, -0.0003192923, 0.0005187925, -0.9993923, -0.03436908, 0.3503954
 265831125, 3.335523E-05, 0.01470932, -0.001067572, 0.00104407, -0.0002308423, 0.005702412, -0.0007402461, 0.0005187925, -0.9993771, -0.03474094, 0.3503954
 266031045, 0.0002424642, 0.0154453, -0.001232325, 0.00104407, 0.0003658954, 0.005719088, -0.0003838231, 0.0005187925, -0.9993623, -0.03510619, 0.3503954
 266230965, 0.0009590318, 0.0152855, -0.001049363, 0.00104407, 0.0004532965, 0.005641891, -0.0008445008, 0.0005187925, -0.9993482, -0.03546653, 0.3503954
 266430885, 0.001131813, 0.01531024, -0.001466113, 0.00104407, 0.0006152691, 0.00518802, -0.0004974426, 0.0005187925, -0.9993351, -0.03580924, 0.3503954
 266630805, 0.000973321, 0.0142452, -0.001031338, 0.00104407, 3.649972E-05, 0.004965763, -0.0002820984, 0.0005187925, -0.9993216, -0.03616431, 0.3503954
 266830725, 0.0001077464, 0.01403949, -0.000498055, 0.00104407, -0.0001032275, 0.005377241, 0.0001644204, 0.0005187925, -0.9993047, -0.03655589, 0.3503954
 267031478, -0.0002311938, 0.01508254, -0.000246052, 0.001046232, 7.612339E-05, 0.005472839, -0.000215026, 0.0005209541, -0.9992865, -0.03696553, 0.3511209
 267231398, 6.190599E-05, 0.0151755, -0.0003424467, 0.001046232, -0.0002889249, 0.005612362, 8.352871E-05, 0.0005187925, -0.9992695, -0.03737407, 0.3511209
 267431318, -0.0006032338, 0.01504217, -6.744548E-05, 0.00104407, -0.0002601199, 0.005270123, 0.000600901, 0.0005187925, -0.9992524, -0.03775436, 0.3503954
 267631238, -0.0005655211, 0.01488729, 0.0005412738, 0.00104407, -0.0004531039, 0.005678342, -0.000222327, 0.0005187925, -0.9992348, -0.03811089, 0.3503954
 267831158, -0.0006319387, 0.01567947, -0.0003344795, 0.00104407, -6.301631E-05, 0.0055466, -7.078796E-05, 0.0005187925, -0.9992198, -0.03845494, 0.3503954
 268031078, -0.0003258659, 0.01506975, -0.0003166184, 0.00104407, -0.000106557, 0.005435529, 8.447128E-05, 0.0005187925, -0.9992051, -0.03879878, 0.3503954
 268230998, -0.0003455165, 0.01499586, 8.186646E-05, 0.00104407, 6.691212E-05, 0.005636041, -0.0001295084, 0.0005187925, -0.9991884, -0.03914867, 0.3503954
 268430918, -0.0001083072, 0.01457789, -0.0006645668, 0.00104407, -0.0003252485, 0.005150944, -0.0003034486, 0.0005187925, -0.9991724, -0.03949168, 0.3503954
 268630838, -2.093737E-05, 0.01451964, -0.0005989098, 0.00104407, 0.000486746, 0.005623962, -0.0002938847, 0.0005187925, -0.9991535, -0.03983148, 0.3503954
 268830758, 0.0006176781, 0.01519405, -0.0003035642, 0.00104407, 1.750353E-05, 0.005555456, -0.0002558531, 0.0005187925, -0.9991354, -0.04015959, 0.3503954
 269030678, 0.0001064725, 0.01531867, -0.0007732515, 0.00104407, -0.0001328296, 0.005745072, -0.0003155125, 0.0005187925, -0.9991196, -0.04047913, 0.3503954
 269231431, -3.606419E-05, 0.0155767, -0.0005344569, 0.001046232, 4.529821E-05, 0.005524433, -0.0002577033, 0.0005209541, -0.9991006, -0.04081732, 0.3511209
 269431351, 0.0004663726, 0.0155567, -0.0002984959, 0.001046232, 3.475024E-05, 0.005360856, -0.0004112338, 0.0005187925, -0.9990817, -0.04117128, 0.3511209
 269631271, 0.0002947199, 0.01520164, -0.0003271618, 0.00104407, 3.978885E-05, 0.005521354, -2.368219E-05, 0.0005187925, -0.9990631, -0.04152373, 0.3503954
 269831191, 0.0002268219, 0.01519723, -2.241314E-05, 0.00104407, 9.52418E-05, 0.005490158, 0.0004990703, 0.0005187925, -0.9990451, -0.04185028, 0.3503954
 270031111, 4.69409E-05, 0.01515214, 0.0004531395, 0.00104407, -6.409534E-05, 0.005378744, -0.0002796485, 0.0005187925, -0.9990274, -0.04215271, 0.3503954
 270231031, -3.106289E-05, 0.01495889, -0.0002056479, 0.00104407, -0.0001069476, 0.005734951, -0.0001000005, 0.0005187925, -0.9990094, -0.04246284, 0.3503954
 270430951, 0.0001790621, 0.01539547, -0.0002300023, 0.00104407, 0.0002236385, 0.005111482, -0.0003563314, 0.0005187925, -0.9989907, -0.04277867, 0.3503954
 270630871, 0.0009263321, 0.01494194, -0.0004342284, 0.00104407, 0.0002368835, 0.005588756, -0.0003011547, 0.0005187925, -0.9989715, -0.04309404, 0.3503954
 270830791, 0.0009758972, 0.01507268, -0.0004043367, 0.00104407, 0.0002434545, 0.005224787, -0.0002841635, 0.0005187925, -0.998952, -0.04340353, 0.3503954
 271030711, 0.0006502989, 0.01498662, -0.0004951463, 0.00104407, -6.902675E-06, 0.005636052, -0.0004047515, 0.0005187925, -0.9989308, -0.04369599, 0.3503954
 271231464, -7.175881E-05, 0.01569562, -0.0005796113, 0.001046232, -0.0001999677, 0.005876103, -0.0001263645, 0.0005209541, -0.9989114, -0.04399223, 0.3511209
 271431384, -0.0009922747, 0.01558199, -0.0001712217, 0.001046232, -0.0004611577, 0.005741874, 0.0001657979, 0.0005187925, -0.9988936, -0.04429623, 0.3511209
 271631304, -0.0008838096, 0.01503505, -1.314357E-05, 0.00104407, -0.0001943952, 0.005172346, -2.980232E-05, 0.0005187925, -0.9988706, -0.044623, 0.3503954
 271831224, -0.0001753017, 0.01501563, 6.349762E-05, 0.00104407, -0.0001981834, 0.005865968, -0.0001891143, 0.0005187925, -0.9988457, -0.04490825, 0.3503954
 272031144, -0.000116955, 0.01573566, 8.524572E-05, 0.00104407, -8.006986E-05, 0.00561648, 6.623717E-05, 0.0005187925, -0.9988263, -0.04517464, 0.3503954
 272231064, -1.357494E-05, 0.01535971, 6.704155E-05, 0.00104407, 7.309382E-05, 0.005615233, 7.286375E-05, 0.0005187925, -0.9988094, -0.04542647, 0.3503954
 272430984, -1.755627E-05, 0.01507987, 7.886831E-05, 0.00104407, -0.0001027794, 0.005208005, 0.0004291439, 0.0005187925, -0.9987906, -0.04567349, 0.3503954
 272630904, -7.91357E-05, 0.0148862, 0.0004153319, 0.00104407, -0.0004777416, 0.005750297, -8.290433E-05, 0.0005187925, -0.9987659, -0.04593837, 0.3503954
 272830824, -0.0005105576, 0.01544946, 0.0001789664, 0.00104407, -0.0001036669, 0.005807434, 0.000119612, 0.0005187925, -0.9987437, -0.04624829, 0.3503954
