TimeUS,CAN,CAE,CAD,CAe
 139874028, -0.002777177, 0.003517696, 4.274565E-05, 0.0002593962
 139993980, -0.00327978, 0.004165062, -0.0001389234, 0.0003112754
 140093940, -0.00254416, 0.003483566, 4.556739E-05, 0.0002593962
 140193900, -0.001906558, 0.003255011, 0.0001019737, 0.0002593962
 140293860, 0.03074584, -6.001652E-05, -0.0002775131, 0.0002593962
 140393820, 0.1075676, -0.008056416, -0.0002587046, 0.0002593962
 140493780, 0.2057943, -0.01928975, 0.001770484, 0.0002593962
 140593740, 0.3122976, -0.03121886, 0.004762136, 0.0002593962
 140693700, 0.4196453, -0.04276152, 0.008081102, 0.0002593962
 140793660, 0.5268656, -0.05435586, 0.010629, 0.0002593962
 140893620, 0.6281034, -0.06420147, 0.01238089, 0.0002593962
 140993580, 0.7267284, -0.07659718, 0.01488385, 0.0002593962
 141093540, 0.8226317, -0.09039471, 0.01686342, 0.0002593962
 141193500, 0.9108296, -0.09295687, 0.01906069, 0.0002593962
 141294293, 0.9666039, -0.1062604, 0.02126953, 0.0002615578
 141394253, 0.9549646, -0.0977755, 0.02261097, 0.0002593962
 141494213, 0.9303459, -0.09783676, 0.02265679, 0.0002593962
 141594173, 0.8874499, -0.09456463, 0.02220065, 0.0002593962
 141694133, 0.8387584, -0.08297615, 0.02100391, 0.0002593962
 141794093, 0.7905234, -0.08422613, 0.01844285, 0.0002593962
 141894053, 0.7446833, -0.07941205, -0.02317316, 0.0002593962
 141994013, 0.6885942, -0.07306089, -0.0401787, 0.0002593962
 142113965, 0.7771885, -0.07612667, 0.004151896, 0.0003112754
 142213925, 0.5946851, -0.06356576, 0.03027347, 0.0002593962
 142313885, 0.9278009, -0.1010829, -0.31381, 0.0002593962
 142413845, 0.8559763, -0.09488315, -0.6158577, 0.0002593962
 142513805, 0.7880449, -0.1013338, -0.5791006, 0.0002593962
 142613765, 0.7263405, -0.09201884, -0.4117805, 0.0002593962
 142713725, 0.6835498, -0.07367759, -0.2670988, 0.0002593962
 142813685, 0.6521358, -0.05198285, -0.1885089, 0.0002593962
 142913645, 0.6096532, -0.04416287, -0.2021283, 0.0002593962
 143013605, 0.5712128, -0.04820212, -0.1899803, 0.0002593962
 143113565, 0.5330092, -0.05668258, -0.1986749, 0.0002593962
 143213525, 0.4912292, -0.06086443, -0.2179805, 0.0002593962
 143313485, 0.4527349, -0.05719564, -0.2059091, 0.0002593962
 143414278, 0.4231614, -0.0509826, -0.195511, 0.0002615578
 143514238, 0.3858812, -0.04908555, -0.1781539, 0.0002593962
 143614198, 0.3635086, -0.04385046, -0.1641428, 0.0002593962
 143714158, 0.3327672, -0.03320483, -0.1401838, 0.0002593962
 143814118, 0.3043923, -0.03673673, -0.1644633, 0.0002593962
 143914078, 0.2669751, -0.03802442, -0.1807117, 0.0002593962
 144014038, 0.2456611, -0.03042838, -0.1694159, 0.0002593962
 144113998, 0.2401264, -0.01158589, -0.1248554, 0.0002593962
 144233950, 0.2513367, -0.004200817, -0.1730023, 0.0003112754
 144333910, 0.1893287, 0.000197768, -0.1251379, 0.0002593962
 144433870, 0.1787094, -0.002024388, -0.1136457, 0.0002593962
 144533830, 0.164957, -0.02850743, -0.0719289, 0.0002593962
 144633790, 0.1493875, -0.02880554, -0.0597491, 0.0002593962
 144733750, 0.1376752, -0.01993754, -0.06197049, 0.0002593962
 144833710, 0.1346897, -0.005843909, -0.02716185, 0.0002593962
 144933670, 0.1261799, -0.002304143, -0.03815177, 0.0002593962
 145033630, 0.1091726, -0.002495305, -0.05999574, 0.0002593962
 145133590, 0.08858615, -0.01178752, -0.08152456, 0.0002593962
 145233550, 0.08272469, -0.005541771, -0.06622902, 0.0002593962
 145333510, 0.08423929, -0.001889684, -0.03975613, 0.0002593962
 145434303, 0.09105532, 0.001666029, -0.001306535, 0.0002593962
 145534263, 0.06830925, 0.003981487, -0.02202197, 0.0002615578
 145634223, 0.05053841, -0.009021311, -0.03651794, 0.0002593962
 145734183, 0.04854125, -0.01257231, -0.01903723, 0.0002593962
 145834143, 0.04565925, -0.004523571, -0.03333265, 0.0002593962
 145934103, 0.02309119, -0.009950408, -0.06925428, 0.0002593962
 146034063, 0.01604077, -0.009830905, -0.07190441, 0.0002593962
 146134023, 0.03566151, -0.007687155, -0.01145884, 0.0002593962
 146253975, 0.05123376, -0.007601779, 0.05371678, 0.0003112754
 146353935, 0.03521946, 0.003877075, 0.007270831, 0.0002593962
 146453895, 0.02379964, -0.005541984, -0.02194273, 0.0002593962
 146553855, 0.03441242, -0.007244834, 0.01787072, 0.0002593962
 146653815, 0.03887954, 0.0009931731, 0.05109573, 0.0002593962
 146753775, 0.0488604, 0.01370812, 0.07734543, 0.0002593962
 146853735, 0.0406282, 0.02435215, 0.067956, 0.0002593962
 146953695, 0.0482944, 0.01469818, 0.08924124, 0.0002593962
 147053655, 0.04526589, 0.0002514517, 0.06754044, 0.0002593962
 147153615, 0.05599467, -0.01156721, 0.1328907, 0.0002593962
 147253575, 0.06001288, -0.006387366, 0.1409439, 0.0002593962
 147353535, 0.04989395, -0.01080088, 0.1056005, 0.0002593962
 147453495, 0.04581545, -0.009560358, 0.07763816, 0.0002593962
 147554288, 0.03355375, -0.01549912, 0.04420499, 0.0002615578
 147654248, 0.04019579, -0.01465356, 0.04461746, 0.0002593962
 147754208, 0.03598548, -0.005216671, 0.08469133, 0.0002593962
 147854168, 0.01814301, -0.003864728, 0.1378567, 0.0002593962
 147954128, 0.004742109, 0.009015553, 0.1302093, 0.0002593962
 148054088, -0.002002312, 0.01579425, 0.08872395, 0.0002593962
 148154048, 0.006333997, -0.001816492, 0.1112842, 0.0002593962
 148254008, 0.0100319, -0.02539944, 0.08892162, 0.0002593962
 148373960, -0.0004840583, -0.015165, 0.06234635, 0.0003112754
 148473920, -0.007629605, -0.0008469436, 0.08042196, 0.0002593962
 148573880, -0.01343332, -0.03830577, 0.1374765, 0.0002593962
 148673840, -0.0003169673, 0.05817049, 0.1530423, 0.0002593962
 148773800, 0.0021017, 0.1976767, 0.1301275, 0.0002593962
 148873760, 0.00616564, 0.2422431, 0.1464919, 0.0002593962
 148973720, 0.003350415, 0.2010422, 0.1717402, 0.0002593962
 149073680, -0.01432508, 0.1146653, 0.1039432, 0.0002593962
 149173640, -0.03302301, 0.04249512, 0.0459755, 0.0002593962
 149273600, -0.04186754, -0.02033093, 0.04645033, 0.0002593962
 149373560, -0.03790996, -0.02072683, 0.1145533, 0.0002593962
 149473520, -0.02937576, 0.01682738, 0.1595268, 0.0002593962
 149573480, -0.02949082, 0.06802003, 0.1459336, 0.0002593962
 149674273, -0.02625557, 0.1000787, 0.1502425, 0.0002615578
 149774233, -0.02330806, 0.09679689, 0.1668878, 0.0002593962
 149874193, -0.02143598, 0.08376481, 0.1857208, 0.0002593962
 149974153, -0.01607267, 0.07098667, 0.1364389, 0.0002593962
 150074113, -0.02028869, 0.04942659, 0.07190878, 0.0002593962
 150174073, -0.02505416, 0.05254029, 0.04960582, 0.0002593962
 150274033, -0.01914635, 0.05524759, 0.05907533, 0.0002593962
 150373993, -0.02293475, 0.05239286, 0.08808181, 0.0002593962
 150493945, -0.02242486, 0.07152946, 0.1404596, 0.0003112754
 150593905, -0.01777687, 0.05582278, 0.1053084, 0.0002593962
 150693865, -0.02028119, 0.04213576, 0.08541987, 0.0002593962
 150793825, -0.02059884, 0.04480621, 0.08597176, 0.0002593962
 150893785, -0.01750366, 0.04517298, 0.1101795, 0.0002593962
 150993745, -0.009518171, 0.03597228, 0.150395, 0.0002593962
 151093705, -0.002734658, 0.02278795, 0.1517275, 0.0002593962
 151193665, -0.006732948, 0.02943726, 0.1080088, 0.0002593962
 151293625, -0.01079039, 0.0350521, 0.03242078, 0.0002593962
 151393585, -0.01021543, 0.04368805, 0.04070534, 0.0002593962
 151493545, -0.01667014, 0.04158626, 0.06396445, 0.0002593962
 151593505, -0.01321201, 0.04861582, 0.02271073, 0.0002593962
 151694298, -0.01742227, 0.04377662, 0.008451637, 0.0002593962
 151794258, -0.01627205, 0.03862651, 0.02442843, 0.0002615578
 151894218, -0.009520151, 0.02765523, 0.07151643, 0.0002593962
 151994178, -0.009340784, 0.02199601, 0.0748568, 0.0002593962
 152094138, -0.008716051, 0.02797993, 0.07152925, 0.0002593962
 152194098, -0.01402382, 0.02444877, 0.08426, 0.0002593962
 152294058, -0.01361774, 0.01829557, 0.05882514, 0.0002593962
 152394018, -0.009683223, 0.01570982, 0.02475192, 0.0002593962
 152513970, -0.009157733, 0.02534513, 0.09627542, 0.0003112754
 152613930, -0.002042767, 0.02438699, 0.09241689, 0.0002593962
 152713890, -0.004610019, 0.03716891, 0.02555688, 0.0002593962
 152813850, -0.007410552, 0.02747247, 0.01229008, 0.0002593962
 152913810, -0.009194495, 0.02206587, -0.003824249, 0.0002593962
 153013770, -0.006955312, 0.03313669, 0.01696592, 0.0002593962
 153113730, 0.001375251, 0.02725741, 0.03904455, 0.0002593962
 153213690, -0.001382581, 0.02155693, 0.07132289, 0.0002593962
 153313650, -0.002511614, 0.01648889, 0.07079214, 0.0002593962
 153413610, -0.003713225, 0.01827791, 0.05038492, 0.0002593962
 153513570, -0.003367073, 0.01976023, 0.06043021, 0.0002593962
 153613530, -0.006558316, 0.02207462, 0.05302602, 0.0002593962
 153713490, -0.0002387677, 0.02092551, 0.02531021, 0.0002593962
 153814283, 0.0008995681, 0.01930699, 0.005519292, 0.0002615578
 153914243, -0.002758443, 0.01909538, -0.02945028, 0.0002593962
 154014203, -0.0001129395, 0.02195565, 0.01844472, 0.0002593962
 154114163, -0.002296171, 0.01805032, 0.0271805, 0.0002593962
 154214123, -0.002844059, 0.01632912, 0.01823666, 0.0002593962
 154314083, -0.001494395, 0.01796641, 0.02762242, 0.0002593962
 154414043, -0.003087786, 0.01912678, 0.01579623, 0.0002593962
 154514003, 0.0009878122, 0.02418605, 0.001798397, 0.0002593962
 154633955, 7.226154E-05, 0.02748093, 0.004434756, 0.0003112754
 154733915, -0.006071887, 0.02184445, 0.01858083, 0.0002593962
 154833875, -0.003623032, 0.01731594, 0.03948478, 0.0002593962
 154933835, 0.0042878, 0.009076238, 0.05244059, 0.0002593962
 155033795, -0.001105572, 0.004397294, 0.05435405, 0.0002593962
 155133755, 0.004528895, 0.009034226, 0.02306695, 0.0002593962
 155233715, 0.01871684, 0.004070221, 0.02011921, 0.0002593962
 155333675, 0.007266094, 0.01214273, 0.0218503, 0.0002593962
 155433635, 0.003414054, 0.001572412, 0.02121233, 0.0002593962
 155533595, 0.003913029, 0.003371843, -0.03742821, 0.0002593962
 155633555, 0.005510181, 0.01215717, -0.009911815, 0.0002593962
 155733515, 0.00955427, 0.01101539, -0.005277343, 0.0002593962
 155833475, 0.01146835, 0.01237457, -0.005082004, 0.0002593962
 155934268, 0.007220928, 0.02058855, -0.007963243, 0.0002615578
 156034228, 0.007635521, 0.01420046, 0.01150905, 0.0002593962
 156134188, 0.008028783, 0.01543321, 0.01372649, 0.0002593962
 156234148, 0.009154582, 0.01300567, 0.02442639, 0.0002593962
 156334108, 0.009412346, 0.0151652, -0.00442734, 0.0002593962
 156434068, 0.005203764, 0.02078939, -0.01444686, 0.0002593962
 156534028, 0.006396588, 0.02110844, 0.004381477, 0.0002593962
 156653980, 0.004951967, 0.01154693, 0.008208395, 0.0003112754
 156753940, 0.008389963, 0.01565504, 0.03162925, 0.0002593962
 156853900, 0.01237465, 0.008338731, 0.01732145, 0.0002593962
 156953860, 0.01280876, 0.006012958, 0.02257771, 0.0002593962
 157053820, 0.003215498, -0.0004868477, -0.01069229, 0.0002593962
 157153780, 0.005641333, 0.009592006, -0.01938808, 0.0002593962
 157253740, 0.004605486, 0.01242027, -0.03015676, 0.0002593962
 157353700, 0.005790743, 0.01766763, -0.01622748, 0.0002593962
 157453660, 0.008836661, 0.01376309, -0.03919405, 0.0002593962
 157553620, 0.008122484, 0.0141309, -0.01057684, 0.0002593962
 157653580, 0.009755044, 0.002821111, -0.01082548, 0.0002593962
 157753540, 0.004707002, 0.001441185, 0.01466325, 0.0002593962
 157853500, 0.008808808, 0.009101597, 0.02858369, 0.0002593962
 157954293, 0.002274733, 0.003154822, 0.02882056, 0.0002615578
 158054253, 0.004567802, 0.007968462, -0.01161139, 0.0002593962
 158154213, 0.004230954, 0.00161134, -0.003029403, 0.0002593962
 158254173, 0.01035106, 0.006576417, -0.01874536, 0.0002593962
 158354133, 0.01778335, 0.001788814, -0.007322461, 0.0002593962
 158454093, 0.01200206, 0.006493954, 0.03430237, 0.0002593962
 158554053, 0.009013886, 0.008294907, 0.03495469, 0.0002593962
 158654013, 0.007906013, 0.00825634, -0.01766472, 0.0002593962
 158773965, 0.01528476, 0.003212333, -0.02492913, 0.0003112754
 158873925, 0.01100182, 0.001501309, 0.01071154, 0.0002593962
 158973885, 0.007411048, -0.0007478045, 0.01441845, 0.0002593962
 159073845, 0.002409149, 0.005339365, -0.01126074, 0.0002593962
 159173805, 0.0006177969, 0.008702042, -0.0448948, 0.0002593962
 159273765, 0.004863027, 0.01303028, -0.05089163, 0.0002593962
 159373725, 0.006689086, 0.01599017, -0.005136294, 0.0002593962
 159473685, 0.02140368, 0.01895111, -0.01267524, 0.0002593962
 159573645, 0.00846252, 0.01378251, 0.008709427, 0.0002593962
 159673605, -0.007776534, 0.009467228, -0.01282709, 0.0002593962
 159773565, -0.00103446, -0.003885034, -0.06056608, 0.0002593962
 159873525, -0.00363299, 0.0002753561, -0.02099775, 0.0002593962
 159973485, 0.006943433, -0.01642692, -0.001761952, 0.0002593962
 160074278, 0.01307965, -0.019006, 0.02187047, 0.0002615578
 160174238, 0.01647457, -0.009167473, -0.005193892, 0.0002593962
 160274198, 0.01310547, 0.001121176, 0.02700307, 0.0002593962
 160374158, 0.003665307, 0.02568954, 0.02439496, 0.0002593962
 160474118, 0.001038866, 0.03432162, -0.01440309, 0.0002593962
 160574078, 0.01343075, 0.01828241, -0.05429508, 0.0002593962
 160674038, 0.01097797, 0.004342055, 0.006232648, 0.0002593962
 160773998, 0.006793857, -0.006601563, 0.02794393, 0.0002593962
 160893950, 0.007410609, -0.007903609, -0.0277588, 0.0003112754
 160993910, 0.004677927, 0.001832698, -0.03338582, 0.0002593962
 161093870, -1.611124E-05, 0.01973698, -0.06094281, 0.0002593962
 161193830, -0.00050094, 0.02208222, -0.03418319, 0.0002593962
 161293790, 0.006000943, 0.007797814, -0.01017256, 0.0002593962
 161393750, -0.002447054, 0.007657228, 0.01349933, 0.0002593962
 161493710, 7.502304E-05, 0.01485457, 0.004921508, 0.0002593962
 161593670, 0.01690874, 0.01785465, 0.02548613, 0.0002593962
 161693630, 0.01009091, 0.008976908, -0.02025961, 0.0002593962
 161793590, 0.005792095, 0.01492494, -0.0121801, 0.0002593962
 161893550, 0.004403946, 0.007605275, 0.02400755, 0.0002593962
 161993510, 0.007532562, 0.002089179, 0.01612093, 0.0002593962
 162094303, -0.0007260971, 0.0008266213, 0.001295134, 0.0002593962
 162194263, 0.00258725, 0.01061303, -0.01046881, 0.0002615578
 162294223, 0.007822563, 0.008510441, -0.001020786, 0.0002593962
 162394183, 0.007029758, 0.01203061, -0.01503657, 0.0002593962
 162494143, 0.005844252, 0.01367311, -0.03263223, 0.0002593962
 162594103, 0.008432384, 0.003828582, -0.03415231, 0.0002593962
 162694063, 0.006792072, -0.01108459, 0.02117501, 0.0002593962
 162794023, 0.007322283, -0.00469694, 0.01765366, 0.0002593962
 162913975, -0.006820874, 0.002851578, 0.01820717, 0.0003112754
 163013935, -0.002839939, 0.001507871, 0.0126624, 0.0002593962
 163113895, 0.02719772, -0.00882036, 0.003028049, 0.0002593962
 163213855, 0.01396075, -0.002769339, -0.01628757, 0.0002593962
 163313815, 0.00771824, -0.004596896, -0.001456212, 0.0002593962
 163413775, 0.005943564, 0.005754598, 0.004072924, 0.0002593962
 163513735, -0.008604814, 0.005867881, -0.04422892, 0.0002593962
 163613695, -0.001055374, -0.0008073265, -0.01684594, 0.0002593962
 163713655, 0.01234204, 0.0005916675, 0.01197277, 0.0002593962
 163813615, 0.0104454, 0.0058986, 0.01628174, 0.0002593962
 163913575, 0.01307748, 0.004953815, -0.02881344, 0.0002593962
 164013535, 0.01265913, 0.01486152, -0.02121178, 0.0002593962
 164113495, 0.005487184, 0.01165916, -0.01334692, 0.0002593962
 164214288, -0.004911151, 0.0003316239, 0.0001669673, 0.0002615578
 164314248, 0.005897933, 0.00210255, 0.03272971, 0.0002593962
 164414208, -0.0003242267, -0.004341421, -0.04587518, 0.0002593962
 164514168, -0.002909928, -0.00236487, -0.0259955, 0.0002593962
 164614128, -0.004000513, 0.0007291448, -0.0020912, 0.0002593962
 164714088, 0.0001303848, 0.0014765, -0.02630081, 0.0002593962
 164814048, 0.0074177, 0.00552642, 0.02622491, 0.0002593962
 164914008, 0.00511213, 0.01062733, 0.01911342, 0.0002593962
 165033960, 0.003063105, 0.00771191, -0.01180921, 0.0003112754
 165133920, 0.003751768, -0.004208243, -0.01935024, 0.0002593962
 165233880, 0.0006552999, 0.005685227, 0.007064186, 0.0002593962
 165333840, 0.002497294, 0.01490405, 0.01633861, 0.0002593962
 165433800, -0.006094526, 0.01519982, -0.003340491, 0.0002593962
 165533760, -0.004275183, -0.005331067, -0.03540354, 0.0002593962
 165633720, -0.0004247722, -0.008778652, -0.01356755, 0.0002593962
 165733680, 0.01678146, -0.001694666, -0.003725783, 0.0002593962
 165833640, 0.00203128, -0.002206522, -0.02818359, 0.0002593962
 165933600, 0.00206152, -0.00121497, -0.02471324, 0.0002593962
 166033560, -0.002172503, 0.006782102, 0.005575142, 0.0002593962
 166133520, -4.499964E-05, 0.00724809, -0.002318132, 0.0002593962
 166233480, 0.003866748, 0.006423015, -0.03449976, 0.0002593962
 166334273, 0.004137291, 0.004229399, -0.02971927, 0.0002615578
 166434233, 0.00101849, 0.005511012, 0.006944596, 0.0002593962
 166534193, 0.008280293, 0.0008144799, -0.002749316, 0.0002593962
 166634153, -0.005105363, -0.0006184723, -0.02236907, 0.0002593962
 166734113, -0.0002582846, 0.0008412037, -0.01602349, 0.0002593962
 166834073, 0.008520337, 0.0008181643, -0.008158622, 0.0002593962
 166934033, 0.002430547, 0.0009086542, 0.01048867, 0.0002593962
 167033993, 0.003361324, 0.003920992, 0.04624047, 0.0002593962
 167153945, 0.004228306, 0.003250106, -0.002304157, 0.0003112754
 167253905, 0.0003748003, 0.003236045, -0.01872793, 0.0002593962
 167353865, 0.002667506, 0.008196728, -0.03526117, 0.0002593962
 167453825, -0.00119431, 0.01371642, -0.0163373, 0.0002593962
 167553785, -0.0001737417, 0.007393771, -0.02542767, 0.0002593962
 167653745, -0.003872278, 0.01878014, 0.00143829, 0.0002593962
 167753705, 0.003596423, 0.0164007, -0.008220836, 0.0002593962
 167853665, -0.005538614, 0.006843446, -0.01427744, 0.0002593962
 167953625, -0.0006775672, 0.00413277, -0.01701155, 0.0002593962
 168053585, -0.0005939675, 0.009015545, -0.03002946, 0.0002593962
 168153545, -0.006117512, 0.00835271, -0.01554679, 0.0002593962
 168253505, -0.005719474, 0.008981323, -0.02412283, 0.0002593962
 168354298, -0.01127671, -0.01285643, 0.02662703, 0.0002593962
 168454258, -0.001332399, -0.006087901, 0.02192887, 0.0002615578
 168554218, -0.003553115, 0.0003911882, 0.02676414, 0.0002593962
 168654178, -0.002373367, 0.008981409, -0.004450886, 0.0002593962
 168754138, -0.002792846, 0.01089015, -0.0141327, 0.0002593962
 168854098, -0.006025534, 0.005771471, -0.04020549, 0.0002593962
 168954058, -0.004094387, 0.003709946, 0.005355762, 0.0002593962
 169054018, -0.004199985, 0.007974924, 0.02753683, 0.0002593962
 169173970, -0.006417142, 0.01474388, 0.05497553, 0.0003112754
 169273930, 0.0007079689, -0.003867351, 0.06148202, 0.0002593962
 169373890, -0.0002616479, -0.004403138, 0.007487038, 0.0002593962
 169473850, -0.000774277, -0.008379433, -0.006391219, 0.0002593962
 169573810, 0.002056219, 0.009605306, -0.04327062, 0.0002593962
 169673770, 0.0004725402, 0.01417875, -0.03423722, 0.0002593962
 169773730, -0.002994044, 0.006482734, -0.04567669, 0.0002593962
 169873690, -0.006118759, 0.0005889911, -0.03834805, 0.0002593962
 169973650, 0.005405391, -0.006420481, 0.01044552, 0.0002593962
 170073610, 0.002835108, -0.007263904, 0.037182, 0.0002593962
 170173570, -0.001398604, 0.00794203, 0.01505461, 0.0002593962
 170273530, 0.006663711, 0.01400783, -0.003437469, 0.0002593962
 170373490, 0.004089981, 0.01032853, 0.02011333, 0.0002593962
 170474283, 0.006349155, -0.01113361, 0.0375636, 0.0002615578
 170574243, 0.002828874, -0.004628564, 0.01550799, 0.0002593962
 170674203, -0.003865669, -0.009071011, -0.005511977, 0.0002593962
 170774163, 0.002994116, -0.01031719, -0.02469314, 0.0002593962
 170874123, 0.004264422, -0.005667852, -0.05868661, 0.0002593962
 170974083, -0.00690145, 0.01107084, -0.04014982, 0.0002593962
 171074043, 0.00576741, 0.0148307, 0.01437658, 0.0002593962
 171174003, 0.00931524, 0.004901115, 0.006365851, 0.0002593962
 171293955, 0.0016124, -0.0003099738, -0.005002814, 0.0003112754
 171393915, -0.0008811548, 0.004649708, -0.01086678, 0.0002593962
 171493875, -0.006953451, 0.002433361, 0.01993212, 0.0002593962
 171593835, -0.005849544, 0.002008973, 0.02329644, 0.0002593962
 171693795, -0.009684431, 0.02385843, -0.004963329, 0.0002593962
 171793755, -0.02609708, 0.02176486, -0.02458857, 0.0002593962
 171893715, -0.01568534, 0.01768605, 0.008221903, 0.0002593962
 171993675, 0.006580341, -0.001635944, 0.004713004, 0.0002593962
 172093635, 0.02979821, -0.01115433, -0.005362854, 0.0002593962
 172193595, 0.0077962, -0.004165938, 0.004437807, 0.0002593962
 172293555, -0.01222231, 0.002361515, -0.01384574, 0.0002593962
 172393515, -0.04364431, 0.00461321, -0.01040736, 0.0002593962
 172493475, -0.02321147, 0.002456464, -0.03193431, 0.0002593962
 172594268, -0.01262538, -0.007983632, -0.01516146, 0.0002615578
 172694228, 0.002074557, -0.00599876, -0.03036789, 0.0002593962
 172794188, 0.01350104, 0.01361353, 0.005038114, 0.0002593962
 172894148, 0.03684927, 0.02172278, 0.03981078, 0.0002593962
 172994108, 0.01664556, 0.02311433, 0.02265717, 0.0002593962
 173094068, -0.005222789, 0.008974649, 0.02289776, 0.0002593962
 173194028, -0.04014926, 0.008948538, -0.01718329, 0.0002593962
 173313980, -0.042275, 0.008458179, 0.00096029, 0.0003112754
 173413940, -0.01294847, 0.0087186, -0.0104642, 0.0002593962
 173513900, 0.003455733, 0.01891691, -0.01256654, 0.0002593962
 173613860, 0.004679122, 0.01946525, -0.00641466, 0.0002593962
 173713820, 0.03377529, 0.01072191, -0.006216661, 0.0002593962
 173813780, 0.0227658, 0.002794329, -0.03091464, 0.0002593962
 173913740, 0.001942334, 0.01392232, -0.02518252, 0.0002593962
 174013700, -0.008219605, 0.01495142, 0.0002537665, 0.0002593962
 174113660, -0.03727376, 0.009992203, 0.007478459, 0.0002593962
 174213620, -0.03593425, 0.01949092, -0.00761477, 0.0002593962
 174313580, -0.01597999, 0.01632736, -0.01648846, 0.0002593962
 174413540, 0.002634425, 0.01665045, -0.009236522, 0.0002593962
 174513500, 0.002583663, 0.006786962, 0.02507959, 0.0002593962
 174614293, -0.002949442, -0.001181475, 0.02689493, 0.0002615578
 174714253, -0.002772239, -0.002838664, 0.02931004, 0.0002593962
 174814213, 0.0211331, -0.003843001, 0.02196983, 0.0002593962
 174914173, 0.03412385, 0.004543692, -0.007504483, 0.0002593962
 175014133, 0.00644023, 0.006463938, 0.007186426, 0.0002593962
 175114093, -0.004439237, 0.005619403, 0.004545176, 0.0002593962
 175214053, -0.04123127, 0.002798373, -0.004165174, 0.0002593962
 175314013, -0.03349918, 0.01234683, -0.02599225, 0.0002593962
 175433965, -0.00921475, 0.01121373, 0.02180444, 0.0003112754
 175533925, -2.195069E-05, 0.006587594, -0.01000567, 0.0002593962
 175633885, 0.02606339, 0.007012976, -0.01784371, 0.0002593962
 175733845, 0.03818101, 0.01243159, -0.002519658, 0.0002593962
 175833805, 0.009754625, 0.01436355, 0.01775886, 0.0002593962
 175933765, -0.003178163, -0.0002746892, 0.0199006, 0.0002593962
 176033725, -0.007588877, 0.003980132, -0.002056567, 0.0002593962
 176133685, -0.01181589, -0.00395061, -0.03953066, 0.0002593962
 176233645, -0.00707334, -0.0006340274, -0.05373638, 0.0002593962
 176333605, -0.001917819, -0.0008743691, -0.03310757, 0.0002593962
 176433565, -0.003475589, -0.008519348, -0.005944859, 0.0002593962
 176533525, -0.00614165, -0.004828858, 0.03262822, 0.0002593962
 176633485, -0.002785126, 0.004085504, 0.006249808, 0.0002593962
 176734278, -0.005282756, 0.01113557, -0.01389862, 0.0002615578
 176834238, -0.004444034, 0.01470919, 0.03221756, 0.0002593962
 176934198, -0.0199001, 0.01213277, 0.03598521, 0.0002593962
 177034158, -0.01105306, 0.002759717, 0.03603342, 0.0002593962
 177134118, 0.01191227, 0.002592174, 0.01212769, 0.0002593962
 177234078, 0.006448498, 0.01266961, 0.0160972, 0.0002593962
 177334038, 0.004691658, 0.004135408, 0.03101596, 0.0002593962
 177433998, -0.002453073, -0.004504316, 0.0008279923, 0.0002593962
 177553950, 0.001337596, -0.002417094, -0.009323776, 0.0003112754
 177653910, -0.002486872, -0.002462165, -0.02798125, 0.0002593962
 177753870, -0.007710004, 0.011646, -0.03339436, 0.0002593962
 177853830, -0.004170131, 0.005130428, -0.05221936, 0.0002593962
 177953790, -0.006305257, -0.0005781599, -0.05676619, 0.0002593962
 178053750, -0.01219026, -0.003650699, -0.03931827, 0.0002593962
 178153710, -0.007218631, 0.005119637, 0.01512832, 0.0002593962
 178253670, -0.006679459, 0.004162607, 0.02974535, 0.0002593962
 178353630, -0.003160224, 0.002891379, 0.02609813, 0.0002593962
 178453590, 0.001666354, 0.003705366, 0.02256067, 0.0002593962
 178553550, 0.0005177315, 0.002492143, 0.02413053, 0.0002593962
 178653510, -0.005160954, 0.01059933, 0.008047794, 0.0002593962
 178754303, -0.005042163, 0.01584481, 0.003006924, 0.0002593962
 178854263, -0.002390407, 0.02250386, 0.02323192, 0.0002615578
 178954223, -0.003482965, 0.01613906, 0.01465652, 0.0002593962
 179054183, 0.002483475, 0.01411343, 0.01579207, 0.0002593962
 179154143, -0.003160561, 0.02498334, -0.01578488, 0.0002593962
 179254103, -0.000821009, 0.0160791, -0.03039069, 0.0002593962
 179354063, -0.003733089, 0.01515508, -0.02072783, 0.0002593962
 179454023, -0.002275607, 0.005886314, 0.03176326, 0.0002593962
 179573975, -0.002879958, 0.01968831, 0.005858328, 0.0003112754
 179673935, -0.006643299, 0.009419156, -0.02238577, 0.0002593962
 179773895, -0.003928221, -0.002561933, -0.01986094, 0.0002593962
 179873855, -0.007792538, 0.0009101973, -0.0253092, 0.0002593962
 179973815, -0.005365915, 0.01672442, -0.01904383, 0.0002593962
 180073775, -0.002690801, 0.1780787, 0.003383503, 0.0002593962
 180173735, -0.01405943, -0.2830895, -0.1685669, 0.0002593962
 180273695, -0.07589869, -1.170373, -0.04603974, 0.0002593962
 180373655, -0.1081199, -1.468051, 0.6212118, 0.0002593962
 180473615, -0.1459976, -1.601656, 0.7128522, 0.0002593962
 180573575, -0.4899262, -2.558447, 0.0312727, 0.0002593962
 180673535, -1.134588, -3.317134, -0.9837853, 0.0002593962
 180773495, -1.419532, -2.77082, -1.512623, 0.0002593962
 180874288, -1.128235, -1.672589, -1.182608, 0.0002615578
 180974248, -0.6373819, -0.857522, -0.4838502, 0.0002593962
 181074208, -0.3255656, -0.4458069, 0.06567208, 0.0002593962
 181174168, -0.2249498, -0.2493457, 0.3592718, 0.0002593962
 181274128, -0.2581735, -0.194471, 0.4374089, 0.0002593962
 181374088, -0.3026759, -0.2067263, 0.4398435, 0.0002593962
 181474048, -0.3788162, -0.2970331, 0.324885, 0.0002593962
 181574008, -0.4500683, -0.3934117, 0.2090536, 0.0002593962
 181693960, -0.5817375, -0.5326091, 0.1746847, 0.0003112754
 181793920, -0.4968807, -0.4563919, 0.1034333, 0.0002593962
 181893880, -0.5115669, -0.4599935, 0.08430701, 0.0002593962
 181993840, -0.527377, -0.4516951, 0.07526913, 0.0002593962
 182093800, -0.5236331, -0.4237235, 0.08197577, 0.0002593962
 182193760, -0.5180892, -0.3959004, 0.0975942, 0.0002593962
 182293720, -0.538441, -0.3964228, 0.0738933, 0.0002593962
 182393680, -0.5438814, -0.3722086, 0.07920359, 0.0002593962
 182493640, -0.5550691, -0.3632435, 0.08155769, 0.0002593962
 182593600, -0.5562264, -0.3416545, 0.07967338, 0.0002593962
 182693560, -0.568869, -0.3365664, 0.05881211, 0.0002593962
 182793520, -0.576997, -0.3213525, 0.04970265, 0.0002593962
 182893480, -0.5646942, -0.2979417, 0.07083338, 0.0002593962
 182994273, -0.5764524, -0.2840471, 0.07354257, 0.0002615578
 183094233, -0.5562454, -0.2575736, 0.0764509, 0.0002593962
 183194193, -0.5678747, -0.2482685, 0.05243472, 0.0002593962
 183294153, -0.5847186, -0.2451356, 0.0268855, 0.0002593962
 183394113, -0.5531731, -0.2108088, 0.04603302, 0.0002593962
 183494073, -0.5434819, -0.1924649, 0.05313647, 0.0002593962
 183594033, -0.5435911, -0.1795457, 0.05626417, 0.0002593962
 183693993, -0.5124457, -0.1537447, 0.08508179, 0.0002593962
 183813945, -0.6327198, -0.1803024, 0.08068383, 0.0003112754
 183913905, -0.5136299, -0.1333919, 0.07034156, 0.0002593962
 184013865, -0.5218029, -0.127608, 0.05794567, 0.0002593962
 184113825, -0.5352388, -0.1238663, 0.02963603, 0.0002593962
 184213785, -0.5129462, -0.1063157, 0.03498252, 0.0002593962
 184313745, -0.5091234, -0.08750798, 0.02484026, 0.0002593962
 184413705, -0.4918492, -0.07836872, 0.02527705, 0.0002593962
 184513665, -0.4616994, -0.06115203, 0.04504067, 0.0002593962
 184613625, -0.4445553, -0.04525067, 0.0648376, 0.0002593962
 184713585, -0.4362161, -0.03744015, 0.06180033, 0.0002593962
 184813545, -0.442388, -0.03021163, 0.03449858, 0.0002593962
 184913505, -0.4175076, -0.02376743, 0.04387336, 0.0002593962
 185014298, -0.4352785, -0.01804394, 0.02574393, 0.0002593962
 185114258, -0.4234366, -0.01219459, 0.03479683, 0.0002615578
 185214218, -0.3853894, -0.004878156, 0.06554154, 0.0002593962
 185314178, -0.3686023, -0.001150396, 0.06047409, 0.0002593962
 185414138, -0.3858163, 0.001277327, 0.002502241, 0.0002593962
 185514098, -0.3635176, 0.002942008, 0.01023269, 0.0002593962
 185614058, -0.3379008, 0.001287183, 0.039734, 0.0002593962
 185714018, -0.3404258, 0.005404353, 0.03214905, 0.0002593962
 185833970, -0.3954855, 0.01846622, 0.01944939, 0.0003112754
 185933930, -0.30876, 0.006745041, 0.01050784, 0.0002593962
 186033890, -0.3041862, 0.01581007, -0.01679908, 0.0002593962
 186133850, -0.2836509, 0.01876064, -0.01203163, 0.0002593962
 186233810, -0.2539791, 0.02045651, 0.01457899, 0.0002593962
 186333770, -0.2309113, 0.01840987, 0.0008149133, 0.0002593962
 186433730, -0.2267399, 0.02476126, -0.01201465, 0.0002593962
 186533690, -0.2182081, 0.02344763, -0.01163805, 0.0002593962
 186633650, -0.2126718, 0.02180555, -0.02374819, 0.0002593962
 186733610, -0.1970564, 0.02299358, -0.03051639, 0.0002593962
 186833570, -0.1916843, 0.0257612, -0.01832383, 0.0002593962
 186933530, -0.1713628, 0.02463074, -0.0197499, 0.0002593962
 187033490, -0.1447961, 0.01782992, 0.007124654, 0.0002593962
 187134283, -0.144768, 0.01660316, 0.003630122, 0.0002615578
 187234243, -0.1422238, 0.01805902, 0.005383006, 0.0002593962
 187334203, -0.1415833, 0.0142504, -0.02168489, 0.0002593962
 187434163, -0.129379, 0.01152685, -0.0336724, 0.0002593962
 187534123, -0.1146807, 0.009207626, -0.03441641, 0.0002593962
 187634083, -0.09958655, 0.007289396, -0.04294924, 0.0002593962
 187734043, -0.09432118, 0.005016242, 0.005086733, 0.0002593962
 187834003, -0.08628283, 0.006443353, 0.02556853, 0.0002593962
 187953955, -0.08911493, 0.00667641, 0.03291631, 0.0003112754
 188053915, -0.06748883, -0.004861377, -0.04063423, 0.0002593962
 188153875, -0.04472764, -0.002014445, -0.07475808, 0.0002593962
 188253835, -0.03884601, 0.001461054, -0.07792854, 0.0002593962
 188353795, -0.03216239, -0.0007836443, -0.03638729, 0.0002593962
 188453755, -0.02662753, 0.002238766, -0.01791576, 0.0002593962
 188553715, -0.01656421, -0.002457312, -0.03518932, 0.0002593962
 188653675, -0.01104672, -0.000797542, -0.06840498, 0.0002593962
 188753635, -0.002873235, -0.003955637, -0.05187523, 0.0002593962
 188853595, 0.003048548, -0.001003839, -0.02410677, 0.0002593962
 188953555, 0.0006479222, 0.001873724, -0.04003377, 0.0002593962
 189053515, 0.005526908, 0.0005327889, -0.02855727, 0.0002593962
 189153475, 0.0176466, -0.001649425, -0.02547352, 0.0002593962
 189254268, 0.02858218, -0.001954505, 0.01870416, 0.0002615578
 189354228, 0.04354066, -0.004426327, 0.001291627, 0.0002593962
 189454188, 0.05361891, -0.007330195, -0.03853549, 0.0002593962
 189554148, 0.05435804, -0.002866704, -0.03694365, 0.0002593962
 189654108, 0.04110333, -0.001084719, -0.08208725, 0.0002593962
 189754068, 0.04380043, -0.003976212, -0.04326463, 0.0002593962
 189854028, 0.06651722, -0.01205896, -0.02773437, 0.0002593962
 189973980, 0.0852263, -0.01498365, -0.02654864, 0.0003112754
 190073940, 0.06723686, -0.01249716, -0.02395293, 0.0002593962
 190173900, 0.06694868, -0.01257907, -0.04891252, 0.0002593962
 190273860, 0.06309069, -0.007555848, -0.0134296, 0.0002593962
 190373820, 0.07177228, -0.008085864, 0.005770062, 0.0002593962
 190473780, 0.0674303, -0.01221736, 0.009705923, 0.0002593962
 190573740, 0.06676731, -0.004051839, 0.01844434, 0.0002593962
 190673700, 0.05937958, -0.01006422, 0.02655729, 0.0002593962
 190773660, 0.06891647, -0.01520409, -0.03326537, 0.0002593962
 190873620, 0.07748473, -0.01576373, -0.05042952, 0.0002593962
 190973580, 0.07895833, -0.01022239, -0.03181839, 0.0002593962
 191073540, 0.08757104, -0.01740277, -0.03011435, 0.0002593962
 191173500, 0.09357016, -0.01473927, -0.04812087, 0.0002593962
 191274293, 0.1060197, -0.01040991, -0.04066666, 0.0002615578
 191374253, 0.08475564, -0.003682541, -0.007299964, 0.0002593962
 191474213, 0.08287577, -0.01045789, 0.01544868, 0.0002593962
 191574173, 0.08820251, -0.005451169, -0.02451244, 0.0002593962
 191674133, 0.08337682, -0.009345504, -0.01145606, 0.0002593962
 191774093, 0.104212, -0.01224772, -0.03313537, 0.0002593962
 191874053, 0.1117176, -0.007264602, -0.014733, 0.0002593962
 191974013, 0.1058396, -0.009406785, -0.01750967, 0.0002593962
 192093965, 0.1209807, -0.009818506, -0.03916361, 0.0003112754
 192193925, 0.08729987, -0.005108441, -0.01293327, 0.0002593962
 192293885, 0.08739354, -0.009013535, 0.004746493, 0.0002593962
 192393845, 0.1014869, -0.01382663, -0.02397158, 0.0002593962
 192493805, 0.0996311, -0.01798832, -0.02472841, 0.0002593962
 192593765, 0.08877078, -0.01332491, -0.01122553, 0.0002593962
 192693725, 0.07575148, -0.002221933, -0.00683471, 0.0002593962
 192793685, 0.06954154, 0.0004883645, 0.01169387, 0.0002593962
 192893645, 0.07407087, -0.005549525, -0.01439225, 0.0002593962
 192993605, 0.07691873, -0.008086231, -0.03879537, 0.0002593962
 193093565, 0.09370617, -0.01059348, -0.02556802, 0.0002593962
 193193525, 0.09237252, -0.01053518, -0.01247466, 0.0002593962
 193293485, 0.08802115, -0.0005731703, -0.001348624, 0.0002593962
 193394278, 0.08527435, 0.000610198, -0.03458827, 0.0002615578
 193494238, 0.07930098, -0.0004987556, -0.04862646, 0.0002593962
 193594198, 0.07929625, -0.005276543, -0.01175948, 0.0002593962
 193694158, 0.06476061, 0.003251736, 0.006883127, 0.0002593962
 193794118, 0.07057048, -0.0001939939, 0.02623218, 0.0002593962
 193894078, 0.07435761, -0.002192643, 0.03398954, 0.0002593962
 193994038, 0.07040304, -0.007072228, 0.004328398, 0.0002593962
 194093998, 0.07282055, 0.003606076, -0.06069271, 0.0002593962
 194213950, 0.0823988, -0.000452041, -0.06748325, 0.0003112754
 194313910, 0.05623004, -0.001065502, 0.001988884, 0.0002593962
 194413870, 0.0579066, 0.006348013, 0.002669277, 0.0002593962
 194513830, 0.05213287, 0.004398054, 0.0145289, 0.0002593962
 194613790, 0.06595851, -0.009644658, -0.03589026, 0.0002593962
 194713750, 0.06005778, -0.006371665, -0.007338716, 0.0002593962
 194813710, 0.05313769, -0.008655162, -0.003820827, 0.0002593962
 194913670, 0.05895457, -0.007228387, 0.01721938, 0.0002593962
 195013630, 0.05276973, -0.01038884, 0.01178008, 0.0002593962
 195113590, 0.0448502, 0.001521949, -0.00328193, 0.0002593962
 195213550, 0.03556211, -0.002585151, 0.03224048, 0.0002593962
 195313510, 0.03666513, -0.007957678, 0.06142631, 0.0002593962
 195414303, 0.03935929, -0.0165065, 0.05283858, 0.0002593962
 195514263, 0.05052165, -0.01224633, -0.0286549, 0.0002615578
 195614223, 0.05697588, 0.0003865907, -0.08348854, 0.0002593962
 195714183, 0.05312331, -0.0008293642, -0.03177045, 0.0002593962
 195814143, 0.03634763, 0.002344766, -0.002142173, 0.0002593962
 195914103, 0.03424067, 0.003253406, 0.01062136, 0.0002593962
 196014063, 0.03406319, 0.0008200548, -0.03499738, 0.0002593962
 196114023, 0.03725944, 0.003474886, -0.03577654, 0.0002593962
 196233975, 0.02834159, -0.000332401, -0.006640686, 0.0003112754
 196333935, 0.01638323, -0.0043917, -0.009116988, 0.0002593962
 196433895, 0.02357028, -0.005684355, -0.002908563, 0.0002593962
 196533855, 0.01784251, -0.01007055, 0.001729426, 0.0002593962
 196633815, 0.01877181, -0.008013642, -0.004593423, 0.0002593962
 196733775, 0.02936756, -0.003205026, -0.006031998, 0.0002593962
 196833735, 0.04167734, 0.0009731589, 0.002069694, 0.0002593962
 196933695, 0.05975239, -0.0008601237, 0.01937959, 0.0002593962
 197033655, 0.05976322, -0.001438677, 0.006153353, 0.0002593962
 197133615, 0.04698163, -0.00519762, -0.002616503, 0.0002593962
 197233575, -0.006693904, -0.002788957, -0.002617227, 0.0002593962
 197333535, 0.01770177, 0.003353502, 0.001053541, 0.0002593962
 197433495, 0.01860579, -0.0001445278, -0.01245225, 0.0002593962
 197534288, 0.0075747, -0.006495185, 0.01066575, 0.0002615578
 197634248, 0.008432962, -0.001960034, 0.01953672, 0.0002593962
 197734208, 0.01559946, 0.0005594379, -0.02406601, 0.0002593962
 197834168, 0.01484341, 0.004109966, -0.02623348, 0.0002593962
 197934128, 0.006613933, -0.006806411, -0.002336101, 0.0002593962
 198034088, 0.0049568, -0.0002250384, 0.002154003, 0.0002593962
 198134048, 0.004159936, -0.00250865, -0.02369185, 0.0002593962
 198234008, 0.002728415, 0.005918937, -0.02763923, 0.0002593962
 198353960, 0.007449249, 0.005561661, 0.009441068, 0.0003112754
 198453920, -0.001418751, -0.003382099, -0.01999108, 0.0002593962
 198553880, -0.0004847923, 0.003011286, 0.01606906, 0.0002593962
 198653840, 0.002472882, -0.001482096, 0.02894219, 0.0002593962
 198753800, 0.009345995, 0.00270017, 0.02560867, 0.0002593962
 198853760, 0.009679755, 0.005350268, 0.009350326, 0.0002593962
 198953720, 0.008141633, 0.006049696, -0.0609633, 0.0002593962
 199053680, -0.004270077, 0.01387853, -0.05945084, 0.0002593962
 199153640, -0.009837097, 0.01300029, 0.001369929, 0.0002593962
 199253600, -0.008824342, 0.008937641, 0.03722419, 0.0002593962
 199353560, 0.002531199, 0.007598533, 0.03048761, 0.0002593962
 199453520, 0.02287954, 0.005479269, 0.04387446, 0.0002593962
 199553480, 0.005185778, 0.006494515, 0.03662262, 0.0002593962
 199654273, -0.003612602, 0.002206802, 0.01409481, 0.0002615578
 199754233, -0.006584291, 0.008898386, -0.009625388, 0.0002593962
 199854193, 0.00894148, 0.008368679, -0.0008702514, 0.0002593962
 199954153, 0.02692379, 0.0050788, 0.02183311, 0.0002593962
 200054113, 0.009749607, -0.006181095, 0.03459945, 0.0002593962
 200154073, -0.0007570724, -0.0005058315, 0.0250937, 0.0002593962
 200254033, -0.03940554, 0.001845936, -0.01436686, 0.0002593962
 200353993, -0.03430456, -0.006162333, 0.00218509, 0.0002593962
 200473945, 0.0004911222, -0.003278709, 0.03097777, 0.0003112754
 200573905, 0.03912392, -0.003547215, -0.01982249, 0.0002593962
 200673865, 0.06259312, 0.0006807841, -0.04773776, 0.0002593962
 200773825, 0.02915993, 0.003438598, 0.01446408, 0.0002593962
 200873785, 0.01453977, 0.002785157, 0.0253834, 0.0002593962
 200973745, 0.0132226, 0.001691798, 0.0223137, 0.0002593962
 201073705, 0.003171657, 0.008959563, -0.03490684, 0.0002593962
 201173665, -0.005608301, 0.005804554, -0.01545919, 0.0002593962
 201273625, -0.01476518, 0.003202522, 0.04344282, 0.0002593962
 201373585, -0.007302049, 0.002710622, 0.04822776, 0.0002593962
 201473545, -0.01109261, 0.003529741, -0.01680866, 0.0002593962
 201573505, -0.006312751, 0.005714633, -0.07167178, 0.0002593962
 201674298, -0.01580343, 0.004573165, 0.003249957, 0.0002593962
 201774258, -0.07468078, 0.005119253, 0.01396403, 0.0002615578
 201874218, -0.03175216, 0.003775543, 0.02626991, 0.0002593962
 201974178, -0.01291198, -0.001192196, 0.03785284, 0.0002593962
 202074138, -0.002872789, 0.001925365, 0.01584847, 0.0002593962
 202174098, -0.008538488, 0.003897586, -0.004027548, 0.0002593962
 202274058, 0.002009771, 0.002834954, -0.007811415, 0.0002593962
 202374018, 0.00060511, 0.002097848, 0.01346024, 0.0002593962
 202493970, -0.01872431, 0.002718154, 0.0006731395, 0.0003112754
 202593930, -0.02807318, -0.0004843132, 0.01357622, 0.0002593962
 202693890, 0.01631785, 0.005088123, 0.002132344, 0.0002593962
 202793850, -0.005949745, 0.01281911, 0.01074371, 0.0002593962
 202893810, -0.001817613, -0.0004407589, -0.009383119, 0.0002593962
 202993770, -0.02043543, 0.01550152, 0.001714154, 0.0002593962
 203093730, 0.004538883, 0.006926935, 0.02744679, 0.0002593962
 203193690, -0.005047849, 0.003866416, 0.002847772, 0.0002593962
 203293650, -0.01298843, -0.006435876, -0.01198473, 0.0002593962
 203393610, -0.01195327, -0.01601002, 0.005096275, 0.0002593962
 203493570, -0.00202991, 0.007024192, -0.02742437, 0.0002593962
 203593530, -0.01195796, 0.02206166, 0.005030784, 0.0002593962
 203693490, -0.01164516, -0.009842446, 0.04708708, 0.0002593962
 203794283, -0.01834684, -0.02493768, 0.02317085, 0.0002615578
 203894243, -0.02220045, -0.007241639, 0.002178933, 0.0002593962
 203994203, -0.008384224, 0.002313094, 0.01674802, 0.0002593962
 204094163, -0.01480212, 0.009602848, 0.01467689, 0.0002593962
 204194123, -0.004092781, 0.006523201, 0.0003554734, 0.0002593962
 204294083, -0.006494239, 0.006955672, -0.03046716, 0.0002593962
 204394043, -0.003130705, 0.003720411, -0.01807186, 0.0002593962
 204494003, 0.0004359365, -0.002058884, -0.002181239, 0.0002593962
 204613955, -0.007503139, -0.004067481, 0.002057445, 0.0003112754
 204713915, -0.01150503, 0.003196817, -0.002762824, 0.0002593962
 204813875, -0.01779901, -0.001817636, 0.006974862, 0.0002593962
 204913835, -0.009522468, -0.002452431, 0.0004679143, 0.0002593962
 205013795, 0.00149449, -0.001353351, 0.02159625, 0.0002593962
 205113755, 0.008892614, 0.005309233, 0.01053225, 0.0002593962
 205213715, 0.00481281, 0.007178889, -0.03938699, 0.0002593962
 205313675, -0.005541666, 0.0006511069, -0.03634596, 0.0002593962
 205413635, -0.01453722, 0.002138835, 0.03406135, 0.0002593962
 205513595, -0.02315654, 0.00129602, 0.03171724, 0.0002593962
 205613555, -0.01574434, 0.004398325, 0.03140577, 0.0002593962
 205713515, -0.01623829, 0.008585823, 0.02973082, 0.0002593962
 205813475, -0.01894916, 0.003315913, 0.006850372, 0.0002593962
 205914268, -0.00617457, 0.005476538, -0.02845011, 0.0002615578
 206014228, -0.004453248, 0.01496189, -0.05584218, 0.0002593962
 206114188, -0.01870507, 0.02582094, -0.01307943, 0.0002593962
 206214148, -0.01824692, 0.007838833, -0.0006302311, 0.0002593962
 206314108, -0.007336091, -0.02453908, 0.03975985, 0.0002593962
 206414068, 0.001347586, -0.0290344, 0.03429689, 0.0002593962
 206514028, 0.002431336, -0.004606582, 0.01930658, 0.0002593962
 206633980, -0.007222895, 0.009837767, -0.01671612, 0.0003112754
 206733940, -0.01028086, 0.02750303, 0.001056144, 0.0002593962
 206833900, -0.003731065, 0.04139694, -0.02716101, 0.0002593962
 206933860, -0.004500141, 0.01999785, -0.01452446, 0.0002593962
 207033820, 0.003016137, 0.004225212, 0.01370784, 0.0002593962
 207133780, 0.01304557, -0.001232648, 0.02482724, 0.0002593962
 207233740, 0.0158544, -0.008585387, 0.03415935, 0.0002593962
 207333700, 0.01231488, -0.007612461, 0.0284506, 0.0002593962
 207433660, 0.00292111, -0.03396901, 0.04814674, 0.0002593962
 207533620, -0.001055172, -0.01982495, -0.007845695, 0.0002593962
 207633580, 0.004784389, 0.006223934, -0.03019137, 0.0002593962
 207733540, 0.009174515, 0.03714081, -0.0524752, 0.0002593962
 207833500, 0.001509778, 0.03362951, -0.0276947, 0.0002593962
 207934293, -0.003498736, 0.01761402, -0.001537994, 0.0002615578
 208034253, -0.001241942, 0.001135545, 0.002693539, 0.0002593962
 208134213, 0.004081499, -0.005020213, -0.01382729, 0.0002593962
 208234173, 0.0046032, -0.003002261, 0.02496539, 0.0002593962
 208334133, 0.01492283, -0.005565165, 0.0353521, 0.0002593962
 208434093, 0.009139996, 0.002581711, 0.03703746, 0.0002593962
 208534053, 0.008466128, 0.001455125, 0.02162161, 0.0002593962
 208634013, 0.02308684, 0.002869765, -0.02313472, 0.0002593962
 208753965, 0.0686526, 0.008255073, -0.03841035, 0.0003112754
 208853925, 0.03745827, 0.004750105, -0.02259615, 0.0002593962
 208953885, 0.02455683, 0.007760543, -0.03853802, 0.0002593962
 209053845, 0.02022042, 0.009396031, -0.03295612, 0.0002593962
 209153805, 0.01784132, 0.006571868, -0.01839365, 0.0002593962
 209253765, -0.01172425, 0.006769029, 0.01775325, 0.0002593962
 209353725, -0.01343598, -0.002002728, 0.0524992, 0.0002593962
 209453685, 0.01058301, -0.002138477, 0.02466922, 0.0002593962
 209553645, 0.01703457, 0.001602891, 0.04401411, 0.0002593962
 209653605, -0.001361656, 0.0008023389, 0.02048454, 0.0002593962
 209753565, -0.00393511, -5.281001E-05, -0.005836706, 0.0002593962
 209853525, 0.02628092, 0.001518808, -0.01202296, 0.0002593962
 209953485, 0.02539802, 3.851368E-06, 0.008083751, 0.0002593962
 210054278, 0.01801725, -4.495971E-05, -0.01306562, 0.0002615578
 210154238, 0.02161531, 0.005968574, -0.009423614, 0.0002593962
 210254198, 0.0002157714, -0.0002228775, 0.04198706, 0.0002593962
 210354158, -0.01006973, 0.0007001054, -0.001575116, 0.0002593962
 210454118, -0.002431728, 0.00166915, -0.003543819, 0.0002593962
 210554078, 0.1299278, 0.002855293, 0.005998642, 0.0002593962
 210654038, -0.1504734, 0.003837627, -0.134804, 0.0002593962
 210753998, -1.006889, 0.05607855, -0.1294803, 0.0002593962
 210873950, -1.793529, 0.1557604, 0.6219243, 0.0003112754
 210973910, -1.587258, 0.1619679, 0.6760368, 0.0002593962
 211073870, -2.50698, 0.494317, -0.0008892342, 0.0002593962
 211173830, -3.214197, 1.108973, -1.003936, 0.0002593962
 211273790, -2.693198, 1.393173, -1.545485, 0.0002593962
 211373750, -1.62481, 1.088051, -1.220909, 0.0002593962
 211473710, -0.8342414, 0.6136051, -0.4988333, 0.0002593962
 211573670, -0.4072186, 0.2868364, 0.09691736, 0.0002593962
 211673630, -0.2248205, 0.2057735, 0.3892104, 0.0002593962
 211773590, -0.176957, 0.2352348, 0.4571896, 0.0002593962
 211873550, -0.2087971, 0.3048425, 0.4050952, 0.0002593962
 211973510, -0.3066844, 0.3921906, 0.2973478, 0.0002593962
 212074303, -0.3974998, 0.4531772, 0.1934936, 0.0002593962
 212174263, -0.4359728, 0.473955, 0.1397986, 0.0002615578
 212274223, -0.443356, 0.4764426, 0.1140808, 0.0002593962
 212374183, -0.4516378, 0.4921509, 0.09952451, 0.0002593962
 212474143, -0.4435318, 0.5045453, 0.0781156, 0.0002593962
 212574103, -0.4116941, 0.5100962, 0.08343251, 0.0002593962
 212674063, -0.411649, 0.5237152, 0.05765972, 0.0002593962
 212774023, -0.3814031, 0.5172319, 0.0800374, 0.0002593962
 212893975, -0.4546388, 0.6551352, 0.07959458, 0.0003112754
 212993935, -0.3641481, 0.5577388, 0.04577073, 0.0002593962
 213093895, -0.3410575, 0.5526893, 0.05188727, 0.0002593962
 213193855, -0.3192038, 0.5481334, 0.06019404, 0.0002593962
 213293815, -0.2940509, 0.5289402, 0.07952984, 0.0002593962
 213393775, -0.2921113, 0.5485753, 0.06202622, 0.0002593962
 213493735, -0.2754687, 0.545114, 0.0612427, 0.0002593962
 213593695, -0.2525036, 0.531132, 0.0751975, 0.0002593962
 213693655, -0.2307638, 0.5316533, 0.06535146, 0.0002593962
 213793615, -0.219502, 0.5241903, 0.05977647, 0.0002593962
 213893575, -0.2020737, 0.5246522, 0.06076388, 0.0002593962
 213993535, -0.1882705, 0.5302156, 0.05201394, 0.0002593962
 214093495, -0.1790411, 0.5465887, 0.04072445, 0.0002593962
 214194288, -0.1673886, 0.553955, 0.03446655, 0.0002615578
 214294248, -0.1523107, 0.5280908, 0.03807508, 0.0002593962
 214394208, -0.1383893, 0.4881462, 0.0804912, 0.0002593962
 214494168, -0.1281604, 0.5007121, 0.07032319, 0.0002593962
 214594128, -0.1187988, 0.5168683, 0.02991462, 0.0002593962
 214694088, -0.1079266, 0.5276331, 0.01235316, 0.0002593962
 214794048, -0.08613381, 0.4990099, 0.03298843, 0.0002593962
 214894008, -0.07334585, 0.4679562, 0.06028974, 0.0002593962
 215013960, -0.08777942, 0.6017276, 0.01952083, 0.0003112754
 215113920, -0.05920544, 0.4711295, 0.01463519, 0.0002593962
 215213880, -0.04729018, 0.439188, 0.04788083, 0.0002593962
 215313840, -0.03838075, 0.4192044, 0.05421865, 0.0002593962
 215413800, -0.03220329, 0.4250965, 0.02855756, 0.0002593962
 215513760, -0.01774279, 0.4045195, 0.02349875, 0.0002593962
 215613720, -0.01236734, 0.3899285, 0.03445559, 0.0002593962
 215713680, -0.005121769, 0.3969593, 0.0154308, 0.0002593962
 215813640, 0.00177417, 0.3741307, 0.01761921, 0.0002593962
 215913600, 0.004345713, 0.3666626, 0.01329355, 0.0002593962
 216013560, 0.007785873, 0.347975, 0.02926804, 0.0002593962
 216113520, 0.01303008, 0.3377165, 0.01322614, 0.0002593962
 216213480, 0.02030497, 0.3106855, 0.02343763, 0.0002593962
 216314273, 0.01424296, 0.3243968, -0.002914971, 0.0002615578
 216414233, 0.01841467, 0.3021207, 0.007344931, 0.0002593962
 216514193, 0.01626386, 0.2955188, -0.004124498, 0.0002593962
 216614153, 0.01577099, 0.2686793, 0.01481864, 0.0002593962
 216714113, 0.01452785, 0.2494635, 0.01108518, 0.0002593962
 216814073, 0.01791764, 0.2547021, -0.01758336, 0.0002593962
 216914033, 0.01977888, 0.2293122, 0.008964851, 0.0002593962
 217013993, 0.01981438, 0.2131488, 0.02202841, 0.0002593962
 217133945, 0.0185972, 0.2365124, 0.01585091, 0.0003112754
 217233905, 0.01245102, 0.1938947, -0.03452081, 0.0002593962
 217333865, 0.01415735, 0.188665, -0.03068111, 0.0002593962
 217433825, 0.01204211, 0.1653038, 0.008796586, 0.0002593962
 217533785, 0.01295856, 0.1430695, 0.0146938, 0.0002593962
 217633745, 0.007112014, 0.1318874, 0.009996019, 0.0002593962
 217733705, 0.005051439, 0.133323, -0.0182629, 0.0002593962
 217833665, -0.00178649, 0.1178463, -0.01239559, 0.0002593962
 217933625, -0.0004831235, 0.1082985, -0.00127052, 0.0002593962
 218033585, 0.004356498, 0.1116631, -0.04864096, 0.0002593962
 218133545, 0.005561769, 0.1010695, -0.0369936, 0.0002593962
 218233505, 0.002414035, 0.07773876, -0.005645048, 0.0002593962
 218334298, -0.007672278, 0.06686711, -0.01044355, 0.0002593962
 218434258, -0.005669083, 0.06234207, -0.03537749, 0.0002615578
 218534218, -0.007961694, 0.04649481, -0.03866901, 0.0002593962
 218634178, -0.0056531, 0.03821792, -0.0571717, 0.0002593962
 218734138, -0.006166293, 0.03409703, -0.03975724, 0.0002593962
 218834098, -0.01025411, 0.0325038, -0.02348706, 0.0002593962
 218934058, -0.009890357, 0.03475662, -0.03788764, 0.0002593962
 219034018, -0.01217624, 0.02437237, -0.06098712, 0.0002593962
 219153970, -0.01828508, 0.001542463, -0.04809677, 0.0003112754
 219253930, -0.01037545, -0.0160907, -0.0570802, 0.0002593962
 219353890, -0.01113109, -0.02301313, -0.008762144, 0.0002593962
 219453850, -0.01196699, -0.02866497, 0.004020246, 0.0002593962
 219553810, -0.01307127, -0.03100487, -0.06151935, 0.0002593962
 219653770, -0.008257517, -0.03811091, -0.07661778, 0.0002593962
 219753730, -0.004436044, -0.0328467, -0.02329397, 0.0002593962
 219853690, -0.01132548, -0.03822904, -0.008657919, 0.0002593962
 219953650, -0.01636695, -0.03333906, -0.02923131, 0.0002593962
 220053610, -0.01445323, -0.02653138, -0.04220632, 0.0002593962
 220153570, -0.003402655, -0.03270713, -0.0473098, 0.0002593962
 220253530, -0.00346794, -0.04589998, -0.04881244, 0.0002593962
 220353490, -0.01223895, -0.06063285, -0.01511139, 0.0002593962
 220454283, -0.002952238, -0.06605708, 0.003163885, 0.0002615578
 220554243, -0.01417475, -0.06086088, -0.03906833, 0.0002593962
 220654203, -0.01409156, -0.07160667, -0.03568708, 0.0002593962
 220754163, -0.01095272, -0.07474813, -0.01600868, 0.0002593962
 220854123, -0.01182088, -0.07493933, -0.04456116, 0.0002593962
 220954083, -0.006754979, -0.0733709, -0.02294911, 0.0002593962
 221054043, -0.01027119, -0.07230324, -0.02116998, 0.0002593962
 221154003, -0.009958916, -0.07057913, -0.06730873, 0.0002593962
 221273955, -0.01542299, -0.07633527, -0.05326825, 0.0003112754
 221373915, -0.01367718, -0.07307713, 0.01605999, 0.0002593962
 221473875, -0.02068556, -0.07983333, 0.04509354, 0.0002593962
 221573835, -0.0154348, -0.07990719, 0.0090504, 0.0002593962
 221673795, -0.01253731, -0.08391033, -0.0231752, 0.0002593962
 221773755, -0.01502382, -0.0844859, -0.03621424, 0.0002593962
 221873715, -0.01055396, -0.08025242, -0.005290098, 0.0002593962
 221973675, -0.01276249, -0.07422477, -0.01475248, 0.0002593962
 222073635, -0.01313099, -0.07465969, -0.03695018, 0.0002593962
 222173595, -0.006014051, -0.07983559, -0.0186869, 0.0002593962
 222273555, -0.006597493, -0.07722001, -0.04373058, 0.0002593962
 222373515, -0.006344305, -0.07091373, -0.03291344, 0.0002593962
 222473475, -0.003086313, -0.0734984, -0.01442532, 0.0002593962
 222574268, -0.006944958, -0.09916378, 0.001098263, 0.0002615578
 222674228, -0.004920752, -0.08627843, 0.02254772, 0.0002593962
 222774188, -0.01434169, -0.09510121, 0.00554866, 0.0002593962
 222874148, -0.02023086, -0.09155287, -0.007010401, 0.0002593962
 222974108, -0.01241254, -0.08967277, -0.0119572, 0.0002593962
 223074068, -0.00882549, -0.0832471, -0.02936702, 0.0002593962
 223174028, -0.007360646, -0.08336294, -0.03022697, 0.0002593962
 223293980, -0.01383121, -0.09310544, -0.0199046, 0.0003112754
 223393940, -0.008223239, -0.0863915, -0.02712331, 0.0002593962
 223493900, -0.005719811, -0.09361337, -0.01429891, 0.0002593962
 223593860, -0.007978223, -0.08971711, 0.0112217, 0.0002593962
 223693820, -0.009586794, -0.09522784, 0.01563734, 0.0002593962
 223793780, -0.008371451, -0.09562925, -0.009880174, 0.0002593962
 223893740, -0.0121549, -0.08716542, -0.006940163, 0.0002593962
 223993700, -0.009153912, -0.080709, -0.01894843, 0.0002593962
 224093660, -0.01630436, -0.06576916, 0.01665343, 0.0002593962
 224193620, -0.009842993, -0.06716262, 0.01386598, 0.0002593962
 224293580, -0.009372768, -0.08461441, 0.003750731, 0.0002593962
 224393540, -0.006099242, -0.0845258, -0.04243325, 0.0002593962
 224493500, -0.005005007, -0.07264183, -0.02323032, 0.0002593962
 224594293, -0.0005168284, -0.06237335, -0.007809911, 0.0002615578
 224694253, -0.005274016, -0.05717708, -0.01851401, 0.0002593962
 224794213, -0.002085438, -0.05732069, -0.04721107, 0.0002593962
 224894173, -0.004726808, -0.04681396, -0.04216723, 0.0002593962
 224994133, -0.00137037, -0.04452056, -0.01322822, 0.0002593962
 225094093, -0.004883258, -0.04510661, 0.03264458, 0.0002593962
 225194053, -0.01194463, -0.03641398, 0.02387205, 0.0002593962
 225294013, -0.009040126, -0.03690247, -0.005119793, 0.0002593962
 225413965, -0.01365038, -0.05178312, -0.01892864, 0.0003112754
 225513925, -0.009250283, -0.03926649, 0.03654276, 0.0002593962
 225613885, -0.00771969, -0.03215446, -0.01609584, 0.0002593962
 225713845, -0.007042407, -0.03794913, -0.0319747, 0.0002593962
 225813805, -0.00335409, -0.04348714, -0.0007653323, 0.0002593962
 225913765, 0.002404279, -0.04169235, -0.01803675, 0.0002593962
 226013725, -0.005663972, -0.02082443, 0.006281761, 0.0002593962
 226113685, -0.002955376, -0.0151866, 0.002867839, 0.0002593962
 226213645, -0.001075333, -0.02443559, -0.02579833, 0.0002593962
 226313605, -0.002463061, -0.03961224, -0.001068736, 0.0002593962
 226413565, -0.0002337024, -0.03362624, 0.02504016, 0.0002593962
 226513525, -0.02284896, -0.01923539, 0.0146722, 0.0002593962
 226613485, -0.01266874, -0.02302481, 0.01591835, 0.0002593962
 226714278, -0.008372096, -0.02187913, -0.03562621, 0.0002615578
 226814238, -0.002503855, -0.00208382, -0.01402944, 0.0002593962
 226914198, -0.00299078, 0.007582026, 0.001987787, 0.0002593962
 227014158, -5.028746E-05, 0.003021696, -0.001748444, 0.0002593962
 227114118, -0.002430904, -0.001639487, 0.0133218, 0.0002593962
 227214078, -0.004465614, -0.008202523, 0.008175641, 0.0002593962
 227314038, -0.005257682, -0.00934167, -0.03595138, 0.0002593962
 227413998, -0.001348482, -0.01041346, -0.01145853, 0.0002593962
 227533950, -0.001933301, -0.01902844, 0.01854814, 0.0003112754
 227633910, -0.00182125, -0.01616295, 0.01471172, 0.0002593962
 227733870, 0.001319299, -0.02811762, -0.01169867, 0.0002593962
 227833830, -0.005771908, -0.01806556, 0.01275075, 0.0002593962
 227933790, -0.0001461598, -0.01594348, 0.0266788, 0.0002593962
 228033750, -0.002990566, -0.00446469, 0.0008544652, 0.0002593962
 228133710, -0.004613569, -0.005957026, 0.003605315, 0.0002593962
 228233670, 0.001248181, 0.001815707, 0.005492425, 0.0002593962
 228333630, 0.003024982, -0.004756397, 0.01369615, 0.0002593962
 228433590, 0.003394573, -0.01828622, -0.02002421, 0.0002593962
 228533550, 0.00255984, -0.01524708, -0.02269285, 0.0002593962
 228633510, 0.003180594, 0.0003034806, -0.01817876, 0.0002593962
 228734303, 0.003933573, 0.004521392, 0.02075262, 0.0002593962
 228834263, 0.002653659, -0.007291787, 0.02269518, 0.0002615578
 228934223, 0.01817282, -0.02016942, -0.01090162, 0.0002593962
 229034183, 0.0209129, -0.009616371, -0.01843722, 0.0002593962
 229134143, 0.009231015, -0.006744605, 0.01563644, 0.0002593962
 229234103, -0.005046567, 0.004524242, 0.04959748, 0.0002593962
 229334063, -0.003334388, 0.01125014, 0.026883, 0.0002593962
 229434023, 0.001136979, 0.00432833, -0.004123602, 0.0002593962
 229553975, 0.002051151, 0.003670999, 0.0139396, 0.0003112754
 229653935, -9.1403E-05, 0.004398581, 0.002942119, 0.0002593962
 229753895, 0.001497995, -0.007327983, -0.03170398, 0.0002593962
 229853855, 0.006112367, -0.007966512, -0.03857663, 0.0002593962
 229953815, 0.0005747776, -0.00717982, -0.00864711, 0.0002593962
 230053775, -0.0002773311, 0.001218411, 0.02260647, 0.0002593962
 230153735, -0.003730885, 0.01146937, 0.03119151, 0.0002593962
 230253695, -0.002593528, 0.006258398, 0.02890579, 0.0002593962
 230353655, -0.0005062574, -0.004278379, 0.01239576, 0.0002593962
 230453615, -0.006764793, -0.1470165, -0.01375651, 0.0002593962
 230553575, -0.0004478154, 0.1284778, -0.1114661, 0.0002593962
 230653535, 0.05398052, 0.9794028, -0.1005221, 0.0002593962
 230753495, 0.1152018, 1.467263, 0.4818473, 0.0002593962
 230854288, 0.1291048, 1.505437, 0.7598628, 0.0002615578
 230954248, 0.3582853, 2.291444, 0.2027522, 0.0002593962
 231054208, 0.9526573, 3.204901, -0.7904164, 0.0002593962
 231154168, 1.382231, 2.946769, -1.500157, 0.0002593962
 231254128, 1.189006, 1.877726, -1.322171, 0.0002593962
 231354088, 0.7052052, 0.9874194, -0.6584098, 0.0002593962
 231454048, 0.3552237, 0.5329718, -0.05351121, 0.0002593962
 231554008, 0.200631, 0.2887311, 0.3286937, 0.0002593962
 231673960, 0.2524629, 0.2436836, 0.5522206, 0.0003112754
 231773920, 0.2848133, 0.2371757, 0.4077093, 0.0002593962
 231873880, 0.3607002, 0.3176811, 0.3087808, 0.0002593962
 231973840, 0.3976452, 0.3728416, 0.2329163, 0.0002593962
 232073800, 0.4527576, 0.445636, 0.1496123, 0.0002593962
 232173760, 0.4799534, 0.4707081, 0.1003513, 0.0002593962
 232273720, 0.500464, 0.4718578, 0.07512952, 0.0002593962
 232373680, 0.4925995, 0.4442312, 0.08706205, 0.0002593962
 232473640, 0.5091307, 0.4408777, 0.07333535, 0.0002593962
 232573600, 0.5499606, 0.4430977, 0.04344619, 0.0002593962
 232673560, 0.5580428, 0.4188004, 0.04637339, 0.0002593962
 232773520, 0.5732573, 0.3990444, 0.02907082, 0.0002593962
 232873480, 0.5611167, 0.362205, 0.05494898, 0.0002593962
 232974273, 0.555898, 0.3448468, 0.04991949, 0.0002615578
 233074233, 0.5387113, 0.3125166, 0.06009242, 0.0002593962
 233174193, 0.5331609, 0.2950727, 0.07005581, 0.0002593962
 233274153, 0.5340164, 0.2776202, 0.0688612, 0.0002593962
 233374113, 0.5116423, 0.2429022, 0.1004298, 0.0002593962
 233474073, 0.5171543, 0.2343306, 0.09199004, 0.0002593962
 233574033, 0.5453894, 0.2393887, 0.05776215, 0.0002593962
 233673993, 0.5518514, 0.2296302, 0.04512142, 0.0002593962
 233793945, 0.6382515, 0.2481682, 0.1045306, 0.0003112754
 233893905, 0.5116199, 0.1802686, 0.07844397, 0.0002593962
 233993865, 0.5449495, 0.1815872, 0.02533015, 0.0002593962
 234093825, 0.542174, 0.1690302, 0.02954027, 0.0002593962
 234193785, 0.5270354, 0.1436172, 0.04906534, 0.0002593962
 234293745, 0.5056007, 0.1254711, 0.06307302, 0.0002593962
 234393705, 0.4983808, 0.1164982, 0.04991136, 0.0002593962
 234493665, 0.5047521, 0.1043327, 0.02378935, 0.0002593962
 234593625, 0.482761, 0.09290904, 0.04413277, 0.0002593962
 234693585, 0.4674084, 0.07354067, 0.06481107, 0.0002593962
 234793545, 0.4495986, 0.06634489, 0.07946935, 0.0002593962
 234893505, 0.4412572, 0.05652847, 0.05570704, 0.0002593962
 234994298, 0.4396929, 0.04949757, 0.02802822, 0.0002593962
 235094258, 0.4278559, 0.04437291, 0.04120324, 0.0002615578
 235194218, 0.4112394, 0.03682083, 0.05823405, 0.0002593962
 235294178, 0.4106501, 0.02931384, 0.05217351, 0.0002593962
 235394138, 0.4062381, 0.02379782, 0.02860961, 0.0002593962
 235494098, 0.3925468, 0.020609, 0.0262328, 0.0002593962
 235594058, 0.3486807, 0.01272604, 0.0644055, 0.0002593962
 235694018, 0.3469293, 0.01109527, 0.04688399, 0.0002593962
 235813970, 0.4129524, 0.008654313, 0.02983376, 0.0003112754
 235913930, 0.3224749, 0.004075565, 0.02971957, 0.0002593962
 236013890, 0.3159032, -0.005729677, 0.02311891, 0.0002593962
 236113850, 0.3046854, -0.009899536, 0.0171343, 0.0002593962
 236213810, 0.3011636, -0.01004405, -0.002999278, 0.0002593962
 236313770, 0.3013262, -0.009428169, -0.02016591, 0.0002593962
