TimeUS,CAN,CAE,CAD,CAe
 170563414, 0, 0, 0, 0
 170635885, -0.1440049, 3.157626, 0.1245039, 0.4427939
 170735845, -0.0001493255, 0.003538527, -8.146126E-05, 0.0002593961
 170835805, 7.726336E-05, 0.003602052, 1.070429E-05, 0.0002593961
 170935765, -0.0001852955, 0.003603059, -4.60655E-05, 0.0002593961
 171035725, 0.0001073275, 0.003614379, -0.0001004723, 0.0002593961
 171135685, 0.0001394666, 0.003418996, -0.0001189769, 0.0002593961
 171236478, 0.0002044708, 0.003706452, -0.0001191239, 0.0002615578
 171336438, -0.0001281797, 0.00362949, -0.0002035995, 0.0002593961
 171436398, -3.268138E-05, 0.003612712, -3.1641E-05, 0.0002593961
 171536358, -0.0001043928, 0.003466505, -0.0001368571, 0.0002593961
 171636318, 0.0001533815, 0.003798015, -0.0002207659, 0.0002593961
 171736278, -0.0001042522, 0.003690393, -0.0001711375, 0.0002593961
 171836238, 4.114094E-05, 0.00369241, -3.972252E-05, 0.0002593961
 171936198, -0.0001445006, 0.003671869, 6.795667E-05, 0.0002593961
 172036158, 0.0001360136, 0.003924154, -0.0001316438, 0.0002593961
 172136118, 1.264316E-05, 0.003636272, -9.547348E-05, 0.0002593961
 172236078, 7.824713E-05, 0.003494197, -0.0001269631, 0.0002593961
 172336038, 0.000156301, 0.003568372, -3.741555E-05, 0.0002593961
 172435998, 2.185946E-05, 0.003554107, -3.620249E-05, 0.0002593961
 172535958, 0.0002568723, 0.003667556, -5.287203E-05, 0.0002593961
 172635918, -5.111693E-05, 0.00354181, 1.175171E-05, 0.0002593961
 172735878, 0.0001086321, 0.00354568, 0.0002021255, 0.0002593961
 172835838, 8.210936E-05, 0.00367325, -3.046961E-06, 0.0002593961
 172935798, -0.0001025865, 0.003574697, -0.0001041377, 0.0002593961
 173035758, -0.000301447, 0.003528196, -0.0002515203, 0.0002593961
 173135718, -5.013555E-05, 0.003817681, -0.0001693131, 0.0002593961
 173235678, 4.606442E-05, 0.003479865, -7.413401E-05, 0.0002593961
 173336471, -4.167198E-05, 0.003570238, -9.092547E-05, 0.0002615578
 173436431, -0.0001079746, 0.003904914, -0.0001536994, 0.0002593961
 173536391, -0.0001371365, 0.003787384, -0.000142043, 0.0002593961
 173636351, 0.0001326117, 0.003675014, -0.0001395275, 0.0002593961
 173736311, 3.902194E-05, 0.003528668, -3.832475E-05, 0.0002593961
 173836271, 5.356049E-05, 0.003612487, -0.0001435147, 0.0002593961
 173936231, 4.484103E-05, 0.003606596, -0.0001415282, 0.0002593961
 174036191, -0.0001293443, 0.003582934, -0.0001480225, 0.0002593961
 174136151, -0.0001883329, 0.003550287, -0.0001670121, 0.0002593961
 174236111, -1.739391E-05, 0.003477351, -2.77039E-05, 0.0002593961
 174336071, -9.512311E-05, 0.003585854, 5.230123E-05, 0.0002593961
 174436031, -0.0001178857, 0.003646008, 0.0001464985, 0.0002593961
 174535991, -0.0002265241, 0.003594843, -6.626936E-05, 0.0002593961
 174635951, 0.0001477397, 0.003625105, -8.789241E-05, 0.0002593961
 174735911, -0.0001644528, 0.003790855, 6.05329E-05, 0.0002593961
 174835871, 0.00014614, 0.003492899, -5.214392E-05, 0.0002593961
 174935831, -2.415234E-05, 0.003508824, -1.945928E-06, 0.0002593961
 175035791, -9.029965E-05, 0.003592686, -0.0002727526, 0.0002593961
 175135751, -4.518695E-05, 0.003530973, 2.832351E-05, 0.0002593961
 175235711, -0.0002055168, 0.003624982, -0.0001528069, 0.0002593961
 175335671, -2.890039E-05, 0.003716082, 4.161243E-05, 0.0002593961
 175436464, -5.38141E-05, 0.003538241, -7.84846E-05, 0.0002615578
 175536424, 1.192142E-05, 0.003825648, -7.219049E-05, 0.0002593961
 175636384, 9.626607E-06, 0.003661444, -3.289217E-05, 0.0002593961
 175736344, 2.493096E-05, 0.003403121, -3.734762E-05, 0.0002593961
 175836304, 0.0001193478, 0.003701116, -6.07331E-05, 0.0002593961
 175936264, 6.176862E-05, 0.003813336, -0.0001944527, 0.0002593961
 176036224, -8.798209E-05, 0.003597758, -0.0001429248, 0.0002593961
 176136184, -3.413809E-05, 0.003350392, -1.102959E-05, 0.0002593961
 176236144, -0.0001092191, 0.003662983, 0.0001085991, 0.0002593961
 176336104, 3.073666E-05, 0.003341619, -0.0002539108, 0.0002593961
 176436064, 2.917898E-05, 0.003573831, -0.0002417813, 0.0002593961
 176536024, -5.534768E-05, 0.003738019, 3.020864E-05, 0.0002593961
 176635984, 0.0001308668, 0.003750672, -4.499542E-05, 0.0002593961
 176735944, 0.0002046378, 0.003485403, -4.621326E-05, 0.0002593961
 176835904, -5.016739E-05, 0.003581051, -7.215951E-05, 0.0002593961
 176935864, 6.176418E-06, 0.003693667, 4.974401E-05, 0.0002593961
 177035824, -5.159835E-05, 0.003741324, -8.385164E-05, 0.0002593961
 177135784, 0.0002256869, 0.003523402, -8.202251E-05, 0.0002593961
 177235744, 0.0001930122, 0.003740644, -4.323541E-05, 0.0002593961
 177335704, 7.663411E-05, 0.003615862, -0.0001269357, 0.0002593961
 177435664, 5.124083E-05, 0.003622302, -0.0002026069, 0.0002593961
 177536457, 6.274733E-05, 0.003564005, -9.235345E-05, 0.0002615578
 177636417, 0.0001061385, 0.003413815, 0.0001689723, 0.0002593961
 177736377, 7.995638E-05, 0.003668169, -0.0001867501, 0.0002593961
 177836337, 0.0003174577, 0.003548444, 0.0001195918, 0.0002593961
 177936297, 7.570067E-05, 0.003560972, -0.0003429769, 0.0002593961
 178036257, -0.000103959, 0.003415609, -1.220455E-05, 0.0002593961
 178136217, 0.0001222453, 0.003721431, 7.293167E-05, 0.0002593961
 178236177, 2.376848E-05, 0.003509098, -7.958803E-05, 0.0002593961
 178336137, 8.593105E-05, 0.003601255, -7.02994E-05, 0.0002593961
 178436097, -0.0002230352, 0.003560275, -5.680316E-05, 0.0002593961
 178536057, 4.192856E-05, 0.003446384, -1.82222E-05, 0.0002593961
 178636017, -0.0002117716, 0.003698628, -3.870965E-05, 0.0002593961
 178735977, 4.30408E-05, 0.003578087, -0.0001481489, 0.0002593961
 178835937, 0.0001885139, 0.003627704, -7.787449E-05, 0.0002593961
 178935897, 0.0001653788, 0.003645561, -5.975955E-05, 0.0002593961
 179035857, 9.33628E-05, 0.003526382, -7.62694E-05, 0.0002593961
 179135817, -0.0001441299, 0.003401945, -7.600485E-05, 0.0002593961
 179235777, 2.497698E-05, 0.003312538, -0.000196644, 0.0002593961
 179335737, -7.815931E-05, 0.003343266, -0.0001819788, 0.0002593961
 179435697, -0.0001161714, 0.003447689, -0.0001578951, 0.0002593961
 179535657, -5.933332E-05, 0.003648665, -5.601668E-05, 0.0002593961
 179636450, 0.0001931385, 0.003655378, -0.0001338511, 0.0002615578
 179736410, 2.415053E-05, 0.003458363, -0.0001478319, 0.0002593961
 179836370, -8.233475E-05, 0.003659202, 6.99288E-05, 0.0002593961
 179936330, -0.000137284, 0.003591211, 0.0001127269, 0.0002593961
 180036290, -9.043882E-05, 0.003395836, -7.144452E-05, 0.0002593961
 180136250, 0.0001458182, 0.003689358, -5.117632E-05, 0.0002593961
 180236210, -0.0001136576, 0.003592862, -0.0001181106, 0.0002593961
 180336170, -0.0001236714, 0.003538267, -0.0003251527, 0.0002593961
 180436130, 7.860512E-05, 0.003615388, -5.19223E-05, 0.0002593961
 180536090, -3.391312E-06, 0.003626585, -0.0001452056, 0.0002593961
 180636050, -6.257747E-05, 0.003630631, -3.735596E-05, 0.0002593961
 180736010, -1.304651E-05, 0.003468773, -0.0001673279, 0.0002593961
 180835970, -3.352131E-05, 0.0033859, -9.093699E-05, 0.0002593961
 180935930, -3.424708E-05, 0.00344316, 6.188071E-06, 0.0002593961
 181035890, -5.859732E-05, 0.003539581, -0.0002107182, 0.0002593961
 181135850, -0.0001660275, 0.003416038, -9.065814E-05, 0.0002593961
 181235810, 8.091357E-05, 0.003683952, -0.000125899, 0.0002593961
 181335770, -7.471507E-05, 0.003421295, 6.478102E-05, 0.0002593961
 181435730, -0.0001675325, 0.003462172, -0.0001665558, 0.0002593961
 181535690, 5.419932E-05, 0.003482907, -1.163614E-05, 0.0002593961
 181636483, 0.0001948929, 0.003426719, 0.0001464004, 0.0002615578
 181736443, -2.584956E-05, 0.003620429, 8.802586E-05, 0.0002593961
 181836403, 6.407929E-05, 0.003707777, -0.000201718, 0.0002593961
 181936363, 6.531195E-05, 0.003587276, -0.0002797449, 0.0002593961
 182036323, 0.0002267132, 0.003789198, 2.119886E-05, 0.0002593961
 182136283, 0.0001551642, 0.003688669, -7.938309E-05, 0.0002593961
 182236243, 0.0001458723, 0.003524391, 0.0001017414, 0.0002593961
 182336203, -0.0001248689, 0.003633061, 2.775752E-05, 0.0002593961
 182436163, -0.0002717993, 0.003465206, -7.327485E-05, 0.0002593961
 182536123, -2.304795E-05, 0.003667903, -5.032191E-06, 0.0002593961
 182636083, 0.000184368, 0.003548753, -4.897065E-05, 0.0002593961
 182736043, -0.000237403, 0.003651902, 0.0001075469, 0.0002593961
 182836003, 0.0001465712, 0.00373585, 0.0001061206, 0.0002593961
 182935963, 9.753845E-05, 0.003730502, 9.914483E-05, 0.0002593961
 183035923, 2.138662E-05, 0.003559303, -0.0001011944, 0.0002593961
 183135883, 5.481737E-05, 0.003491724, -0.0001038291, 0.0002593961
 183235843, 3.296841E-05, 0.003699804, 0.000117771, 0.0002593961
 183335803, -0.0001720211, 0.003620818, 5.629552E-05, 0.0002593961
 183435763, -0.0001003155, 0.003342525, -6.625027E-05, 0.0002593961
 183535723, -7.511953E-05, 0.003772757, -1.868096E-05, 0.0002593961
 183635683, 0.0001122388, 0.00357075, -2.500488E-05, 0.0002593961
 183736476, -0.0001330153, 0.003731754, 5.32851E-05, 0.0002615578
 183836436, -5.59513E-05, 0.003514075, -0.0002680696, 0.0002593961
 183936396, -0.0002147451, 0.003519994, -0.0002485437, 0.0002593961
 184036356, 3.462145E-05, 0.00346719, 6.086772E-06, 0.0002593961
 184136316, -0.0001354126, 0.003559327, -7.954275E-05, 0.0002593961
 184236276, 0.0001054431, 0.003650608, -0.0001404534, 0.0002593961
 184336236, 2.249377E-05, 0.003600964, -0.0001272896, 0.0002593961
 184436196, -1.928386E-05, 0.003618735, -3.20425E-06, 0.0002593961
 184536156, 2.463686E-05, 0.003777681, -5.083674E-05, 0.0002593961
 184636116, -2.739948E-05, 0.003552841, 6.659347E-05, 0.0002593961
 184736076, -2.273563E-05, 0.003493499, -0.0001273432, 0.0002593961
 184836036, -9.764419E-05, 0.003477257, -2.89443E-06, 0.0002593961
 184935996, 8.427376E-05, 0.003455119, 0.0002546257, 0.0002593961
 185035956, 6.119693E-05, 0.003742091, -0.0001997804, 0.0002593961
 185135916, 2.961691E-05, 0.003770487, -0.0002941898, 0.0002593961
 185235876, -0.0001743557, 0.003708831, -0.0001097883, 0.0002593961
 185335836, -4.112249E-05, 0.003734446, 9.902089E-05, 0.0002593961
 185435796, -2.597462E-05, 0.003526786, 1.851413E-05, 0.0002593961
 185535756, -4.555914E-05, 0.003415487, -1.514542E-06, 0.0002593961
 185635716, 3.375528E-05, 0.003584271, -0.0004067748, 0.0002593961
 185735676, -6.640415E-06, 0.003792206, -0.0001248969, 0.0002593961
 185836469, 4.161707E-05, 0.003425119, -0.0001643636, 0.0002615578
 185936429, 0.0001887015, 0.003612732, -0.0001829572, 0.0002593961
 186036389, -9.593925E-05, 0.003502782, -0.0002647818, 0.0002593961
 186136349, 0.0001637001, 0.00345998, -2.295051E-06, 0.0002593961
 186236309, 9.916065E-05, 0.003540609, 1.941142E-05, 0.0002593961
 186336269, -1.0962E-05, 0.003760614, -6.546739E-05, 0.0002593961
 186436229, -0.0001177636, 0.003790055, -0.0002021278, 0.0002593961
 186536189, -0.0001138384, 0.003718629, -0.0002627204, 0.0002593961
 186636149, 0.0001537065, 0.003724564, -0.0001620252, 0.0002593961
 186736109, 0.000381608, 0.003817808, -7.274457E-05, 0.0002593961
 186836069, -0.0001217992, 0.003869664, 0.0001715343, 0.0002593961
 186936029, -7.359158E-05, 0.003527558, -0.0001039804, 0.0002593961
 187035989, 5.46518E-05, 0.003549574, -0.0001574029, 0.0002593961
 187135949, 7.294571E-05, 0.003666398, -6.323071E-05, 0.0002593961
 187235909, 6.691677E-06, 0.00362085, 3.471534E-05, 0.0002593961
 187335869, -1.545238E-05, 0.003699468, -7.452129E-05, 0.0002593961
 187435829, -1.396924E-05, 0.003768079, -8.613359E-05, 0.0002593961
 187535789, -5.211788E-05, 0.003606391, -0.0001053377, 0.0002593961
 187635749, -0.0001026303, 0.003620408, -0.0001604655, 0.0002593961
 187735709, -5.408145E-05, 0.00349117, 4.232739E-05, 0.0002593961
 187835669, 3.996509E-05, 0.003953669, -0.0001122693, 0.0002593961
 187936462, -3.163459E-05, 0.003530444, -3.340537E-05, 0.0002615578
 188036422, 0.0001819281, 0.003576151, 3.910765E-05, 0.0002593961
 188136382, 0.0001024804, 0.003742332, -3.567698E-05, 0.0002593961
 188236342, 0.0002004095, 0.00353309, 3.045294E-05, 0.0002593961
 188336302, -5.331643E-05, 0.003610134, 5.8214E-05, 0.0002593961
 188436262, 0.0001873469, 0.003748188, 6.777677E-05, 0.0002593961
 188536222, -6.623563E-05, 0.003558531, 5.852622E-05, 0.0002593961
 188636182, 5.067377E-06, 0.003530554, -0.0001399982, 0.0002593961
 188736142, -2.348428E-05, 0.003765335, -9.811757E-06, 0.0002593961
 188836102, -5.976335E-05, 0.003673225, 0.0001530821, 0.0002593961
 188936062, 0.0001032308, 0.003675882, -0.0002311985, 0.0002593961
 189036022, 4.1679E-05, 0.003481954, -3.721894E-05, 0.0002593961
 189135982, 0.0001509448, 0.003557355, 0.000140538, 0.0002593961
 189235942, 1.489016E-05, 0.003590798, -0.0001434419, 0.0002593961
 189335902, 0.0001016586, 0.003542942, -0.0001616701, 0.0002593961
 189435862, 5.12546E-05, 0.003569946, 2.874178E-05, 0.0002593961
 189535822, 0.0001015081, 0.003615196, -6.106913E-05, 0.0002593961
 189635782, -6.621254E-05, 0.003531381, -0.0001643858, 0.0002593961
 189735742, 3.803122E-05, 0.003672983, -0.0003443068, 0.0002593961
 189835702, 0.0001598513, 0.003591318, -0.0002232326, 0.0002593961
 189935662, 1.915408E-06, 0.003396989, -0.0002548044, 0.0002593961
 190036455, -0.000125821, 0.0035288, -8.278514E-05, 0.0002615578
 190136415, 0.0001153283, 0.003633427, -0.0001146394, 0.0002593961
 190236375, 0.0001019237, 0.003454779, 1.49512E-05, 0.0002593961
 190336335, -1.594818E-05, 0.003624627, -2.062092E-05, 0.0002593961
 190436295, 0.0001303006, 0.003563093, -0.0001155081, 0.0002593961
 190536255, -5.605159E-05, 0.003729364, -0.0001113243, 0.0002593961
 190636215, 5.661405E-05, 0.003634742, 5.365489E-05, 0.0002593961
 190736175, -7.057226E-05, 0.003684319, -0.0001302079, 0.0002593961
 190836135, 8.143834E-05, 0.003682456, -4.726545E-05, 0.0002593961
 190936095, -0.0001232607, 0.003268671, -7.789594E-06, 0.0002593961
 191036055, -5.554968E-05, 0.003572917, -0.0002024544, 0.0002593961
 191136015, -0.0001403675, 0.003545957, -1.631442E-05, 0.0002593961
 191235975, 0.0002401869, 0.003528195, 4.370606E-05, 0.0002593961
 191335935, 9.501581E-05, 0.003595588, 7.030178E-05, 0.0002593961
 191435895, -0.0001767847, 0.003469015, -0.0002736606, 0.0002593961
 191535855, -2.502336E-05, 0.003561123, -0.0001793501, 0.0002593961
 191635815, -9.531684E-05, 0.003581204, -5.403263E-05, 0.0002593961
 191735775, 5.470572E-05, 0.00352954, 0.0001137159, 0.0002593961
 191835735, -6.234583E-05, 0.003578138, -1.313161E-05, 0.0002593961
 191935695, 9.918658E-05, 0.003548619, 9.551876E-05, 0.0002593961
 192035655, -3.210831E-05, 0.00370721, -3.495605E-05, 0.0002593961
 192136448, -9.052199E-05, 0.003620071, 1.34315E-05, 0.0002615578
 192236408, -5.495304E-05, 0.003540827, -0.0001837305, 0.0002593961
 192336368, 2.946706E-05, 0.003686575, -7.879204E-05, 0.0002593961
 192436328, 0.0001763865, 0.00367836, 5.279931E-05, 0.0002593961
 192536288, 2.865972E-05, 0.003600692, 0.0002322424, 0.0002593961
 192636248, -2.842687E-05, 0.003877653, -8.571176E-05, 0.0002593961
 192736208, -0.0002181303, 0.003601338, -0.0001818871, 0.0002593961
 192836168, -9.25101E-05, 0.003593209, 5.007171E-05, 0.0002593961
 192936128, 0.0001031696, 0.003782168, -1.950795E-05, 0.0002593961
 193036088, 5.684941E-05, 0.003648705, 8.776133E-05, 0.0002593961
 193136048, -0.0001867658, 0.003461139, -5.684008E-05, 0.0002593961
 193236008, 0.0001156483, 0.003535383, -9.016005E-05, 0.0002593961
 193335968, 4.509633E-05, 0.003781671, -0.0002092918, 0.0002593961
 193435928, 9.724344E-05, 0.003642748, -0.0001932563, 0.0002593961
 193535888, -9.494098E-06, 0.003577061, -0.0001417547, 0.0002593961
 193635848, -1.483039E-05, 0.003641145, -1.001195E-05, 0.0002593961
 193735808, -1.753652E-05, 0.003739367, -9.337265E-05, 0.0002593961
 193835768, -2.269917E-05, 0.003400371, 6.848694E-05, 0.0002593961
 193935728, 9.721862E-05, 0.003352494, -0.0001569787, 0.0002593961
 194035688, 1.446622E-05, 0.003573412, -0.0002135793, 0.0002593961
 194136481, -0.0002230329, 0.003706605, 5.181703E-05, 0.0002615578
 194236441, 0.0002011303, 0.003392315, -4.817108E-05, 0.0002593961
 194336401, 0.0001395807, 0.003566824, 0.0001593751, 0.0002593961
 194436361, 3.744635E-05, 0.003619443, -0.0001061218, 0.0002593961
 194536321, 3.084265E-05, 0.003749779, 5.489299E-05, 0.0002593961
 194636281, -1.154398E-05, 0.003598833, -8.341549E-05, 0.0002593961
 194736241, 0.0001584282, 0.00366395, -0.0001060896, 0.0002593961
 194836201, -9.042482E-05, 0.003459441, -0.0001342772, 0.0002593961
 194936161, -0.0001545924, 0.003573516, 5.520639E-05, 0.0002593961
 195036121, 8.973788E-05, 0.003607643, -9.155308E-05, 0.0002593961
 195136081, -2.940217E-06, 0.003471684, -0.0003279757, 0.0002593961
 195236041, -0.0002160524, 0.003519884, -4.450925E-05, 0.0002593961
 195336001, 0.0001533691, 0.003474257, -7.345005E-05, 0.0002593961
 195435961, 3.794559E-05, 0.003599584, -0.0001249326, 0.0002593961
 195535921, 7.829328E-05, 0.003596004, -0.0001356155, 0.0002593961
 195635881, 6.091952E-05, 0.003602964, 3.931837E-08, 0.0002593961
 195735841, 0.0002211167, 0.003346093, -0.0002256075, 0.0002593961
 195835801, 1.881622E-05, 0.003540943, 0.0001715641, 0.0002593961
 195935761, 0.0001861176, 0.003557831, -5.389203E-05, 0.0002593961
 196035721, 0.000129404, 0.003581334, 7.806753E-05, 0.0002593961
 196135681, -2.211251E-05, 0.003443223, 2.216049E-05, 0.0002593961
 196236474, -0.0002535396, 0.003526976, -8.565692E-05, 0.0002615578
 196336434, 2.713903E-05, 0.003648576, -0.0001258954, 0.0002593961
 196436394, 0.0001280861, 0.003519167, -0.0001177388, 0.0002593961
 196536354, 6.714906E-05, 0.003458221, -2.871795E-05, 0.0002593961
 196636314, -0.00020115, 0.003515247, -6.280415E-05, 0.0002593961
 196736274, -3.10813E-05, 0.003437809, -0.0001085454, 0.0002593961
 196836234, 4.178947E-05, 0.003277922, -2.926728E-05, 0.0002593961
 196936194, -0.0001881653, 0.003508801, -1.886805E-05, 0.0002593961
 197036154, -0.0001270414, 0.003374062, 6.429959E-05, 0.0002593961
 197136114, 2.01881E-05, 0.003719996, -6.971073E-05, 0.0002593961
 197236074, 0.0002725406, 0.003544733, -6.39886E-05, 0.0002593961
 197336034, 0.000113003, 0.003517212, -8.559735E-05, 0.0002593961
 197435994, -7.522453E-05, 0.003600741, -0.0001007452, 0.0002593961
 197535954, -5.865976E-05, 0.003350566, -0.0001683658, 0.0002593961
 197635914, -1.036793E-05, 0.003553048, -0.0001710934, 0.0002593961
 197735874, 0.0002959169, 0.0036174, -0.0001133537, 0.0002593961
 197835834, 0.0001908982, 0.003659797, -0.0001475483, 0.0002593961
 197935794, 0.0001927229, 0.003651955, -0.0001502533, 0.0002593961
 198035754, 0.0001631653, 0.003604357, -0.0002890193, 0.0002593961
 198135714, 4.333969E-05, 0.003746026, -4.008715E-05, 0.0002593961
 198235674, 0.0002293091, 0.003588145, 3.072105E-05, 0.0002593961
 198336467, -2.645546E-05, 0.003515472, -9.563632E-05, 0.0002615578
 198436427, -7.96739E-05, 0.003635813, -5.518374E-05, 0.0002593961
 198536387, -0.0001246167, 0.003614443, 4.699734E-06, 0.0002593961
 198636347, 6.617316E-05, 0.003503672, -0.0001359503, 0.0002593961
 198736307, 0.0001214884, 0.003475567, 0.0002196553, 0.0002593961
 198836267, 0.0001487038, 0.003537243, -0.0001639318, 0.0002593961
 198936227, 0.0002267637, 0.003697797, -0.0001154926, 0.0002593961
 199036187, -8.632612E-05, 0.003857909, -2.429109E-05, 0.0002593961
 199136147, -7.447456E-05, 0.003376618, -0.0001217736, 0.0002593961
 199236107, -5.193935E-05, 0.003577612, 1.745003E-05, 0.0002593961
 199336067, -0.0001562465, 0.003419443, -8.842982E-06, 0.0002593961
 199436027, 0.0001999484, 0.003584409, -0.0001589485, 0.0002593961
 199535987, -8.13898E-05, 0.00354278, 1.500959E-05, 0.0002593961
 199635947, 8.954669E-05, 0.003367332, 8.446167E-06, 0.0002593961
 199735907, -3.462768E-06, 0.003599313, 1.018831E-05, 0.0002593961
 199835867, -0.0002413116, 0.003864043, -0.0001274302, 0.0002593961
 199935827, -0.0001125462, 0.00351579, -5.149212E-05, 0.0002593961
 200035787, 0.000201937, 0.003480314, 4.533146E-05, 0.0002593961
 200135747, -1.792201E-05, 0.00347713, 8.905303E-05, 0.0002593961
 200235707, 0.000259162, 0.003431283, 0.0001060836, 0.0002593961
 200335667, -0.0001824738, 0.003493672, -0.0003626922, 0.0002593961
 200436460, 0.0001680235, 0.003537396, -0.0001824185, 0.0002615578
 200536420, -7.604603E-05, 0.003707003, -0.0001484051, 0.0002593961
 200636380, -0.0001824976, 0.003629613, -5.633483E-05, 0.0002593961
 200736340, 8.168213E-05, 0.003513153, 0.0001287339, 0.0002593961
 200836300, 9.687214E-05, 0.003424992, -7.699747E-05, 0.0002593961
 200936260, -5.860253E-05, 0.003523177, 8.732758E-05, 0.0002593961
 201036220, 0.0001750471, 0.003599337, 2.979636E-05, 0.0002593961
 201136180, -7.71259E-05, 0.00347917, -0.0001717059, 0.0002593961
 201236140, -5.988876E-05, 0.00336355, 1.576747E-05, 0.0002593961
 201336100, -0.0002184808, 0.003482411, 8.272913E-05, 0.0002593961
 201436060, -0.0001595096, 0.003552419, -8.289835E-05, 0.0002593961
 201536020, 5.506671E-05, 0.003470987, -8.775895E-05, 0.0002593961
 201635980, 6.251684E-05, 0.003368396, 0.0001628451, 0.0002593961
 201735940, -7.51047E-05, 0.003490387, -8.656854E-05, 0.0002593961
 201835900, -0.0001572687, 0.00357185, 3.813011E-08, 0.0002593961
 201935860, 1.62823E-05, 0.003585136, -7.956778E-05, 0.0002593961
 202035820, 0.000161072, 0.003503011, -0.000131048, 0.0002593961
 202135780, 6.628515E-05, 0.003678206, 9.466676E-05, 0.0002593961
 202235740, -8.147817E-07, 0.003522908, -0.0002699618, 0.0002593961
 202335700, 0.0001906665, 0.003606603, -7.650296E-05, 0.0002593961
 202435660, -1.301918E-05, 0.003407539, -0.0001897244, 0.0002593961
 202536453, 0.0002306825, 0.003544832, -4.973884E-05, 0.0002615578
 202636413, 9.948003E-05, 0.003429996, 1.291832E-05, 0.0002593961
 202736373, 6.383968E-05, 0.003640811, -7.13492E-05, 0.0002593961
 202836333, 0.0001066697, 0.003477277, -7.54746E-05, 0.0002593961
 202936293, -3.874367E-05, 0.00351302, -0.0002264809, 0.0002593961
 203036253, 0.000136047, 0.003718393, 7.559612E-05, 0.0002593961
 203136213, 8.03951E-05, 0.003548965, -8.582971E-05, 0.0002593961
 203236173, -0.0001705021, 0.003614916, -0.0002575046, 0.0002593961
 203336133, -6.555923E-05, 0.003590695, -0.0001397349, 0.0002593961
 203436093, 0.0001745894, 0.003329219, 4.307574E-05, 0.0002593961
 203536053, -0.0001819534, 0.003743399, 0.0001912866, 0.0002593961
 203636013, 0.0002500542, 0.003589536, 2.966051E-05, 0.0002593961
 203735973, 3.130874E-05, 0.003698764, -0.0001094726, 0.0002593961
 203835933, 7.861139E-06, 0.003705516, -1.848197E-05, 0.0002593961
 203935893, 0.0001473593, 0.003736191, -5.492517E-05, 0.0002593961
 204035853, 9.626192E-05, 0.003504283, -0.0001330725, 0.0002593961
 204135813, -1.646363E-05, 0.003516166, 2.331039E-05, 0.0002593961
 204235773, 9.418122E-05, 0.00366016, -0.0001558157, 0.0002593961
 204335733, 8.43439E-05, 0.003670407, -0.0002360889, 0.0002593961
 204435693, 1.60108E-05, 0.003471862, -7.735853E-05, 0.0002593961
 204536486, 1.819962E-05, 0.003515933, 8.783877E-05, 0.0002593961
 204636446, 4.244561E-05, 0.003547591, 0.0001507724, 0.0002615578
 204736406, 0.0001325369, 0.003386498, 0.0001362637, 0.0002593961
 204836366, 6.115703E-05, 0.003369715, 3.576517E-05, 0.0002593961
 204936326, 3.656102E-05, 0.003526019, -0.000113026, 0.0002593961
 205036286, -7.112225E-05, 0.003688749, -0.000270952, 0.0002593961
 205136246, -3.398005E-05, 0.003568614, -1.198766E-05, 0.0002593961
 205236206, 2.234086E-05, 0.003551869, -0.0001607645, 0.0002593961
 205336166, -3.44881E-05, 0.003413122, 4.799114E-05, 0.0002593961
 205436126, 0.0001191581, 0.003435876, 2.236423E-05, 0.0002593961
 205536086, 0.0002281511, 0.003697245, -0.0001439854, 0.0002593961
 205636046, 6.259196E-05, 0.00356884, -0.0001067855, 0.0002593961
 205736006, -3.898453E-05, 0.003425193, -9.591196E-05, 0.0002593961
 205835966, -9.952047E-05, 0.003733962, -3.676138E-06, 0.0002593961
 205935926, 0.0001909698, 0.003518969, -0.0001268487, 0.0002593961
 206035886, -4.606291E-05, 0.003442825, -0.0002055991, 0.0002593961
 206135846, 0.0003093519, 0.003462527, -0.0001083036, 0.0002593961
 206235806, -7.416063E-05, 0.003476311, -2.887764E-05, 0.0002593961
 206335766, 0.0001243293, 0.003400397, 1.489758E-05, 0.0002593961
 206435726, 0.000108352, 0.003433156, 4.719397E-05, 0.0002593961
 206535686, 5.944943E-05, 0.003437482, -0.0001002149, 0.0002593961
 206636479, 2.79909E-05, 0.003697519, 5.242833E-05, 0.0002615578
 206736439, 0.0001646565, 0.003588131, -5.363467E-06, 0.0002593961
 206836399, -0.0001333221, 0.00370091, 1.983325E-05, 0.0002593961
 206936359, -0.0001380871, 0.003266284, -5.254431E-05, 0.0002593961
 207036319, 9.987035E-05, 0.003663499, -0.0002537153, 0.0002593961
 207136279, 5.481033E-05, 0.0036559, -4.953545E-05, 0.0002593961
 207236239, 0.0001014123, 0.003391769, 2.724511E-05, 0.0002593961
 207336199, 1.54874E-05, 0.003438931, -3.224156E-05, 0.0002593961
 207436159, -0.0001295308, 0.003450348, 8.867529E-05, 0.0002593961
 207536119, 0.0001696599, 0.003368867, -0.0002490871, 0.0002593961
 207636079, 4.41088E-05, 0.003654158, 5.610605E-05, 0.0002593961
 207736039, -3.999336E-05, 0.003432065, -6.861318E-06, 0.0002593961
 207835999, 6.487893E-06, 0.003392555, 5.805554E-05, 0.0002593961
 207935959, 5.769762E-05, 0.003708204, -0.0001741309, 0.0002593961
 208035919, -0.0001426961, 0.00373379, 0.0001095703, 0.0002593961
 208135879, 3.012241E-05, 0.003491534, 7.445931E-05, 0.0002593961
 208235839, 0.0002120638, 0.003625454, -0.0001256774, 0.0002593961
 208335799, -0.0001540799, 0.003590704, 0.0002496662, 0.0002593961
 208435759, 1.155792E-05, 0.003539507, -8.777802E-05, 0.0002593961
 208535719, 0.000115866, 0.00363554, -0.0001173885, 0.0002593961
 208635679, -2.1326E-05, 0.003662268, -0.0001380249, 0.0002593961
 208736472, -3.144349E-05, 0.003780248, 8.697205E-06, 0.0002615578
 208836432, 0.0001637308, 0.003653172, -4.916847E-05, 0.0002593961
 208936392, 0.0001068876, 0.003646439, -0.000122485, 0.0002593961
 209036352, 0.0002201752, 0.003450857, 0.0002531624, 0.0002593961
 209136312, 0.0001361909, 0.003562324, -1.422075E-05, 0.0002593961
 209236272, 2.269933E-07, 0.003551585, 3.318413E-05, 0.0002593961
 209336232, 9.376469E-05, 0.003760871, -1.947458E-05, 0.0002593961
 209436192, -4.424283E-05, 0.003389914, -0.000101938, 0.0002593961
 209536152, -0.0002094477, 0.003485824, -4.071275E-05, 0.0002593961
 209636112, 2.563882E-05, 0.003580465, 0.0001298719, 0.0002593961
 209736072, -5.702502E-05, 0.003424471, -9.264696E-05, 0.0002593961
 209836032, -7.496525E-05, 0.003759616, 5.370019E-05, 0.0002593961
 209935992, 7.6118E-05, 0.003496696, 0.0001044988, 0.0002593961
 210035952, 8.656044E-05, 0.003636095, -3.301373E-05, 0.0002593961
 210135912, -0.0001481447, 0.003528941, 1.522529E-05, 0.0002593961
 210235872, -4.976317E-05, 0.003595975, 0.0001938521, 0.0002593961
 210335832, 4.700355E-05, 0.003604149, -0.0001424482, 0.0002593961
 210435792, 1.484216E-05, 0.00351645, 6.634084E-05, 0.0002593961
 210535752, -0.0001209745, 0.003217563, 3.247152E-06, 0.0002593961
 210635712, 7.772078E-05, 0.003407276, -3.933763E-05, 0.0002593961
 210735672, -0.0001102121, 0.003529139, 0.0001221514, 0.0002593961
 210836465, 3.270846E-05, 0.003710097, -5.51877E-06, 0.0002615578
 210936425, -6.589857E-05, 0.003638213, 2.382994E-05, 0.0002593961
 211036385, 0.000189924, 0.003595496, -6.353689E-06, 0.0002593961
 211136345, -4.513736E-06, 0.003339589, -1.540045E-05, 0.0002593961
 211236305, -2.259578E-05, 0.00348088, -0.0002867517, 0.0002593961
 211336265, -0.0001694, 0.003494462, -0.0002001951, 0.0002593961
 211436225, -9.584801E-05, 0.003689557, 1.38418E-05, 0.0002593961
 211536185, -3.935815E-05, 0.003416873, -0.0003950315, 0.0002593961
 211636145, -5.704784E-05, 0.003531963, -3.394795E-05, 0.0002593961
 211736105, -0.0001896756, 0.003502552, 4.365842E-05, 0.0002593961
 211836065, -0.0001751416, 0.003514429, -8.638381E-05, 0.0002593961
 211936025, 9.37626E-05, 0.003647341, 8.058661E-05, 0.0002593961
 212035985, 4.087051E-05, 0.003636281, -0.0001047657, 0.0002593961
 212135945, 8.7938E-05, 0.003365118, -6.247285E-05, 0.0002593961
 212235905, 1.235874E-06, 0.003586932, 0.0001745861, 0.0002593961
 212335865, -1.791957E-05, 0.003582521, 1.563639E-05, 0.0002593961
 212435825, 0.000160886, 0.003319461, -0.0001393774, 0.0002593961
 212535785, -2.812213E-05, 0.003596123, 9.322967E-05, 0.0002593961
 212635745, 8.579927E-05, 0.003430475, -1.792191E-06, 0.0002593961
 212735705, -0.0001171455, 0.003439511, -5.72083E-05, 0.0002593961
 212835665, -0.0002112058, 0.003451054, -6.757059E-05, 0.0002593961
 212936458, 0.0001076651, 0.003471973, -0.0002081277, 0.0002615578
 213036418, -9.874706E-05, 0.00347738, -0.0002504562, 0.0002593961
 213136378, 0.0001484443, 0.003627442, 8.30175E-05, 0.0002593961
 213236338, -1.317926E-05, 0.003654955, 0.0001289019, 0.0002593961
 213336298, 3.118768E-05, 0.003496006, -2.450678E-05, 0.0002593961
 213436258, 1.747149E-05, 0.003545129, -6.128838E-05, 0.0002593961
 213536218, -1.182814E-05, 0.003554431, -6.172333E-05, 0.0002593961
 213636178, 2.772216E-05, 0.003376829, -0.0001751366, 0.0002593961
 213736138, -9.380824E-05, 0.003564852, -3.810311E-05, 0.0002593961
 213836098, 6.509362E-05, 0.003438095, -6.924361E-05, 0.0002593961
 213936058, 0.0001035483, 0.003603223, -7.030534E-05, 0.0002593961
 214036018, 0.0002229137, 0.003723737, 6.696524E-05, 0.0002593961
 214135978, 2.030433E-05, 0.003711142, -2.364404E-05, 0.0002593961
 214235938, 4.535009E-05, 0.003525011, -1.499053E-05, 0.0002593961
 214335898, 0.000452218, 0.003512096, 8.401487E-05, 0.0002593961
 214435858, 8.915096E-05, 0.003550294, -3.282783E-05, 0.0002593961
 214535818, 0.0001533329, 0.003637575, -0.0001791607, 0.0002593961
 214635778, 6.823587E-05, 0.003635737, -8.968579E-05, 0.0002593961
 214735738, 4.199687E-05, 0.003792921, -1.171596E-05, 0.0002593961
 214835698, 0.0001044792, 0.003714926, -7.593811E-05, 0.0002593961
 214935658, 4.118823E-06, 0.003578826, -0.0003328803, 0.0002593961
 215036451, 7.26658E-05, 0.003568335, -0.0002003353, 0.0002615578
 215136411, -0.0001102232, 0.003716649, -2.368218E-05, 0.0002593961
 215236371, -8.041809E-06, 0.003714484, -5.790061E-06, 0.0002593961
 215336331, -5.352511E-05, 0.003519376, -2.43327E-06, 0.0002593961
 215436291, 0.0001103566, 0.003296409, 1.963664E-05, 0.0002593961
 215536251, -4.040826E-05, 0.003594352, -8.560688E-05, 0.0002593961
 215636211, 1.231303E-05, 0.003487458, 2.63371E-05, 0.0002593961
 215736171, 0.0002620326, 0.003420975, -0.0001262756, 0.0002593961
 215836131, 0.0001568321, 0.003408568, 0.0001123766, 0.0002593961
 215936091, 0.000117846, 0.00341549, -5.872999E-05, 0.0002593961
 216036051, 5.935865E-06, 0.003422572, -3.556963E-06, 0.0002593961
 216136011, -1.35359E-06, 0.003544373, -7.365617E-05, 0.0002593961
 216235971, 7.010334E-05, 0.003393831, 8.474178E-05, 0.0002593961
 216335931, 0.0002241848, 0.003284204, -0.0002061198, 0.0002593961
 216435891, 0.0001208751, 0.003722454, -0.0001093129, 0.0002593961
 216535851, -8.134932E-05, 0.003453287, -0.00011052, 0.0002593961
 216635811, -9.97411E-05, 0.00345998, 8.840479E-05, 0.0002593961
 216735771, -0.0002365257, 0.003496715, -0.0002001403, 0.0002593961
 216835731, 3.852115E-05, 0.003366085, -0.0002565453, 0.0002593961
 216935691, 7.587719E-07, 0.003494967, -0.0002797307, 0.0002593961
 217036484, 6.678684E-05, 0.003474472, -0.0002456862, 0.0002615578
 217136444, 2.080355E-05, 0.003423719, -8.197603E-05, 0.0002593961
 217236404, 0.0001507591, 0.003538853, 0.0001663841, 0.0002593961
 217336364, 1.389334E-05, 0.003451151, 6.134918E-05, 0.0002593961
 217436324, 2.469997E-05, 0.003459014, -0.0002021028, 0.0002593961
 217536284, -0.0001990657, 0.003507847, 2.629539E-05, 0.0002593961
 217636244, -0.0001303804, 0.003453912, -0.0001187815, 0.0002593961
 217736204, -0.0001108394, 0.003690324, 9.225492E-05, 0.0002593961
 217836164, -0.0001537772, 0.003651889, -2.945913E-05, 0.0002593961
 217936124, 9.287969E-05, 0.003523766, -0.0001927236, 0.0002593961
 218036084, -7.691259E-05, 0.003555985, -2.967363E-05, 0.0002593961
 218136044, -4.87195E-05, 0.003505511, -1.947696E-05, 0.0002593961
 218236004, 5.279477E-05, 0.003460582, -7.249672E-05, 0.0002593961
 218335964, 2.614446E-05, 0.003696433, 2.524558E-05, 0.0002593961
 218435924, 0.0002016402, 0.003556756, -0.0001538519, 0.0002593961
 218535884, 3.001429E-05, 0.003522158, -0.0003278863, 0.0002593961
 218635844, -6.179421E-05, 0.003544696, -5.461179E-06, 0.0002593961
 218735804, 5.794134E-05, 0.003573187, -8.42103E-05, 0.0002593961
 218835764, 7.285122E-05, 0.00361337, -0.0001920122, 0.0002593961
 218935724, -4.777085E-05, 0.003676787, 2.60237E-05, 0.0002593961
 219035684, -4.709345E-05, 0.00357378, -0.0001663508, 0.0002593961
 219136477, 0.0002094139, 0.003919095, -0.0001559436, 0.0002615578
 219236437, 7.096097E-05, 0.003611687, -7.149578E-05, 0.0002593961
 219336397, 5.516763E-05, 0.003480073, 0.0001203985, 0.0002593961
 219436357, 0.000215498, 0.003588709, -0.0001544573, 0.0002593961
 219536317, 3.732458E-05, 0.003491458, -0.0003657261, 0.0002593961
 219636277, -6.028203E-05, 0.00343027, 5.219038E-05, 0.0002593961
 219736237, -5.231826E-06, 0.00368778, -0.0001472956, 0.0002593961
 219836197, 0.0001080061, 0.003554346, -1.791714E-05, 0.0002593961
 219936157, -1.476903E-05, 0.003487972, -0.000202004, 0.0002593961
 220036117, 5.578769E-05, 0.003674234, 1.040045E-05, 0.0002593961
 220136077, 0.0001149281, 0.003584938, -0.0001478009, 0.0002593961
 220236037, 8.505916E-06, 0.003236633, -4.389318E-05, 0.0002593961
 220335997, -7.179429E-05, 0.003515734, 3.117387E-05, 0.0002593961
 220435957, 5.097468E-05, 0.003618622, -1.637042E-05, 0.0002593961
 220535917, -2.347663E-05, 0.003500246, -3.946275E-05, 0.0002593961
 220635877, -6.933085E-05, 0.003775797, -7.914595E-05, 0.0002593961
 220735837, 6.456763E-05, 0.003523289, 0.0001203187, 0.0002593961
 220835797, -0.000165244, 0.003773356, -2.511927E-05, 0.0002593961
 220935757, 5.965161E-05, 0.003630835, -0.0002521304, 0.0002593961
 221035717, 4.544249E-05, 0.003551647, 5.61275E-05, 0.0002593961
 221135677, 0.0002398331, 0.003529508, -1.955679E-05, 0.0002593961
 221236470, -2.257108E-05, 0.00350947, -0.0002948503, 0.0002615578
 221336430, -0.0001450007, 0.003516187, -0.0003078468, 0.0002593961
 221436390, 0.0001023152, 0.0036436, -0.0001004544, 0.0002593961
 221536350, 8.322789E-05, 0.003557586, 8.728112E-05, 0.0002593961
 221636310, 0.0002378403, 0.003506485, -0.02215, 0.0002593961
 221736270, 0.0003116012, 0.003715486, -0.1927637, 0.0002593961
 221836230, 0.0001333895, 0.003793061, -0.09614313, 0.0002593961
 221936190, -1.464924E-05, 0.003591071, 0.01737328, 0.0002593961
 222036150, -7.025276E-05, 0.003506165, 0.05678065, 0.0002593961
 222136110, -4.683689E-05, 0.003495291, 0.04556147, 0.0002593961
 222236070, 4.598476E-05, 0.003530114, -0.2194053, 0.0002593961
 222336030, -0.001125705, 0.002245285, -0.7043238, 0.0002593961
 222435990, -0.003792727, -0.0005023492, -0.5874077, 0.0002593961
 222535950, -0.006227383, -0.003104824, -0.2921984, 0.0002593961
 222635910, -0.007224103, -0.004463873, -0.09854841, 0.0002593961
 222735870, -0.00738246, -0.004661811, -0.04928004, 0.0002593961
 222835830, -0.007147931, -0.004215105, -0.07690736, 0.0002593961
 222935790, -0.006902613, -0.003925471, -0.1119442, 0.0002593961
 223035750, -0.006440459, -0.003198542, -0.1248973, 0.0002593961
 223135710, -0.005896528, -0.002698026, -0.1179243, 0.0002593961
 223235670, -0.005609415, -0.00201741, -0.1040718, 0.0002593961
 223336463, -0.005185969, -0.001409918, -0.0927088, 0.0002615578
 223436423, -0.004790957, -0.0008070233, -0.08423114, 0.0002593961
 223536383, -0.004311154, -0.0001657234, -0.07954144, 0.0002593961
 223636343, -0.00418317, 0.0004560248, -0.07552439, 0.0002593961
 223736303, -0.003757192, 0.001017118, -0.07131664, 0.0002593961
 223836263, -0.003597214, 0.001437893, -0.06694309, 0.0002593961
 223936223, -0.003343927, 0.001634663, -0.0624901, 0.0002593961
 224036183, -0.003092129, 0.001805658, -0.05846442, 0.0002593961
 224136143, -0.002700211, 0.002011976, -0.05474383, 0.0002593961
 224236103, -0.002369629, 0.002156099, -0.05127046, 0.0002593961
 224336063, -0.002009311, 0.002222553, -0.04820402, 0.0002593961
 224436023, -0.001717288, 0.002478622, -0.04507222, 0.0002593961
 224535983, -0.001468759, 0.002528868, -0.04226512, 0.0002593961
 224635943, -0.001050728, 0.002670562, -0.03951406, 0.0002593961
 224735903, -0.0007467341, 0.002787359, -0.03646631, 0.0002593961
 224835863, -0.0008174054, 0.002842129, -0.03408211, 0.0002593961
 224935823, -0.0007520167, 0.002878947, -0.03203605, 0.0002593961
 225035783, -0.0008694014, 0.002935165, -0.03036073, 0.0002593961
 225135743, -0.0007099166, 0.0027411, -0.02860508, 0.0002593961
 225235703, -0.0007469983, 0.002581143, -0.02687916, 0.0002593961
 225335663, -0.0003055147, 0.002960446, 0.0665224, 0.0002593961
 225436456, 0.0006835163, 0.003547579, 0.2865417, 0.0002615578
 225536416, 0.0004878234, 0.003156406, 0.2644256, 0.0002593961
 225636376, 0.0003491898, 0.002969961, 0.2469376, 0.0002593961
 225736336, 0.0004417728, 0.002871534, 0.2310753, 0.0002593961
 225836296, 0.0005634626, 0.002785111, 0.2161128, 0.0002593961
 225936256, 0.0003933166, 0.002565417, 0.2028748, 0.0002593961
 226036216, 0.0002135068, 0.002700823, 0.1900588, 0.0002593961
 226136176, 0.0001793553, 0.002667705, 0.1606293, 0.0002593961
 226236136, -0.0002121817, 0.002572002, 0.1306177, 0.0002593961
 226336096, -0.003097257, 0.002891892, 0.1185392, 0.0002593961
 226436056, -0.008259075, 0.004062692, 0.1092431, 0.0002593961
 226536016, -0.01254744, 0.006771372, 0.1029386, 0.0002593961
 226635976, -0.01228131, 0.01125131, 0.09437031, 0.0002593961
 226735936, -0.001379966, 0.01814293, 0.08804286, 0.0002593961
 226835896, 0.02085797, 0.02754369, 0.08274887, 0.0002593961
 226935856, 0.04871132, 0.03776662, 0.07838342, 0.0002593961
 227035816, 0.07631869, 0.04722155, 0.07552105, 0.0002593961
 227135776, 0.09714856, 0.05330829, 0.07365267, 0.0002593961
 227235736, 0.107357, 0.05352058, 0.07101323, 0.0002593961
 227335696, 0.1092164, 0.04570872, 0.06557529, 0.0002593961
 227435656, 0.1059115, 0.03038542, 0.05901473, 0.0002593961
 227536449, 0.1002941, 0.01411848, 0.05312254, 0.0002615578
 227636409, 0.09168495, 0.001847303, 0.0458267, 0.0002593961
 227736369, 0.08429006, -0.003870721, 0.03951725, 0.0002593961
 227836329, 0.07838243, -0.004475676, 0.03359663, 0.0002593961
 227936289, 0.07586356, -0.004150512, 0.02841802, 0.0002593961
 228036249, 0.07715299, -0.005400784, 0.02267264, 0.0002593961
 228136209, 0.08054642, -0.009032231, 0.01622775, 0.0002593961
 228236169, 0.08504348, -0.01362131, 0.0102943, 0.0002593961
 228336129, 0.08906396, -0.01829062, 0.004609875, 0.0002593961
 228436089, 0.09240796, -0.01893121, -0.001512142, 0.0002593961
 228536049, 0.09312177, -0.006922147, -0.004206209, 0.0002593961
 228636009, 0.09221467, 0.01658703, -0.008030933, 0.0002593961
 228735969, 0.08913971, 0.03976858, -0.01486227, 0.0002593961
 228835929, 0.08464985, 0.05251572, -0.02206509, 0.0002593961
 228935889, 0.0813898, 0.0516699, -0.02772499, 0.0002593961
 229035849, 0.08219264, 0.03995749, -0.03144076, 0.0002593961
 229135809, 0.08844359, 0.02356977, -0.03325268, 0.0002593961
 229235769, 0.09842981, 0.008339428, -0.03345332, 0.0002593961
 229335729, 0.1072338, -0.003475494, -0.03363262, 0.0002593961
 229435689, 0.1111157, -0.01273238, -0.03448559, 0.0002593961
 229536482, 0.1105408, -0.01941059, -0.03555709, 0.0002615578
 229636442, 0.1045214, -0.02299565, -0.03596569, 0.0002593961
 229736402, 0.09950904, -0.02459363, -0.03636102, 0.0002593961
 229836362, 0.09836373, -0.02383485, -0.03645708, 0.0002593961
 229936322, 0.1005885, -0.02597729, -0.03511588, 0.0002593961
 230036282, 0.1052727, -0.03449187, -0.03450489, 0.0002593961
 230136242, 0.1103185, -0.04377591, -0.03491953, 0.0002593961
 230236202, 0.1125313, -0.04755457, -0.03640521, 0.0002593961
 230336162, 0.1116481, -0.04526144, -0.03787649, 0.0002593961
 230436122, 0.1084561, -0.03740419, -0.03936786, 0.0002593961
 230536082, 0.1056076, -0.02375654, -0.03923988, 0.0002593961
 230636042, 0.1060971, -0.005792673, -0.03763414, 0.0002593961
 230736002, 0.1092779, 0.01417636, -0.03565137, 0.0002593961
 230835962, 0.1137884, 0.03416401, -0.03367603, 0.0002593961
 230935922, 0.1171344, 0.05065973, -0.03257303, 0.0002593961
 231035882, 0.1176452, 0.06217883, -0.0315727, 0.0002593961
 231135842, 0.1148655, 0.06918372, -0.03151298, 0.0002593961
 231235802, 0.1097781, 0.0727009, -0.03169463, 0.0002593961
 231335762, 0.1039849, 0.07162628, -0.03172906, 0.0002593961
 231435722, 0.09900191, 0.06568553, -0.03222705, 0.0002593961
 231535682, 0.09676789, 0.05373546, -0.03240738, 0.0002593961
 231636475, 0.09887152, 0.03696924, -0.03204506, 0.0002615578
 231736435, 0.1007636, 0.01932587, -0.03078495, 0.0002593961
 231836395, 0.1030629, 0.004748778, -0.03062489, 0.0002593961
 231936355, 0.1032716, -0.005300661, -0.03075707, 0.0002593961
 232036315, 0.1007157, -0.01077671, -0.03041421, 0.0002593961
 232136275, 0.09590077, -0.01009224, -0.02951651, 0.0002593961
 232236235, 0.0819622, -0.004142299, -0.007822147, 0.0002593961
 232336195, 0.06175082, 0.00469579, 0.01686798, 0.0002593961
 232436155, 0.04012321, 0.0137186, 0.02494754, 0.0002593961
 232536115, 0.01760742, 0.02137397, 0.03052407, 0.0002593961
 232636075, -0.001390935, 0.02729955, 0.03884625, 0.0002593961
 232736035, -0.01185209, 0.02927401, 0.04549371, 0.0002593961
 232835995, -0.01344486, 0.02770518, 0.04855563, 0.0002593961
 232935955, -0.01009747, 0.02343993, 0.0501015, 0.0002593961
 233035915, -0.004667782, 0.01856739, 0.04830967, 0.0002593961
 233135875, 0.0002359808, 0.01189571, 0.04474238, 0.0002593961
 233235835, 0.002317802, 0.003950771, 0.0419318, 0.0002593961
 233335795, 0.002103979, -0.002629603, 0.03847884, 0.0002593961
 233435755, 0.001319669, -0.005748921, 0.03199334, 0.0002593961
 233535715, 0.0001818817, -0.005946267, 0.02553333, 0.0002593961
 233635675, -0.001453981, -0.004862034, 0.02158568, 0.0002593961
 233736468, -0.002152199, -0.003762734, 0.01822245, 0.0002615578
 233836428, -0.001835031, -0.003721932, 0.01520105, 0.0002593961
 233936388, -0.0008960383, -0.007045152, 0.01251695, 0.0002593961
 234036348, 0.0003460474, -0.01364394, 0.01085865, 0.0002593961
 234136308, 0.001335927, -0.01988852, 0.009511951, 0.0002593961
 234236268, 0.002604958, -0.02277389, 0.005703871, 0.0002593961
 234336228, 0.003156527, -0.02246465, 0.002377948, 0.0002593961
 234436188, 0.002636674, -0.01956802, 0.001421822, 0.0002593961
 234536148, 0.001236723, -0.01457647, 0.00117001, 0.0002593961
 234636108, 0.0002307321, -0.008051436, 0.001044338, 0.0002593961
 234736068, -0.0004967543, 0.0005890293, 0.0008491969, 0.0002593961
 234836028, -0.001395747, 0.01078958, 0.001524959, 0.0002593961
 234935988, -0.002017888, 0.02003868, 0.002082172, 0.0002593961
 235035948, -0.002522857, 0.02618113, 0.002525761, 0.0002593961
 235135908, -0.002628496, 0.02866008, 0.002057277, 0.0002593961
 235235868, -0.002786663, 0.02709876, 0.003338646, 0.0002593961
 235335828, -0.002747352, 0.02228324, 0.003565446, 0.0002593961
 235435788, -0.000324143, 0.01536462, -0.002287542, 0.0002593961
 235535748, 0.001398453, 0.008829268, -0.006459551, 0.0002593961
 235635708, 0.001546622, 0.004063089, -0.007963013, 0.0002593961
 235735668, 0.00116066, -0.000256972, -0.008321454, 0.0002593961
 235836461, 0.0001240394, -0.005607217, -0.007289908, 0.0002615578
 235936421, -0.0006873799, -0.01078989, -0.006106428, 0.0002593961
 236036381, -0.0009812767, -0.01463036, -0.006149506, 0.0002593961
 236136341, -0.00134639, -0.01665219, -0.005643635, 0.0002593961
 236236301, -0.001179151, -0.01730844, -0.006078698, 0.0002593961
 236336261, -0.001382498, -0.01541013, -0.005741136, 0.0002593961
 236436221, -0.002212009, -0.01074395, -0.00421315, 0.0002593961
 236536181, -0.003166659, -0.005926968, -0.002136451, 0.0002593961
 236636141, -0.003623573, -0.003288974, -0.001194935, 0.0002593961
 236736101, -0.003906119, -0.002497086, 0.0002042597, 0.0002593961
 236836061, -0.003580173, -0.002597491, 5.895165E-05, 0.0002593961
 236936021, -0.003539882, -0.002142313, -6.610491E-05, 0.0002593961
 237035981, -0.00380338, -6.840957E-05, 0.001368875, 0.0002593961
 237135941, -0.003947956, 0.0017711, 0.002010018, 0.0002593961
 237235901, -0.003523977, 0.002898771, 0.0007771542, 0.0002593961
 237335861, -0.003224246, 0.003254877, 0.0007156298, 0.0002593961
 237435821, -0.003673662, 0.003576462, 0.001684124, 0.0002593961
 237535781, -0.004072818, 0.004677205, 0.002793581, 0.0002593961
 237635741, -0.01053883, 0.006501537, 0.02290191, 0.0002593961
 237735701, -0.01007731, 0.008345027, 0.02221289, 0.0002593961
 237835661, -0.005704708, 0.008988435, 0.01357246, 0.0002593961
 237936454, -0.001583645, 0.00573283, 0.00725213, 0.0002615578
 238036414, 0.001730536, -0.001334785, 0.002388855, 0.0002593961
 238136374, 0.003345388, -0.007426708, -0.001381507, 0.0002593961
 238236334, 0.003481236, -0.008924691, -0.004499081, 0.0002593961
 238336294, 0.002479922, -0.006014176, -0.006694918, 0.0002593961
 238436254, 0.0009390897, -0.0009305452, -0.00820234, 0.0002593961
 238536214, -0.0004693031, 0.003701448, -0.008705067, 0.0002593961
 238636174, -0.00121948, 0.006518439, -0.009070801, 0.0002593961
 238736134, -0.001342094, 0.006810314, -0.008853302, 0.0002593961
 238836094, -0.001554821, 0.006166304, -0.008603639, 0.0002593961
 238936054, -0.001802492, 0.005196264, -0.007767487, 0.0002593961
 239036014, -0.002328047, 0.003666668, -0.006342424, 0.0002593961
 239135974, -0.00327545, 0.002885073, -0.004712208, 0.0002593961
 239235934, -0.00426009, 0.002990477, -0.001680329, 0.0002593961
 239335894, -0.005342743, 0.003819149, 0.001550575, 0.0002593961
 239435854, -0.005003438, 0.004614094, 0.001341007, 0.0002593961
 239535814, -0.004496512, 0.004948478, 0.0008704434, 0.0002593961
 239635774, -0.002286534, 0.005044705, -0.004347496, 0.0002593961
 239735734, -0.001064843, 0.004709906, -0.008209179, 0.0002593961
 239835694, -0.00143239, 0.003634873, -0.007529122, 0.0002593961
 239935654, -0.002747301, 0.00146063, -0.005962115, 0.0002593961
 240036447, -0.005305673, -0.001222006, -0.0008076347, 0.0002615578
 240136407, -0.007033017, -0.002892512, 0.003875937, 0.0002593961
 240236367, -0.008698404, -0.002200872, 0.00958262, 0.0002593961
 240336327, -0.009476389, 0.0004349062, 0.01428643, 0.0002593961
 240436287, -0.008678037, 0.003152344, 0.01664979, 0.0002593961
 240536247, -0.007240532, 0.004920811, 0.01689852, 0.0002593961
 240636207, -0.005092127, 0.00545093, 0.01442165, 0.0002593961
 240736167, -0.003221512, 0.003351317, 0.01122344, 0.0002593961
 240836127, -0.002122691, -0.001642125, 0.009116739, 0.0002593961
 240936087, -0.001683738, -0.006602935, 0.007007164, 0.0002593961
 241036047, -0.000649143, -0.01037982, 0.002389694, 0.0002593961
 241136007, -0.0002410532, -0.01204858, -0.001444209, 0.0002593961
 241235967, -0.006078412, -0.01137667, 0.01323128, 0.0002593961
 241335927, -0.02404409, -0.007977856, 0.05391806, 0.0002593961
 241435887, -0.0414108, -0.003339904, 0.06887796, 0.0002593961
 241535847, -0.06090568, 0.001928271, 0.07650642, 0.0002593961
 241635807, -0.07748988, 0.006081651, 0.08076892, 0.0002593961
 241735767, -0.08838014, 0.009860933, 0.08209952, 0.0002593961
 241835727, -0.09317663, 0.01257604, 0.08068963, 0.0002593961
 241935687, -0.09432009, 0.0134345, 0.07710803, 0.0002593961
 242036480, -0.09470946, 0.01247676, 0.07200388, 0.0002615578
 242136440, -0.09327973, 0.01059643, 0.06578232, 0.0002593961
 242236400, -0.09616861, 0.008059476, 0.07931142, 0.0002593961
 242336360, -0.08716344, 0.004711876, 0.08620687, 0.0002593961
 242436320, -0.06432781, 6.315036E-05, 0.08722436, 0.0002593961
 242536280, -0.03813291, -0.005250697, 0.0854954, 0.0002593961
 242636240, -0.01658644, -0.01012241, 0.08048189, 0.0002593961
 242736200, -0.002878651, -0.01233881, 0.07413426, 0.0002593961
 242836160, 0.004017459, -0.0102711, 0.06771874, 0.0002593961
 242936120, 0.006902291, -0.006063029, 0.06124721, 0.0002593961
 243036080, 0.009185358, -0.001782532, 0.05573347, 0.0002593961
 243136040, 0.01249296, 0.001386598, 0.05072576, 0.0002593961
 243236000, 0.01729382, 0.003199004, 0.04599097, 0.0002593961
 243335960, 0.02162388, 0.003796694, 0.04160836, 0.0002593961
 243435920, 0.02516757, 0.003755069, 0.03780128, 0.0002593961
 243535880, 0.02912447, 0.0009590785, 0.03443202, 0.0002593961
 243635840, 0.03498049, -0.00440278, 0.03220979, 0.0002593961
 243735800, 0.04086162, -0.008860031, 0.02968217, 0.0002593961
 243835760, 0.0458958, -0.01010311, 0.02765762, 0.0002593961
 243935720, 0.0487807, -0.008754951, 0.0260905, 0.0002593961
 244035680, 0.050107, -0.005837302, 0.02364802, 0.0002593961
 244136473, 0.05874561, -0.001975476, 0.004244577, 0.0002615578
 244236433, 0.05901764, 0.003086817, -0.01079473, 0.0002593961
 244336393, 0.04741564, 0.007082356, -0.01902038, 0.0002593961
 244436353, 0.02988189, 0.008643714, -0.0229329, 0.0002593961
 244536313, 0.01338115, 0.009139189, -0.02365506, 0.0002593961
 244636273, 0.002600783, 0.01051432, -0.02199534, 0.0002593961
 244736233, -0.001641618, 0.01168797, -0.0195531, 0.0002593961
 244836193, -0.0008812917, 0.01222325, -0.01663671, 0.0002593961
 244936153, 0.001832595, 0.01131853, -0.0138672, 0.0002593961
 245036113, 0.004083352, 0.008946057, -0.01073276, 0.0002593961
 245136073, 0.004941568, 0.005835943, -0.008068924, 0.0002593961
 245236033, 0.005012534, 0.00264029, -0.006539329, 0.0002593961
 245335993, 0.003737757, -0.001201519, -0.005197241, 0.0002593961
 245435953, 0.001934933, -0.005216627, -0.004232756, 0.0002593961
 245535913, 0.0002602793, -0.01018617, -0.003279418, 0.0002593961
 245635873, -0.0009897446, -0.0156039, -0.002345463, 0.0002593961
 245735833, -0.001586003, -0.01848655, -0.002049763, 0.0002593961
 245835793, -0.001928901, -0.01747904, -0.001685268, 0.0002593961
 245935753, -0.002061509, -0.01348358, -0.001167236, 0.0002593961
 246035713, -0.001707342, -0.008507502, -0.0007532765, 0.0002593961
 246135673, -0.001390014, -0.003593681, -0.0008391836, 0.0002593961
 246236466, -0.0009596286, 0.0006199539, -0.0008718054, 0.0002615578
 246336426, -0.000435883, 0.002342937, -0.001200302, 0.0002593961
 246436386, 0.0002297078, 0.0010242, -0.003162384, 0.0002593961
 246536346, 3.176671E-05, -0.001622398, -0.004637612, 0.0002593961
 246636306, -0.001277213, -0.004036843, -0.005262881, 0.0002593961
 246736266, -0.001642146, -0.002985451, -0.004454942, 0.0002593961
 246836226, -0.00227311, 0.001609667, -0.002647993, 0.0002593961
 246936186, -0.002677983, 0.007909267, -0.0009891008, 0.0002593961
 247036146, -0.002784965, 0.01248432, 0.0006571572, 0.0002593961
 247136106, -0.002265908, 0.01246623, 0.001970621, 0.0002593961
 247236066, -0.0005615106, 0.007196625, 0.002361516, 0.0002593961
 247336026, -0.001531345, -1.25829E-06, 0.002414078, 0.0002593961
 247435986, -0.001590671, -0.006270953, 0.001472086, 0.0002593961
 247535946, -0.001840334, -0.01134146, 0.0009296417, 0.0002593961
 247635906, -0.004738477, -0.01469942, 0.002685165, 0.0002593961
 247735866, -0.004792666, -0.01376273, 0.004218907, 0.0002593961
 247835826, -0.003951441, -0.008157188, 0.00414685, 0.0002593961
 247935786, -0.003012352, 0.0003017918, 0.003757999, 0.0002593961
 248035746, -0.001997996, 0.009299774, 0.002470873, 0.0002593961
 248135706, -0.001093955, 0.01553368, 0.001495651, 0.0002593961
 248235666, -0.002393235, 0.01807499, 0.002649477, 0.0002593961
 248336459, -0.00342751, 0.01949796, 0.003619101, 0.0002615578
 248436419, -0.004223017, 0.02100824, 0.005269047, 0.0002593961
 248536379, -0.004179314, 0.02035431, 0.005791218, 0.0002593961
 248636339, -0.002967407, 0.01610353, 0.002722764, 0.0002593961
 248736299, -0.002099352, 0.01169997, -0.0002374068, 0.0002593961
 248836259, -0.001048436, 0.009927888, -0.003797911, 0.0002593961
 248936219, -0.0008882091, 0.01008696, -0.006237085, 0.0002593961
 249036179, -0.002672982, 0.01038584, -0.006861794, 0.0002593961
 249136139, -0.00279052, 0.01060563, -0.00685588, 0.0002593961
 249236099, -0.003359575, 0.01057962, -0.005844535, 0.0002593961
 249336059, -0.004261296, 0.009275986, -0.004563976, 0.0002593961
 249436019, -0.005091688, 0.006831334, -0.0008183398, 0.0002593961
 249535979, -0.003856499, 0.006121868, 0.002103124, 0.0002593961
 249635939, -0.004729036, 0.007959205, 0.003130836, 0.0002593961
 249735899, -0.005215201, 0.01117481, 0.003284194, 0.0002593961
 249835859, -0.004902456, 0.01446157, 0.005028578, 0.0002593961
 249935819, -0.004936115, 0.01808062, 0.006300528, 0.0002593961
 250035779, -0.004535756, 0.02179666, 0.005984532, 0.0002593961
 250135739, -0.004158357, 0.02354039, 0.005095143, 0.0002593961
 250235699, -0.003371163, 0.02146384, 0.003347416, 0.0002593961
 250335659, -0.003097285, 0.01785159, 0.001387191, 0.0002593961
 250436452, -0.002669281, 0.01471603, -0.0007464712, 0.0002615578
 250536412, -0.00273414, 0.01293053, -0.002341364, 0.0002593961
 250636372, -0.003028189, 0.01212961, -0.00289873, 0.0002593961
 250736332, -0.003125676, 0.009056366, -0.003309896, 0.0002593961
 250836292, -0.003367349, 0.002120335, -0.004074492, 0.0002593961
 250936252, -0.003511667, -0.007313533, -0.004672446, 0.0002593961
 251036212, -0.00477838, -0.01657294, -0.002834944, 0.0002593961
 251136172, -0.005306132, -0.02133796, -0.001591265, 0.0002593961
 251236132, -0.004867229, -0.02010966, -0.003216358, 0.0002593961
 251336092, -0.00421662, -0.01412043, -0.00471001, 0.0002593961
 251436052, -0.003623975, -0.006438568, -0.005653698, 0.0002593961
 251536012, -0.003457572, -0.001393392, -0.00574459, 0.0002593961
 251635972, -0.004531853, -0.0015096, -0.003641684, 0.0002593961
 251735932, -0.005630638, -0.003728554, -0.001581331, 0.0002593961
 251835892, -0.004160176, -0.00540931, -0.002215089, 0.0002593961
 251935852, -0.004563149, -0.005137085, -0.00162169, 0.0002593961
 252035812, -0.005637756, -0.002993081, 0.0009422632, 0.0002593961
 252135772, -0.005057551, -0.0006654504, 0.002711468, 0.0002593961
 252235732, -0.004378422, -0.0002444141, 0.004058135, 0.0002593961
 252335692, -0.004049419, -0.00341786, 0.004329493, 0.0002593961
 252436485, -0.003427481, -0.008865362, 0.003735632, 0.0002615578
 252536445, -0.003157268, -0.01351769, 0.002775298, 0.0002593961
 252636405, -0.003247791, -0.01484021, 0.002624311, 0.0002593961
 252736365, -0.0034072, -0.01230943, 0.002360329, 0.0002593961
 252836325, -0.004309348, -0.00684301, 0.004078571, 0.0002593961
 252936285, -0.004892683, -0.001195074, 0.005198247, 0.0002593961
 253036245, -0.005225983, 0.00279941, 0.006323094, 0.0002593961
 253136205, -0.00520696, 0.002243863, 0.006303027, 0.0002593961
 253236165, -0.002982288, -0.002457203, 0.004768514, 0.0002593961
 253336125, -0.004509095, -0.009234598, 0.002417224, 0.0002593961
 253436085, -0.005104915, -0.01490518, 0.0001773924, 0.0002593961
 253536045, -7.039317E-05, -0.01577209, -0.001434974, 0.0002593961
 253636005, -0.001568594, -0.01008917, -0.00252786, 0.0002593961
 253735965, -0.003188564, -0.001453856, -0.003283779, 0.0002593961
 253835925, -0.003884048, 0.006170437, -0.004395993, 0.0002593961
 253935885, -0.004154076, 0.0123473, -0.00445893, 0.0002593961
 254035845, -0.005653918, 0.0168718, -0.004287337, 0.0002593961
 254135805, -0.00810717, 0.01931055, -0.00389896, 0.0002593961
 254235765, -0.002780194, 0.02021496, -0.004555631, 0.0002593961
 254335725, 0.002673838, 0.01880306, -0.004934239, 0.0002593961
 254435685, 0.001363805, 0.01676357, -0.006580243, 0.0002593961
 254536478, -0.0002695328, 0.01414234, -0.007561249, 0.0002615578
 254636438, -0.002964196, 0.01110934, -0.007482955, 0.0002593961
 254736398, -0.004472623, 0.008456898, -0.006178809, 0.0002593961
 254836358, -0.004035817, 0.006571735, -0.004370651, 0.0002593961
 254936318, -0.003040931, 0.005766309, -0.003509104, 0.0002593961
 255036278, -0.001561925, 0.006031505, -0.003394911, 0.0002593961
 255136238, -0.0001417812, 0.008401262, -0.002575715, 0.0002593961
 255236198, -0.002368854, 0.01269344, 0.001522802, 0.0002593961
 255336158, -0.004098743, 0.01527054, 0.005190862, 0.0002593961
 255436118, -0.004515892, 0.01423763, 0.006581987, 0.0002593961
 255536078, -0.004310585, 0.009556899, 0.006941786, 0.0002593961
 255636038, -0.006133528, 0.003313249, 0.003993183, 0.0002593961
 255735998, 0.001778283, -0.001777582, 0.001090044, 0.0002593961
 255835958, 0.0004443065, -0.003489216, 3.01872E-05, 0.0002593961
 255935918, -0.0009122137, -0.001464889, -0.0005631279, 0.0002593961
 256035878, -0.002210594, 0.002358064, -0.001041198, 0.0002593961
 256135838, -0.003083351, 0.006300065, -0.001626973, 0.0002593961
 256235798, -0.002961382, 0.009184495, -0.002672598, 0.0002593961
 256335758, -0.002951433, 0.00822934, -0.003174189, 0.0002593961
 256435718, -0.003163593, 0.002674497, -0.003402317, 0.0002593961
 256535678, -0.003002327, -0.003271791, -0.003187793, 0.0002593961
 256636471, -0.003532071, -0.00577288, -0.001655926, 0.0002615578
 256736431, -0.003629162, -0.003020689, -0.001068901, 0.0002593961
 256836391, -0.00373707, 0.004492647, 0.0003364599, 0.0002593961
 256936351, -0.00376766, 0.01242633, 0.001441361, 0.0002593961
 257036311, -0.003043598, 0.01794285, -4.838316E-05, 0.0002593961
 257136271, -0.002617752, 0.02049768, -0.0007209623, 0.0002593961
 257236231, -0.002634, 0.0204508, -0.002927067, 0.0002593961
 257336191, -0.004103788, 0.01766276, -0.003963689, 0.0002593961
 257436151, -0.0004006787, 0.01319672, -0.004638324, 0.0002593961
 257536111, -0.00101641, 0.01088504, -0.004574657, 0.0002593961
 257636071, -0.002234237, 0.01226767, -0.003203023, 0.0002593961
 257736031, -0.003383702, 0.01232158, -0.0008635106, 0.0002593961
 257835991, -0.004858361, 0.008187049, 0.002058251, 0.0002593961
 257935951, -0.005586071, 0.001763609, 0.004403323, 0.0002593961
 258035911, -0.007358399, -0.004074199, 0.006985493, 0.0002593961
 258135871, -0.009676955, -0.008226866, 0.008920562, 0.0002593961
 258235831, -0.007148844, -0.009585859, 0.009689866, 0.0002593961
 258335791, -0.005391332, -0.008071664, 0.009648215, 0.0002593961
 258435751, -0.003837537, -0.004315223, 0.00819977, 0.0002593961
 258535711, -0.002944577, 0.0004287035, 0.006307201, 0.0002593961
 258635671, -0.002329696, 0.004857697, 0.002929747, 0.0002593961
 258736464, -0.002308124, 0.007796703, 0.0005597347, 0.0002615578
 258836424, -0.00360003, 0.009088608, 0.0002866218, 0.0002593961
 258936384, -0.004570141, 0.00853513, 0.0003113704, 0.0002593961
 259036344, -0.005897311, 0.006711263, 0.002589775, 0.0002593961
 259136304, -0.006551563, 0.005233835, 0.004256138, 0.0002593961
 259236264, -0.005002855, 0.004247988, 0.001757439, 0.0002593961
 259336224, -0.003498685, 0.003366584, -0.0007950509, 0.0002593961
 259436184, -0.002911033, 0.001483456, -0.001534849, 0.0002593961
 259536144, -0.002895155, -0.001587244, -0.002135414, 0.0002593961
 259636104, -0.004116313, -0.006335728, -0.001255667, 0.0002593961
 259736064, -0.00479395, -0.01021779, -0.001119011, 0.0002593961
 259836024, -0.003935922, -0.01183938, -0.0003805092, 0.0002593961
 259935984, -0.003745307, -0.01007384, -0.0008126596, 0.0002593961
 260035944, -0.003496502, -0.005278625, -0.0009644905, 0.0002593961
 260135904, -0.005641914, 0.0009356141, -0.0009331414, 0.0002593961
 260235864, -0.004622322, 0.005976128, -0.001355467, 0.0002593961
 260335824, -0.003954536, 0.008399368, -0.002152338, 0.0002593961
 260435784, -0.004806976, 0.008455689, 3.289458E-05, 0.0002593961
 260535744, -0.005103623, 0.008248908, 0.001977446, 0.0002593961
 260635704, -0.0008117809, 0.009453246, -0.01073813, 0.0002593961
 260735664, 0.001140957, 0.01171653, -0.03075869, 0.0002593961
 260836457, -0.01587095, 0.01483718, -0.04012459, 0.0002615578
 260936417, -0.04182743, 0.01543339, -0.04430503, 0.0002593961
 261036377, -0.06590819, 0.01295051, -0.04552893, 0.0002593961
 261136337, -0.08200117, 0.008173598, -0.0436141, 0.0002593961
 261236297, -0.08962961, 0.002001769, -0.04052322, 0.0002593961
 261336257, -0.09151736, -0.001530353, -0.03711395, 0.0002593961
 261436217, -0.08308609, -0.001487319, -0.07251508, 0.0002593961
 261536177, -0.06811806, -0.001531807, -0.1056196, 0.0002593961
 261636137, -0.04789748, -0.004329962, -0.1183346, 0.0002593961
