TimeUS,COFN,COFE,COFD,CNe,CEe,CDe,POFN,POFE,POFD,PNe,PEe,PDe
 170563414, -0.001393224, -0.005240649, -0.003002106, 0.02631738, -0.02654433, 6.259834E-05, 0, 0, 0, 0, 0, 0
 170635885, -0.01908528, 0.01705987, -6.519813E-06, 0.02523201, -0.02673779, 0.4000029, -0.001393224, -0.005240649, -0.003002106, 0.02631738, -0.02654433, 6.259834E-05
 170735845, -0.008758702, 0.01632675, 1.096263E-05, 0.02542903, -0.02675033, 0.4000036, -0.01908528, 0.01705987, -6.519813E-06, 0.02523201, -0.02673779, 0.4000029
 170835805, -0.01714588, 0.02003845, 1.530967E-06, 0.02526114, -0.02668024, 0.4000037, -0.008758702, 0.01632675, 1.096263E-05, 0.02542903, -0.02675033, 0.4000036
 170935765, -0.01152526, -0.002566232, -2.546917E-05, 0.02536883, -0.02714283, 0.4000032, -0.01714588, 0.02003845, 1.530967E-06, 0.02526114, -0.02668024, 0.4000037
 171035725, 0.02468484, -0.01950994, 1.329683E-05, 0.02622211, -0.02755763, 0.4000041, -0.01152526, -0.002566232, -2.546917E-05, 0.02536883, -0.02714283, 0.4000032
 171135685, 0.00335505, -0.003230861, 8.554562E-07, 0.02568609, -0.0271582, 0.4000038, 0.02468484, -0.01950994, 1.329683E-05, 0.02622211, -0.02755763, 0.4000041
 171236478, -0.004329273, -0.02052639, -4.194854E-05, 0.02551449, -0.02758529, 0.4000027, 0.00335505, -0.003230861, 8.554562E-07, 0.02568609, -0.0271582, 0.4000038
 171336438, 0.01261543, 0.02307966, 6.152524E-05, 0.02590513, -0.02662727, 0.4000051, -0.004329273, -0.02052639, -4.194854E-05, 0.02551449, -0.02758529, 0.4000027
 171436398, -0.006309947, 0.01641848, 1.550149E-05, 0.02547145, -0.0267492, 0.4000041, 0.01261543, 0.02307966, 6.152524E-05, 0.02590513, -0.02662727, 0.4000051
 171536358, 0.01036559, 0.006274784, 2.964058E-05, 0.02584784, -0.02695209, 0.4000045, -0.006309947, 0.01641848, 1.550149E-05, 0.02547145, -0.0267492, 0.4000041
 171636318, 0.006943675, 0.02190677, 4.926819E-05, 0.02576423, -0.02664984, 0.4000049, 0.01036559, 0.006274784, 2.964058E-05, 0.02584784, -0.02695209, 0.4000045
 171736278, -0.01208286, -0.005347245, -3.142181E-05, 0.02534845, -0.02720924, 0.4000035, 0.006943675, 0.02190677, 4.926819E-05, 0.02576423, -0.02664984, 0.4000049
 171836238, -0.007344974, 0.002364223, -9.841679E-06, 0.02544212, -0.0270344, 0.4000041, -0.01208286, -0.005347245, -3.142181E-05, 0.02534845, -0.02720924, 0.4000035
 171936198, -0.009510558, 0.006913643, -6.399702E-06, 0.02539643, -0.02693729, 0.4000043, -0.007344974, 0.002364223, -9.841679E-06, 0.02544212, -0.0270344, 0.4000041
 172036158, -0.01467977, -0.0116527, -4.685586E-05, 0.02529334, -0.0273588, 0.4000035, -0.009510558, 0.006913643, -6.399702E-06, 0.02539643, -0.02693729, 0.4000043
 172136118, 0.009937458, -0.003183836, 1.342029E-05, 0.02582792, -0.02715813, 0.4000048, -0.01467977, -0.0116527, -4.685586E-05, 0.02529334, -0.0273588, 0.4000035
 172236078, 0.02271223, -0.00365201, 3.673866E-05, 0.02615342, -0.02716906, 0.4000055, 0.009937458, -0.003183836, 1.342029E-05, 0.02582792, -0.02715813, 0.4000048
 172336038, 0.01729855, 0.01124145, 5.126615E-05, 0.02601086, -0.02685103, 0.4000057, 0.02271223, -0.00365201, 3.673866E-05, 0.02615342, -0.02716906, 0.4000055
 172435998, 0.008385025, 0.01875405, 4.70376E-05, 0.02578945, -0.02670866, 0.4000054, 0.01729855, 0.01124145, 5.126615E-05, 0.02601086, -0.02685103, 0.4000057
 172535958, 0.008709343, -0.006054788, 6.284135E-06, 0.02579939, -0.02722785, 0.4000044, 0.008385025, 0.01875405, 4.70376E-05, 0.02578945, -0.02670866, 0.4000054
 172635918, 0.005058144, -0.02364368, -2.981322E-05, 0.02571545, -0.02767104, 0.4000034, 0.008709343, -0.006054788, 6.284135E-06, 0.02579939, -0.02722785, 0.4000044
 172735878, -0.01929644, -0.01089408, -5.402962E-05, 0.02521183, -0.02734045, 0.400003, 0.005058144, -0.02364368, -2.981322E-05, 0.02571545, -0.02767104, 0.4000034
 172835838, 0.02492991, -0.005553382, 3.717856E-05, 0.02622331, -0.02721069, 0.4000051, -0.01929644, -0.01089408, -5.402962E-05, 0.02521183, -0.02734045, 0.400003
 172935798, 0.01839069, -0.0230048, -4.019996E-06, 0.02605267, -0.02765077, 0.4000037, 0.02492991, -0.005553382, 3.717856E-05, 0.02622331, -0.02721069, 0.4000051
 173035758, -0.02356355, -0.01658069, -7.083396E-05, 0.02514509, -0.02748355, 0.400002, 0.01839069, -0.0230048, -4.019996E-06, 0.02605267, -0.02765077, 0.4000037
 173135718, 0.01981006, 0.003620027, 4.247081E-05, 0.02609271, -0.02700685, 0.4000046, -0.02356355, -0.01658069, -7.083396E-05, 0.02514509, -0.02748355, 0.400002
 173235678, -0.0145736, -0.0128567, -4.810588E-05, 0.02530923, -0.02738822, 0.4000026, 0.01981006, 0.003620027, 4.247081E-05, 0.02609271, -0.02700685, 0.4000046
 173336471, 0.01569874, 0.004119079, 3.572882E-05, 0.02598588, -0.02699503, 0.4000045, -0.0145736, -0.0128567, -4.810588E-05, 0.02530923, -0.02738822, 0.4000026
 173436431, 0.006837105, -0.01304869, -8.912401E-06, 0.02576912, -0.02739094, 0.4000035, 0.01569874, 0.004119079, 3.572882E-05, 0.02598588, -0.02699503, 0.4000045
 173536391, -0.004515438, -0.02514407, -4.991094E-05, 0.02551374, -0.02770979, 0.4000023, 0.006837105, -0.01304869, -8.912401E-06, 0.02576912, -0.02739094, 0.4000035
 173636351, 0.008861668, -0.01580305, -9.934312E-06, 0.02581716, -0.02746577, 0.4000031, -0.004515438, -0.02514407, -4.991094E-05, 0.02551374, -0.02770979, 0.4000023
 173736311, 0.004681356, -0.02168669, -2.743037E-05, 0.02571869, -0.02761956, 0.4000026, 0.008861668, -0.01580305, -9.934312E-06, 0.02581716, -0.02746577, 0.4000031
 173836271, -0.02345919, -0.0123369, -6.370072E-05, 0.02514659, -0.0273802, 0.4000019, 0.004681356, -0.02168669, -2.743037E-05, 0.02571869, -0.02761956, 0.4000026
 173936231, -0.007317555, -0.008859671, -2.815869E-05, 0.02545652, -0.02729424, 0.4000027, -0.02345919, -0.0123369, -6.370072E-05, 0.02514659, -0.0273802, 0.4000019
 174036191, 0.009609648, 0.01773475, 4.704153E-05, 0.02583811, -0.02672613, 0.4000043, -0.007317555, -0.008859671, -2.815869E-05, 0.02545652, -0.02729424, 0.4000027
 174136151, 0.005834629, -0.01632347, -1.634486E-05, 0.02574921, -0.02747715, 0.4000029, 0.009609648, 0.01773475, 4.704153E-05, 0.02583811, -0.02672613, 0.4000043
 174236111, -0.0246293, 0.0212029, -9.999927E-06, 0.02513085, -0.02666011, 0.4000031, 0.005834629, -0.01632347, -1.634486E-05, 0.02574921, -0.02747715, 0.4000029
 174336071, 0.01952805, 0.02439625, 7.602228E-05, 0.0260893, -0.0266037, 0.400005, -0.0246293, 0.0212029, -9.999927E-06, 0.02513085, -0.02666011, 0.4000031
 174436031, -0.0127164, -0.01051653, -4.063542E-05, 0.02534981, -0.02733029, 0.4000025, 0.01952805, 0.02439625, 7.602228E-05, 0.0260893, -0.0266037, 0.400005
 174535991, -0.003086757, 0.02512184, 3.575549E-05, 0.02554791, -0.0265897, 0.4000042, -0.0127164, -0.01051653, -4.063542E-05, 0.02534981, -0.02733029, 0.4000025
 174635951, -0.01068489, -0.01389894, -4.244731E-05, 0.02538968, -0.02741208, 0.4000026, -0.003086757, 0.02512184, 3.575549E-05, 0.02554791, -0.0265897, 0.4000042
 174735911, 0.004640201, -0.003646369, 2.507071E-06, 0.02572087, -0.02716481, 0.4000037, -0.01068489, -0.01389894, -4.244731E-05, 0.02538968, -0.02741208, 0.4000026
 174835871, 0.003863642, 0.01506267, 3.179754E-05, 0.02570269, -0.02676946, 0.4000044, 0.004640201, -0.003646369, 2.507071E-06, 0.02572087, -0.02716481, 0.4000037
 174935831, -0.006862063, -0.01280635, -3.355524E-05, 0.02546805, -0.02738201, 0.400003, 0.003863642, 0.01506267, 3.179754E-05, 0.02570269, -0.02676946, 0.4000044
 175035791, 0.01401344, -0.01676249, -1.815148E-06, 0.02594814, -0.02748122, 0.4000037, -0.006862063, -0.01280635, -3.355524E-05, 0.02546805, -0.02738201, 0.400003
 175135751, -0.01642654, -0.02118585, -6.471706E-05, 0.02527856, -0.02759639, 0.4000023, 0.01401344, -0.01676249, -1.815148E-06, 0.02594814, -0.02748122, 0.4000037
 175235711, -0.02368922, -0.003677964, -4.93764E-05, 0.02514633, -0.02716237, 0.4000028, -0.01642654, -0.02118585, -6.471706E-05, 0.02527856, -0.02759639, 0.4000023
 175335671, 0.02506424, -0.004389474, 3.875057E-05, 0.02623671, -0.02717835, 0.4000048, -0.02368922, -0.003677964, -4.93764E-05, 0.02514633, -0.02716237, 0.4000028
 175436464, 0.01795609, 0.01809699, 6.249789E-05, 0.02604667, -0.02670941, 0.4000053, 0.02506424, -0.004389474, 3.875057E-05, 0.02623671, -0.02717835, 0.4000048
 175536424, -0.001209109, 0.02461973, 3.798042E-05, 0.02558771, -0.02659205, 0.4000047, 0.01795609, 0.01809699, 6.249789E-05, 0.02604667, -0.02670941, 0.4000053
 175636384, -0.0148474, -0.01892387, -5.812916E-05, 0.02530634, -0.02753475, 0.4000027, -0.001209109, 0.02461973, 3.798042E-05, 0.02558771, -0.02659205, 0.4000047
 175736344, 0.02489269, 0.02360654, 8.408604E-05, 0.02623092, -0.02660756, 0.400006, -0.0148474, -0.01892387, -5.812916E-05, 0.02530634, -0.02753475, 0.4000027
 175836304, 0.02528062, -0.005056301, 3.816588E-05, 0.026242, -0.02718933, 0.4000052, 0.02489269, 0.02360654, 8.408604E-05, 0.02623092, -0.02660756, 0.400006
 175936264, 0.01836224, 0.01524298, 5.843372E-05, 0.02605754, -0.02675916, 0.4000055, 0.02528062, -0.005056301, 3.816588E-05, 0.026242, -0.02718933, 0.4000052
 176036224, 0.005147048, -0.01040084, -7.465081E-06, 0.02573288, -0.02731658, 0.400004, 0.01836224, 0.01524298, 5.843372E-05, 0.02605754, -0.02675916, 0.4000055
 176136184, 0.002926277, -0.01400199, -1.741753E-05, 0.02567875, -0.02740711, 0.4000038, 0.005147048, -0.01040084, -7.465081E-06, 0.02573288, -0.02731658, 0.400004
 176236144, -0.01979544, -0.00336091, -4.205775E-05, 0.02520946, -0.02715343, 0.4000034, 0.002926277, -0.01400199, -1.741753E-05, 0.02567875, -0.02740711, 0.4000038
 176336104, -0.0117596, -0.01291935, -4.286071E-05, 0.02536108, -0.02738188, 0.4000034, -0.01979544, -0.00336091, -4.205775E-05, 0.02520946, -0.02715343, 0.4000034
 176436064, -0.01429, 0.01718424, 1.582441E-06, 0.02531018, -0.02672585, 0.4000044, -0.0117596, -0.01291935, -4.286071E-05, 0.02536108, -0.02738188, 0.4000034
 176536024, 0.0004235386, 0.01574152, 2.656163E-05, 0.02561619, -0.02675438, 0.4000049, -0.01429, 0.01718424, 1.582441E-06, 0.02531018, -0.02672585, 0.4000044
 176635984, -0.01102619, -0.006611708, -3.131755E-05, 0.02537361, -0.02723188, 0.4000036, 0.0004235386, 0.01574152, 2.656163E-05, 0.02561619, -0.02675438, 0.4000049
 176735944, 0.003596088, 0.006736206, 1.771372E-05, 0.02568788, -0.02693441, 0.4000047, -0.01102619, -0.006611708, -3.131755E-05, 0.02537361, -0.02723188, 0.4000036
 176835904, -2.879162E-05, 0.01994378, 3.259401E-05, 0.02560592, -0.02667577, 0.4000051, 0.003596088, 0.006736206, 1.771372E-05, 0.02568788, -0.02693441, 0.4000047
 176935864, 0.01907466, -0.0213736, 3.60109E-07, 0.02606783, -0.02760167, 0.4000043, -2.879162E-05, 0.01994378, 3.259401E-05, 0.02560592, -0.02667577, 0.4000051
 177035824, -0.004315215, -0.01320746, -2.971723E-05, 0.02551241, -0.02739264, 0.4000036, 0.01907466, -0.0213736, 3.60109E-07, 0.02606783, -0.02760167, 0.4000043
 177135784, -0.02405782, 0.01765206, -1.6042E-05, 0.02512667, -0.02671703, 0.4000044, -0.004315215, -0.01320746, -2.971723E-05, 0.02551241, -0.02739264, 0.4000036
 177235744, -0.01651018, -0.0004363446, -3.168902E-05, 0.02525956, -0.02708466, 0.4000045, -0.02405782, 0.01765206, -1.6042E-05, 0.02512667, -0.02671703, 0.4000044
 177335704, -0.02342717, -0.01573192, -6.973518E-05, 0.0251314, -0.02745072, 0.4000038, -0.01651018, -0.0004363446, -3.168902E-05, 0.02525956, -0.02708466, 0.4000045
 177435664, -0.003998321, 0.003618907, -1.645797E-06, 0.02550711, -0.02699696, 0.4000053, -0.02342717, -0.01573192, -6.973518E-05, 0.0251314, -0.02745072, 0.4000038
 177536457, 0.003786071, 0.01251104, 2.756815E-05, 0.0256809, -0.02681425, 0.4000059, -0.003998321, 0.003618907, -1.645797E-06, 0.02550711, -0.02699696, 0.4000053
 177636417, 0.01880798, -0.01755082, 6.798869E-06, 0.02604969, -0.0274984, 0.4000055, 0.003786071, 0.01251104, 2.756815E-05, 0.0256809, -0.02681425, 0.4000059
 177736377, 0.01382435, -0.002934902, 2.120601E-05, 0.02592459, -0.02714173, 0.4000057, 0.01880798, -0.01755082, 6.798869E-06, 0.02604969, -0.0274984, 0.4000055
 177836337, -0.01024269, -0.01788736, -4.831704E-05, 0.02538268, -0.02750494, 0.400004, 0.01382435, -0.002934902, 2.120601E-05, 0.02592459, -0.02714173, 0.4000057
 177936297, 0.00498199, -0.005308343, 6.882492E-07, 0.02571625, -0.02719336, 0.4000051, -0.01024269, -0.01788736, -4.831704E-05, 0.02538268, -0.02750494, 0.400004
 178036257, -0.007553109, 0.02523877, 2.677047E-05, 0.02544396, -0.02657382, 0.4000055, 0.00498199, -0.005308343, 6.882492E-07, 0.02571625, -0.02719336, 0.4000051
 178136217, 0.02202844, -0.008757675, 2.671059E-05, 0.02614632, -0.02727379, 0.4000056, -0.007553109, 0.02523877, 2.677047E-05, 0.02544396, -0.02657382, 0.4000055
 178236177, -0.02544836, 0.00956541, -3.16744E-05, 0.02510779, -0.02686894, 0.4000042, 0.02202844, -0.008757675, 2.671059E-05, 0.02614632, -0.02727379, 0.4000056
 178336137, 0.00854391, 0.02432848, 5.516492E-05, 0.02580667, -0.02659015, 0.4000059, -0.02544836, 0.00956541, -3.16744E-05, 0.02510779, -0.02686894, 0.4000042
 178436097, 0.0114706, 0.02182628, 5.640721E-05, 0.02587952, -0.02663288, 0.4000059, 0.00854391, 0.02432848, 5.516492E-05, 0.02580667, -0.02659015, 0.4000059
 178536057, 0.02051354, -0.001748078, 3.499701E-05, 0.02611095, -0.02710727, 0.4000057, 0.0114706, 0.02182628, 5.640721E-05, 0.02587952, -0.02663288, 0.4000059
 178636017, -0.01172826, -0.02022147, -5.40689E-05, 0.0253657, -0.02755759, 0.4000037, 0.02051354, -0.001748078, 3.499701E-05, 0.02611095, -0.02710727, 0.4000057
 178735977, -0.01814208, -0.0172891, -6.108421E-05, 0.02524308, -0.02747984, 0.4000036, -0.01172826, -0.02022147, -5.40689E-05, 0.0253657, -0.02755759, 0.4000037
 178835937, -0.002492073, 0.008020327, 8.235365E-06, 0.02555914, -0.02689141, 0.4000052, -0.01814208, -0.0172891, -6.108421E-05, 0.02524308, -0.02747984, 0.4000036
 178935897, -0.02041937, -0.01060148, -5.439814E-05, 0.02520324, -0.02730968, 0.4000039, -0.002492073, 0.008020327, 8.235365E-06, 0.02555914, -0.02689141, 0.4000052
 179035857, -0.01134297, 0.003255118, -1.559483E-05, 0.02537717, -0.02699023, 0.4000047, -0.02041937, -0.01060148, -5.439814E-05, 0.02520324, -0.02730968, 0.4000039
 179135817, 0.01784166, 0.008079561, 4.552562E-05, 0.02604652, -0.02688929, 0.4000059, -0.01134297, 0.003255118, -1.559483E-05, 0.02537717, -0.02699023, 0.4000047
 179235777, -0.0009723136, -0.02400832, -4.013323E-05, 0.02559671, -0.02765569, 0.4000038, 0.01784166, 0.008079561, 4.552562E-05, 0.02604652, -0.02688929, 0.4000059
 179335737, 0.01045272, 0.0075405, 3.115219E-05, 0.02586238, -0.02690253, 0.4000053, -0.0009723136, -0.02400832, -4.013323E-05, 0.02559671, -0.02765569, 0.4000038
 179435697, 0.02107088, 0.0253951, 7.917249E-05, 0.02613282, -0.02656664, 0.4000062, 0.01045272, 0.0075405, 3.115219E-05, 0.02586238, -0.02690253, 0.4000053
 179535657, 0.02269745, 0.0140113, 6.392396E-05, 0.02617589, -0.0267746, 0.400006, 0.02107088, 0.0253951, 7.917249E-05, 0.02613282, -0.02656664, 0.4000062
 179636450, -0.003511769, -0.02313928, -4.355432E-05, 0.02554212, -0.02763528, 0.4000034, 0.02269745, 0.0140113, 6.392396E-05, 0.02617589, -0.0267746, 0.400006
 179736410, 0.01598609, 0.01202995, 4.846518E-05, 0.026002, -0.02681491, 0.4000054, -0.003511769, -0.02313928, -4.355432E-05, 0.02554212, -0.02763528, 0.4000034
 179836370, 0.005328543, -0.02109363, -2.431327E-05, 0.02574343, -0.02758312, 0.4000035, 0.01598609, 0.01202995, 4.846518E-05, 0.026002, -0.02681491, 0.4000054
 179936330, -0.007519418, 0.02424382, 2.565323E-05, 0.0254603, -0.02659353, 0.4000044, 0.005328543, -0.02109363, -2.431327E-05, 0.02574343, -0.02758312, 0.4000035
 180036290, 0.01155222, 0.01597849, 4.712513E-05, 0.02589144, -0.0267482, 0.4000046, -0.007519418, 0.02424382, 2.565323E-05, 0.0254603, -0.02659353, 0.4000044
 180136250, 0.008596705, -0.01194246, -3.824602E-06, 0.02581837, -0.02735727, 0.4000036, 0.01155222, 0.01597849, 4.712513E-05, 0.02589144, -0.0267482, 0.4000046
 180236210, -0.01490125, 0.02365527, 1.139418E-05, 0.02530989, -0.02660769, 0.400004, 0.008596705, -0.01194246, -3.824602E-06, 0.02581837, -0.02735727, 0.4000036
 180336170, -0.0252053, -0.0240261, -8.514938E-05, 0.02512275, -0.02766899, 0.400002, -0.01490125, 0.02365527, 1.139418E-05, 0.02530989, -0.02660769, 0.400004
 180436130, 0.01093017, -0.0164614, -6.828104E-06, 0.02587479, -0.02746795, 0.4000037, -0.0252053, -0.0240261, -8.514938E-05, 0.02512275, -0.02766899, 0.400002
 180536090, -0.0238372, -0.008263854, -5.690597E-05, 0.02514709, -0.02726457, 0.4000028, 0.01093017, -0.0164614, -6.828104E-06, 0.02587479, -0.02746795, 0.4000037
 180636050, 0.01938394, -0.01923705, 4.140329E-06, 0.02608863, -0.02753872, 0.4000041, -0.0238372, -0.008263854, -5.690597E-05, 0.02514709, -0.02726457, 0.4000028
 180736010, -0.01870027, -0.007591437, -4.639362E-05, 0.02524071, -0.02724945, 0.4000028, 0.01938394, -0.01923705, 4.140329E-06, 0.02608863, -0.02753872, 0.4000041
 180835970, 0.005773655, -0.006580608, -2.405695E-07, 0.0257545, -0.0272267, 0.4000036, -0.01870027, -0.007591437, -4.639362E-05, 0.02524071, -0.02724945, 0.4000028
 180935930, -0.01831342, 0.01183497, -1.394243E-05, 0.02524946, -0.02682833, 0.4000033, 0.005773655, -0.006580608, -2.405695E-07, 0.0257545, -0.0272267, 0.4000036
 181035890, 0.0222382, 0.00585152, 5.001182E-05, 0.02616683, -0.02695218, 0.4000047, -0.01831342, 0.01183497, -1.394243E-05, 0.02524946, -0.02682833, 0.4000033
 181135850, 0.02134213, -0.007380984, 2.673556E-05, 0.02614246, -0.0272492, 0.4000041, 0.0222382, 0.00585152, 5.001182E-05, 0.02616683, -0.02695218, 0.4000047
 181235810, -0.01784839, 0.01308698, -1.101911E-05, 0.02525651, -0.02680687, 0.4000032, 0.02134213, -0.007380984, 2.673556E-05, 0.02614246, -0.0272492, 0.4000041
 181335770, 0.003692244, 0.01250148, 2.725525E-05, 0.02570382, -0.0268185, 0.400004, -0.01784839, 0.01308698, -1.101911E-05, 0.02525651, -0.02680687, 0.4000032
 181435730, -0.002237304, 0.0004013883, -3.422892E-06, 0.02557035, -0.0270719, 0.4000034, 0.003692244, 0.01250148, 2.725525E-05, 0.02570382, -0.0268185, 0.400004
 181535690, -0.02000303, -0.001901439, -3.968862E-05, 0.0252143, -0.02712521, 0.4000026, -0.002237304, 0.0004013883, -3.422892E-06, 0.02557035, -0.0270719, 0.4000034
 181636483, -0.008573649, 0.0005470509, -1.479864E-05, 0.02543381, -0.02707194, 0.4000031, -0.02000303, -0.001901439, -3.968862E-05, 0.0252143, -0.02712521, 0.4000026
 181736443, -0.02077282, 0.00302976, -3.309204E-05, 0.02519791, -0.02701798, 0.4000028, -0.008573649, 0.0005470509, -1.479864E-05, 0.02543381, -0.02707194, 0.4000031
 181836403, -0.01197171, -0.01164729, -4.127056E-05, 0.02536286, -0.02735825, 0.4000025, -0.02077282, 0.00302976, -3.309204E-05, 0.02519791, -0.02701798, 0.4000028
 181936363, 0.02051961, 0.02462107, 7.858747E-05, 0.0261138, -0.02660229, 0.400005, -0.01197171, -0.01164729, -4.127056E-05, 0.02536286, -0.02735825, 0.4000025
 182036323, -0.02438856, -0.006789991, -5.613571E-05, 0.02513271, -0.02724619, 0.4000019, 0.02051961, 0.02462107, 7.858747E-05, 0.0261138, -0.02660229, 0.400005
 182136283, -0.004357125, -0.0102869, -2.520686E-05, 0.02551839, -0.02733118, 0.4000025, -0.02438856, -0.006789991, -5.613571E-05, 0.02513271, -0.02724619, 0.4000019
 182236243, -0.01988059, 0.001967619, -3.335315E-05, 0.02521061, -0.02704945, 0.4000024, -0.004357125, -0.0102869, -2.520686E-05, 0.02551839, -0.02733118, 0.4000025
 182336203, -0.01266384, -0.01356304, -4.606788E-05, 0.02534654, -0.02741327, 0.4000021, -0.01988059, 0.001967619, -3.335315E-05, 0.02521061, -0.02704945, 0.4000024
 182436163, 0.0057438, 0.006015897, 2.067496E-05, 0.0257425, -0.02696284, 0.4000036, -0.01266384, -0.01356304, -4.606788E-05, 0.02534654, -0.02741327, 0.4000021
 182536123, 0.02526908, -0.009944225, 3.013564E-05, 0.02623593, -0.02732523, 0.400004, 0.0057438, 0.006015897, 2.067496E-05, 0.0257425, -0.02696284, 0.4000036
 182636083, -0.012582, -0.00136192, -2.567602E-05, 0.02534283, -0.02712563, 0.4000028, 0.02526908, -0.009944225, 3.013564E-05, 0.02623593, -0.02732523, 0.400004
 182736043, -0.004869378, -0.01014069, -2.618239E-05, 0.02550219, -0.02733549, 0.4000023, -0.012582, -0.00136192, -2.567602E-05, 0.02534283, -0.02712563, 0.4000028
 182836003, 0.0106326, -0.01965801, -1.376126E-05, 0.02585732, -0.02758012, 0.4000022, -0.004869378, -0.01014069, -2.618239E-05, 0.02550219, -0.02733549, 0.4000023
 182935963, -0.01816734, -0.002830727, -3.844963E-05, 0.02523845, -0.0271637, 0.4000021, 0.0106326, -0.01965801, -1.376126E-05, 0.02585732, -0.02758012, 0.4000022
 183035923, -0.02450104, -0.01382181, -6.866567E-05, 0.02512459, -0.02742335, 0.4000016, -0.01816734, -0.002830727, -3.844963E-05, 0.02523845, -0.0271637, 0.4000021
 183135883, 0.007357793, -0.02348815, -2.595176E-05, 0.02578083, -0.02767501, 0.4000022, -0.02450104, -0.01382181, -6.866567E-05, 0.02512459, -0.02742335, 0.4000016
 183235843, 0.02153207, -0.004819703, 3.143712E-05, 0.02614096, -0.02720626, 0.4000034, 0.007357793, -0.02348815, -2.595176E-05, 0.02578083, -0.02767501, 0.4000022
 183335803, 0.01604983, 0.01683202, 5.769146E-05, 0.02600014, -0.02675101, 0.4000038, 0.02153207, -0.004819703, 3.143712E-05, 0.02614096, -0.02720626, 0.4000034
 183435763, 0.02219053, -0.02209588, 3.36592E-06, 0.02616281, -0.02763717, 0.4000025, 0.01604983, 0.01683202, 5.769146E-05, 0.02600014, -0.02675101, 0.4000038
 183535723, 0.008768342, 0.00843448, 3.015614E-05, 0.02582193, -0.02691473, 0.4000032, 0.02219053, -0.02209588, 3.36592E-06, 0.02616281, -0.02763717, 0.4000025
 183635683, -0.02209058, -0.008344126, -5.42954E-05, 0.0251775, -0.02728683, 0.4000014, 0.008768342, 0.00843448, 3.015614E-05, 0.02582193, -0.02691473, 0.4000032
 183736476, -0.01308968, -0.01281847, -4.523763E-05, 0.02534703, -0.02739375, 0.4000016, -0.02209058, -0.008344126, -5.42954E-05, 0.0251775, -0.02728683, 0.4000014
 183836436, -0.003807611, -0.002907234, -1.175219E-05, 0.02553943, -0.02715535, 0.4000024, -0.01308968, -0.01281847, -4.523763E-05, 0.02534703, -0.02739375, 0.4000016
 183936396, -0.01863849, -0.01329896, -5.600598E-05, 0.0252435, -0.02740489, 0.4000013, -0.003807611, -0.002907234, -1.175219E-05, 0.02553943, -0.02715535, 0.4000024
 184036356, -0.004620291, 0.01485977, 1.643729E-05, 0.02552232, -0.02678457, 0.4000028, -0.01863849, -0.01329896, -5.600598E-05, 0.0252435, -0.02740489, 0.4000013
 184136316, -0.02237403, -0.023418, -7.962253E-05, 0.02517681, -0.02766848, 0.4000007, -0.004620291, 0.01485977, 1.643729E-05, 0.02552232, -0.02678457, 0.4000028
 184236276, -0.01432705, 0.01046691, -8.511654E-06, 0.02532616, -0.02686986, 0.4000023, -0.02237403, -0.023418, -7.962253E-05, 0.02517681, -0.02766848, 0.4000007
 184336236, 0.005918439, 0.02213812, 4.777007E-05, 0.02575855, -0.02665132, 0.4000033, -0.01432705, 0.01046691, -8.511654E-06, 0.02532616, -0.02686986, 0.4000023
 184436196, -0.01307109, 0.006488002, -1.281713E-05, 0.02535002, -0.02695579, 0.400002, 0.005918439, 0.02213812, 4.777007E-05, 0.02575855, -0.02665132, 0.4000033
 184536156, 0.0001461267, -0.02476751, -4.133054E-05, 0.02562766, -0.02770958, 0.4000011, -0.01307109, 0.006488002, -1.281713E-05, 0.02535002, -0.02695579, 0.400002
 184636116, -0.01746314, -0.02119941, -6.720515E-05, 0.02526809, -0.02761445, 0.4000005, 0.0001461267, -0.02476751, -4.133054E-05, 0.02562766, -0.02770958, 0.4000011
 184736076, -0.005459667, -0.02110847, -4.529285E-05, 0.0255072, -0.02761081, 0.400001, -0.01746314, -0.02119941, -6.720515E-05, 0.02526809, -0.02761445, 0.4000005
 184836036, -0.0002747212, 0.006097969, 9.719157E-06, 0.02561964, -0.02696307, 0.4000023, -0.005459667, -0.02110847, -4.529285E-05, 0.0255072, -0.02761081, 0.400001
 184935996, -0.003674946, -0.01242918, -2.744802E-05, 0.02554329, -0.02738596, 0.4000017, -0.0002747212, 0.006097969, 9.719157E-06, 0.02561964, -0.02696307, 0.4000023
 185035956, -0.007381295, -0.02221888, -5.052728E-05, 0.02546302, -0.02763745, 0.4000013, -0.003674946, -0.01242918, -2.744802E-05, 0.02554329, -0.02738596, 0.4000017
 185135916, -0.002503593, -0.00345557, -1.032322E-05, 0.02556765, -0.02717215, 0.4000022, -0.007381295, -0.02221888, -5.052728E-05, 0.02546302, -0.02763745, 0.4000013
 185235876, -0.01702493, 0.01608589, -3.904914E-06, 0.02527426, -0.02676371, 0.4000022, -0.002503593, -0.00345557, -1.032322E-05, 0.02556765, -0.02717215, 0.4000022
 185335836, 0.01539119, -0.01331528, 5.640944E-06, 0.02598779, -0.02740969, 0.4000025, -0.01702493, 0.01608589, -3.904914E-06, 0.02527426, -0.02676371, 0.4000022
 185435796, 0.01843218, 0.009513178, 4.953927E-05, 0.02606387, -0.02689378, 0.4000036, 0.01539119, -0.01331528, 5.640944E-06, 0.02598779, -0.02740969, 0.4000025
 185535756, 0.01519144, -0.005185854, 1.895689E-05, 0.02598087, -0.02721531, 0.4000028, 0.01843218, 0.009513178, 4.953927E-05, 0.02606387, -0.02689378, 0.4000036
 185635716, -0.01801657, 0.01831003, -1.989752E-06, 0.02525212, -0.02672526, 0.4000022, 0.01519144, -0.005185854, 1.895689E-05, 0.02598087, -0.02721531, 0.4000028
 185735676, 0.0004844291, -0.01775136, -2.89974E-05, 0.02563065, -0.02752501, 0.4000016, -0.01801657, 0.01831003, -1.989752E-06, 0.02525212, -0.02672526, 0.4000022
 185836469, -0.02448348, 0.01666586, -1.651519E-05, 0.02513662, -0.02675595, 0.400002, 0.0004844291, -0.01775136, -2.89974E-05, 0.02563065, -0.02752501, 0.4000016
 185936429, -0.01617299, 0.01801068, 8.77475E-07, 0.02528784, -0.0267301, 0.4000022, -0.02448348, 0.01666586, -1.651519E-05, 0.02513662, -0.02675595, 0.400002
 186036389, 0.02290794, 0.006503894, 5.257496E-05, 0.02618384, -0.02695716, 0.4000035, -0.01617299, 0.01801068, 8.77475E-07, 0.02528784, -0.0267301, 0.4000022
 186136349, 0.0131225, -0.02019296, -1.010745E-05, 0.02592969, -0.02758864, 0.400002, 0.02290794, 0.006503894, 5.257496E-05, 0.02618384, -0.02695716, 0.4000035
 186236309, -0.003999472, -0.009673461, -2.358692E-05, 0.02553247, -0.02732372, 0.4000017, 0.0131225, -0.02019296, -1.010745E-05, 0.02592969, -0.02758864, 0.400002
 186336269, -0.01734921, -0.006422054, -4.253215E-05, 0.02526303, -0.02724892, 0.4000012, -0.003999472, -0.009673461, -2.358692E-05, 0.02553247, -0.02732372, 0.4000017
 186436229, 0.002380356, -0.01052375, -1.352083E-05, 0.02567062, -0.02734945, 0.4000017, -0.01734921, -0.006422054, -4.253215E-05, 0.02526303, -0.02724892, 0.4000012
 186536189, -0.02384116, 0.01277458, -2.195344E-05, 0.0251446, -0.02683501, 0.4000017, 0.002380356, -0.01052375, -1.352083E-05, 0.02567062, -0.02734945, 0.4000017
 186636149, 0.01278897, -0.0001724122, 2.311178E-05, 0.02591734, -0.02710488, 0.4000028, -0.02384116, 0.01277458, -2.195344E-05, 0.0251446, -0.02683501, 0.4000017
 186736109, -0.004388215, 0.01217177, 1.251259E-05, 0.0255206, -0.02684443, 0.4000026, 0.01278897, -0.0001724122, 2.311178E-05, 0.02591734, -0.02710488, 0.4000028
 186836069, -0.01088633, 0.02408015, 2.06716E-05, 0.02538628, -0.02662257, 0.4000028, -0.004388215, 0.01217177, 1.251259E-05, 0.0255206, -0.02684443, 0.4000026
 186936029, -0.005864386, 0.001927048, -7.490609E-06, 0.02548974, -0.02705445, 0.4000024, -0.01088633, 0.02408015, 2.06716E-05, 0.02538628, -0.02662257, 0.4000028
 187035989, 0.01481944, 0.006029839, 3.719321E-05, 0.02596898, -0.02696439, 0.4000035, -0.005864386, 0.001927048, -7.490609E-06, 0.02548974, -0.02705445, 0.4000024
 187135949, -0.0129325, -0.0005519526, -2.47131E-05, 0.02534211, -0.02710528, 0.4000025, 0.01481944, 0.006029839, 3.719321E-05, 0.02596898, -0.02696439, 0.4000035
 187235909, 0.0203401, 0.01408326, 6.112277E-05, 0.02610246, -0.0267985, 0.4000049, -0.0129325, -0.0005519526, -2.47131E-05, 0.02534211, -0.02710528, 0.4000025
 187335869, -0.01613264, 0.007777857, -1.689146E-05, 0.02527608, -0.02692464, 0.4000031, 0.0203401, 0.01408326, 6.112277E-05, 0.02610246, -0.0267985, 0.4000049
 187435829, 0.01723406, -0.0127945, 1.05647E-05, 0.02602171, -0.0273927, 0.4000037, -0.01613264, 0.007777857, -1.689146E-05, 0.02527608, -0.02692464, 0.4000031
 187535789, 0.01356568, 0.0151782, 5.054635E-05, 0.02592568, -0.0267782, 0.4000047, 0.01723406, -0.0127945, 1.05647E-05, 0.02602171, -0.0273927, 0.4000037
 187635749, -0.00753786, -1.581873E-05, -1.409026E-05, 0.0254407, -0.02709352, 0.4000034, 0.01356568, 0.0151782, 5.054635E-05, 0.02592568, -0.0267782, 0.4000047
 187735709, -0.01071975, -0.000352219, -2.060476E-05, 0.02537542, -0.02710317, 0.4000032, -0.00753786, -1.581873E-05, -1.409026E-05, 0.0254407, -0.02709352, 0.4000034
 187835669, 0.02232282, 0.007662127, 5.460636E-05, 0.02614861, -0.02693325, 0.4000048, -0.01071975, -0.000352219, -2.060476E-05, 0.02537542, -0.02710317, 0.4000032
 187936462, -0.007319467, -0.01944337, -4.637832E-05, 0.02544384, -0.0275677, 0.4000024, 0.02232282, 0.007662127, 5.460636E-05, 0.02614861, -0.02693325, 0.4000048
 188036422, 0.0004939177, -0.01329375, -2.142399E-05, 0.02561148, -0.02741014, 0.4000031, -0.007319467, -0.01944337, -4.637832E-05, 0.02544384, -0.0275677, 0.4000024
 188136382, 0.01305593, 0.006592788, 3.547552E-05, 0.02590965, -0.02695549, 0.4000043, 0.0004939177, -0.01329375, -2.142399E-05, 0.02561148, -0.02741014, 0.4000031
 188236342, -0.00429534, 0.01891736, 2.389463E-05, 0.02550994, -0.02671455, 0.4000037, 0.01305593, 0.006592788, 3.547552E-05, 0.02590965, -0.02695549, 0.4000043
 188336302, -0.01371754, 0.01727788, 3.57273E-06, 0.02531897, -0.02674393, 0.4000033, -0.00429534, 0.01891736, 2.389463E-05, 0.02550994, -0.02671455, 0.4000037
 188436262, -0.006985096, -0.007167915, -2.502265E-05, 0.02545524, -0.02726154, 0.4000027, -0.01371754, 0.01727788, 3.57273E-06, 0.02531897, -0.02674393, 0.4000033
 188536222, 0.011769, 0.01062116, 3.958793E-05, 0.02588353, -0.02687029, 0.4000041, -0.006985096, -0.007167915, -2.502265E-05, 0.02545524, -0.02726154, 0.4000027
 188636182, 0.02170469, -0.002220275, 3.635628E-05, 0.02614061, -0.02714285, 0.4000041, 0.011769, 0.01062116, 3.958793E-05, 0.02588353, -0.02687029, 0.4000041
 188736142, 0.002759983, -0.01925951, -2.70074E-05, 0.02567343, -0.02755742, 0.4000026, 0.02170469, -0.002220275, 3.635628E-05, 0.02614061, -0.02714285, 0.4000041
 188836102, -0.007710181, -0.02270265, -5.191228E-05, 0.02544697, -0.02764715, 0.4000021, 0.002759983, -0.01925951, -2.70074E-05, 0.02567343, -0.02755742, 0.4000026
 188936062, 0.02324424, -0.009722589, 2.654849E-05, 0.026186, -0.02731352, 0.400004, -0.007710181, -0.02270265, -5.191228E-05, 0.02544697, -0.02764715, 0.4000021
 189036022, -0.01248084, -0.02385277, -6.225126E-05, 0.02535365, -0.02767424, 0.4000019, 0.02324424, -0.009722589, 2.654849E-05, 0.026186, -0.02731352, 0.400004
 189135982, 0.02515892, -0.004891764, 3.799463E-05, 0.02623968, -0.02719556, 0.4000044, -0.01248084, -0.02385277, -6.225126E-05, 0.02535365, -0.02767424, 0.4000019
 189235942, 0.008815697, -0.02301603, -2.17043E-05, 0.02581975, -0.02764856, 0.400003, 0.02515892, -0.004891764, 3.799463E-05, 0.02623968, -0.02719556, 0.4000044
 189335902, 0.01368832, 0.01133304, 4.360788E-05, 0.02594079, -0.0268434, 0.4000044, 0.008815697, -0.02301603, -2.17043E-05, 0.02581975, -0.02764856, 0.400003
 189435862, -0.006040609, 0.008257072, 2.533229E-06, 0.02548819, -0.02690477, 0.4000035, 0.01368832, 0.01133304, 4.360788E-05, 0.02594079, -0.0268434, 0.4000044
 189535822, 0.003841944, -0.02485697, -3.370756E-05, 0.02570329, -0.02769649, 0.4000028, -0.006040609, 0.008257072, 2.533229E-06, 0.02548819, -0.02690477, 0.4000035
 189635782, 0.01481514, 0.007386082, 3.92638E-05, 0.02596596, -0.02692196, 0.4000047, 0.003841944, -0.02485697, -3.370756E-05, 0.02570329, -0.02769649, 0.4000028
 189735742, 0.002440845, 0.02298789, 4.206218E-05, 0.02566792, -0.02662192, 0.4000049, 0.01481514, 0.007386082, 3.92638E-05, 0.02596596, -0.02692196, 0.4000047
 189835702, -0.006242048, 0.0235829, 2.702086E-05, 0.02547732, -0.02661054, 0.4000046, 0.002440845, 0.02298789, 4.206218E-05, 0.02566792, -0.02662192, 0.4000049
 189935662, -0.01032464, -0.01265136, -3.958819E-05, 0.02539322, -0.02737441, 0.4000033, -0.006242048, 0.0235829, 2.702086E-05, 0.02547732, -0.02661054, 0.4000046
 190036455, 0.004088853, -0.006522134, -3.064182E-06, 0.02570553, -0.02722343, 0.4000043, -0.01032464, -0.01265136, -3.958819E-05, 0.02539322, -0.02737441, 0.4000033
 190136415, -0.02483172, -0.002405246, -4.946994E-05, 0.02512401, -0.02712822, 0.4000033, 0.004088853, -0.006522134, -3.064182E-06, 0.02570553, -0.02722343, 0.4000043
 190236375, -0.02142656, 0.008290295, -2.586305E-05, 0.02518399, -0.02689719, 0.4000038, -0.02483172, -0.002405246, -4.946994E-05, 0.02512401, -0.02712822, 0.4000033
 190336335, 0.003322532, -0.01727386, -2.194206E-05, 0.02568929, -0.02748913, 0.4000037, -0.02142656, 0.008290295, -2.586305E-05, 0.02518399, -0.02689719, 0.4000038
 190436295, -0.008424945, 0.01179357, 3.711766E-06, 0.02543414, -0.02682725, 0.4000043, 0.003322532, -0.01727386, -2.194206E-05, 0.02568929, -0.02748913, 0.4000037
 190536255, -0.0228146, 0.009089037, -2.70824E-05, 0.02515935, -0.02688232, 0.4000037, -0.008424945, 0.01179357, 3.711766E-06, 0.02543414, -0.02682725, 0.4000043
 190636215, 4.264942E-05, -0.0009954824, -1.542681E-06, 0.02561387, -0.02709907, 0.4000041, -0.0228146, 0.009089037, -2.70824E-05, 0.02515935, -0.02688232, 0.4000037
 190736175, -0.01506626, -0.001124368, -2.949683E-05, 0.02530119, -0.02710074, 0.4000036, 4.264942E-05, -0.0009954824, -1.542681E-06, 0.02561387, -0.02709907, 0.4000041
 190836135, -0.000224463, 0.001240169, 1.600248E-06, 0.02560832, -0.0270471, 0.4000044, -0.01506626, -0.001124368, -2.949683E-05, 0.02530119, -0.02710074, 0.4000036
 190936095, 0.01045095, 0.01073853, 3.66914E-05, 0.02585535, -0.02684903, 0.4000051, -0.000224463, 0.001240169, 1.600248E-06, 0.02560832, -0.0270471, 0.4000044
 191036055, -0.005970371, 0.002801124, -6.441077E-06, 0.02548131, -0.02701575, 0.4000041, 0.01045095, 0.01073853, 3.66914E-05, 0.02585535, -0.02684903, 0.4000051
 191136015, 0.008742124, 0.007757506, 2.87965E-05, 0.02581301, -0.02691348, 0.4000047, -0.005970371, 0.002801124, -6.441077E-06, 0.02548131, -0.02701575, 0.4000041
 191235975, -0.02327176, -0.01379308, -6.549252E-05, 0.02514877, -0.02740832, 0.4000025, 0.008742124, 0.007757506, 2.87965E-05, 0.02581301, -0.02691348, 0.4000047
 191335935, 0.01414456, -0.01079252, 8.306264E-06, 0.02594677, -0.02733384, 0.4000041, -0.02327176, -0.01379308, -6.549252E-05, 0.02514877, -0.02740832, 0.4000025
 191435895, 0.0008993633, -0.01079874, -1.606816E-05, 0.02563242, -0.02733373, 0.4000035, 0.01414456, -0.01079252, 8.306264E-06, 0.02594677, -0.02733384, 0.4000041
 191535855, 0.02000616, 0.01971428, 6.923763E-05, 0.02609531, -0.02668248, 0.4000056, 0.0008993633, -0.01079874, -1.606816E-05, 0.02563242, -0.02733373, 0.4000035
 191635815, 0.009630063, 0.02161808, 5.325273E-05, 0.02583089, -0.02664758, 0.4000053, 0.02000616, 0.01971428, 6.923763E-05, 0.02609531, -0.02668248, 0.4000056
 191735775, 0.01976479, -0.01368016, 1.420535E-05, 0.02608612, -0.02740386, 0.4000046, 0.009630063, 0.02161808, 5.325273E-05, 0.02583089, -0.02664758, 0.4000053
 191835735, 0.008723211, -0.01770073, -1.283438E-05, 0.02580802, -0.02750614, 0.400004, 0.01976479, -0.01368016, 1.420535E-05, 0.02608612, -0.02740386, 0.4000046
 191935695, -0.01733297, -0.007372314, -4.423691E-05, 0.02525174, -0.0272516, 0.4000033, 0.008723211, -0.01770073, -1.283438E-05, 0.02580802, -0.02750614, 0.400004
 192035655, 0.01793141, -0.02275652, -4.217032E-06, 0.02603844, -0.02764187, 0.400004, -0.01733297, -0.007372314, -4.423691E-05, 0.02525174, -0.0272516, 0.4000033
 192136448, 0.01743955, -0.02263361, -4.88622E-06, 0.02602644, -0.02763732, 0.400004, 0.01793141, -0.02275652, -4.217032E-06, 0.02603844, -0.02764187, 0.400004
 192236408, 0.01049987, -0.02021059, -1.373977E-05, 0.02585206, -0.02757274, 0.4000038, 0.01743955, -0.02263361, -4.88622E-06, 0.02602644, -0.02763732, 0.400004
 192336368, 0.01639812, -0.01947998, -1.59955E-06, 0.02599842, -0.02755398, 0.4000041, 0.01049987, -0.02021059, -1.373977E-05, 0.02585206, -0.02757274, 0.4000038
 192436328, 0.004125799, 0.0240457, 4.71991E-05, 0.0256987, -0.02660665, 0.4000052, 0.01639812, -0.01947998, -1.59955E-06, 0.02599842, -0.02755398, 0.4000041
 192536288, -0.01797342, -0.02360472, -7.221309E-05, 0.02523817, -0.02766437, 0.4000026, 0.004125799, 0.0240457, 4.71991E-05, 0.0256987, -0.02660665, 0.4000052
 192636248, 0.01545652, -0.01709397, 6.175123E-07, 0.02597282, -0.02749249, 0.4000043, -0.01797342, -0.02360472, -7.221309E-05, 0.02523817, -0.02766437, 0.4000026
 192736208, -0.002765702, -0.01555599, -3.069837E-05, 0.02554383, -0.02745222, 0.4000036, 0.01545652, -0.01709397, 6.175123E-07, 0.02597282, -0.02749249, 0.4000043
 192836168, -0.004804169, -0.007869515, -2.186127E-05, 0.02549971, -0.02726254, 0.4000039, -0.002765702, -0.01555599, -3.069837E-05, 0.02554383, -0.02745222, 0.4000036
 192936128, 0.01014378, -0.0176496, -1.005068E-05, 0.02583795, -0.02750557, 0.4000043, -0.004804169, -0.007869515, -2.186127E-05, 0.02549971, -0.02726254, 0.4000039
 193036088, 0.003242566, -0.01749599, -2.26845E-05, 0.0256727, -0.02750203, 0.4000041, 0.01014378, -0.0176496, -1.005068E-05, 0.02583795, -0.02750557, 0.4000043
 193136048, -0.003800348, 0.0213832, 2.804685E-05, 0.02551632, -0.02665312, 0.4000052, 0.003242566, -0.01749599, -2.26845E-05, 0.0256727, -0.02750203, 0.4000041
 193236008, 0.0030817, -0.02277114, -3.168853E-05, 0.0256687, -0.02764143, 0.4000039, -0.003800348, 0.0213832, 2.804685E-05, 0.02551632, -0.02665312, 0.4000052
 193335968, -0.01218714, 0.01864863, 7.803323E-06, 0.02534458, -0.02670146, 0.4000048, 0.0030817, -0.02277114, -3.168853E-05, 0.0256687, -0.02764143, 0.4000039
 193435928, -0.02433391, -0.001164458, -4.734438E-05, 0.02512093, -0.02710562, 0.4000037, -0.01218714, 0.01864863, 7.803323E-06, 0.02534458, -0.02670146, 0.4000048
 193535888, 0.01173046, -0.004195801, 1.496285E-05, 0.02587953, -0.02717315, 0.400005, -0.02433391, -0.001164458, -4.734438E-05, 0.02512093, -0.02710562, 0.4000037
 193635848, 0.001859488, 0.02004478, 3.612204E-05, 0.02564862, -0.02667177, 0.4000053, 0.01173046, -0.004195801, 1.496285E-05, 0.02587953, -0.02717315, 0.400005
 193735808, 0.005166716, 0.01630681, 3.612221E-05, 0.0257254, -0.02674053, 0.4000053, 0.001859488, 0.02004478, 3.612204E-05, 0.02564862, -0.02667177, 0.4000053
 193835768, 0.0001691847, 0.005945096, 9.983865E-06, 0.02561235, -0.02694685, 0.4000047, 0.005166716, 0.01630681, 3.612221E-05, 0.0257254, -0.02674053, 0.4000053
 193935728, -0.01448376, 0.01070753, -9.389731E-06, 0.02530867, -0.02684727, 0.4000044, 0.0001691847, 0.005945096, 9.983865E-06, 0.02561235, -0.02694685, 0.4000047
 194035688, 0.02341013, -0.0008341903, 4.187454E-05, 0.02618612, -0.02709052, 0.4000057, -0.01448376, 0.01070753, -9.389731E-06, 0.02530867, -0.02684727, 0.4000044
 194136481, 0.001139225, 0.02051528, 3.517028E-05, 0.02563705, -0.0266564, 0.4000054, 0.02341013, -0.0008341903, 4.187454E-05, 0.02618612, -0.02709052, 0.4000057
 194236441, -0.01917702, -0.006370629, -4.546232E-05, 0.02522445, -0.02721401, 0.4000038, 0.001139225, 0.02051528, 3.517028E-05, 0.02563705, -0.0266564, 0.4000054
 194336401, -0.001213391, -0.01487497, -2.610675E-05, 0.02558787, -0.02742055, 0.4000041, -0.01917702, -0.006370629, -4.546232E-05, 0.02522445, -0.02721401, 0.4000038
 194436361, -0.007486138, -0.0132556, -3.495474E-05, 0.02545503, -0.02737903, 0.4000039, -0.001213391, -0.01487497, -2.610675E-05, 0.02558787, -0.02742055, 0.4000041
 194536321, -0.01817663, -0.02488314, -7.301923E-05, 0.02524423, -0.02768005, 0.4000033, -0.007486138, -0.0132556, -3.495474E-05, 0.02545503, -0.02737903, 0.4000039
 194636281, -0.004759468, -0.01734629, -3.632414E-05, 0.0255101, -0.02747761, 0.4000043, -0.01817663, -0.02488314, -7.301923E-05, 0.02524423, -0.02768005, 0.4000033
 194736241, -0.02276927, 0.02471656, -2.630528E-06, 0.02515903, -0.02657247, 0.4000053, -0.004759468, -0.01734629, -3.632414E-05, 0.0255101, -0.02747761, 0.4000043
 194836201, -0.001422142, -0.00236087, -6.361106E-06, 0.02557989, -0.02711216, 0.4000053, -0.02276927, 0.02471656, -2.630528E-06, 0.02515903, -0.02657247, 0.4000053
 194936161, 0.01399134, -0.01837083, -3.216939E-06, 0.02593895, -0.02750167, 0.4000056, -0.001422142, -0.00236087, -6.361106E-06, 0.02557989, -0.02711216, 0.4000053
 195036121, 0.01355053, 0.01403325, 4.745703E-05, 0.02592391, -0.02676741, 0.400007, 0.01399134, -0.01837083, -3.216939E-06, 0.02593895, -0.02750167, 0.4000056
 195136081, 0.02306284, 0.02275198, 7.887589E-05, 0.02617157, -0.02660528, 0.4000077, 0.01355053, 0.01403325, 4.745703E-05, 0.02592391, -0.02676741, 0.400007
 195236041, 0.02138365, 0.008290327, 5.28167E-05, 0.02612738, -0.02688052, 0.4000072, 0.02306284, 0.02275198, 7.887589E-05, 0.02617157, -0.02660528, 0.4000077
 195336001, 0.02264708, 0.01347205, 6.337189E-05, 0.02616061, -0.02677639, 0.4000075, 0.02138365, 0.008290327, 5.28167E-05, 0.02612738, -0.02688052, 0.4000072
 195435961, -0.0215308, -0.01110965, -5.759539E-05, 0.02517248, -0.02731674, 0.4000049, 0.02264708, 0.01347205, 6.337189E-05, 0.02616061, -0.02677639, 0.4000075
 195535921, -0.005712274, -0.02458272, -4.932229E-05, 0.02547825, -0.02766243, 0.4000052, -0.0215308, -0.01110965, -5.759539E-05, 0.02517248, -0.02731674, 0.4000049
 195635881, 0.01157441, 0.02453307, 6.008054E-05, 0.02587032, -0.02656707, 0.400008, -0.005712274, -0.02458272, -4.932229E-05, 0.02547825, -0.02766243, 0.4000052
 195735841, 0.005154308, -0.01094684, -7.452738E-06, 0.02571673, -0.02730542, 0.4000067, 0.01157441, 0.02453307, 6.008054E-05, 0.02587032, -0.02656707, 0.400008
 195835801, 0.0005530545, 0.01649891, 2.676222E-05, 0.02561178, -0.02670946, 0.4000075, 0.005154308, -0.01094684, -7.452738E-06, 0.02571673, -0.02730542, 0.4000067
 195935761, 0.01303201, -0.01030706, 8.252662E-06, 0.02590832, -0.02728914, 0.4000069, 0.0005530545, 0.01649891, 2.676222E-05, 0.02561178, -0.02670946, 0.4000075
 196035721, -0.006486828, -0.001740696, -1.480991E-05, 0.0254629, -0.02708875, 0.4000063, 0.01303201, -0.01030706, 8.252662E-06, 0.02590832, -0.02728914, 0.4000069
 196135681, -0.005030674, -0.01208979, -2.826127E-05, 0.02549495, -0.02733386, 0.4000058, -0.006486828, -0.001740696, -1.480991E-05, 0.0254629, -0.02708875, 0.4000063
 196236474, 0.007115088, -0.0140973, -8.844861E-06, 0.02576943, -0.02738403, 0.4000061, -0.005030674, -0.01208979, -2.826127E-05, 0.02549495, -0.02733386, 0.4000058
 196336434, -0.0007870514, 0.01771595, 2.625894E-05, 0.02558764, -0.0266886, 0.4000069, 0.007115088, -0.0140973, -8.844861E-06, 0.02576943, -0.02738403, 0.4000061
 196436394, -0.01689952, 0.008477898, -1.819349E-05, 0.02525689, -0.02687006, 0.4000061, -0.0007870514, 0.01771595, 2.625894E-05, 0.02558764, -0.0266886, 0.4000069
 196536354, 0.01382098, -0.009368198, 1.116175E-05, 0.02592701, -0.02726931, 0.4000069, -0.01689952, 0.008477898, -1.819349E-05, 0.02525689, -0.02687006, 0.4000061
 196636314, 0.00811283, -0.00397821, 8.999614E-06, 0.02578401, -0.02714279, 0.400007, 0.01382098, -0.009368198, 1.116175E-05, 0.02592701, -0.02726931, 0.4000069
 196736274, 0.02261154, -0.00806545, 2.984636E-05, 0.02615129, -0.02723959, 0.4000075, 0.00811283, -0.00397821, 8.999614E-06, 0.02578401, -0.02714279, 0.400007
 196836234, 0.01257039, 0.01819866, 5.232766E-05, 0.02589135, -0.02668341, 0.4000079, 0.02261154, -0.00806545, 2.984636E-05, 0.02615129, -0.02723959, 0.4000075
 196936194, -0.01047011, -0.01144526, -3.77999E-05, 0.02537415, -0.02732417, 0.4000058, 0.01257039, 0.01819866, 5.232766E-05, 0.02589135, -0.02668341, 0.4000079
 197036154, -0.00746101, -0.02464069, -5.312983E-05, 0.02543536, -0.02766832, 0.4000052, -0.01047011, -0.01144526, -3.77999E-05, 0.02537415, -0.02732417, 0.4000058
 197136114, -0.02214549, 0.01611476, -1.617453E-05, 0.02515231, -0.02672721, 0.4000062, -0.00746101, -0.02464069, -5.312983E-05, 0.02543536, -0.02766832, 0.4000052
 197236074, 0.02486857, 0.01684708, 7.374157E-05, 0.02620992, -0.02671466, 0.4000082, -0.02214549, 0.01611476, -1.617453E-05, 0.02515231, -0.02672721, 0.4000062
 197336034, 0.004536418, -0.01086836, -8.814621E-06, 0.02569962, -0.02731612, 0.4000059, 0.02486857, 0.01684708, 7.374157E-05, 0.02620992, -0.02671466, 0.4000082
 197435994, -0.02313381, -0.02068001, -7.658605E-05, 0.02513828, -0.02756878, 0.4000042, 0.004536418, -0.01086836, -8.814621E-06, 0.02569962, -0.02731612, 0.4000059
 197535954, -0.006783534, -0.009343766, -2.774318E-05, 0.02545202, -0.02728269, 0.4000052, -0.02313381, -0.02068001, -7.658605E-05, 0.02513828, -0.02756878, 0.4000042
 197635914, -0.01337414, -0.004307829, -3.205827E-05, 0.02531866, -0.02716449, 0.4000051, -0.006783534, -0.009343766, -2.774318E-05, 0.02545202, -0.02728269, 0.4000052
 197735874, -0.01414913, -0.006630367, -3.731195E-05, 0.02530256, -0.02722009, 0.400005, -0.01337414, -0.004307829, -3.205827E-05, 0.02531866, -0.02716449, 0.4000051
 197835834, -0.01873022, -0.008295685, -4.869611E-05, 0.02521496, -0.02726095, 0.4000047, -0.01414913, -0.006630367, -3.731195E-05, 0.02530256, -0.02722009, 0.400005
 197935794, -0.01404767, 0.007768593, -1.400697E-05, 0.02530189, -0.02690201, 0.4000056, -0.01873022, -0.008295685, -4.869611E-05, 0.02521496, -0.02726095, 0.4000047
 198035754, -0.002640904, -0.02518791, -4.561056E-05, 0.02553462, -0.02769298, 0.4000049, -0.01404767, 0.007768593, -1.400697E-05, 0.02530189, -0.02690201, 0.4000056
 198135714, 0.006963532, -0.01598729, -1.271915E-05, 0.0257542, -0.02745201, 0.4000055, -0.002640904, -0.02518791, -4.561056E-05, 0.02553462, -0.02769298, 0.4000049
 198235674, -0.02104901, 0.01951163, -7.977938E-06, 0.02517288, -0.02667802, 0.4000053, 0.006963532, -0.01598729, -1.271915E-05, 0.0257542, -0.02745201, 0.4000055
 198336467, 0.02235784, 0.002317953, 4.580469E-05, 0.02614638, -0.02702539, 0.4000062, -0.02104901, 0.01951163, -7.977938E-06, 0.02517288, -0.02667802, 0.4000053
 198436427, 0.02100493, -0.02271394, 2.111174E-06, 0.02611288, -0.02763633, 0.4000048, 0.02235784, 0.002317953, 4.580469E-05, 0.02614638, -0.02702539, 0.4000062
 198536387, 0.008138929, 0.00698557, 2.662835E-05, 0.02578987, -0.02692622, 0.4000055, 0.02100493, -0.02271394, 2.111174E-06, 0.02611288, -0.02763633, 0.4000048
 198636347, -0.007101696, 0.005190012, -4.806801E-06, 0.0254507, -0.02696159, 0.4000048, 0.008138929, 0.00698557, 2.662835E-05, 0.02578987, -0.02692622, 0.4000055
 198736307, -0.01709114, 0.0220686, 3.978857E-06, 0.02525473, -0.02663099, 0.400005, -0.007101696, 0.005190012, -4.806801E-06, 0.0254507, -0.02696159, 0.4000048
 198836267, 0.00337957, -0.0003072675, 5.787726E-06, 0.02568223, -0.02707813, 0.4000051, -0.01709114, 0.0220686, 3.978857E-06, 0.02525473, -0.02663099, 0.400005
 198936227, -0.02299241, 0.01516455, -1.828055E-05, 0.02514884, -0.02675463, 0.4000048, 0.00337957, -0.0003072675, 5.787726E-06, 0.02568223, -0.02707813, 0.4000051
 199036187, -0.02044013, -0.02142447, -7.236825E-05, 0.02519434, -0.02758892, 0.4000037, -0.02299241, 0.01516455, -1.828055E-05, 0.02514884, -0.02675463, 0.4000048
 199136147, -0.005174753, 0.0114972, 8.796751E-06, 0.0254935, -0.02682218, 0.4000056, -0.02044013, -0.02142447, -7.236825E-05, 0.02519434, -0.02758892, 0.4000037
 199236107, 0.01904198, -0.004272745, 2.859425E-05, 0.02606573, -0.02716029, 0.4000062, -0.005174753, 0.0114972, 8.796751E-06, 0.0254935, -0.02682218, 0.4000056
 199336067, 0.0207851, -0.009656413, 2.322401E-05, 0.02611154, -0.02728772, 0.4000061, 0.01904198, -0.004272745, 2.859425E-05, 0.02606573, -0.02716029, 0.4000062
 199436027, -0.00160652, -0.01395404, -2.530674E-05, 0.02556967, -0.02739347, 0.400005, 0.0207851, -0.009656413, 2.322401E-05, 0.02611154, -0.02728772, 0.4000061
 199535987, -0.01522065, -0.003129303, -3.341178E-05, 0.0252878, -0.02713269, 0.4000051, -0.00160652, -0.01395404, -2.530674E-05, 0.02556967, -0.02739347, 0.400005
 199635947, 0.02233824, 0.01966314, 7.316945E-05, 0.02614737, -0.02666303, 0.4000077, -0.01522065, -0.003129303, -3.341178E-05, 0.0252878, -0.02713269, 0.4000051
 199735907, -0.0215705, 0.01333244, -1.910737E-05, 0.02516923, -0.02678217, 0.4000056, 0.02233824, 0.01966314, 7.316945E-05, 0.02614737, -0.02666303, 0.4000077
 199835867, -0.02333405, 0.0237432, -5.761725E-06, 0.02513916, -0.02658988, 0.4000058, -0.0215705, 0.01333244, -1.910737E-05, 0.02516923, -0.02678217, 0.4000056
 199935827, -0.01722711, 0.01821385, -3.290555E-06, 0.02524946, -0.02668683, 0.400006, -0.02333405, 0.0237432, -5.761725E-06, 0.02513916, -0.02658988, 0.4000058
 200035787, 0.01537252, 0.006310529, 3.869307E-05, 0.02596792, -0.02691955, 0.4000072, -0.01722711, 0.01821385, -3.290555E-06, 0.02524946, -0.02668683, 0.400006
 200135747, -0.024557, 0.007548512, -3.390482E-05, 0.02511793, -0.02689453, 0.4000055, 0.01537252, 0.006310529, 3.869307E-05, 0.02596792, -0.02691955, 0.4000072
 200235707, 0.0230478, 0.01609212, 6.847358E-05, 0.02616984, -0.02672593, 0.4000077, -0.024557, 0.007548512, -3.390482E-05, 0.02511793, -0.02689453, 0.4000055
 200335667, 0.00750185, -0.01375913, -7.855615E-06, 0.02577798, -0.02738292, 0.4000057, 0.0230478, 0.01609212, 6.847358E-05, 0.02616984, -0.02672593, 0.4000077
 200436460, -0.01435289, -0.005372555, -3.511849E-05, 0.02530966, -0.02717977, 0.400005, 0.00750185, -0.01375913, -7.855615E-06, 0.02577798, -0.02738292, 0.4000057
 200536420, -0.02457494, -0.002228803, -4.92353E-05, 0.02512015, -0.0271049, 0.4000051, -0.01435289, -0.005372555, -3.511849E-05, 0.02530966, -0.02717977, 0.400005
 200636380, -0.01235253, 0.004987153, -1.522487E-05, 0.02534352, -0.02694403, 0.4000061, -0.02457494, -0.002228803, -4.92353E-05, 0.02512015, -0.0271049, 0.4000051
 200736340, -0.01915337, 0.003695327, -2.996283E-05, 0.02521414, -0.02697023, 0.400006, -0.01235253, 0.004987153, -1.522487E-05, 0.02534352, -0.02694403, 0.4000061
 200836300, 0.01151174, -0.02299223, -1.447597E-05, 0.02587218, -0.02761444, 0.4000063, -0.01915337, 0.003695327, -2.996283E-05, 0.02521414, -0.02697023, 0.400006
 200936260, -0.005117025, 0.02446864, 2.855818E-05, 0.02548875, -0.02656394, 0.4000075, 0.01151174, -0.02299223, -1.447597E-05, 0.02587218, -0.02761444, 0.4000063
 201036220, -0.004117732, -0.0171013, -3.429588E-05, 0.02550732, -0.02745461, 0.4000065, -0.005117025, 0.02446864, 2.855818E-05, 0.02548875, -0.02656394, 0.4000075
 201136180, 0.02157428, 0.02111195, 7.343449E-05, 0.02612264, -0.02662039, 0.4000091, -0.004117732, -0.0171013, -3.429588E-05, 0.02550732, -0.02745461, 0.4000065
 201236140, -0.0215125, -0.01397544, -6.230935E-05, 0.02516291, -0.02737477, 0.4000062, 0.02157428, 0.02111195, 7.343449E-05, 0.02612264, -0.02662039, 0.4000091
 201336100, -0.0189506, -0.01954699, -6.617712E-05, 0.02520927, -0.02751879, 0.400006, -0.0215125, -0.01397544, -6.230935E-05, 0.02516291, -0.02737477, 0.4000062
 201436060, 0.004683281, 0.01879744, 3.813199E-05, 0.02570016, -0.02666434, 0.4000083, -0.0189506, -0.01954699, -6.617712E-05, 0.02520927, -0.02751879, 0.400006
 201536020, -0.01361102, -0.0227309, -6.11834E-05, 0.02530895, -0.02760473, 0.4000061, 0.004683281, 0.01879744, 3.813199E-05, 0.02570016, -0.02666434, 0.4000083
 201635980, -0.02520641, -0.01304901, -6.812662E-05, 0.02509567, -0.02735435, 0.4000061, -0.01361102, -0.0227309, -6.11834E-05, 0.02530895, -0.02760473, 0.4000061
 201735940, -0.01694254, -0.02314051, -6.823946E-05, 0.02524284, -0.02761574, 0.4000061, -0.02520641, -0.01304901, -6.812662E-05, 0.02509567, -0.02735435, 0.4000061
 201835900, 0.01355353, 0.02243806, 6.074507E-05, 0.02590934, -0.02659868, 0.400009, -0.01694254, -0.02314051, -6.823946E-05, 0.02524284, -0.02761574, 0.4000061
 201935860, -0.02545991, 0.02285239, -1.270974E-05, 0.02508952, -0.02659263, 0.4000073, 0.01355353, 0.02243806, 6.074507E-05, 0.02590934, -0.02659868, 0.400009
 202035820, 0.02462573, 0.02370496, 8.395231E-05, 0.02619909, -0.02657977, 0.4000093, -0.02545991, 0.02285239, -1.270974E-05, 0.02508952, -0.02659263, 0.4000073
 202135780, 0.01462277, 0.01022974, 4.393252E-05, 0.02593622, -0.02683592, 0.4000083, 0.02462573, 0.02370496, 8.395231E-05, 0.02619909, -0.02657977, 0.4000093
 202235740, -0.00846323, 0.008905718, -2.029135E-06, 0.0254072, -0.02686614, 0.4000071, 0.01462277, 0.01022974, 4.393252E-05, 0.02593622, -0.02683592, 0.4000083
 202335700, 0.01396081, -0.007428417, 1.48645E-05, 0.02591754, -0.0272276, 0.4000075, -0.00846323, 0.008905718, -2.029135E-06, 0.0254072, -0.02686614, 0.4000071
 202435660, -0.007437942, 0.01036716, 2.246304E-06, 0.02542678, -0.02683782, 0.4000072, 0.01396081, -0.007428417, 1.48645E-05, 0.02591754, -0.0272276, 0.4000075
 202536453, 0.01279258, 0.02126711, 5.814754E-05, 0.02588841, -0.02663009, 0.4000084, -0.007437942, 0.01036716, 2.246304E-06, 0.02542678, -0.02683782, 0.4000072
 202636413, 0.02056731, 0.009055033, 5.3629E-05, 0.0260878, -0.02686454, 0.4000083, 0.01279258, 0.02126711, 5.814754E-05, 0.02588841, -0.02663009, 0.4000084
 202736373, -0.0176532, -0.01184829, -5.249833E-05, 0.02522746, -0.02733627, 0.4000058, 0.02056731, 0.009055033, 5.3629E-05, 0.0260878, -0.02686454, 0.4000083
 202836333, -0.01075166, -0.006795368, -3.131352E-05, 0.02536165, -0.02721547, 0.4000062, -0.0176532, -0.01184829, -5.249833E-05, 0.02522746, -0.02733627, 0.4000058
 202936293, -0.02084349, 0.01434272, -1.669938E-05, 0.02517044, -0.02676488, 0.4000063, -0.01075166, -0.006795368, -3.131352E-05, 0.02536165, -0.02721547, 0.4000062
 203036253, -0.01989864, 0.01935477, -6.677285E-06, 0.0251885, -0.02667357, 0.4000062, -0.02084349, 0.01434272, -1.669938E-05, 0.02517044, -0.02676488, 0.4000063
 203136213, 0.01525582, 0.02545181, 7.001047E-05, 0.02595263, -0.02656575, 0.4000079, -0.01989864, 0.01935477, -6.677285E-06, 0.0251885, -0.02667357, 0.4000062
 203236173, 0.01635173, 0.00929633, 4.612398E-05, 0.02597987, -0.02686773, 0.4000075, 0.01525582, 0.02545181, 7.001047E-05, 0.02595263, -0.02656575, 0.4000079
 203336133, -0.005919766, 0.02398226, 2.733679E-05, 0.02546017, -0.02659116, 0.400007, 0.01635173, 0.00929633, 4.612398E-05, 0.02597987, -0.02686773, 0.4000075
 203436093, 0.01583302, 0.02527288, 7.101436E-05, 0.02596463, -0.02656973, 0.400008, -0.005919766, 0.02398226, 2.733679E-05, 0.02546017, -0.02659116, 0.400007
 203536053, -0.0197524, 0.0244506, 1.863758E-06, 0.02518778, -0.02658648, 0.4000063, 0.01583302, 0.02527288, 7.101436E-05, 0.02596463, -0.02656973, 0.400008
 203636013, -0.007966609, -0.007819874, -2.795642E-05, 0.02541622, -0.02725228, 0.4000055, -0.0197524, 0.0244506, 1.863758E-06, 0.02518778, -0.02658648, 0.4000063
 203735973, -0.02295566, -0.01509292, -6.843769E-05, 0.02512997, -0.0274311, 0.4000047, -0.007966609, -0.007819874, -2.795642E-05, 0.02541622, -0.02725228, 0.4000055
 203835933, 0.02095151, -0.01530944, 1.515287E-05, 0.02609752, -0.02743644, 0.4000065, -0.02295566, -0.01509292, -6.843769E-05, 0.02512997, -0.0274311, 0.4000047
 203935893, 0.005156211, 0.00246995, 1.383769E-05, 0.02570581, -0.02701538, 0.4000065, 0.02095151, -0.01530944, 1.515287E-05, 0.02609752, -0.02743644, 0.4000065
 204035853, -0.02147775, 0.01995555, -8.684852E-06, 0.02515938, -0.02666388, 0.4000061, 0.005156211, 0.00246995, 1.383769E-05, 0.02570581, -0.02701538, 0.4000065
 204135813, 0.0001695132, 0.0209238, 3.401859E-05, 0.02559618, -0.02664523, 0.4000069, -0.02147775, 0.01995555, -8.684852E-06, 0.02515938, -0.02666388, 0.4000061
 204235773, -0.0006209483, -0.02311668, -3.833051E-05, 0.02558075, -0.02763326, 0.4000052, 0.0001695132, 0.0209238, 3.401859E-05, 0.02559618, -0.02664523, 0.4000069
 204335733, 0.01225947, 0.009804106, 3.88527E-05, 0.02588429, -0.02685514, 0.400007, -0.0006209483, -0.02311668, -3.833051E-05, 0.02558075, -0.02763326, 0.4000052
 204435693, -0.02413652, -0.01130415, -6.352417E-05, 0.02512044, -0.02732619, 0.4000048, 0.01225947, 0.009804106, 3.88527E-05, 0.02588429, -0.02685514, 0.400007
 204536486, -0.01009648, -0.00602963, -2.860263E-05, 0.02538522, -0.02719838, 0.4000055, -0.02413652, -0.01130415, -6.352417E-05, 0.02512044, -0.02732619, 0.4000048
 204636446, 0.0009862565, -0.00821753, -1.122941E-05, 0.02562445, -0.02724816, 0.4000058, -0.01009648, -0.00602963, -2.860263E-05, 0.02538522, -0.02719838, 0.4000055
 204736406, -0.01600964, -0.005271762, -3.834186E-05, 0.02527345, -0.02718096, 0.4000051, 0.0009862565, -0.00821753, -1.122941E-05, 0.02562445, -0.02724816, 0.4000058
 204836366, -0.006917791, -0.006693828, -2.363313E-05, 0.02545559, -0.02721636, 0.4000051, -0.01600964, -0.005271762, -3.834186E-05, 0.02527345, -0.02718096, 0.4000051
 204936326, -0.01035637, 0.002301249, -1.558771E-05, 0.02538712, -0.02701279, 0.4000052, -0.006917791, -0.006693828, -2.363313E-05, 0.02545559, -0.02721636, 0.4000051
 205036286, -0.003189465, 0.01766537, 2.242432E-05, 0.02553768, -0.02670309, 0.4000058, -0.01035637, 0.002301249, -1.558771E-05, 0.02538712, -0.02701279, 0.4000052
 205136246, 0.02518388, -0.02397074, 8.37231E-06, 0.026233, -0.0276542, 0.4000056, -0.003189465, 0.01766537, 2.242432E-05, 0.02553768, -0.02670309, 0.4000058
 205236206, -0.02200164, 0.01179959, -2.196706E-05, 0.02516893, -0.026813, 0.400005, 0.02518388, -0.02397074, 8.37231E-06, 0.026233, -0.0276542, 0.4000056
 205336166, -0.02405318, 0.01326137, -2.341687E-05, 0.02513367, -0.02678344, 0.400005, -0.02200164, 0.01179959, -2.196706E-05, 0.02516893, -0.026813, 0.400005
 205436126, 0.02548902, 0.02254303, 8.313562E-05, 0.0262429, -0.02661047, 0.4000074, -0.02405318, 0.01326137, -2.341687E-05, 0.02513367, -0.02678344, 0.400005
 205536086, -0.01938155, 0.0002974221, -3.540659E-05, 0.02521764, -0.02705267, 0.4000048, 0.02548902, 0.02254303, 8.313562E-05, 0.0262429, -0.02661047, 0.4000074
 205636046, 0.009291233, -0.006445364, 6.941998E-06, 0.02582587, -0.02720633, 0.4000057, -0.01938155, 0.0002974221, -3.540659E-05, 0.02521764, -0.02705267, 0.4000048
 205736006, -0.0148962, 0.005183795, -1.929184E-05, 0.02530237, -0.02694741, 0.400005, 0.009291233, -0.006445364, 6.941998E-06, 0.02582587, -0.02720633, 0.4000057
 205835966, 0.01000303, 0.02366162, 5.627656E-05, 0.02584367, -0.02659169, 0.4000065, -0.0148962, 0.005183795, -1.929184E-05, 0.02530237, -0.02694741, 0.400005
 205935926, 0.02203608, -0.01092454, 2.334619E-05, 0.02615071, -0.02731459, 0.400006, 0.01000303, 0.02366162, 5.627656E-05, 0.02584367, -0.02659169, 0.4000065
 206035886, 0.003368504, -0.02309843, -3.051304E-05, 0.02568691, -0.02762645, 0.4000047, 0.02203608, -0.01092454, 2.334619E-05, 0.02615071, -0.02731459, 0.400006
 206135846, 0.0105142, 0.01026919, 3.581111E-05, 0.02585659, -0.02684247, 0.4000062, 0.003368504, -0.02309843, -3.051304E-05, 0.02568691, -0.02762645, 0.4000047
 206235806, 0.008054192, 0.006567227, 2.538119E-05, 0.0257977, -0.02692015, 0.4000058, 0.0105142, 0.01026919, 3.581111E-05, 0.02585659, -0.02684247, 0.4000062
 206335766, -0.01497908, -0.01601725, -5.326082E-05, 0.02530293, -0.0274446, 0.4000039, 0.008054192, 0.006567227, 2.538119E-05, 0.0257977, -0.02692015, 0.4000058
 206435726, 0.003997717, 0.008273178, 2.061372E-05, 0.02570476, -0.02688574, 0.4000055, -0.01497908, -0.01601725, -5.326082E-05, 0.02530293, -0.0274446, 0.4000039
 206535686, 0.004918768, -0.0002864843, 8.639679E-06, 0.025723, -0.02706973, 0.4000054, 0.003997717, 0.008273178, 2.061372E-05, 0.02570476, -0.02688574, 0.4000055
 206636479, 0.0007731045, -0.003636355, -4.402636E-06, 0.02562509, -0.02714654, 0.4000053, 0.004918768, -0.0002864843, 8.639679E-06, 0.025723, -0.02706973, 0.4000054
 206736439, 0.01782282, 0.006706048, 4.384213E-05, 0.02603724, -0.0269192, 0.4000064, 0.0007731045, -0.003636355, -4.402636E-06, 0.02562509, -0.02714654, 0.4000053
 206836399, -0.006384432, 0.006115703, -2.041033E-06, 0.02547127, -0.02693108, 0.4000053, 0.01782282, 0.006706048, 4.384213E-05, 0.02603724, -0.0269192, 0.4000064
 206936359, -0.006123149, -0.003909586, -1.763101E-05, 0.02547615, -0.02715098, 0.400005, -0.006384432, 0.006115703, -2.041033E-06, 0.02547127, -0.02693108, 0.4000053
 207036319, -0.003342098, 0.01370832, 1.571012E-05, 0.02553549, -0.0267757, 0.4000058, -0.006123149, -0.003909586, -1.763101E-05, 0.02547615, -0.02715098, 0.400005
 207136279, 0.0206129, 0.01816908, 6.739239E-05, 0.02610959, -0.02669211, 0.400007, -0.003342098, 0.01370832, 1.571012E-05, 0.02553549, -0.0267757, 0.4000058
 207236239, 0.02272354, 0.01267706, 6.256561E-05, 0.02616564, -0.02679786, 0.4000068, 0.0206129, 0.01816908, 6.739239E-05, 0.02610959, -0.02669211, 0.400007
 207336199, -0.0008397132, -0.001895247, -4.60598E-06, 0.02558888, -0.02710675, 0.4000052, 0.02272354, 0.01267706, 6.256561E-05, 0.02616564, -0.02679786, 0.4000068
