TimeUS,CAN,CAE,CAD,CAe
 170460955, 0, 0, 0, 0
 170535925, 0.2425024, 3.413579, 0.1273592, 0.4425346
 170635885, -9.263151E-05, 0.003620258, -0.0001544251, 0.0002593961
 170735845, -0.0001497164, 0.003538242, -8.240265E-05, 0.0002593961
 170835805, 7.687245E-05, 0.003601767, 9.762884E-06, 0.0002593961
 170935765, -0.0001856864, 0.003602775, -4.700687E-05, 0.0002593961
 171035725, 0.0001069367, 0.003614095, -0.0001014137, 0.0002593961
 171135685, 0.0001390757, 0.003418711, -0.0001199183, 0.0002593961
 171236478, 0.0002040766, 0.003706164, -0.0001200732, 0.0002615578
 171336438, -0.0001285706, 0.003629205, -0.0002045409, 0.0002593961
 171436398, -3.30723E-05, 0.003612427, -3.257998E-05, 0.0002593961
 171536358, -0.0001047837, 0.00346622, -0.0001377985, 0.0002593961
 171636318, 0.0001529906, 0.00379773, -0.0002217073, 0.0002593961
 171736278, -0.0001046431, 0.003690108, -0.0001720789, 0.0002593961
 171836238, 4.075003E-05, 0.003692125, -4.066389E-05, 0.0002593961
 171936198, -0.0001448915, 0.003671584, 6.701531E-05, 0.0002593961
 172036158, 0.0001356227, 0.003923869, -0.0001325851, 0.0002593961
 172136118, 1.225224E-05, 0.003635987, -9.641486E-05, 0.0002593961
 172236078, 7.785621E-05, 0.003493912, -0.0001279045, 0.0002593961
 172336038, 0.0001559101, 0.003568087, -3.835693E-05, 0.0002593961
 172435998, 2.146856E-05, 0.003553822, -3.714386E-05, 0.0002593961
 172535958, 0.0002564813, 0.003667272, -5.38134E-05, 0.0002593961
 172635918, -5.150785E-05, 0.003541525, 1.081034E-05, 0.0002593961
 172735878, 0.0001082412, 0.003545395, 0.0002011841, 0.0002593961
 172835838, 8.171846E-05, 0.003672965, -3.988328E-06, 0.0002593961
 172935798, -0.0001029774, 0.003574412, -0.0001050791, 0.0002593961
 173035758, -0.000301838, 0.003527911, -0.0002524617, 0.0002593961
 173135718, -5.052646E-05, 0.003817395, -0.0001702545, 0.0002593961
 173235678, 4.567348E-05, 0.00347958, -7.50754E-05, 0.0002593961
 173336471, -4.206625E-05, 0.003569951, -9.18748E-05, 0.0002615578
 173436431, -0.0001083655, 0.003904629, -0.0001546408, 0.0002593961
 173536391, -0.0001375274, 0.003787099, -0.0001429844, 0.0002593961
 173636351, 0.0001322206, 0.003674729, -0.0001404689, 0.0002593961
 173736311, 3.863088E-05, 0.003528383, -3.926614E-05, 0.0002593961
 173836271, 5.316948E-05, 0.003612202, -0.000144456, 0.0002593961
 173936231, 4.444999E-05, 0.003606311, -0.0001424696, 0.0002593961
 174036191, -0.0001297353, 0.003582649, -0.0001489639, 0.0002593961
 174136151, -0.0001887239, 0.003550002, -0.0001679535, 0.0002593961
 174236111, -1.778492E-05, 0.003477066, -2.864525E-05, 0.0002593961
 174336071, -9.551411E-05, 0.003585568, 5.135984E-05, 0.0002593961
 174436031, -0.0001182767, 0.003645723, 0.0001455571, 0.0002593961
 174535991, -0.0002269151, 0.003594557, -6.721071E-05, 0.0002593961
 174635951, 0.0001473488, 0.00362482, -8.883378E-05, 0.0002593961
 174735911, -0.0001648438, 0.00379057, 5.959153E-05, 0.0002593961
 174835871, 0.000145749, 0.003492614, -5.30853E-05, 0.0002593961
 174935831, -2.454337E-05, 0.00350854, -2.887291E-06, 0.0002593961
 175035791, -9.069071E-05, 0.003592402, -0.000273694, 0.0002593961
 175135751, -4.557797E-05, 0.003530688, 2.738214E-05, 0.0002593961
 175235711, -0.0002059078, 0.003624697, -0.0001537482, 0.0002593961
 175335671, -2.929137E-05, 0.003715797, 4.067105E-05, 0.0002593961
 175436464, -5.420844E-05, 0.003537954, -7.943391E-05, 0.0002615578
 175536424, 1.153038E-05, 0.003825363, -7.313187E-05, 0.0002593961
 175636384, 9.235588E-06, 0.003661159, -3.383355E-05, 0.0002593961
 175736344, 2.45399E-05, 0.003402837, -3.828902E-05, 0.0002593961
 175836304, 0.0001189568, 0.003700831, -6.167447E-05, 0.0002593961
 175936264, 6.137758E-05, 0.003813051, -0.0001953941, 0.0002593961
 176036224, -8.837311E-05, 0.003597473, -0.0001438662, 0.0002593961
 176136184, -3.45291E-05, 0.003350107, -1.197097E-05, 0.0002593961
 176236144, -0.0001096101, 0.003662698, 0.0001076577, 0.0002593961
 176336104, 3.03456E-05, 0.003341335, -0.0002548521, 0.0002593961
 176436064, 2.878798E-05, 0.003573546, -0.0002427226, 0.0002593961
 176536024, -5.573868E-05, 0.003737734, 2.926729E-05, 0.0002593961
 176635984, 0.0001304758, 0.003750387, -4.593679E-05, 0.0002593961
 176735944, 0.0002042467, 0.003485118, -4.715463E-05, 0.0002593961
 176835904, -5.055839E-05, 0.003580766, -7.310088E-05, 0.0002593961
 176935864, 5.785423E-06, 0.003693382, 4.880264E-05, 0.0002593961
 177035824, -5.198937E-05, 0.003741039, -8.479302E-05, 0.0002593961
 177135784, 0.0002252959, 0.003523117, -8.296388E-05, 0.0002593961
 177235744, 0.0001926212, 0.003740359, -4.417677E-05, 0.0002593961
 177335704, 7.624309E-05, 0.003615578, -0.0001278771, 0.0002593961
 177435664, 5.084984E-05, 0.003622017, -0.0002035483, 0.0002593961
 177536457, 6.235302E-05, 0.003563717, -9.330274E-05, 0.0002615578
 177636417, 0.0001057475, 0.00341353, 0.0001680286, 0.0002593961
 177736377, 7.956536E-05, 0.003667885, -0.0001876915, 0.0002593961
 177836337, 0.0003170666, 0.003548159, 0.0001186504, 0.0002593961
 177936297, 7.530962E-05, 0.003560687, -0.0003439087, 0.0002593961
 178036257, -0.0001043501, 0.003415324, -1.31459E-05, 0.0002593961
 178136217, 0.0001218542, 0.003721146, 7.199029E-05, 0.0002593961
 178236177, 2.337747E-05, 0.003508813, -8.052941E-05, 0.0002593961
 178336137, 8.554E-05, 0.00360097, -7.124077E-05, 0.0002593961
 178436097, -0.0002234262, 0.00355999, -5.774452E-05, 0.0002593961
 178536057, 4.153754E-05, 0.003446099, -1.916357E-05, 0.0002593961
 178636017, -0.0002121626, 0.003698344, -3.9651E-05, 0.0002593961
 178735977, 4.264978E-05, 0.003577803, -0.0001490902, 0.0002593961
 178835937, 0.0001881229, 0.003627419, -7.881587E-05, 0.0002593961
 178935897, 0.0001649878, 0.003645276, -6.070092E-05, 0.0002593961
 179035857, 9.297176E-05, 0.003526098, -7.721076E-05, 0.0002593961
 179135817, -0.0001445209, 0.00340166, -7.694621E-05, 0.0002593961
 179235777, 2.458594E-05, 0.003312253, -0.0001975854, 0.0002593961
 179335737, -7.855031E-05, 0.003342981, -0.0001829203, 0.0002593961
 179435697, -0.0001165624, 0.003447404, -0.0001588365, 0.0002593961
 179535657, -5.972436E-05, 0.00364838, -5.695806E-05, 0.0002593961
 179636450, 0.0001927442, 0.00365509, -0.0001348004, 0.0002615578
 179736410, 2.375948E-05, 0.003458079, -0.0001487733, 0.0002593961
 179836370, -8.272578E-05, 0.003658917, 6.898741E-05, 0.0002593961
 179936330, -0.000137675, 0.003590927, 0.0001117855, 0.0002593961
 180036290, -9.082987E-05, 0.003395551, -7.238592E-05, 0.0002593961
 180136250, 0.0001454272, 0.003689073, -5.211771E-05, 0.0002593961
 180236210, -0.0001140487, 0.003592576, -0.000119052, 0.0002593961
 180336170, -0.0001240623, 0.003537982, -0.0003260941, 0.0002593961
 180436130, 7.82141E-05, 0.003615103, -5.286367E-05, 0.0002593961
 180536090, -3.782362E-06, 0.0036263, -0.000146147, 0.0002593961
 180636050, -6.296852E-05, 0.003630346, -3.829734E-05, 0.0002593961
 180736010, -1.343753E-05, 0.003468488, -0.0001682693, 0.0002593961
 180835970, -3.391233E-05, 0.003385615, -9.187836E-05, 0.0002593961
 180935930, -3.463813E-05, 0.003442875, 5.246689E-06, 0.0002593961
 181035890, -5.898835E-05, 0.003539295, -0.000211662, 0.0002593961
 181135850, -0.0001664186, 0.003415753, -9.160191E-05, 0.0002593961
 181235810, 8.052254E-05, 0.003683667, -0.0001268428, 0.0002593961
 181335770, -7.510616E-05, 0.00342101, 6.383965E-05, 0.0002593961
 181435730, -0.0001679235, 0.003461887, -0.0001674971, 0.0002593961
 181535690, 5.380828E-05, 0.003482622, -1.25775E-05, 0.0002593961
 181636483, 0.0001944985, 0.003426432, 0.000145451, 0.0002615578
 181736443, -2.624057E-05, 0.003620144, 8.708449E-05, 0.0002593961
 181836403, 6.368825E-05, 0.003707492, -0.0002026594, 0.0002593961
 181936363, 6.49209E-05, 0.003586991, -0.0002806863, 0.0002593961
 182036323, 0.0002263222, 0.003788913, 2.025747E-05, 0.0002593961
 182136283, 0.0001547734, 0.003688384, -8.032444E-05, 0.0002593961
 182236243, 0.0001454815, 0.003524106, 0.0001008, 0.0002593961
 182336203, -0.0001252598, 0.003632776, 2.681852E-05, 0.0002593961
 182436163, -0.0002721902, 0.00346492, -7.421387E-05, 0.0002593961
 182536123, -2.343885E-05, 0.003667617, -5.973573E-06, 0.0002593961
 182636083, 0.0001839771, 0.003548468, -4.991203E-05, 0.0002593961
 182736043, -0.000237794, 0.003651617, 0.0001066055, 0.0002593961
 182836003, 0.0001461801, 0.003735566, 0.0001051792, 0.0002593961
 182935963, 9.714743E-05, 0.003730217, 9.820345E-05, 0.0002593961
 183035923, 2.099557E-05, 0.003559018, -0.0001021358, 0.0002593961
 183135883, 5.442633E-05, 0.003491439, -0.0001047704, 0.0002593961
 183235843, 3.25774E-05, 0.003699519, 0.0001168296, 0.0002593961
 183335803, -0.0001724122, 0.003620533, 5.535414E-05, 0.0002593961
 183435763, -0.0001007065, 0.003342239, -6.719166E-05, 0.0002593961
 183535723, -7.551056E-05, 0.003772472, -1.962353E-05, 0.0002593961
 183635683, 0.0001118479, 0.003570465, -2.595578E-05, 0.0002593961
 183736476, -0.0001334096, 0.003731466, 5.233577E-05, 0.0002615578
 183836436, -5.634232E-05, 0.00351379, -0.0002690109, 0.0002593961
 183936396, -0.0002151361, 0.003519709, -0.0002494851, 0.0002593961
 184036356, 3.42304E-05, 0.003466904, 5.145402E-06, 0.0002593961
 184136316, -0.0001358036, 0.003559042, -8.048413E-05, 0.0002593961
 184236276, 0.0001050521, 0.003650323, -0.0001413948, 0.0002593961
 184336236, 2.210274E-05, 0.003600679, -0.000128231, 0.0002593961
 184436196, -1.967493E-05, 0.00361845, -4.145628E-06, 0.0002593961
 184536156, 2.424585E-05, 0.003777396, -5.177811E-05, 0.0002593961
 184636116, -2.779052E-05, 0.003552557, 6.565208E-05, 0.0002593961
 184736076, -2.312665E-05, 0.003493214, -0.0001282846, 0.0002593961
 184836036, -9.803523E-05, 0.003476972, -3.835811E-06, 0.0002593961
 184935996, 8.388273E-05, 0.003454834, 0.0002536844, 0.0002593961
 185035956, 6.080591E-05, 0.003741805, -0.0002007218, 0.0002593961
 185135916, 2.922589E-05, 0.003770202, -0.0002951311, 0.0002593961
 185235876, -0.0001747467, 0.003708546, -0.0001107297, 0.0002593961
 185335836, -4.151352E-05, 0.003734161, 9.807952E-05, 0.0002593961
 185435796, -2.636563E-05, 0.003526501, 1.757158E-05, 0.0002593961
 185535756, -4.59502E-05, 0.003415202, -2.458306E-06, 0.0002593961
 185635716, 3.336425E-05, 0.003583986, -0.0004077162, 0.0002593961
 185735676, -7.031418E-06, 0.00379192, -0.0001258382, 0.0002593961
 185836469, 4.122274E-05, 0.003424831, -0.0001653129, 0.0002615578
 185936429, 0.0001883105, 0.003612447, -0.0001838985, 0.0002593961
 186036389, -9.63303E-05, 0.003502496, -0.0002657233, 0.0002593961
 186136349, 0.0001633091, 0.003459694, -3.236426E-06, 0.0002593961
 186236309, 9.876963E-05, 0.003540324, 1.847004E-05, 0.0002593961
 186336269, -1.135301E-05, 0.003760329, -6.640877E-05, 0.0002593961
 186436229, -0.0001181547, 0.00378977, -0.0002030693, 0.0002593961
 186536189, -0.0001142295, 0.003718343, -0.0002636617, 0.0002593961
 186636149, 0.0001533155, 0.003724278, -0.0001629667, 0.0002593961
 186736109, 0.000381217, 0.003817523, -7.368596E-05, 0.0002593961
 186836069, -0.0001221902, 0.003869379, 0.0001705929, 0.0002593961
 186936029, -7.398266E-05, 0.003527273, -0.0001049218, 0.0002593961
 187035989, 5.426066E-05, 0.003549288, -0.0001583443, 0.0002593961
 187135949, 7.255455E-05, 0.003666113, -6.41721E-05, 0.0002593961
 187235909, 6.300526E-06, 0.003620564, 3.377397E-05, 0.0002593961
 187335869, -1.58435E-05, 0.003699183, -7.546266E-05, 0.0002593961
 187435829, -1.436041E-05, 0.003767794, -8.707494E-05, 0.0002593961
 187535789, -5.250898E-05, 0.003606106, -0.000106279, 0.0002593961
 187635749, -0.0001030214, 0.003620123, -0.000161402, 0.0002593961
 187735709, -5.447259E-05, 0.003490885, 4.138601E-05, 0.0002593961
 187835669, 3.957397E-05, 0.003953384, -0.0001132107, 0.0002593961
 187936462, -3.202906E-05, 0.003530156, -3.435469E-05, 0.0002615578
 188036422, 0.0001815369, 0.003575866, 3.816627E-05, 0.0002593961
 188136382, 0.0001020893, 0.003742047, -3.661836E-05, 0.0002593961
 188236342, 0.0002000184, 0.003532804, 2.951157E-05, 0.0002593961
 188336302, -5.370758E-05, 0.003609848, 5.727263E-05, 0.0002593961
 188436262, 0.0001869558, 0.003747903, 6.683536E-05, 0.0002593961
 188536222, -6.662677E-05, 0.003558246, 5.758484E-05, 0.0002593961
 188636182, 4.676213E-06, 0.003530269, -0.0001409396, 0.0002593961
 188736142, -2.387539E-05, 0.00376505, -1.075315E-05, 0.0002593961
 188836102, -6.015449E-05, 0.00367294, 0.0001521384, 0.0002593961
 188936062, 0.0001028397, 0.003675597, -0.0002321399, 0.0002593961
 189036022, 4.128784E-05, 0.003481669, -3.816032E-05, 0.0002593961
 189135982, 0.0001505537, 0.00355707, 0.0001395966, 0.0002593961
 189235942, 1.449904E-05, 0.003590513, -0.0001443833, 0.0002593961
 189335902, 0.0001012674, 0.003542657, -0.0001626115, 0.0002593961
 189435862, 5.086343E-05, 0.003569662, 2.780038E-05, 0.0002593961
 189535822, 0.0001011169, 0.003614911, -6.201051E-05, 0.0002593961
 189635782, -6.660369E-05, 0.003531096, -0.0001653272, 0.0002593961
 189735742, 3.764011E-05, 0.003672698, -0.0003452482, 0.0002593961
 189835702, 0.0001594602, 0.003591033, -0.0002241716, 0.0002593961
 189935662, 1.524259E-06, 0.003396704, -0.0002557458, 0.0002593961
 190036455, -0.0001262154, 0.003528512, -8.373447E-05, 0.0002615578
 190136415, 0.0001149372, 0.003633142, -0.0001155808, 0.0002593961
 190236375, 0.0001015326, 0.003454494, 1.400983E-05, 0.0002593961
 190336335, -1.63393E-05, 0.003624342, -2.15623E-05, 0.0002593961
 190436295, 0.0001299095, 0.003562807, -0.0001164471, 0.0002593961
 190536255, -5.64427E-05, 0.003729079, -0.0001122657, 0.0002593961
 190636215, 5.62229E-05, 0.003634457, 5.271591E-05, 0.0002593961
 190736175, -7.09634E-05, 0.003684034, -0.0001311492, 0.0002593961
 190836135, 8.104724E-05, 0.003682171, -4.820682E-05, 0.0002593961
 190936095, -0.0001236519, 0.003268386, -8.730972E-06, 0.0002593961
 191036055, -5.594085E-05, 0.003572632, -0.0002033958, 0.0002593961
 191136015, -0.0001407586, 0.003545673, -1.72558E-05, 0.0002593961
 191235975, 0.0002397957, 0.00352791, 4.276471E-05, 0.0002593961
 191335935, 9.462467E-05, 0.003595304, 6.936039E-05, 0.0002593961
 191435895, -0.0001771758, 0.00346873, -0.000274602, 0.0002593961
 191535855, -2.541449E-05, 0.003560838, -0.0001802915, 0.0002593961
 191635815, -9.570794E-05, 0.00358092, -5.497402E-05, 0.0002593961
 191735775, 5.431461E-05, 0.003529255, 0.0001127745, 0.0002593961
 191835735, -6.2737E-05, 0.003577853, -1.407298E-05, 0.0002593961
 191935695, 9.879546E-05, 0.003548334, 9.457736E-05, 0.0002593961
 192035655, -3.249944E-05, 0.003706925, -3.589744E-05, 0.0002593961
 192136448, -9.091639E-05, 0.003619784, 1.248218E-05, 0.0002615578
 192236408, -5.534415E-05, 0.003540542, -0.0001846743, 0.0002593961
 192336368, 2.907594E-05, 0.00368629, -7.973342E-05, 0.0002593961
 192436328, 0.0001759954, 0.003678075, 5.185793E-05, 0.0002593961
 192536288, 2.826858E-05, 0.003600407, 0.000231301, 0.0002593961
 192636248, -2.881798E-05, 0.003877368, -8.665313E-05, 0.0002593961
 192736208, -0.0002185215, 0.003601053, -0.0001828284, 0.0002593961
 192836168, -9.290123E-05, 0.003592924, 4.913034E-05, 0.0002593961
 192936128, 0.0001027785, 0.003781883, -2.044931E-05, 0.0002593961
 193036088, 5.64583E-05, 0.00364842, 8.682472E-05, 0.0002593961
 193136048, -0.000187157, 0.003460854, -5.778147E-05, 0.0002593961
 193236008, 0.0001152571, 0.003535098, -9.110144E-05, 0.0002593961
 193335968, 4.470524E-05, 0.003781386, -0.0002102332, 0.0002593961
 193435928, 9.685231E-05, 0.003642463, -0.0001941977, 0.0002593961
 193535888, -9.885226E-06, 0.003576777, -0.0001426936, 0.0002593961
 193635848, -1.522154E-05, 0.00364086, -1.095334E-05, 0.0002593961
 193735808, -1.792764E-05, 0.003739081, -9.431403E-05, 0.0002593961
 193835768, -2.309033E-05, 0.003400086, 6.754557E-05, 0.0002593961
 193935728, 9.682747E-05, 0.003352209, -0.0001579201, 0.0002593961
 194035688, 1.407512E-05, 0.003573127, -0.0002145207, 0.0002593961
 194136481, -0.0002234272, 0.003706317, 5.08677E-05, 0.0002615578
 194236441, 0.0002007391, 0.00339203, -4.911484E-05, 0.0002593961
 194336401, 0.0001391896, 0.003566539, 0.0001584313, 0.0002593961
 194436361, 3.705522E-05, 0.003619158, -0.0001070631, 0.0002593961
 194536321, 3.045165E-05, 0.003749493, 5.395161E-05, 0.0002593961
 194636281, -1.1935E-05, 0.003598548, -8.435691E-05, 0.0002593961
 194736241, 0.0001580372, 0.003663665, -0.000107031, 0.0002593961
 194836201, -9.081593E-05, 0.003459156, -0.0001352186, 0.0002593961
 194936161, -0.0001549836, 0.003573231, 5.4265E-05, 0.0002593961
 195036121, 8.934675E-05, 0.003607358, -9.249441E-05, 0.0002593961
 195136081, -3.331344E-06, 0.003471399, -0.0003289171, 0.0002593961
 195236041, -0.0002164435, 0.0035196, -4.545063E-05, 0.0002593961
 195336001, 0.0001529779, 0.003473972, -7.439138E-05, 0.0002593961
 195435961, 3.75545E-05, 0.003599299, -0.000125874, 0.0002593961
 195535921, 7.790213E-05, 0.003595718, -0.0001365568, 0.0002593961
 195635881, 6.052838E-05, 0.003602679, -9.020505E-07, 0.0002593961
 195735841, 0.0002207255, 0.003345807, -0.0002265488, 0.0002593961
 195835801, 1.842508E-05, 0.003540658, 0.0001706227, 0.0002593961
 195935761, 0.0001857265, 0.003557546, -5.48334E-05, 0.0002593961
 196035721, 0.0001290128, 0.003581049, 7.712616E-05, 0.0002593961
 196135681, -2.250359E-05, 0.003442938, 2.12191E-05, 0.0002593961
 196236474, -0.000253934, 0.003526689, -8.660625E-05, 0.0002615578
 196336434, 2.674799E-05, 0.003648291, -0.0001268368, 0.0002593961
 196436394, 0.0001276951, 0.003518882, -0.0001186802, 0.0002593961
 196536354, 6.675802E-05, 0.003457936, -2.965933E-05, 0.0002593961
 196636314, -0.0002015411, 0.003514962, -6.373833E-05, 0.0002593961
 196736274, -3.147234E-05, 0.003437524, -0.0001094869, 0.0002593961
 196836234, 4.139842E-05, 0.003277637, -3.020866E-05, 0.0002593961
 196936194, -0.0001885564, 0.003508516, -1.980943E-05, 0.0002593961
 197036154, -0.0001274324, 0.003373777, 6.335822E-05, 0.0002593961
 197136114, 1.979711E-05, 0.003719711, -7.065212E-05, 0.0002593961
 197236074, 0.0002721495, 0.003544448, -6.492998E-05, 0.0002593961
 197336034, 0.0001126119, 0.003516927, -8.653873E-05, 0.0002593961
 197435994, -7.561554E-05, 0.003600456, -0.0001016865, 0.0002593961
 197535954, -5.905082E-05, 0.003350281, -0.0001693072, 0.0002593961
 197635914, -1.075896E-05, 0.003552763, -0.0001720348, 0.0002593961
 197735874, 0.0002955259, 0.003617115, -0.000114295, 0.0002593961
 197835834, 0.0001905073, 0.003659513, -0.0001484897, 0.0002593961
 197935794, 0.0001923319, 0.003651671, -0.0001511946, 0.0002593961
 198035754, 0.0001627744, 0.003604073, -0.0002899607, 0.0002593961
 198135714, 4.294879E-05, 0.003745741, -4.102853E-05, 0.0002593961
 198235674, 0.0002289181, 0.00358786, 2.977968E-05, 0.0002593961
 198336467, -2.684966E-05, 0.003515184, -9.658565E-05, 0.0002615578
 198436427, -8.006482E-05, 0.003635528, -5.612511E-05, 0.0002593961
 198536387, -0.0001250076, 0.003614158, 3.758356E-06, 0.0002593961
 198636347, 6.578224E-05, 0.003503387, -0.0001368917, 0.0002593961
 198736307, 0.0001210976, 0.003475282, 0.000218714, 0.0002593961
 198836267, 0.0001483128, 0.003536958, -0.0001648732, 0.0002593961
 198936227, 0.0002263728, 0.003697512, -0.000116434, 0.0002593961
 199036187, -8.671699E-05, 0.003857624, -2.523248E-05, 0.0002593961
 199136147, -7.486549E-05, 0.003376333, -0.000122715, 0.0002593961
 199236107, -5.233026E-05, 0.003577327, 1.650865E-05, 0.0002593961
 199336067, -0.0001566374, 0.003419158, -9.78436E-06, 0.0002593961
 199436027, 0.0001995575, 0.003584124, -0.0001598899, 0.0002593961
 199535987, -8.178071E-05, 0.003542495, 1.406822E-05, 0.0002593961
 199635947, 8.915574E-05, 0.003367047, 7.5048E-06, 0.0002593961
 199735907, -3.853704E-06, 0.003599028, 9.246956E-06, 0.0002593961
 199835867, -0.0002417025, 0.003863758, -0.0001283716, 0.0002593961
 199935827, -0.0001129372, 0.003515505, -5.243349E-05, 0.0002593961
 200035787, 0.0002015461, 0.003480028, 4.439008E-05, 0.0002593961
 200135747, -1.831295E-05, 0.003476844, 8.811166E-05, 0.0002593961
 200235707, 0.0002587711, 0.003430998, 0.0001051422, 0.0002593961
 200335667, -0.0001828647, 0.003493387, -0.0003636336, 0.0002593961
 200436460, 0.0001676292, 0.003537109, -0.0001833679, 0.0002615578
 200536420, -7.643693E-05, 0.003706718, -0.0001493464, 0.0002593961
 200636380, -0.0001828885, 0.003629328, -5.72762E-05, 0.0002593961
 200736340, 8.129123E-05, 0.003512868, 0.0001277925, 0.0002593961
 200836300, 9.648122E-05, 0.003424707, -7.793881E-05, 0.0002593961
 200936260, -5.899343E-05, 0.003522892, 8.638619E-05, 0.0002593961
 201036220, 0.0001746562, 0.003599052, 2.885499E-05, 0.0002593961
 201136180, -7.751684E-05, 0.003478886, -0.0001726473, 0.0002593961
 201236140, -6.027968E-05, 0.003363265, 1.482609E-05, 0.0002593961
 201336100, -0.0002188718, 0.003482126, 8.179015E-05, 0.0002593961
 201436060, -0.0001599005, 0.003552135, -8.383972E-05, 0.0002593961
 201536020, 5.467569E-05, 0.003470702, -8.870033E-05, 0.0002593961
 201635980, 6.212582E-05, 0.003368111, 0.0001619037, 0.0002593961
 201735940, -7.549572E-05, 0.003490103, -8.750988E-05, 0.0002593961
 201835900, -0.0001576598, 0.003571566, -9.032436E-07, 0.0002593961
 201935860, 1.58913E-05, 0.003584852, -8.050915E-05, 0.0002593961
 202035820, 0.000160681, 0.003502726, -0.0001319893, 0.0002593961
 202135780, 6.589419E-05, 0.003677921, 9.372536E-05, 0.0002593961
 202235740, -1.205801E-06, 0.003522623, -0.000270902, 0.0002593961
 202335700, 0.0001902755, 0.003606318, -7.744551E-05, 0.0002593961
 202435660, -1.341023E-05, 0.003407254, -0.0001906669, 0.0002593961
 202536453, 0.0002302882, 0.003544545, -5.068937E-05, 0.0002615578
 202636413, 9.9089E-05, 0.003429711, 1.19543E-05, 0.0002593961
 202736373, 6.344867E-05, 0.003640526, -7.230011E-05, 0.0002593961
 202836333, 0.0001062787, 0.003476992, -7.641355E-05, 0.0002593961
 202936293, -3.913469E-05, 0.003512735, -0.0002274223, 0.0002593961
 203036253, 0.0001356561, 0.003718108, 7.465476E-05, 0.0002593961
 203136213, 8.000409E-05, 0.00354868, -8.677108E-05, 0.0002593961
 203236173, -0.0001708931, 0.003614631, -0.000258446, 0.0002593961
 203336133, -6.595025E-05, 0.00359041, -0.0001406762, 0.0002593961
 203436093, 0.0001741984, 0.003328934, 4.213436E-05, 0.0002593961
 203536053, -0.0001823444, 0.003743115, 0.0001903452, 0.0002593961
 203636013, 0.0002496633, 0.003589251, 2.871914E-05, 0.0002593961
 203735973, 3.091768E-05, 0.003698479, -0.000110414, 0.0002593961
 203835933, 7.4701E-06, 0.003705231, -1.942334E-05, 0.0002593961
 203935893, 0.0001469682, 0.003735906, -5.586654E-05, 0.0002593961
 204035853, 9.587091E-05, 0.003503998, -0.0001340139, 0.0002593961
 204135813, -1.685467E-05, 0.003515881, 2.236903E-05, 0.0002593961
 204235773, 9.379022E-05, 0.003659875, -0.0001567571, 0.0002593961
 204335733, 8.395289E-05, 0.003670122, -0.0002370303, 0.0002593961
 204435693, 1.561967E-05, 0.003471577, -7.82999E-05, 0.0002593961
 204536486, 1.780849E-05, 0.003515647, 8.68974E-05, 0.0002593961
 204636446, 4.205283E-05, 0.003547304, 0.000149827, 0.0002615578
 204736406, 0.0001321458, 0.003386213, 0.0001353223, 0.0002593961
 204836366, 6.076589E-05, 0.00336943, 3.482379E-05, 0.0002593961
 204936326, 3.616987E-05, 0.003525734, -0.0001139674, 0.0002593961
 205036286, -7.151342E-05, 0.003688464, -0.0002718934, 0.0002593961
 205136246, -3.43712E-05, 0.003568329, -1.292188E-05, 0.0002593961
 205236206, 2.194971E-05, 0.003551584, -0.0001617035, 0.0002593961
 205336166, -3.487924E-05, 0.003412838, 4.705214E-05, 0.0002593961
 205436126, 0.000118767, 0.003435591, 2.142288E-05, 0.0002593961
 205536086, 0.00022776, 0.003696959, -0.0001449267, 0.0002593961
 205636046, 6.22008E-05, 0.003568555, -0.0001077269, 0.0002593961
 205736006, -3.937569E-05, 0.003424907, -9.685336E-05, 0.0002593961
 205835966, -9.99116E-05, 0.003733677, -4.615128E-06, 0.0002593961
 205935926, 0.0001905786, 0.003518684, -0.0001277901, 0.0002593961
 206035886, -4.645406E-05, 0.00344254, -0.0002065309, 0.0002593961
 206135846, 0.0003089608, 0.003462242, -0.0001092402, 0.0002593961
 206235806, -7.455177E-05, 0.003476026, -2.981423E-05, 0.0002593961
 206335766, 0.0001239382, 0.003400112, 1.395621E-05, 0.0002593961
 206435726, 0.0001079608, 0.00343287, 4.625256E-05, 0.0002593961
 206535686, 5.905829E-05, 0.003437196, -0.0001011563, 0.0002593961
 206636479, 2.759647E-05, 0.003697232, 5.147661E-05, 0.0002615578
 206736439, 0.0001642654, 0.003587846, -6.304841E-06, 0.0002593961
 206836399, -0.0001337132, 0.003700625, 1.889188E-05, 0.0002593961
 206936359, -0.0001384783, 0.003265999, -5.348569E-05, 0.0002593961
 207036319, 9.947924E-05, 0.003663214, -0.0002546567, 0.0002593961
 207136279, 5.44192E-05, 0.003655615, -5.047924E-05, 0.0002593961
 207236239, 0.0001010212, 0.003391484, 2.630254E-05, 0.0002593961
 207336199, 1.509621E-05, 0.003438646, -3.318413E-05, 0.0002593961
 207436159, -0.0001299219, 0.003450062, 8.773154E-05, 0.0002593961
 207536119, 0.0001692687, 0.003368582, -0.0002500285, 0.0002593961
 207636079, 4.371769E-05, 0.003653873, 5.516467E-05, 0.0002593961
 207736039, -4.038454E-05, 0.00343178, -7.802713E-06, 0.0002593961
 207835999, 6.0967E-06, 0.003392269, 5.711416E-05, 0.0002593961
 207935959, 5.730639E-05, 0.003707919, -0.0001750734, 0.0002593961
 208035919, -0.0001430873, 0.003733505, 0.0001086277, 0.0002593961
 208135879, 2.973113E-05, 0.003491249, 7.353345E-05, 0.0002593961
 208235839, 0.0002116725, 0.003625168, -0.0001266116, 0.0002593961
 208335799, -0.000154471, 0.003590419, 0.0002487248, 0.0002593961
 208435759, 1.116679E-05, 0.003539222, -8.8717E-05, 0.0002593961
 208535719, 0.0001154749, 0.003635254, -0.0001183299, 0.0002593961
 208635679, -2.171712E-05, 0.003661983, -0.0001389663, 0.0002593961
 208736472, -3.183791E-05, 0.003779961, 7.747887E-06, 0.0002615578
 208836432, 0.0001633397, 0.003652887, -5.010984E-05, 0.0002593961
 208936392, 0.0001064965, 0.003646153, -0.0001234264, 0.0002593961
 209036352, 0.000219784, 0.003450572, 0.0002522211, 0.0002593961
 209136312, 0.0001357998, 0.003562039, -1.515976E-05, 0.0002593961
 209236272, -1.641608E-07, 0.003551299, 3.224513E-05, 0.0002593961
 209336232, 9.33736E-05, 0.003760586, -2.041596E-05, 0.0002593961
 209436192, -4.463396E-05, 0.003389629, -0.0001028794, 0.0002593961
 209536152, -0.0002098388, 0.003485539, -4.165413E-05, 0.0002593961
 209636112, 2.52477E-05, 0.00358018, 0.0001289305, 0.0002593961
 209736072, -5.741617E-05, 0.003424186, -9.358834E-05, 0.0002593961
 209836032, -7.535635E-05, 0.003759331, 5.275879E-05, 0.0002593961
 209935992, 7.572684E-05, 0.003496411, 0.0001035574, 0.0002593961
 210035952, 8.61693E-05, 0.00363581, -3.39551E-05, 0.0002593961
 210135912, -0.0001485358, 0.003528656, 1.427914E-05, 0.0002593961
 210235872, -5.01543E-05, 0.00359569, 0.0001929107, 0.0002593961
 210335832, 4.661244E-05, 0.003603864, -0.0001433895, 0.0002593961
 210435792, 1.445102E-05, 0.003516164, 6.539946E-05, 0.0002593961
 210535752, -0.0001213657, 0.003217278, 2.305778E-06, 0.0002593961
 210635712, 7.732963E-05, 0.003406991, -4.027901E-05, 0.0002593961
 210735672, -0.0001106032, 0.003528854, 0.00012121, 0.0002593961
 210836465, 3.2314E-05, 0.00370981, -6.468093E-06, 0.0002615578
 210936425, -6.628969E-05, 0.003637928, 2.289092E-05, 0.0002593961
 211036385, 0.0001895329, 0.003595211, -7.292704E-06, 0.0002593961
 211136345, -4.904869E-06, 0.003339303, -1.633943E-05, 0.0002593961
 211236305, -2.298693E-05, 0.003480595, -0.0002876882, 0.0002593961
 211336265, -0.0001697911, 0.003494178, -0.0002011365, 0.0002593961
 211436225, -9.623914E-05, 0.003689273, 1.290043E-05, 0.0002593961
 211536185, -3.974933E-05, 0.003416588, -0.0003959728, 0.0002593961
 211636145, -5.743899E-05, 0.003531679, -3.488933E-05, 0.0002593961
 211736105, -0.0001900667, 0.003502266, 4.271703E-05, 0.0002593961
 211836065, -0.0001755328, 0.003514144, -8.732518E-05, 0.0002593961
 211936025, 9.337149E-05, 0.003647055, 7.964524E-05, 0.0002593961
 212035985, 4.047939E-05, 0.003635996, -0.0001057071, 0.0002593961
 212135945, 8.754686E-05, 0.003364833, -6.341423E-05, 0.0002593961
 212235905, 8.44781E-07, 0.003586647, 0.0001736447, 0.0002593961
 212335865, -1.831074E-05, 0.003582236, 1.469501E-05, 0.0002593961
 212435825, 0.0001604948, 0.003319176, -0.0001403187, 0.0002593961
 212535785, -2.851327E-05, 0.003595837, 9.228827E-05, 0.0002593961
 212635745, 8.540813E-05, 0.00343019, -2.731184E-06, 0.0002593961
 212735705, -0.0001175367, 0.003439226, -5.814014E-05, 0.0002593961
 212835665, -0.0002115969, 0.003450768, -6.851197E-05, 0.0002593961
 212936458, 0.0001072707, 0.003471686, -0.000209077, 0.0002615578
 213036418, -9.913819E-05, 0.003477095, -0.0002513976, 0.0002593961
 213136378, 0.0001480532, 0.003627157, 8.207616E-05, 0.0002593961
 213236338, -1.357041E-05, 0.00365467, 0.0001279605, 0.0002593961
 213336298, 3.079653E-05, 0.003495721, -2.544815E-05, 0.0002593961
 213436258, 1.708032E-05, 0.003544844, -6.222977E-05, 0.0002593961
 213536218, -1.221928E-05, 0.003554146, -6.266471E-05, 0.0002593961
 213636178, 2.733097E-05, 0.003376544, -0.0001760779, 0.0002593961
 213736138, -9.419939E-05, 0.003564567, -3.904449E-05, 0.0002593961
 213836098, 6.470246E-05, 0.00343781, -7.018499E-05, 0.0002593961
 213936058, 0.0001031572, 0.003602938, -7.124672E-05, 0.0002593961
 214036018, 0.0002225226, 0.003723452, 6.602387E-05, 0.0002593961
 214135978, 1.991319E-05, 0.003710857, -2.458542E-05, 0.0002593961
 214235938, 4.495896E-05, 0.003524726, -1.59319E-05, 0.0002593961
 214335898, 0.0004518268, 0.003511811, 8.307354E-05, 0.0002593961
 214435858, 8.875981E-05, 0.003550008, -3.376921E-05, 0.0002593961
 214535818, 0.0001529417, 0.00363729, -0.0001801021, 0.0002593961
 214635778, 6.784476E-05, 0.003635452, -9.062717E-05, 0.0002593961
 214735738, 4.160575E-05, 0.003792636, -1.265734E-05, 0.0002593961
 214835698, 0.0001040881, 0.003714642, -7.687949E-05, 0.0002593961
 214935658, 3.72768E-06, 0.003578541, -0.0003338217, 0.0002593961
 215036451, 7.227136E-05, 0.003568047, -0.0002012846, 0.0002615578
 215136411, -0.0001106143, 0.003716364, -2.462354E-05, 0.0002593961
 215236371, -8.43294E-06, 0.0037142, -6.731446E-06, 0.0002593961
 215336331, -5.391626E-05, 0.003519091, -3.374655E-06, 0.0002593961
 215436291, 0.0001099654, 0.003296124, 1.869525E-05, 0.0002593961
 215536251, -4.079939E-05, 0.003594067, -8.654828E-05, 0.0002593961
 215636211, 1.192191E-05, 0.003487173, 2.539572E-05, 0.0002593961
 215736171, 0.0002616414, 0.00342069, -0.0001272169, 0.0002593961
 215836131, 0.000156441, 0.003408283, 0.0001114351, 0.0002593961
 215936091, 0.0001174548, 0.003415205, -5.967137E-05, 0.0002593961
 216036051, 5.544751E-06, 0.003422287, -4.498357E-06, 0.0002593961
 216136011, -1.744706E-06, 0.003544088, -7.459753E-05, 0.0002593961
 216235971, 6.971219E-05, 0.003393546, 8.380039E-05, 0.0002593961
 216335931, 0.0002237936, 0.003283919, -0.0002070612, 0.0002593961
 216435891, 0.0001204839, 0.00372217, -0.0001102543, 0.0002593961
 216535851, -8.174047E-05, 0.003453002, -0.0001114614, 0.0002593961
 216635811, -0.0001001322, 0.003459695, 8.746344E-05, 0.0002593961
 216735771, -0.0002369169, 0.00349643, -0.0002010816, 0.0002593961
 216835731, 3.813003E-05, 0.0033658, -0.0002574868, 0.0002593961
 216935691, 3.675946E-07, 0.003494682, -0.000280672, 0.0002593961
 217036484, 6.639241E-05, 0.003474185, -0.0002466356, 0.0002615578
 217136444, 2.041238E-05, 0.003423434, -8.29174E-05, 0.0002593961
 217236404, 0.000150368, 0.003538568, 0.0001654428, 0.0002593961
 217336364, 1.350221E-05, 0.003450866, 6.040063E-05, 0.0002593961
 217436324, 2.43088E-05, 0.003458729, -0.0002030466, 0.0002593961
 217536284, -0.0001994569, 0.003507562, 2.535401E-05, 0.0002593961
 217636244, -0.0001307716, 0.003453627, -0.0001197229, 0.0002593961
 217736204, -0.0001112305, 0.003690039, 9.131354E-05, 0.0002593961
 217836164, -0.0001541683, 0.003651605, -3.040051E-05, 0.0002593961
 217936124, 9.248854E-05, 0.003523481, -0.000193665, 0.0002593961
 218036084, -7.730372E-05, 0.0035557, -3.0615E-05, 0.0002593961
 218136044, -4.911065E-05, 0.003505226, -2.041834E-05, 0.0002593961
 218236004, 5.240362E-05, 0.003460297, -7.343812E-05, 0.0002593961
 218335964, 2.575334E-05, 0.003696148, 2.430421E-05, 0.0002593961
 218435924, 0.0002012489, 0.00355647, -0.0001547933, 0.0002593961
 218535884, 2.962305E-05, 0.003521873, -0.0003288276, 0.0002593961
 218635844, -6.218546E-05, 0.003544411, -6.404932E-06, 0.0002593961
 218735804, 5.755011E-05, 0.003572902, -8.515169E-05, 0.0002593961
 218835764, 7.245997E-05, 0.003613086, -0.0001929537, 0.0002593961
 218935724, -4.816212E-05, 0.003676502, 2.508234E-05, 0.0002593961
 219035684, -4.74847E-05, 0.003573496, -0.0001672922, 0.0002593961
 219136477, 0.0002090194, 0.003918807, -0.0001568929, 0.0002615578
 219236437, 7.056972E-05, 0.003611402, -7.243715E-05, 0.0002593961
 219336397, 5.477637E-05, 0.003479788, 0.0001194571, 0.0002593961
 219436357, 0.0002151067, 0.003588424, -0.000155401, 0.0002593961
 219536317, 3.69333E-05, 0.003491173, -0.0003666674, 0.0002593961
 219636277, -6.06733E-05, 0.003429985, 5.124903E-05, 0.0002593961
 219736237, -5.62293E-06, 0.003687496, -0.000148237, 0.0002593961
 219836197, 0.000107615, 0.003554061, -1.885852E-05, 0.0002593961
 219936157, -1.516019E-05, 0.003487687, -0.0002029453, 0.0002593961
 220036117, 5.539657E-05, 0.003673949, 9.459057E-06, 0.0002593961
 220136077, 0.000114537, 0.003584654, -0.0001487423, 0.0002593961
 220236037, 8.114765E-06, 0.003236348, -4.483457E-05, 0.0002593961
 220335997, -7.218542E-05, 0.003515449, 3.02325E-05, 0.0002593961
 220435957, 5.058355E-05, 0.003618338, -1.73118E-05, 0.0002593961
 220535917, -2.386777E-05, 0.003499961, -4.040413E-05, 0.0002593961
 220635877, -6.972197E-05, 0.003775513, -8.008734E-05, 0.0002593961
 220735837, 6.417649E-05, 0.003523004, 0.0001193797, 0.0002593961
 220835797, -0.0001656351, 0.003773071, -2.606064E-05, 0.0002593961
 220935757, 5.926048E-05, 0.00363055, -0.0002530718, 0.0002593961
 221035717, 4.505138E-05, 0.003551362, 5.518612E-05, 0.0002593961
 221135677, 0.0002394421, 0.003529223, -2.049819E-05, 0.0002593961
 221236470, -1.946341E-05, 0.003501849, -0.0002893351, 0.0002615578
 221336430, -7.481999E-05, 0.003566918, -0.0002742349, 0.0002593961
 221436390, 0.0001016228, 0.003642998, -0.0001011361, 0.0002593961
 221536350, 8.273323E-05, 0.003557431, 8.644101E-05, 0.0002593961
 221636310, 0.0001975849, 0.003471048, -0.0001643977, 0.0002593961
 221736270, 0.000114849, 0.00353996, -0.08421133, 0.0002593961
 221836230, 0.0002895538, 0.00393337, -0.1835536, 0.0002593961
 221936190, 9.762144E-05, 0.003691982, -0.04581518, 0.0002593961
 222036150, -4.226697E-05, 0.003531651, 0.04038249, 0.0002593961
 222136110, -6.752169E-05, 0.003477116, 0.05624066, 0.0002593961
 222236070, -9.264551E-05, 0.003478439, 0.03059919, 0.0002593961
 222336030, -0.0001597653, 0.003402894, -0.4776478, 0.0002593961
 222435990, -0.002071118, 0.001210432, -0.7087265, 0.0002593961
 222535950, -0.004946291, -0.001690385, -0.4740109, 0.0002593961
 222635910, -0.006632007, -0.003833108, -0.1998841, 0.0002593961
 222735870, -0.007363447, -0.004583791, -0.06543254, 0.0002593961
 222835830, -0.007466386, -0.004409826, -0.05545684, 0.0002593961
 222935790, -0.00735055, -0.004185148, -0.09207153, 0.0002593961
 223035750, -0.006903218, -0.003430226, -0.119936, 0.0002593961
 223135710, -0.006335876, -0.002911974, -0.1238073, 0.0002593961
 223235670, -0.006013403, -0.002236617, -0.1128789, 0.0002593961
 223336463, -0.005540099, -0.001647369, -0.09975176, 0.0002615578
 223436423, -0.00509228, -0.001092434, -0.08856156, 0.0002593961
 223536383, -0.004564945, -0.000534401, -0.08234562, 0.0002593961
 223636343, -0.004390896, -7.025087E-06, -0.07795446, 0.0002593961
 223736303, -0.00391877, 0.0004989106, -0.07408737, 0.0002593961
 223836263, -0.003685379, 0.001022959, -0.06971583, 0.0002593961
 223936223, -0.003258594, 0.001387849, -0.06520829, 0.0002593961
 224036183, -0.002840361, 0.00169992, -0.06099152, 0.0002593961
 224136143, -0.002345145, 0.00196539, -0.05703491, 0.0002593961
 224236103, -0.001971438, 0.002118345, -0.05336902, 0.0002593961
 224336063, -0.001611606, 0.002165284, -0.05018163, 0.0002593961
 224436023, -0.001348824, 0.002397995, -0.0469482, 0.0002593961
 224535983, -0.001166215, 0.002416854, -0.04400101, 0.0002593961
 224635943, -0.0008124441, 0.002518664, -0.04137128, 0.0002593961
 224735903, -0.0005272669, 0.002566004, -0.03848107, 0.0002593961
 224835863, -0.0006526918, 0.002514731, -0.03605632, 0.0002593961
 224935823, -0.0007037211, 0.002496798, -0.03365088, 0.0002593961
 225035783, -0.0009387874, 0.002647861, -0.03121402, 0.0002593961
 225135743, -0.000878131, 0.002600739, -0.02924364, 0.0002593961
 225235703, -0.0009796068, 0.002617719, -0.02763214, 0.0002593961
 225335663, -0.0009890008, 0.002717891, -0.02618003, 0.0002593961
 225436456, -0.001051834, 0.002561099, -0.02484431, 0.0002615578
 225536416, -0.001156035, 0.002570684, -0.02306881, 0.0002593961
 225636376, -0.0004660626, 0.003344889, 0.1334694, 0.0002593961
 225736336, 0.0004333654, 0.003855414, 0.2825544, 0.0002593961
 225836296, 0.0005469558, 0.003511467, 0.2639398, 0.0002593961
 225936256, 0.0003606507, 0.003037527, 0.2466466, 0.0002593961
 226036216, 0.0002039158, 0.002899541, 0.2305592, 0.0002593961
 226136176, 0.0003369169, 0.002769795, 0.215453, 0.0002593961
 226236136, 0.000363799, 0.00264857, 0.1823584, 0.0002593961
 226336096, 0.001000231, 0.00352219, 0.1876861, 0.0002593961
 226436056, 0.002787361, 0.005852961, 0.1713343, 0.0002593961
 226536016, 0.005029168, 0.008711683, 0.1512742, 0.0002593961
 226635976, 0.006931203, 0.01128046, 0.1344685, 0.0002593961
 226735936, 0.008236353, 0.01268746, 0.1219858, 0.0002593961
 226835896, 0.009304159, 0.01330571, 0.1108625, 0.0002593961
 226935856, 0.01349581, 0.01307994, 0.1012236, 0.0002593961
 227035816, 0.02498248, 0.01293387, 0.09407654, 0.0002593961
 227135776, 0.04215439, 0.01332033, 0.08822886, 0.0002593961
 227235736, 0.06108286, 0.01356873, 0.08281758, 0.0002593961
 227335696, 0.07897899, 0.01416793, 0.07903144, 0.0002593961
 227435656, 0.0926375, 0.01462633, 0.0746106, 0.0002593961
 227536449, 0.1016055, 0.01490255, 0.06873847, 0.0002615578
 227636409, 0.1040753, 0.01449667, 0.06028147, 0.0002593961
 227736369, 0.1043213, 0.01420167, 0.05234711, 0.0002593961
 227836329, 0.1023348, 0.01355111, 0.04508724, 0.0002593961
 227936289, 0.09916137, 0.01243266, 0.03822844, 0.0002593961
 228036249, 0.09554356, 0.0115559, 0.03175475, 0.0002593961
 228136209, 0.09182084, 0.01048192, 0.0255436, 0.0002593961
 228236169, 0.08913376, 0.00959838, 0.01911373, 0.0002593961
 228336129, 0.08786532, 0.00898678, 0.01319775, 0.0002593961
 228436089, 0.08879603, 0.009242383, 0.007218173, 0.0002593961
 228536049, 0.09007, 0.01419421, 0.003286998, 0.0002593961
 228636009, 0.09152228, 0.02630367, 0.001487848, 0.0002593961
 228735969, 0.09263236, 0.04163891, -0.003260505, 0.0002593961
 228835929, 0.09304469, 0.0527723, -0.01074744, 0.0002593961
 228935889, 0.09238735, 0.05552283, -0.01774564, 0.0002593961
 229035849, 0.09150513, 0.04928216, -0.02313663, 0.0002593961
 229135809, 0.09217805, 0.03640771, -0.02651711, 0.0002593961
 229235769, 0.09548154, 0.02084995, -0.02855656, 0.0002593961
 229335729, 0.1005701, 0.005926764, -0.02942103, 0.0002593961
 229435689, 0.1056371, -0.006592507, -0.03000276, 0.0002593961
 229536482, 0.1100848, -0.01626419, -0.0306844, 0.0002615578
 229636442, 0.1102121, -0.02320839, -0.03057612, 0.0002593961
 229736402, 0.1085948, -0.02831767, -0.03120915, 0.0002593961
 229836362, 0.1061737, -0.03098609, -0.0322993, 0.0002593961
 229936322, 0.1032121, -0.03194522, -0.03275838, 0.0002593961
 230036282, 0.1007379, -0.03523341, -0.03206111, 0.0002593961
 230136242, 0.1003727, -0.04324061, -0.03098361, 0.0002593961
 230236202, 0.1011451, -0.05230384, -0.03214686, 0.0002593961
 230336162, 0.1017648, -0.05740618, -0.03468619, 0.0002593961
 230436122, 0.1005269, -0.05483959, -0.03701207, 0.0002593961
 230536082, 0.09743395, -0.0432798, -0.03813417, 0.0002593961
 230636042, 0.09460142, -0.02437133, -0.03781994, 0.0002593961
 230736002, 0.09372452, -0.001512472, -0.03640034, 0.0002593961
 230835962, 0.09593427, 0.02200411, -0.03430543, 0.0002593961
 230935922, 0.1000035, 0.04231363, -0.03271866, 0.0002593961
 231035882, 0.1040154, 0.05767165, -0.03077921, 0.0002593961
 231135842, 0.1063165, 0.06685956, -0.03002953, 0.0002593961
 231235802, 0.1061282, 0.07035795, -0.029871, 0.0002593961
 231335762, 0.1038508, 0.0686202, -0.03011102, 0.0002593961
 231435722, 0.1005759, 0.06293922, -0.03072684, 0.0002593961
 231535682, 0.09790595, 0.05375, -0.03148185, 0.0002593961
 231636475, 0.09745848, 0.04255342, -0.03154322, 0.0002615578
 231736435, 0.09692948, 0.0304923, -0.03063476, 0.0002593961
 231836395, 0.09860037, 0.01917981, -0.03032243, 0.0002593961
 231936355, 0.1009061, 0.009251636, -0.02984917, 0.0002593961
 232036315, 0.1031541, 0.001101001, -0.02943997, 0.0002593961
 232136275, 0.1042111, -0.004531919, -0.02904413, 0.0002593961
 232236235, 0.1037064, -0.007721449, -0.02800812, 0.0002593961
 232336195, 0.1017099, -0.008444185, -0.02683191, 0.0002593961
 232436155, 0.09857095, -0.007101655, -0.02541794, 0.0002593961
 232536115, 0.08519865, -0.004184894, -0.001692011, 0.0002593961
 232636075, 0.06528609, 0.0002040128, 0.01911644, 0.0002593961
 232736035, 0.04067666, 0.004621414, 0.02838896, 0.0002593961
 232835995, 0.01555672, 0.009221078, 0.03552848, 0.0002593961
 232935955, -0.003563452, 0.01330656, 0.04230507, 0.0002593961
 233035915, -0.01328951, 0.01680605, 0.04753435, 0.0002593961
 233135875, -0.01423322, 0.01862193, 0.05033322, 0.0002593961
 233235835, -0.01001536, 0.01926424, 0.05097778, 0.0002593961
 233335795, -0.004325368, 0.01855009, 0.04900295, 0.0002593961
 233435755, 8.511991E-05, 0.01683036, 0.04557662, 0.0002593961
 233535715, 0.0023367, 0.01457417, 0.04040593, 0.0002593961
 233635675, 0.002109353, 0.01173735, 0.03500045, 0.0002593961
 233736468, 0.0008421224, 0.00920424, 0.02953711, 0.0002615578
 233836428, -0.0007277611, 0.006914805, 0.02453321, 0.0002593961
 233936388, -0.001822121, 0.005052575, 0.01996233, 0.0002593961
 234036348, -0.001694715, 0.00336455, 0.01553319, 0.0002593961
 234136308, -0.001084458, 0.002259542, 0.01199535, 0.0002593961
 234236268, -0.0003156807, 0.001795348, 0.009020341, 0.0002593961
 234336228, 0.0005884836, 0.001390222, 0.006274176, 0.0002593961
 234436188, 0.001616558, 0.001382679, 0.002981471, 0.0002593961
 234536148, 0.00153466, 0.00160903, 0.0007278369, 0.0002593961
 234636108, 0.00115271, 0.002026239, -0.0002949345, 0.0002593961
 234736068, 0.0004335208, 0.002437232, -0.0007573448, 0.0002593961
 234836028, -0.0001277309, 0.002908893, -0.001691246, 0.0002593961
 234935988, -0.0006979138, 0.003234507, -0.001666332, 0.0002593961
 235035948, -0.0008693159, 0.003476091, -0.002582589, 0.0002593961
 235135908, -0.001106672, 0.003851049, -0.003389854, 0.0002593961
 235235868, -0.001382503, 0.004042232, -0.002925307, 0.0002593961
 235335828, -0.001959304, 0.004360637, -0.002174402, 0.0002593961
 235435788, -0.001823849, 0.004235143, -0.002105502, 0.0002593961
 235535748, -0.00196971, 0.003810284, -0.00136477, 0.0002593961
 235635708, -0.002041065, 0.00291701, -0.00148182, 0.0002593961
 235735668, -0.001919053, 0.00209496, -0.0011921, 0.0002593961
 235836461, -0.002015114, 0.00156514, -0.0009201031, 0.0002615578
 235936421, -0.002081147, 0.001272591, -0.0007511971, 0.0002593961
 236036381, -0.001940463, 0.001062022, -0.001524751, 0.0002593961
 236136341, -0.002230044, 0.001294077, -0.001286141, 0.0002593961
 236236301, -0.002286398, 0.00148226, -0.001308879, 0.0002593961
 236336261, -0.00244353, 0.001586775, -0.001089941, 0.0002593961
 236436221, -0.002457985, 0.001630073, -0.001213188, 0.0002593961
 236536181, -0.00258399, 0.001736867, -0.0008481398, 0.0002593961
 236636141, -0.002867583, 0.001686097, -0.0006626506, 0.0002593961
 236736101, -0.003278223, 0.001882559, -2.077824E-05, 0.0002593961
 236836061, -0.003521204, 0.002237652, 7.805115E-07, 0.0002593961
 236936021, -0.003874266, 0.002633458, -0.0001931133, 0.0002593961
 237035981, -0.0036573, 0.003248046, -0.0001433192, 0.0002593961
 237135941, -0.003510339, 0.003411281, 0.0001844598, 0.0002593961
 237235901, -0.003040214, 0.003893152, -9.35943E-05, 0.0002593961
 237335861, -0.008182991, 0.003798908, 0.01679895, 0.0002593961
 237435821, -0.00683033, 0.004003296, 0.01396241, 0.0002593961
 237535781, -0.002825351, 0.004254857, 0.005492479, 0.0002593961
 237635741, 0.0004304553, 0.004476387, 0.0002617243, 0.0002593961
 237735701, 0.001949527, 0.004392109, -0.003380532, 0.0002593961
 237835661, 0.002257106, 0.004187383, -0.005950326, 0.0002593961
 237936454, 0.001498671, 0.003872014, -0.007458268, 0.0002615578
 238036414, 0.0002384998, 0.003504246, -0.007619867, 0.0002593961
 238136374, -0.001263985, 0.002741137, -0.006756986, 0.0002593961
 238236334, -0.001929592, 0.001982342, -0.006628602, 0.0002593961
 238336294, -0.002364033, 0.001342658, -0.005553641, 0.0002593961
 238436254, -0.002814165, 0.0006124707, -0.004377305, 0.0002593961
 238536214, -0.002921007, -0.0001385153, -0.003518227, 0.0002593961
 238636174, -0.003061608, -0.0002564121, -0.00235986, 0.0002593961
 238736134, -0.002887647, -0.000380882, -0.001426769, 0.0002593961
 238836094, -0.003215178, -9.565681E-05, -0.0002748725, 0.0002593961
 238936054, -0.003484218, 0.0003939745, 0.0006239777, 0.0002593961
 239036014, -0.003654783, 0.0004850015, 0.0008419482, 0.0002593961
 239135974, -0.004414261, 0.0007970851, 0.002046182, 0.0002593961
 239235934, -0.004336516, 0.00106257, 0.00195287, 0.0002593961
 239335894, -0.004587032, 0.001434628, 0.002322047, 0.0002593961
 239435854, -0.004288283, 0.001647433, 0.002222913, 0.0002593961
 239535814, -0.004054216, 0.001683292, 0.002380471, 0.0002593961
 239635774, -0.003336938, 0.00192456, 0.001346521, 0.0002593961
 239735734, -0.003176836, 0.002256833, 0.001120213, 0.0002593961
 239835694, -0.002724705, 0.002446398, 0.000675309, 0.0002593961
 239935654, -0.002867504, 0.002422129, 0.000281393, 0.0002593961
 240036447, -0.003300702, 0.002685257, -2.190031E-05, 0.0002615578
 240136407, -0.003049709, 0.002873664, -0.0003714363, 0.0002593961
 240236367, -0.002853787, 0.003099965, -0.001280206, 0.0002593961
 240336327, -0.003274239, 0.00350412, -0.000455332, 0.0002593961
 240436287, -0.003261491, 0.003631417, -0.0003376396, 0.0002593961
 240536247, -0.003378854, 0.003549688, -0.0001312303, 0.0002593961
 240636207, -0.003493868, 0.003778225, 7.865145E-05, 0.0002593961
 240736167, -0.003557006, 0.003944031, -2.685187E-05, 0.0002593961
 240836127, -0.00350739, 0.003704388, -2.250843E-05, 0.0002593961
 240936087, -0.004448684, 0.003993907, 0.002311736, 0.0002593961
 241036047, -0.01926131, 0.003236157, 0.04239375, 0.0002593961
 241136007, -0.03739922, 0.002714228, 0.06664473, 0.0002593961
 241235967, -0.05809596, 0.002576626, 0.07689781, 0.0002593961
 241335927, -0.0770775, 0.002751726, 0.0825349, 0.0002593961
 241435887, -0.08995242, 0.002679297, 0.08553513, 0.0002593961
 241535847, -0.0954945, 0.002668301, 0.08526749, 0.0002593961
 241635807, -0.09517162, 0.001811817, 0.08259748, 0.0002593961
 241735767, -0.09244031, 0.001254357, 0.07745082, 0.0002593961
 241835727, -0.08983439, 0.0006017695, 0.07082128, 0.0002593961
 241935687, -0.08901466, -0.0003415934, 0.0634907, 0.0002593961
 242036480, -0.09374239, -0.001646835, 0.07059942, 0.0002615578
 242136440, -0.0915147, -0.00357594, 0.08148184, 0.0002593961
 242236400, -0.07498392, -0.006648862, 0.08379941, 0.0002593961
 242336360, -0.05033688, -0.009829684, 0.08320297, 0.0002593961
 242436320, -0.0256845, -0.01263958, 0.08004107, 0.0002593961
 242536280, -0.0067089, -0.01436076, 0.07480131, 0.0002593961
 242636240, 0.005197882, -0.01473202, 0.06819095, 0.0002593961
 242736200, 0.0109404, -0.01436891, 0.06183382, 0.0002593961
 242836160, 0.01378261, -0.01315921, 0.05593248, 0.0002593961
 242936120, 0.01580532, -0.0118483, 0.05087149, 0.0002593961
 243036080, 0.01940158, -0.01064466, 0.04632837, 0.0002593961
 243136040, 0.02419688, -0.009819101, 0.04242419, 0.0002593961
 243236000, 0.03034678, -0.009311348, 0.0387142, 0.0002593961
 243335960, 0.03671664, -0.009153788, 0.03534662, 0.0002593961
 243435920, 0.04282768, -0.008778117, 0.03269631, 0.0002593961
 243535880, 0.04805127, -0.008784289, 0.02981668, 0.0002593961
 243635840, 0.05250069, -0.008895786, 0.02781452, 0.0002593961
 243735800, 0.05980282, -0.008930136, 0.01524705, 0.0002593961
 243835760, 0.06471492, -0.008455398, -0.003722236, 0.0002593961
 243935720, 0.05457161, -0.007419436, -0.01334432, 0.0002593961
 244035680, 0.0365372, -0.005764546, -0.01950985, 0.0002593961
 244136473, 0.0182474, -0.004420178, -0.02143767, 0.0002615578
 244236433, 0.005220301, -0.003270917, -0.02069364, 0.0002593961
 244336393, -0.0006472356, -0.002561348, -0.01834933, 0.0002593961
 244436353, -0.0003706734, -0.002028772, -0.01603321, 0.0002593961
 244536313, 0.002381593, -0.001660426, -0.01336875, 0.0002593961
 244636273, 0.005481677, -0.0009514403, -0.01135157, 0.0002593961
 244736233, 0.006959428, -0.0003290961, -0.00920582, 0.0002593961
 244836193, 0.007071017, 0.0004918009, -0.007666179, 0.0002593961
 244936153, 0.005211359, 0.001298673, -0.006113584, 0.0002593961
 245036113, 0.003076039, 0.001740774, -0.004346091, 0.0002593961
 245136073, 0.001042287, 0.002051591, -0.003257827, 0.0002593961
 245236033, -0.0002948735, 0.00230512, -0.001728031, 0.0002593961
 245335993, -0.0008367195, 0.002266317, -0.0003796144, 0.0002593961
 245435953, -0.000987028, 0.00245404, 8.284472E-05, 0.0002593961
 245535913, -0.0009728466, 0.002674043, 0.001319653, 0.0002593961
 245635873, -0.0006128256, 0.002930711, 0.001686111, 0.0002593961
 245735833, -0.0001510324, 0.003214227, 0.001773825, 0.0002593961
 245835793, 0.0001160871, 0.003460513, 0.001414433, 0.0002593961
 245935753, -0.0002117765, 0.003800104, 0.001539985, 0.0002593961
 246035713, -0.0006610661, 0.004016824, 0.001584426, 0.0002593961
 246135673, -0.001251375, 0.004111881, 0.001294272, 0.0002593961
 246236466, -0.001641535, 0.004080645, 0.001215179, 0.0002615578
 246336426, -0.002072933, 0.003898039, 0.0006865318, 0.0002593961
 246436386, -0.00229659, 0.003662324, 0.0007349615, 0.0002593961
 246536346, -0.002590669, 0.003624166, 0.0006267782, 0.0002593961
 246636306, -0.002799886, 0.003446421, 0.0005200332, 0.0002593961
 246736266, -0.00297024, 0.003440673, 0.0005288571, 0.0002593961
 246836226, -0.002908657, 0.003206257, 0.0002452072, 0.0002593961
 246936186, -0.002901909, 0.003480692, -4.102615E-05, 0.0002593961
 247036146, -0.00289803, 0.003815049, -9.743819E-06, 0.0002593961
 247136106, -0.002859669, 0.004240289, 3.764073E-05, 0.0002593961
 247236066, -0.00217043, 0.004447494, -7.457133E-05, 0.0002593961
 247336026, -0.002204979, 0.004629555, -0.0006355842, 0.0002593961
 247435986, -0.002724063, 0.004530965, -0.0006053732, 0.0002593961
 247535946, -0.003091519, 0.004228382, -0.0004405345, 0.0002593961
 247635906, -0.003669846, 0.003906394, -0.0001763163, 0.0002593961
 247735866, -0.003469503, 0.00391772, -4.980598E-05, 0.0002593961
 247835826, -0.003052713, 0.003928357, -0.0004243988, 0.0002593961
 247935786, -0.002970595, 0.003764471, -0.0006111465, 0.0002593961
 248035746, -0.002982396, 0.003695387, -0.0009006496, 0.0002593961
 248135706, -0.003222626, 0.003634218, -0.001022596, 0.0002593961
 248235666, -0.00389889, 0.003682958, -0.0002135197, 0.0002593961
 248336459, -0.00377993, 0.003748559, -0.0005033684, 0.0002615578
 248436419, -0.003871517, 0.003709457, -0.0003744904, 0.0002593961
 248536379, -0.00376302, 0.00360867, -0.0004208752, 0.0002593961
 248636339, -0.003847761, 0.003448707, 9.59247E-06, 0.0002593961
 248736299, -0.003898322, 0.003387172, -0.0002537653, 0.0002593961
 248836259, -0.003998403, 0.003241212, 0.0003093662, 0.0002593961
 248936219, -0.003503104, 0.003319647, -0.0005184007, 0.0002593961
 249036179, -0.003436434, 0.003084874, -0.0002275117, 0.0002593961
 249136139, -0.003673887, 0.002996841, -0.0003223631, 0.0002593961
 249236099, -0.003707002, 0.003071778, 3.06007E-05, 0.0002593961
 249336059, -0.003827151, 0.00312733, -0.0004519823, 0.0002593961
 249436019, -0.00388933, 0.002929847, 9.690467E-05, 0.0002593961
 249535979, -0.003758581, 0.003066074, -0.000492209, 0.0002593961
 249635939, -0.003685439, 0.003122906, -0.000560902, 0.0002593961
 249735899, -0.003718192, 0.003126936, -0.0009597727, 0.0002593961
 249835859, -0.003842929, 0.003232676, -0.0007767715, 0.0002593961
 249935819, -0.004056269, 0.003287501, -0.0007376235, 0.0002593961
 250035779, -0.004239322, 0.003169999, -0.0003138395, 0.0002593961
 250135739, -0.0040633, 0.00333262, -0.0008150476, 0.0002593961
 250235699, -0.003984504, 0.003174818, -0.0004666404, 0.0002593961
 250335659, -0.00669856, 0.003166871, -0.0004601998, 0.0002593961
 250436452, -0.005410983, 0.003182542, 0.0001705329, 0.0002615578
 250536412, -0.00389761, 0.003340719, 0.0001113088, 0.0002593961
 250636372, -0.003198673, 0.003178377, 0.0004393513, 0.0002593961
 250736332, 0.001103323, 0.003106678, -8.526488E-05, 0.0002593961
 250836292, -0.00100163, 0.003083903, 0.000136595, 0.0002593961
 250936252, -0.003405582, 0.003058133, 0.000179567, 0.0002593961
 251036212, -0.006072281, 0.002931715, 0.0001182751, 0.0002593961
 251136172, -0.008900611, 0.00293284, -7.150531E-05, 0.0002593961
 251236132, -0.005651969, 0.003128537, -5.973094E-05, 0.0002593961
 251336092, -0.003396678, 0.003423371, -0.0004919944, 0.0002593961
 251436052, -0.002278453, 0.003522352, -0.0003414147, 0.0002593961
 251536012, 0.001785352, 0.003891071, -0.0007444978, 0.0002593961
 251635972, 2.069974E-05, 0.003952754, -0.0002911905, 0.0002593961
 251735932, -0.003016084, 0.003974599, -0.0007430214, 0.0002593961
 251835892, -0.00461704, 0.003514725, 2.155992E-05, 0.0002593961
 251935852, -0.005237283, 0.0030023, 0.0001207334, 0.0002593961
 252035812, -0.008628936, 0.002563914, 0.0002257433, 0.0002593961
 252135772, -0.006911825, 0.002548565, 0.0001077996, 0.0002593961
 252235732, -0.004421118, 0.002684613, 0.000735594, 0.0002593961
 252335692, -0.003072747, 0.002709515, 0.0007617715, 0.0002593961
 252436485, -0.001916403, 0.003457404, 0.0003863708, 0.0002615578
 252536445, 0.001710105, 0.003897314, -0.0002465501, 0.0002593961
 252636405, -0.0003711393, 0.004334013, -0.0001071096, 0.0002593961
 252736365, -0.002792504, 0.004289492, -0.0004509051, 0.0002593961
 252836325, -0.004013777, 0.00402145, -0.0004672434, 0.0002593961
 252936285, -0.004285583, 0.003805182, -0.0009347144, 0.0002593961
 253036245, -0.004204426, 0.003894887, -0.0009564841, 0.0002593961
 253136205, -0.004033643, 0.003814731, -0.0008160331, 0.0002593961
 253236165, -0.006720704, 0.00373753, 0.0001008215, 0.0002593961
 253336125, -0.007208334, 0.003597027, -0.0006119031, 0.0002593961
 253436085, -0.004139557, 0.003710763, -0.0006352637, 0.0002593961
 253536045, 0.0006381014, 0.003590748, -0.0003714267, 0.0002593961
 253636005, 0.001055759, 0.003695461, -0.0006543594, 0.0002593961
 253735965, -0.002131735, 0.003908758, -0.0008428061, 0.0002593961
 253835925, -0.004138757, 0.003957841, -0.00120774, 0.0002593961
 253935885, -0.005399891, 0.004068119, -0.00145461, 0.0002593961
 254035845, -0.007995811, 0.004049558, -0.001161229, 0.0002593961
 254135805, -0.00845131, 0.003957053, -0.000701807, 0.0002593961
 254235765, -0.005012401, 0.004306585, -0.0007324935, 0.0002593961
 254335725, -0.002837651, 0.00419831, -0.0005953362, 0.0002593961
 254435685, -0.001967858, 0.004426817, -0.0004531251, 0.0002593961
 254536478, -0.00227039, 0.004666986, -9.644861E-05, 0.0002615578
 254636438, -0.002620317, 0.004706559, -0.0002434484, 0.0002593961
 254736398, -0.002828624, 0.00444545, -0.0001498815, 0.0002593961
 254836358, -0.003757741, 0.004060939, 0.0008878218, 0.0002593961
 254936318, -0.003616635, 0.003699338, 0.0004022515, 0.0002593961
 255036278, -0.003680337, 0.003413595, 0.0007291974, 0.0002593961
 255136238, -0.00335512, 0.003365012, 0.0002959165, 0.0002593961
 255236198, -0.003400158, 0.003534307, 0.0008130682, 0.0002593961
 255336158, -0.003339675, 0.003664077, 0.0005379122, 0.0002593961
 255436118, -0.003487711, 0.003802869, 0.001191766, 0.0002593961
 255536078, -0.003206042, 0.003704302, 0.000952746, 0.0002593961
 255636038, -0.00284452, 0.003737614, 0.0004408575, 0.0002593961
 255735998, -0.00260555, 0.003620126, -0.0001861888, 0.0002593961
 255835958, -0.002754575, 0.003451149, -0.0003297774, 0.0002593961
 255935918, -0.002878768, 0.003735755, -0.000544391, 0.0002593961
 256035878, 0.00233457, 0.003812108, -0.0002070695, 0.0002593961
 256135838, -0.0006045817, 0.003754214, -0.0001453283, 0.0002593961
 256235798, -0.009877546, 0.003807269, 0.0003998658, 0.0002593961
 256335758, -0.0111403, 0.003963278, 0.0003915174, 0.0002593961
 256435718, -0.006010154, 0.003815878, 0.000759113, 0.0002593961
 256535678, -0.002432192, 0.003660269, 0.0003314004, 0.0002593961
 256636471, 0.0009949217, 0.003875062, 0.0004710112, 0.0002615578
 256736431, 0.008136484, 0.003796617, -0.000370153, 0.0002593961
 256836391, 0.001980207, 0.004150299, -0.0006051646, 0.0002593961
 256936351, -0.002759074, 0.004278135, -0.0009065575, 0.0002593961
 257036311, -0.005623652, 0.004347378, -0.0009536932, 0.0002593961
 257136271, -0.006834115, 0.004395431, -0.0002443004, 0.0002593961
 257236231, -0.0123673, 0.004550083, 5.560079E-05, 0.0002593961
 257336191, -0.01092289, 0.004557712, 0.000121465, 0.0002593961
 257436151, -0.004619071, 0.004444577, 0.000485182, 0.0002593961
 257536111, -0.001134295, 0.004350718, 0.0001903821, 0.0002593961
 257636071, 0.006697236, 0.004469985, 6.865854E-05, 0.0002593961
 257736031, 0.004350139, 0.004418067, -0.0003033425, 0.0002593961
 257835991, -0.001112194, 0.00409141, -0.0007434387, 0.0002593961
 257935951, -0.004396873, 0.003914295, -0.001060667, 0.0002593961
 258035911, -0.006428398, 0.004077219, -0.0005800703, 0.0002593961
 258135871, -0.00670445, 0.003971391, -0.0004146156, 0.0002593961
 258235831, -0.01179497, 0.003968149, -0.0001218594, 0.0002593961
 258335791, -0.009749287, 0.00399116, -0.0001028305, 0.0002593961
 258435751, -0.004147869, 0.004163587, 0.0006195653, 0.0002593961
 258535711, -0.0008276958, 0.004403148, 0.0005783461, 0.0002593961
 258635671, 0.007377814, 0.004583857, 0.0003959394, 0.0002593961
 258736464, 0.003139751, 0.004694493, 0.0002013184, 0.0002615578
 258836424, -0.002090816, 0.004797671, 0.0001946564, 0.0002593961
 258936384, -0.004792234, 0.004564248, 0.0001568882, 0.0002593961
 259036344, -0.00593693, 0.00404943, 0.0003144329, 0.0002593961
 259136304, -0.005846085, 0.003788368, 0.0005239404, 0.0002593961
 259236264, -0.01055226, 0.003547773, 0.0009640877, 0.0002593961
 259336224, -0.01049885, 0.003712776, 0.0008553587, 0.0002593961
 259436184, -0.004508572, 0.003516345, 0.001091448, 0.0002593961
 259536144, 0.003021384, 0.003806445, 0.0006003671, 0.0002593961
 259636104, 0.007372167, 0.003838547, 0.0007261053, 0.0002593961
 259736064, 0.001304099, 0.004109308, 0.0005692922, 0.0002593961
 259836024, -0.002962795, 0.004134538, 0.000562413, 0.0002593961
 259935984, -0.005168071, 0.004023392, 0.0003989674, 0.0002593961
 260035944, -0.006246124, 0.003940688, 0.000862518, 0.0002593961
 260135904, -0.005417823, 0.004053722, 0.000622698, 0.0002593961
 260235864, -0.009228139, 0.004013698, 0.0004870516, 0.0002593961
 260335824, -0.0106526, 0.004004116, -0.0003555651, 0.0002593961
 260435784, 0.004025188, 0.004216105, -0.0009646871, 0.0002593961
 260535744, 0.01015218, 0.0044359, -0.01824946, 0.0002593961
 260635704, -0.002462365, 0.005234598, -0.03423671, 0.0002593961
 260735664, -0.02649182, 0.006517117, -0.04187971, 0.0002593961
 260836457, -0.04619838, 0.008426157, -0.04543862, 0.0002615578
 260936417, -0.06657698, 0.009653554, -0.04461546, 0.0002593961
 261036377, -0.08293343, 0.01040964, -0.04259432, 0.0002593961
 261136337, -0.09195863, 0.01102688, -0.03914854, 0.0002593961
 261236297, -0.0940257, 0.01087714, -0.03893086, 0.0002593961
 261336257, -0.08084925, 0.01129365, -0.08517515, 0.0002593961
 261436217, -0.06237658, 0.0106199, -0.1089327, 0.0002593961
