TimeUS,CGpN,CGpE,CGpD,CGpe,PGpN,PGpE,PGpD,PGpe
 170860795, 0, 0, 0, 2.5, 0, 0, 0, 0
 171030727, 0, 0, 0, 2.5, 0, 0, 0, 2.5
 171231480, 0, 0, 0, 2.5, 0, 0, 0, 2.5
 171431400, 0, 0, 0, 2.5, 0, 0, 0, 2.5
 171631320, 0, 0, 0, 2.5, 0, 0, 0, 2.5
 171831240, 0, 0, 0, 2.5, 0, 0, 0, 2.5
 172031160, 0, 0, 0, 2.5, 0, 0, 0, 2.5
 172231080, 0, 0, 0, 2.5, 0, 0, 0, 2.5
 172431000, 0, 0, 0, 2.5, 0, 0, 0, 2.5
 172630920, 0, 0, 0, 2.5, 0, 0, 0, 2.5
 172830840, 0, 0, 0, 2.5, 0, 0, 0, 2.5
 173030760, 0, 0, 0, 2.5, 0, 0, 0, 2.5
 173230680, 0, 0, 0, 2.5, 0, 0, 0, 2.5
 173431433, 0, 0, 0, 2.5, 0, 0, 0, 2.5
 173631353, 0, 0, 0, 2.5, 0, 0, 0, 2.5
 173831273, 0, 0, 0, 2.5, 0, 0, 0, 2.5
 174031193, 0, 0, 0, 2.5, 0, 0, 0, 2.5
 174231113, 0, 0, 0, 2.5, 0, 0, 0, 2.5
 174431033, 0, 0, 0, 2.5, 0, 0, 0, 2.5
 174630953, 0, 0, 0, 2.5, 0, 0, 0, 2.5
 174830873, 0, 0, 0, 2.5, 0, 0, 0, 2.5
 175030793, 0, 0, 0, 2.5, 0, 0, 0, 2.5
 175230713, 0, 0, 0, 2.5, 0, 0, 0, 2.5
 175431466, 0, 0, 0, 2.5, 0, 0, 0, 2.5
 175631386, 0, 0, 0, 2.5, 0, 0, 0, 2.5
 175831306, 0, 0, 0, 2.5, 0, 0, 0, 2.5
 176031226, 0, 0, 0, 2.5, 0, 0, 0, 2.5
 176231146, 0, 0, 0, 2.5, 0, 0, 0, 2.5
 176431066, 0, 0, 0, 2.5, 0, 0, 0, 2.5
 176630986, 0, 0, 0, 2.5, 0, 0, 0, 2.5
 176830906, 0, 0, 0, 2.5, 0, 0, 0, 2.5
 177030826, 0, 0, 0, 2.5, 0, 0, 0, 2.5
 177230746, 0, 0, 0, 2.5, 0, 0, 0, 2.5
 177430666, 0, 0, 0, 2.5, 0, 0, 0, 2.5
 177631419, 0, 0, 0, 2.5, 0, 0, 0, 2.5
 177831339, 0, 0, 0, 2.5, 0, 0, 0, 2.5
 178031259, 0, 0, 0, 2.5, 0, 0, 0, 2.5
 178231179, 0, 0, 0, 2.5, 0, 0, 0, 2.5
 178431099, 0, 0, 0, 2.5, 0, 0, 0, 2.5
 178631019, 0, 0, 0, 2.5, 0, 0, 0, 2.5
 178830939, 0, 0, 0, 2.5, 0, 0, 0, 2.5
 179030859, 0, 0, 0, 2.5, 0, 0, 0, 2.5
 179230779, 0, 0, 0, 2.5, 0, 0, 0, 2.5
 179430699, 0, 0, 0, 2.5, 0, 0, 0, 2.5
 179631452, 0, 0, 0, 2.5, 0, 0, 0, 2.5
 179831372, 0, 0, 0, 2.5, 0, 0, 0, 2.5
 180031292, 0, 0, 0, 2.5, 0, 0, 0, 2.5
 180231212, 0, 0, 0, 2.5, 0, 0, 0, 2.5
 180431132, 0, 0, 0, 2.5, 0, 0, 0, 2.5
 180631052, 0, 0, 0, 2.5, 0, 0, 0, 2.5
 180830972, 0, 0, 0, 2.5, 0, 0, 0, 2.5
 181030892, 0, 0, 0, 2.5, 0, 0, 0, 2.5
 181230812, 0, 0, 0, 2.5, 0, 0, 0, 2.5
 181430732, 0, 0, 0, 2.5, 0, 0, 0, 2.5
 181631485, 0, 0, 0, 2.5, 0, 0, 0, 2.5
 181831405, 0, 0, 0, 2.5, 0, 0, 0, 2.5
 182031325, 0, 0, 0, 2.5, 0, 0, 0, 2.5
 182231245, 0, 0, 0, 2.5, 0, 0, 0, 2.5
 182431165, 0, 0, 0, 2.5, 0, 0, 0, 2.5
 182631085, 0, 0, 0, 2.5, 0, 0, 0, 2.5
 182831005, 0, 0, 0, 2.5, 0, 0, 0, 2.5
 183030925, 0, 0, 0, 2.5, 0, 0, 0, 2.5
 183230845, 0, 0, 0, 2.5, 0, 0, 0, 2.5
 183430765, 0, 0, 0, 2.5, 0, 0, 0, 2.5
 183630685, 0, 0, 0, 2.5, 0, 0, 0, 2.5
 183831438, 0, 0, 0, 2.5, 0, 0, 0, 2.5
 184031358, 0, 0, 0, 2.5, 0, 0, 0, 2.5
 184231278, 0, 0, 0, 2.5, 0, 0, 0, 2.5
 184431198, 0, 0, 0, 2.5, 0, 0, 0, 2.5
 184631118, 0, 0, 0, 2.5, 0, 0, 0, 2.5
 184831038, 0, 0, 0, 2.5, 0, 0, 0, 2.5
 185030958, 0, 0, 0, 2.5, 0, 0, 0, 2.5
 185230878, 0, 0, 0, 2.5, 0, 0, 0, 2.5
 185430798, 0, 0, 0, 2.5, 0, 0, 0, 2.5
 185630718, 0, 0, 0, 2.5, 0, 0, 0, 2.5
 185831471, 0, 0, 0, 2.5, 0, 0, 0, 2.5
 186031391, 0, 0, 0, 2.5, 0, 0, 0, 2.5
 186231311, 0, 0, 0, 2.5, 0, 0, 0, 2.5
 186431231, 0, 0, 0, 2.5, 0, 0, 0, 2.5
 186631151, 0, 0, 0, 2.5, 0, 0, 0, 2.5
 186831071, 0, 0, 0, 2.5, 0, 0, 0, 2.5
 187030991, 0, 0, 0, 2.5, 0, 0, 0, 2.5
 187230911, 0, 0, 0, 2.5, 0, 0, 0, 2.5
 187430831, 0, 0, 0, 2.5, 0, 0, 0, 2.5
 187630751, 0, 0, 0, 2.5, 0, 0, 0, 2.5
 187830671, 0, 0, 0, 2.5, 0, 0, 0, 2.5
 188031424, 0, 0, 0, 2.5, 0, 0, 0, 2.5
 188231344, 0, 0, 0, 2.5, 0, 0, 0, 2.5
 188431264, 0, 0, 0, 2.5, 0, 0, 0, 2.5
 188631184, 0, 0, 0, 2.5, 0, 0, 0, 2.5
 188831104, 0, 0, 0, 2.5, 0, 0, 0, 2.5
 189031024, 0, 0, 0, 2.5, 0, 0, 0, 2.5
 189230944, 0, 0, 0, 2.5, 0, 0, 0, 2.5
 189430864, 0, 0, 0, 2.5, 0, 0, 0, 2.5
 189630784, 0, 0, 0, 2.5, 0, 0, 0, 2.5
 189830704, 0, 0, 0, 2.5, 0, 0, 0, 2.5
 190031457, 0, 0, 0, 2.5, 0, 0, 0, 2.5
 190231377, 0, 0, 0, 2.5, 0, 0, 0, 2.5
 190431297, 0, 0, 0, 2.5, 0, 0, 0, 2.5
 190631217, 0, 0, 0, 2.5, 0, 0, 0, 2.5
 190831137, 0, 0, 0, 2.5, 0, 0, 0, 2.5
 191031057, 0, 0, 0, 2.5, 0, 0, 0, 2.5
 191230977, 0, 0, 0, 2.5, 0, 0, 0, 2.5
 191430897, 0, 0, 0, 2.5, 0, 0, 0, 2.5
 191630817, 0, 0, 0, 2.5, 0, 0, 0, 2.5
 191830737, 0, 0, 0, 2.5, 0, 0, 0, 2.5
 192030657, 0, 0, 0, 2.5, 0, 0, 0, 2.5
 192231410, 0, 0, 0, 2.5, 0, 0, 0, 2.5
 192431330, 0, 0, 0, 2.5, 0, 0, 0, 2.5
 192631250, 0, 0, 0, 2.5, 0, 0, 0, 2.5
 192831170, 0, 0, 0, 2.5, 0, 0, 0, 2.5
 193031090, 0, 0, 0, 2.5, 0, 0, 0, 2.5
 193231010, 0, 0, 0, 2.5, 0, 0, 0, 2.5
 193430930, 0, 0, 0, 2.5, 0, 0, 0, 2.5
 193630850, 0, 0, 0, 2.5, 0, 0, 0, 2.5
 193830770, 0, 0, 0, 2.5, 0, 0, 0, 2.5
 194030690, 0, 0, 0, 2.5, 0, 0, 0, 2.5
 194231443, 0, 0, 0, 2.5, 0, 0, 0, 2.5
 194431363, 0, 0, 0, 2.5, 0, 0, 0, 2.5
 194631283, 0, 0, 0, 2.5, 0, 0, 0, 2.5
 194831203, 0, 0, 0, 2.5, 0, 0, 0, 2.5
 195031123, 0, 0, 0, 2.5, 0, 0, 0, 2.5
 195231043, 0, 0, 0, 2.5, 0, 0, 0, 2.5
 195430963, 0, 0, 0, 2.5, 0, 0, 0, 2.5
 195630883, 0, 0, 0, 2.5, 0, 0, 0, 2.5
 195830803, 0, 0, 0, 2.5, 0, 0, 0, 2.5
 196030723, 0, 0, 0, 2.5, 0, 0, 0, 2.5
 196231476, 0, 0, 0, 2.5, 0, 0, 0, 2.5
 196431396, 0, 0, 0, 2.5, 0, 0, 0, 2.5
 196631316, 0, 0, 0, 2.5, 0, 0, 0, 2.5
 196831236, 0, 0, 0, 2.5, 0, 0, 0, 2.5
 197031156, 0, 0, 0, 2.5, 0, 0, 0, 2.5
 197231076, 0, 0, 0, 2.5, 0, 0, 0, 2.5
 197430996, 0, 0, 0, 2.5, 0, 0, 0, 2.5
 197630916, 0, 0, 0, 2.5, 0, 0, 0, 2.5
 197830836, 0, 0, 0, 2.5, 0, 0, 0, 2.5
 198030756, 0, 0, 0, 2.5, 0, 0, 0, 2.5
 198230676, 0, 0, 0, 2.5, 0, 0, 0, 2.5
 198431429, 0, 0, 0, 2.5, 0, 0, 0, 2.5
 198631349, 0, 0, 0, 2.5, 0, 0, 0, 2.5
 198831269, 0, 0, 0, 2.5, 0, 0, 0, 2.5
 199031189, 0, 0, 0, 2.5, 0, 0, 0, 2.5
 199231109, 0, 0, 0, 2.5, 0, 0, 0, 2.5
 199431029, 0, 0, 0, 2.5, 0, 0, 0, 2.5
 199630949, 0, 0, 0, 2.5, 0, 0, 0, 2.5
 199830869, 0, 0, 0, 2.5, 0, 0, 0, 2.5
 200030789, 0, 0, 0, 2.5, 0, 0, 0, 2.5
 200230709, 0, 0, 0, 2.5, 0, 0, 0, 2.5
 200431462, 0, 0, 0, 2.5, 0, 0, 0, 2.5
 200631382, 0, 0, 0, 2.5, 0, 0, 0, 2.5
 200831302, 0, 0, 0, 2.5, 0, 0, 0, 2.5
 201031222, 0, 0, 0, 2.5, 0, 0, 0, 2.5
 201231142, 0, 0, 0, 2.5, 0, 0, 0, 2.5
 201431062, 0, 0, 0, 2.5, 0, 0, 0, 2.5
 201630982, 0, 0, 0, 2.5, 0, 0, 0, 2.5
 201830902, 0, 0, 0, 2.5, 0, 0, 0, 2.5
 202030822, 0, 0, 0, 2.5, 0, 0, 0, 2.5
 202230742, 0, 0, 0, 2.5, 0, 0, 0, 2.5
 202430662, 0, 0, 0, 2.5, 0, 0, 0, 2.5
 202631415, 0, 0, 0, 2.5, 0, 0, 0, 2.5
 202831335, 0, 0, 0, 2.5, 0, 0, 0, 2.5
 203031255, 0, 0, 0, 2.5, 0, 0, 0, 2.5
 203231175, 0, 0, 0, 2.5, 0, 0, 0, 2.5
 203431095, 0, 0, 0, 2.5, 0, 0, 0, 2.5
 203631015, 0, 0, 0, 2.5, 0, 0, 0, 2.5
 203830935, 0, 0, 0, 2.5, 0, 0, 0, 2.5
 204030855, 0, 0, 0, 2.5, 0, 0, 0, 2.5
 204230775, 0, 0, 0, 2.5, 0, 0, 0, 2.5
 204430695, 0, 0, 0, 2.5, 0, 0, 0, 2.5
 204631448, 0, 0, 0, 2.5, 0, 0, 0, 2.5
 204831368, 0, 0, 0, 2.5, 0, 0, 0, 2.5
 205031288, 0, 0, 0, 2.5, 0, 0, 0, 2.5
 205231208, 0, 0, 0, 2.5, 0, 0, 0, 2.5
 205431128, 0, 0, 0, 2.5, 0, 0, 0, 2.5
 205631048, 0, 0, 0, 2.5, 0, 0, 0, 2.5
 205830968, 0, 0, 0, 2.5, 0, 0, 0, 2.5
 206030888, 0, 0, 0, 2.5, 0, 0, 0, 2.5
 206230808, 0, 0, 0, 2.5, 0, 0, 0, 2.5
 206430728, 0, 0, 0, 2.5, 0, 0, 0, 2.5
 206631481, 0, 0, 0, 2.5, 0, 0, 0, 2.5
 206831401, 0, 0, 0, 2.5, 0, 0, 0, 2.5
 207031321, 0, 0, 0, 2.5, 0, 0, 0, 2.5
 207231241, 0, 0, 0, 2.5, 0, 0, 0, 2.5
 207431161, 0, 0, 0, 2.5, 0, 0, 0, 2.5
 207631081, 0, 0, 0, 2.5, 0, 0, 0, 2.5
 207831001, 0, 0, 0, 2.5, 0, 0, 0, 2.5
 208030921, 0, 0, 0, 2.5, 0, 0, 0, 2.5
 208230841, 0, 0, 0, 2.5, 0, 0, 0, 2.5
 208430761, 0, 0, 0, 2.5, 0, 0, 0, 2.5
 208630681, 0, 0, 0, 2.5, 0, 0, 0, 2.5
 208831434, 0, 0, 0, 2.5, 0, 0, 0, 2.5
 209031354, 0, 0, 0, 2.5, 0, 0, 0, 2.5
 209231274, 0, 0, 0, 2.5, 0, 0, 0, 2.5
 209431194, 0, 0, 0, 2.5, 0, 0, 0, 2.5
 209631114, 0, 0, 0, 2.5, 0, 0, 0, 2.5
 209831034, 0, 0, 0, 2.5, 0, 0, 0, 2.5
 210030954, 0, 0, 0, 2.5, 0, 0, 0, 2.5
 210230874, 0, 0, 0, 2.5, 0, 0, 0, 2.5
 210430794, 0, 0, 0, 2.5, 0, 0, 0, 2.5
 210630714, 0, 0, 0, 2.5, 0, 0, 0, 2.5
 210831467, 0, 0, 0, 2.5, 0, 0, 0, 2.5
 211031387, 0, 0, 0, 2.5, 0, 0, 0, 2.5
 211231307, 0, 0, 0, 2.5, 0, 0, 0, 2.5
 211431227, 0, 0, 0, 2.5, 0, 0, 0, 2.5
 211631147, 0, 0, 0, 2.5, 0, 0, 0, 2.5
 211831067, 0, 0, 0, 2.5, 0, 0, 0, 2.5
 212030987, 0, 0, 0, 2.5, 0, 0, 0, 2.5
 212230907, 0, 0, 0, 2.5, 0, 0, 0, 2.5
 212430827, 0, 0, 0, 2.5, 0, 0, 0, 2.5
 212630747, 0, 0, 0, 2.5, 0, 0, 0, 2.5
 212830667, 0, 0, 0, 2.5, 0, 0, 0, 2.5
 213031420, 0, 0, 0, 2.5, 0, 0, 0, 2.5
 213231340, 0, 0, 0, 2.5, 0, 0, 0, 2.5
 213431260, 0, 0, 0, 2.5, 0, 0, 0, 2.5
 213631180, 0, 0, 0, 2.5, 0, 0, 0, 2.5
 213831100, 0, 0, 0, 2.5, 0, 0, 0, 2.5
 214031020, 0, 0, 0, 2.5, 0, 0, 0, 2.5
 214230940, 0, 0, 0, 2.5, 0, 0, 0, 2.5
 214430860, 0, 0, 0, 2.5, 0, 0, 0, 2.5
 214630780, 0, 0, 0, 2.5, 0, 0, 0, 2.5
 214830700, 0, 0, 0, 2.5, 0, 0, 0, 2.5
 215031453, 0, 0, 0, 2.5, 0, 0, 0, 2.5
 215231373, 0, 0, 0, 2.5, 0, 0, 0, 2.5
 215431293, 0, 0, 0, 2.5, 0, 0, 0, 2.5
 215631213, 0, 0, 0, 2.5, 0, 0, 0, 2.5
 215831133, 0, 0, 0, 2.5, 0, 0, 0, 2.5
 216031053, 0, 0, 0, 2.5, 0, 0, 0, 2.5
 216230973, 0, 0, 0, 2.5, 0, 0, 0, 2.5
 216430893, 0, 0, 0, 2.5, 0, 0, 0, 2.5
 216630813, 0, 0, 0, 2.5, 0, 0, 0, 2.5
 216830733, 0, 0, 0, 2.5, 0, 0, 0, 2.5
 217031486, 0, 0, 0, 2.5, 0, 0, 0, 2.5
 217231406, 0, 0, 0, 2.5, 0, 0, 0, 2.5
 217431326, 0, 0, 0, 2.5, 0, 0, 0, 2.5
 217631246, 0, 0, 0, 2.5, 0, 0, 0, 2.5
 217831166, 0, 0, 0, 2.5, 0, 0, 0, 2.5
 218031086, 0, 0, 0, 2.5, 0, 0, 0, 2.5
 218231006, 0, 0, 0, 2.5, 0, 0, 0, 2.5
 218430926, 0, 0, 0, 2.5, 0, 0, 0, 2.5
 218630846, 0, 0, 0, 2.5, 0, 0, 0, 2.5
 218830766, 0, 0, 0, 2.5, 0, 0, 0, 2.5
 219030686, 0, 0, 0, 2.5, 0, 0, 0, 2.5
 219231439, 0, 0, 0, 2.5, 0, 0, 0, 2.5
 219431359, 0, 0, 0, 2.5, 0, 0, 0, 2.5
 219631279, 0, 0, 0, 2.5, 0, 0, 0, 2.5
 219831199, 0, 0, 0, 2.5, 0, 0, 0, 2.5
 220031119, 0, 0, 0, 2.5, 0, 0, 0, 2.5
 220231039, 0, 0, 0, 2.5, 0, 0, 0, 2.5
 220430959, 0, 0, 0, 2.5, 0, 0, 0, 2.5
 220630879, 0, 0, 0, 2.5, 0, 0, 0, 2.5
 220830799, 0, 0, 0, 2.5, 0, 0, 0, 2.5
 221030719, 0, 0, 0, 2.5, 0, 0, 0, 2.5
 221231472, 0, 0, 0, 2.5, 0, 0, 0, 2.5
 221431392, 0, 0, 0, 2.5, 0, 0, 0, 2.5
 221631312, 0, 0, 0, 2.5, 0, 0, 0, 2.5
 221831232, 0, 0, 0, 2.5, 0, 0, 0, 2.5
 222031152, 0, 0, -0.253, 2.5, 0, 0, 0, 2.5
 222231072, 0, 0, -0.284, 2.5, 0, 0, -0.253, 2.5
 222430992, 0, 0, -0.185, 2.5, 0, 0, -0.284, 2.5
 222630912, -0.002, -0.003, -1.291, 2.5, 0, 0, -0.185, 2.5
 222830832, -0.014, -0.016, -2.052, 2.5, -0.002, -0.003, -1.291, 2.5
 223030752, -0.029, -0.032, -2.181, 2.5, -0.014, -0.016, -2.052, 2.5
 223230672, -0.044, -0.048, -2.387, 2.5, -0.029, -0.032, -2.181, 2.5
 223431425, -0.057, -0.061, -2.629, 2.5, -0.044, -0.048, -2.387, 2.5
 223631345, -0.068, -0.072, -2.821, 2.5, -0.057, -0.061, -2.629, 2.5
 223831265, -0.07700001, -0.08000001, -2.985, 2.5, -0.068, -0.072, -2.821, 2.5
 224031185, -0.085, -0.086, -3.131, 2.5, -0.07700001, -0.08000001, -2.985, 2.5
 224231105, -0.09200001, -0.09, -3.26, 2.5, -0.085, -0.086, -3.131, 2.5
 224431025, -0.098, -0.094, -3.373, 2.5, -0.09200001, -0.09, -3.26, 2.5
 224630945, -0.102, -0.097, -3.472, 2.5, -0.098, -0.094, -3.373, 2.5
 224830865, -0.106, -0.09900001, -3.559, 2.5, -0.102, -0.097, -3.472, 2.5
 225030785, -0.108, -0.101, -3.634, 2.5, -0.106, -0.09900001, -3.559, 2.5
 225230705, -0.109, -0.102, -3.7, 2.5, -0.108, -0.101, -3.634, 2.5
 225431458, -0.111, -0.104, -3.759, 2.5, -0.109, -0.102, -3.7, 2.5
 225631378, -0.113, -0.106, -3.81, 2.5, -0.111, -0.104, -3.759, 2.5
 225831298, -0.113, -0.108, -3.671, 2.5, -0.113, -0.106, -3.81, 2.5
 226031218, -0.111, -0.108, -3.121, 2.5, -0.113, -0.108, -3.671, 2.5
 226231138, -0.109, -0.108, -2.642, 2.5, -0.111, -0.108, -3.121, 2.5
 226431058, -0.108, -0.109, -2.238, 2.5, -0.109, -0.108, -2.642, 2.5
 226630978, -0.112, -0.11, -1.915, 2.5, -0.108, -0.109, -2.238, 2.5
 226830898, -0.133, -0.101, -1.651, 2.5, -0.112, -0.11, -1.915, 2.5
 227030818, -0.139, -0.064, -1.458, 2.5, -0.133, -0.101, -1.651, 2.5
 227230738, -0.05, 0.034, -1.323, 2.5, -0.139, -0.064, -1.458, 2.5
 227430658, 0.156, 0.199, -1.223, 2.5, -0.05, 0.034, -1.323, 2.5
 227631411, 0.409, 0.36, -1.149, 2.5, 0.156, 0.199, -1.223, 2.5
 227831331, 0.631, 0.453, -1.102, 2.5, 0.409, 0.36, -1.149, 2.5
 228031251, 0.803, 0.507, -1.081, 2.5, 0.631, 0.453, -1.102, 2.5
 228231171, 0.9680001, 0.565, -1.087, 2.5, 0.803, 0.507, -1.081, 2.5
 228431091, 1.165, 0.6390001, -1.116, 2.5, 0.9680001, 0.565, -1.087, 2.5
 228631011, 1.366, 0.753, -1.168, 2.5, 1.165, 0.6390001, -1.116, 2.5
 228830931, 1.549, 0.8880001, -1.252, 2.5, 1.366, 0.753, -1.168, 2.5
 229030851, 1.717, 1.011, -1.353, 2.5, 1.549, 0.8880001, -1.252, 2.5
 229230771, 1.903, 1.089, -1.46, 2.5, 1.717, 1.011, -1.353, 2.5
 229430691, 2.134, 1.131, -1.567, 2.5, 1.903, 1.089, -1.46, 2.5
 229631444, 2.385, 1.154, -1.672, 2.5, 2.134, 1.131, -1.567, 2.5
 229831364, 2.607, 1.167, -1.77, 2.5, 2.385, 1.154, -1.672, 2.5
 230031284, 2.787, 1.188, -1.855, 2.5, 2.607, 1.167, -1.77, 2.5
 230231204, 2.958, 1.221, -1.922, 2.5, 2.787, 1.188, -1.855, 2.5
 230431124, 3.153, 1.226, -1.975, 2.5, 2.958, 1.221, -1.922, 2.5
 230631044, 3.347, 1.212, -2.021, 2.5, 3.153, 1.226, -1.975, 2.5
 230830964, 3.483, 1.209, -2.003, 2.5, 3.347, 1.212, -2.021, 2.5
 231030884, 3.542, 1.235, -1.953, 2.5, 3.483, 1.209, -2.003, 2.5
 231230804, 3.548, 1.303, -1.891, 2.5, 3.542, 1.235, -1.953, 2.5
 231430724, 3.542, 1.397, -1.826, 2.5, 3.548, 1.303, -1.891, 2.5
 231631477, 3.537, 1.493, -1.771, 2.5, 3.542, 1.397, -1.826, 2.5
 231831397, 3.536, 1.558, -1.728, 2.5, 3.537, 1.493, -1.771, 2.5
 232031317, 3.55, 1.572, -1.707, 2.5, 3.536, 1.558, -1.728, 2.5
 232231237, 3.571, 1.567, -1.704, 2.5, 3.55, 1.572, -1.707, 2.5
 232431157, 3.578, 1.576, -1.701, 2.5, 3.571, 1.567, -1.704, 2.5
 232631077, 3.564, 1.617, -1.688, 2.5, 3.578, 1.576, -1.701, 2.5
 232830997, 3.547, 1.678, -1.681, 2.5, 3.564, 1.617, -1.688, 2.5
 233030917, 3.53, 1.734, -1.67, 2.5, 3.547, 1.678, -1.681, 2.5
 233230837, 3.526, 1.76, -1.664, 2.5, 3.53, 1.734, -1.67, 2.5
 233430757, 3.536, 1.752, -1.665, 2.5, 3.526, 1.76, -1.664, 2.5
 233630677, 3.555, 1.719, -1.664, 2.5, 3.536, 1.752, -1.665, 2.5
 233831430, 3.573, 1.69, -1.668, 2.5, 3.555, 1.719, -1.664, 2.5
 234031350, 3.577, 1.669, -1.64, 2.5, 3.573, 1.69, -1.668, 2.5
 234231270, 3.592, 1.642, -1.634, 2.5, 3.577, 1.669, -1.64, 2.5
 234431190, 3.623, 1.588, -1.64, 2.5, 3.592, 1.642, -1.634, 2.5
 234631110, 3.656, 1.532, -1.656, 2.5, 3.623, 1.588, -1.64, 2.5
 234831030, 3.675, 1.495, -1.664, 2.5, 3.656, 1.532, -1.656, 2.5
 235030950, 3.678, 1.492, -1.661, 2.5, 3.675, 1.495, -1.664, 2.5
 235230870, 3.667, 1.528, -1.648, 2.5, 3.678, 1.492, -1.661, 2.5
 235430790, 3.652, 1.575, -1.629, 2.5, 3.667, 1.528, -1.648, 2.5
 235630710, 3.645, 1.604, -1.615, 2.5, 3.652, 1.575, -1.629, 2.5
 235831463, 3.652, 1.609, -1.62, 2.5, 3.645, 1.604, -1.615, 2.5
 236031383, 3.625, 1.59, -1.523, 2.5, 3.652, 1.609, -1.62, 2.5
 236231303, 3.537, 1.517, -1.346, 2.5, 3.625, 1.59, -1.523, 2.5
 236431223, 3.473, 1.372, -1.116, 2.5, 3.537, 1.517, -1.346, 2.5
 236631143, 3.476, 1.193, -0.8660001, 2.5, 3.473, 1.372, -1.116, 2.5
 236831063, 3.517, 1.03, -0.641, 2.5, 3.476, 1.193, -0.8660001, 2.5
 237030983, 3.575, 0.89, -0.454, 2.5, 3.517, 1.03, -0.641, 2.5
 237230903, 3.651, 0.772, -0.308, 2.5, 3.575, 0.89, -0.454, 2.5
 237430823, 3.747, 0.677, -0.2, 2.5, 3.651, 0.772, -0.308, 2.5
 237630743, 3.865, 0.59, -0.125, 2.5, 3.747, 0.677, -0.2, 2.5
 237830663, 3.999, 0.512, -0.07600001, 2.5, 3.865, 0.59, -0.125, 2.5
 238031416, 4.148, 0.441, -0.044, 2.5, 3.999, 0.512, -0.07600001, 2.5
 238231336, 4.313, 0.361, -0.024, 2.5, 4.148, 0.441, -0.044, 2.5
 238431256, 4.485, 0.262, -0.013, 2.5, 4.313, 0.361, -0.024, 2.5
 238631176, 4.657, 0.179, -0.008, 2.5, 4.485, 0.262, -0.013, 2.5
 238831096, 4.827, 0.127, -0.004, 2.5, 4.657, 0.179, -0.008, 2.5
 239031016, 4.999, 0.093, -0.001, 2.5, 4.827, 0.127, -0.004, 2.5
 239230936, 5.172, 0.06500001, 0, 2.5, 4.999, 0.093, -0.001, 2.5
 239430856, 5.347, 0.04, 0.004, 2.5, 5.172, 0.06500001, 0, 2.5
 239630776, 5.523, 0.022, 0.007, 2.5, 5.347, 0.04, 0.004, 2.5
 239830696, 5.699, 0.006, 0.008, 2.5, 5.523, 0.022, 0.007, 2.5
 240031449, 5.86, -0.01, 0.008, 2.5, 5.699, 0.006, 0.008, 2.5
 240231369, 6, -0.033, 0.006, 2.5, 5.86, -0.01, 0.008, 2.5
 240431289, 6.136, -0.057, 0.006, 2.5, 6, -0.033, 0.006, 2.5
 240631209, 6.284, -0.068, 0.008, 2.5, 6.136, -0.057, 0.006, 2.5
 240831129, 6.441, -0.06900001, 0.009000001, 2.5, 6.284, -0.068, 0.008, 2.5
 241031049, 6.592, -0.072, 0.008, 2.5, 6.441, -0.06900001, 0.009000001, 2.5
 241230969, 6.725, -0.09, 0.006, 2.5, 6.592, -0.072, 0.008, 2.5
 241430889, 6.844, -0.114, 0.004, 2.5, 6.725, -0.09, 0.006, 2.5
 241630809, 6.955, -0.13, 0.003, 2.5, 6.844, -0.114, 0.004, 2.5
 241830729, 7.065001, -0.125, 0.003, 2.5, 6.955, -0.13, 0.003, 2.5
 242031482, 7.169, -0.104, 0.003, 2.5, 7.065001, -0.125, 0.003, 2.5
 242231402, 7.26, -0.08000001, 0.002, 2.5, 7.169, -0.104, 0.003, 2.5
 242431322, 7.339, -0.063, 0.003, 2.5, 7.26, -0.08000001, 0.002, 2.5
 242631242, 7.418, -0.056, 0.004, 2.5, 7.339, -0.063, 0.003, 2.5
 242831162, 7.499001, -0.056, 0.005, 2.5, 7.418, -0.056, 0.004, 2.5
 243031082, 7.573, -0.059, 0.004, 2.5, 7.499001, -0.056, 0.005, 2.5
 243231002, 7.637001, -0.051, 0.003, 2.5, 7.573, -0.059, 0.004, 2.5
 243430922, 7.698, -0.033, 0.003, 2.5, 7.637001, -0.051, 0.003, 2.5
 243630842, 7.755001, -0.013, 0.001, 2.5, 7.698, -0.033, 0.003, 2.5
 243830762, 7.804, -0.002, 0, 2.5, 7.755001, -0.013, 0.001, 2.5
 244030682, 7.852, -0.003, 0, 2.5, 7.804, -0.002, 0, 2.5
 244231435, 7.898, -0.003, 0, 2.5, 7.852, -0.003, 0, 2.5
 244431355, 7.940001, 0.008, 0, 2.5, 7.898, -0.003, 0, 2.5
 244631275, 7.985001, 0.027, 0.003, 2.5, 7.940001, 0.008, 0, 2.5
 244831195, 8.036, 0.044, 0.004, 2.5, 7.985001, 0.027, 0.003, 2.5
 245031115, 8.085, 0.062, 0.004, 2.5, 8.036, 0.044, 0.004, 2.5
 245231035, 8.131001, 0.07700001, 0.003, 2.5, 8.085, 0.062, 0.004, 2.5
 245430955, 8.174001, 0.082, 0.003, 2.5, 8.131001, 0.07700001, 0.003, 2.5
 245630875, 8.214001, 0.07700001, 0, 2.5, 8.174001, 0.082, 0.003, 2.5
 245830795, 8.254001, 0.057, 0, 2.5, 8.214001, 0.07700001, 0, 2.5
 246030715, 8.298, 0.027, 0, 2.5, 8.254001, 0.057, 0, 2.5
 246231468, 8.344001, 0.005, 0, 2.5, 8.298, 0.027, 0, 2.5
 246431388, 8.39, -0.003, 0, 2.5, 8.344001, 0.005, 0, 2.5
 246631308, 8.436001, -0.006, 0, 2.5, 8.39, -0.003, 0, 2.5
 246831228, 8.483001, -0.015, 0, 2.5, 8.436001, -0.006, 0, 2.5
 247031148, 8.535001, -0.024, 0, 2.5, 8.483001, -0.015, 0, 2.5
 247231068, 8.577001, -0.018, -0.002, 2.5, 8.535001, -0.024, 0, 2.5
 247430988, 8.603001, -0.008, -0.004, 2.5, 8.577001, -0.018, -0.002, 2.5
 247630908, 8.623, -0.013, -0.004, 2.5, 8.603001, -0.008, -0.004, 2.5
 247830828, 8.651, -0.035, -0.002, 2.5, 8.623, -0.013, -0.004, 2.5
 248030748, 8.688001, -0.06, 0, 2.5, 8.651, -0.035, -0.002, 2.5
 248230668, 8.722, -0.062, 0, 2.5, 8.688001, -0.06, 0, 2.5
 248431421, 8.749001, -0.045, -0.001, 2.5, 8.722, -0.062, 0, 2.5
 248631341, 8.772, -0.021, -0.001, 2.5, 8.749001, -0.045, -0.001, 2.5
 248831261, 8.79, 0, -0.002, 2.5, 8.772, -0.021, -0.001, 2.5
 249031181, 8.806001, 0.01, -0.001, 2.5, 8.79, 0, -0.002, 2.5
 249231101, 8.832001, 0.019, 0.001, 2.5, 8.806001, 0.01, -0.001, 2.5
 249431021, 8.872001, 0.029, 0.003, 2.5, 8.832001, 0.019, 0.001, 2.5
 249630941, 8.913, 0.037, 0.002, 2.5, 8.872001, 0.029, 0.003, 2.5
 249830861, 8.942, 0.041, 0, 2.5, 8.913, 0.037, 0.002, 2.5
 250030781, 8.959001, 0.051, -0.001, 2.5, 8.942, 0.041, 0, 2.5
 250230701, 8.972, 0.072, -0.002, 2.5, 8.959001, 0.051, -0.001, 2.5
 250431454, 8.984, 0.09900001, -0.002, 2.5, 8.972, 0.072, -0.002, 2.5
 250631374, 8.997001, 0.119, -0.002, 2.5, 8.984, 0.09900001, -0.002, 2.5
 250831294, 9.014001, 0.133, 0, 2.5, 8.997001, 0.119, -0.002, 2.5
 251031214, 9.038, 0.139, 0.001, 2.5, 9.014001, 0.133, 0, 2.5
 251231134, 9.064, 0.122, 0.001, 2.5, 9.038, 0.139, 0.001, 2.5
 251431054, 9.086, 0.09, 0, 2.5, 9.064, 0.122, 0.001, 2.5
 251630974, 9.105, 0.06900001, 0, 2.5, 9.086, 0.09, 0, 2.5
 251830894, 9.13, 0.061, 0.001, 2.5, 9.105, 0.06900001, 0, 2.5
 252030814, 9.160001, 0.05, 0.001, 2.5, 9.13, 0.061, 0.001, 2.5
 252230734, 9.190001, 0.039, 0, 2.5, 9.160001, 0.05, 0.001, 2.5
 252430654, 9.215, 0.034, 0, 2.5, 9.190001, 0.039, 0, 2.5
 252631407, 9.232, 0.025, 0, 2.5, 9.215, 0.034, 0, 2.5
 252831327, 0, 5E-05, 0, 2.5, 9.232, 0.025, 0, 2.5
 253031247, 0, 5E-05, 0.001, 2.5, 0, 5E-05, 0, 2.5
 253231167, 0, 5E-05, 0, 2.5, 0, 5E-05, 0.001, 2.5
 253431087, 0, 5E-05, 0, 2.5, 0, 5E-05, 0, 2.5
 253631007, 0, 5E-05, 0, 2.5, 0, 5E-05, 0, 2.5
 253830927, 0, 5E-05, 0, 2.5, 0, 5E-05, 0, 2.5
 254030847, 0, 5E-05, 0.002, 2.5, 0, 5E-05, 0, 2.5
 254230767, 0, 5E-05, 0.004, 2.5, 0, 5E-05, 0.002, 2.5
 254430687, 0, 5E-05, 0.005, 2.5, 0, 5E-05, 0.004, 2.5
 254631440, 0, 5E-05, 0.006, 2.5, 0, 5E-05, 0.005, 2.5
 254831360, 0, 5E-05, 0.008, 2.5, 0, 5E-05, 0.006, 2.5
 255031280, 0, 5E-05, 0.012, 2.5, 0, 5E-05, 0.008, 2.5
 255231200, 0, 5E-05, 0.017, 2.5, 0, 5E-05, 0.012, 2.5
 255431120, 0, 5E-05, 0.023, 2.5, 0, 5E-05, 0.017, 2.5
 255631040, 0, 5E-05, 0.031, 2.5, 0, 5E-05, 0.023, 2.5
 255830960, 0, 5E-05, 0.041, 2.5, 0, 5E-05, 0.031, 2.5
 256030880, 0, 5E-05, 0.055, 2.5, 0, 5E-05, 0.041, 2.5
 256230800, 0, 5E-05, 0.07300001, 2.5, 0, 5E-05, 0.055, 2.5
 256430720, 0, 5E-05, 0.097, 2.5, 0, 5E-05, 0.07300001, 2.5
 256631473, 0, 5E-05, 0.118, 2.5, 0, 5E-05, 0.097, 2.5
 256831393, 0, 5E-05, 0.11, 2.5, 0, 5E-05, 0.118, 2.5
 257031313, 0, 5E-05, 0.072, 2.5, 0, 5E-05, 0.11, 2.5
 257231233, 0, 5E-05, 0.051, 2.5, 0, 5E-05, 0.072, 2.5
 257431153, 0, 5E-05, 0.06, 2.5, 0, 5E-05, 0.051, 2.5
 257631073, 0, 5E-05, 0.08000001, 2.5, 0, 5E-05, 0.06, 2.5
 257830993, 0, 5E-05, 0.102, 2.5, 0, 5E-05, 0.08000001, 2.5
 258030913, 0, 5E-05, 0.129, 2.5, 0, 5E-05, 0.102, 2.5
 258230833, 0, 5E-05, 0.157, 2.5, 0, 5E-05, 0.129, 2.5
 258430753, 0, 5E-05, 0.18, 2.5, 0, 5E-05, 0.157, 2.5
 258630673, 0, 5E-05, 0.187, 2.5, 0, 5E-05, 0.18, 2.5
 258831426, 0, 5E-05, 0.179, 2.5, 0, 5E-05, 0.187, 2.5
 259031346, 0, 5E-05, 0.161, 2.5, 0, 5E-05, 0.179, 2.5
 259231266, 0, 5E-05, 0.14, 2.5, 0, 5E-05, 0.161, 2.5
 259431186, 0, 5E-05, 0.117, 2.5, 0, 5E-05, 0.14, 2.5
 259631106, 0, 5E-05, 0.093, 2.5, 0, 5E-05, 0.117, 2.5
 259831026, 0, 5E-05, 0.07, 2.5, 0, 5E-05, 0.093, 2.5
 260030946, 0, 5E-05, 0.052, 2.5, 0, 5E-05, 0.07, 2.5
 260230866, 0, 5E-05, 0.041, 2.5, 0, 5E-05, 0.052, 2.5
 260430786, 0, 5E-05, 0.036, 2.5, 0, 5E-05, 0.041, 2.5
 260630706, 0, 5E-05, 0.033, 2.5, 0, 5E-05, 0.036, 2.5
 260831459, 0, 5E-05, 0.028, 2.5, 0, 5E-05, 0.033, 2.5
 261031379, 0, 5E-05, 0.015, 2.5, 0, 5E-05, 0.028, 2.5
 261231299, 0, 5E-05, -0.004, 2.5, 0, 5E-05, 0.015, 2.5
 261431219, 0, 5E-05, -0.027, 2.5, 0, 5E-05, -0.004, 2.5
 261631139, 0, 5E-05, -0.051, 2.5, 0, 5E-05, -0.027, 2.5
 261831059, 0, 5E-05, -0.074, 2.5, 0, 5E-05, -0.051, 2.5
 262030979, 0, 5E-05, -0.096, 2.5, 0, 5E-05, -0.074, 2.5
 262230899, 0, 5E-05, -0.115, 2.5, 0, 5E-05, -0.096, 2.5
 262430819, 0, 5E-05, -0.129, 2.5, 0, 5E-05, -0.115, 2.5
 262630739, 0, 5E-05, -0.139, 2.5, 0, 5E-05, -0.129, 2.5
 262830659, 0, 5E-05, -0.145, 2.5, 0, 5E-05, -0.139, 2.5
 263031412, 0, 5E-05, -0.147, 2.5, 0, 5E-05, -0.145, 2.5
 263231332, 0, 5E-05, -0.145, 2.5, 0, 5E-05, -0.147, 2.5
 263431252, 0, 5E-05, -0.14, 2.5, 0, 5E-05, -0.145, 2.5
 263631172, 0, 5E-05, -0.133, 2.5, 0, 5E-05, -0.14, 2.5
 263831092, 0, 5E-05, -0.124, 2.5, 0, 5E-05, -0.133, 2.5
 264031012, 0, 5E-05, -0.112, 2.5, 0, 5E-05, -0.124, 2.5
 264230932, 0, 5E-05, -0.09900001, 2.5, 0, 5E-05, -0.112, 2.5
 264430852, 0, 5E-05, -0.083, 2.5, 0, 5E-05, -0.09900001, 2.5
 264630772, 0, 5E-05, -0.066, 2.5, 0, 5E-05, -0.083, 2.5
 264830692, 0, 5E-05, -0.049, 2.5, 0, 5E-05, -0.066, 2.5
 265031445, 0, 5E-05, -0.036, 2.5, 0, 5E-05, -0.049, 2.5
 265231365, 0, 5E-05, -0.025, 2.5, 0, 5E-05, -0.036, 2.5
 265431285, 0, 5E-05, -0.016, 2.5, 0, 5E-05, -0.025, 2.5
 265631205, 0, 5E-05, -0.008, 2.5, 0, 5E-05, -0.016, 2.5
 265831125, 0, 5E-05, -0.001, 2.5, 0, 5E-05, -0.008, 2.5
 266031045, 0, 5E-05, 0.004, 2.5, 0, 5E-05, -0.001, 2.5
 266230965, 0, 5E-05, 0.009000001, 2.5, 0, 5E-05, 0.004, 2.5
 266430885, 0, 5E-05, 0.013, 2.5, 0, 5E-05, 0.009000001, 2.5
 266630805, 0, 5E-05, 0.017, 2.5, 0, 5E-05, 0.013, 2.5
 266830725, 0, 5E-05, 0.02, 2.5, 0, 5E-05, 0.017, 2.5
 267031478, 0, 5E-05, 0.024, 2.5, 0, 5E-05, 0.02, 2.5
 267231398, 0, 5E-05, 0.027, 2.5, 0, 5E-05, 0.024, 2.5
 267431318, 0, 5E-05, 0.03, 2.5, 0, 5E-05, 0.027, 2.5
 267631238, 0, 5E-05, 0.033, 2.5, 0, 5E-05, 0.03, 2.5
 267831158, 0, 5E-05, 0.035, 2.5, 0, 5E-05, 0.033, 2.5
 268031078, 0, 5E-05, 0.037, 2.5, 0, 5E-05, 0.035, 2.5
 268230998, 0, 5E-05, 0.039, 2.5, 0, 5E-05, 0.037, 2.5
 268430918, 0, 5E-05, 0.039, 2.5, 0, 5E-05, 0.039, 2.5
 268630838, 0, 5E-05, 0.04, 2.5, 0, 5E-05, 0.039, 2.5
 268830758, 0, 5E-05, 0.04, 2.5, 0, 5E-05, 0.04, 2.5
 269030678, 0, 5E-05, 0.039, 2.5, 0, 5E-05, 0.04, 2.5
 269231431, 0, 5E-05, 0.037, 2.5, 0, 5E-05, 0.039, 2.5
 269431351, 0, 5E-05, 0.036, 2.5, 0, 5E-05, 0.037, 2.5
 269631271, 0, 5E-05, 0.033, 2.5, 0, 5E-05, 0.036, 2.5
 269831191, 0, 5E-05, 0.031, 2.5, 0, 5E-05, 0.033, 2.5
 270031111, 0, 5E-05, 0.027, 2.5, 0, 5E-05, 0.031, 2.5
 270231031, 0, 5E-05, 0.023, 2.5, 0, 5E-05, 0.027, 2.5
 270430951, 0, 5E-05, 0.019, 2.5, 0, 5E-05, 0.023, 2.5
 270630871, 0, 5E-05, 0.014, 2.5, 0, 5E-05, 0.019, 2.5
 270830791, 0, 5E-05, 0.009000001, 2.5, 0, 5E-05, 0.014, 2.5
 271030711, 0, 5E-05, 0.005, 2.5, 0, 5E-05, 0.009000001, 2.5
 271231464, 0, 5E-05, 0, 2.5, 0, 5E-05, 0.005, 2.5
 271431384, 0, 5E-05, -0.004, 2.5, 0, 5E-05, 0, 2.5
 271631304, 0, 5E-05, -0.009000001, 2.5, 0, 5E-05, -0.004, 2.5
 271831224, 0, 5E-05, -0.014, 2.5, 0, 5E-05, -0.009000001, 2.5
 272031144, 0, 5E-05, -0.018, 2.5, 0, 5E-05, -0.014, 2.5
 272231064, 0, 5E-05, -0.022, 2.5, 0, 5E-05, -0.018, 2.5
 272430984, 0, 5E-05, -0.026, 2.5, 0, 5E-05, -0.022, 2.5
 272630904, 0, 5E-05, -0.03, 2.5, 0, 5E-05, -0.026, 2.5
 272830824, 0, 5E-05, -0.033, 2.5, 0, 5E-05, -0.03, 2.5
 273030744, 0, 5E-05, -0.036, 2.5, 0, 5E-05, -0.033, 2.5
 273230664, 0, 5E-05, -0.038, 2.5, 0, 5E-05, -0.036, 2.5
 273431417, 0, 5E-05, -0.039, 2.5, 0, 5E-05, -0.038, 2.5
 273631337, 0, 5E-05, -0.04, 2.5, 0, 5E-05, -0.039, 2.5
 273831257, 0, 5E-05, -0.041, 2.5, 0, 5E-05, -0.04, 2.5
 274031177, 0, 5E-05, -0.042, 2.5, 0, 5E-05, -0.041, 2.5
 274231097, 0, 5E-05, -0.042, 2.5, 0, 5E-05, -0.042, 2.5
 274431017, 0, 5E-05, -0.042, 2.5, 0, 5E-05, -0.042, 2.5
 274630937, 0, 5E-05, -0.041, 2.5, 0, 5E-05, -0.042, 2.5
 274830857, 0, 5E-05, -0.041, 2.5, 0, 5E-05, -0.041, 2.5
 275030777, 0, 5E-05, -0.042, 2.5, 0, 5E-05, -0.041, 2.5
 275230697, 0, 5E-05, -0.043, 2.5, 0, 5E-05, -0.042, 2.5
 275431450, 0, 5E-05, -0.047, 2.5, 0, 5E-05, -0.043, 2.5
 275631370, 0, 5E-05, -0.049, 2.5, 0, 5E-05, -0.047, 2.5
 275831290, 0, 5E-05, -0.051, 2.5, 0, 5E-05, -0.049, 2.5
 276031210, 0, 5E-05, -0.052, 2.5, 0, 5E-05, -0.051, 2.5
 276231130, 0, 5E-05, -0.053, 2.5, 0, 5E-05, -0.052, 2.5
 276431050, 0, 5E-05, -0.053, 2.5, 0, 5E-05, -0.053, 2.5
 276630970, 0, 5E-05, -0.052, 2.5, 0, 5E-05, -0.053, 2.5
 276830890, 0, 5E-05, -0.051, 2.5, 0, 5E-05, -0.052, 2.5
 277030810, 0, 5E-05, -0.049, 2.5, 0, 5E-05, -0.051, 2.5
 277230730, 0, 5E-05, -0.046, 2.5, 0, 5E-05, -0.049, 2.5
 277431483, 0, 5E-05, -0.044, 2.5, 0, 5E-05, -0.046, 2.5
 277631403, 0, 5E-05, -0.041, 2.5, 0, 5E-05, -0.044, 2.5
 277831323, 0, 5E-05, -0.039, 2.5, 0, 5E-05, -0.041, 2.5
 278031243, 0, 5E-05, -0.037, 2.5, 0, 5E-05, -0.039, 2.5
 278231163, 0, 5E-05, -0.035, 2.5, 0, 5E-05, -0.037, 2.5
 278431083, 0, 5E-05, -0.033, 2.5, 0, 5E-05, -0.035, 2.5
 278631003, 0, 5E-05, -0.032, 2.5, 0, 5E-05, -0.033, 2.5
 278830923, 0, 5E-05, -0.03, 2.5, 0, 5E-05, -0.032, 2.5
 279030843, 0, 5E-05, -0.029, 2.5, 0, 5E-05, -0.03, 2.5
 279230763, 0, 5E-05, -0.028, 2.5, 0, 5E-05, -0.029, 2.5
 279430683, 0, 5E-05, -0.025, 2.5, 0, 5E-05, -0.028, 2.5
 279631436, 0, 5E-05, -0.023, 2.5, 0, 5E-05, -0.025, 2.5
 279831356, 0, 5E-05, -0.02, 2.5, 0, 5E-05, -0.023, 2.5
 280031276, 0, 5E-05, -0.016, 2.5, 0, 5E-05, -0.02, 2.5
 280231196, 0, 5E-05, -0.012, 2.5, 0, 5E-05, -0.016, 2.5
 280431116, 0, 5E-05, -0.008, 2.5, 0, 5E-05, -0.012, 2.5
 280631036, 0, 5E-05, -0.005, 2.5, 0, 5E-05, -0.008, 2.5
 280830956, 0, 5E-05, -0.002, 2.5, 0, 5E-05, -0.005, 2.5
 281030876, 0, 5E-05, -0.001, 2.5, 0, 5E-05, -0.002, 2.5
 281230796, 0, 5E-05, 0, 2.5, 0, 5E-05, -0.001, 2.5
 281430716, 0, 5E-05, 0, 2.5, 0, 5E-05, 0, 2.5
 281631469, 0, 5E-05, 0, 2.5, 0, 5E-05, 0, 2.5
 281831389, 0, 5E-05, -0.001, 2.5, 0, 5E-05, 0, 2.5
 282031309, 0, 5E-05, -0.001, 2.5, 0, 5E-05, -0.001, 2.5
 282231229, 0, 5E-05, -0.001, 2.5, 0, 5E-05, -0.001, 2.5
 282431149, 0, 5E-05, -0.002, 2.5, 0, 5E-05, -0.001, 2.5
 282631069, 0, 5E-05, -0.003, 2.5, 0, 5E-05, -0.002, 2.5
 282830989, 0, 5E-05, -0.003, 2.5, 0, 5E-05, -0.003, 2.5
 283030909, 0, 5E-05, -0.003, 2.5, 0, 5E-05, -0.003, 2.5
 283230829, 0, 5E-05, -0.003, 2.5, 0, 5E-05, -0.003, 2.5
 283430749, 0, 5E-05, -0.002, 2.5, 0, 5E-05, -0.003, 2.5
 283630669, 0, 5E-05, -0.002, 2.5, 0, 5E-05, -0.002, 2.5
 283831422, 0, 5E-05, -0.003, 2.5, 0, 5E-05, -0.002, 2.5
 284031342, 0, 5E-05, -0.003, 2.5, 0, 5E-05, -0.003, 2.5
 284231262, 0, 5E-05, -0.004, 2.5, 0, 5E-05, -0.003, 2.5
 284431182, 0, 5E-05, -0.004, 2.5, 0, 5E-05, -0.004, 2.5
 284631102, 0, 5E-05, -0.004, 2.5, 0, 5E-05, -0.004, 2.5
 284831022, 0, 5E-05, -0.004, 2.5, 0, 5E-05, -0.004, 2.5
 285030942, 0, 5E-05, -0.004, 2.5, 0, 5E-05, -0.004, 2.5
 285230862, 0, 5E-05, -0.005, 2.5, 0, 5E-05, -0.004, 2.5
 285430782, 0, 5E-05, -0.005, 2.5, 0, 5E-05, -0.005, 2.5
 285630702, 0, 5E-05, -0.004, 2.5, 0, 5E-05, -0.005, 2.5
 285831455, 0, 5E-05, -0.003, 2.5, 0, 5E-05, -0.004, 2.5
 286031375, 0, 5E-05, -0.002, 2.5, 0, 5E-05, -0.003, 2.5
 286231295, 0, 5E-05, -0.001, 2.5, 0, 5E-05, -0.002, 2.5
 286431215, 0, 5E-05, -0.001, 2.5, 0, 5E-05, -0.001, 2.5
 286631135, 0, 5E-05, 0, 2.5, 0, 5E-05, -0.001, 2.5
 286831055, 0, 5E-05, 0, 2.5, 0, 5E-05, 0, 2.5
 287030975, 0, 5E-05, 0, 2.5, 0, 5E-05, 0, 2.5
 287230895, 0, 5E-05, 0, 2.5, 0, 5E-05, 0, 2.5
 287430815, 0, 5E-05, 0.001, 2.5, 0, 5E-05, 0, 2.5
 287630735, 0, 5E-05, 0.001, 2.5, 0, 5E-05, 0.001, 2.5
 287830655, 0, 5E-05, 0.002, 2.5, 0, 5E-05, 0.001, 2.5
 288031408, 0, 5E-05, 0.002, 2.5, 0, 5E-05, 0.002, 2.5
 288231328, 0, 5E-05, 0.002, 2.5, 0, 5E-05, 0.002, 2.5
 288431248, 0, 5E-05, 0.002, 2.5, 0, 5E-05, 0.002, 2.5
 288631168, 0, 5E-05, 0.003, 2.5, 0, 5E-05, 0.002, 2.5
 288831088, 0, 5E-05, 0.003, 2.5, 0, 5E-05, 0.003, 2.5
 289031008, 0, 5E-05, 0.004, 2.5, 0, 5E-05, 0.003, 2.5
 289230928, 0, 5E-05, 0.003, 2.5, 0, 5E-05, 0.004, 2.5
 289430848, 0, 5E-05, 0.004, 2.5, 0, 5E-05, 0.003, 2.5
 289630768, 0, 5E-05, 0.004, 2.5, 0, 5E-05, 0.004, 2.5
 289830688, 0, 5E-05, 0.004, 2.5, 0, 5E-05, 0.004, 2.5
 290031441, 0, 5E-05, 0.004, 2.5, 0, 5E-05, 0.004, 2.5
 290231361, 0, 5E-05, 0.004, 2.5, 0, 5E-05, 0.004, 2.5
 290431281, 0, 5E-05, 0.004, 2.5, 0, 5E-05, 0.004, 2.5
 290631201, 0, 5E-05, 0.003, 2.5, 0, 5E-05, 0.004, 2.5
 290831121, 0, 5E-05, 0.003, 2.5, 0, 5E-05, 0.003, 2.5
 291031041, 0, 5E-05, 0.003, 2.5, 0, 5E-05, 0.003, 2.5
 291230961, 0, 5E-05, 0.002, 2.5, 0, 5E-05, 0.003, 2.5
 291430881, 0, 5E-05, 0.002, 2.5, 0, 5E-05, 0.002, 2.5
 291630801, 0, 5E-05, 0.001, 2.5, 0, 5E-05, 0.002, 2.5
 291830721, 0, 5E-05, 0.002, 2.5, 0, 5E-05, 0.001, 2.5
 292031474, 0, 5E-05, 0.002, 2.5, 0, 5E-05, 0.002, 2.5
 292231394, 0, 5E-05, 0.002, 2.5, 0, 5E-05, 0.002, 2.5
 292431314, 0, 5E-05, 0.001, 2.5, 0, 5E-05, 0.002, 2.5
 292631234, 0, 5E-05, 0.002, 2.5, 0, 5E-05, 0.001, 2.5
 292831154, 0, 5E-05, 0.002, 2.5, 0, 5E-05, 0.002, 2.5
 293031074, 0, 5E-05, 0.001, 2.5, 0, 5E-05, 0.002, 2.5
 293230994, 0, 5E-05, 0.001, 2.5, 0, 5E-05, 0.001, 2.5
 293430914, 0, 5E-05, 0.001, 2.5, 0, 5E-05, 0.001, 2.5
 293630834, 0, 5E-05, 0, 2.5, 0, 5E-05, 0.001, 2.5
 293830754, 0, 5E-05, 0, 2.5, 0, 5E-05, 0, 2.5
 294030674, 0, 5E-05, 0, 2.5, 0, 5E-05, 0, 2.5
 294231427, 0, 5E-05, 0, 2.5, 0, 5E-05, 0, 2.5
 294431347, 0, 5E-05, 0, 2.5, 0, 5E-05, 0, 2.5
 294631267, 0, 5E-05, 0, 2.5, 0, 5E-05, 0, 2.5
 294831187, 0, 5E-05, 0, 2.5, 0, 5E-05, 0, 2.5
 295031107, 0, 5E-05, 0, 2.5, 0, 5E-05, 0, 2.5
 295231027, 0, 5E-05, 0, 2.5, 0, 5E-05, 0, 2.5
 295430947, 0, 5E-05, 0, 2.5, 0, 5E-05, 0, 2.5
 295630867, 0, 5E-05, -0.001, 2.5, 0, 5E-05, 0, 2.5
 295830787, 0, 5E-05, -0.001, 2.5, 0, 5E-05, -0.001, 2.5
 296030707, 0, 5E-05, -0.001, 2.5, 0, 5E-05, -0.001, 2.5
 296231460, 0, 5E-05, -0.002, 2.5, 0, 5E-05, -0.001, 2.5
 296431380, 0, 5E-05, -0.002, 2.5, 0, 5E-05, -0.002, 2.5
 296631300, 0, 5E-05, -0.002, 2.5, 0, 5E-05, -0.002, 2.5
 296831220, 0, 5E-05, -0.001, 2.5, 0, 5E-05, -0.002, 2.5
 297031140, 0, 5E-05, -0.001, 2.5, 0, 5E-05, -0.001, 2.5
 297231060, 0, 5E-05, -0.002, 2.5, 0, 5E-05, -0.001, 2.5
 297430980, 0, 5E-05, -0.001, 2.5, 0, 5E-05, -0.002, 2.5
 297630900, 0, 5E-05, 0, 2.5, 0, 5E-05, -0.001, 2.5
 297830820, 0, 5E-05, 0, 2.5, 0, 5E-05, 0, 2.5
 298030740, 0, 5E-05, 0, 2.5, 0, 5E-05, 0, 2.5
 298230660, 0, 5E-05, 0, 2.5, 0, 5E-05, 0, 2.5
 298431413, 0, 5E-05, 0, 2.5, 0, 5E-05, 0, 2.5
 298631333, 0, 5E-05, 0, 2.5, 0, 5E-05, 0, 2.5
 298831253, 0, 5E-05, 0, 2.5, 0, 5E-05, 0, 2.5
 299031173, 0, 5E-05, 0, 2.5, 0, 5E-05, 0, 2.5
 299231093, 0, 5E-05, 0, 2.5, 0, 5E-05, 0, 2.5
 299431013, 0, 5E-05, 0, 2.5, 0, 5E-05, 0, 2.5
 299630933, 0, 5E-05, 0, 2.5, 0, 5E-05, 0, 2.5
 299830853, 0, 5E-05, 0, 2.5, 0, 5E-05, 0, 2.5
 300030773, 0, 5E-05, 0, 2.5, 0, 5E-05, 0, 2.5
 300230693, 0, 5E-05, 0, 2.5, 0, 5E-05, 0, 2.5
 300431446, 0, 5E-05, 0, 2.5, 0, 5E-05, 0, 2.5
 300631366, 0, 5E-05, 0, 2.5, 0, 5E-05, 0, 2.5
 300831286, 0, 5E-05, 0, 2.5, 0, 5E-05, 0, 2.5
 301031206, 0, 5E-05, 0, 2.5, 0, 5E-05, 0, 2.5
 301231126, 0, 5E-05, 0, 2.5, 0, 5E-05, 0, 2.5
 301431046, 0, 5E-05, 0, 2.5, 0, 5E-05, 0, 2.5
 301630966, 0, 5E-05, 0, 2.5, 0, 5E-05, 0, 2.5
 301830886, 0, 5E-05, 0, 2.5, 0, 5E-05, 0, 2.5
 302030806, 0, 5E-05, 0, 2.5, 0, 5E-05, 0, 2.5
 302230726, 0, 5E-05, 0, 2.5, 0, 5E-05, 0, 2.5
 302431479, 0, 5E-05, 0, 2.5, 0, 5E-05, 0, 2.5
 302631399, 0, 5E-05, 0, 2.5, 0, 5E-05, 0, 2.5
 302831319, 0, 5E-05, 0, 2.5, 0, 5E-05, 0, 2.5
 303031239, 0, 5E-05, 0, 2.5, 0, 5E-05, 0, 2.5
 303231159, 0, 5E-05, 0, 2.5, 0, 5E-05, 0, 2.5
 303431079, 0, 5E-05, 0, 2.5, 0, 5E-05, 0, 2.5
 303630999, 0, 5E-05, 0, 2.5, 0, 5E-05, 0, 2.5
 303830919, 0, 5E-05, 0, 2.5, 0, 5E-05, 0, 2.5
 304030839, 0, 5E-05, 0, 2.5, 0, 5E-05, 0, 2.5
 304230759, 0, 5E-05, 0, 2.5, 0, 5E-05, 0, 2.5
 304430679, 0, 5E-05, 0, 2.5, 0, 5E-05, 0, 2.5
 304631432, 0, 5E-05, 0, 2.5, 0, 5E-05, 0, 2.5
 304831352, 0, 5E-05, 0, 2.5, 0, 5E-05, 0, 2.5
 305031272, 0, 5E-05, -0.001, 2.5, 0, 5E-05, 0, 2.5
 305231192, 0, 5E-05, -0.002, 2.5, 0, 5E-05, -0.001, 2.5
 305431112, 0, 5E-05, -0.001, 2.5, 0, 5E-05, -0.002, 2.5
 305631032, 0, 5E-05, -0.001, 2.5, 0, 5E-05, -0.001, 2.5
 305830952, 0, 5E-05, -0.001, 2.5, 0, 5E-05, -0.001, 2.5
 306030872, 0, 5E-05, 0, 2.5, 0, 5E-05, -0.001, 2.5
 306230792, 0, 5E-05, 0, 2.5, 0, 5E-05, 0, 2.5
 306430712, 0, 5E-05, 0, 2.5, 0, 5E-05, 0, 2.5
 306631465, 0, 5E-05, 0, 2.5, 0, 5E-05, 0, 2.5
 306831385, 0, 5E-05, 0, 2.5, 0, 5E-05, 0, 2.5
 307031305, 0, 5E-05, 0, 2.5, 0, 5E-05, 0, 2.5
 307231225, 0, 5E-05, 0, 2.5, 0, 5E-05, 0, 2.5
 307431145, 0, 5E-05, -0.001, 2.5, 0, 5E-05, 0, 2.5
 307631065, 0, 5E-05, -0.002, 2.5, 0, 5E-05, -0.001, 2.5
 307830985, 0, 5E-05, -0.001, 2.5, 0, 5E-05, -0.002, 2.5
 308030905, 0, 5E-05, -0.001, 2.5, 0, 5E-05, -0.001, 2.5
 308230825, 0, 5E-05, -0.001, 2.5, 0, 5E-05, -0.001, 2.5
 308430745, 0, 5E-05, -0.001, 2.5, 0, 5E-05, -0.001, 2.5
 308630665, 0, 5E-05, -0.001, 2.5, 0, 5E-05, -0.001, 2.5
 308831418, 0, 5E-05, 0, 2.5, 0, 5E-05, -0.001, 2.5
 309031338, 0, 5E-05, 0, 2.5, 0, 5E-05, 0, 2.5
 309231258, 0, 5E-05, 0, 2.5, 0, 5E-05, 0, 2.5
 309431178, 0, 5E-05, -0.001, 2.5, 0, 5E-05, 0, 2.5
 309631098, 0, 5E-05, -0.001, 2.5, 0, 5E-05, -0.001, 2.5
 309831018, 0, 5E-05, -0.001, 2.5, 0, 5E-05, -0.001, 2.5
 310030938, 0, 5E-05, -0.001, 2.5, 0, 5E-05, -0.001, 2.5
 310230858, 0, 5E-05, -0.001, 2.5, 0, 5E-05, -0.001, 2.5
 310430778, 0, 5E-05, 0, 2.5, 0, 5E-05, -0.001, 2.5
 310630698, 0, 5E-05, 0, 2.5, 0, 5E-05, 0, 2.5
 310831451, 0, 5E-05, 0, 2.5, 0, 5E-05, 0, 2.5
 311031371, 0, 5E-05, 0, 2.5, 0, 5E-05, 0, 2.5
 311231291, 0, 5E-05, 0, 2.5, 0, 5E-05, 0, 2.5
 311431211, 0, 5E-05, -0.001, 2.5, 0, 5E-05, 0, 2.5
 311631131, 0, 5E-05, 0, 2.5, 0, 5E-05, -0.001, 2.5
 311831051, 0, 5E-05, 0, 2.5, 0, 5E-05, 0, 2.5
 312030971, 0, 5E-05, 0, 2.5, 0, 5E-05, 0, 2.5
 312230891, 0, 5E-05, 0, 2.5, 0, 5E-05, 0, 2.5
 312430811, 0, 5E-05, 0, 2.5, 0, 5E-05, 0, 2.5
 312630731, 0, 5E-05, -0.001, 2.5, 0, 5E-05, 0, 2.5
 312831484, 0, 5E-05, 0, 2.5, 0, 5E-05, -0.001, 2.5
 313031404, 15.079, -1.459, 0, 2.5, 0, 5E-05, 0, 2.5
 313231324, 15.071, -1.469, 0, 2.5, 15.079, -1.459, 0, 2.5
 313431244, 15.06, -1.479, 0, 2.5, 15.071, -1.469, 0, 2.5
 313631164, 14.714, -1.46, -0.09100001, 2.5, 15.06, -1.479, 0, 2.5
 313831084, 13.751, -1.383, -0.07, 2.5, 14.714, -1.46, -0.09100001, 2.5
 314031004, 13.195, -1.343, 0.146, 2.5, 13.751, -1.383, -0.07, 2.5
 314230924, 13.109, -1.347, 0.372, 2.5, 13.195, -1.343, 0.146, 2.5
 314430844, 12.472, -1.282, 0.424, 2.5, 13.109, -1.347, 0.372, 2.5
 314630764, 10.387, -1.081, 0.6720001, 2.5, 12.472, -1.282, 0.424, 2.5
 314830684, 7.575, -0.813, 1.036, 2.5, 10.387, -1.081, 0.6720001, 2.5
 315031437, 4.773, -0.528, 1.259, 2.5, 7.575, -0.813, 1.036, 2.5
 315231357, 2.496, -0.284, 1.37, 2.5, 4.773, -0.528, 1.259, 2.5
 315431277, 0.905, -0.137, 1.425, 2.5, 2.496, -0.284, 1.37, 2.5
 315631197, -0.161, -0.081, 1.482, 2.5, 0.905, -0.137, 1.425, 2.5
 315831117, -0.956, -0.023, 1.528, 2.5, -0.161, -0.081, 1.482, 2.5
 316031037, -1.583, 0.019, 1.542, 2.5, -0.956, -0.023, 1.528, 2.5
 316230957, -2.047, 0.028, 1.533, 2.5, -1.583, 0.019, 1.542, 2.5
 316430877, -2.296, -0.006, 1.509, 2.5, -2.047, 0.028, 1.533, 2.5
 316630797, -2.273, -0.031, 1.487, 2.5, -2.296, -0.006, 1.509, 2.5
 316830717, -2.117, -0.005, 1.476, 2.5, -2.273, -0.031, 1.487, 2.5
 317031470, -1.979, -0.007, 1.469, 2.5, -2.117, -0.005, 1.476, 2.5
 317231390, -1.893, -0.036, 1.461, 2.5, -1.979, -0.007, 1.469, 2.5
 317431310, -1.748, -0.062, 1.45, 2.5, -1.893, -0.036, 1.461, 2.5
 317631230, -1.496, -0.103, 1.445, 2.5, -1.748, -0.062, 1.45, 2.5
 317831150, -1.211, -0.199, 1.444, 2.5, -1.496, -0.103, 1.445, 2.5
 318031070, -0.992, -0.351, 1.445, 2.5, -1.211, -0.199, 1.444, 2.5
 318230990, -0.822, -0.446, 1.445, 2.5, -0.992, -0.351, 1.445, 2.5
 318430910, -0.641, -0.437, 1.445, 2.5, -0.822, -0.446, 1.445, 2.5
 318630830, -0.367, -0.408, 1.45, 2.5, -0.641, -0.437, 1.445, 2.5
 318830750, -0.064, -0.429, 1.455, 2.5, -0.367, -0.408, 1.45, 2.5
 319030670, 0.172, -0.41, 1.455, 2.5, -0.064, -0.429, 1.455, 2.5
 319231423, 0.36, -0.333, 1.456, 2.5, 0.172, -0.41, 1.455, 2.5
 319431343, 0.534, -0.259, 1.457, 2.5, 0.36, -0.333, 1.456, 2.5
 319631263, 0.677, -0.225, 1.456, 2.5, 0.534, -0.259, 1.457, 2.5
 319831183, 0.7730001, -0.25, 1.456, 2.5, 0.677, -0.225, 1.456, 2.5
 320031103, 0.8150001, -0.3, 1.455, 2.5, 0.7730001, -0.25, 1.456, 2.5
 320231023, 0.779, -0.331, 1.453, 2.5, 0.8150001, -0.3, 1.455, 2.5
 320430943, 0.71, -0.315, 1.45, 2.5, 0.779, -0.331, 1.453, 2.5
 320630863, 0.656, -0.265, 1.447, 2.5, 0.71, -0.315, 1.45, 2.5
 320830783, 0.591, -0.169, 1.444, 2.5, 0.656, -0.265, 1.447, 2.5
 321030703, 0.43, -0.098, 1.44, 2.5, 0.591, -0.169, 1.444, 2.5
 321231456, 0.272, -0.094, 1.436, 2.5, 0.43, -0.098, 1.44, 2.5
 321431376, 0.105, -0.09900001, 1.433, 2.5, 0.272, -0.094, 1.436, 2.5
 321631296, -0.059, -0.057, 1.431, 2.5, 0.105, -0.09900001, 1.433, 2.5
 321831216, -0.215, 0.021, 1.429, 2.5, -0.059, -0.057, 1.431, 2.5
 322031136, -0.36, 0.068, 1.426, 2.5, -0.215, 0.021, 1.429, 2.5
 322231056, -0.441, 0.079, 1.424, 2.5, -0.36, 0.068, 1.426, 2.5
 322430976, -0.446, 0.147, 1.425, 2.5, -0.441, 0.079, 1.424, 2.5
 322630896, -0.43, 0.273, 1.427, 2.5, -0.446, 0.147, 1.425, 2.5
 322830816, -0.415, 0.356, 1.428, 2.5, -0.43, 0.273, 1.427, 2.5
 323030736, -0.374, 0.36, 1.429, 2.5, -0.415, 0.356, 1.428, 2.5
 323230656, -0.268, 0.32, 1.432, 2.5, -0.374, 0.36, 1.429, 2.5
 323431409, -0.131, 0.267, 1.435, 2.5, -0.268, 0.32, 1.432, 2.5
 323631329, -0.034, 0.184, 1.437, 2.5, -0.131, 0.267, 1.435, 2.5
 323831249, -0.009000001, 0.112, 1.438, 2.5, -0.034, 0.184, 1.437, 2.5
 324031169, -0.017, 0.11, 1.438, 2.5, -0.009000001, 0.112, 1.438, 2.5
 324231089, -0.028, 0.185, 1.438, 2.5, -0.017, 0.11, 1.438, 2.5
 324431009, -0.043, 0.265, 1.435, 2.5, -0.028, 0.185, 1.438, 2.5
 324630929, -0.08000001, 0.27, 1.433, 2.5, -0.043, 0.265, 1.435, 2.5
 324830849, -0.12, 0.241, 1.432, 2.5, -0.08000001, 0.27, 1.433, 2.5
 325030769, -0.155, 0.243, 1.432, 2.5, -0.12, 0.241, 1.432, 2.5
 325230689, -0.185, 0.261, 1.431, 2.5, -0.155, 0.243, 1.432, 2.5
 325431442, -0.193, 0.25, 1.43, 2.5, -0.185, 0.261, 1.431, 2.5
 325631362, -0.187, 0.188, 1.431, 2.5, -0.193, 0.25, 1.43, 2.5
 325831282, -0.185, 0.121, 1.432, 2.5, -0.187, 0.188, 1.431, 2.5
 326031202, -0.2, 0.063, 1.433, 2.5, -0.185, 0.121, 1.432, 2.5
 326231122, -0.233, 0.002, 1.433, 2.5, -0.2, 0.063, 1.433, 2.5
 326431042, -0.283, -0.05, 1.433, 2.5, -0.233, 0.002, 1.433, 2.5
 326630962, -0.325, -0.083, 1.432, 2.5, -0.283, -0.05, 1.433, 2.5
 326830882, -0.329, -0.078, 1.431, 2.5, -0.325, -0.083, 1.432, 2.5
 327030802, -0.295, -0.028, 1.43, 2.5, -0.329, -0.078, 1.431, 2.5
 327230722, -0.233, 0.026, 1.429, 2.5, -0.295, -0.028, 1.43, 2.5
 327431475, -0.15, 0.027, 1.429, 2.5, -0.233, 0.026, 1.429, 2.5
 327631395, -0.06500001, -0.041, 1.43, 2.5, -0.15, 0.027, 1.429, 2.5
 327831315, 0.004, -0.146, 1.431, 2.5, -0.06500001, -0.041, 1.43, 2.5
 328031235, 0.043, -0.246, 1.433, 2.5, 0.004, -0.146, 1.431, 2.5
 328231155, 0.038, -0.315, 1.432, 2.5, 0.043, -0.246, 1.433, 2.5
 328431075, 0.019, -0.322, 1.431, 2.5, 0.038, -0.315, 1.432, 2.5
 328630995, -0.021, -0.282, 1.43, 2.5, 0.019, -0.322, 1.431, 2.5
 328830915, -0.064, -0.256, 1.429, 2.5, -0.021, -0.282, 1.43, 2.5
 329030835, -0.061, -0.276, 1.428, 2.5, -0.064, -0.256, 1.429, 2.5
 329230755, -0.053, -0.289, 1.428, 2.5, -0.061, -0.276, 1.428, 2.5
 329430675, -0.06900001, -0.254, 1.427, 2.5, -0.053, -0.289, 1.428, 2.5
 329631428, -0.082, -0.188, 1.426, 2.5, -0.06900001, -0.254, 1.427, 2.5
 329831348, -0.08400001, -0.128, 1.424, 2.5, -0.082, -0.188, 1.426, 2.5
 330031268, -0.102, -0.11, 1.424, 2.5, -0.08400001, -0.128, 1.424, 2.5
 330231188, -0.09, -0.117, 1.424, 2.5, -0.102, -0.11, 1.424, 2.5
 330431108, -0.022, -0.132, 1.425, 2.5, -0.09, -0.117, 1.424, 2.5
 330631028, 0.054, -0.116, 1.426, 2.5, -0.022, -0.132, 1.425, 2.5
 330830948, 0.093, -0.07, 1.427, 2.5, 0.054, -0.116, 1.426, 2.5
 331030868, 0.102, -0.031, 1.428, 2.5, 0.093, -0.07, 1.427, 2.5
 331230788, 0.104, 0, 1.428, 2.5, 0.102, -0.031, 1.428, 2.5
 331430708, 0.109, 0.046, 1.429, 2.5, 0.104, 0, 1.428, 2.5
 331631461, 0.12, 0.109, 1.429, 2.5, 0.109, 0.046, 1.429, 2.5
 331831381, 0.147, 0.185, 1.428, 2.5, 0.12, 0.109, 1.429, 2.5
 332031301, 0.173, 0.24, 1.427, 2.5, 0.147, 0.185, 1.428, 2.5
 332231221, 0.172, 0.246, 1.426, 2.5, 0.173, 0.24, 1.427, 2.5
 332431141, 0.156, 0.232, 1.426, 2.5, 0.172, 0.246, 1.426, 2.5
 332631061, 0.147, 0.241, 1.426, 2.5, 0.156, 0.232, 1.426, 2.5
 332830981, 0.12, 0.246, 1.426, 2.5, 0.147, 0.241, 1.426, 2.5
 333030901, 0.085, 0.204, 1.427, 2.5, 0.12, 0.246, 1.426, 2.5
 333230821, 0.074, 0.133, 1.429, 2.5, 0.085, 0.204, 1.427, 2.5
 333430741, 0.09100001, 0.047, 1.431, 2.5, 0.074, 0.133, 1.429, 2.5
 333630661, 0.118, -0.041, 1.432, 2.5, 0.09100001, 0.047, 1.431, 2.5
 333831414, 0.122, -0.107, 1.432, 2.5, 0.118, -0.041, 1.432, 2.5
 334031334, 0.101, -0.163, 1.421, 2.5, 0.122, -0.107, 1.432, 2.5
 334231254, 0.07600001, -0.232, 1.379, 2.5, 0.101, -0.163, 1.421, 2.5
 334431174, 0.045, -0.293, 1.295, 2.5, 0.07600001, -0.232, 1.379, 2.5
 334631094, 0.03, -0.292, 1.164, 2.5, 0.045, -0.293, 1.295, 2.5
 334831014, 0.032, -0.214, 0.987, 2.5, 0.03, -0.292, 1.164, 2.5
 335030934, 0.042, -0.119, 0.784, 2.5, 0.032, -0.214, 0.987, 2.5
 335230854, 0.053, -0.058, 0.6, 2.5, 0.042, -0.119, 0.784, 2.5
 335430774, 0.081, -0.035, 0.455, 2.5, 0.053, -0.058, 0.6, 2.5
 335630694, 0.118, -0.027, 0.361, 2.5, 0.081, -0.035, 0.455, 2.5
 335831447, 0.158, -0.039, 0.323, 2.5, 0.118, -0.027, 0.361, 2.5
 336031367, 0.225, -0.048, 0.328, 2.5, 0.158, -0.039, 0.323, 2.5
 336231287, 0.255, -0.029, 0.353, 2.5, 0.225, -0.048, 0.328, 2.5
 336431207, 0.303, 0.006, 0.385, 2.5, 0.255, -0.029, 0.353, 2.5
 336631127, 0.323, 0.05, 0.416, 2.5, 0.303, 0.006, 0.385, 2.5
 336831047, 0.313, 0.097, 0.443, 2.5, 0.323, 0.05, 0.416, 2.5
 337030967, 0.282, 0.148, 0.463, 2.5, 0.313, 0.097, 0.443, 2.5
 337230887, 0.249, 0.183, 0.477, 2.5, 0.282, 0.148, 0.463, 2.5
 337430807, 0.226, 0.187, 0.487, 2.5, 0.249, 0.183, 0.477, 2.5
 337630727, 0.192, 0.174, 0.492, 2.5, 0.226, 0.187, 0.487, 2.5
 337831480, 0.29, 0.145, 0.495, 2.5, 0.192, 0.174, 0.492, 2.5
 338031400, 0.25, 0.093, 0.496, 2.5, 0.29, 0.145, 0.495, 2.5
 338231320, 0.068, 0.063, 0.495, 2.5, 0.25, 0.093, 0.496, 2.5
 338431240, 0.058, 0.094, 0.493, 2.5, 0.068, 0.063, 0.495, 2.5
 338631160, 0.015, 0.156, 0.49, 2.5, 0.058, 0.094, 0.493, 2.5
 338831080, -0.018, 0.181, 0.487, 2.5, 0.015, 0.156, 0.49, 2.5
 339031000, -0.009000001, 0.165, 0.485, 2.5, -0.018, 0.181, 0.487, 2.5
 339230920, 0.009000001, 0.162, 0.484, 2.5, -0.009000001, 0.165, 0.485, 2.5
 339430840, 0.002, 0.153, 0.483, 2.5, 0.009000001, 0.162, 0.484, 2.5
 339630760, -0.024, 0.115, 0.483, 2.5, 0.002, 0.153, 0.483, 2.5
 339830680, -0.149, 0.061, 0.484, 2.5, -0.024, 0.115, 0.483, 2.5
 340031433, -0.188, 0.004, 0.485, 2.5, -0.149, 0.061, 0.484, 2.5
 340231353, -0.194, -0.055, 0.486, 2.5, -0.188, 0.004, 0.485, 2.5
 340431273, -0.197, -0.08800001, 0.486, 2.5, -0.194, -0.055, 0.486, 2.5
 340631193, -0.202, -0.057, 0.484, 2.5, -0.197, -0.08800001, 0.486, 2.5
 340831113, -0.186, -0.003, 0.482, 2.5, -0.202, -0.057, 0.484, 2.5
 341031033, -0.123, 0.007, 0.48, 2.5, -0.186, -0.003, 0.482, 2.5
 341230953, 0.061, -0.043, 0.48, 2.5, -0.123, 0.007, 0.48, 2.5
 341430873, 0.085, -0.12, 0.481, 2.5, 0.061, -0.043, 0.48, 2.5
 341630793, 0.15, -0.183, 0.482, 2.5, 0.085, -0.12, 0.481, 2.5
 341830713, 0.215, -0.212, 0.482, 2.5, 0.15, -0.183, 0.482, 2.5
 342031466, 0.242, -0.178, 0.481, 2.5, 0.215, -0.212, 0.482, 2.5
 342231386, 0.272, -0.097, 0.479, 2.5, 0.242, -0.178, 0.481, 2.5
 342431306, 0.278, -0.009000001, 0.477, 2.5, 0.272, -0.097, 0.479, 2.5
 342631226, 0.258, 0.09200001, 0.475, 2.5, 0.278, -0.009000001, 0.477, 2.5
 342831146, 0.217, 0.217, 0.473, 2.5, 0.258, 0.09200001, 0.475, 2.5
 343031066, 0.173, 0.351, 0.472, 2.5, 0.217, 0.217, 0.473, 2.5
 343230986, 0.07600001, 0.456, 0.472, 2.5, 0.173, 0.351, 0.472, 2.5
 343430906, -0.075, 0.507, 0.472, 2.5, 0.07600001, 0.456, 0.472, 2.5
 343630826, -0.089, 0.508, 0.473, 2.5, -0.075, 0.507, 0.472, 2.5
 343830746, -0.128, 0.479, 0.474, 2.5, -0.089, 0.508, 0.473, 2.5
 344030666, -0.161, 0.438, 0.477, 2.5, -0.128, 0.479, 0.474, 2.5
 344231419, -0.272, 0.375, 0.481, 2.5, -0.161, 0.438, 0.477, 2.5
 344431339, -0.331, 0.291, 0.483, 2.5, -0.272, 0.375, 0.481, 2.5
 344631259, -0.331, 0.242, 0.485, 2.5, -0.331, 0.291, 0.483, 2.5
 344831179, -0.327, 0.244, 0.486, 2.5, -0.331, 0.242, 0.485, 2.5
 345031099, -0.324, 0.233, 0.487, 2.5, -0.327, 0.244, 0.486, 2.5
 345231019, -0.293, 0.198, 0.487, 2.5, -0.324, 0.233, 0.487, 2.5
 345430939, -0.132, 0.182, 0.483, 2.5, -0.293, 0.198, 0.487, 2.5
 345630859, -0.075, 0.198, 0.479, 2.5, -0.132, 0.182, 0.483, 2.5
 345830779, -0.081, 0.19, 0.481, 2.5, -0.075, 0.198, 0.479, 2.5
 346030699, -0.07300001, 0.137, 0.483, 2.5, -0.081, 0.19, 0.481, 2.5
 346231452, -0.07, 0.075, 0.482, 2.5, -0.07300001, 0.137, 0.483, 2.5
 346431372, -0.008, 0.046, 0.479, 2.5, -0.07, 0.075, 0.482, 2.5
 346631292, 0.004, 0.03, 0.472, 2.5, -0.008, 0.046, 0.479, 2.5
 346831212, -0.061, 0.015, 0.468, 2.5, 0.004, 0.03, 0.472, 2.5
 347031132, -0.093, -0.002, 0.465, 2.5, -0.061, 0.015, 0.468, 2.5
 347231052, -0.147, -0.012, 0.461, 2.5, -0.093, -0.002, 0.465, 2.5
 347430972, -0.194, -0.012, 0.457, 2.5, -0.147, -0.012, 0.461, 2.5
 347630892, -0.297, -0.011, 0.459, 2.5, -0.194, -0.012, 0.457, 2.5
 347830812, -0.328, -0.028, 0.464, 2.5, -0.297, -0.011, 0.459, 2.5
 348030732, -0.289, -0.054, 0.471, 2.5, -0.328, -0.028, 0.464, 2.5
 348231485, -0.21, -0.068, 0.48, 2.5, -0.289, -0.054, 0.471, 2.5
 348431405, -0.156, -0.086, 0.488, 2.5, -0.21, -0.068, 0.48, 2.5
 348631325, -0.292, -0.12, 0.492, 2.5, -0.156, -0.086, 0.488, 2.5
 348831245, -0.356, -0.142, 0.493, 2.5, -0.292, -0.12, 0.492, 2.5
 349031165, -0.288, -0.164, 0.492, 2.5, -0.356, -0.142, 0.493, 2.5
 349231085, -0.229, -0.224, 0.487, 2.5, -0.288, -0.164, 0.492, 2.5
 349431005, -0.225, -0.305, 0.484, 2.5, -0.229, -0.224, 0.487, 2.5
 349630925, -0.221, -0.342, 0.483, 2.5, -0.225, -0.305, 0.484, 2.5
 349830845, -0.17, -0.313, 0.476, 2.5, -0.221, -0.342, 0.483, 2.5
 350030765, -0.081, -0.281, 0.467, 2.5, -0.17, -0.313, 0.476, 2.5
 350230685, 0.016, -0.273, 0.461, 2.5, -0.081, -0.281, 0.467, 2.5
 350431438, 0.058, -0.294, 0.446, 2.5, 0.016, -0.273, 0.461, 2.5
 350631358, 0.031, -0.307, 0.425, 2.5, 0.058, -0.294, 0.446, 2.5
 350831278, -0.038, -0.276, 0.403, 2.5, 0.031, -0.307, 0.425, 2.5
 351031198, -0.126, -0.231, 0.386, 2.5, -0.038, -0.276, 0.403, 2.5
 351231118, -0.143, -0.198, 0.386, 2.5, -0.126, -0.231, 0.386, 2.5
 351431038, -0.104, -0.182, 0.399, 2.5, -0.143, -0.198, 0.386, 2.5
 351630958, -0.001, -0.199, 0.417, 2.5, -0.104, -0.182, 0.399, 2.5
 351830878, -0.019, -0.222, 0.438, 2.5, -0.001, -0.199, 0.417, 2.5
 352030798, -0.159, -0.208, 0.46, 2.5, -0.019, -0.222, 0.438, 2.5
 352230718, -0.198, -0.161, 0.476, 2.5, -0.159, -0.208, 0.46, 2.5
 352431471, -0.159, -0.113, 0.489, 2.5, -0.198, -0.161, 0.476, 2.5
 352631391, -0.107, -0.081, 0.517, 2.5, -0.159, -0.113, 0.489, 2.5
 352831311, 0.017, -0.055, 0.546, 2.5, -0.107, -0.081, 0.517, 2.5
 353031231, 0.056, -0.044, 0.5700001, 2.5, 0.017, -0.055, 0.546, 2.5
 353231151, 0.06500001, -0.049, 0.591, 2.5, 0.056, -0.044, 0.5700001, 2.5
 353431071, 0.071, -0.043, 0.5700001, 2.5, 0.06500001, -0.049, 0.591, 2.5
 353630991, 0.027, 0.012, -0.158, 2.5, 0.071, -0.043, 0.5700001, 2.5
 353830911, 0.021, 0.004, -0.057, 2.5, 0.027, 0.012, -0.158, 2.5
 354030831, 0.02, -0.002, 0.028, 2.5, 0.021, 0.004, -0.057, 2.5
 354230751, 0.02, -0.001, 0.004, 2.5, 0.02, -0.002, 0.028, 2.5
 354430671, 0.02, -0.001, -0.004, 2.5, 0.02, -0.001, 0.004, 2.5
 354631424, 0.02, -0.001, 0, 2.5, 0.02, -0.001, -0.004, 2.5
 354831344, 0.02, -0.001, 0, 2.5, 0.02, -0.001, 0, 2.5
 355031264, 0.02, -0.001, 0, 2.5, 0.02, -0.001, 0, 2.5
 355231184, 0.02, -0.001, 0, 2.5, 0.02, -0.001, 0, 2.5
 355431104, 0.02, -0.001, 0, 2.5, 0.02, -0.001, 0, 2.5
 355631024, 0.02, -0.001, 0, 2.5, 0.02, -0.001, 0, 2.5
 355830944, 0.02, -0.001, 0, 2.5, 0.02, -0.001, 0, 2.5
 356030864, 0.02, -0.001, 0, 2.5, 0.02, -0.001, 0, 2.5
 356230784, 0.02, -0.001, 0, 2.5, 0.02, -0.001, 0, 2.5
 356430704, 0.02, -0.001, 0, 2.5, 0.02, -0.001, 0, 2.5
