TimeUS,COFN,COFE,COFD,CNe,CEe,CDe,POFN,POFE,POFD,PNe,PEe,PDe
 170748340, 0, 0, 0, 0, 0, 0, 0, 0, 0, 0, 0, 0
 170830807, -0.008753236, 0.01633168, -0.002976434, 0.02616138, -0.0260889, 6.338608E-05, 0, 0, 0, 0, 0, 0
 171030727, 0, 0, 0, 0.02616138, -0.0260889, 6.338608E-05, -0.008753236, 0.01633168, -0.002976434, 0.02616138, -0.0260889, 6.338608E-05
 171231480, -0.01152526, -0.002566232, -2.546917E-05, 0.0257326, -0.0275085, 0.4000032, 0, 0, 0, 0.02616138, -0.0260889, 6.338608E-05
 171431400, 0.00335505, -0.003230861, 8.554562E-07, 0.02605078, -0.02752393, 0.4000039, -0.01152526, -0.002566232, -2.546917E-05, 0.0257326, -0.0275085, 0.4000032
 171631320, 0.01261543, 0.02307966, 6.152524E-05, 0.0262707, -0.02699181, 0.4000051, 0.00335505, -0.003230861, 8.554562E-07, 0.02605078, -0.02752393, 0.4000039
 171831240, 0.01036559, 0.006274784, 2.964058E-05, 0.02621318, -0.02731716, 0.4000046, 0.01261543, 0.02307966, 6.152524E-05, 0.0262707, -0.02699181, 0.4000051
 172031160, -0.01208286, -0.005347245, -3.142181E-05, 0.02571221, -0.02757514, 0.4000035, 0.01036559, 0.006274784, 2.964058E-05, 0.02621318, -0.02731716, 0.4000046
 172231080, -0.009510558, 0.006913643, -6.399702E-06, 0.0257603, -0.02730232, 0.4000044, -0.01208286, -0.005347245, -3.142181E-05, 0.02571221, -0.02757514, 0.4000035
 172431000, 0.009937458, -0.003183836, 1.342029E-05, 0.02619322, -0.02752385, 0.4000049, -0.009510558, 0.006913643, -6.399702E-06, 0.0257603, -0.02730232, 0.4000044
 172630920, 0.01729855, 0.01124145, 5.126615E-05, 0.02637699, -0.02721585, 0.4000058, 0.009937458, -0.003183836, 1.342029E-05, 0.02619322, -0.02752385, 0.4000049
 172830840, 0.008709343, -0.006054788, 6.284135E-06, 0.02616457, -0.0275938, 0.4000045, 0.01729855, 0.01124145, 5.126615E-05, 0.02637699, -0.02721585, 0.4000058
 173030760, -0.01929644, -0.01089408, -5.402962E-05, 0.02557538, -0.02770688, 0.4000031, 0.008709343, -0.006054788, 6.284135E-06, 0.02616457, -0.0275938, 0.4000045
 173230680, 0.01839069, -0.0230048, -4.019996E-06, 0.02641893, -0.02801868, 0.4000038, -0.01929644, -0.01089408, -5.402962E-05, 0.02557538, -0.02770688, 0.4000031
 173431433, 0.01981006, 0.003620027, 4.247081E-05, 0.02645915, -0.02737208, 0.4000047, 0.01839069, -0.0230048, -4.019996E-06, 0.02641893, -0.02801868, 0.4000038
 173631353, 0.01569874, 0.004119079, 3.572882E-05, 0.0263518, -0.02736023, 0.4000046, 0.01981006, 0.003620027, 4.247081E-05, 0.02645915, -0.02737208, 0.4000047
 173831273, -0.004515438, -0.02514407, -4.991094E-05, 0.02587786, -0.02807801, 0.4000024, 0.01569874, 0.004119079, 3.572882E-05, 0.0263518, -0.02736023, 0.4000046
 174031193, 0.004681356, -0.02168669, -2.743037E-05, 0.02608349, -0.02798728, 0.4000027, -0.004515438, -0.02514407, -4.991094E-05, 0.02587786, -0.02807801, 0.4000024
 174231113, -0.007317555, -0.008859671, -2.815869E-05, 0.02582049, -0.02766048, 0.4000027, 0.004681356, -0.02168669, -2.743037E-05, 0.02608349, -0.02798728, 0.4000027
 174431033, 0.005834629, -0.01632347, -1.634486E-05, 0.0261141, -0.0278442, 0.4000029, -0.007317555, -0.008859671, -2.815869E-05, 0.02582049, -0.02766048, 0.4000027
 174630953, 0.01952805, 0.02439625, 7.602228E-05, 0.02645569, -0.02696823, 0.4000051, 0.005834629, -0.01632347, -1.634486E-05, 0.0261141, -0.0278442, 0.4000029
 174830873, -0.003086757, 0.02512184, 3.575549E-05, 0.02591212, -0.02695423, 0.4000042, 0.01952805, 0.02439625, 7.602228E-05, 0.02645569, -0.02696823, 0.4000051
 175030793, 0.004640201, -0.003646369, 2.507071E-06, 0.02608566, -0.02753058, 0.4000037, -0.003086757, 0.02512184, 3.575549E-05, 0.02591212, -0.02695423, 0.4000042
 175230713, -0.006862063, -0.01280635, -3.355524E-05, 0.02583203, -0.02774865, 0.400003, 0.004640201, -0.003646369, 2.507071E-06, 0.02608566, -0.02753058, 0.4000037
 175431466, -0.01642654, -0.02118585, -6.471706E-05, 0.02564215, -0.02796406, 0.4000023, -0.006862063, -0.01280635, -3.355524E-05, 0.02583203, -0.02774865, 0.400003
 175631386, 0.02506424, -0.004389474, 3.875057E-05, 0.02660386, -0.02754417, 0.4000049, -0.01642654, -0.02118585, -6.471706E-05, 0.02564215, -0.02796406, 0.4000023
 175831306, -0.001209109, 0.02461973, 3.798042E-05, 0.02595204, -0.02695658, 0.4000048, 0.02506424, -0.004389474, 3.875057E-05, 0.02660386, -0.02754417, 0.4000049
 176031226, 0.02489269, 0.02360654, 8.408604E-05, 0.02659804, -0.0269721, 0.4000061, -0.001209109, 0.02461973, 3.798042E-05, 0.02595204, -0.02695658, 0.4000048
 176231146, 0.01836224, 0.01524298, 5.843372E-05, 0.02642379, -0.02712386, 0.4000056, 0.02489269, 0.02360654, 8.408604E-05, 0.02659804, -0.0269721, 0.4000061
 176431066, 0.002926277, -0.01400199, -1.741753E-05, 0.0260434, -0.02777388, 0.4000039, 0.01836224, 0.01524298, 5.843372E-05, 0.02642379, -0.02712386, 0.4000056
 176630986, -0.0117596, -0.01291935, -4.286071E-05, 0.02572484, -0.02774854, 0.4000035, 0.002926277, -0.01400199, -1.741753E-05, 0.0260434, -0.02777388, 0.4000039
 176830906, 0.0004235386, 0.01574152, 2.656163E-05, 0.02598065, -0.02711905, 0.400005, -0.0117596, -0.01291935, -4.286071E-05, 0.02572484, -0.02774854, 0.4000035
 177030826, 0.003596088, 0.006736206, 1.771372E-05, 0.0260526, -0.02729945, 0.4000048, 0.0004235386, 0.01574152, 2.656163E-05, 0.02598065, -0.02711905, 0.400005
 177230746, 0.01907466, -0.0213736, 3.60109E-07, 0.02643418, -0.02796935, 0.4000044, 0.003596088, 0.006736206, 1.771372E-05, 0.0260526, -0.02729945, 0.4000048
 177430666, -0.02405782, 0.01765206, -1.6042E-05, 0.02549016, -0.02708164, 0.4000045, 0.01907466, -0.0213736, 3.60109E-07, 0.02643418, -0.02796935, 0.4000044
 177631419, -0.02342717, -0.01573192, -6.973518E-05, 0.0254949, -0.02781769, 0.4000039, -0.02405782, 0.01765206, -1.6042E-05, 0.02549016, -0.02708164, 0.4000045
 177831339, 0.003786071, 0.01251104, 2.756815E-05, 0.02604563, -0.02717902, 0.400006, -0.02342717, -0.01573192, -6.973518E-05, 0.0254949, -0.02781769, 0.4000039
 178031259, 0.01382435, -0.002934902, 2.120601E-05, 0.02629031, -0.02750742, 0.4000058, 0.003786071, 0.01251104, 2.756815E-05, 0.02604563, -0.02717902, 0.400006
 178231179, 0.00498199, -0.005308343, 6.882492E-07, 0.02608109, -0.02755925, 0.4000052, 0.01382435, -0.002934902, 2.120601E-05, 0.02629031, -0.02750742, 0.4000058
 178431099, 0.02202844, -0.008757675, 2.671059E-05, 0.02651306, -0.02764, 0.4000057, 0.00498199, -0.005308343, 6.882492E-07, 0.02608109, -0.02755925, 0.4000052
 178631019, 0.00854391, 0.02432848, 5.516492E-05, 0.02617183, -0.02695467, 0.400006, 0.02202844, -0.008757675, 2.671059E-05, 0.02651306, -0.02764, 0.4000057
 178830939, 0.02051354, -0.001748078, 3.499701E-05, 0.02647749, -0.02747287, 0.4000058, 0.00854391, 0.02432848, 5.516492E-05, 0.02617183, -0.02695467, 0.400006
 179030859, -0.01814208, -0.0172891, -6.108421E-05, 0.02560665, -0.02784699, 0.4000037, 0.02051354, -0.001748078, 3.499701E-05, 0.02647749, -0.02747287, 0.4000058
 179230779, -0.02041937, -0.01060148, -5.439814E-05, 0.02556676, -0.02767608, 0.4000039, -0.01814208, -0.0172891, -6.108421E-05, 0.02560665, -0.02784699, 0.4000037
 179430699, 0.01784166, 0.008079561, 4.552562E-05, 0.02641271, -0.02725426, 0.400006, -0.02041937, -0.01060148, -5.439814E-05, 0.02556676, -0.02767608, 0.4000039
 179631452, 0.01045272, 0.0075405, 3.115219E-05, 0.02622772, -0.02726753, 0.4000054, 0.01784166, 0.008079561, 4.552562E-05, 0.02641271, -0.02725426, 0.400006
 179831372, 0.02269745, 0.0140113, 6.392396E-05, 0.02654271, -0.02713933, 0.4000061, 0.01045272, 0.0075405, 3.115219E-05, 0.02622772, -0.02726753, 0.4000054
 180031292, 0.01598609, 0.01202995, 4.846518E-05, 0.02636796, -0.0271797, 0.4000055, 0.02269745, 0.0140113, 6.392396E-05, 0.02654271, -0.02713933, 0.4000061
 180231212, -0.007519418, 0.02424382, 2.565323E-05, 0.02582427, -0.02695805, 0.4000044, 0.01598609, 0.01202995, 4.846518E-05, 0.02636796, -0.0271797, 0.4000055
 180431132, 0.008596705, -0.01194246, -3.824602E-06, 0.02618353, -0.02772381, 0.4000037, -0.007519418, 0.02424382, 2.565323E-05, 0.02582427, -0.02695805, 0.4000044
 180631052, -0.0252053, -0.0240261, -8.514938E-05, 0.02548623, -0.02803704, 0.4000021, 0.008596705, -0.01194246, -3.824602E-06, 0.02618353, -0.02772381, 0.4000037
 180830972, -0.0238372, -0.008263854, -5.690597E-05, 0.02551058, -0.02763075, 0.4000029, -0.0252053, -0.0240261, -8.514938E-05, 0.02548623, -0.02803704, 0.4000021
 181030892, -0.01870027, -0.007591437, -4.639362E-05, 0.02560427, -0.02761555, 0.4000029, -0.0238372, -0.008263854, -5.690597E-05, 0.02551058, -0.02763075, 0.4000029
 181230812, -0.01831342, 0.01183497, -1.394243E-05, 0.02561303, -0.02719313, 0.4000033, -0.01870027, -0.007591437, -4.639362E-05, 0.02560427, -0.02761555, 0.4000029
 181430732, 0.02134213, -0.007380984, 2.673556E-05, 0.0265091, -0.02761528, 0.4000041, -0.01831342, 0.01183497, -1.394243E-05, 0.02561303, -0.02719313, 0.4000033
 181631485, 0.003692244, 0.01250148, 2.725525E-05, 0.02606855, -0.02718327, 0.4000041, 0.02134213, -0.007380984, 2.673556E-05, 0.0265091, -0.02761528, 0.4000041
 181831405, -0.02000303, -0.001901439, -3.968862E-05, 0.02557784, -0.02749082, 0.4000027, 0.003692244, 0.01250148, 2.725525E-05, 0.02606855, -0.02718327, 0.4000041
 182031325, -0.02077282, 0.00302976, -3.309204E-05, 0.02556144, -0.02738324, 0.4000029, -0.02000303, -0.001901439, -3.968862E-05, 0.02557784, -0.02749082, 0.4000027
 182231245, 0.02051961, 0.02462107, 7.858747E-05, 0.02648033, -0.0269668, 0.4000051, -0.02077282, 0.00302976, -3.309204E-05, 0.02556144, -0.02738324, 0.4000029
 182431165, -0.004357125, -0.0102869, -2.520686E-05, 0.02588254, -0.02769754, 0.4000026, 0.02051961, 0.02462107, 7.858747E-05, 0.02648033, -0.0269668, 0.4000051
 182631085, -0.01266384, -0.01356304, -4.606788E-05, 0.02571028, -0.02777998, 0.4000022, -0.004357125, -0.0102869, -2.520686E-05, 0.02588254, -0.02769754, 0.4000026
 182831005, 0.02526908, -0.009944225, 3.013564E-05, 0.02660313, -0.02769155, 0.4000041, -0.01266384, -0.01356304, -4.606788E-05, 0.02571028, -0.02777998, 0.4000022
 183030925, -0.004869378, -0.01014069, -2.618239E-05, 0.02586631, -0.02770183, 0.4000024, 0.02526908, -0.009944225, 3.013564E-05, 0.02660313, -0.02769155, 0.4000041
 183230845, -0.01816734, -0.002830727, -3.844963E-05, 0.02560203, -0.02752938, 0.4000021, -0.004869378, -0.01014069, -2.618239E-05, 0.02586631, -0.02770183, 0.4000024
 183430765, 0.007357793, -0.02348815, -2.595176E-05, 0.02614589, -0.02804297, 0.4000023, -0.01816734, -0.002830727, -3.844963E-05, 0.02560203, -0.02752938, 0.4000021
 183630685, 0.01604983, 0.01683202, 5.769146E-05, 0.02636612, -0.02711564, 0.4000039, 0.007357793, -0.02348815, -2.595176E-05, 0.02614589, -0.02804297, 0.4000023
 183831438, 0.008768342, 0.00843448, 3.015614E-05, 0.02618711, -0.02727968, 0.4000032, 0.01604983, 0.01683202, 5.769146E-05, 0.02636612, -0.02711564, 0.4000039
 184031358, -0.01308968, -0.01281847, -4.523763E-05, 0.02571074, -0.02776039, 0.4000017, 0.008768342, 0.00843448, 3.015614E-05, 0.02618711, -0.02727968, 0.4000032
 184231278, -0.01863849, -0.01329896, -5.600598E-05, 0.02560706, -0.02777158, 0.4000014, -0.01308968, -0.01281847, -4.523763E-05, 0.02571074, -0.02776039, 0.4000017
 184431198, -0.02237403, -0.023418, -7.962253E-05, 0.02554031, -0.02803645, 0.4000007, -0.01863849, -0.01329896, -5.600598E-05, 0.02560706, -0.02777158, 0.4000014
 184631118, 0.005918439, 0.02213812, 4.777007E-05, 0.02612345, -0.02701587, 0.4000034, -0.02237403, -0.023418, -7.962253E-05, 0.02554031, -0.02803645, 0.4000007
 184831038, 0.0001461267, -0.02476751, -4.133054E-05, 0.02599209, -0.02807774, 0.4000011, 0.005918439, 0.02213812, 4.777007E-05, 0.02612345, -0.02701587, 0.4000034
 185030958, -0.005459667, -0.02110847, -4.529285E-05, 0.02587126, -0.02797846, 0.400001, 0.0001461267, -0.02476751, -4.133054E-05, 0.02599209, -0.02807774, 0.4000011
 185230878, -0.003674946, -0.01242918, -2.744802E-05, 0.02590746, -0.02775256, 0.4000017, -0.005459667, -0.02110847, -4.529285E-05, 0.02587126, -0.02797846, 0.400001
 185430798, -0.002503593, -0.00345557, -1.032322E-05, 0.02593189, -0.0275379, 0.4000022, -0.003674946, -0.01242918, -2.744802E-05, 0.02590746, -0.02775256, 0.4000017
 185630718, 0.01539119, -0.01331528, 5.640944E-06, 0.02635368, -0.0277764, 0.4000025, -0.002503593, -0.00345557, -1.032322E-05, 0.02593189, -0.0275379, 0.4000022
 185831471, 0.01519144, -0.005185854, 1.895689E-05, 0.02634673, -0.02758121, 0.4000028, 0.01539119, -0.01331528, 5.640944E-06, 0.02635368, -0.0277764, 0.4000025
 186031391, 0.0004844291, -0.01775136, -2.89974E-05, 0.02599511, -0.02789224, 0.4000016, 0.01519144, -0.005185854, 1.895689E-05, 0.02634673, -0.02758121, 0.4000028
 186231311, -0.01617299, 0.01801068, 8.77475E-07, 0.02565145, -0.02709472, 0.4000023, 0.0004844291, -0.01775136, -2.89974E-05, 0.02599511, -0.02789224, 0.4000016
 186431231, 0.0131225, -0.02019296, -1.010745E-05, 0.0262953, -0.02795618, 0.400002, -0.01617299, 0.01801068, 8.77475E-07, 0.02565145, -0.02709472, 0.4000023
 186631151, -0.01734921, -0.006422054, -4.253215E-05, 0.02562661, -0.02761493, 0.4000012, 0.0131225, -0.02019296, -1.010745E-05, 0.0262953, -0.02795618, 0.400002
 186831071, -0.02384116, 0.01277458, -2.195344E-05, 0.02550808, -0.02719978, 0.4000018, -0.01734921, -0.006422054, -4.253215E-05, 0.02562661, -0.02761493, 0.4000012
 187030991, -0.004388215, 0.01217177, 1.251259E-05, 0.02588473, -0.02720923, 0.4000027, -0.02384116, 0.01277458, -2.195344E-05, 0.02550808, -0.02719978, 0.4000018
 187230911, -0.005864386, 0.001927048, -7.490609E-06, 0.02585379, -0.02741979, 0.4000024, -0.004388215, 0.01217177, 1.251259E-05, 0.02588473, -0.02720923, 0.4000027
 187430831, -0.0129325, -0.0005519526, -2.47131E-05, 0.02570583, -0.0274708, 0.4000026, -0.005864386, 0.001927048, -7.490609E-06, 0.02585379, -0.02741979, 0.4000024
 187630751, -0.01613264, 0.007777857, -1.689146E-05, 0.02563969, -0.02728964, 0.4000032, -0.0129325, -0.0005519526, -2.47131E-05, 0.02570583, -0.0274708, 0.4000026
 187830671, 0.01356568, 0.0151782, 5.054635E-05, 0.02629136, -0.02714289, 0.4000048, -0.01613264, 0.007777857, -1.689146E-05, 0.02563969, -0.02728964, 0.4000032
 188031424, -0.01071975, -0.000352219, -2.060476E-05, 0.02573922, -0.02746867, 0.4000033, 0.01356568, 0.0151782, 5.054635E-05, 0.02629136, -0.02714289, 0.4000048
 188231344, -0.007319467, -0.01944337, -4.637832E-05, 0.02580781, -0.02793512, 0.4000025, -0.01071975, -0.000352219, -2.060476E-05, 0.02573922, -0.02746867, 0.4000033
 188431264, 0.01305593, 0.006592788, 3.547552E-05, 0.02627528, -0.02732054, 0.4000043, -0.007319467, -0.01944337, -4.637832E-05, 0.02580781, -0.02793512, 0.4000025
 188631184, -0.01371754, 0.01727788, 3.57273E-06, 0.02568266, -0.02710856, 0.4000034, 0.01305593, 0.006592788, 3.547552E-05, 0.02627528, -0.02732054, 0.4000043
 188831104, 0.011769, 0.01062116, 3.958793E-05, 0.026249, -0.02723515, 0.4000042, -0.01371754, 0.01727788, 3.57273E-06, 0.02568266, -0.02710856, 0.4000034
 189031024, 0.002759983, -0.01925951, -2.70074E-05, 0.02603807, -0.02792484, 0.4000026, 0.011769, 0.01062116, 3.958793E-05, 0.026249, -0.02723515, 0.4000042
 189230944, 0.02324424, -0.009722589, 2.654849E-05, 0.02655288, -0.02767985, 0.4000041, 0.002759983, -0.01925951, -2.70074E-05, 0.02603807, -0.02792484, 0.4000026
 189430864, 0.02515892, -0.004891764, 3.799463E-05, 0.02660683, -0.02756143, 0.4000045, 0.02324424, -0.009722589, 2.654849E-05, 0.02655288, -0.02767985, 0.4000041
 189630784, 0.01368832, 0.01133304, 4.360788E-05, 0.02630647, -0.02720824, 0.4000045, 0.02515892, -0.004891764, 3.799463E-05, 0.02660683, -0.02756143, 0.4000045
 189830704, 0.003841944, -0.02485697, -3.370756E-05, 0.02606801, -0.02806468, 0.4000028, 0.01368832, 0.01133304, 4.360788E-05, 0.02630647, -0.02720824, 0.4000045
 190031457, 0.002440845, 0.02298789, 4.206218E-05, 0.02603252, -0.02698647, 0.4000049, 0.003841944, -0.02485697, -3.370756E-05, 0.02606801, -0.02806468, 0.4000028
 190231377, -0.01032464, -0.01265136, -3.958819E-05, 0.02575703, -0.02774106, 0.4000034, 0.002440845, 0.02298789, 4.206218E-05, 0.02603252, -0.02698647, 0.4000049
 190431297, -0.02483172, -0.002405246, -4.946994E-05, 0.02548747, -0.02749389, 0.4000034, -0.01032464, -0.01265136, -3.958819E-05, 0.02575703, -0.02774106, 0.4000034
 190631217, 0.003322532, -0.01727386, -2.194206E-05, 0.02605396, -0.0278563, 0.4000037, -0.02483172, -0.002405246, -4.946994E-05, 0.02548747, -0.02749389, 0.4000034
 190831137, -0.0228146, 0.009089037, -2.70824E-05, 0.02552283, -0.02724726, 0.4000037, 0.003322532, -0.01727386, -2.194206E-05, 0.02605396, -0.0278563, 0.4000037
 191031057, -0.01506626, -0.001124368, -2.949683E-05, 0.02566482, -0.02746631, 0.4000037, -0.0228146, 0.009089037, -2.70824E-05, 0.02552283, -0.02724726, 0.4000037
 191230977, 0.01045095, 0.01073853, 3.66914E-05, 0.02622068, -0.0272139, 0.4000051, -0.01506626, -0.001124368, -2.949683E-05, 0.02566482, -0.02746631, 0.4000037
 191430897, 0.008742124, 0.007757506, 2.87965E-05, 0.02617817, -0.02727849, 0.4000048, 0.01045095, 0.01073853, 3.66914E-05, 0.02622068, -0.0272139, 0.4000051
 191630817, 0.01414456, -0.01079252, 8.306264E-06, 0.0263125, -0.02770028, 0.4000041, 0.008742124, 0.007757506, 2.87965E-05, 0.02617817, -0.02727849, 0.4000048
 191830737, 0.02000616, 0.01971428, 6.923763E-05, 0.02646175, -0.02704708, 0.4000057, 0.01414456, -0.01079252, 8.306264E-06, 0.0263125, -0.02770028, 0.4000041
 192030657, 0.01976479, -0.01368016, 1.420535E-05, 0.02645255, -0.0277706, 0.4000047, 0.02000616, 0.01971428, 6.923763E-05, 0.02646175, -0.02704708, 0.4000057
 192231410, -0.01733297, -0.007372314, -4.423691E-05, 0.02561531, -0.0276177, 0.4000033, 0.01976479, -0.01368016, 1.420535E-05, 0.02645255, -0.0277706, 0.4000047
 192431330, 0.01743955, -0.02263361, -4.88622E-06, 0.02639257, -0.02800518, 0.4000041, -0.01733297, -0.007372314, -4.423691E-05, 0.02561531, -0.0276177, 0.4000033
 192631250, 0.01639812, -0.01947998, -1.59955E-06, 0.02636442, -0.02792143, 0.4000042, 0.01743955, -0.02263361, -4.88622E-06, 0.02639257, -0.02800518, 0.4000041
 192831170, -0.01797342, -0.02360472, -7.221309E-05, 0.02560173, -0.02803237, 0.4000027, 0.01639812, -0.01947998, -1.59955E-06, 0.02636442, -0.02792143, 0.4000042
 193031090, -0.002765702, -0.01555599, -3.069837E-05, 0.02590806, -0.02781918, 0.4000037, -0.01797342, -0.02360472, -7.221309E-05, 0.02560173, -0.02803237, 0.4000027
 193231010, 0.01014378, -0.0176496, -1.005068E-05, 0.02620326, -0.02787277, 0.4000043, -0.002765702, -0.01555599, -3.069837E-05, 0.02590806, -0.02781918, 0.4000037
 193430930, -0.003800348, 0.0213832, 2.804685E-05, 0.02588049, -0.02701767, 0.4000053, 0.01014378, -0.0176496, -1.005068E-05, 0.02620326, -0.02787277, 0.4000043
 193630850, -0.01218714, 0.01864863, 7.803323E-06, 0.02570833, -0.02706606, 0.4000049, -0.003800348, 0.0213832, 2.804685E-05, 0.02588049, -0.02701767, 0.4000053
 193830770, 0.01173046, -0.004195801, 1.496285E-05, 0.02624501, -0.02753895, 0.400005, -0.01218714, 0.01864863, 7.803323E-06, 0.02570833, -0.02706606, 0.4000049
 194030690, 0.005166716, 0.01630681, 3.612221E-05, 0.02609024, -0.02710519, 0.4000054, 0.01173046, -0.004195801, 1.496285E-05, 0.02624501, -0.02753895, 0.400005
 194231443, -0.01448376, 0.01070753, -9.389731E-06, 0.02567233, -0.02721213, 0.4000045, 0.005166716, 0.01630681, 3.612221E-05, 0.02609024, -0.02710519, 0.4000054
 194431363, 0.001139225, 0.02051528, 3.517028E-05, 0.02600155, -0.02702098, 0.4000055, -0.01448376, 0.01070753, -9.389731E-06, 0.02567233, -0.02721213, 0.4000045
 194631283, -0.001213391, -0.01487497, -2.610675E-05, 0.0259522, -0.02778744, 0.4000041, 0.001139225, 0.02051528, 3.517028E-05, 0.02600155, -0.02702098, 0.4000055
 194831203, -0.01817663, -0.02488314, -7.301923E-05, 0.02560778, -0.02804824, 0.4000033, -0.001213391, -0.01487497, -2.610675E-05, 0.0259522, -0.02778744, 0.4000041
 195031123, -0.02276927, 0.02471656, -2.630528E-06, 0.02552251, -0.026937, 0.4000053, -0.01817663, -0.02488314, -7.301923E-05, 0.02560778, -0.02804824, 0.4000033
 195231043, 0.01399134, -0.01837083, -3.216939E-06, 0.02630466, -0.02786897, 0.4000057, -0.02276927, 0.02471656, -2.630528E-06, 0.02552251, -0.026937, 0.4000053
 195430963, 0.02306284, 0.02275198, 7.887589E-05, 0.02653843, -0.02696983, 0.4000078, 0.01399134, -0.01837083, -3.216939E-06, 0.02630466, -0.02786897, 0.4000057
 195630883, 0.02264708, 0.01347205, 6.337189E-05, 0.02652741, -0.02714114, 0.4000076, 0.02306284, 0.02275198, 7.887589E-05, 0.02653843, -0.02696983, 0.4000078
 195830803, -0.005712274, -0.02458272, -4.932229E-05, 0.0258423, -0.02803057, 0.4000053, 0.02264708, 0.01347205, 6.337189E-05, 0.02652741, -0.02714114, 0.4000076
 196030723, 0.005154308, -0.01094684, -7.452738E-06, 0.02608156, -0.02767187, 0.4000068, -0.005712274, -0.02458272, -4.932229E-05, 0.0258423, -0.02803057, 0.4000053
 196231476, 0.01303201, -0.01030706, 8.252662E-06, 0.02627393, -0.02765553, 0.4000071, 0.005154308, -0.01094684, -7.452738E-06, 0.02608156, -0.02767187, 0.4000068
 196431396, -0.005030674, -0.01208979, -2.826127E-05, 0.02585904, -0.02770043, 0.4000059, 0.01303201, -0.01030706, 8.252662E-06, 0.02627393, -0.02765553, 0.4000071
 196631316, -0.0007870514, 0.01771595, 2.625894E-05, 0.025952, -0.02705323, 0.400007, -0.005030674, -0.01208979, -2.826127E-05, 0.02585904, -0.02770043, 0.4000059
 196831236, 0.01382098, -0.009368198, 1.116175E-05, 0.02629272, -0.02763559, 0.400007, -0.0007870514, 0.01771595, 2.625894E-05, 0.025952, -0.02705323, 0.400007
 197031156, 0.02261154, -0.00806545, 2.984636E-05, 0.0265181, -0.02760574, 0.4000077, 0.01382098, -0.009368198, 1.116175E-05, 0.02629272, -0.02763559, 0.400007
 197231076, -0.01047011, -0.01144526, -3.77999E-05, 0.02573797, -0.02769067, 0.4000059, 0.02261154, -0.00806545, 2.984636E-05, 0.0265181, -0.02760574, 0.4000077
 197430996, -0.02214549, 0.01611476, -1.617453E-05, 0.02551582, -0.02709187, 0.4000063, -0.01047011, -0.01144526, -3.77999E-05, 0.02573797, -0.02769067, 0.4000059
 197630916, 0.004536418, -0.01086836, -8.814621E-06, 0.02606441, -0.02768255, 0.400006, -0.02214549, 0.01611476, -1.617453E-05, 0.02551582, -0.02709187, 0.4000063
 197830836, -0.006783534, -0.009343766, -2.774318E-05, 0.02581603, -0.02764895, 0.4000053, 0.004536418, -0.01086836, -8.814621E-06, 0.02606441, -0.02768255, 0.400006
 198030756, -0.01414913, -0.006630367, -3.731195E-05, 0.02566624, -0.02758609, 0.4000051, -0.006783534, -0.009343766, -2.774318E-05, 0.02581603, -0.02764895, 0.4000053
 198230676, -0.01404767, 0.007768593, -1.400697E-05, 0.02566558, -0.02726699, 0.4000057, -0.01414913, -0.006630367, -3.731195E-05, 0.02566624, -0.02758609, 0.4000051
 198431429, 0.006963532, -0.01598729, -1.271915E-05, 0.02611922, -0.02781899, 0.4000055, -0.01404767, 0.007768593, -1.400697E-05, 0.02566558, -0.02726699, 0.4000057
 198631349, 0.02235784, 0.002317953, 4.580469E-05, 0.02651317, -0.02739068, 0.4000063, 0.006963532, -0.01598729, -1.271915E-05, 0.02611922, -0.02781899, 0.4000055
 198831269, 0.008138929, 0.00698557, 2.662835E-05, 0.026155, -0.02729124, 0.4000055, 0.02235784, 0.002317953, 4.580469E-05, 0.02651317, -0.02739068, 0.4000063
 199031189, -0.01709114, 0.0220686, 3.978857E-06, 0.02561834, -0.02699552, 0.4000051, 0.008138929, 0.00698557, 2.662835E-05, 0.026155, -0.02729124, 0.4000055
 199231109, -0.02299241, 0.01516455, -1.828055E-05, 0.02551235, -0.0271193, 0.4000049, -0.01709114, 0.0220686, 3.978857E-06, 0.02561834, -0.02699552, 0.4000051
 199431029, -0.005174753, 0.0114972, 8.796751E-06, 0.0258576, -0.02718698, 0.4000057, -0.02299241, 0.01516455, -1.828055E-05, 0.02551235, -0.0271193, 0.4000049
 199630949, 0.0207851, -0.009656413, 2.322401E-05, 0.02647812, -0.02765403, 0.4000062, -0.005174753, 0.0114972, 8.796751E-06, 0.0258576, -0.02718698, 0.4000057
 199830869, -0.01522065, -0.003129303, -3.341178E-05, 0.02565145, -0.02749839, 0.4000052, 0.0207851, -0.009656413, 2.322401E-05, 0.02647812, -0.02765403, 0.4000062
 200030789, -0.0215705, 0.01333244, -1.910737E-05, 0.02553274, -0.02714691, 0.4000057, -0.01522065, -0.003129303, -3.341178E-05, 0.02565145, -0.02749839, 0.4000052
 200230709, -0.01722711, 0.01821385, -3.290555E-06, 0.02561306, -0.02705143, 0.4000061, -0.0215705, 0.01333244, -1.910737E-05, 0.02553274, -0.02714691, 0.4000057
 200431462, -0.024557, 0.007548512, -3.390482E-05, 0.02548142, -0.02725953, 0.4000056, -0.01722711, 0.01821385, -3.290555E-06, 0.02561306, -0.02705143, 0.4000061
 200631382, 0.00750185, -0.01375913, -7.855615E-06, 0.02614304, -0.02774966, 0.4000058, -0.024557, 0.007548512, -3.390482E-05, 0.02548142, -0.02725953, 0.4000056
 200831302, -0.02457494, -0.002228803, -4.92353E-05, 0.02548364, -0.02747053, 0.4000053, 0.00750185, -0.01375913, -7.855615E-06, 0.02614304, -0.02774966, 0.4000058
 201031222, -0.01915337, 0.003695327, -2.996283E-05, 0.0255777, -0.02733544, 0.4000061, -0.02457494, -0.002228803, -4.92353E-05, 0.02548364, -0.02747053, 0.4000053
 201231142, -0.005117025, 0.02446864, 2.855818E-05, 0.02585285, -0.02692845, 0.4000076, -0.01915337, 0.003695327, -2.996283E-05, 0.0255777, -0.02733544, 0.4000061
 201431062, 0.02157428, 0.02111195, 7.343449E-05, 0.02648932, -0.02698494, 0.4000092, -0.005117025, 0.02446864, 2.855818E-05, 0.02585285, -0.02692845, 0.4000076
 201630982, -0.0189506, -0.01954699, -6.617712E-05, 0.02557283, -0.02788622, 0.4000061, 0.02157428, 0.02111195, 7.343449E-05, 0.02648932, -0.02698494, 0.4000092
 201830902, -0.01361102, -0.0227309, -6.11834E-05, 0.02567266, -0.02797258, 0.4000062, -0.0189506, -0.01954699, -6.617712E-05, 0.02557283, -0.02788622, 0.4000061
 202030822, -0.01694254, -0.02314051, -6.823946E-05, 0.02560645, -0.02798364, 0.4000062, -0.01361102, -0.0227309, -6.11834E-05, 0.02567266, -0.02797258, 0.4000062
 202230742, -0.02545991, 0.02285239, -1.270974E-05, 0.02545302, -0.02695715, 0.4000075, -0.01694254, -0.02314051, -6.823946E-05, 0.02560645, -0.02798364, 0.4000062
 202430662, 0.01462277, 0.01022974, 4.393252E-05, 0.02630204, -0.02720077, 0.4000084, -0.02545991, 0.02285239, -1.270974E-05, 0.02545302, -0.02695715, 0.4000075
 202631415, 0.01396081, -0.007428417, 1.48645E-05, 0.02628329, -0.02759367, 0.4000076, 0.01462277, 0.01022974, 4.393252E-05, 0.02630204, -0.02720077, 0.4000084
 202831335, 0.01279258, 0.02126711, 5.814754E-05, 0.02625403, -0.02699462, 0.4000085, 0.01396081, -0.007428417, 1.48645E-05, 0.02628329, -0.02759367, 0.4000076
 203031255, -0.0176532, -0.01184829, -5.249833E-05, 0.02559107, -0.02770278, 0.4000059, 0.01279258, 0.02126711, 5.814754E-05, 0.02625403, -0.02699462, 0.4000085
 203231175, -0.02084349, 0.01434272, -1.669938E-05, 0.02553398, -0.02712957, 0.4000064, -0.0176532, -0.01184829, -5.249833E-05, 0.02559107, -0.02770278, 0.4000059
 203431095, 0.01525582, 0.02545181, 7.001047E-05, 0.02631854, -0.02693024, 0.400008, -0.02084349, 0.01434272, -1.669938E-05, 0.02553398, -0.02712957, 0.4000064
 203631015, -0.005919766, 0.02398226, 2.733679E-05, 0.02582425, -0.02695565, 0.4000071, 0.01525582, 0.02545181, 7.001047E-05, 0.02631854, -0.02693024, 0.400008
 203830935, -0.0197524, 0.0244506, 1.863758E-06, 0.02555136, -0.02695097, 0.4000064, -0.005919766, 0.02398226, 2.733679E-05, 0.02582425, -0.02695565, 0.4000071
 204030855, -0.02295566, -0.01509292, -6.843769E-05, 0.0254935, -0.02779796, 0.4000048, -0.0197524, 0.0244506, 1.863758E-06, 0.02555136, -0.02695097, 0.4000064
 204230775, 0.005156211, 0.00246995, 1.383769E-05, 0.02607069, -0.02738065, 0.4000066, -0.02295566, -0.01509292, -6.843769E-05, 0.0254935, -0.02779796, 0.4000048
 204430695, 0.0001695132, 0.0209238, 3.401859E-05, 0.02596066, -0.02700975, 0.400007, 0.005156211, 0.00246995, 1.383769E-05, 0.02607069, -0.02738065, 0.4000066
 204631448, 0.01225947, 0.009804106, 3.88527E-05, 0.02624986, -0.02722001, 0.4000071, 0.0001695132, 0.0209238, 3.401859E-05, 0.02596066, -0.02700975, 0.400007
 204831368, -0.01009648, -0.00602963, -2.860263E-05, 0.02574909, -0.02756431, 0.4000056, 0.01225947, 0.009804106, 3.88527E-05, 0.02624986, -0.02722001, 0.4000071
 205031288, -0.01600964, -0.005271762, -3.834186E-05, 0.0256371, -0.02754683, 0.4000052, -0.01009648, -0.00602963, -2.860263E-05, 0.02574909, -0.02756431, 0.4000056
 205231208, -0.01035637, 0.002301249, -1.558771E-05, 0.02575097, -0.02737807, 0.4000053, -0.01600964, -0.005271762, -3.834186E-05, 0.0256371, -0.02754683, 0.4000052
 205431128, 0.02518388, -0.02397074, 8.37231E-06, 0.02660019, -0.02802221, 0.4000057, -0.01035637, 0.002301249, -1.558771E-05, 0.02575097, -0.02737807, 0.4000053
 205631048, -0.02405318, 0.01326137, -2.341687E-05, 0.02549719, -0.02714817, 0.4000051, 0.02518388, -0.02397074, 8.37231E-06, 0.02660019, -0.02802221, 0.4000057
 205830968, -0.01938155, 0.0002974221, -3.540659E-05, 0.02558121, -0.02741809, 0.4000049, -0.02405318, 0.01326137, -2.341687E-05, 0.02549719, -0.02714817, 0.4000051
 206030888, -0.0148962, 0.005183795, -1.929184E-05, 0.02566605, -0.02731252, 0.4000051, -0.01938155, 0.0002974221, -3.540659E-05, 0.02558121, -0.02741809, 0.4000049
 206230808, 0.02203608, -0.01092454, 2.334619E-05, 0.02651747, -0.027681, 0.4000061, -0.0148962, 0.005183795, -1.929184E-05, 0.02566605, -0.02731252, 0.4000051
 206430728, 0.0105142, 0.01026919, 3.581111E-05, 0.02622197, -0.02720731, 0.4000063, 0.02203608, -0.01092454, 2.334619E-05, 0.02651747, -0.027681, 0.4000061
 206631481, -0.01497908, -0.01601725, -5.326082E-05, 0.02566661, -0.02781158, 0.400004, 0.0105142, 0.01026919, 3.581111E-05, 0.02622197, -0.02720731, 0.4000063
 206831401, 0.004918768, -0.0002864843, 8.639679E-06, 0.02608785, -0.02743519, 0.4000055, -0.01497908, -0.01601725, -5.326082E-05, 0.02566661, -0.02781158, 0.400004
 207031321, 0.01782282, 0.006706048, 4.384213E-05, 0.02640345, -0.02728421, 0.4000065, 0.004918768, -0.0002864843, 8.639679E-06, 0.02608785, -0.02743519, 0.4000055
 207231241, -0.006123149, -0.003909586, -1.763101E-05, 0.02584022, -0.02751673, 0.4000051, 0.01782282, 0.006706048, 4.384213E-05, 0.02640345, -0.02728421, 0.4000065
 207431161, 0.0206129, 0.01816908, 6.739239E-05, 0.02647616, -0.02705669, 0.4000071, -0.006123149, -0.003909586, -1.763101E-05, 0.02584022, -0.02751673, 0.4000051
 207631081, -0.0008397132, -0.001895247, -4.60598E-06, 0.02595328, -0.02747233, 0.4000053, 0.0206129, 0.01816908, 6.739239E-05, 0.02647616, -0.02705669, 0.4000071
 207831001, -0.01061719, 0.006538738, -9.254359E-06, 0.02574507, -0.02729042, 0.4000052, -0.0008397132, -0.001895247, -4.60598E-06, 0.02595328, -0.02747233, 0.4000053
 208030921, -0.00722056, -0.01155925, -3.215314E-05, 0.02581334, -0.02770453, 0.4000047, -0.01061719, 0.006538738, -9.254359E-06, 0.02574507, -0.02729042, 0.4000052
 208230841, 0.0009319467, 0.002866072, 6.386471E-06, 0.02598848, -0.02737159, 0.4000055, -0.00722056, -0.01155925, -3.215314E-05, 0.02581334, -0.02770453, 0.4000047
 208430761, 0.01129256, -0.007625749, 8.750191E-06, 0.02623218, -0.02761343, 0.4000054, 0.0009319467, 0.002866072, 6.386471E-06, 0.02598848, -0.02737159, 0.4000055
 208630681, 0.0230807, -0.01342776, 2.132469E-05, 0.02653739, -0.02775712, 0.4000056, 0.01129256, -0.007625749, 8.750191E-06, 0.02623218, -0.02761343, 0.4000054
 208831434, 0.01727319, -0.01116472, 1.414275E-05, 0.02638126, -0.02770443, 0.4000054, 0.0230807, -0.01342776, 2.132469E-05, 0.02653739, -0.02775712, 0.4000056
 209031354, -0.0123299, -0.003050587, -2.832204E-05, 0.02570174, -0.02751408, 0.4000045, 0.01727319, -0.01116472, 1.414275E-05, 0.02638126, -0.02770443, 0.4000054
 209231274, -0.01586467, 0.01564875, -4.332156E-06, 0.02563458, -0.02711637, 0.4000053, -0.0123299, -0.003050587, -2.832204E-05, 0.02570174, -0.02751408, 0.4000045
 209431194, 0.01029401, -0.002410518, 1.536608E-05, 0.02620816, -0.02748975, 0.4000057, -0.01586467, 0.01564875, -4.332156E-06, 0.02563458, -0.02711637, 0.4000053
 209631114, 0.00053039, 0.01972247, 3.284023E-05, 0.02598345, -0.02703274, 0.4000059, 0.01029401, -0.002410518, 1.536608E-05, 0.02620816, -0.02748975, 0.4000057
 209831034, 0.01208038, 0.01990954, 5.429209E-05, 0.02625929, -0.02702448, 0.4000066, 0.00053039, 0.01972247, 3.284023E-05, 0.02598345, -0.02703274, 0.4000059
 210030954, -0.0006652294, -0.02528312, -4.152137E-05, 0.02596194, -0.02805441, 0.4000044, 0.01208038, 0.01990954, 5.429209E-05, 0.02625929, -0.02702448, 0.4000066
 210230874, -0.01433979, 0.01855767, 3.03753E-06, 0.02567988, -0.02704384, 0.4000055, -0.0006652294, -0.02528312, -4.152137E-05, 0.02596194, -0.02805441, 0.4000044
 210430794, -0.01967863, -0.002168996, -3.959204E-05, 0.02558185, -0.02746842, 0.4000047, -0.01433979, 0.01855767, 3.03753E-06, 0.02567988, -0.02704384, 0.4000055
 210630714, -0.009478995, -0.01037841, -3.3717E-05, 0.02577899, -0.02765824, 0.400005, -0.01967863, -0.002168996, -3.959204E-05, 0.02558185, -0.02746842, 0.4000047
 210831467, -0.004186869, -0.01670438, -3.379442E-05, 0.02588955, -0.02781367, 0.4000052, -0.009478995, -0.01037841, -3.3717E-05, 0.02577899, -0.02765824, 0.400005
 211031387, -0.01156139, -0.02190185, -5.542418E-05, 0.02573882, -0.02795069, 0.4000046, -0.004186869, -0.01670438, -3.379442E-05, 0.02588955, -0.02781367, 0.4000052
 211231307, 0.001647321, 0.01830536, 3.169925E-05, 0.02602083, -0.02704006, 0.4000064, -0.01156139, -0.02190185, -5.542418E-05, 0.02573882, -0.02795069, 0.4000046
 211431227, 0.009682358, 0.007094112, 2.877937E-05, 0.02621118, -0.02725977, 0.4000064, 0.001647321, 0.01830536, 3.169925E-05, 0.02602083, -0.02704006, 0.4000064
 211631147, -0.004828715, 0.0122027, 1.027916E-05, 0.02588123, -0.02715577, 0.4000059, 0.009682358, 0.007094112, 2.877937E-05, 0.02621118, -0.02725977, 0.4000064
 211831067, 0.004012489, 0.01870215, 3.666729E-05, 0.02607792, -0.02703356, 0.4000063, -0.004828715, 0.0122027, 1.027916E-05, 0.02588123, -0.02715577, 0.4000059
 212030987, -0.01903916, 0.01600579, -9.5142E-06, 0.02559985, -0.02708563, 0.4000052, 0.004012489, 0.01870215, 3.666729E-05, 0.02607792, -0.02703356, 0.4000063
 212230907, -0.00388465, 0.01754449, 2.055689E-05, 0.02590135, -0.02705744, 0.4000058, -0.01903916, 0.01600579, -9.5142E-06, 0.02559985, -0.02708563, 0.4000052
 212430827, -0.006519427, -0.004849078, -1.95616E-05, 0.02584343, -0.02752705, 0.4000051, -0.00388465, 0.01754449, 2.055689E-05, 0.02590135, -0.02705744, 0.4000058
 212630747, 0.01481245, 0.001020053, 2.874235E-05, 0.02633684, -0.02739557, 0.4000062, -0.006519427, -0.004849078, -1.95616E-05, 0.02584343, -0.02752705, 0.4000051
 212830667, -0.02327263, -0.008603475, -5.644386E-05, 0.02551768, -0.02762105, 0.4000042, 0.01481245, 0.001020053, 2.874235E-05, 0.02633684, -0.02739557, 0.4000062
 213031420, -0.02145196, -0.006991423, -5.072621E-05, 0.0255469, -0.02758344, 0.4000045, -0.02327263, -0.008603475, -5.644386E-05, 0.02551768, -0.02762105, 0.4000042
 213231340, -0.01369649, -0.008804787, -3.942212E-05, 0.02568956, -0.02762895, 0.4000047, -0.02145196, -0.006991423, -5.072621E-05, 0.0255469, -0.02758344, 0.4000045
 213431260, 0.02500249, 0.0165769, 7.300128E-05, 0.02659592, -0.02708538, 0.4000072, -0.01369649, -0.008804787, -3.942212E-05, 0.02568956, -0.02762895, 0.4000047
 213631180, -0.01965389, 0.008319261, -2.319315E-05, 0.02557449, -0.02725008, 0.400005, 0.02500249, 0.0165769, 7.300128E-05, 0.02659592, -0.02708538, 0.4000072
 213831100, -0.01515293, 0.02108461, 5.839056E-06, 0.02565766, -0.02700759, 0.4000053, -0.01965389, 0.008319261, -2.319315E-05, 0.02557449, -0.02725008, 0.400005
 214031020, -0.004597359, 0.01119589, 9.620137E-06, 0.02587126, -0.02719878, 0.4000053, -0.01515293, 0.02108461, 5.839056E-06, 0.02565766, -0.02700759, 0.4000053
 214230940, 0.01407162, 0.02213319, 6.250668E-05, 0.02630302, -0.02699591, 0.4000063, -0.004597359, 0.01119589, 9.620137E-06, 0.02587126, -0.02719878, 0.4000053
 214430860, 0.001773922, -0.00999084, -1.301498E-05, 0.0260093, -0.02767264, 0.4000046, 0.01407162, 0.02213319, 6.250668E-05, 0.02630302, -0.02699591, 0.4000063
 214630780, -0.02533506, 0.02354939, -8.778403E-06, 0.02547562, -0.02696735, 0.4000047, 0.001773922, -0.00999084, -1.301498E-05, 0.0260093, -0.02767264, 0.4000046
 214830700, -0.00500696, -0.01366381, -3.143639E-05, 0.02586842, -0.02775945, 0.4000039, -0.02533506, 0.02354939, -8.778403E-06, 0.02547562, -0.02696735, 0.4000047
 215031453, 0.006841324, 0.01662541, 3.953015E-05, 0.02613706, -0.02709161, 0.4000055, -0.00500696, -0.01366381, -3.143639E-05, 0.02586842, -0.02775945, 0.4000039
 215231373, -0.01594686, -0.01312889, -5.044977E-05, 0.02564988, -0.02773878, 0.400004, 0.006841324, 0.01662541, 3.953015E-05, 0.02613706, -0.02709161, 0.4000055
 215431293, -0.0002712977, 0.01797887, 2.813641E-05, 0.02597395, -0.02705587, 0.4000059, -0.01594686, -0.01312889, -5.044977E-05, 0.02564988, -0.02773878, 0.400004
 215631213, 0.01366237, -0.006311107, 1.508041E-05, 0.02630617, -0.02756547, 0.4000058, -0.0002712977, 0.01797887, 2.813641E-05, 0.02597395, -0.02705587, 0.4000059
 215831133, 0.02482636, 0.00706835, 5.683456E-05, 0.02659778, -0.02726494, 0.4000072, 0.01366237, -0.006311107, 1.508041E-05, 0.02630617, -0.02756547, 0.4000058
 216031053, 0.002653922, -0.004405229, -2.03339E-06, 0.02603989, -0.02751525, 0.4000059, 0.02482636, 0.00706835, 5.683456E-05, 0.02659778, -0.02726494, 0.4000072
 216230973, -0.003844197, 0.02114972, 2.615573E-05, 0.02589922, -0.02698882, 0.4000063, 0.002653922, -0.004405229, -2.03339E-06, 0.02603989, -0.02751525, 0.4000059
 216430893, -0.02226491, -0.004239494, -4.725367E-05, 0.0255414, -0.02751132, 0.4000045, -0.003844197, 0.02114972, 2.615573E-05, 0.02589922, -0.02698882, 0.4000063
 216630813, 0.004541741, -0.001422449, 6.016118E-06, 0.02609305, -0.02744747, 0.4000054, -0.02226491, -0.004239494, -4.725367E-05, 0.0255414, -0.02751132, 0.4000045
 216830733, -0.02160504, 0.01596317, -1.411715E-05, 0.02555726, -0.02708474, 0.400005, 0.004541741, -0.001422449, 6.016118E-06, 0.02609305, -0.02744747, 0.4000054
 217031486, 0.01917071, -0.01834883, 6.116234E-06, 0.02645569, -0.02785629, 0.4000056, -0.02160504, 0.01596317, -1.411715E-05, 0.02555726, -0.02708474, 0.400005
 217231406, -0.0009060744, 0.01478306, 2.149577E-05, 0.02596816, -0.02710561, 0.400006, 0.01917071, -0.01834883, 6.116234E-06, 0.02645569, -0.02785629, 0.4000056
 217431326, -0.02062585, -0.01765672, -6.528279E-05, 0.02557204, -0.02784115, 0.400004, -0.0009060744, 0.01478306, 2.149577E-05, 0.02596816, -0.02710561, 0.400006
 217631246, 0.008002888, -0.01303728, -6.026966E-06, 0.02617201, -0.02772767, 0.400005, -0.02062585, -0.01765672, -6.528279E-05, 0.02557204, -0.02784115, 0.400004
 217831166, -0.01878558, -0.01089856, -5.194155E-05, 0.02559925, -0.02768163, 0.4000039, 0.008002888, -0.01303728, -6.026966E-06, 0.02617201, -0.02772767, 0.400005
 218031086, -0.005413876, 0.001380378, -7.769605E-06, 0.02586077, -0.02740013, 0.4000048, -0.01878558, -0.01089856, -5.194155E-05, 0.02559925, -0.02768163, 0.4000039
 218231006, -0.008715627, 0.01658162, 1.059076E-05, 0.02578919, -0.0270896, 0.4000053, -0.005413876, 0.001380378, -7.769605E-06, 0.02586077, -0.02740013, 0.4000048
 218430926, -0.004591192, -0.01273921, -2.921799E-05, 0.02587348, -0.0277365, 0.4000042, -0.008715627, 0.01658162, 1.059076E-05, 0.02578919, -0.0270896, 0.4000053
 218630846, -0.01340028, 0.01115941, -6.667291E-06, 0.02569194, -0.02720524, 0.4000045, -0.004591192, -0.01273921, -2.921799E-05, 0.02587348, -0.0277365, 0.4000042
 218830766, -0.0008409087, -0.00575125, -1.105024E-05, 0.02595157, -0.02757688, 0.4000042, -0.01340028, 0.01115941, -6.667291E-06, 0.02569194, -0.02720524, 0.4000045
 219030686, 0.003849035, 0.006366299, 1.77612E-05, 0.02605539, -0.02731083, 0.4000048, -0.0008409087, -0.00575125, -1.105024E-05, 0.02595157, -0.02757688, 0.4000042
 219231439, 0.01971717, -0.01730711, 8.26772E-06, 0.02644655, -0.02786704, 0.4000046, 0.003849035, 0.006366299, 1.77612E-05, 0.02605539, -0.02731083, 0.4000048
 219431359, 0.01536856, 0.004917036, 3.710519E-05, 0.02633182, -0.02734362, 0.4000053, 0.01971717, -0.01730711, 8.26772E-06, 0.02644655, -0.02786704, 0.4000046
 219631279, 0.02200919, 0.01317949, 6.322257E-05, 0.02650739, -0.02717453, 0.4000058, 0.01536856, 0.004917036, 3.710519E-05, 0.02633182, -0.02734362, 0.4000053
 219831199, 0.02472599, -0.006733885, 3.488512E-05, 0.02658704, -0.02760381, 0.400005, 0.02200919, 0.01317949, 6.322257E-05, 0.02650739, -0.02717453, 0.4000058
 220031119, 0.02465807, 0.01912657, 7.728879E-05, 0.02658897, -0.02705885, 0.4000057, 0.02472599, -0.006733885, 3.488512E-05, 0.02658704, -0.02760381, 0.400005
 220231039, 0.01996629, -0.01645676, 9.735619E-06, 0.02646556, -0.0278399, 0.4000042, 0.02465807, 0.01912657, 7.728879E-05, 0.02658897, -0.02705885, 0.4000057
 220430959, 0.01957426, -0.006647574, 2.506949E-05, 0.02645807, -0.02759437, 0.4000046, 0.01996629, -0.01645676, 9.735619E-06, 0.02646556, -0.0278399, 0.4000042
 220630879, 0.01835057, -0.01340561, 1.169021E-05, 0.02642892, -0.02775697, 0.4000042, 0.01957426, -0.006647574, 2.506949E-05, 0.02645807, -0.02759437, 0.4000046
 220830799, 0.007833961, 0.01246389, 3.457814E-05, 0.02616869, -0.02717672, 0.4000046, 0.01835057, -0.01340561, 1.169021E-05, 0.02642892, -0.02775697, 0.4000042
 221030719, -0.02026836, 0.0007345719, -3.555855E-05, 0.02558085, -0.02742263, 0.4000029, 0.007833961, 0.01246389, 3.457814E-05, 0.02616869, -0.02717672, 0.4000046
 221231472, -0.01323835, 0.02349929, 1.423284E-05, 0.0257158, -0.02696924, 0.4000039, -0.02026836, 0.0007345719, -3.555855E-05, 0.02558085, -0.02742263, 0.4000029
 221431392, 0.01667681, 0.003156318, 3.514465E-05, 0.02639599, -0.02736453, 0.4000045, -0.01323835, 0.02349929, 1.423284E-05, 0.0257158, -0.02696924, 0.4000039
 221631312, 0.01999832, 0.01365712, 5.805249E-05, 0.0264831, -0.02714804, 0.400005, 0.01667681, 0.003156318, 3.514465E-05, 0.02639599, -0.02736453, 0.4000045
 221831232, 0.02342102, 0.01415454, 6.511404E-05, 0.02657381, -0.02713972, 0.4000051, 0.01999832, 0.01365712, 5.805249E-05, 0.0264831, -0.02714804, 0.400005
 222031152, 0.01812724, 0.002668588, 3.700016E-05, 0.02643273, -0.02737558, 0.4000045, 0.02342102, 0.01415454, 6.511404E-05, 0.02657381, -0.02713972, 0.4000051
 222231072, -0.0106624, 0.0221383, 1.657221E-05, 0.02577027, -0.02698985, 0.4000039, 0.01812724, 0.002668588, 3.700016E-05, 0.02643273, -0.02737558, 0.4000045
 222430992, -0.00293088, 0.02205847, 3.034879E-05, 0.02593272, -0.02699125, 0.4000041, -0.0106624, 0.0221383, 1.657221E-05, 0.02577027, -0.02698985, 0.4000039
 222630912, 0.0003036275, -0.001180677, -1.37192E-06, 0.02600389, -0.02746349, 0.4000033, -0.00293088, 0.02205847, 3.034879E-05, 0.02593272, -0.02699125, 0.4000041
 222830832, 0.01415414, 0.01758041, 5.410338E-05, 0.02633442, -0.02708049, 0.4000042, 0.0003036275, -0.001180677, -1.37192E-06, 0.02600389, -0.02746349, 0.4000033
 223030752, 0.01483597, -0.0184739, -3.586574E-06, 0.02635232, -0.02788823, 0.4000028, 0.01415414, 0.01758041, 5.410338E-05, 0.02633442, -0.02708049, 0.4000042
 223230672, -0.02159999, 0.01502767, -0.08103499, 0.02599945, -0.02757235, 0.4000027, 0.01483597, -0.0184739, -3.586574E-06, 0.02635232, -0.02788823, 0.4000028
 223431425, 0.01281874, -0.01506175, -0.1472626, 0.02762649, -0.02914923, 0.4000029, -0.02159999, 0.01502767, -0.08103499, 0.02599945, -0.02757235, 0.4000027
 223631345, 0.004586104, 0.01965861, -0.1898864, 0.03033321, -0.02883077, 0.4000102, 0.01281874, -0.01506175, -0.1472626, 0.02762649, -0.02914923, 0.4000029
 223831265, 0.004713325, 0.01333803, -0.6015329, 0.03642882, -0.03198838, 0.3999957, 0.004586104, 0.01965861, -0.1898864, 0.03033321, -0.02883077, 0.4000102
 224031185, 0.01756935, -0.0119255, -0.9957757, 0.04589273, -0.04067908, 0.3999759, 0.004713325, 0.01333803, -0.6015329, 0.03642882, -0.03198838, 0.3999957
 224231105, -0.03049852, 0.003590643, -1.363966, 0.05792589, -0.05313881, 0.3999646, 0.01756935, -0.0119255, -0.9957757, 0.04589273, -0.04067908, 0.3999759
 224431025, 0.06713291, -0.07047998, -1.621997, 0.07479207, -0.06990913, 0.3999482, -0.03049852, 0.003590643, -1.363966, 0.05792589, -0.05313881, 0.3999646
 224630945, 0.07726964, -0.1164339, -1.893387, 0.09303413, -0.08894623, 0.3999298, 0.06713291, -0.07047998, -1.621997, 0.07479207, -0.06990913, 0.3999482
 224830865, 0.04175363, 0.04909226, -2.1908, 0.1135074, -0.108657, 0.3999158, 0.07726964, -0.1164339, -1.893387, 0.09303413, -0.08894623, 0.3999298
 225030785, 0.05841963, -0.07967858, -2.394928, 0.1370036, -0.1332692, 0.3999612, 0.04175363, 0.04909226, -2.1908, 0.1135074, -0.108657, 0.3999158
 225230705, 0.09114509, -0.04383851, -2.608433, 0.1628664, -0.1589656, 0.4000415, 0.05841963, -0.07967858, -2.394928, 0.1370036, -0.1332692, 0.3999612
 225431458, -0.02172489, -0.2060414, -2.795327, 0.1895225, -0.1882064, 0.4001599, 0.09114509, -0.04383851, -2.608433, 0.1628664, -0.1589656, 0.4000415
 225631378, -0.1414943, 0.01978596, -2.912198, 0.2185412, -0.2162108, 0.4002521, -0.02172489, -0.2060414, -2.795327, 0.1895225, -0.1882064, 0.4001599
 225831298, -0.02198554, -0.3088259, -3.09253, 0.2500789, -0.2498905, 0.4002073, -0.1414943, 0.01978596, -2.912198, 0.2185412, -0.2162108, 0.4002521
 226031218, -0.04147886, -0.1297332, -3.197131, 0.2859403, -0.2792773, 1.000083, -0.02198554, -0.3088259, -3.09253, 0.2500789, -0.2498905, 0.4002073
 226231138, 0.2109038, -0.07883015, -3.385571, 0.3221702, -0.3130724, 0.9999689, -0.04147886, -0.1297332, -3.197131, 0.2859403, -0.2792773, 1.000083
 226431058, 0.2382628, -0.2407838, -3.41587, 0.3573486, -0.3494655, 0.9999454, 0.2109038, -0.07883015, -3.385571, 0.3221702, -0.3130724, 0.9999689
 226630978, 0.2756631, -0.1993992, -3.531895, 0.3933828, -0.384896, 0.9999185, 0.2382628, -0.2407838, -3.41587, 0.3573486, -0.3494655, 0.9999454
 226830898, -0.2428974, 0.2350191, -3.61488, 0.4266581, -0.4195421, 0.9999873, 0.2756631, -0.1993992, -3.531895, 0.3933828, -0.384896, 0.9999185
 227030818, -0.2418547, -0.3287067, -3.675559, 0.4637787, -0.4603997, 1.000184, -0.2428974, 0.2350191, -3.61488, 0.4266581, -0.4195421, 0.9999873
 227230738, -0.2313072, 0.3603107, -3.572668, 0.5007111, -0.4944311, 1.000451, -0.2418547, -0.3287067, -3.675559, 0.4637787, -0.4603997, 1.000184
 227430658, -0.2307251, -0.176151, -3.396875, 0.5360471, -0.5327819, 1.000751, -0.2313072, 0.3603107, -3.572668, 0.5007111, -0.4944311, 1.000451
 227631411, -0.2150867, 0.1140976, -3.196397, 0.5670108, -0.5671723, 1.001378, -0.2307251, -0.176151, -3.396875, 0.5360471, -0.5327819, 1.000751
 227831331, 0.2549779, 0.3558942, -2.830116, 0.600222, -0.5983281, 1.000601, -0.2150867, 0.1140976, -3.196397, 0.5670108, -0.5671723, 1.001378
 228031251, -0.1490823, 0.3773795, -2.543745, 0.620446, -0.6353314, 0.9975052, 0.2549779, 0.3558942, -2.830116, 0.600222, -0.5983281, 1.000601
 228231171, 0.7437408, 0.5153894, -2.204022, 0.5978889, -0.683602, 1.013171, -0.1490823, 0.3773795, -2.543745, 0.620446, -0.6353314, 0.9975052
 228431091, 0.3769043, 0.6425152, -1.907514, 0.5572057, -0.7167745, 1.038041, 0.7437408, 0.5153894, -2.204022, 0.5978889, -0.683602, 1.013171
 228631011, 0.2738419, 0.3538731, -1.665565, 0.5502925, -0.7327169, 1.054367, 0.3769043, 0.6425152, -1.907514, 0.5572057, -0.7167745, 1.038041
 228830931, -0.08194944, 0.4478839, -1.560914, 0.5658315, -0.7533379, 1.052611, 0.2738419, 0.3538731, -1.665565, 0.5502925, -0.7327169, 1.054367
 229030851, -0.3478796, 0.2186613, -1.434331, 0.5868353, -0.7929745, 1.031746, -0.08194944, 0.4478839, -1.560914, 0.5658315, -0.7533379, 1.052611
 229230771, -0.1907957, 0.7878253, -1.265901, 0.5924678, -0.8216792, 1.024903, -0.3478796, 0.2186613, -1.434331, 0.5868353, -0.7929745, 1.031746
 229430691, -1.057231, 0.7126923, -1.322626, 0.5798239, -0.8392277, 1.037036, -0.1907957, 0.7878253, -1.265901, 0.5924678, -0.8216792, 1.024903
 229631444, -0.3300445, 1.154599, -1.080927, 0.6013106, -0.8513833, 1.031414, -1.057231, 0.7126923, -1.322626, 0.5798239, -0.8392277, 1.037036
 229831364, -1.651237, -0.002634078, -1.445394, 0.7178929, -0.7903606, 1.026854, -0.3300445, 1.154599, -1.080927, 0.6013106, -0.8513833, 1.031414
 230031284, -0.3677861, -0.221061, -1.298538, 0.8470941, -0.6044366, 1.068539, -1.651237, -0.002634078, -1.445394, 0.7178929, -0.7903606, 1.026854
 230231204, -1.620671, -1.028443, -1.64875, 0.9194925, -0.2956567, 1.158029, -0.3677861, -0.221061, -1.298538, 0.8470941, -0.6044366, 1.068539
 230431124, 0.6475908, -1.497897, -1.249132, 0.8948359, 0.0485516, 1.231712, -1.620671, -1.028443, -1.64875, 0.9194925, -0.2956567, 1.158029
 230631044, 0.5085369, -0.7607644, -1.334453, 0.7808475, 0.3988776, 1.257274, 0.6475908, -1.497897, -1.249132, 0.8948359, 0.0485516, 1.231712
 230830964, 2.262001, -0.5665739, -0.9672574, 0.6272895, 0.6959486, 1.244708, 0.5085369, -0.7607644, -1.334453, 0.7808475, 0.3988776, 1.257274
 231030884, 2.743529, -0.7110585, -0.9092687, 0.4271466, 0.9115192, 1.214017, 2.262001, -0.5665739, -0.9672574, 0.6272895, 0.6959486, 1.244708
 231230804, 1.784789, 0.5914496, -1.076908, 0.2280867, 1.036732, 1.181022, 2.743529, -0.7110585, -0.9092687, 0.4271466, 0.9115192, 1.214017
 231430724, 2.906625, 1.87709, -0.8152548, 0.09496328, 1.141346, 1.151228, 1.784789, 0.5914496, -1.076908, 0.2280867, 1.036732, 1.181022
 231631477, 2.689591, 1.662636, -0.9626868, 0.002373308, 1.199266, 1.117053, 2.906625, 1.87709, -0.8152548, 0.09496328, 1.141346, 1.151228
 231831397, 2.554498, 2.573954, -1.010849, 0.01236355, 1.235478, 1.119505, 2.689591, 1.662636, -0.9626868, 0.002373308, 1.199266, 1.117053
 232031317, 2.241529, 2.372677, -1.246725, 0.1010584, 1.229149, 1.147013, 2.554498, 2.573954, -1.010849, 0.01236355, 1.235478, 1.119505
 232231237, 2.263834, 1.270346, -1.409595, 0.2260533, 1.180404, 1.198741, 2.241529, 2.372677, -1.246725, 0.1010584, 1.229149, 1.147013
 232431157, 2.111807, 2.076199, -1.303302, 0.3297127, 1.139575, 1.252912, 2.263834, 1.270346, -1.409595, 0.2260533, 1.180404, 1.198741
 232631077, 3.257976, 0.9444263, -1.156859, 0.3950705, 1.120116, 1.286447, 2.111807, 2.076199, -1.303302, 0.3297127, 1.139575, 1.252912
 232830997, 3.280913, 1.738733, -1.063713, 0.3970608, 1.158972, 1.290316, 3.257976, 0.9444263, -1.156859, 0.3950705, 1.120116, 1.286447
 233030917, 3.989372, 1.564972, -0.9691288, 0.3635784, 1.231235, 1.274709, 3.280913, 1.738733, -1.063713, 0.3970608, 1.158972, 1.290316
 233230837, 2.510731, 1.556471, -1.245439, 0.266052, 1.303358, 1.23613, 3.989372, 1.564972, -0.9691288, 0.3635784, 1.231235, 1.274709
 233430757, 3.59966, 2.536259, -0.8351433, 0.232171, 1.387561, 1.213462, 2.510731, 1.556471, -1.245439, 0.266052, 1.303358, 1.23613
 233630677, 3.85929, 2.088251, -0.8973517, 0.2163002, 1.431929, 1.197009, 3.59966, 2.536259, -0.8351433, 0.232171, 1.387561, 1.213462
 233831430, 3.907102, 1.243001, -0.8628383, 0.2394491, 1.442433, 1.205985, 3.85929, 2.088251, -0.8973517, 0.2163002, 1.431929, 1.197009
 234031350, 2.397512, 2.166966, -1.098987, 0.2773625, 1.439489, 1.224897, 3.907102, 1.243001, -0.8628383, 0.2394491, 1.442433, 1.205985
 234231270, 3.594747, 0.854161, -0.9428778, 0.3487798, 1.443941, 1.238858, 2.397512, 2.166966, -1.098987, 0.2773625, 1.439489, 1.224897
 234431190, 4.606837, 0.7276194, -0.7810528, 0.4206867, 1.468345, 1.241555, 3.594747, 0.854161, -0.9428778, 0.3487798, 1.443941, 1.238858
 234631110, 1.986985, 1.58592, -1.29191, 0.4284687, 1.469707, 1.239691, 4.606837, 0.7276194, -0.7810528, 0.4206867, 1.468345, 1.241555
 234831030, 3.466225, 1.825485, -0.9070891, 0.4824711, 1.483917, 1.260989, 1.986985, 1.58592, -1.29191, 0.4284687, 1.469707, 1.239691
 235030950, 3.523427, 2.356559, -0.8293682, 0.4995725, 1.495792, 1.283414, 3.466225, 1.825485, -0.9070891, 0.4824711, 1.483917, 1.260989
 235230870, 2.683405, -0.1720298, -1.222409, 0.4688784, 1.490792, 1.300696, 3.523427, 2.356559, -0.8293682, 0.4995725, 1.495792, 1.283414
 235430790, 2.260952, 0.7965583, -1.156479, 0.4465454, 1.522191, 1.307079, 2.683405, -0.1720298, -1.222409, 0.4688784, 1.490792, 1.300696
 235630710, 3.461285, 0.3927854, -0.9847546, 0.4330342, 1.573691, 1.297151, 2.260952, 0.7965583, -1.156479, 0.4465454, 1.522191, 1.307079
 235831463, 3.924187, 1.653071, -0.6902227, 0.4301189, 1.626805, 1.286467, 3.461285, 0.3927854, -0.9847546, 0.4330342, 1.573691, 1.297151
 236031383, 4.298903, 1.936429, -0.6392955, 0.4357924, 1.662998, 1.284445, 3.924187, 1.653071, -0.6902227, 0.4301189, 1.626805, 1.286467
 236231303, 3.508068, 0.4811359, -0.8824941, 0.4271404, 1.681518, 1.269971, 4.298903, 1.936429, -0.6392955, 0.4357924, 1.662998, 1.284445
 236431223, 1.940052, 2.280242, -1.104743, 0.4433354, 1.709753, 1.262837, 3.508068, 0.4811359, -0.8824941, 0.4271404, 1.681518, 1.269971
 236631143, 3.800804, 1.040827, -0.813442, 0.5060288, 1.717744, 1.277093, 1.940052, 2.280242, -1.104743, 0.4433354, 1.709753, 1.262837
 236831063, 4.196074, 1.609683, -0.6761296, 0.55866, 1.721861, 1.301373, 3.800804, 1.040827, -0.813442, 0.5060288, 1.717744, 1.277093
 237030983, 3.460523, 0.6733036, -1.025152, 0.5886085, 1.730224, 1.293144, 4.196074, 1.609683, -0.6761296, 0.55866, 1.721861, 1.301373
 237230903, 3.776883, 2.053472, -0.8999306, 0.6678518, 1.779689, 1.246339, 3.460523, 0.6733036, -1.025152, 0.5886085, 1.730224, 1.293144
 237430823, 3.125552, -0.3105664, -1.067819, 0.6608228, 1.811482, 1.210726, 3.776883, 2.053472, -0.8999306, 0.6678518, 1.779689, 1.246339
 237630743, 2.798209, -0.04040622, -0.9255228, 0.669896, 1.828375, 1.215832, 3.125552, -0.3105664, -1.067819, 0.6608228, 1.811482, 1.210726
 237830663, 4.195267, 0.3451754, -0.3364366, 0.7540445, 1.80986, 1.258436, 2.798209, -0.04040622, -0.9255228, 0.669896, 1.828375, 1.215832
 238031416, 2.2724, 0.6794516, -0.6439236, 0.8199413, 1.753657, 1.299799, 4.195267, 0.3451754, -0.3364366, 0.7540445, 1.80986, 1.258436
 238231336, 4.734572, -0.7762104, 0.3731618, 0.9419212, 1.710216, 1.339918, 2.2724, 0.6794516, -0.6439236, 0.8199413, 1.753657, 1.299799
 238431256, 3.09316, -1.399053, 0.07742882, 0.9926839, 1.668005, 1.346872, 4.734572, -0.7762104, 0.3731618, 0.9419212, 1.710216, 1.339918
 238631176, 3.853051, 0.6819544, 0.4878227, 1.059116, 1.625395, 1.387266, 3.09316, -1.399053, 0.07742882, 0.9926839, 1.668005, 1.346872
 238831096, 2.243799, -0.602634, 0.09270889, 1.06591, 1.584919, 1.412966, 3.853051, 0.6819544, 0.4878227, 1.059116, 1.625395, 1.387266
 239031016, 3.456575, -0.5545834, 0.7015586, 1.099223, 1.570467, 1.434947, 2.243799, -0.602634, 0.09270889, 1.06591, 1.584919, 1.412966
 239230936, 3.950667, 0.2163763, 1.023133, 1.114746, 1.569315, 1.446851, 3.456575, -0.5545834, 0.7015586, 1.099223, 1.570467, 1.434947
 239430856, 3.137068, 0.2793806, 0.78729, 1.101148, 1.567432, 1.453006, 3.950667, 0.2163763, 1.023133, 1.114746, 1.569315, 1.446851
 239630776, 4.995976, 0.8067213, 1.598311, 1.127429, 1.563541, 1.486473, 3.137068, 0.2793806, 0.78729, 1.101148, 1.567432, 1.453006
 239830696, 5.088737, -1.643401, 1.857099, 1.121189, 1.548515, 1.51157, 4.995976, 0.8067213, 1.598311, 1.127429, 1.563541, 1.486473
 240031449, 5.310794, 0.7536685, 1.919556, 1.126666, 1.543227, 1.528212, 5.088737, -1.643401, 1.857099, 1.121189, 1.548515, 1.51157
 240231369, 5.530995, 0.5555748, 2.072139, 1.139257, 1.534699, 1.537198, 5.310794, 0.7536685, 1.919556, 1.126666, 1.543227, 1.528212
 240431289, 2.922067, 0.3013047, 1.086255, 1.081335, 1.526349, 1.533889, 5.530995, 0.5555748, 2.072139, 1.139257, 1.534699, 1.537198
 240631209, 3.823577, 1.216733, 1.566606, 1.07085, 1.520562, 1.57268, 2.922067, 0.3013047, 1.086255, 1.081335, 1.526349, 1.533889
 240831129, 3.464996, -0.1562021, 1.440236, 1.044763, 1.505953, 1.594398, 3.823577, 1.216733, 1.566606, 1.07085, 1.520562, 1.57268
 241031049, 5.675202, 0.824807, 2.525701, 1.087923, 1.513505, 1.618181, 3.464996, -0.1562021, 1.440236, 1.044763, 1.505953, 1.594398
 241230969, 4.976503, 0.7504203, 2.169551, 1.078673, 1.522772, 1.599349, 5.675202, 0.824807, 2.525701, 1.087923, 1.513505, 1.618181
 241430889, 5.060973, -1.192567, 2.311858, 1.08449, 1.518917, 1.600604, 4.976503, 0.7504203, 2.169551, 1.078673, 1.522772, 1.599349
 241630809, 3.474277, -1.374019, 1.55927, 1.046704, 1.511547, 1.600793, 5.060973, -1.192567, 2.311858, 1.08449, 1.518917, 1.600604
 241830729, 5.286789, 0.4429134, 2.519307, 1.069018, 1.499076, 1.645211, 3.474277, -1.374019, 1.55927, 1.046704, 1.511547, 1.600793
 242031482, 3.516372, 0.9887646, 1.599426, 1.02538, 1.493063, 1.644432, 5.286789, 0.4429134, 2.519307, 1.069018, 1.499076, 1.645211
 242231402, 4.080645, -0.9667645, 1.91283, 1.035177, 1.484998, 1.653093, 3.516372, 0.9887646, 1.599426, 1.02538, 1.493063, 1.644432
 242431322, 4.092694, 0.971969, 1.920481, 1.033143, 1.503154, 1.647407, 4.080645, -0.9667645, 1.91283, 1.035177, 1.484998, 1.653093
 242631242, 5.513011, -0.8839669, 2.694432, 1.054388, 1.505614, 1.663567, 4.092694, 0.971969, 1.920481, 1.033143, 1.503154, 1.647407
 242831162, 4.036583, -0.896403, 1.940264, 1.011596, 1.516401, 1.647661, 5.513011, -0.8839669, 2.694432, 1.054388, 1.505614, 1.663567
 243031082, 5.695792, -1.75567, 2.786696, 1.049711, 1.518812, 1.666286, 4.036583, -0.896403, 1.940264, 1.011596, 1.516401, 1.647661
 243231002, 6.239323, 0.8127474, 3.114552, 1.061496, 1.518848, 1.682498, 5.695792, -1.75567, 2.786696, 1.049711, 1.518812, 1.666286
 243430922, 4.565879, 0.9784077, 2.198687, 1.015426, 1.514546, 1.673396, 6.239323, 0.8127474, 3.114552, 1.061496, 1.518848, 1.682498
 243630842, 4.175611, -0.6887282, 2.00328, 1.006958, 1.505395, 1.675122, 4.565879, 0.9784077, 2.198687, 1.015426, 1.514546, 1.673396
 243830762, 3.998965, 0.5558736, 1.956095, 1.00741, 1.515409, 1.66899, 4.175611, -0.6887282, 2.00328, 1.006958, 1.505395, 1.675122
 244030682, 6.251773, -1.718941, 3.114308, 1.060546, 1.516527, 1.693433, 3.998965, 0.5558736, 1.956095, 1.00741, 1.515409, 1.66899
 244231435, 4.557452, -0.1963368, 2.230388, 1.01696, 1.518981, 1.675836, 6.251773, -1.718941, 3.114308, 1.060546, 1.516527, 1.693433
 244431355, 6.230494, -0.8504983, 3.089948, 1.053396, 1.512633, 1.706206, 4.557452, -0.1963368, 2.230388, 1.01696, 1.518981, 1.675836
 244631275, 5.804598, 0.2001258, 2.955197, 1.031365, 1.514978, 1.711439, 6.230494, -0.8504983, 3.089948, 1.053396, 1.512633, 1.706206
 244831195, 5.33287, -1.425744, 2.656708, 1.011089, 1.515563, 1.711204, 5.804598, 0.2001258, 2.955197, 1.031365, 1.514978, 1.711439
 245031115, 6.682361, 0.5861181, 3.466015, 1.041733, 1.522699, 1.734526, 5.33287, -1.425744, 2.656708, 1.011089, 1.515563, 1.711204
 245231035, 5.863112, 0.9422325, 3.019027, 1.017612, 1.532153, 1.72047, 6.682361, 0.5861181, 3.466015, 1.041733, 1.522699, 1.734526
 245430955, 5.394956, -0.1495314, 2.770199, 1.006554, 1.534858, 1.710436, 5.863112, 0.9422325, 3.019027, 1.017612, 1.532153, 1.72047
 245630875, 4.102433, -1.150852, 2.058111, 0.9822, 1.5417, 1.689967, 5.394956, -0.1495314, 2.770199, 1.006554, 1.534858, 1.710436
 245830795, 6.424356, 0.0389176, 3.346974, 1.040706, 1.550696, 1.713972, 4.102433, -1.150852, 2.058111, 0.9822, 1.5417, 1.689967
 246030715, 4.30944, -0.5364534, 2.189199, 0.9949899, 1.552154, 1.684987, 6.424356, 0.0389176, 3.346974, 1.040706, 1.550696, 1.713972
 246231468, 4.831175, 0.1070705, 2.475027, 1.004586, 1.54522, 1.703149, 4.30944, -0.5364534, 2.189199, 0.9949899, 1.552154, 1.684987
 246431388, 6.116826, 0.8287195, 3.207579, 1.032888, 1.537757, 1.735592, 4.831175, 0.1070705, 2.475027, 1.004586, 1.54522, 1.703149
 246631308, 4.31801, 0.4369337, 2.251909, 0.9916465, 1.532055, 1.720281, 6.116826, 0.8287195, 3.207579, 1.032888, 1.537757, 1.735592
 246831228, 5.82068, 0.4728819, 3.107142, 1.027041, 1.53512, 1.738932, 4.31801, 0.4369337, 2.251909, 0.9916465, 1.532055, 1.720281
 247031148, 4.334543, -0.3978081, 2.333447, 0.9873559, 1.533906, 1.72656, 5.82068, 0.4728819, 3.107142, 1.027041, 1.53512, 1.738932
 247231068, 4.160963, 0.3974871, 2.241789, 0.9734946, 1.532285, 1.737994, 4.334543, -0.3978081, 2.333447, 0.9873559, 1.533906, 1.72656
 247430988, 5.370725, -0.5180252, 2.957024, 1.000781, 1.529971, 1.754286, 4.160963, 0.3974871, 2.241789, 0.9734946, 1.532285, 1.737994
 247630908, 4.867754, 0.9444634, 2.674545, 0.9967344, 1.549522, 1.734626, 5.370725, -0.5180252, 2.957024, 1.000781, 1.529971, 1.754286
 247830828, 6.698554, 0.003269624, 3.786398, 1.048239, 1.551828, 1.755177, 4.867754, 0.9444634, 2.674545, 0.9967344, 1.549522, 1.734626
 248030748, 6.973991, 0.2341119, 3.908269, 1.056984, 1.5515, 1.762912, 6.698554, 0.003269624, 3.786398, 1.048239, 1.551828, 1.755177
 248230668, 5.050325, 0.9612369, 2.794789, 1.012118, 1.544264, 1.744152, 6.973991, 0.2341119, 3.908269, 1.056984, 1.5515, 1.762912
