TimeUS,CGpN,CGpE,CGpD,CGpe,PGpN,PGpE,PGpD,PGpe
 170271031, 0, 0, 0, 2.5, 0, 0, 0, 0
 170430967, 0, 0, 0, 2.5, 0, 0, 0, 2.5
 170630887, 0, 0, 0, 2.5, 0, 0, 0, 2.5
 170830807, 0, 0, 0, 2.5, 0, 0, 0, 2.5
 171030727, 0, 0, 0, 2.5, 0, 0, 0, 2.5
 171231480, 0, 0, 0, 2.5, 0, 0, 0, 2.5
 171431400, 0, 0, 0, 2.5, 0, 0, 0, 2.5
 171631320, 0, 0, 0, 2.5, 0, 0, 0, 2.5
 171831240, 0, 0, 0, 2.5, 0, 0, 0, 2.5
 172031160, 0, 0, 0, 2.5, 0, 0, 0, 2.5
 172231080, 0, 0, 0, 2.5, 0, 0, 0, 2.5
 172431000, 0, 0, 0, 2.5, 0, 0, 0, 2.5
 172630920, 0, 0, 0, 2.5, 0, 0, 0, 2.5
 172830840, 0, 0, 0, 2.5, 0, 0, 0, 2.5
 173030760, 0, 0, 0, 2.5, 0, 0, 0, 2.5
 173230680, 0, 0, 0, 2.5, 0, 0, 0, 2.5
 173431433, 0, 0, 0, 2.5, 0, 0, 0, 2.5
 173631353, 0, 0, 0, 2.5, 0, 0, 0, 2.5
 173831273, 0, 0, 0, 2.5, 0, 0, 0, 2.5
 174031193, 0, 0, 0, 2.5, 0, 0, 0, 2.5
 174231113, 0, 0, 0, 2.5, 0, 0, 0, 2.5
 174431033, 0, 0, 0, 2.5, 0, 0, 0, 2.5
 174630953, 0, 0, 0, 2.5, 0, 0, 0, 2.5
 174830873, 0, 0, 0, 2.5, 0, 0, 0, 2.5
 175030793, 0, 0, 0, 2.5, 0, 0, 0, 2.5
 175230713, 0, 0, 0, 2.5, 0, 0, 0, 2.5
 175431466, 0, 0, 0, 2.5, 0, 0, 0, 2.5
 175631386, 0, 0, 0, 2.5, 0, 0, 0, 2.5
 175831306, 0, 0, 0, 2.5, 0, 0, 0, 2.5
 176031226, 0, 0, 0, 2.5, 0, 0, 0, 2.5
 176231146, 0, 0, 0, 2.5, 0, 0, 0, 2.5
 176431066, 0, 0, 0, 2.5, 0, 0, 0, 2.5
 176630986, 0, 0, 0, 2.5, 0, 0, 0, 2.5
 176830906, 0, 0, 0, 2.5, 0, 0, 0, 2.5
 177030826, 0, 0, 0, 2.5, 0, 0, 0, 2.5
 177230746, 0, 0, 0, 2.5, 0, 0, 0, 2.5
 177430666, 0, 0, 0, 2.5, 0, 0, 0, 2.5
 177631419, 0, 0, 0, 2.5, 0, 0, 0, 2.5
 177831339, 0, 0, 0, 2.5, 0, 0, 0, 2.5
 178031259, 0, 0, 0, 2.5, 0, 0, 0, 2.5
 178231179, 0, 0, 0, 2.5, 0, 0, 0, 2.5
 178431099, 0, 0, 0, 2.5, 0, 0, 0, 2.5
 178631019, 0, 0, 0, 2.5, 0, 0, 0, 2.5
 178830939, 0, 0, 0, 2.5, 0, 0, 0, 2.5
 179030859, 0, 0, 0, 2.5, 0, 0, 0, 2.5
 179230779, 0, 0, 0, 2.5, 0, 0, 0, 2.5
 179430699, 0, 0, 0, 2.5, 0, 0, 0, 2.5
 179631452, 0, 0, 0, 2.5, 0, 0, 0, 2.5
 179831372, 0, 0, 0, 2.5, 0, 0, 0, 2.5
 180031292, 0, 0, 0, 2.5, 0, 0, 0, 2.5
 180231212, 0, 0, 0, 2.5, 0, 0, 0, 2.5
 180431132, 0, 0, 0, 2.5, 0, 0, 0, 2.5
 180631052, 0, 0, 0, 2.5, 0, 0, 0, 2.5
 180830972, 0, 0, 0, 2.5, 0, 0, 0, 2.5
 181030892, 0, 0, 0, 2.5, 0, 0, 0, 2.5
 181230812, 0, 0, 0, 2.5, 0, 0, 0, 2.5
 181430732, 0, 0, 0, 2.5, 0, 0, 0, 2.5
 181631485, 0, 0, 0, 2.5, 0, 0, 0, 2.5
 181831405, 0, 0, 0, 2.5, 0, 0, 0, 2.5
 182031325, 0, 0, 0, 2.5, 0, 0, 0, 2.5
 182231245, 0, 0, 0, 2.5, 0, 0, 0, 2.5
 182431165, 0, 0, 0, 2.5, 0, 0, 0, 2.5
 182631085, 0, 0, 0, 2.5, 0, 0, 0, 2.5
 182831005, 0, 0, 0, 2.5, 0, 0, 0, 2.5
 183030925, 0, 0, 0, 2.5, 0, 0, 0, 2.5
 183230845, 0, 0, 0, 2.5, 0, 0, 0, 2.5
 183430765, 0, 0, 0, 2.5, 0, 0, 0, 2.5
 183630685, 0, 0, 0, 2.5, 0, 0, 0, 2.5
 183831438, 0, 0, 0, 2.5, 0, 0, 0, 2.5
 184031358, 0, 0, 0, 2.5, 0, 0, 0, 2.5
 184231278, 0, 0, 0, 2.5, 0, 0, 0, 2.5
 184431198, 0, 0, 0, 2.5, 0, 0, 0, 2.5
 184631118, 0, 0, 0, 2.5, 0, 0, 0, 2.5
 184831038, 0, 0, 0, 2.5, 0, 0, 0, 2.5
 185030958, 0, 0, 0, 2.5, 0, 0, 0, 2.5
 185230878, 0, 0, 0, 2.5, 0, 0, 0, 2.5
 185430798, 0, 0, 0, 2.5, 0, 0, 0, 2.5
 185630718, 0, 0, 0, 2.5, 0, 0, 0, 2.5
 185831471, 0, 0, 0, 2.5, 0, 0, 0, 2.5
 186031391, 0, 0, 0, 2.5, 0, 0, 0, 2.5
 186231311, 0, 0, 0, 2.5, 0, 0, 0, 2.5
 186431231, 0, 0, 0, 2.5, 0, 0, 0, 2.5
 186631151, 0, 0, 0, 2.5, 0, 0, 0, 2.5
 186831071, 0, 0, 0, 2.5, 0, 0, 0, 2.5
 187030991, 0, 0, 0, 2.5, 0, 0, 0, 2.5
 187230911, 0, 0, 0, 2.5, 0, 0, 0, 2.5
 187430831, 0, 0, 0, 2.5, 0, 0, 0, 2.5
 187630751, 0, 0, 0, 2.5, 0, 0, 0, 2.5
 187830671, 0, 0, 0, 2.5, 0, 0, 0, 2.5
 188031424, 0, 0, 0, 2.5, 0, 0, 0, 2.5
 188231344, 0, 0, 0, 2.5, 0, 0, 0, 2.5
 188431264, 0, 0, 0, 2.5, 0, 0, 0, 2.5
 188631184, 0, 0, 0, 2.5, 0, 0, 0, 2.5
 188831104, 0, 0, 0, 2.5, 0, 0, 0, 2.5
 189031024, 0, 0, 0, 2.5, 0, 0, 0, 2.5
 189230944, 0, 0, 0, 2.5, 0, 0, 0, 2.5
 189430864, 0, 0, 0, 2.5, 0, 0, 0, 2.5
 189630784, 0, 0, 0, 2.5, 0, 0, 0, 2.5
 189830704, 0, 0, 0, 2.5, 0, 0, 0, 2.5
 190031457, 0, 0, 0, 2.5, 0, 0, 0, 2.5
 190231377, 0, 0, 0, 2.5, 0, 0, 0, 2.5
 190431297, 0, 0, 0, 2.5, 0, 0, 0, 2.5
 190631217, 0, 0, 0, 2.5, 0, 0, 0, 2.5
 190831137, 0, 0, 0, 2.5, 0, 0, 0, 2.5
 191031057, 0, 0, 0, 2.5, 0, 0, 0, 2.5
 191230977, 0, 0, 0, 2.5, 0, 0, 0, 2.5
 191430897, 0, 0, 0, 2.5, 0, 0, 0, 2.5
 191630817, 0, 0, 0, 2.5, 0, 0, 0, 2.5
 191830737, 0, 0, 0, 2.5, 0, 0, 0, 2.5
 192030657, 0, 0, 0, 2.5, 0, 0, 0, 2.5
 192231410, 0, 0, 0, 2.5, 0, 0, 0, 2.5
 192431330, 0, 0, 0, 2.5, 0, 0, 0, 2.5
 192631250, 0, 0, 0, 2.5, 0, 0, 0, 2.5
 192831170, 0, 0, 0, 2.5, 0, 0, 0, 2.5
 193031090, 0, 0, 0, 2.5, 0, 0, 0, 2.5
 193231010, 0, 0, 0, 2.5, 0, 0, 0, 2.5
 193430930, 0, 0, 0, 2.5, 0, 0, 0, 2.5
 193630850, 0, 0, 0, 2.5, 0, 0, 0, 2.5
 193830770, 0, 0, 0, 2.5, 0, 0, 0, 2.5
 194030690, 0, 0, 0, 2.5, 0, 0, 0, 2.5
 194231443, 0, 0, 0, 2.5, 0, 0, 0, 2.5
 194431363, 0, 0, 0, 2.5, 0, 0, 0, 2.5
 194631283, 0, 0, 0, 2.5, 0, 0, 0, 2.5
 194831203, 0, 0, 0, 2.5, 0, 0, 0, 2.5
 195031123, 0, 0, 0, 2.5, 0, 0, 0, 2.5
 195231043, 0, 0, 0, 2.5, 0, 0, 0, 2.5
 195430963, 0, 0, 0, 2.5, 0, 0, 0, 2.5
 195630883, 0, 0, 0, 2.5, 0, 0, 0, 2.5
 195830803, 0, 0, 0, 2.5, 0, 0, 0, 2.5
 196030723, 0, 0, 0, 2.5, 0, 0, 0, 2.5
 196231476, 0, 0, 0, 2.5, 0, 0, 0, 2.5
 196431396, 0, 0, 0, 2.5, 0, 0, 0, 2.5
 196631316, 0, 0, 0, 2.5, 0, 0, 0, 2.5
 196831236, 0, 0, 0, 2.5, 0, 0, 0, 2.5
 197031156, 0, 0, 0, 2.5, 0, 0, 0, 2.5
 197231076, 0, 0, 0, 2.5, 0, 0, 0, 2.5
 197430996, 0, 0, 0, 2.5, 0, 0, 0, 2.5
 197630916, 0, 0, 0, 2.5, 0, 0, 0, 2.5
 197830836, 0, 0, 0, 2.5, 0, 0, 0, 2.5
 198030756, 0, 0, 0, 2.5, 0, 0, 0, 2.5
 198230676, 0, 0, 0, 2.5, 0, 0, 0, 2.5
 198431429, 0, 0, 0, 2.5, 0, 0, 0, 2.5
 198631349, 0, 0, 0, 2.5, 0, 0, 0, 2.5
 198831269, 0, 0, 0, 2.5, 0, 0, 0, 2.5
 199031189, 0, 0, 0, 2.5, 0, 0, 0, 2.5
 199231109, 0, 0, 0, 2.5, 0, 0, 0, 2.5
 199431029, 0, 0, 0, 2.5, 0, 0, 0, 2.5
 199630949, 0, 0, 0, 2.5, 0, 0, 0, 2.5
 199830869, 0, 0, 0, 2.5, 0, 0, 0, 2.5
 200030789, 0, 0, 0, 2.5, 0, 0, 0, 2.5
 200230709, 0, 0, 0, 2.5, 0, 0, 0, 2.5
 200431462, 0, 0, 0, 2.5, 0, 0, 0, 2.5
 200631382, 0, 0, 0, 2.5, 0, 0, 0, 2.5
 200831302, 0, 0, 0, 2.5, 0, 0, 0, 2.5
 201031222, 0, 0, 0, 2.5, 0, 0, 0, 2.5
 201231142, 0, 0, 0, 2.5, 0, 0, 0, 2.5
 201431062, 0, 0, 0, 2.5, 0, 0, 0, 2.5
 201630982, 0, 0, 0, 2.5, 0, 0, 0, 2.5
 201830902, 0, 0, 0, 2.5, 0, 0, 0, 2.5
 202030822, 0, 0, 0, 2.5, 0, 0, 0, 2.5
 202230742, 0, 0, 0, 2.5, 0, 0, 0, 2.5
 202430662, 0, 0, 0, 2.5, 0, 0, 0, 2.5
 202631415, 0, 0, 0, 2.5, 0, 0, 0, 2.5
 202831335, 0, 0, 0, 2.5, 0, 0, 0, 2.5
 203031255, 0, 0, 0, 2.5, 0, 0, 0, 2.5
 203231175, 0, 0, 0, 2.5, 0, 0, 0, 2.5
 203431095, 0, 0, 0, 2.5, 0, 0, 0, 2.5
 203631015, 0, 0, 0, 2.5, 0, 0, 0, 2.5
 203830935, 0, 0, 0, 2.5, 0, 0, 0, 2.5
 204030855, 0, 0, 0, 2.5, 0, 0, 0, 2.5
 204230775, 0, 0, 0, 2.5, 0, 0, 0, 2.5
 204430695, 0, 0, 0, 2.5, 0, 0, 0, 2.5
 204631448, 0, 0, 0, 2.5, 0, 0, 0, 2.5
 204831368, 0, 0, 0, 2.5, 0, 0, 0, 2.5
 205031288, 0, 0, 0, 2.5, 0, 0, 0, 2.5
 205231208, 0, 0, 0, 2.5, 0, 0, 0, 2.5
 205431128, 0, 0, 0, 2.5, 0, 0, 0, 2.5
 205631048, 0, 0, 0, 2.5, 0, 0, 0, 2.5
 205830968, 0, 0, 0, 2.5, 0, 0, 0, 2.5
 206030888, 0, 0, 0, 2.5, 0, 0, 0, 2.5
 206230808, 0, 0, 0, 2.5, 0, 0, 0, 2.5
 206430728, 0, 0, 0, 2.5, 0, 0, 0, 2.5
 206631481, 0, 0, 0, 2.5, 0, 0, 0, 2.5
 206831401, 0, 0, 0, 2.5, 0, 0, 0, 2.5
 207031321, 0, 0, 0, 2.5, 0, 0, 0, 2.5
 207231241, 0, 0, 0, 2.5, 0, 0, 0, 2.5
 207431161, 0, 0, 0, 2.5, 0, 0, 0, 2.5
 207631081, 0, 0, 0, 2.5, 0, 0, 0, 2.5
 207831001, 0, 0, 0, 2.5, 0, 0, 0, 2.5
 208030921, 0, 0, 0, 2.5, 0, 0, 0, 2.5
 208230841, 0, 0, 0, 2.5, 0, 0, 0, 2.5
 208430761, 0, 0, 0, 2.5, 0, 0, 0, 2.5
 208630681, 0, 0, 0, 2.5, 0, 0, 0, 2.5
 208831434, 0, 0, 0, 2.5, 0, 0, 0, 2.5
 209031354, 0, 0, 0, 2.5, 0, 0, 0, 2.5
 209231274, 0, 0, 0, 2.5, 0, 0, 0, 2.5
 209431194, 0, 0, 0, 2.5, 0, 0, 0, 2.5
 209631114, 0, 0, 0, 2.5, 0, 0, 0, 2.5
 209831034, 0, 0, 0, 2.5, 0, 0, 0, 2.5
 210030954, 0, 0, 0, 2.5, 0, 0, 0, 2.5
 210230874, 0, 0, 0, 2.5, 0, 0, 0, 2.5
 210430794, 0, 0, 0, 2.5, 0, 0, 0, 2.5
 210630714, 0, 0, 0, 2.5, 0, 0, 0, 2.5
 210831467, 0, 0, 0, 2.5, 0, 0, 0, 2.5
 211031387, 0, 0, 0, 2.5, 0, 0, 0, 2.5
 211231307, 0, 0, 0, 2.5, 0, 0, 0, 2.5
 211431227, 0, 0, 0, 2.5, 0, 0, 0, 2.5
 211631147, 0, 0, 0, 2.5, 0, 0, 0, 2.5
 211831067, 0, 0, 0, 2.5, 0, 0, 0, 2.5
 212030987, 0, 0, 0, 2.5, 0, 0, 0, 2.5
 212230907, 0, 0, 0, 2.5, 0, 0, 0, 2.5
 212430827, 0, 0, 0, 2.5, 0, 0, 0, 2.5
 212630747, 0, 0, 0, 2.5, 0, 0, 0, 2.5
 212830667, 0, 0, 0, 2.5, 0, 0, 0, 2.5
 213031420, 0, 0, 0, 2.5, 0, 0, 0, 2.5
 213231340, 0, 0, 0, 2.5, 0, 0, 0, 2.5
 213431260, 0, 0, 0, 2.5, 0, 0, 0, 2.5
 213631180, 0, 0, 0, 2.5, 0, 0, 0, 2.5
 213831100, 0, 0, 0, 2.5, 0, 0, 0, 2.5
 214031020, 0, 0, 0, 2.5, 0, 0, 0, 2.5
 214230940, 0, 0, 0, 2.5, 0, 0, 0, 2.5
 214430860, 0, 0, 0, 2.5, 0, 0, 0, 2.5
 214630780, 0, 0, 0, 2.5, 0, 0, 0, 2.5
 214830700, 0, 0, 0, 2.5, 0, 0, 0, 2.5
 215031453, 0, 0, 0, 2.5, 0, 0, 0, 2.5
 215231373, 0, 0, 0, 2.5, 0, 0, 0, 2.5
 215431293, 0, 0, 0, 2.5, 0, 0, 0, 2.5
 215631213, 0, 0, 0, 2.5, 0, 0, 0, 2.5
 215831133, 0, 0, 0, 2.5, 0, 0, 0, 2.5
 216031053, 0, 0, 0, 2.5, 0, 0, 0, 2.5
 216230973, 0, 0, 0, 2.5, 0, 0, 0, 2.5
 216430893, 0, 0, 0, 2.5, 0, 0, 0, 2.5
 216630813, 0, 0, 0, 2.5, 0, 0, 0, 2.5
 216830733, 0, 0, 0, 2.5, 0, 0, 0, 2.5
 217031486, 0, 0, 0, 2.5, 0, 0, 0, 2.5
 217231406, 0, 0, 0, 2.5, 0, 0, 0, 2.5
 217431326, 0, 0, 0, 2.5, 0, 0, 0, 2.5
 217631246, 0, 0, 0, 2.5, 0, 0, 0, 2.5
 217831166, 0, 0, 0, 2.5, 0, 0, 0, 2.5
 218031086, 0, 0, 0, 2.5, 0, 0, 0, 2.5
 218231006, 0, 0, 0, 2.5, 0, 0, 0, 2.5
 218430926, 0, 0, 0, 2.5, 0, 0, 0, 2.5
 218630846, 0, 0, 0, 2.5, 0, 0, 0, 2.5
 218830766, 0, 0, 0, 2.5, 0, 0, 0, 2.5
 219030686, 0, 0, 0, 2.5, 0, 0, 0, 2.5
 219231439, 0, 0, 0, 2.5, 0, 0, 0, 2.5
 219431359, 0, 0, 0, 2.5, 0, 0, 0, 2.5
 219631279, 0, 0, 0, 2.5, 0, 0, 0, 2.5
 219831199, 0, 0, 0, 2.5, 0, 0, 0, 2.5
 220031119, 0, 0, 0, 2.5, 0, 0, 0, 2.5
 220231039, 0, 0, 0, 2.5, 0, 0, 0, 2.5
 220430959, 0, 0, 0, 2.5, 0, 0, 0, 2.5
 220630879, 0, 0, 0, 2.5, 0, 0, 0, 2.5
 220830799, 0, 0, 0, 2.5, 0, 0, 0, 2.5
 221030719, 0, 0, 0, 2.5, 0, 0, 0, 2.5
 221231472, 0, 0, 0, 2.5, 0, 0, 0, 2.5
 221431392, 0, 0, 0, 2.5, 0, 0, 0, 2.5
 221631312, 0, 0, 0, 2.5, 0, 0, 0, 2.5
 221831232, 0, 0, 0, 2.5, 0, 0, 0, 2.5
 222031152, 0, 0, -0.201, 2.5, 0, 0, 0, 2.5
 222231072, 0, 0, -0.3, 2.5, 0, 0, -0.201, 2.5
 222430992, 0, 0, -0.196, 2.5, 0, 0, -0.3, 2.5
 222630912, -0.001, -0.002, -1.061, 2.5, 0, 0, -0.196, 2.5
 222830832, -0.012, -0.013, -2.001, 2.5, -0.001, -0.002, -1.061, 2.5
 223030752, -0.027, -0.029, -2.161, 2.5, -0.012, -0.013, -2.001, 2.5
 223230672, -0.042, -0.046, -2.346, 2.5, -0.027, -0.029, -2.161, 2.5
 223431425, -0.055, -0.059, -2.593, 2.5, -0.042, -0.046, -2.346, 2.5
 223631345, -0.066, -0.07, -2.793, 2.5, -0.055, -0.059, -2.593, 2.5
 223831265, -0.07600001, -0.079, -2.959, 2.5, -0.066, -0.07, -2.793, 2.5
 224031185, -0.085, -0.085, -3.108, 2.5, -0.07600001, -0.079, -2.959, 2.5
 224231105, -0.09200001, -0.089, -3.24, 2.5, -0.085, -0.085, -3.108, 2.5
 224431025, -0.098, -0.093, -3.355, 2.5, -0.09200001, -0.089, -3.24, 2.5
 224630945, -0.102, -0.096, -3.456, 2.5, -0.098, -0.093, -3.355, 2.5
 224830865, -0.105, -0.09900001, -3.545, 2.5, -0.102, -0.096, -3.456, 2.5
 225030785, -0.107, -0.101, -3.623, 2.5, -0.105, -0.09900001, -3.545, 2.5
 225230705, -0.108, -0.102, -3.69, 2.5, -0.107, -0.101, -3.623, 2.5
 225431458, -0.109, -0.104, -3.75, 2.5, -0.108, -0.102, -3.69, 2.5
 225631378, -0.11, -0.106, -3.802, 2.5, -0.109, -0.104, -3.75, 2.5
 225831298, -0.112, -0.109, -3.849, 2.5, -0.11, -0.106, -3.802, 2.5
 226031218, -0.112, -0.111, -3.768, 2.5, -0.112, -0.109, -3.849, 2.5
 226231138, -0.11, -0.11, -3.206, 2.5, -0.112, -0.111, -3.768, 2.5
 226431058, -0.107, -0.11, -2.639, 2.5, -0.11, -0.11, -3.206, 2.5
 226630978, -0.105, -0.107, -1.988, 2.5, -0.107, -0.11, -2.639, 2.5
 226830898, -0.08800001, -0.09200001, -1.526, 2.5, -0.105, -0.107, -1.988, 2.5
 227030818, -0.047, -0.052, -1.199, 2.5, -0.08800001, -0.09200001, -1.526, 2.5
 227230738, 0.049, 0.024, -0.946, 2.5, -0.047, -0.052, -1.199, 2.5
 227430658, 0.213, 0.127, -0.731, 2.5, 0.049, 0.024, -0.946, 2.5
 227631411, 0.396, 0.208, -0.552, 2.5, 0.213, 0.127, -0.731, 2.5
 227831331, 0.566, 0.232, -0.408, 2.5, 0.396, 0.208, -0.552, 2.5
 228031251, 0.712, 0.228, -0.293, 2.5, 0.566, 0.232, -0.408, 2.5
 228231171, 0.851, 0.222, -0.201, 2.5, 0.712, 0.228, -0.293, 2.5
 228431091, 1, 0.201, -0.128, 2.5, 0.851, 0.222, -0.201, 2.5
 228631011, 1.155, 0.161, -0.07, 2.5, 1, 0.201, -0.128, 2.5
 228830931, 1.307, 0.126, -0.024, 2.5, 1.155, 0.161, -0.07, 2.5
 229030851, 1.451, 0.163, 0.021, 2.5, 1.307, 0.126, -0.024, 2.5
 229230771, 1.596, 0.263, 0.053, 2.5, 1.451, 0.163, 0.021, 2.5
 229430691, 1.757, 0.355, 0.072, 2.5, 1.596, 0.263, 0.053, 2.5
 229631444, 1.94, 0.4, 0.089, 2.5, 1.757, 0.355, 0.072, 2.5
 229831364, 2.135, 0.401, 0.106, 2.5, 1.94, 0.4, 0.089, 2.5
 230031284, 2.333, 0.377, 0.127, 2.5, 2.135, 0.401, 0.106, 2.5
 230231204, 2.543, 0.339, 0.148, 2.5, 2.333, 0.377, 0.127, 2.5
 230431124, 2.761, 0.301, 0.17, 2.5, 2.543, 0.339, 0.148, 2.5
 230631044, 2.983, 0.242, 0.192, 2.5, 2.761, 0.301, 0.17, 2.5
 230830964, 3.214, 0.152, 0.207, 2.5, 2.983, 0.242, 0.192, 2.5
 231030884, 3.443, 0.089, 0.218, 2.5, 3.214, 0.152, 0.207, 2.5
 231230804, 3.663, 0.104, 0.231, 2.5, 3.443, 0.089, 0.218, 2.5
 231430724, 3.879, 0.198, 0.249, 2.5, 3.663, 0.104, 0.231, 2.5
 231631477, 4.089, 0.341, 0.267, 2.5, 3.879, 0.198, 0.249, 2.5
 231831397, 4.292, 0.475, 0.281, 2.5, 4.089, 0.341, 0.267, 2.5
 232031317, 4.495, 0.555, 0.294, 2.5, 4.292, 0.475, 0.281, 2.5
 232231237, 4.694, 0.583, 0.309, 2.5, 4.495, 0.555, 0.294, 2.5
 232431157, 4.887, 0.591, 0.324, 2.5, 4.694, 0.583, 0.309, 2.5
 232631077, 5.078, 0.61, 0.339, 2.5, 4.887, 0.591, 0.324, 2.5
 232830997, 5.271, 0.649, 0.35, 2.5, 5.078, 0.61, 0.339, 2.5
 233030917, 5.456, 0.698, 0.356, 2.5, 5.271, 0.649, 0.35, 2.5
 233230837, 5.633, 0.739, 0.361, 2.5, 5.456, 0.698, 0.356, 2.5
 233430757, 5.802, 0.765, 0.365, 2.5, 5.633, 0.739, 0.361, 2.5
 233630677, 5.963, 0.777, 0.369, 2.5, 5.802, 0.765, 0.365, 2.5
 233831430, 6.115, 0.788, 0.37, 2.5, 5.963, 0.777, 0.369, 2.5
 234031350, 6.259, 0.802, 0.372, 2.5, 6.115, 0.788, 0.37, 2.5
 234231270, 6.396, 0.803, 0.373, 2.5, 6.259, 0.802, 0.372, 2.5
 234431190, 6.531, 0.78, 0.376, 2.5, 6.396, 0.803, 0.373, 2.5
 234631110, 6.661, 0.751, 0.378, 2.5, 6.531, 0.78, 0.376, 2.5
 234831030, 6.782001, 0.734, 0.378, 2.5, 6.661, 0.751, 0.378, 2.5
 235030950, 6.894001, 0.742, 0.381, 2.5, 6.782001, 0.734, 0.378, 2.5
 235230870, 7.001, 0.78, 0.382, 2.5, 6.894001, 0.742, 0.381, 2.5
 235430790, 7.105, 0.831, 0.381, 2.5, 7.001, 0.78, 0.382, 2.5
 235630710, 7.207, 0.8710001, 0.38, 2.5, 7.105, 0.831, 0.381, 2.5
 235831463, 7.301, 0.892, 0.381, 2.5, 7.207, 0.8710001, 0.38, 2.5
 236031383, 7.381001, 0.896, 0.38, 2.5, 7.301, 0.892, 0.381, 2.5
 236231303, 7.456, 0.8850001, 0.377, 2.5, 7.381001, 0.896, 0.38, 2.5
 236431223, 7.532001, 0.8660001, 0.373, 2.5, 7.456, 0.8850001, 0.377, 2.5
 236631143, 7.605, 0.849, 0.368, 2.5, 7.532001, 0.8660001, 0.373, 2.5
 236831063, 7.671, 0.8430001, 0.365, 2.5, 7.605, 0.849, 0.368, 2.5
 237030983, 7.733, 0.841, 0.363, 2.5, 7.671, 0.8430001, 0.365, 2.5
 237230903, 7.795001, 0.8420001, 0.361, 2.5, 7.733, 0.841, 0.363, 2.5
 237430823, 7.856, 0.848, 0.359, 2.5, 7.795001, 0.8420001, 0.361, 2.5
 237630743, 7.914001, 0.855, 0.356, 2.5, 7.856, 0.848, 0.359, 2.5
 237830663, 7.969, 0.8660001, 0.355, 2.5, 7.914001, 0.855, 0.356, 2.5
 238031416, 8.026, 0.8800001, 0.354, 2.5, 7.969, 0.8660001, 0.355, 2.5
 238231336, 8.09, 0.887, 0.339, 2.5, 8.026, 0.8800001, 0.354, 2.5
 238431256, 8.124001, 0.8750001, 0.319, 2.5, 8.09, 0.887, 0.339, 2.5
 238631176, 8.126, 0.8650001, 0.301, 2.5, 8.124001, 0.8750001, 0.319, 2.5
 238831096, 8.117001, 0.863, 0.291, 2.5, 8.126, 0.8650001, 0.301, 2.5
 239031016, 8.112, 0.8660001, 0.292, 2.5, 8.117001, 0.863, 0.291, 2.5
 239230936, 8.114, 0.869, 0.302, 2.5, 8.112, 0.8660001, 0.292, 2.5
 239430856, 8.125, 0.872, 0.311, 2.5, 8.114, 0.869, 0.302, 2.5
 239630776, 8.135, 0.876, 0.315, 2.5, 8.125, 0.872, 0.311, 2.5
 239830696, 8.138, 0.8790001, 0.32, 2.5, 8.135, 0.876, 0.315, 2.5
 240031449, 8.139, 0.8800001, 0.319, 2.5, 8.138, 0.8790001, 0.32, 2.5
 240231369, 8.138, 0.877, 0.31, 2.5, 8.139, 0.8800001, 0.319, 2.5
 240431289, 8.136001, 0.8700001, 0.291, 2.5, 8.138, 0.877, 0.31, 2.5
 240631209, 8.126, 0.864, 0.271, 2.5, 8.136001, 0.8700001, 0.291, 2.5
 240831129, 8.111, 0.8610001, 0.265, 2.5, 8.126, 0.864, 0.271, 2.5
 241031049, 8.105, 0.855, 0.27, 2.5, 8.111, 0.8610001, 0.265, 2.5
 241230969, 8.114, 0.839, 0.279, 2.5, 8.105, 0.855, 0.27, 2.5
 241430889, 8.126, 0.817, 0.284, 2.5, 8.114, 0.839, 0.279, 2.5
 241630809, 8.132, 0.8, 0.287, 2.5, 8.126, 0.817, 0.284, 2.5
 241830729, 8.131001, 0.8, 0.292, 2.5, 8.132, 0.8, 0.287, 2.5
 242031482, 8.128, 0.8150001, 0.303, 2.5, 8.131001, 0.8, 0.292, 2.5
 242231402, 8.131001, 0.835, 0.317, 2.5, 8.128, 0.8150001, 0.303, 2.5
 242431322, 8.14, 0.85, 0.33, 2.5, 8.131001, 0.835, 0.317, 2.5
 242631242, 8.154, 0.858, 0.334, 2.5, 8.14, 0.85, 0.33, 2.5
 242831162, 8.161, 0.855, 0.336, 2.5, 8.154, 0.858, 0.334, 2.5
 243031082, 8.17, 0.851, 0.322, 2.5, 8.161, 0.855, 0.336, 2.5
 243231002, 8.188001, 0.848, 0.278, 2.5, 8.17, 0.851, 0.322, 2.5
 243430922, 8.207001, 0.832, 0.225, 2.5, 8.188001, 0.848, 0.278, 2.5
 243630842, 8.223001, 0.8050001, 0.17, 2.5, 8.207001, 0.832, 0.225, 2.5
 243830762, 8.231, 0.775, 0.123, 2.5, 8.223001, 0.8050001, 0.17, 2.5
 244030682, 8.244, 0.738, 0.08800001, 2.5, 8.231, 0.775, 0.123, 2.5
 244231435, 8.26, 0.706, 0.06500001, 2.5, 8.244, 0.738, 0.08800001, 2.5
 244431355, 8.277, 0.683, 0.049, 2.5, 8.26, 0.706, 0.06500001, 2.5
 244631275, 8.3, 0.6670001, 0.041, 2.5, 8.277, 0.683, 0.049, 2.5
 244831195, 8.33, 0.649, 0.034, 2.5, 8.3, 0.6670001, 0.041, 2.5
 245031115, 8.361, 0.631, 0.028, 2.5, 8.33, 0.649, 0.034, 2.5
 245231035, 8.392, 0.612, 0.022, 2.5, 8.361, 0.631, 0.028, 2.5
 245430955, 8.424001, 0.585, 0.014, 2.5, 8.392, 0.612, 0.022, 2.5
 245630875, 8.454, 0.5470001, 0.006, 2.5, 8.424001, 0.585, 0.014, 2.5
 245830795, 8.483001, 0.497, 0.001, 2.5, 8.454, 0.5470001, 0.006, 2.5
 246030715, 8.517, 0.44, 0, 2.5, 8.483001, 0.497, 0.001, 2.5
 246231468, 8.555, 0.392, -0.003, 2.5, 8.517, 0.44, 0, 2.5
 246431388, 8.594001, 0.36, -0.002, 2.5, 8.555, 0.392, -0.003, 2.5
 246631308, 8.634001, 0.336, -0.001, 2.5, 8.594001, 0.36, -0.002, 2.5
 246831228, 8.678, 0.307, -0.003, 2.5, 8.634001, 0.336, -0.001, 2.5
 247031148, 8.727, 0.278, -0.003, 2.5, 8.678, 0.307, -0.003, 2.5
 247231068, 8.776, 0.266, -0.003, 2.5, 8.727, 0.278, -0.003, 2.5
 247430988, 8.816, 0.258, -0.001, 2.5, 8.776, 0.266, -0.003, 2.5
 247630908, 8.848001, 0.235, 0, 2.5, 8.816, 0.258, -0.001, 2.5
 247830828, 8.879001, 0.199, 0.003, 2.5, 8.848001, 0.235, 0, 2.5
 248030748, 8.910001, 0.162, 0.007, 2.5, 8.879001, 0.199, 0.003, 2.5
 248230668, 8.940001, 0.146, 0.008, 2.5, 8.910001, 0.162, 0.007, 2.5
 248431421, 8.967, 0.152, 0.006, 2.5, 8.940001, 0.146, 0.008, 2.5
 248631341, 8.989, 0.164, 0.005, 2.5, 8.967, 0.152, 0.006, 2.5
 248831261, 9.004001, 0.178, 0.005, 2.5, 8.989, 0.164, 0.005, 2.5
 249031181, 9.015, 0.181, 0.006, 2.5, 9.004001, 0.178, 0.005, 2.5
 249231101, 9.036, 0.182, 0.008, 2.5, 9.015, 0.181, 0.006, 2.5
 249431021, 9.072001, 0.183, 0.008, 2.5, 9.036, 0.182, 0.008, 2.5
 249630941, 9.108001, 0.181, 0.008, 2.5, 9.072001, 0.183, 0.008, 2.5
 249830861, 9.133, 0.177, 0.006, 2.5, 9.108001, 0.181, 0.008, 2.5
 250030781, 9.146001, 0.181, 0.002, 2.5, 9.133, 0.177, 0.006, 2.5
 250230701, 9.155001, 0.195, 0, 2.5, 9.146001, 0.181, 0.002, 2.5
 250431454, 9.161, 0.216, -0.002, 2.5, 9.155001, 0.195, 0, 2.5
 250631374, 9.168, 0.23, -0.003, 2.5, 9.161, 0.216, -0.002, 2.5
 250831294, 9.177, 0.239, 0, 2.5, 9.168, 0.23, -0.003, 2.5
 251031214, 9.197001, 0.24, 0.002, 2.5, 9.177, 0.239, 0, 2.5
 251231134, 9.22, 0.217, 0.003, 2.5, 9.197001, 0.24, 0.002, 2.5
 251431054, 9.239, 0.179, 0.002, 2.5, 9.22, 0.217, 0.003, 2.5
 251630974, 9.256001, 0.153, 0, 2.5, 9.239, 0.179, 0.002, 2.5
 251830894, 9.277, 0.141, -0.002, 2.5, 9.256001, 0.153, 0, 2.5
 252030814, 9.302, 0.126, -0.003, 2.5, 9.277, 0.141, -0.002, 2.5
 252230734, 9.325001, 0.112, -0.003, 2.5, 9.302, 0.126, -0.003, 2.5
 252430654, 9.343, 0.104, 0, 2.5, 9.325001, 0.112, -0.003, 2.5
 252631407, 9.355, 0.093, 0.002, 2.5, 9.343, 0.104, 0, 2.5
 252831327, 9.364, 0.071, 0.005, 2.5, 9.355, 0.093, 0.002, 2.5
 253031247, 9.374001, 0.05, 0.007, 2.5, 9.364, 0.071, 0.005, 2.5
 253231167, 9.384001, 0.042, 0.005, 2.5, 9.374001, 0.05, 0.007, 2.5
 253431087, 9.386001, 0.036, 0.003, 2.5, 9.384001, 0.042, 0.005, 2.5
 253631007, 9.382, 0.014, 0.002, 2.5, 9.386001, 0.036, 0.003, 2.5
 253830927, 9.385, -0.012, 0, 2.5, 9.382, 0.014, 0.002, 2.5
 254030847, 9.401, -0.019, -0.004, 2.5, 9.385, -0.012, 0, 2.5
 254230767, 9.413, -0.009000001, -0.01, 2.5, 9.401, -0.019, -0.004, 2.5
 254430687, 9.427, 0.009000001, -0.017, 2.5, 9.413, -0.009000001, -0.01, 2.5
 254631440, 9.443001, 0.025, -0.023, 2.5, 9.427, 0.009000001, -0.017, 2.5
 254831360, 9.456, 0.033, -0.027, 2.5, 9.443001, 0.025, -0.023, 2.5
 255031280, 9.481001, 0.034, -0.028, 2.5, 9.456, 0.033, -0.027, 2.5
 255231200, 9.505, 0.031, -0.027, 2.5, 9.481001, 0.034, -0.028, 2.5
 255431120, 9.529, 0.034, -0.026, 2.5, 9.505, 0.031, -0.027, 2.5
 255631040, 9.547001, 0.043, -0.024, 2.5, 9.529, 0.034, -0.026, 2.5
 255830960, 9.553, 0.043, -0.02, 2.5, 9.547001, 0.043, -0.024, 2.5
 256030880, 9.556001, 0.031, -0.018, 2.5, 9.553, 0.043, -0.02, 2.5
 256230800, 9.570001, 0.022, -0.015, 2.5, 9.556001, 0.031, -0.018, 2.5
 256430720, 9.592, 0.025, -0.014, 2.5, 9.570001, 0.022, -0.015, 2.5
 256631473, 9.612, 0.027, -0.012, 2.5, 9.592, 0.025, -0.014, 2.5
 256831393, 9.63, 0.016, -0.01, 2.5, 9.612, 0.027, -0.012, 2.5
 257031313, 9.650001, 0.007, -0.01, 2.5, 9.63, 0.016, -0.01, 2.5
 257231233, 9.666, 0.018, -0.013, 2.5, 9.650001, 0.007, -0.01, 2.5
 257431153, 9.68, 0.038, -0.014, 2.5, 9.666, 0.018, -0.013, 2.5
 257631073, 9.698001, 0.054, -0.015, 2.5, 9.68, 0.038, -0.014, 2.5
 257830993, 9.722, 0.063, -0.015, 2.5, 9.698001, 0.054, -0.015, 2.5
 258030913, 9.748, 0.07, -0.017, 2.5, 9.722, 0.063, -0.015, 2.5
 258230833, 9.764001, 0.06500001, -0.02, 2.5, 9.748, 0.07, -0.017, 2.5
 258430753, 9.763, 0.048, -0.022, 2.5, 9.764001, 0.06500001, -0.02, 2.5
 258630673, 9.751, 0.034, -0.02, 2.5, 9.763, 0.048, -0.022, 2.5
 258831426, 9.738001, 0.031, -0.015, 2.5, 9.751, 0.034, -0.02, 2.5
 259031346, 9.735001, 0.037, -0.009000001, 2.5, 9.738001, 0.031, -0.015, 2.5
 259231266, 9.742001, 0.042, -0.005, 2.5, 9.735001, 0.037, -0.009000001, 2.5
 259431186, 9.742001, 0.043, -0.001, 2.5, 9.742001, 0.042, -0.005, 2.5
 259631106, 9.733001, 0.041, 0.002, 2.5, 9.742001, 0.043, -0.001, 2.5
 259831026, 9.727, 0.033, 0.008, 2.5, 9.733001, 0.041, 0.002, 2.5
 260030946, 9.73, 0.015, 0.015, 2.5, 9.727, 0.033, 0.008, 2.5
 260230866, 9.735001, -0.002, 0.021, 2.5, 9.73, 0.015, 0.015, 2.5
 260430786, 9.742001, -0.006, 0.025, 2.5, 9.735001, -0.002, 0.021, 2.5
 260630706, 9.749001, -0.002, 0.024, 2.5, 9.742001, -0.006, 0.025, 2.5
 260831459, 9.753, 0.003, 0.019, 2.5, 9.749001, -0.002, 0.024, 2.5
 261031379, 9.75, 0.012, 0.016, 2.5, 9.753, 0.003, 0.019, 2.5
 261231299, 9.75, 0.018, 0.013, 2.5, 9.75, 0.012, 0.016, 2.5
 261431219, 9.759001, 0.013, 0.01, 2.5, 9.75, 0.018, 0.013, 2.5
 261631139, 9.77, 0, 0.005, 2.5, 9.759001, 0.013, 0.01, 2.5
 261831059, 9.773001, -0.013, 0.003, 2.5, 9.77, 0, 0.005, 2.5
 262030979, 9.769, -0.032, 0.003, 2.5, 9.773001, -0.013, 0.003, 2.5
 262230899, 9.76, -0.052, 0.005, 2.5, 9.769, -0.032, 0.003, 2.5
 262430819, 9.745001, -0.061, 0.007, 2.5, 9.76, -0.052, 0.005, 2.5
 262630739, 9.736, -0.057, 0.008, 2.5, 9.745001, -0.061, 0.007, 2.5
 262830659, 9.740001, -0.047, 0.007, 2.5, 9.736, -0.057, 0.008, 2.5
 263031412, 9.756001, -0.04, 0.005, 2.5, 9.740001, -0.047, 0.007, 2.5
 263231332, 9.787001, -0.042, 0.001, 2.5, 9.756001, -0.04, 0.005, 2.5
 263431252, 9.799001, -0.05, -0.003, 2.5, 9.787001, -0.042, 0.001, 2.5
 263631172, 9.767, -0.054, -0.015, 2.5, 9.799001, -0.05, -0.003, 2.5
 263831092, 9.650001, -0.064, -0.032, 2.5, 9.767, -0.054, -0.015, 2.5
 264031012, 9.483001, -0.087, -0.039, 2.5, 9.650001, -0.064, -0.032, 2.5
 264230932, 9.312, -0.118, -0.036, 2.5, 9.483001, -0.087, -0.039, 2.5
 264430852, 9.141001, -0.148, -0.03, 2.5, 9.312, -0.118, -0.036, 2.5
 264630772, 8.96, -0.172, -0.025, 2.5, 9.141001, -0.148, -0.03, 2.5
 264830692, 8.764001, -0.2, -0.02, 2.5, 8.96, -0.172, -0.025, 2.5
 265031445, 8.558001, -0.24, -0.016, 2.5, 8.764001, -0.2, -0.02, 2.5
 265231365, 8.345, -0.29, -0.012, 2.5, 8.558001, -0.24, -0.016, 2.5
 265431285, 8.129001, -0.347, -0.01, 2.5, 8.345, -0.29, -0.012, 2.5
 265631205, 7.916, -0.409, -0.007, 2.5, 8.129001, -0.347, -0.01, 2.5
 265831125, 7.699, -0.475, -0.005, 2.5, 7.916, -0.409, -0.007, 2.5
 266031045, 7.469, -0.549, -0.004, 2.5, 7.699, -0.475, -0.005, 2.5
 266230965, 7.224, -0.625, -0.003, 2.5, 7.469, -0.549, -0.004, 2.5
 266430885, 6.973001, -0.708, 0.001, 2.5, 7.224, -0.625, -0.003, 2.5
 266630805, 6.728, -0.798, 0.009000001, 2.5, 6.973001, -0.708, 0.001, 2.5
 266830725, 6.492, -0.887, 0.017, 2.5, 6.728, -0.798, 0.009000001, 2.5
 267031478, 6.258, -0.9820001, 0.021, 2.5, 6.492, -0.887, 0.017, 2.5
 267231398, 6.022, -1.089, 0.022, 2.5, 6.258, -0.9820001, 0.021, 2.5
 267431318, 5.784, -1.209, 0.022, 2.5, 6.022, -1.089, 0.022, 2.5
 267631238, 5.537, -1.348, 0.021, 2.5, 5.784, -1.209, 0.022, 2.5
 267831158, 5.27, -1.518, 0.021, 2.5, 5.537, -1.348, 0.021, 2.5
 268031078, 4.973, -1.734, 0.023, 2.5, 5.27, -1.518, 0.021, 2.5
 268230998, 4.651, -1.988, 0.025, 2.5, 4.973, -1.734, 0.023, 2.5
 268430918, 4.325, -2.254, 0.025, 2.5, 4.651, -1.988, 0.025, 2.5
 268630838, 4.005, -2.513, 0.026, 2.5, 4.325, -2.254, 0.025, 2.5
 268830758, 3.682, -2.758, 0.025, 2.5, 4.005, -2.513, 0.026, 2.5
 269030678, 3.363, -2.985, 0.025, 2.5, 3.682, -2.758, 0.025, 2.5
 269231431, 3.055, -3.212, 0.024, 2.5, 3.363, -2.985, 0.025, 2.5
 269431351, 2.755, -3.44, 0.023, 2.5, 3.055, -3.212, 0.024, 2.5
 269631271, 2.453, -3.663, 0.023, 2.5, 2.755, -3.44, 0.023, 2.5
 269831191, 2.16, -3.884, 0.019, 2.5, 2.453, -3.663, 0.023, 2.5
 270031111, 1.916, -4.102, 0.016, 2.5, 2.16, -3.884, 0.019, 2.5
 270231031, 1.726, -4.316, 0.013, 2.5, 1.916, -4.102, 0.016, 2.5
 270430951, 1.555, -4.518, 0.009000001, 2.5, 1.726, -4.316, 0.013, 2.5
 270630871, 1.385, -4.71, 0.007, 2.5, 1.555, -4.518, 0.009000001, 2.5
 270830791, 1.225, -4.908, 0.008, 2.5, 1.385, -4.71, 0.007, 2.5
 271030711, 1.082, -5.122, 0.008, 2.5, 1.225, -4.908, 0.008, 2.5
 271231464, 0.9480001, -5.337, 0.007, 2.5, 1.082, -5.122, 0.008, 2.5
 271431384, 0.813, -5.535, 0.003, 2.5, 0.9480001, -5.337, 0.007, 2.5
 271631304, 0.694, -5.719, 0, 2.5, 0.813, -5.535, 0.003, 2.5
 271831224, 0.61, -5.899, -0.003, 2.5, 0.694, -5.719, 0, 2.5
 272031144, 0.546, -6.073, -0.004, 2.5, 0.61, -5.899, -0.003, 2.5
 272231064, 0.484, -6.235, -0.007, 2.5, 0.546, -6.073, -0.004, 2.5
 272430984, 0.428, -6.385, -0.009000001, 2.5, 0.484, -6.235, -0.007, 2.5
 272630904, 0.386, -6.526, -0.013, 2.5, 0.428, -6.385, -0.009000001, 2.5
 272830824, 0.347, -6.655, -0.016, 2.5, 0.386, -6.526, -0.013, 2.5
 273030744, 0.299, -6.772, -0.018, 2.5, 0.347, -6.655, -0.016, 2.5
 273230664, 0.254, -6.881001, -0.019, 2.5, 0.299, -6.772, -0.018, 2.5
 273431417, 0.226, -6.984, -0.02, 2.5, 0.254, -6.881001, -0.019, 2.5
 273631337, 0.211, -7.078001, -0.018, 2.5, 0.226, -6.984, -0.02, 2.5
 273831257, 0.202, -7.162, -0.015, 2.5, 0.211, -7.078001, -0.018, 2.5
 274031177, 0.198, -7.24, -0.013, 2.5, 0.202, -7.162, -0.015, 2.5
 274231097, 0.193, -7.319, -0.011, 2.5, 0.198, -7.24, -0.013, 2.5
 274431017, 0.191, -7.398, -0.01, 2.5, 0.193, -7.319, -0.011, 2.5
 274630937, 0.197, -7.478, -0.008, 2.5, 0.191, -7.398, -0.01, 2.5
 274830857, 0.202, -7.555, -0.004, 2.5, 0.197, -7.478, -0.008, 2.5
 275030777, 0.19, -7.630001, 0, 2.5, 0.202, -7.555, -0.004, 2.5
 275230697, 0.167, -7.706, -0.001, 2.5, 0.19, -7.630001, 0, 2.5
 275431450, 0.14, -7.782001, -0.004, 2.5, 0.167, -7.706, -0.001, 2.5
 275631370, 0.119, -7.85, -0.007, 2.5, 0.14, -7.782001, -0.004, 2.5
 275831290, 0.101, -7.911, -0.008, 2.5, 0.119, -7.85, -0.007, 2.5
 276031210, 0.081, -7.969, -0.009000001, 2.5, 0.101, -7.911, -0.008, 2.5
 276231130, 0.07300001, -8.030001, -0.01, 2.5, 0.081, -7.969, -0.009000001, 2.5
 276431050, 0.06500001, -8.086, -0.012, 2.5, 0.07300001, -8.030001, -0.01, 2.5
 276630970, 0.054, -8.134001, -0.015, 2.5, 0.06500001, -8.086, -0.012, 2.5
 276830890, 0.052, -8.177, -0.016, 2.5, 0.054, -8.134001, -0.015, 2.5
 277030810, 0.032, -8.217, -0.015, 2.5, 0.052, -8.177, -0.016, 2.5
 277230730, 0.009000001, -8.252001, -0.014, 2.5, 0.032, -8.217, -0.015, 2.5
 277431483, 0.007, -8.284, -0.012, 2.5, 0.009000001, -8.252001, -0.014, 2.5
 277631403, 0.047, -8.319, -0.013, 2.5, 0.007, -8.284, -0.012, 2.5
 277831323, 0.062, -8.364, -0.015, 2.5, 0.047, -8.319, -0.013, 2.5
 278031243, 0.08000001, -8.411, -0.014, 2.5, 0.062, -8.364, -0.015, 2.5
 278231163, 0.11, -8.450001, -0.012, 2.5, 0.08000001, -8.411, -0.014, 2.5
 278431083, 0.108, -8.484, -0.011, 2.5, 0.11, -8.450001, -0.012, 2.5
 278631003, 0.07600001, -8.514, -0.012, 2.5, 0.108, -8.484, -0.011, 2.5
 278830923, 0.058, -8.543, -0.011, 2.5, 0.07600001, -8.514, -0.012, 2.5
 279030843, 0.061, -8.575001, -0.009000001, 2.5, 0.058, -8.543, -0.011, 2.5
 279230763, 0.06500001, -8.605, -0.006, 2.5, 0.061, -8.575001, -0.009000001, 2.5
 279430683, 0.062, -8.636001, -0.002, 2.5, 0.06500001, -8.605, -0.006, 2.5
 279631436, 0.058, -8.675, 0, 2.5, 0.062, -8.636001, -0.002, 2.5
 279831356, 0.052, -8.716001, 0.002, 2.5, 0.058, -8.675, 0, 2.5
 280031276, 0.024, -8.744, 0.003, 2.5, 0.052, -8.716001, 0.002, 2.5
 280231196, -0.01, -8.761001, 0.003, 2.5, 0.024, -8.744, 0.003, 2.5
 280431116, -0.019, -8.775001, 0.004, 2.5, -0.01, -8.761001, 0.003, 2.5
 280631036, -0.018, -8.793, 0.004, 2.5, -0.019, -8.775001, 0.004, 2.5
 280830956, -0.014, -8.813001, 0.005, 2.5, -0.018, -8.793, 0.004, 2.5
 281030876, 0.002, -8.836, 0.002, 2.5, -0.014, -8.813001, 0.005, 2.5
 281230796, 0.012, -8.865001, 0, 2.5, 0.002, -8.836, 0.002, 2.5
 281430716, 0.008, -8.904, 0, 2.5, 0.012, -8.865001, 0, 2.5
 281631469, -0.005, -8.944, -0.005, 2.5, 0.008, -8.904, 0, 2.5
 281831389, -0.018, -8.976001, -0.009000001, 2.5, -0.005, -8.944, -0.005, 2.5
 282031309, -0.024, -9.003, -0.012, 2.5, -0.018, -8.976001, -0.009000001, 2.5
 282231229, -0.02, -9.031, -0.013, 2.5, -0.024, -9.003, -0.012, 2.5
 282431149, -0.02, -9.06, -0.01, 2.5, -0.02, -9.031, -0.013, 2.5
 282631069, -0.008, -9.087001, -0.009000001, 2.5, -0.02, -9.06, -0.01, 2.5
 282830989, 0.005, -9.109, -0.008, 2.5, -0.008, -9.087001, -0.009000001, 2.5
 283030909, 0.024, -9.133, -0.004, 2.5, 0.005, -9.109, -0.008, 2.5
 283230829, 0.052, -9.163, -0.004, 2.5, 0.024, -9.133, -0.004, 2.5
 283430749, 0.085, -9.190001, -0.006, 2.5, 0.052, -9.163, -0.004, 2.5
 283630669, 0.08000001, -9.209001, -0.004, 2.5, 0.085, -9.190001, -0.006, 2.5
 283831422, 0.061, -9.22, -0.001, 2.5, 0.08000001, -9.209001, -0.004, 2.5
 284031342, 0.046, -9.227, 0.002, 2.5, 0.061, -9.22, -0.001, 2.5
 284231262, 0.07, -9.237, 0.007, 2.5, 0.046, -9.227, 0.002, 2.5
 284431182, 0.085, -9.251, 0.009000001, 2.5, 0.07, -9.237, 0.007, 2.5
 284631102, 0.079, -9.265, 0.013, 2.5, 0.085, -9.251, 0.009000001, 2.5
 284831022, 0.07, -9.276, 0.018, 2.5, 0.079, -9.265, 0.013, 2.5
 285030942, 0.06900001, -9.288, 0.023, 2.5, 0.07, -9.276, 0.018, 2.5
 285230862, 0.066, -9.308001, 0.025, 2.5, 0.06900001, -9.288, 0.023, 2.5
 285430782, 0.027, -9.336, 0.02, 2.5, 0.066, -9.308001, 0.025, 2.5
 285630702, 0.022, -9.363001, 0.01, 2.5, 0.027, -9.336, 0.02, 2.5
 285831455, 0.007, -9.381001, 0.003, 2.5, 0.022, -9.363001, 0.01, 2.5
 286031375, -0.009000001, -9.395, 0.001, 2.5, 0.007, -9.381001, 0.003, 2.5
 286231295, -0.015, -9.411, 0.003, 2.5, -0.009000001, -9.395, 0.001, 2.5
 286431215, -0.007, -9.431001, 0.005, 2.5, -0.015, -9.411, 0.003, 2.5
 286631135, -0.001, -9.452001, 0.007, 2.5, -0.007, -9.431001, 0.005, 2.5
 286831055, -0.003, -9.466001, 0.008, 2.5, -0.001, -9.452001, 0.007, 2.5
 287030975, -0.007, -9.474, 0.009000001, 2.5, -0.003, -9.466001, 0.008, 2.5
 287230895, -0.012, -9.483001, 0.008, 2.5, -0.007, -9.474, 0.009000001, 2.5
 287430815, -0.016, -9.494, 0.008, 2.5, -0.012, -9.483001, 0.008, 2.5
 287630735, -0.017, -9.51, 0.005, 2.5, -0.016, -9.494, 0.008, 2.5
 287830655, -0.017, -9.526, 0.002, 2.5, -0.017, -9.51, 0.005, 2.5
 288031408, 0.002, -9.539001, 0, 2.5, -0.017, -9.526, 0.002, 2.5
 288231328, 0.009000001, -9.548, 0, 2.5, 0.002, -9.539001, 0, 2.5
 288431248, 0.011, -9.559, 0.005, 2.5, 0.009000001, -9.548, 0, 2.5
 288631168, 0.003, -9.56, 0.006, 2.5, 0.011, -9.559, 0.005, 2.5
 288831088, -0.016, -9.489, -0.006, 2.5, 0.003, -9.56, 0.006, 2.5
 289031008, -0.054, -9.341001, -0.018, 2.5, -0.016, -9.489, -0.006, 2.5
 289230928, -0.053, -9.168, -0.024, 2.5, -0.054, -9.341001, -0.018, 2.5
 289430848, -0.07300001, -8.999001, -0.026, 2.5, -0.053, -9.168, -0.024, 2.5
 289630768, -0.09, -8.830001, -0.027, 2.5, -0.07300001, -8.999001, -0.026, 2.5
 289830688, -0.09900001, -8.643001, -0.025, 2.5, -0.09, -8.830001, -0.027, 2.5
 290031441, -0.147, -8.440001, -0.021, 2.5, -0.09900001, -8.643001, -0.025, 2.5
 290231361, -0.197, -8.224, -0.015, 2.5, -0.147, -8.440001, -0.021, 2.5
 290431281, -0.239, -7.997, -0.009000001, 2.5, -0.197, -8.224, -0.015, 2.5
 290631201, -0.295, -7.768001, -0.004, 2.5, -0.239, -7.997, -0.009000001, 2.5
 290831121, -0.346, -7.55, -0.001, 2.5, -0.295, -7.768001, -0.004, 2.5
 291031041, -0.392, -7.337, 0.001, 2.5, -0.346, -7.55, -0.001, 2.5
 291230961, -0.442, -7.116, 0.001, 2.5, -0.392, -7.337, 0.001, 2.5
 291430881, -0.496, -6.887001, 0.005, 2.5, -0.442, -7.116, 0.001, 2.5
 291630801, -0.558, -6.659, 0.012, 2.5, -0.496, -6.887001, 0.005, 2.5
 291830721, -0.629, -6.435, 0.018, 2.5, -0.558, -6.659, 0.012, 2.5
 292031474, -0.705, -6.215, 0.025, 2.5, -0.629, -6.435, 0.018, 2.5
 292231394, -0.7960001, -5.986, 0.03, 2.5, -0.705, -6.215, 0.025, 2.5
 292431314, -0.9110001, -5.749, 0.034, 2.5, -0.7960001, -5.986, 0.03, 2.5
 292631234, -1.033, -5.502, 0.037, 2.5, -0.9110001, -5.749, 0.034, 2.5
 292831154, -1.157, -5.239, 0.037, 2.5, -1.033, -5.502, 0.037, 2.5
 293031074, -1.296, -4.962, 0.036, 2.5, -1.157, -5.239, 0.037, 2.5
 293230994, -1.458, -4.683, 0.034, 2.5, -1.296, -4.962, 0.036, 2.5
 293430914, -1.63, -4.408, 0.031, 2.5, -1.458, -4.683, 0.034, 2.5
 293630834, -1.817, -4.126, 0.028, 2.5, -1.63, -4.408, 0.031, 2.5
 293830754, -2.03, -3.832, 0.027, 2.5, -1.817, -4.126, 0.028, 2.5
 294030674, -2.274, -3.519, 0.027, 2.5, -2.03, -3.832, 0.027, 2.5
 294231427, -2.528, -3.191, 0.029, 2.5, -2.274, -3.519, 0.027, 2.5
 294431347, -2.776, -2.858, 0.03, 2.5, -2.528, -3.191, 0.029, 2.5
 294631267, -3.007, -2.543, 0.028, 2.5, -2.776, -2.858, 0.03, 2.5
 294831187, -3.23, -2.251, 0.025, 2.5, -3.007, -2.543, 0.028, 2.5
 295031107, -3.459, -1.994, 0.022, 2.5, -3.23, -2.251, 0.025, 2.5
 295231027, -3.696, -1.766, 0.018, 2.5, -3.459, -1.994, 0.022, 2.5
 295430947, -3.931, -1.562, 0.011, 2.5, -3.696, -1.766, 0.018, 2.5
 295630867, -4.157, -1.382, 0.005, 2.5, -3.931, -1.562, 0.011, 2.5
 295830787, -4.377, -1.208, 0, 2.5, -4.157, -1.382, 0.005, 2.5
 296030707, -4.599, -1.03, -0.002, 2.5, -4.377, -1.208, 0, 2.5
 296231460, -4.824, -0.858, -0.003, 2.5, -4.599, -1.03, -0.002, 2.5
 296431380, -5.044, -0.7040001, -0.002, 2.5, -4.824, -0.858, -0.003, 2.5
 296631300, -5.251, -0.574, 0, 2.5, -5.044, -0.7040001, -0.002, 2.5
 296831220, -5.447, -0.468, 0.001, 2.5, -5.251, -0.574, 0, 2.5
 297031140, -5.634, -0.392, 0, 2.5, -5.447, -0.468, 0.001, 2.5
 297231060, -5.815, -0.353, -0.005, 2.5, -5.634, -0.392, 0, 2.5
 297430980, -5.99, -0.333, -0.01, 2.5, -5.815, -0.353, -0.005, 2.5
 297630900, -6.152, -0.3, -0.014, 2.5, -5.99, -0.333, -0.01, 2.5
 297830820, -6.299, -0.245, -0.017, 2.5, -6.152, -0.3, -0.014, 2.5
 298030740, -6.446, -0.206, -0.021, 2.5, -6.299, -0.245, -0.017, 2.5
 298230660, -6.581, -0.203, -0.024, 2.5, -6.446, -0.206, -0.021, 2.5
 298431413, -6.691, -0.204, -0.026, 2.5, -6.581, -0.203, -0.024, 2.5
 298631333, -6.78, -0.175, -0.029, 2.5, -6.691, -0.204, -0.026, 2.5
 298831253, -6.873, -0.135, -0.028, 2.5, -6.78, -0.175, -0.029, 2.5
 299031173, -6.979001, -0.112, -0.024, 2.5, -6.873, -0.135, -0.028, 2.5
 299231093, -7.09, -0.108, -0.022, 2.5, -6.979001, -0.112, -0.024, 2.5
 299431013, -7.193, -0.108, -0.023, 2.5, -7.09, -0.108, -0.022, 2.5
 299630933, -7.288001, -0.097, -0.022, 2.5, -7.193, -0.108, -0.023, 2.5
 299830853, -7.386, -0.07, -0.021, 2.5, -7.288001, -0.097, -0.022, 2.5
 300030773, -7.478, -0.042, -0.023, 2.5, -7.386, -0.07, -0.021, 2.5
 300230693, -7.554, -0.025, -0.024, 2.5, -7.478, -0.042, -0.023, 2.5
 300431446, -7.619, -0.011, -0.023, 2.5, -7.554, -0.025, -0.024, 2.5
 300631366, -7.682, 0.004, -0.02, 2.5, -7.619, -0.011, -0.023, 2.5
 300831286, -7.749001, 0.018, -0.015, 2.5, -7.682, 0.004, -0.02, 2.5
 301031206, -7.817, 0.034, -0.01, 2.5, -7.749001, 0.018, -0.015, 2.5
 301231126, -7.880001, 0.052, -0.009000001, 2.5, -7.817, 0.034, -0.01, 2.5
 301431046, -7.938, 0.058, -0.011, 2.5, -7.880001, 0.052, -0.009000001, 2.5
 301630966, -7.99, 0.046, -0.012, 2.5, -7.938, 0.058, -0.011, 2.5
 301830886, -8.034, 0.029, -0.008, 2.5, -7.99, 0.046, -0.012, 2.5
 302030806, -8.076, 0.024, -0.001, 2.5, -8.034, 0.029, -0.008, 2.5
 302230726, -8.115001, 0.018, 0.008, 2.5, -8.076, 0.024, -0.001, 2.5
 302431479, -8.147, -0.001, 0.019, 2.5, -8.115001, 0.018, 0.008, 2.5
 302631399, -8.176001, -0.029, 0.029, 2.5, -8.147, -0.001, 0.019, 2.5
 302831319, -8.209001, -0.044, 0.038, 2.5, -8.176001, -0.029, 0.029, 2.5
 303031239, -8.244, -0.041, 0.045, 2.5, -8.209001, -0.044, 0.038, 2.5
 303231159, -8.275001, -0.031, 0.048, 2.5, -8.244, -0.041, 0.045, 2.5
 303431079, -8.301001, -0.023, 0.045, 2.5, -8.275001, -0.031, 0.048, 2.5
 303630999, -8.338, -0.014, 0.042, 2.5, -8.301001, -0.023, 0.045, 2.5
 303830919, -8.386001, -0.01, 0.037, 2.5, -8.338, -0.014, 0.042, 2.5
 304030839, -8.432, -0.021, 0.029, 2.5, -8.386001, -0.01, 0.037, 2.5
 304230759, -8.472, -0.047, 0.019, 2.5, -8.432, -0.021, 0.029, 2.5
 304430679, -8.517, -0.06500001, 0.01, 2.5, -8.472, -0.047, 0.019, 2.5
 304631432, -8.570001, -0.061, 0.003, 2.5, -8.517, -0.06500001, 0.01, 2.5
 304831352, -8.617001, -0.041, 0, 2.5, -8.570001, -0.061, 0.003, 2.5
 305031272, -8.649, -0.027, -0.003, 2.5, -8.617001, -0.041, 0, 2.5
 305231192, -8.67, -0.033, -0.005, 2.5, -8.649, -0.027, -0.003, 2.5
 305431112, -8.692, -0.042, -0.005, 2.5, -8.67, -0.033, -0.005, 2.5
 305631032, -8.719001, -0.043, -0.003, 2.5, -8.692, -0.042, -0.005, 2.5
 305830952, -8.75, -0.049, -0.001, 2.5, -8.719001, -0.043, -0.003, 2.5
 306030872, -8.789001, -0.061, -0.001, 2.5, -8.75, -0.049, -0.001, 2.5
 306230792, -8.830001, -0.066, -0.003, 2.5, -8.789001, -0.061, -0.001, 2.5
 306430712, -8.866, -0.064, -0.006, 2.5, -8.830001, -0.066, -0.003, 2.5
 306631465, -8.891001, -0.055, -0.009000001, 2.5, -8.866, -0.064, -0.006, 2.5
 306831385, -8.908, -0.048, -0.01, 2.5, -8.891001, -0.055, -0.009000001, 2.5
 307031305, -8.925, -0.052, -0.006, 2.5, -8.908, -0.048, -0.01, 2.5
 307231225, -8.949, -0.059, -0.001, 2.5, -8.925, -0.052, -0.006, 2.5
 307431145, -8.973001, -0.05, 0.002, 2.5, -8.949, -0.059, -0.001, 2.5
 307631065, -8.995001, -0.03, 0.006, 2.5, -8.973001, -0.05, 0.002, 2.5
 307830985, -9.018001, -0.009000001, 0.01, 2.5, -8.995001, -0.03, 0.006, 2.5
 308030905, -9.045, 0.011, 0.011, 2.5, -9.018001, -0.009000001, 0.01, 2.5
 308230825, -9.074, 0.038, 0.01, 2.5, -9.045, 0.011, 0.011, 2.5
 308430745, -9.107, 0.068, 0.012, 2.5, -9.074, 0.038, 0.01, 2.5
 308630665, -9.145, 0.098, 0.013, 2.5, -9.107, 0.068, 0.012, 2.5
 308831418, -9.18, 0.114, 0.01, 2.5, -9.145, 0.098, 0.013, 2.5
 309031338, -9.203, 0.113, 0.008, 2.5, -9.18, 0.114, 0.01, 2.5
 309231258, -9.221001, 0.103, 0.007, 2.5, -9.203, 0.113, 0.008, 2.5
 309431178, -9.239, 0.096, 0.006, 2.5, -9.221001, 0.103, 0.007, 2.5
 309631098, -9.26, 0.094, 0.005, 2.5, -9.239, 0.096, 0.006, 2.5
 309831018, -9.274, 0.094, 0.005, 2.5, -9.26, 0.094, 0.005, 2.5
 310030938, -9.277, 0.093, 0.007, 2.5, -9.274, 0.094, 0.005, 2.5
 310230858, -9.283, 0.087, 0.01, 2.5, -9.277, 0.093, 0.007, 2.5
 310430778, -9.298, 0.087, 0.008, 2.5, -9.283, 0.087, 0.01, 2.5
 310630698, -9.321, 0.101, 0.006, 2.5, -9.298, 0.087, 0.008, 2.5
 310831451, -9.342, 0.117, 0.003, 2.5, -9.321, 0.101, 0.006, 2.5
 311031371, -9.358001, 0.12, 0, 2.5, -9.342, 0.117, 0.003, 2.5
 311231291, -9.375, 0.109, -0.003, 2.5, -9.358001, 0.12, 0, 2.5
 311431211, -9.399, 0.106, -0.009000001, 2.5, -9.375, 0.109, -0.003, 2.5
 311631131, -9.422001, 0.119, -0.014, 2.5, -9.399, 0.106, -0.009000001, 2.5
 311831051, -9.435, 0.136, -0.018, 2.5, -9.422001, 0.119, -0.014, 2.5
 312030971, -9.436001, 0.149, -0.019, 2.5, -9.435, 0.136, -0.018, 2.5
 312230891, -9.433001, 0.158, -0.015, 2.5, -9.436001, 0.149, -0.019, 2.5
 312430811, -9.432, 0.158, -0.011, 2.5, -9.433001, 0.158, -0.015, 2.5
 312630731, -9.439, 0.156, -0.005, 2.5, -9.432, 0.158, -0.011, 2.5
 312831484, -9.457001, 0.161, 0, 2.5, -9.439, 0.156, -0.005, 2.5
 313031404, -9.487, 0.167, 0, 2.5, -9.457001, 0.161, 0, 2.5
 313231324, -9.52, 0.162, 0, 2.5, -9.487, 0.167, 0, 2.5
 313431244, -9.545, 0.148, -0.002, 2.5, -9.52, 0.162, 0, 2.5
 313631164, -9.552, 0.144, -0.008, 2.5, -9.545, 0.148, -0.002, 2.5
 313831084, -9.489, 0.14, -0.021, 2.5, -9.552, 0.144, -0.008, 2.5
 314031004, -9.347, 0.13, -0.029, 2.5, -9.489, 0.14, -0.021, 2.5
 314230924, -9.175, 0.128, -0.027, 2.5, -9.347, 0.13, -0.029, 2.5
 314430844, -9.003, 0.144, -0.023, 2.5, -9.175, 0.128, -0.027, 2.5
 314630764, -8.823, 0.17, -0.022, 2.5, -9.003, 0.144, -0.023, 2.5
 314830684, -8.626, 0.198, -0.022, 2.5, -8.823, 0.17, -0.022, 2.5
 315031437, -8.413, 0.225, -0.023, 2.5, -8.626, 0.198, -0.022, 2.5
 315231357, -8.190001, 0.26, -0.019, 2.5, -8.413, 0.225, -0.023, 2.5
 315431277, -7.968, 0.302, -0.013, 2.5, -8.190001, 0.26, -0.019, 2.5
 315631197, -7.75, 0.349, -0.007, 2.5, -7.968, 0.302, -0.013, 2.5
 315831117, -7.527, 0.404, -0.004, 2.5, -7.75, 0.349, -0.007, 2.5
 316031037, -7.297, 0.466, -0.005, 2.5, -7.527, 0.404, -0.004, 2.5
 316230957, -7.065001, 0.535, -0.001, 2.5, -7.297, 0.466, -0.005, 2.5
 316430877, -6.833, 0.609, 0.003, 2.5, -7.065001, 0.535, -0.001, 2.5
 316630797, -6.593, 0.693, 0.005, 2.5, -6.833, 0.609, 0.003, 2.5
 316830717, -6.35, 0.7920001, 0.006, 2.5, -6.593, 0.693, 0.005, 2.5
 317031470, -6.115, 0.8930001, 0.004, 2.5, -6.35, 0.7920001, 0.006, 2.5
 317231390, -5.889, 0.9950001, 0.003, 2.5, -6.115, 0.8930001, 0.004, 2.5
 317431310, -5.661, 1.104, 0.005, 2.5, -5.889, 0.9950001, 0.003, 2.5
 317631230, -5.421, 1.22, 0.01, 2.5, -5.661, 1.104, 0.005, 2.5
 317831150, -5.176, 1.344, 0.013, 2.5, -5.421, 1.22, 0.01, 2.5
 318031070, -4.933, 1.479, 0.015, 2.5, -5.176, 1.344, 0.013, 2.5
 318230990, -4.681, 1.648, 0.017, 2.5, -4.933, 1.479, 0.015, 2.5
 318430910, -4.4, 1.861, 0.023, 2.5, -4.681, 1.648, 0.017, 2.5
 318630830, -4.083, 2.096, 0.027, 2.5, -4.4, 1.861, 0.023, 2.5
 318830750, -3.747, 2.328, 0.029, 2.5, -4.083, 2.096, 0.027, 2.5
 319030670, -3.406, 2.573, 0.032, 2.5, -3.747, 2.328, 0.029, 2.5
 319231423, -3.062, 2.832, 0.034, 2.5, -3.406, 2.573, 0.032, 2.5
 319431343, -2.721, 3.087, 0.035, 2.5, -3.062, 2.832, 0.034, 2.5
 319631263, -2.402, 3.326, 0.034, 2.5, -2.721, 3.087, 0.035, 2.5
 319831183, -2.116, 3.548, 0.032, 2.5, -2.402, 3.326, 0.034, 2.5
 320031103, -1.864, 3.762, 0.03, 2.5, -2.116, 3.548, 0.032, 2.5
 320231023, -1.637, 3.974, 0.029, 2.5, -1.864, 3.762, 0.03, 2.5
 320430943, -1.426, 4.192, 0.026, 2.5, -1.637, 3.974, 0.029, 2.5
 320630863, -1.232, 4.413, 0.024, 2.5, -1.426, 4.192, 0.026, 2.5
 320830783, -1.058, 4.639, 0.021, 2.5, -1.232, 4.413, 0.024, 2.5
 321030703, -0.906, 4.859, 0.016, 2.5, -1.058, 4.639, 0.021, 2.5
 321231456, -0.789, 5.064, 0.009000001, 2.5, -0.906, 4.859, 0.016, 2.5
 321431376, -0.7090001, 5.265, 0.004, 2.5, -0.789, 5.064, 0.009000001, 2.5
 321631296, -0.642, 5.472, 0, 2.5, -0.7090001, 5.265, 0.004, 2.5
 321831216, -0.587, 5.679, -0.005, 2.5, -0.642, 5.472, 0, 2.5
 322031136, -0.544, 5.868001, -0.008, 2.5, -0.587, 5.679, -0.005, 2.5
 322231056, -0.496, 6.036, -0.009000001, 2.5, -0.544, 5.868001, -0.008, 2.5
 322430976, -0.434, 6.207, -0.009000001, 2.5, -0.496, 6.036, -0.009000001, 2.5
 322630896, -0.377, 6.384, -0.011, 2.5, -0.434, 6.207, -0.009000001, 2.5
 322830816, -0.337, 6.546, -0.016, 2.5, -0.377, 6.384, -0.011, 2.5
 323030736, -0.304, 6.681, -0.022, 2.5, -0.337, 6.546, -0.016, 2.5
 323230656, -0.257, 6.795001, -0.023, 2.5, -0.304, 6.681, -0.022, 2.5
 323431409, -0.204, 6.899, -0.022, 2.5, -0.257, 6.795001, -0.023, 2.5
 323631329, -0.169, 6.996, -0.02, 2.5, -0.204, 6.899, -0.022, 2.5
 323831249, -0.163, 7.088, -0.016, 2.5, -0.169, 6.996, -0.02, 2.5
 324031169, -0.168, 7.187, -0.008, 2.5, -0.163, 7.088, -0.016, 2.5
 324231089, -0.169, 7.296, -0.001, 2.5, -0.168, 7.187, -0.008, 2.5
 324431009, -0.168, 7.404, 0, 2.5, -0.169, 7.296, -0.001, 2.5
 324630929, -0.169, 7.492001, -0.001, 2.5, -0.168, 7.404, 0, 2.5
 324830849, -0.171, 7.566, -0.003, 2.5, -0.169, 7.492001, -0.001, 2.5
 325030769, -0.171, 7.64, -0.003, 2.5, -0.171, 7.566, -0.003, 2.5
 325230689, -0.17, 7.716001, -0.004, 2.5, -0.171, 7.64, -0.003, 2.5
 325431442, -0.163, 7.784, -0.007, 2.5, -0.17, 7.716001, -0.004, 2.5
 325631362, -0.156, 7.836, -0.01, 2.5, -0.163, 7.784, -0.007, 2.5
 325831282, -0.152, 7.882, -0.012, 2.5, -0.156, 7.836, -0.01, 2.5
 326031202, -0.155, 7.929, -0.013, 2.5, -0.152, 7.882, -0.012, 2.5
 326231122, -0.165, 7.976, -0.017, 2.5, -0.155, 7.929, -0.013, 2.5
 326431042, -0.181, 8.021, -0.02, 2.5, -0.165, 7.976, -0.017, 2.5
 326630962, -0.193, 8.065001, -0.02, 2.5, -0.181, 8.021, -0.02, 2.5
 326830882, -0.192, 8.113, -0.019, 2.5, -0.193, 8.065001, -0.02, 2.5
 327030802, -0.174, 8.169001, -0.018, 2.5, -0.192, 8.113, -0.019, 2.5
 327230722, -0.148, 8.224, -0.014, 2.5, -0.174, 8.169001, -0.018, 2.5
 327431475, -0.118, 8.266001, -0.013, 2.5, -0.148, 8.224, -0.014, 2.5
 327631395, -0.09100001, 8.293, -0.014, 2.5, -0.118, 8.266001, -0.013, 2.5
 327831315, -0.071, 8.309, -0.012, 2.5, -0.09100001, 8.293, -0.014, 2.5
 328031235, -0.06, 8.325001, -0.007, 2.5, -0.071, 8.309, -0.012, 2.5
 328231155, -0.06500001, 8.348001, -0.001, 2.5, -0.06, 8.325001, -0.007, 2.5
 328431075, -0.072, 8.382, 0.006, 2.5, -0.06500001, 8.348001, -0.001, 2.5
 328630995, -0.083, 8.424001, 0.012, 2.5, -0.072, 8.382, 0.006, 2.5
 328830915, -0.09100001, 8.463, 0.016, 2.5, -0.083, 8.424001, 0.012, 2.5
 329030835, -0.079, 8.491, 0.018, 2.5, -0.09100001, 8.463, 0.016, 2.5
 329230755, -0.064, 8.519, 0.02, 2.5, -0.079, 8.491, 0.018, 2.5
 329430675, -0.061, 8.556001, 0.022, 2.5, -0.064, 8.519, 0.02, 2.5
 329631428, -0.061, 8.6, 0.022, 2.5, -0.061, 8.556001, 0.022, 2.5
 329831348, -0.059, 8.643001, 0.02, 2.5, -0.061, 8.6, 0.022, 2.5
 330031268, -0.063, 8.676001, 0.016, 2.5, -0.059, 8.643001, 0.02, 2.5
 330231188, -0.057, 8.701, 0.012, 2.5, -0.063, 8.676001, 0.016, 2.5
 330431108, -0.031, 8.725, 0.008, 2.5, -0.057, 8.701, 0.012, 2.5
 330631028, -0.001, 8.756001, 0.004, 2.5, -0.031, 8.725, 0.008, 2.5
 330830948, 0.014, 8.792001, 0.001, 2.5, -0.001, 8.756001, 0.004, 2.5
 331030868, 0.017, 8.829, -0.002, 2.5, 0.014, 8.792001, 0.001, 2.5
 331230788, 0.016, 8.864, -0.008, 2.5, 0.017, 8.829, -0.002, 2.5
 331430708, 0.02, 8.898001, -0.012, 2.5, 0.016, 8.864, -0.008, 2.5
 331631461, 0.027, 8.937, -0.014, 2.5, 0.02, 8.898001, -0.012, 2.5
 331831381, 0.042, 8.978001, -0.013, 2.5, 0.027, 8.937, -0.014, 2.5
 332031301, 0.056, 9.013, -0.01, 2.5, 0.042, 8.978001, -0.013, 2.5
 332231221, 0.062, 9.038, -0.007, 2.5, 0.056, 9.013, -0.01, 2.5
 332431141, 0.062, 9.06, -0.003, 2.5, 0.062, 9.038, -0.007, 2.5
 332631061, 0.06500001, 9.089001, 0, 2.5, 0.062, 9.06, -0.003, 2.5
 332830981, 0.062, 9.118, 0, 2.5, 0.06500001, 9.089001, 0, 2.5
 333030901, 0.056, 9.136001, 0.001, 2.5, 0.062, 9.118, 0, 2.5
 333230821, 0.057, 9.147, 0.003, 2.5, 0.056, 9.136001, 0.001, 2.5
 333430741, 0.06900001, 9.154, 0.004, 2.5, 0.057, 9.147, 0.003, 2.5
 333630661, 0.086, 9.161, 0.006, 2.5, 0.06900001, 9.154, 0.004, 2.5
 333831414, 0.094, 9.17, 0.008, 2.5, 0.086, 9.161, 0.006, 2.5
 334031334, 0.08800001, 9.179001, 0.013, 2.5, 0.094, 9.17, 0.008, 2.5
 334231254, 0.08000001, 9.186001, 0.016, 2.5, 0.08800001, 9.179001, 0.013, 2.5
 334431174, 0.07300001, 9.195001, 0.019, 2.5, 0.08000001, 9.186001, 0.016, 2.5
 334631094, 0.067, 9.215, 0.018, 2.5, 0.07300001, 9.195001, 0.019, 2.5
 334831014, 0.064, 9.246, 0.014, 2.5, 0.067, 9.215, 0.018, 2.5
 335030934, 0.06500001, 9.281, 0.008, 2.5, 0.064, 9.246, 0.014, 2.5
 335230854, 0.07, 9.308001, 0, 2.5, 0.06500001, 9.281, 0.008, 2.5
 335430774, 0.074, 9.326, -0.004, 2.5, 0.07, 9.308001, 0, 2.5
 335630694, 0.07600001, 9.338, -0.005, 2.5, 0.074, 9.326, -0.004, 2.5
 335831447, 0.09, 9.348001, -0.006, 2.5, 0.07600001, 9.338, -0.005, 2.5
 336031367, 0.12, 9.359, -0.008, 2.5, 0.09, 9.348001, -0.006, 2.5
 336231287, 0.14, 9.374001, -0.011, 2.5, 0.12, 9.359, -0.008, 2.5
 336431207, 0.145, 9.392, -0.014, 2.5, 0.14, 9.374001, -0.011, 2.5
 336631127, 0.146, 9.412001, -0.019, 2.5, 0.145, 9.392, -0.014, 2.5
 336831047, 0.146, 9.424001, -0.023, 2.5, 0.146, 9.412001, -0.019, 2.5
 337030967, 0.142, 9.428, -0.023, 2.5, 0.146, 9.424001, -0.023, 2.5
 337230887, 0.137, 9.42, -0.02, 2.5, 0.142, 9.428, -0.023, 2.5
 337430807, 0.135, 9.402, -0.017, 2.5, 0.137, 9.42, -0.02, 2.5
 337630727, 0.142, 9.375, -0.012, 2.5, 0.135, 9.402, -0.017, 2.5
 337831480, 0.152, 9.337001, -0.008, 2.5, 0.142, 9.375, -0.012, 2.5
 338031400, 0.149, 9.288, -0.006, 2.5, 0.152, 9.337001, -0.008, 2.5
 338231320, 0.126, 9.236, -0.006, 2.5, 0.149, 9.288, -0.006, 2.5
 338431240, 0.09500001, 9.189, -0.005, 2.5, 0.126, 9.236, -0.006, 2.5
 338631160, 0.07, 9.139001, -0.005, 2.5, 0.09500001, 9.189, -0.005, 2.5
 338831080, 0.06500001, 9.076, -0.01, 2.5, 0.07, 9.139001, -0.005, 2.5
 339031000, 0.079, 8.994, -0.015, 2.5, 0.06500001, 9.076, -0.01, 2.5
 339230920, 0.089, 8.905001, -0.018, 2.5, 0.079, 8.994, -0.015, 2.5
 339430840, 0.08400001, 8.807, -0.022, 2.5, 0.089, 8.905001, -0.018, 2.5
 339630760, 0.067, 8.695001, -0.026, 2.5, 0.08400001, 8.807, -0.022, 2.5
 339830680, 0.05, 8.570001, -0.03, 2.5, 0.067, 8.695001, -0.026, 2.5
 340031433, 0.027, 8.433001, -0.032, 2.5, 0.05, 8.570001, -0.03, 2.5
 340231353, 0.004, 8.283, -0.03, 2.5, 0.027, 8.433001, -0.032, 2.5
 340431273, -0.013, 8.129001, -0.026, 2.5, 0.004, 8.283, -0.03, 2.5
 340631193, -0.024, 7.978, -0.019, 2.5, -0.013, 8.129001, -0.026, 2.5
 340831113, -0.028, 7.823, -0.011, 2.5, -0.024, 7.978, -0.019, 2.5
 341031033, -0.018, 7.649, -0.004, 2.5, -0.028, 7.823, -0.011, 2.5
 341230953, 0.007, 7.449, 0.002, 2.5, -0.018, 7.649, -0.004, 2.5
 341430873, 0.034, 7.231, 0.008, 2.5, 0.007, 7.449, 0.002, 2.5
 341630793, 0.055, 7.007, 0.013, 2.5, 0.034, 7.231, 0.008, 2.5
 341830713, 0.075, 6.787, 0.016, 2.5, 0.055, 7.007, 0.013, 2.5
 342031466, 0.09100001, 6.579, 0.017, 2.5, 0.075, 6.787, 0.016, 2.5
 342231386, 0.09900001, 6.379, 0.016, 2.5, 0.09100001, 6.579, 0.017, 2.5
 342431306, 0.102, 6.179, 0.013, 2.5, 0.09900001, 6.379, 0.016, 2.5
 342631226, 0.1, 5.979, 0.008, 2.5, 0.102, 6.179, 0.013, 2.5
 342831146, 0.083, 5.785, 0.002, 2.5, 0.1, 5.979, 0.008, 2.5
 343031066, 0.06, 5.593, -0.002, 2.5, 0.083, 5.785, 0.002, 2.5
 343230986, 0.044, 5.394, -0.005, 2.5, 0.06, 5.593, -0.002, 2.5
 343430906, 0.018, 5.183, -0.008, 2.5, 0.044, 5.394, -0.005, 2.5
 343630826, -0.019, 4.961, -0.009000001, 2.5, 0.018, 5.183, -0.008, 2.5
 343830746, -0.033, 4.73, -0.009000001, 2.5, -0.019, 4.961, -0.009000001, 2.5
 344030666, -0.021, 4.493, -0.004, 2.5, -0.033, 4.73, -0.009000001, 2.5
 344231419, -0.015, 4.249, 0, 2.5, -0.021, 4.493, -0.004, 2.5
 344431339, -0.037, 3.997, 0.003, 2.5, -0.015, 4.249, 0, 2.5
 344631259, -0.072, 3.754, 0.003, 2.5, -0.037, 3.997, 0.003, 2.5
 344831179, -0.102, 3.527, 0.002, 2.5, -0.072, 3.754, 0.003, 2.5
 345031099, -0.115, 3.29, 0, 2.5, -0.102, 3.527, 0.002, 2.5
 345231019, -0.102, 3.039, -0.002, 2.5, -0.115, 3.29, 0, 2.5
 345430939, -0.06900001, 2.793, -0.003, 2.5, -0.102, 3.039, -0.002, 2.5
 345630859, -0.042, 2.553, -0.003, 2.5, -0.06900001, 2.793, -0.003, 2.5
 345830779, -0.025, 2.292, -0.003, 2.5, -0.042, 2.553, -0.003, 2.5
 346030699, -0.001, 1.984, 0, 2.5, -0.025, 2.292, -0.003, 2.5
 346231452, 0.046, 1.637, 0.002, 2.5, -0.001, 1.984, 0, 2.5
 346431372, 0.09, 1.283, 0.005, 2.5, 0.046, 1.637, 0.002, 2.5
 346631292, 0.085, 0.807, -0.012, 2.5, 0.09, 1.283, 0.005, 2.5
 346831212, 0.017, 0.223, -0.09100001, 2.5, 0.085, 0.807, -0.012, 2.5
 347031132, -0.078, -0.2, -0.247, 2.5, 0.017, 0.223, -0.09100001, 2.5
 347231052, -0.148, -0.367, -0.442, 2.5, -0.078, -0.2, -0.247, 2.5
 347430972, -0.192, -0.4, -0.651, 2.5, -0.148, -0.367, -0.442, 2.5
 347630892, -0.247, -0.428, -0.868, 2.5, -0.192, -0.4, -0.651, 2.5
 347830812, -0.277, -0.475, -1.082, 2.5, -0.247, -0.428, -0.868, 2.5
 348030732, -0.233, -0.487, -1.286, 2.5, -0.277, -0.475, -1.082, 2.5
 348231485, -0.161, -0.43, -1.474, 2.5, -0.233, -0.487, -1.286, 2.5
 348431405, -0.136, -0.358, -1.629, 2.5, -0.161, -0.43, -1.474, 2.5
 348631325, -0.191, -0.323, -1.752, 2.5, -0.136, -0.358, -1.629, 2.5
 348831245, -0.258, -0.287, -1.851, 2.5, -0.191, -0.323, -1.752, 2.5
 349031165, -0.238, -0.241, -1.926, 2.5, -0.258, -0.287, -1.851, 2.5
 349231085, -0.163, -0.237, -1.956, 2.5, -0.238, -0.241, -1.926, 2.5
 349431005, -0.133, -0.272, -1.825, 2.5, -0.163, -0.237, -1.956, 2.5
 349630925, -0.125, -0.271, -1.616, 2.5, -0.133, -0.272, -1.825, 2.5
 349830845, -0.097, -0.204, -1.36, 2.5, -0.125, -0.271, -1.616, 2.5
 350030765, -0.102, -0.148, -1.079, 2.5, -0.097, -0.204, -1.36, 2.5
 350230685, -0.173, -0.136, -0.813, 2.5, -0.102, -0.148, -1.079, 2.5
 350431438, -0.305, -0.165, -0.589, 2.5, -0.173, -0.136, -0.813, 2.5
 350631358, -0.512, -0.197, -0.412, 2.5, -0.305, -0.165, -0.589, 2.5
 350831278, -0.766, -0.19, -0.283, 2.5, -0.512, -0.197, -0.412, 2.5
 351031198, -0.9950001, -0.172, -0.195, 2.5, -0.766, -0.19, -0.283, 2.5
 351231118, -1.174, -0.17, -0.135, 2.5, -0.9950001, -0.172, -0.195, 2.5
 351431038, -1.323, -0.185, -0.09500001, 2.5, -1.174, -0.17, -0.135, 2.5
 351630958, -1.476, -0.233, -0.067, 2.5, -1.323, -0.185, -0.09500001, 2.5
 351830878, -1.67, -0.291, -0.048, 2.5, -1.476, -0.233, -0.067, 2.5
 352030798, -1.892, -0.313, -0.037, 2.5, -1.67, -0.291, -0.048, 2.5
 352230718, -2.103, -0.299, -0.032, 2.5, -1.892, -0.313, -0.037, 2.5
 352431471, -2.294, -0.281, -0.028, 2.5, -2.103, -0.299, -0.032, 2.5
 352631391, -2.474, -0.276, -0.024, 2.5, -2.294, -0.281, -0.028, 2.5
 352831311, -2.647, -0.279, -0.019, 2.5, -2.474, -0.276, -0.024, 2.5
 353031231, -2.821, -0.295, -0.015, 2.5, -2.647, -0.279, -0.019, 2.5
 353231151, -2.999, -0.322, -0.011, 2.5, -2.821, -0.295, -0.015, 2.5
 353431071, -3.178, -0.345, -0.007, 2.5, -2.999, -0.322, -0.011, 2.5
 353630991, -3.357, -0.368, -0.004, 2.5, -3.178, -0.345, -0.007, 2.5
 353830911, -3.546, -0.397, 0, 2.5, -3.357, -0.368, -0.004, 2.5
 354030831, -3.743, -0.423, 0.001, 2.5, -3.546, -0.397, 0, 2.5
 354230751, -3.945, -0.448, 0.003, 2.5, -3.743, -0.423, 0.001, 2.5
 354430671, -4.155, -0.474, 0.006, 2.5, -3.945, -0.448, 0.003, 2.5
 354631424, -4.366, -0.495, 0.007, 2.5, -4.155, -0.474, 0.006, 2.5
 354831344, -4.563, -0.509, 0.006, 2.5, -4.366, -0.495, 0.007, 2.5
 355031264, -4.747, -0.511, 0.006, 2.5, -4.563, -0.509, 0.006, 2.5
 355231184, -4.932, -0.5100001, 0.005, 2.5, -4.747, -0.511, 0.006, 2.5
 355431104, -5.117, -0.508, 0.007, 2.5, -4.932, -0.5100001, 0.005, 2.5
 355631024, -5.309, -0.499, 0.008, 2.5, -5.117, -0.508, 0.007, 2.5
 355830944, -5.5, -0.491, 0.009000001, 2.5, -5.309, -0.499, 0.008, 2.5
 356030864, -5.679, -0.495, 0.009000001, 2.5, -5.5, -0.491, 0.009000001, 2.5
 356230784, -5.841, -0.512, 0.007, 2.5, -5.679, -0.495, 0.009000001, 2.5
 356430704, -5.99, -0.526, 0.004, 2.5, -5.841, -0.512, 0.007, 2.5
 356631457, -6.137, -0.525, 0.003, 2.5, -5.99, -0.526, 0.004, 2.5
 356831377, -6.284, -0.53, 0.004, 2.5, -6.137, -0.525, 0.003, 2.5
 357031297, -6.419, -0.555, 0.001, 2.5, -6.284, -0.53, 0.004, 2.5
 357231217, -6.539001, -0.595, 0, 2.5, -6.419, -0.555, 0.001, 2.5
 357431137, -6.657001, -0.638, -0.001, 2.5, -6.539001, -0.595, 0, 2.5
 357631057, -6.775, -0.673, -0.002, 2.5, -6.657001, -0.638, -0.001, 2.5
 357830977, -6.886, -0.698, -0.001, 2.5, -6.775, -0.673, -0.002, 2.5
 358030897, -6.981, -0.714, -0.001, 2.5, -6.886, -0.698, -0.001, 2.5
 358230817, -7.067, -0.725, 0, 2.5, -6.981, -0.714, -0.001, 2.5
 358430737, -7.154, -0.74, 0.002, 2.5, -7.067, -0.725, 0, 2.5
 358630657, -7.24, -0.762, 0.003, 2.5, -7.154, -0.74, 0.002, 2.5
 358831410, -7.321001, -0.788, 0.001, 2.5, -7.24, -0.762, 0.003, 2.5
 359031330, -7.389, -0.823, -0.001, 2.5, -7.321001, -0.788, 0.001, 2.5
 359231250, -7.449, -0.8650001, -0.003, 2.5, -7.389, -0.823, -0.001, 2.5
 359431170, -7.509, -0.9030001, -0.004, 2.5, -7.449, -0.8650001, -0.003, 2.5
 359631090, -7.568, -0.936, -0.005, 2.5, -7.509, -0.9030001, -0.004, 2.5
 359831010, -7.624001, -0.965, -0.005, 2.5, -7.568, -0.936, -0.005, 2.5
 360030930, -7.68, -0.988, -0.004, 2.5, -7.624001, -0.965, -0.005, 2.5
 360230850, -7.736001, -1.003, -0.003, 2.5, -7.68, -0.988, -0.004, 2.5
 360430770, -7.788001, -1.011, -0.004, 2.5, -7.736001, -1.003, -0.003, 2.5
 360630690, -7.837, -1.008, -0.005, 2.5, -7.788001, -1.011, -0.004, 2.5
 360831443, -7.888, -0.987, -0.004, 2.5, -7.837, -1.008, -0.005, 2.5
 361031363, -7.949, -0.966, -0.002, 2.5, -7.888, -0.987, -0.004, 2.5
 361231283, -8.013, -0.9580001, -0.001, 2.5, -7.949, -0.966, -0.002, 2.5
 361431203, -8.070001, -0.966, 0, 2.5, -8.013, -0.9580001, -0.001, 2.5
 361631123, -8.116, -0.9760001, 0.002, 2.5, -8.070001, -0.966, 0, 2.5
 361831043, -8.160001, -0.9820001, 0.004, 2.5, -8.116, -0.9760001, 0.002, 2.5
 362030963, -8.206, -0.989, 0.006, 2.5, -8.160001, -0.9820001, 0.004, 2.5
 362230883, -8.253, -1, 0.005, 2.5, -8.206, -0.989, 0.006, 2.5
 362430803, -8.305, -1.007, 0.003, 2.5, -8.253, -1, 0.005, 2.5
 362630723, -8.355, -1.01, 0, 2.5, -8.305, -1.007, 0.003, 2.5
 362831476, -8.392, -1.014, -0.004, 2.5, -8.355, -1.01, 0, 2.5
 363031396, -8.416, -1.018, -0.004, 2.5, -8.392, -1.014, -0.004, 2.5
 363231316, -8.440001, -1.016, -0.001, 2.5, -8.416, -1.018, -0.004, 2.5
 363431236, -8.466001, -1.011, 0, 2.5, -8.440001, -1.016, -0.001, 2.5
 363631156, -8.485001, -1.011, 0.002, 2.5, -8.466001, -1.011, 0, 2.5
 363831076, -8.491, -1.007, 0.002, 2.5, -8.485001, -1.011, 0.002, 2.5
 364030996, -8.488001, -0.9900001, 0.002, 2.5, -8.491, -1.007, 0.002, 2.5
 364230916, -8.477, -0.97, 0.001, 2.5, -8.488001, -0.9900001, 0.002, 2.5
 364430836, -8.453, -0.961, -0.001, 2.5, -8.477, -0.97, 0.001, 2.5
 364630756, -8.423, -0.961, -0.001, 2.5, -8.453, -0.961, -0.001, 2.5
 364830676, -8.392, -0.961, -0.003, 2.5, -8.423, -0.961, -0.001, 2.5
 365031429, -8.356, -0.9620001, -0.003, 2.5, -8.392, -0.961, -0.003, 2.5
 365231349, -8.315001, -0.969, -0.003, 2.5, -8.356, -0.9620001, -0.003, 2.5
 365431269, -8.26, -0.9760001, -0.002, 2.5, -8.315001, -0.969, -0.003, 2.5
 365631189, -8.186001, -0.975, 0, 2.5, -8.26, -0.9760001, -0.002, 2.5
 365831109, -8.106, -0.9680001, 0.005, 2.5, -8.186001, -0.975, 0, 2.5
 366031029, -8.024, -0.9590001, 0.008, 2.5, -8.106, -0.9680001, 0.005, 2.5
 366230949, -7.932, -0.941, 0.007, 2.5, -8.024, -0.9590001, 0.008, 2.5
 366430869, -7.821001, -0.9110001, 0.005, 2.5, -7.932, -0.941, 0.007, 2.5
 366630789, -7.696001, -0.8800001, 0.003, 2.5, -7.821001, -0.9110001, 0.005, 2.5
 366830709, -7.563, -0.854, 0.003, 2.5, -7.696001, -0.8800001, 0.003, 2.5
 367031462, -7.425, -0.832, 0.002, 2.5, -7.563, -0.854, 0.003, 2.5
 367231382, -7.281, -0.809, 0, 2.5, -7.425, -0.832, 0.002, 2.5
 367431302, -7.123, -0.784, -0.004, 2.5, -7.281, -0.809, 0, 2.5
 367631222, -6.944, -0.765, -0.009000001, 2.5, -7.123, -0.784, -0.004, 2.5
 367831142, -6.75, -0.747, -0.01, 2.5, -6.944, -0.765, -0.009000001, 2.5
 368031062, -6.553, -0.725, -0.007, 2.5, -6.75, -0.747, -0.01, 2.5
 368230982, -6.356, -0.7040001, -0.003, 2.5, -6.553, -0.725, -0.007, 2.5
 368430902, -6.154, -0.683, 0, 2.5, -6.356, -0.7040001, -0.003, 2.5
 368630822, -5.947001, -0.6580001, 0, 2.5, -6.154, -0.683, 0, 2.5
 368830742, -5.736, -0.625, 0, 2.5, -5.947001, -0.6580001, 0, 2.5
