TimeUS,CGpN,CGpE,CGpD,CGpe,PGpN,PGpE,PGpD,PGpe
 170460955, 0, 0, 0, 0.01, 0, 0, 0, 0
 170630887, 0, 0, 0, 0.01, 0, 0, 0, 0.01
 170830807, 0, 0, 0, 0.01, 0, 0, 0, 0.01
 171030727, 0, 0, 0, 0.01, 0, 0, 0, 0.01
 171231480, 0, 0, 0, 0.01, 0, 0, 0, 0.01
 171431400, 0, 0, 0, 0.01, 0, 0, 0, 0.01
 171631320, 0, 0, 0, 0.01, 0, 0, 0, 0.01
 171831240, 0, 0, 0, 0.01, 0, 0, 0, 0.01
 172031160, 0, 0, 0, 0.01, 0, 0, 0, 0.01
 172231080, 0, 0, 0, 0.01, 0, 0, 0, 0.01
 172431000, 0, 0, 0, 0.01, 0, 0, 0, 0.01
 172630920, 0, 0, 0, 0.01, 0, 0, 0, 0.01
 172830840, 0, 0, 0, 0.01, 0, 0, 0, 0.01
 173030760, 0, 0, 0, 0.01, 0, 0, 0, 0.01
 173230680, 0, 0, 0, 0.01, 0, 0, 0, 0.01
 173431433, 0, 0, 0, 0.01, 0, 0, 0, 0.01
 173631353, 0, 0, 0, 0.01, 0, 0, 0, 0.01
 173831273, 0, 0, 0, 0.01, 0, 0, 0, 0.01
 174031193, 0, 0, 0, 0.01, 0, 0, 0, 0.01
 174231113, 0, 0, 0, 0.01, 0, 0, 0, 0.01
 174431033, 0, 0, 0, 0.01, 0, 0, 0, 0.01
 174630953, 0, 0, 0, 0.01, 0, 0, 0, 0.01
 174830873, 0, 0, 0, 0.01, 0, 0, 0, 0.01
 175030793, 0, 0, 0, 0.01, 0, 0, 0, 0.01
 175230713, 0, 0, 0, 0.01, 0, 0, 0, 0.01
 175431466, 0, 0, 0, 0.01, 0, 0, 0, 0.01
 175631386, 0, 0, 0, 0.01, 0, 0, 0, 0.01
 175831306, 0, 0, 0, 0.01, 0, 0, 0, 0.01
 176031226, 0, 0, 0, 0.01, 0, 0, 0, 0.01
 176231146, 0, 0, 0, 0.01, 0, 0, 0, 0.01
 176431066, 0, 0, 0, 0.01, 0, 0, 0, 0.01
 176630986, 0, 0, 0, 0.01, 0, 0, 0, 0.01
 176830906, 0, 0, 0, 0.01, 0, 0, 0, 0.01
 177030826, 0, 0, 0, 0.01, 0, 0, 0, 0.01
 177230746, 0, 0, 0, 0.01, 0, 0, 0, 0.01
 177430666, 0, 0, 0, 0.01, 0, 0, 0, 0.01
 177631419, 0, 0, 0, 0.01, 0, 0, 0, 0.01
 177831339, 0, 0, 0, 0.01, 0, 0, 0, 0.01
 178031259, 0, 0, 0, 0.01, 0, 0, 0, 0.01
 178231179, 0, 0, 0, 0.01, 0, 0, 0, 0.01
 178431099, 0, 0, 0, 0.01, 0, 0, 0, 0.01
 178631019, 0, 0, 0, 0.01, 0, 0, 0, 0.01
 178830939, 0, 0, 0, 0.01, 0, 0, 0, 0.01
 179030859, 0, 0, 0, 0.01, 0, 0, 0, 0.01
 179230779, 0, 0, 0, 0.01, 0, 0, 0, 0.01
 179430699, 0, 0, 0, 0.01, 0, 0, 0, 0.01
 179631452, 0, 0, 0, 0.01, 0, 0, 0, 0.01
 179831372, 0, 0, 0, 0.01, 0, 0, 0, 0.01
 180031292, 0, 0, 0, 0.01, 0, 0, 0, 0.01
 180231212, 0, 0, 0, 0.01, 0, 0, 0, 0.01
 180431132, 0, 0, 0, 0.01, 0, 0, 0, 0.01
 180631052, 0, 0, 0, 0.01, 0, 0, 0, 0.01
 180830972, 0, 0, 0, 0.01, 0, 0, 0, 0.01
 181030892, 0, 0, 0, 0.01, 0, 0, 0, 0.01
 181230812, 0, 0, 0, 0.01, 0, 0, 0, 0.01
 181430732, 0, 0, 0, 0.01, 0, 0, 0, 0.01
 181631485, 0, 0, 0, 0.01, 0, 0, 0, 0.01
 181831405, 0, 0, 0, 0.01, 0, 0, 0, 0.01
 182031325, 0, 0, 0, 0.01, 0, 0, 0, 0.01
 182231245, 0, 0, 0, 0.01, 0, 0, 0, 0.01
 182431165, 0, 0, 0, 0.01, 0, 0, 0, 0.01
 182631085, 0, 0, 0, 0.01, 0, 0, 0, 0.01
 182831005, 0, 0, 0, 0.01, 0, 0, 0, 0.01
 183030925, 0, 0, 0, 0.01, 0, 0, 0, 0.01
 183230845, 0, 0, 0, 0.01, 0, 0, 0, 0.01
 183430765, 0, 0, 0, 0.01, 0, 0, 0, 0.01
 183630685, 0, 0, 0, 0.01, 0, 0, 0, 0.01
 183831438, 0, 0, 0, 0.01, 0, 0, 0, 0.01
 184031358, 0, 0, 0, 0.01, 0, 0, 0, 0.01
 184231278, 0, 0, 0, 0.01, 0, 0, 0, 0.01
 184431198, 0, 0, 0, 0.01, 0, 0, 0, 0.01
 184631118, 0, 0, 0, 0.01, 0, 0, 0, 0.01
 184831038, 0, 0, 0, 0.01, 0, 0, 0, 0.01
 185030958, 0, 0, 0, 0.01, 0, 0, 0, 0.01
 185230878, 0, 0, 0, 0.01, 0, 0, 0, 0.01
 185430798, 0, 0, 0, 0.01, 0, 0, 0, 0.01
 185630718, 0, 0, 0, 0.01, 0, 0, 0, 0.01
 185831471, 0, 0, 0, 0.01, 0, 0, 0, 0.01
 186031391, 0, 0, 0, 0.01, 0, 0, 0, 0.01
 186231311, 0, 0, 0, 0.01, 0, 0, 0, 0.01
 186431231, 0, 0, 0, 0.01, 0, 0, 0, 0.01
 186631151, 0, 0, 0, 0.01, 0, 0, 0, 0.01
 186831071, 0, 0, 0, 0.01, 0, 0, 0, 0.01
 187030991, 0, 0, 0, 0.01, 0, 0, 0, 0.01
 187230911, 0, 0, 0, 0.01, 0, 0, 0, 0.01
 187430831, 0, 0, 0, 0.01, 0, 0, 0, 0.01
 187630751, 0, 0, 0, 0.01, 0, 0, 0, 0.01
 187830671, 0, 0, 0, 0.01, 0, 0, 0, 0.01
 188031424, 0, 0, 0, 0.01, 0, 0, 0, 0.01
 188231344, 0, 0, 0, 0.01, 0, 0, 0, 0.01
 188431264, 0, 0, 0, 0.01, 0, 0, 0, 0.01
 188631184, 0, 0, 0, 0.01, 0, 0, 0, 0.01
 188831104, 0, 0, 0, 0.01, 0, 0, 0, 0.01
 189031024, 0, 0, 0, 0.01, 0, 0, 0, 0.01
 189230944, 0, 0, 0, 0.01, 0, 0, 0, 0.01
 189430864, 0, 0, 0, 0.01, 0, 0, 0, 0.01
 189630784, 0, 0, 0, 0.01, 0, 0, 0, 0.01
 189830704, 0, 0, 0, 0.01, 0, 0, 0, 0.01
 190031457, 0, 0, 0, 0.01, 0, 0, 0, 0.01
 190231377, 0, 0, 0, 0.01, 0, 0, 0, 0.01
 190431297, 0, 0, 0, 0.01, 0, 0, 0, 0.01
 190631217, 0, 0, 0, 0.01, 0, 0, 0, 0.01
 190831137, 0, 0, 0, 0.01, 0, 0, 0, 0.01
 191031057, 0, 0, 0, 0.01, 0, 0, 0, 0.01
 191230977, 0, 0, 0, 0.01, 0, 0, 0, 0.01
 191430897, 0, 0, 0, 0.01, 0, 0, 0, 0.01
 191630817, 0, 0, 0, 0.01, 0, 0, 0, 0.01
 191830737, 0, 0, 0, 0.01, 0, 0, 0, 0.01
 192030657, 0, 0, 0, 0.01, 0, 0, 0, 0.01
 192231410, 0, 0, 0, 0.01, 0, 0, 0, 0.01
 192431330, 0, 0, 0, 0.01, 0, 0, 0, 0.01
 192631250, 0, 0, 0, 0.01, 0, 0, 0, 0.01
 192831170, 0, 0, 0, 0.01, 0, 0, 0, 0.01
 193031090, 0, 0, 0, 0.01, 0, 0, 0, 0.01
 193231010, 0, 0, 0, 0.01, 0, 0, 0, 0.01
 193430930, 0, 0, 0, 0.01, 0, 0, 0, 0.01
 193630850, 0, 0, 0, 0.01, 0, 0, 0, 0.01
 193830770, 0, 0, 0, 0.01, 0, 0, 0, 0.01
 194030690, 0, 0, 0, 0.01, 0, 0, 0, 0.01
 194231443, 0, 0, 0, 0.01, 0, 0, 0, 0.01
 194431363, 0, 0, 0, 0.01, 0, 0, 0, 0.01
 194631283, 0, 0, 0, 0.01, 0, 0, 0, 0.01
 194831203, 0, 0, 0, 0.01, 0, 0, 0, 0.01
 195031123, 0, 0, 0, 0.01, 0, 0, 0, 0.01
 195231043, 0, 0, 0, 0.01, 0, 0, 0, 0.01
 195430963, 0, 0, 0, 0.01, 0, 0, 0, 0.01
 195630883, 0, 0, 0, 0.01, 0, 0, 0, 0.01
 195830803, 0, 0, 0, 0.01, 0, 0, 0, 0.01
 196030723, 0, 0, 0, 0.01, 0, 0, 0, 0.01
 196231476, 0, 0, 0, 0.01, 0, 0, 0, 0.01
 196431396, 0, 0, 0, 0.01, 0, 0, 0, 0.01
 196631316, 0, 0, 0, 0.01, 0, 0, 0, 0.01
 196831236, 0, 0, 0, 0.01, 0, 0, 0, 0.01
 197031156, 0, 0, 0, 0.01, 0, 0, 0, 0.01
 197231076, 0, 0, 0, 0.01, 0, 0, 0, 0.01
 197430996, 0, 0, 0, 0.01, 0, 0, 0, 0.01
 197630916, 0, 0, 0, 0.01, 0, 0, 0, 0.01
 197830836, 0, 0, 0, 0.01, 0, 0, 0, 0.01
 198030756, 0, 0, 0, 0.01, 0, 0, 0, 0.01
 198230676, 0, 0, 0, 0.01, 0, 0, 0, 0.01
 198431429, 0, 0, 0, 0.01, 0, 0, 0, 0.01
 198631349, 0, 0, 0, 0.01, 0, 0, 0, 0.01
 198831269, 0, 0, 0, 0.01, 0, 0, 0, 0.01
 199031189, 0, 0, 0, 0.01, 0, 0, 0, 0.01
 199231109, 0, 0, 0, 0.01, 0, 0, 0, 0.01
 199431029, 0, 0, 0, 0.01, 0, 0, 0, 0.01
 199630949, 0, 0, 0, 0.01, 0, 0, 0, 0.01
 199830869, 0, 0, 0, 0.01, 0, 0, 0, 0.01
 200030789, 0, 0, 0, 0.01, 0, 0, 0, 0.01
 200230709, 0, 0, 0, 0.01, 0, 0, 0, 0.01
 200431462, 0, 0, 0, 0.01, 0, 0, 0, 0.01
 200631382, 0, 0, 0, 0.01, 0, 0, 0, 0.01
 200831302, 0, 0, 0, 0.01, 0, 0, 0, 0.01
 201031222, 0, 0, 0, 0.01, 0, 0, 0, 0.01
 201231142, 0, 0, 0, 0.01, 0, 0, 0, 0.01
 201431062, 0, 0, 0, 0.01, 0, 0, 0, 0.01
 201630982, 0, 0, 0, 0.01, 0, 0, 0, 0.01
 201830902, 0, 0, 0, 0.01, 0, 0, 0, 0.01
 202030822, 0, 0, 0, 0.01, 0, 0, 0, 0.01
 202230742, 0, 0, 0, 0.01, 0, 0, 0, 0.01
 202430662, 0, 0, 0, 0.01, 0, 0, 0, 0.01
 202631415, 0, 0, 0, 0.01, 0, 0, 0, 0.01
 202831335, 0, 0, 0, 0.01, 0, 0, 0, 0.01
 203031255, 0, 0, 0, 0.01, 0, 0, 0, 0.01
 203231175, 0, 0, 0, 0.01, 0, 0, 0, 0.01
 203431095, 0, 0, 0, 0.01, 0, 0, 0, 0.01
 203631015, 0, 0, 0, 0.01, 0, 0, 0, 0.01
 203830935, 0, 0, 0, 0.01, 0, 0, 0, 0.01
 204030855, 0, 0, 0, 0.01, 0, 0, 0, 0.01
 204230775, 0, 0, 0, 0.01, 0, 0, 0, 0.01
 204430695, 0, 0, 0, 0.01, 0, 0, 0, 0.01
 204631448, 0, 0, 0, 0.01, 0, 0, 0, 0.01
 204831368, 0, 0, 0, 0.01, 0, 0, 0, 0.01
 205031288, 0, 0, 0, 0.01, 0, 0, 0, 0.01
 205231208, 0, 0, 0, 0.01, 0, 0, 0, 0.01
 205431128, 0, 0, 0, 0.01, 0, 0, 0, 0.01
 205631048, 0, 0, 0, 0.01, 0, 0, 0, 0.01
 205830968, 0, 0, 0, 0.01, 0, 0, 0, 0.01
 206030888, 0, 0, 0, 0.01, 0, 0, 0, 0.01
 206230808, 0, 0, 0, 0.01, 0, 0, 0, 0.01
 206430728, 0, 0, 0, 0.01, 0, 0, 0, 0.01
 206631481, 0, 0, 0, 0.01, 0, 0, 0, 0.01
 206831401, 0, 0, 0, 0.01, 0, 0, 0, 0.01
 207031321, 0, 0, 0, 0.01, 0, 0, 0, 0.01
 207231241, 0, 0, 0, 0.01, 0, 0, 0, 0.01
 207431161, 0, 0, 0, 0.01, 0, 0, 0, 0.01
 207631081, 0, 0, 0, 0.01, 0, 0, 0, 0.01
 207831001, 0, 0, 0, 0.01, 0, 0, 0, 0.01
 208030921, 0, 0, 0, 0.01, 0, 0, 0, 0.01
 208230841, 0, 0, 0, 0.01, 0, 0, 0, 0.01
 208430761, 0, 0, 0, 0.01, 0, 0, 0, 0.01
 208630681, 0, 0, 0, 0.01, 0, 0, 0, 0.01
 208831434, 0, 0, 0, 0.01, 0, 0, 0, 0.01
 209031354, 0, 0, 0, 0.01, 0, 0, 0, 0.01
 209231274, 0, 0, 0, 0.01, 0, 0, 0, 0.01
 209431194, 0, 0, 0, 0.01, 0, 0, 0, 0.01
 209631114, 0, 0, 0, 0.01, 0, 0, 0, 0.01
 209831034, 0, 0, 0, 0.01, 0, 0, 0, 0.01
 210030954, 0, 0, 0, 0.01, 0, 0, 0, 0.01
 210230874, 0, 0, 0, 0.01, 0, 0, 0, 0.01
 210430794, 0, 0, 0, 0.01, 0, 0, 0, 0.01
 210630714, 0, 0, 0, 0.01, 0, 0, 0, 0.01
 210831467, 0, 0, 0, 0.01, 0, 0, 0, 0.01
 211031387, 0, 0, 0, 0.01, 0, 0, 0, 0.01
 211231307, 0, 0, 0, 0.01, 0, 0, 0, 0.01
 211431227, 0, 0, 0, 0.01, 0, 0, 0, 0.01
 211631147, 0, 0, 0, 0.01, 0, 0, 0, 0.01
 211831067, 0, 0, 0, 0.01, 0, 0, 0, 0.01
 212030987, 0, 0, 0, 0.01, 0, 0, 0, 0.01
 212230907, 0, 0, 0, 0.01, 0, 0, 0, 0.01
 212430827, 0, 0, 0, 0.01, 0, 0, 0, 0.01
 212630747, 0, 0, 0, 0.01, 0, 0, 0, 0.01
 212830667, 0, 0, 0, 0.01, 0, 0, 0, 0.01
 213031420, 0, 0, 0, 0.01, 0, 0, 0, 0.01
 213231340, 0, 0, 0, 0.01, 0, 0, 0, 0.01
 213431260, 0, 0, 0, 0.01, 0, 0, 0, 0.01
 213631180, 0, 0, 0, 0.01, 0, 0, 0, 0.01
 213831100, 0, 0, 0, 0.01, 0, 0, 0, 0.01
 214031020, 0, 0, 0, 0.01, 0, 0, 0, 0.01
 214230940, 0, 0, 0, 0.01, 0, 0, 0, 0.01
 214430860, 0, 0, 0, 0.01, 0, 0, 0, 0.01
 214630780, 0, 0, 0, 0.01, 0, 0, 0, 0.01
 214830700, 0, 0, 0, 0.01, 0, 0, 0, 0.01
 215031453, 0, 0, 0, 0.01, 0, 0, 0, 0.01
 215231373, 0, 0, 0, 0.01, 0, 0, 0, 0.01
 215431293, 0, 0, 0, 0.01, 0, 0, 0, 0.01
 215631213, 0, 0, 0, 0.01, 0, 0, 0, 0.01
 215831133, 0, 0, 0, 0.01, 0, 0, 0, 0.01
 216031053, 0, 0, 0, 0.01, 0, 0, 0, 0.01
 216230973, 0, 0, 0, 0.01, 0, 0, 0, 0.01
 216430893, 0, 0, 0, 0.01, 0, 0, 0, 0.01
 216630813, 0, 0, 0, 0.01, 0, 0, 0, 0.01
 216830733, 0, 0, 0, 0.01, 0, 0, 0, 0.01
 217031486, 0, 0, 0, 0.01, 0, 0, 0, 0.01
 217231406, 0, 0, 0, 0.01, 0, 0, 0, 0.01
 217431326, 0, 0, 0, 0.01, 0, 0, 0, 0.01
 217631246, 0, 0, 0, 0.01, 0, 0, 0, 0.01
 217831166, 0, 0, 0, 0.01, 0, 0, 0, 0.01
 218031086, 0, 0, 0, 0.01, 0, 0, 0, 0.01
 218231006, 0, 0, 0, 0.01, 0, 0, 0, 0.01
 218430926, 0, 0, 0, 0.01, 0, 0, 0, 0.01
 218630846, 0, 0, 0, 0.01, 0, 0, 0, 0.01
 218830766, 0, 0, 0, 0.01, 0, 0, 0, 0.01
 219030686, 0, 0, 0, 0.01, 0, 0, 0, 0.01
 219231439, 0, 0, 0, 0.01, 0, 0, 0, 0.01
 219431359, 0, 0, 0, 0.01, 0, 0, 0, 0.01
 219631279, 0, 0, 0, 0.01, 0, 0, 0, 0.01
 219831199, 0, 0, 0, 0.01, 0, 0, 0, 0.01
 220031119, 0, 0, 0, 0.01, 0, 0, 0, 0.01
 220231039, 0, 0, 0, 0.01, 0, 0, 0, 0.01
 220430959, 0, 0, 0, 0.01, 0, 0, 0, 0.01
 220630879, 0, 0, 0, 0.01, 0, 0, 0, 0.01
 220830799, 0, 0, 0, 0.01, 0, 0, 0, 0.01
 221030719, 0, 0, 0, 0.01, 0, 0, 0, 0.01
 221231472, 0, 0, 0, 0.01, 0, 0, 0, 0.01
 221431392, 0, 0, 0, 0.01, 0, 0, 0, 0.01
 221631312, 0, 0, 0, 0.01, 0, 0, 0, 0.01
 221831232, 0, 0, 0, 0.01, 0, 0, 0, 0.01
 222031152, 0, 0, -0.256, 0.01, 0, 0, 0, 0.01
 222231072, 0, 0, -0.282, 0.01, 0, 0, -0.256, 0.01
 222430992, 0, 0, -0.185, 0.01, 0, 0, -0.282, 0.01
 222630912, -0.003, -0.003, -1.312, 0.01, 0, 0, -0.185, 0.01
 222830832, -0.014, -0.016, -2.055, 0.01, -0.003, -0.003, -1.312, 0.01
 223030752, -0.03, -0.032, -2.182, 0.01, -0.014, -0.016, -2.055, 0.01
 223230672, -0.045, -0.048, -2.39, 0.01, -0.03, -0.032, -2.182, 0.01
 223431425, -0.058, -0.061, -2.632, 0.01, -0.045, -0.048, -2.39, 0.01
 223631345, -0.06900001, -0.071, -2.824, 0.01, -0.058, -0.061, -2.632, 0.01
 223831265, -0.078, -0.079, -2.987, 0.01, -0.06900001, -0.071, -2.824, 0.01
 224031185, -0.086, -0.086, -3.133, 0.01, -0.078, -0.079, -2.987, 0.01
 224231105, -0.09200001, -0.09, -3.262, 0.01, -0.086, -0.086, -3.133, 0.01
 224431025, -0.097, -0.094, -3.374, 0.01, -0.09200001, -0.09, -3.262, 0.01
 224630945, -0.1, -0.097, -3.473, 0.01, -0.097, -0.094, -3.374, 0.01
 224830865, -0.103, -0.09900001, -3.56, 0.01, -0.1, -0.097, -3.473, 0.01
 225030785, -0.104, -0.101, -3.636, 0.01, -0.103, -0.09900001, -3.56, 0.01
 225230705, -0.106, -0.103, -3.702, 0.01, -0.104, -0.101, -3.636, 0.01
 225431458, -0.108, -0.105, -3.76, 0.01, -0.106, -0.103, -3.702, 0.01
 225631378, -0.11, -0.107, -3.811, 0.01, -0.108, -0.105, -3.76, 0.01
 225831298, -0.111, -0.109, -3.735, 0.01, -0.11, -0.107, -3.811, 0.01
 226031218, -0.109, -0.108, -3.178, 0.01, -0.111, -0.109, -3.735, 0.01
 226231138, -0.108, -0.108, -2.691, 0.01, -0.109, -0.108, -3.178, 0.01
 226431058, -0.106, -0.109, -2.284, 0.01, -0.108, -0.108, -2.691, 0.01
 226630978, -0.102, -0.107, -1.918, 0.01, -0.106, -0.109, -2.284, 0.01
 226830898, -0.09100001, -0.094, -1.623, 0.01, -0.102, -0.107, -1.918, 0.01
 227030818, -0.07300001, -0.075, -1.385, 0.01, -0.09100001, -0.094, -1.623, 0.01
 227230738, -0.038, -0.056, -1.186, 0.01, -0.07300001, -0.075, -1.385, 0.01
 227430658, 0.057, -0.036, -1.012, 0.01, -0.038, -0.056, -1.186, 0.01
 227631411, 0.223, -0.014, -0.8570001, 0.01, 0.057, -0.036, -1.012, 0.01
 227831331, 0.428, 0.008, -0.726, 0.01, 0.223, -0.014, -0.8570001, 0.01
 228031251, 0.637, 0.029, -0.626, 0.01, 0.428, 0.008, -0.726, 0.01
 228231171, 0.835, 0.047, -0.553, 0.01, 0.637, 0.029, -0.626, 0.01
 228431091, 1.02, 0.061, -0.507, 0.01, 0.835, 0.047, -0.553, 0.01
 228631011, 1.198, 0.07300001, -0.485, 0.01, 1.02, 0.061, -0.507, 0.01
 228830931, 1.38, 0.102, -0.48, 0.01, 1.198, 0.07300001, -0.485, 0.01
 229030851, 1.568, 0.186, -0.494, 0.01, 1.38, 0.102, -0.48, 0.01
 229230771, 1.754, 0.289, -0.534, 0.01, 1.568, 0.186, -0.494, 0.01
 229430691, 1.941, 0.35, -0.589, 0.01, 1.754, 0.289, -0.534, 0.01
 229631444, 2.147, 0.352, -0.65, 0.01, 1.941, 0.35, -0.589, 0.01
 229831364, 2.368, 0.314, -0.712, 0.01, 2.147, 0.352, -0.65, 0.01
 230031284, 2.587, 0.253, -0.776, 0.01, 2.368, 0.314, -0.712, 0.01
 230231204, 2.796, 0.183, -0.8420001, 0.01, 2.587, 0.253, -0.776, 0.01
 230431124, 3.002, 0.086, -0.906, 0.01, 2.796, 0.183, -0.8420001, 0.01
 230631044, 3.209, -0.034, -0.9770001, 0.01, 3.002, 0.086, -0.906, 0.01
 230830964, 3.407, -0.118, -1.054, 0.01, 3.209, -0.034, -0.9770001, 0.01
 231030884, 3.602, -0.118, -1.126, 0.01, 3.407, -0.118, -1.054, 0.01
 231230804, 3.809, -0.034, -1.191, 0.01, 3.602, -0.118, -1.126, 0.01
 231430724, 4.026, 0.09200001, -1.252, 0.01, 3.809, -0.034, -1.191, 0.01
 231631477, 4.237, 0.219, -1.313, 0.01, 4.026, 0.09200001, -1.252, 0.01
 231831397, 4.437, 0.314, -1.377, 0.01, 4.237, 0.219, -1.313, 0.01
 232031317, 4.637, 0.363, -1.439, 0.01, 4.437, 0.314, -1.377, 0.01
 232231237, 4.846, 0.371, -1.499, 0.01, 4.637, 0.363, -1.439, 0.01
 232431157, 5.06, 0.355, -1.556, 0.01, 4.846, 0.371, -1.499, 0.01
 232631077, 5.268, 0.332, -1.609, 0.01, 5.06, 0.355, -1.556, 0.01
 232830997, 5.431, 0.319, -1.597, 0.01, 5.268, 0.332, -1.609, 0.01
 233030917, 5.502, 0.323, -1.533, 0.01, 5.431, 0.319, -1.597, 0.01
 233230837, 5.494, 0.343, -1.443, 0.01, 5.502, 0.323, -1.533, 0.01
 233430757, 5.473, 0.373, -1.341, 0.01, 5.494, 0.343, -1.443, 0.01
 233630677, 5.471, 0.401, -1.244, 0.01, 5.473, 0.373, -1.341, 0.01
 233831430, 5.48, 0.422, -1.166, 0.01, 5.471, 0.401, -1.244, 0.01
 234031350, 5.486, 0.432, -1.11, 0.01, 5.48, 0.422, -1.166, 0.01
 234231270, 5.488, 0.433, -1.073, 0.01, 5.486, 0.432, -1.11, 0.01
 234431190, 5.491, 0.43, -1.051, 0.01, 5.488, 0.433, -1.073, 0.01
 234631110, 5.498, 0.426, -1.041, 0.01, 5.491, 0.43, -1.051, 0.01
 234831030, 5.507, 0.422, -1.04, 0.01, 5.498, 0.426, -1.041, 0.01
 235030950, 5.513, 0.42, -1.042, 0.01, 5.507, 0.422, -1.04, 0.01
 235230870, 5.517, 0.419, -1.046, 0.01, 5.513, 0.42, -1.042, 0.01
 235430790, 5.52, 0.419, -1.052, 0.01, 5.517, 0.419, -1.046, 0.01
 235630710, 5.521, 0.421, -1.056, 0.01, 5.52, 0.419, -1.052, 0.01
 235831463, 5.523, 0.42, -1.059, 0.01, 5.521, 0.421, -1.056, 0.01
 236031383, 5.525, 0.417, -1.061, 0.01, 5.523, 0.42, -1.059, 0.01
 236231303, 5.527, 0.413, -1.063, 0.01, 5.525, 0.417, -1.061, 0.01
 236431223, 5.528, 0.408, -1.065, 0.01, 5.527, 0.413, -1.063, 0.01
 236631143, 5.529, 0.404, -1.067, 0.01, 5.528, 0.408, -1.065, 0.01
 236831063, 5.53, 0.401, -1.069, 0.01, 5.529, 0.404, -1.067, 0.01
 237030983, 5.529, 0.397, -1.069, 0.01, 5.53, 0.401, -1.069, 0.01
 237230903, 5.528, 0.396, -1.069, 0.01, 5.529, 0.397, -1.069, 0.01
 237430823, 5.527, 0.396, -1.069, 0.01, 5.528, 0.396, -1.069, 0.01
 237630743, 5.519, 0.397, -1.039, 0.01, 5.527, 0.396, -1.069, 0.01
 237830663, 5.522, 0.398, -1.032, 0.01, 5.519, 0.397, -1.039, 0.01
 238031416, 5.532, 0.4, -1.041, 0.01, 5.522, 0.398, -1.032, 0.01
 238231336, 5.541, 0.401, -1.055, 0.01, 5.532, 0.4, -1.041, 0.01
 238431256, 5.545, 0.399, -1.069, 0.01, 5.541, 0.401, -1.055, 0.01
 238631176, 5.546, 0.394, -1.079, 0.01, 5.545, 0.399, -1.069, 0.01
 238831096, 5.547, 0.387, -1.085, 0.01, 5.546, 0.394, -1.079, 0.01
 239031016, 5.547, 0.379, -1.087, 0.01, 5.547, 0.387, -1.085, 0.01
 239230936, 5.547, 0.373, -1.085, 0.01, 5.547, 0.379, -1.087, 0.01
 239430856, 5.545, 0.368, -1.081, 0.01, 5.547, 0.373, -1.085, 0.01
 239630776, 5.542, 0.364, -1.076, 0.01, 5.545, 0.368, -1.081, 0.01
 239830696, 5.541, 0.361, -1.072, 0.01, 5.542, 0.364, -1.076, 0.01
 240031449, 5.542, 0.358, -1.07, 0.01, 5.541, 0.361, -1.072, 0.01
 240231369, 5.543, 0.356, -1.07, 0.01, 5.542, 0.358, -1.07, 0.01
 240431289, 5.544, 0.355, -1.071, 0.01, 5.543, 0.356, -1.07, 0.01
 240631209, 5.544, 0.356, -1.072, 0.01, 5.544, 0.355, -1.071, 0.01
 240831129, 5.544, 0.356, -1.071, 0.01, 5.544, 0.356, -1.072, 0.01
 241031049, 5.544, 0.357, -1.071, 0.01, 5.544, 0.356, -1.071, 0.01
 241230969, 5.529, 0.357, -1.033, 0.01, 5.544, 0.357, -1.071, 0.01
 241430889, 5.447, 0.356, -0.89, 0.01, 5.529, 0.357, -1.033, 0.01
 241630809, 5.291, 0.354, -0.721, 0.01, 5.447, 0.356, -0.89, 0.01
 241830729, 5.106, 0.352, -0.551, 0.01, 5.291, 0.354, -0.721, 0.01
 242031482, 4.928, 0.347, -0.4, 0.01, 5.106, 0.352, -0.551, 0.01
 242231402, 4.752, 0.338, -0.266, 0.01, 4.928, 0.347, -0.4, 0.01
 242431322, 4.584, 0.322, -0.09900001, 0.01, 4.752, 0.338, -0.266, 0.01
 242631242, 4.503, 0.293, 0.066, 0.01, 4.584, 0.322, -0.09900001, 0.01
 242831162, 4.502, 0.258, 0.212, 0.01, 4.503, 0.293, 0.066, 0.01
 243031082, 4.532, 0.223, 0.333, 0.01, 4.502, 0.258, 0.212, 0.01
 243231002, 4.574, 0.193, 0.433, 0.01, 4.532, 0.223, 0.333, 0.01
 243430922, 4.633, 0.166, 0.516, 0.01, 4.574, 0.193, 0.433, 0.01
 243630842, 4.718, 0.141, 0.586, 0.01, 4.633, 0.166, 0.516, 0.01
 243830762, 4.825, 0.117, 0.645, 0.01, 4.718, 0.141, 0.586, 0.01
 244030682, 4.957, 0.093, 0.661, 0.01, 4.825, 0.117, 0.645, 0.01
 244231435, 5.064, 0.072, 0.6300001, 0.01, 4.957, 0.093, 0.661, 0.01
 244431355, 5.102, 0.057, 0.587, 0.01, 5.064, 0.072, 0.6300001, 0.01
 244631275, 5.109, 0.046, 0.552, 0.01, 5.102, 0.057, 0.587, 0.01
 244831195, 5.122, 0.036, 0.527, 0.01, 5.109, 0.046, 0.552, 0.01
 245031115, 5.144, 0.029, 0.5100001, 0.01, 5.122, 0.036, 0.527, 0.01
 245231035, 5.16, 0.025, 0.499, 0.01, 5.144, 0.029, 0.5100001, 0.01
 245430955, 5.169, 0.022, 0.494, 0.01, 5.16, 0.025, 0.499, 0.01
 245630875, 5.174, 0.02, 0.494, 0.01, 5.169, 0.022, 0.494, 0.01
 245830795, 5.18, 0.018, 0.497, 0.01, 5.174, 0.02, 0.494, 0.01
 246030715, 5.187, 0.018, 0.5, 0.01, 5.18, 0.018, 0.497, 0.01
 246231468, 5.193, 0.018, 0.504, 0.01, 5.187, 0.018, 0.5, 0.01
 246431388, 5.197, 0.019, 0.506, 0.01, 5.193, 0.018, 0.504, 0.01
 246631308, 5.2, 0.02, 0.508, 0.01, 5.197, 0.019, 0.506, 0.01
 246831228, 5.202, 0.02, 0.5100001, 0.01, 5.2, 0.02, 0.508, 0.01
 247031148, 5.203, 0.02, 0.511, 0.01, 5.202, 0.02, 0.5100001, 0.01
 247231068, 5.205, 0.02, 0.511, 0.01, 5.203, 0.02, 0.511, 0.01
 247430988, 5.207, 0.021, 0.511, 0.01, 5.205, 0.02, 0.511, 0.01
 247630908, 5.21, 0.023, 0.5100001, 0.01, 5.207, 0.021, 0.511, 0.01
 247830828, 5.21, 0.024, 0.509, 0.01, 5.21, 0.023, 0.5100001, 0.01
 248030748, 5.211, 0.025, 0.509, 0.01, 5.21, 0.024, 0.509, 0.01
 248230668, 5.212, 0.025, 0.508, 0.01, 5.211, 0.025, 0.509, 0.01
 248431421, 5.212, 0.025, 0.507, 0.01, 5.212, 0.025, 0.508, 0.01
 248631341, 5.212, 0.025, 0.506, 0.01, 5.212, 0.025, 0.507, 0.01
 248831261, 5.211, 0.025, 0.506, 0.01, 5.212, 0.025, 0.506, 0.01
 249031181, 5.21, 0.024, 0.506, 0.01, 5.211, 0.025, 0.506, 0.01
 249231101, 5.211, 0.023, 0.505, 0.01, 5.21, 0.024, 0.506, 0.01
 249431021, 5.21, 0.022, 0.505, 0.01, 5.211, 0.023, 0.505, 0.01
 249630941, 5.21, 0.02, 0.505, 0.01, 5.21, 0.022, 0.505, 0.01
 249830861, 5.21, 0.019, 0.505, 0.01, 5.21, 0.02, 0.505, 0.01
 250030781, 5.21, 0.018, 0.503, 0.01, 5.21, 0.019, 0.505, 0.01
 250230701, 5.209, 0.017, 0.502, 0.01, 5.21, 0.018, 0.503, 0.01
 250431454, 5.208, 0.016, 0.501, 0.01, 5.209, 0.017, 0.502, 0.01
 250631374, 5.203, 0.015, 0.501, 0.01, 5.208, 0.016, 0.501, 0.01
 250831294, 5.203, 0.014, 0.502, 0.01, 5.203, 0.015, 0.501, 0.01
 251031214, 5.21, 0.012, 0.502, 0.01, 5.203, 0.014, 0.502, 0.01
 251231134, 5.209, 0.011, 0.503, 0.01, 5.21, 0.012, 0.502, 0.01
 251431054, 5.201, 0.009000001, 0.503, 0.01, 5.209, 0.011, 0.503, 0.01
 251630974, 5.202, 0.008, 0.502, 0.01, 5.201, 0.009000001, 0.503, 0.01
 251830894, 5.211, 0.009000001, 0.501, 0.01, 5.202, 0.008, 0.502, 0.01
 252030814, 5.212, 0.008, 0.501, 0.01, 5.211, 0.009000001, 0.501, 0.01
 252230734, 5.205, 0.006, 0.501, 0.01, 5.212, 0.008, 0.501, 0.01
 252430654, 5.201, 0.004, 0.502, 0.01, 5.205, 0.006, 0.501, 0.01
 252631407, 5.203, 0.002, 0.504, 0.01, 5.201, 0.004, 0.502, 0.01
 252831327, 5.211, 0.003, 0.504, 0.01, 5.203, 0.002, 0.504, 0.01
 253031247, 5.212, 0.003, 0.503, 0.01, 5.211, 0.003, 0.504, 0.01
 253231167, 5.211, 0.003, 0.502, 0.01, 5.212, 0.003, 0.503, 0.01
 253431087, 5.207, 0.003, 0.501, 0.01, 5.211, 0.003, 0.502, 0.01
 253631007, 5.202, 0.003, 0.5, 0.01, 5.207, 0.003, 0.501, 0.01
 253830927, 5.211, 0.002, 0.499, 0.01, 5.202, 0.003, 0.5, 0.01
 254030847, 5.213, 0.002, 0.497, 0.01, 5.211, 0.002, 0.499, 0.01
 254230767, 5.207, 0.002, 0.495, 0.01, 5.213, 0.002, 0.497, 0.01
 254430687, 5.2, 0.002, 0.493, 0.01, 5.207, 0.002, 0.495, 0.01
 254631440, 5.202, 0.003, 0.492, 0.01, 5.2, 0.002, 0.493, 0.01
 254831360, 5.204, 0.004, 0.492, 0.01, 5.202, 0.003, 0.492, 0.01
 255031280, 5.205, 0.005, 0.493, 0.01, 5.204, 0.004, 0.492, 0.01
 255231200, 5.204, 0.004, 0.495, 0.01, 5.205, 0.005, 0.493, 0.01
 255431120, 5.204, 0.003, 0.496, 0.01, 5.204, 0.004, 0.495, 0.01
 255631040, 5.204, 0.002, 0.498, 0.01, 5.204, 0.003, 0.496, 0.01
 255830960, 5.205, 0.002, 0.499, 0.01, 5.204, 0.002, 0.498, 0.01
 256030880, 5.207, 0.001, 0.499, 0.01, 5.205, 0.002, 0.499, 0.01
 256230800, 5.213, 0.001, 0.498, 0.01, 5.207, 0.001, 0.499, 0.01
 256430720, 5.212, 0, 0.499, 0.01, 5.213, 0.001, 0.498, 0.01
 256631473, 5.2, 0, 0.5, 0.01, 5.212, 0, 0.499, 0.01
 256831393, 5.204, 0, 0.501, 0.01, 5.2, 0, 0.5, 0.01
 257031313, 5.223, 0, 0.501, 0.01, 5.204, 0, 0.501, 0.01
 257231233, 5.223, 0, 0.499, 0.01, 5.223, 0, 0.501, 0.01
 257431153, 5.212, 0, 0.499, 0.01, 5.223, 0, 0.499, 0.01
 257631073, 5.201, 0.001, 0.5, 0.01, 5.212, 0, 0.499, 0.01
 257830993, 5.212, 0.002, 0.5, 0.01, 5.201, 0.001, 0.5, 0.01
 258030913, 5.225, 0.002, 0.5, 0.01, 5.212, 0.002, 0.5, 0.01
 258230833, 5.221, 0.002, 0.498, 0.01, 5.225, 0.002, 0.5, 0.01
 258430753, 5.211, 0.002, 0.498, 0.01, 5.221, 0.002, 0.498, 0.01
 258630673, 5.202, 0.002, 0.498, 0.01, 5.211, 0.002, 0.498, 0.01
 258831426, 5.214, 0.002, 0.5, 0.01, 5.202, 0.002, 0.498, 0.01
 259031346, 5.224, 0.004, 0.5, 0.01, 5.214, 0.002, 0.5, 0.01
 259231266, 5.221, 0.004, 0.501, 0.01, 5.224, 0.004, 0.5, 0.01
 259431186, 5.212, 0.003, 0.503, 0.01, 5.221, 0.004, 0.501, 0.01
 259631106, 5.202, 0.002, 0.505, 0.01, 5.212, 0.003, 0.503, 0.01
 259831026, 5.219, 0.001, 0.507, 0.01, 5.202, 0.002, 0.505, 0.01
 260030946, 5.226, 0.001, 0.508, 0.01, 5.219, 0.001, 0.507, 0.01
 260230866, 5.221, 0.001, 0.5100001, 0.01, 5.226, 0.001, 0.508, 0.01
 260430786, 5.214, 0.001, 0.511, 0.01, 5.221, 0.001, 0.5100001, 0.01
 260630706, 5.212, 0, 0.5100001, 0.01, 5.214, 0.001, 0.511, 0.01
 260831459, 5.231, 0.001, 0.461, 0.01, 5.212, 0, 0.5100001, 0.01
 261031379, 5.175, 0.007, 0.374, 0.01, 5.231, 0.001, 0.461, 0.01
 261231299, 5.04, 0.018, 0.285, 0.01, 5.175, 0.007, 0.374, 0.01
 261431219, 4.861, 0.03, 0.207, 0.01, 5.04, 0.018, 0.285, 0.01
 261631139, 4.717, 0.043, 0.018, 0.01, 4.861, 0.03, 0.207, 0.01
 261831059, 4.662, 0.049, -0.228, 0.01, 4.717, 0.043, 0.018, 0.01
 262030979, 4.678, 0.047, -0.49, 0.01, 4.662, 0.049, -0.228, 0.01
 262230899, 4.703, 0.04, -0.7500001, 0.01, 4.678, 0.047, -0.49, 0.01
 262430819, 4.713, 0.032, -0.988, 0.01, 4.703, 0.04, -0.7500001, 0.01
 262630739, 4.73, 0.022, -1.187, 0.01, 4.713, 0.032, -0.988, 0.01
 262830659, 4.772, 0.011, -1.346, 0.01, 4.73, 0.022, -1.187, 0.01
 263031412, 4.838, 0, -1.474, 0.01, 4.772, 0.011, -1.346, 0.01
 263231332, 4.904, -0.011, -1.539, 0.01, 4.838, 0, -1.474, 0.01
 263431252, 4.927, -0.019, -1.541, 0.01, 4.904, -0.011, -1.539, 0.01
 263631172, 4.904, -0.022, -1.512, 0.01, 4.927, -0.019, -1.541, 0.01
 263831092, 4.874, -0.023, -1.465, 0.01, 4.904, -0.022, -1.512, 0.01
 264031012, 4.86, -0.023, -1.414, 0.01, 4.874, -0.023, -1.465, 0.01
 264230932, 4.857, -0.022, -1.369, 0.01, 4.86, -0.023, -1.414, 0.01
 264430852, 4.854, -0.021, -1.334, 0.01, 4.857, -0.022, -1.369, 0.01
 264630772, 4.849, -0.02, -1.308, 0.01, 4.854, -0.021, -1.334, 0.01
 264830692, 4.847, -0.019, -1.291, 0.01, 4.849, -0.02, -1.308, 0.01
 265031445, 4.848, -0.018, -1.282, 0.01, 4.847, -0.019, -1.291, 0.01
 265231365, 4.851, -0.017, -1.277, 0.01, 4.848, -0.018, -1.282, 0.01
 265431285, 4.854, -0.016, -1.277, 0.01, 4.851, -0.017, -1.277, 0.01
 265631205, 4.856, -0.015, -1.279, 0.01, 4.854, -0.016, -1.277, 0.01
 265831125, 4.857, -0.015, -1.28, 0.01, 4.856, -0.015, -1.279, 0.01
 266031045, 4.858, -0.014, -1.282, 0.01, 4.857, -0.015, -1.28, 0.01
 266230965, 4.858, -0.012, -1.284, 0.01, 4.858, -0.014, -1.282, 0.01
 266430885, 4.858, -0.01, -1.284, 0.01, 4.858, -0.012, -1.284, 0.01
 266630805, 4.86, -0.008, -1.284, 0.01, 4.858, -0.01, -1.284, 0.01
 266830725, 4.861, -0.008, -1.282, 0.01, 4.86, -0.008, -1.284, 0.01
 267031478, 4.862, -0.008, -1.281, 0.01, 4.861, -0.008, -1.282, 0.01
 267231398, 4.862, -0.007, -1.28, 0.01, 4.862, -0.008, -1.281, 0.01
 267431318, 4.863, -0.006, -1.278, 0.01, 4.862, -0.007, -1.28, 0.01
 267631238, 4.863, -0.005, -1.278, 0.01, 4.863, -0.006, -1.278, 0.01
 267831158, 4.863, -0.005, -1.277, 0.01, 4.863, -0.005, -1.278, 0.01
 268031078, 4.864, -0.005, -1.277, 0.01, 4.863, -0.005, -1.277, 0.01
 268230998, 4.864, -0.005, -1.277, 0.01, 4.864, -0.005, -1.277, 0.01
 268430918, 4.864, -0.005, -1.277, 0.01, 4.864, -0.005, -1.277, 0.01
 268630838, 4.864, -0.004, -1.276, 0.01, 4.864, -0.005, -1.277, 0.01
 268830758, 4.864, -0.004, -1.276, 0.01, 4.864, -0.004, -1.276, 0.01
 269030678, 4.864, -0.003, -1.277, 0.01, 4.864, -0.004, -1.276, 0.01
 269231431, 4.863, -0.002, -1.278, 0.01, 4.864, -0.003, -1.277, 0.01
 269431351, 4.863, -0.001, -1.278, 0.01, 4.863, -0.002, -1.278, 0.01
 269631271, 4.861, 0, -1.278, 0.01, 4.863, -0.001, -1.278, 0.01
 269831191, 4.861, 0.001, -1.277, 0.01, 4.861, 0, -1.278, 0.01
 270031111, 4.863, 0.002, -1.276, 0.01, 4.861, 0.001, -1.277, 0.01
 270231031, 4.863, 0.003, -1.275, 0.01, 4.863, 0.002, -1.276, 0.01
 270430951, 4.853, 0.003, -1.275, 0.01, 4.863, 0.003, -1.275, 0.01
 270630871, 4.86, 0.004, -1.273, 0.01, 4.853, 0.003, -1.275, 0.01
 270830791, 4.876, 0.006, -1.273, 0.01, 4.86, 0.004, -1.273, 0.01
 271030711, 4.873, 0.006, -1.274, 0.01, 4.876, 0.006, -1.273, 0.01
 271231464, 4.856, 0.006, -1.274, 0.01, 4.873, 0.006, -1.274, 0.01
 271431384, 4.852, 0.004, -1.274, 0.01, 4.856, 0.006, -1.274, 0.01
 271631304, 4.863, 0.004, -1.274, 0.01, 4.852, 0.004, -1.274, 0.01
 271831224, 4.875, 0.005, -1.274, 0.01, 4.863, 0.004, -1.274, 0.01
 272031144, 4.87, 0.005, -1.276, 0.01, 4.875, 0.005, -1.274, 0.01
 272231064, 4.854, 0.004, -1.276, 0.01, 4.87, 0.005, -1.276, 0.01
 272430984, 4.854, 0.003, -1.274, 0.01, 4.854, 0.004, -1.276, 0.01
 272630904, 4.869, 0.002, -1.274, 0.01, 4.854, 0.003, -1.274, 0.01
 272830824, 4.874, 0.003, -1.276, 0.01, 4.869, 0.002, -1.274, 0.01
 273030744, 4.868, 0.005, -1.277, 0.01, 4.874, 0.003, -1.276, 0.01
 273230664, 4.853, 0.005, -1.276, 0.01, 4.868, 0.005, -1.277, 0.01
 273431417, 4.855, 0.004, -1.274, 0.01, 4.853, 0.005, -1.276, 0.01
 273631337, 4.871, 0.004, -1.275, 0.01, 4.855, 0.004, -1.274, 0.01
 273831257, 4.872, 0.005, -1.277, 0.01, 4.871, 0.004, -1.275, 0.01
 274031177, 4.858, 0.005, -1.277, 0.01, 4.872, 0.005, -1.277, 0.01
 274231097, 4.851, 0.003, -1.274, 0.01, 4.858, 0.005, -1.277, 0.01
 274431017, 4.859, 0.002, -1.273, 0.01, 4.851, 0.003, -1.274, 0.01
 274630937, 4.873, 0.002, -1.275, 0.01, 4.859, 0.002, -1.273, 0.01
 274830857, 4.87, 0.002, -1.275, 0.01, 4.873, 0.002, -1.275, 0.01
 275030777, 4.854, 0.002, -1.274, 0.01, 4.87, 0.002, -1.275, 0.01
 275230697, 4.853, 0.001, -1.272, 0.01, 4.854, 0.002, -1.274, 0.01
 275431450, 4.868, 0, -1.272, 0.01, 4.853, 0.001, -1.272, 0.01
 275631370, 4.875, 0, -1.274, 0.01, 4.868, 0, -1.272, 0.01
 275831290, 4.87, 0.001, -1.276, 0.01, 4.875, 0, -1.274, 0.01
 276031210, 4.843, 0.001, -1.237, 0.01, 4.87, 0.001, -1.276, 0.01
 276231130, 4.769, 0.004, -1.084, 0.01, 4.843, 0.001, -1.237, 0.01
 276431050, 4.617, 0.014, -0.887, 0.01, 4.769, 0.004, -1.084, 0.01
 276630970, 4.427, 0.03, -0.6850001, 0.01, 4.617, 0.014, -0.887, 0.01
 276830890, 4.241, 0.047, -0.501, 0.01, 4.427, 0.03, -0.6850001, 0.01
 277030810, 4.063, 0.064, -0.346, 0.01, 4.241, 0.047, -0.501, 0.01
 277230730, 3.885, 0.07600001, -0.151, 0.01, 4.063, 0.064, -0.346, 0.01
 277431483, 3.789, 0.078, 0.045, 0.01, 3.885, 0.07600001, -0.151, 0.01
 277631403, 3.78, 0.07, 0.223, 0.01, 3.789, 0.078, 0.045, 0.01
 277831323, 3.811, 0.057, 0.375, 0.01, 3.78, 0.07, 0.223, 0.01
 278031243, 3.855, 0.041, 0.503, 0.01, 3.811, 0.057, 0.375, 0.01
 278231163, 3.919, 0.022, 0.611, 0.01, 3.855, 0.041, 0.503, 0.01
 278431083, 4.009, 0.002, 0.7040001, 0.01, 3.919, 0.022, 0.611, 0.01
 278631003, 4.128, -0.017, 0.7690001, 0.01, 4.009, 0.002, 0.7040001, 0.01
 278830923, 4.261, -0.036, 0.7590001, 0.01, 4.128, -0.017, 0.7690001, 0.01
 279030843, 4.332, -0.048, 0.719, 0.01, 4.261, -0.036, 0.7590001, 0.01
 279230763, 4.349, -0.056, 0.6760001, 0.01, 4.332, -0.048, 0.719, 0.01
 279430683, 4.362, -0.061, 0.641, 0.01, 4.349, -0.056, 0.6760001, 0.01
 279631436, 4.384, -0.064, 0.615, 0.01, 4.362, -0.061, 0.641, 0.01
 279831356, 4.407, -0.063, 0.597, 0.01, 4.384, -0.064, 0.615, 0.01
 280031276, 4.42, -0.06, 0.589, 0.01, 4.407, -0.063, 0.597, 0.01
 280231196, 4.429, -0.056, 0.587, 0.01, 4.42, -0.06, 0.589, 0.01
 280431116, 4.436, -0.05, 0.59, 0.01, 4.429, -0.056, 0.587, 0.01
 280631036, 4.444, -0.044, 0.594, 0.01, 4.436, -0.05, 0.59, 0.01
 280830956, 4.453, -0.038, 0.599, 0.01, 4.444, -0.044, 0.594, 0.01
 281030876, 4.46, -0.031, 0.6020001, 0.01, 4.453, -0.038, 0.599, 0.01
 281230796, 4.466, -0.025, 0.605, 0.01, 4.46, -0.031, 0.6020001, 0.01
 281430716, 4.469, -0.02, 0.606, 0.01, 4.466, -0.025, 0.605, 0.01
 281631469, 4.471, -0.014, 0.6070001, 0.01, 4.469, -0.02, 0.606, 0.01
 281831389, 4.472, -0.009000001, 0.6070001, 0.01, 4.471, -0.014, 0.6070001, 0.01
 282031309, 4.473, -0.004, 0.606, 0.01, 4.472, -0.009000001, 0.6070001, 0.01
 282231229, 4.474, 0, 0.606, 0.01, 4.473, -0.004, 0.606, 0.01
 282431149, 4.475, 0.003, 0.605, 0.01, 4.474, 0, 0.606, 0.01
 282631069, 4.476, 0.006, 0.604, 0.01, 4.475, 0.003, 0.605, 0.01
 282830989, 4.476, 0.009000001, 0.603, 0.01, 4.476, 0.006, 0.604, 0.01
 283030909, 4.476, 0.011, 0.603, 0.01, 4.476, 0.009000001, 0.603, 0.01
 283230829, 4.476, 0.013, 0.6020001, 0.01, 4.476, 0.011, 0.603, 0.01
 283430749, 4.476, 0.014, 0.601, 0.01, 4.476, 0.013, 0.6020001, 0.01
 283630669, 4.476, 0.015, 0.6020001, 0.01, 4.476, 0.014, 0.601, 0.01
 283831422, 4.476, 0.016, 0.6020001, 0.01, 4.476, 0.015, 0.6020001, 0.01
 284031342, 4.476, 0.017, 0.6020001, 0.01, 4.476, 0.016, 0.6020001, 0.01
 284231262, 4.477, 0.017, 0.601, 0.01, 4.476, 0.017, 0.6020001, 0.01
 284431182, 4.477, 0.017, 0.601, 0.01, 4.477, 0.017, 0.601, 0.01
 284631102, 4.476, 0.016, 0.6020001, 0.01, 4.477, 0.017, 0.601, 0.01
 284831022, 4.476, 0.016, 0.6020001, 0.01, 4.476, 0.016, 0.6020001, 0.01
 285030942, 4.476, 0.015, 0.6020001, 0.01, 4.476, 0.016, 0.6020001, 0.01
 285230862, 4.477, 0.014, 0.6020001, 0.01, 4.476, 0.015, 0.6020001, 0.01
 285430782, 4.477, 0.013, 0.601, 0.01, 4.477, 0.014, 0.6020001, 0.01
 285630702, 4.476, 0.012, 0.6, 0.01, 4.477, 0.013, 0.601, 0.01
 285831455, 4.476, 0.011, 0.6, 0.01, 4.476, 0.012, 0.6, 0.01
 286031375, 4.476, 0.01, 0.6, 0.01, 4.476, 0.011, 0.6, 0.01
 286231295, 4.476, 0.009000001, 0.6, 0.01, 4.476, 0.01, 0.6, 0.01
 286431215, 4.476, 0.008, 0.6, 0.01, 4.476, 0.009000001, 0.6, 0.01
 286631135, 4.476, 0.006, 0.6, 0.01, 4.476, 0.008, 0.6, 0.01
 286831055, 4.476, 0.005, 0.6, 0.01, 4.476, 0.006, 0.6, 0.01
 287030975, 4.476, 0.005, 0.6, 0.01, 4.476, 0.005, 0.6, 0.01
 287230895, 4.477, 0.004, 0.6, 0.01, 4.476, 0.005, 0.6, 0.01
 287430815, 4.477, 0.004, 0.599, 0.01, 4.477, 0.004, 0.6, 0.01
 287630735, 4.477, 0.003, 0.599, 0.01, 4.477, 0.004, 0.599, 0.01
 287830655, 4.477, 0.002, 0.598, 0.01, 4.477, 0.003, 0.599, 0.01
 288031408, 4.478, 0.002, 0.596, 0.01, 4.477, 0.002, 0.598, 0.01
 288231328, 4.478, 0.001, 0.596, 0.01, 4.478, 0.002, 0.596, 0.01
 288431248, 4.478, 0.001, 0.597, 0.01, 4.478, 0.001, 0.596, 0.01
 288631168, 4.479, 0, 0.598, 0.01, 4.478, 0.001, 0.597, 0.01
 288831088, 4.479, 0, 0.598, 0.01, 4.479, 0, 0.598, 0.01
 289031008, 4.479, 0, 0.597, 0.01, 4.479, 0, 0.598, 0.01
 289230928, 4.48, 0, 0.596, 0.01, 4.479, 0, 0.597, 0.01
 289430848, 4.479, 0, 0.595, 0.01, 4.48, 0, 0.596, 0.01
 289630768, 4.479, 0, 0.595, 0.01, 4.479, 0, 0.595, 0.01
 289830688, 4.479, 0, 0.595, 0.01, 4.479, 0, 0.595, 0.01
 290031441, 4.48, 0, 0.595, 0.01, 4.479, 0, 0.595, 0.01
 290231361, 4.48, 0, 0.595, 0.01, 4.48, 0, 0.595, 0.01
 290431281, 4.48, 0, 0.596, 0.01, 4.48, 0, 0.595, 0.01
 290631201, 4.48, 0, 0.596, 0.01, 4.48, 0, 0.596, 0.01
 290831121, 4.48, 0, 0.596, 0.01, 4.48, 0, 0.596, 0.01
 291031041, 4.48, 0, 0.595, 0.01, 4.48, 0, 0.596, 0.01
 291230961, 4.48, 0, 0.595, 0.01, 4.48, 0, 0.595, 0.01
 291430881, 4.481, 0, 0.596, 0.01, 4.48, 0, 0.595, 0.01
 291630801, 4.481, 0, 0.597, 0.01, 4.481, 0, 0.596, 0.01
 291830721, 4.482, 0, 0.598, 0.01, 4.481, 0, 0.597, 0.01
 292031474, 4.483, 0, 0.598, 0.01, 4.482, 0, 0.598, 0.01
 292231394, 4.483, 0, 0.6, 0.01, 4.483, 0, 0.598, 0.01
 292431314, 4.484, 0, 0.6, 0.01, 4.483, 0, 0.6, 0.01
 292631234, 4.512, 0, 0.512, 0.01, 4.484, 0, 0.6, 0.01
 292831154, 4.558, 0, 0.334, 0.01, 4.512, 0, 0.512, 0.01
 293031074, 4.593, -0.001, 0.133, 0.01, 4.558, 0, 0.334, 0.01
 293230994, 4.621, -0.003, -0.063, 0.01, 4.593, -0.001, 0.133, 0.01
 293430914, 4.657, -0.008, -0.24, 0.01, 4.621, -0.003, -0.063, 0.01
 293630834, 4.704, -0.013, -0.393, 0.01, 4.657, -0.008, -0.24, 0.01
 293830754, 4.759, -0.018, -0.521, 0.01, 4.704, -0.013, -0.393, 0.01
 294030674, 4.821, -0.023, -0.626, 0.01, 4.759, -0.018, -0.521, 0.01
 294231427, 4.893, -0.028, -0.7130001, 0.01, 4.821, -0.023, -0.626, 0.01
 294431347, 4.976, -0.034, -0.785, 0.01, 4.893, -0.028, -0.7130001, 0.01
 294631267, 5.073, -0.041, -0.848, 0.01, 4.976, -0.034, -0.785, 0.01
 294831187, 5.181, -0.047, -0.906, 0.01, 5.073, -0.041, -0.848, 0.01
 295031107, 5.299, -0.054, -0.96, 0.01, 5.181, -0.047, -0.906, 0.01
 295231027, 5.426, -0.06, -1.012, 0.01, 5.299, -0.054, -0.96, 0.01
 295430947, 5.563, -0.066, -1.063, 0.01, 5.426, -0.06, -1.012, 0.01
 295630867, 5.707, -0.072, -1.109, 0.01, 5.563, -0.066, -1.063, 0.01
 295830787, 5.85, -0.07700001, -1.146, 0.01, 5.707, -0.072, -1.109, 0.01
 296030707, 5.988, -0.079, -1.177, 0.01, 5.85, -0.07700001, -1.146, 0.01
 296231460, 6.12, -0.08000001, -1.2, 0.01, 5.988, -0.079, -1.177, 0.01
 296431380, 6.247, -0.079, -1.215, 0.01, 6.12, -0.08000001, -1.2, 0.01
 296631300, 6.371, -0.07700001, -1.226, 0.01, 6.247, -0.079, -1.215, 0.01
 296831220, 6.492, -0.07300001, -1.233, 0.01, 6.371, -0.07700001, -1.226, 0.01
 297031140, 6.609, -0.06900001, -1.239, 0.01, 6.492, -0.07300001, -1.233, 0.01
 297231060, 6.707, -0.064, -1.22, 0.01, 6.609, -0.06900001, -1.239, 0.01
 297430980, 6.75, -0.054, -1.153, 0.01, 6.707, -0.064, -1.22, 0.01
 297630900, 6.736001, -0.037, -1.07, 0.01, 6.75, -0.054, -1.153, 0.01
 297830820, 6.707, -0.018, -0.9850001, 0.01, 6.736001, -0.037, -1.07, 0.01
 298030740, 6.697001, 0, -0.914, 0.01, 6.707, -0.018, -0.9850001, 0.01
 298230660, 6.703001, 0.016, -0.8650001, 0.01, 6.697001, 0, -0.914, 0.01
 298431413, 6.714, 0.031, -0.837, 0.01, 6.703001, 0.016, -0.8650001, 0.01
 298631333, 6.722, 0.044, -0.827, 0.01, 6.714, 0.031, -0.837, 0.01
 298831253, 6.727, 0.054, -0.827, 0.01, 6.722, 0.044, -0.827, 0.01
 299031173, 6.734, 0.062, -0.832, 0.01, 6.727, 0.054, -0.827, 0.01
 299231093, 6.742, 0.068, -0.84, 0.01, 6.734, 0.062, -0.832, 0.01
 299431013, 6.747, 0.07300001, -0.848, 0.01, 6.742, 0.068, -0.84, 0.01
 299630933, 6.748, 0.07600001, -0.854, 0.01, 6.747, 0.07300001, -0.848, 0.01
 299830853, 6.745, 0.078, -0.8560001, 0.01, 6.748, 0.07600001, -0.854, 0.01
 300030773, 6.743001, 0.08000001, -0.858, 0.01, 6.745, 0.078, -0.8560001, 0.01
 300230693, 6.741, 0.08000001, -0.858, 0.01, 6.743001, 0.08000001, -0.858, 0.01
 300431446, 6.738, 0.079, -0.855, 0.01, 6.741, 0.08000001, -0.858, 0.01
 300631366, 6.735, 0.07600001, -0.854, 0.01, 6.738, 0.079, -0.855, 0.01
 300831286, 6.732, 0.07300001, -0.851, 0.01, 6.735, 0.07600001, -0.854, 0.01
 301031206, 6.729, 0.071, -0.848, 0.01, 6.732, 0.07300001, -0.851, 0.01
 301231126, 6.727, 0.067, -0.8470001, 0.01, 6.729, 0.071, -0.848, 0.01
 301431046, 6.726, 0.063, -0.846, 0.01, 6.727, 0.067, -0.8470001, 0.01
 301630966, 6.725, 0.059, -0.845, 0.01, 6.726, 0.063, -0.846, 0.01
 301830886, 6.724, 0.054, -0.845, 0.01, 6.725, 0.059, -0.845, 0.01
 302030806, 6.723001, 0.049, -0.845, 0.01, 6.724, 0.054, -0.845, 0.01
 302230726, 6.722, 0.044, -0.8430001, 0.01, 6.723001, 0.049, -0.845, 0.01
 302431479, 6.721, 0.039, -0.841, 0.01, 6.722, 0.044, -0.8430001, 0.01
 302631399, 6.716001, 0.035, -0.84, 0.01, 6.721, 0.039, -0.841, 0.01
 302831319, 6.717, 0.03, -0.839, 0.01, 6.716001, 0.035, -0.84, 0.01
 303031239, 6.695, 0.027, -0.776, 0.01, 6.717, 0.03, -0.839, 0.01
 303231159, 6.591, 0.029, -0.657, 0.01, 6.695, 0.027, -0.776, 0.01
 303431079, 6.42, 0.039, -0.525, 0.01, 6.591, 0.029, -0.657, 0.01
 303630999, 6.237, 0.053, -0.394, 0.01, 6.42, 0.039, -0.525, 0.01
 303830919, 6.065, 0.067, -0.281, 0.01, 6.237, 0.053, -0.394, 0.01
 304030839, 5.895, 0.081, -0.193, 0.01, 6.065, 0.067, -0.281, 0.01
 304230759, 5.714, 0.094, -0.128, 0.01, 5.895, 0.081, -0.193, 0.01
 304430679, 5.522, 0.106, -0.083, 0.01, 5.714, 0.094, -0.128, 0.01
 304631432, 5.316, 0.114, -0.011, 0.01, 5.522, 0.106, -0.083, 0.01
 304831352, 5.165, 0.113, 0.102, 0.01, 5.316, 0.114, -0.011, 0.01
 305031272, 5.123, 0.101, 0.223, 0.01, 5.165, 0.113, 0.102, 0.01
 305231192, 5.144, 0.083, 0.331, 0.01, 5.123, 0.101, 0.223, 0.01
 305431112, 5.178, 0.061, 0.423, 0.01, 5.144, 0.083, 0.331, 0.01
 305631032, 5.223, 0.037, 0.503, 0.01, 5.178, 0.061, 0.423, 0.01
 305830952, 5.296, 0.009000001, 0.56, 0.01, 5.223, 0.037, 0.503, 0.01
 306030872, 5.387, -0.019, 0.564, 0.01, 5.296, 0.009000001, 0.56, 0.01
 306230792, 5.434, -0.043, 0.543, 0.01, 5.387, -0.019, 0.564, 0.01
 306430712, 5.442, -0.061, 0.518, 0.01, 5.434, -0.043, 0.543, 0.01
 306631465, 5.447, -0.07600001, 0.497, 0.01, 5.442, -0.061, 0.518, 0.01
 306831385, 5.462, -0.08800001, 0.481, 0.01, 5.447, -0.07600001, 0.497, 0.01
 307031305, 5.48, -0.09500001, 0.47, 0.01, 5.462, -0.08800001, 0.481, 0.01
 307231225, 5.493, -0.1, 0.465, 0.01, 5.48, -0.09500001, 0.47, 0.01
 307431145, 5.499, -0.104, 0.463, 0.01, 5.493, -0.1, 0.465, 0.01
 307631065, 5.506, -0.106, 0.465, 0.01, 5.499, -0.104, 0.463, 0.01
 307830985, 5.513, -0.105, 0.467, 0.01, 5.506, -0.106, 0.465, 0.01
 308030905, 5.521, -0.103, 0.469, 0.01, 5.513, -0.105, 0.467, 0.01
 308230825, 5.529, -0.09900001, 0.472, 0.01, 5.521, -0.103, 0.469, 0.01
 308430745, 5.535, -0.094, 0.474, 0.01, 5.529, -0.09900001, 0.472, 0.01
 308630665, 5.54, -0.08800001, 0.475, 0.01, 5.535, -0.094, 0.474, 0.01
 308831418, 5.545, -0.082, 0.474, 0.01, 5.54, -0.08800001, 0.475, 0.01
 309031338, 5.549, -0.075, 0.474, 0.01, 5.545, -0.082, 0.474, 0.01
 309231258, 5.55, -0.06900001, 0.474, 0.01, 5.549, -0.075, 0.474, 0.01
 309431178, 5.553, -0.062, 0.473, 0.01, 5.55, -0.06900001, 0.474, 0.01
 309631098, 5.557, -0.056, 0.473, 0.01, 5.553, -0.062, 0.473, 0.01
 309831018, 5.56, -0.047, 0.472, 0.01, 5.557, -0.056, 0.473, 0.01
 310030938, 5.562, -0.037, 0.471, 0.01, 5.56, -0.047, 0.472, 0.01
 310230858, 5.563, -0.027, 0.47, 0.01, 5.562, -0.037, 0.471, 0.01
 310430778, 5.563, -0.016, 0.47, 0.01, 5.563, -0.027, 0.47, 0.01
 310630698, 5.563, -0.007, 0.469, 0.01, 5.563, -0.016, 0.47, 0.01
 310831451, 5.563, 0, 0.468, 0.01, 5.563, -0.007, 0.469, 0.01
 311031371, 5.562, 0.004, 0.468, 0.01, 5.563, 0, 0.468, 0.01
 311231291, 5.562, 0.008, 0.468, 0.01, 5.562, 0.004, 0.468, 0.01
 311431211, 5.563, 0.012, 0.467, 0.01, 5.562, 0.008, 0.468, 0.01
 311631131, 5.562, 0.016, 0.467, 0.01, 5.563, 0.012, 0.467, 0.01
 311831051, 5.561, 0.019, 0.466, 0.01, 5.562, 0.016, 0.467, 0.01
 312030971, 5.559, 0.022, 0.467, 0.01, 5.561, 0.019, 0.466, 0.01
 312230891, 5.558, 0.024, 0.467, 0.01, 5.559, 0.022, 0.467, 0.01
 312430811, 5.556, 0.026, 0.468, 0.01, 5.558, 0.024, 0.467, 0.01
 312630731, 5.555, 0.027, 0.469, 0.01, 5.556, 0.026, 0.468, 0.01
 312831484, 5.554, 0.027, 0.469, 0.01, 5.555, 0.027, 0.469, 0.01
 313031404, 5.553, 0.028, 0.469, 0.01, 5.554, 0.027, 0.469, 0.01
 313231324, 5.552, 0.027, 0.469, 0.01, 5.553, 0.028, 0.469, 0.01
 313431244, 5.552, 0.027, 0.468, 0.01, 5.552, 0.027, 0.469, 0.01
 313631164, 5.548, 0.026, 0.468, 0.01, 5.552, 0.027, 0.468, 0.01
 313831084, 5.543, 0.025, 0.468, 0.01, 5.548, 0.026, 0.468, 0.01
 314031004, 5.562, 0.024, 0.468, 0.01, 5.543, 0.025, 0.468, 0.01
 314230924, 5.561, 0.023, 0.467, 0.01, 5.562, 0.024, 0.468, 0.01
 314430844, 5.528, 0.021, 0.467, 0.01, 5.561, 0.023, 0.467, 0.01
 314630764, 5.528, 0.02, 0.467, 0.01, 5.528, 0.021, 0.467, 0.01
 314830684, 5.559, 0.019, 0.465, 0.01, 5.528, 0.02, 0.467, 0.01
 315031437, 5.572, 0.019, 0.462, 0.01, 5.559, 0.019, 0.465, 0.01
 315231357, 5.545, 0.018, 0.462, 0.01, 5.572, 0.019, 0.462, 0.01
 315431277, 5.523, 0.015, 0.464, 0.01, 5.545, 0.018, 0.462, 0.01
 315631197, 5.531, 0.014, 0.466, 0.01, 5.523, 0.015, 0.464, 0.01
 315831117, 5.559, 0.013, 0.465, 0.01, 5.531, 0.014, 0.466, 0.01
 316031037, 5.567, 0.013, 0.464, 0.01, 5.559, 0.013, 0.465, 0.01
 316230957, 5.536, 0.011, 0.464, 0.01, 5.567, 0.013, 0.464, 0.01
 316430877, 5.524, 0.01, 0.466, 0.01, 5.536, 0.011, 0.464, 0.01
 316630797, 5.535, 0.009000001, 0.466, 0.01, 5.524, 0.01, 0.466, 0.01
 316830717, 5.567, 0.009000001, 0.465, 0.01, 5.535, 0.009000001, 0.466, 0.01
 317031470, 5.566, 0.009000001, 0.463, 0.01, 5.567, 0.009000001, 0.465, 0.01
 317231390, 5.531, 0.008, 0.464, 0.01, 5.566, 0.009000001, 0.463, 0.01
 317431310, 5.526, 0.007, 0.467, 0.01, 5.531, 0.008, 0.464, 0.01
 317631230, 5.54, 0.007, 0.468, 0.01, 5.526, 0.007, 0.467, 0.01
 317831150, 5.569, 0.006, 0.468, 0.01, 5.54, 0.007, 0.468, 0.01
 318031070, 5.564, 0.005, 0.466, 0.01, 5.569, 0.006, 0.468, 0.01
 318230990, 5.529, 0.005, 0.466, 0.01, 5.564, 0.005, 0.466, 0.01
 318430910, 5.528, 0.005, 0.468, 0.01, 5.529, 0.005, 0.466, 0.01
 318630830, 5.551, 0.005, 0.468, 0.01, 5.528, 0.005, 0.468, 0.01
 318830750, 5.571, 0.005, 0.466, 0.01, 5.551, 0.005, 0.468, 0.01
 319030670, 5.557, 0.004, 0.465, 0.01, 5.571, 0.005, 0.466, 0.01
 319231423, 5.527, 0.003, 0.465, 0.01, 5.557, 0.004, 0.465, 0.01
 319431343, 5.532, 0.003, 0.466, 0.01, 5.527, 0.003, 0.465, 0.01
 319631263, 5.563, 0.003, 0.466, 0.01, 5.532, 0.003, 0.466, 0.01
 319831183, 5.57, 0.003, 0.464, 0.01, 5.563, 0.003, 0.466, 0.01
 320031103, 5.545, 0.002, 0.464, 0.01, 5.57, 0.003, 0.464, 0.01
 320231023, 5.526, 0.002, 0.466, 0.01, 5.545, 0.002, 0.464, 0.01
 320430943, 5.535, 0.002, 0.467, 0.01, 5.526, 0.002, 0.466, 0.01
 320630863, 5.567, 0.002, 0.467, 0.01, 5.535, 0.002, 0.467, 0.01
 320830783, 5.567, 0.003, 0.466, 0.01, 5.567, 0.002, 0.467, 0.01
 321030703, 5.534, 0.003, 0.466, 0.01, 5.567, 0.003, 0.466, 0.01
 321231456, 5.527, 0.002, 0.467, 0.01, 5.534, 0.003, 0.466, 0.01
 321431376, 5.542, 0.002, 0.467, 0.01, 5.527, 0.002, 0.467, 0.01
 321631296, 5.57, 0.003, 0.466, 0.01, 5.542, 0.002, 0.467, 0.01
 321831216, 5.56, 0.003, 0.464, 0.01, 5.57, 0.003, 0.466, 0.01
 322031136, 5.526, 0.003, 0.464, 0.01, 5.56, 0.003, 0.464, 0.01
 322231056, 5.527, 0.003, 0.466, 0.01, 5.526, 0.003, 0.464, 0.01
 322430976, 5.543, 0.004, 0.466, 0.01, 5.527, 0.003, 0.466, 0.01
 322630896, 5.567, 0.006, 0.464, 0.01, 5.543, 0.004, 0.466, 0.01
 322830816, 5.544, 0.006, 0.461, 0.01, 5.567, 0.006, 0.464, 0.01
 323030736, 5.522, 0.004, 0.461, 0.01, 5.544, 0.006, 0.461, 0.01
 323230656, 5.529, 0.003, 0.462, 0.01, 5.522, 0.004, 0.461, 0.01
 323431409, 5.548, 0.004, 0.462, 0.01, 5.529, 0.003, 0.462, 0.01
 323631329, 5.567, 0.004, 0.461, 0.01, 5.548, 0.004, 0.462, 0.01
 323831249, 5.537, 0.003, 0.462, 0.01, 5.567, 0.004, 0.461, 0.01
 324031169, 5.523, 0.002, 0.466, 0.01, 5.537, 0.003, 0.462, 0.01
 324231089, 5.533, 0.002, 0.469, 0.01, 5.523, 0.002, 0.466, 0.01
 324431009, 5.566, 0.003, 0.47, 0.01, 5.533, 0.002, 0.469, 0.01
 324630929, 5.576, 0.004, 0.438, 0.01, 5.566, 0.003, 0.47, 0.01
 324830849, 5.525, 0.009000001, 0.362, 0.01, 5.576, 0.004, 0.438, 0.01
 325030769, 5.388, 0.02, 0.279, 0.01, 5.525, 0.009000001, 0.362, 0.01
 325230689, 5.224, 0.034, 0.207, 0.01, 5.388, 0.02, 0.279, 0.01
 325431442, 5.052, 0.05, 0.147, 0.01, 5.224, 0.034, 0.207, 0.01
 325631362, 4.862, 0.06500001, 0.132, 0.01, 5.052, 0.05, 0.147, 0.01
 325831282, 4.694, 0.074, 0.2, 0.01, 4.862, 0.06500001, 0.132, 0.01
 326031202, 4.62, 0.07300001, 0.301, 0.01, 4.694, 0.074, 0.2, 0.01
 326231122, 4.613, 0.066, 0.409, 0.01, 4.62, 0.07300001, 0.301, 0.01
 326431042, 4.627, 0.055, 0.511, 0.01, 4.613, 0.066, 0.409, 0.01
 326630962, 4.66, 0.041, 0.574, 0.01, 4.627, 0.055, 0.511, 0.01
 326830882, 4.691, 0.027, 0.6, 0.01, 4.66, 0.041, 0.574, 0.01
 327030802, 4.7, 0.015, 0.603, 0.01, 4.691, 0.027, 0.6, 0.01
 327230722, 4.7, 0.004, 0.597, 0.01, 4.7, 0.015, 0.603, 0.01
 327431475, 4.704, -0.004, 0.586, 0.01, 4.7, 0.004, 0.597, 0.01
 327631395, 4.711, -0.013, 0.572, 0.01, 4.704, -0.004, 0.586, 0.01
 327831315, 4.715, -0.02, 0.561, 0.01, 4.711, -0.013, 0.572, 0.01
 328031235, 4.717, -0.026, 0.554, 0.01, 4.715, -0.02, 0.561, 0.01
 328231155, 4.717, -0.031, 0.551, 0.01, 4.717, -0.026, 0.554, 0.01
 328431075, 4.719, -0.035, 0.55, 0.01, 4.717, -0.031, 0.551, 0.01
 328630995, 4.722, -0.037, 0.551, 0.01, 4.719, -0.035, 0.55, 0.01
 328830915, 4.725, -0.039, 0.553, 0.01, 4.722, -0.037, 0.551, 0.01
 329030835, 4.728, -0.04, 0.555, 0.01, 4.725, -0.039, 0.553, 0.01
 329230755, 4.731, -0.04, 0.557, 0.01, 4.728, -0.04, 0.555, 0.01
 329430675, 4.734, -0.039, 0.558, 0.01, 4.731, -0.04, 0.557, 0.01
 329631428, 4.736, -0.037, 0.559, 0.01, 4.734, -0.039, 0.558, 0.01
 329831348, 4.738, -0.035, 0.56, 0.01, 4.736, -0.037, 0.559, 0.01
 330031268, 4.74, -0.033, 0.56, 0.01, 4.738, -0.035, 0.56, 0.01
 330231188, 4.741, -0.031, 0.559, 0.01, 4.74, -0.033, 0.56, 0.01
 330431108, 4.742, -0.029, 0.558, 0.01, 4.741, -0.031, 0.559, 0.01
 330631028, 4.742, -0.026, 0.557, 0.01, 4.742, -0.029, 0.558, 0.01
 330830948, 4.742, -0.023, 0.557, 0.01, 4.742, -0.026, 0.557, 0.01
 331030868, 4.743, -0.021, 0.5560001, 0.01, 4.742, -0.023, 0.557, 0.01
 331230788, 4.743, -0.018, 0.5560001, 0.01, 4.743, -0.021, 0.5560001, 0.01
 331430708, 4.743, -0.016, 0.5560001, 0.01, 4.743, -0.018, 0.5560001, 0.01
 331631461, 4.742, -0.013, 0.557, 0.01, 4.743, -0.016, 0.5560001, 0.01
 331831381, 4.742, -0.011, 0.558, 0.01, 4.742, -0.013, 0.557, 0.01
 332031301, 4.742, -0.008, 0.559, 0.01, 4.742, -0.011, 0.558, 0.01
 332231221, 4.741, -0.007, 0.56, 0.01, 4.742, -0.008, 0.559, 0.01
 332431141, 4.742, -0.005, 0.561, 0.01, 4.741, -0.007, 0.56, 0.01
 332631061, 4.742, -0.003, 0.56, 0.01, 4.742, -0.005, 0.561, 0.01
 332830981, 4.741, -0.002, 0.559, 0.01, 4.742, -0.003, 0.56, 0.01
 333030901, 4.741, -0.001, 0.559, 0.01, 4.741, -0.002, 0.559, 0.01
 333230821, 4.74, 0, 0.56, 0.01, 4.741, -0.001, 0.559, 0.01
 333430741, 4.74, 0, 0.559, 0.01, 4.74, 0, 0.56, 0.01
 333630661, 4.739, 0, 0.56, 0.01, 4.74, 0, 0.559, 0.01
 333831414, 4.739, 0.001, 0.56, 0.01, 4.739, 0, 0.56, 0.01
 334031334, 4.738, 0.001, 0.561, 0.01, 4.739, 0.001, 0.56, 0.01
 334231254, 4.737, 0.002, 0.562, 0.01, 4.738, 0.001, 0.561, 0.01
 334431174, 4.737, 0.003, 0.563, 0.01, 4.737, 0.002, 0.562, 0.01
 334631094, 4.737, 0.003, 0.562, 0.01, 4.737, 0.003, 0.563, 0.01
 334831014, 4.737, 0.004, 0.56, 0.01, 4.737, 0.003, 0.562, 0.01
 335030934, 4.736, 0.004, 0.559, 0.01, 4.737, 0.004, 0.56, 0.01
 335230854, 4.736, 0.004, 0.558, 0.01, 4.736, 0.004, 0.559, 0.01
 335430774, 4.735, 0.004, 0.558, 0.01, 4.736, 0.004, 0.558, 0.01
 335630694, 4.734, 0.004, 0.558, 0.01, 4.735, 0.004, 0.558, 0.01
 335831447, 4.733, 0.004, 0.558, 0.01, 4.734, 0.004, 0.558, 0.01
 336031367, 4.733, 0.005, 0.557, 0.01, 4.733, 0.004, 0.558, 0.01
 336231287, 4.732, 0.005, 0.5560001, 0.01, 4.733, 0.005, 0.557, 0.01
 336431207, 4.731, 0.005, 0.555, 0.01, 4.732, 0.005, 0.5560001, 0.01
 336631127, 4.731, 0.006, 0.554, 0.01, 4.731, 0.005, 0.555, 0.01
 336831047, 4.73, 0.006, 0.554, 0.01, 4.731, 0.006, 0.554, 0.01
 337030967, 4.729, 0.006, 0.5560001, 0.01, 4.73, 0.006, 0.554, 0.01
 337230887, 4.729, 0.006, 0.557, 0.01, 4.729, 0.006, 0.5560001, 0.01
 337430807, 4.729, 0.006, 0.558, 0.01, 4.729, 0.006, 0.557, 0.01
 337630727, 4.729, 0.005, 0.56, 0.01, 4.729, 0.006, 0.558, 0.01
 337831480, 4.73, 0.004, 0.561, 0.01, 4.729, 0.005, 0.56, 0.01
 338031400, 4.73, 0.004, 0.562, 0.01, 4.73, 0.004, 0.561, 0.01
 338231320, 4.73, 0.003, 0.561, 0.01, 4.73, 0.004, 0.562, 0.01
 338431240, 4.729, 0.004, 0.561, 0.01, 4.73, 0.003, 0.561, 0.01
 338631160, 4.728, 0.004, 0.561, 0.01, 4.729, 0.004, 0.561, 0.01
 338831080, 4.729, 0.004, 0.559, 0.01, 4.728, 0.004, 0.561, 0.01
 339031000, 4.728, 0.004, 0.557, 0.01, 4.729, 0.004, 0.559, 0.01
 339230920, 4.727, 0.003, 0.5560001, 0.01, 4.728, 0.004, 0.557, 0.01
 339430840, 4.726, 0.003, 0.555, 0.01, 4.727, 0.003, 0.5560001, 0.01
 339630760, 4.725, 0.002, 0.554, 0.01, 4.726, 0.003, 0.555, 0.01
 339830680, 4.724, 0.001, 0.553, 0.01, 4.725, 0.002, 0.554, 0.01
 340031433, 4.723, 0.001, 0.552, 0.01, 4.724, 0.001, 0.553, 0.01
 340231353, 4.722, 0, 0.553, 0.01, 4.723, 0.001, 0.552, 0.01
 340431273, 4.721, 0, 0.554, 0.01, 4.722, 0, 0.553, 0.01
 340631193, 4.721, 0, 0.5560001, 0.01, 4.721, 0, 0.554, 0.01
 340831113, 4.723, 0.001, 0.558, 0.01, 4.721, 0, 0.5560001, 0.01
 341031033, 4.724, 0.001, 0.561, 0.01, 4.723, 0.001, 0.558, 0.01
 341230953, 4.729, 0, 0.562, 0.01, 4.724, 0.001, 0.561, 0.01
 341430873, 4.734, -0.002, 0.563, 0.01, 4.729, 0, 0.562, 0.01
 341630793, 4.73, -0.003, 0.563, 0.01, 4.734, -0.002, 0.563, 0.01
 341830713, 4.702, -0.004, 0.563, 0.01, 4.73, -0.003, 0.563, 0.01
 342031466, 4.757, -0.002, 0.563, 0.01, 4.702, -0.004, 0.563, 0.01
 342231386, 4.768, -0.001, 0.561, 0.01, 4.757, -0.002, 0.563, 0.01
 342431306, 4.721, 0, 0.5470001, 0.01, 4.768, -0.001, 0.561, 0.01
 342631226, 4.687, 0, 0.526, 0.01, 4.721, 0, 0.5470001, 0.01
 342831146, 4.767, 0, 0.508, 0.01, 4.687, 0, 0.526, 0.01
 343031066, 4.793, 0, 0.492, 0.01, 4.767, 0, 0.508, 0.01
 343230986, 4.825, -0.002, 0.487, 0.01, 4.793, 0, 0.492, 0.01
 343430906, 4.867, -0.005, 0.492, 0.01, 4.825, -0.002, 0.487, 0.01
 343630826, 4.884, -0.01, 0.504, 0.01, 4.867, -0.005, 0.492, 0.01
 343830746, 4.963, -0.014, 0.524, 0.01, 4.884, -0.01, 0.504, 0.01
 344030666, 5.068, -0.019, 0.548, 0.01, 4.963, -0.014, 0.524, 0.01
 344231419, 5.151, -0.023, 0.573, 0.01, 5.068, -0.019, 0.548, 0.01
 344431339, 5.243, -0.029, 0.6020001, 0.01, 5.151, -0.023, 0.573, 0.01
 344631259, 5.354, -0.036, 0.632, 0.01, 5.243, -0.029, 0.6020001, 0.01
 344831179, 5.479, -0.041, 0.657, 0.01, 5.354, -0.036, 0.632, 0.01
 345031099, 5.619, -0.045, 0.626, 0.01, 5.479, -0.041, 0.657, 0.01
 345231019, 5.69, -0.044, 0.5700001, 0.01, 5.619, -0.045, 0.626, 0.01
 345430939, 5.692, -0.038, 0.52, 0.01, 5.69, -0.044, 0.5700001, 0.01
 345630859, 5.684, -0.03, 0.485, 0.01, 5.692, -0.038, 0.52, 0.01
 345830779, 5.691, -0.022, 0.461, 0.01, 5.684, -0.03, 0.485, 0.01
 346030699, 5.701, -0.014, 0.447, 0.01, 5.691, -0.022, 0.461, 0.01
 346231452, 5.704, -0.006, 0.441, 0.01, 5.701, -0.014, 0.447, 0.01
 346431372, 5.702, 0, 0.441, 0.01, 5.704, -0.006, 0.441, 0.01
 346631292, 5.701, 0.006, 0.444, 0.01, 5.702, 0, 0.441, 0.01
 346831212, 5.7, 0.012, 0.447, 0.01, 5.701, 0.006, 0.444, 0.01
 347031132, 5.699, 0.016, 0.45, 0.01, 5.7, 0.012, 0.447, 0.01
 347231052, 5.697001, 0.021, 0.454, 0.01, 5.699, 0.016, 0.45, 0.01
 347430972, 5.696, 0.025, 0.457, 0.01, 5.697001, 0.021, 0.454, 0.01
 347630892, 5.697001, 0.028, 0.457, 0.01, 5.696, 0.025, 0.457, 0.01
 347830812, 5.696, 0.03, 0.454, 0.01, 5.697001, 0.028, 0.457, 0.01
 348030732, 5.692, 0.031, 0.451, 0.01, 5.696, 0.03, 0.454, 0.01
 348231485, 5.688, 0.032, 0.448, 0.01, 5.692, 0.031, 0.451, 0.01
 348431405, 5.684, 0.032, 0.445, 0.01, 5.688, 0.032, 0.448, 0.01
 348631325, 5.68, 0.032, 0.444, 0.01, 5.684, 0.032, 0.445, 0.01
 348831245, 5.674, 0.032, 0.445, 0.01, 5.68, 0.032, 0.444, 0.01
 349031165, 5.67, 0.03, 0.447, 0.01, 5.674, 0.032, 0.445, 0.01
 349231085, 5.671, 0.029, 0.449, 0.01, 5.67, 0.03, 0.447, 0.01
 349431005, 5.672, 0.027, 0.45, 0.01, 5.671, 0.029, 0.449, 0.01
 349630925, 5.672, 0.025, 0.452, 0.01, 5.672, 0.027, 0.45, 0.01
 349830845, 5.671, 0.023, 0.454, 0.01, 5.672, 0.025, 0.452, 0.01
 350030765, 5.67, 0.021, 0.455, 0.01, 5.671, 0.023, 0.454, 0.01
 350230685, 5.671, 0.019, 0.456, 0.01, 5.67, 0.021, 0.455, 0.01
 350431438, 5.672, 0.016, 0.456, 0.01, 5.671, 0.019, 0.456, 0.01
 350631358, 5.697001, 0.014, 0.455, 0.01, 5.672, 0.016, 0.456, 0.01
 350831278, 5.65, 0.011, 0.454, 0.01, 5.697001, 0.014, 0.455, 0.01
 351031198, 5.639, 0.01, 0.452, 0.01, 5.65, 0.011, 0.454, 0.01
 351231118, 5.695, 0.009000001, 0.449, 0.01, 5.639, 0.01, 0.452, 0.01
 351431038, 5.722, 0.008, 0.444, 0.01, 5.695, 0.009000001, 0.449, 0.01
 351630958, 5.672, 0.006, 0.44, 0.01, 5.722, 0.008, 0.444, 0.01
 351830878, 5.623, 0.005, 0.443, 0.01, 5.672, 0.006, 0.44, 0.01
 352030798, 5.638, 0.004, 0.447, 0.01, 5.623, 0.005, 0.443, 0.01
 352230718, 5.694, 0.004, 0.448, 0.01, 5.638, 0.004, 0.447, 0.01
 352431471, 5.715, 0.003, 0.448, 0.01, 5.694, 0.004, 0.448, 0.01
 352631391, 5.66, 0.002, 0.45, 0.01, 5.715, 0.003, 0.448, 0.01
 352831311, 5.628, 0, 0.455, 0.01, 5.66, 0.002, 0.45, 0.01
 353031231, 5.648, 0, 0.46, 0.01, 5.628, 0, 0.455, 0.01
 353231151, 5.714, 0, 0.46, 0.01, 5.648, 0, 0.46, 0.01
 353431071, 5.715, -0.001, 0.457, 0.01, 5.714, 0, 0.46, 0.01
 353630991, 5.66, -0.002, 0.457, 0.01, 5.715, -0.001, 0.457, 0.01
 353830911, 5.635, -0.003, 0.459, 0.01, 5.66, -0.002, 0.457, 0.01
 354030831, 5.666, -0.002, 0.459, 0.01, 5.635, -0.003, 0.459, 0.01
 354230751, 5.723, -0.002, 0.456, 0.01, 5.666, -0.002, 0.459, 0.01
 354430671, 5.711, -0.001, 0.453, 0.01, 5.723, -0.002, 0.456, 0.01
 354631424, 5.644, -0.002, 0.454, 0.01, 5.711, -0.001, 0.453, 0.01
 354831344, 5.637, -0.002, 0.457, 0.01, 5.644, -0.002, 0.454, 0.01
 355031264, 5.687, -0.001, 0.457, 0.01, 5.637, -0.002, 0.457, 0.01
 355231184, 5.724, -0.001, 0.452, 0.01, 5.687, -0.001, 0.457, 0.01
 355431104, 5.704, -0.001, 0.446, 0.01, 5.724, -0.001, 0.452, 0.01
 355631024, 5.637, -0.001, 0.444, 0.01, 5.704, -0.001, 0.446, 0.01
 355830944, 5.639, 0, 0.445, 0.01, 5.637, -0.001, 0.444, 0.01
 356030864, 5.688, 0, 0.444, 0.01, 5.639, 0, 0.445, 0.01
 356230784, 5.717, 0.001, 0.443, 0.01, 5.688, 0, 0.444, 0.01
 356430704, 5.67, 0.001, 0.441, 0.01, 5.717, 0.001, 0.443, 0.01
 356631457, 5.626, 0.001, 0.443, 0.01, 5.67, 0.001, 0.441, 0.01
 356831377, 5.641, 0.001, 0.443, 0.01, 5.626, 0.001, 0.443, 0.01
 357031297, 5.694, 0.001, 0.44, 0.01, 5.641, 0.001, 0.443, 0.01
 357231217, 5.711, 0.001, 0.439, 0.01, 5.694, 0.001, 0.44, 0.01
 357431137, 5.64, 0, 0.44, 0.01, 5.711, 0.001, 0.439, 0.01
 357631057, 5.623, 0, 0.446, 0.01, 5.64, 0, 0.44, 0.01
 357830977, 5.645, 0, 0.452, 0.01, 5.623, 0, 0.446, 0.01
 358030897, 5.705, 0, 0.451, 0.01, 5.645, 0, 0.452, 0.01
 358230817, 5.711, 0.001, 0.448, 0.01, 5.705, 0, 0.451, 0.01
 358430737, 5.641, 0, 0.45, 0.01, 5.711, 0.001, 0.448, 0.01
 358630657, 5.627, 0, 0.456, 0.01, 5.641, 0, 0.45, 0.01
 358831410, 5.651, 0, 0.46, 0.01, 5.627, 0, 0.456, 0.01
 359031330, 5.715, 0, 0.46, 0.01, 5.651, 0, 0.46, 0.01
 359231250, 5.709, -0.001, 0.46, 0.01, 5.715, 0, 0.46, 0.01
 359431170, 5.641, -0.002, 0.462, 0.01, 5.709, -0.001, 0.46, 0.01
 359631090, 5.636, -0.003, 0.466, 0.01, 5.641, -0.002, 0.462, 0.01
 359831010, 5.688, -0.003, 0.464, 0.01, 5.636, -0.003, 0.466, 0.01
 360030930, 5.723, -0.003, 0.457, 0.01, 5.688, -0.003, 0.464, 0.01
 360230850, 5.699, -0.003, 0.449, 0.01, 5.723, -0.003, 0.457, 0.01
 360430770, 5.633, -0.004, 0.445, 0.01, 5.699, -0.003, 0.449, 0.01
 360630690, 5.637, -0.004, 0.445, 0.01, 5.633, -0.004, 0.445, 0.01
 360831443, 5.674, -0.003, 0.441, 0.01, 5.637, -0.004, 0.445, 0.01
 361031363, 5.713, -0.002, 0.437, 0.01, 5.674, -0.003, 0.441, 0.01
 361231283, 5.656, -0.002, 0.436, 0.01, 5.713, -0.002, 0.437, 0.01
 361431203, 5.62, -0.003, 0.441, 0.01, 5.656, -0.002, 0.436, 0.01
 361631123, 5.636, -0.003, 0.446, 0.01, 5.62, -0.003, 0.441, 0.01
 361831043, 5.679, -0.002, 0.448, 0.01, 5.636, -0.003, 0.446, 0.01
 362030963, 5.714, -0.001, 0.447, 0.01, 5.679, -0.002, 0.448, 0.01
 362230883, 5.656, -0.001, 0.449, 0.01, 5.714, -0.001, 0.447, 0.01
 362430803, 5.623, -0.001, 0.453, 0.01, 5.656, -0.001, 0.449, 0.01
 362630723, 5.643, -0.001, 0.456, 0.01, 5.623, -0.001, 0.453, 0.01
 362831476, 5.704, -0.001, 0.452, 0.01, 5.643, -0.001, 0.456, 0.01
 363031396, 5.725, 0, 0.411, 0.01, 5.704, -0.001, 0.452, 0.01
 363231316, 5.683, 0, 0.286, 0.01, 5.725, 0, 0.411, 0.01
 363431236, 5.54, 0.006, 0.104, 0.01, 5.683, 0, 0.286, 0.01
 363631156, 5.4, 0.015, -0.101, 0.01, 5.54, 0.006, 0.104, 0.01
 363831076, 5.247, 0.026, -0.322, 0.01, 5.4, 0.015, -0.101, 0.01
 364030996, 5.07, 0.037, -0.549, 0.01, 5.247, 0.026, -0.322, 0.01
 364230916, 4.869, 0.047, -0.7780001, 0.01, 5.07, 0.037, -0.549, 0.01
 364430836, 4.649, 0.056, -1.004, 0.01, 4.869, 0.047, -0.7780001, 0.01
 364630756, 4.416, 0.063, -1.217, 0.01, 4.649, 0.056, -1.004, 0.01
 364830676, 4.172, 0.068, -1.417, 0.01, 4.416, 0.063, -1.217, 0.01
 365031429, 3.917, 0.071, -1.588, 0.01, 4.172, 0.068, -1.417, 0.01
 365231349, 3.652, 0.071, -1.724, 0.01, 3.917, 0.071, -1.588, 0.01
 365431269, 3.38, 0.07, -1.83, 0.01, 3.652, 0.071, -1.724, 0.01
 365631189, 3.103, 0.066, -1.911, 0.01, 3.38, 0.07, -1.83, 0.01
 365831109, 2.819, 0.061, -1.96, 0.01, 3.103, 0.066, -1.911, 0.01
 366031029, 2.525, 0.054, -1.848, 0.01, 2.819, 0.061, -1.96, 0.01
 366230949, 2.226, 0.045, -1.646, 0.01, 2.525, 0.054, -1.848, 0.01
 366430869, 1.919, 0.035, -1.39, 0.01, 2.226, 0.045, -1.646, 0.01
 366630789, 1.596, 0.027, -1.103, 0.01, 1.919, 0.035, -1.39, 0.01
 366830709, 1.253, 0.02, -0.8290001, 0.01, 1.596, 0.027, -1.103, 0.01
 367031462, 0.92, 0.013, -0.596, 0.01, 1.253, 0.02, -0.8290001, 0.01
 367231382, 0.628, 0.001, -0.413, 0.01, 0.92, 0.013, -0.596, 0.01
 367431302, 0.377, -0.014, -0.277, 0.01, 0.628, 0.001, -0.413, 0.01
 367631222, 0.139, -0.03, -0.181, 0.01, 0.377, -0.014, -0.277, 0.01
 367831142, -0.09900001, -0.046, -0.116, 0.01, 0.139, -0.03, -0.181, 0.01
 368031062, -0.334, -0.06, -0.07600001, 0.01, -0.09900001, -0.046, -0.116, 0.01
 368230982, -0.561, -0.072, -0.052, 0.01, -0.334, -0.06, -0.07600001, 0.01
 368430902, -0.776, -0.081, -0.038, 0.01, -0.561, -0.072, -0.052, 0.01
 368630822, -0.97, -0.08800001, -0.031, 0.01, -0.776, -0.081, -0.038, 0.01
 368830742, -1.143, -0.09200001, -0.028, 0.01, -0.97, -0.08800001, -0.031, 0.01
 369030662, -1.301, -0.094, -0.025, 0.01, -1.143, -0.09200001, -0.028, 0.01
 369231415, -1.454, -0.096, -0.022, 0.01, -1.301, -0.094, -0.025, 0.01
 369431335, -1.613, -0.097, -0.018, 0.01, -1.454, -0.096, -0.022, 0.01
 369631255, -1.779, -0.09500001, -0.015, 0.01, -1.613, -0.097, -0.018, 0.01
 369831175, -1.947, -0.09200001, -0.012, 0.01, -1.779, -0.09500001, -0.015, 0.01
 370031095, -2.117, -0.08800001, -0.009000001, 0.01, -1.947, -0.09200001, -0.012, 0.01
 370231015, -2.291, -0.083, -0.006, 0.01, -2.117, -0.08800001, -0.009000001, 0.01
 370430935, -2.47, -0.078, -0.003, 0.01, -2.291, -0.083, -0.006, 0.01
 370630855, -2.654, -0.072, -0.001, 0.01, -2.47, -0.078, -0.003, 0.01
