TimeUS,CAN,CAE,CAD,CAe
 139874028, -0.002777133, 0.003517507, 4.291725E-05, 0.0002593962
 139993980, -0.003279727, 0.004164831, -0.0001387137, 0.0003112754
 140093940, -0.002544117, 0.003483377, 4.573899E-05, 0.0002593962
 140193900, -0.001906514, 0.003254821, 0.0001021453, 0.0002593962
 140293860, 0.03074588, -6.020587E-05, -0.0002773415, 0.0002593962
 140393820, 0.1075676, -0.008056605, -0.000258533, 0.0002593962
 140493780, 0.2057944, -0.01928994, 0.001770656, 0.0002593962
 140593740, 0.3122976, -0.03121905, 0.004762308, 0.0002593962
 140693700, 0.4196454, -0.04276171, 0.008081272, 0.0002593962
 140793660, 0.5268656, -0.05435605, 0.01062917, 0.0002593962
 140893620, 0.6281035, -0.06420166, 0.01238106, 0.0002593962
 140993580, 0.7267284, -0.07659738, 0.01488402, 0.0002593962
 141093540, 0.8226318, -0.09039491, 0.01686359, 0.0002593962
 141193500, 0.9108297, -0.09295706, 0.01906086, 0.0002593962
 141294293, 0.9666039, -0.1062606, 0.02126971, 0.0002615578
 141394253, 0.9549648, -0.0977757, 0.02261114, 0.0002593962
 141494213, 0.930346, -0.09783696, 0.02265696, 0.0002593962
 141594173, 0.88745, -0.09456483, 0.02220082, 0.0002593962
 141694133, 0.8387585, -0.08297634, 0.02100408, 0.0002593962
 141794093, 0.7905235, -0.08422633, 0.01844302, 0.0002593962
 141894053, 0.7446834, -0.07941224, -0.02317299, 0.0002593962
 141994013, 0.6885943, -0.07306108, -0.04017853, 0.0002593962
 142113965, 0.7771886, -0.0761269, 0.004152467, 0.0003112754
 142213925, 0.5946852, -0.06356594, 0.03027368, 0.0002593962
 142313885, 0.927801, -0.1010831, -0.3138102, 0.0002593962
 142413845, 0.8559763, -0.09488334, -0.6158574, 0.0002593962
 142513805, 0.788045, -0.101334, -0.5790988, 0.0002593962
 142613765, 0.7263406, -0.09201903, -0.4117796, 0.0002593962
 142713725, 0.6835502, -0.07367785, -0.2670984, 0.0002593962
 142813685, 0.6521364, -0.05198311, -0.1885074, 0.0002593962
 142913645, 0.6096543, -0.04416315, -0.2021275, 0.0002593962
 143013605, 0.5712129, -0.04820234, -0.1899795, 0.0002593962
 143113565, 0.5330097, -0.05668283, -0.198674, 0.0002593962
 143213525, 0.491229, -0.0608646, -0.2179799, 0.0002593962
 143313485, 0.4527347, -0.05719639, -0.2059096, 0.0002593962
 143414278, 0.4231618, -0.05098369, -0.1955123, 0.0002615578
 143514238, 0.3858961, -0.04895844, -0.1781555, 0.0002593962
 143614198, 0.3634982, -0.04391596, -0.1641402, 0.0002593962
 143714158, 0.3327481, -0.03355135, -0.140182, 0.0002593962
 143814118, 0.3042998, -0.03708953, -0.1644605, 0.0002593962
 143914078, 0.2669094, -0.03832655, -0.1807159, 0.0002593962
 144014038, 0.2456932, -0.03059514, -0.1694124, 0.0002593962
 144113998, 0.2401234, -0.01161822, -0.1248533, 0.0002593962
 144233950, 0.251324, -0.00427937, -0.1730046, 0.0003112754
 144333910, 0.1892635, 1.776405E-05, -0.1251383, 0.0002593962
 144433870, 0.1786819, -0.002239178, -0.11365, 0.0002593962
 144533830, 0.1649921, -0.02870541, -0.07192231, 0.0002593962
 144633790, 0.1493703, -0.0286864, -0.05974672, 0.0002593962
 144733750, 0.1376258, -0.02013551, -0.06197019, 0.0002593962
 144833710, 0.1346179, -0.00632507, -0.02716498, 0.0002593962
 144933670, 0.1263127, -0.002223116, -0.03814732, 0.0002593962
 145033630, 0.1092155, -0.00223915, -0.05999367, 0.0002593962
 145133590, 0.08859408, -0.01145319, -0.08151852, 0.0002593962
 145233550, 0.08257639, -0.005763431, -0.06623065, 0.0002593962
 145333510, 0.0841644, -0.002317773, -0.03977099, 0.0002593962
 145434303, 0.09117988, 0.001359338, -0.001312951, 0.0002593962
 145534263, 0.06833371, 0.003790566, -0.02201357, 0.0002615578
 145634223, 0.05049643, -0.009192158, -0.03650751, 0.0002593962
 145734183, 0.04846308, -0.0126773, -0.01903116, 0.0002593962
 145834143, 0.04557289, -0.004515117, -0.03333725, 0.0002593962
 145934103, 0.02319345, -0.01000461, -0.06925255, 0.0002593962
 146034063, 0.01603993, -0.009982257, -0.07189961, 0.0002593962
 146134023, 0.03575956, -0.007931934, -0.0114656, 0.0002593962
 146253975, 0.05129258, -0.007800734, 0.05373264, 0.0003112754
 146353935, 0.03496508, 0.003751477, 0.007182967, 0.0002593962
 146453895, 0.02251893, -0.005556421, -0.02650796, 0.0002593962
 146553855, 0.02968313, -0.006826871, -0.0009348181, 0.0002593962
 146653815, 0.0279988, 0.001991281, 0.009272308, 0.0002593962
 146753775, 0.03090822, 0.01614787, 0.01052434, 0.0002593962
 146853735, 0.0164483, 0.02771565, -0.01640131, 0.0002593962
 146953695, 0.01956422, 0.01828714, -0.006367672, 0.0002593962
 147053655, 0.01253488, 0.003621825, -0.03320586, 0.0002593962
 147153615, 0.02294418, -0.008452329, 0.03454188, 0.0002593962
 147253575, 0.02684914, -0.003438434, 0.04681865, 0.0002593962
 147353535, 0.01493738, -0.007721896, 0.01355645, 0.0002593962
 147453495, 0.009250974, -0.006387591, -0.01124924, 0.0002593962
 147554288, -0.004765756, -0.0121486, -0.04011475, 0.0002615578
 147654248, 0.002503277, -0.01148827, -0.03501479, 0.0002593962
 147754208, 0.0117347, -0.003164122, 0.005553989, 0.0002593962
 147854168, 0.02404509, -0.004827025, 0.05440001, 0.0002593962
 147954128, 0.01874538, 0.007529887, 0.04493365, 0.0002593962
 148054088, 0.008024515, 0.01499253, 0.0005745305, 0.0002593962
 148154048, 0.01169798, -0.002873772, 0.0237752, 0.0002593962
 148254008, 0.006267559, -0.02698475, 0.001483886, 0.0002593962
 148373960, -0.005410817, -0.01573123, -0.04456156, 0.0003112754
 148473920, 0.002392211, -0.0003770403, -0.01360364, 0.0002593962
 148573880, 0.006667862, -0.003449467, 0.0248198, 0.0002593962
 148673840, 0.01334089, -0.0004573308, 0.03190945, 0.0002593962
 148773800, 0.002459499, -0.002851248, -0.002322574, 0.0002593962
 148873760, 0.004599605, -0.008335208, -0.002168808, 0.0002593962
 148973720, -1.385901E-05, 0.006675306, 0.05039481, 0.0002593962
 149073680, -0.02065136, 0.004477131, 0.03932884, 0.0002593962
 149173640, -0.03326181, 0.01294298, 0.007284426, 0.0002593962
 149273600, -0.03878762, -0.003398125, -0.01325647, 0.0002593962
 149373560, -0.02696868, -0.002191595, 0.0186632, 0.0002593962
 149473520, -0.01155522, 0.001003841, 0.04278557, 0.0002593962
 149573480, -0.01419959, 0.007658249, 0.0258492, 0.0002593962
 149674273, -0.003101205, 0.006768335, 0.03584525, 0.0002615578
 149774233, 0.008594217, -0.001908347, 0.06589938, 0.0002593962
 149874193, 0.01673971, 0.002286792, 0.09945993, 0.0002593962
 149974153, 0.01242083, 0.0112261, 0.05060318, 0.0002593962
 150074113, -0.002965601, 0.004783306, -0.01836672, 0.0002593962
 150174073, -0.01323983, 0.0181534, -0.04375475, 0.0002593962
 150274033, -0.005044264, 0.01989407, -0.03647758, 0.0002593962
 150373993, -0.002318775, 0.01052634, -0.006969133, 0.0002593962
 150493945, 0.008748052, 0.01232373, 0.02375844, 0.0003112754
 150593905, 0.003654767, 0.002168644, 0.01024697, 0.0002593962
 150693865, -0.0003173567, -0.014498, -0.006152514, 0.0002593962
 150793825, -0.0002931929, -0.005377539, -0.002593633, 0.0002593962
 150893785, 0.006320223, 0.006003881, 0.02746988, 0.0002593962
 150993745, 0.02026244, 0.001531686, 0.07718235, 0.0002593962
 151093705, 0.02547414, -0.01320196, 0.08436356, 0.0002593962
 151193665, 0.01037763, -0.006534377, 0.0378603, 0.0002593962
 151293625, -0.01089267, -0.004285868, -0.04603139, 0.0002593962
 151393585, -0.00276506, 0.005864416, -0.02316105, 0.0002593962
 151493545, 0.00223619, 0.003983072, 0.01415072, 0.0002593962
 151593505, 0.0004624703, 0.01055092, -0.0372357, 0.0002593962
 151694298, -0.009652953, 0.004734891, -0.05365467, 0.0002593962
 151794258, -0.008117147, -0.000401159, -0.03587436, 0.0002615578
 151894218, 0.006691734, -0.01110615, 0.02078246, 0.0002593962
 151994178, -0.0003805659, -0.0129635, 0.02439052, 0.0002593962
 152094138, -0.003856026, -0.0001289428, 0.02414499, 0.0002593962
 152194098, -0.002465535, -0.001278535, 0.04760625, 0.0002593962
 152294058, -0.007538767, -0.01078444, 0.01868974, 0.0002593962
 152394018, -0.01090973, -0.01649368, -0.01906706, 0.0002593962
 152513970, 0.004576831, -0.005740269, 0.06784468, 0.0003112754
 152613930, 0.01485324, 0.002453484, 0.07361896, 0.0002593962
 152713890, -0.001231099, 0.01474239, -0.005763141, 0.0002593962
 152813850, -0.004134898, -0.000991276, -0.01933724, 0.0002593962
 152913810, -0.0122904, -0.00791258, -0.04264767, 0.0002593962
 153013770, -0.006016721, 0.008075055, -0.02475323, 0.0002593962
 153113730, 0.00793517, 0.001613547, -0.00296945, 0.0002593962
 153213690, 0.01249129, -0.003747075, 0.04070025, 0.0002593962
 153313650, 0.01534533, -0.006073818, 0.04279557, 0.0002593962
 153413610, 0.006547833, -0.001356275, 0.02163032, 0.0002593962
 153513570, 0.008120934, 6.997853E-05, 0.04160596, 0.0002593962
 153613530, 0.001998846, 0.003195684, 0.03984156, 0.0002593962
 153713490, 0.003131417, 0.0009905081, 0.01245682, 0.0002593962
 153814283, -0.0005617411, -0.001262581, -0.008458564, 0.0002615578
 153914243, -0.01380329, -0.0002164508, -0.04843171, 0.0002593962
 154014203, 0.002489806, 0.003990945, 0.01356499, 0.0002593962
 154114163, 0.0008643821, -0.0004111255, 0.02280911, 0.0002593962
 154214123, -0.002377352, -0.001618494, 0.01204502, 0.0002593962
 154314083, 0.00170614, 0.001903195, 0.02258334, 0.0002593962
 154414043, -0.004301392, 0.005516101, 0.003207163, 0.0002593962
 154514003, -0.003463939, 0.01204166, -0.01908299, 0.0002593962
 154633955, -0.005696963, 0.0119709, -0.01870884, 0.0003112754
 154733915, -0.008384959, 0.008756428, 0.007533072, 0.0002593962
 154833875, -0.0003928074, 0.002268211, 0.03476525, 0.0002593962
 154933835, 0.01386627, -0.007035086, 0.05058955, 0.0002593962
 155033795, 0.01246697, -0.008080523, 0.05045441, 0.0002593962
 155133755, 0.001552199, -0.0001363615, 0.007260535, 0.0002593962
 155233715, 0.008408598, -0.00761529, 0.003033044, 0.0002593962
 155333675, 0.003213753, 0.004423654, 0.01578581, 0.0002593962
 155433635, 0.002717545, -0.008545332, 0.02565017, 0.0002593962
 155533595, -0.009030515, -0.009354957, -0.0401777, 0.0002593962
 155633555, 0.0006920769, -0.0007529409, -0.002523271, 0.0002593962
 155733515, 0.001039247, -0.004425912, -0.002629573, 0.0002593962
 155833475, 0.004079694, -0.002606861, -0.006702116, 0.0002593962
 155934268, -0.00359333, 0.009838715, -0.00988665, 0.0002615578
 156034228, 0.0007643724, 0.002035802, 0.01470059, 0.0002593962
 156134188, 0.001762644, 0.004023307, 0.01601491, 0.0002593962
 156234148, 0.005955043, 0.0008108387, 0.02915739, 0.0002593962
 156334108, 0.0002199807, 0.004515574, -0.004942128, 0.0002593962
 156434068, -0.005644938, 0.01309751, -0.01258819, 0.0002593962
 156534028, 0.002951807, 0.01328995, 0.008805385, 0.0002593962
 156653980, -0.00138268, -0.001829899, 0.01530961, 0.0003112754
 156753940, 0.00822244, 0.005830745, 0.04016291, 0.0002593962
 156853900, 0.003864105, -0.0009184051, 0.02235971, 0.0002593962
 156953860, 0.006701644, 7.13903E-05, 0.0306589, 0.0002593962
 157053820, -0.006820544, -0.006451139, -0.003204999, 0.0002593962
 157153780, 0.0008188003, 0.004996224, -0.006128939, 0.0002593962
 157253740, -0.003844416, 0.00874347, -0.01643944, 0.0002593962
 157353700, 0.001071448, 0.01379638, -0.0001787615, 0.0002593962
 157453660, -0.005159453, 0.00866094, -0.03151305, 0.0002593962
 157553620, -0.0009277788, 0.008460425, -0.001484, 0.0002593962
 157653580, -0.005602926, -0.005605614, -0.01047934, 0.0002593962
 157753540, -0.002190061, -0.006189154, 0.0213672, 0.0002593962
 157853500, 0.01048855, 0.002845582, 0.03742224, 0.0002593962
 157954293, 0.008822734, -0.003908793, 0.03897704, 0.0002615578
 158054253, -0.0006348174, 0.004285797, -0.007864513, 0.0002593962
 158154213, 0.0001695401, -0.003366255, 0.006455871, 0.0002593962
 158254173, -0.00203469, 0.003170336, -0.01011604, 0.0002593962
 158354133, 0.002660128, -0.003212176, 0.005976356, 0.0002593962
 158454093, 0.01249427, 0.001879808, 0.0653587, 0.0002593962
 158554053, 0.01846559, 0.004014635, 0.08759137, 0.0002593962
 158654013, 0.007556989, 0.004886624, 0.05064171, 0.0002593962
 158773965, 0.01088273, -0.00222182, 0.0871492, 0.0003112754
 158873925, 0.02209465, -0.004292953, 0.1192003, 0.0002593962
 158973885, 0.02813809, -0.007598805, 0.1269445, 0.0002593962
 159073845, 0.03043798, -0.0004614248, 0.09439076, 0.0002593962
 159173805, 0.01532025, 0.004615264, 0.05287734, 0.0002593962
 159273765, 0.01705037, 0.009407705, 0.04313399, 0.0002593962
 159373725, 0.02786974, 0.01152409, 0.09474096, 0.0002593962
 159473685, 0.03230572, 0.01422499, 0.07730927, 0.0002593962
 159573645, 0.02785207, 0.006573708, 0.1014754, 0.0002593962
 159673605, 0.0234243, 0.001786205, 0.07569665, 0.0002593962
 159773565, 0.01405883, -0.0113101, 0.01846481, 0.0002593962
 159873525, 0.01428968, -0.004929938, 0.0663925, 0.0002593962
 159973485, 0.02395457, -0.02574642, 0.08355918, 0.0002593962
 160074278, 0.0326227, -0.03032297, 0.1075347, 0.0002615578
 160174238, 0.01904043, -0.01666067, 0.06834967, 0.0002593962
 160274198, 0.02525835, -0.006399956, 0.10603, 0.0002593962
 160374158, 0.02628968, 0.01666914, 0.1025117, 0.0002593962
 160474118, 0.0189173, 0.02457798, 0.05563975, 0.0002593962
 160574078, -0.0004660314, 0.006186286, 0.007020849, 0.0002593962
 160674038, -0.009632425, -0.008816783, 0.0811273, 0.0002593962
 160773998, -0.02265049, -0.1040963, 0.1156676, 0.0002593962
 160893950, 0.03819243, 0.2436533, 0.05594947, 0.0003112754
 160993910, 0.09186866, 0.5847532, 0.1595679, 0.0002593962
 161093870, 0.07257676, 0.6868097, 0.2269543, 0.0002593962
 161193830, 0.04010195, 0.6130898, 0.07343154, 0.0002593962
 161293790, -0.007399898, 0.4779264, -0.2342841, 0.0002593962
 161393750, -0.05451524, 0.2551073, -0.3347529, 0.0002593962
 161493710, -0.06324151, 0.06045257, -0.1745364, 0.0002593962
 161593670, -0.03936504, -0.0121088, 0.09603354, 0.0002593962
 161693630, -0.03337664, 0.04198171, 0.199794, 0.0002593962
 161793590, -0.03137625, 0.1398237, 0.25371, 0.0002593962
 161893550, -0.03287024, 0.1980416, 0.2699822, 0.0002593962
 161993510, -0.03354368, 0.2261398, 0.2112189, 0.0002593962
 162094303, -0.03941161, 0.2220692, 0.1328158, 0.0002593962
 162194263, -0.04230977, 0.202338, 0.06421031, 0.0002615578
 162294223, -0.03992553, 0.1517419, 0.03911179, 0.0002593962
 162394183, -0.03596962, 0.1233722, 0.02897243, 0.0002593962
 162494143, -0.03629106, 0.1168276, 0.04146724, 0.0002593962
 162594103, -0.03480062, 0.1142834, 0.06532323, 0.0002593962
 162694063, -0.03082612, 0.1015455, 0.1285772, 0.0002593962
 162794023, -0.03204678, 0.1210724, 0.1283769, 0.0002593962
 162913975, -0.03654424, 0.1630355, 0.1467747, 0.0003112754
 163013935, -0.02780493, 0.1309715, 0.1081753, 0.0002593962
 163113895, -0.02383935, 0.1151248, 0.08633649, 0.0002593962
 163213855, -0.02583721, 0.113569, 0.05967538, 0.0002593962
 163313815, -0.02795384, 0.09777705, 0.07046133, 0.0002593962
 163413775, -0.02731109, 0.100995, 0.08082653, 0.0002593962
 163513735, -0.02465984, 0.1099031, 0.03661664, 0.0002593962
 163613695, -0.02183744, 0.1000525, 0.05913585, 0.0002593962
 163713655, -0.02355158, 0.09712565, 0.07794364, 0.0002593962
 163813615, -0.02869505, 0.1008527, 0.0724025, 0.0002593962
 163913575, -0.02371177, 0.1044877, 0.02333316, 0.0002593962
 164013535, -0.02357113, 0.1068028, 0.02901087, 0.0002593962
 164113495, -0.02024931, 0.09759893, 0.03815386, 0.0002593962
 164214288, -0.0272423, 0.08036896, 0.05426963, 0.0002615578
 164314248, -0.02225676, 0.0740364, 0.08689803, 0.0002593962
 164414208, -0.01970625, 0.07658103, 0.01251306, 0.0002593962
 164514168, -0.0173499, 0.07374549, 0.0321733, 0.0002593962
 164614128, -0.008802052, 0.0729101, 0.05347383, 0.0002593962
 164714088, -0.01742978, 0.07728853, 0.02413623, 0.0002593962
 164814048, -0.01535927, 0.07451982, 0.064744, 0.0002593962
 164914008, -0.01930827, 0.07631317, 0.05342066, 0.0002593962
 165033960, -0.04663976, 0.08925086, 0.0274764, 0.0003112754
 165133920, -0.02325441, 0.06048494, 0.01364165, 0.0002593962
 165233880, -0.01432926, 0.06275126, 0.04579168, 0.0002593962
 165333840, -0.007166872, 0.06649643, 0.05915455, 0.0002593962
 165433800, -0.003894622, 0.06758337, 0.03995147, 0.0002593962
 165533760, -0.006834689, 0.05079221, 0.002605311, 0.0002593962
 165633720, -0.005319812, 0.04531554, 0.014483, 0.0002593962
 165733680, -0.0005752229, 0.05008915, 0.01910251, 0.0002593962
 165833640, -0.01351895, 0.0499356, -0.008540818, 0.0002593962
 165933600, -0.01519194, 0.04988626, -0.00700797, 0.0002593962
 166033560, -0.01462372, 0.05353924, 0.02147144, 0.0002593962
 166133520, -0.01155217, 0.05232374, 0.01767869, 0.0002593962
 166233480, -0.01064541, 0.05132499, -0.009566513, 0.0002593962
 166334273, -0.0108366, 0.04805837, -0.005528845, 0.0002615578
 166434233, -0.01316587, 0.04448754, 0.02863433, 0.0002593962
 166534193, -0.004655094, 0.0393735, 0.01954316, 0.0002593962
 166634153, -0.007077574, 0.03765779, 9.625399E-05, 0.0002593962
 166734113, -0.004981149, 0.03664364, 0.005996727, 0.0002593962
 166834073, -0.006697866, 0.03483019, 0.01436337, 0.0002593962
 166934033, -0.008005753, 0.03381858, 0.02802889, 0.0002593962
 167033993, -0.005605261, 0.03508408, 0.05887798, 0.0002593962
 167153945, -0.004809659, 0.04345874, 0.02109548, 0.0003112754
 167253905, -0.005808637, 0.03564828, -0.0004325947, 0.0002593962
 167353865, -0.003633702, 0.04019103, -0.01534226, 0.0002593962
 167453825, -0.01070998, 0.04255334, -0.0008586118, 0.0002593962
 167553785, -0.0126139, 0.03656881, -0.01134568, 0.0002593962
 167653745, -0.01617172, 0.04478756, 0.01339625, 0.0002593962
 167753705, -0.004804763, 0.04517377, 0.004497226, 0.0002593962
 167853665, -0.009290338, 0.03378732, -0.001592838, 0.0002593962
 167953625, -0.002715121, 0.02916055, -0.001178804, 0.0002593962
 168053585, -0.002171213, 0.03140194, -0.01088233, 0.0002593962
 168153545, -0.006859598, 0.02935071, 0.0006230723, 0.0002593962
 168253505, -0.006492346, 0.03135795, -0.01129336, 0.0002593962
 168354298, -0.00846176, 0.009116407, 0.02773559, 0.0002593962
 168454258, -0.0005389499, 0.01697616, 0.01887035, 0.0002615578
 168554218, -0.004128639, 0.0223607, 0.02027278, 0.0002593962
 168654178, -0.004518098, 0.03076492, -0.004904682, 0.0002593962
 168754138, -0.005329491, 0.03225677, -0.01409005, 0.0002593962
 168854098, -0.007367415, 0.02723452, -0.04142029, 0.0002593962
 168954058, -0.005779742, 0.02272176, 0.002617161, 0.0002593962
 169054018, -0.00680186, 0.02451864, 0.02940482, 0.0002593962
 169173970, -0.008003859, 0.03273878, 0.05760638, 0.0003112754
 169273930, -0.0009685194, 0.01281878, 0.06129133, 0.0002593962
 169373890, 0.002097377, 0.01348969, 0.01160711, 0.0002593962
 169473850, 0.0009377619, 0.00921932, -0.0008389836, 0.0002593962
 169573810, 0.0002880546, 0.02620248, -0.03383595, 0.0002593962
 169673770, -0.002228259, 0.02954971, -0.02534716, 0.0002593962
 169773730, -0.003388065, 0.020856, -0.03823613, 0.0002593962
 169873690, 0.003763101, 0.01378527, -0.03390814, 0.0002593962
 169973650, 0.00380825, 0.005017631, 0.01275215, 0.0002593962
 170073610, 0.00317857, 0.003797933, 0.04071743, 0.0002593962
 170173570, 0.001269367, 0.01875737, 0.02147089, 0.0002593962
 170273530, 0.007461122, 0.02632358, 0.002696665, 0.0002593962
 170373490, -0.003367322, 0.02254308, 0.02042781, 0.0002593962
 170474283, 0.009252264, 0.002754206, 0.03484936, 0.0002615578
 170574243, 0.007848614, 0.007803356, 0.01122312, 0.0002593962
 170674203, 0.005462019, 0.002855728, -0.007141174, 0.0002593962
 170774163, 0.00926181, 0.002697025, -0.02433399, 0.0002593962
 170874123, 0.006644705, 0.0071357, -0.05960024, 0.0002593962
 170974083, -0.003200032, 0.02124582, -0.04582684, 0.0002593962
 171074043, -0.002430398, 0.02416123, 0.006626891, 0.0002593962
 171174003, -0.00244533, 0.01502335, -0.002051448, 0.0002593962
 171293955, -0.005077514, 0.0116817, -0.01575019, 0.0003112754
 171393915, -0.00473749, 0.01405885, -0.01362552, 0.0002593962
 171493875, -0.0004128347, 0.01273438, 0.02234422, 0.0002593962
 171593835, 0.004046438, 0.01419718, 0.03369971, 0.0002593962
 171693795, -0.004919472, 0.03404105, 0.008189881, 0.0002593962
 171793755, 0.0001154621, 0.03248037, -0.01564692, 0.0002593962
 171893715, -0.001665231, 0.02793791, 0.009080352, 0.0002593962
 171993675, -0.001444101, 0.009326202, -0.001798921, 0.0002593962
 172093635, 0.004728192, -0.0003714234, -0.01487077, 0.0002593962
 172193595, 0.005503502, 0.004251879, -0.004703518, 0.0002593962
 172293555, 0.004666501, 0.009958401, -0.01598965, 0.0002593962
 172393515, 0.005081514, 0.01229234, -0.008230024, 0.0002593962
 172493475, 0.002405734, 0.01068707, -0.02828749, 0.0002593962
 172594268, 3.681041E-05, 0.0006650172, -0.0173078, 0.0002615578
 172694228, 0.003271775, 0.004478731, -0.03629468, 0.0002593962
 172794188, -0.004217902, 0.02402174, -0.004727312, 0.0002593962
 172894148, -0.009404709, 0.03179122, 0.02881643, 0.0002593962
 172994108, -0.003110301, 0.03466364, 0.01874438, 0.0002593962
 173094068, -0.005099377, 0.01984799, 0.02469288, 0.0002593962
 173194028, -0.001710803, 0.02041986, -0.007992037, 0.0002593962
 173313980, -0.0008231159, 0.02328109, 0.01087546, 0.0003112754
 173413940, -0.004199348, 0.02070267, -0.009914102, 0.0002593962
 173513900, -0.00206711, 0.03138453, -0.02140744, 0.0002593962
 173613860, 0.001381666, 0.03296362, -0.02167357, 0.0002593962
 173713820, -0.003643049, 0.02494435, -0.021406, 0.0002593962
 173813780, 0.0006250693, 0.01898674, -0.03918156, 0.0002593962
 173913740, -8.304152E-05, 0.03120349, -0.02452805, 0.0002593962
 174013700, -0.001431309, 0.03220584, 0.008524678, 0.0002593962
 174113660, 0.002618247, 0.02819727, 0.01443503, 0.0002593962
 174213620, -0.004295496, 0.03695457, -0.009971253, 0.0002593962
 174313580, -0.01190393, 0.0335768, -0.03200253, 0.0002593962
 174413540, -0.01042619, 0.03510293, -0.03350418, 0.0002593962
 174513500, -0.004377915, 0.02503664, -0.001757233, 0.0002593962
 174614293, -0.004392785, 0.01817311, 0.004918727, 0.0002615578
 174714253, -0.01634743, 0.01530993, 0.01615632, 0.0002593962
 174814213, -0.006783496, 0.01250696, 0.015366, 0.0002593962
 174914173, 0.01424604, 0.01921415, -0.006003295, 0.0002593962
 175014133, 0.00604178, 0.01983235, 0.01407214, 0.0002593962
 175114093, -0.005146781, 0.0197196, 0.01395274, 0.0002593962
 175214053, -0.03493816, 0.02124376, 0.002714177, 0.0002593962
 175314013, -0.02036293, 0.04036391, -0.0229036, 0.0002593962
 175433965, -0.006823632, 0.0627085, 0.01920452, 0.0003112754
 175533925, -0.008927021, 0.06526615, -0.01736882, 0.0002593962
 175633885, -0.008435003, 0.08256591, -0.02954848, 0.0002593962
 175733845, -0.01463297, 0.1036063, -0.0157605, 0.0002593962
 175833805, -0.02068019, 0.1212995, 0.004076852, 0.0002593962
 175933765, -0.001105408, 0.1267922, 0.006207862, 0.0002593962
 176033725, -0.08739255, 0.2949536, 0.03033711, 0.0002593962
 176133685, -0.1448098, 0.2845348, -0.02372817, 0.0002593962
 176233645, -0.04981231, -0.3196026, -0.2669966, 0.0002593962
 176333605, 0.04821403, -0.8342657, -0.008953873, 0.0002593962
 176433565, 0.08441576, -0.7761888, 0.4288014, 0.0002593962
 176533525, 0.1211441, -0.5736108, 0.3072721, 0.0002593962
 176633485, 0.1641432, -0.4692378, -0.2325628, 0.0002593962
 176734278, 0.1143647, -0.2186437, -0.5137519, 0.0002615578
 176834238, 0.034931, 0.06779476, -0.2392806, 0.0002593962
 176934198, -0.002258916, 0.1116192, 0.1162662, 0.0002593962
 177034158, -0.02526838, -0.01868259, 0.2873634, 0.0002593962
 177134118, -0.04891605, -0.1778108, 0.2818922, 0.0002593962
 177234078, -0.07357354, -0.2717003, 0.2599507, 0.0002593962
 177334038, -0.08400115, -0.2996456, 0.23138, 0.0002593962
 177433998, -0.09441535, -0.2853072, 0.1464231, 0.0002593962
 177553950, -0.1194364, -0.2647081, 0.08940887, 0.0003112754
 177653910, -0.1087725, -0.1461611, 0.05342271, 0.0002593962
 177753870, -0.1160971, -0.09340166, 0.09439734, 0.0002593962
 177853830, -0.1023604, -0.09215605, 0.1424909, 0.0002593962
 177953790, -0.08412219, -0.1143007, 0.1762383, 0.0002593962
 178053750, -0.07002939, -0.1418031, 0.1958979, 0.0002593962
 178153710, -0.05566847, -0.1468723, 0.2149016, 0.0002593962
 178253670, -0.04512577, -0.1511938, 0.1935628, 0.0002593962
 178353630, -0.02999181, -0.1504897, 0.1557259, 0.0002593962
 178453590, -0.01527357, -0.1430245, 0.125405, 0.0002593962
 178553550, -0.01000455, -0.1318219, 0.1105629, 0.0002593962
 178653510, -0.009495814, -0.1195674, 0.0911673, 0.0002593962
 178754303, -0.006618344, -0.1112952, 0.08845019, 0.0002593962
 178854263, -0.004584061, -0.1034196, 0.1065095, 0.0002615578
 178954223, -0.002597081, -0.1113652, 0.1015937, 0.0002593962
 179054183, 0.004151375, -0.1139771, 0.09805068, 0.0002593962
 179154143, 0.004881226, -0.1093611, 0.06461104, 0.0002593962
 179254103, 0.009927135, -0.1143689, 0.04686416, 0.0002593962
 179354063, 0.008309501, -0.1107759, 0.04426525, 0.0002593962
 179454023, 0.004955782, -0.1075571, 0.07811339, 0.0002593962
 179573975, 0.005855384, -0.1257112, 0.06057424, 0.0003112754
 179673935, 0.004555263, -0.1080275, 0.02333278, 0.0002593962
 179773895, 0.008410634, -0.1109377, 0.02440758, 0.0002593962
 179873855, 0.007052284, -0.104829, 0.01670592, 0.0002593962
 179973815, 0.009192716, -0.09394003, 0.01427941, 0.0002593962
 180073775, 0.006690437, -0.08081762, 0.03805549, 0.0002593962
 180173735, 0.004700304, -0.08765452, 0.03147456, 0.0002593962
 180273695, 0.001642093, -0.0814575, 0.02602336, 0.0002593962
 180373655, 0.006256108, -0.08151375, 0.02335022, 0.0002593962
 180473615, 0.003891339, -0.07415994, 0.009738429, 0.0002593962
 180573575, -0.003960015, -0.05658114, 0.02308995, 0.0002593962
 180673535, -0.003091538, -0.04593746, 0.006415632, 0.0002593962
 180773495, -0.002027815, -0.04506515, 0.02493885, 0.0002593962
 180874288, -0.009041184, -0.05523429, 0.03791763, 0.0002615578
 180974248, -0.002124718, -0.05875856, 0.03223252, 0.0002593962
 181074208, 0.005923909, -0.05575528, 0.013446, 0.0002593962
 181174168, 0.009557659, -0.04669946, 0.003701722, 0.0002593962
 181274128, 0.0110717, -0.03848779, -0.003697337, 0.0002593962
 181374088, 0.003657025, -0.03714098, 0.03810054, 0.0002593962
 181474048, 0.00387102, -0.02600409, 0.02283061, 0.0002593962
 181574008, 0.002975713, -0.0223106, -0.004401458, 0.0002593962
 181693960, -0.003910604, -0.02125378, 0.01341783, 0.0003112754
 181793920, -0.0003769291, -0.02121464, 0.01276648, 0.0002593962
 181893880, 0.003913457, -0.02637454, 0.005198925, 0.0002593962
 181993840, 0.006043242, -0.02949419, -0.003092663, 0.0002593962
 182093800, 0.005976586, -0.02458643, 0.01153446, 0.0002593962
 182193760, -0.00212739, -0.0210162, 0.02913321, 0.0002593962
 182293720, 0.002465513, -0.01369545, -0.0002507256, 0.0002593962
 182393680, -0.005333862, -0.008793613, 0.002119675, 0.0002593962
 182493640, 0.01591253, -0.01231877, 0.00259084, 0.0002593962
 182593600, 0.008720421, -0.008456994, 0.01040099, 0.0002593962
 182693560, 0.006036647, -0.003593521, -0.005235418, 0.0002593962
 182793520, 0.0009442691, -3.726262E-05, -0.01493392, 0.0002593962
 182893480, -0.0004749885, -0.002883288, 0.009825275, 0.0002593962
 182994273, 0.001615471, -0.006186452, 0.01543493, 0.0002615578
 183094233, 0.001298065, -0.0007433877, 0.03518344, 0.0002593962
 183194193, 0.005623164, 0.009134301, 0.01625174, 0.0002593962
 183294153, 0.0135789, 0.016176, -0.01657312, 0.0002593962
 183394113, 0.005351874, 0.0274287, 0.007662425, 0.0002593962
 183494073, 0.00722503, 0.02642981, 0.008527901, 0.0002593962
 183594033, 0.008836831, 0.02056536, -0.0001717546, 0.0002593962
 183693993, 0.003817244, 0.01984758, 0.007400222, 0.0002593962
 183813945, 0.0148807, 0.02938149, -0.05739099, 0.0003112754
 183913905, 0.002194382, 0.02183749, -0.01148415, 0.0002593962
 184013865, -0.004205628, 0.02081281, 0.01536973, 0.0002593962
 184113825, -0.002130389, 0.02645072, 0.01384304, 0.0002593962
 184213785, 0.02193795, 0.03444546, 0.03557835, 0.0002593962
 184313745, 0.01571133, 0.03851148, 0.02539657, 0.0002593962
 184413705, 0.01152159, 0.04000552, 0.01764033, 0.0002593962
 184513665, 0.004200948, 0.04015056, 0.02339905, 0.0002593962
 184613625, 0.0008147238, 0.03297553, 0.02177414, 0.0002593962
 184713585, 0.002953944, 0.03132581, 0.007881587, 0.0002593962
 184813545, 0.004755803, 0.03274869, -0.02228761, 0.0002593962
 184913505, 0.003389945, 0.03598654, -0.005669804, 0.0002593962
 185014298, 0.004070948, 0.0266534, -0.025382, 0.0002593962
 185114258, 0.006310045, 0.02231826, -0.007386088, 0.0002615578
 185214218, 0.003136068, 0.02063926, 0.02982103, 0.0002593962
 185314178, 0.007552624, 0.02667391, 0.01140172, 0.0002593962
 185414138, 0.01929803, 0.03630572, -0.08168674, 0.0002593962
 185514098, -0.008603235, 0.04093869, -0.1071413, 0.0002593962
 185614058, 0.03030303, 0.03557478, -0.09878796, 0.0002593962
 185714018, 0.03072135, 0.02693402, -0.1158499, 0.0002593962
 185833970, 0.03064646, 0.04120829, -0.143365, 0.0003112754
 185933930, 0.02753473, 0.03234296, -0.105293, 0.0002593962
 186033890, 0.006375152, 0.03196334, -0.1212252, 0.0002593962
 186133850, 0.0152571, 0.03359541, -0.1074825, 0.0002593962
 186233810, 0.01244935, 0.03577677, -0.07450776, 0.0002593962
 186333770, 0.01436328, 0.04902758, -0.07879326, 0.0002593962
 186433730, 0.01068351, 0.0460108, -0.09473048, 0.0002593962
 186533690, 0.01512897, 0.04284437, -0.0953174, 0.0002593962
 186633650, 0.01942039, 0.0413907, -0.1024431, 0.0002593962
 186733610, 0.04333443, 0.0425056, -0.1017049, 0.0002593962
 186833570, 0.04546649, 0.02832026, -0.08615006, 0.0002593962
 186933530, 0.04485863, 0.03271313, -0.08160202, 0.0002593962
 187033490, 0.01879677, 0.03834459, -0.05426821, 0.0002593962
 187134283, 0.03249168, 0.03546326, -0.06546172, 0.0002615578
 187234243, 0.05033891, 0.0297975, -0.06548551, 0.0002593962
 187334203, 0.09530712, 0.03035937, -0.08825031, 0.0002593962
 187434163, 0.08154665, 0.0369394, -0.09473613, 0.0002593962
 187534123, 0.06984264, 0.04319394, -0.09820285, 0.0002593962
 187634083, 0.06537719, 0.04670933, -0.1134311, 0.0002593962
 187734043, 0.06493343, 0.0252962, -0.07025184, 0.0002593962
 187834003, 0.06535175, 0.01390437, -0.04815831, 0.0002593962
 187953955, 0.07897425, 0.01758308, -0.04818549, 0.0003112754
 188053915, 0.06676711, 0.02079989, -0.102879, 0.0002593962
 188153875, 0.05884612, 0.03888176, -0.1306596, 0.0002593962
 188253835, 0.05679723, 0.03249865, -0.1310096, 0.0002593962
 188353795, 0.05493097, 0.02595008, -0.08598898, 0.0002593962
 188453755, 0.04643732, 0.02008293, -0.06496129, 0.0002593962
 188553715, 0.04881903, 0.02138373, -0.08143414, 0.0002593962
 188653675, 0.04666166, 0.01911598, -0.1164604, 0.0002593962
 188753635, 0.04579043, 0.02209713, -0.09471741, 0.0002593962
 188853595, 0.0379075, 0.02313815, -0.06409811, 0.0002593962
 188953555, 0.02862225, 0.01490818, -0.08206168, 0.0002593962
 189053515, 0.01674967, 0.01107131, -0.06546255, 0.0002593962
 189153475, 0.004608181, 0.01554164, -0.05379611, 0.0002593962
 189254268, -0.01241141, 0.01706346, 0.007999443, 0.0002615578
 189354228, -0.02497493, 0.0225305, 0.006554832, 0.0002593962
 189454188, -0.03855336, 0.02242975, -0.01657591, 0.0002593962
 189554148, -0.05549293, 0.01534656, 0.004423403, 0.0002593962
 189654108, -0.06356727, -0.005571437, -0.0227023, 0.0002593962
 189754068, -0.06988203, -0.001957444, 0.03204342, 0.0002593962
 189854028, -0.0669251, 0.01948591, 0.05538579, 0.0002593962
 189973980, -0.08241115, 0.0248779, 0.08537363, 0.0003112754
 190073940, -0.06807613, 0.0147905, 0.07580332, 0.0002593962
 190173900, -0.06245861, 0.01063268, 0.05689254, 0.0002593962
 190273860, -0.06476421, 0.01079655, 0.09319491, 0.0002593962
 190373820, -0.06333242, 0.02293573, 0.1078072, 0.0002593962
 190473780, -0.05796356, 0.02024892, 0.1085249, 0.0002593962
 190573740, -0.06271098, 0.01584715, 0.1147783, 0.0002593962
 190673700, -0.05608374, 0.003760495, 0.1197453, 0.0002593962
 190773660, -0.04968484, -0.0002560192, 0.06210488, 0.0002593962
 190873620, -0.04008275, -0.0016256, 0.04393369, 0.0002593962
 190973580, -0.03253004, -0.002882537, 0.05884237, 0.0002593962
 191073540, -0.01655795, 0.003050577, 0.05974932, 0.0002593962
 191173500, -0.008938541, 0.005019251, 0.04181597, 0.0002593962
 191274293, -0.007991372, 0.01716975, 0.04300454, 0.0002615578
 191374253, -0.009983907, 0.004066914, 0.0671441, 0.0002593962
 191474213, -0.003702688, 0.007646552, 0.07716811, 0.0002593962
 191574173, -0.004429984, 0.005638233, 0.02796467, 0.0002593962
 191674133, 0.0003790416, 0.001354674, 0.02942247, 0.0002593962
 191774093, 0.00373903, 0.01351328, 0.002027196, 0.0002593962
 191874053, -0.002355418, 0.01973034, 0.01785273, 0.0002593962
 191974013, 0.001945085, 0.01339951, 0.02062007, 0.0002593962
 192093965, 0.006520512, 0.002831114, 0.007447305, 0.0003112754
 192193925, 0.001908099, -0.006803312, 0.02348596, 0.0002593962
 192293885, -0.001330931, -0.004406276, 0.04678763, 0.0002593962
 192393845, 0.002039021, 0.006632477, 0.02835404, 0.0002593962
 192493805, 0.006787065, 0.00759101, 0.03532767, 0.0002593962
 192593765, 0.003766538, 0.001695895, 0.05335123, 0.0002593962
 192693725, 0.002070354, -0.00667522, 0.0603551, 0.0002593962
 192793685, -0.003509167, -0.00823301, 0.07275469, 0.0002593962
 192893645, 0.0001532422, -0.006260336, 0.01983858, 0.0002593962
 192993605, 0.003756601, -0.003097146, -0.04470076, 0.0002593962
 193093565, -0.003845246, 0.01703692, -0.01160673, 0.0002593962
 193193525, -0.005696581, 0.02086105, 0.04570354, 0.0002593962
 193293485, -0.01386759, 0.01773816, 0.08063223, 0.0002593962
 193394278, -0.005720995, 0.008633436, 0.05489084, 0.0002615578
 193494238, -0.0001156197, 0.0008363361, 0.03453103, 0.0002593962
 193594198, -0.005133381, 0.006195458, 0.05347517, 0.0002593962
 193694158, -0.01347053, -0.001741075, 0.05737628, 0.0002593962
 193794118, -0.01148181, 0.008615514, 0.06384178, 0.0002593962
 193894078, -0.009631296, 0.01460912, 0.06614158, 0.0002593962
 193994038, -0.001474926, 0.009737547, 0.04020401, 0.0002593962
 194093998, -0.007196967, 0.006494571, -0.01669924, 0.0002593962
 194213950, -0.008237051, 0.004758696, -0.01144577, 0.0003112754
 194313910, -0.02064807, -0.0001964174, 0.03980593, 0.0002593962
 194413870, -0.02217311, 0.0007798345, 0.02816622, 0.0002593962
 194513830, -0.0143098, -0.003058419, 0.01719019, 0.0002593962
 194613790, 0.007235138, 0.006303697, -0.05108171, 0.0002593962
 194713750, 0.003423286, 0.00531864, -0.04881914, 0.0002593962
 194813710, 0.008194043, -0.0001032036, -0.06235362, 0.0002593962
 194913670, 0.04161421, 0.00535391, -0.05513744, 0.0002593962
 195013630, 0.01943382, 0.00127424, -0.06342222, 0.0002593962
 195113590, 0.003048188, -0.005853559, -0.07740393, 0.0002593962
 195213550, -0.004725802, -0.01265228, -0.04361483, 0.0002593962
 195313510, -0.006429665, -0.01034563, -0.01337813, 0.0002593962
 195414303, -0.002255171, -0.00647108, -0.01313347, 0.0002593962
 195514263, 0.005703249, -0.005382486, -0.07374284, 0.0002615578
 195614223, 0.006895182, -0.0001835843, -0.1146319, 0.0002593962
 195714183, 0.009857486, 0.009980836, -0.06552153, 0.0002593962
 195814143, 0.01278194, 0.003810204, -0.03703346, 0.0002593962
 195914103, 0.01494682, 0.009743356, -0.02862706, 0.0002593962
 196014063, -0.006925286, 0.01133423, -0.07736009, 0.0002593962
 196114023, 0.04212203, 0.01209619, -0.08364186, 0.0002593962
 196233975, 0.06730863, 0.006225504, -0.0723668, 0.0003112754
 196333935, 0.08394125, -0.003440074, -0.07022594, 0.0002593962
 196433895, 0.07013486, -6.542187E-05, -0.07325404, 0.0002593962
 196533855, 0.05892835, 0.0001791923, -0.07804189, 0.0002593962
 196633815, 0.06151928, 0.01197421, -0.09217441, 0.0002593962
 196733775, 0.05536604, 0.01028484, -0.09657754, 0.0002593962
 196833735, 0.0517495, 0.0165998, -0.08382332, 0.0002593962
 196933695, 0.05794147, 0.006020591, -0.05929402, 0.0002593962
 197033655, 0.05049123, 0.00127065, -0.07106145, 0.0002593962
 197133615, 0.04767293, 0.002221646, -0.08033419, 0.0002593962
 197233575, 0.0457322, -0.005480137, -0.07988781, 0.0002593962
 197333535, 0.04164205, -0.001756064, -0.07527203, 0.0002593962
 197433495, 0.04885419, -0.009923892, -0.09035495, 0.0002593962
 197534288, 0.04700807, -0.008334054, -0.0689873, 0.0002615578
 197634248, 0.0361253, -0.004381019, -0.06045278, 0.0002593962
 197734208, 0.02185298, 0.001495573, -0.1054095, 0.0002593962
 197834168, 0.02008758, 0.0002784329, -0.1015857, 0.0002593962
 197934128, 0.03276368, -0.00723212, -0.06754707, 0.0002593962
 198034088, 0.02480408, -0.007367422, -0.05566207, 0.0002593962
 198134048, 0.04909578, -0.007656234, -0.07911146, 0.0002593962
 198234008, 0.02508699, -0.006408664, -0.0813221, 0.0002593962
 198353960, 0.01810549, 0.003391431, -0.052349, 0.0003112754
 198453920, 0.01659495, -0.003417299, -0.07055195, 0.0002593962
 198553880, 0.01703858, -0.002693019, -0.02759784, 0.0002593962
 198653840, 0.01531732, 0.001236205, -0.02719742, 0.0002593962
 198753800, 0.05188305, 0.01221946, -0.05497867, 0.0002593962
 198853760, 0.105375, 0.01467021, -0.09920968, 0.0002593962
 198953720, 0.1144027, 0.01315696, -0.2093465, 0.0002593962
 199053680, 0.09656323, 0.0005124905, -0.2293858, 0.0002593962
 199153640, 0.07407428, -0.002156279, -0.1757336, 0.0002593962
 199253600, 0.06581879, 0.001894235, -0.1504336, 0.0002593962
 199353560, 0.05199812, 0.0127475, -0.1647293, 0.0002593962
 199453520, 0.04549534, 0.03135194, -0.1436692, 0.0002593962
 199553480, 0.03993914, 0.01629355, -0.1407561, 0.0002593962
 199654273, 0.03353749, 0.007469438, -0.1552128, 0.0002615578
 199754233, 0.01364902, -0.00291949, -0.1667103, 0.0002593962
 199854193, 0.007036111, 0.01897504, -0.1441025, 0.0002593962
 199954153, 0.002487763, 0.02013899, -0.1019068, 0.0002593962
 200054113, 0.01295533, 0.01112848, -0.08297644, 0.0002593962
 200154073, -0.00188699, 0.005703599, -0.09050854, 0.0002593962
 200254033, -0.008850127, -0.004360019, -0.1338912, 0.0002593962
 200353993, -0.004238841, 0.001652205, -0.110208, 0.0002593962
 200473945, -0.01828917, 0.02187194, -0.09737845, 0.0003112754
 200573905, -0.02286867, 0.02093301, -0.1288064, 0.0002593962
 200673865, -0.02568295, -0.005635524, -0.1306571, 0.0002593962
 200773825, -0.01520158, -0.008281009, -0.01636826, 0.0002593962
 200873785, -0.007971264, -0.007120971, 0.02703702, 0.0002593962
 200973745, -0.00702609, 0.005921066, 0.04740353, 0.0002593962
 201073705, -0.03108555, 0.006408696, -0.00927695, 0.0002593962
 201173665, -0.05292982, 0.005931865, 0.02600162, 0.0002593962
 201273625, -0.04266873, 0.0009729707, 0.09740795, 0.0002593962
 201373585, -0.04553167, 0.01234251, 0.1036653, 0.0002593962
 201473545, -0.02610011, 0.005420512, 0.0361655, 0.0002593962
 201573505, -0.05205087, 0.008807166, -0.01245548, 0.0002593962
 201674298, -0.06849371, 0.006568328, 0.07937738, 0.0002593962
 201774258, -0.08596964, 0.002546473, 0.08954979, 0.0002615578
 201874218, -0.06314208, 0.006739318, 0.1044258, 0.0002593962
 201974178, -0.04923047, 0.002778444, 0.1178468, 0.0002593962
 202074138, -0.05812806, 0.00531977, 0.09516016, 0.0002593962
 202174098, -0.05885584, -0.002112966, 0.07315788, 0.0002593962
 202274058, -0.06009588, 0.01187438, 0.06877728, 0.0002593962
 202374018, -0.05995316, 0.01378935, 0.09034133, 0.0002593962
 202493970, -0.06881524, -0.001174896, 0.09292896, 0.0003112754
 202593930, -0.04896396, -0.01426658, 0.09447034, 0.0002593962
 202693890, -0.04616129, -0.01324493, 0.08192721, 0.0002593962
 202793850, -0.05322741, -0.01453079, 0.08881263, 0.0002593962
 202893810, -0.05176065, -0.01025772, 0.06155553, 0.0002593962
 202993770, -0.04695106, 0.00491355, 0.06716268, 0.0002593962
 203093730, -0.04228361, 0.02212594, 0.09042585, 0.0002593962
 203193690, -0.0346116, 0.006693154, 0.06468698, 0.0002593962
 203293650, -0.02590049, -0.005348123, 0.04932461, 0.0002593962
 203393610, -0.03495613, -0.008693904, 0.06624851, 0.0002593962
 203493570, -0.03676003, 8.850297E-05, 0.02878956, 0.0002593962
 203593530, -0.03291626, -0.008922111, 0.06034237, 0.0002593962
 203693490, -0.04583897, -0.007235093, 0.10038, 0.0002593962
 203794283, -0.03106247, -0.01363748, 0.0701298, 0.0002615578
 203894243, -0.02108801, -0.01500169, 0.04331531, 0.0002593962
 203994203, -0.01787197, -0.01311017, 0.05979273, 0.0002593962
 204094163, -0.02370893, -0.005586881, 0.05885404, 0.0002593962
 204194123, -0.01984858, 0.003287301, 0.03930629, 0.0002593962
 204294083, -0.002604382, -7.635285E-05, 0.0007953988, 0.0002593962
 204394043, -0.01031525, 0.003087294, 0.006486033, 0.0002593962
 204494003, -0.01844906, 0.006562505, 0.01450618, 0.0002593962
 204613955, -0.02779838, 5.276703E-05, 0.01697577, 0.0003112754
 204713915, -0.02979919, -0.006894802, 0.01317832, 0.0002593962
 204813875, -0.02344896, -0.01444469, 0.02607622, 0.0002593962
 204913835, -0.0209332, -0.006410481, 0.0184427, 0.0002593962
 205013795, -0.02328273, 0.004796135, 0.03989316, 0.0002593962
 205113755, -0.0398436, 0.01588664, 0.03235587, 0.0002593962
 205213715, -0.02328162, 0.01505901, -0.01470207, 0.0002593962
 205313675, -0.008954296, 0.006070722, -0.01022019, 0.0002593962
 205413635, -0.005697859, -0.002132062, 0.06005655, 0.0002593962
 205513595, 0.0009969857, -0.01017875, 0.05302306, 0.0002593962
 205613555, -0.003707082, 0.002065335, 0.0491851, 0.0002593962
 205713515, -0.008919107, 0.01169388, 0.0446715, 0.0002593962
 205813475, -0.004094082, -0.0004449367, 0.01792241, 0.0002593962
 205914268, -0.006417821, 0.007799229, -0.02585473, 0.0002615578
 206014228, -0.01194706, 0.006098325, -0.06161936, 0.0002593962
 206114188, -0.00829494, -0.008690087, -0.02188664, 0.0002593962
 206214148, -0.008877197, -0.007085332, -0.009463347, 0.0002593962
 206314108, -0.009356404, 0.004536472, 0.0296463, 0.0002593962
 206414068, -0.005046872, 0.0171502, 0.02574649, 0.0002593962
 206514028, -0.009206519, 0.01995687, 0.01827646, 0.0002593962
 206633980, -0.01531742, 0.01353904, -0.003945698, 0.0003112754
 206733940, -0.01344684, 0.0007361351, 0.01673021, 0.0002593962
 206833900, -0.01201911, 0.001090401, -0.01298886, 0.0002593962
 206933860, 0.000112629, -0.006966694, -0.01012983, 0.0002593962
 207033820, 0.003848287, -0.003414966, 0.009314148, 0.0002593962
 207133780, -0.002039253, 0.006333623, 0.01392198, 0.0002593962
 207233740, 0.0009687879, 0.01075097, 0.02326833, 0.0002593962
 207333700, -3.0158E-05, 0.008837452, 0.02431586, 0.0002593962
 207433660, 0.003084026, 0.001125242, 0.05148593, 0.0002593962
 207533620, 0.004183785, -0.002232373, 0.0006569424, 0.0002593962
 207633580, -0.003897558, 0.004274318, -0.01926351, 0.0002593962
 207733540, -0.006607747, 0.01001687, -0.03924245, 0.0002593962
 207833500, -0.0008170739, 0.004893923, -0.01683434, 0.0002593962
 207934293, -0.005957136, 0.003261672, -0.001515327, 0.0002615578
 208034253, -0.002617416, 0.007934383, -0.008340197, 0.0002593962
 208134213, -0.002278169, 0.01765293, -0.03165999, 0.0002593962
 208234173, -0.006910395, 0.01765555, 0.005200985, 0.0002593962
 208334133, -0.003360847, 0.02318967, 0.0202055, 0.0002593962
 208434093, -0.0005752372, 0.01326978, 0.02797639, 0.0002593962
 208534053, 0.02783322, 0.005736652, 0.007413673, 0.0002593962
 208634013, 0.05566227, 0.0155634, -0.05828004, 0.0002593962
 208753965, 0.1020683, 0.02219133, -0.1245874, 0.0003112754
 208853925, 0.1060264, 0.01420375, -0.1292787, 0.0002593962
 208953885, 0.1120901, 0.01092082, -0.1800589, 0.0002593962
 209053845, 0.1147009, 0.01273977, -0.2018321, 0.0002593962
 209153805, 0.1137093, 0.01412768, -0.2058904, 0.0002593962
 209253765, 0.1033316, -0.004917165, -0.1735945, 0.0002593962
 209353725, 0.09653144, -0.01565648, -0.1356594, 0.0002593962
 209453685, 0.08315709, 0.007771266, -0.1698499, 0.0002593962
 209553645, 0.06931244, 0.0137917, -0.1351029, 0.0002593962
 209653605, 0.0566243, 0.004648959, -0.1536672, 0.0002593962
 209753565, 0.04597422, -0.001615368, -0.1746312, 0.0002593962
 209853525, 0.03501611, 0.004532064, -0.174892, 0.0002593962
 209953485, 0.0294657, 0.002519977, -0.1414235, 0.0002593962
 210054278, 0.01945157, 0.007634937, -0.1621824, 0.0002615578
 210154238, 0.005859271, 0.02420684, -0.1439613, 0.0002593962
 210254198, 0.01328579, 0.007081995, -0.07203199, 0.0002593962
 210354158, 0.002089518, 0.0002317217, -0.1199844, 0.0002593962
 210454118, -0.002409361, 0.01103975, -0.1052109, 0.0002593962
 210554078, -0.003422418, 0.009435711, -0.05462497, 0.0002593962
 210654038, -0.002413677, 0.009047394, -0.04957125, 0.0002593962
 210753998, 0.002001571, 0.01459575, -0.02591244, 0.0002593962
 210873950, -0.01220214, 0.01586759, -0.02280587, 0.0003112754
 210973910, -0.02442964, 0.001908135, 0.01891026, 0.0002593962
 211073870, -0.03925531, -0.002079799, 0.03734874, 0.0002593962
 211173830, -0.04870221, 0.006217959, 0.05058993, 0.0002593962
 211273790, -0.06450471, 0.01417955, 0.06905106, 0.0002593962
 211373750, -0.07074872, 0.01838718, 0.07466057, 0.0002593962
 211473710, -0.07833599, 0.01260395, 0.08839139, 0.0002593962
 211573670, -0.07016394, 0.01241863, 0.1213003, 0.0002593962
 211673630, -0.07511527, 0.01108653, 0.1047749, 0.0002593962
 211773590, -0.0671467, 0.01341166, 0.09403549, 0.0002593962
 211873550, -0.07222211, 0.01530319, 0.09427445, 0.0002593962
 211973510, -0.07962372, 0.003531541, 0.05998348, 0.0002593962
 212074303, -0.07653143, -0.002399465, 0.04314435, 0.0002593962
 212174263, -0.06881668, -0.001533199, 0.0874927, 0.0002615578
 212274223, -0.06191634, -0.004034172, 0.1257474, 0.0002593962
 212374183, -0.05774726, -0.01483296, 0.1261164, 0.0002593962
 212474143, -0.0554204, -0.005913114, 0.1138501, 0.0002593962
 212574103, -0.05898149, -0.0006594049, 0.1276263, 0.0002593962
 212674063, -0.04952341, 0.01175873, 0.090437, 0.0002593962
 212774023, -0.05150177, 0.00827419, 0.1119577, 0.0002593962
 212893975, -0.05760349, 0.01138877, 0.09195348, 0.0003112754
 212993935, -0.04285848, 0.008217094, 0.04284019, 0.0002593962
 213093895, -0.03907609, 0.004300165, 0.05655035, 0.0002593962
 213193855, -0.03685943, -0.002914296, 0.06674217, 0.0002593962
 213293815, -0.03519225, -0.008846055, 0.09116189, 0.0002593962
 213393775, -0.03496111, -0.01516046, 0.05631348, 0.0002593962
 213493735, -0.03329882, -0.01304631, 0.05860497, 0.0002593962
 213593695, -0.02643107, -0.01142069, 0.08147722, 0.0002593962
 213693655, -0.02884655, -0.001357385, 0.07579762, 0.0002593962
 213793615, -0.02765836, 0.006252583, 0.07405138, 0.0002593962
 213893575, -0.02618621, 0.006400892, 0.07302028, 0.0002593962
 213993535, -0.02517613, 0.005835422, 0.0584528, 0.0002593962
 214093495, -0.02472171, -0.003109002, 0.03149766, 0.0002593962
 214194288, -0.02591308, -0.004026014, 0.01908088, 0.0002615578
 214294248, -0.01928663, 0.003315943, 0.029848, 0.0002593962
 214394208, -0.008572225, -0.001150285, 0.08266887, 0.0002593962
 214494168, -0.0167439, -0.008106533, 0.05685294, 0.0002593962
 214594128, -0.01853384, 0.001343987, 0.001370539, 0.0002593962
 214694088, -0.02093015, -0.003710174, -0.02474552, 0.0002593962
 214794048, -0.04105238, -0.003151469, 0.01435002, 0.0002593962
 214894008, -0.06272095, -0.00495739, 0.07363471, 0.0002593962
 215013960, -0.113878, -0.009690286, 0.06213325, 0.0003112754
 215113920, -0.1241804, -0.0007409932, 0.08816003, 0.0002593962
 215213880, -0.1392333, -0.003471087, 0.1540766, 0.0002593962
 215313840, -0.1423933, -0.0006323043, 0.1904065, 0.0002593962
 215413800, -0.1439435, 0.001397236, 0.1812755, 0.0002593962
 215513760, -0.1529184, 0.01178041, 0.1916276, 0.0002593962
 215613720, -0.1515768, 0.008624928, 0.2029585, 0.0002593962
 215713680, -0.1510161, 0.003266075, 0.1807152, 0.0002593962
 215813640, -0.1472092, 0.00718347, 0.1848897, 0.0002593962
 215913600, -0.1305941, 0.007251258, 0.1799257, 0.0002593962
 216013560, -0.1106161, 0.005492038, 0.1946384, 0.0002593962
 216113520, -0.09111777, 0.008725692, 0.1811845, 0.0002593962
 216213480, -0.07887687, 0.01188325, 0.1853738, 0.0002593962
 216314273, -0.05402728, 0.003743419, 0.1501161, 0.0002615578
 216414233, -0.04741336, 0.002328896, 0.1446247, 0.0002593962
 216514193, -0.03498603, -0.002142549, 0.1230558, 0.0002593962
 216614153, -0.02179102, -0.002709852, 0.1303265, 0.0002593962
 216714113, -0.01251048, 0.003653619, 0.1197538, 0.0002593962
 216814073, -0.004522812, 0.001313421, 0.07296021, 0.0002593962
 216914033, -0.0009943543, 0.006768981, 0.06756791, 0.0002593962
 217013993, 0.007975176, 0.01166388, 0.0486788, 0.0002593962
 217133945, 0.01765109, 0.02520698, 0.01482504, 0.0003112754
 217233905, 0.01984899, 0.02059875, -0.05358799, 0.0002593962
 217333865, 0.02681878, 0.01148411, -0.06801182, 0.0002593962
 217433825, 0.02972959, 0.00729788, -0.03989691, 0.0002593962
 217533785, 0.02897936, 0.01035162, -0.03061362, 0.0002593962
 217633745, 0.03913853, 0.01003086, -0.03120885, 0.0002593962
 217733705, 0.05110972, 0.004663768, -0.05686109, 0.0002593962
 217833665, 0.08437584, 0.008667297, -0.05353428, 0.0002593962
 217933625, 0.08598965, 0.006631359, -0.04625036, 0.0002593962
 218033585, 0.08060189, 0.0004029866, -0.0974291, 0.0002593962
 218133545, 0.05100149, -0.004188627, -0.09970634, 0.0002593962
 218233505, 0.02762185, 0.0002746284, -0.07404715, 0.0002593962
 218334298, 0.06754923, 0.0008340556, -0.07609059, 0.0002593962
 218434258, 0.08130292, -0.006176167, -0.09376893, 0.0002615578
 218534218, 0.1566702, -0.008426908, -0.09038768, 0.0002593962
 218634178, 0.1134866, -0.01193839, -0.1065197, 0.0002593962
 218734138, 0.05723324, -0.01433156, -0.1032673, 0.0002593962
 218834098, -0.001884817, -0.01290856, -0.09952238, 0.0002593962
 218934058, 0.04478265, -0.01427278, -0.1131999, 0.0002593962
 219034018, 0.0673262, -0.007383018, -0.1213186, 0.0002593962
 219153970, 0.1360821, 0.0061818, -0.09868565, 0.0003112754
 219253930, 0.1383436, 0.00776304, -0.09413369, 0.0002593962
 219353890, 0.07846268, 0.004683734, -0.05750066, 0.0002593962
 219453850, 0.01672333, 0.004727831, -0.05956668, 0.0002593962
 219553810, -0.01090903, 0.001335826, -0.1314016, 0.0002593962
 219653770, 0.0457353, 0.006326871, -0.14008, 0.0002593962
 219753730, 0.05703529, 0.002132608, -0.06683367, 0.0002593962
 219853690, 0.05271112, 0.00795687, -0.0347228, 0.0002593962
 219953650, 0.04877366, 0.001122286, -0.0488376, 0.0002593962
 220053610, 0.04525147, -0.008725468, -0.0624166, 0.0002593962
 220153570, 0.005358807, -0.006892257, -0.06940204, 0.0002593962
 220253530, 0.02615717, 0.001281899, -0.07455359, 0.0002593962
 220353490, 0.04327834, 0.01252674, -0.04256845, 0.0002593962
 220454283, 0.03320169, 0.01294981, -0.02385706, 0.0002615578
 220554243, 0.03019872, 0.003038317, -0.06567763, 0.0002593962
 220654203, 0.02631495, 0.01477466, -0.06387957, 0.0002593962
 220754163, 0.02032172, 0.01909523, -0.04384534, 0.0002593962
 220854123, 0.01897726, 0.01154839, -0.07147828, 0.0002593962
 220954083, 0.01179865, 0.003182726, -0.04676323, 0.0002593962
 221054043, 0.01685377, -0.004736856, -0.04035883, 0.0002593962
 221154003, 0.002517487, -0.01455047, -0.08267793, 0.0002593962
 221273955, 0.03832461, -0.02426229, -0.06796542, 0.0003112754
 221373915, 0.02472901, 0.0007435618, 0.003644858, 0.0002593962
 221473875, 0.02177241, 0.01588307, 0.03265446, 0.0002593962
 221573835, 0.0124079, 0.01393144, -0.004630725, 0.0002593962
 221673795, 0.006904265, 0.01422124, -0.03826501, 0.0002593962
 221773755, 0.007970573, 0.01360508, -0.04893166, 0.0002593962
 221873715, 0.00349637, 0.01081203, -0.01463412, 0.0002593962
 221973675, 0.01045618, -0.002774303, -0.01942118, 0.0002593962
 222073635, 0.01418189, -0.008324409, -0.03837273, 0.0002593962
 222173595, 0.007461239, -0.00196353, -0.02044392, 0.0002593962
 222273555, 0.00903099, -0.007299104, -0.04811668, 0.0002593962
 222373515, 0.00858172, -0.0133756, -0.03615191, 0.0002593962
 222473475, 0.004196196, -0.01014578, -0.01658066, 0.0002593962
 222574268, 0.005168585, 0.01991576, -0.002616831, 0.0002615578
 222674228, 0.003732438, 0.008144633, 0.02210879, 0.0002593962
 222774188, 0.007594874, 0.00984621, 0.006929161, 0.0002593962
 222874148, -0.005332008, -0.001840709, 0.003355496, 0.0002593962
 222974108, -0.04050595, -0.008987314, 0.01586363, 0.0002593962
 223074068, -0.07255626, -0.01806051, 0.02615944, 0.0002593962
 223174028, -0.1031651, -0.0154659, 0.05501203, 0.0002593962
 223293980, -0.1938244, -0.01906861, 0.1218042, 0.0003112754
 223393940, -0.1369703, -0.004222172, 0.1184211, 0.0002593962
 223493900, -0.1152499, 0.007189647, 0.149344, 0.0002593962
 223593860, -0.1335588, 0.008657602, 0.1829488, 0.0002593962
 223693820, -0.1485895, 0.0134837, 0.1900745, 0.0002593962
 223793780, -0.1360662, 0.008492449, 0.1687461, 0.0002593962
 223893740, -0.113679, 0.0003546078, 0.1734144, 0.0002593962
 223993700, -0.09709258, -0.006059287, 0.1658473, 0.0002593962
 224093660, -0.07829189, -0.009195816, 0.1925343, 0.0002593962
 224193620, -0.06274293, -0.005794561, 0.1842888, 0.0002593962
 224293580, -0.04959983, 0.01044633, 0.1620886, 0.0002593962
 224393540, -0.03918372, 0.01009028, 0.1130987, 0.0002593962
 224493500, -0.03262653, 0.007491962, 0.1146053, 0.0002593962
 224594293, -0.03082936, 0.004966082, 0.1196944, 0.0002615578
 224694253, -0.02525394, 0.003863739, 0.1050284, 0.0002593962
 224794213, -0.02214765, 0.005215197, 0.07606836, 0.0002593962
 224894173, -0.009791819, -0.000278495, 0.06656663, 0.0002593962
 224994133, -0.004140311, 0.0005633036, 0.06310894, 0.0002593962
 225094093, 0.002480161, 0.008166978, 0.06778979, 0.0002593962
 225194053, 0.006378724, 0.005018364, 0.0324895, 0.0002593962
 225294013, 0.01939163, 0.004920981, -0.01568461, 0.0002593962
 225413965, 0.06640072, 0.01037557, -0.05574424, 0.0003112754
 225513925, 0.01935818, 0.01087983, -0.01752788, 0.0002593962
 225613885, 0.01247415, 0.005422585, -0.06432329, 0.0002593962
 225713845, 0.01391323, 0.01193239, -0.07935925, 0.0002593962
 225813805, 0.01458998, 0.01984193, -0.0510703, 0.0002593962
 225913765, 0.02442691, 0.01822448, -0.05863659, 0.0002593962
 226013725, 0.04502292, 0.001843808, -0.03331579, 0.0002593962
 226113685, 0.04518027, -0.003332676, -0.03661948, 0.0002593962
 226213645, -0.007819708, 0.004616735, -0.07006573, 0.0002593962
 226313605, 0.076176, 0.01920588, -0.05866118, 0.0002593962
 226413565, 0.07899843, 0.01938212, -0.04240171, 0.0002593962
 226513525, 0.08606777, 0.01077276, -0.05722171, 0.0002593962
 226613485, 0.1055775, 0.01972409, -0.06612265, 0.0002593962
 226714278, 0.08754349, 0.02413101, -0.1255874, 0.0002615578
 226814238, 0.06607592, 0.009678108, -0.1159939, 0.0002593962
 226914198, -0.0001168633, 0.0002975837, -0.1045692, 0.0002593962
 227014158, 0.03063034, 0.002691273, -0.1043736, 0.0002593962
 227114118, 0.048134, 0.006931066, -0.07893136, 0.0002593962
 227214078, 0.05797207, 0.01508576, -0.07011894, 0.0002593962
 227314038, 0.08497062, 0.0181511, -0.1065827, 0.0002593962
 227413998, 0.1276688, 0.02012483, -0.08755013, 0.0002593962
 227533950, 0.07646409, 0.03039863, -0.0869324, 0.0003112754
 227633910, 0.03304627, 0.02561832, -0.08331332, 0.0002593962
 227733870, 0.02240322, 0.0372404, -0.1092785, 0.0002593962
 227833830, -0.01123359, 0.02862934, -0.07332506, 0.0002593962
 227933790, 0.000407481, 0.02652772, -0.04129919, 0.0002593962
 228033750, 0.02159966, 0.01492162, -0.04458928, 0.0002593962
 228133710, 0.04231463, 0.0140243, -0.02558971, 0.0002593962
 228233670, 0.03840994, 0.003664766, -0.01746453, 0.0002593962
 228333630, 0.03505765, 0.006822962, -0.0152279, 0.0002593962
 228433590, 0.03045507, 0.01869541, -0.06084493, 0.0002593962
 228533550, 0.02219482, 0.01396192, -0.07542469, 0.0002593962
 228633510, 0.01684969, -0.0022723, -0.07743917, 0.0002593962
 228734303, 0.01830493, -0.006434074, -0.03729943, 0.0002593962
 228834263, 0.05653846, 0.004940245, -0.03159506, 0.0002615578
 228934223, 0.0205752, 0.01485769, -0.06226534, 0.0002593962
 229034183, 0.00316008, 0.003752916, -0.06938785, 0.0002593962
 229134143, -0.002154817, 0.00668772, -0.03429194, 0.0002593962
 229234103, 0.004411587, 0.0002190901, 0.006995759, 0.0002593962
 229334063, 0.001322957, -0.003115805, -0.00802785, 0.0002593962
 229434023, 0.002307754, 0.004512199, -0.02872783, 0.0002593962
 229553975, 0.009921231, 0.006407662, -0.001439053, 0.0003112754
 229653935, 0.001713825, 0.001970272, -0.006601525, 0.0002593962
 229753895, -0.02614865, 0.009653932, -0.0275248, 0.0002593962
 229853855, -0.06423073, 0.00623291, -0.009074252, 0.0002593962
 229953815, -0.153089, 0.005116536, 0.0499539, 0.0002593962
 230053775, -0.1272897, -0.002253625, 0.1120501, 0.0002593962
 230153735, -0.06678063, -0.01065271, 0.1544211, 0.0002593962
 230253695, -0.06918214, -0.004681053, 0.1782696, 0.0002593962
 230353655, -0.1127769, 0.004900432, 0.1724798, 0.0002593962
 230453615, -0.1817142, 0.008139534, 0.1506034, 0.0002593962
 230553575, -0.1500356, 0.0008420567, 0.162191, 0.0002593962
 230653535, -0.1027618, -0.00631021, 0.1756185, 0.0002593962
 230753495, -0.07815777, -0.01087486, 0.1583062, 0.0002593962
 230854288, -0.07019176, -0.00171547, 0.1573762, 0.0002615578
 230954248, -0.0471767, 0.008475747, 0.1417528, 0.0002593962
 231054208, -0.04375903, 0.01204158, 0.1359897, 0.0002593962
 231154168, -0.04111023, 0.007992973, 0.1282765, 0.0002593962
 231254128, -0.03185372, -0.005737321, 0.1364219, 0.0002593962
 231354088, -0.02207925, 0.00110257, 0.128516, 0.0002593962
 231454048, -0.01302189, -0.002969448, 0.09349041, 0.0002593962
 231554008, -0.01301979, -0.003336559, 0.101963, 0.0002593962
 231673960, -0.01211832, 0.001206308, 0.1191168, 0.0003112754
 231773920, -0.008493165, -0.002825174, 0.0642502, 0.0002593962
 231873880, -0.002477707, -0.004051144, 0.02021583, 0.0002593962
 231973840, -0.0006531421, -0.001724446, 0.02282235, 0.0002593962
 232073800, 0.006343683, -0.008663851, -0.01681681, 0.0002593962
 232173760, 0.009131105, -0.006377487, -0.03334926, 0.0002593962
 232273720, 0.01060246, -0.005789706, -0.04336349, 0.0002593962
 232373680, 0.01214769, -0.003967077, -0.02089045, 0.0002593962
 232473640, 0.0169736, -0.003387009, -0.04041342, 0.0002593962
 232573600, 0.01669216, -0.004696811, -0.08883172, 0.0002593962
 232673560, 0.01980652, -0.004133705, -0.08741152, 0.0002593962
 232773520, 0.03204999, 0.00374347, -0.09657482, 0.0002593962
 232873480, 0.0373675, -0.0006426891, -0.06069305, 0.0002593962
 232974273, 0.01915688, 0.009745378, -0.05513275, 0.0002615578
 233074233, 0.04374699, 0.01059531, -0.04250806, 0.0002593962
 233174193, 0.06206472, 0.003226611, -0.04550053, 0.0002593962
 233274153, 0.06920035, -0.0003584196, -0.06080647, 0.0002593962
 233374113, 0.1043086, -0.004552324, -0.03171951, 0.0002593962
 233474073, 0.09818417, -0.003720155, -0.05494087, 0.0002593962
 233574033, 0.07351081, -0.001394791, -0.1153226, 0.0002593962
 233673993, 0.02846739, 0.005445303, -0.1355768, 0.0002593962
 233793945, 0.03174949, -0.000272503, -0.09559117, 0.0003112754
 233893905, 0.06284867, 0.01185777, -0.05477408, 0.0002593962
 233993865, 0.05955511, 0.01655351, -0.1040222, 0.0002593962
 234093825, 0.053457, 0.007444805, -0.09831253, 0.0002593962
 234193785, 0.04010709, 0.002509174, -0.07584765, 0.0002593962
 234293745, 0.01305503, 0.001785604, -0.0525467, 0.0002593962
 234393705, 0.05246145, 0.005981659, -0.0620516, 0.0002593962
 234493665, 0.0445726, 0.009613263, -0.09723383, 0.0002593962
 234593625, 0.04155794, 0.004429862, -0.07674093, 0.0002593962
 234693585, 0.03201951, -0.002869776, -0.05765097, 0.0002593962
 234793545, 0.03283617, -0.007741673, -0.03678764, 0.0002593962
 234893505, 0.03420126, 0.003837445, -0.05515341, 0.0002593962
 234994298, 0.02869476, 0.01222785, -0.07990487, 0.0002593962
 235094258, 0.02312066, 0.00196117, -0.06212553, 0.0002615578
 235194218, 0.02229971, -0.009867359, -0.03849927, 0.0002593962
 235294178, 0.01828037, -0.02109549, -0.0468947, 0.0002593962
 235394138, 0.01591451, -0.01682661, -0.06501539, 0.0002593962
 235494098, 0.01648675, -0.01538428, -0.05050222, 0.0002593962
 235594058, 0.01905851, -0.01068789, 0.01476847, 0.0002593962
 235694018, 0.02119768, -0.009925514, -0.00819094, 0.0002593962
 235813970, 0.02466756, -0.001849815, -0.04293901, 0.0003112754
 235913930, 0.009893291, -0.002484307, -0.03370415, 0.0002593962
 236013890, 0.00091976, -0.003361899, -0.04321321, 0.0002593962
 236113850, -0.0656886, 0.06200386, -0.04967931, 0.0002593962
 236213810, -0.5408775, 0.08606024, -0.131978, 0.0002593962
