TimeUS,COFN,COFE,COFD,CNe,CEe,CDe,POFN,POFE,POFD,PNe,PEe,PDe
 158034261, 0, 0, 0, 0, 0, 0, 0, 0, 0, 0, 0, 0
 158234181, 0, 0, 0, 0, 0, 0, 0, 0, 0, 0, 0, 0
 158434101, 0, 0, 0, 0, 0, 0, 0, 0, 0, 0, 0, 0
 158634021, 0, 0, 0, 0, 0, 0, 0, 0, 0, 0, 0, 0
 158833941, 0, 0, 0, 0, 0, 0, 0, 0, 0, 0, 0, 0
 159033861, 0, 0, 0, 0, 0, 0, 0, 0, 0, 0, 0, 0
 159233781, 0, 0, 0, 0, 0, 0, 0, 0, 0, 0, 0, 0
 159433701, 0, 0, 0, 0, 0, 0, 0, 0, 0, 0, 0, 0
 159633621, 0, 0, 0, 0, 0, 0, 0, 0, 0, 0, 0, 0
 159833541, 0, 0, 0, 0, 0, 0, 0, 0, 0, 0, 0, 0
 160034294, 0, 0, 0, 0, 0, 0, 0, 0, 0, 0, 0, 0
 160234214, 0, 0, 0, 0, 0, 0, 0, 0, 0, 0, 0, 0
 160434134, 0, 0, 0, 0, 0, 0, 0, 0, 0, 0, 0, 0
 160634054, 0, 0, 0, 0, 0, 0, 0, 0, 0, 0, 0, 0
 160833974, 0, 0, 0, 0, 0, 0, 0, 0, 0, 0, 0, 0
 161033894, 0, 0, 0, 0, 0, 0, 0, 0, 0, 0, 0, 0
 161233814, 0, 0, 0, 0, 0, 0, 0, 0, 0, 0, 0, 0
 161433734, 0, 0, 0, 0, 0, 0, 0, 0, 0, 0, 0, 0
 161633654, -0.2825172, 0.02998565, -0.0320189, 0.1206689, -0.01007561, 0.9928918, 0, 0, 0, 0, 0, 0
 161833574, 0.1268779, -0.01653607, -0.07401086, 0.1563787, -0.008924238, 0.9889448, -0.2825172, 0.02998565, -0.0320189, 0.1206689, -0.01007561, 0.9928918
 162033494, 0.03667022, -0.003230579, -0.06462996, 0.1274221, 0.002923915, 0.9919316, 0.1268779, -0.01653607, -0.07401086, 0.1563787, -0.008924238, 0.9889448
 162234247, 0.01295054, -0.001391582, -0.03173951, 0.1246421, 0.003349996, 0.9922302, 0.03667022, -0.003230579, -0.06462996, 0.1274221, 0.002923915, 0.9919316
 162434167, -0.02009364, 0.001074911, -0.05798262, 0.1256872, -0.0005941074, 0.9920886, 0.01295054, -0.001391582, -0.03173951, 0.1246421, 0.003349996, 0.9922302
 162634087, -0.04964481, 0.002362065, -0.05413744, 0.1291571, -0.00501889, 0.9916281, -0.02009364, 0.001074911, -0.05798262, 0.1256872, -0.0005941074, 0.9920886
 162834007, -0.1035327, 0.008304182, -0.04164639, 0.1343557, -0.001371948, 0.9909519, -0.04964481, 0.002362065, -0.05413744, 0.1291571, -0.00501889, 0.9916281
 163033927, -0.1772342, 0.01479804, -0.03666315, 0.1386841, 0.001557474, 0.9903688, -0.1035327, 0.008304182, -0.04164639, 0.1343557, -0.001371948, 0.9909519
 163233847, -0.2816541, 0.03333071, -0.01735055, 0.1484767, -0.004352113, 0.9890478, -0.1772342, 0.01479804, -0.03666315, 0.1386841, 0.001557474, 0.9903688
 163433767, -0.5635832, 0.05726701, 0.01202691, 0.2015545, -0.01121443, 0.9816921, -0.2816541, 0.03333071, -0.01735055, 0.1484767, -0.004352113, 0.9890478
 163633687, -1.04267, 0.119739, 0.08459034, 0.3539409, -0.03183253, 0.9603832, -0.5635832, 0.05726701, 0.01202691, 0.2015545, -0.01121443, 0.9816921
 163833607, -2.04487, 0.2411947, 0.2289726, 0.8433554, -0.08727628, 0.8906022, -1.04267, 0.119739, 0.08459034, 0.3539409, -0.03183253, 0.9603832
 164033527, 3.567321, -0.424113, -0.5662755, 1122.528, -131.3381, -158.0742, -2.04487, 0.2411947, 0.2289726, 0.8433554, -0.08727628, 0.8906022
 164234280, 1.456519, -0.1759241, -0.265535, 1.181755, -0.1331325, 0.8400571, 3.567321, -0.424113, -0.5662755, 1122.528, -131.3381, -158.0742
 164434200, 0.8453366, -0.1011724, -0.1808314, 0.4311727, -0.04321684, 0.9487756, 1.456519, -0.1759241, -0.265535, 1.181755, -0.1331325, 0.8400571
 164634120, 0.6279619, -0.0683434, -0.150508, 0.2978039, -0.02391727, 0.9675983, 0.8453366, -0.1011724, -0.1808314, 0.4311727, -0.04321684, 0.9487756
 164834040, 0.6474717, -0.07936678, -0.1528333, 0.2975738, -0.02260237, 0.9677898, 0.6279619, -0.0683434, -0.150508, 0.2978039, -0.02391727, 0.9675983
 165033960, 0.5275198, -0.06668086, -0.1319888, 0.2401218, -0.01417586, 0.9767088, 0.6474717, -0.07936678, -0.1528333, 0.2975738, -0.02260237, 0.9677898
 165233880, 0.4913717, -0.05235592, -0.1129656, 0.216962, -0.01047589, 0.9805362, 0.5275198, -0.06668086, -0.1319888, 0.2401218, -0.01417586, 0.9767088
 165433800, 0.4301703, -0.04997581, -0.111273, 0.1897617, -0.009749036, 0.9846353, 0.4913717, -0.05235592, -0.1129656, 0.216962, -0.01047589, 0.9805362
 165633720, 0.4535471, -0.04920777, -0.1103763, 0.1855103, -0.01005175, 0.98571, 0.4301703, -0.04997581, -0.111273, 0.1897617, -0.009749036, 0.9846353
 165833640, 0.3873032, -0.04059396, -0.1054116, 0.163562, -0.004002007, 0.988528, 0.4535471, -0.04920777, -0.1103763, 0.1855103, -0.01005175, 0.98571
 166033560, 0.3792527, -0.03945359, -0.09737843, 0.1553071, -0.003572986, 0.9897012, 0.3873032, -0.04059396, -0.1054116, 0.163562, -0.004002007, 0.988528
 166233480, 0.4314588, -0.06216375, -0.09878848, 0.1558968, -0.003680023, 0.9902015, 0.3792527, -0.03945359, -0.09737843, 0.1553071, -0.003572986, 0.9897012
 166434233, 0.3768303, -0.03907455, -0.08674242, 0.1396111, 4.77843E-05, 0.991931, 0.4314588, -0.06216375, -0.09878848, 0.1558968, -0.003680023, 0.9902015
 166634153, 0.3894426, -0.04273736, -0.05985341, 0.1335565, 0.0002814196, 0.9928369, 0.3768303, -0.03907455, -0.08674242, 0.1396111, 4.77843E-05, 0.991931
 166834073, 0.3521209, -0.0587487, -0.0853352, 0.1217337, -0.00229151, 0.9940301, 0.3894426, -0.04273736, -0.05985341, 0.1335565, 0.0002814196, 0.9928369
 167033993, 0.3711008, -0.02905728, -0.05264698, 0.1114039, -0.03393797, 0.994771, 0.3521209, -0.0587487, -0.0853352, 0.1217337, -0.00229151, 0.9940301
 167233913, 0.3666736, -0.05490401, -0.0497155, 0.09709331, -0.05546377, 0.9952647, 0.3711008, -0.02905728, -0.05264698, 0.1114039, -0.03393797, 0.994771
 167433833, 0.3675762, -0.04459669, -0.04265764, 0.09308096, -0.05083449, 0.9958542, 0.3666736, -0.05490401, -0.0497155, 0.09709331, -0.05546377, 0.9952647
 167633753, 0.3653235, -0.06150594, -0.04042579, 0.08844866, -0.02864151, 0.9971787, 0.3675762, -0.04459669, -0.04265764, 0.09308096, -0.05083449, 0.9958542
 167833673, 0.3386492, -0.05238772, -0.04101827, 0.07663695, -0.01919879, 0.998189, 0.3653235, -0.06150594, -0.04042579, 0.08844866, -0.02864151, 0.9971787
 168033593, 0.3848302, -0.0526772, -0.03900767, 0.07331178, -0.02701644, 0.9985813, 0.3386492, -0.05238772, -0.04101827, 0.07663695, -0.01919879, 0.998189
 168233513, 0.3349783, -0.02731412, -0.03463458, 0.05869634, -0.02607063, 0.999219, 0.3848302, -0.0526772, -0.03900767, 0.07331178, -0.02701644, 0.9985813
 168434266, 0.3708703, -0.03345988, -0.002976777, 0.05786061, -0.02000901, 0.9996396, 0.3349783, -0.02731412, -0.03463458, 0.05869634, -0.02607063, 0.999219
 168634186, 0.3597623, -0.04020954, -0.02499197, 0.0482717, -0.01322698, 1.000184, 0.3708703, -0.03345988, -0.002976777, 0.05786061, -0.02000901, 0.9996396
 168834106, 0.347856, -0.0557152, -0.02739543, 0.03792683, -0.01334746, 1.000552, 0.3597623, -0.04020954, -0.02499197, 0.0482717, -0.01322698, 1.000184
 169034026, 0.3217894, -0.01613278, 0.00507959, 0.02919814, -0.01080122, 1.000726, 0.347856, -0.0557152, -0.02739543, 0.03792683, -0.01334746, 1.000552
 169233946, 0.3751477, -0.02072017, -0.02158091, 0.02918368, -0.008098304, 1.001075, 0.3217894, -0.01613278, 0.00507959, 0.02919814, -0.01080122, 1.000726
 169433866, 0.3506981, -0.04631016, 0.01132889, 0.01511414, -0.00491282, 1.001253, 0.3751477, -0.02072017, -0.02158091, 0.02918368, -0.008098304, 1.001075
 169633786, 0.3152826, -0.02918951, 0.0130357, 0.002694126, -0.001345558, 1.001175, 0.3506981, -0.04631016, 0.01132889, 0.01511414, -0.00491282, 1.001253
 169833706, 0.3514362, -0.04202607, 0.01564797, 0.003304679, -0.003849547, 1.001371, 0.3152826, -0.02918951, 0.0130357, 0.002694126, -0.001345558, 1.001175
 170033626, 0.3113402, -0.01240305, 0.01503541, -0.003981423, -0.001671696, 1.001152, 0.3514362, -0.04202607, 0.01564797, 0.003304679, -0.003849547, 1.001371
 170233546, 0.329966, -0.03616157, 0.01743795, -0.006838575, 0.002663655, 1.001232, 0.3113402, -0.01240305, 0.01503541, -0.003981423, -0.001671696, 1.001152
 170434299, 0.3222515, -0.02682614, 0.01904134, -0.01355819, 0.005524396, 1.00111, 0.329966, -0.03616157, 0.01743795, -0.006838575, 0.002663655, 1.001232
 170634219, 0.31239, -0.02579888, 0.02046862, -0.0208165, 0.009115424, 1.000908, 0.3222515, -0.02682614, 0.01904134, -0.01355819, 0.005524396, 1.00111
 170834139, 0.3666342, -0.04781517, 0.02590861, -0.01854807, 0.01441414, 1.00121, 0.31239, -0.02579888, 0.02046862, -0.0208165, 0.009115424, 1.000908
 171034059, 0.3194619, -0.04173063, 0.0232611, -0.02659912, 0.01530503, 1.000732, 0.3666342, -0.04781517, 0.02590861, -0.01854807, 0.01441414, 1.00121
 171233979, 0.3288824, -0.04011352, 0.02398074, -0.02622378, 0.01041287, 1.000856, 0.3194619, -0.04173063, 0.0232611, -0.02659912, 0.01530503, 1.000732
 171433899, 0.3426231, -0.01555371, 0.02625903, -0.02811003, 0.008377671, 1.000905, 0.3288824, -0.04011352, 0.02398074, -0.02622378, 0.01041287, 1.000856
 171633819, 0.3272593, -0.02205214, 0.02584364, -0.0324227, 0.008408443, 1.000686, 0.3426231, -0.01555371, 0.02625903, -0.02811003, 0.008377671, 1.000905
 171833739, 0.3362195, -0.03638219, 0.05806269, -0.03534869, 0.007580949, 1.000655, 0.3272593, -0.02205214, 0.02584364, -0.0324227, 0.008408443, 1.000686
 172033659, 0.3173367, -0.04437895, 0.0266754, -0.0394083, 0.005150725, 1.000396, 0.3362195, -0.03638219, 0.05806269, -0.03534869, 0.007580949, 1.000655
 172233579, 0.325886, -0.03830992, 0.0279929, -0.03937705, 0.01009063, 1.000406, 0.3173367, -0.04437895, 0.0266754, -0.0394083, 0.005150725, 1.000396
 172433499, 0.3729862, -0.0299854, 0.03272619, -0.03447565, 0.0144454, 1.000837, 0.325886, -0.03830992, 0.0279929, -0.03937705, 0.01009063, 1.000406
 172634252, 0.3588325, -0.03049166, 0.03191667, -0.03761648, 0.01404395, 1.000631, 0.3729862, -0.0299854, 0.03272619, -0.03447565, 0.0144454, 1.000837
 172834172, 0.3457076, -0.02229588, 0.03082753, -0.03960082, 0.01380732, 1.000472, 0.3588325, -0.03049166, 0.03191667, -0.03761648, 0.01404395, 1.000631
 173034092, 0.357603, -0.04215944, 0.06253611, -0.03925266, 0.01069869, 1.000623, 0.3457076, -0.02229588, 0.03082753, -0.03960082, 0.01380732, 1.000472
 173234012, 0.3174537, -0.04542258, 0.05991682, -0.04843684, 0.005752239, 1.000007, 0.357603, -0.04215944, 0.06253611, -0.03925266, 0.01069869, 1.000623
 173433932, 0.3249523, -0.04495573, 0.03083451, -0.0491468, 0.003431495, 1.00001, 0.3174537, -0.04542258, 0.05991682, -0.04843684, 0.005752239, 1.000007
 173633852, 0.358374, -0.02105352, 0.06463103, -0.04480818, 0.004154011, 1.00045, 0.3249523, -0.04495573, 0.03083451, -0.0491468, 0.003431495, 1.00001
 173833772, 0.3589998, -0.02661447, 0.06421819, -0.04350793, 0.003366161, 1.000516, 0.358374, -0.02105352, 0.06463103, -0.04480818, 0.004154011, 1.00045
 174033692, 0.3370911, -0.01336787, 0.06163137, -0.04466594, 0.006634477, 1.000298, 0.3589998, -0.02661447, 0.06421819, -0.04350793, 0.003366161, 1.000516
 174233612, 0.3842657, -0.03670284, 0.03610543, -0.03881865, 0.006938026, 1.000873, 0.3370911, -0.01336787, 0.06163137, -0.04466594, 0.006634477, 1.000298
 174433532, 0.3546507, -0.03188942, 0.03364663, -0.04400598, 0.008240359, 1.000418, 0.3842657, -0.03670284, 0.03610543, -0.03881865, 0.006938026, 1.000873
 174634285, 0.3759734, -0.0287394, 0.06576875, -0.04014159, 0.008937739, 1.000764, 0.3546507, -0.03188942, 0.03364663, -0.04400598, 0.008240359, 1.000418
 174834205, 0.3778417, -0.03726987, 0.03644392, -0.03691481, 0.01300222, 0.9532614, 0.3759734, -0.0287394, 0.06576875, -0.04014159, 0.008937739, 1.000764
 175034125, 0.3239105, -0.04357157, 0.03173236, -0.05024953, 0.01656276, 0.9998164, 0.3778417, -0.03726987, 0.03644392, -0.03691481, 0.01300222, 0.9532614
 175234045, 0.3790222, -0.04909169, 0.03789373, -0.04352286, 0.02043253, 1.000468, 0.3239105, -0.04357157, 0.03173236, -0.05024953, 0.01656276, 0.9998164
 175433965, 0.3715057, -0.02967953, 0.03698306, -0.04493395, 0.01857843, 1.000378, 0.3790222, -0.04909169, 0.03789373, -0.04352286, 0.02043253, 1.000468
 175633885, 0.3713653, -0.03373831, 0.03686, -0.04482083, 0.01483226, 1.000448, 0.3715057, -0.02967953, 0.03698306, -0.04493395, 0.01857843, 1.000378
 175833805, 0.3762381, -0.04914357, 0.06149985, -0.04119305, 0.01172132, 1.000713, 0.3713653, -0.03373831, 0.03686, -0.04482083, 0.01483226, 1.000448
 176033725, 0.3907522, -0.02409462, 0.03790387, -0.03977897, 0.0102636, 1.000892, 0.3762381, -0.04914357, 0.06149985, -0.04119305, 0.01172132, 1.000713
 176233645, 0.352318, -0.01519746, 0.03443298, -0.04640749, 0.01086856, 1.000283, 0.3907522, -0.02409462, 0.03790387, -0.03977897, 0.0102636, 1.000892
 176433565, 0.3815767, -0.01585276, 0.06632622, -0.03848362, 0.01031762, 1.000892, 0.352318, -0.01519746, 0.03443298, -0.04640749, 0.01086856, 1.000283
 176633485, 0.3757766, -0.02077538, 0.03514035, -0.0383529, 0.01252624, 1.000798, 0.3815767, -0.01585276, 0.06632622, -0.03848362, 0.01031762, 1.000892
 176834238, 0.3585336, -0.02239765, 0.06344047, -0.04000373, 0.01168421, 1.000626, 0.3757766, -0.02077538, 0.03514035, -0.0383529, 0.01252624, 1.000798
 177034158, 0.3638494, -0.02318089, 0.03413418, -0.0405049, 0.01097365, 1.000636, 0.3585336, -0.02239765, 0.06344047, -0.04000373, 0.01168421, 1.000626
 177234078, 0.4115531, -0.03316528, 0.03898872, -0.03330586, 0.01060273, 1.00136, 0.3638494, -0.02318089, 0.03413418, -0.0405049, 0.01097365, 1.000636
 177433998, 0.3755348, -0.03169167, 0.0358202, -0.03993726, 0.01173101, 1.000757, 0.4115531, -0.03316528, 0.03898872, -0.03330586, 0.01060273, 1.00136
 177633918, 0.4033176, -0.04556264, 0.0687049, -0.03455521, 0.01272645, 1.001251, 0.3755348, -0.03169167, 0.0358202, -0.03993726, 0.01173101, 1.000757
 177833838, 0.3970042, -0.03414484, 0.03786777, -0.036602, 0.01443292, 1.001015, 0.4033176, -0.04556264, 0.0687049, -0.03455521, 0.01272645, 1.001251
 178033758, 0.3704265, -0.0445083, 0.0343173, -0.0373859, 0.01580872, 1.000758, 0.3970042, -0.03414484, 0.03786777, -0.036602, 0.01443292, 1.001015
 178233678, 0.3541669, -0.02791474, 0.03143705, -0.03638763, 0.01686361, 1.000638, 0.3704265, -0.0445083, 0.0343173, -0.0373859, 0.01580872, 1.000758
 178433598, 0.3456232, -0.01672167, 0.0309418, -0.0388059, 0.01533272, 1.000505, 0.3541669, -0.02791474, 0.03143705, -0.03638763, 0.01686361, 1.000638
 178633518, 0.4005468, -0.02916986, 0.03642524, -0.03139795, 0.01241259, 1.001284, 0.3456232, -0.01672167, 0.0309418, -0.0388059, 0.01533272, 1.000505
 178834271, 0.3744062, -0.03221687, 0.03436286, -0.03665876, 0.01184671, 1.000866, 0.4005468, -0.02916986, 0.03642524, -0.03139795, 0.01241259, 1.001284
 179034191, 0.3473661, -0.0109939, 0.0320152, -0.04147946, 0.01104074, 1.000466, 0.3744062, -0.03221687, 0.03436286, -0.03665876, 0.01184671, 1.000866
 179234111, 0.3526455, -0.01089637, 0.03279597, -0.04160967, 0.008901685, 1.000521, 0.3473661, -0.0109939, 0.0320152, -0.04147946, 0.01104074, 1.000466
 179434031, 0.3665021, -0.02272354, 0.00338283, -0.03907436, -0.0008827103, 1.000748, 0.3526455, -0.01089637, 0.03279597, -0.04160967, 0.008901685, 1.000521
 179633951, 0.3984029, -0.0170615, 0.03593949, -0.03238783, -0.009248745, 1.001252, 0.3665021, -0.02272354, 0.00338283, -0.03907436, -0.0008827103, 1.000748
 179833871, 0.3509032, -0.03988537, 0.0308086, -0.03909859, -0.009844203, 1.000595, 0.3984029, -0.0170615, 0.03593949, -0.03238783, -0.009248745, 1.001252
 180033791, 0.3849171, -0.03078601, 0.03319997, -0.03167595, -0.01107895, 1.001125, 0.3509032, -0.03988537, 0.0308086, -0.03909859, -0.009844203, 1.000595
 180233711, 0.3560019, -0.03510468, 0.03010518, -0.03528841, -0.01293623, 1.000736, 0.3849171, -0.03078601, 0.03319997, -0.03167595, -0.01107895, 1.001125
 180433631, 0.3830808, -0.02593042, 0.03287479, -0.03170706, -0.01403065, 1.001063, 0.3560019, -0.03510468, 0.03010518, -0.03528841, -0.01293623, 1.000736
 180633551, 0.3609177, -0.04178508, 0.0299214, -0.0355782, -0.03127154, 1.000355, 0.3830808, -0.02593042, 0.03287479, -0.03170706, -0.01403065, 1.001063
 180834304, 0.3790335, -0.003450161, 0.00387956, -0.03632373, -0.09415387, 0.9965006, 0.3609177, -0.04178508, 0.0299214, -0.0355782, -0.03127154, 1.000355
 181034224, 0.3982805, 0.01313753, -0.08196265, -0.04089691, -0.2633914, 0.965544, 0.3790335, -0.003450161, 0.00387956, -0.03632373, -0.09415387, 0.9965006
 181234144, 0.3681284, -0.06511543, 0.1398668, -0.03466954, -0.2871494, 0.9589111, 0.3982805, 0.01313753, -0.08196265, -0.04089691, -0.2633914, 0.965544
 181434064, 0.3603233, -0.02732446, 0.05409668, -0.01443783, 0.01461037, 1.001266, 0.3681284, -0.06511543, 0.1398668, -0.03466954, -0.2871494, 0.9589111
 181633984, 0.3432854, 0.00057704, 0.02556938, -0.02541842, 0.133977, 0.9920061, 0.3603233, -0.02732446, 0.05409668, -0.01443783, 0.01461037, 1.001266
 181833904, 0.3939168, 0.01077447, 0.0325481, -0.02560592, -0.01153475, 1.00135, 0.3432854, 0.00057704, 0.02556938, -0.02541842, 0.133977, 0.9920061
 182033824, 0.3919602, -0.0300645, 0.03014659, -0.02992025, -0.1089295, 0.995317, 0.3939168, 0.01077447, 0.0325481, -0.02560592, -0.01153475, 1.00135
 182233744, 0.371742, -0.003274358, 0.02989712, -0.02770357, -0.02982225, 1.000721, 0.3919602, -0.0300645, 0.03014659, -0.02992025, -0.1089295, 0.995317
 182433664, 0.361934, -0.006568845, 0.0290762, -0.02843343, 0.03989004, 1.00027, 0.371742, -0.003274358, 0.02989712, -0.02770357, -0.02982225, 1.000721
 182633584, 0.3656518, -0.01026757, 0.02932782, -0.02829594, 0.01988447, 1.000897, 0.361934, -0.006568845, 0.0290762, -0.02843343, 0.03989004, 1.00027
 182833504, 0.3944916, -0.008662464, 0.03137397, -0.02399688, -0.01909786, 1.001266, 0.3656518, -0.01026757, 0.02932782, -0.02829594, 0.01988447, 1.000897
 183034257, 0.4034266, -0.02452551, 0.03076048, -0.02035512, -0.01487342, 1.001494, 0.3944916, -0.008662464, 0.03137397, -0.02399688, -0.01909786, 1.001266
 183234177, 0.394035, -0.01462972, 0.03085564, -0.02218701, 0.01448302, 1.001376, 0.4034266, -0.02452551, 0.03076048, -0.02035512, -0.01487342, 1.001494
 183434097, 0.376507, -0.01628421, 0.02925218, -0.02415722, 0.02102339, 1.001062, 0.394035, -0.01462972, 0.03085564, -0.02218701, 0.01448302, 1.001376
 183634017, 0.3753173, -0.01690307, 0.0285852, -0.02343109, 0.009231088, 1.001246, 0.376507, -0.01628421, 0.02925218, -0.02415722, 0.02102339, 1.001062
 183833937, 0.3694039, 0.009022865, 0.02822698, -0.02396607, 0.006227832, 1.001221, 0.3753173, -0.01690307, 0.0285852, -0.02343109, 0.009231088, 1.001246
 184033857, 0.3660624, -0.004555785, 0.003070444, -0.02565203, 0.01004177, 1.001099, 0.3694039, 0.009022865, 0.02822698, -0.02396607, 0.006227832, 1.001221
 184233777, 0.3529601, -0.01140915, 0.01390696, 0.00994885, 0.01390306, 1.001241, 0.3660624, -0.004555785, 0.003070444, -0.02565203, 0.01004177, 1.001099
 184433697, 0.3922818, 0.006015629, 0.01314426, 0.0219209, 0.01121825, 1.001399, 0.3529601, -0.01140915, 0.01390696, 0.00994885, 0.01390306, 1.001241
 184633617, 0.3395748, -0.008024666, 0.01150411, 0.01333262, 0.004436392, 1.001198, 0.3922818, 0.006015629, 0.01314426, 0.0219209, 0.01121825, 1.001399
 184833537, 0.3710448, -0.01546423, 0.01407123, 0.01361154, 0.004926074, 1.001413, 0.3395748, -0.008024666, 0.01150411, 0.01333262, 0.004436392, 1.001198
 185034290, 0.4031205, 0.005397269, 0.01652597, 0.01623388, 0.00531879, 1.001653, 0.3710448, -0.01546423, 0.01407123, 0.01361154, 0.004926074, 1.001413
 185234210, 0.355914, 0.00919731, 0.01478716, 0.008541912, 0.01060537, 1.001326, 0.4031205, 0.005397269, 0.01652597, 0.01623388, 0.00531879, 1.001653
 185434130, 0.3984388, 0.008919397, 0.01826942, 0.01062806, 0.01409813, 1.001606, 0.355914, 0.00919731, 0.01478716, 0.008541912, 0.01060537, 1.001326
 185634050, 0.369965, -0.0101964, 0.01642586, 0.00749477, 0.01354532, 1.001395, 0.3984388, 0.008919397, 0.01826942, 0.01062806, 0.01409813, 1.001606
 185833970, 0.3888079, -0.01438623, 0.01774439, 0.009127326, 0.01195288, 1.001556, 0.369965, -0.0101964, 0.01642586, 0.00749477, 0.01354532, 1.001395
 186033890, 0.3942518, -0.0166253, 0.01768538, 0.01096917, 0.01705943, 1.001511, 0.3888079, -0.01438623, 0.01774439, 0.009127326, 0.01195288, 1.001556
 186233810, 0.3648359, 0.008406121, 0.01552795, 0.008720212, 0.01918375, 1.001265, 0.3942518, -0.0166253, 0.01768538, 0.01096917, 0.01705943, 1.001511
 186433730, 0.3970246, -0.006563336, 0.01737672, 0.01256556, 0.01861031, 1.001495, 0.3648359, 0.008406121, 0.01552795, 0.008720212, 0.01918375, 1.001265
 186633650, 0.352324, 0.002156833, 0.015274, 0.00611699, 0.01883836, 1.001196, 0.3970246, -0.006563336, 0.01737672, 0.01256556, 0.01861031, 1.001495
 186833570, 0.3923627, 0.0127459, 0.01642242, 0.01361172, 0.02123969, 1.001398, 0.352324, 0.002156833, 0.015274, 0.00611699, 0.01883836, 1.001196
 187033490, 0.3842161, 0.006142366, 0.01595779, 0.0126578, 0.02462457, 1.001259, 0.3923627, 0.0127459, 0.01642242, 0.01361172, 0.02123969, 1.001398
 187234243, 0.3718297, -0.005151687, 0.01637932, 0.008427765, 0.02345118, 1.001225, 0.3842161, 0.006142366, 0.01595779, 0.0126578, 0.02462457, 1.001259
 187434163, 0.3794244, 0.006573617, 0.01729732, 0.007834587, 0.0272559, 1.001202, 0.3718297, -0.005151687, 0.01637932, 0.008427765, 0.02345118, 1.001225
 187634083, 0.3995522, 0.0009006727, 0.01827342, 0.01100549, 0.02611368, 1.001374, 0.3794244, 0.006573617, 0.01729732, 0.007834587, 0.0272559, 1.001202
 187834003, 0.3707786, -0.008470587, 0.01709719, 0.006332308, 0.0256153, 1.001178, 0.3995522, 0.0009006727, 0.01827342, 0.01100549, 0.02611368, 1.001374
 188033923, 0.3729651, -0.02095849, 0.04914758, 0.002354611, 0.02910896, 1.001126, 0.3707786, -0.008470587, 0.01709719, 0.006332308, 0.0256153, 1.001178
 188233843, 0.4079246, -0.01262393, 0.0214328, 0.00547424, 0.03110279, 1.001309, 0.3729651, -0.02095849, 0.04914758, 0.002354611, 0.02910896, 1.001126
 188433763, 0.4038251, -0.0013645, 0.02024128, 0.007513784, 0.03015313, 1.001337, 0.4079246, -0.01262393, 0.0214328, 0.00547424, 0.03110279, 1.001309
 188633683, 0.4093736, -0.01823984, 0.02098864, 0.007788409, 0.02704734, 1.001472, 0.4038251, -0.0013645, 0.02024128, 0.007513784, 0.03015313, 1.001337
 188833603, 0.3645587, -0.004039505, 0.0509066, -0.005397588, 0.01927427, 1.001299, 0.4093736, -0.01823984, 0.02098864, 0.007788409, 0.02704734, 1.001472
 189033523, 0.3556611, -0.008270677, 0.0227944, -0.01503243, -0.03316958, 1.000755, 0.3645587, -0.004039505, 0.0509066, -0.005397588, 0.01927427, 1.001299
 189234276, 0.4208271, -0.01274529, 0.05829386, -0.007501137, -0.04567325, 1.000952, 0.3556611, -0.008270677, 0.0227944, -0.01503243, -0.03316958, 1.000755
 189434196, 0.3683389, -0.02464328, 0.05462795, -0.01493401, 0.000925431, 1.001421, 0.4208271, -0.01274529, 0.05829386, -0.007501137, -0.04567325, 1.000952
 189634116, 0.3820319, -0.002710623, 0.06064771, -0.0118863, 0.03127845, 1.001103, 0.3683389, -0.02464328, 0.05462795, -0.01493401, 0.000925431, 1.001421
 189834036, 0.4061937, 0.007922505, 0.02501431, -0.003384583, 0.03790809, 1.001151, 0.3820319, -0.002710623, 0.06064771, -0.0118863, 0.03127845, 1.001103
 190033956, 0.4071303, 0.0004204244, 0.04880457, 0.0007327981, 0.03882665, 1.001145, 0.4061937, 0.007922505, 0.02501431, -0.003384583, 0.03790809, 1.001151
 190233876, 0.3893266, 0.004008222, 0.02249572, -0.002034854, 0.03439432, 1.001125, 0.4071303, 0.0004204244, 0.04880457, 0.0007327981, 0.03882665, 1.001145
 190433796, 0.3732666, -0.01219717, 0.0211622, -0.003051549, 0.02472355, 1.001261, 0.3893266, 0.004008222, 0.02249572, -0.002034854, 0.03439432, 1.001125
 190633716, 0.3720276, 0.005836476, 0.02182281, -0.005277548, 0.005379518, 1.001542, 0.3732666, -0.01219717, 0.0211622, -0.003051549, 0.02472355, 1.001261
 190833636, 0.3956891, -0.005466461, 0.02387707, -0.003092527, 0.01793236, 1.001617, 0.3720276, 0.005836476, 0.02182281, -0.005277548, 0.005379518, 1.001542
 191033556, 0.3695079, 0.007580745, 0.02169454, -0.005645745, 0.01010018, 1.001488, 0.3956891, -0.005466461, 0.02387707, -0.003092527, 0.01793236, 1.001617
 191233476, 0.4090969, -0.01042904, 0.02320151, 0.002800018, 0.01009433, 1.001867, 0.3695079, 0.007580745, 0.02169454, -0.005645745, 0.01010018, 1.001488
 191434229, 0.4160559, -0.008670999, 0.02238584, 0.007237393, 0.01965877, 1.001781, 0.4090969, -0.01042904, 0.02320151, 0.002800018, 0.01009433, 1.001867
 191634149, 0.3978362, 0.01215286, 0.02205148, 0.002283663, 0.01876584, 1.001643, 0.4160559, -0.008670999, 0.02238584, 0.007237393, 0.01965877, 1.001781
 191834069, 0.4429785, -0.00731227, 0.02502882, 0.00935125, 0.01489275, 1.002157, 0.3978362, 0.01215286, 0.02205148, 0.002283663, 0.01876584, 1.001643
 192033989, 0.370074, 0.004110456, 0.02103245, -0.003681816, 0.01195018, 1.001483, 0.4429785, -0.00731227, 0.02502882, 0.00935125, 0.01489275, 1.002157
 192233909, 0.4063576, 0.0004722732, 0.02299149, 0.002579339, 0.008958848, 1.001854, 0.370074, 0.004110456, 0.02103245, -0.003681816, 0.01195018, 1.001483
 192433829, 0.374983, -0.01852787, 0.02010379, 4.317611E-06, 0.01188276, 1.001519, 0.4063576, 0.0004722732, 0.02299149, 0.002579339, 0.008958848, 1.001854
 192633749, 0.3995775, -0.01524302, 0.02042596, 0.006511368, 0.01117337, 1.001733, 0.374983, -0.01852787, 0.02010379, 4.317611E-06, 0.01188276, 1.001519
 192833669, 0.41453, -0.01529645, 0.0215476, 0.008281145, 0.01204165, 1.001862, 0.3995775, -0.01524302, 0.02042596, 0.006511368, 0.01117337, 1.001733
 193033589, 0.4249365, -0.01451047, 0.02298877, 0.008110188, 0.01522443, 1.001932, 0.41453, -0.01529645, 0.0215476, 0.008281145, 0.01204165, 1.001862
 193233509, 0.3775305, 0.005279256, 0.01998612, 0.001141589, 0.01618947, 1.001486, 0.4249365, -0.01451047, 0.02298877, 0.008110188, 0.01522443, 1.001932
 193434262, 0.3993287, -0.01555247, 0.02089292, 0.005299926, 0.01652678, 1.001656, 0.3775305, 0.005279256, 0.01998612, 0.001141589, 0.01618947, 1.001486
 193634182, 0.3979826, 0.01084293, 0.0198995, 0.007133223, 0.02472653, 1.001472, 0.3993287, -0.01555247, 0.02089292, 0.005299926, 0.01652678, 1.001656
 193834102, 0.4284497, -0.01820121, 0.02121835, 0.01310838, 0.01891858, 1.001839, 0.3979826, 0.01084293, 0.0198995, 0.007133223, 0.02472653, 1.001472
 194034022, 0.4353797, -0.01478233, 0.02278976, 0.01137583, 0.01726601, 1.001966, 0.4284497, -0.01820121, 0.02121835, 0.01310838, 0.01891858, 1.001839
 194233942, 0.3942572, -0.003038593, 0.02070965, 0.004077055, 0.02707834, 1.001379, 0.4353797, -0.01478233, 0.02278976, 0.01137583, 0.01726601, 1.001966
 194433862, 0.4340836, -0.004009745, 0.02176845, 0.01317068, 0.01760842, 1.001919, 0.3942572, -0.003038593, 0.02070965, 0.004077055, 0.02707834, 1.001379
 194633782, 0.388045, -0.01476458, 0.01983278, 0.004282169, 0.01751977, 1.001523, 0.4340836, -0.004009745, 0.02176845, 0.01317068, 0.01760842, 1.001919
 194833702, 0.3780365, -0.002332818, -0.01176753, 0.005074739, 0.01254332, 1.001497, 0.388045, -0.01476458, 0.01983278, 0.004282169, 0.01751977, 1.001523
 195033622, 0.4189184, -0.01378194, 0.01998941, 0.01262094, 0.01533241, 1.001782, 0.3780365, -0.002332818, -0.01176753, 0.005074739, 0.01254332, 1.001497
 195233542, 0.4058532, 0.01090268, 0.01913044, 0.01089191, 0.02193338, 1.001558, 0.4189184, -0.01378194, 0.01998941, 0.01262094, 0.01533241, 1.001782
 195434295, 0.4202523, 0.005536968, 0.02070631, 0.01121137, 0.02260996, 1.00168, 0.4058532, 0.01090268, 0.01913044, 0.01089191, 0.02193338, 1.001558
 195634215, 0.3838563, -0.01195344, 0.0204677, 0.001245804, 0.02088914, 1.001422, 0.4202523, 0.005536968, 0.02070631, 0.01121137, 0.02260996, 1.00168
 195834135, 0.3820664, -0.01179335, 0.01908418, 0.004288808, 0.02236022, 1.001364, 0.3838563, -0.01195344, 0.0204677, 0.001245804, 0.02088914, 1.001422
 196034055, 0.3578139, -0.002522058, 0.01915921, -0.003103551, 0.02499376, 1.001117, 0.3820664, -0.01179335, 0.01908418, 0.004288808, 0.02236022, 1.001364
 196233975, 0.4140066, 0.01015158, 0.02206068, 0.005657565, 0.0327188, 1.001378, 0.3578139, -0.002522058, 0.01915921, -0.003103551, 0.02499376, 1.001117
 196433895, 0.3502169, -0.01493909, 0.01919165, -0.005081587, 0.02835121, 1.000957, 0.4140066, 0.01015158, 0.02206068, 0.005657565, 0.0327188, 1.001378
 196633815, 0.4077863, -0.006249397, 0.02243576, 0.003119361, 0.0156276, 1.001728, 0.3502169, -0.01493909, 0.01919165, -0.005081587, 0.02835121, 1.000957
 196833735, 0.3610527, -0.00566149, 0.02026527, -0.005487707, 0.007936011, 1.001408, 0.4077863, -0.006249397, 0.02243576, 0.003119361, 0.0156276, 1.001728
 197033655, 0.3714781, -0.01392957, 0.02148152, -0.005437318, 0.0181991, 1.001351, 0.3610527, -0.00566149, 0.02026527, -0.005487707, 0.007936011, 1.001408
 197233575, 0.4005494, 0.002165876, -0.006658576, -0.001852881, 0.03397742, 1.001194, 0.3714781, -0.01392957, 0.02148152, -0.005437318, 0.0181991, 1.001351
 197433495, 0.37597, -0.005950844, 0.02218138, -0.005655784, 0.03799225, 1.000833, 0.4005494, 0.002165876, -0.006658576, -0.001852881, 0.03397742, 1.001194
 197634248, 0.4197715, 0.008469639, 0.02441963, 0.001696378, 0.02731338, 1.001602, 0.37597, -0.005950844, 0.02218138, -0.005655784, 0.03799225, 1.000833
 197834168, 0.4215489, -0.01262519, -0.005138725, 0.0007670298, 0.01270505, 1.001882, 0.4197715, 0.008469639, 0.02441963, 0.001696378, 0.02731338, 1.001602
 198034088, 0.3876232, -0.01799263, 0.02245042, -0.003399208, 0.01126242, 1.001592, 0.4215489, -0.01262519, -0.005138725, 0.0007670298, 0.01270505, 1.001882
 198234008, 0.3699261, 0.004327945, 0.02162857, -0.006450709, 0.02287406, 1.001243, 0.3876232, -0.01799263, 0.02245042, -0.003399208, 0.01126242, 1.001592
 198433928, 0.391781, 0.007120742, 0.02230519, -0.001718633, 0.02620213, 1.001361, 0.3699261, 0.004327945, 0.02162857, -0.006450709, 0.02287406, 1.001243
 198633848, 0.3514891, -0.0001368581, 0.02007387, -0.008407265, 0.02426513, 1.001022, 0.391781, 0.007120742, 0.02230519, -0.001718633, 0.02620213, 1.001361
 198833768, 0.4001248, -0.002385519, -0.006629338, -0.002230231, 0.02052404, 1.001541, 0.3514891, -0.0001368581, 0.02007387, -0.008407265, 0.02426513, 1.001022
 199033688, 0.3424537, 0.003911417, 0.02087027, -0.01301257, 0.01565638, 1.001116, 0.4001248, -0.002385519, -0.006629338, -0.002230231, 0.02052404, 1.001541
 199233608, 0.3634132, 0.001453253, 0.0211529, -0.007331342, 0.01880647, 1.001264, 0.3424537, 0.003911417, 0.02087027, -0.01301257, 0.01565638, 1.001116
 199433528, 0.3799577, -0.01212835, 0.02275752, -0.006044626, 0.03422977, 1.000984, 0.3634132, 0.001453253, 0.0211529, -0.007331342, 0.01880647, 1.001264
 199634281, 0.4103884, -0.01656486, -0.004163133, -0.005091362, 0.02810752, 1.001421, 0.3799577, -0.01212835, 0.02275752, -0.006044626, 0.03422977, 1.000984
 199834201, 0.3440812, -0.003766789, 0.02240693, -0.01719639, 0.01071373, 1.001123, 0.4103884, -0.01656486, -0.004163133, -0.005091362, 0.02810752, 1.001421
 200034121, 0.4086616, -0.001087853, 0.02612453, -0.00631782, 0.01629189, 1.001682, 0.3440812, -0.003766789, 0.02240693, -0.01719639, 0.01071373, 1.001123
 200234041, 0.4024975, -0.01478501, 0.02632087, -0.008151032, 0.03622519, 1.001081, 0.4086616, -0.001087853, 0.02612453, -0.00631782, 0.01629189, 1.001682
 200433961, 0.3905607, -0.0002022008, 0.0256664, -0.01100252, 0.03885475, 1.000858, 0.4024975, -0.01478501, 0.02632087, -0.008151032, 0.03622519, 1.001081
 200633881, 0.3883884, -0.01980247, 0.02547669, -0.01125379, 0.0197273, 1.001386, 0.3905607, -0.0002022008, 0.0256664, -0.01100252, 0.03885475, 1.000858
 200833801, 0.3894717, -0.003904359, 0.02456728, -0.008773651, 0.009743101, 1.001572, 0.3883884, -0.01980247, 0.02547669, -0.01125379, 0.0197273, 1.001386
 201033721, 0.3545199, 0.002939656, -0.007695025, -0.01401523, 0.01849395, 1.001118, 0.3894717, -0.003904359, 0.02456728, -0.008773651, 0.009743101, 1.001572
 201233641, 0.3615351, 0.002561008, 0.02296834, -0.01331595, 0.0234549, 1.001084, 0.3545199, 0.002939656, -0.007695025, -0.01401523, 0.01849395, 1.001118
 201433561, 0.3640612, 0.004953761, -0.007110041, -0.01276462, 0.02187715, 1.001132, 0.3615351, 0.002561008, 0.02296834, -0.01331595, 0.0234549, 1.001084
 201633481, 0.3354367, -0.002250138, 0.02204795, -0.01905847, 0.0194396, 1.000903, 0.3640612, 0.004953761, -0.007110041, -0.01276462, 0.02187715, 1.001132
 201834234, 0.3942333, -0.02339143, 0.024496, -0.007306598, 0.0169415, 1.001512, 0.3354367, -0.002250138, 0.02204795, -0.01905847, 0.0194396, 1.000903
 202034154, 0.36289, -0.004849866, 0.02321932, -0.01366711, 0.01932326, 1.001171, 0.3942333, -0.02339143, 0.024496, -0.007306598, 0.0169415, 1.001512
 202234074, 0.3349931, -0.01750312, 0.02217549, -0.01977406, 0.01605007, 1.00094, 0.36289, -0.004849866, 0.02321932, -0.01366711, 0.01932326, 1.001171
 202433994, 0.3915788, -0.02082723, 0.0257959, -0.01163216, 0.01568731, 1.001468, 0.3349931, -0.01750312, 0.02217549, -0.01977406, 0.01605007, 1.00094
 202633914, 0.3712658, -0.002017063, 0.02475425, -0.01525118, 0.01788339, 1.001235, 0.3915788, -0.02082723, 0.0257959, -0.01163216, 0.01568731, 1.001468
 202833834, 0.3944007, -0.003373262, 0.02654393, -0.01239666, 0.02764417, 1.00123, 0.3712658, -0.002017063, 0.02475425, -0.01525118, 0.01788339, 1.001235
 203033754, 0.3772015, -0.01144724, -0.004516369, -0.01528719, 0.03404467, 1.000839, 0.3944007, -0.003373262, 0.02654393, -0.01239666, 0.02764417, 1.00123
 203233674, 0.3804414, -0.02051772, 0.0257853, -0.01494681, 0.02160373, 1.001225, 0.3772015, -0.01144724, -0.004516369, -0.01528719, 0.03404467, 1.000839
 203433594, 0.37236, 0.01047548, 0.02534619, -0.0163673, 0.01424111, 1.00129, 0.3804414, -0.02051772, 0.0257853, -0.01494681, 0.02160373, 1.001225
 203633514, 0.348873, -0.0169561, 0.02318894, -0.01828518, 0.01575829, 1.00106, 0.37236, 0.01047548, 0.02534619, -0.0163673, 0.01424111, 1.00129
 203834267, 0.3354802, 0.01476504, -0.007402228, -0.02129949, 0.02082836, 1.00083, 0.348873, -0.0169561, 0.02318894, -0.01828518, 0.01575829, 1.00106
 204034187, 0.3802453, -0.02024086, 0.02631253, -0.01636833, 0.02186131, 1.001195, 0.3354802, 0.01476504, -0.007402228, -0.02129949, 0.02082836, 1.00083
 204234107, 0.3427184, -0.01743627, 0.02393713, -0.02229981, 0.01860031, 1.000892, 0.3802453, -0.02024086, 0.02631253, -0.01636833, 0.02186131, 1.001195
 204434027, 0.380392, 0.002532816, 0.02629721, -0.01649721, 0.02051752, 1.001232, 0.3427184, -0.01743627, 0.02393713, -0.02229981, 0.01860031, 1.000892
 204633947, 0.3801411, 0.01117669, 0.0256067, -0.01474671, 0.01814145, 1.001307, 0.380392, 0.002532816, 0.02629721, -0.01649721, 0.02051752, 1.001232
 204833867, 0.3549546, 0.01367812, 0.02354399, -0.01710154, 0.01641185, 1.001126, 0.3801411, 0.01117669, 0.0256067, -0.01474671, 0.01814145, 1.001307
 205033787, 0.3737665, -0.01370355, 0.02466231, -0.01427805, 0.01959944, 1.001227, 0.3549546, 0.01367812, 0.02354399, -0.01710154, 0.01641185, 1.001126
 205233707, 0.3636997, -0.02394271, 0.02460409, -0.0173183, 0.01974358, 1.001102, 0.3737665, -0.01370355, 0.02466231, -0.01427805, 0.01959944, 1.001227
 205433627, 0.3655972, 0.006350251, 0.02362154, -0.01411865, 0.01940959, 1.001185, 0.3636997, -0.02394271, 0.02460409, -0.0173183, 0.01974358, 1.001102
 205633547, 0.3263426, -0.006886042, 0.02188136, -0.02156978, 0.02128419, 1.000764, 0.3655972, 0.006350251, 0.02362154, -0.01411865, 0.01940959, 1.001185
 205834300, 0.3858481, -0.01134226, 0.02713878, -0.01688724, 0.0209078, 1.001251, 0.3263426, -0.006886042, 0.02188136, -0.02156978, 0.02128419, 1.000764
 206034220, 0.3532068, -0.01819078, 0.02512684, -0.0221512, 0.02004258, 1.000934, 0.3858481, -0.01134226, 0.02713878, -0.01688724, 0.0209078, 1.001251
 206234140, 0.3362474, 0.009258878, 0.02264965, -0.02065901, 0.02016521, 1.000872, 0.3532068, -0.01819078, 0.02512684, -0.0221512, 0.02004258, 1.000934
 206434060, 0.3374911, -0.01354568, -0.00716644, -0.02120268, 0.02003813, 1.000847, 0.3362474, 0.009258878, 0.02264965, -0.02065901, 0.02016521, 1.000872
 206633980, 0.3454714, -0.01126279, 0.02410891, -0.02194937, 0.01721592, 1.000945, 0.3374911, -0.01354568, -0.00716644, -0.02120268, 0.02003813, 1.000847
 206833900, 0.3374355, 0.01219533, 0.02345761, -0.02255977, 0.01754977, 1.00089, 0.3454714, -0.01126279, 0.02410891, -0.02194937, 0.01721592, 1.000945
 207033820, 0.3401154, -0.02179099, 0.02292466, -0.02014006, 0.01919526, 1.000911, 0.3374355, 0.01219533, 0.02345761, -0.02255977, 0.01754977, 1.00089
 207233740, 0.3767205, -0.006811427, 0.02539078, -0.01527437, 0.01920057, 1.001245, 0.3401154, -0.02179099, 0.02292466, -0.02014006, 0.01919526, 1.000911
 207433660, 0.3729649, -0.01209674, 0.02582297, -0.01763342, 0.01909272, 1.001179, 0.3767205, -0.006811427, 0.02539078, -0.01527437, 0.01920057, 1.001245
 207633580, 0.369584, 0.01183509, 0.02650503, -0.0205634, 0.0197364, 1.001099, 0.3729649, -0.01209674, 0.02582297, -0.01763342, 0.01909272, 1.001179
 207833500, 0.3384066, 0.001138618, 0.02327479, -0.02176798, 0.01900375, 1.00088, 0.369584, 0.01183509, 0.02650503, -0.0205634, 0.0197364, 1.001099
 208034253, 0.3742433, -0.01437581, 0.02508773, -0.01528007, 0.01709196, 1.001263, 0.3384066, 0.001138618, 0.02327479, -0.02176798, 0.01900375, 1.00088
 208234173, 0.3326072, -0.01167856, 0.02204565, -0.01993792, 0.02055385, 1.000847, 0.3742433, -0.01437581, 0.02508773, -0.01528007, 0.01709196, 1.001263
 208434093, 0.3599372, -0.009092935, 0.02425905, -0.01753413, 0.02013791, 1.001072, 0.3326072, -0.01167856, 0.02204565, -0.01993792, 0.02055385, 1.000847
 208634013, 0.3650217, -0.01270811, -0.004499929, -0.0197198, 0.02135126, 1.001025, 0.3599372, -0.009092935, 0.02425905, -0.01753413, 0.02013791, 1.001072
 208833933, 0.3726163, -0.01104229, 0.02560691, -0.01716061, 0.02069394, 1.001153, 0.3650217, -0.01270811, -0.004499929, -0.0197198, 0.02135126, 1.001025
 209033853, 0.3697979, 0.0115098, 0.02481922, -0.0166057, 0.0187025, 1.001157, 0.3726163, -0.01104229, 0.02560691, -0.01716061, 0.02069394, 1.001153
 209233773, 0.3749501, -0.01084471, 0.02431158, -0.01293278, 0.02306752, 1.00118, 0.3697979, 0.0115098, 0.02481922, -0.0166057, 0.0187025, 1.001157
 209433693, 0.3837792, 0.0006557149, 0.02445991, -0.01076696, 0.03184497, 1.001034, 0.3749501, -0.01084471, 0.02431158, -0.01293278, 0.02306752, 1.00118
 209633613, 0.3239262, -0.01087498, 0.02182802, -0.02166822, 0.03506299, 1.000363, 0.3837792, 0.0006557149, 0.02445991, -0.01076696, 0.03184497, 1.001034
 209833533, 0.3539613, -0.002296389, 0.02456978, -0.02040141, 0.03200751, 1.000673, 0.3239262, -0.01087498, 0.02182802, -0.02166822, 0.03506299, 1.000363
 210034286, 0.3486843, -0.01151851, 0.004040821, -0.02103008, 0.01914757, 1.000943, 0.3539613, -0.002296389, 0.02456978, -0.02040141, 0.03200751, 1.000673
 210234206, 0.3262312, 0.009850935, 0.02250294, -0.02337525, 0.01453225, 1.000859, 0.3486843, -0.01151851, 0.004040821, -0.02103008, 0.01914757, 1.000943
 210434126, 0.3872879, 0.003453531, 0.02649088, -0.01501032, 0.01685252, 1.001369, 0.3262312, 0.009850935, 0.02250294, -0.02337525, 0.01453225, 1.000859
 210634046, 0.3445294, -0.007879791, 0.02339314, -0.0200354, 0.02706304, 1.000767, 0.3872879, 0.003453531, 0.02649088, -0.01501032, 0.01685252, 1.001369
 210833966, 0.3686627, -0.02246295, 0.02538536, -0.01751306, 0.02796467, 1.000937, 0.3445294, -0.007879791, 0.02339314, -0.0200354, 0.02706304, 1.000767
 211033886, 0.3355871, -0.01879787, 0.02232192, -0.01999185, 0.01879441, 1.000901, 0.3686627, -0.02246295, 0.02538536, -0.01751306, 0.02796467, 1.000937
 211233806, 0.3188659, 0.005933965, 0.02059976, -0.02003819, 0.019262, 1.000812, 0.3355871, -0.01879787, 0.02232192, -0.01999185, 0.01879441, 1.000901
 211433726, 0.3397713, -0.0052613, 0.02201313, -0.01769308, 0.01987801, 1.000953, 0.3188659, 0.005933965, 0.02059976, -0.02003819, 0.019262, 1.000812
 211633646, 0.3399629, -0.02712375, 0.02214868, -0.01799991, 0.01898557, 1.000958, 0.3397713, -0.0052613, 0.02201313, -0.01769308, 0.01987801, 1.000953
 211833566, 0.377986, -0.02373534, 0.02542472, -0.01513549, 0.01952421, 1.00124, 0.3399629, -0.02712375, 0.02214868, -0.01799991, 0.01898557, 1.000958
 212033486, 0.3434975, 0.002321233, 0.02318355, -0.01994001, 0.01951252, 1.000944, 0.377986, -0.02373534, 0.02542472, -0.01513549, 0.01952421, 1.00124
 212234239, 0.3609467, -0.01879949, 0.02338198, -0.0150219, 0.01768425, 1.001163, 0.3434975, 0.002321233, 0.02318355, -0.01994001, 0.01951252, 1.000944
 212434159, 0.3166035, -0.01472202, 0.02022968, -0.0195983, 0.0185587, 1.000813, 0.3609467, -0.01879949, 0.02338198, -0.0150219, 0.01768425, 1.001163
 212634079, 0.3602482, 0.005047362, 0.02379414, -0.01633367, 0.02195306, 1.001064, 0.3166035, -0.01472202, 0.02022968, -0.0195983, 0.0185587, 1.000813
 212833999, 0.3585359, -0.003630558, 0.02440279, -0.01849281, 0.02373574, 1.00097, 0.3602482, 0.005047362, 0.02379414, -0.01633367, 0.02195306, 1.001064
 213033919, 0.3792103, -0.02659873, 0.02609885, -0.01653275, 0.01824955, 1.001251, 0.3585359, -0.003630558, 0.02440279, -0.01849281, 0.02373574, 1.00097
 213233839, 0.3377859, -0.02798501, 0.02225789, -0.01920846, 0.01593491, 1.000977, 0.3792103, -0.02659873, 0.02609885, -0.01653275, 0.01824955, 1.001251
 213433759, 0.3208416, 0.005168341, 0.02100779, -0.02059559, 0.01751425, 1.000843, 0.3377859, -0.02798501, 0.02225789, -0.01920846, 0.01593491, 1.000977
 213633679, 0.3674407, -0.01431682, 0.02360483, -0.01356867, 0.01805953, 1.001221, 0.3208416, 0.005168341, 0.02100779, -0.02059559, 0.01751425, 1.000843
 213833599, 0.3660998, -0.009702573, 0.02384512, -0.0146426, 0.01785593, 1.001203, 0.3674407, -0.01431682, 0.02360483, -0.01356867, 0.01805953, 1.001221
 214033519, 0.3540508, -0.01680078, 0.02366356, -0.01782762, 0.02042214, 1.001022, 0.3660998, -0.009702573, 0.02384512, -0.0146426, 0.01785593, 1.001203
 214234272, 0.37841, -0.004539745, 0.02542267, -0.01497864, 0.02196751, 1.001202, 0.3540508, -0.01680078, 0.02366356, -0.01782762, 0.02042214, 1.001022
 214434192, 0.3775038, -0.02721299, 0.02505413, -0.01368861, 0.02679824, 1.001089, 0.37841, -0.004539745, 0.02542267, -0.01497864, 0.02196751, 1.001202
 214634112, 0.3817824, -0.006397922, 0.02644378, -0.01637417, 0.03175518, 1.000942, 0.3775038, -0.02721299, 0.02505413, -0.01368861, 0.02679824, 1.001089
 214834032, 0.3359752, -0.02290538, 0.02265139, -0.02037587, 0.02391948, 1.000786, 0.3817824, -0.006397922, 0.02644378, -0.01637417, 0.03175518, 1.000942
 215033952, 0.3617505, 0.007006778, 0.02416379, -0.01676729, 0.01641695, 1.001174, 0.3359752, -0.02290538, 0.02265139, -0.02037587, 0.02391948, 1.000786
 215233872, 0.3319293, -0.005861474, 0.02139916, -0.01831203, 0.01577654, 1.000971, 0.3617505, 0.007006778, 0.02416379, -0.01676729, 0.01641695, 1.001174
 215433792, 0.3394291, -0.005339037, 0.02233431, -0.01861442, 0.02131918, 1.000906, 0.3319293, -0.005861474, 0.02139916, -0.01831203, 0.01577654, 1.000971
 215633712, 0.3689435, 0.001888999, 0.02441255, -0.01524351, 0.0208849, 1.00116, 0.3394291, -0.005339037, 0.02233431, -0.01861442, 0.02131918, 1.000906
 215833632, 0.3308164, -0.01102677, 0.02188776, -0.02007345, 0.01839679, 1.000885, 0.3689435, 0.001888999, 0.02441255, -0.01524351, 0.0208849, 1.00116
 216033552, 0.3703136, -0.0009871917, 0.02411507, -0.01398025, 0.02145195, 1.001174, 0.3308164, -0.01102677, 0.02188776, -0.02007345, 0.01839679, 1.000885
 216234305, 0.3515126, -0.006663804, 0.02289357, -0.01624248, 0.02890075, 1.000829, 0.3703136, -0.0009871917, 0.02411507, -0.01398025, 0.02145195, 1.001174
 216434225, 0.3284575, -0.02015601, 0.02192727, -0.02012699, 0.03140142, 1.000544, 0.3515126, -0.006663804, 0.02289357, -0.01624248, 0.02890075, 1.000829
 216634145, 0.3661014, -0.0007262537, 0.02385208, -0.01449943, 0.03134271, 1.000878, 0.3284575, -0.02015601, 0.02192727, -0.02012699, 0.03140142, 1.000544
 216834065, 0.3399379, -0.02766998, 0.02270027, -0.01900677, 0.0245142, 1.000821, 0.3661014, -0.0007262537, 0.02385208, -0.01449943, 0.03134271, 1.000878
 217033985, 0.3846198, -0.003589801, 0.02524671, -0.01255158, 0.01617258, 1.001392, 0.3399379, -0.02766998, 0.02270027, -0.01900677, 0.0245142, 1.000821
 217233905, 0.3425376, -0.01672359, 0.02333099, -0.02079671, 0.01260847, 1.001025, 0.3846198, -0.003589801, 0.02524671, -0.01255158, 0.01617258, 1.001392
 217433825, 0.3242619, -0.02868073, 0.02135495, -0.02073829, 0.01549084, 1.000879, 0.3425376, -0.01672359, 0.02333099, -0.02079671, 0.01260847, 1.001025
 217633745, 0.3803368, -0.03158012, 0.02540827, -0.01422357, 0.01820793, 1.001295, 0.3242619, -0.02868073, 0.02135495, -0.02073829, 0.01549084, 1.000879
 217833665, 0.3892917, -0.01334183, 0.0264437, -0.01412097, 0.01916195, 1.001349, 0.3803368, -0.03158012, 0.02540827, -0.01422357, 0.01820793, 1.001295
 218033585, 0.3782814, -0.003783457, 0.02594937, -0.01633189, 0.01967319, 1.00123, 0.3892917, -0.01334183, 0.0264437, -0.01412097, 0.01916195, 1.001349
 218233505, 0.3481643, -0.00317027, 0.02335738, -0.01875465, 0.0196372, 1.000991, 0.3782814, -0.003783457, 0.02594937, -0.01633189, 0.01967319, 1.00123
 218434258, 0.3449757, -0.009450918, 0.02349649, -0.02012551, 0.02053494, 1.000925, 0.3481643, -0.00317027, 0.02335738, -0.01875465, 0.0196372, 1.000991
 218634178, 0.3324826, -0.01865286, 0.02258057, -0.02130857, 0.0221974, 1.000789, 0.3449757, -0.009450918, 0.02349649, -0.02012551, 0.02053494, 1.000925
 218834098, 0.3674694, -0.008359147, 0.02451238, -0.01582981, 0.01890247, 1.001177, 0.3324826, -0.01865286, 0.02258057, -0.02130857, 0.0221974, 1.000789
 219034018, 0.3573227, -0.005680329, 0.02429266, -0.01839513, 0.02062454, 1.001034, 0.3674694, -0.008359147, 0.02451238, -0.01582981, 0.01890247, 1.001177
 219233938, 0.3946534, -0.01403452, 0.02632057, -0.01202903, 0.02028521, 1.001395, 0.3573227, -0.005680329, 0.02429266, -0.01839513, 0.02062454, 1.001034
 219433858, 0.3728716, -0.01378094, 0.02458535, -0.01493305, 0.01853856, 1.001196, 0.3946534, -0.01403452, 0.02632057, -0.01202903, 0.02028521, 1.001395
 219633778, 0.3551407, 0.003298273, 0.02415443, -0.01873808, 0.01742434, 1.001079, 0.3728716, -0.01378094, 0.02458535, -0.01493305, 0.01853856, 1.001196
 219833698, 0.337037, -0.01359357, 0.02216533, -0.01888793, 0.01610099, 1.000983, 0.3551407, 0.003298273, 0.02415443, -0.01873808, 0.01742434, 1.001079
 220033618, 0.3250559, -0.02422922, 0.02152658, -0.02087015, 0.01595136, 1.000875, 0.337037, -0.01359357, 0.02216533, -0.01888793, 0.01610099, 1.000983
 220233538, 0.3841817, -6.813742E-05, 0.02562303, -0.01355091, 0.01638602, 1.001374, 0.3250559, -0.02422922, 0.02152658, -0.02087015, 0.01595136, 1.000875
 220434291, 0.3921261, -0.03177442, 0.02576702, -0.01130998, 0.0186388, 1.001412, 0.3841817, -6.813742E-05, 0.02562303, -0.01355091, 0.01638602, 1.001374
 220634211, 0.3271651, -0.0169665, 0.0217387, -0.02063351, 0.01844318, 1.000852, 0.3921261, -0.03177442, 0.02576702, -0.01130998, 0.0186388, 1.001412
 220834131, 0.3765697, -0.01343453, 0.02484534, -0.01386968, 0.01800671, 1.001283, 0.3271651, -0.0169665, 0.0217387, -0.02063351, 0.01844318, 1.000852
 221034051, 0.3590502, 0.002681237, 0.02377738, -0.01645218, 0.01838298, 1.001126, 0.3765697, -0.01343453, 0.02484534, -0.01386968, 0.01800671, 1.001283
 221233971, 0.3488132, -0.006788959, 0.02314848, -0.01787781, 0.01869691, 1.001029, 0.3590502, 0.002681237, 0.02377738, -0.01645218, 0.01838298, 1.001126
 221433891, 0.3729013, 0.003800209, 0.02372991, -0.0119638, 0.02020633, 1.001247, 0.3488132, -0.006788959, 0.02314848, -0.01787781, 0.01869691, 1.001029
 221633811, 0.3525725, -0.02433315, 0.02347725, -0.0174111, 0.01982041, 1.001032, 0.3729013, 0.003800209, 0.02372991, -0.0119638, 0.02020633, 1.001247
 221833731, 0.3842241, 0.002197371, 0.02638469, -0.01541966, 0.0186732, 1.00131, 0.3525725, -0.02433315, 0.02347725, -0.0174111, 0.01982041, 1.001032
 222033651, 0.3745995, -0.02542251, 0.02533408, -0.01564342, 0.01819697, 1.001238, 0.3842241, 0.002197371, 0.02638469, -0.01541966, 0.0186732, 1.00131
 222233571, 0.3438724, -0.01675571, 0.02310702, -0.01918178, 0.01892307, 1.000967, 0.3745995, -0.02542251, 0.02533408, -0.01564342, 0.01819697, 1.001238
 222433491, 0.3215165, -0.00226422, 0.02137364, -0.02125987, 0.02030512, 1.000777, 0.3438724, -0.01675571, 0.02310702, -0.01918178, 0.01892307, 1.000967
 222634244, 0.3652991, -0.03353602, 0.02392139, -0.01430219, 0.02219518, 1.001112, 0.3215165, -0.00226422, 0.02137364, -0.02125987, 0.02030512, 1.000777
 222834164, 0.3499798, 0.001856622, 0.02329107, -0.01788455, 0.0215718, 1.000982, 0.3652991, -0.03353602, 0.02392139, -0.01430219, 0.02219518, 1.001112
 223034084, 0.3153172, -0.0216691, 0.02139686, -0.02341576, 0.01718394, 1.00075, 0.3499798, 0.001856622, 0.02329107, -0.01788455, 0.0215718, 1.000982
 223234004, 0.3795723, -0.007022515, 0.02581505, -0.015417, 0.01607308, 1.001318, 0.3153172, -0.0216691, 0.02139686, -0.02341576, 0.01718394, 1.00075
 223433924, 0.3414532, -0.01377884, 0.02276983, -0.01893486, 0.01981221, 1.000942, 0.3795723, -0.007022515, 0.02581505, -0.015417, 0.01607308, 1.001318
 223633844, 0.3645095, -0.01188717, 0.02388904, -0.01478002, 0.02264098, 1.001096, 0.3414532, -0.01377884, 0.02276983, -0.01893486, 0.01981221, 1.000942
 223833764, 0.3439747, -0.02384291, 0.0230215, -0.01887564, 0.0188137, 1.000974, 0.3645095, -0.01188717, 0.02388904, -0.01478002, 0.02264098, 1.001096
 224033684, 0.3176139, -0.0239615, 0.02135438, -0.0225359, 0.016613, 1.000791, 0.3439747, -0.02384291, 0.0230215, -0.01887564, 0.0188137, 1.000974
 224233604, 0.3703136, -0.02078298, 0.02496294, -0.01592253, 0.01876521, 1.001195, 0.3176139, -0.0239615, 0.02135438, -0.0225359, 0.016613, 1.000791
 224433524, 0.3506687, -0.0323278, 0.02445526, -0.02056502, 0.02116203, 1.000933, 0.3703136, -0.02078298, 0.02496294, -0.01592253, 0.01876521, 1.001195
 224634277, 0.3026147, -0.01448741, 0.02058955, -0.02479193, 0.02216439, 1.000558, 0.3506687, -0.0323278, 0.02445526, -0.02056502, 0.02116203, 1.000933
 224834197, 0.3546154, -0.02794557, 0.02417784, -0.01804884, 0.02703067, 1.000866, 0.3026147, -0.01448741, 0.02058955, -0.02479193, 0.02216439, 1.000558
 225034117, 0.3371114, -0.01946302, 0.02186194, -0.01698802, 0.03017218, 1.000691, 0.3546154, -0.02794557, 0.02417784, -0.01804884, 0.02703067, 1.000866
 225234037, 0.3262391, -0.02247904, 0.02125311, -0.01907321, 0.02159608, 1.000814, 0.3371114, -0.01946302, 0.02186194, -0.01698802, 0.03017218, 1.000691
 225433957, 0.3598035, -0.01143636, 0.02420169, -0.01722815, 0.01742746, 1.001131, 0.3262391, -0.02247904, 0.02125311, -0.01907321, 0.02159608, 1.000814
 225633877, 0.3420509, -0.004279514, 0.02330283, -0.02034507, 0.01729329, 1.000969, 0.3598035, -0.01143636, 0.02420169, -0.01722815, 0.01742746, 1.001131
 225833797, 0.3523709, -0.01136494, 0.02381359, -0.01843437, 0.01888756, 1.001037, 0.3420509, -0.004279514, 0.02330283, -0.02034507, 0.01729329, 1.000969
 226033717, 0.3556048, -0.004113432, 0.0236931, -0.01713395, 0.02031807, 1.001054, 0.3523709, -0.01136494, 0.02381359, -0.01843437, 0.01888756, 1.001037
 226233637, 0.3202138, -0.0140857, 0.02165391, -0.02232627, 0.02043164, 1.000743, 0.3556048, -0.004113432, 0.0236931, -0.01713395, 0.02031807, 1.001054
 226433557, 0.306021, -0.02207666, 0.02011512, -0.02189588, 0.02240811, 1.000635, 0.3202138, -0.0140857, 0.02165391, -0.02232627, 0.02043164, 1.000743
 226633477, 0.3063518, -0.002660999, 0.02028158, -0.02263273, 0.02033068, 1.000672, 0.306021, -0.02207666, 0.02011512, -0.02189588, 0.02240811, 1.000635
 226834230, 0.3096864, -0.02834416, 0.02047934, -0.0220791, 0.0188059, 1.000721, 0.3063518, -0.002660999, 0.02028158, -0.02263273, 0.02033068, 1.000672
 227034150, 0.3123182, -0.03442792, 0.02049934, -0.02111514, 0.0194555, 1.000742, 0.3096864, -0.02834416, 0.02047934, -0.0220791, 0.0188059, 1.000721
 227234070, 0.340579, -0.01340557, 0.02262439, -0.01860254, 0.02131696, 1.000914, 0.3123182, -0.03442792, 0.02049934, -0.02111514, 0.0194555, 1.000742
 227433990, 0.3259264, -0.01271666, 0.02160939, -0.02028041, 0.02112398, 1.000803, 0.340579, -0.01340557, 0.02262439, -0.01860254, 0.02131696, 1.000914
 227633910, 0.3414818, -0.01392257, 0.02218837, -0.01707537, 0.02062245, 1.00096, 0.3259264, -0.01271666, 0.02160939, -0.02028041, 0.02112398, 1.000803
 227833830, 0.3223244, -0.008721214, 0.02096838, -0.01958709, 0.0190309, 1.000841, 0.3414818, -0.01392257, 0.02218837, -0.01707537, 0.02062245, 1.00096
 228033750, 0.2878712, 0.0007963721, 0.0191155, -0.02487959, 0.01722518, 1.000593, 0.3223244, -0.008721214, 0.02096838, -0.01958709, 0.0190309, 1.000841
 228233670, 0.3401812, -0.03136159, 0.02260386, -0.0188575, 0.01665309, 1.00099, 0.2878712, 0.0007963721, 0.0191155, -0.02487959, 0.01722518, 1.000593
 228433590, 0.334884, -0.003891082, 0.02239066, -0.01987746, 0.02029575, 1.000881, 0.3401812, -0.03136159, 0.02260386, -0.0188575, 0.01665309, 1.00099
 228633510, 0.3088012, -0.01842556, 0.02008646, -0.02075444, 0.02500905, 1.000613, 0.334884, -0.003891082, 0.02239066, -0.01987746, 0.02029575, 1.000881
 228834263, 0.3201571, -0.018388, 0.02059066, -0.01818022, 0.03334343, 1.000478, 0.3088012, -0.01842556, 0.02008646, -0.02075444, 0.02500905, 1.000613
 229034183, 0.30502, -0.02071343, 0.02021004, -0.02174679, 0.03332479, 1.00033, 0.3201571, -0.018388, 0.02059066, -0.01818022, 0.03334343, 1.000478
 229234103, 0.3138332, -0.003304044, 0.02020926, -0.01990474, 0.0225931, 1.000718, 0.30502, -0.02071343, 0.02021004, -0.02174679, 0.03332479, 1.00033
 229434023, 0.3287249, -0.02656944, 0.02214563, -0.02114356, 0.01640556, 1.000885, 0.3138332, -0.003304044, 0.02020926, -0.01990474, 0.0225931, 1.000718
 229633943, 0.2838618, -0.03175236, 0.01913944, -0.02516859, 0.02687833, 1.000344, 0.3287249, -0.02656944, 0.02214563, -0.02114356, 0.01640556, 1.000885
 229833863, 0.2873893, -0.03096686, 0.01967575, -0.02555209, 0.0339016, 1.000112, 0.2838618, -0.03175236, 0.01913944, -0.02516859, 0.02687833, 1.000344
 230033783, 0.3243231, -0.03122087, 0.02142866, -0.01915677, 0.02933796, 1.000604, 0.2873893, -0.03096686, 0.01967575, -0.02555209, 0.0339016, 1.000112
 230233703, 0.2871183, -0.01556067, 0.01854767, -0.02306302, 0.01834656, 1.000607, 0.3243231, -0.03122087, 0.02142866, -0.01915677, 0.02933796, 1.000604
 230433623, 0.3341455, -0.02124088, 0.02218082, -0.0195623, 0.01446784, 1.00098, 0.2871183, -0.01556067, 0.01854767, -0.02306302, 0.01834656, 1.000607
 230633543, 0.2962879, -0.02240442, 0.0198419, -0.02392669, 0.02349911, 1.000519, 0.3341455, -0.02124088, 0.02218082, -0.0195623, 0.01446784, 1.00098
 230834296, 0.2985255, -0.0003785249, 0.01998007, -0.02406303, 0.03434572, 1.00022, 0.2962879, -0.02240442, 0.0198419, -0.02392669, 0.02349911, 1.000519
 231034216, 0.3125574, -0.01498089, 0.02113633, -0.02276154, 0.02640931, 1.000555, 0.2985255, -0.0003785249, 0.01998007, -0.02406303, 0.03434572, 1.00022
 231234136, 0.3202758, -0.01921045, 0.02110165, -0.02071124, 0.01484816, 1.000876, 0.3125574, -0.01498089, 0.02113633, -0.02276154, 0.02640931, 1.000555
 231434056, 0.3371225, -0.03161681, 0.02203777, -0.01832313, 0.01258023, 1.001044, 0.3202758, -0.01921045, 0.02110165, -0.02071124, 0.01484816, 1.000876
 231633976, 0.324466, -0.01854786, 0.02147435, -0.0201589, 0.01973617, 1.000826, 0.3371225, -0.03161681, 0.02203777, -0.01832313, 0.01258023, 1.001044
 231833896, 0.3310521, -0.01772706, 0.02190118, -0.01917877, 0.02313025, 1.000808, 0.324466, -0.01854786, 0.02147435, -0.0201589, 0.01973617, 1.000826
 232033816, 0.3018935, -0.01130621, 0.01982367, -0.02221749, 0.02248705, 1.000612, 0.3310521, -0.01772706, 0.02190118, -0.01917877, 0.02313025, 1.000808
 232233736, 0.3062643, -0.01670321, 0.0205809, -0.02318629, 0.02147787, 1.000632, 0.3018935, -0.01130621, 0.01982367, -0.02221749, 0.02248705, 1.000612
 232433656, 0.3466334, -0.0225839, 0.02362892, -0.01917084, 0.0220018, 1.000924, 0.3062643, -0.01670321, 0.0205809, -0.02318629, 0.02147787, 1.000632
 232633576, 0.3435921, -0.02359757, 0.02419931, -0.02191254, 0.02002009, 1.000891, 0.3466334, -0.0225839, 0.02362892, -0.01917084, 0.0220018, 1.000924
 232833496, 0.3508149, -0.02039995, 0.02339591, -0.01739976, 0.01825607, 1.001058, 0.3435921, -0.02359757, 0.02419931, -0.02191254, 0.02002009, 1.000891
 233034249, 0.3100283, -0.01559657, 0.01977615, -0.01959008, 0.01646656, 1.000823, 0.3508149, -0.02039995, 0.02339591, -0.01739976, 0.01825607, 1.001058
 233234169, 0.292264, -0.02173906, 0.01858937, -0.02141821, 0.01664197, 1.000696, 0.3100283, -0.01559657, 0.01977615, -0.01959008, 0.01646656, 1.000823
 233434089, 0.3166871, -0.005355528, 0.02057822, -0.0199853, 0.01776902, 1.00083, 0.292264, -0.02173906, 0.01858937, -0.02141821, 0.01664197, 1.000696
 233634009, 0.3173391, -0.03650238, 0.02162073, -0.0226028, 0.02011036, 1.000725, 0.3166871, -0.005355528, 0.02057822, -0.0199853, 0.01776902, 1.00083
 233833929, 0.3257173, -0.02985136, 0.02157601, -0.01910909, 0.02774069, 1.000661, 0.3173391, -0.03650238, 0.02162073, -0.0226028, 0.02011036, 1.000725
 234033849, 0.3418191, -0.01626801, 0.02335581, -0.01927229, 0.03728784, 1.000442, 0.3257173, -0.02985136, 0.02157601, -0.01910909, 0.02774069, 1.000661
 234233769, 0.3554657, -0.02510525, 0.02406123, -0.01720205, 0.02648956, 1.000905, 0.3418191, -0.01626801, 0.02335581, -0.01927229, 0.03728784, 1.000442
 234433689, 0.320786, -0.001445226, 0.02173391, -0.02224279, 0.01836303, 1.000795, 0.3554657, -0.02510525, 0.02406123, -0.01720205, 0.02648956, 1.000905
 234633609, 0.3079453, -0.007528488, 0.0208378, -0.02356504, 0.01981589, 1.000669, 0.320786, -0.001445226, 0.02173391, -0.02224279, 0.01836303, 1.000795
 234833529, 0.3145859, -0.003285654, 0.02075841, -0.0209783, 0.03372571, 1.000389, 0.3079453, -0.007528488, 0.0208378, -0.02356504, 0.01981589, 1.000669
 235034282, 0.3298526, -0.01033572, 0.02220064, -0.01997877, 0.03825959, 1.000325, 0.3145859, -0.003285654, 0.02075841, -0.0209783, 0.03372571, 1.000389
 235234202, 0.2993689, -0.006428914, 0.01984881, -0.02304805, 0.02552977, 1.000511, 0.3298526, -0.01033572, 0.02220064, -0.01997877, 0.03825959, 1.000325
 235434122, 0.3409182, -0.01606872, 0.02289283, -0.01917918, 0.01531056, 1.001017, 0.2993689, -0.006428914, 0.01984881, -0.02304805, 0.02552977, 1.000511
 235634042, 0.3544791, -0.01437824, 0.02322363, -0.01575736, 0.01671564, 1.001137, 0.3409182, -0.01606872, 0.02289283, -0.01917918, 0.01531056, 1.001017
 235833962, 0.302555, -0.02017309, 0.02081344, -0.02497413, 0.02112626, 1.000579, 0.3544791, -0.01437824, 0.02322363, -0.01575736, 0.01671564, 1.001137
 236033882, 0.3295605, -0.0173682, 0.0227586, -0.02214372, 0.02097131, 1.000789, 0.302555, -0.02017309, 0.02081344, -0.02497413, 0.02112626, 1.000579
 236233802, 0.3133843, -0.0167068, 0.02147435, -0.02365908, 0.01836907, 1.00072, 0.3295605, -0.0173682, 0.0227586, -0.02214372, 0.02097131, 1.000789
 236433722, 0.3238998, -0.02237556, 0.02105844, -0.01888492, 0.01830081, 1.000876, 0.3133843, -0.0167068, 0.02147435, -0.02365908, 0.01836907, 1.00072
 236633642, 0.3432833, -0.008331886, 0.0218397, -0.01517155, 0.02079688, 1.001003, 0.3238998, -0.02237556, 0.02105844, -0.01888492, 0.01830081, 1.000876
 236833562, 0.3303493, -0.01466344, 0.02181559, -0.01899358, 0.02246023, 1.000826, 0.3432833, -0.008331886, 0.0218397, -0.01517155, 0.02079688, 1.001003
 237033482, 0.3101265, -0.008401778, 0.02047402, -0.02138999, 0.02429728, 1.000631, 0.3303493, -0.01466344, 0.02181559, -0.01899358, 0.02246023, 1.000826
 237234235, 0.3547329, -0.03239326, 0.02393747, -0.01718486, 0.02037124, 1.001045, 0.3101265, -0.008401778, 0.02047402, -0.02138999, 0.02429728, 1.000631
 237434155, 0.2912537, -0.03520599, 0.01885972, -0.02248369, 0.0161179, 1.000675, 0.3547329, -0.03239326, 0.02393747, -0.01718486, 0.02037124, 1.001045
 237634075, 0.3245288, -0.02394808, 0.02139384, -0.01910497, 0.02514891, 1.000727, 0.2912537, -0.03520599, 0.01885972, -0.02248369, 0.0161179, 1.000675
 237833995, 0.3511057, -0.0318771, 0.02348264, -0.01568289, 0.0350581, 1.000641, 0.3245288, -0.02394808, 0.02139384, -0.01910497, 0.02514891, 1.000727
 238033915, 0.2962351, -0.03220204, 0.01940356, -0.0214597, 0.02723959, 1.00048, 0.3511057, -0.0318771, 0.02348264, -0.01568289, 0.0350581, 1.000641
 238233835, 0.3100173, -0.03618839, 0.02061839, -0.02199912, 0.01625251, 1.000774, 0.2962351, -0.03220204, 0.01940356, -0.0214597, 0.02723959, 1.00048
 238433755, 0.2933271, -0.03132221, 0.01952844, -0.02397176, 0.01598475, 1.000654, 0.3100173, -0.03618839, 0.02061839, -0.02199912, 0.01625251, 1.000774
 238633675, 0.3166475, -0.03629373, 0.0207968, -0.0198618, 0.02046018, 1.000776, 0.2933271, -0.03132221, 0.01952844, -0.02397176, 0.01598475, 1.000654
 238833595, 0.296864, -0.006108532, 0.01906813, -0.02111143, 0.02401906, 1.00058, 0.3166475, -0.03629373, 0.0207968, -0.0198618, 0.02046018, 1.000776
