TimeUS,CAN,CAE,CAD,CAe
 157954293, -0.002784548, 0.003560289, -6.095593E-05, 0.0002615578
 158054253, -0.002773443, 0.003639111, -8.32034E-05, 0.0002593962
 158154213, -0.002859544, 0.003446589, 2.343194E-05, 0.0002593962
 158254173, 0.01085007, 0.00207646, -8.501466E-05, 0.0002593962
 158354133, 0.07345036, -0.005032885, -0.0002756256, 0.0002593962
 158454093, 0.1651931, -0.01482646, 0.0003625468, 0.0002593962
 158554053, 0.2697064, -0.02693677, 0.00369258, 0.0002593962
 158654013, 0.376722, -0.03628637, 0.006895939, 0.0002593962
 158773965, 0.6037326, -0.06187424, 0.01201965, 0.0003112754
 158873925, 0.6076908, -0.06361377, 0.01218953, 0.0002593962
 158973885, 0.7065189, -0.07384057, 0.01446459, 0.0002593962
 159073845, 0.8033634, -0.08343843, 0.01642375, 0.0002593962
 159173805, 0.8858898, -0.09046227, 0.01870508, 0.0002593962
 159273765, 0.9498786, -0.1017372, 0.02068518, 0.0002593962
 159373725, 0.9549692, -0.101689, 0.02254997, 0.0002593962
 159473685, 0.9375775, -0.09425659, 0.02270013, 0.0002593962
 159573645, 0.8931242, -0.09332813, 0.02243602, 0.0002593962
 159673605, 0.8464733, -0.092175, 0.02153377, 0.0002593962
 159773565, 0.7981454, -0.0925941, 0.02010606, 0.0002593962
 159873525, 0.743094, -0.07317471, -0.01595229, 0.0002593962
 159973485, 0.7016177, -0.07153435, -0.04390764, 0.0002593962
 160074278, 0.6626179, -0.07368105, -0.009531582, 0.0002615578
 160174238, 0.6029365, -0.0660514, 0.02576716, 0.0002593962
 160274198, 0.919326, -0.09467281, -0.2062624, 0.0002593962
 160374158, 0.8857268, -0.08306949, -0.5320263, 0.0002593962
 160474118, 0.8164296, -0.07229419, -0.5511752, 0.0002593962
 160574078, 0.7495651, -0.07806586, -0.4550281, 0.0002593962
 160674038, 0.6995769, -0.08155925, -0.3014849, 0.0002593962
 160773998, 0.6657577, -0.08487242, -0.1772567, 0.0002593962
 160893950, 0.7606089, -0.09584434, -0.2247434, 0.0003112754
 160993910, 0.5765723, -0.06608414, -0.2136572, 0.0002593962
 161093870, 0.5285279, -0.04424557, -0.2477746, 0.0002593962
 161193830, 0.492206, -0.0369303, -0.2300659, 0.0002593962
 161293790, 0.4602273, -0.04974057, -0.2000192, 0.0002593962
 161393750, 0.4266329, -0.05289429, -0.1649636, 0.0002593962
 161493710, 0.3929128, -0.04201253, -0.1731296, 0.0002593962
 161593670, 0.3713577, -0.03085311, -0.1477391, 0.0002593962
 161693630, 0.3304855, -0.03711884, -0.1839193, 0.0002593962
 161793590, 0.3023199, -0.02999591, -0.1708525, 0.0002593962
 161893550, 0.2872708, -0.03644171, -0.1084922, 0.0002593962
 161993510, 0.2702821, -0.03963635, -0.09721687, 0.0002593962
 162094303, 0.2453441, -0.03612774, -0.1009591, 0.0002593962
 162194263, 0.2252028, -0.0208698, -0.1091105, 0.0002615578
 162294223, 0.208422, -0.01976677, -0.09720646, 0.0002593962
 162394183, 0.1905677, -0.01289899, -0.1087882, 0.0002593962
 162494143, 0.1696506, -0.009120705, -0.1254374, 0.0002593962
 162594103, 0.1517648, -0.01801846, -0.1208061, 0.0002593962
 162694063, 0.1453109, -0.03564218, -0.05081769, 0.0002593962
 162794023, 0.1339551, -0.02876107, -0.0462424, 0.0002593962
 162913975, 0.1538361, -0.01637789, -0.05361769, 0.0003112754
 163013935, 0.1158389, -0.008704713, -0.03599912, 0.0002593962
 163113895, 0.1052338, -0.02085159, -0.03958137, 0.0002593962
 163213855, 0.08898573, -0.01400304, -0.05943149, 0.0002593962
 163313815, 0.08237681, -0.01659101, -0.03615437, 0.0002593962
 163413775, 0.07418736, -0.004708627, -0.02194295, 0.0002593962
 163513735, 0.05757055, -0.004349038, -0.07467364, 0.0002593962
 163613695, 0.05608955, -0.01281698, -0.04297357, 0.0002593962
 163713655, 0.05215553, -0.01060119, -0.007495694, 0.0002593962
 163813615, 0.04626909, -0.003223263, -0.001798015, 0.0002593962
 163913575, 0.03546451, -0.002859418, -0.05096816, 0.0002593962
 164013535, 0.0382916, 0.009252883, -0.03654521, 0.0002593962
 164113495, 0.04031944, 0.006403851, -0.0192426, 0.0002593962
 164214288, 0.03537546, -0.006905883, 0.007927807, 0.0002615578
 164314248, 0.04068262, -0.005205793, 0.05134138, 0.0002593962
 164414208, 0.01874252, -0.008493587, -0.04135008, 0.0002593962
 164514168, 0.02273833, -0.006778446, -0.01740583, 0.0002593962
 164614128, 0.02752796, -0.004607304, 0.01668272, 0.0002593962
 164714088, 0.02309046, -0.003467676, 0.004482774, 0.0002593962
 164814048, 0.04612822, -0.003586503, 0.08367855, 0.0002593962
 164914008, 0.04494278, -0.00117366, 0.09545189, 0.0002593962
 165033960, 0.0473116, -0.007707777, 0.1000261, 0.0003112754
 165133920, 0.04019183, -0.01853482, 0.08072359, 0.0002593962
 165233880, 0.04641898, -0.006105226, 0.1156397, 0.0002593962
 165333840, 0.05283088, 0.005095329, 0.1242345, 0.0002593962
 165433800, 0.05249771, 0.00883679, 0.09932767, 0.0002593962
 165533760, 0.03516437, -0.01123048, 0.06225532, 0.0002593962
 165633720, 0.009924524, -0.01146784, 0.08989494, 0.0002593962
 165733680, 0.001028711, -0.001936609, 0.1007136, 0.0002593962
 165833640, -0.008285814, -0.002351152, 0.07407669, 0.0002593962
 165933600, 0.004700292, -0.003746292, 0.07905715, 0.0002593962
 166033560, 0.01621911, 0.002574893, 0.1134322, 0.0002593962
 166133520, 0.02382422, -0.0008056193, 0.1021832, 0.0002593962
 166233480, 0.02150474, -0.004509416, 0.06331241, 0.0002593962
 166334273, 0.02107988, -0.007113026, 0.06535424, 0.0002615578
 166434233, 0.01949652, -0.004324804, 0.1003745, 0.0002593962
 166534193, 0.02027649, -0.009274746, 0.08361658, 0.0002593962
 166634153, 0.002510502, -0.01436257, 0.0703824, 0.0002593962
 166734113, -0.001392623, -0.003611293, 0.08919814, 0.0002593962
 166834073, -0.005111322, 0.03703498, 0.1037452, 0.0002593962
 166934033, -0.009000881, 0.06471207, 0.1247314, 0.0002593962
 167033993, -0.00807878, 0.06453753, 0.1622651, 0.0002593962
 167153945, -0.02523927, 0.05425959, 0.1384699, 0.0003112754
 167253905, -0.03001175, 0.0191689, 0.09927341, 0.0002593962
 167353865, -0.02967646, 0.007114123, 0.08846752, 0.0002593962
 167453825, -0.02991134, 0.008941778, 0.1133344, 0.0002593962
 167553785, -0.02886108, 0.009830113, 0.104575, 0.0002593962
 167653745, -0.0267309, 0.03255507, 0.1325441, 0.0002593962
 167753705, -0.01907621, 0.03994654, 0.1190111, 0.0002593962
 167853665, -0.02966975, 0.0333719, 0.108602, 0.0002593962
 167953625, -0.02574239, 0.02718031, 0.1006559, 0.0002593962
 168053585, -0.02748122, 0.02763439, 0.08219577, 0.0002593962
 168153545, -0.0329257, 0.02274664, 0.09172575, 0.0002593962
 168253505, -0.03039952, 0.0218784, 0.08109581, 0.0002593962
 168354298, -0.03373628, 0.0002008934, 0.128647, 0.0002593962
 168454258, -0.02385142, 0.006807898, 0.1226487, 0.0002615578
 168554218, -0.0256088, 0.014291, 0.1231367, 0.0002593962
 168654178, -0.02632181, 0.02376249, 0.08982383, 0.0002593962
 168754138, -0.02835393, 0.02606319, 0.0763953, 0.0002593962
 168854098, -0.03430495, 0.0219912, 0.04803584, 0.0002593962
 168954058, -0.02850305, 0.01750851, 0.09039741, 0.0002593962
 169054018, -0.02352766, 0.01989327, 0.1160267, 0.0002593962
 169173970, -0.02361806, 0.02787306, 0.1627123, 0.0003112754
 169273930, -0.01030189, 0.006857191, 0.1486248, 0.0002593962
 169373890, -0.01378169, 0.007920731, 0.09823526, 0.0002593962
 169473850, -0.01541233, 0.004202285, 0.08319185, 0.0002593962
 169573810, -0.01021841, 0.02093622, 0.04378722, 0.0002593962
 169673770, -0.008543357, 0.02518322, 0.04471838, 0.0002593962
 169773730, -0.01402989, 0.01911997, 0.027306, 0.0002593962
 169873690, -0.01263031, 0.01175816, 0.02615866, 0.0002593962
 169973650, -0.01670988, 0.003453158, 0.06975988, 0.0002593962
 170073610, -0.017164, 0.00161141, 0.09898642, 0.0002593962
 170173570, -0.01486098, 0.01562609, 0.07985885, 0.0002593962
 170273530, -0.00369343, 0.02126025, 0.06174619, 0.0002593962
 170373490, -0.005113114, 0.01829837, 0.07936438, 0.0002593962
 170474283, -0.003022858, -0.001904737, 0.0943485, 0.0002615578
 170574243, 1.325991E-05, 0.002855938, 0.07260396, 0.0002593962
 170674203, -0.005479043, -0.0005176304, 0.05107758, 0.0002593962
 170774163, -0.003631521, -0.001265094, 0.02946725, 0.0002593962
 170874123, -0.004797066, 0.003195558, -0.01003336, 0.0002593962
 170974083, -0.008360148, 0.0182596, -0.001005219, 0.0002593962
 171074043, -0.004497683, 0.02061577, 0.04666497, 0.0002593962
 171174003, -0.003615233, 0.01219717, 0.03717608, 0.0002593962
 171293955, -0.01039928, 0.008829774, 0.03355186, 0.0003112754
 171393915, -0.005423209, 0.01111181, 0.02380699, 0.0002593962
 171493875, -0.004697553, 0.008874387, 0.05219728, 0.0002593962
 171593835, 0.000526489, 0.007761475, 0.05804248, 0.0002593962
 171693795, 0.0008057426, 0.02707174, 0.03161521, 0.0002593962
 171793755, -0.001703993, 0.02620951, 0.00871487, 0.0002593962
 171893715, -0.007006974, 0.02295305, 0.03072711, 0.0002593962
 171993675, -0.004535862, 0.005443873, 0.02345932, 0.0002593962
 172093635, -0.0002570616, -0.004919431, 0.01422806, 0.0002593962
 172193595, 0.002048793, -0.0004760752, 0.02583571, 0.0002593962
 172293555, 0.005691911, 0.005151711, 0.01534887, 0.0002593962
 172393515, 0.001519818, 0.007573169, 0.02186411, 0.0002593962
 172493475, -0.003756784, 0.007013934, 0.001455211, 0.0002593962
 172594268, -0.004224673, -0.001986726, 0.01039401, 0.0002615578
 172694228, 0.003329508, -0.00155195, -0.009395283, 0.0002593962
 172794188, 0.00358702, 0.01626996, 0.01733003, 0.0002593962
 172894148, 0.001904263, 0.02431579, 0.04945653, 0.0002593962
 172994108, 0.007226958, 0.02567411, 0.03802871, 0.0002593962
 173094068, 0.002256245, 0.0131728, 0.03986394, 0.0002593962
 173194028, 0.002194675, 0.0123094, 0.006078214, 0.0002593962
 173313980, 0.00632698, 0.01309005, 0.0244948, 0.0003112754
 173413940, 0.004851205, 0.01229604, 0.00211428, 0.0002593962
 173513900, 0.00529693, 0.02127242, -0.009959613, 0.0002593962
 173613860, 0.002005297, 0.02232138, -0.01215301, 0.0002593962
 173713820, 0.003790595, 0.01493194, -0.01110369, 0.0002593962
 173813780, 0.002000351, 0.006913178, -0.02700479, 0.0002593962
 173913740, 0.00286786, 0.01568636, -0.01429848, 0.0002593962
 174013700, 0.001288886, 0.0170622, 0.01617451, 0.0002593962
 174113660, 0.007166394, 0.01223229, 0.02710964, 0.0002593962
 174213620, 0.004673755, 0.02094417, 0.0110551, 0.0002593962
 174313580, 0.002516504, 0.0184899, -0.007298925, 0.0002593962
 174413540, 0.006096848, 0.01874514, -0.01030971, 0.0002593962
 174513500, -0.001170539, 0.009873923, 0.01696265, 0.0002593962
 174614293, -0.004035364, 0.00297044, 0.02034411, 0.0002615578
 174714253, -0.002546072, 0.0004302773, 0.02853283, 0.0002593962
 174814213, 0.007153678, -0.002054785, 0.02859562, 0.0002593962
 174914173, 0.01301318, 0.005195727, 0.005799662, 0.0002593962
 175014133, 0.01396258, 0.007272462, 0.02119371, 0.0002593962
 175114093, 0.01458303, 0.006530071, 0.02032633, 0.0002593962
 175214053, 0.01010998, 0.004224776, 0.009305902, 0.0002593962
 175314013, 0.01329616, 0.01379094, -0.01847142, 0.0002593962
 175433965, 0.02223718, 0.01451518, 0.01210014, 0.0003112754
 175533925, 0.008396082, 0.009902452, -0.02578709, 0.0002593962
 175633885, 0.003115741, 0.00940402, -0.03718426, 0.0002593962
 175733845, 0.004292766, 0.01400482, -0.02347602, 0.0002593962
 175833805, 0.002072183, 0.0158447, 0.002563805, 0.0002593962
 175933765, 0.004156397, 0.002337712, 0.01848138, 0.0002593962
 176033725, 0.01736369, 0.005673988, 0.01014261, 0.0002593962
 176133685, 0.01300681, -0.00169631, -0.02072646, 0.0002593962
 176233645, 0.008345857, 0.001235019, -0.03965062, 0.0002593962
 176333605, 0.01208252, 0.001064328, -0.0310962, 0.0002593962
 176433565, 0.00902646, -0.005505589, -0.01535464, 0.0002593962
 176533525, 0.004152738, -0.002126449, 0.01587899, 0.0002593962
 176633485, 0.007154034, 0.006655837, -0.007332471, 0.0002593962
 176734278, 0.004812478, 0.01392284, -0.0257924, 0.0002615578
 176834238, 0.003556849, 0.0172132, 0.01664493, 0.0002593962
 176934198, 0.005599606, 0.01453151, 0.01929756, 0.0002593962
 177034158, 0.009016877, 0.00530144, 0.01852218, 0.0002593962
 177134118, 0.009087817, 0.004897313, -0.002676446, 0.0002593962
 177234078, 0.003821953, 0.01418923, 0.004004716, 0.0002593962
 177334038, 0.004612471, 0.006225186, 0.02198876, 0.0002593962
 177433998, -0.0004085858, -0.001928765, 0.001114761, 0.0002593962
 177553950, 0.008045025, -0.001071049, -0.005931845, 0.0003112754
 177653910, 0.008800839, -0.001905039, -0.02410145, 0.0002593962
 177753870, 0.006719434, 0.01123632, -0.0286133, 0.0002593962
 177853830, 0.01032755, 0.005289745, -0.04610036, 0.0002593962
 177953790, 0.007650503, 1.50605E-05, -0.05037114, 0.0002593962
 178053750, 0.0007891923, -0.003113506, -0.0335689, 0.0002593962
 178153710, 0.003950178, 0.007040662, 0.0139333, 0.0002593962
 178253670, 0.003368509, 0.008026308, 0.02458977, 0.0002593962
 178353630, 0.005879191, 0.006236575, 0.01889753, 0.0002593962
 178453590, 0.009679552, 0.005413366, 0.01440736, 0.0002593962
 178553550, 0.007641513, 0.004190591, 0.01364989, 0.0002593962
 178653510, 0.00247182, 0.01211026, -0.001524554, 0.0002593962
 178754303, 0.005519775, 0.01704016, -0.003509262, 0.0002593962
 178854263, 0.01177044, 0.0229642, 0.01624582, 0.0002615578
 178954223, 0.01154796, 0.01808253, 0.007480299, 0.0002593962
 179054183, 0.01727153, 0.0178009, 0.005958452, 0.0002593962
 179154143, 0.01274221, 0.03113811, -0.02182525, 0.0002593962
 179254103, 0.01371908, 0.02530075, -0.03682613, 0.0002593962
 179354063, 0.009542724, 0.02497484, -0.0299881, 0.0002593962
 179454023, 0.007711986, 0.01558605, 0.01876278, 0.0002593962
 179573975, 0.009181951, 0.03168387, -0.01010984, 0.0003112754
 179673935, 0.002680425, 0.02055578, -0.03352852, 0.0002593962
 179773895, 0.00357958, 0.01069584, -0.02800537, 0.0002593962
 179873855, -0.0004146011, 0.01493315, -0.03007646, 0.0002593962
 179973815, 0.001973913, 0.02406586, -0.02311668, 0.0002593962
 180073775, 0.006903206, 0.02906079, 0.01424829, 0.0002593962
 180173735, 0.006840937, 0.01722386, 0.003704505, 0.0002593962
 180273695, 0.009690473, 0.02306878, -0.0004384384, 0.0002593962
 180373655, 0.01559911, 0.02549366, -0.005002957, 0.0002593962
 180473615, 0.009663854, 0.05015811, -0.02247655, 0.0002593962
 180573575, 0.00302393, 0.09197259, -0.003225972, 0.0002593962
 180673535, 0.002936407, 0.141907, -0.02785538, 0.0002593962
 180773495, 0.01207962, 0.1728559, -0.01861222, 0.0002593962
 180874288, 0.01568069, 0.4932249, 0.06479549, 0.0002615578
 180974248, 0.01947072, 0.4632224, 0.06132458, 0.0002593962
 181074208, 0.01290954, 0.1408023, -0.1951046, 0.0002593962
 181174168, -0.01034576, -0.2111754, -0.2635385, 0.0002593962
 181274128, -0.01460072, -0.3561144, -0.03401583, 0.0002593962
 181374088, -0.003667076, -0.2647649, 0.1887627, 0.0002593962
 181474048, 0.005991069, -0.06496213, 0.1246641, 0.0002593962
 181574008, 0.006599905, 0.1194621, 0.009256292, 0.0002593962
 181693960, 0.005636341, 0.2806861, 0.04082648, 0.0003112754
 181793920, 0.003987132, 0.2004583, 0.04990186, 0.0002593962
 181893880, 0.002686988, 0.1008005, -0.0009410526, 0.0002593962
 181993840, -0.001132122, -0.01200105, -0.05292818, 0.0002593962
 182093800, 0.01185902, -0.08418182, -0.03078109, 0.0002593962
 182193760, 0.003439736, -0.09595484, 0.0214723, 0.0002593962
 182293720, 0.004731879, -0.05197543, -0.001665841, 0.0002593962
 182393680, -4.279845E-05, 0.005707842, -0.003048602, 0.0002593962
 182493640, 0.001732888, 0.04486202, -0.01161086, 0.0002593962
 182593600, -0.002279599, 0.06688195, -0.001336536, 0.0002593962
 182693560, 0.006132054, 0.06398425, -0.02209312, 0.0002593962
 182793520, 0.00504031, 0.04091072, -0.03326704, 0.0002593962
 182893480, 0.003977053, 0.003245638, -0.002922119, 0.0002593962
 182994273, 0.003683092, -0.02230657, 0.003474055, 0.0002615578
 183094233, -0.007912602, -0.01966767, 0.02618769, 0.0002593962
 183194193, 0.006372368, -0.006236693, -0.004727084, 0.0002593962
 183294153, 0.008747265, 0.008722661, -0.0477706, 0.0002593962
 183394113, 0.001458137, 0.03100578, -0.01308738, 0.0002593962
 183494073, 0.003539243, 0.03397706, -0.00981067, 0.0002593962
 183594033, 0.004122149, 0.02608584, -0.0172221, 0.0002593962
 183693993, -0.0001472572, 0.02014626, 0.02504265, 0.0002593962
 183813945, 0.002441969, 0.02242032, 0.004297492, 0.0003112754
 183913905, -0.005258545, 0.008148668, 0.00841138, 0.0002593962
 184013865, -0.02187023, 0.005049614, -0.009398973, 0.0002593962
 184113825, -0.0355621, 0.008696911, -0.03907068, 0.0002593962
 184213785, -0.03737877, 0.01602989, -0.01624798, 0.0002593962
 184313745, -0.04119216, 0.02019509, -0.01836789, 0.0002593962
 184413705, -0.03446763, 0.02123871, -0.008617958, 0.0002593962
 184513665, -0.03452462, 0.02120802, 0.02096437, 0.0002593962
 184613625, -0.03406772, 0.01175437, 0.03786127, 0.0002593962
 184713585, -0.03030066, 0.009025845, 0.03277525, 0.0002593962
 184813545, -0.02826393, 0.01029952, -0.0002209543, 0.0002593962
 184913505, -0.02366837, 0.01156978, 0.01730637, 0.0002593962
 185014298, -0.02481126, -0.003466242, -0.01553134, 0.0002593962
 185114258, -0.02295521, -0.007684075, -0.001146617, 0.0002615578
 185214218, -0.02076622, -0.00709955, 0.04630201, 0.0002593962
 185314178, -0.01974494, -0.003390126, 0.04119376, 0.0002593962
 185414138, -0.01783174, -0.0006406904, -0.03481077, 0.0002593962
 185514098, -0.02020902, 0.0004430299, -0.02484684, 0.0002593962
 185614058, -0.01988596, -0.004287729, 0.00544743, 0.0002593962
 185714018, -0.02366948, -0.01363988, -0.01365258, 0.0002593962
 185833970, -0.03467862, -0.001050203, -0.02893454, 0.0003112754
 185933930, -0.01929069, -0.0006437551, -0.01915901, 0.0002593962
 186033890, -0.02905454, -0.001548177, -0.04166539, 0.0002593962
 186133850, -0.03012059, -0.001721191, -0.02802675, 0.0002593962
 186233810, -0.02914732, 0.0001183505, 0.007056569, 0.0002593962
 186333770, -0.02783251, 0.01477042, -0.002461584, 0.0002593962
 186433730, -0.03815317, 0.01042042, -0.02032018, 0.0002593962
 186533690, -0.03139253, 0.007849404, -0.02326428, 0.0002593962
 186633650, -0.02522673, 0.007106559, -0.03368384, 0.0002593962
 186733610, -0.02283769, 0.01008098, -0.03556331, 0.0002593962
 186833570, -0.02611182, -0.004972047, -0.017815, 0.0002593962
 186933530, -0.02849488, 0.0008960074, -0.01427112, 0.0002593962
 187033490, -0.02714002, 0.00719558, 0.02006746, 0.0002593962
 187134283, -0.02727759, -0.002640673, 0.01365256, 0.0002615578
 187234243, -0.02805815, -0.01125352, 0.01655403, 0.0002593962
 187334203, -0.02407125, -0.01163001, -0.009906857, 0.0002593962
 187434163, -0.02336259, -0.004365123, -0.01567579, 0.0002593962
 187534123, -0.02496875, 0.003457249, -0.01256669, 0.0002593962
 187634083, -0.02604244, 0.01178285, -0.01983935, 0.0002593962
 187734043, -0.02090114, -0.003443534, 0.02909322, 0.0002593962
 187834003, -0.02102404, -0.01147078, 0.05020309, 0.0002593962
 187953955, -0.02444792, -0.01382923, 0.06661769, 0.0003112754
 188053915, -0.01566993, -0.009690238, -0.01190876, 0.0002593962
 188153875, -0.02203709, 0.005167002, -0.04078721, 0.0002593962
 188253835, -0.02129339, -0.001148444, -0.04197975, 0.0002593962
 188353795, -0.01502942, -0.005054906, 0.0006018232, 0.0002593962
 188453755, -0.0187037, 7.585087E-05, 0.03452789, 0.0002593962
 188553715, -0.01644524, -0.02318344, 0.07884733, 0.0002593962
 188653675, -0.01666395, -0.02841349, 0.08244582, 0.0002593962
 188753635, -0.007908638, 0.02407407, 0.09138083, 0.0002593962
 188853595, -0.002390529, 0.05823324, 0.08872288, 0.0002593962
 188953555, -0.00105667, 0.04571016, 0.03335408, 0.0002593962
 189053515, -0.00244137, 0.02043133, 0.01106675, 0.0002593962
 189153475, -0.007202949, 0.003920565, -0.009380993, 0.0002593962
 189254268, -0.00178924, -0.007226657, 0.02667583, 0.0002615578
 189354228, -0.002819847, -0.005735383, -0.002965399, 0.0002593962
 189454188, -0.00354595, 0.007152583, -0.05247318, 0.0002593962
 189554148, -0.009502443, 0.01200798, -0.05125163, 0.0002593962
 189654108, -0.01135556, -0.02160151, -0.09259998, 0.0002593962
 189754068, -0.02047282, -0.03740906, -0.04157084, 0.0002593962
 189854028, -0.002351006, 0.007620736, -0.02343269, 0.0002593962
 189973980, -0.01209399, 0.0461216, -0.009816065, 0.0003112754
 190073940, -0.01246145, 0.01333452, -0.002390134, 0.0002593962
 190173900, -0.01411103, -0.02424685, -0.02975696, 0.0002593962
 190273860, -0.0169944, -0.008990502, 0.009242765, 0.0002593962
 190373820, -0.01639489, 0.04457773, 0.02260719, 0.0002593962
 190473780, -0.00649962, 0.03360052, 0.02240384, 0.0002593962
 190573740, -0.01086331, -0.003801596, 0.02258553, 0.0002593962
 190673700, -0.007655499, -0.04548224, 0.02390312, 0.0002593962
 190773660, -0.01544333, -0.03191908, -0.03876647, 0.0002593962
 190873620, -0.01772429, 0.01736097, -0.04848533, 0.0002593962
 190973580, -0.008226754, 0.02538274, -0.02623941, 0.0002593962
 191073540, -0.007663876, 0.007638749, -0.02129746, 0.0002593962
 191173500, -0.01766622, -0.003526772, -0.03606654, 0.0002593962
 191274293, -0.02090868, 0.01026822, -0.02469333, 0.0002615578
 191374253, -0.02082914, -0.002555287, 0.01148486, 0.0002593962
 191474213, -0.01553939, 0.002397344, 0.0311075, 0.0002593962
 191574173, -0.02435039, 0.0002754404, -0.01395728, 0.0002593962
 191674133, -0.03247543, -0.003212268, -0.00103743, 0.0002593962
 191774093, -0.02186629, 0.0120646, -0.02932514, 0.0002593962
 191874053, -0.01877136, 0.01953825, -0.01344987, 0.0002593962
 191974013, 0.005101535, 0.01429172, -0.01555423, 0.0002593962
 192093965, 0.01129236, 0.007673095, -0.03600191, 0.0003112754
 192193925, -0.005598943, -0.001998682, -0.01443817, 0.0002593962
 192293885, -0.01585319, 0.002578007, 0.001064351, 0.0002593962
 192393845, -0.01514806, 0.01478726, -0.03479642, 0.0002593962
 192493805, -0.009763117, 0.01394137, -0.03410586, 0.0002593962
 192593765, -0.01213223, 0.005560782, -0.01034265, 0.0002593962
 192693725, -0.0135156, -0.004416176, 0.00851055, 0.0002593962
 192793685, -0.01325691, -0.006690501, 0.03579414, 0.0002593962
 192893645, -0.01535833, -0.004591825, 0.009563481, 0.0002593962
 192993605, -0.01310161, -0.004253305, -0.01748764, 0.0002593962
 193093565, -0.01504925, 0.01473058, -0.01790928, 0.0002593962
 193193525, -0.01165907, 0.01767566, -0.01162892, 0.0002593962
 193293485, -0.01937074, 0.006719465, 0.0006178862, 0.0002593962
 193394278, -0.01658169, -0.007531058, -0.03504522, 0.0002615578
 193494238, -0.01901334, -0.01644991, -0.04831598, 0.0002593962
 193594198, -0.01566619, -0.00479634, -0.008359673, 0.0002593962
 193694158, -0.02748919, -0.01244223, 0.008472485, 0.0002593962
 193794118, -0.05119015, 0.0002800268, 0.02504439, 0.0002593962
 193894078, -0.02109357, 0.006048312, 0.03043472, 0.0002593962
 193994038, 0.02877367, -0.002188105, 0.002050323, 0.0002593962
 194093998, 0.004181347, -0.007423115, -0.05754438, 0.0002593962
 194213950, -0.006709688, -0.01030939, -0.06231843, 0.0003112754
 194313910, -0.01399121, -0.01146925, -0.000696132, 0.0002593962
 194413870, -0.0277559, 0.005975906, -0.005100717, 0.0002593962
 194513830, -0.05739886, 0.01747766, 0.007704951, 0.0002593962
 194613790, -0.02886533, 0.02897302, -0.04562605, 0.0002593962
 194713750, -0.02143152, 0.02155218, -0.02914382, 0.0002593962
 194813710, -0.01791959, 0.0004997171, -0.04124988, 0.0002593962
 194913670, -0.01608733, -0.00196611, -0.02215392, 0.0002593962
 195013630, -0.01067384, -0.003512417, -0.01755012, 0.0002593962
 195113590, -0.01277071, -0.005546141, -0.01830711, 0.0002593962
 195213550, -0.009940771, -0.01181709, 0.03230456, 0.0002593962
 195313510, -0.009584069, -0.004581155, 0.06679016, 0.0002593962
 195414303, -0.01791068, 0.003447423, 0.06139179, 0.0002593962
 195514263, -0.01643992, 0.005358981, -0.01366531, 0.0002615578
 195614223, -0.02323404, 0.01046644, -0.06175208, 0.0002593962
 195714183, -0.01532427, 0.01514742, -0.001951152, 0.0002593962
 195814143, -0.01537019, 4.905572E-05, 0.03221922, 0.0002593962
 195914103, -0.01549718, -0.006592501, 0.04310425, 0.0002593962
 196014063, -0.01169551, -0.01373377, -0.006478854, 0.0002593962
 196114023, -0.0142225, -0.01165034, -0.01199214, 0.0002593962
 196233975, -0.01792723, -0.02028863, 0.01579852, 0.0003112754
 196333935, -0.01184325, -0.01705604, 0.003553666, 0.0002593962
 196433895, -0.01018725, 0.006238486, 0.006243734, 0.0002593962
 196533855, -0.008048357, 0.02069517, 0.01006111, 0.0002593962
 196633815, -0.002226496, 0.03299216, 0.004307426, 0.0002593962
 196733775, -0.0055686, 0.02712508, 0.003081109, 0.0002593962
 196833735, -0.006989514, 0.02137332, 0.01062658, 0.0002593962
 196933695, -0.003418276, -0.01005076, 0.02884441, 0.0002593962
 197033655, -0.008062771, -0.02353512, 0.01454859, 0.0002593962
 197133615, -0.006696189, -0.01779676, 0.003286963, 0.0002593962
 197233575, -0.007367014, -0.01635328, 0.001589787, 0.0002593962
 197333535, -0.01264929, -0.004981156, 0.003410539, 0.0002593962
 197433495, -0.008558055, -0.003828896, -0.01189269, 0.0002593962
 197534288, -0.001567896, 0.01235974, 0.009245291, 0.0002615578
 197634248, -0.002578277, 0.02063052, 0.01675969, 0.0002593962
 197734208, -0.00567718, 0.02395191, -0.0249482, 0.0002593962
 197834168, -0.009902799, 0.01577612, -0.025233, 0.0002593962
 197934128, 0.0005224398, -7.185788E-05, 0.001917634, 0.0002593962
 198034088, -0.008040145, -0.009320682, 0.008055058, 0.0002593962
 198134048, -0.008340067, -0.01715616, -0.01899148, 0.0002593962
 198234008, -0.01532932, -0.01222296, -0.02358052, 0.0002593962
 198353960, -0.02950193, 0.005928352, 0.01588236, 0.0003112754
 198453920, -0.007052819, 0.004206899, -0.01526819, 0.0002593962
 198553880, -0.008594717, 0.007690153, 0.0232661, 0.0002593962
 198653840, -0.004881678, 0.014604, 0.03601193, 0.0002593962
 198753800, -0.009101671, 0.01685423, 0.0281393, 0.0002593962
 198853760, -0.008801151, 0.004206205, 0.009342004, 0.0002593962
 198953720, -0.0114039, -0.006972959, -0.06184053, 0.0002593962
 199053680, -0.01663713, -0.01891256, -0.0595944, 0.0002593962
 199153640, -0.01493782, -0.01621295, 0.002276873, 0.0002593962
 199253600, -0.01053665, -0.0136068, 0.03991503, 0.0002593962
 199353560, -0.008274277, 0.003792894, 0.03025248, 0.0002593962
 199453520, -0.005204562, 0.03538182, 0.04020633, 0.0002593962
 199553480, -0.006204505, 0.03061624, 0.03149408, 0.0002593962
 199654273, -0.001825458, 0.02395344, 0.008969396, 0.0002615578
 199754233, -0.009076593, 0.002095958, -0.01488428, 0.0002593962
 199854193, -0.008893184, -0.003256553, -0.006848084, 0.0002593962
 199954153, -0.006308489, -0.01309476, 0.01827273, 0.0002593962
 200054113, 0.01054055, -0.01995624, 0.0328236, 0.0002593962
 200154073, 0.001364021, -0.0175233, 0.02129003, 0.0002593962
 200254033, -0.001926651, -0.01760606, -0.02059516, 0.0002593962
 200353993, 0.002505292, 0.001962674, -0.009983035, 0.0002593962
 200473945, -0.006905386, 0.03467787, 0.01100169, 0.0003112754
 200573905, -0.002036887, 0.03341944, -0.03317856, 0.0002593962
 200673865, 0.0001746179, 0.009296901, -0.05735044, 0.0002593962
 200773825, -0.002396698, -0.001413096, 0.008204048, 0.0002593962
 200873785, -0.003415433, -0.005727495, 0.02206806, 0.0002593962
 200973745, -0.00261567, 0.002732702, 0.02244791, 0.0002593962
 201073705, -0.009737729, 0.001706755, -0.03352567, 0.0002593962
 201173665, -0.006849067, 0.0003688238, -0.01319163, 0.0002593962
 201273625, -0.004910205, -0.002267957, 0.04325835, 0.0002593962
 201373585, -0.004078558, 0.008653728, 0.04545357, 0.0002593962
 201473545, -0.004421935, 0.004339576, -0.01665114, 0.0002593962
 201573505, -0.005751178, 0.007645435, -0.07000132, 0.0002593962
 201674298, -0.00502827, 0.007790314, 0.002445625, 0.0002593962
 201774258, -0.00518441, 0.007541639, 0.01239807, 0.0002615578
 201874218, -0.003910867, 0.01387367, 0.02492345, 0.0002593962
 201974178, 0.0006594734, 0.01011718, 0.03585121, 0.0002593962
 202074138, -0.002229821, 0.01215273, 0.0133891, 0.0002593962
 202174098, -0.004341239, 0.004473781, -0.006673984, 0.0002593962
 202274058, -0.00270351, 0.01892449, -0.01019533, 0.0002593962
 202374018, -0.002288924, 0.01468625, 0.01233814, 0.0002593962
 202493970, -0.003940696, -0.01154432, -0.001367375, 0.0003112754
 202593930, -0.0008525272, -0.02639419, 0.01213793, 0.0002593962
 202693890, -0.001556975, -0.02487586, 0.0005482388, 0.0002593962
 202793850, -0.005812675, -0.01333462, 0.007315398, 0.0002593962
 202893810, -1.232876E-05, 0.003587424, -0.01445191, 0.0002593962
 202993770, 0.001393696, 0.02087425, -0.001255086, 0.0002593962
 203093730, -0.001024419, 0.03513806, 0.02648369, 0.0002593962
 203193690, -0.003017972, 0.01664501, 0.0002552347, 0.0002593962
 203293650, -0.002362216, 0.003075471, -0.01402737, 0.0002593962
 203393610, -0.005569987, 0.0001898406, 0.003403475, 0.0002593962
 203493570, 5.182359E-05, 0.01060573, -0.02738004, 0.0002593962
 203593530, 0.006432314, 0.0007474722, 0.008306421, 0.0002593962
 203693490, 0.01083964, 0.0007578413, 0.05205701, 0.0002593962
 203794283, 0.004444598, -0.004951843, 0.02584827, 0.0002615578
 203894243, 0.003157645, -0.008461364, 0.0005441688, 0.0002593962
 203994203, 2.521178E-05, -0.009917906, 0.01489106, 0.0002593962
 204094163, -0.004227374, -0.002788902, 0.01701957, 0.0002593962
 204194123, 0.004926494, 0.006604013, 0.001970027, 0.0002593962
 204294083, 0.007107183, 0.003495054, -0.03384136, 0.0002593962
 204394043, -0.0007803277, 0.006699439, -0.02521617, 0.0002593962
 204494003, -0.00108045, 0.01002449, -0.01619513, 0.0002593962
 204613955, -0.003819194, 0.00399482, -0.01704874, 0.0003112754
 204713915, -0.01107727, -0.002579862, -0.01372982, 0.0002593962
 204813875, -0.006552948, -0.009671177, 0.0005278478, 0.0002593962
 204913835, -0.005501552, -0.001338749, -0.004570982, 0.0002593962
 205013795, -0.004907023, 0.009888247, 0.01780183, 0.0002593962
 205113755, -0.006651076, 0.01792471, 0.01250346, 0.0002593962
 205213715, -0.01033846, 0.01511508, -0.03490591, 0.0002593962
 205313675, -0.005175543, 0.006053707, -0.03339766, 0.0002593962
 205413635, -0.0064045, -0.001628356, 0.03776273, 0.0002593962
 205513595, -0.000421077, -0.009048591, 0.03556095, 0.0002593962
 205613555, -0.0002194389, 0.001976584, 0.03805879, 0.0002593962
 205713515, -0.002892917, 0.008226773, 0.03736141, 0.0002593962
 205813475, 0.00254071, -0.007002817, 0.01493676, 0.0002593962
 205914268, 0.001050259, 0.002214843, -0.02175065, 0.0002615578
 206014228, -0.004376507, 0.002090827, -0.05483606, 0.0002593962
 206114188, -0.0003484789, -0.01230399, -0.01742952, 0.0002593962
 206214148, 0.003822806, -0.01030377, -0.009342327, 0.0002593962
 206314108, 0.004468418, 0.001952888, 0.03008182, 0.0002593962
 206414068, 0.004288234, 0.01114207, 0.02514838, 0.0002593962
 206514028, -0.001821288, 0.01236681, 0.01460821, 0.0002593962
 206633980, -0.00213315, 0.004694877, -0.01278849, 0.0003112754
 206733940, -0.003605692, -0.0009600396, 0.00911265, 0.0002593962
 206833900, -0.007002004, 0.005426353, -0.02148435, 0.0002593962
 206933860, -0.008013561, 0.001165745, -0.01852461, 0.0002593962
 207033820, -0.003412235, 0.004397576, -1.655871E-05, 0.0002593962
 207133780, 0.001492493, 0.01254069, 0.007405427, 0.0002593962
 207233740, 0.006746007, 0.01572367, 0.01805428, 0.0002593962
 207333700, 0.001917268, 0.01277687, 0.01646868, 0.0002593962
 207433660, 0.002734124, 0.003705766, 0.0429561, 0.0002593962
 207533620, 0.002675743, -0.0005543046, -0.008866882, 0.0002593962
 207633580, -0.005954106, 0.005612932, -0.02560476, 0.0002593962
 207733540, -0.008837163, 0.01039462, -0.0440952, 0.0002593962
 207833500, -0.003242485, 0.0028882, -0.01799037, 0.0002593962
 207934293, -0.008381736, -0.001256398, 0.003094757, 0.0002615578
 208034253, -0.004475016, 0.001316363, -0.0003972282, 0.0002593962
 208134213, -0.00346049, 0.006983197, -0.02211709, 0.0002593962
 208234173, -0.007714724, 0.005206634, 0.01616031, 0.0002593962
 208334133, -0.001471277, 0.01188013, 0.02850276, 0.0002593962
 208434093, -0.001726961, 0.005751991, 0.03482473, 0.0002593962
 208534053, -0.0008711384, 0.000434726, 0.02381646, 0.0002593962
 208634013, -0.002034101, 0.005658515, -0.01731303, 0.0002593962
 208753965, -0.007210387, 0.00636251, -0.02894525, 0.0003112754
 208853925, -0.003659366, 0.006547503, -0.01599653, 0.0002593962
 208953885, -0.006431578, 0.009157181, -0.03451811, 0.0002593962
 209053845, -0.008115128, 0.01099621, -0.03514777, 0.0002593962
 209153805, -0.002484761, 0.008977333, -0.02511097, 0.0002593962
 209253765, 0.0005113167, -0.01056373, 0.01218453, 0.0002593962
 209353725, 0.002620601, -0.02077397, 0.04791626, 0.0002593962
 209453685, 0.0003530474, -0.00300635, 0.01695928, 0.0002593962
 209553645, -0.002948633, 0.00751199, 0.0354025, 0.0002593962
 209653605, -0.002155036, 0.01009957, 0.01309744, 0.0002593962
 209753565, -0.001422971, 0.01014797, -0.009628182, 0.0002593962
 209853525, -0.003132709, 0.01393112, -0.01693773, 0.0002593962
 209953485, 0.001230933, 0.009239348, 0.003456449, 0.0002593962
 210054278, 0.005669522, 0.009570532, -0.01997929, 0.0002615578
 210154238, -0.001668989, 0.01952402, -0.01679296, 0.0002593962
 210254198, 0.003100324, 0.005185204, 0.03793557, 0.0002593962
 210354158, 0.001003626, -0.005555734, -0.007642386, 0.0002593962
 210454118, -0.003572786, -0.006604731, -0.005389956, 0.0002593962
 210554078, -0.004252365, -0.008744939, 0.01646443, 0.0002593962
 210654038, 0.001880132, -0.003072981, -0.008211274, 0.0002593962
 210753998, 0.006199183, 0.009155176, -0.01552081, 0.0002593962
 210873950, 0.002444759, 0.01214043, -0.04151518, 0.0003112754
 210973910, -0.004457599, -0.0005540436, -0.01811421, 0.0002593962
 211073870, -0.007940093, -0.005297448, -0.0122785, 0.0002593962
 211173830, -0.007268656, -0.002143856, -0.00869486, 0.0002593962
 211273790, -0.009998767, 0.0009447518, -0.0006029959, 0.0002593962
 211373750, -0.007367931, 0.005136791, 0.000464368, 0.0002593962
 211473710, -0.01165048, 0.001408862, 0.008051445, 0.0002593962
 211573670, -0.005144535, 0.005375642, 0.0323728, 0.0002593962
 211673630, -0.006892891, 0.005491656, 0.01331416, 0.0002593962
 211773590, -0.0006230519, 0.009693013, 0.002067054, 0.0002593962
 211873550, -0.006007751, 0.01406171, 0.002103422, 0.0002593962
 211973510, -0.005192255, 0.005822859, -0.03072649, 0.0002593962
 212074303, 0.0002646725, -0.005510339, -0.04830713, 0.0002593962
 212174263, 0.0006373052, -0.01274076, -0.008777503, 0.0002615578
 212274223, 0.002477854, -0.01724113, 0.0282384, 0.0002593962
 212374183, -0.0006813683, -0.02917925, 0.02901531, 0.0002593962
 212474143, -0.001066335, -0.01057502, 0.0180226, 0.0002593962
 212574103, -0.008685999, 0.008079954, 0.03238956, 0.0002593962
 212674063, 0.002422957, 0.02494052, -0.001457556, 0.0002593962
 212774023, -0.002983256, 0.01853322, 0.02270226, 0.0002593962
 212893975, -0.001691731, 0.01718478, -0.0114391, 0.0003112754
 212993935, 0.003478266, 0.009773879, -0.04147993, 0.0002593962
 213093895, 0.003792633, 0.007557632, -0.02908737, 0.0002593962
 213193855, -0.003141798, 0.00572125, -0.01751638, 0.0002593962
 213293815, -0.005341295, 0.00594638, 0.01099514, 0.0002593962
 213393775, -0.006672309, 0.002560574, -0.01870771, 0.0002593962
 213493735, -0.007665328, 0.002980471, -0.00698635, 0.0002593962
 213593695, 0.000391193, 0.001976755, 0.02129229, 0.0002593962
 213693655, -0.001784778, 0.01140097, 0.01814324, 0.0002593962
 213793615, 0.001425722, 0.01863248, 0.0182527, 0.0002593962
 213893575, -0.001619972, 0.01601535, 0.01998317, 0.0002593962
 213993535, -0.004266798, 0.01566597, 0.007584694, 0.0002593962
 214093495, -0.008743382, 0.001170663, -0.01710821, 0.0002593962
 214194288, -0.01151579, -0.006938162, -0.02552918, 0.0002615578
 214294248, -0.001791804, -0.003438072, -0.005147668, 0.0002593962
 214394208, 0.009817127, -0.008859291, 0.05658844, 0.0002593962
 214494168, 0.0009362285, -0.01511228, 0.03014855, 0.0002593962
 214594128, -0.0005250253, 0.005539112, -0.02255542, 0.0002593962
 214694088, -0.002885012, 0.01121238, -0.04538634, 0.0002593962
 214794048, -0.008610724, 0.01422063, -0.009608772, 0.0002593962
 214894008, -0.00567091, 0.009644806, 0.0305431, 0.0002593962
 215013960, -0.00584974, 0.002872171, -0.04050978, 0.0003112754
 215113920, -0.006072191, 0.004481947, -0.02863152, 0.0002593962
 215213880, -0.005808748, -0.001150988, 0.0142625, 0.0002593962
 215313840, -0.005460954, 0.0009393084, 0.03034693, 0.0002593962
 215413800, -0.006180857, -0.00543611, -0.003010918, 0.0002593962
 215513760, -0.00758708, 0.0002930412, -0.0007471625, 0.0002593962
 215613720, -0.003561744, -0.003621154, 0.007085463, 0.0002593962
 215713680, -0.006238713, -0.0006126754, -0.02358702, 0.0002593962
 215813640, -0.00618373, 0.01565713, -0.01177504, 0.0002593962
 215913600, -0.004277234, 0.01543327, -0.01483348, 0.0002593962
 216013560, -0.003229863, 0.004469548, 0.009494025, 0.0002593962
 216113520, -0.005600923, -0.0007631747, 0.0003942051, 0.0002593962
 216213480, -0.009397314, -0.001151579, 0.02363761, 0.0002593962
 216314273, -0.00152752, -0.01363126, -0.01667584, 0.0002615578
 216414233, -0.008695599, -0.01167147, -0.0005451314, 0.0002593962
 216514193, -0.002517757, -0.01271008, -0.0134812, 0.0002593962
 216614153, -0.002134266, -0.008318983, 0.0138988, 0.0002593962
 216714113, 0.008756388, 0.01110399, 0.009416541, 0.0002593962
 216814073, 0.00199597, 0.01363674, -0.03142467, 0.0002593962
 216914033, -0.001372342, 0.01688998, 0.005893533, 0.0002593962
 217013993, -0.001512385, 0.01320936, 0.02672399, 0.0002593962
 217133945, 0.002070615, 0.01952255, 0.02903605, 0.0003112754
 217233905, -0.0008985022, 0.01210173, -0.0309124, 0.0002593962
 217333865, -0.004296755, 0.0006904145, -0.02777924, 0.0002593962
 217433825, -0.0002451229, 0.001430141, 0.01785477, 0.0002593962
 217533785, 0.002943297, 0.009431048, 0.02992197, 0.0002593962
 217633745, 0.007312857, 0.01107905, 0.02976959, 0.0002593962
 217733705, 0.0006236855, 0.005266289, -0.002607952, 0.0002593962
 217833665, 0.003634716, 0.01074977, 0.006596568, 0.0002593962
 217933625, 0.001030826, 0.0080174, 0.01881761, 0.0002593962
 218033585, -0.004489862, 0.0007926022, -0.03069954, 0.0002593962
 218133545, -0.005381015, -0.004490629, -0.01268477, 0.0002593962
 218233505, -0.004507694, 0.002611669, 0.02849, 0.0002593962
 218334298, 0.001044555, 0.004059488, 0.0239981, 0.0002593962
 218434258, -0.003289411, -0.001643645, -0.005634416, 0.0002615578
 218534218, -0.0002853679, -0.0005583406, -0.0057799, 0.0002593962
 218634178, 0.002368573, -0.003610571, -0.02335999, 0.0002593962
 218734138, 0.004647672, -0.006630308, -0.002384862, 0.0002593962
 218834098, 0.004597661, -0.005093079, 0.01576087, 0.0002593962
 218934058, -0.001170533, -0.007243765, -0.00110684, 0.0002593962
 219034018, -0.002197909, -0.002676529, -0.02643262, 0.0002593962
 219153970, -0.002979167, 0.007863239, -0.001065905, 0.0003112754
 219253930, -0.008243958, 0.009369713, -0.01998879, 0.0002593962
 219353890, -0.005528888, 0.006716245, 0.03085887, 0.0002593962
 219453850, -0.002881336, 0.007782925, 0.0414591, 0.0002593962
 219553810, -0.0004654313, 0.007937449, -0.03259527, 0.0002593962
 219653770, -0.005970655, 0.01476786, -0.04604698, 0.0002593962
 219753730, -0.006811928, 0.008258014, 0.01256445, 0.0002593962
 219853690, -0.00200895, 0.01150877, 0.02528083, 0.0002593962
 219953650, -0.001594815, 0.002262211, 0.00372993, 0.0002593962
 220053610, -0.0009719378, -0.009145489, -0.007914781, 0.0002593962
 220153570, -0.006441304, -0.00775914, -0.01571982, 0.0002593962
 220253530, -0.007832246, 0.0007569105, -0.01960521, 0.0002593962
 220353490, -0.002774308, 0.01066816, 0.01226942, 0.0002593962
 220454283, -0.005768115, 0.009907808, 0.02855686, 0.0002615578
 220554243, -0.004485856, -0.0007554946, -0.01594283, 0.0002593962
 220654203, -0.003118888, 0.01153332, -0.01314662, 0.0002593962
 220754163, -0.004565272, 0.01604599, 0.007918308, 0.0002593962
 220854123, -0.00286748, 0.009783216, -0.02296994, 0.0002593962
 220954083, -0.006595632, 0.007725381, 0.000507066, 0.0002593962
 221054043, 0.001108268, -0.001411429, 0.005269269, 0.0002593962
 221154003, 0.002059063, -0.02099999, -0.03863644, 0.0002593962
 221273955, 0.004219912, -0.04209393, -0.01665558, 0.0003112754
 221373915, -1.263269E-05, -0.007904391, 0.04030834, 0.0002593962
 221473875, 0.004036059, 0.01636574, 0.06316674, 0.0002593962
 221573835, -0.002416182, 0.01852348, 0.0233555, 0.0002593962
 221673795, -0.005804418, 0.01804147, -0.009347256, 0.0002593962
 221773755, -0.003056751, 0.01536093, -0.02160941, 0.0002593962
 221873715, -0.006554121, 0.008723492, 0.009810546, 0.0002593962
 221973675, -0.00324685, -0.004619459, 4.347041E-05, 0.0002593962
 222073635, -0.001903969, -0.006837205, -0.02224452, 0.0002593962
 222173595, -0.00837977, 0.0004238326, -0.005336819, 0.0002593962
 222273555, -0.006152123, -0.005934431, -0.03182581, 0.0002593962
 222373515, -0.005732041, -0.01269451, -0.01876562, 0.0002593962
 222473475, -0.008535616, -0.00945719, 0.001320387, 0.0002593962
 222574268, -0.004587272, 0.02009973, 0.01495577, 0.0002615578
 222674228, -0.005424877, 0.00905815, 0.03866869, 0.0002593962
 222774188, -4.60411E-06, 0.01156255, 0.0186313, 0.0002593962
 222874148, 0.002641306, 0.00512199, 0.006721544, 0.0002593962
 222974108, -0.001432226, 0.003125477, 0.00298742, 0.0002593962
 223074068, -0.0004602132, -0.004808934, -0.01296259, 0.0002593962
 223174028, -0.003934619, -0.003327451, -0.01719391, 0.0002593962
 223293980, -0.003019725, -0.008940022, -0.009031173, 0.0003112754
 223393940, -0.005062731, 0.00307512, -0.02121511, 0.0002593962
 223493900, -0.006418275, 0.0119163, -0.01178106, 0.0002593962
 223593860, -0.005140634, 0.01097566, 0.01348072, 0.0002593962
 223693820, -0.003234414, 0.01772848, 0.01973174, 0.0002593962
 223793780, -0.003769167, 0.0163995, -0.00624281, 0.0002593962
 223893740, 0.001091264, 0.01149724, 0.002374652, 0.0002593962
 223993700, -0.002927081, -0.0009942451, -0.004975712, 0.0002593962
 224093660, -0.004842403, -0.01540234, 0.03561226, 0.0002593962
 224193620, -0.003311673, -0.01355506, 0.03035384, 0.0002593962
 224293580, 0.0001414148, 0.005470051, 0.01439541, 0.0002593962
 224393540, -0.0004321507, 0.01272413, -0.03062657, 0.0002593962
 224493500, 9.257018E-05, 0.01701832, -0.01002741, 0.0002593962
 224594293, -0.003730045, 0.01528794, 0.003499301, 0.0002615578
 224694253, 0.001263587, 0.01352563, -0.01116563, 0.0002593962
 224794213, -0.006424956, 0.01372421, -0.04262832, 0.0002593962
 224894173, -0.007859332, -0.006140579, -0.03728904, 0.0002593962
 224994133, -0.008621373, -0.01607342, -0.0103442, 0.0002593962
 225094093, -0.005618287, -0.01315848, 0.03656523, 0.0002593962
 225194053, 0.004656381, -0.01896259, 0.03271654, 0.0002593962
 225294013, 0.011589, -0.005420656, 0.005077772, 0.0002593962
 225413965, 0.008200725, 0.006014605, -0.006987875, 0.0003112754
 225513925, 0.0009843396, 0.01196955, 0.04299209, 0.0002593962
 225613885, -0.001488623, 0.004354483, -0.01246372, 0.0002593962
 225713845, -0.001875104, 0.01176208, -0.03017685, 0.0002593962
 225813805, -0.005495111, 0.01975654, 0.001247165, 0.0002593962
 225913765, -0.01110292, 0.01511662, -0.01493551, 0.0002593962
 226013725, -0.003100502, -0.00591156, 0.01256012, 0.0002593962
 226113685, -0.0005291296, -0.01003056, 0.00550009, 0.0002593962
 226213645, 0.001412693, -0.0007132608, -0.02634167, 0.0002593962
 226313605, 0.007679804, 0.01535708, -0.002412327, 0.0002593962
 226413565, 0.00249369, 0.01074926, 0.0214504, 0.0002593962
 226513525, -0.0001235084, -0.0006974955, 0.01120228, 0.0002593962
 226613485, -0.00189181, 0.009411008, 0.01477997, 0.0002593962
 226714278, -0.001599587, 0.01325866, -0.03270609, 0.0002615578
 226814238, -0.006977847, -0.001834051, -0.006866425, 0.0002593962
 226914198, -0.00652324, -0.01141391, 0.008008527, 0.0002593962
 227014158, -0.00873388, -0.008465366, 0.001018384, 0.0002593962
 227114118, -0.005991218, -0.004673702, 0.01423763, 0.0002593962
 227214078, -0.003238085, 0.001500149, 0.006126146, 0.0002593962
 227314038, -0.001751677, 0.002124818, -0.04035801, 0.0002593962
 227413998, -0.00572674, 0.004826374, -0.01794338, 0.0002593962
 227533950, -0.0065874, 0.01289714, 0.00878855, 0.0003112754
 227633910, -0.005148327, 0.01113049, 0.006660562, 0.0002593962
 227733870, -0.004962848, 0.02282138, -0.01581699, 0.0002593962
 227833830, 0.006464177, 0.01587626, 0.01420162, 0.0002593962
 227933790, 0.001213195, 0.01969838, 0.02995572, 0.0002593962
 228033750, -0.0006295013, 0.009087561, 0.001322999, 0.0002593962
 228133710, -0.001840494, 0.0002490625, 0.0007089257, 0.0002593962
 228233670, -0.008025951, -0.01462373, 0.001604325, 0.0002593962
 228333630, -0.005263254, -0.01202579, 0.008110853, 0.0002593962
 228433590, -0.004140008, 0.003656241, -0.02525386, 0.0002593962
 228533550, -0.006935432, 0.0132767, -0.02573531, 0.0002593962
 228633510, -0.008042056, 0.009214005, -0.02026926, 0.0002593962
 228734303, -0.005397159, 0.004964672, 0.0210874, 0.0002593962
 228834263, -0.002231455, 0.004190353, 0.02493747, 0.0002615578
 228934223, -0.03067451, 0.004425823, -0.01045265, 0.0002593962
 229034183, -0.04226877, -0.01194795, -0.02036038, 0.0002593962
 229134143, -0.01728016, -0.008832778, 0.01277751, 0.0002593962
 229234103, 0.001286438, -0.01273936, 0.04916338, 0.0002593962
 229334063, 0.05513166, -0.01532312, 0.02706677, 0.0002593962
 229434023, 0.04803843, -0.008898063, -0.005519175, 0.0002593962
 229553975, -0.02193112, -0.003027375, 0.005070126, 0.0003112754
 229653935, -0.07959495, 0.01113286, -0.01623948, 0.0002593962
 229753895, -0.03321146, 0.02552004, -0.05208844, 0.0002593962
 229853855, -0.009099174, 0.02436176, -0.04722818, 0.0002593962
 229953815, 0.01031668, 0.01099703, -0.004705854, 0.0002593962
 230053775, 0.01465049, -0.01739475, 0.03161171, 0.0002593962
 230153735, 0.07063802, -0.03838982, 0.03989804, 0.0002593962
 230253695, 0.04150997, -0.03206149, 0.02939552, 0.0002593962
 230353655, -0.0134563, -0.006210223, -0.003394885, 0.0002593962
 230453615, -0.0851596, 0.01925136, -0.03853698, 0.0002593962
 230553575, -0.04761131, 0.02122046, -0.01411492, 0.0002593962
 230653535, -0.01580474, 0.01107533, 0.01453546, 0.0002593962
 230753495, 0.003566334, -0.0003532368, 0.0001531465, 0.0002593962
 230854288, 0.004282313, 0.009034543, 0.006925023, 0.0002615578
 230954248, 0.01108403, 0.01943878, -0.003512589, 0.0002593962
 231054208, 0.008954159, 0.02620533, -0.003483799, 0.0002593962
 231154168, -0.0001247762, 0.01154777, -0.005941865, 0.0002593962
 231254128, -0.004077662, -0.02493864, 0.0120941, 0.0002593962
 231354088, -0.005190511, -0.02366136, 0.009654425, 0.0002593962
 231454048, -0.005816346, -0.02263595, -0.02568825, 0.0002593962
 231554008, -0.00967254, -0.01448327, -0.005646124, 0.0002593962
 231673960, -0.0051441, 0.009455416, 0.001848177, 0.0003112754
 231773920, -0.002260607, 0.02203502, -0.003093864, 0.0002593962
 231873880, -0.00385758, 0.02450575, -0.01242459, 0.0002593962
 231973840, -0.004715771, 0.02203322, 0.02770925, 0.0002593962
 232073800, -0.002345316, 0.009504302, 0.004225604, 0.0002593962
 232173760, -0.0008556148, -0.004215616, 0.003728243, 0.0002593962
 232273720, -0.004512057, -0.01991422, 0.003671922, 0.0002593962
 232373680, -0.002230619, -0.022247, 0.0377211, 0.0002593962
 232473640, 0.002441848, -0.0206926, 0.01480896, 0.0002593962
 232573600, 0.0005990917, -0.006235703, -0.04006431, 0.0002593962
 232673560, -0.001120505, 0.01351757, -0.03477826, 0.0002593962
 232773520, -0.001868765, 0.02876143, -0.04564115, 0.0002593962
 232873480, -0.006613234, 0.02013605, -0.00345887, 0.0002593962
 232974273, -0.001051322, 0.0219857, -0.001037969, 0.0002615578
 233074233, -0.00190447, 0.0156128, 0.01640173, 0.0002593962
 233174193, 0.001524135, 0.00668584, 0.01840493, 0.0002593962
 233274153, -0.001121433, -0.0004806147, 0.007696391, 0.0002593962
 233374113, -0.007655648, -0.01097281, 0.04781611, 0.0002593962
 233474073, -0.00362651, -0.01072007, 0.03236617, 0.0002593962
 233574033, 0.0005968605, -0.009129344, -0.01783031, 0.0002593962
 233673993, 0.001616587, 0.005976958, -0.02721422, 0.0002593962
 233793945, 0.001365646, 0.01482126, 0.03818427, 0.0003112754
 233893905, 0.001869985, 0.02604895, 0.03949562, 0.0002593962
 233993865, 0.005173231, 0.02672656, -0.03061064, 0.0002593962
 234093825, 0.004201155, 0.01488993, -0.03222955, 0.0002593962
 234193785, -0.00308419, -0.002319564, -0.008413877, 0.0002593962
 234293745, -0.003782027, -0.01349517, 0.01732437, 0.0002593962
 234393705, -0.0001831703, -0.01104488, 0.00650425, 0.0002593962
 234493665, -0.01051963, -0.004836672, -0.03326354, 0.0002593962
 234593625, -0.01059973, 0.002733278, -0.01426477, 0.0002593962
 234693585, -0.01038874, 0.007761742, 0.008791009, 0.0002593962
 234793545, -0.001573443, 0.006067954, 0.03026712, 0.0002593962
 234893505, -0.001274216, 0.01535154, 0.01088014, 0.0002593962
 234994298, -0.00551196, 0.02049685, -0.01584683, 0.0002593962
 235094258, -0.001944453, 0.009035181, -0.003221259, 0.0002615578
 235194218, -0.002145109, -0.009426853, 0.01150796, 0.0002593962
 235294178, -0.006299998, -0.02451305, 0.0005540537, 0.0002593962
 235394138, -0.005877996, -0.01864923, -0.01953038, 0.0002593962
 235494098, -0.002735345, -0.01581882, -0.008465096, 0.0002593962
 235594058, -0.0003454581, 0.001704187, 0.05091257, 0.0002593962
 235694018, 0.00205633, 0.01300987, 0.02665753, 0.0002593962
 235813970, 0.003745586, 0.0261754, 0.0001038136, 0.0003112754
 235913930, 0.00378182, 0.01530238, 0.001074018, 0.0002593962
 236013890, -0.004263883, 0.009109255, -0.009902406, 0.0002593962
 236113850, -0.0062396, 0.00654035, -0.0152032, 0.0002593962
 236213810, -0.005005809, 0.004604227, -0.03647435, 0.0002593962
 236313770, -0.001258198, -0.0002906433, -0.05511007, 0.0002593962
 236413730, -0.005094388, -0.0009023072, -0.02323261, 0.0002593962
 236513690, -0.00167246, -0.0002566456, 0.01902182, 0.0002593962
 236613650, -0.0003656466, 0.00459584, 0.03330212, 0.0002593962
 236713610, -0.00471453, 0.005241587, 0.01538317, 0.0002593962
 236813570, -0.007293919, -0.01116848, 0.006396281, 0.0002593962
 236913530, -0.006153106, 0.001715733, 0.003929044, 0.0002593962
 237013490, 0.003817763, 0.01545007, 0.03573923, 0.0002593962
 237114283, 0.002745471, 0.01752112, -0.01411328, 0.0002615578
 237214243, -0.0008713397, 0.02542147, -0.0418173, 0.0002593962
 237314203, 0.004049311, 0.0194583, 0.01138797, 0.0002593962
 237414163, 0.001870704, -0.003316214, 0.03258201, 0.0002593962
 237514123, -0.002047396, -0.01945058, -0.007252185, 0.0002593962
 237614083, -0.004807724, -0.01614412, 0.01226527, 0.0002593962
 237714043, -0.00172839, -0.0033521, -0.0003116982, 0.0002593962
 237814003, -0.003080868, 0.008500016, -0.0257211, 0.0002593962
 237933955, 0.0001531889, 0.01883436, -0.002919879, 0.0003112754
 238033915, -0.00140472, 0.01590469, 0.01322453, 0.0002593962
 238133875, 0.002212965, 0.005910704, 0.008592542, 0.0002593962
 238233835, -0.0004898006, -0.00570357, -0.01032023, 0.0002593962
 238333795, -0.001957091, -0.003067566, 0.02071082, 0.0002593962
 238433755, 0.0002787181, 0.001981729, -0.01924251, 0.0002593962
 238533715, -0.00010716, 0.0008480288, -0.02234416, 0.0002593962
 238633675, -0.002155355, 0.006842147, -0.01669962, 0.0002593962
 238733635, 0.000408289, 0.003269727, 0.01485628, 0.0002593962
 238833595, -0.002180177, 0.009611333, 0.04378213, 0.0002593962
 238933555, 0.0006523098, 0.01018396, 0.0008781352, 0.0002593962
 239033515, 0.0006292039, 0.01555039, -0.04236745, 0.0002593962
 239133475, -0.003262184, 0.01509549, 0.01026482, 0.0002593962
 239234268, -0.001330066, 0.002415685, 0.02068969, 0.0002615578
 239334228, -0.007108487, -0.004218435, 0.01292557, 0.0002593962
 239434188, -0.009310861, -0.001998649, 0.06976308, 0.0002593962
 239534148, 0.0006702479, -0.002647018, 0.02118893, 0.0002593962
 239634108, -0.0001534596, 0.01046189, -0.02502302, 0.0002593962
 239734068, 0.002443491, 0.0219517, -0.06097696, 0.0002593962
 239834028, -0.001244952, 0.01935425, -0.05491788, 0.0002593962
 239953980, -0.00394472, 0.001603783, -0.02608789, 0.0003112754
 240053940, -0.006641887, -0.008730157, 0.03724536, 0.0002593962
 240153900, -0.00158064, -0.008306315, 0.01554425, 0.0002593962
 240253860, -0.004614025, -0.01530673, -0.0002823747, 0.0002593962
 240353820, -0.00101138, -0.009568668, -0.03185532, 0.0002593962
 240453780, 0.001288335, 0.007299004, -0.005970692, 0.0002593962
 240553740, -0.002804521, 0.01546054, 0.02883393, 0.0002593962
 240653700, 0.003002704, 0.01407197, 0.0133895, 0.0002593962
 240753660, 0.006589921, 0.01527675, 0.008390702, 0.0002593962
 240853620, -0.0007701621, 0.01276018, -0.003321378, 0.0002593962
 240953580, -0.0104214, 0.01329366, -0.02304217, 0.0002593962
 241053540, -0.005813678, 0.00983825, 0.02070306, 0.0002593962
 241153500, -0.0007721271, 0.0009547803, 0.01849529, 0.0002593962
 241254293, -0.00298363, -0.008809217, 0.009296183, 0.0002615578
 241354253, -0.001923456, -0.01730119, -0.01925075, 0.0002593962
 241454213, -0.0067901, -0.02212204, 0.003772618, 0.0002593962
 241554173, -0.01143456, -0.0123177, -0.03802472, 0.0002593962
 241654133, -0.006316272, 0.002359443, -0.003377696, 0.0002593962
 241754093, 0.001531091, 0.02197282, 0.07403584, 0.0002593962
 241854053, 0.001423091, 0.02155557, 0.04087438, 0.0002593962
 241954013, 0.008150869, 0.01528611, -0.03022638, 0.0002593962
 242073965, -0.003216577, 0.02654229, -0.0279211, 0.0003112754
 242173925, -0.006773716, 0.009391619, -0.01289754, 0.0002593962
 242273885, -0.007500539, 0.01139524, -0.02880676, 0.0002593962
 242373845, -0.003801971, 0.01306749, -0.02386704, 0.0002593962
 242473805, -0.00123507, -0.01378493, -0.00233143, 0.0002593962
 242573765, 0.005503131, -0.009967595, 0.0008661621, 0.0002593962
 242673725, 0.001040011, -0.003651402, -0.003193741, 0.0002593962
 242773685, 0.001844827, 0.005174837, 0.0307522, 0.0002593962
 242873645, 0.00482372, 0.009713534, -0.0009061717, 0.0002593962
 242973605, 0.001031971, 0.02703988, 0.00523107, 0.0002593962
 243073565, 0.003894248, 0.02823364, 0.06081584, 0.0002593962
 243173525, 0.007800625, 0.01682674, -0.005208325, 0.0002593962
 243273485, -0.002636235, -0.003458867, -0.02995749, 0.0002593962
 243374278, -0.004272337, -0.007777475, 0.009972037, 0.0002615578
 243474238, -0.002007565, -0.01689498, -0.01282257, 0.0002593962
 243574198, -0.0055749, -0.01430431, -0.01813262, 0.0002593962
 243674158, -0.003130851, 0.003930701, -0.03207535, 0.0002593962
 243774118, -0.001712109, 0.02113564, -0.04206316, 0.0002593962
 243874078, -6.2643E-05, 0.02493135, 0.01604963, 0.0002593962
 243974038, -0.002753326, 0.01986578, 0.04590325, 0.0002593962
 244073998, -0.002655783, 0.01491394, 0.03202594, 0.0002593962
 244193950, 0.001579266, -0.01282102, 0.03694255, 0.0003112754
 244293910, -0.006739079, -0.02444249, -0.01582749, 0.0002593962
 244393870, 0.01156612, -0.01804487, -0.01653133, 0.0002593962
 244493830, 0.03461378, 0.01922009, -0.01452234, 0.0002593962
 244593790, 0.05887542, 0.1321542, -0.06165297, 0.0002593962
 244693750, -0.1906112, -0.4016009, -0.2002964, 0.0002593962
 244793710, -0.7860885, -1.125919, 0.02943471, 0.0002593962
 244893670, -1.060841, -1.200955, 0.6280087, 0.0002593962
 244993630, -1.204574, -1.288256, 0.6335098, 0.0002593962
 245093590, -1.616732, -2.00151, 0.06990422, 0.0002593962
 245193550, -2.144997, -2.356461, -0.7007744, 0.0002593962
 245293510, -2.276313, -1.789308, -1.149037, 0.0002593962
 245394303, -1.881223, -0.8796985, -0.9496814, 0.0002593962
 245494263, -1.338933, -0.2369428, -0.4195969, 0.0002615578
 245594223, -0.9348533, 0.06626712, 0.05081363, 0.0002593962
 245694183, -0.7368478, 0.1623654, 0.3086038, 0.0002593962
 245794143, -0.6788955, 0.1601464, 0.3832655, 0.0002593962
 245894103, -0.6970754, 0.1167777, 0.3430853, 0.0002593962
 245994063, -0.7431803, 0.06721158, 0.247988, 0.0002593962
 246094023, -0.7829828, 0.03665369, 0.1442915, 0.0002593962
 246213975, -0.9645349, 0.04590754, 0.0760291, 0.0003112754
 246313935, -0.7554951, 0.06352199, 0.03135924, 0.0002593962
 246413895, -0.7054817, 0.09234966, 0.04209487, 0.0002593962
 246513855, -0.6568018, 0.1153796, 0.0682089, 0.0002593962
 246613815, -0.6215727, 0.1288583, 0.09163564, 0.0002593962
 246713775, -0.6028961, 0.1356394, 0.1010122, 0.0002593962
 246813735, -0.5964724, 0.1388251, 0.09406279, 0.0002593962
 246913695, -0.5979294, 0.1437524, 0.07540888, 0.0002593962
 247013655, -0.5980961, 0.151701, 0.05306156, 0.0002593962
 247113615, -0.5921326, 0.1634531, 0.0325801, 0.0002593962
 247213575, -0.5790874, 0.1778588, 0.0190396, 0.0002593962
 247313535, -0.5597441, 0.1931482, 0.01361996, 0.0002593962
 247413495, -0.5364736, 0.2070015, 0.01509224, 0.0002593962
 247514288, -0.5172256, 0.2218263, 0.02037463, 0.0002615578
 247614248, -0.4912072, 0.2307439, 0.0255936, 0.0002593962
 247714208, -0.4739641, 0.2409985, 0.02797608, 0.0002593962
 247814168, -0.4601605, 0.2509487, 0.02715895, 0.0002593962
 247914128, -0.4475697, 0.2610179, 0.02367076, 0.0002593962
 248014088, -0.4347538, 0.2714196, 0.01899338, 0.0002593962
 248114048, -0.4213289, 0.2816041, 0.01347275, 0.0002593962
 248214008, -0.4064682, 0.2913276, 0.008933059, 0.0002593962
 248333960, -0.4744568, 0.3684266, 0.006174239, 0.0003112754
 248433920, -0.3682464, 0.310286, 0.00253859, 0.0002593962
 248533880, -0.3491061, 0.3171284, 0.0009529401, 0.0002593962
 248633840, -0.3285101, 0.3217686, 0.001349224, 0.0002593962
 248733800, -0.3064423, 0.324147, 0.004209713, 0.0002593962
 248833760, -0.2836604, 0.3239921, 0.008525755, 0.0002593962
 248933720, -0.261939, 0.3222069, 0.01307168, 0.0002593962
 249033680, -0.2420862, 0.319419, 0.01601459, 0.0002593962
 249133640, -0.22395, 0.3159264, 0.01744817, 0.0002593962
 249233600, -0.2073812, 0.3123002, 0.01807459, 0.0002593962
 249333560, -0.1921383, 0.3086141, 0.01726004, 0.0002593962
 249433520, -0.1781524, 0.3045708, 0.01557824, 0.0002593962
 249533480, -0.1643852, 0.2998457, 0.01439373, 0.0002593962
 249634273, -0.1526547, 0.2969937, 0.01409402, 0.0002615578
 249734233, -0.1382934, 0.2880759, 0.01370148, 0.0002593962
 249834193, -0.1266164, 0.2818527, 0.01284336, 0.0002593962
 249934153, -0.1155064, 0.2750932, 0.01158528, 0.0002593962
 250034113, -0.1050169, 0.2682572, 0.0103233, 0.0002593962
 250134073, -0.0950558, 0.2608019, 0.008733326, 0.0002593962
 250234033, -0.08563539, 0.2532803, 0.007017217, 0.0002593962
 250333993, -0.07638913, 0.2450711, 0.00490677, 0.0002593962
 250453945, -0.08200146, 0.2885841, 0.004366453, 0.0003112754
 250553905, -0.05857576, 0.2270379, 0.00371462, 0.0002593962
 250653865, -0.05159064, 0.2185728, 0.004907561, 0.0002593962
 250753825, -0.04540285, 0.2105334, 0.00596563, 0.0002593962
 250853785, -0.03976637, 0.2034414, 0.00659855, 0.0002593962
 250953745, -0.03506278, 0.1964615, 0.005594132, 0.0002593962
 251053705, -0.03072704, 0.1895312, 0.004538923, 0.0002593962
 251153665, -0.02666087, 0.1831405, 0.003101233, 0.0002593962
 251253625, -0.02277606, 0.1767328, 0.001076449, 0.0002593962
 251353585, -0.01938798, 0.1701531, -0.001183618, 0.0002593962
 251453545, -0.01551226, 0.1629459, -0.003392559, 0.0002593962
 251553505, -0.01182216, 0.1552602, -0.004411315, 0.0002593962
 251654298, -0.008499791, 0.1475859, -0.004086328, 0.0002593962
 251754258, -0.005381427, 0.1411451, -0.003153776, 0.0002615578
 251854218, -0.002892667, 0.1340221, -0.001843564, 0.0002593962
 251954178, -0.0007873554, 0.1282804, -0.0007569431, 0.0002593962
 252054138, 0.0007294372, 0.1237419, -0.0003307831, 0.0002593962
 252154098, 0.002021769, 0.119721, -0.0005998404, 0.0002593962
 252254058, 0.003329032, 0.1155146, -0.002594139, 0.0002593962
 252354018, 0.004274054, 0.1118382, -0.004363059, 0.0002593962
 252473970, 0.007183997, 0.1312673, -0.007137341, 0.0003112754
 252573930, 0.007429607, 0.1022583, -0.005367715, 0.0002593962
 252673890, 0.008736595, 0.09787618, -0.003690483, 0.0002593962
 252773850, 0.009785227, 0.09361245, -0.001758253, 0.0002593962
 252873810, 0.01041941, 0.08992901, 0.0005602788, 0.0002593962
 252973770, 0.01094679, 0.0864386, 0.00219, 0.0002593962
 253073730, 0.01084027, 0.08301062, 0.002252402, 0.0002593962
 253173690, 0.01099316, 0.0793136, 0.0009090601, 0.0002593962
 253273650, 0.01087017, 0.07588684, -0.002252212, 0.0002593962
 253373610, 0.01106136, 0.07211657, -0.005705372, 0.0002593962
