TimeUS,COFN,COFE,COFD,CNe,CEe,CDe,POFN,POFE,POFD,PNe,PEe,PDe
 157954293, 0, 0, 0, 0, 0, 0, 0, 0, 0, 0, 0, 0
 158054253, 0, 0, 0, 0, 0, 0, 0, 0, 0, 0, 0, 0
 158154213, 0, 0, 0, 0, 0, 0, 0, 0, 0, 0, 0, 0
 158254173, 0, 0, 0, 0, 0, 0, 0, 0, 0, 0, 0, 0
 158354133, 0, 0, 0, 0, 0, 0, 0, 0, 0, 0, 0, 0
 158454093, 0, 0, 0, 0, 0, 0, 0, 0, 0, 0, 0, 0
 158554053, 0, 0, 0, 0, 0, 0, 0, 0, 0, 0, 0, 0
 158654013, 0, 0, 0, 0, 0, 0, 0, 0, 0, 0, 0, 0
 158773965, 0, 0, 0, 0, 0, 0, 0, 0, 0, 0, 0, 0
 158873925, 0, 0, 0, 0, 0, 0, 0, 0, 0, 0, 0, 0
 158973885, 0, 0, 0, 0, 0, 0, 0, 0, 0, 0, 0, 0
 159073845, 0, 0, 0, 0, 0, 0, 0, 0, 0, 0, 0, 0
 159173805, 0, 0, 0, 0, 0, 0, 0, 0, 0, 0, 0, 0
 159273765, 0, 0, 0, 0, 0, 0, 0, 0, 0, 0, 0, 0
 159373725, 0, 0, 0, 0, 0, 0, 0, 0, 0, 0, 0, 0
 159473685, 0, 0, 0, 0, 0, 0, 0, 0, 0, 0, 0, 0
 159573645, 0, 0, 0, 0, 0, 0, 0, 0, 0, 0, 0, 0
 159673605, 0, 0, 0, 0, 0, 0, 0, 0, 0, 0, 0, 0
 159773565, 0, 0, 0, 0, 0, 0, 0, 0, 0, 0, 0, 0
 159873525, 0, 0, 0, 0, 0, 0, 0, 0, 0, 0, 0, 0
 159973485, 0, 0, 0, 0, 0, 0, 0, 0, 0, 0, 0, 0
 160074278, 0, 0, 0, 0, 0, 0, 0, 0, 0, 0, 0, 0
 160174238, 0, 0, 0, 0, 0, 0, 0, 0, 0, 0, 0, 0
 160274198, 0, 0, 0, 0, 0, 0, 0, 0, 0, 0, 0, 0
 160374158, 0, 0, 0, 0, 0, 0, 0, 0, 0, 0, 0, 0
 160474118, 0, 0, 0, 0, 0, 0, 0, 0, 0, 0, 0, 0
 160574078, 0, 0, 0, 0, 0, 0, 0, 0, 0, 0, 0, 0
 160674038, 0, 0, 0, 0, 0, 0, 0, 0, 0, 0, 0, 0
 160773998, 0, 0, 0, 0, 0, 0, 0, 0, 0, 0, 0, 0
 160893950, 0, 0, 0, 0, 0, 0, 0, 0, 0, 0, 0, 0
 160993910, 0, 0, 0, 0, 0, 0, 0, 0, 0, 0, 0, 0
 161093870, 0, 0, 0, 0, 0, 0, 0, 0, 0, 0, 0, 0
 161193830, 0, 0, 0, 0, 0, 0, 0, 0, 0, 0, 0, 0
 161293790, -0.06615403, 0.005718337, 0.006057552, 0.00717896, 0.001539769, -0.0006016397, 0, 0, 0, 0, 0, 0
 161393750, -0.2825172, 0.02998565, -0.0320189, 0.1198214, -0.01002267, 0.9929762, -0.06615403, 0.005718337, 0.006057552, 0.00717896, 0.001539769, -0.0006016397
 161493710, 0.4140398, -0.04604974, -0.07282515, 0.5424544, -0.05432294, 0.9493875, -0.2825172, 0.02998565, -0.0320189, 0.1198214, -0.01002267, 0.9929762
 161593670, 0.1268779, -0.01653607, -0.07401086, 0.1559692, -0.008926217, 0.9889885, 0.4140398, -0.04604974, -0.07282515, 0.5424544, -0.05432294, 0.9493875
 161693630, 0.05810129, -0.009178876, -0.06695016, 0.131099, -0.001794405, 0.9915563, 0.1268779, -0.01653607, -0.07401086, 0.1559692, -0.008926217, 0.9889885
 161793590, 0.03667022, -0.003230579, -0.06462996, 0.1273349, 0.002879434, 0.9919416, 0.05810129, -0.009178876, -0.06695016, 0.131099, -0.001794405, 0.9915563
 161893550, 0.0242711, -8.581937E-05, -0.0330387, 0.1251306, 0.004593625, 0.9921787, 0.03667022, -0.003230579, -0.06462996, 0.1273349, 0.002879434, 0.9919416
 161993510, 0.01295054, -0.001391582, -0.03173951, 0.1245715, 0.003296791, 0.9922385, 0.0242711, -8.581937E-05, -0.0330387, 0.1251306, 0.004593625, 0.9921787
 162094303, -0.004916159, 0.002312618, -0.02961931, 0.1237885, 0.001558322, 0.9923295, 0.01295054, -0.001391582, -0.03173951, 0.1245715, 0.003296791, 0.9922385
 162194263, -0.02009364, 0.001074911, -0.05798262, 0.1256118, -0.0006547282, 0.9920976, -0.004916159, 0.002312618, -0.02961931, 0.1237885, 0.001558322, 0.9923295
 162294223, -0.03331358, 0.0040582, -0.05629791, 0.126415, -0.002597054, 0.9919923, -0.02009364, 0.001074911, -0.05798262, 0.1256118, -0.0006547282, 0.9920976
 162394183, -0.04964481, 0.002362065, -0.05413744, 0.1290634, -0.005085246, 0.9916394, -0.03331358, 0.0040582, -0.05629791, 0.126415, -0.002597054, 0.9919923
 162494143, -0.08307517, 0.006318149, -0.04956141, 0.131878, -0.004802311, 0.9912709, -0.04964481, 0.002362065, -0.05413744, 0.1290634, -0.005085246, 0.9916394
 162594103, -0.1035327, 0.008304182, -0.04164639, 0.1342106, -0.001441002, 0.9909707, -0.08307517, 0.006318149, -0.04956141, 0.131878, -0.004802311, 0.9912709
 162694063, -0.1407037, 0.009522283, -0.0467691, 0.1354138, 0.0008665966, 0.9908102, -0.1035327, 0.008304182, -0.04164639, 0.1342106, -0.001441002, 0.9909707
 162794023, -0.1772342, 0.01479804, -0.03666315, 0.1384386, 0.001490931, 0.9904016, -0.1407037, 0.009522283, -0.0467691, 0.1354138, 0.0008665966, 0.9908102
 162913975, -0.2226477, 0.02887947, -0.03542668, 0.1422461, -0.0006378526, 0.989894, -0.1772342, 0.01479804, -0.03666315, 0.1384386, 0.001490931, 0.9904016
 163013935, -0.2816541, 0.03333071, -0.01735055, 0.148037, -0.004406549, 0.9891062, -0.2226477, 0.02887947, -0.03542668, 0.1422461, -0.0006378526, 0.989894
 163113895, -0.4422503, 0.05021836, -9.183213E-05, 0.1739952, -0.008540466, 0.9855365, -0.2816541, 0.03333071, -0.01735055, 0.148037, -0.004406549, 0.9891062
 163213855, -0.5635832, 0.05726701, 0.01202691, 0.2003701, -0.01119106, 0.9818541, -0.4422503, 0.05021836, -9.183213E-05, 0.1739952, -0.008540466, 0.9855365
 163313815, -0.6034831, 0.06434364, 0.0223823, 0.2082462, -0.01302965, 0.9807941, -0.5635832, 0.05726701, 0.01202691, 0.2003701, -0.01119106, 0.9818541
 163413775, -1.04267, 0.119739, 0.08459034, 0.3510462, -0.03162097, 0.9607843, -0.6034831, 0.06434364, 0.0223823, 0.2082462, -0.01302965, 0.9807941
 163513735, -1.889773, 0.214542, 0.211315, 0.7597321, -0.07949476, 0.9026246, -1.04267, 0.119739, 0.08459034, 0.3510462, -0.03162097, 0.9607843
 163613695, -2.04487, 0.2411947, 0.2289726, 0.8363475, -0.08659136, 0.8915924, -1.889773, 0.214542, 0.211315, 0.7597321, -0.07949476, 0.9026246
 163713655, -10.29455, 1.199762, 1.382676, 7.657688, -0.8793801, -0.06740832, -2.04487, 0.2411947, 0.2289726, 0.8363475, -0.08659136, 0.8915924
 163813615, 3.567321, -0.424113, -0.5662755, 219.3729, -25.66104, -30.07944, -10.29455, 1.199762, 1.382676, 7.657688, -0.8793801, -0.06740832
 163913575, 1.264613, -0.1523219, -0.241583, 0.9062814, -0.09992573, 0.8805475, 3.567321, -0.424113, -0.5662755, 219.3729, -25.66104, -30.07944
 164013535, 1.456519, -0.1759241, -0.265535, 1.160562, -0.1308106, 0.843107, 1.264613, -0.1523219, -0.241583, 0.9062814, -0.09992573, 0.8805475
 164113495, 1.061186, -0.1198006, -0.2134093, 0.6163803, -0.06567085, 0.9215286, 1.456519, -0.1759241, -0.265535, 1.160562, -0.1308106, 0.843107
 164214288, 0.8453366, -0.1011724, -0.1808314, 0.4268314, -0.04286566, 0.9493896, 1.061186, -0.1198006, -0.2134093, 0.6163803, -0.06567085, 0.9215286
 164314248, 0.8329639, -0.09516525, -0.178227, 0.4079801, -0.03891036, 0.9523298, 0.8453366, -0.1011724, -0.1808314, 0.4268314, -0.04286566, 0.9493896
 164414208, 0.6279619, -0.0683434, -0.150508, 0.2957349, -0.02384124, 0.9678919, 0.8329639, -0.09516525, -0.178227, 0.4079801, -0.03891036, 0.9523298
 164514168, 0.6468678, -0.07069034, -0.1426943, 0.2987639, -0.02381244, 0.9675657, 0.6279619, -0.0683434, -0.150508, 0.2957349, -0.02384124, 0.9678919
 164614128, 0.6474717, -0.07936678, -0.1528333, 0.2954932, -0.02253323, 0.968083, 0.6468678, -0.07069034, -0.1426943, 0.2987639, -0.02381244, 0.9675657
 164714088, 0.5169878, -0.07122444, -0.1331891, 0.2424953, -0.01526113, 0.9758642, 0.6474717, -0.07936678, -0.1528333, 0.2954932, -0.02253323, 0.968083
 164814048, 0.5275198, -0.06668086, -0.1319888, 0.2387994, -0.01420487, 0.976885, 0.5169878, -0.07122444, -0.1331891, 0.2424953, -0.01526113, 0.9758642
 164914008, 0.5402163, -0.07499529, -0.1320041, 0.2376717, -0.01449243, 0.9773843, 0.5275198, -0.06668086, -0.1319888, 0.2387994, -0.01420487, 0.976885
 165033960, 0.4913717, -0.05235592, -0.1129656, 0.2158575, -0.01053872, 0.9806743, 0.5402163, -0.07499529, -0.1320041, 0.2376717, -0.01449243, 0.9773843
 165133920, 0.4593131, -0.06604436, -0.1175967, 0.2033402, -0.009872017, 0.9825354, 0.4913717, -0.05235592, -0.1129656, 0.2158575, -0.01053872, 0.9806743
 165233880, 0.4301703, -0.04997581, -0.111273, 0.1888974, -0.009848688, 0.9847343, 0.4593131, -0.06604436, -0.1175967, 0.2033402, -0.009872017, 0.9825354
 165333840, 0.4408278, -0.05862855, -0.1156128, 0.1861055, -0.01030254, 0.9853932, 0.4301703, -0.04997581, -0.111273, 0.1888974, -0.009848688, 0.9847343
 165433800, 0.4535471, -0.04920777, -0.1103763, 0.1845965, -0.01015228, 0.9858074, 0.4408278, -0.05862855, -0.1156128, 0.1861055, -0.01030254, 0.9853932
 165533760, 0.4463731, -0.05587393, -0.07832915, 0.1790131, -0.00900235, 0.9866118, 0.4535471, -0.04920777, -0.1103763, 0.1845965, -0.01015228, 0.9858074
 165633720, 0.3873032, -0.04059396, -0.1054116, 0.1628506, -0.004134121, 0.9885989, 0.4463731, -0.05587393, -0.07832915, 0.1790131, -0.00900235, 0.9866118
 165733680, 0.4457658, -0.05659269, -0.1050321, 0.1708831, -0.005225436, 0.9879995, 0.3873032, -0.04059396, -0.1054116, 0.1628506, -0.004134121, 0.9885989
 165833640, 0.3792527, -0.03945359, -0.09737843, 0.1546265, -0.003716304, 0.9897649, 0.4457658, -0.05659269, -0.1050321, 0.1708831, -0.005225436, 0.9879995
 165933600, 0.443295, -0.03753573, -0.1016882, 0.1622633, -0.004387897, 0.9892985, 0.3792527, -0.03945359, -0.09737843, 0.1546265, -0.003716304, 0.9897649
 166033560, 0.4314588, -0.06216375, -0.09878848, 0.1550933, -0.003815032, 0.9902703, 0.443295, -0.03753573, -0.1016882, 0.1622633, -0.004387897, 0.9892985
 166133520, 0.3642345, -0.05935009, -0.06173334, 0.1392949, -0.002508842, 0.9918234, 0.4314588, -0.06216375, -0.09878848, 0.1550933, -0.003815032, 0.9902703
 166233480, 0.3768303, -0.03907455, -0.08674242, 0.1389511, -0.0001112437, 0.9919838, 0.3642345, -0.05935009, -0.06173334, 0.1392949, -0.002508842, 0.9918234
 166334273, 0.3625365, -0.03094507, -0.0892411, 0.1329182, 0.0009661876, 0.9926667, 0.3768303, -0.03907455, -0.08674242, 0.1389511, -0.0001112437, 0.9919838
 166434233, 0.3894426, -0.04273736, -0.05985341, 0.1328786, 0.0001187958, 0.9928861, 0.3625365, -0.03094507, -0.0892411, 0.1329182, 0.0009661876, 0.9926667
 166534193, 0.3629919, -0.05089815, -0.0870206, 0.1261164, 0.0004599271, 0.9935437, 0.3894426, -0.04273736, -0.05985341, 0.1328786, 0.0001187958, 0.9928861
 166634153, 0.3521209, -0.0587487, -0.0853352, 0.1211253, -0.002467641, 0.9940697, 0.3629919, -0.05089815, -0.0870206, 0.1261164, 0.0004599271, 0.9935437
 166734113, 0.3613414, -0.04854798, -0.05455281, 0.1167217, -0.01528324, 0.9945245, 0.3521209, -0.0587487, -0.0853352, 0.1211253, -0.002467641, 0.9940697
 166834073, 0.3711008, -0.02905728, -0.05264698, 0.1107731, -0.03412093, 0.9947985, 0.3613414, -0.04854798, -0.05455281, 0.1167217, -0.01528324, 0.9945245
 166934033, 0.3625715, -0.0348368, -0.05018473, 0.1017506, -0.04943932, 0.9950474, 0.3711008, -0.02905728, -0.05264698, 0.1107731, -0.03412093, 0.9947985
 167033993, 0.3666736, -0.05490401, -0.0497155, 0.09646664, -0.05564763, 0.9952794, 0.3625715, -0.0348368, -0.05018473, 0.1017506, -0.04943932, 0.9950474
 167153945, 0.3675762, -0.04459669, -0.04265764, 0.09308096, -0.05083449, 0.9958542, 0.3666736, -0.05490401, -0.0497155, 0.09646664, -0.05564763, 0.9952794
 167253905, 0.3524966, -0.05048973, -0.04597125, 0.08847774, -0.03970345, 0.996671, 0.3675762, -0.04459669, -0.04265764, 0.09308096, -0.05083449, 0.9958542
 167353865, 0.3653235, -0.06150594, -0.04042579, 0.08782624, -0.02883354, 0.9971926, 0.3524966, -0.05048973, -0.04597125, 0.08847774, -0.03970345, 0.996671
 167453825, 0.3762075, -0.0461063, -0.04369767, 0.08603829, -0.02122244, 0.9976119, 0.3653235, -0.06150594, -0.04042579, 0.08782624, -0.02883354, 0.9971926
 167553785, 0.3386492, -0.05238772, -0.04101827, 0.07606281, -0.01940296, 0.998198, 0.3762075, -0.0461063, -0.04369767, 0.08603829, -0.02122244, 0.9976119
 167653745, 0.3762045, -0.03127724, -0.03948904, 0.07558521, -0.02241886, 0.9984191, 0.3386492, -0.05238772, -0.04101827, 0.07606281, -0.01940296, 0.998198
 167753705, 0.3848302, -0.0526772, -0.03900767, 0.07266034, -0.02721619, 0.9985848, 0.3762045, -0.03127724, -0.03948904, 0.07558521, -0.02241886, 0.9984191
 167853665, 0.3607083, -0.04110111, -0.006605324, 0.06474865, -0.02805182, 0.9989228, 0.3848302, -0.0526772, -0.03900767, 0.07266034, -0.02721619, 0.9985848
 167953625, 0.3349783, -0.02731412, -0.03463458, 0.05813283, -0.02628498, 0.999216, 0.3607083, -0.04110111, -0.006605324, 0.06474865, -0.02805182, 0.9989228
 168053585, 0.3832281, -0.05727644, -0.005021653, 0.06178882, -0.02467458, 0.9993607, 0.3349783, -0.02731412, -0.03463458, 0.05813283, -0.02628498, 0.999216
 168153545, 0.3708703, -0.03345988, -0.002976777, 0.05723981, -0.0202203, 0.9996352, 0.3832281, -0.05727644, -0.005021653, 0.06178882, -0.02467458, 0.9993607
 168253505, 0.3657391, -0.02818586, -0.001387894, 0.05299967, -0.01588041, 0.9999111, 0.3708703, -0.03345988, -0.002976777, 0.05723981, -0.0202203, 0.9996352
 168354298, 0.3597623, -0.04020954, -0.02499197, 0.04766823, -0.01344216, 1.000176, 0.3657391, -0.02818586, -0.001387894, 0.05299967, -0.01588041, 0.9999111
 168454258, 0.3523924, -0.02383072, -0.02782343, 0.04158335, -0.01234356, 1.000413, 0.3597623, -0.04020954, -0.02499197, 0.04766823, -0.01344216, 1.000176
 168554218, 0.347856, -0.0557152, -0.02739543, 0.03734038, -0.01356705, 1.000539, 0.3523924, -0.02383072, -0.02782343, 0.04158335, -0.01234356, 1.000413
 168654178, 0.3782219, -0.02855308, 0.004921246, 0.03789109, -0.01340483, 1.000717, 0.347856, -0.0557152, -0.02739543, 0.03734038, -0.01356705, 1.000539
 168754138, 0.3217894, -0.01613278, 0.00507959, 0.02865572, -0.01103065, 1.000711, 0.3782219, -0.02855308, 0.004921246, 0.03789109, -0.01340483, 1.000717
 168854098, 0.342982, -0.04121909, 0.005559266, 0.029328, -0.01000833, 1.000819, 0.3217894, -0.01613278, 0.00507959, 0.02865572, -0.01103065, 1.000711
 168954058, 0.3751477, -0.02072017, -0.02158091, 0.02856074, -0.008321838, 1.001054, 0.342982, -0.04121909, 0.005559266, 0.029328, -0.01000833, 1.000819
 169054018, 0.323542, -0.02426079, 0.008621608, 0.01769448, -0.006439764, 1.001015, 0.3751477, -0.02072017, -0.02158091, 0.02856074, -0.008321838, 1.001054
 169173970, 0.3506981, -0.04631016, 0.01132889, 0.01452512, -0.005139381, 1.001228, 0.323542, -0.02426079, 0.008621608, 0.01769448, -0.006439764, 1.001015
 169273930, 0.3201325, -0.02268134, 0.01236296, 0.005696617, -0.002315622, 1.001157, 0.3506981, -0.04631016, 0.01132889, 0.01452512, -0.005139381, 1.001228
 169373890, 0.3152826, -0.02918951, 0.0130357, 0.002158664, -0.001578299, 1.001148, 0.3201325, -0.02268134, 0.01236296, 0.005696617, -0.002315622, 1.001157
 169473850, 0.3220693, -0.02851417, 0.013983, 0.0008424781, -0.002467994, 1.001183, 0.3152826, -0.02918951, 0.0130357, 0.002158664, -0.001578299, 1.001148
 169573810, 0.3514362, -0.04202607, 0.01564797, 0.00271564, -0.00407704, 1.001339, 0.3220693, -0.02851417, 0.013983, 0.0008424781, -0.002467994, 1.001183
 169673770, 0.3588079, -0.02878101, 0.0168123, 0.001949225, -0.003874548, 1.001387, 0.3514362, -0.04202607, 0.01564797, 0.00271564, -0.00407704, 1.001339
 169773730, 0.3113402, -0.01240305, 0.01503541, -0.004508749, -0.00190847, 1.001122, 0.3588079, -0.02878101, 0.0168123, 0.001949225, -0.003874548, 1.001387
 169873690, 0.3396763, -0.03438096, 0.01658427, -0.002383772, -0.0002069008, 1.001279, 0.3113402, -0.01240305, 0.01503541, -0.004508749, -0.00190847, 1.001122
 169973650, 0.329966, -0.03616157, 0.01743795, -0.007395007, 0.002432588, 1.001198, 0.3396763, -0.03438096, 0.01658427, -0.002383772, -0.0002069008, 1.001279
 170073610, 0.3670099, -0.02932426, 0.02078938, -0.006066591, 0.00471819, 1.00142, 0.329966, -0.03616157, 0.01743795, -0.007395007, 0.002432588, 1.001198
 170173570, 0.3222515, -0.02682614, 0.01904134, -0.01410168, 0.005289755, 1.001074, 0.3670099, -0.02932426, 0.02078938, -0.006066591, 0.00471819, 1.00142
 170273530, 0.3348254, -0.03227971, 0.02059474, -0.01507675, 0.005399768, 1.001127, 0.3222515, -0.02682614, 0.01904134, -0.01410168, 0.005289755, 1.001074
 170373490, 0.31239, -0.02579888, 0.02046862, -0.02134643, 0.008879574, 1.000871, 0.3348254, -0.03227971, 0.02059474, -0.01507675, 0.005399768, 1.001127
 170474283, 0.3461533, -0.0523749, 0.02372612, -0.01994439, 0.01216956, 1.00105, 0.31239, -0.02579888, 0.02046862, -0.02134643, 0.008879574, 1.000871
 170574243, 0.3666342, -0.04781517, 0.02590861, -0.01916124, 0.01418727, 1.001167, 0.3461533, -0.0523749, 0.02372612, -0.01994439, 0.01216956, 1.00105
 170674203, 0.3282125, -0.05094734, 0.02377806, -0.02565676, 0.01489725, 1.000781, 0.3666342, -0.04781517, 0.02590861, -0.01916124, 0.01418727, 1.001167
 170774163, 0.3194619, -0.04173063, 0.0232611, -0.02714071, 0.01507097, 1.000693, 0.3282125, -0.05094734, 0.02377806, -0.02565676, 0.01489725, 1.000781
 170874123, 0.3473705, -0.03076074, 0.0249558, -0.02304569, 0.01346655, 1.000973, 0.3194619, -0.04173063, 0.0232611, -0.02714071, 0.01507097, 1.000693
 170974083, 0.3288824, -0.04011352, 0.02398074, -0.02677781, 0.01017895, 1.000814, 0.3473705, -0.03076074, 0.0249558, -0.02304569, 0.01346655, 1.000973
 171074043, 0.3635329, -0.0444589, 0.02719098, -0.02448929, 0.008023294, 1.001099, 0.3288824, -0.04011352, 0.02398074, -0.02677781, 0.01017895, 1.000814
 171174003, 0.3426231, -0.01555371, 0.02625903, -0.02868105, 0.008143725, 1.000859, 0.3635329, -0.0444589, 0.02719098, -0.02448929, 0.008023294, 1.001099
 171293955, 0.36937, -0.04557662, 0.02842612, -0.02598939, 0.006926244, 1.001108, 0.3426231, -0.01555371, 0.02625903, -0.02868105, 0.008143725, 1.000859
 171393915, 0.3272593, -0.02205214, 0.02584364, -0.03297215, 0.008173107, 1.00064, 0.36937, -0.04557662, 0.02842612, -0.02598939, 0.006926244, 1.001108
 171493875, 0.3175955, -0.04884973, 0.025766, -0.03650203, 0.008603739, 1.000458, 0.3272593, -0.02205214, 0.02584364, -0.03297215, 0.008173107, 1.00064
 171593835, 0.3362195, -0.03638219, 0.05806269, -0.0359152, 0.007352831, 1.000606, 0.3175955, -0.04884973, 0.025766, -0.03650203, 0.008603739, 1.000458
 171693795, 0.3730901, -0.01705559, 0.03137692, -0.03216899, 0.005107377, 1.000966, 0.3362195, -0.03638219, 0.05806269, -0.0359152, 0.007352831, 1.000606
 171793755, 0.3173367, -0.04437895, 0.0266754, -0.03994402, 0.004920731, 1.000348, 0.3730901, -0.01705559, 0.03137692, -0.03216899, 0.005107377, 1.000966
 171893715, 0.3478089, -0.02309958, 0.02990397, -0.03736389, 0.006572241, 1.000612, 0.3173367, -0.04437895, 0.0266754, -0.03994402, 0.004920731, 1.000348
 171993675, 0.325886, -0.03830992, 0.0279929, -0.0399243, 0.009863613, 1.000358, 0.3478089, -0.02309958, 0.02990397, -0.03736389, 0.006572241, 1.000612
 172093635, 0.317203, -0.01885844, 0.02763559, -0.04183263, 0.01356739, 1.00019, 0.325886, -0.03830992, 0.0279929, -0.0399243, 0.009863613, 1.000358
 172193595, 0.3729862, -0.0299854, 0.03272619, -0.03509629, 0.01422587, 1.000783, 0.317203, -0.01885844, 0.02763559, -0.04183263, 0.01356739, 1.00019
 172293555, 0.345777, -0.021321, 0.03060526, -0.03953902, 0.01476102, 1.000429, 0.3729862, -0.0299854, 0.03272619, -0.03509629, 0.01422587, 1.000783
 172393515, 0.3588325, -0.03049166, 0.03191667, -0.03821332, 0.0138232, 1.000578, 0.345777, -0.021321, 0.03060526, -0.03953902, 0.01476102, 1.000429
 172493475, 0.3250723, -0.046317, 0.02897536, -0.04279511, 0.01260187, 1.000202, 0.3588325, -0.03049166, 0.03191667, -0.03821332, 0.0138232, 1.000578
 172594268, 0.3457076, -0.02229588, 0.03082753, -0.04017562, 0.01358632, 1.00042, 0.3250723, -0.046317, 0.02897536, -0.04279511, 0.01260187, 1.000202
 172694228, 0.3545214, -0.0451249, 0.05161586, -0.03849486, 0.0122972, 1.000573, 0.3457076, -0.02229588, 0.03082753, -0.04017562, 0.01358632, 1.00042
 172794188, 0.357603, -0.04215944, 0.06253611, -0.03985352, 0.01048183, 1.000567, 0.3545214, -0.0451249, 0.05161586, -0.03849486, 0.0122972, 1.000573
 172894148, 0.3474046, -0.01906863, 0.06237861, -0.04348225, 0.008087775, 1.000371, 0.357603, -0.04215944, 0.06253611, -0.03985352, 0.01048183, 1.000567
 172994108, 0.3174537, -0.04542258, 0.05991682, -0.04897441, 0.005531878, 0.9999537, 0.3474046, -0.01906863, 0.06237861, -0.04348225, 0.008087775, 1.000371
 173094068, 0.325059, -0.03149394, 0.03072286, -0.04891887, 0.004005329, 0.9999907, 0.3174537, -0.04542258, 0.05991682, -0.04897441, 0.005531878, 0.9999537
 173194028, 0.3249523, -0.04495573, 0.03083451, -0.049691, 0.003213068, 0.9999548, 0.325059, -0.03149394, 0.03072286, -0.04891887, 0.004005329, 0.9999907
 173313980, 0.3483116, -0.03498916, 0.03347862, -0.04745223, 0.003134847, 1.000208, 0.3249523, -0.04495573, 0.03083451, -0.049691, 0.003213068, 0.9999548
 173413940, 0.358374, -0.02105352, 0.06463103, -0.04540785, 0.003940615, 1.000389, 0.3483116, -0.03498916, 0.03347862, -0.04745223, 0.003134847, 1.000208
 173513900, 0.3173697, -0.03352133, 0.03016419, -0.05043777, 0.004097614, 0.9998693, 0.358374, -0.02105352, 0.06463103, -0.04540785, 0.003940615, 1.000389
 173613860, 0.3589998, -0.02661447, 0.06421819, -0.04410965, 0.003155161, 1.000456, 0.3173697, -0.03352133, 0.03016419, -0.05043777, 0.004097614, 0.9998693
 173713820, 0.3592235, -0.05104148, 0.03360547, -0.04345183, 0.003399029, 1.000469, 0.3589998, -0.02661447, 0.06421819, -0.04410965, 0.003155161, 1.000456
 173813780, 0.3370911, -0.01336787, 0.06163137, -0.04522876, 0.006420255, 1.000243, 0.3592235, -0.05104148, 0.03360547, -0.04345183, 0.003399029, 1.000469
 173913740, 0.3247666, -0.0327265, 0.06036238, -0.04674464, 0.007146056, 1.00009, 0.3370911, -0.01336787, 0.06163137, -0.04522876, 0.006420255, 1.000243
 174013700, 0.3842657, -0.03670284, 0.03610543, -0.03946356, 0.006733652, 1.00081, 0.3247666, -0.0327265, 0.06036238, -0.04674464, 0.007146056, 1.00009
 174113660, 0.3385692, -0.04009299, 0.06233269, -0.04678876, 0.007622518, 1.000173, 0.3842657, -0.03670284, 0.03610543, -0.03946356, 0.006733652, 1.00081
 174213620, 0.3546507, -0.03188942, 0.03364663, -0.0445961, 0.008031178, 1.00036, 0.3385692, -0.04009299, 0.06233269, -0.04678876, 0.007622518, 1.000173
 174313580, 0.3423584, -0.04014219, 0.03230289, -0.04587132, 0.007988729, 1.000219, 0.3546507, -0.03188942, 0.03364663, -0.0445961, 0.008031178, 1.00036
 174413540, 0.3759734, -0.0287394, 0.06576875, -0.04077552, 0.008732915, 1.000702, 0.3423584, -0.04014219, 0.03230289, -0.04587132, 0.007988729, 1.000219
 174513500, 0.3666306, -0.02359089, 0.03509548, -0.04334902, 0.01115142, 1.000475, 0.3759734, -0.0287394, 0.06576875, -0.04077552, 0.008732915, 1.000702
 174614293, 0.3778417, -0.03726987, 0.03644392, -0.03754881, 0.01279915, 0.9532, 0.3666306, -0.02359089, 0.03509548, -0.04334902, 0.01115142, 1.000475
 174714253, 0.3211265, -0.02251148, 0.06156288, -0.05112884, 0.01504295, 0.9997685, 0.3778417, -0.03726987, 0.03644392, -0.03754881, 0.01279915, 0.9532
 174814213, 0.3239105, -0.04357157, 0.03173236, -0.05078997, 0.01635271, 0.999764, 0.3211265, -0.02251148, 0.06156288, -0.05112884, 0.01504295, 0.9997685
 174914173, 0.3251391, -0.02204083, 0.06222234, -0.05108156, 0.01920206, 0.999725, 0.3239105, -0.04357157, 0.03173236, -0.05078997, 0.01635271, 0.999764
 175014133, 0.3790222, -0.04909169, 0.03789373, -0.04416199, 0.02023157, 1.000406, 0.3251391, -0.02204083, 0.06222234, -0.05108156, 0.01920206, 0.999725
 175114093, 0.326807, -0.03302424, 0.06293778, -0.05200208, 0.02087391, 0.999655, 0.3790222, -0.04909169, 0.03789373, -0.04416199, 0.02023157, 1.000406
 175214053, 0.3715057, -0.02967953, 0.03698306, -0.04555596, 0.01837612, 1.000317, 0.326807, -0.03302424, 0.06293778, -0.05200208, 0.02087391, 0.999655
 175314013, 0.3522512, -0.03604402, 0.06520139, -0.04802684, 0.01555049, 1.000127, 0.3715057, -0.02967953, 0.03698306, -0.04555596, 0.01837612, 1.000317
 175433965, 0.3713653, -0.03373831, 0.03686, -0.04544363, 0.01463161, 1.000386, 0.3522512, -0.03604402, 0.06520139, -0.04802684, 0.01555049, 1.000127
 175533925, 0.3626601, -0.01492709, 0.03554565, -0.04575085, 0.01433387, 1.000309, 0.3713653, -0.03373831, 0.03686, -0.04544363, 0.01463161, 1.000386
 175633885, 0.3762381, -0.04914357, 0.06149985, -0.04183301, 0.01152391, 1.000651, 0.3626601, -0.01492709, 0.03554565, -0.04575085, 0.01433387, 1.000309
 175733845, 0.3929976, -0.0333719, 0.03790285, -0.03949478, 0.01039299, 1.000882, 0.3762381, -0.04914357, 0.06149985, -0.04183301, 0.01152391, 1.000651
 175833805, 0.3907522, -0.02409462, 0.03790387, -0.0404395, 0.0100671, 1.000827, 0.3929976, -0.0333719, 0.03790285, -0.03949478, 0.01039299, 1.000882
 175933765, 0.3325407, -0.04346785, 0.06755639, -0.04915329, 0.009620043, 1.000015, 0.3907522, -0.02409462, 0.03790387, -0.0404395, 0.0100671, 1.000827
 176033725, 0.352318, -0.01519746, 0.03443298, -0.04699349, 0.01066708, 1.000225, 0.3325407, -0.04346785, 0.06755639, -0.04915329, 0.009620043, 1.000015
 176133685, 0.3930947, -0.04186071, 0.03764684, -0.03869249, 0.008945204, 1.000938, 0.352318, -0.01519746, 0.03443298, -0.04699349, 0.01066708, 1.000225
 176233645, 0.3815767, -0.01585276, 0.06632622, -0.03913174, 0.01012214, 1.00083, 0.3930947, -0.04186071, 0.03764684, -0.03869249, 0.008945204, 1.000938
 176333605, 0.3500424, -0.04210493, 0.03263255, -0.04272068, 0.01037183, 1.000406, 0.3815767, -0.01585276, 0.06632622, -0.03913174, 0.01012214, 1.00083
 176433565, 0.3757766, -0.02077538, 0.03514035, -0.0389852, 0.01233143, 1.000739, 0.3500424, -0.04210493, 0.03263255, -0.04272068, 0.01037183, 1.000406
 176533525, 0.3514774, -0.02666136, 0.03317829, -0.04349091, 0.01282664, 1.000355, 0.3757766, -0.02077538, 0.03514035, -0.0389852, 0.01233143, 1.000739
 176633485, 0.3585336, -0.02239765, 0.06344047, -0.04060864, 0.01148806, 1.000569, 0.3514774, -0.02666136, 0.03317829, -0.04349091, 0.01282664, 1.000355
 176734278, 0.4060206, -0.03542726, 0.06788985, -0.03296071, 0.009914384, 1.001297, 0.3585336, -0.02239765, 0.06344047, -0.04060864, 0.01148806, 1.000569
 176834238, 0.3638494, -0.02318089, 0.03413418, -0.04111486, 0.01077801, 1.000578, 0.4060206, -0.03542726, 0.06788985, -0.03296071, 0.009914384, 1.001297
 176934198, 0.3903539, -0.03905873, 0.03697397, -0.03758801, 0.0107839, 1.000951, 0.3638494, -0.02318089, 0.03413418, -0.04111486, 0.01077801, 1.000578
 177034158, 0.4115531, -0.03316528, 0.03898872, -0.03401735, 0.01041738, 1.001292, 0.3903539, -0.03905873, 0.03697397, -0.03758801, 0.0107839, 1.000951
 177134118, 0.3592235, -0.04540177, 0.03414305, -0.04288412, 0.01034141, 1.000477, 0.4115531, -0.03316528, 0.03898872, -0.03401735, 0.01041738, 1.001292
 177234078, 0.3755348, -0.03169167, 0.0358202, -0.04057244, 0.01153958, 1.000696, 0.3592235, -0.04540177, 0.03414305, -0.04288412, 0.01034141, 1.000477
 177334038, 0.3579487, -0.02650398, 0.06460034, -0.04365608, 0.01294415, 1.000428, 0.3755348, -0.03169167, 0.0358202, -0.04057244, 0.01153958, 1.000696
 177433998, 0.4033176, -0.04556264, 0.0687049, -0.03525885, 0.0125426, 1.001184, 0.3579487, -0.02650398, 0.06460034, -0.04365608, 0.01294415, 1.000428
 177553950, 0.3970042, -0.03414484, 0.03786777, -0.036602, 0.01443292, 1.001015, 0.4033176, -0.04556264, 0.0687049, -0.03525885, 0.0125426, 1.001184
 177653910, 0.3751134, -0.02979119, 0.03521544, -0.03875351, 0.01552703, 1.000713, 0.3970042, -0.03414484, 0.03786777, -0.036602, 0.01443292, 1.001015
 177753870, 0.3704265, -0.0445083, 0.0343173, -0.03801329, 0.01561755, 1.000701, 0.3751134, -0.02979119, 0.03521544, -0.03875351, 0.01552703, 1.000713
 177853830, 0.3653968, -0.02529145, 0.03308144, -0.03707062, 0.01617147, 1.000682, 0.3704265, -0.0445083, 0.0343173, -0.03801329, 0.01561755, 1.000701
 177953790, 0.3541669, -0.02791474, 0.03143705, -0.03698087, 0.01666944, 1.000587, 0.3653968, -0.02529145, 0.03308144, -0.03707062, 0.01617147, 1.000682
 178053750, 0.3985403, -0.02912393, 0.03514448, -0.02933697, 0.01565459, 1.001243, 0.3541669, -0.02791474, 0.03143705, -0.03698087, 0.01666944, 1.000587
 178153710, 0.3456232, -0.01672167, 0.0309418, -0.03938111, 0.01513462, 1.000454, 0.3985403, -0.02912393, 0.03514448, -0.02933697, 0.01565459, 1.001243
 178253670, 0.3940413, -0.04827721, 0.03554281, -0.03222742, 0.01175368, 1.001166, 0.3456232, -0.01672167, 0.0309418, -0.03938111, 0.01513462, 1.000454
 178353630, 0.4005468, -0.02916986, 0.03642524, -0.03208438, 0.01222428, 1.001222, 0.3940413, -0.04827721, 0.03554281, -0.03222742, 0.01175368, 1.001166
 178453590, 0.3465559, -0.01737535, 0.03177494, -0.04151528, 0.01294561, 1.000404, 0.4005468, -0.02916986, 0.03642524, -0.03208438, 0.01222428, 1.001222
 178553550, 0.3744062, -0.03221687, 0.03436286, -0.03729088, 0.0116536, 1.000807, 0.3465559, -0.01737535, 0.03177494, -0.04151528, 0.01294561, 1.000404
 178653510, 0.3786237, -0.02821955, 0.03468159, -0.03652846, 0.01105411, 1.000878, 0.3744062, -0.03221687, 0.03436286, -0.03729088, 0.0116536, 1.000807
 178754303, 0.3473661, -0.0109939, 0.0320152, -0.04205633, 0.01083988, 1.000412, 0.3786237, -0.02821955, 0.03468159, -0.03652846, 0.01105411, 1.000878
 178854263, 0.4012374, -0.04195941, 0.03696695, -0.03357072, 0.008389256, 1.001216, 0.3473661, -0.0109939, 0.0320152, -0.04205633, 0.01083988, 1.000412
 178954223, 0.3526455, -0.01089637, 0.03279597, -0.0421959, 0.008700565, 1.000465, 0.4012374, -0.04195941, 0.03696695, -0.03357072, 0.008389256, 1.001216
 179054183, 0.4095811, -0.03204413, 0.03770885, -0.03254868, 0.003529754, 1.001357, 0.3526455, -0.01089637, 0.03279597, -0.0421959, 0.008700565, 1.000465
 179154143, 0.3665021, -0.02272354, 0.00338283, -0.03968247, -0.001082025, 1.000688, 0.4095811, -0.03204413, 0.03770885, -0.03254868, 0.003529754, 1.001357
 179254103, 0.4137715, -0.02365825, 0.03701808, -0.02980093, -0.006918267, 1.001464, 0.3665021, -0.02272354, 0.00338283, -0.03968247, -0.001082025, 1.000688
 179354063, 0.3984029, -0.0170615, 0.03593949, -0.03306461, -0.009443499, 1.001186, 0.4137715, -0.02365825, 0.03701808, -0.02980093, -0.006918267, 1.001464
 179454023, 0.3642868, -0.01822118, 0.03298705, -0.0390794, -0.009491106, 1.00067, 0.3984029, -0.0170615, 0.03593949, -0.03306461, -0.009443499, 1.001186
 179573975, 0.3509032, -0.03988537, 0.0308086, -0.03968412, -0.01004564, 1.000538, 0.3642868, -0.01822118, 0.03298705, -0.0390794, -0.009491106, 1.00067
 179673935, 0.3799786, -0.03695119, 0.03298227, -0.03391998, -0.01060889, 1.000976, 0.3509032, -0.03988537, 0.0308086, -0.03968412, -0.01004564, 1.000538
 179773895, 0.3849171, -0.03078601, 0.03319997, -0.03232571, -0.01127628, 1.001063, 0.3799786, -0.03695119, 0.03298227, -0.03391998, -0.01060889, 1.000976
 179873855, 0.4168771, -0.01769909, 0.03597513, -0.02635452, -0.01162558, 1.001536, 0.3849171, -0.03078601, 0.03319997, -0.03232571, -0.01127628, 1.001063
 179973815, 0.3560019, -0.03510468, 0.03010518, -0.0358815, -0.01314026, 1.000679, 0.4168771, -0.01769909, 0.03597513, -0.02635452, -0.01162558, 1.001536
 180073775, 0.340913, -0.04027838, 0.02895062, -0.03899765, -0.01347052, 1.000448, 0.3560019, -0.03510468, 0.03010518, -0.0358815, -0.01314026, 1.000679
 180173735, 0.3830808, -0.02593042, 0.03287479, -0.03235046, -0.014233, 1.001001, 0.340913, -0.04027838, 0.02895062, -0.03899765, -0.01347052, 1.000448
 180273695, 0.3982419, -0.0312397, 0.03401918, -0.03017059, -0.01883212, 1.001128, 0.3830808, -0.02593042, 0.03287479, -0.03235046, -0.014233, 1.001001
 180373655, 0.3609177, -0.04178508, 0.0299214, -0.03617917, -0.03147904, 1.000292, 0.3982419, -0.0312397, 0.03401918, -0.03017059, -0.01883212, 1.001128
 180473615, 0.3675884, -0.03517334, 5.392917E-05, -0.03650232, -0.05627498, 0.9992201, 0.3609177, -0.04178508, 0.0299214, -0.03617917, -0.03147904, 1.000292
 180573575, 0.3790335, -0.003450161, 0.00387956, -0.03694625, -0.09436745, 0.9964201, 0.3675884, -0.03517334, 5.392917E-05, -0.03650232, -0.05627498, 0.9992201
 180673535, 0.3651127, 0.0007503936, -0.02666702, -0.041797, -0.1538238, 0.9886569, 0.3790335, -0.003450161, 0.00387956, -0.03694625, -0.09436745, 0.9964201
 180773495, 0.3982805, 0.01313753, -0.08196265, -0.04152907, -0.2636113, 0.9654167, 0.3651127, 0.0007503936, -0.02666702, -0.041797, -0.1538238, 0.9886569
 180874288, 0.3839217, 0.03128289, -0.04558567, -0.043566, -0.3355028, 0.9426531, 0.3982805, 0.01313753, -0.08196265, -0.04152907, -0.2636113, 0.9654167
 180974248, 0.3681284, -0.06511543, 0.1398668, -0.0352902, -0.28736, 0.9587865, 0.3839217, 0.03128289, -0.04558567, -0.043566, -0.3355028, 0.9426531
 181074208, 0.3321118, -0.05258691, 0.1335996, -0.02671285, -0.1452522, 0.9903335, 0.3681284, -0.06511543, 0.1398668, -0.0352902, -0.28736, 0.9587865
 181174168, 0.3603233, -0.02732446, 0.05409668, -0.01503871, 0.01439714, 1.001226, 0.3321118, -0.05258691, 0.1335996, -0.02671285, -0.1452522, 0.9903335
 181274128, 0.4069217, -0.01828389, -0.0005747713, -0.009914007, 0.118029, 0.9947695, 0.3603233, -0.02732446, 0.05409668, -0.01503871, 0.01439714, 1.001226
 181374088, 0.3432854, 0.00057704, 0.02556938, -0.02597538, 0.1337364, 0.9919928, 0.4069217, -0.01828389, -0.0005747713, -0.009914007, 0.118029, 0.9947695
 181474048, 0.3691818, -0.01134441, 0.05965288, -0.02584106, 0.07625519, 0.9982613, 0.3432854, 0.00057704, 0.02556938, -0.02597538, 0.1337364, 0.9919928
 181574008, 0.3939168, 0.01077447, 0.0325481, -0.02625233, -0.0117827, 1.00129, 0.3691818, -0.01134441, 0.05965288, -0.02584106, 0.07625519, 0.9982613
 181693960, 0.3703265, -0.009347755, 0.0005159099, -0.03397286, -0.09309661, 0.9965596, 0.3939168, 0.01077447, 0.0325481, -0.02625233, -0.0117827, 1.00129
 181793920, 0.3919602, -0.0300645, 0.03014659, -0.03056567, -0.1091617, 0.9952316, 0.3703265, -0.009347755, 0.0005159099, -0.03397286, -0.09309661, 0.9965596
 181893880, 0.3791934, -0.01208274, 0.03075159, -0.03030712, -0.08098523, 0.9978282, 0.3919602, -0.0300645, 0.03014659, -0.03056567, -0.1091617, 0.9952316
 181993840, 0.371742, -0.003274358, 0.02989712, -0.02831225, -0.03005424, 1.000661, 0.3791934, -0.01208274, 0.03075159, -0.03030712, -0.08098523, 0.9978282
 182093800, 0.3558989, -0.00109332, 0.02868732, -0.03052701, 0.01605665, 1.0008, 0.371742, -0.003274358, 0.02989712, -0.02831225, -0.03005424, 1.000661
 182193760, 0.361934, -0.006568845, 0.0290762, -0.02902268, 0.03965058, 1.000229, 0.3558989, -0.00109332, 0.02868732, -0.03052701, 0.01605665, 1.0008
 182293720, 0.3404675, 0.0106254, 0.0269853, -0.03226629, 0.03890852, 1.000014, 0.361934, -0.006568845, 0.0290762, -0.02902268, 0.03965058, 1.000229
 182393680, 0.3656518, -0.01026757, 0.02932782, -0.0288897, 0.01964042, 1.00085, 0.3404675, 0.0106254, 0.0269853, -0.03226629, 0.03890852, 1.000014
 182493640, 0.3944845, 0.002244849, 0.03175992, -0.0247669, -0.003201747, 1.001388, 0.3656518, -0.01026757, 0.02932782, -0.0288897, 0.01964042, 1.00085
 182593600, 0.3944916, -0.008662464, 0.03137397, -0.02464583, -0.01933981, 1.001205, 0.3944845, 0.002244849, 0.03175992, -0.0247669, -0.003201747, 1.001388
 182693560, 0.3959635, -0.0231863, 0.03044122, -0.02324165, -0.02262812, 1.001176, 0.3944916, -0.008662464, 0.03137397, -0.02464583, -0.01933981, 1.001205
 182793520, 0.4034266, -0.02452551, 0.03076048, -0.02102359, -0.01511253, 1.001434, 0.3959635, -0.0231863, 0.03044122, -0.02324165, -0.02262812, 1.001176
 182893480, 0.3525797, -0.02113043, 0.02711146, -0.02853362, -2.616271E-05, 1.000952, 0.4034266, -0.02452551, 0.03076048, -0.02102359, -0.01511253, 1.001434
 182994273, 0.394035, -0.01462972, 0.03085564, -0.02283582, 0.01424145, 1.001325, 0.3525797, -0.02113043, 0.02711146, -0.02853362, -2.616271E-05, 1.000952
 183094233, 0.3731155, -0.008476088, -0.000525374, -0.02722854, 0.02105012, 1.000904, 0.394035, -0.01462972, 0.03085564, -0.02283582, 0.01424145, 1.001325
 183194193, 0.376507, -0.01628421, 0.02925218, -0.02477081, 0.02077842, 1.001015, 0.3731155, -0.008476088, -0.000525374, -0.02722854, 0.02105012, 1.000904
 183294153, 0.3982501, 0.004190841, 0.03038254, -0.02021933, 0.01594376, 1.001397, 0.376507, -0.01628421, 0.02925218, -0.02477081, 0.02077842, 1.001015
 183394113, 0.3753173, -0.01690307, 0.0285852, -0.02404147, 0.008984431, 1.001197, 0.3982501, 0.004190841, 0.03038254, -0.02021933, 0.01594376, 1.001397
 183494073, 0.3762105, -0.01492922, -0.001775799, -0.02346309, 0.005763132, 1.001223, 0.3753173, -0.01690307, 0.0285852, -0.02404147, 0.008984431, 1.001197
 183594033, 0.3694039, 0.009022865, 0.02822698, -0.0245645, 0.005978698, 1.001172, 0.3762105, -0.01492922, -0.001775799, -0.02346309, 0.005763132, 1.001223
 183693993, 0.343511, -0.02018148, 0.02615951, -0.02896701, 0.00637267, 1.000854, 0.3694039, 0.009022865, 0.02822698, -0.0245645, 0.005978698, 1.001172
 183813945, 0.3660624, -0.004555785, 0.003070444, -0.02624079, 0.009792645, 1.001052, 0.343511, -0.02018148, 0.02615951, -0.02896701, 0.00637267, 1.000854
 183913905, 0.3469048, 0.001588943, 0.02112657, -0.01271683, 0.01290545, 1.001158, 0.3660624, -0.004555785, 0.003070444, -0.02624079, 0.009792645, 1.001052
 184013865, 0.3529601, -0.01140915, 0.01390696, 0.009380154, 0.01365309, 1.001217, 0.3469048, 0.001588943, 0.02112657, -0.01271683, 0.01290545, 1.001158
 184113825, 0.4063421, -0.01270575, 0.01387356, 0.02266026, 0.01234902, 1.001445, 0.3529601, -0.01140915, 0.01390696, 0.009380154, 0.01365309, 1.001217
 184213785, 0.3922818, 0.006015629, 0.01314426, 0.02128015, 0.0109673, 1.001376, 0.4063421, -0.01270575, 0.01387356, 0.02266026, 0.01234902, 1.001445
 184313745, 0.3415228, -0.02095027, -0.01883594, 0.01370743, 0.006471423, 1.001152, 0.3922818, 0.006015629, 0.01314426, 0.02128015, 0.0109673, 1.001376
 184413705, 0.3395748, -0.008024666, 0.01150411, 0.01278719, 0.004184963, 1.001175, 0.3415228, -0.02095027, -0.01883594, 0.01370743, 0.006471423, 1.001152
 184513665, 0.3659108, 0.009882282, 0.01327958, 0.01474, 0.005491864, 1.001332, 0.3395748, -0.008024666, 0.01150411, 0.01278719, 0.004184963, 1.001175
 184613625, 0.3710448, -0.01546423, 0.01407123, 0.01301083, 0.00467569, 1.001387, 0.3659108, 0.009882282, 0.01327958, 0.01474, 0.005491864, 1.001332
 184713585, 0.4074602, -0.009670359, 0.04591642, 0.01796495, 0.003675938, 1.001631, 0.3710448, -0.01546423, 0.01407123, 0.01301083, 0.00467569, 1.001387
 184813545, 0.4031205, 0.005397269, 0.01652597, 0.01557159, 0.005068247, 1.001623, 0.4074602, -0.009670359, 0.04591642, 0.01796495, 0.003675938, 1.001631
 184913505, 0.3788671, 0.007768222, 0.04565435, 0.01182633, 0.007250826, 1.001469, 0.4031205, 0.005397269, 0.01652597, 0.01557159, 0.005068247, 1.001623
 185014298, 0.355914, 0.00919731, 0.01478716, 0.007968601, 0.01035366, 1.0013, 0.3788671, 0.007768222, 0.04565435, 0.01182633, 0.007250826, 1.001469
 185114258, 0.3829545, -0.006413937, 0.01630476, 0.01063861, 0.0115244, 1.001458, 0.355914, 0.00919731, 0.01478716, 0.007968601, 0.01035366, 1.0013
 185214218, 0.3984388, 0.008919397, 0.01826942, 0.009974625, 0.0138478, 1.001575, 0.3829545, -0.006413937, 0.01630476, 0.01063861, 0.0115244, 1.001458
 185314178, 0.3524409, -0.002355076, 0.01611018, 0.003118623, 0.01390707, 1.001255, 0.3984388, 0.008919397, 0.01826942, 0.009974625, 0.0138478, 1.001575
 185414138, 0.369965, -0.0101964, 0.01642586, 0.006895587, 0.01329607, 1.001367, 0.3524409, -0.002355076, 0.01611018, 0.003118623, 0.01390707, 1.001255
 185514098, 0.3716782, -0.002188683, 0.01667924, 0.006795164, 0.01267328, 1.001394, 0.369965, -0.0101964, 0.01642586, 0.006895587, 0.01329607, 1.001367
 185614058, 0.3888079, -0.01438623, 0.01774439, 0.008491527, 0.01170587, 1.001525, 0.3716782, -0.002188683, 0.01667924, 0.006795164, 0.01267328, 1.001394
 185714018, 0.3686554, -0.007337347, 0.01635629, 0.0068608, 0.01419527, 1.001348, 0.3888079, -0.01438623, 0.01774439, 0.008491527, 0.01170587, 1.001525
 185833970, 0.3942518, -0.0166253, 0.01768538, 0.01032253, 0.01681237, 1.001481, 0.3686554, -0.007337347, 0.01635629, 0.0068608, 0.01419527, 1.001348
 185933930, 0.3637379, -0.004821068, 0.01582107, 0.007097341, 0.018928, 1.001233, 0.3942518, -0.0166253, 0.01768538, 0.01032253, 0.01681237, 1.001481
 186033890, 0.3648359, 0.008406121, 0.01552795, 0.008130286, 0.01893407, 1.00124, 0.3637379, -0.004821068, 0.01582107, 0.007097341, 0.018928, 1.001233
 186133850, 0.3552102, -0.006451848, 0.04525609, 0.006696958, 0.01872444, 1.001187, 0.3648359, 0.008406121, 0.01552795, 0.008130286, 0.01893407, 1.00124
 186233810, 0.3970246, -0.006563336, 0.01737672, 0.01191343, 0.018363, 1.001467, 0.3552102, -0.006451848, 0.04525609, 0.006696958, 0.01872444, 1.001187
 186333770, 0.3705009, 0.004923249, 0.01611566, 0.008069705, 0.01780264, 1.001303, 0.3970246, -0.006563336, 0.01737672, 0.01191343, 0.018363, 1.001467
 186433730, 0.352324, 0.002156833, 0.015274, 0.005549461, 0.01858884, 1.001171, 0.3705009, 0.004923249, 0.01611566, 0.008069705, 0.01780264, 1.001303
 186533690, 0.3875296, 0.007612711, 0.01631879, 0.01202043, 0.02029263, 1.001355, 0.352324, 0.002156833, 0.015274, 0.005549461, 0.01858884, 1.001171
 186633650, 0.3923627, 0.0127459, 0.01642242, 0.01296939, 0.02098977, 1.001372, 0.3875296, 0.007612711, 0.01631879, 0.01202043, 0.02029263, 1.001355
 186733610, 0.3902335, -0.00533988, 0.01602945, 0.01360068, 0.02246513, 1.001304, 0.3923627, 0.0127459, 0.01642242, 0.01296939, 0.02098977, 1.001372
 186833570, 0.3842161, 0.006142366, 0.01595779, 0.01203116, 0.02437576, 1.001235, 0.3902335, -0.00533988, 0.01602945, 0.01360068, 0.02246513, 1.001304
 186933530, 0.3684419, -0.0199282, 0.01562916, 0.009179957, 0.02291272, 1.001163, 0.3842161, 0.006142366, 0.01595779, 0.01203116, 0.02437576, 1.001235
 187033490, 0.3718297, -0.005151687, 0.01637932, 0.007824562, 0.02320307, 1.0012, 0.3684419, -0.0199282, 0.01562916, 0.009179957, 0.02291272, 1.001163
 187134283, 0.394693, -0.02114739, 0.01772095, 0.01087305, 0.02469155, 1.001318, 0.3718297, -0.005151687, 0.01637932, 0.007824562, 0.02320307, 1.0012
 187234243, 0.3794244, 0.006573617, 0.01729732, 0.007216912, 0.02700744, 1.001176, 0.394693, -0.02114739, 0.01772095, 0.01087305, 0.02469155, 1.001318
 187334203, 0.3621496, 0.003337495, 0.01629646, 0.005298492, 0.02665141, 1.001062, 0.3794244, 0.006573617, 0.01729732, 0.007216912, 0.02700744, 1.001176
 187434163, 0.3995522, 0.0009006727, 0.01827342, 0.01034812, 0.025866, 1.001346, 0.3621496, 0.003337495, 0.01629646, 0.005298492, 0.02665141, 1.001062
 187534123, 0.3798246, 0.003831641, 0.01693434, 0.008374203, 0.02464535, 1.00123, 0.3995522, 0.0009006727, 0.01827342, 0.01034812, 0.025866, 1.001346
 187634083, 0.3707786, -0.008470587, 0.01709719, 0.005730756, 0.0253677, 1.001153, 0.3798246, 0.003831641, 0.01693434, 0.008374203, 0.02464535, 1.00123
 187734043, 0.3639093, -0.0002224836, 0.01732272, 0.003094792, 0.027354, 1.001065, 0.3707786, -0.008470587, 0.01709719, 0.005730756, 0.0253677, 1.001153
 187834003, 0.3729651, -0.02095849, 0.04914758, 0.001745123, 0.02886316, 1.001098, 0.3639093, -0.0002224836, 0.01732272, 0.003094792, 0.027354, 1.001065
 187953955, 0.4079246, -0.01262393, 0.0214328, 0.00547424, 0.03110279, 1.001309, 0.3729651, -0.02095849, 0.04914758, 0.001745123, 0.02886316, 1.001098
 188053915, 0.3984859, 0.005678725, 0.02043636, 0.004552092, 0.03193177, 1.001211, 0.4079246, -0.01262393, 0.0214328, 0.00547424, 0.03110279, 1.001309
 188153875, 0.4038251, -0.0013645, 0.02024128, 0.006846402, 0.02990749, 1.001306, 0.3984859, 0.005678725, 0.02043636, 0.004552092, 0.03193177, 1.001211
 188253835, 0.3989128, 0.005899004, 0.01986899, 0.006216444, 0.02847451, 1.001313, 0.4038251, -0.0013645, 0.02024128, 0.006846402, 0.02990749, 1.001306
 188353795, 0.4093736, -0.01823984, 0.02098864, 0.007108126, 0.02680466, 1.00144, 0.3989128, 0.005899004, 0.01986899, 0.006216444, 0.02847451, 1.001313
 188453755, 0.3965744, -0.01601256, 0.02134389, 0.002487205, 0.02673795, 1.001349, 0.4093736, -0.01823984, 0.02098864, 0.007108126, 0.02680466, 1.00144
 188553715, 0.3645587, -0.004039505, 0.0509066, -0.005991966, 0.01902953, 1.001266, 0.3965744, -0.01601256, 0.02134389, 0.002487205, 0.02673795, 1.001349
 188653675, 0.3693873, 0.01112009, 0.02286167, -0.009586595, -0.004665807, 1.00144, 0.3645587, -0.004039505, 0.0509066, -0.005991966, 0.01902953, 1.001266
 188753635, 0.3556611, -0.008270677, 0.0227944, -0.01560594, -0.03341534, 1.000705, 0.3693873, 0.01112009, 0.02286167, -0.009586595, -0.004665807, 1.00144
 188853595, 0.3504277, -0.01716673, 0.0226908, -0.01896332, -0.04938781, 0.999946, 0.3556611, -0.008270677, 0.0227944, -0.01560594, -0.03341534, 1.000705
 188953555, 0.4208271, -0.01274529, 0.05829386, -0.008212194, -0.04591041, 1.000888, 0.3504277, -0.01716673, 0.0226908, -0.01896332, -0.04938781, 0.999946
 189053515, 0.3895009, -0.0193571, 0.0558572, -0.01272899, -0.02535149, 1.001274, 0.4208271, -0.01274529, 0.05829386, -0.008212194, -0.04591041, 1.000888
 189153475, 0.3683389, -0.02464328, 0.05462795, -0.0155391, 0.0006874166, 1.001377, 0.3895009, -0.0193571, 0.0558572, -0.01272899, -0.02535149, 1.001274
 189254268, 0.3659134, 0.005642545, 0.02506804, -0.01714929, 0.02127209, 1.001102, 0.3683389, -0.02464328, 0.05462795, -0.0155391, 0.0006874166, 1.001377
 189354228, 0.3820319, -0.002710623, 0.06064771, -0.01251734, 0.03103613, 1.001064, 0.3659134, 0.005642545, 0.02506804, -0.01714929, 0.02127209, 1.001102
 189454188, 0.3662402, -0.003131292, 0.0238964, -0.01359509, 0.03642669, 1.00072, 0.3820319, -0.002710623, 0.06064771, -0.01251734, 0.03103613, 1.001064
 189554148, 0.4061937, 0.007922505, 0.02501431, -0.00406142, 0.03766594, 1.001114, 0.3662402, -0.003131292, 0.0238964, -0.01359509, 0.03642669, 1.00072
 189654108, 0.4120486, 0.006812344, 0.02435718, -0.0005134344, 0.03838976, 1.001153, 0.4061937, 0.007922505, 0.02501431, -0.00406142, 0.03766594, 1.001114
 189754068, 0.4071303, 0.0004204244, 0.04880457, 4.957616E-05, 0.03858662, 1.00111, 0.4120486, 0.006812344, 0.02435718, -0.0005134344, 0.03838976, 1.001153
 189854028, 0.3602451, -0.001290515, 0.05088793, -0.006832875, 0.03712907, 1.000733, 0.4071303, 0.0004204244, 0.04880457, 4.957616E-05, 0.03858662, 1.00111
 189973980, 0.3893266, 0.004008222, 0.02249572, -0.002677668, 0.034154, 1.001092, 0.3602451, -0.001290515, 0.05088793, -0.006832875, 0.03712907, 1.000733
 190073940, 0.4326563, 0.007152843, 0.02472413, 0.005354006, 0.03234386, 1.001581, 0.3893266, 0.004008222, 0.02249572, -0.002677668, 0.034154, 1.001092
 190173900, 0.3732666, -0.01219717, 0.0211622, -0.003662862, 0.0244854, 1.001228, 0.4326563, 0.007152843, 0.02472413, 0.005354006, 0.03234386, 1.001581
 190273860, 0.3597934, -0.00166481, 0.05072649, -0.006569199, 0.01138539, 1.001359, 0.3732666, -0.01219717, 0.0211622, -0.003662862, 0.0244854, 1.001228
 190373820, 0.3720276, 0.005836476, 0.02182281, -0.005885884, 0.005140024, 1.001504, 0.3597934, -0.00166481, 0.05072649, -0.006569199, 0.01138539, 1.001359
 190473780, 0.3588322, -0.01284387, 0.02106155, -0.008266024, 0.01074965, 1.00133, 0.3720276, 0.005836476, 0.02182281, -0.005885884, 0.005140024, 1.001504
 190573740, 0.3956891, -0.005466461, 0.02387707, -0.003751226, 0.0176973, 1.001578, 0.3588322, -0.01284387, 0.02106155, -0.008266024, 0.01074965, 1.00133
 190673700, 0.4138599, 0.01047275, 0.02485676, -0.0003629141, 0.01610523, 1.001801, 0.3956891, -0.005466461, 0.02387707, -0.003751226, 0.0176973, 1.001578
 190773660, 0.3695079, 0.007580745, 0.02169454, -0.006250113, 0.009862033, 1.001451, 0.4138599, 0.01047275, 0.02485676, -0.0003629141, 0.01610523, 1.001801
 190873620, 0.4426798, 0.01064388, 0.0255936, 0.007359155, 0.006842498, 1.002206, 0.3695079, 0.007580745, 0.02169454, -0.006250113, 0.009862033, 1.001451
 190973580, 0.4090969, -0.01042904, 0.02320151, 0.002110731, 0.009861201, 1.001826, 0.4426798, 0.01064388, 0.0255936, 0.007359155, 0.006842498, 1.002206
 191073540, 0.3962793, -0.008461287, 0.02206491, 0.001168665, 0.01612947, 1.001623, 0.4090969, -0.01042904, 0.02320151, 0.002110731, 0.009861201, 1.001826
 191173500, 0.4160559, -0.008670999, 0.02238584, 0.006531693, 0.01942587, 1.001744, 0.3962793, -0.008461287, 0.02206491, 0.001168665, 0.01612947, 1.001623
 191274293, 0.3718454, 0.01106885, 0.02014462, 0.001132645, 0.01998535, 0.9537923, 0.4160559, -0.008670999, 0.02238584, 0.006531693, 0.01942587, 1.001744
 191374253, 0.3978362, 0.01215286, 0.02205148, 0.001619298, 0.01852966, 1.001607, 0.3718454, 0.01106885, 0.02014462, 0.001132645, 0.01998535, 0.9537923
 191474213, 0.3721518, -0.01047289, -0.009143649, -0.003579948, 0.01659669, 1.001377, 0.3978362, 0.01215286, 0.02205148, 0.001619298, 0.01852966, 1.001607
 191574173, 0.4429785, -0.00731227, 0.02502882, 0.008582499, 0.01465998, 1.002113, 0.3721518, -0.01047289, -0.009143649, -0.003579948, 0.01659669, 1.001377
 191674133, 0.4252758, -0.001795925, 0.0239364, 0.005562793, 0.01384503, 1.001943, 0.4429785, -0.00731227, 0.02502882, 0.008582499, 0.01465998, 1.002113
 191774093, 0.370074, 0.004110456, 0.02103245, -0.004288085, 0.01171346, 1.001447, 0.4252758, -0.001795925, 0.0239364, 0.005562793, 0.01384503, 1.001943
 191874053, 0.4394634, -0.01900095, 0.02475077, 0.007716913, 0.007997178, 1.002146, 0.370074, 0.004110456, 0.02103245, -0.004288085, 0.01171346, 1.001447
 191974013, 0.4063576, 0.0004722732, 0.02299149, 0.001896977, 0.00872344, 1.001814, 0.4394634, -0.01900095, 0.02475077, 0.007716913, 0.007997178, 1.002146
 192093965, 0.4032368, 0.004064663, 0.02214638, 0.003066983, 0.01102669, 1.001758, 0.4063576, 0.0004722732, 0.02299149, 0.001896977, 0.00872344, 1.001814
 192193925, 0.374983, -0.01852787, 0.02010379, -0.0006120428, 0.01164754, 1.001485, 0.4032368, 0.004064663, 0.02214638, 0.003066983, 0.01102669, 1.001758
 192293885, 0.3657334, 0.0003449975, 0.01944496, -0.001446612, 0.01213036, 1.00141, 0.374983, -0.01852787, 0.02010379, -0.0006120428, 0.01164754, 1.001485
 192393845, 0.3995775, -0.01524302, 0.02042596, 0.005844828, 0.01093655, 1.001697, 0.3657334, 0.0003449975, 0.01944496, -0.001446612, 0.01213036, 1.00141
 192493805, 0.4369336, -0.01552157, -0.002713533, 0.01221044, 0.01077548, 1.002021, 0.3995775, -0.01524302, 0.02042596, 0.005844828, 0.01093655, 1.001697
 192593765, 0.41453, -0.01529645, 0.0215476, 0.007581588, 0.01180564, 1.001824, 0.4369336, -0.01552157, -0.002713533, 0.01221044, 0.01077548, 1.002021
 192693725, 0.4012935, 0.01043872, 0.02138133, 0.004212528, 0.0139983, 1.001694, 0.41453, -0.01529645, 0.0215476, 0.007581588, 0.01180564, 1.001824
 192793685, 0.4249365, -0.01451047, 0.02298877, 0.007387243, 0.01498848, 1.001893, 0.4012935, 0.01043872, 0.02138133, 0.004212528, 0.0139983, 1.001694
 192893645, 0.4244776, -0.007300593, 0.02293915, 0.007334664, 0.01561616, 1.001879, 0.4249365, -0.01451047, 0.02298877, 0.007387243, 0.01498848, 1.001893
 192993605, 0.3775305, 0.005279256, 0.01998612, 0.0005222447, 0.01594967, 1.001453, 0.4244776, -0.007300593, 0.02293915, 0.007334664, 0.01561616, 1.001879
 193093565, 0.3890617, 0.007939352, 0.02031558, 0.003079984, 0.0152785, 1.001559, 0.3775305, 0.005279256, 0.01998612, 0.0005222447, 0.01594967, 1.001453
 193193525, 0.3993287, -0.01555247, 0.02089292, 0.004635435, 0.01628781, 1.001621, 0.3890617, 0.007939352, 0.02031558, 0.003079984, 0.0152785, 1.001559
 193293485, 0.3916332, 0.008043067, 0.02018524, 0.004047204, 0.02037008, 1.001487, 0.3993287, -0.01555247, 0.02089292, 0.004635435, 0.01628781, 1.001621
 193394278, 0.3979826, 0.01084293, 0.0198995, 0.006472547, 0.02448527, 1.001441, 0.3916332, 0.008043067, 0.02018524, 0.004047204, 0.02037008, 1.001487
 193494238, 0.4052069, -0.01696212, -0.009767741, 0.007878304, 0.02462387, 1.001467, 0.3979826, 0.01084293, 0.0198995, 0.006472547, 0.02448527, 1.001441
 193594198, 0.4284497, -0.01820121, 0.02121835, 0.01238082, 0.01867781, 1.001803, 0.4052069, -0.01696212, -0.009767741, 0.007878304, 0.02462387, 1.001467
 193694158, 0.3890327, 0.006413457, 0.01981883, 0.004161134, 0.01586073, 1.001539, 0.4284497, -0.01820121, 0.02121835, 0.01238082, 0.01867781, 1.001803
 193794118, 0.4353797, -0.01478233, 0.02278976, 0.01063312, 0.01702465, 1.001927, 0.3890327, 0.006413457, 0.01981883, 0.004161134, 0.01586073, 1.001539
 193894078, 0.3892449, -0.0009859686, 0.02073668, 0.001830876, 0.02432899, 1.001372, 0.4353797, -0.01478233, 0.02278976, 0.01063312, 0.01702465, 1.001927
 193994038, 0.3942572, -0.003038593, 0.02070965, 0.003425766, 0.02683533, 1.001347, 0.3892449, -0.0009859686, 0.02073668, 0.001830876, 0.02432899, 1.001372
 194093998, 0.4095245, 0.009386479, 0.02073146, 0.007613499, 0.0223087, 1.001585, 0.3942572, -0.003038593, 0.02070965, 0.003425766, 0.02683533, 1.001347
 194213950, 0.4340836, -0.004009745, 0.02176845, 0.01243265, 0.01736532, 1.001882, 0.4095245, 0.009386479, 0.02073146, 0.007613499, 0.0223087, 1.001585
 194313910, 0.4330602, 0.006280225, 0.02202909, 0.01147946, 0.01872713, 1.001861, 0.4340836, -0.004009745, 0.02176845, 0.01243265, 0.01736532, 1.001882
 194413870, 0.388045, -0.01476458, 0.01983278, 0.003644478, 0.01727647, 1.00149, 0.4330602, 0.006280225, 0.02202909, 0.01147946, 0.01872713, 1.001861
 194513830, 0.4270931, 0.01083803, -0.01366294, 0.01088912, 0.01536139, 1.001839, 0.388045, -0.01476458, 0.01983278, 0.003644478, 0.01727647, 1.00149
 194613790, 0.3780365, -0.002332818, -0.01176753, 0.004461139, 0.01229741, 1.001466, 0.4270931, 0.01083803, -0.01366294, 0.01088912, 0.01536139, 1.001839
 194713750, 0.3874466, 0.002973915, 0.01855858, 0.006659292, 0.01384011, 1.001528, 0.3780365, -0.002332818, -0.01176753, 0.004461139, 0.01229741, 1.001466
 194813710, 0.4189184, -0.01378194, 0.01998941, 0.01191925, 0.01508789, 1.001747, 0.3874466, 0.002973915, 0.01855858, 0.006659292, 0.01384011, 1.001528
 194913670, 0.420467, -0.01422772, 0.02008567, 0.01222184, 0.01776099, 1.001716, 0.4189184, -0.01378194, 0.01998941, 0.01191925, 0.01508789, 1.001747
 195013630, 0.4058532, 0.01090268, 0.01913044, 0.01021918, 0.02168624, 1.001527, 0.420467, -0.01422772, 0.02008567, 0.01222184, 0.01776099, 1.001716
 195113590, 0.3625274, 0.003401689, 0.01709885, 0.003392439, 0.02236696, 1.001185, 0.4058532, 0.01090268, 0.01913044, 0.01021918, 0.02168624, 1.001527
 195213550, 0.4202523, 0.005536968, 0.02070631, 0.01050791, 0.02236282, 1.001647, 0.3625274, 0.003401689, 0.01709885, 0.003392439, 0.02236696, 1.001185
 195313510, 0.403169, -0.006171276, 0.02122404, 0.004360281, 0.02105849, 1.001547, 0.4202523, 0.005536968, 0.02070631, 0.01050791, 0.02236282, 1.001647
 195414303, 0.3838563, -0.01195344, 0.0204677, 0.0006186701, 0.02064209, 1.00139, 0.403169, -0.006171276, 0.02122404, 0.004360281, 0.02105849, 1.001547
 195514263, 0.3647514, -0.009151874, 0.01879507, -0.0005372912, 0.02170998, 1.001215, 0.3838563, -0.01195344, 0.0204677, 0.0006186701, 0.02064209, 1.00139
 195614223, 0.3820664, -0.01179335, 0.01908418, 0.003666017, 0.02211145, 1.001334, 0.3647514, -0.009151874, 0.01879507, -0.0005372912, 0.02170998, 1.001215
 195714183, 0.3691975, 0.01495704, 0.01883486, 0.0002809986, 0.02375977, 1.001215, 0.3820664, -0.01179335, 0.01908418, 0.003666017, 0.02211145, 1.001334
 195814143, 0.3578139, -0.002522058, 0.01915921, -0.003680553, 0.02474464, 1.001088, 0.3691975, 0.01495704, 0.01883486, 0.0002809986, 0.02375977, 1.001215
 195914103, 0.3631539, -0.01552464, 0.01977168, -0.003360022, 0.028157, 1.001032, 0.3578139, -0.002522058, 0.01915921, -0.003680553, 0.02474464, 1.001088
 196014063, 0.4140066, 0.01015158, 0.02206068, 0.004969563, 0.03246891, 1.001344, 0.3631539, -0.01552464, 0.01977168, -0.003360022, 0.028157, 1.001032
 196114023, 0.3729537, -0.0172097, 0.02033529, -0.001774605, 0.03157855, 1.001009, 0.4140066, 0.01015158, 0.02206068, 0.004969563, 0.03246891, 1.001344
 196233975, 0.3502169, -0.01493909, 0.01919165, -0.005645223, 0.02810235, 1.000929, 0.3729537, -0.0172097, 0.02033529, -0.001774605, 0.03157855, 1.001009
 196333935, 0.3886826, 0.004794702, 0.02127621, -0.0003379248, 0.02279483, 1.001388, 0.3502169, -0.01493909, 0.01919165, -0.005645223, 0.02810235, 1.000929
 196433895, 0.4077863, -0.006249397, 0.02243576, 0.002445191, 0.01537842, 1.001691, 0.3886826, 0.004794702, 0.02127621, -0.0003379248, 0.02279483, 1.001388
 196533855, 0.3520642, -0.01154726, 0.01965708, -0.007170863, 0.009943137, 1.001278, 0.4077863, -0.006249397, 0.02243576, 0.002445191, 0.01537842, 1.001691
 196633815, 0.3610527, -0.00566149, 0.02026527, -0.006070103, 0.007686173, 1.001373, 0.3520642, -0.01154726, 0.01965708, -0.007170863, 0.009943137, 1.001278
 196733775, 0.3946326, 0.003061117, 0.02231909, -0.001155529, 0.01056962, 1.001639, 0.3610527, -0.00566149, 0.02026527, -0.006070103, 0.007686173, 1.001373
 196833735, 0.3714781, -0.01392957, 0.02148152, -0.006039266, 0.01794958, 1.001316, 0.3946326, 0.003061117, 0.02231909, -0.001155529, 0.01056962, 1.001639
 196933695, 0.3695976, 0.01323225, 0.02144622, -0.006850336, 0.02715018, 1.001104, 0.3714781, -0.01392957, 0.02148152, -0.006039266, 0.01794958, 1.001316
 197033655, 0.4005494, 0.002165876, -0.006658576, -0.002507895, 0.03372654, 1.001159, 0.3695976, 0.01323225, 0.02144622, -0.006850336, 0.02715018, 1.001104
 197133615, 0.3881363, -0.0001689049, 0.02258453, -0.003875192, 0.03791603, 1.000911, 0.4005494, 0.002165876, -0.006658576, -0.002507895, 0.03372654, 1.001159
 197233575, 0.37597, -0.005950844, 0.02218138, -0.00626564, 0.03774079, 1.000802, 0.3881363, -0.0001689049, 0.02258453, -0.003875192, 0.03791603, 1.000911
 197333535, 0.4165062, 0.006178278, 0.02414511, 0.0006039888, 0.03456014, 1.001299, 0.37597, -0.005950844, 0.02218138, -0.00626564, 0.03774079, 1.000802
 197433495, 0.4197715, 0.008469639, 0.02441963, 0.0009982139, 0.02706123, 1.001563, 0.4165062, 0.006178278, 0.02414511, 0.0006039888, 0.03456014, 1.001299
 197534288, 0.3969072, 0.0008389766, 0.02355466, -0.003715072, 0.01945583, 1.001516, 0.4197715, 0.008469639, 0.02441963, 0.0009982139, 0.02706123, 1.001563
 197634248, 0.4215489, -0.01262519, -0.005138725, 6.887317E-05, 0.01245471, 1.00184, 0.3969072, 0.0008389766, 0.02355466, -0.003715072, 0.01945583, 1.001516
 197734208, 0.4039977, -0.01706943, 0.02332439, -0.001315553, 0.009842383, 1.001716, 0.4215489, -0.01262519, -0.005138725, 6.887317E-05, 0.01245471, 1.00184
 197834168, 0.3876232, -0.01799263, 0.02245042, -0.004031938, 0.01101295, 1.001553, 0.4039977, -0.01706943, 0.02332439, -0.001315553, 0.009842383, 1.001716
 197934128, 0.3551608, -0.003192088, 0.02072299, -0.009035733, 0.01650201, 1.001201, 0.3876232, -0.01799263, 0.02245042, -0.004031938, 0.01101295, 1.001553
 198034088, 0.3699261, 0.004327945, 0.02162857, -0.007049348, 0.02262283, 1.001209, 0.3551608, -0.003192088, 0.02072299, -0.009035733, 0.01650201, 1.001201
 198134048, 0.3672145, 0.002267938, -0.00907848, -0.006370019, 0.02597144, 1.001097, 0.3699261, 0.004327945, 0.02162857, -0.007049348, 0.02262283, 1.001209
 198234008, 0.391781, 0.007120742, 0.02230519, -0.002358269, 0.02594928, 1.001326, 0.3672145, 0.002267938, -0.00907848, -0.006370019, 0.02597144, 1.001097
 198353960, 0.3514891, -0.0001368581, 0.02007387, -0.008407265, 0.02426513, 1.001022, 0.391781, 0.007120742, 0.02230519, -0.002358269, 0.02594928, 1.001326
 198453920, 0.3501614, 0.006122313, 0.01983615, -0.008245733, 0.022887, 1.00105, 0.3514891, -0.0001368581, 0.02007387, -0.008407265, 0.02426513, 1.001022
 198553880, 0.4001248, -0.002385519, -0.006629338, -0.002882175, 0.02027075, 1.001504, 0.3501614, 0.006122313, 0.01983615, -0.008245733, 0.022887, 1.00105
 198653840, 0.3482309, 0.00284384, 0.02081512, -0.01160643, 0.01772272, 1.001106, 0.4001248, -0.002385519, -0.006629338, -0.002882175, 0.02027075, 1.001504
 198753800, 0.3424537, 0.003911417, 0.02087027, -0.01356122, 0.01540061, 1.001082, 0.3482309, 0.00284384, 0.02081512, -0.01160643, 0.01772272, 1.001106
 198853760, 0.3424169, 0.00403478, 0.02067625, -0.01300301, 0.01494264, 1.001096, 0.3424537, 0.003911417, 0.02087027, -0.01356122, 0.01540061, 1.001082
 198953720, 0.3634132, 0.001453253, 0.0211529, -0.00791676, 0.0185517, 1.00123, 0.3424169, 0.00403478, 0.02067625, -0.01300301, 0.01494264, 1.001096
 199053680, 0.3772334, -0.01534893, 0.02181284, -0.005148627, 0.02626755, 1.001171, 0.3634132, 0.001453253, 0.0211529, -0.00791676, 0.0185517, 1.00123
 199153640, 0.3799577, -0.01212835, 0.02275752, -0.006660618, 0.03397571, 1.000952, 0.3772334, -0.01534893, 0.02181284, -0.005148627, 0.02626755, 1.001171
 199253600, 0.3784386, 0.009953617, -0.007143827, -0.008873947, 0.03590572, 1.000851, 0.3799577, -0.01212835, 0.02275752, -0.006660618, 0.03397571, 1.000952
 199353560, 0.4103884, -0.01656486, -0.004163133, -0.00576099, 0.02785004, 1.001381, 0.3784386, 0.009953617, -0.007143827, -0.008873947, 0.03590572, 1.000851
 199453520, 0.3626272, -0.01216055, -0.006703516, -0.01468172, 0.01801234, 1.001135, 0.4103884, -0.01656486, -0.004163133, -0.00576099, 0.02785004, 1.001381
 199553480, 0.3440812, -0.003766789, 0.02240693, -0.0177473, 0.01045533, 1.001085, 0.3626272, -0.01216055, -0.006703516, -0.01468172, 0.01801234, 1.001135
