TimeUS,CAN,CAE,CAD,CAe,NAN,NAE,NAD,NAe,m10,m00,Gye
 140033964, -0.009449981, 0.01256956, 0.0003415171, 0.001089464, -0.002791177, 0.003806933, 4.099159E-05, 0.0005187924, -0.1083745, 0.9941089, 0.05027412
 140233884, -0.009700954, 0.01240848, -1.814116E-05, 0.001089464, -0.003360148, 0.004072324, -0.0002729277, 0.0005187924, -0.1083688, 0.9941095, 0.04570375
 140433804, 0.08389848, 0.002582362, -0.0007655895, 0.001089464, 0.104013, -0.008447299, -0.0002202106, 0.0005187924, -0.1083637, 0.99411, 0.04570375
 140633724, 0.5978386, -0.05511144, 0.004288264, 0.001089464, 0.3262171, -0.03127247, 0.00430488, 0.0005187924, -0.108341, 0.9941124, 0.04570375
 140833644, 1.33604, -0.1334137, 0.02311623, 0.001089464, 0.5659705, -0.05694912, 0.01108403, 0.0005187924, -0.1082922, 0.9941166, 0.04570375
 141033564, 2.088321, -0.2150066, 0.04141347, 0.001089464, 0.7898076, -0.08902692, 0.01619101, 0.0005187924, -0.1082443, 0.9941189, 0.04570375
 141233484, 2.78569, -0.3008037, 0.056735, 0.001089464, 0.9926603, -0.1153113, 0.02059808, 0.0005187924, -0.108208, 0.9941213, 0.04570375
 141434237, 3.31513, -0.3608032, 0.07120255, 0.001091626, 1.176576, -0.1234101, 0.02735447, 0.000520954, -0.1081831, 0.9941221, 0.04121499
 141634157, 3.448495, -0.3580609, 0.08253237, 0.001091626, 1.092742, -0.1025913, 0.02744677, 0.0005187924, -0.1081452, 0.994124, 0.04579443
 141834077, 3.151392, -0.322346, 0.07879938, 0.001089464, 0.9977298, -0.1148185, 0.02425693, 0.0005187924, -0.108135, 0.9941242, 0.04570375
 142033997, 2.810882, -0.3045512, -0.01695275, 0.001089464, 0.8588396, -0.08492705, -0.05763673, 0.0005187924, -0.1081343, 0.9941249, 0.04570375
 142233917, 2.427214, -0.2476741, -0.06926474, 0.001089464, 0.6683511, -0.07305866, 0.01432227, 0.0005187924, -0.1080998, 0.9941295, 0.05027412
 142433837, 2.708804, -0.2854613, -0.6322746, 0.001089464, 0.9753004, -0.1090918, -0.6217679, 0.0005187924, -0.1087174, 0.99389, 0.04570375
 142633757, 2.944113, -0.3440987, -1.871387, 0.001089464, 0.8312469, -0.1035457, -0.4563993, 0.0005187924, -0.1080683, 0.9929288, 0.04570375
 142833677, 2.546538, -0.2639156, -1.143307, 0.001089464, 0.7277901, -0.05239505, -0.2607957, 0.0005187924, -0.1058277, 0.9921886, 0.04570375
 143033597, 2.247409, -0.1753896, -0.7555535, 0.001089464, 0.6485973, -0.0469127, -0.2340803, 0.0005187924, -0.1076161, 0.9914088, 0.04570375
 143233517, 1.967611, -0.1984334, -0.7296478, 0.001089464, 0.5547085, -0.06036053, -0.2279716, 0.0005187924, -0.1086226, 0.990493, 0.04570375
 143434270, 1.698716, -0.1957656, -0.6920323, 0.001091626, 0.5459999, -0.06201068, -0.2109871, 0.000520954, -0.1087662, 0.9897345, 0.04121499
 143634190, 1.526556, -0.1745339, -0.6119356, 0.001091626, 0.4797598, -0.05290606, -0.1704899, 0.0005187924, -0.108271, 0.9891665, 0.04579443
 143834110, 1.305363, -0.150389, -0.5606114, 0.001089464, 0.382077, -0.05517767, -0.2269334, 0.0005187924, -0.1104391, 0.9879922, 0.04570375
 144034030, 1.062785, -0.1495693, -0.6481303, 0.001089464, 0.327418, -0.03441789, -0.189753, 0.0005187924, -0.109395, 0.9871881, 0.04570375
 144233950, 0.910616, -0.0688261, -0.5314865, 0.001089464, 0.2392226, -0.01482843, -0.160868, 0.0005187924, -0.1075552, 0.9865122, 0.05027412
 144433870, 0.7300928, -0.03736152, -0.4598842, 0.001089464, 0.2034278, -0.01596596, -0.1149805, 0.0005187924, -0.1084099, 0.9858037, 0.04570375
 144633790, 0.6231653, -0.08988597, -0.2833314, 0.001089464, 0.1805637, -0.02394315, -0.0600073, 0.0005187924, -0.1098737, 0.9854738, 0.04570375
 144833710, 0.5501134, -0.06322556, -0.1691292, 0.001089464, 0.1475731, -0.005855441, -0.02762566, 0.0005187924, -0.1088779, 0.9855714, 0.04570375
 145033630, 0.4558293, -0.02730972, -0.1686876, 0.001089464, 0.1177846, -0.007629561, -0.0769354, 0.0005187924, -0.1107978, 0.9848371, 0.04570375
 145233550, 0.3510419, -0.03342127, -0.265525, 0.001089464, 0.08659682, -0.009065528, -0.09215167, 0.0005187924, -0.1094114, 0.9844832, 0.04570375
 145434303, 0.3149669, -0.01595157, -0.1609691, 0.001091626, 0.1033925, 0.008437682, -0.01499206, 0.0005187924, -0.1096466, 0.9845934, 0.04579443
 145634223, 0.2702336, -0.00472114, -0.1096707, 0.001091626, 0.07394303, -0.01267261, -0.0391558, 0.000520954, -0.1114735, 0.984118, 0.04121499
 145834143, 0.19646, -0.03664781, -0.1272678, 0.001091626, 0.05846721, -0.001863178, -0.03837759, 0.0005187924, -0.1114653, 0.9837656, 0.04579443
 146034063, 0.1216201, -0.02482089, -0.2023852, 0.001089464, 0.02234021, -0.0104526, -0.08870661, 0.0005187924, -0.1120831, 0.9831031, 0.04570375
 146233983, 0.1166537, -0.03241579, -0.05622679, 0.001089464, 0.05433213, -0.01156581, 0.04088921, 0.0005187924, -0.1122892, 0.9836077, 0.05027412
 146433903, 0.1313499, -0.01753441, 0.02586796, 0.001089464, 0.03543643, -0.01328032, -0.02200362, 0.0005187924, -0.1135314, 0.9833049, 0.04570375
 146633823, 0.1117516, -0.02461783, -0.02365944, 0.001089464, 0.02435796, 0.005329968, 0.00706962, 0.0005187924, -0.1122688, 0.9836243, 0.04570375
 146833743, 0.09697206, 0.05189141, 0.05166278, 0.001089464, 0.03206455, 0.02902388, 0.03107601, 0.0005187924, -0.1104522, 0.9841416, 0.04570375
 147033663, 0.1190707, 0.05575043, 0.1435017, 0.001089464, 0.03717799, -0.002816553, 0.05973304, 0.0005187924, -0.1118027, 0.984629, 0.04570375
 147233583, 0.162381, -0.02338602, 0.3658547, 0.001089464, 0.05144282, -0.007847443, 0.1396175, 0.0005187924, -0.1116405, 0.9860988, 0.04570375
 147433503, 0.1648913, -0.03298459, 0.3914126, 0.001089464, 0.04137718, -0.006884308, 0.08588282, 0.0005187924, -0.1125706, 0.9868627, 0.04570375
 147634256, 0.1178405, -0.03621658, 0.2183321, 0.001091626, 0.02941622, -0.01982225, 0.0662881, 0.000520954, -0.1129532, 0.9873528, 0.04121499
 147834176, 0.05911373, -0.02878221, 0.3369064, 0.001091626, 0.01893912, -0.01079546, 0.1738667, 0.0005187924, -0.1144421, 0.9882788, 0.04579443
 148034096, 0.02815199, 0.01469973, 0.456151, 0.001089464, 0.004898982, 0.01797266, 0.1046329, 0.0005187924, -0.1133894, 0.9891179, 0.04570375
 148234016, 0.03645165, -0.01010389, 0.3360866, 0.001089464, 0.0179644, -0.03692954, 0.09203718, 0.0005187924, -0.1164729, 0.9893971, 0.04570375
 148433936, 0.06046721, -0.06884345, 0.218421, 0.001089464, 0.02214996, -0.0002554447, 0.06944386, 0.0005187924, -0.1161334, 0.989818, 0.05027412
 148633856, 0.07217382, -0.01023825, 0.3064565, 0.001089464, 0.0116205, -0.007562569, 0.1248803, 0.0005187924, -0.1165605, 0.9904182, 0.04570375
 148833776, 0.01447633, -0.03024819, 0.3656237, 0.001089464, 0.001120686, 0.06744263, 0.1102788, 0.0005187924, -0.1063519, 0.9921652, 0.04570375
 149033696, 0.0320684, 0.5558372, 0.4704962, 0.001089464, 0.01796805, 0.2867959, 0.1736723, 0.0005187924, -0.1084178, 0.9925768, 0.04570375
 149233616, 0.004130329, 0.7809209, 0.3970191, 0.001089464, -0.03478254, 0.1342281, 0.02790813, 0.0005187924, -0.1193566, 0.9912711, 0.04570375
 149433536, -0.1146881, 0.2045785, 0.156305, 0.001089464, -0.03248588, -0.02854366, 0.1022416, 0.0005187924, -0.1113415, 0.9926177, 0.04570375
 149634289, -0.1073456, -0.03680523, 0.4029934, 0.001091626, -0.03388017, 0.02683873, 0.1748138, 0.000520954, -0.09478609, 0.9948682, 0.04121499
 149834209, -0.09587775, 0.1915351, 0.6332493, 0.001091626, -0.02818573, 0.1153023, 0.2594954, 0.0005187924, -0.0880428, 0.9959053, 0.04579443
 150034129, -0.08386811, 0.3785727, 0.6109322, 0.001089464, -0.03340572, 0.1193841, 0.1076152, 0.0005187924, -0.08743016, 0.9960812, 0.04570375
 150234049, -0.1058432, 0.3252094, 0.2423148, 0.001089464, -0.03409733, 0.09357805, 0.06489715, 0.0005187924, -0.08285692, 0.9965162, 0.04570375
 150433969, -0.09289648, 0.2098691, 0.2751306, 0.001089464, -0.02174228, 0.04756224, 0.1279181, 0.0005187924, -0.07571376, 0.9971288, 0.05027412
 150633889, -0.07231627, 0.1565512, 0.401392, 0.001089464, -0.03235686, 0.0493635, 0.1142646, 0.0005187924, -0.07114263, 0.9974451, 0.04570375
 150833809, -0.08837292, 0.165437, 0.3442153, 0.001089464, -0.0216364, 0.06686074, 0.1138757, 0.0005187924, -0.06544572, 0.9977531, 0.04570375
 151033729, -0.05501996, 0.1880915, 0.4730802, 0.001089464, -0.0005637053, 0.03779539, 0.1808699, 0.0005187924, -0.06391721, 0.9976051, 0.04570375
 151233649, -0.03103973, 0.1267317, 0.4410862, 0.001089464, -0.02267572, 0.04289604, 0.05138868, 0.0005187924, -0.06050911, 0.9976502, 0.04570375
 151433569, -0.07107595, 0.1516504, 0.1844261, 0.001089464, -0.02570892, 0.04453202, 0.09035195, 0.0005187924, -0.05560626, 0.9977429, 0.04570375
 151633489, -0.06974329, 0.1622109, 0.1962666, 0.001089464, -0.02341711, 0.04290044, 0.0188303, 0.0005187924, -0.05078863, 0.9979257, 0.04570375
 151834242, -0.06077046, 0.1442632, 0.1095496, 0.001091626, -0.0216498, 0.04215851, 0.08428542, 0.000520954, -0.04921433, 0.9978382, 0.04121499
 152034162, -0.05197458, 0.1075728, 0.2722018, 0.001091626, -0.01990881, 0.04544354, 0.08939707, 0.0005187924, -0.04585525, 0.997699, 0.04579443
 152234082, -0.05913242, 0.1179211, 0.3022539, 0.001089464, -0.02294039, 0.02965577, 0.1093015, 0.0005187924, -0.04438823, 0.9974275, 0.04570375
 152434002, -0.059713, 0.08418357, 0.2301996, 0.001089464, -0.015958, 0.02365687, 0.06502486, 0.0005187924, -0.04152709, 0.9973089, 0.04570375
 152633922, -0.04276888, 0.09274141, 0.2861311, 0.001089464, -0.008089798, 0.03999867, 0.04725215, 0.0005187924, -0.038266, 0.9970473, 0.05027412
 152833842, -0.02645631, 0.1137454, 0.1075188, 0.001089464, -0.01317586, 0.01826557, 0.008697844, 0.0005187924, -0.03786531, 0.9969826, 0.04570375
 153033762, -0.0342598, 0.09172937, 0.04508821, 0.001089464, 0.001133037, 0.04133237, 0.03107449, 0.0005187924, -0.0345535, 0.996975, 0.04570375
 153233682, -0.00571684, 0.09898394, 0.170865, 0.001089464, -0.005812202, 0.02392497, 0.08494878, 0.0005187924, -0.03378487, 0.9966123, 0.04570375
 153433602, -0.0001538566, 0.07197782, 0.2201977, 0.001089464, 0.00123517, 0.02433545, 0.05820215, 0.0005187924, -0.0314058, 0.9963872, 0.04570375
 153633522, -0.01545831, 0.07891618, 0.1952755, 0.001089464, -0.005019336, 0.02946706, 0.03598814, 0.0005187924, -0.0293657, 0.9961187, 0.04570375
 153834275, -0.02526009, 0.07985495, 0.07582222, 0.001091626, -0.007304348, 0.02573913, -0.01772436, 0.000520954, -0.02799068, 0.9961641, 0.04121499
 154034195, -0.01266128, 0.0771302, 0.01165715, 0.001091626, 0.002089615, 0.02200881, 0.04700262, 0.0005187924, -0.02640214, 0.9959869, 0.04579443
 154234115, 0.004140227, 0.06398676, 0.1190955, 0.001089464, -0.003593376, 0.02469997, 0.03032581, 0.0005187924, -0.02542129, 0.9958373, 0.04570375
 154434035, 0.02603067, 0.07213122, 0.0865614, 0.001089464, 0.009371703, 0.02773739, 0.01505605, 0.0005187924, -0.02266751, 0.995803, 0.04570375
 154633955, 0.01179121, 0.08352043, 0.01549526, 0.001089464, 0.0015763, 0.02906447, 0.01628005, 0.0005187924, -0.02079728, 0.9958258, 0.05027412
 154833875, -0.00463953, 0.07590982, 0.08692114, 0.001089464, 0.004904264, 0.0119235, 0.04456358, 0.0005187924, -0.02091202, 0.9955372, 0.04570375
 155033795, 0.009217832, 0.03216371, 0.1801823, 0.001089464, 0.005327055, 0.01243787, 0.05146361, 0.0005187924, -0.02017242, 0.9951496, 0.04570375
 155233715, 0.04113663, 0.03733044, 0.1035304, 0.001089464, 0.03150089, 0.00658319, 0.01671227, 0.0005187924, -0.0188294, 0.9950711, 0.04570375
 155433635, 0.06150632, 0.02195648, 0.06782497, 0.001089464, 0.009612672, -0.004255647, 0.001208203, 0.0005187924, -0.01968963, 0.9949734, 0.04570375
 155633555, 0.03245517, 0.007742574, -0.04963436, 0.001089464, 0.006751816, 0.01670896, 0.007412137, 0.0005187924, -0.01868368, 0.9951343, 0.04570375
 155833475, 0.02653641, 0.03757971, -0.01787182, 0.001089464, 0.007812289, 0.01464999, -0.02555282, 0.0005187924, -0.01762373, 0.9952784, 0.04570375
 156034228, 0.01679, 0.04626734, -0.03534739, 0.001091626, 0.002711252, 0.007730726, 0.01391818, 0.000520954, -0.01702924, 0.9952416, 0.04121499
 156234148, 0.00615134, 0.03662141, 0.04960475, 0.001091626, 0.002069766, 0.01282352, 0.04204956, 0.0005187924, -0.01684186, 0.9951144, 0.04579443
 156434068, 0.004033569, 0.05115978, 0.02961178, 0.001089464, 0.009442182, 0.024379, 0.00264186, 0.0005187924, -0.01481334, 0.9952198, 0.04570375
 156633988, 0.0309987, 0.05731554, 0.01073838, 0.001089464, 0.02282411, 0.006621059, 0.01383816, 0.0005187924, -0.01519175, 0.9951891, 0.04570375
 156833908, 0.04335438, 0.03239243, 0.06209262, 0.001089464, 0.007947567, 0.003619035, 0.008759713, 0.0005187924, -0.01493805, 0.9950468, 0.05027412
 157033828, 0.007531129, 0.0133388, 0.007386505, 0.001089464, -0.005612719, -0.004509349, -0.02841976, 0.0005187924, -0.0150458, 0.995142, 0.04570375
 157233748, 0.004908503, 0.02066892, -0.07686888, 0.001089464, 0.008366509, 0.01145575, -0.01991457, 0.0005187924, -0.01266071, 0.9953042, 0.04570375
 157433668, 0.02602024, 0.0469569, -0.05735302, 0.001089464, -0.0009257302, 0.0115485, -0.02269562, 0.0005187924, -0.01276336, 0.9954144, 0.04570375
 157633588, 0.01035525, 0.02888826, -0.03565934, 0.001089464, 0.003900089, -0.001393584, -0.01590817, 0.0005187924, -0.01383339, 0.9954437, 0.04570375
 157833508, 0.01597198, 0.002677715, 0.02907594, 0.001089464, 0.02040734, 0.006641815, 0.02922033, 0.0005187924, -0.01365067, 0.9952223, 0.04570375
 158034261, 0.04044256, 0.01621027, 0.06142416, 0.001091626, 0.002220321, 0.01109215, -0.02301737, 0.000520954, -0.01315657, 0.9952066, 0.04121499
 158234181, 0.02124532, 0.02160025, -0.04013078, 0.001091626, 0.01258676, 0.01095179, -0.01684806, 0.0005187924, -0.01297199, 0.9953049, 0.04579443
 158434101, 0.04549503, 0.02007922, 0.009889909, 0.001089464, 0.01642206, 0.007043403, 0.04598483, 0.0005187924, -0.01214416, 0.9950616, 0.04570375
 158634021, 0.04901861, 0.02470317, 0.08056541, 0.001089464, 0.01432209, 0.006076088, -0.03136329, 0.0005187924, -0.01265418, 0.9951385, 0.04570375
 158833941, 0.03875818, 0.01135405, -0.06982291, 0.001089464, 0.0101269, 0.00614239, 0.01393962, 0.0005187924, -0.01293907, 0.9951381, 0.05027412
 159033861, 0.02702576, 0.01102148, 0.02141422, 0.001089464, 0.01318901, 0.01399432, -0.02437942, 0.0005187924, -0.0121936, 0.9951808, 0.04570375
 159233781, 0.02486085, 0.03805981, -0.1379434, 0.001089464, 0.002046893, 0.02690451, -0.05374551, 0.0005187924, -0.01137066, 0.9955772, 0.04570375
 159433701, 0.01323977, 0.07350307, -0.09242162, 0.001089464, 0.003151986, 0.02254915, -0.02384166, 0.0005187924, -0.01101492, 0.9956432, 0.04570375
 159633621, 0.02843439, 0.06055079, -0.02805316, 0.001089464, 0.01610613, 0.0115924, -0.01480607, 0.0005187924, -0.01081897, 0.9956691, 0.04570375
 159833541, 0.02397128, 0.01866419, -0.1152202, 0.001089464, 0.001275769, 0.002125549, -0.02188779, 0.0005187924, -0.01141762, 0.9959143, 0.04570375
 160034294, 0.01549252, -0.02930006, -0.01489156, 0.001091626, 0.01749983, -0.02376833, 0.0250252, 0.000520954, -0.01264964, 0.9958277, 0.04579443
 160234214, 0.03789496, -0.0505958, 0.04832323, 0.001091626, 0.008247347, -0.009618111, 0.02972774, 0.0005187924, -0.01200488, 0.9957285, 0.04121499
 160434134, 0.02401845, 0.0378155, 0.07391834, 0.001089464, 0.007438912, 0.04293363, -0.006426433, 0.0005187924, -0.01085153, 0.995729, 0.04570375
 160634054, 0.006544339, 0.07387377, -0.07264183, 0.001089464, 0.003747893, 0.008098762, -0.004869172, 0.0005187924, -0.01248879, 0.995791, 0.04570375
 160833974, 0.007147771, 0.008090226, 0.03177352, 0.001089464, 0.004621148, 0.001103951, -0.0232593, 0.0005187924, -0.01227645, 0.9958128, 0.05027412
 161033894, 0.01729373, 0.007066275, -0.1124702, 0.001089464, 0.004456508, 0.02283427, -0.07089972, 0.0005187924, -0.01042648, 0.9961447, 0.04570375
 161233814, 0.01251391, 0.06085464, -0.1604171, 0.001089464, 0.003232182, -0.001297653, -0.02686799, 0.0005187924, -0.01161055, 0.9962702, 0.04570375
 161433734, 0.03977874, 0.01154584, -0.02655318, 0.001089464, 0.0128691, 0.01081862, -0.007011564, 0.0005187924, -0.01026978, 0.9962721, 0.04570375
 161633654, 0.02389905, 0.04196169, -0.01401107, 0.001089464, -0.004671391, 0.009296219, -0.03171472, 0.0005187924, -0.009572665, 0.9963543, 0.04570375
 161833574, -0.01509116, 0.03502323, -0.07975544, 0.001089464, 0.0005081652, 0.008733361, 0.01713344, 0.0005187924, -0.008760789, 0.9963831, 0.04570375
 162033494, 0.008081146, 0.01468846, 0.06015437, 0.001089464, 0.007473006, -0.00289101, 0.01409625, 0.0005187924, -0.009158267, 0.9962611, 0.04570375
 162234247, 0.01801961, 0.01857118, 0.02343275, 0.001091626, 0.004760595, 0.01314867, -0.01047821, 0.000520954, -0.007920537, 0.9962668, 0.04121499
 162434167, 0.006003751, 0.04578325, -0.03280689, 0.001091626, -0.007837583, 0.0250596, -0.03777485, 0.0005187924, -0.007811374, 0.9963956, 0.04579443
 162634087, 0.01786901, 0.03948551, -0.06709794, 0.001089464, 0.01870999, -0.003276494, 0.02314118, 0.0005187924, -0.009670424, 0.9963696, 0.04570375
 162834007, 0.04280391, -0.01651022, 0.07666801, 0.001089464, 0.01428135, 0.006773042, 0.018286, 0.0005187924, -0.008245795, 0.996279, 0.04570375
 163033927, 0.04631196, 0.009369378, 0.0473146, 0.001089464, 0.01912539, 0.002701769, 0.01217774, 0.0005187924, -0.008291678, 0.9962227, 0.05027412
 163233847, 0.0478645, 0.001443051, -0.0251382, 0.001089464, 0.0016008, 0.003026194, -0.02124861, 0.0005187924, -0.009273818, 0.9963562, 0.04570375
 163433767, 0.01368585, 0.01292303, -0.04662797, 0.001089464, -0.005435514, 0.01296136, -0.04674176, 0.0005187924, -0.009179892, 0.996488, 0.04570375
 163633687, 0.002534573, 0.01745839, -0.1215616, 0.001089464, 0.009337575, 0.008552669, -0.009101468, 0.0005187924, -0.009650479, 0.9965742, 0.04570375
 163833607, 0.01488938, 0.01656582, -0.00370133, 0.001089464, 0.001934935, 0.003599684, -0.03240328, 0.0005187924, -0.009787678, 0.9966206, 0.04570375
 164033527, 0.004786625, 0.02900919, -0.1039775, 0.001089464, 0.01087836, 0.01630972, -0.01792543, 0.0005187924, -0.00919973, 0.9967872, 0.04570375
 164234280, 0.009510213, 0.02346529, -0.01339073, 0.001091626, 0.003945646, 0.008999666, 0.02825845, 0.000520954, -0.009254815, 0.9966799, 0.04121499
 164434200, -0.00300002, 0.008532869, 0.004066154, 0.001091626, -0.006525401, 4.772149E-05, -0.06871442, 0.0005187924, -0.009339867, 0.9968647, 0.04579443
 164634120, -0.01748471, 0.001256636, -0.09318855, 0.001089464, -0.01027612, 0.001697983, -0.01899353, 0.0005187924, -0.008986483, 0.9969417, 0.04570375
 164834040, -0.003346099, 0.006861582, -0.00209826, 0.001089464, 0.005455225, 0.005486089, 0.03489272, 0.0005187924, -0.008768548, 0.9968024, 0.04570375
 165033960, 0.01138512, 0.01384649, 0.03311909, 0.001089464, 0.00271878, -0.003834372, -0.001836995, 0.0005187924, -0.01004595, 0.9968467, 0.05027412
 165233880, 0.008383406, -0.01035677, -0.006599569, 0.001089464, 0.01012107, 0.001639797, 0.04709696, 0.0005187924, -0.009575257, 0.9968024, 0.04570375
 165433800, 0.03412747, 0.02824085, 0.07681616, 0.001089464, 0.007303904, 0.001425308, -0.004606788, 0.0005187924, -0.01038576, 0.9967909, 0.04570375
 165633720, 0.01625348, -0.000739683, -0.03977075, 0.001089464, 0.00557702, -0.0060735, 0.01599606, 0.0005187924, -0.01057616, 0.9968499, 0.04570375
 165833640, 0.01007799, -0.003015188, -0.01764584, 0.001089464, -0.01049811, 0.004706731, -0.04994263, 0.0005187924, -0.01053871, 0.9969966, 0.04570375
 166033560, -0.01139246, 0.01119689, -0.06022146, 0.001089464, -0.01156577, 0.01445514, 0.0255329, 0.0005187924, -0.00927402, 0.9969475, 0.04570375
 166233480, 0.007359412, 0.02253491, -0.002006469, 0.001089464, 0.01057541, 0.002971242, -0.02691813, 0.0005187924, -0.01019569, 0.9970908, 0.04570375
 166434233, 0.02792936, 0.001421987, -0.0526104, 0.001091626, 0.004832796, 0.006886882, 0.01582913, 0.000520954, -0.01059931, 0.99708, 0.04121499
 166634153, 0.02547674, 0.003037315, -0.03893353, 0.001091626, -0.0005185329, -0.0009803788, -0.03881066, 0.0005187924, -0.01124667, 0.9972492, 0.04579443
 166834073, 0.008643799, -0.006863557, -0.08866262, 0.001089464, 0.01700901, 0.007308568, -0.003070204, 0.0005187924, -0.01101669, 0.9973117, 0.04570375
 167033993, 0.02088844, 0.01642537, 0.05635756, 0.001089464, -0.004640325, -0.0004850171, 0.04500861, 0.0005187924, -0.01064628, 0.9971347, 0.04570375
 167233913, -0.02336768, 0.008522769, 0.02146832, 0.001089464, -0.01515672, 0.00665204, -0.006202314, 0.0005187924, -0.0110432, 0.997245, 0.05027412
 167433833, -0.06623342, 0.03759407, -0.04802515, 0.001089464, -0.01010843, 0.007759194, 0.0005641587, 0.0005187924, -0.01005211, 0.9973382, 0.04570375
 167633753, 0.03741324, 0.03854043, 0.006961888, 0.001089464, 0.01191657, 0.0234055, 0.019863, 0.0005187924, -0.008790356, 0.9972601, 0.04570375
 167833673, 0.0226208, 0.05263255, 0.02203737, 0.001089464, -0.007181649, 0.01354042, -0.004515939, 0.0005187924, -0.009554815, 0.9973028, 0.04570375
 168033593, -0.02212159, 0.02680741, -0.05317789, 0.001089464, -0.00369302, 0.009088758, -0.03883686, 0.0005187924, -0.008030595, 0.9974518, 0.04570375
 168233513, -0.0761669, 0.02526926, -0.08983882, 0.001089464, -0.03098426, 0.009010497, -0.02821699, 0.0005187924, -0.009469281, 0.9975296, 0.04570375
 168434266, -0.03906854, -0.01426819, 0.02508691, 0.001091626, 0.01508473, -0.007347648, 0.02635484, 0.000520954, -0.009386929, 0.997365, 0.04121499
 168634186, 0.08493135, 0.00605623, 0.05879227, 0.001091626, 0.01275347, 0.01516909, -0.001882315, 0.0005187924, -0.008299366, 0.9973618, 0.04579443
 168834106, 0.00500306, 0.03611244, -0.1018096, 0.001089464, -0.01095905, 0.003323429, -0.08403093, 0.0005187924, -0.008584356, 0.997642, 0.04570375
 169034026, -0.05284506, 0.01706377, -0.1037892, 0.001089464, -0.03693696, 0.01424345, 0.00995538, 0.0005187924, -0.007748368, 0.9975619, 0.04570375
 169233946, -0.09672081, 0.03282628, 0.1265489, 0.001089464, -0.005513398, -0.01127031, 0.06733746, 0.0005187924, -0.008216122, 0.9972351, 0.05027412
 169433866, 0.06104428, -0.02516512, 0.1373161, 0.001089464, 0.03496562, -0.004741256, 0.005227381, 0.0005187924, -0.00888757, 0.9971807, 0.04570375
 169633786, 0.06783988, 0.01958764, -0.05407616, 0.001089464, 0.0001966768, 0.02640107, -0.04210332, 0.0005187924, -0.008308487, 0.9973733, 0.04570375
 169833706, -0.02536736, 0.04878101, -0.1662977, 0.001089464, -0.01148106, 0.002717689, -0.05502235, 0.0005187924, -0.00884582, 0.9976583, 0.04570375
 170033626, -0.01797507, -0.003958758, -0.04150598, 0.001089464, -0.002752156, 0.006417697, 0.03092005, 0.0005187924, -0.008745998, 0.9975115, 0.04570375
 170233546, 0.006214841, 0.03746568, 0.06848346, 0.001089464, 0.01905528, 0.01820903, 0.0005785534, 0.0005187924, -0.00763751, 0.9974883, 0.04570375
 170434299, 0.02844029, 0.041251, 0.06890446, 0.001091626, 0.007083515, -0.005538957, 0.04051514, 0.0005187924, -0.00814952, 0.9972861, 0.04579443
 170634219, 0.0071072, -0.003917162, 0.06699318, 0.001091626, -0.0001496903, -0.001599959, 0.001507917, 0.000520954, -0.007619509, 0.9972866, 0.04121499
 170834139, 7.844926E-05, -0.003478125, -0.07121648, 0.001091626, 0.002955019, -0.0001506993, -0.05669919, 0.0005187924, -0.007716602, 0.997533, 0.04579443
 171034059, 0.01470215, 0.02628184, -0.1294495, 0.001089464, 0.002553197, 0.01186154, 0.01845302, 0.0005187924, -0.0066992, 0.9975559, 0.04570375
 171233979, 0.008217276, 0.02211995, 0.03005909, 0.001089464, -0.00317108, -0.004489893, -0.008252274, 0.0005187924, -0.007522238, 0.997589, 0.05027412
 171433899, -0.0001766864, 0.005132706, -0.02123908, 0.001089464, 0.002024652, 0.003327074, 0.01981877, 0.0005187924, -0.007460207, 0.9975585, 0.04570375
 171633819, -0.005323647, 0.01927671, 0.08891033, 0.001089464, -0.002433548, 0.02851313, 0.00722882, 0.0005187924, -0.005499058, 0.9974504, 0.04570375
 171833739, 0.02193093, 0.07866076, -0.01329938, 0.001089464, 0.003208236, 0.02241047, 0.009088312, 0.0005187924, -0.00505192, 0.9974894, 0.04570375
 172033659, -0.002789543, 0.02709826, 0.0009097755, 0.001089464, -0.01055062, -0.01051533, -0.01707462, 0.0005187924, -0.006453989, 0.997556, 0.04570375
 172233579, -0.05665399, -0.007911472, -0.04469724, 0.001089464, -0.04793573, 0.0109773, -0.02764425, 0.0005187924, -0.00591067, 0.997636, 0.04570375
 172433499, -0.09008508, 0.02641174, -0.06428251, 0.001089464, -0.01385324, 0.01017518, -0.02482584, 0.0005187924, -0.005955316, 0.9977044, 0.04570375
 172634252, -0.02342853, 0.005166535, -0.07203759, 0.001091626, -0.005485591, -0.0109411, -0.04178008, 0.000520954, -0.006997712, 0.9978029, 0.04121499
 172834172, -0.004527829, 0.01037905, -0.0537054, 0.001091626, -0.009465571, 0.02262362, 0.03008154, 0.0005187924, -0.004245452, 0.997762, 0.04579443
 173034092, -0.006203048, 0.05642902, 0.08597917, 0.001089464, 0.01154515, 9.190191E-05, 0.03863893, 0.0005187924, -0.00549735, 0.9976501, 0.04570375
 173234012, -0.004180942, 0.00774913, 0.0453628, 0.001089464, -0.009769654, 0.009581493, 0.00464388, 0.0005187924, -0.005518965, 0.997678, 0.04570375
 173433932, -0.0318934, 0.01888247, -0.006852555, 0.001089464, -0.006880283, 0.008837495, -0.01286593, 0.0005187924, -0.003796488, 0.997751, 0.05027412
 173633852, -0.01801319, 0.0421617, -0.05697223, 0.001089464, 0.003898355, 0.01396538, -0.01367337, 0.0005187924, -0.004261376, 0.9978139, 0.04570375
 173833772, 0.001144615, 0.02005204, -0.05831419, 0.001089464, 0.0008321358, 0.004963614, -0.02381859, 0.0005187924, -0.003394233, 0.9979198, 0.04570375
 174033692, 0.003146408, 0.03258363, -0.002988055, 0.001089464, 0.00343375, 0.003930964, 0.0266963, 0.0005187924, -0.00317011, 0.9978228, 0.04570375
 174233612, 0.002495544, 0.03088281, 0.05870574, 0.001089464, -0.00255262, 0.0115519, -0.01644573, 0.0005187924, -0.001357679, 0.9978175, 0.04570375
 174433532, -0.01557754, 0.04041899, -0.06294524, 0.001089464, -0.0150796, 0.01096357, 0.0009390888, 0.0005187924, -0.001777146, 0.9978876, 0.04570375
 174634285, -0.03353471, 0.008310236, 0.02564366, 0.001091626, -0.005803431, -0.01066667, 0.00508516, 0.000520954, -0.00268692, 0.9978075, 0.04121499
 174834205, -0.007377123, -0.01289823, 0.05730214, 0.001091626, 0.003425418, -0.0001220859, -0.006788132, 0.0005187924, -0.00202755, 0.9977496, 0.04579443
 175034125, 0.01300721, 0.01889452, 0.0319388, 0.001089464, 0.002849136, 0.01381774, 0.02566033, 0.0005187924, -0.00175524, 0.9976372, 0.04570375
 175234045, 0.01195845, 0.03146995, 0.04761254, 0.001089464, 0.01283507, 0.003548771, -0.01089122, 0.0005187924, -0.001643125, 0.9976528, 0.04570375
 175433965, 0.03272945, 0.02026234, -0.009823299, 0.001089464, 2.062148E-05, 0.0010432, -0.006765042, 0.0005187924, -0.001751254, 0.9976493, 0.05027412
 175633885, -0.01837379, 0.009037988, -0.08461548, 0.001089464, -0.01064641, 0.004218044, -0.03589195, 0.0005187924, -0.001185484, 0.9978184, 0.04570375
 175833805, -0.02859023, 0.02070816, -0.04582309, 0.001089464, -0.01546802, 0.009976572, 0.01637052, 0.0005187924, -0.001165771, 0.9977656, 0.04570375
 176033725, -0.01509673, 0.003525414, 0.05770926, 0.001089464, 0.02012226, -0.006160283, 0.002465311, 0.0005187924, -0.002884598, 0.9977031, 0.04570375
 176233645, 0.03617102, -0.02400584, -0.07601209, 0.001089464, -0.005547115, -0.005015978, -0.02766284, 0.0005187924, -0.003027145, 0.9979103, 0.04570375
 176433565, -0.01303415, -0.02900615, -0.09452507, 0.001089464, -0.01085425, -0.01951453, -0.009530354, 0.0005187924, -0.004306407, 0.9980183, 0.04570375
 176633485, -0.04214535, -0.01886984, -0.01801599, 0.001089464, -0.003065545, 0.005756053, -0.04759572, 0.0005187924, -0.003608554, 0.9980745, 0.04570375
 176834238, -0.06264859, 0.04547102, -0.04939515, 0.001091626, -0.0499295, 0.01148141, 0.03242648, 0.000520954, -0.002669431, 0.9979846, 0.04121499
 177034158, -0.05126351, 0.03434351, 0.1168434, 0.001091626, 0.02447072, -0.006258597, 0.04377247, 0.0005187924, -0.003741033, 0.9978229, 0.04579443
 177234078, 0.08648956, 0.01124059, 0.104779, 0.001089464, 0.01454016, 0.02064158, 0.01380862, 0.0005187924, -0.002859874, 0.9976795, 0.04570375
 177433998, 0.001975552, 0.02289931, 0.04971164, 0.001089464, -0.0125173, -0.004845692, -0.02330184, 0.0005187924, -0.003223816, 0.9976921, 0.04570375
 177633918, -0.02749806, -0.0114106, -0.06693484, 0.001089464, -0.001214632, 0.007986655, -0.0388096, 0.0005187924, -0.003002856, 0.9978005, 0.05027412
 177833838, -0.01237644, 0.03039845, -0.1257114, 0.001089464, -0.00561751, 0.008460261, -0.04711211, 0.0005187924, -0.003078345, 0.9979668, 0.04570375
 178033758, -0.02029562, 0.00833576, -0.1367294, 0.001089464, -0.01507211, 0.006734991, -0.02335091, 0.0005187924, -0.003371696, 0.9981032, 0.04570375
 178233678, -0.02997381, 0.01961348, 0.03108082, 0.001089464, 0.003726464, 0.003617037, 0.03224323, 0.0005187924, -0.003461982, 0.9979596, 0.04570375
 178433598, 0.003024479, 0.01473451, 0.07974692, 0.001089464, 0.00947342, 0.002836463, 0.01950666, 0.0005187924, -0.003040097, 0.9978631, 0.04570375
 178633518, 0.008165403, 0.02109164, 0.04809463, 0.001089464, 0.002294064, 0.01959676, -0.005447497, 0.0005187924, -0.002040322, 0.9978437, 0.04570375
 178834271, -0.002081738, 0.06284106, 0.002625058, 0.001091626, -0.00595187, 0.0393078, 0.02645656, 0.000520954, -0.0007518465, 0.9978065, 0.04121499
 179034191, -0.001265678, 0.07526036, 0.05604471, 0.001091626, -0.001273477, 0.02192297, 0.01568747, 0.0005187924, -5.451018E-05, 0.9977806, 0.04579443
 179234111, -0.009945625, 0.06341768, -0.03907506, 0.001089464, 0.002064182, 0.02180251, -0.04873901, 0.0005187924, -0.000108797, 0.9979404, 0.04570375
 179434031, -0.01499027, 0.03835021, -0.05467623, 0.001089464, -0.01582115, -0.01483332, 0.03594743, 0.0005187924, 1.165452E-05, 0.9978452, 0.04570375
 179633951, -0.02375714, -0.01050033, 0.02274145, 0.001089464, -0.01000019, 0.008475307, -0.02507704, 0.0005187924, 0.000187674, 0.9979473, 0.05027412
 179833871, -0.03136044, -0.002720023, -0.08116081, 0.001089464, -0.01726129, -0.009307784, -0.03542036, 0.0005187924, -0.0002468999, 0.9980526, 0.04570375
 180033791, -0.03584921, 0.01987607, -0.05678702, 0.001089464, -0.001009251, 0.02209596, 0.01912849, 0.0005187924, 0.001085869, 0.9980264, 0.04570375
 180233711, -0.01860309, 0.07150096, -0.1037033, 0.001089464, -0.009368425, -0.3133618, -0.2151082, 0.0005187924, -0.05055134, 0.9960549, 0.04570375
 180433631, -0.230432, -3.085438, 0.08431891, 0.001089464, -0.137943, -1.650973, 0.7271702, 0.0005187924, -0.06168545, 0.9938493, 0.04570375
 180633551, -0.7219415, -6.125813, 1.9532, 0.001089464, -0.5735019, -2.915521, -0.03865336, 0.0005187924, -0.182735, 0.9831611, 0.04570375
 180834304, -3.30155, -10.31591, -2.498456, 0.001091626, -1.578053, -2.975403, -1.692499, 0.0005187924, -0.408856, 0.9080397, 0.04579443
 181034224, -4.093896, -6.840056, -4.257755, 0.001091626, -0.8579327, -1.129199, -0.7218997, 0.000520954, -0.5166427, 0.8493974, 0.04121499
 181234144, -1.674623, -2.197119, -0.5537607, 0.001091626, -0.2758204, -0.32659, 0.4115814, 0.0005187924, -0.551482, 0.8308635, 0.04579443
 181434064, -0.8877064, -0.7931998, 1.529447, 0.001089464, -0.3574076, -0.2465035, 0.5486823, 0.0005187924, -0.5702214, 0.8202696, 0.04570375
 181633984, -1.332568, -1.032401, 1.273052, 0.001089464, -0.5247309, -0.452576, 0.2800328, 0.0005187924, -0.6017406, 0.7980259, 0.04570375
 181833904, -1.710473, -1.521403, 0.627959, 0.001089464, -0.5657207, -0.5136402, 0.105001, 0.0005187924, -0.6424974, 0.7658955, 0.05027412
 182033824, -1.846622, -1.646725, 0.2924469, 0.001089464, -0.5910329, -0.5074331, 0.07662978, 0.0005187924, -0.6836331, 0.7295959, 0.04570375
 182233744, -1.875329, -1.540754, 0.2738787, 0.001089464, -0.5928053, -0.4585133, 0.07621233, 0.0005187924, -0.7211794, 0.6926561, 0.04570375
 182433664, -1.917642, -1.404757, 0.273092, 0.001089464, -0.605464, -0.4163229, 0.09392318, 0.0005187924, -0.7565715, 0.6539026, 0.04570375
 182633584, -1.951528, -1.282292, 0.2963828, 0.001089464, -0.6151348, -0.3876466, 0.07659384, 0.0005187924, -0.788524, 0.6149977, 0.04570375
 182833504, -1.993109, -1.197076, 0.2397271, 0.001089464, -0.6187317, -0.3491859, 0.09173432, 0.0005187924, -0.8187932, 0.5740099, 0.04570375
 183034257, -1.977468, -1.063858, 0.3019141, 0.001091626, -0.675795, -0.3366745, 0.1055162, 0.000520954, -0.8456625, 0.533446, 0.04121499
 183234177, -2.054955, -0.9828721, 0.2631233, 0.001091626, -0.7107041, -0.3151971, 0.03788275, 0.0005187924, -0.8711489, 0.4905132, 0.04579443
 183434097, -2.101083, -0.8815044, 0.1572335, 0.001089464, -0.6674794, -0.2543831, 0.06946178, 0.0005187924, -0.893151, 0.4489048, 0.04570375
 183634017, -2.01381, -0.7296606, 0.217648, 0.001089464, -0.6557649, -0.2117708, 0.09471181, 0.0005187924, -0.9122186, 0.4082571, 0.04570375
 183833937, -1.949033, -0.6138837, 0.26355, 0.001089464, -0.5792608, -0.1639776, 0.07626629, 0.0005187924, -0.929163, 0.3673396, 0.05027412
 184033857, -1.893657, -0.5077525, 0.2162551, 0.001089464, -0.6142119, -0.1401278, 0.03292616, 0.0005187924, -0.944388, 0.3255102, 0.04570375
 184233777, -1.945107, -0.4248217, 0.1121744, 0.001089464, -0.6026105, -0.1156521, 0.02755379, 0.0005187924, -0.9575166, 0.283875, 0.04570375
 184433697, -1.852347, -0.3374707, 0.114127, 0.001089464, -0.5403377, -0.08436991, 0.05575791, 0.0005187924, -0.9679083, 0.2449959, 0.04570375
 184633617, -1.68466, -0.2423874, 0.2086663, 0.001089464, -0.5104485, -0.05424699, 0.08080053, 0.0005187924, -0.976018, 0.2082977, 0.04570375
 184833537, -1.643231, -0.1597047, 0.1869247, 0.001089464, -0.491639, -0.04543697, 0.05533607, 0.0005187924, -0.9828575, 0.171114, 0.04570375
 185034290, -1.603401, -0.1130245, 0.1283876, 0.001091626, -0.5056087, -0.02801822, 0.03238695, 0.000520954, -0.9883068, 0.1339619, 0.04579443
 185234210, -1.532011, -0.05903093, 0.1620806, 0.001091626, -0.4855565, -0.004107928, 0.09682903, 0.0005187924, -0.9916319, 0.1016608, 0.04121499
 185434130, -1.468551, -0.006279847, 0.1540245, 0.001089464, -0.4817869, 0.00655332, -0.0003465791, 0.0005187924, -0.9942476, 0.06860565, 0.04570375
 185634050, -1.375769, 0.03088651, 0.07637429, 0.001089464, -0.4241613, 0.017499, 0.05894382, 0.0005187924, -0.9953465, 0.03727745, 0.04570375
 185833970, -1.281952, 0.05184669, 0.1130264, 0.001089464, -0.356322, 0.01388979, 0.03226782, 0.0005187924, -0.9957403, 0.009621613, 0.05027412
 186033890, -1.157725, 0.04798258, 0.02988687, 0.001089464, -0.3426231, 0.00911099, -0.02535568, 0.0005187924, -0.9955575, -0.01751895, 0.04570375
 186233810, -1.042836, 0.07289096, -0.01980353, 0.001089464, -0.2880665, 0.02866656, 0.01702362, 0.0005187924, -0.9945756, -0.04123648, 0.04570375
 186433730, -0.891458, 0.09231057, 0.005786763, 0.001089464, -0.256732, 0.03067615, 0.0008095363, 0.0005187924, -0.9932123, -0.06371073, 0.04570375
 186633650, -0.823356, 0.09532656, -0.03476382, 0.001089464, -0.2504732, 0.0307363, -0.01854355, 0.0005187924, -0.9916269, -0.08444618, 0.04570375
 186833570, -0.7658725, 0.09376553, -0.06588972, 0.001089464, -0.2171181, 0.02902336, 0.01041978, 0.0005187924, -0.9897093, -0.1039134, 0.04570375
 187033490, -0.6390574, 0.09261157, -0.0005791727, 0.001089464, -0.1750961, 0.02552134, 0.02365558, 0.0005187924, -0.987664, -0.1201817, 0.04570375
 187234243, -0.5516086, 0.08301401, 0.04026578, 0.001091626, -0.1820381, 0.007644519, 0.01534841, 0.000520954, -0.9853969, -0.1361796, 0.04121499
 187434163, -0.520369, 0.04137015, -0.04948114, 0.001091626, -0.1596805, 0.01520303, -0.02155099, 0.0005187924, -0.9836596, -0.1489695, 0.04579443
 187634083, -0.4192246, 0.03672843, -0.1090236, 0.001089464, -0.1080558, 0.004748298, -0.01830324, 0.0005187924, -0.9820229, -0.1602029, 0.04570375
 187834003, -0.3288196, 0.01578913, 0.0211339, 0.001089464, -0.09364607, -0.0004341489, 0.05193944, 0.0005187924, -0.9799814, -0.1703329, 0.04570375
 188033923, -0.2697352, 0.001932642, 0.06072894, 0.001089464, -0.07316568, -0.004100165, -0.05343188, 0.0005187924, -0.9787861, -0.1777865, 0.05027412
 188233843, -0.1899866, -0.01423285, -0.2218536, 0.001089464, -0.04384896, -0.005660813, -0.07671091, 0.0005187924, -0.9779326, -0.1848663, 0.04570375
 188433763, -0.1262772, -0.02055834, -0.1560035, 0.001089464, -0.0425494, 0.008179825, -0.02421126, 0.0005187924, -0.9769717, -0.1906838, 0.04570375
 188633683, -0.0921933, 0.005924362, -0.1595014, 0.001089464, -0.01474917, 0.001803154, -0.09074061, 0.0005187924, -0.9767798, -0.1940071, 0.04570375
 188833603, -0.01249018, 0.001050621, -0.2185595, 0.001089464, 0.01309582, -0.0003553449, -0.02752614, 0.0005187924, -0.9764774, -0.1967927, 0.04570375
 189033523, 0.03765694, -0.0002488818, -0.114719, 0.001089464, 0.01391582, -0.002417025, -0.03903153, 0.0005187924, -0.9761446, -0.1994381, 0.04570375
 189234276, 0.077308, -0.009495661, -0.06300515, 0.001091626, 0.03529825, -0.004135093, 0.03053739, 0.000520954, -0.9764017, -0.1979501, 0.04121499
 189434196, 0.1503067, -0.01697263, -0.005715452, 0.001091626, 0.07100743, -0.009249195, -0.05963265, 0.0005187924, -0.97699, -0.1960585, 0.04579443
 189634116, 0.2032137, -0.01600948, -0.1952046, 0.001089464, 0.04430243, -0.002136048, -0.1103549, 0.0005187924, -0.9773641, -0.1964087, 0.04570375
 189834036, 0.180123, -0.008778829, -0.2107176, 0.001089464, 0.09008461, -0.003550652, -0.03145005, 0.0005187924, -0.9786777, -0.1905737, 0.04570375
 190033956, 0.2734189, -0.01930584, -0.08459506, 0.001089464, 0.08835799, -0.01720981, -0.01579349, 0.0005187924, -0.9793717, -0.1876344, 0.05027412
 190233876, 0.2620746, -0.04493067, -0.08720917, 0.001089464, 0.07479475, 0.003593647, -0.001506965, 0.0005187924, -0.9802201, -0.1838847, 0.04570375
 190433796, 0.2655455, -0.02167985, 0.02749661, 0.001089464, 0.08253348, -0.0299692, 0.01858959, 0.0005187924, -0.9811419, -0.1785095, 0.04570375
 190633716, 0.2649606, -0.06209195, 0.07586402, 0.001089464, 0.0712865, -0.001712327, 0.03650235, 0.0005187924, -0.9817051, -0.1745588, 0.04570375
 190833636, 0.2614455, -0.02406254, -0.03591826, 0.001089464, 0.09539381, -0.01651586, -0.06971612, 0.0005187924, -0.9829137, -0.1693414, 0.04570375
 191033556, 0.2918058, -0.04969732, -0.1466568, 0.001089464, 0.1015326, -0.02635165, -0.01938969, 0.0005187924, -0.9839975, -0.1637054, 0.04570375
 191233476, 0.3329011, -0.0765922, -0.1087215, 0.001089464, 0.1157023, -0.02002821, -0.03980417, 0.0005187924, -0.9852405, -0.1571874, 0.04570375
 191434229, 0.3216992, -0.0491677, -0.03223677, 0.001091626, 0.0914399, -0.02246946, 0.02349302, 0.000520954, -0.9860867, -0.1513271, 0.04121499
 191634149, 0.2840159, -0.04874697, -0.006198424, 0.001091626, 0.09990281, -0.01481027, -0.0218906, 0.0005187924, -0.9872015, -0.144626, 0.04579443
 191834069, 0.3565919, -0.04509288, -0.09163658, 0.001089464, 0.1315282, -0.01046435, -0.01935489, 0.0005187924, -0.9885532, -0.1361601, 0.04570375
 192033989, 0.384488, -0.03418992, -0.08065854, 0.001089464, 0.1225532, -0.01539256, -0.04764841, 0.0005187924, -0.9894274, -0.1308301, 0.04570375
 192233909, 0.3291057, -0.02786859, -0.09321761, 0.001089464, 0.0961517, -0.007902345, -0.003675325, 0.0005187924, -0.9902872, -0.1243117, 0.05027412
 192433829, 0.3244734, -0.02280422, -0.0478998, 0.001089464, 0.1157045, -0.01226288, -0.02486769, 0.0005187924, -0.9914124, -0.1158814, 0.04570375
 192633749, 0.3226111, -0.04237205, -0.03796323, 0.001089464, 0.07692043, -0.01023988, -0.001650627, 0.0005187924, -0.9920186, -0.1106734, 0.04570375
 192833669, 0.2529187, -0.02799082, 0.001736719, 0.001089464, 0.08282721, -0.003335845, -0.01562275, 0.0005187924, -0.9926397, -0.1048162, 0.04570375
 193033589, 0.2847652, -0.008064584, -0.09007783, 0.001089464, 0.103315, -0.006459476, -0.02473881, 0.0005187924, -0.9935899, -0.09679667, 0.04570375
 193233509, 0.3303848, -0.02132732, -0.05836802, 0.001089464, 0.1019973, -0.007913897, 0.005760367, 0.0005187924, -0.9942626, -0.08994111, 0.04570375
 193434262, 0.3105709, -0.01451781, -0.06560886, 0.001091626, 0.1025129, -0.01237402, -0.05749226, 0.000520954, -0.9949206, -0.08464906, 0.04121499
 193634182, 0.2983167, -0.02090672, -0.108815, 0.001091626, 0.08774227, 0.001871048, -0.01873919, 0.0005187924, -0.9954723, -0.07796986, 0.04579443
 193834102, 0.2713291, 0.000462353, 0.04171323, 0.001089464, 0.1043674, -0.002908901, 0.0411163, 0.0005187924, -0.9958692, -0.07088188, 0.04570375
 194034022, 0.2923079, -0.01457416, 0.02226365, 0.001089464, 0.09328692, 0.004392683, -0.05007134, 0.0005187924, -0.9963955, -0.06530109, 0.04570375
 194233942, 0.2712756, -0.006741189, -0.1955248, 0.001089464, 0.06900404, 0.000161453, -0.04025698, 0.0005187924, -0.9968463, -0.06063278, 0.05027412
 194433862, 0.2086806, 0.003670165, -0.02550609, 0.001089464, 0.06166102, 0.01302118, 0.02334099, 0.0005187924, -0.9970274, -0.05634241, 0.04570375
 194633782, 0.2030455, 0.00966409, -0.00693823, 0.001089464, 0.06192419, 0.0004841724, -0.0201631, 0.0005187924, -0.9974286, -0.0504242, 0.04570375
 194833702, 0.2004808, -0.002229182, -0.03029213, 0.001089464, 0.06021614, -0.007879239, 0.009645607, 0.0005187924, -0.9976258, -0.04604869, 0.04570375
 195033622, 0.201223, -0.02493477, 0.0347045, 0.001089464, 0.06020175, -0.01194414, -0.005938442, 0.0005187924, -0.9977641, -0.04246139, 0.04570375
 195233542, 0.1778051, -0.03363843, 0.03860054, 0.001089464, 0.04249516, -0.006543667, 0.05508698, 0.0005187924, -0.9977809, -0.03832321, 0.04570375
 195434295, 0.1447834, -0.0224431, 0.1589482, 0.001091626, 0.04701495, -0.005437294, -0.01322624, 0.000520954, -0.9978161, -0.03466934, 0.04579443
 195634215, 0.1691841, 0.0002915263, -0.1602708, 0.001091626, 0.07339399, -0.004914876, -0.08750741, 0.0005187924, -0.9982774, -0.02831176, 0.04121499
 195834135, 0.1821129, -0.01675872, -0.08797105, 0.001089464, 0.04862902, 1.933676E-05, 0.02864002, 0.0005187924, -0.9982572, -0.02605872, 0.04570375
 196034055, 0.1415558, -0.001550416, 0.01255574, 0.001089464, 0.0549969, 0.001618848, -0.05012172, 0.0005187924, -0.9984401, -0.02300439, 0.04570375
 196233975, 0.1391798, 0.009569176, -0.09523065, 0.001089464, 0.03682305, 0.006871842, -0.01827424, 0.0005187924, -0.9985142, -0.02172217, 0.05027412
 196433895, 0.1040759, 0.002662495, -0.04625829, 0.001089464, 0.0385519, 0.001531728, -0.01463581, 0.0005187924, -0.9986162, -0.01767781, 0.04570375
 196633815, 0.1236427, -0.01113118, -0.02155928, 0.001089464, 0.04198689, -0.002261442, -0.01496431, 0.0005187924, -0.9986663, -0.0142034, 0.04570375
 196833735, 0.1410161, -0.01139589, -0.01534127, 0.001089464, 0.04370579, 0.00155355, 0.02644863, 0.0005187924, -0.9986762, -0.01101237, 0.04570375
 197033655, 0.1168918, 0.00668426, 0.04540813, 0.001089464, 0.02844563, 0.01134966, -0.01392055, 0.0005187924, -0.9986911, -0.009387182, 0.04570375
 197233575, 0.08190557, 0.01727319, -0.0305536, 0.001089464, 0.02264812, -0.0008557939, 0.01709187, 0.0005187924, -0.9987197, -0.006873548, 0.04570375
 197433495, 0.0597151, -0.003631443, 0.00419667, 0.001089464, 0.01773958, -0.007811418, -0.003329757, 0.0005187924, -0.9987518, -0.005584275, 0.04570375
 197634248, 0.05523673, -0.02109296, 0.02721147, 0.001091626, 0.03624167, -0.001107236, 0.02625992, 0.000520954, -0.9987214, -0.003436816, 0.04121499
 197834168, 0.09231108, 0.003308514, -0.02510162, 0.001091626, 0.02262822, 0.0009732108, -0.0197615, 0.0005187924, -0.9987947, -0.002763884, 0.04579443
 198034088, 0.0354553, -0.02214453, -0.01545114, 0.001089464, 0.01207734, -0.003701856, -0.006711811, 0.0005187924, -0.998785, -0.002018003, 0.04570375
 198234008, 0.02029853, -0.02522817, -0.0561301, 0.001089464, 0.002999976, 0.006879501, -0.02940155, 0.0005187924, -0.9988699, -0.0005308459, 0.04570375
 198433928, 0.0238449, 0.01504471, -0.04124395, 0.001089464, 0.01255229, 0.02881774, -0.02528648, 0.0005187924, -0.9988965, 0.0003272294, 0.05027412
 198633848, 0.03091606, 0.05661745, 0.02117966, 0.001089464, 0.006262942, 0.002479581, 0.01633572, 0.0005187924, -0.998774, 0.00166243, 0.04570375
 198833768, 0.02650243, -0.04850034, 0.06841384, 0.001089464, 0.006297173, -0.01414661, -0.002041191, 0.0005187924, -0.9987243, 0.002264573, 0.04570375
 199033688, 0.03803727, 0.02068799, -0.1375748, 0.001089464, 0.004104237, 0.04538119, -0.05771178, 0.0005187924, -0.9989677, 0.001486099, 0.04570375
 199233608, 0.0005598799, 0.1174628, -0.04057138, 0.001089464, -0.01045277, 0.01693103, 0.03793438, 0.0005187924, -0.9988518, 0.002716115, 0.04570375
 199433528, 0.01299911, 0.02303184, 0.1378736, 0.001089464, 0.01878121, -0.002357459, 0.05188763, 0.0005187924, -0.9986643, 0.005107134, 0.04570375
 199634281, 0.03546837, -0.009356917, 0.129999, 0.001091626, -0.000212649, -0.006687859, 0.007789448, 0.000520954, -0.9986135, 0.003546769, 0.04121499
 199834201, 0.004104063, 0.01134288, -0.01549226, 0.001091626, 0.007898491, 0.01642405, -0.02102388, 0.0005187924, -0.9986553, 0.005624488, 0.04579443
 200034121, 0.01757561, 0.01979898, 0.02744482, 0.001089464, 0.002960199, -0.009953352, 0.02844207, 0.0005187924, -0.9985294, 0.005028107, 0.04570375
 200234041, -0.02674175, -0.01080375, 0.03946991, 0.001089464, -0.01767717, -0.0005875664, -0.01915441, 0.0005187924, -0.9985608, 0.003738005, 0.04570375
 200433961, -0.02822638, 0.01055766, -0.01105648, 0.001089464, 0.01548879, 0.008070036, 0.02788382, 0.0005187924, -0.9984963, 0.005423766, 0.05027412
 200633881, 0.02335478, 0.02964669, -0.03625019, 0.001089464, -0.00372753, 0.005249183, -0.06149292, 0.0005187924, -0.9986861, 0.003702029, 0.04570375
 200833801, -0.04106, 0.007069462, -0.04995798, 0.001089464, -0.03898827, -0.01204583, 0.02934474, 0.0005187924, -0.998597, 0.003333584, 0.04570375
 201033721, -0.08638461, -0.01502434, 0.04367963, 0.001089464, -0.006937264, 0.01276851, -0.04536816, 0.0005187924, -0.9986277, 0.003733109, 0.04570375
 201233641, -0.0279782, 0.02698052, -0.03919952, 0.001089464, -0.0163391, 0.002689544, 0.04700658, 0.0005187924, -0.9985234, 0.002966529, 0.04570375
 201433561, -0.02116259, 0.003618543, 0.1361728, 0.001089464, -0.008694128, 0.01132961, -0.008509378, 0.0005187924, -0.9984731, 0.003401577, 0.04570375
 201633481, -0.01320968, 0.02186451, -0.09073006, 0.001089464, -0.008270724, 0.004069745, 0.01834126, 0.0005187924, -0.9985582, 0.002936892, 0.04570375
 201834234, -0.0009473069, -0.0004690894, 0.06596351, 0.001091626, 0.001652793, -0.003667255, 0.04219309, 0.000520954, -0.9984568, 0.003732549, 0.04121499
 202034154, 0.01053512, 0.01546705, 0.10453, 0.001091626, 0.005562906, 0.01718573, 0.02139027, 0.0005187924, -0.9983704, 0.002858767, 0.04579443
 202234074, -0.0005361591, 0.06127494, 0.01164066, 0.001089464, -0.00122301, 0.01305784, -0.01685945, 0.0005187924, -0.998398, 0.004146218, 0.04570375
 202433994, 0.0006164899, 0.01690512, 0.007089132, 0.001089464, -0.01000995, 0.009458944, 0.00795745, 0.0005187924, -0.9983363, 0.00303784, 0.04570375
 202633914, -0.05099929, 0.005831061, 0.03400714, 0.001089464, -0.02811189, 0.004343006, 0.004463222, 0.0005187924, -0.9982927, 0.002081178, 0.05027412
 202833834, -0.04793767, 0.01502217, 0.01783144, 0.001089464, 0.004117361, 0.003341131, -0.01773001, 0.0005187924, -0.9982992, 0.0008810466, 0.04570375
 203033754, 0.02279427, 0.009151008, -0.01824957, 0.001089464, 0.01749199, 0.004372493, 0.0177772, 0.0005187924, -0.9982529, 0.003043167, 0.04570375
 203233674, 0.02426153, 0.004646937, 0.0261982, 0.001089464, -0.004570079, -0.00172453, -0.002272174, 0.0005187924, -0.998298, 0.001159454, 0.04570375
 203433594, -0.01767095, 0.002407803, -0.02482852, 0.001089464, -7.464897E-05, 0.008197402, -0.03387088, 0.0005187924, -0.998347, 0.001074874, 0.04570375
 203633514, -0.005959801, 0.01155436, -0.01288889, 0.001089464, 0.0007528673, -0.01233483, 0.06355899, 0.0005187924, -0.9981852, 0.0001237654, 0.04570375
 203834267, -0.02695456, -0.054621, 0.1300606, 0.001091626, -0.02148895, -0.03946096, -0.009579114, 0.000520954, -0.9981334, -0.001671964, 0.04121499
 204034187, -0.06878224, -0.06631151, 0.02113928, 0.001091626, -0.02279004, 0.01219959, 0.008412161, 0.0005187924, -0.9980527, -0.002259357, 0.04579443
 204234107, -0.04629049, 0.02475458, 0.01470702, 0.001089464, -0.0128637, -0.004454425, -0.01946673, 0.0005187924, -0.998115, -0.00214779, 0.04570375
 204434027, -0.01356835, -0.001585077, -0.05708111, 0.001089464, 0.001815172, -0.005301601, 0.00913512, 0.0005187924, -0.9981223, -0.002810996, 0.04570375
 204633947, -0.00314367, -0.01252217, 0.01515831, 0.001089464, -0.009845183, 0.00588233, 0.01062092, 0.0005187924, -0.9981107, -0.0042311, 0.05027412
 204833867, -0.0818442, 0.005102173, 0.02124245, 0.001089464, -0.03809058, -0.005149902, 0.005071423, 0.0005187924, -0.9980914, -0.00478424, 0.04570375
 205033787, -0.06252367, -0.00957677, 0.04423697, 0.001089464, 0.010925, -0.001012819, 0.04194212, 0.0005187924, -0.9979829, -0.003200952, 0.04570375
 205233707, 0.03402384, 0.004981367, -0.0190142, 0.001089464, -0.0004726674, 0.003234196, -0.07668678, 0.0005187924, -0.9982033, -0.003674666, 0.04570375
 205433627, -0.01516601, 0.002873959, -0.05473482, 0.001089464, -0.02142738, -0.003563634, 0.04700248, 0.0005187924, -0.9980373, -0.005550241, 0.04570375
 205633547, -0.03651844, 0.006834744, 0.1248516, 0.001089464, -0.001403194, 0.006846979, 0.0468696, 0.0005187924, -0.9978759, -0.004778238, 0.04570375
 205834300, -0.01845563, 0.02396533, 0.07508393, 0.001091626, -0.005857278, 0.006668665, -0.009235787, 0.0005187924, -0.9978914, -0.005274521, 0.04579443
 206034220, -0.0205741, 0.0254718, -0.1267393, 0.001091626, -0.01434842, 0.01252475, -0.06368132, 0.000520954, -0.9981079, -0.007296785, 0.04121499
 206234140, -0.04259101, 0.01574171, -0.07423364, 0.001091626, -0.006546319, -0.01450183, 0.04424679, 0.0005187924, -0.9980575, -0.00678044, 0.04579443
 206434060, 0.02463603, -0.01330132, 0.1143931, 0.001089464, 0.02144764, 0.0004620561, 0.03276915, 0.0005187924, -0.9979432, -0.005704843, 0.04570375
 206633980, 0.03210354, 0.01749529, 0.037495, 0.001089464, -0.001423767, 0.008489354, 0.0122398, 0.0005187924, -0.9979447, -0.007246625, 0.05027412
 206833900, -0.01012907, 0.03341424, -0.002531955, 0.001089464, -0.008857008, 0.005170381, -0.04033211, 0.0005187924, -0.9980383, -0.006918501, 0.04570375
 207033820, -0.01648622, 0.05589238, -0.0509116, 0.001089464, 0.01023776, 0.01226491, 0.004429189, 0.0005187924, -0.9980134, -0.006445528, 0.04570375
 207233740, 0.03645421, -0.01412733, 0.0619988, 0.001089464, 0.01833721, -0.04681611, 0.01932592, 0.0005187924, -0.9978631, -0.005204677, 0.04570375
 207433660, 0.03101539, -0.09377226, 0.1129094, 0.001089464, 0.006814785, -0.01273778, 0.02832147, 0.0005187924, -0.9976658, -0.006238628, 0.04570375
 207633580, 0.009567043, -0.001948032, -0.01567005, 0.001089464, 0.003875853, 0.01540753, -0.03888539, 0.0005187924, -0.9978647, -0.005193621, 0.04570375
 207833500, 0.010121, 0.07812434, -0.1076443, 0.001089464, -0.006657529, 0.05525829, -0.005753313, 0.0005187924, -0.9979451, -0.006161696, 0.04570375
 208034253, -0.01591443, 0.09913545, -0.002275736, 0.001091626, -0.008847911, 0.008372301, -0.02425526, 0.000520954, -0.9979763, -0.005592732, 0.04121499
 208234173, -0.006280021, -0.02038249, -0.01929631, 0.001091626, 0.007653754, -0.03158744, 0.04034717, 0.0005187924, -0.9978725, -0.005018712, 0.04579443
 208434093, 0.01744217, -0.09388756, 0.1235048, 0.001089464, 0.0008271211, 0.004018636, 0.04713664, 0.0005187924, -0.9977213, -0.005038904, 0.04570375
 208634013, 0.01757948, 0.0647251, 0.0224211, 0.001089464, 0.01359341, 0.06456531, -0.02588852, 0.0005187924, -0.9978781, -0.003225347, 0.04570375
 208833933, 0.04199237, 0.1254036, -0.1025775, 0.001089464, 0.0009619835, 0.006128863, -0.007689069, 0.0005187924, -0.9980165, -0.003592846, 0.05027412
 209033853, 0.01730291, 0.01083357, -0.06190471, 0.001089464, 0.009444163, 0.004658493, -0.004936341, 0.0005187924, -0.9980885, -0.002969712, 0.04570375
 209233773, 0.01512213, 0.007133034, 0.003008505, 0.001089464, -0.0105912, 0.003120164, 0.01754297, 0.0005187924, -0.9980302, -0.004747045, 0.04570375
 209433693, -0.02998963, 0.008497508, 0.09447472, 0.001089464, 0.009668533, -0.007702111, 0.005426333, 0.0005187924, -0.9979112, -0.003012147, 0.04570375
 209633613, 0.02052366, -0.002165802, 0.06207199, 0.001089464, 0.00081239, 0.00315798, 0.004567035, 0.0005187924, -0.9978175, -0.003485794, 0.04570375
 209833533, -0.004041741, 0.007418099, -0.008348253, 0.001089464, -0.0006474728, 0.002233268, -0.01160291, 0.0005187924, -0.9978585, -0.003242145, 0.04570375
 210034286, 0.003538942, 0.003348828, -0.007135588, 0.001091626, 0.0003892363, -0.0007256616, -0.02313319, 0.000520954, -0.9978672, -0.002074988, 0.04121499
 210234206, 0.01326091, 0.006378384, 0.007613396, 0.001091626, -0.001142694, -0.0009088708, 0.0582782, 0.0005187924, -0.9977609, -0.002865691, 0.04579443
 210434126, -0.008996283, 0.007641751, 0.06187008, 0.001089464, -0.002026436, 0.00422617, -0.01165963, 0.0005187924, -0.997777, -0.002380697, 0.04570375
 210634046, 0.1100536, 0.01056109, -0.009987906, 0.001089464, 0.2178452, 0.002173262, -0.02791299, 0.0005187924, -0.9976006, -0.01652258, 0.04570375
 210833966, -0.9174867, 0.06458014, -0.3599463, 0.001089464, -1.352713, 0.08161968, -0.07076731, 0.0005187924, -0.9916335, -0.08116151, 0.05027412
 211033886, -4.921685, 0.4019275, 1.223452, 0.001089464, -1.741876, 0.170853, 0.7794068, 0.0005187924, -0.9914373, -0.1104856, 0.04570375
 211233806, -8.02969, 1.692566, 0.3496476, 0.001089464, -3.61369, 1.285242, -1.162291, 0.0005187924, -0.9454076, -0.3238953, 0.04570375
 211433726, -9.624821, 4.393076, -4.52248, 0.001089464, -1.724254, 1.173206, -1.308063, 0.0005187924, -0.8657255, -0.4905262, 0.04570375
 211633646, -3.665023, 2.546104, -2.312141, 0.001089464, -0.4455422, 0.3111979, 0.1295783, 0.0005187924, -0.8321337, -0.5488916, 0.04570375
 211833566, -1.01528, 0.8497674, 1.034562, 0.001089464, -0.1873253, 0.2627739, 0.5121856, 0.0005187924, -0.8211185, -0.5690364, 0.04570375
 212033486, -0.8043391, 1.073761, 1.427004, 0.001089464, -0.3708853, 0.4460571, 0.317935, 0.0005187924, -0.80277, -0.5956996, 0.04570375
 212234239, -1.339363, 1.524402, 0.8153384, 0.001091626, -0.5105659, 0.5514405, 0.2093538, 0.000520954, -0.7749574, -0.6318144, 0.04121499
 212434159, -1.621356, 1.730556, 0.478913, 0.001091626, -0.5678217, 0.6089043, 0.09269117, 0.0005187924, -0.7408825, -0.6715694, 0.04579443
 212634079, -1.630875, 1.834049, 0.282649, 0.001089464, -0.5353903, 0.636498, 0.06620549, 0.0005187924, -0.7043034, -0.7098916, 0.04570375
 212833999, -1.523766, 1.896576, 0.2457435, 0.001089464, -0.4780827, 0.639224, 0.08412408, 0.0005187924, -0.6659275, -0.7460028, 0.04570375
 213033919, -1.416533, 1.971309, 0.2224325, 0.001089464, -0.4047163, 0.6177711, 0.06553841, 0.0005187924, -0.6258358, -0.7798997, 0.05027412
 213233839, -1.236564, 1.957826, 0.2250132, 0.001089464, -0.3502098, 0.5942186, 0.09199591, 0.0005187924, -0.585821, -0.8102899, 0.04570375
 213433759, -1.111329, 1.953753, 0.2423461, 0.001089464, -0.3306449, 0.6292418, 0.0600319, 0.0005187924, -0.5433784, -0.8392177, 0.04570375
 213633679, -1.009894, 1.976901, 0.2231381, 0.001089464, -0.2883246, 0.6036353, 0.0728332, 0.0005187924, -0.5025265, -0.8641284, 0.04570375
 213833599, -0.8680641, 1.91581, 0.2264436, 0.001089464, -0.2468351, 0.5972171, 0.0717757, 0.0005187924, -0.4622255, -0.8861446, 0.04570375
 214033519, -0.7602768, 1.913281, 0.2173324, 0.001089464, -0.2221839, 0.6081471, 0.05126237, 0.0005187924, -0.4197836, -0.9067656, 0.04570375
 214234272, -0.6678087, 1.968186, 0.1585701, 0.001091626, -0.2070642, 0.6603604, 0.03929345, 0.000520954, -0.3771544, -0.9251041, 0.04121499
 214434192, -0.5797275, 1.910657, 0.216845, 0.001091626, -0.1670142, 0.6143461, 0.1099434, 0.0005187924, -0.3375881, -0.9398456, 0.04579443
 214634112, -0.4847571, 1.898525, 0.2089956, 0.001089464, -0.1556342, 0.6653193, 0.02550768, 0.0005187924, -0.2959637, -0.9535859, 0.04570375
 214834032, -0.3978438, 1.907836, 0.1204519, 0.001089464, -0.1191366, 0.5919647, 0.08008996, 0.0005187924, -0.2567272, -0.9645065, 0.04570375
 215033952, -0.3125784, 1.804412, 0.1549271, 0.001089464, -0.08413344, 0.5570365, 0.01223561, 0.0005187924, -0.2168373, -0.9740753, 0.05027412
 215233872, -0.2293682, 1.690003, 0.107201, 0.001089464, -0.05757768, 0.4765925, 0.06572773, 0.0005187924, -0.1809724, -0.9809738, 0.04570375
 215433792, -0.1564431, 1.531208, 0.1656716, 0.001089464, -0.03512796, 0.4734086, 0.01970685, 0.0005187924, -0.1457869, -0.9864677, 0.04570375
 215633712, -0.08291477, 1.471961, 0.0928268, 0.001089464, -0.01385333, 0.4521668, 0.02308465, 0.0005187924, -0.1114707, -0.99055, 0.04570375
 215833632, -0.02912478, 1.417667, 0.06260711, 0.001089464, -0.005899374, 0.4353054, 0.002111448, 0.0005187924, -0.07941581, -0.9933642, 0.04570375
 216033552, -1.607649E-05, 1.33564, 0.05057494, 0.001089464, 0.01054495, 0.4017925, 0.003432617, 0.0005187924, -0.04974999, -0.9950269, 0.04570375
 216234305, 0.04391069, 1.209813, 0.05221995, 0.001091626, 0.01219146, 0.3580942, 0.02099637, 0.0005187924, -0.02175009, -0.9957067, 0.04579443
 216434225, 0.05278629, 1.134444, 0.03922796, 0.001091626, 0.02441582, 0.3852902, 0.01046064, 0.000520954, 0.006278955, -0.9956399, 0.04121499
 216634145, 0.07829955, 1.085193, 0.03844297, 0.001091626, 0.03181046, 0.3244662, 0.0274316, 0.0005187924, 0.02896059, -0.9949589, 0.04579443
 216834065, 0.07781643, 0.9583521, 0.03320692, 0.001089464, 0.03321981, 0.2969184, 0.007202451, 0.0005187924, 0.05160466, -0.993852, 0.04570375
 217033985, 0.07329375, 0.8254288, 0.07460115, 0.001089464, 0.01569815, 0.2520549, 0.04423825, 0.0005187924, 0.06921004, -0.9923852, 0.04570375
 217233905, 0.03257377, 0.733466, 0.02312607, 0.001089464, 0.01911069, 0.2143758, -0.0431141, 0.0005187924, 0.08812714, -0.9909201, 0.05027412
 217433825, 0.04964354, 0.6599209, -0.06702267, 0.001089464, 0.004203587, 0.1865658, 0.01006935, 0.0005187924, 0.104471, -0.9891401, 0.04570375
 217633745, 0.01421189, 0.5551656, 0.01753175, 0.001089464, 0.009934957, 0.1539755, -0.01154361, 0.0005187924, 0.1183348, -0.9874926, 0.04570375
 217833665, 0.04134421, 0.478448, -0.06491204, 0.001089464, 0.003776453, 0.123485, 0.015779, 0.0005187924, 0.1305587, -0.9859756, 0.04570375
 218033585, 0.01519006, 0.4028413, -0.04450106, 0.001089464, 0.001561959, 0.1276406, -0.05702436, 0.0005187924, 0.1429386, -0.9844336, 0.04570375
 218233505, 0.007814023, 0.3670542, -0.1013798, 0.001089464, -0.001588495, 0.09036529, 0.0007264092, 0.0005187924, 0.1516365, -0.9831367, 0.04570375
 218434258, -0.03674923, 0.2735752, -0.05149717, 0.001091626, -0.03316153, 0.08879232, -0.06076697, 0.000520954, 0.1591241, -0.9821509, 0.04121499
 218634178, -0.07222585, 0.234547, -0.1750227, 0.001091626, -0.009073116, 0.06528261, -0.08596115, 0.0005187924, 0.1670089, -0.9811583, 0.04579443
 218834098, -0.008792498, 0.1728261, -0.1719827, 0.001089464, 0.008185642, 0.03959382, -0.02818173, 0.0005187924, 0.1720646, -0.9804195, 0.04570375
 219034018, -0.002347705, 0.1172262, -0.1395835, 0.001089464, -0.02943266, 0.0271337, -0.06916244, 0.0005187924, 0.1741015, -0.9803733, 0.04570375
 219233938, -0.0764797, 0.02811662, -0.1641945, 0.001089464, -0.003248738, -0.01270307, -0.05176962, 0.0005187924, 0.175622, -0.9803442, 0.05027412
 219433858, -0.02812435, -0.04585132, -0.06486175, 0.001089464, -0.0219045, -0.02216741, 0.01203361, 0.0005187924, 0.1767774, -0.9801211, 0.04570375
 219633778, -0.06313529, -0.0792093, -0.1413784, 0.001089464, -0.02460865, -0.03632079, -0.07865, 0.0005187924, 0.1760401, -0.980748, 0.04570375
 219833698, -0.07006474, -0.1155645, -0.1409602, 0.001089464, -0.01673311, -0.04560006, -0.0184792, 0.0005187924, 0.1748146, -0.981053, 0.04570375
 220033618, -0.04360785, -0.1292472, -0.1133846, 0.001089464, -0.006314421, -0.03530774, -0.03707747, 0.0005187924, 0.1751626, -0.9812623, 0.04570375
 220233538, 0.003992932, -0.1340049, -0.1570213, 0.001089464, -0.006217959, -0.06389526, -0.04645215, 0.0005187924, 0.1707357, -0.9823343, 0.04570375
 220434291, -0.05431014, -0.2170052, -0.07455041, 0.001091626, -0.01890122, -0.05689491, 0.009728013, 0.000520954, 0.1681057, -0.9827898, 0.04579443
 220634211, -0.04876478, -0.2110002, -0.07361307, 0.001091626, 0.01280962, -0.08258248, -0.04624201, 0.0005187924, 0.1625813, -0.9839225, 0.04121499
 220834131, 0.002030785, -0.2675507, -0.1192819, 0.001089464, -0.01537764, -0.08956344, -0.06942072, 0.0005187924, 0.1579014, -0.984903, 0.04570375
 221034051, -0.04090963, -0.2609306, -0.1367383, 0.001089464, -0.008952135, -0.07970271, -0.02919726, 0.0005187924, 0.1541254, -0.985639, 0.04570375
