TimeUS,CAN,CAE,CAD,CAe
 157954293, -0.002784766, 0.003560096, -6.095593E-05, 0.0002615578
 158054253, -0.002773659, 0.00363892, -8.32034E-05, 0.0002593962
 158154213, -0.00285976, 0.003446398, 2.343194E-05, 0.0002593962
 158254173, 0.01084985, 0.00207627, -8.501466E-05, 0.0002593962
 158354133, 0.07345013, -0.005033076, -0.0002756256, 0.0002593962
 158454093, 0.1651929, -0.01482665, 0.0003625468, 0.0002593962
 158554053, 0.2697062, -0.02693696, 0.00369258, 0.0002593962
 158654013, 0.3767217, -0.03628655, 0.006895939, 0.0002593962
 158773965, 0.6037323, -0.06187447, 0.01201965, 0.0003112754
 158873925, 0.6076906, -0.06361396, 0.01218953, 0.0002593962
 158973885, 0.7065187, -0.07384076, 0.01446459, 0.0002593962
 159073845, 0.8033633, -0.08343863, 0.01642375, 0.0002593962
 159173805, 0.8858896, -0.09046248, 0.01870508, 0.0002593962
 159273765, 0.9498785, -0.1017374, 0.02068518, 0.0002593962
 159373725, 0.954969, -0.1016892, 0.02254997, 0.0002593962
 159473685, 0.9375772, -0.09425677, 0.02270013, 0.0002593962
 159573645, 0.893124, -0.09332833, 0.02243602, 0.0002593962
 159673605, 0.846473, -0.09217519, 0.02153377, 0.0002593962
 159773565, 0.7981452, -0.0925943, 0.02010606, 0.0002593962
 159873525, 0.7430938, -0.07317489, -0.01595229, 0.0002593962
 159973485, 0.7016174, -0.07153454, -0.04390764, 0.0002593962
 160074278, 0.6626176, -0.07368124, -0.009531582, 0.0002615578
 160174238, 0.6029363, -0.06605159, 0.02576716, 0.0002593962
 160274198, 0.9193257, -0.094673, -0.2062624, 0.0002593962
 160374158, 0.8857266, -0.08306967, -0.5320263, 0.0002593962
 160474118, 0.8164293, -0.07229438, -0.5511752, 0.0002593962
 160574078, 0.7495648, -0.07806605, -0.4550281, 0.0002593962
 160674038, 0.6995767, -0.08155943, -0.3014849, 0.0002593962
 160773998, 0.6657575, -0.0848726, -0.1772567, 0.0002593962
 160893950, 0.7606086, -0.09584457, -0.2247434, 0.0003112754
 160993910, 0.5765721, -0.06608433, -0.2136572, 0.0002593962
 161093870, 0.5285277, -0.04424576, -0.2477746, 0.0002593962
 161193830, 0.4922058, -0.03693049, -0.2300659, 0.0002593962
 161293790, 0.4602272, -0.04974075, -0.2000192, 0.0002593962
 161393750, 0.4266327, -0.05289447, -0.1649636, 0.0002593962
 161493710, 0.3929126, -0.04201272, -0.1731296, 0.0002593962
 161593670, 0.3713575, -0.03085331, -0.1477391, 0.0002593962
 161693630, 0.3304853, -0.03711903, -0.1839193, 0.0002593962
 161793590, 0.3023197, -0.0299961, -0.1708525, 0.0002593962
 161893550, 0.2872706, -0.0364419, -0.1084922, 0.0002593962
 161993510, 0.2702819, -0.03963654, -0.09721687, 0.0002593962
 162094303, 0.2453439, -0.03612793, -0.1009591, 0.0002593962
 162194263, 0.2252026, -0.02086999, -0.1091105, 0.0002615578
 162294223, 0.2084218, -0.01976696, -0.09720646, 0.0002593962
 162394183, 0.1905675, -0.01289918, -0.1087882, 0.0002593962
 162494143, 0.1696504, -0.009120896, -0.1254374, 0.0002593962
 162594103, 0.1517646, -0.01801865, -0.1208061, 0.0002593962
 162694063, 0.1453106, -0.03564237, -0.05081769, 0.0002593962
 162794023, 0.1339549, -0.02876126, -0.0462424, 0.0002593962
 162913975, 0.1538358, -0.01637813, -0.05361769, 0.0003112754
 163013935, 0.1158387, -0.008704904, -0.03599912, 0.0002593962
 163113895, 0.1052336, -0.02085178, -0.03958137, 0.0002593962
 163213855, 0.08898551, -0.01400323, -0.05943149, 0.0002593962
 163313815, 0.0823766, -0.0165912, -0.03615437, 0.0002593962
 163413775, 0.07418714, -0.004708818, -0.02194295, 0.0002593962
 163513735, 0.05757033, -0.004349228, -0.07467364, 0.0002593962
 163613695, 0.05608933, -0.01281717, -0.04297357, 0.0002593962
 163713655, 0.05215532, -0.01060138, -0.007495694, 0.0002593962
 163813615, 0.04626888, -0.003223454, -0.001798015, 0.0002593962
 163913575, 0.0354643, -0.002859608, -0.05096816, 0.0002593962
 164013535, 0.03829139, 0.009252694, -0.03654521, 0.0002593962
 164113495, 0.04031923, 0.00640366, -0.0192426, 0.0002593962
 164214288, 0.03537524, -0.006906075, 0.007927807, 0.0002615578
 164314248, 0.0406824, -0.005205983, 0.05134138, 0.0002593962
 164414208, 0.0187423, -0.008493779, -0.04135008, 0.0002593962
 164514168, 0.02273811, -0.006778637, -0.01740583, 0.0002593962
 164614128, 0.02752774, -0.004607494, 0.01668272, 0.0002593962
 164714088, 0.02309025, -0.003467866, 0.004482774, 0.0002593962
 164814048, 0.04612801, -0.003586694, 0.08367855, 0.0002593962
 164914008, 0.04494257, -0.00117385, 0.09545189, 0.0002593962
 165033960, 0.04731133, -0.007708009, 0.1000261, 0.0003112754
 165133920, 0.04019161, -0.01853501, 0.08072359, 0.0002593962
 165233880, 0.04641876, -0.006105417, 0.1156397, 0.0002593962
 165333840, 0.05283067, 0.005095138, 0.1242345, 0.0002593962
 165433800, 0.0524975, 0.008836599, 0.09932767, 0.0002593962
 165533760, 0.03516416, -0.01123067, 0.06225532, 0.0002593962
 165633720, 0.009924307, -0.01146803, 0.08989494, 0.0002593962
 165733680, 0.001028495, -0.001936799, 0.1007136, 0.0002593962
 165833640, -0.008286029, -0.002351343, 0.07407669, 0.0002593962
 165933600, 0.004700076, -0.003746482, 0.07905715, 0.0002593962
 166033560, 0.01621889, 0.002574702, 0.1134322, 0.0002593962
 166133520, 0.023824, -0.0008058099, 0.1021832, 0.0002593962
 166233480, 0.02150453, -0.004509606, 0.06331241, 0.0002593962
 166334273, 0.02107967, -0.007113219, 0.06535424, 0.0002615578
 166434233, 0.0194963, -0.004324995, 0.1003745, 0.0002593962
 166534193, 0.02027627, -0.009274936, 0.08361658, 0.0002593962
 166634153, 0.002510286, -0.01436275, 0.0703824, 0.0002593962
 166734113, -0.001392839, -0.003611483, 0.08919814, 0.0002593962
 166834073, -0.005111538, 0.0370348, 0.1037452, 0.0002593962
 166934033, -0.009001096, 0.06471188, 0.1247314, 0.0002593962
 167033993, -0.008078995, 0.06453734, 0.1622651, 0.0002593962
 167153945, -0.02523953, 0.05425936, 0.1384699, 0.0003112754
 167253905, -0.03001196, 0.01916871, 0.09927341, 0.0002593962
 167353865, -0.02967668, 0.007113932, 0.08846752, 0.0002593962
 167453825, -0.02991155, 0.008941589, 0.1133344, 0.0002593962
 167553785, -0.0288613, 0.009829922, 0.104575, 0.0002593962
 167653745, -0.02673111, 0.03255488, 0.1325441, 0.0002593962
 167753705, -0.01907643, 0.03994635, 0.1190111, 0.0002593962
 167853665, -0.02966997, 0.03337171, 0.108602, 0.0002593962
 167953625, -0.02574261, 0.02718012, 0.1006559, 0.0002593962
 168053585, -0.02748143, 0.0276342, 0.08219577, 0.0002593962
 168153545, -0.03292591, 0.02274646, 0.09172575, 0.0002593962
 168253505, -0.03039973, 0.02187821, 0.08109581, 0.0002593962
 168354298, -0.0337365, 0.0002007028, 0.128647, 0.0002593962
 168454258, -0.02385164, 0.006807707, 0.1226487, 0.0002615578
 168554218, -0.02560901, 0.01429081, 0.1231367, 0.0002593962
 168654178, -0.02632203, 0.0237623, 0.08982383, 0.0002593962
 168754138, -0.02835415, 0.026063, 0.0763953, 0.0002593962
 168854098, -0.03430517, 0.02199101, 0.04803584, 0.0002593962
 168954058, -0.02850327, 0.01750832, 0.09039741, 0.0002593962
 169054018, -0.02352788, 0.01989308, 0.1160267, 0.0002593962
 169173970, -0.02361833, 0.02787283, 0.1627123, 0.0003112754
 169273930, -0.0103021, 0.006857, 0.1486248, 0.0002593962
 169373890, -0.0137819, 0.007920541, 0.09823526, 0.0002593962
 169473850, -0.01541255, 0.004202094, 0.08319185, 0.0002593962
 169573810, -0.01021863, 0.02093603, 0.04378722, 0.0002593962
 169673770, -0.008543573, 0.02518303, 0.04471838, 0.0002593962
 169773730, -0.0140301, 0.01911978, 0.027306, 0.0002593962
 169873690, -0.01263053, 0.01175797, 0.02615866, 0.0002593962
 169973650, -0.0167101, 0.003452968, 0.06975988, 0.0002593962
 170073610, -0.01716422, 0.00161122, 0.09898642, 0.0002593962
 170173570, -0.01486119, 0.0156259, 0.07985885, 0.0002593962
 170273530, -0.003693646, 0.02126006, 0.06174619, 0.0002593962
 170373490, -0.00511333, 0.01829818, 0.07936438, 0.0002593962
 170474283, -0.003023077, -0.001904929, 0.0943485, 0.0002615578
 170574243, 1.304396E-05, 0.002855748, 0.07260396, 0.0002593962
 170674203, -0.005479259, -0.000517821, 0.05107758, 0.0002593962
 170774163, -0.003631736, -0.001265285, 0.02946725, 0.0002593962
 170874123, -0.004797281, 0.003195368, -0.01003336, 0.0002593962
 170974083, -0.008360364, 0.01825941, -0.001005219, 0.0002593962
 171074043, -0.004497899, 0.02061558, 0.04666497, 0.0002593962
 171174003, -0.003615448, 0.01219698, 0.03717608, 0.0002593962
 171293955, -0.01039954, 0.008829542, 0.03355186, 0.0003112754
 171393915, -0.005423425, 0.01111162, 0.02380699, 0.0002593962
 171493875, -0.004697768, 0.008874197, 0.05219728, 0.0002593962
 171593835, 0.0005262732, 0.007761285, 0.05804248, 0.0002593962
 171693795, 0.0008055263, 0.02707155, 0.03161521, 0.0002593962
 171793755, -0.001704209, 0.02620932, 0.00871487, 0.0002593962
 171893715, -0.00700719, 0.02295286, 0.03072711, 0.0002593962
 171993675, -0.004536077, 0.005443682, 0.02345932, 0.0002593962
 172093635, -0.0002572778, -0.004919622, 0.01422806, 0.0002593962
 172193595, 0.002048577, -0.0004762658, 0.02583571, 0.0002593962
 172293555, 0.005691695, 0.00515152, 0.01534887, 0.0002593962
 172393515, 0.001519601, 0.007572978, 0.02186411, 0.0002593962
 172493475, -0.003757001, 0.007013745, 0.001455211, 0.0002593962
 172594268, -0.004224891, -0.001986919, 0.01039401, 0.0002615578
 172694228, 0.003329292, -0.00155214, -0.009395283, 0.0002593962
 172794188, 0.003586804, 0.01626977, 0.01733003, 0.0002593962
 172894148, 0.001904047, 0.0243156, 0.04945653, 0.0002593962
 172994108, 0.007226742, 0.02567392, 0.03802871, 0.0002593962
 173094068, 0.00225603, 0.01317261, 0.03986394, 0.0002593962
 173194028, 0.002194459, 0.01230921, 0.006078214, 0.0002593962
 173313980, 0.006326716, 0.01308981, 0.0244948, 0.0003112754
 173413940, 0.004850989, 0.01229585, 0.00211428, 0.0002593962
 173513900, 0.005296714, 0.02127223, -0.009959613, 0.0002593962
 173613860, 0.002005082, 0.02232119, -0.01215301, 0.0002593962
 173713820, 0.003790379, 0.01493175, -0.01110369, 0.0002593962
 173813780, 0.002000135, 0.006912987, -0.02700479, 0.0002593962
 173913740, 0.002867644, 0.01568617, -0.01429848, 0.0002593962
 174013700, 0.00128867, 0.01706201, 0.01617451, 0.0002593962
 174113660, 0.007166178, 0.0122321, 0.02710964, 0.0002593962
 174213620, 0.004673539, 0.02094398, 0.0110551, 0.0002593962
 174313580, 0.002516288, 0.01848971, -0.007298925, 0.0002593962
 174413540, 0.006096633, 0.01874495, -0.01030971, 0.0002593962
 174513500, -0.001170755, 0.009873733, 0.01696265, 0.0002593962
 174614293, -0.004035583, 0.002970247, 0.02034411, 0.0002615578
 174714253, -0.002546288, 0.0004300866, 0.02853283, 0.0002593962
 174814213, 0.007153461, -0.002054976, 0.02859562, 0.0002593962
 174914173, 0.01301296, 0.005195537, 0.005799662, 0.0002593962
 175014133, 0.01396236, 0.007272271, 0.02119371, 0.0002593962
 175114093, 0.01458281, 0.00652988, 0.02032633, 0.0002593962
 175214053, 0.01010977, 0.004224585, 0.009305902, 0.0002593962
 175314013, 0.01329595, 0.01379075, -0.01847142, 0.0002593962
 175433965, 0.02223691, 0.01451495, 0.01210014, 0.0003112754
 175533925, 0.008395866, 0.009902263, -0.02578709, 0.0002593962
 175633885, 0.003115525, 0.009403829, -0.03718426, 0.0002593962
 175733845, 0.00429255, 0.01400463, -0.02347602, 0.0002593962
 175833805, 0.002071967, 0.0158445, 0.002563805, 0.0002593962
 175933765, 0.004156181, 0.002337521, 0.01848138, 0.0002593962
 176033725, 0.01736347, 0.005673798, 0.01014261, 0.0002593962
 176133685, 0.01300659, -0.0016965, -0.02072646, 0.0002593962
 176233645, 0.008345641, 0.001234828, -0.03965062, 0.0002593962
 176333605, 0.01208231, 0.001064137, -0.0310962, 0.0002593962
 176433565, 0.009026244, -0.00550578, -0.01535464, 0.0002593962
 176533525, 0.004152523, -0.00212664, 0.01587899, 0.0002593962
 176633485, 0.007153818, 0.006655646, -0.007332471, 0.0002593962
 176734278, 0.00481226, 0.01392265, -0.0257924, 0.0002615578
 176834238, 0.003556633, 0.01721301, 0.01664493, 0.0002593962
 176934198, 0.00559939, 0.01453132, 0.01929756, 0.0002593962
 177034158, 0.009016661, 0.00530125, 0.01852218, 0.0002593962
 177134118, 0.009087602, 0.004897123, -0.002676446, 0.0002593962
 177234078, 0.003821737, 0.01418904, 0.004004716, 0.0002593962
 177334038, 0.004612255, 0.006224995, 0.02198876, 0.0002593962
 177433998, -0.0004088018, -0.001928956, 0.001114761, 0.0002593962
 177553950, 0.008044761, -0.001071282, -0.005931845, 0.0003112754
 177653910, 0.008800623, -0.001905229, -0.02410145, 0.0002593962
 177753870, 0.006719219, 0.01123613, -0.0286133, 0.0002593962
 177853830, 0.01032734, 0.005289554, -0.04610036, 0.0002593962
 177953790, 0.007650287, 1.486993E-05, -0.05037114, 0.0002593962
 178053750, 0.0007889761, -0.003113696, -0.0335689, 0.0002593962
 178153710, 0.003949962, 0.007040471, 0.0139333, 0.0002593962
 178253670, 0.003368293, 0.008026117, 0.02458977, 0.0002593962
 178353630, 0.005878975, 0.006236385, 0.01889753, 0.0002593962
 178453590, 0.009679336, 0.005413175, 0.01440736, 0.0002593962
 178553550, 0.007641297, 0.004190401, 0.01364989, 0.0002593962
 178653510, 0.002471605, 0.01211007, -0.001524554, 0.0002593962
 178754303, 0.005519559, 0.01703997, -0.003509262, 0.0002593962
 178854263, 0.01177023, 0.02296401, 0.01624582, 0.0002615578
 178954223, 0.01154774, 0.01808233, 0.007480299, 0.0002593962
 179054183, 0.01727131, 0.01780071, 0.005958452, 0.0002593962
 179154143, 0.01274199, 0.03113792, -0.02182525, 0.0002593962
 179254103, 0.01371886, 0.02530055, -0.03682613, 0.0002593962
 179354063, 0.009542508, 0.02497465, -0.0299881, 0.0002593962
 179454023, 0.00771177, 0.01558586, 0.01876278, 0.0002593962
 179573975, 0.009181688, 0.03168364, -0.01010984, 0.0003112754
 179673935, 0.002680209, 0.02055559, -0.03352852, 0.0002593962
 179773895, 0.003579365, 0.01069565, -0.02800537, 0.0002593962
 179873855, -0.0004148171, 0.01493296, -0.03007646, 0.0002593962
 179973815, 0.001973697, 0.02406567, -0.02311668, 0.0002593962
 180073775, 0.00690299, 0.0290606, 0.01424829, 0.0002593962
 180173735, 0.006840721, 0.01722367, 0.003704505, 0.0002593962
 180273695, 0.009690257, 0.02306859, -0.0004384384, 0.0002593962
 180373655, 0.0155989, 0.02549346, -0.005002957, 0.0002593962
 180473615, 0.009663638, 0.05015792, -0.02247655, 0.0002593962
 180573575, 0.003023714, 0.0919724, -0.003225972, 0.0002593962
 180673535, 0.002936191, 0.1419068, -0.02785538, 0.0002593962
 180773495, 0.0120794, 0.1728557, -0.01861222, 0.0002593962
 180874288, 0.01568047, 0.4932247, 0.06479549, 0.0002615578
 180974248, 0.01947051, 0.4632223, 0.06132458, 0.0002593962
 181074208, 0.01290932, 0.1408021, -0.1951046, 0.0002593962
 181174168, -0.01034597, -0.2111756, -0.2635385, 0.0002593962
 181274128, -0.01460094, -0.3561146, -0.03401583, 0.0002593962
 181374088, -0.003667293, -0.2647651, 0.1887627, 0.0002593962
 181474048, 0.005990853, -0.06496233, 0.1246641, 0.0002593962
 181574008, 0.006599688, 0.1194619, 0.009256292, 0.0002593962
 181693960, 0.005636078, 0.2806859, 0.04082648, 0.0003112754
 181793920, 0.003986916, 0.2004581, 0.04990186, 0.0002593962
 181893880, 0.002686772, 0.1008003, -0.0009410526, 0.0002593962
 181993840, -0.001132337, -0.01200124, -0.05292818, 0.0002593962
 182093800, 0.0118588, -0.08418202, -0.03078109, 0.0002593962
 182193760, 0.00343952, -0.09595503, 0.0214723, 0.0002593962
 182293720, 0.004731663, -0.05197562, -0.001665841, 0.0002593962
 182393680, -4.301444E-05, 0.005707651, -0.003048602, 0.0002593962
 182493640, 0.001732672, 0.04486182, -0.01161086, 0.0002593962
 182593600, -0.002279815, 0.06688176, -0.001336536, 0.0002593962
 182693560, 0.006131838, 0.06398407, -0.02209312, 0.0002593962
 182793520, 0.005040094, 0.04091053, -0.03326704, 0.0002593962
 182893480, 0.003976837, 0.003245447, -0.002922119, 0.0002593962
 182994273, 0.003682874, -0.02230676, 0.003474055, 0.0002615578
 183094233, -0.007912818, -0.01966786, 0.02618769, 0.0002593962
 183194193, 0.006372152, -0.006236884, -0.004727084, 0.0002593962
 183294153, 0.008747049, 0.008722471, -0.0477706, 0.0002593962
 183394113, 0.001457926, 0.03100536, -0.01308739, 0.0002593962
 183494073, 0.003537023, 0.03391825, -0.009809697, 0.0002593962
 183594033, 0.004119377, 0.02599205, -0.01722455, 0.0002593962
 183693993, -0.0001466547, 0.02008469, 0.02503458, 0.0002593962
 183813945, 0.002444031, 0.02252294, 0.004300438, 0.0003112754
 183913905, -0.005255776, 0.008309954, 0.008417147, 0.0002593962
 184013865, -0.02186899, 0.00508706, -0.009398218, 0.0002593962
 184113825, -0.03556278, 0.008690357, -0.03907315, 0.0002593962
 184213785, -0.03737694, 0.01622587, -0.01625783, 0.0002593962
 184313745, -0.0411855, 0.0207143, -0.01836668, 0.0002593962
 184413705, -0.03444923, 0.022792, -0.00858548, 0.0002593962
 184513665, -0.03448976, 0.02352477, 0.02102533, 0.0002593962
 184613625, -0.03400591, 0.01535384, 0.03794418, 0.0002593962
 184713585, -0.03022453, 0.01353, 0.03283497, 0.0002593962
 184813545, -0.02817477, 0.01572311, -0.0001126124, 0.0002593962
 184913505, -0.0232799, 0.01750419, 0.01711262, 0.0002593962
 185014298, -0.02470163, 0.002378209, -0.01701963, 0.0002593962
 185114258, -0.02295801, -0.002564107, -0.002379911, 0.0002615578
 185214218, -0.02080993, -0.002865857, 0.0456229, 0.0002593962
 185314178, -0.01979454, 0.0006553424, 0.04089629, 0.0002593962
 185414138, -0.01794267, 0.00389513, -0.03484063, 0.0002593962
 185514098, -0.02054701, 0.004795557, -0.02485497, 0.0002593962
 185614058, -0.02002441, -0.0001381679, 0.005416848, 0.0002593962
 185714018, -0.02372472, -0.01002235, -0.01370011, 0.0002593962
 185833970, -0.03478796, 0.0004833614, -0.02900806, 0.0003112754
 185933930, -0.01934837, 0.0005782206, -0.01910575, 0.0002593962
 186033890, -0.02909643, 0.0002213866, -0.04167167, 0.0002593962
 186133850, -0.03012914, 0.0002487483, -0.02804881, 0.0002593962
 186233810, -0.0291475, 0.002023943, 0.007056693, 0.0002593962
 186333770, -0.02763586, 0.01672397, -0.002326493, 0.0002593962
 186433730, -0.03699136, 0.0123072, -0.0202138, 0.0002593962
 186533690, -0.03098612, 0.009491613, -0.02316916, 0.0002593962
 186633650, -0.02711377, 0.008303232, -0.03364093, 0.0002593962
 186733610, -0.02774112, 0.01069053, -0.0351805, 0.0002593962
 186833570, -0.02811796, -0.004890888, -0.01741382, 0.0002593962
 186933530, -0.02898057, 0.0008671224, -0.01244985, 0.0002593962
 187033490, -0.02682468, 0.006649698, 0.02338211, 0.0002593962
 187134283, -0.02650588, -0.002373733, 0.01611766, 0.0002615578
 187234243, -0.02704461, -0.00963556, 0.01790508, 0.0002593962
 187334203, -0.02299006, -0.01026442, -0.009208246, 0.0002593962
 187434163, -0.02239878, -0.003601634, -0.01642395, 0.0002593962
 187534123, -0.02413378, 0.003630624, -0.01342639, 0.0002593962
 187634083, -0.02532525, 0.01128446, -0.0201279, 0.0002593962
 187734043, -0.02025594, -0.005187511, 0.02800995, 0.0002593962
 187834003, -0.0204355, -0.01317996, 0.04897191, 0.0002593962
 187953955, -0.02370676, -0.01525915, 0.06834674, 0.0003112754
 188053915, -0.01499791, -0.01065416, -0.009072554, 0.0002593962
 188153875, -0.02138516, 0.004206592, -0.03775816, 0.0002593962
 188253835, -0.02060922, -0.001983449, -0.04003757, 0.0002593962
 188353795, -0.01438024, -0.005843407, 0.001589425, 0.0002593962
 188453755, -0.01824501, -0.007139641, 0.03511157, 0.0002593962
 188553715, -0.01570122, -0.01786653, 0.07823881, 0.0002593962
 188653675, -0.01681578, 0.005924878, 0.07949868, 0.0002593962
 188753635, -0.003667588, 0.07078595, 0.08878656, 0.0002593962
 188853595, -0.0005485271, 0.09923289, 0.08945962, 0.0002593962
 188953555, -0.0006027195, 0.07471873, 0.0334623, 0.0002593962
 189053515, -0.003018759, 0.02004544, 0.006505738, 0.0002593962
 189153475, -0.0003762887, -0.0259082, -0.01668466, 0.0002593962
 189254268, -0.004069904, -0.04312737, 0.02349889, 0.0002615578
 189354228, -0.00475869, -0.02218583, -0.001920428, 0.0002593962
 189454188, -0.004945223, -0.006634152, -0.05057237, 0.0002593962
 189554148, -0.01064952, -0.006550023, -0.04649626, 0.0002593962
 189654108, -0.02020442, -0.02619675, -0.08661745, 0.0002593962
 189754068, -0.01191295, -0.02065668, -0.03878767, 0.0002593962
 189854028, -0.00891033, 0.002032637, -0.02222665, 0.0002593962
 189973980, -0.0161143, 0.006445949, -0.01040723, 0.0003112754
 190073940, -0.01415541, -0.001972451, -0.00434713, 0.0002593962
 190173900, -0.0148318, -0.01589488, -0.03258548, 0.0002593962
 190273860, -0.01793697, 0.009035172, 0.001766185, 0.0002593962
 190373820, -0.01807997, 0.0585747, 0.01564686, 0.0002593962
 190473780, -0.008114734, 0.03730733, 0.01866424, 0.0002593962
 190573740, -0.01224226, -0.01613828, 0.020335, 0.0002593962
 190673700, -0.007983268, -0.02778424, 0.02394851, 0.0002593962
 190773660, 0.0003855511, -0.0008498512, -0.03914731, 0.0002593962
 190873620, -0.002306714, 0.02880687, -0.04814028, 0.0002593962
 190973580, -0.01298916, 0.0143125, -0.02560992, 0.0002593962
 191073540, -0.01282036, -0.01095192, -0.02186657, 0.0002593962
 191173500, -0.02015223, -0.01869631, -0.03545206, 0.0002593962
 191274293, -0.02243188, 0.001141465, -0.02295784, 0.0002615578
 191374253, -0.02142769, -0.005341142, 0.01379821, 0.0002593962
 191474213, -0.03324775, 0.004902171, 0.03397746, 0.0002593962
 191574173, -0.0446027, 0.003819905, -0.008857368, 0.0002593962
 191674133, -0.02275852, -0.00107186, 0.005620071, 0.0002593962
 191774093, 0.003722827, 0.01267453, -0.0197092, 0.0002593962
 191874053, 0.01604076, 0.019308, -0.006528435, 0.0002593962
 191974013, -0.002577482, 0.01336643, -0.01386931, 0.0002593962
 192093965, -0.01632564, 0.004916825, -0.04709458, 0.0003112754
 192193925, -0.02006594, -0.003749292, -0.03021376, 0.0002593962
 192293885, -0.01895129, 0.001821759, -0.01108724, 0.0002593962
 192393845, -0.01529578, 0.01445375, -0.03453274, 0.0002593962
 192493805, -0.004697257, 0.0133624, -0.02591311, 0.0002593962
 192593765, -0.008390633, 0.004503721, -0.0008056085, 0.0002593962
 192693725, -0.01139356, -0.005514998, 0.0135322, 0.0002593962
 192793685, -0.01217738, -0.007732505, 0.03560625, 0.0002593962
 192893645, -0.01503515, -0.005614344, 0.004373574, 0.0002593962
 192993605, -0.01330968, -0.005207837, -0.02458123, 0.0002593962
 193093565, -0.01588617, 0.01359307, -0.02418157, 0.0002593962
 193193525, -0.01265694, 0.01663478, -0.01522061, 0.0002593962
 193293485, -0.02018729, 0.006068836, -0.0004715081, 0.0002593962
 193394278, -0.01706116, -0.008323274, -0.03284441, 0.0002615578
 193494238, -0.01921147, -0.01996878, -0.04549111, 0.0002593962
 193594198, -0.01576199, 0.001676439, -0.004919515, 0.0002593962
 193694158, -0.01990397, 0.0149432, 0.01031626, 0.0002593962
 193794118, -0.03901032, 0.02223487, 0.02488772, 0.0002593962
 193894078, -0.03989, 0.006628858, 0.03020318, 0.0002593962
 193994038, -0.008522835, -0.01884891, 0.002168855, 0.0002593962
 194093998, 0.02012218, -0.00683121, -0.05716261, 0.0002593962
 194213950, 0.007939445, 0.01962847, -0.05891166, 0.0003112754
 194313910, -0.0234166, 0.002823289, 0.004113717, 0.0002593962
 194413870, -0.06163537, -0.01075801, -0.003188421, 0.0002593962
 194513830, -0.04409328, -0.008116214, 0.00569582, 0.0002593962
 194613790, -0.01740178, 0.01372361, -0.04522866, 0.0002593962
 194713750, -0.006298698, 0.01714118, -0.02357493, 0.0002593962
 194813710, -0.004334122, 0.001351647, -0.0354783, 0.0002593962
 194913670, -0.008789895, 0.0002074929, -0.01906743, 0.0002593962
 195013630, -0.008233429, -0.004914702, -0.0183439, 0.0002593962
 195113590, -0.02041787, -0.007852599, -0.0218812, 0.0002593962
 195213550, -0.002334533, -0.009598995, 0.02748774, 0.0002593962
 195313510, -0.01261329, -0.004323035, 0.06509271, 0.0002593962
 195414303, -0.02269192, -0.001231388, 0.06413125, 0.0002593962
 195514263, -0.01926446, -0.0005663692, -0.0107582, 0.0002615578
 195614223, -0.02416052, 0.00517663, -0.06032145, 0.0002593962
 195714183, -0.01565224, 0.01095373, -0.001586212, 0.0002593962
 195814143, -0.01511615, -0.004086447, 0.03086344, 0.0002593962
 195914103, -0.01503413, -0.008966628, 0.04039038, 0.0002593962
 196014063, -0.01112773, -0.01536691, -0.009983493, 0.0002593962
 196114023, -0.0135353, -0.01484056, -0.01554232, 0.0002593962
 196233975, -0.01721265, -0.02108656, 0.0111606, 0.0003112754
 196333935, -0.01133052, -0.006586219, 0.00117704, 0.0002593962
 196433895, -0.01026344, 0.0121945, 0.005230117, 0.0002593962
 196533855, -0.008469054, 0.01570689, 0.01067816, 0.0002593962
 196633815, -0.0008021836, 0.02392253, 0.006997008, 0.0002593962
 196733775, -0.001023044, 0.01818728, 0.006137824, 0.0002593962
 196833735, -0.005139548, 0.01536096, 0.0121933, 0.0002593962
 196933695, -0.002408981, -0.01283014, 0.02814572, 0.0002593962
 197033655, -0.007534809, -0.02397423, 0.0123323, 0.0002593962
 197133615, -0.006701576, -0.01745279, 0.001280358, 0.0002593962
 197233575, -0.007620549, -0.01670301, 0.0003939196, 0.0002593962
 197333535, -0.0132278, -0.006415825, 0.002736742, 0.0002593962
 197433495, -0.009134741, -0.007425544, -0.01094419, 0.0002593962
 197534288, -0.00238831, 0.005669392, 0.01206293, 0.0002615578
 197634248, -0.003470502, 0.01541677, 0.0182656, 0.0002593962
 197734208, -0.006542291, 0.02063685, -0.02370723, 0.0002593962
 197834168, -0.01047091, 0.01404016, -0.02364047, 0.0002593962
 197934128, 0.0003672848, -0.0009534106, 0.00283291, 0.0002593962
 198034088, -0.00597083, -0.01067068, 0.008452361, 0.0002593962
 198134048, -0.003142046, -0.01940132, -0.01919148, 0.0002593962
 198234008, -0.01305605, -0.01550722, -0.02397336, 0.0002593962
 198353960, -0.01801375, 0.001949499, 0.01268726, 0.0003112754
 198453920, -0.01119867, 0.001069464, -0.01834344, 0.0002593962
 198553880, -0.02808187, 0.005282422, 0.02113225, 0.0002593962
 198653840, -0.01611967, 0.007287784, 0.03418292, 0.0002593962
 198753800, -0.01364228, 0.01381597, 0.02856562, 0.0002593962
 198853760, -0.009840757, 0.01692505, 0.01446344, 0.0002593962
 198953720, -0.01039539, 0.009769527, -0.05315374, 0.0002593962
 199053680, -0.01444153, -0.01560414, -0.05290424, 0.0002593962
 199153640, -0.009410225, -0.02701469, 0.00604851, 0.0002593962
 199253600, -0.0006935582, -0.02736014, 0.04150557, 0.0002593962
 199353560, -0.0003474147, -0.005548344, 0.03023164, 0.0002593962
 199453520, -0.001999584, 0.0327428, 0.0396768, 0.0002593962
 199553480, -0.004943113, 0.03197294, 0.0296466, 0.0002593962
 199654273, -0.001596153, 0.0257658, 0.004593137, 0.0002615578
 199754233, -0.009122155, 0.002517579, -0.02074661, 0.0002593962
 199854193, -0.009325411, -0.003546312, -0.0123131, 0.0002593962
 199954153, -0.006819331, -0.0137931, 0.01303647, 0.0002593962
 200054113, 0.01004895, -0.02058667, 0.02893715, 0.0002593962
 200154073, 0.0008636534, -0.01999874, 0.02262737, 0.0002593962
 200254033, -0.002216873, -0.01468048, -0.01801641, 0.0002593962
 200353993, 0.002017964, 0.009164249, -0.005560538, 0.0002593962
 200473945, -0.008013455, 0.03657465, 0.01854874, 0.0003112754
 200573905, -0.007284257, 0.03050621, -0.03249562, 0.0002593962
 200673865, -0.008101276, 0.003567774, -0.06023017, 0.0002593962
 200773825, -0.003362329, -0.006560888, 0.004608218, 0.0002593962
 200873785, -0.001540257, -0.008817508, 0.01823539, 0.0002593962
 200973745, 0.002638182, 0.0005877747, 0.02046329, 0.0002593962
 201073705, -0.005422397, -0.0005096272, -0.03501213, 0.0002593962
 201173665, -0.004984182, -0.0004093932, -0.01523078, 0.0002593962
 201273625, -0.004211965, -0.002597847, 0.04173824, 0.0002593962
 201373585, -0.004266298, 0.007980129, 0.04457434, 0.0002593962
 201473545, -0.004859917, 0.003262422, -0.01722075, 0.0002593962
 201573505, -0.006391942, 0.006388942, -0.06927194, 0.0002593962
 201674298, -0.005614554, 0.006605295, 0.004956741, 0.0002593962
 201774258, -0.005702178, 0.006317166, 0.01429095, 0.0002615578
 201874218, -0.004526682, 0.01265359, 0.02576429, 0.0002593962
 201974178, 0.0001676533, 0.008890294, 0.03611775, 0.0002593962
 202074138, -0.00272972, 0.01072225, 0.01344109, 0.0002593962
 202174098, -0.004638669, 0.003204449, -0.006618188, 0.0002593962
 202274058, -0.003304385, 0.01565628, -0.01027183, 0.0002593962
 202374018, -0.002719701, 0.01717566, 0.01226838, 0.0002593962
 202493970, -0.003547229, 0.006712402, -0.0006278958, 0.0003112754
 202593930, -3.003073E-05, -0.0159946, 0.0166119, 0.0002593962
 202693890, -0.0007249439, -0.02376255, 0.005253044, 0.0002593962
 202793850, -0.00534171, -0.02674599, 0.0103261, 0.0002593962
 202893810, 8.730608E-05, -0.01374399, -0.0130536, 0.0002593962
 202993770, 0.001149835, 0.01185788, -0.002575502, 0.0002593962
 203093730, -0.001616638, 0.03462015, 0.02365623, 0.0002593962
 203193690, -0.003198799, 0.01966288, -0.001933802, 0.0002593962
 203293650, -0.001874214, 0.006711201, -0.01629205, 0.0002593962
 203393610, -0.0005762229, 0.002170636, 0.002022249, 0.0002593962
 203493570, 0.002801989, 0.01029868, -0.02847594, 0.0002593962
 203593530, 0.007432234, -0.000374961, 0.007613102, 0.0002593962
 203693490, 0.01091062, -0.0001643575, 0.05127138, 0.0002593962
 203794283, 0.004130326, -0.005947915, 0.02371671, 0.0002615578
 203894243, 0.002600134, -0.009529676, -0.002417761, 0.0002593962
 203994203, -0.0006331087, -0.01087571, 0.01259112, 0.0002593962
 204094163, -0.00546613, -0.003480993, 0.01639342, 0.0002593962
 204194123, -0.001491831, 0.006279143, 0.0008155711, 0.0002593962
 204294083, -0.001855996, 0.003223339, -0.03462397, 0.0002593962
 204394043, -0.00579898, 0.006094837, -0.02540086, 0.0002593962
 204494003, -0.003118704, 0.009488825, -0.01399808, 0.0002593962
 204613955, -0.003999321, 0.003533587, -0.01286082, 0.0003112754
 204713915, -0.0101745, -0.00368088, -0.009198094, 0.0002593962
 204813875, -0.00398913, -0.01104613, 0.004594023, 0.0002593962
 204913835, 0.001150474, -0.002647999, -0.002170543, 0.0002593962
 205013795, -0.001144876, 0.008719407, 0.01919532, 0.0002593962
 205113755, -0.004839068, 0.0166589, 0.01241239, 0.0002593962
 205213715, -0.009399548, 0.01390952, -0.03616026, 0.0002593962
 205313675, -0.004555394, 0.005035706, -0.03419663, 0.0002593962
 205413635, -0.005952201, -0.002581602, 0.03742956, 0.0002593962
 205513595, 1.314687E-05, -0.009829262, 0.03532608, 0.0002593962
 205613555, -0.0001055922, 0.001761952, 0.03776066, 0.0002593962
 205713515, -0.00300265, 0.007892288, 0.03599264, 0.0002593962
 205813475, 0.002670574, -0.007077178, 0.01227998, 0.0002593962
 205914268, 0.0008400596, 0.001822527, -0.02560521, 0.0002615578
 206014228, -0.004668691, 0.001128936, -0.05723207, 0.0002593962
 206114188, -0.0003204561, -0.01295733, -0.0180802, 0.0002593962
 206214148, 0.003849905, -0.01079862, -0.008434659, 0.0002593962
 206314108, 0.005348829, 0.001417121, 0.03094775, 0.0002593962
 206414068, 0.009077769, 0.01052592, 0.02559765, 0.0002593962
 206514028, 0.0002977499, 0.01167937, 0.01472233, 0.0002593962
 206633980, -0.001505501, 0.003646236, -0.01307206, 0.0003112754
 206733940, -0.003799466, -0.001728284, 0.008831458, 0.0002593962
 206833900, -0.007737694, 0.004759193, -0.02188279, 0.0002593962
 206933860, -0.008821861, 0.0005704954, -0.01887001, 0.0002593962
 207033820, -0.004303097, 0.003890383, 0.001001434, 0.0002593962
 207133780, 0.0005015117, 0.01217799, 0.009918898, 0.0002593962
 207233740, 0.005773452, 0.01537619, 0.02016669, 0.0002593962
 207333700, 0.00112143, 0.01218349, 0.01856223, 0.0002593962
 207433660, 0.002224083, 0.003282894, 0.04416652, 0.0002593962
 207533620, 0.002324338, -0.0008696548, -0.008369083, 0.0002593962
 207633580, -0.006406004, 0.005030644, -0.02597058, 0.0002593962
 207733540, -0.009418375, 0.00978647, -0.04570262, 0.0002593962
 207833500, -0.003714481, 0.002476907, -0.02044805, 0.0002593962
 207934293, -0.008793331, -0.002048109, 0.001052747, 0.0002615578
 208034253, -0.004941166, 0.0005712911, -0.001540283, 0.0002593962
 208134213, -0.002044375, 0.006338237, -0.02268428, 0.0002593962
 208234173, -0.001328833, 0.004438451, 0.01597605, 0.0002593962
 208334133, 0.002872149, 0.01136035, 0.02820937, 0.0002593962
 208434093, -0.004559753, 0.004328897, 0.03220658, 0.0002593962
 208534053, -0.002966045, 0.001041332, 0.01915449, 0.0002593962
 208634013, -0.003871721, 0.0132847, -0.02262977, 0.0002593962
 208753965, -0.009221036, 0.02272658, -0.03488191, 0.0003112754
 208853925, -0.005233567, 0.01660509, -0.01718235, 0.0002593962
 208953885, -0.008089641, 0.009126717, -0.03445873, 0.0002593962
 209053845, -0.00981666, 0.001280173, -0.03408439, 0.0002593962
 209153805, -0.007155369, -0.002755905, -0.02383729, 0.0002593962
 209253765, -0.004574914, -0.0177149, 0.0135487, 0.0002593962
 209353725, 0.000759297, -0.02345445, 0.05154867, 0.0002593962
 209453685, -0.0004059622, -0.003040768, 0.0216103, 0.0002593962
 209553645, -0.003172426, 0.00370257, 0.04096407, 0.0002593962
 209653605, -0.001919974, 0.003206827, 0.01992321, 0.0002593962
 209753565, -0.0007421017, 0.00838336, -0.004769144, 0.0002593962
 209853525, -0.002314614, 0.016463, -0.01504287, 0.0002593962
 209953485, 0.002111385, 0.01268567, 0.001997864, 0.0002593962
 210054278, 0.003226703, 0.01240239, -0.02136596, 0.0002615578
 210154238, -0.005628018, 0.0189046, -0.01825133, 0.0002593962
 210254198, 0.001922279, 0.002212052, 0.03483591, 0.0002593962
 210354158, 0.004406683, -0.008252647, -0.009363385, 0.0002593962
 210454118, 0.00162222, -0.008433554, -0.0058693, 0.0002593962
 210554078, -0.00456337, -0.009743499, 0.01675949, 0.0002593962
 210654038, -0.0008188037, -0.002137041, -0.008015906, 0.0002593962
 210753998, 0.005298666, 0.01029245, -0.01542796, 0.0002593962
 210873950, 0.002566399, 0.01263518, -0.04105048, 0.0003112754
 210973910, 0.0005152177, -0.0010936, -0.01736623, 0.0002593962
 211073870, -0.00318889, -0.005969618, -0.00997211, 0.0002593962
 211173830, -0.000469926, -0.002780564, -0.004272068, 0.0002593962
 211273790, -0.004848078, 0.0001985917, 0.005368182, 0.0002593962
 211373750, -0.005080093, 0.0044769, 0.004273164, 0.0002593962
 211473710, -0.01059821, 0.0006534554, 0.009651766, 0.0002593962
 211573670, -0.0007104034, 0.004744279, 0.03294233, 0.0002593962
 211673630, -0.003546245, 0.005093297, 0.0131037, 0.0002593962
 211773590, 0.0001008222, 0.009394685, 0.0003390386, 0.0002593962
 211873550, -0.006836605, 0.01362096, -0.004614824, 0.0002593962
 211973510, -0.01108908, 0.003372311, -0.04115272, 0.0002593962
 212074303, -0.009319644, -0.0006144524, -0.05644694, 0.0002593962
 212174263, -0.005746656, 0.001168047, -0.01280046, 0.0002615578
 212274223, -0.0002015299, -0.002030825, 0.02914418, 0.0002593962
 212374183, -0.001222924, -0.01370593, 0.0317966, 0.0002593962
 212474143, -0.001258224, -0.005300329, 0.02246562, 0.0002593962
 212574103, -0.009042634, -0.001094171, 0.03625385, 0.0002593962
 212674063, 0.001895205, 0.01008868, 0.0007318715, 0.0002593962
 212774023, -0.003173331, 0.007168432, 0.02317544, 0.0002593962
 212893975, -0.002039739, 0.01029107, -0.01261776, 0.0003112754
 212993935, -0.001209022, 0.01009168, -0.04203095, 0.0002593962
 213093895, 0.001612381, 0.01172051, -0.02897913, 0.0002593962
 213193855, 0.001229172, 0.00947535, -0.01700444, 0.0002593962
 213293815, -0.002017008, 0.007884936, 0.01274087, 0.0002593962
 213393775, -0.004777874, 0.003072017, -0.01719306, 0.0002593962
 213493735, -0.006975182, 0.002696297, -0.007537848, 0.0002593962
 213593695, -0.003978104, 0.001651778, 0.01887684, 0.0002593962
 213693655, -0.004690152, 0.01058874, 0.01667128, 0.0002593962
 213793615, 0.000216579, 0.01769698, 0.01990589, 0.0002593962
 213893575, -0.001816409, 0.01495118, 0.02257248, 0.0002593962
 213993535, -0.003947596, 0.01457856, 0.009381384, 0.0002593962
 214093495, -0.007838761, 0.0003873196, -0.01593839, 0.0002593962
 214194288, -0.01032751, -0.007299191, -0.02476013, 0.0002615578
 214294248, -0.0006843557, -0.00352748, -0.005128277, 0.0002593962
 214394208, 0.01095473, -0.007908629, 0.05555435, 0.0002593962
 214494168, 0.002136316, -0.01421998, 0.02939538, 0.0002593962
 214594128, 5.974073E-05, 0.005516924, -0.02593509, 0.0002593962
 214694088, -0.002653557, 0.01027527, -0.04961288, 0.0002593962
 214794048, -0.008572754, 0.013239, -0.01188039, 0.0002593962
 214894008, -0.005601321, 0.008920102, 0.02962675, 0.0002593962
 215013960, -0.005574129, 0.002575208, -0.03976043, 0.0003112754
 215113920, -0.005864695, 0.004310884, -0.02725775, 0.0002593962
 215213880, -0.005475401, -0.002072725, 0.0151517, 0.0002593962
 215313840, -0.005154828, 0.0007277014, 0.03086676, 0.0002593962
 215413800, -0.005572883, 0.0005219458, -0.002746189, 0.0002593962
 215513760, -0.007003059, 0.01164301, -0.001648911, 0.0002593962
 215613720, -0.002946282, 0.007724123, 0.005855277, 0.0002593962
 215713680, -0.005932219, 0.003178253, -0.02363184, 0.0002593962
 215813640, -0.00644578, 0.01098946, -0.01030451, 0.0002593962
 215913600, -0.004843159, 0.0003057243, -0.01386473, 0.0002593962
 216013560, -0.003501255, -0.008901799, 0.01004921, 0.0002593962
 216113520, -0.005484421, -0.004992268, 0.0008342834, 0.0002593962
 216213480, -0.009033971, 0.002518561, 0.023818, 0.0002593962
 216314273, -0.0008491505, -0.008682066, -0.01651261, 0.0002615578
 216414233, -0.008141018, -0.008583035, -0.0009682308, 0.0002593962
 216514193, -0.006327858, -0.01068552, -0.01490896, 0.0002593962
 216614153, -0.004072259, -0.007827301, 0.01287803, 0.0002593962
 216714113, -0.001045644, 0.009909201, 0.01092282, 0.0002593962
 216814073, -0.002822803, 0.01238906, -0.02720097, 0.0002593962
 216914033, -0.003036087, 0.0163166, 0.01165821, 0.0002593962
 217013993, 0.001492044, 0.01366062, 0.03086334, 0.0002593962
 217133945, 0.01072524, 0.02346346, 0.03003787, 0.0003112754
 217233905, 0.002325786, 0.01524678, -0.03278747, 0.0002593962
 217333865, -0.002826276, 0.001441364, -0.03168289, 0.0002593962
 217433825, -0.001927987, 0.001247894, 0.01281132, 0.0002593962
 217533785, -0.004413927, 0.009438607, 0.02450868, 0.0002593962
 217633745, 0.001560477, 0.01119209, 0.02609858, 0.0002593962
 217733705, 0.002127985, 0.005020117, -0.003112339, 0.0002593962
 217833665, 0.004410552, 0.01082578, 0.008731247, 0.0002593962
 217933625, 0.001587108, 0.008001093, 0.02231484, 0.0002593962
 218033585, -0.003792333, 0.0005346562, -0.02851091, 0.0002593962
 218133545, -0.004608627, -0.004945155, -0.01277873, 0.0002593962
 218233505, -0.004035909, 0.002157984, 0.02696417, 0.0002593962
 218334298, 0.001365813, 0.003713291, 0.02207282, 0.0002593962
 218434258, -0.002897373, -0.002052477, -0.006686143, 0.0002615578
 218534218, 5.599158E-05, -0.0007308349, -0.006207394, 0.0002593962
 218634178, 0.0007861918, -0.003391315, -0.02359144, 0.0002593962
 218734138, -0.001796106, -0.005943473, -0.002625235, 0.0002593962
 218834098, 2.578134E-06, -0.004575504, 0.01462536, 0.0002593962
 218934058, 0.001540404, -0.007167257, -0.001807824, 0.0002593962
 219034018, -0.0002382363, -0.002916562, -0.02508343, 0.0002593962
 219153970, -0.001329133, 0.007356292, 0.0007587452, 0.0003112754
 219253930, -0.007084728, 0.008824037, -0.01901212, 0.0002593962
 219353890, -0.004419812, 0.006293981, 0.03099531, 0.0002593962
 219453850, -0.001928693, 0.007541164, 0.04045194, 0.0002593962
 219553810, 0.0004217234, 0.00800268, -0.03324229, 0.0002593962
 219653770, -0.005361557, 0.01472423, -0.04776332, 0.0002593962
 219753730, -0.006213021, 0.008221256, 0.009916161, 0.0002593962
 219853690, -0.001557365, 0.01165904, 0.02500582, 0.0002593962
 219953650, -0.0009468601, 0.002310924, 0.00453531, 0.0002593962
 220053610, -4.479906E-05, -0.009332298, -0.00651343, 0.0002593962
 220153570, -0.005522439, -0.008187596, -0.01376535, 0.0002593962
 220253530, -0.007077188, 0.0001844405, -0.01708956, 0.0002593962
 220353490, -0.0022357, 0.01021904, 0.01424685, 0.0002593962
 220454283, -0.00521961, 0.00980268, 0.02924059, 0.0002615578
 220554243, -0.003743683, -0.0007740236, -0.01674525, 0.0002593962
 220654203, -0.002717192, 0.01164756, -0.01373667, 0.0002593962
 220754163, -0.004318386, 0.01621401, 0.007743835, 0.0002593962
 220854123, -0.002495773, 0.01003679, -0.02296695, 0.0002593962
 220954083, -0.006291089, 0.005675482, 0.0005431958, 0.0002593962
 221054043, 0.001761478, 0.0009900356, 0.005394027, 0.0002593962
 221154003, 0.0003405339, -0.009185074, -0.03958073, 0.0002593962
 221273955, -0.002725215, -0.01904843, -0.01838948, 0.0003112754
 221373915, -0.004023728, 0.001812988, 0.03978923, 0.0002593962
 221473875, 0.002315138, 0.01221414, 0.06474169, 0.0002593962
 221573835, -0.002701106, 0.007787406, 0.02568578, 0.0002593962
 221673795, -0.005162244, 0.009162959, -0.007638974, 0.0002593962
 221773755, -0.001839244, 0.009824871, -0.02045898, 0.0002593962
 221873715, -0.004872675, 0.007694628, 0.01079812, 0.0002593962
 221973675, -0.001140956, -0.003379413, 0.001068794, 0.0002593962
 222073635, 0.0002189035, -0.005361641, -0.02055804, 0.0002593962
 222173595, -0.006510312, 0.00168574, -0.003401826, 0.0002593962
 222273555, -0.00421759, -0.004988704, -0.03170698, 0.0002593962
 222373515, -0.003798195, -0.01195859, -0.01900308, 0.0002593962
 222473475, -0.006824182, -0.008827133, 0.001316249, 0.0002593962
 222574268, -0.003831601, 0.01877194, 0.01389383, 0.0002615578
 222674228, -0.004646488, 0.006896588, 0.03592205, 0.0002593962
 222774188, 0.0005503371, 0.01018594, 0.01548414, 0.0002593962
 222874148, 0.003255754, 0.004682604, 0.004977438, 0.0002593962
 222974108, -0.000847008, 0.0031168, 0.002343042, 0.0002593962
 223074068, 0.0002645332, -0.004806446, -0.01314401, 0.0002593962
 223174028, -0.003267755, -0.003437212, -0.01629789, 0.0002593962
 223293980, -0.001918772, -0.009059045, -0.002063583, 0.0003112754
 223393940, -0.004242713, 0.003029378, -0.0152324, 0.0002593962
 223493900, -0.005760343, 0.01170846, -0.007999585, 0.0002593962
 223593860, -0.004483292, 0.01079926, 0.01540331, 0.0002593962
 223693820, -0.002797675, 0.01767655, 0.02064523, 0.0002593962
 223793780, -0.003359123, 0.01604532, -0.006310608, 0.0002593962
 223893740, 0.00139971, 0.009523603, -4.874147E-05, 0.0002593962
 223993700, -0.002112805, 0.005177537, -0.008546871, 0.0002593962
 224093660, -0.0034242, -6.81604E-05, 0.03232725, 0.0002593962
 224193620, -0.001998063, 0.00364228, 0.02735071, 0.0002593962
 224293580, 0.0007503332, 0.01985431, 0.01277934, 0.0002593962
 224393540, -0.0006243585, 0.01386314, -0.03108897, 0.0002593962
 224493500, -0.0007321563, 0.007414394, -0.01056818, 0.0002593962
 224594293, -0.004972783, -0.0027888, 0.001564314, 0.0002615578
 224694253, -0.0002050612, -0.008638224, -0.01241855, 0.0002593962
 224794213, -0.007889595, -0.007781516, -0.04315874, 0.0002593962
 224894173, -0.00787346, -0.0068378, -0.03708716, 0.0002593962
 224994133, -0.00734373, 0.005319588, -0.009083604, 0.0002593962
 225094093, -0.0003567581, 0.01442526, 0.03736714, 0.0002593962
 225194053, 0.00386256, 0.004696123, 0.03292262, 0.0002593962
 225294013, -0.003309487, 0.001589434, 0.004645463, 0.0002593962
 225413965, 0.0001773679, 0.005859683, -0.008778406, 0.0003112754
 225513925, -0.001625414, 0.005869789, 0.04436236, 0.0002593962
 225613885, -0.002208706, -0.002352401, -0.008720217, 0.0002593962
 225713845, -0.0007802743, 0.005917707, -0.02510479, 0.0002593962
 225813805, 0.001090168, 0.01639211, 0.004638399, 0.0002593962
 225913765, -0.001628325, 0.01335238, -0.01339382, 0.0002593962
 226013725, 0.006757617, -0.007143509, 0.01330403, 0.0002593962
 226113685, 0.003129352, -0.01113543, 0.005227409, 0.0002593962
 226213645, -0.003417235, -0.001110944, -0.03026741, 0.0002593962
 226313605, -0.001784017, 0.01526395, -0.007454169, 0.0002593962
 226413565, -0.007386591, 0.01062038, 0.01744654, 0.0002593962
 226513525, -0.005041239, -0.0009018682, 0.006400284, 0.0002593962
 226613485, -0.004393026, 0.009140696, 0.008960181, 0.0002593962
 226714278, -0.002876987, 0.01279053, -0.03481894, 0.0002615578
 226814238, -0.006986967, -0.002647066, -0.006880057, 0.0002593962
 226914198, -0.005720766, -0.01237313, 0.01113296, 0.0002593962
 227014158, -0.007678051, -0.009480039, 0.005711873, 0.0002593962
 227114118, -0.0048211, -0.005626168, 0.01955185, 0.0002593962
 227214078, -0.002102959, 0.0005708809, 0.01044571, 0.0002593962
 227314038, -0.0005659446, 0.001280973, -0.03791206, 0.0002593962
 227413998, -0.004656486, 0.003864258, -0.01663083, 0.0002593962
 227533950, -0.005570291, 0.01162923, 0.009537209, 0.0003112754
 227633910, -0.002421926, 0.01039555, 0.006668131, 0.0002593962
 227733870, 0.0001972033, 0.02175681, -0.0170624, 0.0002593962
 227833830, 0.008838066, 0.01532173, 0.01273441, 0.0002593962
 227933790, 0.001776801, 0.01774305, 0.02779306, 0.0002593962
 228033750, -0.0004830711, 0.008643675, -0.0003253974, 0.0002593962
 228133710, -0.001349521, 0.01027188, -0.0001503057, 0.0002593962
 228233670, -0.006960458, 0.002593043, 0.0008745127, 0.0002593962
 228333630, -0.004317677, 0.006865149, 0.007463778, 0.0002593962
 228433590, -0.004025404, 0.01586067, -0.02560054, 0.0002593962
 228533550, -0.008199884, 0.002381117, -0.02580657, 0.0002593962
 228633510, -0.01006194, -0.01917396, -0.02036788, 0.0002593962
 228734303, -0.00722975, -0.02158266, 0.02106459, 0.0002593962
 228834263, -0.003326392, -0.008636444, 0.02478944, 0.0002615578
 228934223, -0.006757178, 0.007438181, -0.01095137, 0.0002593962
 229034183, -0.006808237, 0.007908264, -0.02086867, 0.0002593962
 229134143, -0.00551455, 0.0160855, 0.01022123, 0.0002593962
 229234103, -0.0003358571, 0.00975916, 0.04301181, 0.0002593962
 229334063, -0.004007694, 0.001424387, 0.01850625, 0.0002593962
 229434023, -0.005069886, -0.00520812, -0.01290491, 0.0002593962
 229553975, -0.00551469, -0.0170939, 0.009482061, 0.0003112754
 229653935, -0.002237316, -0.01874068, 0.002927801, 0.0002593962
 229753895, -0.00234127, -0.001570912, -0.03120248, 0.0002593962
 229853855, -0.006408914, 0.01182355, -0.04129593, 0.0002593962
 229953815, -0.001085182, 0.0188883, -0.01451526, 0.0002593962
 230053775, -0.003479456, 0.00988763, 0.01569025, 0.0002593962
 230153735, -0.006175585, -0.002712763, 0.02599617, 0.0002593962
 230253695, -0.002948401, 0.0007854439, 0.02618103, 0.0002593962
 230353655, -0.003847156, 0.003481969, 0.008899732, 0.0002593962
 230453615, -0.00134362, -0.004363196, -0.01466028, 0.0002593962
 230553575, -0.00393122, -0.01884429, 0.009529458, 0.0002593962
 230653535, 0.005248898, -0.0204966, 0.02599009, 0.0002593962
 230753495, 0.006254377, -0.01221658, -0.005745038, 0.0002593962
 230854288, -0.00157249, 0.01175063, -0.01224765, 0.0002615578
 230954248, 0.001007122, 0.02561499, -0.02456427, 0.0002593962
 231054208, -0.0002400458, 0.02632931, -0.01627751, 0.0002593962
 231154168, -0.004460765, 0.01549263, -0.008700131, 0.0002593962
 231254128, -0.004636124, -0.008202319, 0.01854371, 0.0002593962
 231354088, -0.003658947, -0.001986825, 0.01858544, 0.0002593962
 231454048, -0.0002788809, -0.002568891, -0.01813377, 0.0002593962
 231554008, -0.003086595, 5.14909E-05, -3.16971E-05, 0.0002593962
 231673960, 0.00201791, 0.0073066, 0.00688409, 0.0003112754
 231773920, 0.0007132781, 0.001898721, -0.00102336, 0.0002593962
 231873880, -0.004119361, 0.001161827, -0.01039432, 0.0002593962
 231973840, -0.005884761, 0.004776463, 0.03129525, 0.0002593962
 232073800, 0.0007743555, -0.002908449, 0.01129407, 0.0002593962
 232173760, 0.002870543, 0.0002024776, 0.01110483, 0.0002593962
 232273720, -0.001678936, 0.001039697, 0.007514216, 0.0002593962
 232373680, -0.0003855237, 0.00170163, 0.03775227, 0.0002593962
 232473640, 0.003377148, 0.0009538499, 0.01035228, 0.0002593962
 232573600, -0.0004392799, 0.000147509, -0.04739843, 0.0002593962
 232673560, -0.004387504, 0.001514273, -0.04176309, 0.0002593962
 232773520, -0.006314899, 0.01102233, -0.05302787, 0.0002593962
 232873480, -0.01074999, 0.005805312, -0.01150404, 0.0002593962
 232974273, -0.004985023, 0.01461123, -0.006935046, 0.0002615578
 233074233, -0.005088708, 0.01568942, 0.01317976, 0.0002593962
 233174193, -0.00102475, 0.01053562, 0.01650187, 0.0002593962
 233274153, -0.002891045, 0.01066566, 0.005625848, 0.0002593962
 233374113, -0.008507642, 0.006789754, 0.04473785, 0.0002593962
 233474073, -0.004474125, 0.008423331, 0.02615776, 0.0002593962
 233574033, -0.0009822336, 0.002548026, -0.02608937, 0.0002593962
 233673993, -0.001765291, -0.00183542, -0.03197186, 0.0002593962
 233793945, -0.003979183, -0.01604554, 0.04085832, 0.0003112754
 233893905, -0.0029056, -0.002262243, 0.04530004, 0.0002593962
 233993865, 0.001492417, 0.01329323, -0.02366022, 0.0002593962
 234093825, 0.00232071, 0.01743489, -0.02583921, 0.0002593962
 234193785, -0.002956783, 0.01489919, -0.0009073538, 0.0002593962
 234293745, -0.00236678, 0.01183086, 0.02485972, 0.0002593962
 234393705, 0.001718882, 0.01383973, 0.0122253, 0.0002593962
 234493665, -0.004597689, 0.00555892, -0.02889184, 0.0002593962
 234593625, -0.003941399, -0.01199488, -0.01317723, 0.0002593962
 234693585, -0.009058066, -0.02218751, 0.003244285, 0.0002593962
 234793545, -0.003386172, -0.02367238, 0.02201965, 0.0002593962
 234893505, -0.004200499, -0.007255331, 0.004405815, 0.0002593962
 234994298, -0.003827204, 0.01421859, -0.01909439, 0.0002593962
 235094258, -0.001165834, 0.01721137, -0.004966039, 0.0002615578
 235194218, -0.001861327, 0.01111661, 0.01029183, 0.0002593962
 235294178, -0.005923691, 0.002138188, -0.0009459428, 0.0002593962
 235394138, -0.006485098, 0.003830246, -0.02132165, 0.0002593962
 235494098, -0.004126073, -0.0006134473, -0.01016989, 0.0002593962
 235594058, -0.003391063, 0.001009858, 0.04977513, 0.0002593962
 235694018, -0.002271023, -0.001215043, 0.02570311, 0.0002593962
 235813970, -0.002010792, 0.006227727, -0.001462895, 0.0003112754
 235913930, 0.0008705128, 0.00411808, -6.554835E-05, 0.0002593962
 236013890, -0.001196379, 0.003666426, -0.009399116, 0.0002593962
 236113850, -0.001114756, 0.005753136, -0.01347493, 0.0002593962
 236213810, -0.00373511, 0.007647609, -0.03577027, 0.0002593962
 236313770, -0.00207322, 0.004661741, -0.05565285, 0.0002593962
 236413730, -0.007109623, 0.002410043, -0.02417419, 0.0002593962
 236513690, -0.004253631, 0.001972332, 0.01793051, 0.0002593962
 236613650, -0.002393734, 0.004670702, 0.03220083, 0.0002593962
 236713610, -0.001867739, 0.001615874, 0.01551057, 0.0002593962
 236813570, -0.002220094, -0.01515735, 0.007612864, 0.0002593962
 236913530, -0.005768693, -0.0009116393, 0.004155803, 0.0002593962
 237013490, 0.00127664, 0.01433716, 0.03158264, 0.0002593962
 237114283, -0.001228262, 0.01646167, -0.0219655, 0.0002615578
 237214243, -0.005907947, 0.02415441, -0.04942977, 0.0002593962
 237314203, -0.0008829137, 0.01894917, 0.005930254, 0.0002593962
 237414163, -0.001960354, -0.003106841, 0.02921158, 0.0002593962
 237514123, -0.005119287, -0.01932991, -0.009137807, 0.0002593962
 237614083, -0.007607884, -0.01638566, 0.01579208, 0.0002593962
 237714043, -0.003585596, -0.003674074, 0.005359088, 0.0002593962
 237814003, -0.001110729, 0.007792425, -0.02244751, 0.0002593962
 237933955, -0.0009195015, 0.01751327, -0.0001402674, 0.0003112754
 238033915, -0.003733599, 0.01466879, 0.01408698, 0.0002593962
 238133875, -0.000192113, 0.005067687, 0.008541562, 0.0002593962
 238233835, -0.002662089, -0.006828561, -0.01136236, 0.0002593962
 238333795, -0.004264736, -0.003917173, 0.01849475, 0.0002593962
 238433755, -0.002221305, 0.001784736, -0.02051117, 0.0002593962
 238533715, -0.002413742, 0.0006886726, -0.02201211, 0.0002593962
 238633675, -0.004573459, 0.006302865, -0.01643535, 0.0002593962
 238733635, -0.001680862, 0.002582789, 0.0147242, 0.0002593962
 238833595, -0.004359219, 0.008708541, 0.04357897, 0.0002593962
 238933555, -0.001469341, 0.009585976, 0.0005717659, 0.0002593962
 239033515, -0.001643849, 0.0149357, -0.04238975, 0.0002593962
 239133475, -0.005268577, 0.01425413, 0.01157059, 0.0002593962
 239234268, -0.0005989184, 0.001570275, 0.02180292, 0.0002615578
 239334228, -0.001078799, -0.005971223, 0.01339624, 0.0002593962
 239434188, -0.003182633, -0.003726736, 0.0703304, 0.0002593962
 239534148, 0.00255774, -0.003352628, 0.02106596, 0.0002593962
 239634108, -0.001064684, 0.01005065, -0.02683713, 0.0002593962
 239734068, -0.0001748881, 0.02189324, -0.06593994, 0.0002593962
 239834028, -0.004607071, 0.01743244, -0.06193745, 0.0002593962
 239953980, -0.006972758, 0.004078708, -0.02971064, 0.0003112754
 240053940, -0.007871032, 0.0004455247, 0.03895929, 0.0002593962
 240153900, -0.003004759, -0.003507611, 0.01857891, 0.0002593962
 240253860, -0.005875458, -0.01522729, 0.001753554, 0.0002593962
 240353820, -0.00291974, -0.0168963, -0.02927372, 0.0002593962
 240453780, -0.001526561, -0.006154639, -0.001346736, 0.0002593962
 240553740, -0.00522758, 0.007165736, 0.03475916, 0.0002593962
 240653700, 0.001518296, 0.01449457, 0.0171497, 0.0002593962
 240753660, 0.005292422, 0.01783394, 0.008202609, 0.0002593962
 240853620, 0.001323377, 0.01619424, -0.005302673, 0.0002593962
 240953580, -0.004176734, 0.01486249, -0.02543308, 0.0002593962
 241053540, -0.001254948, 0.007535921, 0.01866983, 0.0002593962
 241153500, 0.0004442682, 0.001133107, 0.0170925, 0.0002593962
 241254293, -0.002428642, 0.0005756023, 0.008150127, 0.0002615578
 241354253, -0.004601955, -0.002751823, -0.0205472, 0.0002593962
 241454213, -0.007674628, -0.007513173, 0.002638667, 0.0002593962
 241554173, -0.009718297, -0.00503126, -0.03905084, 0.0002593962
 241654133, -0.007604121, -0.002133403, -0.003050223, 0.0002593962
 241754093, -0.001626768, 0.01145891, 0.07516331, 0.0002593962
 241854053, -0.004994957, 0.0124439, 0.0399173, 0.0002593962
 241954013, -0.002274594, 0.009458257, -0.03097321, 0.0002593962
 242073965, -0.01314838, 0.02481152, -0.02648719, 0.0003112754
 242173925, -0.005413396, 0.01344123, -0.01040043, 0.0002593962
 242273885, -0.005789986, 0.00670648, -0.02590304, 0.0002593962
 242373845, -0.003880292, 0.003636169, -0.02134109, 0.0002593962
 242473805, -0.006856908, -0.02000506, -0.000745208, 0.0002593962
 242573765, -0.002921801, -0.01011464, 0.001812982, 0.0002593962
 242673725, -0.001756497, -0.002043396, -0.002159256, 0.0002593962
 242773685, 0.0009489474, 0.008648857, 0.03236919, 0.0002593962
 242873645, 0.003892473, 0.005931117, -0.0007692787, 0.0002593962
 242973605, -0.001207461, 0.01237214, 0.005008448, 0.0002593962
 243073565, 0.001598737, 0.01150577, 0.06060205, 0.0002593962
 243173525, 0.006049579, 4.89261E-05, -0.005241232, 0.0002593962
 243273485, -0.002519574, -0.0103705, -0.03034096, 0.0002593962
 243374278, -0.002280099, 0.005071235, 0.007293733, 0.0002615578
 243474238, 0.001451564, 0.008327324, -0.01479227, 0.0002593962
 243574198, -0.001978054, 0.01368644, -0.01817408, 0.0002593962
 243674158, -0.001798466, 0.01601933, -0.03253815, 0.0002593962
 243774118, -0.002908014, 0.01442873, -0.04331873, 0.0002593962
 243874078, -0.002179726, 0.01081284, 0.01484369, 0.0002593962
 243974038, -0.004282306, 0.009708187, 0.04514563, 0.0002593962
 244073998, -0.004289573, 0.000608452, 0.03162911, 0.0002593962
 244193950, 0.001542979, -0.02515772, 0.03702647, 0.0003112754
 244293910, -0.005129213, -0.02375188, -0.01665837, 0.0002593962
 244393870, 0.01392546, -0.003986988, -0.01768758, 0.0002593962
 244493830, 0.0358245, 0.04289587, -0.0150017, 0.0002593962
 244593790, 0.05352054, 0.1467106, -0.05980308, 0.0002593962
 244693750, -0.01810983, -0.4283311, -0.19335, 0.0002593962
 244793710, -0.5437052, -1.216846, 0.02827594, 0.0002593962
 244893670, -0.9431713, -1.320757, 0.6281272, 0.0002593962
 244993630, -1.144379, -1.435293, 0.6348158, 0.0002593962
 245093590, -1.57213, -2.191926, 0.05868216, 0.0002593962
 245193550, -2.132856, -2.558395, -0.7299834, 0.0002593962
 245293510, -2.304526, -1.94959, -1.183652, 0.0002593962
 245394303, -1.932865, -0.9833716, -0.9750518, 0.0002593962
 245494263, -1.39315, -0.2982086, -0.4348825, 0.0002615578
 245594223, -0.9838243, 0.03100989, 0.0417618, 0.0002593962
 245694183, -0.7782714, 0.140942, 0.3039728, 0.0002593962
 245794143, -0.711453, 0.1459173, 0.3826433, 0.0002593962
 245894103, -0.7201998, 0.1062161, 0.3458415, 0.0002593962
 245994063, -0.7614188, 0.05875997, 0.2541392, 0.0002593962
 246094023, -0.7938182, 0.02902654, 0.1547867, 0.0002593962
 246213975, -0.9746023, 0.03683702, 0.09336901, 0.0003112754
 246313935, -0.7635112, 0.05558761, 0.04692315, 0.0002593962
 246413895, -0.7145551, 0.08382064, 0.05639859, 0.0002593962
 246513855, -0.6675274, 0.1061842, 0.07987448, 0.0002593962
 246613815, -0.6339911, 0.1189991, 0.1001139, 0.0002593962
 246713775, -0.6166216, 0.1253864, 0.1062815, 0.0002593962
 246813735, -0.6110858, 0.12845, 0.09779618, 0.0002593962
 246913695, -0.6108214, 0.1335383, 0.07914398, 0.0002593962
 247013655, -0.6101558, 0.1415978, 0.05723005, 0.0002593962
 247113615, -0.6040975, 0.1535277, 0.03740541, 0.0002593962
 247213575, -0.5914772, 0.1680761, 0.02387123, 0.0002593962
 247313535, -0.5715635, 0.1838731, 0.01766948, 0.0002593962
 247413495, -0.5502776, 0.1985336, 0.01808114, 0.0002593962
 247514288, -0.5331839, 0.214118, 0.02234951, 0.0002615578
 247614248, -0.5062271, 0.2240772, 0.02659928, 0.0002593962
 247714208, -0.4881417, 0.2350342, 0.02883827, 0.0002593962
 247814168, -0.4733622, 0.2454475, 0.02875798, 0.0002593962
 247914128, -0.4595027, 0.2557921, 0.02632297, 0.0002593962
 248014088, -0.4450546, 0.2664202, 0.02270034, 0.0002593962
 248114048, -0.4320603, 0.2767282, 0.01812648, 0.0002593962
 248214008, -0.4175539, 0.2865692, 0.01434547, 0.0002593962
 248333960, -0.4859419, 0.3627518, 0.01332393, 0.0003112754
 248433920, -0.3774795, 0.3059628, 0.008235697, 0.0002593962
 248533880, -0.3589481, 0.3129933, 0.006202638, 0.0002593962
 248633840, -0.3385813, 0.3179784, 0.006162371, 0.0002593962
 248733800, -0.3165678, 0.3208617, 0.008702315, 0.0002593962
 248833760, -0.2938334, 0.3212603, 0.01275486, 0.0002593962
 248933720, -0.271968, 0.3199404, 0.01691531, 0.0002593962
 249033680, -0.2517377, 0.3174405, 0.0195515, 0.0002593962
 249133640, -0.2332861, 0.3143419, 0.02088104, 0.0002593962
 249233600, -0.216448, 0.3109339, 0.02137642, 0.0002593962
 249333560, -0.2010147, 0.3074448, 0.02041743, 0.0002593962
 249433520, -0.1869047, 0.3036346, 0.01867301, 0.0002593962
 249533480, -0.1732996, 0.299591, 0.01661998, 0.0002593962
 249634273, -0.1620833, 0.2978652, 0.01399547, 0.0002615578
 249734233, -0.1479239, 0.2903036, 0.01096364, 0.0002593962
 249834193, -0.1358403, 0.2849897, 0.009076282, 0.0002593962
 249934153, -0.1235861, 0.2782612, 0.008988054, 0.0002593962
 250034113, -0.1116603, 0.2709605, 0.01037063, 0.0002593962
 250134073, -0.1004478, 0.2624718, 0.01163461, 0.0002593962
 250234033, -0.09020378, 0.253965, 0.01205045, 0.0002593962
 250333993, -0.0806736, 0.2451355, 0.0109588, 0.0002593962
 250453945, -0.08737917, 0.2881804, 0.0113674, 0.0003112754
 250553905, -0.06343243, 0.2270196, 0.007484074, 0.0002593962
 250653865, -0.05697841, 0.2195486, 0.00529742, 0.0002593962
 250753825, -0.05110843, 0.2127261, 0.002508733, 0.0002593962
 250853785, -0.04530216, 0.2066605, 0.0007032917, 0.0002593962
 250953745, -0.03987148, 0.2000755, -0.0006659799, 0.0002593962
 251053705, -0.03455627, 0.1931956, -0.0001753964, 0.0002593962
 251153665, -0.0294494, 0.1862001, 0.001419444, 0.0002593962
 251253625, -0.02470093, 0.1787214, 0.002954426, 0.0002593962
 251353585, -0.02085239, 0.1708401, 0.003680225, 0.0002593962
 251453545, -0.01701553, 0.1628668, 0.002604558, 0.0002593962
 251553505, -0.01369457, 0.1549292, 0.0007700795, 0.0002593962
 251654298, -0.01081208, 0.1474876, -0.0009479925, 0.0002593962
 251754258, -0.008012082, 0.141408, -0.002299634, 0.0002615578
 251854218, -0.005557158, 0.1345965, -0.002392593, 0.0002593962
 251954178, -0.003355821, 0.1292444, -0.001860446, 0.0002593962
 252054138, -0.001651697, 0.1248829, -0.001487537, 0.0002593962
 252154098, -6.837622E-05, 0.1205912, -0.001192617, 0.0002593962
 252254058, 0.001519704, 0.1158273, -0.002145643, 0.0002593962
 252354018, 0.002605763, 0.1118497, -0.002764044, 0.0002593962
 252473970, 0.00514505, 0.130858, -0.004089493, 0.0003112754
 252573930, 0.005618584, 0.1017769, -0.002585178, 0.0002593962
 252673890, 0.006719822, 0.09753754, -0.001196335, 0.0002593962
 252773850, 0.007579314, 0.09348125, -0.0003717365, 0.0002593962
 252873810, 0.008110298, 0.09002727, 0.0004013077, 0.0002593962
 252973770, 0.008679632, 0.08676645, 0.0003768653, 0.0002593962
 253073730, 0.008781519, 0.08353547, -0.001086058, 0.0002593962
 253173690, 0.009324326, 0.0799254, -0.003084627, 0.0002593962
 253273650, 0.009697095, 0.07640257, -0.005433245, 0.0002593962
