TimeUS,CAN,CAE,CAD,CAe,NAN,NAE,NAD,NAe,m10,m00,Gye
 139834044, -0.01084369, 0.01277329, -0.0003367317, 0.001089464, -0.002921153, 0.004271879, 0.0004304308, 0.0005187924, -0.1083785, 0.9941084, 0.04570375
 140033964, -0.009449822, 0.01256887, 0.0003421654, 0.001089464, -0.002791129, 0.003806722, 4.118225E-05, 0.0005187924, -0.1083743, 0.9941089, 0.05027412
 140233884, 0.004232745, 0.01089022, -4.040054E-05, 0.001089464, 0.02230622, 0.001104852, -0.0003152539, 0.0005187924, -0.1083687, 0.9941095, 0.04570375
 140433804, 0.2827651, -0.01911181, -0.000120868, 0.001089464, 0.2114599, -0.02096607, 0.0004980955, 0.0005187924, -0.1083594, 0.9941104, 0.04570375
 140633724, 0.9613979, -0.09606284, 0.01233089, 0.001089464, 0.4452915, -0.0442039, 0.008209186, 0.0005187924, -0.108325, 0.9941139, 0.04570375
 140833644, 1.713878, -0.1744144, 0.03333241, 0.001089464, 0.6808332, -0.06906057, 0.01361369, 0.0005187924, -0.1082724, 0.9941175, 0.04570375
 141033564, 2.44453, -0.2531691, 0.04930393, 0.001089464, 0.8943497, -0.1014063, 0.01845451, 0.0005187924, -0.1082239, 0.9941212, 0.04570375
 141233484, 3.091413, -0.3353321, 0.06475826, 0.001089464, 1.057836, -0.1234759, 0.02317884, 0.0005187924, -0.1081882, 0.9941236, 0.04570375
 141434237, 3.392148, -0.3702475, 0.07775886, 0.001091626, 1.149796, -0.1202506, 0.02840544, 0.000520954, -0.1081668, 0.9941231, 0.04121499
 141634157, 3.326854, -0.3446743, 0.08219635, 0.001091626, 1.037642, -0.09674008, 0.02619879, 0.0005187924, -0.1081341, 0.9941248, 0.04579443
 141834077, 2.978178, -0.3037777, 0.05351822, 0.001089464, 0.9374563, -0.1082052, -0.006325679, 0.0005187924, -0.1081282, 0.9941255, 0.04570375
 142033997, 2.628416, -0.2841125, -0.07645908, 0.001089464, 0.7984079, -0.07817794, -0.01812532, 0.0005187924, -0.1081313, 0.9941259, 0.04570375
 142233917, 2.384847, -0.2432634, -0.02306655, 0.001089464, 1.059568, -0.1167729, -0.1234993, 0.0005187924, -0.1084513, 0.9940786, 0.05027412
 142433837, 3.199438, -0.3559564, -1.368315, 0.001089464, 0.9017133, -0.1117953, -0.6965206, 0.0005187924, -0.1098403, 0.9932314, 0.04570375
 142633757, 2.719896, -0.3427991, -1.815598, 0.001089464, 0.7720746, -0.09726732, -0.3499904, 0.0005187924, -0.1084985, 0.9919868, 0.04570375
 142833677, 2.381911, -0.2402548, -0.8836061, 0.001089464, 0.6849478, -0.0452434, -0.2283906, 0.0005187924, -0.1066523, 0.9914301, 0.04570375
 143033597, 2.110763, -0.1588563, -0.7057459, 0.001089464, 0.604812, -0.04480596, -0.2395915, 0.0005187924, -0.108891, 0.9905536, 0.04570375
 143233517, 1.827363, -0.193421, -0.752048, 0.001089464, 0.5113367, -0.05881551, -0.2360608, 0.0005187924, -0.109747, 0.98947, 0.04570375
 143434270, 1.563907, -0.189249, -0.7161134, 0.001091626, 0.5020142, -0.05906916, -0.2177864, 0.000520954, -0.1098308, 0.9885642, 0.04121499
 143634190, 1.402712, -0.1646877, -0.6207172, 0.001091626, 0.4423208, -0.04924316, -0.1678413, 0.0005187924, -0.1094204, 0.987923, 0.04579443
 143834110, 1.197759, -0.1379978, -0.5529253, 0.001089464, 0.3479461, -0.05069262, -0.2242313, 0.0005187924, -0.1115928, 0.9866614, 0.04570375
 144034030, 0.9675775, -0.1278401, -0.6371346, 0.001089464, 0.2990103, -0.02317554, -0.184691, 0.0005187924, -0.1103229, 0.9858171, 0.04570375
 144233950, 0.8317552, -0.03446095, -0.5124382, 0.001089464, 0.217901, -0.005581662, -0.1532775, 0.0005187924, -0.1086467, 0.9851026, 0.05027412
 144433870, 0.6647484, -0.01712403, -0.4391739, 0.001089464, 0.184059, -0.01375597, -0.1120295, 0.0005187924, -0.1093863, 0.9843789, 0.04570375
 144633790, 0.5645915, -0.08271345, -0.2765462, 0.001089464, 0.1641678, -0.02073821, -0.05892112, 0.0005187924, -0.1103022, 0.9840851, 0.04570375
 144833710, 0.5009454, -0.05005917, -0.1638769, 0.001089464, 0.1346035, -0.0005164163, -0.0226898, 0.0005187924, -0.109024, 0.9842283, 0.04570375
 145033630, 0.4169065, -0.008508828, -0.1512608, 0.001089464, 0.1067052, -0.002130794, -0.07173119, 0.0005187924, -0.1109224, 0.9834958, 0.04570375
 145233550, 0.3178817, -0.02103377, -0.2447156, 0.001089464, 0.07791003, -0.006884028, -0.08269796, 0.0005187924, -0.1093239, 0.9832034, 0.04570375
 145434303, 0.2869766, -0.008142617, -0.1345161, 0.001091626, 0.09162621, 0.01204566, -0.007440069, 0.0005187924, -0.1092406, 0.9834194, 0.04579443
 145634223, 0.2383937, 0.005107567, -0.08180339, 0.001091626, 0.06672332, -0.01096911, -0.02978345, 0.000520954, -0.1109807, 0.9830117, 0.04121499
 145834143, 0.178479, -0.03265224, -0.1047423, 0.001091626, 0.0537276, -0.0005783498, -0.03351529, 0.0005187924, -0.1107359, 0.9827104, 0.04579443
 146034063, 0.1082427, -0.02031931, -0.1893843, 0.001089464, 0.01850807, -0.008812094, -0.08434823, 0.0005187924, -0.1111898, 0.9820628, 0.04570375
 146233983, 0.1077089, -0.02802163, -0.04556929, 0.001089464, 0.05221936, -0.01036851, 0.04329618, 0.0005187924, -0.1113144, 0.9826307, 0.05027412
 146433903, 0.1245707, -0.01360268, 0.03393776, 0.001089464, 0.03370624, -0.0120275, -0.01884965, 0.0005187924, -0.1124859, 0.982354, 0.04570375
 146633823, 0.1075916, -0.0211078, -0.01378687, 0.001089464, 0.02302607, 0.006128915, 0.008191454, 0.0005187924, -0.1111522, 0.9827026, 0.04570375
 146833743, 0.08081421, 0.05539287, 0.007304014, 0.001089464, 0.01941634, 0.0309703, -0.01252102, 0.0005187924, -0.109208, 0.9828913, 0.04570375
 147033663, 0.06050178, 0.06315106, -0.05784077, 0.001089464, 0.009966446, -1.856799E-05, -0.03119937, 0.0005187924, -0.1104657, 0.9825494, 0.04570375
 147233583, 0.06885267, -0.01407226, 0.05294598, 0.001089464, 0.01804286, -0.004660257, 0.03216267, 0.0005187924, -0.1102528, 0.9831377, 0.04570375
 147433503, 0.05013132, -0.02219078, 0.04268686, 0.001089464, 0.002297359, -0.003671784, -0.02096157, 0.0005187924, -0.111221, 0.9829529, 0.04570375
 147634256, 0.001132226, -0.02757146, -0.1095701, 0.001091626, 0.0007820654, -0.01895204, -0.041125, 0.000520954, -0.111469, 0.9825901, 0.04121499
 147834176, 0.03666293, -0.02832781, 0.01560571, 0.001091626, 0.03320265, -0.01185853, 0.06790648, 0.0005187924, -0.1129602, 0.9830053, 0.04579443
 148034096, 0.06593925, 0.01327491, 0.1365454, 0.001089464, 0.01081372, 0.01880539, -0.003737671, 0.0005187924, -0.1119066, 0.9832618, 0.04570375
 148234016, 0.03518379, -0.009121367, 0.02229467, 0.001089464, 0.005718687, -0.03780264, -0.00920286, 0.0005187924, -0.1150873, 0.982984, 0.04570375
 148433936, 0.001975991, -0.06291412, -0.07507985, 0.001089464, -0.002070628, 0.004639622, -0.01373342, 0.0005187924, -0.114654, 0.9828317, 0.05027412
 148633856, 0.02086513, 0.00107469, 0.04134914, 0.001089464, 0.009491146, -0.006432935, 0.03862743, 0.0005187924, -0.1151265, 0.9831437, 0.04570375
 148833776, 0.01931974, -0.02105308, 0.04253456, 0.001089464, 0.002007785, -0.008235637, -0.005343207, 0.0005187924, -0.115909, 0.9830586, 0.04570375
 149033696, -0.01078554, -0.001184348, 0.09148835, 0.001089464, -0.02314928, 0.005504388, 0.04267263, 0.0005187924, -0.116132, 0.9834634, 0.04570375
 149233616, -0.1048125, 0.02262926, 0.05371452, 0.001089464, -0.05015492, -0.005925997, -0.01970866, 0.0005187924, -0.1175617, 0.9831167, 0.04570375
 149433536, -0.1095947, -0.01116725, 0.03067378, 0.001089464, -0.009745422, -0.002121255, 0.04602546, 0.0005187924, -0.1173091, 0.9835137, 0.04570375
 149634289, -0.03417978, 0.01352315, 0.1184121, 0.001091626, -0.005164362, 0.01401443, 0.03398878, 0.000520954, -0.1171898, 0.9838616, 0.04121499
 149834209, 0.01640554, 0.0166827, 0.2137274, 0.001091626, 0.02070379, 0.003465354, 0.1268868, 0.0005187924, -0.1170575, 0.9847416, 0.04579443
 150034129, 0.04254313, 0.026041, 0.221671, 0.001089464, -0.004729167, -0.0002258588, -0.01811643, 0.0005187924, -0.1165306, 0.9848592, 0.04570375
 150234049, -0.03095357, 0.03799102, -0.1143671, 0.001089464, -0.009106988, 0.03216608, -0.04672285, 0.0005187924, -0.1152536, 0.9846028, 0.04570375
 150433969, -0.008197901, 0.06136778, -0.06040125, 0.001089464, 0.01051569, 0.0107422, 0.02276053, 0.0005187924, -0.1152227, 0.9847285, 0.05027412
 150633889, 0.02585735, 0.01526476, 0.05886889, 0.001089464, -0.004617886, -0.006827221, 0.007880014, 0.0005187924, -0.1170205, 0.9845492, 0.04570375
 150833809, -0.004163215, -0.02673421, 0.003499977, 0.001089464, 0.004998669, 0.008200921, 0.01069547, 0.0005187924, -0.1149733, 0.9848634, 0.04570375
 151033729, 0.04882119, 0.00994915, 0.1802089, 0.001089464, 0.04180873, -0.01655243, 0.1026889, 0.0005187924, -0.1169027, 0.9854968, 0.04570375
 151233649, 0.06592235, -0.03952473, 0.1765269, 0.001089464, -0.01311977, -0.007615139, -0.04350657, 0.0005187924, -0.1175729, 0.9853531, 0.04570375
 151433569, -0.02237765, 0.0001792127, -0.09745751, 0.001089464, 0.0003605782, 0.0005623702, 0.0196915, 0.0005187924, -0.1169253, 0.9854278, 0.04570375
 151633489, -0.007536708, 0.02074627, -0.04758538, 0.001089464, -0.017292, -0.005193027, -0.06137585, 0.0005187924, -0.1161231, 0.9850671, 0.04570375
 151834242, -0.03045679, -0.006238211, -0.1320677, 0.001091626, -0.0006725879, -0.009220361, 0.01786312, 0.000520954, -0.1183835, 0.9847071, 0.04121499
 152034162, 0.007620354, -0.03773762, 0.07004659, 0.001091626, -0.005968738, 0.005966697, 0.01976409, 0.0005187924, -0.1180202, 0.9850115, 0.04579443
 152234082, -0.01562903, 0.002462911, 0.1155329, 0.001089464, -0.007459853, -0.009638893, 0.05478029, 0.0005187924, -0.1201824, 0.9850616, 0.04570375
 152434002, -0.0262897, -0.0409609, 0.05886178, 0.001089464, -0.003527192, -0.01899235, 0.01696704, 0.0005187924, -0.1199672, 0.9851788, 0.04570375
 152633922, 0.01927779, -0.01307459, 0.1660562, 0.001089464, 0.002206463, 0.01504299, -0.002400105, 0.0005187924, -0.1191708, 0.9856964, 0.05027412
 152833842, -0.008066728, 0.02432163, -0.0489998, 0.001089464, -0.01508955, -0.01676879, -0.0408526, 0.0005187924, -0.1220172, 0.9850829, 0.04570375
 153033762, -0.03233245, -0.01083356, -0.114984, 0.001089464, 0.01078858, 0.01268799, -0.01777395, 0.0005187924, -0.12082, 0.9850525, 0.04570375
 153233682, 0.03834547, 0.00444846, 0.04622935, 0.001089464, 0.0144436, -0.002842908, 0.05976813, 0.0005187924, -0.1222557, 0.9852921, 0.04570375
 153433602, 0.03828, -0.009388107, 0.129719, 0.001089464, 0.009706555, 0.0007286274, 0.03077906, 0.0005187924, -0.1221382, 0.9855237, 0.04570375
 153633522, 0.01878727, 0.004547771, 0.1227162, 0.001089464, 0.006791158, 0.006632216, 0.009869726, 0.0005187924, -0.1220594, 0.9858432, 0.04570375
 153834275, 0.001480252, 0.004883829, -0.008667115, 0.001091626, -0.01337148, 0.0002360915, -0.05685136, 0.000520954, -0.1226145, 0.9855356, 0.04121499
 154034195, -0.01896013, 0.005257545, -0.07392496, 0.001091626, 0.006462207, -0.001088408, 0.03445459, 0.0005187924, -0.1227779, 0.9856999, 0.04579443
 154234115, 0.003739399, -0.002471906, 0.07476357, 0.001089464, -0.00838276, 0.004905951, 0.01621012, 0.0005187924, -0.1234377, 0.9857447, 0.04570375
 154434035, -0.01050138, 0.01726434, 0.04080988, 0.001089464, -0.00417536, 0.0124447, -0.005078639, 0.0005187924, -0.1218805, 0.9859159, 0.04570375
 154633955, -0.01833958, 0.03690125, -0.04505531, 0.001089464, 0.002896015, 0.01529827, 0.003968654, 0.0005187924, -0.1212977, 0.9858809, 0.05027412
 154833875, -0.003119447, 0.02880032, 0.05701946, 0.001089464, 0.006091763, -0.006717888, 0.03505353, 0.0005187924, -0.1228174, 0.9859939, 0.04570375
 155033795, 0.03556732, -0.02491827, 0.1511653, 0.001089464, 0.008676783, -0.001886776, 0.03828691, 0.0005187924, -0.1231577, 0.9863439, 0.04570375
 155233715, 0.0205138, -0.008672814, 0.04981551, 0.001089464, 0.01223736, -0.009474797, -0.00168914, 0.0005187924, -0.1228713, 0.9863614, 0.04570375
 155433635, 0.01946017, -0.02092632, 0.0394726, 0.001089464, -0.001598379, -0.01793633, -0.001105724, 0.0005187924, -0.1250673, 0.9861696, 0.04570375
 155633555, -0.01042353, -0.03130725, -0.04608953, 0.001089464, 0.002502794, 0.006794887, 0.02244852, 0.0005187924, -0.1249834, 0.9860905, 0.04570375
 155833475, 0.006960819, 0.004569002, 0.01385706, 0.001089464, -0.0003306425, 0.006311223, -0.0232654, 0.0005187924, -0.1245521, 0.9860483, 0.04570375
 156034228, -0.00177984, 0.01835503, -0.01780997, 0.001091626, 0.0003535873, -0.004498108, 0.02531117, 0.000520954, -0.1247195, 0.9861434, 0.04121499
 156234148, 0.01120272, 0.002396303, 0.07452469, 0.001091626, 0.0100968, 0.001599515, 0.05315243, 0.0005187924, -0.1252882, 0.986262, 0.04579443
 156434068, 0.0008132176, 0.02560627, 0.03869021, 0.001089464, 0.008607435, 0.01802433, 0.003686555, 0.0005187924, -0.1236625, 0.986369, 0.04570375
 156633988, 0.0134327, 0.0349745, 0.02465906, 0.001089464, 0.002796037, -0.004307924, 0.02631036, 0.0005187924, -0.1248655, 0.986309, 0.04570375
 156833908, 0.01267103, 0.003833671, 0.105075, 0.001089464, 0.006924202, -0.005828323, 0.02053021, 0.0005187924, -0.1252065, 0.9865407, 0.05027412
 157033828, 0.01167229, -0.01355475, 0.05767949, 0.001089464, -0.01501275, -0.01262175, -0.01128975, 0.0005187924, -0.1259912, 0.9864755, 0.04570375
 157233748, -0.02157134, 0.002326027, -0.03873796, 0.001089464, -0.00274755, 0.007143676, -0.01770293, 0.0005187924, -0.1237375, 0.9866603, 0.04570375
 157433668, -0.007163673, 0.033942, -0.05718882, 0.001089464, -0.01025393, 0.007100095, -0.02541879, 0.0005187924, -0.1242805, 0.9864557, 0.04570375
 157633588, -0.01750569, 0.01189531, -0.04337156, 0.001089464, -0.01036292, -0.008259417, -0.02301964, 0.0005187924, -0.1259751, 0.9861629, 0.04570375
 157833508, -0.007905127, -0.01574406, 0.03485891, 0.001089464, 0.01966272, 0.0008832322, 0.03631636, 0.0005187924, -0.1262603, 0.9864488, 0.04570375
 158034261, 0.03242767, -0.0002709448, 0.08413441, 0.001091626, -0.009773976, 0.009235357, -0.02160415, 0.000520954, -0.1260384, 0.9865493, 0.04121499
 158234181, -0.01105909, 0.01102684, -0.02854309, 0.001091626, -0.002153911, 0.008093525, -0.01435756, 0.0005187924, -0.1260967, 0.9864624, 0.04579443
 158434101, 0.01132599, 0.007078725, 0.0538855, 0.001089464, 0.01403549, 0.001912172, 0.08458844, 0.0005187924, -0.1254147, 0.9870584, 0.04570375
 158634021, 0.04512186, 0.01072669, 0.2658024, 0.001089464, 0.005983156, 0.00187101, 0.0560572, 0.0005187924, -0.1263301, 0.9874046, 0.04570375
 158833941, 0.03611294, -0.004474388, 0.2563236, 0.001089464, 0.02865026, -0.0001791137, 0.1388264, 0.0005187924, -0.1269122, 0.9880879, 0.05027412
 159033861, 0.09612731, -0.01228871, 0.4237444, 0.001089464, 0.03771221, 0.007815872, 0.09501022, 0.0005187924, -0.126215, 0.9888905, 0.04570375
 159233781, 0.08455957, 0.01856108, 0.2276624, 0.001089464, 0.01858275, 0.02400887, 0.05616191, 0.0005187924, -0.1253937, 0.9892754, 0.04570375
 159433701, 0.0871488, 0.0578708, 0.2582491, 0.001089464, 0.02387389, 0.01779648, 0.07777525, 0.0005187924, -0.1252819, 0.9897868, 0.04570375
 159633621, 0.09391411, 0.03498073, 0.2974328, 0.001089464, 0.03188274, -0.0005343404, 0.07956191, 0.0005187924, -0.1253591, 0.9902226, 0.04570375
 159833541, 0.07004104, -0.01435716, 0.1777712, 0.001089464, 0.02106101, -0.006319135, 0.07510603, 0.0005187924, -0.1263276, 0.9903247, 0.04570375
 160034294, 0.08270553, -0.06541259, 0.2974969, 0.001091626, 0.04317113, -0.03884643, 0.1215953, 0.000520954, -0.1279671, 0.9905282, 0.04579443
 160234214, 0.1025879, -0.08067361, 0.3341701, 0.001091626, 0.02574, -0.0136273, 0.1248279, 0.0005187924, -0.127692, 0.9908916, 0.04121499
 160434134, 0.08410659, 0.0261366, 0.3506236, 0.001089464, 0.02721582, 0.03906747, 0.07729775, 0.0005187924, -0.1270362, 0.9912014, 0.04570375
 160634054, 0.02382999, 0.04805104, 0.1620928, 0.001089464, -0.007970604, -0.006051549, 0.0740922, 0.0005187924, -0.1288588, 0.9911085, 0.04570375
 160833974, -0.03023332, -0.03490162, 0.2973849, 0.001089464, 0.0285097, 0.197874, 0.04210323, 0.0005187924, -0.1002982, 0.9947151, 0.05027412
 161033894, 0.2207541, 1.485393, 0.3911211, 0.001089464, 0.08543735, 0.7810398, 0.2598305, 0.0005187924, -0.1014617, 0.9947444, 0.04570375
 161233814, 0.1821535, 2.276395, 0.3944085, 0.001089464, -0.004124757, 0.5663274, -0.2347056, 0.0005187924, -0.1086479, 0.9928681, 0.04570375
 161433734, -0.1147979, 1.231908, -0.9476694, 0.001089464, -0.07547911, 0.08630777, -0.2430857, 0.0005187924, -0.08318061, 0.9949178, 0.04570375
 161633654, -0.1872326, 0.1109449, -0.1182084, 0.001089464, -0.04099318, 0.02849787, 0.2190276, 0.0005187924, -0.04583505, 0.9984009, 0.04570375
 161833574, -0.1188586, 0.3373637, 0.8209797, 0.001089464, -0.03208273, 0.2133956, 0.3048476, 0.0005187924, -0.0270625, 0.9995665, 0.04570375
 162033494, -0.1155036, 0.7489058, 0.8213447, 0.001089464, -0.039797, 0.246484, 0.1596791, 0.0005187924, -0.02438196, 0.9996977, 0.04570375
 162234247, -0.1389386, 0.7311095, 0.3438169, 0.001091626, -0.05281243, 0.2120068, 0.03688733, 0.000520954, -0.01516975, 0.9998844, 0.04121499
 162434167, -0.1415721, 0.5252787, 0.1189285, 0.001091626, -0.05198564, 0.1492234, 0.03526056, 0.0005187924, 0.001467057, 0.9999909, 0.04579443
 162634087, -0.134637, 0.4180588, 0.2198117, 0.001089464, -0.03177821, 0.1277238, 0.1442558, 0.0005187924, 0.01525146, 0.9998007, 0.04570375
 162834007, -0.1075554, 0.4157941, 0.4556653, 0.001089464, -0.03717317, 0.1675443, 0.1503671, 0.0005187924, 0.02676447, 0.9993864, 0.04570375
 163033927, -0.1097505, 0.4832345, 0.4201499, 0.001089464, -0.02668527, 0.1368353, 0.1133102, 0.0005187924, 0.03492373, 0.9989364, 0.05027412
 163233847, -0.08534069, 0.411519, 0.2837118, 0.001089464, -0.03588343, 0.1170692, 0.07045358, 0.0005187924, 0.04383716, 0.9984245, 0.04570375
 163433767, -0.09798828, 0.3615857, 0.2475708, 0.001089464, -0.03493103, 0.1244175, 0.05072757, 0.0005187924, 0.05485469, 0.997667, 0.04570375
 163633687, -0.09297905, 0.3776786, 0.1770535, 0.001089464, -0.02666948, 0.1189841, 0.07638421, 0.0005187924, 0.06390331, 0.9969032, 0.04570375
 163833607, -0.08923513, 0.3628822, 0.2435492, 0.001089464, -0.02447767, 0.1150027, 0.03560339, 0.0005187924, 0.07211532, 0.9961395, 0.04570375
 164033527, -0.08334947, 0.3714088, 0.100974, 0.001089464, -0.01660034, 0.1155073, 0.04037882, 0.0005187924, 0.08095392, 0.9953368, 0.04570375
 164234280, -0.07419347, 0.3238367, 0.1670262, 0.001091626, -0.0227457, 0.1035396, 0.08955769, 0.000520954, 0.08843805, 0.994397, 0.04121499
 164434200, -0.07042006, 0.2891914, 0.1950942, 0.001091626, -0.0256852, 0.09703559, -9.638746E-05, 0.0005187924, 0.09603763, 0.9935619, 0.04579443
 164634120, -0.05996075, 0.2769001, 0.1038097, 0.001089464, -0.02002295, 0.09177858, 0.04368043, 0.0005187924, 0.1036065, 0.9925973, 0.04570375
 164834040, -0.05976795, 0.2742395, 0.1636763, 0.001089464, -0.0234048, 0.09121111, 0.08118811, 0.0005187924, 0.1099785, 0.9915856, 0.04570375
 165033960, -0.09858876, 0.2727014, 0.1617761, 0.001089464, -0.03348914, 0.07324288, 0.03113798, 0.0005187924, 0.1147128, 0.990932, 0.05027412
 165233880, -0.07667509, 0.2243844, 0.1086597, 0.001089464, -0.01431429, 0.06370255, 0.08593582, 0.0005187924, 0.1206419, 0.9899627, 0.04570375
 165433800, -0.02696191, 0.2236319, 0.2031907, 0.001089464, -0.006154547, 0.06054557, 0.03106476, 0.0005187924, 0.1252511, 0.9891831, 0.04570375
 165633720, -0.02051036, 0.181422, 0.05759136, 0.001089464, 0.009450351, 0.04525021, 0.03678223, 0.0005187924, 0.1303369, 0.9884399, 0.04570375
 165833640, -0.006196818, 0.1662639, 0.04647583, 0.001089464, -0.03049582, 0.0599612, -0.03029584, 0.0005187924, 0.1354544, 0.98779, 0.04570375
 166033560, -0.0690994, 0.1852751, -0.00986041, 0.001089464, -0.01265675, 0.0662979, 0.0363767, 0.0005187924, 0.1407823, 0.9869072, 0.04570375
 166233480, -0.04005821, 0.1940851, 0.04550558, 0.001089464, -0.01456069, 0.05685207, -0.006401457, 0.0005187924, 0.1439198, 0.9865052, 0.04570375
 166434233, -0.04210103, 0.166868, 0.02271711, 0.001091626, -0.01584893, 0.05739439, 0.04719151, 0.000520954, 0.1470791, 0.9858817, 0.04121499
 166634153, -0.02830231, 0.1550293, 0.06655327, 0.001091626, -0.01485158, 0.04728391, 0.0001910685, 0.0005187924, 0.150092, 0.9854149, 0.04579443
 166834073, -0.03043678, 0.1301436, 0.02427258, 0.001089464, -0.008860871, 0.04867151, 0.03129265, 0.0005187924, 0.1538832, 0.9847099, 0.04570375
 167033993, -0.02288167, 0.1365526, 0.1393051, 0.001089464, -0.005402931, 0.0381402, 0.06477339, 0.0005187924, 0.1572936, 0.9838378, 0.04570375
 167233913, -0.01741802, 0.1244419, 0.0866165, 0.001089464, -0.01088277, 0.03904686, 0.009362862, 0.0005187924, 0.1598282, 0.983447, 0.05027412
 167433833, -0.02881005, 0.1411555, -0.009577084, 0.001089464, -0.009260261, 0.03920777, 0.003050728, 0.0005187924, 0.1635734, 0.9828936, 0.04570375
 167633753, -0.0422041, 0.1365062, 0.004022381, 0.001089464, -0.02152514, 0.05099334, 0.0147116, 0.0005187924, 0.1671733, 0.9822085, 0.04570375
 167833673, -0.04070088, 0.1488225, 0.0233316, 0.001089464, -0.009925684, 0.04367728, 0.005339584, 0.0005187924, 0.168537, 0.9819881, 0.04570375
 168033593, -0.01797318, 0.1205141, -0.004898839, 0.001089464, 0.0007760589, 0.03687741, -0.01662485, 0.0005187924, 0.1720975, 0.9813997, 0.04570375
 168233513, -0.01395034, 0.1110291, -0.03027648, 0.001089464, -0.00875442, 0.03593233, -0.01652629, 0.0005187924, 0.1730732, 0.9812715, 0.04570375
 168434266, -0.01926563, 0.07005074, 0.03373451, 0.001091626, -0.003691542, 0.02069253, 0.0197693, 0.000520954, 0.1749396, 0.9807578, 0.04121499
 168634186, -0.0134591, 0.08394232, 0.04197299, 0.001091626, -0.009303708, 0.03824799, -0.0008959905, 0.0005187924, 0.1778804, 0.9802194, 0.04579443
 168834106, -0.02204646, 0.1093593, -0.06261309, 0.001089464, -0.005591764, 0.0297612, -0.0569805, 0.0005187924, 0.1795, 0.9801263, 0.04570375
 169034026, -0.02236372, 0.08772385, -0.03299698, 0.001089464, -0.01300153, 0.03369451, 0.02942807, 0.0005187924, 0.18177, 0.979496, 0.04570375
 169233946, -0.0240054, 0.08920026, 0.1563645, 0.001089464, -0.004344143, 0.006352418, 0.06209892, 0.0005187924, 0.1826758, 0.978924, 0.05027412
 169433866, 0.002152356, 0.03148642, 0.1088124, 0.001089464, 0.001809053, 0.01229703, -0.006940544, 0.0005187924, 0.1834412, 0.9788108, 0.04570375
 169633786, -0.001518479, 0.06975389, -0.0715232, 0.001089464, 0.001901922, 0.04092218, -0.03308355, 0.0005187924, 0.1853143, 0.9786587, 0.04570375
 169833706, 0.002548428, 0.09176921, -0.1190275, 0.001089464, 0.001429094, 0.01400711, -0.03472512, 0.0005187924, 0.1857448, 0.9788195, 0.04570375
 170033626, 0.01248343, 0.02570479, 0.003611303, 0.001089464, -0.0005974454, 0.01202103, 0.03650816, 0.0005187924, 0.1867056, 0.978406, 0.04570375
 170233546, 0.0109078, 0.05997586, 0.07955837, 0.001089464, 0.008250394, 0.02789238, -0.0004859887, 0.0005187924, 0.1885929, 0.9779957, 0.04570375
 170434299, 0.01355936, 0.06835356, 0.05710945, 0.001091626, 0.01635474, 0.001946998, 0.03613113, 0.0005187924, 0.188308, 0.9778239, 0.04579443
 170634219, 0.03678576, 0.01415655, 0.05257909, 0.001091626, 0.01039787, 0.004015837, -0.002672786, 0.000520954, 0.1893965, 0.9776315, 0.04121499
 170834139, 0.02721964, 0.01618063, -0.0803064, 0.001091626, 0.007565236, 0.008248091, -0.06027842, 0.0005187924, 0.1899926, 0.9778588, 0.04579443
 171034059, 0.008272364, 0.05860894, -0.1495628, 0.001089464, -0.006050513, 0.02499112, 0.008007593, 0.0005187924, 0.1912863, 0.9776831, 0.04570375
 171233979, -0.01680208, 0.06062282, 0.007474092, 0.001089464, -0.008352519, 0.005485353, -0.01132188, 0.0005187924, 0.1905812, 0.9778937, 0.05027412
 171433899, -0.01791116, 0.03719521, -0.02905262, 0.001089464, -7.738839E-05, 0.01446372, 0.01802496, 0.0005187924, 0.1911104, 0.9777595, 0.04570375
 171633819, 0.006965097, 0.05894869, 0.08857772, 0.001089464, -0.004742762, 0.0422749, 0.0114603, 0.0005187924, 0.1935912, 0.9771001, 0.04570375
 171833739, -0.01282326, 0.124824, -0.0006012421, 0.001089464, -0.006072933, 0.03619086, 0.01054228, 0.0005187924, 0.1944619, 0.9769596, 0.04570375
 172033659, -0.006657413, 0.06735326, 0.006087441, 0.001089464, 0.00215654, -0.002577955, -0.01573152, 0.0005187924, 0.1934707, 0.977245, 0.04570375
 172233579, 0.01481542, 0.008449722, -0.03966597, 0.001089464, 0.001471969, 0.01270973, -0.02392708, 0.0005187924, 0.195124, 0.9769974, 0.04570375
 172433499, 0.01160027, 0.03765165, -0.06192715, 0.001089464, -0.00398543, 0.0145559, -0.03060937, 0.0005187924, 0.1959524, 0.976946, 0.04570375
 172634252, 0.000204746, 0.02738098, -0.0909225, 0.001091626, 0.0003871842, 9.920049E-05, -0.04519506, 0.000520954, 0.1954462, 0.9772259, 0.04121499
 172834172, -0.002894792, 0.0526187, -0.05614333, 0.001091626, -0.01691603, 0.03796497, 0.03028877, 0.0005187924, 0.1984708, 0.9765205, 0.04579443
 173034092, -0.03150307, 0.1148702, 0.09061652, 0.001089464, 0.003969708, 0.02415781, 0.03945248, 0.0005187924, 0.1973805, 0.9765935, 0.04570375
 173234012, -0.003988594, 0.07358254, 0.05191562, 0.001089464, -0.003766214, 0.02965697, 0.008248538, 0.0005187924, 0.1980616, 0.9764698, 0.04570375
 173433932, -0.0107015, 0.08160807, 0.0007893257, 0.001089464, -0.001174891, 0.02883186, -0.01213523, 0.0005187924, 0.2007538, 0.9759953, 0.05027412
 173633852, -0.0003570796, 0.1088076, -0.06661372, 0.001089464, -0.004679957, 0.03710458, -0.02502184, 0.0005187924, 0.2015615, 0.975969, 0.04570375
 173833772, -0.004268822, 0.09266616, -0.09879971, 0.001089464, 0.002342814, 0.02779111, -0.03727013, 0.0005187924, 0.2037022, 0.975733, 0.04570375
 174033692, 0.001057672, 0.1057105, -0.04780224, 0.001089464, 0.002246191, 0.02818196, 0.01099375, 0.0005187924, 0.2050821, 0.9754026, 0.04570375
 174233612, -0.006892987, 0.1070162, 0.003685392, 0.001089464, -0.006804162, 0.03586052, -0.03256296, 0.0005187924, 0.208079, 0.9748546, 0.04570375
 174433532, -0.03118496, 0.1177083, -0.1028339, 0.001089464, -0.01990981, 0.03263186, -0.007355608, 0.0005187924, 0.209146, 0.9747641, 0.04570375
 174634285, -0.03345695, 0.08208103, 0.0004845485, 0.001091626, -0.006483144, 0.01602013, -0.0029753, 0.000520954, 0.2094657, 0.9746433, 0.04121499
 174834205, -0.02554371, 0.05276168, 0.02894501, 0.001091626, 0.001740299, 0.0169906, -0.01505426, 0.0005187924, 0.2115699, 0.9741628, 0.04579443
 175034125, 0.0266559, 0.06537511, 0.006383867, 0.001089464, -0.0004697005, 0.02669004, 0.01681523, 0.0005187924, 0.2137791, 0.9735821, 0.04570375
 175234045, -0.05961037, 0.08394751, 0.01956819, 0.001089464, -0.02799715, 0.03258941, -0.01858928, 0.0005187924, 0.2163908, 0.9730691, 0.04570375
 175433965, -0.05614511, 0.14881, -0.0184963, 0.001089464, -0.004326816, 0.06127919, 0.0003719749, 0.0005187924, 0.2186117, 0.972545, 0.05027412
 175633885, -0.02660514, 0.2448821, -0.05519197, 0.001089464, -0.01621976, 0.1000071, -0.02713539, 0.0005187924, 0.2222454, 0.9718624, 0.04570375
 175833805, -0.05799436, 0.3736778, -0.04123172, 0.001089464, -0.01252213, 0.1440808, 0.002711928, 0.0005187924, 0.2277375, 0.9705981, 0.04570375
 176033725, -0.1359515, 0.6845567, 0.04866192, 0.001089464, -0.1681893, 0.4686086, 0.06764261, 0.0005187924, 0.2270626, 0.9709293, 0.04570375
 176233645, -0.3894143, 0.3344587, -0.2781195, 0.001089464, -0.005332105, -0.6951423, -0.2693965, 0.0005187924, 0.1860828, 0.9793532, 0.04570375
 176433565, 0.1559542, -2.61693, 0.2521911, 0.001089464, 0.1087107, -0.747761, 0.5337569, 0.0005187924, 0.2259245, 0.9706573, 0.04570375
 176633485, 0.4544725, -2.004827, 0.5649638, 0.001089464, 0.1844661, -0.4449945, -0.5049398, 0.0005187924, 0.2326828, 0.9717693, 0.04570375
 176834238, 0.3651638, -0.6221429, -1.363585, 0.001091626, 0.01804616, 0.1256764, -0.1661308, 0.000520954, 0.1938717, 0.9797864, 0.04121499
 177034158, -0.01799436, 0.216856, 0.318815, 0.001091626, -0.0354096, -0.08328008, 0.369472, 0.0005187924, 0.1512607, 0.9852443, 0.04579443
 177234078, -0.186605, -0.6328346, 1.032892, 0.001089464, -0.09025326, -0.3510633, 0.2962982, 0.0005187924, 0.1436058, 0.984784, 0.04570375
 177433998, -0.3087877, -1.056503, 0.7464215, 0.001089464, -0.1142096, -0.339772, 0.1394973, 0.0005187924, 0.1440627, 0.9843791, 0.04570375
 177633918, -0.3651214, -0.8024105, 0.3011514, 0.001089464, -0.1210152, -0.140507, 0.05901264, 0.0005187924, 0.1325697, 0.9853634, 0.05027412
 177833838, -0.3882708, -0.3771769, 0.3267424, 0.001089464, -0.1115039, -0.1040223, 0.1716695, 0.0005187924, 0.1123733, 0.9860274, 0.04570375
 178033758, -0.3057916, -0.4080942, 0.61849, 0.001089464, -0.07759976, -0.1579514, 0.2185475, 0.0005187924, 0.0967223, 0.9854266, 0.04570375
 178233678, -0.2078574, -0.5205115, 0.7181718, 0.001089464, -0.04098972, -0.1688886, 0.2067038, 0.0005187924, 0.08833491, 0.9840316, 0.04570375
 178433598, -0.1043043, -0.5285268, 0.56363, 0.001089464, -0.01028717, -0.1579459, 0.1342877, 0.0005187924, 0.0789091, 0.9832742, 0.04570375
 178633518, -0.03559409, -0.4706098, 0.3877195, 0.001089464, -0.004188714, -0.127867, 0.09646275, 0.0005187924, 0.06708831, 0.9827745, 0.04570375
 178834271, -0.01605084, -0.3983202, 0.3314944, 0.001091626, -0.009203034, -0.1172155, 0.1332605, 0.000520954, 0.05491668, 0.9819636, 0.04121499
 179034191, -0.004442838, -0.391639, 0.3798493, 0.001091626, 0.001692874, -0.1353674, 0.1170857, 0.0005187924, 0.0438398, 0.9810645, 0.04579443
 179234111, 0.01742874, -0.4117, 0.2620274, 0.001089464, 0.01899584, -0.1370788, 0.05087116, 0.0005187924, 0.03258745, 0.9807115, 0.04570375
 179434031, 0.03471872, -0.402447, 0.1932391, 0.001089464, -0.002954253, -0.1406286, 0.09716419, 0.0005187924, 0.02201288, 0.9798192, 0.04570375
 179633951, 0.01010944, -0.4001216, 0.2054736, 0.001089464, 0.003198877, -0.1131209, 0.02682509, 0.0005187924, 0.01157078, 0.9794918, 0.05027412
 179833871, 0.02176963, -0.3740966, 0.0794112, 0.001089464, 0.004503648, -0.1216176, 0.01284362, 0.0005187924, 0.0009246789, 0.9791636, 0.04570375
 180033791, 0.02172074, -0.3449359, 0.06713915, 0.001089464, 0.009823082, -0.09100943, 0.04193773, 0.0005187924, -0.007092758, 0.9786181, 0.04570375
 180233711, 0.01687006, -0.3000959, 0.1202388, 0.001089464, 0.004587872, -0.08241528, 0.02553414, 0.0005187924, -0.01586847, 0.9780648, 0.04570375
 180433631, 0.01690232, -0.2746447, 0.07312088, 0.001089464, 0.01179303, -0.08413764, 0.00240001, 0.0005187924, -0.02332263, 0.9776575, 0.04570375
 180633551, 0.009336106, -0.2205433, 0.03825482, 0.001089464, -0.0103141, -0.05847676, -0.0006550075, 0.0005187924, -0.0294237, 0.9771574, 0.04570375
 180834304, -0.02272371, -0.1768715, 0.06177533, 0.001091626, -0.01220575, -0.06144236, 0.04424976, 0.0005187924, -0.03813509, 0.9761877, 0.04579443
 181034224, -0.0117781, -0.2041445, 0.1098472, 0.001091626, -0.00112019, -0.06941717, 0.02493653, 0.000520954, -0.04341355, 0.9756269, 0.04121499
 181234144, 0.02193503, -0.1791997, 0.03158002, 0.001091626, 0.01438803, -0.05172866, -0.009823549, 0.0005187924, -0.04724738, 0.9754559, 0.04579443
 181434064, 0.02722093, -0.1334677, 0.05270087, 0.001089464, 0.002343317, -0.03726696, 0.03962161, 0.0005187924, -0.05163477, 0.9747131, 0.04570375
 181633984, 0.003815164, -0.08880419, 0.0495404, 0.001089464, -0.001577072, -0.01674928, 0.02142441, 0.0005187924, -0.05607143, 0.9743432, 0.04570375
 181833904, -0.001323628, -0.07069416, 0.04528084, 0.001089464, 0.003062293, -0.02535802, 0.004960269, 0.0005187924, -0.06045522, 0.9739717, 0.05027412
 182033824, 0.01829749, -0.09103629, 0.008232284, 0.001089464, 0.009068969, -0.03071219, 0.002514977, 0.0005187924, -0.06247029, 0.9737888, 0.04570375
 182233744, 0.01244461, -0.08033151, 0.04421209, 0.001089464, 0.006787214, -0.0136462, 0.00311946, 0.0005187924, -0.06370709, 0.9734885, 0.04570375
 182433664, 0.00754719, -0.04159296, 0.008591638, 0.001089464, 0.02379372, -0.01081059, 0.00263881, 0.0005187924, -0.0665679, 0.9732527, 0.04570375
 182633584, 0.0498479, -0.02831729, 0.01388728, 0.001089464, 0.01059608, -0.001855833, -0.002090953, 0.0005187924, -0.06756283, 0.9731203, 0.04570375
 182833504, 0.01469581, -0.006139963, -0.02203863, 0.001089464, 0.0006481032, -0.006102582, 0.007107561, 0.0005187924, -0.06911105, 0.9730924, 0.04570375
 183034257, 0.003335192, -0.01522968, 0.05532364, 0.001091626, 0.0002222511, -0.001454516, 0.03639397, 0.000520954, -0.06975487, 0.972586, 0.04121499
 183234177, 0.01524291, 0.01757286, 0.07248969, 0.001091626, 0.01075517, 0.02770762, -0.01913914, 0.0005187924, -0.06980353, 0.9726225, 0.04579443
 183434097, 0.03062307, 0.08223426, -0.01745104, 0.001089464, 0.006471098, 0.03831718, 0.02190739, 0.0005187924, -0.06959653, 0.9725018, 0.04570375
 183634017, 0.02322404, 0.09114729, 0.03268789, 0.001089464, -0.001077387, 0.02418622, 0.02011118, 0.0005187924, -0.06894055, 0.9724532, 0.04570375
 183833937, 0.02311494, 0.0823076, -0.05205745, 0.001089464, 0.003370469, 0.03190184, -0.02519963, 0.0005187924, -0.0681344, 0.9731932, 0.05027412
 184033857, 0.003242534, 0.08621067, -0.01388434, 0.001089464, -0.0005926551, 0.0332785, 0.01033884, 0.0005187924, -0.06690586, 0.9730635, 0.04570375
 184233777, 0.02275843, 0.1069038, 0.07038641, 0.001089464, 0.02307008, 0.03826271, 0.02107159, 0.0005187924, -0.06559547, 0.9726947, 0.04570375
 184433697, 0.0537558, 0.137066, 0.07553793, 0.001089464, 0.004100929, 0.0460022, 0.02783167, 0.0005187924, -0.06414285, 0.9724218, 0.04570375
 184633617, 0.009604685, 0.1350852, 0.07865848, 0.001089464, -0.003999414, 0.03272821, 0.02050981, 0.0005187924, -0.06243433, 0.9722582, 0.04570375
 184833537, 0.003377942, 0.1101674, -0.001901093, 0.001089464, 0.008232741, 0.03595503, 0.003474467, 0.0005187924, -0.06044323, 0.9726321, 0.04570375
 185034290, 0.01876475, 0.1102401, -0.0366891, 0.001091626, 0.010582, 0.02628705, -0.01609679, 0.000520954, -0.05895419, 0.9731343, 0.04579443
 185234210, 0.02326623, 0.08075891, 0.02180112, 0.001091626, -0.0004713466, 0.02202639, 0.0476329, 0.0005187924, -0.05694072, 0.9728045, 0.04121499
 185434130, 0.02453528, 0.1012052, -0.08075655, 0.001089464, 0.02080849, 0.05558036, -0.1204656, 0.0005187924, -0.05464876, 0.9745737, 0.04570375
 185634050, 0.05426607, 0.1464653, -0.3696685, 0.001089464, 0.03327, 0.04442822, -0.1176053, 0.0005187924, -0.05438135, 0.9763516, 0.04570375
 185833970, 0.1038255, 0.1191524, -0.402911, 0.001089464, 0.02653154, 0.04442753, -0.1000129, 0.0005187924, -0.05089042, 0.978357, 0.05027412
 186033890, 0.0673773, 0.1237123, -0.3745371, 0.001089464, 0.03093128, 0.04955824, -0.1296444, 0.0005187924, -0.0478837, 0.9804115, 0.04570375
 186233810, 0.06565572, 0.1393676, -0.3494569, 0.001089464, 0.01321831, 0.0469543, -0.0771642, 0.0005187924, -0.04488483, 0.9817085, 0.04570375
 186433730, 0.04298319, 0.1626798, -0.2893379, 0.001089464, 0.01555713, 0.05421764, -0.09185378, 0.0005187924, -0.04207985, 0.9831622, 0.04570375
 186633650, 0.05873161, 0.1579808, -0.3317316, 0.001089464, 0.01976186, 0.04280094, -0.1089621, 0.0005187924, -0.0390061, 0.9847015, 0.04570375
 186833570, 0.1281709, 0.1290575, -0.3373757, 0.001089464, 0.04812889, 0.0290066, -0.06703002, 0.0005187924, -0.03716543, 0.9859687, 0.04570375
 187033490, 0.1260567, 0.1186904, -0.229789, 0.001089464, 0.01701242, 0.03566253, -0.04839286, 0.0005187924, -0.03447687, 0.9868737, 0.04570375
 187234243, 0.1240871, 0.1119134, -0.2074472, 0.001091626, 0.08287069, 0.03771484, -0.07291632, 0.000520954, -0.03334194, 0.9878628, 0.04121499
 187434163, 0.2924044, 0.1235263, -0.3004826, 0.001091626, 0.09225772, 0.04050058, -0.09902246, 0.0005187924, -0.03035976, 0.989075, 0.04579443
 187634083, 0.2583913, 0.1501637, -0.3549505, 0.001089464, 0.07373122, 0.05871408, -0.1056939, 0.0005187924, -0.02786485, 0.9903437, 0.04570375
 187834003, 0.2312055, 0.102801, -0.2524668, 0.001089464, 0.08667824, 0.02214254, -0.0361662, 0.0005187924, -0.02649968, 0.990876, 0.04570375
 188033923, 0.246678, 0.06460861, -0.1966572, 0.001089464, 0.07396808, 0.02759605, -0.1273562, 0.0005187924, -0.02354947, 0.9918741, 0.05027412
 188233843, 0.2175053, 0.112939, -0.4437596, 0.001089464, 0.05954233, 0.03653392, -0.1400099, 0.0005187924, -0.02190208, 0.9930829, 0.04570375
 188433763, 0.187411, 0.09776026, -0.3376929, 0.001089464, 0.04281983, 0.009298042, -0.07285827, 0.0005187924, -0.02099837, 0.9937301, 0.04570375
 188633683, 0.1581462, 0.05634143, -0.3034009, 0.001089464, 0.05325079, 0.02025097, -0.132015, 0.0005187924, -0.01856275, 0.9946195, 0.04570375
 188833603, 0.1576933, 0.07410242, -0.3402803, 0.001089464, 0.03959307, 0.02744196, -0.0623423, 0.0005187924, -0.01717717, 0.9951914, 0.04570375
 189033523, 0.09971315, 0.06277738, -0.2375856, 0.001089464, 0.01627617, 0.01168884, -0.07792874, 0.0005187924, -0.01719037, 0.9956788, 0.04570375
 189234276, 0.01314951, 0.05315022, -0.1488523, 0.001091626, -0.01585901, 0.01772223, 0.02410104, 0.000520954, -0.01446392, 0.995753, 0.04121499
 189434196, -0.09029871, 0.06823748, 0.02413088, 0.001091626, -0.05049323, 0.02977263, -0.02943397, 0.0005187924, -0.01262071, 0.9958231, 0.04579443
 189634116, -0.1912923, 0.05197526, -0.04717895, 0.001089464, -0.07744665, -0.01741367, -0.03559896, 0.0005187924, -0.01370626, 0.9958627, 0.04570375
 189834036, -0.2450934, -0.002992627, 0.0534805, 0.001089464, -0.08562399, 0.02878108, 0.07023036, 0.0005187924, -0.009899911, 0.9955218, 0.04570375
 190033956, -0.2505591, 0.07306719, 0.2425357, 0.001089464, -0.07300525, 0.02255693, 0.09145234, 0.0005187924, -0.01024143, 0.9949499, 0.05027412
 190233876, -0.2274937, 0.04869452, 0.2653565, 0.001089464, -0.08264817, 0.009906755, 0.1106181, 0.0005187924, -0.009993584, 0.9943335, 0.04570375
 190433796, -0.2385397, 0.06165132, 0.3735486, 0.001089464, -0.05511865, 0.02102387, 0.1220353, 0.0005187924, -0.008938811, 0.9934369, 0.04570375
 190633716, -0.1975614, 0.05362546, 0.4040315, 0.001089464, -0.07043713, -0.001821657, 0.1388953, 0.0005187924, -0.009742053, 0.9923321, 0.04570375
 190833636, -0.1884196, -0.002169644, 0.3020245, 0.001089464, -0.03720836, 0.001002842, 0.03842704, 0.0005187924, -0.009564183, 0.9918772, 0.04570375
 191033556, -0.1079987, -0.004840279, 0.1785169, 0.001089464, -0.01706021, 0.0102144, 0.07199001, 0.0005187924, -0.008968741, 0.9912691, 0.04570375
 191233476, -0.03732949, 0.03626929, 0.1783741, 0.001089464, -0.008516436, 0.02254388, 0.04329275, 0.0005187924, -0.008289961, 0.9908409, 0.04570375
 191434229, -0.0304475, 0.04369844, 0.2125725, 0.001091626, -0.0007334752, 0.006633694, 0.09694073, 0.000520954, -0.008448273, 0.9900631, 0.04121499
 191634149, -0.006495147, 0.01311905, 0.1937052, 0.001091626, 0.0008696825, 0.003022019, 0.03596524, 0.0005187924, -0.008418241, 0.989794, 0.04579443
 191834069, 0.004548795, 0.04168006, 0.06812669, 0.001089464, -0.00237934, 0.02074659, 0.02730067, 0.0005187924, -0.006496672, 0.9897079, 0.04570375
 192033989, 0.001484598, 0.04805785, 0.06634193, 0.001089464, 0.009311701, 0.00716466, 0.003547288, 0.0005187924, -0.007643039, 0.9895554, 0.04570375
 192233909, 0.0132945, -0.007563899, 0.06001928, 0.001089464, 0.002945611, -0.0008141754, 0.04615539, 0.0005187924, -0.007292632, 0.9891462, 0.05027412
 192433829, 0.007935675, 0.01083425, 0.1290338, 0.001089464, 0.004029767, 0.01704379, 0.03617784, 0.0005187924, -0.005683255, 0.9888188, 0.04570375
 192633749, 0.01120961, 0.01936148, 0.1657924, 0.001089464, 0.0005129501, -0.01324491, 0.06760953, 0.0005187924, -0.007103312, 0.9881313, 0.04570375
 192833669, 0.0004429541, -0.03310095, 0.209301, 0.001089464, -0.0005646163, -0.008238841, 0.03367021, 0.0005187924, -0.007725117, 0.9875404, 0.04570375
 193033589, 0.00106602, -0.004165343, -0.02313901, 0.001089464, -0.001217979, 0.01760197, -0.01478891, 0.0005187924, -0.00633593, 0.9879117, 0.04570375
 193233509, -0.01838029, 0.06440783, 0.08377465, 0.001089464, -0.01104464, 0.02319895, 0.09580288, 0.0005187924, -0.006246853, 0.9871143, 0.04570375
 193434262, -0.02992594, 0.04483604, 0.2367027, 0.001091626, 0.003484977, 0.005538256, 0.04841921, 0.000520954, -0.007682228, 0.9865643, 0.04121499
 193634182, -0.008793985, 0.01463881, 0.162719, 0.001091626, -0.01216615, -0.003024501, 0.0539631, 0.0005187924, -0.006525115, 0.9858497, 0.04579443
 193834102, -0.04201054, 0.01477302, 0.2185787, 0.001089464, -0.01396834, 0.02291457, 0.08367942, 0.0005187924, -0.004945389, 0.9850066, 0.04570375
 194034022, -0.02562703, 0.04672869, 0.1678532, 0.001089464, -0.01275508, 0.008368921, 0.007432767, 0.0005187924, -0.005272975, 0.9848444, 0.04570375
 194233942, -0.03107306, 0.01805577, -0.01734863, 0.001089464, -0.01332228, -0.003122798, 0.009886219, 0.0005187924, -0.006052428, 0.9847403, 0.05027412
 194433862, -0.06241379, -0.003464414, 0.09396015, 0.001089464, -0.02208826, 0.001674175, 0.033248, 0.0005187924, -0.006563677, 0.984274, 0.04570375
 194633782, -0.02443766, 0.00602258, -0.02993387, 0.001089464, -0.0009416556, -0.0005119721, -0.05836802, 0.0005187924, -0.00577631, 0.9849516, 0.04570375
 194833702, 0.02928912, 0.004105347, -0.1994604, 0.001089464, 0.05893672, 0.001370218, -0.06430694, 0.0005187924, -0.005928161, 0.9857621, 0.04570375
 195033622, 0.1189495, 0.00646654, -0.21361, 0.001089464, 0.01332417, -0.005927397, -0.08458844, 0.0005187924, -0.006979964, 0.9866319, 0.04570375
 195233542, 0.009505675, -0.02962131, -0.2177801, 0.001089464, -0.00999839, -0.01695486, -0.02541012, 0.0005187924, -0.006634766, 0.9871206, 0.04570375
 195434295, -0.01666937, -0.03636912, -0.07297632, 0.001091626, 0.007750574, -0.008623158, -0.06441502, 0.000520954, -0.006968095, 0.9874927, 0.04579443
 195634215, 0.026302, -0.01553599, -0.296254, 0.001091626, 0.008703385, 0.008611539, -0.126914, 0.0005187924, -0.005304321, 0.9886798, 0.04121499
 195834135, 0.04173382, 0.02614333, -0.2336096, 0.001089464, 0.01973569, 0.01205298, -0.02980781, 0.0005187924, -0.006652804, 0.9890193, 0.04570375
 196034055, 0.03469167, 0.0398947, -0.1703038, 0.001089464, 0.0389666, 0.02084061, -0.1127955, 0.0005187924, -0.007857558, 0.9899265, 0.04570375
 196233975, 0.1685241, 0.03665035, -0.28533, 0.001089464, 0.07156337, 0.006571624, -0.07664541, 0.0005187924, -0.009866378, 0.9906458, 0.05027412
 196433895, 0.255689, 0.004823432, -0.2549732, 0.001089464, 0.05941999, 0.00522581, -0.09594578, 0.0005187924, -0.008440248, 0.991473, 0.04570375
 196633815, 0.2037398, 0.02264232, -0.3071032, 0.001089464, 0.05882735, 0.01142183, -0.1163187, 0.0005187924, -0.007178797, 0.9923838, 0.04570375
 196833735, 0.1926587, 0.04464874, -0.3323684, 0.001089464, 0.05591436, 0.01753685, -0.06447806, 0.0005187924, -0.006076164, 0.9930997, 0.04570375
 197033655, 0.186173, 0.02748084, -0.226005, 0.001089464, 0.05141845, 0.0004949801, -0.09387084, 0.0005187924, -0.006765042, 0.9937257, 0.04570375
 197233575, 0.1611669, -0.002674017, -0.286624, 0.001089464, 0.04951999, -0.0001193666, -0.06244221, 0.0005187924, -0.006209822, 0.9943616, 0.04570375
 197433495, 0.1626208, -0.01410115, -0.260472, 0.001089464, 0.05507544, -0.005334927, -0.09146444, 0.0005187924, -0.006983135, 0.9950147, 0.04570375
 197634248, 0.1544355, -0.01933929, -0.2580046, 0.001091626, 0.04056554, 0.005149594, -0.07237263, 0.000520954, -0.006787073, 0.9955347, 0.04121499
 197834168, 0.09050545, 0.006344138, -0.3146703, 0.001091626, 0.0275933, -0.002046929, -0.1094516, 0.0005187924, -0.007772169, 0.9961613, 0.04579443
 198034088, 0.1006167, -0.02272876, -0.2588016, 0.001089464, 0.02578247, -0.0004784358, -0.07880715, 0.0005187924, -0.008614217, 0.9965117, 0.04570375
 198234008, 0.1146179, -0.01595187, -0.2653214, 0.001089464, 0.01968383, -0.008390547, -0.09533925, 0.0005187924, -0.008939032, 0.9969752, 0.04570375
 198433928, 0.05950592, -0.009421499, -0.2331546, 0.001089464, 0.01078887, 0.002151156, -0.08152571, 0.0005187924, -0.009368614, 0.9972968, 0.05027412
 198633848, 0.05127862, 0.001133224, -0.1569119, 0.001089464, 0.00262099, -0.0004690622, -0.05431749, 0.0005187924, -0.008677022, 0.9974236, 0.04570375
 198833768, 0.1690597, 0.02950577, -0.2294384, 0.001089464, 0.1426411, 0.01575593, -0.1381229, 0.0005187924, -0.009158639, 0.9979056, 0.04570375
 199033688, 0.4049276, 0.03419879, -0.6511986, 0.001089464, 0.1078195, 0.0003574308, -0.2436903, 0.0005187924, -0.01075546, 0.9988113, 0.04570375
 199233608, 0.2852927, 0.002701217, -0.6544915, 0.001089464, 0.06489603, -0.003287397, -0.171552, 0.0005187924, -0.009557927, 0.9992856, 0.04570375
 199433528, 0.1862464, 0.04318302, -0.5479986, 0.001089464, 0.04648943, 0.02978794, -0.1623965, 0.0005187924, -0.007621906, 0.9996329, 0.04570375
 199634281, 0.1367306, 0.06212177, -0.5163375, 0.001091626, 0.04227107, 0.005785923, -0.1984665, 0.000520954, -0.009550773, 0.999838, 0.04121499
 199834201, 0.07357918, 0.02724378, -0.5807683, 0.001091626, 0.002203687, 0.02150852, -0.1884452, 0.0005187924, -0.00680567, 0.9999665, 0.04579443
 200034121, 0.01861888, 0.06063264, -0.4239327, 0.001089464, 0.01332829, 0.01822806, -0.1093939, 0.0005187924, -0.007404427, 0.9999722, 0.04570375
 200234041, 0.008325037, 0.01706022, -0.3734806, 0.001089464, -0.004151486, -0.002610898, -0.1596894, 0.0005187924, -0.008537312, 0.9999186, 0.04570375
 200433961, -0.02954211, 0.01833279, -0.4076831, 0.001089464, -0.01549809, 0.03236813, -0.07969871, 0.0005187924, -0.006334642, 0.9998559, 0.05027412
 200633881, -0.07043362, 0.06093364, -0.375218, 0.001089464, -0.02276077, -0.001556978, -0.1476758, 0.0005187924, -0.008029981, 0.9996484, 0.04570375
 200833801, -0.05490821, -0.02581363, -0.2008287, 0.001089464, -0.00694571, 0.003677309, 0.0340031, 0.0005187924, -0.007466389, 0.999678, 0.04570375
 201033721, -0.04044269, 0.01571334, 0.09403798, 0.001089464, -0.04091901, 0.01272735, -0.02273403, 0.0005187924, -0.006383777, 0.9997115, 0.04570375
 201233641, -0.1551699, 0.02628693, 0.08010353, 0.001089464, -0.04743424, -0.005071674, 0.1023684, 0.0005187924, -0.007275425, 0.9998078, 0.04570375
 201433561, -0.135993, 0.01593637, 0.311801, 0.001089464, -0.02775575, 0.0008211039, 0.04237358, 0.0005187924, -0.006715686, 0.9998757, 0.04570375
 201633481, -0.1560319, 0.01743208, 0.09605733, 0.001089464, -0.07277457, -0.001767482, 0.09881691, 0.0005187924, -0.006885963, 0.9999079, 0.04570375
 201834234, -0.2640135, 0.01315563, 0.3264557, 0.001091626, -0.0789624, 0.002244091, 0.1363294, 0.000520954, -0.005658091, 0.9999711, 0.04121499
 202034154, -0.2133192, 0.01336661, 0.4003795, 0.001091626, -0.06984761, 0.008880362, 0.1263912, 0.0005187924, -0.005836452, 0.9999797, 0.04579443
 202234074, -0.2171159, 0.01773473, 0.3150367, 0.001089464, -0.07662476, 0.009216034, 0.07713635, 0.0005187924, -0.00406481, 0.999966, 0.04570375
 202433994, -0.2172965, 0.03406921, 0.2782869, 0.001089464, -0.07852016, -0.0002691372, 0.09335035, 0.0005187924, -0.00537272, 0.9998999, 0.04570375
 202633914, -0.2004538, -0.02828299, 0.3018095, 0.001089464, -0.05811122, -0.02316573, 0.08811057, 0.0005187924, -0.006099541, 0.999796, 0.05027412
 202833834, -0.1811804, -0.05283553, 0.2850924, 0.001089464, -0.05086461, -0.01568837, 0.0641302, 0.0005187924, -0.006896884, 0.9996779, 0.04570375
 203033754, -0.1674131, -0.004104091, 0.2415704, 0.001089464, -0.0508968, 0.02189808, 0.09683415, 0.0005187924, -0.004634782, 0.9995322, 0.04570375
 203233674, -0.1313081, 0.03870788, 0.2685105, 0.001089464, -0.02556266, -0.001344242, 0.06885863, 0.0005187924, -0.006790398, 0.9993926, 0.04570375
 203433594, -0.1046806, -0.01359843, 0.1946729, 0.001089464, -0.04580942, -0.001279318, 0.02724911, 0.0005187924, -0.006673374, 0.999273, 0.04570375
 203633514, -0.1454167, -0.0169169, 0.1693716, 0.001089464, -0.04792455, -0.002098557, 0.1147971, 0.0005187924, -0.007304293, 0.9990239, 0.04570375
 203834267, -0.1239651, -0.028706, 0.2899233, 0.001091626, -0.03383274, -0.01826918, 0.04368624, 0.000520954, -0.008917302, 0.9988243, 0.04121499
 204034187, -0.07653346, -0.04704609, 0.1836621, 0.001091626, -0.03514877, -0.0114891, 0.0624063, 0.0005187924, -0.009875862, 0.9985832, 0.04579443
 204234107, -0.08163825, -0.01411442, 0.1575803, 0.001089464, 0.005673849, -0.003109123, 0.01867654, 0.0005187924, -0.01015677, 0.9985084, 0.04570375
 204434027, -0.01978573, 0.007319546, 0.02946289, 0.001089464, -0.01717795, 0.00628693, 0.02588914, 0.0005187924, -0.01079896, 0.9984605, 0.04570375
 204633947, -0.07234798, 0.0119133, 0.05757285, 0.001089464, -0.03602215, -0.003974821, 0.02322831, 0.0005187924, -0.01198689, 0.9984063, 0.05027412
 204833867, -0.09847052, -0.03292429, 0.07047794, 0.001089464, -0.02194432, -0.01227872, 0.02312536, 0.0005187924, -0.01235784, 0.9983173, 0.04570375
 205033787, -0.08755763, -0.00611128, 0.1037667, 0.001089464, -0.05547294, 0.01910596, 0.06279588, 0.0005187924, -0.01069838, 0.9981524, 0.04570375
 205233707, -0.1234525, 0.05470567, 0.05832242, 0.001089464, -0.01653573, 0.00414157, -0.04845521, 0.0005187924, -0.01119516, 0.9982483, 0.04570375
 205433627, -0.03165338, -8.446258E-05, 0.03666791, 0.001089464, -0.0002427787, -0.0168482, 0.07278381, 0.0005187924, -0.01299431, 0.997956, 0.04570375
 205633547, -0.005303588, -0.01700729, 0.195585, 0.001089464, -0.00406988, 0.00812168, 0.06463221, 0.0005187924, -0.01189597, 0.9977347, 0.04570375
 205834300, -0.01903256, 0.0203027, 0.1236419, 0.001091626, -0.006409886, 0.008053354, 0.0002470935, 0.0005187924, -0.01248732, 0.9976974, 0.04579443
 206034220, -0.02824607, 0.02000498, -0.1100799, 0.001091626, -0.0173159, -0.002525159, -0.06427143, 0.000520954, -0.01426031, 0.9979097, 0.04121499
 206234140, -0.0412742, -0.01704419, -0.07921274, 0.001091626, 0.002174917, 0.001921912, 0.04061181, 0.0005187924, -0.01318165, 0.9978818, 0.04579443
 206434060, -0.01284965, 0.03265151, 0.1058475, 0.001089464, -0.003366986, 0.0287268, 0.03320477, 0.0005187924, -0.01170763, 0.9977744, 0.04570375
 206633980, -0.03207802, 0.06184386, 0.04692564, 0.001089464, -0.01671142, 0.008963949, 0.0170016, 0.0005187924, -0.01330632, 0.997741, 0.05027412
 206833900, -0.04969237, 0.01051651, 0.01884468, 0.001089464, -0.00517281, -0.009326074, -0.0316068, 0.0005187924, -0.01272578, 0.9978076, 0.04570375
 207033820, 0.0005549983, -0.02388427, -0.03221902, 0.001089464, 0.0003288216, 0.00674417, 0.005199641, 0.0005187924, -0.01137869, 0.9977823, 0.04570375
 207233740, -0.002342266, 0.02736596, 0.05122261, 0.001089464, -0.0001293905, 0.01664424, 0.01213637, 0.0005187924, -0.009937854, 0.9976701, 0.04570375
 207433660, 0.004254619, 0.02892417, 0.09937377, 0.001089464, 0.008123886, 0.007581712, 0.03108068, 0.0005187924, -0.01128494, 0.9974581, 0.04570375
 207633580, 0.01013192, 0.01403841, 0.004694381, 0.001089464, -0.003104713, 0.006494428, -0.03034827, 0.0005187924, -0.01060284, 0.997611, 0.04570375
 207833500, -0.0140311, 0.02327185, -0.0905135, 0.001089464, -0.005550743, 0.0006067117, -0.00624607, 0.0005187924, -0.01167479, 0.9976873, 0.04570375
 208034253, -0.01222451, 0.01698853, -0.02170358, 0.001091626, -0.007376834, 0.007097939, -0.03934146, 0.000520954, -0.0110282, 0.9977855, 0.04121499
 208234173, -0.01824682, 0.04967693, -0.07467601, 0.001091626, -0.01359185, 0.02771594, 0.01860081, 0.0005187924, -0.01042093, 0.9977779, 0.04579443
 208434093, -0.01057492, 0.06904237, 0.07848412, 0.001089464, -0.0006208509, 0.0134014, 0.04322498, 0.0005187924, -0.01026631, 0.9976499, 0.04570375
 208634013, 0.09991622, 0.04551384, -0.02579068, 0.001089464, 0.07721963, 0.01974162, -0.06527079, 0.0005187924, -0.007393497, 0.9979518, 0.04570375
 208833933, 0.3056872, 0.05949972, -0.3430006, 0.001089464, 0.1231216, 0.004279018, -0.1400539, 0.0005187924, -0.006934789, 0.9985524, 0.05027412
 209033853, 0.3997476, 0.03047077, -0.5920971, 0.001089464, 0.1217469, 0.0145419, -0.2109496, 0.0005187924, -0.005770473, 0.9992317, 0.04570375
 209233773, 0.3883828, 0.02852029, -0.6746199, 0.001089464, 0.1126572, -0.009693732, -0.1976417, 0.0005187924, -0.007834842, 0.9996374, 0.04570375
 209433693, 0.333797, -0.02397136, -0.5724485, 0.001089464, 0.09962582, 0.01669042, -0.199255, 0.0005187924, -0.005875531, 0.9998733, 0.04570375
 209633613, 0.2603416, 0.0404582, -0.5578859, 0.001089464, 0.05844408, 0.005154474, -0.1848086, 0.0005187924, -0.006619033, 0.9999686, 0.04570375
 209833533, 0.1617811, 0.009271785, -0.6087884, 0.001089464, 0.03702299, 0.00392509, -0.1934794, 0.0005187924, -0.00636133, 0.9999485, 0.04570375
 210034286, 0.101249, 0.01978628, -0.563629, 0.001091626, 0.02364446, 0.005915684, -0.2090505, 0.000520954, -0.004965818, 0.999818, 0.04121499
 210234206, 0.04931766, 0.04040788, -0.4910894, 0.001091626, 0.01779333, 0.008523282, -0.08075308, 0.0005187924, -0.005969319, 0.9996573, 0.04579443
 210434126, 0.01436077, 0.0217414, -0.3482541, 0.001089464, -0.006221972, 0.009986485, -0.1360483, 0.0005187924, -0.005122618, 0.999444, 0.04570375
 210634046, -0.01310518, 0.03240715, -0.2674848, 0.001089464, -0.006348294, 0.0116171, -0.07243435, 0.0005187924, -0.005857833, 0.9993369, 0.04570375
 210833966, -0.01360577, 0.0460562, -0.1404696, 0.001089464, -0.01400812, 0.02225975, -0.00234491, 0.0005187924, -0.006049717, 0.9992901, 0.05027412
 211033886, -0.07822394, 0.02652512, 0.04025482, 0.001089464, -0.03914079, -0.005246089, 0.04252544, 0.0005187924, -0.00607819, 0.9993775, 0.04570375
 211233806, -0.1603878, 0.01531953, 0.1880244, 0.001089464, -0.07357185, 0.009847197, 0.08040081, 0.0005187924, -0.004630914, 0.9995162, 0.04570375
 211433726, -0.2542527, 0.0505265, 0.2726927, 0.001089464, -0.08106497, 0.01179027, 0.08627548, 0.0005187924, -0.004748926, 0.9996776, 0.04570375
 211633646, -0.2594362, 0.04446045, 0.3628839, 0.001089464, -0.08379048, 0.007474756, 0.1044534, 0.0005187924, -0.0041458, 0.9998453, 0.04570375
 211833566, -0.2579124, 0.0401253, 0.3413166, 0.001089464, -0.07880431, 0.01818537, 0.1069345, 0.0005187924, -0.002406599, 0.9999392, 0.04570375
 212033486, -0.2659562, 0.02759853, 0.2594072, 0.001089464, -0.08341014, -0.005482028, 0.05267486, 0.0005187924, -0.002811174, 0.9999646, 0.04570375
 212234239, -0.2479231, -0.01446272, 0.2664102, 0.001091626, -0.07933363, -0.007444027, 0.1663271, 0.000520954, -0.003522618, 0.9999937, 0.04121499
 212434159, -0.2182415, -0.03035334, 0.4605327, 0.001091626, -0.06693832, -0.002781703, 0.1284001, 0.0005187924, -0.002572203, 0.9999567, 0.04579443
 212634079, -0.2014147, 0.004732794, 0.416602, 0.001089464, -0.06633113, 0.01234806, 0.09913004, 0.0005187924, -0.001185901, 0.9998626, 0.04570375
 212833999, -0.1890218, 0.035372, 0.334436, 0.001089464, -0.06125978, 0.0159191, 0.0998702, 0.0005187924, -0.002534973, 0.999731, 0.04570375
 213033919, -0.1676424, 0.0352816, 0.2299785, 0.001089464, -0.05009161, 0.001969088, 0.05976583, 0.0005187924, -0.002451889, 0.9996437, 0.05027412
 213233839, -0.1388413, -0.003894314, 0.2317033, 0.001089464, -0.03866759, -0.00967765, 0.1085499, 0.0005187924, -0.002353815, 0.9994662, 0.04570375
 213433759, -0.1231423, -0.03824135, 0.2670962, 0.001089464, -0.042858, -0.0137566, 0.06051913, 0.0005187924, -0.002415494, 0.9993321, 0.04570375
 213633679, -0.1136607, -0.04064841, 0.2403869, 0.001089464, -0.02568822, -0.002945462, 0.08565356, 0.0005187924, -0.001890875, 0.9990982, 0.04570375
 213833599, -0.09327992, 0.00906818, 0.2644224, 0.001089464, -0.03419459, 0.004084972, 0.07575847, 0.0005187924, -0.0008927532, 0.9988531, 0.04570375
 214033519, -0.09621398, 0.01140829, 0.2137794, 0.001089464, -0.02458778, 0.003090371, 0.03891084, 0.0005187924, -0.002625647, 0.9986808, 0.04570375
 214234272, -0.08409329, -0.006803829, 0.102359, 0.001091626, -0.02446494, 0.01652771, 0.03289464, 0.000520954, -0.003089944, 0.9985876, 0.04121499
 214434192, -0.05389293, 0.01047896, 0.1890036, 0.001091626, -0.02310134, -0.01130441, 0.09459468, 0.0005187924, -0.004098684, 0.9982702, 0.04579443
 214634112, -0.06719114, -0.0160086, 0.1169702, 0.001089464, -0.02001115, -0.01057013, -0.032118, 0.0005187924, -0.004194359, 0.9983314, 0.04570375
 214834032, -0.1151171, -0.01572984, 0.007073071, 0.001089464, -0.0538603, -0.009484968, 0.07098231, 0.0005187924, -0.005114205, 0.9981163, 0.04570375
 215033952, -0.2747992, -0.02089068, 0.2181246, 0.001089464, -0.1252933, -0.005641181, 0.0735556, 0.0005187924, -0.005335043, 0.9978321, 0.05027412
 215233872, -0.454711, -0.01186079, 0.4030879, 0.001089464, -0.1555532, 0.003199197, 0.2079699, 0.0005187924, -0.005458559, 0.9968711, 0.04570375
 215433792, -0.506128, 0.008956764, 0.6642989, 0.001089464, -0.1646913, 0.01224102, 0.2003645, 0.0005187924, -0.005637835, 0.9955519, 0.04570375
 215633712, -0.5373505, 0.03308062, 0.6795626, 0.001089464, -0.1694143, 0.007483371, 0.2069694, 0.0005187924, -0.006578099, 0.9939042, 0.04570375
 215833632, -0.5284026, 0.02530793, 0.6508529, 0.001089464, -0.1495506, 0.0095876, 0.1907178, 0.0005187924, -0.00642349, 0.9921011, 0.04570375
 216033552, -0.4321458, 0.02398106, 0.6502855, 0.001089464, -0.109553, 0.008195926, 0.1930083, 0.0005187924, -0.006132598, 0.9900211, 0.04570375
 216234305, -0.3070835, 0.03215151, 0.6360949, 0.001091626, -0.06688847, 0.006165834, 0.1877454, 0.0005187924, -0.006007299, 0.9878924, 0.04579443
 216434225, -0.1836137, 0.01230825, 0.5394401, 0.001091626, -0.05124608, -0.00502601, 0.1626089, 0.000520954, -0.007224085, 0.9861046, 0.04121499
 216634145, -0.1161758, -0.008188928, 0.4694905, 0.001091626, -0.02622501, 0.003424847, 0.1597129, 0.0005187924, -0.005688268, 0.9843082, 0.04579443
 216834065, -0.04111237, 0.008415891, 0.3800569, 0.001089464, -0.006981077, 0.008357773, 0.09205747, 0.0005187924, -0.005458149, 0.9832521, 0.04570375
 217033985, 0.006954493, 0.03704463, 0.2238068, 0.001089464, 0.01302242, 0.01522024, 0.04661494, 0.0005187924, -0.003948315, 0.9826781, 0.04570375
 217233905, 0.05539943, 0.0648422, -0.01644374, 0.001089464, 0.02074785, 0.02384859, -0.07598145, 0.0005187924, -0.00406233, 0.9835815, 0.05027412
 217433825, 0.08700907, 0.0490611, -0.2027582, 0.001089464, 0.03831628, 0.008154429, -0.03839758, 0.0005187924, -0.004071652, 0.9842194, 0.04570375
 217633745, 0.1261208, 0.03017093, -0.118507, 0.001089464, 0.05370719, 0.01365621, -0.04438922, 0.0005187924, -0.003138895, 0.984849, 0.04570375
 217833665, 0.2222358, 0.03009032, -0.1774004, 0.001089464, 0.1092195, 0.01064738, -0.02859907, 0.0005187924, -0.002027536, 0.98567, 0.04570375
 218033585, 0.3156331, 0.02068118, -0.2056793, 0.001089464, 0.09283169, 0.0002640835, -0.1209845, 0.0005187924, -0.002893013, 0.9869989, 0.04570375
 218233505, 0.1928412, -0.005274306, -0.3344437, 0.001089464, 0.05693337, 0.0007556328, -0.07711272, 0.0005187924, -0.00267355, 0.9881168, 0.04570375
 218434258, 0.2531788, -0.008317786, -0.2814171, 0.001091626, 0.1056364, -0.00800501, -0.1277798, 0.000520954, -0.002771424, 0.989273, 0.04121499
 218634178, 0.4272758, -0.03454909, -0.3677941, 0.001091626, 0.1228934, -0.01359878, -0.1464244, 0.0005187924, -0.004587905, 0.9904546, 0.04579443
 218834098, 0.1875853, -0.04642525, -0.3963493, 0.001089464, 0.01770105, -0.006971814, -0.1205106, 0.0005187924, -0.005213188, 0.9915472, 0.04570375
 219034018, 0.1551701, -0.0311581, -0.4019798, 0.001089464, 0.08963776, -0.003538081, -0.1431213, 0.0005187924, -0.004632963, 0.9926436, 0.04570375
 219233938, 0.3984918, 0.01144993, -0.3581954, 0.001089464, 0.119242, 0.007275624, -0.1041988, 0.0005187924, -0.005060062, 0.9934254, 0.05027412
 219433858, 0.2580051, 0.01823409, -0.2589867, 0.001089464, -0.02805052, 0.009792507, -0.0625607, 0.0005187924, -0.005560149, 0.9939907, 0.04570375
 219633778, -0.005227832, 0.01964428, -0.3746364, 0.001089464, 0.09607729, 0.01081558, -0.1428117, 0.0005187924, -0.005104243, 0.9951222, 0.04570375
 219833698, 0.2386108, 0.02242024, -0.2884044, 0.001089464, 0.05728211, 0.01101898, -0.03733638, 0.0005187924, -0.00525434, 0.9953449, 0.04570375
 220033618, 0.173051, 0.005145715, -0.1700841, 0.001089464, 0.04465942, -0.008289658, -0.05648089, 0.0005187924, -0.007927518, 0.995797, 0.04570375
 220233538, 0.08579016, -0.01752227, -0.2265458, 0.001089464, 0.06105116, 0.01277659, -0.07365569, 0.0005187924, -0.006365774, 0.9963046, 0.04570375
 220434291, 0.1579598, 0.04608665, -0.1664835, 0.001091626, 0.03838396, -0.0001049824, -0.01825839, 0.000520954, -0.00728027, 0.9964789, 0.04579443
 220634211, 0.1119839, 0.01743324, -0.1677911, 0.001091626, 0.02696413, 0.01301314, -0.07990143, 0.0005187924, -0.005459078, 0.9968954, 0.04121499
 220834131, 0.0747805, 0.05416851, -0.2120374, 0.001089464, 0.02596581, 0.01121038, -0.09499041, 0.0005187924, -0.005537294, 0.9972501, 0.04570375
 221034051, 0.06195579, 0.0106089, -0.2089281, 0.001089464, 0.01697507, -0.01141812, -0.05226334, 0.0005187924, -0.006649122, 0.9974954, 0.04570375
 221233971, 0.05119196, -0.0497346, -0.2270376, 0.001089464, 0.05403427, -0.02426485, -0.04880259, 0.0005187924, -0.007185495, 0.9978191, 0.05027412
