TimeUS,CAN,CAE,CAD,CAe
 170760835, 0, 0, 0, 0
 170835805, -0.18769, 3.20602, 0.2334908, 0.4433128
 170935765, -0.0001857566, 0.003602274, -4.672446E-05, 0.0002593961
 171035725, 0.0001068664, 0.003613593, -0.0001011313, 0.0002593961
 171135685, 0.0001390055, 0.00341821, -0.0001196359, 0.0002593961
 171236478, 0.0002040058, 0.003705659, -0.0001197884, 0.0002615578
 171336438, -0.0001286409, 0.003628704, -0.0002042585, 0.0002593961
 171436398, -3.314254E-05, 0.003611926, -3.229756E-05, 0.0002593961
 171536358, -0.000104854, 0.003465719, -0.0001375161, 0.0002593961
 171636318, 0.0001529204, 0.003797231, -0.0002214249, 0.0002593961
 171736278, -0.0001047134, 0.003689607, -0.0001717965, 0.0002593961
 171836238, 4.067982E-05, 0.003691625, -4.038149E-05, 0.0002593961
 171936198, -0.0001449618, 0.003671083, 6.729771E-05, 0.0002593961
 172036158, 0.0001355525, 0.003923368, -0.0001323028, 0.0002593961
 172136118, 1.2182E-05, 0.003635487, -9.613244E-05, 0.0002593961
 172236078, 7.778597E-05, 0.00349341, -0.0001276221, 0.0002593961
 172336038, 0.0001558399, 0.003567585, -3.807452E-05, 0.0002593961
 172435998, 2.139833E-05, 0.003553322, -3.686145E-05, 0.0002593961
 172535958, 0.0002564111, 0.003666772, -5.35309E-05, 0.0002593961
 172635918, -5.157808E-05, 0.003541025, 1.109275E-05, 0.0002593961
 172735878, 0.0001081709, 0.003544893, 0.0002014665, 0.0002593961
 172835838, 8.164819E-05, 0.003672465, -3.705934E-06, 0.0002593961
 172935798, -0.0001030477, 0.003573911, -0.0001047967, 0.0002593961
 173035758, -0.0003019082, 0.00352741, -0.0002521793, 0.0002593961
 173135718, -5.05967E-05, 0.003816895, -0.0001699721, 0.0002593961
 173235678, 4.560324E-05, 0.003479079, -7.479297E-05, 0.0002593961
 173336471, -4.213708E-05, 0.003569446, -9.158999E-05, 0.0002615578
 173436431, -0.0001084358, 0.003904128, -0.0001543584, 0.0002593961
 173536391, -0.0001375977, 0.003786599, -0.000142702, 0.0002593961
 173636351, 0.0001321504, 0.003674229, -0.0001401865, 0.0002593961
 173736311, 3.856066E-05, 0.003527882, -3.898372E-05, 0.0002593961
 173836271, 5.309925E-05, 0.003611702, -0.0001441736, 0.0002593961
 173936231, 4.437977E-05, 0.00360581, -0.0001421872, 0.0002593961
 174036191, -0.0001298056, 0.003582149, -0.0001486815, 0.0002593961
 174136151, -0.0001887941, 0.003549502, -0.0001676711, 0.0002593961
 174236111, -1.785516E-05, 0.003476565, -2.836285E-05, 0.0002593961
 174336071, -9.558434E-05, 0.003585068, 5.164225E-05, 0.0002593961
 174436031, -0.000118347, 0.003645223, 0.0001458395, 0.0002593961
 174535991, -0.0002269853, 0.003594057, -6.692831E-05, 0.0002593961
 174635951, 0.0001472785, 0.00362432, -8.855138E-05, 0.0002593961
 174735911, -0.0001649141, 0.00379007, 5.987394E-05, 0.0002593961
 174835871, 0.0001456787, 0.003492113, -5.28029E-05, 0.0002593961
 174935831, -2.461362E-05, 0.003508039, -2.604872E-06, 0.0002593961
 175035791, -9.076093E-05, 0.003591901, -0.0002734116, 0.0002593961
 175135751, -4.56482E-05, 0.003530187, 2.766456E-05, 0.0002593961
 175235711, -0.0002059781, 0.003624196, -0.0001534658, 0.0002593961
 175335671, -2.936161E-05, 0.003715296, 4.095346E-05, 0.0002593961
 175436464, -5.427927E-05, 0.00353745, -7.914912E-05, 0.0002615578
 175536424, 1.146014E-05, 0.003824862, -7.284946E-05, 0.0002593961
 175636384, 9.165364E-06, 0.003660658, -3.355114E-05, 0.0002593961
 175736344, 2.446965E-05, 0.003402336, -3.80066E-05, 0.0002593961
 175836304, 0.0001188865, 0.00370033, -6.139206E-05, 0.0002593961
 175936264, 6.130738E-05, 0.003812551, -0.0001951116, 0.0002593961
 176036224, -8.844335E-05, 0.003596973, -0.0001435838, 0.0002593961
 176136184, -3.459935E-05, 0.003349606, -1.168857E-05, 0.0002593961
 176236144, -0.0001096803, 0.003662197, 0.0001079402, 0.0002593961
 176336104, 3.027536E-05, 0.003340834, -0.0002545697, 0.0002593961
 176436064, 2.871774E-05, 0.003573045, -0.0002424402, 0.0002593961
 176536024, -5.580892E-05, 0.003737234, 2.954968E-05, 0.0002593961
 176635984, 0.0001304056, 0.003749886, -4.565438E-05, 0.0002593961
 176735944, 0.0002041765, 0.003484617, -4.687222E-05, 0.0002593961
 176835904, -5.062862E-05, 0.003580265, -7.281847E-05, 0.0002593961
 176935864, 5.715195E-06, 0.003692881, 4.908504E-05, 0.0002593961
 177035824, -5.205959E-05, 0.003740539, -8.45106E-05, 0.0002593961
 177135784, 0.0002252256, 0.003522616, -8.268148E-05, 0.0002593961
 177235744, 0.0001925509, 0.003739859, -4.389439E-05, 0.0002593961
 177335704, 7.617284E-05, 0.003615078, -0.0001275947, 0.0002593961
 177435664, 5.077958E-05, 0.003621517, -0.0002032659, 0.0002593961
 177536457, 6.228219E-05, 0.003563212, -9.301794E-05, 0.0002615578
 177636417, 0.0001056772, 0.003413029, 0.000168311, 0.0002593961
 177736377, 7.949512E-05, 0.003667384, -0.000187409, 0.0002593961
 177836337, 0.0003169964, 0.003547659, 0.0001189328, 0.0002593961
 177936297, 7.523939E-05, 0.003560186, -0.0003436263, 0.0002593961
 178036257, -0.0001044203, 0.003414824, -1.286349E-05, 0.0002593961
 178136217, 0.000121784, 0.003720645, 7.227272E-05, 0.0002593961
 178236177, 2.330722E-05, 0.003508312, -8.024699E-05, 0.0002593961
 178336137, 8.546976E-05, 0.00360047, -7.095835E-05, 0.0002593961
 178436097, -0.0002234964, 0.003559489, -5.74621E-05, 0.0002593961
 178536057, 4.14673E-05, 0.003445599, -1.888117E-05, 0.0002593961
 178636017, -0.0002122328, 0.003697843, -3.93686E-05, 0.0002593961
 178735977, 4.257954E-05, 0.003577303, -0.0001488078, 0.0002593961
 178835937, 0.0001880527, 0.003626919, -7.853345E-05, 0.0002593961
 178935897, 0.0001649176, 0.003644775, -6.041851E-05, 0.0002593961
 179035857, 9.290154E-05, 0.003525597, -7.692834E-05, 0.0002593961
 179135817, -0.0001445911, 0.00340116, -7.66638E-05, 0.0002593961
 179235777, 2.45157E-05, 0.003311752, -0.000197303, 0.0002593961
 179335737, -7.862054E-05, 0.00334248, -0.0001826378, 0.0002593961
 179435697, -0.0001166327, 0.003446904, -0.000158554, 0.0002593961
 179535657, -5.979457E-05, 0.003647879, -5.667564E-05, 0.0002593961
 179636450, 0.0001926734, 0.003654585, -0.0001345156, 0.0002615578
 179736410, 2.368925E-05, 0.003457578, -0.0001484908, 0.0002593961
 179836370, -8.279605E-05, 0.003658417, 6.926982E-05, 0.0002593961
 179936330, -0.0001377453, 0.003590426, 0.0001120679, 0.0002593961
 180036290, -9.09001E-05, 0.003395051, -7.21035E-05, 0.0002593961
 180136250, 0.0001453569, 0.003688572, -5.183528E-05, 0.0002593961
 180236210, -0.0001141189, 0.003592076, -0.0001187696, 0.0002593961
 180336170, -0.0001241326, 0.00353748, -0.0003258117, 0.0002593961
 180436130, 7.814386E-05, 0.003614603, -5.258125E-05, 0.0002593961
 180536090, -3.852571E-06, 0.003625799, -0.0001458645, 0.0002593961
 180636050, -6.303875E-05, 0.003629845, -3.801494E-05, 0.0002593961
 180736010, -1.350777E-05, 0.003467987, -0.0001679869, 0.0002593961
 180835970, -3.398257E-05, 0.003385114, -9.159596E-05, 0.0002593961
 180935930, -3.470836E-05, 0.003442373, 5.529098E-06, 0.0002593961
 181035890, -5.905858E-05, 0.003538795, -0.0002113796, 0.0002593961
 181135850, -0.0001664888, 0.003415252, -9.13195E-05, 0.0002593961
 181235810, 8.045229E-05, 0.003683168, -0.0001265603, 0.0002593961
 181335770, -7.517641E-05, 0.003420511, 6.412205E-05, 0.0002593961
 181435730, -0.0001679938, 0.003461387, -0.0001672147, 0.0002593961
 181535690, 5.373805E-05, 0.003482122, -1.22951E-05, 0.0002593961
 181636483, 0.0001944277, 0.003425927, 0.0001457358, 0.0002615578
 181736443, -2.631081E-05, 0.003619643, 8.736692E-05, 0.0002593961
 181836403, 6.361803E-05, 0.003706991, -0.0002023769, 0.0002593961
 181936363, 6.48507E-05, 0.00358649, -0.0002804039, 0.0002593961
 182036323, 0.0002262519, 0.003788412, 2.053988E-05, 0.0002593961
 182136283, 0.0001547032, 0.003687882, -8.004206E-05, 0.0002593961
 182236243, 0.0001454112, 0.003523605, 0.0001010824, 0.0002593961
 182336203, -0.0001253301, 0.003632276, 2.710092E-05, 0.0002593961
 182436163, -0.0002722604, 0.003464419, -7.393143E-05, 0.0002593961
 182536123, -2.350909E-05, 0.003667118, -5.691154E-06, 0.0002593961
 182636083, 0.0001839068, 0.003547967, -4.962961E-05, 0.0002593961
 182736043, -0.0002378642, 0.003651117, 0.000106888, 0.0002593961
 182836003, 0.0001461099, 0.003735064, 0.0001054616, 0.0002593961
 182935963, 9.707719E-05, 0.003729716, 9.848589E-05, 0.0002593961
 183035923, 2.092534E-05, 0.003558518, -0.0001018534, 0.0002593961
 183135883, 5.435608E-05, 0.003490939, -0.0001044881, 0.0002593961
 183235843, 3.250716E-05, 0.003699018, 0.000117112, 0.0002593961
 183335803, -0.0001724824, 0.003620032, 5.563656E-05, 0.0002593961
 183435763, -0.0001007767, 0.00334174, -6.690925E-05, 0.0002593961
 183535723, -7.558079E-05, 0.003771971, -1.934114E-05, 0.0002593961
 183635683, 0.0001117776, 0.003569963, -2.567336E-05, 0.0002593961
 183736476, -0.0001334804, 0.003730962, 5.262059E-05, 0.0002615578
 183836436, -5.641256E-05, 0.003513289, -0.0002687285, 0.0002593961
 183936396, -0.0002152064, 0.003519208, -0.0002492027, 0.0002593961
 184036356, 3.416014E-05, 0.003466403, 5.427813E-06, 0.0002593961
 184136316, -0.0001358738, 0.003558542, -8.020173E-05, 0.0002593961
 184236276, 0.0001049819, 0.003649822, -0.0001411124, 0.0002593961
 184336236, 2.203248E-05, 0.003600179, -0.0001279486, 0.0002593961
 184436196, -1.974516E-05, 0.003617949, -3.863222E-06, 0.0002593961
 184536156, 2.417562E-05, 0.003776896, -5.14957E-05, 0.0002593961
 184636116, -2.786076E-05, 0.003552056, 6.593451E-05, 0.0002593961
 184736076, -2.319689E-05, 0.003492713, -0.0001280022, 0.0002593961
 184836036, -9.810546E-05, 0.00347647, -3.553396E-06, 0.0002593961
 184935996, 8.381248E-05, 0.003454334, 0.0002539667, 0.0002593961
 185035956, 6.073566E-05, 0.003741305, -0.0002004393, 0.0002593961
 185135916, 2.915565E-05, 0.003769702, -0.0002948487, 0.0002593961
 185235876, -0.000174817, 0.003708046, -0.0001104473, 0.0002593961
 185335836, -4.158376E-05, 0.00373366, 9.836194E-05, 0.0002593961
 185435796, -2.643586E-05, 0.003526, 1.785399E-05, 0.0002593961
 185535756, -4.602043E-05, 0.003414702, -2.175892E-06, 0.0002593961
 185635716, 3.329402E-05, 0.003583485, -0.0004074338, 0.0002593961
 185735676, -7.101644E-06, 0.00379142, -0.0001255558, 0.0002593961
 185836469, 4.11519E-05, 0.003424327, -0.0001650281, 0.0002615578
 185936429, 0.0001882402, 0.003611946, -0.0001836161, 0.0002593961
 186036389, -9.640053E-05, 0.003501996, -0.0002654408, 0.0002593961
 186136349, 0.0001632388, 0.003459193, -2.954016E-06, 0.0002593961
 186236309, 9.869938E-05, 0.003539823, 1.875246E-05, 0.0002593961
 186336269, -1.142329E-05, 0.003759828, -6.612635E-05, 0.0002593961
 186436229, -0.0001182249, 0.003789269, -0.0002027868, 0.0002593961
 186536189, -0.0001142997, 0.003717843, -0.0002633793, 0.0002593961
 186636149, 0.0001532453, 0.003723778, -0.0001626841, 0.0002593961
 186736109, 0.0003811468, 0.003817023, -7.340356E-05, 0.0002593961
 186836069, -0.0001222604, 0.003868878, 0.0001708754, 0.0002593961
 186936029, -7.40529E-05, 0.003526772, -0.0001046394, 0.0002593961
 187035989, 5.419044E-05, 0.003548787, -0.0001580619, 0.0002593961
 187135949, 7.248433E-05, 0.003665611, -6.388968E-05, 0.0002593961
 187235909, 6.230289E-06, 0.003620064, 3.405639E-05, 0.0002593961
 187335869, -1.591375E-05, 0.003698683, -7.518024E-05, 0.0002593961
 187435829, -1.443066E-05, 0.003767292, -8.679254E-05, 0.0002593961
 187535789, -5.257919E-05, 0.003605605, -0.0001059966, 0.0002593961
 187635749, -0.0001030916, 0.003619623, -0.0001611195, 0.0002593961
 187735709, -5.454283E-05, 0.003490384, 4.166843E-05, 0.0002593961
 187835669, 3.950374E-05, 0.003952883, -0.0001129282, 0.0002593961
 187936462, -3.20999E-05, 0.003529651, -3.406989E-05, 0.0002615578
 188036422, 0.0001814667, 0.003575365, 3.844868E-05, 0.0002593961
 188136382, 0.0001020191, 0.003741546, -3.633595E-05, 0.0002593961
 188236342, 0.0001999481, 0.003532304, 2.979398E-05, 0.0002593961
 188336302, -5.377782E-05, 0.003609348, 5.755507E-05, 0.0002593961
 188436262, 0.0001868855, 0.003747403, 6.711776E-05, 0.0002593961
 188536222, -6.669701E-05, 0.003557745, 5.786726E-05, 0.0002593961
 188636182, 4.605981E-06, 0.003529768, -0.0001406572, 0.0002593961
 188736142, -2.394563E-05, 0.003764549, -1.047074E-05, 0.0002593961
 188836102, -6.022473E-05, 0.00367244, 0.0001524208, 0.0002593961
 188936062, 0.0001027695, 0.003675096, -0.0002318575, 0.0002593961
 189036022, 4.121759E-05, 0.003481169, -3.78779E-05, 0.0002593961
 189135982, 0.0001504834, 0.003556571, 0.000139879, 0.0002593961
 189235942, 1.44288E-05, 0.003590013, -0.000144101, 0.0002593961
 189335902, 0.0001011972, 0.003542156, -0.0001623291, 0.0002593961
 189435862, 5.07932E-05, 0.003569161, 2.808281E-05, 0.0002593961
 189535822, 0.0001010467, 0.00361441, -6.17281E-05, 0.0002593961
 189635782, -6.667394E-05, 0.003530596, -0.0001650448, 0.0002593961
 189735742, 3.756984E-05, 0.003672198, -0.0003449657, 0.0002593961
 189835702, 0.00015939, 0.003590533, -0.0002238892, 0.0002593961
 189935662, 1.454024E-06, 0.003396202, -0.0002554634, 0.0002593961
 190036455, -0.0001262862, 0.003528007, -8.344968E-05, 0.0002615578
 190136415, 0.0001148669, 0.003632642, -0.0001152984, 0.0002593961
 190236375, 0.0001014624, 0.003453994, 1.429224E-05, 0.0002593961
 190336335, -1.640952E-05, 0.003623841, -2.127988E-05, 0.0002593961
 190436295, 0.0001298392, 0.003562307, -0.0001161647, 0.0002593961
 190536255, -5.651293E-05, 0.003728579, -0.0001119833, 0.0002593961
 190636215, 5.615268E-05, 0.003633956, 5.299831E-05, 0.0002593961
 190736175, -7.103363E-05, 0.003683534, -0.0001308669, 0.0002593961
 190836135, 8.097698E-05, 0.00368167, -4.792444E-05, 0.0002593961
 190936095, -0.0001237221, 0.003267885, -8.448564E-06, 0.0002593961
 191036055, -5.601107E-05, 0.003572131, -0.0002031134, 0.0002593961
 191136015, -0.0001408288, 0.003545172, -1.697338E-05, 0.0002593961
 191235975, 0.0002397255, 0.00352741, 4.304714E-05, 0.0002593961
 191335935, 9.455444E-05, 0.003594803, 6.964281E-05, 0.0002593961
 191435895, -0.0001772461, 0.003468229, -0.0002743195, 0.0002593961
 191535855, -2.548473E-05, 0.003560337, -0.0001800091, 0.0002593961
 191635815, -9.577817E-05, 0.003580419, -5.469159E-05, 0.0002593961
 191735775, 5.424438E-05, 0.003528755, 0.0001130569, 0.0002593961
 191835735, -6.280724E-05, 0.003577352, -1.379057E-05, 0.0002593961
 191935695, 9.872521E-05, 0.003547832, 9.485978E-05, 0.0002593961
 192035655, -3.256968E-05, 0.003706424, -3.561502E-05, 0.0002593961
 192136448, -9.098722E-05, 0.00361928, 1.276697E-05, 0.0002615578
 192236408, -5.541438E-05, 0.00354004, -0.0001843919, 0.0002593961
 192336368, 2.90057E-05, 0.003685788, -7.945098E-05, 0.0002593961
 192436328, 0.0001759252, 0.003677574, 5.214036E-05, 0.0002593961
 192536288, 2.819832E-05, 0.003599906, 0.0002315834, 0.0002593961
 192636248, -2.888822E-05, 0.003876867, -8.637072E-05, 0.0002593961
 192736208, -0.0002185917, 0.003600552, -0.000182546, 0.0002593961
 192836168, -9.297148E-05, 0.003592424, 4.941275E-05, 0.0002593961
 192936128, 0.0001027083, 0.003781382, -2.01669E-05, 0.0002593961
 193036088, 5.638807E-05, 0.003647919, 8.710714E-05, 0.0002593961
 193136048, -0.0001872272, 0.003460352, -5.749904E-05, 0.0002593961
 193236008, 0.0001151869, 0.003534597, -9.081901E-05, 0.0002593961
 193335968, 4.463499E-05, 0.003780884, -0.0002099509, 0.0002593961
 193435928, 9.678209E-05, 0.003641962, -0.0001939153, 0.0002593961
 193535888, -9.95549E-06, 0.003576275, -0.0001424112, 0.0002593961
 193635848, -1.529177E-05, 0.003640358, -1.067093E-05, 0.0002593961
 193735808, -1.799788E-05, 0.003738581, -9.403162E-05, 0.0002593961
 193835768, -2.316057E-05, 0.003399586, 6.782798E-05, 0.0002593961
 193935728, 9.675721E-05, 0.003351709, -0.0001576377, 0.0002593961
 194035688, 1.400488E-05, 0.003572626, -0.0002142383, 0.0002593961
 194136481, -0.0002234981, 0.003705813, 5.115249E-05, 0.0002615578
 194236441, 0.0002006689, 0.00339153, -4.883242E-05, 0.0002593961
 194336401, 0.0001391194, 0.003566039, 0.0001587137, 0.0002593961
 194436361, 3.698498E-05, 0.003618657, -0.0001067807, 0.0002593961
 194536321, 3.038141E-05, 0.003748992, 5.423402E-05, 0.0002593961
 194636281, -1.200524E-05, 0.003598047, -8.407447E-05, 0.0002593961
 194736241, 0.000157967, 0.003663165, -0.0001067486, 0.0002593961
 194836201, -9.088615E-05, 0.003458657, -0.0001349362, 0.0002593961
 194936161, -0.0001550538, 0.00357273, 5.454742E-05, 0.0002593961
 195036121, 8.927651E-05, 0.003606857, -9.221199E-05, 0.0002593961
 195136081, -3.40158E-06, 0.003470898, -0.0003286346, 0.0002593961
 195236041, -0.0002165137, 0.003519099, -4.516821E-05, 0.0002593961
 195336001, 0.0001529077, 0.003473471, -7.4109E-05, 0.0002593961
 195435961, 3.748424E-05, 0.003598798, -0.0001255916, 0.0002593961
 195535921, 7.783192E-05, 0.003595219, -0.0001362744, 0.0002593961
 195635881, 6.045814E-05, 0.003602178, -6.196358E-07, 0.0002593961
 195735841, 0.0002206553, 0.003345307, -0.0002262664, 0.0002593961
 195835801, 1.835483E-05, 0.003540157, 0.0001709051, 0.0002593961
 195935761, 0.0001856562, 0.003557045, -5.455099E-05, 0.0002593961
 196035721, 0.0001289426, 0.003580549, 7.740857E-05, 0.0002593961
 196135681, -2.257383E-05, 0.003442437, 2.150153E-05, 0.0002593961
 196236474, -0.0002540048, 0.003526183, -8.632145E-05, 0.0002615578
 196336434, 2.667775E-05, 0.003647791, -0.0001265544, 0.0002593961
 196436394, 0.0001276249, 0.003518381, -0.0001183978, 0.0002593961
 196536354, 6.66878E-05, 0.003457436, -2.937691E-05, 0.0002593961
 196636314, -0.0002016113, 0.00351446, -6.345593E-05, 0.0002593961
 196736274, -3.154258E-05, 0.003437023, -0.0001092044, 0.0002593961
 196836234, 4.132819E-05, 0.003277136, -2.992624E-05, 0.0002593961
 196936194, -0.0001886266, 0.003508016, -1.952701E-05, 0.0002593961
 197036154, -0.0001275026, 0.003373276, 6.364063E-05, 0.0002593961
 197136114, 1.972687E-05, 0.00371921, -7.03697E-05, 0.0002593961
 197236074, 0.0002720793, 0.003543947, -6.464755E-05, 0.0002593961
 197336034, 0.0001125417, 0.003516426, -8.625632E-05, 0.0002593961
 197435994, -7.568577E-05, 0.003599955, -0.0001014042, 0.0002593961
 197535954, -5.912106E-05, 0.00334978, -0.0001690248, 0.0002593961
 197635914, -1.08292E-05, 0.003552262, -0.0001717524, 0.0002593961
 197735874, 0.0002954557, 0.003616615, -0.0001140126, 0.0002593961
 197835834, 0.000190437, 0.003659012, -0.0001482073, 0.0002593961
 197935794, 0.0001922617, 0.00365117, -0.0001509122, 0.0002593961
 198035754, 0.0001627041, 0.003603573, -0.0002896783, 0.0002593961
 198135714, 4.287856E-05, 0.003745241, -4.074613E-05, 0.0002593961
 198235674, 0.0002288479, 0.003587359, 3.00621E-05, 0.0002593961
 198336467, -2.69205E-05, 0.00351468, -9.630085E-05, 0.0002615578
 198436427, -8.013505E-05, 0.003635027, -5.58427E-05, 0.0002593961
 198536387, -0.0001250779, 0.003613656, 4.040774E-06, 0.0002593961
 198636347, 6.571201E-05, 0.003502885, -0.0001366092, 0.0002593961
 198736307, 0.0001210273, 0.00347478, 0.0002189964, 0.0002593961
 198836267, 0.0001482426, 0.003536457, -0.0001645908, 0.0002593961
 198936227, 0.0002263025, 0.003697012, -0.0001161516, 0.0002593961
 199036187, -8.678721E-05, 0.003857123, -2.495006E-05, 0.0002593961
 199136147, -7.493574E-05, 0.003375832, -0.0001224326, 0.0002593961
 199236107, -5.24005E-05, 0.003576826, 1.679106E-05, 0.0002593961
 199336067, -0.0001567077, 0.003418657, -9.501947E-06, 0.0002593961
 199436027, 0.0001994873, 0.003583624, -0.0001596074, 0.0002593961
 199535987, -8.185093E-05, 0.003541994, 1.435063E-05, 0.0002593961
 199635947, 8.908553E-05, 0.003366547, 7.787207E-06, 0.0002593961
 199735907, -3.923945E-06, 0.003598528, 9.529349E-06, 0.0002593961
 199835867, -0.0002417727, 0.003863256, -0.0001280892, 0.0002593961
 199935827, -0.0001130073, 0.003515004, -5.215107E-05, 0.0002593961
 200035787, 0.0002014759, 0.003479528, 4.46725E-05, 0.0002593961
 200135747, -1.838318E-05, 0.003476343, 8.839408E-05, 0.0002593961
 200235707, 0.0002587008, 0.003430497, 0.0001054246, 0.0002593961
 200335667, -0.000182935, 0.003492886, -0.0003633512, 0.0002593961
 200436460, 0.0001675584, 0.003536604, -0.0001830831, 0.0002615578
 200536420, -7.650717E-05, 0.003706217, -0.000149064, 0.0002593961
 200636380, -0.0001829588, 0.003628827, -5.699382E-05, 0.0002593961
 200736340, 8.122097E-05, 0.003512367, 0.0001280749, 0.0002593961
 200836300, 9.641099E-05, 0.003424206, -7.765644E-05, 0.0002593961
 200936260, -5.906366E-05, 0.003522392, 8.666862E-05, 0.0002593961
 201036220, 0.000174586, 0.003598551, 2.91374E-05, 0.0002593961
 201136180, -7.758706E-05, 0.003478385, -0.0001723649, 0.0002593961
 201236140, -6.034993E-05, 0.003362765, 1.51085E-05, 0.0002593961
 201336100, -0.000218942, 0.003481626, 8.207254E-05, 0.0002593961
 201436060, -0.0001599707, 0.003551634, -8.355732E-05, 0.0002593961
 201536020, 5.460545E-05, 0.003470201, -8.841791E-05, 0.0002593961
 201635980, 6.205559E-05, 0.003367611, 0.0001621861, 0.0002593961
 201735940, -7.556596E-05, 0.003489602, -8.72275E-05, 0.0002593961
 201835900, -0.00015773, 0.003571066, -6.208361E-07, 0.0002593961
 201935860, 1.582105E-05, 0.003584351, -8.022675E-05, 0.0002593961
 202035820, 0.0001606108, 0.003502226, -0.0001317069, 0.0002593961
 202135780, 6.582395E-05, 0.00367742, 9.400776E-05, 0.0002593961
 202235740, -1.276037E-06, 0.003522123, -0.0002706196, 0.0002593961
 202335700, 0.0001902053, 0.003605818, -7.716309E-05, 0.0002593961
 202435660, -1.348046E-05, 0.003406754, -0.0001903845, 0.0002593961
 202536453, 0.0002302174, 0.00354404, -5.040459E-05, 0.0002615578
 202636413, 9.901876E-05, 0.003429211, 1.22367E-05, 0.0002593961
 202736373, 6.337843E-05, 0.003640026, -7.20177E-05, 0.0002593961
 202836333, 0.0001062084, 0.003476492, -7.613117E-05, 0.0002593961
 202936293, -3.920493E-05, 0.003512234, -0.0002271399, 0.0002593961
 203036253, 0.0001355858, 0.003717607, 7.493717E-05, 0.0002593961
 203136213, 7.993388E-05, 0.003548179, -8.64887E-05, 0.0002593961
 203236173, -0.0001709633, 0.00361413, -0.0002581637, 0.0002593961
 203336133, -6.602048E-05, 0.003589909, -0.0001403938, 0.0002593961
 203436093, 0.0001741281, 0.003328433, 4.241676E-05, 0.0002593961
 203536053, -0.0001824146, 0.003742614, 0.0001906276, 0.0002593961
 203636013, 0.000249593, 0.00358875, 2.900155E-05, 0.0002593961
 203735973, 3.084746E-05, 0.003697979, -0.0001101315, 0.0002593961
 203835933, 7.399867E-06, 0.003704731, -1.914093E-05, 0.0002593961
 203935893, 0.000146898, 0.003735405, -5.558411E-05, 0.0002593961
 204035853, 9.580071E-05, 0.003503497, -0.0001337315, 0.0002593961
 204135813, -1.692491E-05, 0.00351538, 2.265142E-05, 0.0002593961
 204235773, 9.371998E-05, 0.003659374, -0.0001564747, 0.0002593961
 204335733, 8.388264E-05, 0.003669621, -0.0002367479, 0.0002593961
 204435693, 1.554943E-05, 0.003471075, -7.801749E-05, 0.0002593961
 204536486, 1.773825E-05, 0.003515147, 8.717985E-05, 0.0002593961
 204636446, 4.19823E-05, 0.003546801, 0.0001501107, 0.0002615578
 204736406, 0.0001320755, 0.003385713, 0.0001356047, 0.0002593961
 204836366, 6.069565E-05, 0.003368929, 3.51062E-05, 0.0002593961
 204936326, 3.609963E-05, 0.003525233, -0.0001136849, 0.0002593961
 205036286, -7.158366E-05, 0.003687964, -0.000271611, 0.0002593961
 205136246, -3.444144E-05, 0.003567828, -1.263949E-05, 0.0002593961
 205236206, 2.187948E-05, 0.003551083, -0.0001614211, 0.0002593961
 205336166, -3.494948E-05, 0.003412337, 4.733458E-05, 0.0002593961
 205436126, 0.0001186967, 0.00343509, 2.170528E-05, 0.0002593961
 205536086, 0.0002276898, 0.003696459, -0.0001446443, 0.0002593961
 205636046, 6.213057E-05, 0.003568054, -0.0001074444, 0.0002593961
 205736006, -3.944591E-05, 0.003424407, -9.657096E-05, 0.0002593961
 205835966, -9.998184E-05, 0.003733176, -4.332715E-06, 0.0002593961
 205935926, 0.0001905083, 0.003518183, -0.0001275077, 0.0002593961
 206035886, -4.65243E-05, 0.00344204, -0.0002062485, 0.0002593961
 206135846, 0.0003088905, 0.003461741, -0.0001089578, 0.0002593961
 206235806, -7.462201E-05, 0.003475526, -2.953181E-05, 0.0002593961
 206335766, 0.0001238679, 0.003399611, 1.423862E-05, 0.0002593961
 206435726, 0.0001078906, 0.00343237, 4.653499E-05, 0.0002593961
 206535686, 5.898806E-05, 0.003436695, -0.0001008739, 0.0002593961
 206636479, 2.752565E-05, 0.003696726, 5.176142E-05, 0.0002615578
 206736439, 0.0001641951, 0.003587345, -6.022427E-06, 0.0002593961
 206836399, -0.0001337835, 0.003700124, 1.917429E-05, 0.0002593961
 206936359, -0.0001385486, 0.003265498, -5.320328E-05, 0.0002593961
 207036319, 9.940899E-05, 0.003662713, -0.0002543743, 0.0002593961
 207136279, 5.434896E-05, 0.003655114, -5.019681E-05, 0.0002593961
 207236239, 0.0001009509, 0.003390983, 2.658497E-05, 0.0002593961
 207336199, 1.502598E-05, 0.003438146, -3.290171E-05, 0.0002593961
 207436159, -0.0001299922, 0.003449561, 8.801397E-05, 0.0002593961
 207536119, 0.0001691985, 0.00336808, -0.0002497461, 0.0002593961
 207636079, 4.364745E-05, 0.003653373, 5.544709E-05, 0.0002593961
 207736039, -4.045476E-05, 0.003431279, -7.520282E-06, 0.0002593961
 207835999, 6.02647E-06, 0.00339177, 5.739657E-05, 0.0002593961
 207935959, 5.723616E-05, 0.003707419, -0.000174791, 0.0002593961
 208035919, -0.0001431576, 0.003733004, 0.0001089101, 0.0002593961
 208135879, 2.966091E-05, 0.003490748, 7.381584E-05, 0.0002593961
 208235839, 0.0002116023, 0.003624669, -0.0001263292, 0.0002593961
 208335799, -0.0001545412, 0.003589917, 0.0002490073, 0.0002593961
 208435759, 1.109655E-05, 0.00353872, -8.843459E-05, 0.0002593961
 208535719, 0.0001154047, 0.003634754, -0.0001180474, 0.0002593961
 208635679, -2.178736E-05, 0.003661482, -0.0001386838, 0.0002593961
 208736472, -3.190874E-05, 0.003779456, 8.032674E-06, 0.0002615578
 208836432, 0.0001632695, 0.003652385, -4.982743E-05, 0.0002593961
 208936392, 0.0001064262, 0.003645652, -0.000123144, 0.0002593961
 209036352, 0.0002197138, 0.003450071, 0.0002525034, 0.0002593961
 209136312, 0.0001357296, 0.003561537, -1.487734E-05, 0.0002593961
 209236272, -2.34387E-07, 0.003550799, 3.252754E-05, 0.0002593961
 209336232, 9.330335E-05, 0.003760087, -2.013354E-05, 0.0002593961
 209436192, -4.47042E-05, 0.003389128, -0.000102597, 0.0002593961
 209536152, -0.0002099091, 0.003485038, -4.137172E-05, 0.0002593961
 209636112, 2.517746E-05, 0.003579679, 0.0001292129, 0.0002593961
 209736072, -5.748642E-05, 0.003423685, -9.330594E-05, 0.0002593961
 209836032, -7.542659E-05, 0.00375883, 5.304121E-05, 0.0002593961
 209935992, 7.565657E-05, 0.003495911, 0.0001038398, 0.0002593961
 210035952, 8.609908E-05, 0.00363531, -3.367269E-05, 0.0002593961
 210135912, -0.0001486061, 0.003528155, 1.456156E-05, 0.0002593961
 210235872, -5.022453E-05, 0.003595189, 0.0001931931, 0.0002593961
 210335832, 4.654221E-05, 0.003603363, -0.0001431071, 0.0002593961
 210435792, 1.438079E-05, 0.003515664, 6.568186E-05, 0.0002593961
 210535752, -0.0001214359, 0.003216777, 2.588191E-06, 0.0002593961
 210635712, 7.725941E-05, 0.00340649, -3.99966E-05, 0.0002593961
 210735672, -0.0001106734, 0.003528352, 0.0001214924, 0.0002593961
 210836465, 3.224318E-05, 0.003709305, -6.183295E-06, 0.0002615578
 210936425, -6.635992E-05, 0.003637427, 2.317337E-05, 0.0002593961
 211036385, 0.0001894626, 0.00359471, -7.010277E-06, 0.0002593961
 211136345, -4.975108E-06, 0.003338803, -1.605703E-05, 0.0002593961
 211236305, -2.305716E-05, 0.003480094, -0.0002874059, 0.0002593961
 211336265, -0.0001698613, 0.003493676, -0.0002008541, 0.0002593961
 211436225, -9.630938E-05, 0.003688772, 1.318286E-05, 0.0002593961
 211536185, -3.981957E-05, 0.003416088, -0.0003956904, 0.0002593961
 211636145, -5.750921E-05, 0.003531178, -3.460691E-05, 0.0002593961
 211736105, -0.000190137, 0.003501767, 4.299946E-05, 0.0002593961
 211836065, -0.000175603, 0.003513643, -8.704279E-05, 0.0002593961
 211936025, 9.330126E-05, 0.003646555, 7.992766E-05, 0.0002593961
 212035985, 4.040917E-05, 0.003635495, -0.0001054247, 0.0002593961
 212135945, 8.747662E-05, 0.003364333, -6.313183E-05, 0.0002593961
 212235905, 7.745471E-07, 0.003586146, 0.0001739271, 0.0002593961
 212335865, -1.838098E-05, 0.003581735, 1.497742E-05, 0.0002593961
 212435825, 0.0001604246, 0.003318676, -0.0001400363, 0.0002593961
 212535785, -2.858349E-05, 0.003595337, 9.25707E-05, 0.0002593961
 212635745, 8.53379E-05, 0.003429689, -2.448773E-06, 0.0002593961
 212735705, -0.0001176069, 0.003438726, -5.785773E-05, 0.0002593961
 212835665, -0.0002116671, 0.003450269, -6.822956E-05, 0.0002593961
 212936458, 0.0001071999, 0.003471181, -0.0002087922, 0.0002615578
 213036418, -9.920842E-05, 0.003476595, -0.0002511152, 0.0002593961
 213136378, 0.000147983, 0.003626656, 8.235854E-05, 0.0002593961
 213236338, -1.364064E-05, 0.003654169, 0.0001282429, 0.0002593961
 213336298, 3.072629E-05, 0.00349522, -2.516574E-05, 0.0002593961
 213436258, 1.701008E-05, 0.003544343, -6.194735E-05, 0.0002593961
 213536218, -1.228951E-05, 0.003553646, -6.238229E-05, 0.0002593961
 213636178, 2.726074E-05, 0.003376042, -0.0001757955, 0.0002593961
 213736138, -9.426962E-05, 0.003564065, -3.876207E-05, 0.0002593961
 213836098, 6.463224E-05, 0.003437309, -6.990259E-05, 0.0002593961
 213936058, 0.0001030869, 0.003602439, -7.096429E-05, 0.0002593961
 214036018, 0.0002224524, 0.003722951, 6.630629E-05, 0.0002593961
 214135978, 1.984297E-05, 0.003710356, -2.430301E-05, 0.0002593961
 214235938, 4.488871E-05, 0.003524224, -1.564949E-05, 0.0002593961
 214335898, 0.0004517566, 0.003511311, 8.33559E-05, 0.0002593961
 214435858, 8.868958E-05, 0.003549509, -3.348681E-05, 0.0002593961
 214535818, 0.0001528715, 0.003636789, -0.0001798196, 0.0002593961
 214635778, 6.77745E-05, 0.003634952, -9.034476E-05, 0.0002593961
 214735738, 4.153553E-05, 0.003792136, -1.237494E-05, 0.0002593961
 214835698, 0.0001040179, 0.00371414, -7.659708E-05, 0.0002593961
 214935658, 3.65745E-06, 0.003578041, -0.0003335393, 0.0002593961
 215036451, 7.220053E-05, 0.003567543, -0.0002009998, 0.0002615578
 215136411, -0.0001106845, 0.003715863, -2.434115E-05, 0.0002593961
 215236371, -8.503175E-06, 0.003713699, -6.44902E-06, 0.0002593961
 215336331, -5.39865E-05, 0.00351859, -3.092247E-06, 0.0002593961
 215436291, 0.0001098952, 0.003295623, 1.897768E-05, 0.0002593961
 215536251, -4.086962E-05, 0.003593566, -8.626585E-05, 0.0002593961
 215636211, 1.185168E-05, 0.003486673, 2.567813E-05, 0.0002593961
 215736171, 0.0002615712, 0.00342019, -0.0001269345, 0.0002593961
 215836131, 0.0001563707, 0.003407783, 0.0001117176, 0.0002593961
 215936091, 0.0001173846, 0.003414705, -5.938896E-05, 0.0002593961
 216036051, 5.474516E-06, 0.003421785, -4.215934E-06, 0.0002593961
 216136011, -1.814928E-06, 0.003543588, -7.431515E-05, 0.0002593961
 216235971, 6.964192E-05, 0.003393047, 8.408281E-05, 0.0002593961
 216335931, 0.0002237234, 0.003283418, -0.0002067788, 0.0002593961
 216435891, 0.0001204137, 0.00372167, -0.0001099719, 0.0002593961
 216535851, -8.18107E-05, 0.003452501, -0.000111179, 0.0002593961
 216635811, -0.0001002025, 0.003459195, 8.774584E-05, 0.0002593961
 216735771, -0.0002369871, 0.003495929, -0.0002007992, 0.0002593961
 216835731, 3.80598E-05, 0.003365299, -0.0002572044, 0.0002593961
 216935691, 2.973632E-07, 0.003494182, -0.0002803896, 0.0002593961
 217036484, 6.632158E-05, 0.00347368, -0.0002463507, 0.0002615578
 217136444, 2.034214E-05, 0.003422933, -8.263501E-05, 0.0002593961
 217236404, 0.0001502978, 0.003538067, 0.0001657252, 0.0002593961
 217336364, 1.343199E-05, 0.003450365, 6.068305E-05, 0.0002593961
 217436324, 2.42386E-05, 0.003458228, -0.0002027642, 0.0002593961
 217536284, -0.0001995271, 0.003507061, 2.56364E-05, 0.0002593961
 217636244, -0.0001308418, 0.003453127, -0.0001194404, 0.0002593961
 217736204, -0.0001113008, 0.003689538, 9.159595E-05, 0.0002593961
 217836164, -0.0001542386, 0.003651104, -3.01181E-05, 0.0002593961
 217936124, 9.241833E-05, 0.003522979, -0.0001933826, 0.0002593961
 218036084, -7.737396E-05, 0.0035552, -3.033258E-05, 0.0002593961
 218136044, -4.918091E-05, 0.003504726, -2.013593E-05, 0.0002593961
 218236004, 5.233339E-05, 0.003459796, -7.315571E-05, 0.0002593961
 218335964, 2.568309E-05, 0.003695647, 2.45866E-05, 0.0002593961
 218435924, 0.0002011787, 0.00355597, -0.0001545109, 0.0002593961
 218535884, 2.95528E-05, 0.003521373, -0.0003285452, 0.0002593961
 218635844, -6.22557E-05, 0.003543911, -6.122533E-06, 0.0002593961
 218735804, 5.747986E-05, 0.003572401, -8.486927E-05, 0.0002593961
 218835764, 7.238972E-05, 0.003612585, -0.0001926712, 0.0002593961
 218935724, -4.823232E-05, 0.003676001, 2.536473E-05, 0.0002593961
 219035684, -4.755493E-05, 0.003572995, -0.0001670098, 0.0002593961
 219136477, 0.0002089486, 0.003918303, -0.0001566081, 0.0002615578
 219236437, 7.049947E-05, 0.003610902, -7.215475E-05, 0.0002593961
 219336397, 5.470614E-05, 0.003479287, 0.0001197395, 0.0002593961
 219436357, 0.0002150365, 0.003587923, -0.0001551186, 0.0002593961
 219536317, 3.686309E-05, 0.003490672, -0.000366385, 0.0002593961
 219636277, -6.074355E-05, 0.003429484, 5.153142E-05, 0.0002593961
 219736237, -5.693174E-06, 0.003686995, -0.0001479546, 0.0002593961
 219836197, 0.0001075448, 0.00355356, -1.85761E-05, 0.0002593961
 219936157, -1.523042E-05, 0.003487187, -0.0002026629, 0.0002593961
 220036117, 5.532632E-05, 0.003673448, 9.741469E-06, 0.0002593961
 220136077, 0.0001144667, 0.003584153, -0.0001484599, 0.0002593961
 220236037, 8.044522E-06, 0.003235847, -4.455214E-05, 0.0002593961
 220335997, -7.225566E-05, 0.003514949, 3.05149E-05, 0.0002593961
 220435957, 5.05133E-05, 0.003617837, -1.702938E-05, 0.0002593961
 220535917, -2.3938E-05, 0.003499459, -4.012171E-05, 0.0002593961
 220635877, -6.979221E-05, 0.003775012, -7.98049E-05, 0.0002593961
 220735837, 6.410625E-05, 0.003522503, 0.0001196621, 0.0002593961
 220835797, -0.0001657053, 0.003772571, -2.577824E-05, 0.0002593961
 220935757, 5.919024E-05, 0.003630049, -0.0002527894, 0.0002593961
 221035717, 4.498114E-05, 0.003550861, 5.546854E-05, 0.0002593961
 221135677, 0.0002393718, 0.003528722, -2.021578E-05, 0.0002593961
 221236470, -1.953424E-05, 0.003501344, -0.0002890503, 0.0002615578
 221336430, -0.0001483582, 0.003526448, -0.0003105244, 0.0002593961
 221436390, 0.0001017836, 0.00364282, -0.0001011134, 0.0002593961
 221536350, 8.272097E-05, 0.003557015, 8.662215E-05, 0.0002593961
 221636310, 0.0002190806, 0.00348991, -0.01206066, 0.0002593961
 221736270, 0.0002972838, 0.003703166, -0.1851953, 0.0002593961
 221836230, 0.0001584982, 0.003815951, -0.1104924, 0.0002593961
 221936190, -9.109034E-07, 0.003603684, 0.009308205, 0.0002593961
 222036150, -6.872534E-05, 0.00350781, 0.05549556, 0.0002593961
 222136110, -5.193846E-05, 0.003490992, 0.04795923, 0.0002593961
 222236070, 3.56801E-05, 0.003541452, -0.1640368, 0.0002593961
 222336030, -0.0009035374, 0.002455631, -0.6891114, 0.0002593961
 222435990, -0.003539248, -0.0002160093, -0.6115592, 0.0002593961
 222535950, -0.006053539, -0.002909633, -0.3172983, 0.0002593961
 222635910, -0.007165389, -0.004395983, -0.1099507, 0.0002593961
 222735870, -0.007442615, -0.004644218, -0.04950098, 0.0002593961
 222835830, -0.00730221, -0.00418776, -0.0733486, 0.0002593961
 222935790, -0.007103413, -0.003850134, -0.1095157, 0.0002593961
 223035750, -0.006643896, -0.003088549, -0.1247464, 0.0002593961
 223135710, -0.006092173, -0.002577589, -0.1190775, 0.0002593961
 223235670, -0.005763655, -0.001929568, -0.1053953, 0.0002593961
 223336463, -0.005271097, -0.001382689, -0.09369799, 0.0002615578
 223436423, -0.004806675, -0.000864157, -0.08482536, 0.0002593961
 223536383, -0.004264141, -0.0003234274, -0.07996849, 0.0002593961
 223636343, -0.004078574, 0.000182688, -0.07591085, 0.0002593961
 223736303, -0.003602159, 0.0006680533, -0.07190043, 0.0002593961
 223836263, -0.003395777, 0.001173296, -0.06745053, 0.0002593961
 223936223, -0.003101558, 0.00152715, -0.0629102, 0.0002593961
 224036183, -0.002816676, 0.001833253, -0.05885703, 0.0002593961
 224136143, -0.002438113, 0.002097648, -0.05508045, 0.0002593961
 224236103, -0.002166203, 0.002248949, -0.05159985, 0.0002593961
 224336063, -0.001900634, 0.002318244, -0.04849655, 0.0002593961
 224436023, -0.001726211, 0.002557537, -0.04536629, 0.0002593961
 224535983, -0.001607562, 0.002589195, -0.04250211, 0.0002593961
 224635943, -0.00129386, 0.002711327, -0.03996458, 0.0002593961
 224735903, -0.001019281, 0.002814527, -0.0372648, 0.0002593961
 224835863, -0.001000222, 0.002833531, -0.03437464, 0.0002593961
 224935823, -0.0008371055, 0.0028446, -0.03211854, 0.0002593961
 225035783, -0.0008912008, 0.002931332, -0.03023425, 0.0002593961
 225135743, -0.0007133277, 0.00276136, -0.02848844, 0.0002593961
 225235703, -0.0008008402, 0.002624393, -0.02705482, 0.0002593961
 225335663, -0.0008417865, 0.002577898, -0.02532211, 0.0002593961
 225436456, -0.0009299109, 0.002288003, -0.02401455, 0.0002615578
 225536416, -0.0009402047, 0.002325541, 0.002957206, 0.0002593961
 225636376, 0.0003971447, 0.003682161, 0.2921102, 0.0002593961
 225736336, 0.0004401833, 0.003394418, 0.2712312, 0.0002593961
 225836296, 0.0005683835, 0.003153431, 0.2530517, 0.0002593961
 225936256, 0.0004646869, 0.002797105, 0.2370541, 0.0002593961
 226036216, 0.000350431, 0.002782744, 0.2219509, 0.0002593961
 226136176, 0.0004839938, 0.002705177, 0.2025955, 0.0002593961
 226236136, 0.0005945017, 0.00263167, 0.1690192, 0.0002593961
 226336096, 0.001491389, 0.003686731, 0.1637116, 0.0002593961
 226436056, 0.003584703, 0.006168247, 0.1472425, 0.0002593961
 226536016, 0.005832009, 0.009071101, 0.1317968, 0.0002593961
 226635976, 0.007495854, 0.01160114, 0.117124, 0.0002593961
 226735936, 0.01136675, 0.01415037, 0.09639882, 0.0002593961
 226835896, 0.024624, 0.02016898, 0.08196541, 0.0002593961
 226935856, 0.04682915, 0.0293478, 0.06983276, 0.0002593961
 227035816, 0.07290733, 0.03962879, 0.05942186, 0.0002593961
 227135776, 0.09647392, 0.04896486, 0.05191517, 0.0002593961
 227235736, 0.1123909, 0.05492765, 0.04469638, 0.0002593961
 227335696, 0.1198915, 0.05754161, 0.03784375, 0.0002593961
 227435656, 0.119918, 0.05719948, 0.03115555, 0.0002593961
 227536449, 0.1153041, 0.05506323, 0.02545545, 0.0002615578
 227636409, 0.106169, 0.05074462, 0.01800335, 0.0002593961
 227736369, 0.09856761, 0.04740628, 0.010627, 0.0002593961
 227836329, 0.09386324, 0.04531028, 0.003407344, 0.0002593961
 227936289, 0.09313689, 0.044792, -0.003632984, 0.0002593961
 228036249, 0.09422189, 0.04891172, -0.009746009, 0.0002593961
 228136209, 0.09324499, 0.05995228, -0.01379506, 0.0002593961
 228236169, 0.09023605, 0.07580159, -0.01903267, 0.0002593961
 228336129, 0.08620527, 0.08883237, -0.02684669, 0.0002593961
 228436089, 0.08273701, 0.09357285, -0.03534806, 0.0002593961
 228536049, 0.08093923, 0.08838821, -0.04155619, 0.0002593961
 228636009, 0.08366144, 0.07576498, -0.04612461, 0.0002593961
 228735969, 0.09054997, 0.06014723, -0.04872493, 0.0002593961
 228835929, 0.1004313, 0.04559835, -0.05024436, 0.0002593961
 228935889, 0.110507, 0.03437732, -0.05108847, 0.0002593961
 229035849, 0.1179159, 0.02637825, -0.05178874, 0.0002593961
 229135809, 0.121383, 0.02035988, -0.05219626, 0.0002593961
 229235769, 0.1211554, 0.01536502, -0.05257811, 0.0002593961
 229335729, 0.118334, 0.01089234, -0.0528091, 0.0002593961
 229435689, 0.113861, 0.007385107, -0.05167301, 0.0002593961
 229536482, 0.109198, 0.00631268, -0.04954762, 0.0002615578
 229636442, 0.1019847, 0.008007226, -0.04597873, 0.0002593961
 229736402, 0.09473678, 0.01237331, -0.04298119, 0.0002593961
 229836362, 0.08875918, 0.01696596, -0.03899074, 0.0002593961
 229936322, 0.08719778, 0.01484133, -0.03444622, 0.0002593961
 230036282, 0.08902635, 0.006423729, -0.03060518, 0.0002593961
 230136242, 0.09155243, -0.003610825, -0.02814372, 0.0002593961
 230236202, 0.09039765, -0.01035865, -0.02681876, 0.0002593961
 230336162, 0.08431426, -0.009909432, -0.02543374, 0.0002593961
 230436122, 0.06879467, -0.002608327, -0.006305325, 0.0002593961
 230536082, 0.0494811, 0.009483817, 0.005929797, 0.0002593961
 230636042, 0.02826102, 0.0231247, 0.01319948, 0.0002593961
 230736002, 0.009214266, 0.03622056, 0.01886108, 0.0002593961
 230835962, -0.003672567, 0.04750703, 0.02364559, 0.0002593961
 230935922, -0.009809395, 0.05483775, 0.02649884, 0.0002593961
 231035882, -0.0108134, 0.05759423, 0.02844531, 0.0002593961
 231135842, -0.008969276, 0.05565091, 0.02827326, 0.0002593961
 231235802, -0.00633622, 0.05031971, 0.02694518, 0.0002593961
 231335762, -0.003805621, 0.04263004, 0.02469763, 0.0002593961
 231435722, -0.002031046, 0.03407354, 0.02209894, 0.0002593961
 231535682, -0.0004656535, 0.02525631, 0.01945644, 0.0002593961
 231636475, 0.001211521, 0.01706231, 0.01754378, 0.0002615578
 231736435, 0.002623177, 0.01045398, 0.01550357, 0.0002593961
 231836395, 0.004018935, 0.005607832, 0.01360827, 0.0002593961
 231936355, 0.005125965, 0.002594744, 0.0116714, 0.0002593961
 232036315, 0.005824741, 0.0009626829, 0.01017894, 0.0002593961
 232136275, 0.005589929, 0.0006472362, 0.008426843, 0.0002593961
 232236235, 0.004665272, 0.001322725, 0.007035189, 0.0002593961
 232336195, 0.003267473, 0.002673611, 0.005743118, 0.0002593961
 232436155, 0.002028801, 0.003804939, 0.004524197, 0.0002593961
 232536115, 0.001061486, 0.004789429, 0.003162742, 0.0002593961
 232636075, -0.0001772145, 0.006107659, 0.002521058, 0.0002593961
 232736035, -0.001074337, 0.007051359, 0.001724187, 0.0002593961
 232835995, -0.001719246, 0.008011755, 0.001084063, 0.0002593961
 232935955, -0.002225759, 0.00853538, 0.0008588466, 0.0002593961
 233035915, -0.002694857, 0.009048973, 0.0006549659, 0.0002593961
 233135875, -0.002605284, 0.008793309, 0.0005497604, 0.0002593961
 233235835, -0.002144784, 0.007881487, -3.723441E-05, 0.0002593961
 233335795, -0.001942807, 0.006543302, 0.0002630099, 0.0002593961
 233435755, -0.001595471, 0.005242778, -2.137521E-05, 0.0002593961
 233535715, -0.001166406, 0.003995931, -7.821411E-05, 0.0002593961
 233635675, -0.0007949058, 0.002660898, 7.380516E-05, 0.0002593961
 233736468, -0.00444356, 0.0002561765, 0.0179608, 0.0002615578
 233836428, -0.003407146, 0.0004386145, 0.01506234, 0.0002593961
 233936388, -0.0008971873, 0.00114708, 0.00675737, 0.0002593961
 234036348, 0.001232742, 0.001243503, 0.001515606, 0.0002593961
 234136308, 0.00262454, 0.0008389468, -0.001972505, 0.0002593961
 234236268, 0.00297568, 0.0003488779, -0.004401682, 0.0002593961
 234336228, 0.002572716, -0.0002558313, -0.005922678, 0.0002593961
 234436188, 0.00186818, -0.0002449135, -0.006946674, 0.0002593961
 234536148, 0.0004371628, 0.0001895567, -0.006835144, 0.0002593961
 234636108, -0.0006194765, 0.001258383, -0.006654076, 0.0002593961
 234736068, -0.001362406, 0.002370931, -0.00584329, 0.0002593961
 234836028, -0.00153716, 0.00308693, -0.005321159, 0.0002593961
 234935988, -0.001485313, 0.003359381, -0.00444638, 0.0002593961
 235035948, -0.00146807, 0.003289683, -0.003669706, 0.0002593961
 235135908, -0.001487072, 0.003363647, -0.0033908, 0.0002593961
 235235868, -0.001386024, 0.003529044, -0.002338886, 0.0002593961
 235335828, -0.001642334, 0.003897858, -0.002171775, 0.0002593961
 235435788, -0.001839163, 0.00411491, -0.001746221, 0.0002593961
 235535748, -0.002303938, 0.00445749, -0.0009091232, 0.0002593961
 235635708, -0.005849313, 0.003242637, 0.0126915, 0.0002593961
 235735668, -0.01916681, -0.002427769, 0.05387377, 0.0002593961
 235836461, -0.0375502, -0.01046177, 0.0744824, 0.0002615578
 235936421, -0.05484103, -0.02152408, 0.08863387, 0.0002593961
 236036381, -0.05716954, -0.03611511, 0.1028087, 0.0002593961
 236136341, -0.04371208, -0.05050965, 0.1149572, 0.0002593961
 236236301, -0.02311066, -0.06160389, 0.1245938, 0.0002593961
 236336261, -0.003074174, -0.06780894, 0.1280106, 0.0002593961
 236436221, 0.01250841, -0.06927119, 0.1234873, 0.0002593961
 236536181, 0.02178731, -0.0673554, 0.1155833, 0.0002593961
 236636141, 0.02596679, -0.06377815, 0.1058057, 0.0002593961
 236736101, 0.02773824, -0.05927635, 0.09549761, 0.0002593961
 236836061, 0.02938834, -0.05490976, 0.08486368, 0.0002593961
 236936021, 0.03236704, -0.05109789, 0.07414284, 0.0002593961
 237035981, 0.03707372, -0.04784675, 0.06469816, 0.0002593961
 237135941, 0.0428858, -0.04575386, 0.05547742, 0.0002593961
 237235901, 0.04890766, -0.04397943, 0.0465731, 0.0002593961
 237335861, 0.05461893, -0.04265391, 0.0387172, 0.0002593961
 237435821, 0.05911105, -0.04170877, 0.03164702, 0.0002593961
 237535781, 0.0627765, -0.04109862, 0.02551045, 0.0002593961
 237635741, 0.06586624, -0.04065578, 0.02031478, 0.0002593961
 237735701, 0.06791664, -0.04049936, 0.0158617, 0.0002593961
 237835661, 0.06972247, -0.04028746, 0.01236642, 0.0002593961
 237936454, 0.07201624, -0.04015788, 0.00953477, 0.0002615578
 238036414, 0.07315912, -0.03889093, 0.007344674, 0.0002593961
 238136374, 0.07484285, -0.03735876, 0.005805676, 0.0002593961
 238236334, 0.07671519, -0.03508059, 0.004241122, 0.0002593961
 238336294, 0.07844182, -0.03218859, 0.003099914, 0.0002593961
 238436254, 0.07954471, -0.02904411, 0.002400135, 0.0002593961
 238536214, 0.08059813, -0.02591412, 0.001713686, 0.0002593961
 238636174, 0.08133308, -0.02264576, 0.001263703, 0.0002593961
 238736134, 0.08232065, -0.01995622, 0.001118198, 0.0002593961
 238836094, 0.08288857, -0.01725016, 0.001154076, 0.0002593961
 238936054, 0.08368516, -0.01475839, 0.001330678, 0.0002593961
 239036014, 0.08475386, -0.01299063, 0.001240821, 0.0002593961
 239135974, 0.08541885, -0.01129989, 0.001327576, 0.0002593961
 239235934, 0.08623048, -0.009953703, 0.0009268399, 0.0002593961
 239335894, 0.08576716, -0.008694579, 0.00101256, 0.0002593961
 239435854, 0.08457708, -0.007830041, 0.0006564578, 0.0002593961
 239535814, 0.08277141, -0.007221236, 0.0001416546, 0.0002593961
 239635774, 0.08057375, -0.006456872, 2.214024E-06, 0.0002593961
 239735734, 0.07807335, -0.005597551, -0.00037613, 0.0002593961
 239835694, 0.07601325, -0.004972311, -0.0005949787, 0.0002593961
 239935654, 0.07383572, -0.004509978, -0.0005420566, 0.0002593961
 240036447, 0.07272414, -0.003828588, -0.0006867247, 0.0002615578
 240136407, 0.07047205, -0.003212306, -0.0008119327, 0.0002593961
 240236367, 0.06873373, -0.002576391, -0.001038188, 0.0002593961
 240336327, 0.06687541, -0.001609996, -0.0005968208, 0.0002593961
 240436287, 0.06542797, -0.0008229061, -0.0005309936, 0.0002593961
 240536247, 0.06373315, -3.031534E-05, -0.0004576473, 0.0002593961
 240636207, 0.06190414, 0.001053911, -0.0002904386, 0.0002593961
 240736167, 0.05991266, 0.001847945, -0.0001527342, 0.0002593961
 240836127, 0.05803392, 0.002081187, 0.0001278008, 0.0002593961
 240936087, 0.0561405, 0.002613494, -2.328059E-05, 0.0002593961
 241036047, 0.05437497, 0.002728123, 3.248348E-05, 0.0002593961
 241136007, 0.05278941, 0.002666112, -7.118704E-06, 0.0002593961
 241235967, 0.05162241, 0.002720229, -0.0001884612, 0.0002593961
 241335927, 0.05051717, 0.003039451, -0.0001705345, 0.0002593961
 241435887, 0.04940713, 0.003196378, -0.0001826319, 0.0002593961
 241535847, 0.0483527, 0.003594214, -0.0004748924, 0.0002593961
 241635807, 0.04705673, 0.003443096, -0.000259988, 0.0002593961
 241735767, 0.04562562, 0.003669076, -0.000270125, 0.0002593961
 241835727, 0.0441867, 0.003483203, -0.0006141459, 0.0002593961
 241935687, 0.04216978, 0.003162157, -0.0001054449, 0.0002593961
 242036480, 0.04104152, 0.002872496, -6.854453E-05, 0.0002615578
 242136440, 0.03970091, 0.002937791, 6.632892E-05, 0.0002593961
 242236400, 0.03844457, 0.003048649, 0.0002810272, 0.0002593961
 242336360, 0.0373612, 0.003292749, 0.0002424962, 0.0002593961
 242436320, 0.03659576, 0.003338702, -6.147558E-06, 0.0002593961
 242536280, 0.0355997, 0.00340619, 0.0002853026, 0.0002593961
 242636240, 0.03504677, 0.003518546, -0.0003045521, 0.0002593961
 242736200, 0.03421658, 0.003311054, -0.000297052, 0.0002593961
 242836160, 0.03356744, 0.003337644, -0.0008590693, 0.0002593961
 242936120, 0.03227265, 0.003283304, -0.000216749, 0.0002593961
 243036080, 0.03161629, 0.003288784, 0.0002565597, 0.0002593961
 243136040, 0.0309499, 0.003344216, -0.0001203532, 0.0002593961
 243236000, 0.03075889, 0.003412023, -0.001144622, 0.0002593961
 243335960, 0.02976933, 0.003341729, -0.0007568514, 0.0002593961
 243435920, 0.02950727, 0.003573962, -0.001320107, 0.0002593961
 243535880, 0.02829061, 0.003495213, -0.001034263, 0.0002593961
 243635840, 0.02744134, 0.003309764, -0.0006439435, 0.0002593961
 243735800, 0.02662717, 0.003068189, -0.001154668, 0.0002593961
 243835760, 0.02617832, 0.002923532, -0.0008595186, 0.0002593961
 243935720, 0.02535433, 0.00261863, -0.0001216985, 0.0002593961
 244035680, 0.02455791, 0.002583619, 0.0001188994, 0.0002593961
 244136473, 0.02433604, 0.002457151, -0.0002272495, 0.0002615578
 244236433, 0.02390027, 0.002583387, -0.0003258998, 0.0002593961
 244336393, 0.02313267, 0.002774033, 0.0002880052, 0.0002593961
 244436353, 0.02270488, 0.002971143, 0.0003209058, 0.0002593961
 244536313, 0.02278685, 0.002840135, -0.0004235802, 0.0002593961
 244636273, 0.02215914, 0.002953202, 0.0002860999, 0.0002593961
 244736233, 0.02194574, 0.00279512, -0.0002427632, 0.0002593961
 244836193, 0.02175767, 0.002791463, -0.0002075652, 0.0002593961
 244936153, 0.02099604, 0.002872841, 0.0001917179, 0.0002593961
 245036113, 0.02129606, 0.002797469, -0.0006081401, 0.0002593961
 245136073, 0.0207463, 0.002727748, -0.0004071407, 0.0002593961
 245236033, 0.02072273, 0.002688376, -0.001129919, 0.0002593961
 245335993, 0.02005336, 0.002309055, -0.0007153341, 0.0002593961
 245435953, 0.01927562, 0.00221145, -0.0007146313, 0.0002593961
 245535913, 0.01873266, 0.002135583, -0.0006406795, 0.0002593961
 245635873, 0.01844694, 0.002133071, -0.000630521, 0.0002593961
 245735833, 0.01812831, 0.001891422, -0.0004851939, 0.0002593961
 245835793, 0.01748127, 0.001517679, -0.0002174604, 0.0002593961
 245935753, 0.01707353, 0.001280377, -0.0001432728, 0.0002593961
 246035713, 0.01704546, 0.0008314635, -0.0002043074, 0.0002593961
 246135673, 0.01677874, 0.0001078813, -0.0003052288, 0.0002593961
 246236466, 0.01662956, -0.0004600848, 0.0002085527, 0.0002615578
 246336426, 0.01616489, -0.0008414964, 0.000288681, 0.0002593961
 246436386, 0.01623308, -0.001008363, -0.0001886745, 0.0002593961
 246536346, 0.01594594, -0.0005841908, -0.0001917381, 0.0002593961
 246636306, 0.01556298, -0.000300928, 8.36717E-05, 0.0002593961
 246736266, 0.01447348, 0.0001160473, 0.000205412, 0.0002593961
 246836226, 0.01211924, 0.0002500365, -0.0006581666, 0.0002593961
 246936186, 0.008610141, 0.0006980986, -0.001240458, 0.0002593961
 247036146, 0.00513586, 0.001144922, -0.0003479471, 0.0002593961
 247136106, 0.003223881, 0.001666063, -0.000335453, 0.0002593961
 247236066, 0.00292714, 0.001832679, 0.0001980025, 0.0002593961
 247336026, 0.004337466, 0.001959384, 0.0001370037, 0.0002593961
 247435986, 0.006405881, 0.001926866, 0.0004420049, 0.0002593961
 247535946, 0.009008394, 0.001789504, 0.00134886, 0.0002593961
 247635906, 0.01099871, 0.001644226, 0.00155249, 0.0002593961
 247735866, 0.01242794, 0.001819421, 0.001174193, 0.0002593961
 247835826, 0.01302979, 0.002045332, 0.0003117244, 0.0002593961
 247935786, 0.01255725, 0.002105806, 0.0001915535, 0.0002593961
 248035746, 0.01236891, 0.002233416, -0.000755829, 0.0002593961
 248135706, 0.01139344, 0.002307643, -0.0008818471, 0.0002593961
 248235666, 0.01079653, 0.002496979, -0.0006863505, 0.0002593961
 248336459, 0.01073285, 0.00267954, -0.0005252723, 0.0002615578
 248436419, 0.01037156, 0.002796222, -0.0002885379, 0.0002593961
 248536379, 0.01018448, 0.002927608, 0.0002115691, 0.0002593961
 248636339, 0.01002213, 0.003060868, 0.0005120244, 0.0002593961
 248736299, 0.01052899, 0.003124136, -0.0002537498, 0.0002593961
 248836259, 0.01083006, 0.003099476, -1.653844E-05, 0.0002593961
 248936219, 0.01104595, 0.003279546, 0.001041698, 0.0002593961
 249036179, 0.01186891, 0.003276572, -0.0001387899, 0.0002593961
 249136139, 0.01157983, 0.003453328, -6.162442E-05, 0.0002593961
 249236099, 0.01156401, 0.003724757, 4.971064E-05, 0.0002593961
 249336059, 0.01093054, 0.003850631, -0.000499715, 0.0002593961
 249436019, 0.01039157, 0.003748243, -0.0007983196, 0.0002593961
 249535979, 0.0093088, 0.003897204, -0.0004901915, 0.0002593961
 249635939, 0.009637612, 0.003966084, -9.799854E-06, 0.0002593961
 249735899, 0.009475457, 0.003998112, 4.523613E-05, 0.0002593961
 249835859, 0.01011133, 0.004173532, -0.001330692, 0.0002593961
 249935819, 0.009735761, 0.004248562, -0.001143732, 0.0002593961
 250035779, 0.009234737, 0.004159078, -0.0007751844, 0.0002593961
 250135739, 0.008782213, 0.004394722, -0.0006848826, 0.0002593961
 250235699, 0.008448147, 0.004348835, -0.0001781406, 0.0002593961
 250335659, 0.008203458, 0.004401416, -0.0002961857, 0.0002593961
 250436452, 0.008787314, 0.004368209, -0.000538251, 0.0002615578
 250536412, 0.008426573, 0.004393235, -0.0003864066, 0.0002593961
 250636372, 0.008181044, 0.004193334, -0.0002330622, 0.0002593961
 250736332, 0.00825348, 0.004155341, -0.0002524069, 0.0002593961
 250836292, 0.007773322, 0.004251055, 0.0001095202, 0.0002593961
 250936252, 0.007666467, 0.004363647, 0.0002429956, 0.0002593961
 251036212, 0.007348572, 0.004338583, 0.0003379769, 0.0002593961
 251136172, 0.007528052, 0.004333105, 2.203418E-05, 0.0002593961
 251236132, 0.007502734, 0.004415315, -0.0005386379, 0.0002593961
 251336092, 0.007050919, 0.004537808, -0.0003579507, 0.0002593961
 251436052, 0.006838727, 0.004482951, -0.0002864061, 0.0002593961
 251536012, 0.006533654, 0.004647704, -2.768481E-05, 0.0002593961
 251635972, 0.006157318, 0.004630036, 0.0001039482, 0.0002593961
 251735932, 0.005715647, 0.004878843, 0.0001048562, 0.0002593961
 251835892, 0.006439882, 0.004784654, -0.0003013108, 0.0002593961
 251935852, 0.00649189, 0.004494563, -3.994656E-05, 0.0002593961
 252035812, 0.006767216, 0.004238724, -7.392427E-05, 0.0002593961
 252135772, 0.006512424, 0.004291287, 6.68449E-05, 0.0002593961
 252235732, 0.006309012, 0.004288196, 0.0005529742, 0.0002593961
 252335692, 0.005935987, 0.003937101, 0.0006057104, 0.0002593961
 252436485, 0.006024027, 0.004078348, 0.0005912575, 0.0002615578
 252536445, 0.005631206, 0.004174542, -1.027172E-06, 0.0002593961
 252636405, 0.005318574, 0.004716474, -0.0001844085, 0.0002593961
 252736365, 0.005245542, 0.005003477, -0.0003997693, 0.0002593961
 252836325, 0.005189118, 0.005080455, -0.0005069504, 0.0002593961
 252936285, 0.004899312, 0.005137466, -0.0002255217, 0.0002593961
 253036245, 0.004876561, 0.00541173, -2.833189E-05, 0.0002593961
 253136205, 0.004952096, 0.005133802, -0.0004166987, 0.0002593961
 253236165, 0.0046353, 0.004789401, -0.0004591546, 0.0002593961
 253336125, 0.004602666, 0.004447883, -0.0006435228, 0.0002593961
 253436085, 0.004458519, 0.004527223, -0.0007797089, 0.0002593961
 253536045, -0.005744292, 0.004423447, -0.0007608815, 0.0002593961
 253636005, -0.02501017, 0.004596691, -0.0001564055, 0.0002593961
 253735965, -0.03416861, 0.004876214, 0.0002840252, 0.0002593961
 253835925, -0.03411592, 0.005006887, 0.0005309066, 0.0002593961
 253935885, -0.031857, 0.005200575, 0.0006814959, 0.0002593961
 254035845, -0.02768388, 0.005398104, 0.001329478, 0.0002593961
 254135805, -0.02134098, 0.005302262, 0.002003275, 0.0002593961
 254235765, -0.01257748, 0.005497315, 0.001929486, 0.0002593961
 254335725, -0.001906266, 0.004912633, 0.002176679, 0.0002593961
 254435685, 0.01037679, 0.004389298, 0.002423546, 0.0002593961
 254536478, 0.02430395, 0.003750785, 0.002640119, 0.0002615578
 254636438, 0.03878156, 0.002955751, 0.00234944, 0.0002593961
 254736398, 0.04938316, 0.002425262, 0.0005671544, 0.0002593961
 254836358, 0.05142741, 0.002551186, -0.00237425, 0.0002593961
 254936318, 0.04548188, 0.003239312, -0.005664291, 0.0002593961
 255036278, 0.03280845, 0.004028528, -0.007386526, 0.0002593961
 255136238, 0.01857666, 0.003818281, -0.006953112, 0.0002593961
 255236198, 0.04144711, -0.01688316, 0.005657177, 0.0002593961
 255336158, 0.1102697, -0.05266525, 0.01924494, 0.0002593961
 255436118, 0.1827058, -0.08148124, 0.01801654, 0.0002593961
 255536078, 0.2360024, -0.09493811, 0.007233227, 0.0002593961
 255636038, 0.2620351, -0.09078854, -0.006448139, 0.0002593961
 255735998, 0.2621668, -0.07234827, -0.01821544, 0.0002593961
 255835958, 0.243729, -0.04655733, -0.02584729, 0.0002593961
 255935918, 0.2155412, -0.02067564, -0.02767532, 0.0002593961
 256035878, 0.1847747, -0.000635663, -0.02570525, 0.0002593961
 256135838, 0.1555065, 0.01039187, -0.0200027, 0.0002593961
 256235798, 0.1311232, 0.0124657, -0.01332543, 0.0002593961
 256335758, 0.110217, 0.007553736, -0.004820994, 0.0002593961
 256435718, 0.09452764, -0.002125474, 0.002981556, 0.0002593961
 256535678, 0.08282866, -0.01343455, 0.01168452, 0.0002593961
 256636471, 0.07657304, -0.0243349, 0.01854329, 0.0002615578
 256736431, 0.0724385, -0.03329858, 0.02414178, 0.0002593961
 256836391, 0.07275712, -0.0400365, 0.02760388, 0.0002593961
 256936351, 0.07481016, -0.04460343, 0.02994712, 0.0002593961
 257036311, 0.07988554, -0.04703486, 0.02913922, 0.0002593961
 257136271, 0.08532849, -0.0472948, 0.02771319, 0.0002593961
 257236231, 0.09264257, -0.04552427, 0.02359092, 0.0002593961
 257336191, 0.09892994, -0.04182917, 0.01937133, 0.0002593961
 257436151, 0.1056114, -0.03643379, 0.01338887, 0.0002593961
 257536111, 0.1107759, -0.02935221, 0.007666911, 0.0002593961
 257636071, 0.1154717, -0.02087239, 0.001122914, 0.0002593961
 257736031, 0.117834, -0.01157593, -0.00430079, 0.0002593961
 257835991, 0.1198545, -0.002158697, -0.01032562, 0.0002593961
 257935951, 0.1196444, 0.007088539, -0.01474244, 0.0002593961
 258035911, 0.1188071, 0.01553773, -0.01958268, 0.0002593961
 258135871, 0.1160119, 0.02208122, -0.02265635, 0.0002593961
 258235831, 0.1111231, 0.02674315, -0.02579533, 0.0002593961
 258335791, 0.09569707, 0.0295725, -0.02687162, 0.0002593961
 258435751, 0.07434107, 0.0306294, -0.03028657, 0.0002593961
 258535711, 0.04749273, 0.03047024, -0.03294567, 0.0002593961
 258635671, 0.02238601, 0.02911311, -0.03836298, 0.0002593961
 258736464, -0.003087963, 0.02748785, -0.04210791, 0.0002615578
 258836424, -0.02648646, 0.02565084, -0.04477889, 0.0002593961
 258936384, -0.04822286, 0.02437746, -0.04523303, 0.0002593961
 259036344, -0.06620435, 0.02338585, -0.04594554, 0.0002593961
 259136304, -0.08248009, 0.02361364, -0.04526145, 0.0002593961
 259236264, -0.09536537, 0.02470132, -0.04491052, 0.0002593961
 259336224, -0.1067678, 0.02711056, -0.04400242, 0.0002593961
 259436184, -0.115964, 0.03003759, -0.04325704, 0.0002593961
 259536144, -0.1240187, 0.03394158, -0.04200271, 0.0002593961
 259636104, -0.130891, 0.03773937, -0.04107158, 0.0002593961
 259736064, -0.1372442, 0.04200621, -0.03936418, 0.0002593961
 259836024, -0.1428804, 0.04612182, -0.03751542, 0.0002593961
 259935984, -0.1476571, 0.04991946, -0.03488846, 0.0002593961
 260035944, -0.1514456, 0.05333336, -0.03226735, 0.0002593961
 260135904, -0.1547648, 0.05639693, -0.02844363, 0.0002593961
 260235864, -0.157061, 0.05849972, -0.02449183, 0.0002593961
 260335824, -0.1584176, 0.05997718, -0.0201674, 0.0002593961
 260435784, -0.1589148, 0.06108703, -0.01561435, 0.0002593961
 260535744, -0.1584303, 0.06160891, -0.0102449, 0.0002593961
 260635704, -0.157042, 0.06168079, -0.005204847, 0.0002593961
 260735664, -0.1549875, 0.06106119, 0.0002735247, 0.0002593961
 260836457, -0.1526511, 0.06092779, 0.005750108, 0.0002615578
 260936417, -0.1472727, 0.05930452, 0.01100929, 0.0002593961
 261036377, -0.1422066, 0.05811338, 0.01565847, 0.0002593961
 261136337, -0.1366597, 0.05733178, 0.02050006, 0.0002593961
 261236297, -0.1303706, 0.05600561, 0.0246468, 0.0002593961
 261336257, -0.1237027, 0.05504391, 0.02834817, 0.0002593961
 261436217, -0.1165949, 0.05428753, 0.0313118, 0.0002593961
 261536177, -0.1093229, 0.05356357, 0.03421348, 0.0002593961
 261636137, -0.1017113, 0.05297343, 0.0358069, 0.0002593961
 261736097, -0.09478426, 0.05300291, 0.03785887, 0.0002593961
 261836057, -0.08736401, 0.05289142, 0.03831591, 0.0002593961
 261936017, -0.07983699, 0.05305836, 0.03820041, 0.0002593961
 262035977, -0.0727411, 0.05329238, 0.0379912, 0.0002593961
 262135937, -0.06601162, 0.05330949, 0.03737929, 0.0002593961
 262235897, -0.0591675, 0.05319936, 0.03585427, 0.0002593961
 262335857, -0.05328571, 0.0527759, 0.03417742, 0.0002593961
 262435817, -0.04792558, 0.05261577, 0.03185244, 0.0002593961
