TimeUS,CGpN,CGpE,CGpD,CGpe,PGpN,PGpE,PGpD,PGpe
 169968652, 0, 0, 0, 0.01, 0, 0, 0, 0
 170031127, 0, 0, 0, 0.01, 0, 0, 0, 0.01
 170231047, 0, 0, 0, 0.01, 0, 0, 0, 0.01
 170430967, 0, 0, 0, 0.01, 0, 0, 0, 0.01
 170630887, 0, 0, 0, 0.01, 0, 0, 0, 0.01
 170830807, 0, 0, 0, 0.01, 0, 0, 0, 0.01
 171030727, 0, 0, 0, 0.01, 0, 0, 0, 0.01
 171231480, 0, 0, 0, 0.01, 0, 0, 0, 0.01
 171431400, 0, 0, 0, 0.01, 0, 0, 0, 0.01
 171631320, 0, 0, 0, 0.01, 0, 0, 0, 0.01
 171831240, 0, 0, 0, 0.01, 0, 0, 0, 0.01
 172031160, 0, 0, 0, 0.01, 0, 0, 0, 0.01
 172231080, 0, 0, 0, 0.01, 0, 0, 0, 0.01
 172431000, 0, 0, 0, 0.01, 0, 0, 0, 0.01
 172630920, 0, 0, 0, 0.01, 0, 0, 0, 0.01
 172830840, 0, 0, 0, 0.01, 0, 0, 0, 0.01
 173030760, 0, 0, 0, 0.01, 0, 0, 0, 0.01
 173230680, 0, 0, 0, 0.01, 0, 0, 0, 0.01
 173431433, 0, 0, 0, 0.01, 0, 0, 0, 0.01
 173631353, 0, 0, 0, 0.01, 0, 0, 0, 0.01
 173831273, 0, 0, 0, 0.01, 0, 0, 0, 0.01
 174031193, 0, 0, 0, 0.01, 0, 0, 0, 0.01
 174231113, 0, 0, 0, 0.01, 0, 0, 0, 0.01
 174431033, 0, 0, 0, 0.01, 0, 0, 0, 0.01
 174630953, 0, 0, 0, 0.01, 0, 0, 0, 0.01
 174830873, 0, 0, 0, 0.01, 0, 0, 0, 0.01
 175030793, 0, 0, 0, 0.01, 0, 0, 0, 0.01
 175230713, 0, 0, 0, 0.01, 0, 0, 0, 0.01
 175431466, 0, 0, 0, 0.01, 0, 0, 0, 0.01
 175631386, 0, 0, 0, 0.01, 0, 0, 0, 0.01
 175831306, 0, 0, 0, 0.01, 0, 0, 0, 0.01
 176031226, 0, 0, 0, 0.01, 0, 0, 0, 0.01
 176231146, 0, 0, 0, 0.01, 0, 0, 0, 0.01
 176431066, 0, 0, 0, 0.01, 0, 0, 0, 0.01
 176630986, 0, 0, 0, 0.01, 0, 0, 0, 0.01
 176830906, 0, 0, 0, 0.01, 0, 0, 0, 0.01
 177030826, 0, 0, 0, 0.01, 0, 0, 0, 0.01
 177230746, 0, 0, 0, 0.01, 0, 0, 0, 0.01
 177430666, 0, 0, 0, 0.01, 0, 0, 0, 0.01
 177631419, 0, 0, 0, 0.01, 0, 0, 0, 0.01
 177831339, 0, 0, 0, 0.01, 0, 0, 0, 0.01
 178031259, 0, 0, 0, 0.01, 0, 0, 0, 0.01
 178231179, 0, 0, 0, 0.01, 0, 0, 0, 0.01
 178431099, 0, 0, 0, 0.01, 0, 0, 0, 0.01
 178631019, 0, 0, 0, 0.01, 0, 0, 0, 0.01
 178830939, 0, 0, 0, 0.01, 0, 0, 0, 0.01
 179030859, 0, 0, 0, 0.01, 0, 0, 0, 0.01
 179230779, 0, 0, 0, 0.01, 0, 0, 0, 0.01
 179430699, 0, 0, 0, 0.01, 0, 0, 0, 0.01
 179631452, 0, 0, 0, 0.01, 0, 0, 0, 0.01
 179831372, 0, 0, 0, 0.01, 0, 0, 0, 0.01
 180031292, 0, 0, 0, 0.01, 0, 0, 0, 0.01
 180231212, 0, 0, 0, 0.01, 0, 0, 0, 0.01
 180431132, 0, 0, 0, 0.01, 0, 0, 0, 0.01
 180631052, 0, 0, 0, 0.01, 0, 0, 0, 0.01
 180830972, 0, 0, 0, 0.01, 0, 0, 0, 0.01
 181030892, 0, 0, 0, 0.01, 0, 0, 0, 0.01
 181230812, 0, 0, 0, 0.01, 0, 0, 0, 0.01
 181430732, 0, 0, 0, 0.01, 0, 0, 0, 0.01
 181631485, 0, 0, 0, 0.01, 0, 0, 0, 0.01
 181831405, 0, 0, 0, 0.01, 0, 0, 0, 0.01
 182031325, 0, 0, 0, 0.01, 0, 0, 0, 0.01
 182231245, 0, 0, 0, 0.01, 0, 0, 0, 0.01
 182431165, 0, 0, 0, 0.01, 0, 0, 0, 0.01
 182631085, 0, 0, 0, 0.01, 0, 0, 0, 0.01
 182831005, 0, 0, 0, 0.01, 0, 0, 0, 0.01
 183030925, 0, 0, 0, 0.01, 0, 0, 0, 0.01
 183230845, 0, 0, 0, 0.01, 0, 0, 0, 0.01
 183430765, 0, 0, 0, 0.01, 0, 0, 0, 0.01
 183630685, 0, 0, 0, 0.01, 0, 0, 0, 0.01
 183831438, 0, 0, 0, 0.01, 0, 0, 0, 0.01
 184031358, 0, 0, 0, 0.01, 0, 0, 0, 0.01
 184231278, 0, 0, 0, 0.01, 0, 0, 0, 0.01
 184431198, 0, 0, 0, 0.01, 0, 0, 0, 0.01
 184631118, 0, 0, 0, 0.01, 0, 0, 0, 0.01
 184831038, 0, 0, 0, 0.01, 0, 0, 0, 0.01
 185030958, 0, 0, 0, 0.01, 0, 0, 0, 0.01
 185230878, 0, 0, 0, 0.01, 0, 0, 0, 0.01
 185430798, 0, 0, 0, 0.01, 0, 0, 0, 0.01
 185630718, 0, 0, 0, 0.01, 0, 0, 0, 0.01
 185831471, 0, 0, 0, 0.01, 0, 0, 0, 0.01
 186031391, 0, 0, 0, 0.01, 0, 0, 0, 0.01
 186231311, 0, 0, 0, 0.01, 0, 0, 0, 0.01
 186431231, 0, 0, 0, 0.01, 0, 0, 0, 0.01
 186631151, 0, 0, 0, 0.01, 0, 0, 0, 0.01
 186831071, 0, 0, 0, 0.01, 0, 0, 0, 0.01
 187030991, 0, 0, 0, 0.01, 0, 0, 0, 0.01
 187230911, 0, 0, 0, 0.01, 0, 0, 0, 0.01
 187430831, 0, 0, 0, 0.01, 0, 0, 0, 0.01
 187630751, 0, 0, 0, 0.01, 0, 0, 0, 0.01
 187830671, 0, 0, 0, 0.01, 0, 0, 0, 0.01
 188031424, 0, 0, 0, 0.01, 0, 0, 0, 0.01
 188231344, 0, 0, 0, 0.01, 0, 0, 0, 0.01
 188431264, 0, 0, 0, 0.01, 0, 0, 0, 0.01
 188631184, 0, 0, 0, 0.01, 0, 0, 0, 0.01
 188831104, 0, 0, 0, 0.01, 0, 0, 0, 0.01
 189031024, 0, 0, 0, 0.01, 0, 0, 0, 0.01
 189230944, 0, 0, 0, 0.01, 0, 0, 0, 0.01
 189430864, 0, 0, 0, 0.01, 0, 0, 0, 0.01
 189630784, 0, 0, 0, 0.01, 0, 0, 0, 0.01
 189830704, 0, 0, 0, 0.01, 0, 0, 0, 0.01
 190031457, 0, 0, 0, 0.01, 0, 0, 0, 0.01
 190231377, 0, 0, 0, 0.01, 0, 0, 0, 0.01
 190431297, 0, 0, 0, 0.01, 0, 0, 0, 0.01
 190631217, 0, 0, 0, 0.01, 0, 0, 0, 0.01
 190831137, 0, 0, 0, 0.01, 0, 0, 0, 0.01
 191031057, 0, 0, 0, 0.01, 0, 0, 0, 0.01
 191230977, 0, 0, 0, 0.01, 0, 0, 0, 0.01
 191430897, 0, 0, 0, 0.01, 0, 0, 0, 0.01
 191630817, 0, 0, 0, 0.01, 0, 0, 0, 0.01
 191830737, 0, 0, 0, 0.01, 0, 0, 0, 0.01
 192030657, 0, 0, 0, 0.01, 0, 0, 0, 0.01
 192231410, 0, 0, 0, 0.01, 0, 0, 0, 0.01
 192431330, 0, 0, 0, 0.01, 0, 0, 0, 0.01
 192631250, 0, 0, 0, 0.01, 0, 0, 0, 0.01
 192831170, 0, 0, 0, 0.01, 0, 0, 0, 0.01
 193031090, 0, 0, 0, 0.01, 0, 0, 0, 0.01
 193231010, 0, 0, 0, 0.01, 0, 0, 0, 0.01
 193430930, 0, 0, 0, 0.01, 0, 0, 0, 0.01
 193630850, 0, 0, 0, 0.01, 0, 0, 0, 0.01
 193830770, 0, 0, 0, 0.01, 0, 0, 0, 0.01
 194030690, 0, 0, 0, 0.01, 0, 0, 0, 0.01
 194231443, 0, 0, 0, 0.01, 0, 0, 0, 0.01
 194431363, 0, 0, 0, 0.01, 0, 0, 0, 0.01
 194631283, 0, 0, 0, 0.01, 0, 0, 0, 0.01
 194831203, 0, 0, 0, 0.01, 0, 0, 0, 0.01
 195031123, 0, 0, 0, 0.01, 0, 0, 0, 0.01
 195231043, 0, 0, 0, 0.01, 0, 0, 0, 0.01
 195430963, 0, 0, 0, 0.01, 0, 0, 0, 0.01
 195630883, 0, 0, 0, 0.01, 0, 0, 0, 0.01
 195830803, 0, 0, 0, 0.01, 0, 0, 0, 0.01
 196030723, 0, 0, 0, 0.01, 0, 0, 0, 0.01
 196231476, 0, 0, 0, 0.01, 0, 0, 0, 0.01
 196431396, 0, 0, 0, 0.01, 0, 0, 0, 0.01
 196631316, 0, 0, 0, 0.01, 0, 0, 0, 0.01
 196831236, 0, 0, 0, 0.01, 0, 0, 0, 0.01
 197031156, 0, 0, 0, 0.01, 0, 0, 0, 0.01
 197231076, 0, 0, 0, 0.01, 0, 0, 0, 0.01
 197430996, 0, 0, 0, 0.01, 0, 0, 0, 0.01
 197630916, 0, 0, 0, 0.01, 0, 0, 0, 0.01
 197830836, 0, 0, 0, 0.01, 0, 0, 0, 0.01
 198030756, 0, 0, 0, 0.01, 0, 0, 0, 0.01
 198230676, 0, 0, 0, 0.01, 0, 0, 0, 0.01
 198431429, 0, 0, 0, 0.01, 0, 0, 0, 0.01
 198631349, 0, 0, 0, 0.01, 0, 0, 0, 0.01
 198831269, 0, 0, 0, 0.01, 0, 0, 0, 0.01
 199031189, 0, 0, 0, 0.01, 0, 0, 0, 0.01
 199231109, 0, 0, 0, 0.01, 0, 0, 0, 0.01
 199431029, 0, 0, 0, 0.01, 0, 0, 0, 0.01
 199630949, 0, 0, 0, 0.01, 0, 0, 0, 0.01
 199830869, 0, 0, 0, 0.01, 0, 0, 0, 0.01
 200030789, 0, 0, 0, 0.01, 0, 0, 0, 0.01
 200230709, 0, 0, 0, 0.01, 0, 0, 0, 0.01
 200431462, 0, 0, 0, 0.01, 0, 0, 0, 0.01
 200631382, 0, 0, 0, 0.01, 0, 0, 0, 0.01
 200831302, 0, 0, 0, 0.01, 0, 0, 0, 0.01
 201031222, 0, 0, 0, 0.01, 0, 0, 0, 0.01
 201231142, 0, 0, 0, 0.01, 0, 0, 0, 0.01
 201431062, 0, 0, 0, 0.01, 0, 0, 0, 0.01
 201630982, 0, 0, 0, 0.01, 0, 0, 0, 0.01
 201830902, 0, 0, 0, 0.01, 0, 0, 0, 0.01
 202030822, 0, 0, 0, 0.01, 0, 0, 0, 0.01
 202230742, 0, 0, 0, 0.01, 0, 0, 0, 0.01
 202430662, 0, 0, 0, 0.01, 0, 0, 0, 0.01
 202631415, 0, 0, 0, 0.01, 0, 0, 0, 0.01
 202831335, 0, 0, 0, 0.01, 0, 0, 0, 0.01
 203031255, 0, 0, 0, 0.01, 0, 0, 0, 0.01
 203231175, 0, 0, 0, 0.01, 0, 0, 0, 0.01
 203431095, 0, 0, 0, 0.01, 0, 0, 0, 0.01
 203631015, 0, 0, 0, 0.01, 0, 0, 0, 0.01
 203830935, 0, 0, 0, 0.01, 0, 0, 0, 0.01
 204030855, 0, 0, 0, 0.01, 0, 0, 0, 0.01
 204230775, 0, 0, 0, 0.01, 0, 0, 0, 0.01
 204430695, 0, 0, 0, 0.01, 0, 0, 0, 0.01
 204631448, 0, 0, 0, 0.01, 0, 0, 0, 0.01
 204831368, 0, 0, 0, 0.01, 0, 0, 0, 0.01
 205031288, 0, 0, 0, 0.01, 0, 0, 0, 0.01
 205231208, 0, 0, 0, 0.01, 0, 0, 0, 0.01
 205431128, 0, 0, 0, 0.01, 0, 0, 0, 0.01
 205631048, 0, 0, 0, 0.01, 0, 0, 0, 0.01
 205830968, 0, 0, 0, 0.01, 0, 0, 0, 0.01
 206030888, 0, 0, 0, 0.01, 0, 0, 0, 0.01
 206230808, 0, 0, 0, 0.01, 0, 0, 0, 0.01
 206430728, 0, 0, 0, 0.01, 0, 0, 0, 0.01
 206631481, 0, 0, 0, 0.01, 0, 0, 0, 0.01
 206831401, 0, 0, 0, 0.01, 0, 0, 0, 0.01
 207031321, 0, 0, 0, 0.01, 0, 0, 0, 0.01
 207231241, 0, 0, 0, 0.01, 0, 0, 0, 0.01
 207431161, 0, 0, 0, 0.01, 0, 0, 0, 0.01
 207631081, 0, 0, 0, 0.01, 0, 0, 0, 0.01
 207831001, 0, 0, 0, 0.01, 0, 0, 0, 0.01
 208030921, 0, 0, 0, 0.01, 0, 0, 0, 0.01
 208230841, 0, 0, 0, 0.01, 0, 0, 0, 0.01
 208430761, 0, 0, 0, 0.01, 0, 0, 0, 0.01
 208630681, 0, 0, 0, 0.01, 0, 0, 0, 0.01
 208831434, 0, 0, 0, 0.01, 0, 0, 0, 0.01
 209031354, 0, 0, 0, 0.01, 0, 0, 0, 0.01
 209231274, 0, 0, 0, 0.01, 0, 0, 0, 0.01
 209431194, 0, 0, 0, 0.01, 0, 0, 0, 0.01
 209631114, 0, 0, 0, 0.01, 0, 0, 0, 0.01
 209831034, 0, 0, 0, 0.01, 0, 0, 0, 0.01
 210030954, 0, 0, 0, 0.01, 0, 0, 0, 0.01
 210230874, 0, 0, 0, 0.01, 0, 0, 0, 0.01
 210430794, 0, 0, 0, 0.01, 0, 0, 0, 0.01
 210630714, 0, 0, 0, 0.01, 0, 0, 0, 0.01
 210831467, 0, 0, 0, 0.01, 0, 0, 0, 0.01
 211031387, 0, 0, 0, 0.01, 0, 0, 0, 0.01
 211231307, 0, 0, 0, 0.01, 0, 0, 0, 0.01
 211431227, 0, 0, 0, 0.01, 0, 0, 0, 0.01
 211631147, 0, 0, 0, 0.01, 0, 0, 0, 0.01
 211831067, 0, 0, 0, 0.01, 0, 0, 0, 0.01
 212030987, 0, 0, 0, 0.01, 0, 0, 0, 0.01
 212230907, 0, 0, 0, 0.01, 0, 0, 0, 0.01
 212430827, 0, 0, 0, 0.01, 0, 0, 0, 0.01
 212630747, 0, 0, 0, 0.01, 0, 0, 0, 0.01
 212830667, 0, 0, 0, 0.01, 0, 0, 0, 0.01
 213031420, 0, 0, 0, 0.01, 0, 0, 0, 0.01
 213231340, 0, 0, 0, 0.01, 0, 0, 0, 0.01
 213431260, 0, 0, 0, 0.01, 0, 0, 0, 0.01
 213631180, 0, 0, 0, 0.01, 0, 0, 0, 0.01
 213831100, 0, 0, 0, 0.01, 0, 0, 0, 0.01
 214031020, 0, 0, 0, 0.01, 0, 0, 0, 0.01
 214230940, 0, 0, 0, 0.01, 0, 0, 0, 0.01
 214430860, 0, 0, 0, 0.01, 0, 0, 0, 0.01
 214630780, 0, 0, 0, 0.01, 0, 0, 0, 0.01
 214830700, 0, 0, 0, 0.01, 0, 0, 0, 0.01
 215031453, 0, 0, 0, 0.01, 0, 0, 0, 0.01
 215231373, 0, 0, 0, 0.01, 0, 0, 0, 0.01
 215431293, 0, 0, 0, 0.01, 0, 0, 0, 0.01
 215631213, 0, 0, 0, 0.01, 0, 0, 0, 0.01
 215831133, 0, 0, 0, 0.01, 0, 0, 0, 0.01
 216031053, 0, 0, 0, 0.01, 0, 0, 0, 0.01
 216230973, 0, 0, 0, 0.01, 0, 0, 0, 0.01
 216430893, 0, 0, 0, 0.01, 0, 0, 0, 0.01
 216630813, 0, 0, 0, 0.01, 0, 0, 0, 0.01
 216830733, 0, 0, 0, 0.01, 0, 0, 0, 0.01
 217031486, 0, 0, 0, 0.01, 0, 0, 0, 0.01
 217231406, 0, 0, 0, 0.01, 0, 0, 0, 0.01
 217431326, 0, 0, 0, 0.01, 0, 0, 0, 0.01
 217631246, 0, 0, 0, 0.01, 0, 0, 0, 0.01
 217831166, 0, 0, 0, 0.01, 0, 0, 0, 0.01
 218031086, 0, 0, 0, 0.01, 0, 0, 0, 0.01
 218231006, 0, 0, 0, 0.01, 0, 0, 0, 0.01
 218430926, 0, 0, 0, 0.01, 0, 0, 0, 0.01
 218630846, 0, 0, 0, 0.01, 0, 0, 0, 0.01
 218830766, 0, 0, 0, 0.01, 0, 0, 0, 0.01
 219030686, 0, 0, 0, 0.01, 0, 0, 0, 0.01
 219231439, 0, 0, 0, 0.01, 0, 0, 0, 0.01
 219431359, 0, 0, 0, 0.01, 0, 0, 0, 0.01
 219631279, 0, 0, 0, 0.01, 0, 0, 0, 0.01
 219831199, 0, 0, 0, 0.01, 0, 0, 0, 0.01
 220031119, 0, 0, 0, 0.01, 0, 0, 0, 0.01
 220231039, 0, 0, 0, 0.01, 0, 0, 0, 0.01
 220430959, 0, 0, 0, 0.01, 0, 0, 0, 0.01
 220630879, 0, 0, 0, 0.01, 0, 0, 0, 0.01
 220830799, 0, 0, 0, 0.01, 0, 0, 0, 0.01
 221030719, 0, 0, 0, 0.01, 0, 0, 0, 0.01
 221231472, 0, 0, 0, 0.01, 0, 0, 0, 0.01
 221431392, 0, 0, 0, 0.01, 0, 0, 0, 0.01
 221631312, 0, 0, 0, 0.01, 0, 0, 0, 0.01
 221831232, 0, 0, 0, 0.01, 0, 0, 0, 0.01
 222031152, 0, 0, -0.238, 0.01, 0, 0, 0, 0.01
 222231072, 0, 0, -0.289, 0.01, 0, 0, -0.238, 0.01
 222430992, 0, 0, -0.188, 0.01, 0, 0, -0.289, 0.01
 222630912, -0.002, -0.002, -1.227, 0.01, 0, 0, -0.188, 0.01
 222830832, -0.014, -0.015, -2.038, 0.01, -0.002, -0.002, -1.227, 0.01
 223030752, -0.029, -0.031, -2.174, 0.01, -0.014, -0.015, -2.038, 0.01
 223230672, -0.044, -0.047, -2.374, 0.01, -0.029, -0.031, -2.174, 0.01
 223431425, -0.057, -0.06, -2.618, 0.01, -0.044, -0.047, -2.374, 0.01
 223631345, -0.068, -0.071, -2.813, 0.01, -0.057, -0.06, -2.618, 0.01
 223831265, -0.07700001, -0.079, -2.977, 0.01, -0.068, -0.071, -2.813, 0.01
 224031185, -0.085, -0.086, -3.124, 0.01, -0.07700001, -0.079, -2.977, 0.01
 224231105, -0.09200001, -0.09100001, -3.254, 0.01, -0.085, -0.086, -3.124, 0.01
 224431025, -0.096, -0.09500001, -3.368, 0.01, -0.09200001, -0.09100001, -3.254, 0.01
 224630945, -0.1, -0.097, -3.467, 0.01, -0.096, -0.09500001, -3.368, 0.01
 224830865, -0.102, -0.09900001, -3.555, 0.01, -0.1, -0.097, -3.467, 0.01
 225030785, -0.104, -0.101, -3.631, 0.01, -0.102, -0.09900001, -3.555, 0.01
 225230705, -0.105, -0.102, -3.698, 0.01, -0.104, -0.101, -3.631, 0.01
 225431458, -0.108, -0.104, -3.756, 0.01, -0.105, -0.102, -3.698, 0.01
 225631378, -0.11, -0.105, -3.808, 0.01, -0.108, -0.104, -3.756, 0.01
 225831298, -0.112, -0.107, -3.854, 0.01, -0.11, -0.105, -3.808, 0.01
 226031218, -0.113, -0.109, -3.646, 0.01, -0.112, -0.107, -3.854, 0.01
 226231138, -0.111, -0.108, -3.1, 0.01, -0.113, -0.109, -3.646, 0.01
 226431058, -0.11, -0.109, -2.632, 0.01, -0.111, -0.108, -3.1, 0.01
 226630978, -0.103, -0.107, -2.1, 0.01, -0.11, -0.109, -2.632, 0.01
 226830898, -0.071, -0.093, -1.675, 0.01, -0.103, -0.107, -2.1, 0.01
 227030818, -0.024, -0.071, -1.362, 0.01, -0.071, -0.093, -1.675, 0.01
 227230738, 0.019, -0.049, -1.108, 0.01, -0.024, -0.071, -1.362, 0.01
 227430658, 0.109, -0.025, -0.8790001, 0.01, 0.019, -0.049, -1.108, 0.01
 227631411, 0.26, 0.003, -0.675, 0.01, 0.109, -0.025, -0.8790001, 0.01
 227831331, 0.437, 0.032, -0.505, 0.01, 0.26, 0.003, -0.675, 0.01
 228031251, 0.6160001, 0.059, -0.369, 0.01, 0.437, 0.032, -0.505, 0.01
 228231171, 0.7920001, 0.085, -0.261, 0.01, 0.6160001, 0.059, -0.369, 0.01
 228431091, 0.9630001, 0.106, -0.176, 0.01, 0.7920001, 0.085, -0.261, 0.01
 228631011, 1.125, 0.125, -0.111, 0.01, 0.9630001, 0.106, -0.176, 0.01
 228830931, 1.284, 0.145, -0.057, 0.01, 1.125, 0.125, -0.111, 0.01
 229030851, 1.444, 0.2, -0.003, 0.01, 1.284, 0.145, -0.057, 0.01
 229230771, 1.605, 0.301, 0.033, 0.01, 1.444, 0.2, -0.003, 0.01
 229430691, 1.769, 0.395, 0.056, 0.01, 1.605, 0.301, 0.033, 0.01
 229631444, 1.946, 0.441, 0.07600001, 0.01, 1.769, 0.395, 0.056, 0.01
 229831364, 2.144, 0.44, 0.097, 0.01, 1.946, 0.441, 0.07600001, 0.01
 230031284, 2.353, 0.406, 0.122, 0.01, 2.144, 0.44, 0.097, 0.01
 230231204, 2.562, 0.356, 0.144, 0.01, 2.353, 0.406, 0.122, 0.01
 230431124, 2.763, 0.303, 0.169, 0.01, 2.562, 0.356, 0.144, 0.01
 230631044, 2.968, 0.222, 0.194, 0.01, 2.763, 0.303, 0.169, 0.01
 230830964, 3.176, 0.125, 0.21, 0.01, 2.968, 0.222, 0.194, 0.01
 231030884, 3.375, 0.06900001, 0.223, 0.01, 3.176, 0.125, 0.21, 0.01
 231230804, 3.567, 0.09500001, 0.239, 0.01, 3.375, 0.06900001, 0.223, 0.01
 231430724, 3.767, 0.192, 0.259, 0.01, 3.567, 0.09500001, 0.239, 0.01
 231631477, 3.97, 0.322, 0.279, 0.01, 3.767, 0.192, 0.259, 0.01
 231831397, 4.17, 0.443, 0.294, 0.01, 3.97, 0.322, 0.279, 0.01
 232031317, 4.366, 0.527, 0.306, 0.01, 4.17, 0.443, 0.294, 0.01
 232231237, 4.565, 0.567, 0.321, 0.01, 4.366, 0.527, 0.306, 0.01
 232431157, 4.772, 0.574, 0.338, 0.01, 4.565, 0.567, 0.321, 0.01
 232631077, 4.984, 0.567, 0.354, 0.01, 4.772, 0.574, 0.338, 0.01
 232830997, 5.191, 0.564, 0.366, 0.01, 4.984, 0.567, 0.354, 0.01
 233030917, 5.387, 0.578, 0.373, 0.01, 5.191, 0.564, 0.366, 0.01
 233230837, 5.571, 0.61, 0.379, 0.01, 5.387, 0.578, 0.373, 0.01
 233430757, 5.743001, 0.654, 0.384, 0.01, 5.571, 0.61, 0.379, 0.01
 233630677, 5.906, 0.698, 0.388, 0.01, 5.743001, 0.654, 0.384, 0.01
 233831430, 6.062, 0.735, 0.39, 0.01, 5.906, 0.698, 0.388, 0.01
 234031350, 6.210001, 0.762, 0.391, 0.01, 6.062, 0.735, 0.39, 0.01
 234231270, 6.349, 0.7780001, 0.392, 0.01, 6.210001, 0.762, 0.391, 0.01
 234431190, 6.481, 0.7870001, 0.395, 0.01, 6.349, 0.7780001, 0.392, 0.01
 234631110, 6.607, 0.793, 0.396, 0.01, 6.481, 0.7870001, 0.395, 0.01
 234831030, 6.725, 0.8010001, 0.397, 0.01, 6.607, 0.793, 0.396, 0.01
 235030950, 6.835001, 0.813, 0.4, 0.01, 6.725, 0.8010001, 0.397, 0.01
 235230870, 6.941, 0.83, 0.401, 0.01, 6.835001, 0.813, 0.4, 0.01
 235430790, 7.042, 0.849, 0.4, 0.01, 6.941, 0.83, 0.401, 0.01
 235630710, 7.138, 0.8650001, 0.4, 0.01, 7.042, 0.849, 0.4, 0.01
 235831463, 7.227, 0.8750001, 0.401, 0.01, 7.138, 0.8650001, 0.4, 0.01
 236031383, 7.312, 0.882, 0.401, 0.01, 7.227, 0.8750001, 0.401, 0.01
 236231303, 7.395, 0.8880001, 0.398, 0.01, 7.312, 0.882, 0.401, 0.01
 236431223, 7.476, 0.8930001, 0.393, 0.01, 7.395, 0.8880001, 0.398, 0.01
 236631143, 7.551001, 0.899, 0.388, 0.01, 7.476, 0.8930001, 0.393, 0.01
 236831063, 7.62, 0.905, 0.384, 0.01, 7.551001, 0.899, 0.388, 0.01
 237030983, 7.686, 0.9120001, 0.382, 0.01, 7.62, 0.905, 0.384, 0.01
 237230903, 7.752, 0.9170001, 0.38, 0.01, 7.686, 0.9120001, 0.382, 0.01
 237430823, 7.816, 0.919, 0.378, 0.01, 7.752, 0.9170001, 0.38, 0.01
 237630743, 7.882, 0.9220001, 0.364, 0.01, 7.816, 0.919, 0.378, 0.01
 237830663, 7.925, 0.924, 0.339, 0.01, 7.882, 0.9220001, 0.364, 0.01
 238031416, 7.928, 0.924, 0.318, 0.01, 7.925, 0.924, 0.339, 0.01
 238231336, 7.916, 0.923, 0.306, 0.01, 7.928, 0.924, 0.318, 0.01
 238431256, 7.913001, 0.923, 0.304, 0.01, 7.916, 0.923, 0.306, 0.01
 238631176, 7.921, 0.924, 0.301, 0.01, 7.913001, 0.923, 0.304, 0.01
 238831096, 7.925, 0.924, 0.299, 0.01, 7.921, 0.924, 0.301, 0.01
 239031016, 7.921, 0.923, 0.302, 0.01, 7.925, 0.924, 0.299, 0.01
 239230936, 7.916, 0.923, 0.313, 0.01, 7.921, 0.923, 0.302, 0.01
 239430856, 7.924, 0.9250001, 0.323, 0.01, 7.916, 0.923, 0.313, 0.01
 239630776, 7.934, 0.929, 0.33, 0.01, 7.924, 0.9250001, 0.323, 0.01
 239830696, 7.941, 0.933, 0.332, 0.01, 7.934, 0.929, 0.33, 0.01
 240031449, 7.946001, 0.936, 0.324, 0.01, 7.941, 0.933, 0.332, 0.01
 240231369, 7.944, 0.936, 0.312, 0.01, 7.946001, 0.936, 0.324, 0.01
 240431289, 7.936, 0.933, 0.298, 0.01, 7.944, 0.936, 0.312, 0.01
 240631209, 7.924, 0.9300001, 0.289, 0.01, 7.936, 0.933, 0.298, 0.01
 240831129, 7.911, 0.927, 0.293, 0.01, 7.924, 0.9300001, 0.289, 0.01
 241031049, 7.909, 0.9260001, 0.301, 0.01, 7.911, 0.927, 0.293, 0.01
 241230969, 7.916, 0.9260001, 0.309, 0.01, 7.909, 0.9260001, 0.301, 0.01
 241430889, 7.924, 0.927, 0.313, 0.01, 7.916, 0.9260001, 0.309, 0.01
 241630809, 7.927001, 0.927, 0.314, 0.01, 7.924, 0.927, 0.313, 0.01
 241830729, 7.924, 0.9250001, 0.317, 0.01, 7.927001, 0.927, 0.314, 0.01
 242031482, 7.922, 0.924, 0.324, 0.01, 7.924, 0.9250001, 0.317, 0.01
 242231402, 7.933001, 0.923, 0.332, 0.01, 7.922, 0.924, 0.324, 0.01
 242431322, 7.941, 0.923, 0.34, 0.01, 7.933001, 0.923, 0.332, 0.01
 242631242, 7.951, 0.9250001, 0.345, 0.01, 7.941, 0.923, 0.34, 0.01
 242831162, 7.958, 0.928, 0.344, 0.01, 7.951, 0.9250001, 0.345, 0.01
 243031082, 7.959001, 0.932, 0.339, 0.01, 7.958, 0.928, 0.344, 0.01
 243231002, 7.957, 0.9350001, 0.337, 0.01, 7.959001, 0.932, 0.339, 0.01
 243430922, 7.966001, 0.934, 0.316, 0.01, 7.957, 0.9350001, 0.337, 0.01
 243630842, 7.991, 0.9220001, 0.263, 0.01, 7.966001, 0.934, 0.316, 0.01
 243830762, 8.014, 0.887, 0.204, 0.01, 7.991, 0.9220001, 0.263, 0.01
 244030682, 8.030001, 0.841, 0.153, 0.01, 8.014, 0.887, 0.204, 0.01
 244231435, 8.047, 0.798, 0.113, 0.01, 8.030001, 0.841, 0.153, 0.01
 244431355, 8.069, 0.763, 0.083, 0.01, 8.047, 0.798, 0.113, 0.01
 244631275, 8.099, 0.731, 0.063, 0.01, 8.069, 0.763, 0.083, 0.01
 244831195, 8.134001, 0.6950001, 0.047, 0.01, 8.099, 0.731, 0.063, 0.01
 245031115, 8.171, 0.654, 0.034, 0.01, 8.134001, 0.6950001, 0.047, 0.01
 245231035, 8.206, 0.612, 0.024, 0.01, 8.171, 0.654, 0.034, 0.01
 245430955, 8.243, 0.573, 0.013, 0.01, 8.206, 0.612, 0.024, 0.01
 245630875, 8.283, 0.537, 0.004, 0.01, 8.243, 0.573, 0.013, 0.01
 245830795, 8.322001, 0.502, 0, 0.01, 8.283, 0.537, 0.004, 0.01
 246030715, 8.361, 0.468, -0.004, 0.01, 8.322001, 0.502, 0, 0.01
 246231468, 8.399, 0.438, -0.006, 0.01, 8.361, 0.468, -0.004, 0.01
 246431388, 8.436001, 0.409, -0.004, 0.01, 8.399, 0.438, -0.006, 0.01
 246631308, 8.473001, 0.381, -0.002, 0.01, 8.436001, 0.409, -0.004, 0.01
 246831228, 8.512, 0.356, -0.002, 0.01, 8.473001, 0.381, -0.002, 0.01
 247031148, 8.551001, 0.333, -0.001, 0.01, 8.512, 0.356, -0.002, 0.01
 247231068, 8.587001, 0.313, 0, 0.01, 8.551001, 0.333, -0.001, 0.01
 247430988, 8.622001, 0.295, 0.002, 0.01, 8.587001, 0.313, 0, 0.01
 247630908, 8.657001, 0.277, 0.005, 0.01, 8.622001, 0.295, 0.002, 0.01
 247830828, 8.693001, 0.261, 0.008, 0.01, 8.657001, 0.277, 0.005, 0.01
 248030748, 8.727, 0.246, 0.011, 0.01, 8.693001, 0.261, 0.008, 0.01
 248230668, 8.762, 0.233, 0.011, 0.01, 8.727, 0.246, 0.011, 0.01
 248431421, 8.795, 0.222, 0.009000001, 0.01, 8.762, 0.233, 0.011, 0.01
 248631341, 8.827001, 0.213, 0.006, 0.01, 8.795, 0.222, 0.009000001, 0.01
 248831261, 8.856, 0.204, 0.005, 0.01, 8.827001, 0.213, 0.006, 0.01
 249031181, 8.883, 0.195, 0.005, 0.01, 8.856, 0.204, 0.005, 0.01
 249231101, 8.910001, 0.187, 0.006, 0.01, 8.883, 0.195, 0.005, 0.01
 249431021, 8.937, 0.18, 0.006, 0.01, 8.910001, 0.187, 0.006, 0.01
 249630941, 8.963, 0.173, 0.006, 0.01, 8.937, 0.18, 0.006, 0.01
 249830861, 8.989, 0.166, 0.005, 0.01, 8.963, 0.173, 0.006, 0.01
 250030781, 9.016001, 0.159, 0.002, 0.01, 8.989, 0.166, 0.005, 0.01
 250230701, 9.043, 0.153, -0.001, 0.01, 9.016001, 0.159, 0.002, 0.01
 250431454, 9.067, 0.147, -0.004, 0.01, 9.043, 0.153, -0.001, 0.01
 250631374, 9.088, 0.142, -0.007, 0.01, 9.067, 0.147, -0.004, 0.01
 250831294, 9.105, 0.138, -0.005, 0.01, 9.088, 0.142, -0.007, 0.01
 251031214, 9.123, 0.133, -0.002, 0.01, 9.105, 0.138, -0.005, 0.01
 251231134, 9.143001, 0.129, 0, 0.01, 9.123, 0.133, -0.002, 0.01
 251431054, 9.165, 0.123, 0, 0.01, 9.143001, 0.129, 0, 0.01
 251630974, 9.187, 0.115, 0, 0.01, 9.165, 0.123, 0, 0.01
 251830894, 9.206, 0.105, -0.002, 0.01, 9.187, 0.115, 0, 0.01
 252030814, 9.223001, 0.094, -0.002, 0.01, 9.206, 0.105, -0.002, 0.01
 252230734, 9.239, 0.08400001, -0.001, 0.01, 9.223001, 0.094, -0.002, 0.01
 252430654, 9.255, 0.07700001, 0, 0.01, 9.239, 0.08400001, -0.001, 0.01
 252631407, 9.27, 0.07, 0.005, 0.01, 9.255, 0.07700001, 0, 0.01
 252831327, 9.287001, 0.063, 0.007, 0.01, 9.27, 0.07, 0.005, 0.01
 253031247, 9.305, 0.055, 0.008, 0.01, 9.287001, 0.063, 0.007, 0.01
 253231167, 9.323001, 0.047, 0.005, 0.01, 9.305, 0.055, 0.008, 0.01
 253431087, 9.34, 0.041, 0.002, 0.01, 9.323001, 0.047, 0.005, 0.01
 253631007, 9.355, 0.037, 0, 0.01, 9.34, 0.041, 0.002, 0.01
 253830927, 9.371, 0.033, -0.003, 0.01, 9.355, 0.037, 0, 0.01
 254030847, 9.387, 0.03, -0.009000001, 0.01, 9.371, 0.033, -0.003, 0.01
 254230767, 9.403001, 0.027, -0.015, 0.01, 9.387, 0.03, -0.009000001, 0.01
 254430687, 9.417001, 0.026, -0.02, 0.01, 9.403001, 0.027, -0.015, 0.01
 254631440, 9.432, 0.024, -0.025, 0.01, 9.417001, 0.026, -0.02, 0.01
 254831360, 9.443001, 0.022, -0.027, 0.01, 9.432, 0.024, -0.025, 0.01
 255031280, 9.452001, 0.021, -0.026, 0.01, 9.443001, 0.022, -0.027, 0.01
 255231200, 9.462001, 0.019, -0.023, 0.01, 9.452001, 0.021, -0.026, 0.01
 255431120, 9.473001, 0.018, -0.022, 0.01, 9.462001, 0.019, -0.023, 0.01
 255631040, 9.483001, 0.018, -0.018, 0.01, 9.473001, 0.018, -0.022, 0.01
 255830960, 9.493, 0.018, -0.014, 0.01, 9.483001, 0.018, -0.018, 0.01
 256030880, 9.506001, 0.018, -0.012, 0.01, 9.493, 0.018, -0.014, 0.01
 256230800, 9.519, 0.017, -0.012, 0.01, 9.506001, 0.018, -0.012, 0.01
 256430720, 9.529, 0.017, -0.011, 0.01, 9.519, 0.017, -0.012, 0.01
 256631473, 9.541, 0.017, -0.007, 0.01, 9.529, 0.017, -0.011, 0.01
 256831393, 9.553, 0.016, -0.006, 0.01, 9.541, 0.017, -0.007, 0.01
 257031313, 9.558001, 0.015, -0.007, 0.01, 9.553, 0.016, -0.006, 0.01
 257231233, 9.572001, 0.015, -0.009000001, 0.01, 9.558001, 0.015, -0.007, 0.01
 257431153, 9.588, 0.015, -0.009000001, 0.01, 9.572001, 0.015, -0.009000001, 0.01
 257631073, 9.592, 0.014, -0.009000001, 0.01, 9.588, 0.015, -0.009000001, 0.01
 257830993, 9.601001, 0.014, -0.009000001, 0.01, 9.592, 0.014, -0.009000001, 0.01
 258030913, 9.611, 0.014, -0.009000001, 0.01, 9.601001, 0.014, -0.009000001, 0.01
 258230833, 9.621, 0.014, -0.011, 0.01, 9.611, 0.014, -0.009000001, 0.01
 258430753, 9.633, 0.014, -0.013, 0.01, 9.621, 0.014, -0.011, 0.01
 258630673, 9.64, 0.013, -0.013, 0.01, 9.633, 0.014, -0.013, 0.01
 258831426, 9.644, 0.013, -0.011, 0.01, 9.64, 0.013, -0.013, 0.01
 259031346, 9.649, 0.012, -0.008, 0.01, 9.644, 0.013, -0.011, 0.01
 259231266, 9.659, 0.012, -0.006, 0.01, 9.649, 0.012, -0.008, 0.01
 259431186, 9.665001, 0.012, -0.003, 0.01, 9.659, 0.012, -0.006, 0.01
 259631106, 9.671, 0.012, 0.001, 0.01, 9.665001, 0.012, -0.003, 0.01
 259831026, 9.677, 0.011, 0.006, 0.01, 9.671, 0.012, 0.001, 0.01
 260030946, 9.688001, 0.01, 0.011, 0.01, 9.677, 0.011, 0.006, 0.01
 260230866, 9.694, 0.009000001, 0.016, 0.01, 9.688001, 0.01, 0.011, 0.01
 260430786, 9.699, 0.009000001, 0.021, 0.01, 9.694, 0.009000001, 0.016, 0.01
 260630706, 9.702001, 0.009000001, 0.019, 0.01, 9.699, 0.009000001, 0.021, 0.01
 260831459, 9.714001, 0.008, 0.015, 0.01, 9.702001, 0.009000001, 0.019, 0.01
 261031379, 9.728001, 0.007, 0.012, 0.01, 9.714001, 0.008, 0.015, 0.01
 261231299, 9.734, 0.006, 0.009000001, 0.01, 9.728001, 0.007, 0.012, 0.01
 261431219, 9.737, 0.006, 0.004, 0.01, 9.734, 0.006, 0.009000001, 0.01
 261631139, 9.744, 0.005, 0.001, 0.01, 9.737, 0.006, 0.004, 0.01
 261831059, 9.749001, 0.004, 0, 0.01, 9.744, 0.005, 0.001, 0.01
 262030979, 9.754001, 0.004, 0.001, 0.01, 9.749001, 0.004, 0, 0.01
 262230899, 9.76, 0.004, 0.002, 0.01, 9.754001, 0.004, 0.001, 0.01
 262430819, 9.763, 0.005, 0.003, 0.01, 9.76, 0.004, 0.002, 0.01
 262630739, 9.773001, 0.005, 0.003, 0.01, 9.763, 0.005, 0.003, 0.01
 262830659, 9.780001, 0.005, 0.001, 0.01, 9.773001, 0.005, 0.003, 0.01
 263031412, 9.785001, 0.005, 0, 0.01, 9.780001, 0.005, 0.001, 0.01
 263231332, 9.789001, 0.005, -0.001, 0.01, 9.785001, 0.005, 0, 0.01
 263431252, 9.794001, 0.006, -0.005, 0.01, 9.789001, 0.005, -0.001, 0.01
 263631172, 9.799001, 0.006, -0.008, 0.01, 9.794001, 0.006, -0.005, 0.01
 263831092, 9.799001, 0.006, -0.011, 0.01, 9.799001, 0.006, -0.008, 0.01
 264031012, 9.772, 0.007, -0.022, 0.01, 9.799001, 0.006, -0.011, 0.01
 264230932, 9.660001, 0.004, -0.035, 0.01, 9.772, 0.007, -0.022, 0.01
 264430852, 9.484, -0.01, -0.036, 0.01, 9.660001, 0.004, -0.035, 0.01
 264630772, 9.3, -0.036, -0.029, 0.01, 9.484, -0.01, -0.036, 0.01
 264830692, 9.127001, -0.067, -0.021, 0.01, 9.3, -0.036, -0.029, 0.01
 265031445, 8.948, -0.098, -0.016, 0.01, 9.127001, -0.067, -0.021, 0.01
 265231365, 8.753, -0.13, -0.014, 0.01, 8.948, -0.098, -0.016, 0.01
 265431285, 8.545, -0.167, -0.012, 0.01, 8.753, -0.13, -0.014, 0.01
 265631205, 8.332001, -0.211, -0.009000001, 0.01, 8.545, -0.167, -0.012, 0.01
 265831125, 8.117001, -0.261, -0.006, 0.01, 8.332001, -0.211, -0.009000001, 0.01
 266031045, 7.901, -0.317, -0.006, 0.01, 8.117001, -0.261, -0.006, 0.01
 266230965, 7.68, -0.379, -0.005, 0.01, 7.901, -0.317, -0.006, 0.01
 266430885, 7.453001, -0.447, -0.003, 0.01, 7.68, -0.379, -0.005, 0.01
 266630805, 7.224, -0.52, 0.003, 0.01, 7.453001, -0.447, -0.003, 0.01
 266830725, 6.993001, -0.599, 0.011, 0.01, 7.224, -0.52, 0.003, 0.01
 267031478, 6.763, -0.6850001, 0.016, 0.01, 6.993001, -0.599, 0.011, 0.01
 267231398, 6.531, -0.777, 0.018, 0.01, 6.763, -0.6850001, 0.016, 0.01
 267431318, 6.294, -0.876, 0.02, 0.01, 6.531, -0.777, 0.018, 0.01
 267631238, 6.055, -0.983, 0.019, 0.01, 6.294, -0.876, 0.02, 0.01
 267831158, 5.812, -1.098, 0.019, 0.01, 6.055, -0.983, 0.019, 0.01
 268031078, 5.565, -1.225, 0.018, 0.01, 5.812, -1.098, 0.019, 0.01
 268230998, 5.309, -1.371, 0.019, 0.01, 5.565, -1.225, 0.018, 0.01
 268430918, 5.042, -1.541, 0.019, 0.01, 5.309, -1.371, 0.019, 0.01
 268630838, 4.761, -1.733, 0.021, 0.01, 5.042, -1.541, 0.019, 0.01
 268830758, 4.468, -1.945, 0.023, 0.01, 4.761, -1.733, 0.021, 0.01
 269030678, 4.161, -2.172, 0.024, 0.01, 4.468, -1.945, 0.023, 0.01
 269231431, 3.844, -2.413, 0.023, 0.01, 4.161, -2.172, 0.024, 0.01
 269431351, 3.521, -2.658, 0.022, 0.01, 3.844, -2.413, 0.023, 0.01
 269631271, 3.199, -2.905, 0.022, 0.01, 3.521, -2.658, 0.022, 0.01
 269831191, 2.884, -3.152, 0.021, 0.01, 3.199, -2.905, 0.022, 0.01
 270031111, 2.583, -3.395, 0.02, 0.01, 2.884, -3.152, 0.021, 0.01
 270231031, 2.302, -3.632, 0.02, 0.01, 2.583, -3.395, 0.02, 0.01
 270430951, 2.042, -3.863, 0.019, 0.01, 2.302, -3.632, 0.02, 0.01
 270630871, 1.801, -4.09, 0.019, 0.01, 2.042, -3.863, 0.019, 0.01
 270830791, 1.581, -4.31, 0.018, 0.01, 1.801, -4.09, 0.019, 0.01
 271030711, 1.379, -4.527, 0.016, 0.01, 1.581, -4.31, 0.018, 0.01
 271231464, 1.196, -4.74, 0.013, 0.01, 1.379, -4.527, 0.016, 0.01
 271431384, 1.031, -4.949, 0.009000001, 0.01, 1.196, -4.74, 0.013, 0.01
 271631304, 0.886, -5.155, 0.005, 0.01, 1.031, -4.949, 0.009000001, 0.01
 271831224, 0.7590001, -5.357, 0.002, 0.01, 0.886, -5.155, 0.005, 0.01
 272031144, 0.649, -5.555, 0, 0.01, 0.7590001, -5.357, 0.002, 0.01
 272231064, 0.557, -5.742, -0.004, 0.01, 0.649, -5.555, 0, 0.01
 272430984, 0.48, -5.917, -0.007, 0.01, 0.557, -5.742, -0.004, 0.01
 272630904, 0.415, -6.084, -0.011, 0.01, 0.48, -5.917, -0.007, 0.01
 272830824, 0.358, -6.241, -0.015, 0.01, 0.415, -6.084, -0.011, 0.01
 273030744, 0.308, -6.388, -0.018, 0.01, 0.358, -6.241, -0.015, 0.01
 273230664, 0.266, -6.527, -0.02, 0.01, 0.308, -6.388, -0.018, 0.01
 273431417, 0.23, -6.658, -0.021, 0.01, 0.266, -6.527, -0.02, 0.01
 273631337, 0.201, -6.781, -0.021, 0.01, 0.23, -6.658, -0.021, 0.01
 273831257, 0.177, -6.895, -0.019, 0.01, 0.201, -6.781, -0.021, 0.01
 274031177, 0.157, -7.004, -0.018, 0.01, 0.177, -6.895, -0.019, 0.01
 274231097, 0.141, -7.106, -0.017, 0.01, 0.157, -7.004, -0.018, 0.01
 274431017, 0.128, -7.203001, -0.017, 0.01, 0.141, -7.106, -0.017, 0.01
 274630937, 0.115, -7.293, -0.015, 0.01, 0.128, -7.203001, -0.017, 0.01
 274830857, 0.104, -7.377, -0.011, 0.01, 0.115, -7.293, -0.015, 0.01
 275030777, 0.094, -7.457, -0.007, 0.01, 0.104, -7.377, -0.011, 0.01
 275230697, 0.08800001, -7.536, -0.007, 0.01, 0.094, -7.457, -0.007, 0.01
 275431450, 0.079, -7.613, -0.009000001, 0.01, 0.08800001, -7.536, -0.007, 0.01
 275631370, 0.06900001, -7.682, -0.011, 0.01, 0.079, -7.613, -0.009000001, 0.01
 275831290, 0.061, -7.746, -0.011, 0.01, 0.06900001, -7.682, -0.011, 0.01
 276031210, 0.046, -7.809, -0.011, 0.01, 0.061, -7.746, -0.011, 0.01
 276231130, 0.038, -7.872, -0.012, 0.01, 0.046, -7.809, -0.011, 0.01
 276431050, 0.039, -7.93, -0.013, 0.01, 0.038, -7.872, -0.012, 0.01
 276630970, 0.038, -7.985001, -0.015, 0.01, 0.039, -7.93, -0.013, 0.01
 276830890, 0.033, -8.036, -0.017, 0.01, 0.038, -7.985001, -0.015, 0.01
 277030810, 0.028, -8.085, -0.017, 0.01, 0.033, -8.036, -0.017, 0.01
 277230730, 0.024, -8.132, -0.015, 0.01, 0.028, -8.085, -0.017, 0.01
 277431483, 0.021, -8.179001, -0.014, 0.01, 0.024, -8.132, -0.015, 0.01
 277631403, 0.019, -8.228001, -0.015, 0.01, 0.021, -8.179001, -0.014, 0.01
 277831323, 0.018, -8.275001, -0.018, 0.01, 0.019, -8.228001, -0.015, 0.01
 278031243, 0.018, -8.316, -0.017, 0.01, 0.018, -8.275001, -0.018, 0.01
 278231163, 0.018, -8.354, -0.014, 0.01, 0.018, -8.316, -0.017, 0.01
 278431083, 0.017, -8.395, -0.013, 0.01, 0.018, -8.354, -0.014, 0.01
 278631003, 0.012, -8.436001, -0.014, 0.01, 0.017, -8.395, -0.013, 0.01
 278830923, 0.007, -8.475, -0.014, 0.01, 0.012, -8.436001, -0.014, 0.01
 279030843, 0.003, -8.513, -0.012, 0.01, 0.007, -8.475, -0.014, 0.01
 279230763, 0, -8.548, -0.009000001, 0.01, 0.003, -8.513, -0.012, 0.01
 279430683, -0.002, -8.583, -0.004, 0.01, 0, -8.548, -0.009000001, 0.01
 279631436, -0.005, -8.618, -0.002, 0.01, -0.002, -8.583, -0.004, 0.01
 279831356, -0.008, -8.654, -0.001, 0.01, -0.005, -8.618, -0.002, 0.01
 280031276, -0.01, -8.686001, 0, 0.01, -0.008, -8.654, -0.001, 0.01
 280231196, -0.011, -8.717, 0, 0.01, -0.01, -8.686001, 0, 0.01
 280431116, -0.013, -8.749001, 0, 0.01, -0.011, -8.717, 0, 0.01
 280631036, -0.015, -8.782001, 0, 0.01, -0.013, -8.749001, 0, 0.01
 280830956, -0.025, -8.814, -0.001, 0.01, -0.015, -8.782001, 0, 0.01
 281030876, -0.027, -8.846001, -0.004, 0.01, -0.025, -8.814, -0.001, 0.01
 281230796, -0.004, -8.875, -0.006, 0.01, -0.027, -8.846001, -0.004, 0.01
 281430716, -0.011, -8.904, -0.008, 0.01, -0.004, -8.875, -0.006, 0.01
 281631469, -0.043, -8.934, -0.011, 0.01, -0.011, -8.904, -0.008, 0.01
 281831389, -0.042, -8.962001, -0.013, 0.01, -0.043, -8.934, -0.011, 0.01
 282031309, -0.019, -8.986, -0.014, 0.01, -0.042, -8.962001, -0.013, 0.01
 282231229, 0.002, -9.009001, -0.013, 0.01, -0.019, -8.986, -0.014, 0.01
 282431149, -0.019, -9.031, -0.01, 0.01, 0.002, -9.009001, -0.013, 0.01
 282631069, -0.047, -9.053, -0.008, 0.01, -0.019, -9.031, -0.01, 0.01
 282830989, -0.041, -9.075001, -0.005, 0.01, -0.047, -9.053, -0.008, 0.01
 283030909, -0.02, -9.096001, -0.002, 0.01, -0.041, -9.075001, -0.005, 0.01
 283230829, 0, -9.120001, -0.002, 0.01, -0.02, -9.096001, -0.002, 0.01
 283430749, -0.013, -9.142, -0.002, 0.01, 0, -9.120001, -0.002, 0.01
 283630669, -0.042, -9.162001, 0, 0.01, -0.013, -9.142, -0.002, 0.01
 283831422, -0.036, -9.182, 0.002, 0.01, -0.042, -9.162001, 0, 0.01
 284031342, -0.005, -9.200001, 0.005, 0.01, -0.036, -9.182, 0.002, 0.01
 284231262, 0.004, -9.217, 0.008, 0.01, -0.005, -9.200001, 0.005, 0.01
 284431182, -0.01, -9.237, 0.01, 0.01, 0.004, -9.217, 0.008, 0.01
 284631102, -0.04, -9.255, 0.014, 0.01, -0.01, -9.237, 0.01, 0.01
 284831022, -0.034, -9.271001, 0.018, 0.01, -0.04, -9.255, 0.014, 0.01
 285030942, -0.001, -9.285001, 0.023, 0.01, -0.034, -9.271001, 0.018, 0.01
 285230862, 0.004, -9.301001, 0.026, 0.01, -0.001, -9.285001, 0.023, 0.01
 285430782, -0.009000001, -9.324, 0.021, 0.01, 0.004, -9.301001, 0.026, 0.01
 285630702, -0.038, -9.346001, 0.013, 0.01, -0.009000001, -9.324, 0.021, 0.01
 285831455, -0.032, -9.364, 0.007, 0.01, -0.038, -9.346001, 0.013, 0.01
 286031375, 0.002, -9.376, 0.006, 0.01, -0.032, -9.364, 0.007, 0.01
 286231295, 0.004, -9.385, 0.008, 0.01, 0.002, -9.376, 0.006, 0.01
 286431215, -0.013, -9.397, 0.01, 0.01, 0.004, -9.385, 0.008, 0.01
 286631135, -0.038, -9.411, 0.013, 0.01, -0.013, -9.397, 0.01, 0.01
 286831055, -0.027, -9.426001, 0.015, 0.01, -0.038, -9.411, 0.013, 0.01
 287030975, 0.006, -9.440001, 0.015, 0.01, -0.027, -9.426001, 0.015, 0.01
 287230895, 0.003, -9.454, 0.013, 0.01, 0.006, -9.440001, 0.015, 0.01
 287430815, -0.012, -9.467, 0.013, 0.01, 0.003, -9.454, 0.013, 0.01
 287630735, -0.036, -9.483001, 0.009000001, 0.01, -0.012, -9.467, 0.013, 0.01
 287830655, -0.013, -9.496, 0.007, 0.01, -0.036, -9.483001, 0.009000001, 0.01
 288031408, 0.011, -9.506001, 0.004, 0.01, -0.013, -9.496, 0.007, 0.01
 288231328, 0.005, -9.514001, 0.006, 0.01, 0.011, -9.506001, 0.004, 0.01
 288431248, -0.009000001, -9.522, 0.01, 0.01, 0.005, -9.514001, 0.006, 0.01
 288631168, -0.035, -9.532001, 0.014, 0.01, -0.009000001, -9.522, 0.01, 0.01
 288831088, -0.012, -9.545, 0.015, 0.01, -0.035, -9.532001, 0.014, 0.01
 289031008, 0.011, -9.559, 0.011, 0.01, -0.012, -9.545, 0.015, 0.01
 289230928, 0.006, -9.563001, 0, 0.01, 0.011, -9.559, 0.011, 0.01
 289430848, -0.003, -9.499001, -0.017, 0.01, 0.006, -9.563001, 0, 0.01
 289630768, -0.034, -9.35, -0.03, 0.01, -0.003, -9.499001, -0.017, 0.01
 289830688, -0.05, -9.169001, -0.029, 0.01, -0.034, -9.35, -0.03, 0.01
 290031441, -0.054, -8.992001, -0.025, 0.01, -0.05, -9.169001, -0.029, 0.01
 290231361, -0.067, -8.817, -0.02, 0.01, -0.054, -8.992001, -0.025, 0.01
 290431281, -0.109, -8.63, -0.017, 0.01, -0.067, -8.817, -0.02, 0.01
 290631201, -0.149, -8.426001, -0.014, 0.01, -0.109, -8.63, -0.017, 0.01
 290831121, -0.182, -8.215, -0.011, 0.01, -0.149, -8.426001, -0.014, 0.01
 291031041, -0.222, -8, -0.008, 0.01, -0.182, -8.215, -0.011, 0.01
 291230961, -0.273, -7.783, -0.005, 0.01, -0.222, -8, -0.008, 0.01
 291430881, -0.33, -7.56, 0, 0.01, -0.273, -7.783, -0.005, 0.01
 291630801, -0.392, -7.333, 0.007, 0.01, -0.33, -7.56, 0, 0.01
 291830721, -0.459, -7.105, 0.016, 0.01, -0.392, -7.333, 0.007, 0.01
 292031474, -0.5330001, -6.878, 0.024, 0.01, -0.459, -7.105, 0.016, 0.01
 292231394, -0.613, -6.647, 0.032, 0.01, -0.5330001, -6.878, 0.024, 0.01
 292431314, -0.7, -6.413, 0.035, 0.01, -0.613, -6.647, 0.032, 0.01
 292631234, -0.794, -6.177001, 0.036, 0.01, -0.7, -6.413, 0.035, 0.01
 292831154, -0.8940001, -5.938, 0.033, 0.01, -0.794, -6.177001, 0.036, 0.01
 293031074, -1.002, -5.696, 0.03, 0.01, -0.8940001, -5.938, 0.033, 0.01
 293230994, -1.118, -5.449, 0.027, 0.01, -1.002, -5.696, 0.03, 0.01
 293430914, -1.247, -5.195, 0.024, 0.01, -1.118, -5.449, 0.027, 0.01
 293630834, -1.398, -4.93, 0.022, 0.01, -1.247, -5.195, 0.024, 0.01
 293830754, -1.575, -4.655, 0.023, 0.01, -1.398, -4.93, 0.022, 0.01
 294030674, -1.774, -4.366, 0.023, 0.01, -1.575, -4.655, 0.023, 0.01
 294231427, -1.991, -4.065, 0.026, 0.01, -1.774, -4.366, 0.023, 0.01
 294431347, -2.221, -3.75, 0.028, 0.01, -1.991, -4.065, 0.026, 0.01
 294631267, -2.461, -3.427, 0.027, 0.01, -2.221, -3.75, 0.028, 0.01
 294831187, -2.704, -3.102, 0.026, 0.01, -2.461, -3.427, 0.027, 0.01
 295031107, -2.946, -2.782, 0.023, 0.01, -2.704, -3.102, 0.026, 0.01
 295231027, -3.184, -2.478, 0.021, 0.01, -2.946, -2.782, 0.023, 0.01
 295430947, -3.419, -2.193, 0.018, 0.01, -3.184, -2.478, 0.021, 0.01
 295630867, -3.651, -1.93, 0.015, 0.01, -3.419, -2.193, 0.018, 0.01
 295830787, -3.877, -1.688, 0.012, 0.01, -3.651, -1.93, 0.015, 0.01
 296030707, -4.1, -1.466, 0.009000001, 0.01, -3.877, -1.688, 0.012, 0.01
 296231460, -4.319, -1.262, 0.006, 0.01, -4.1, -1.466, 0.009000001, 0.01
 296431380, -4.532, -1.079, 0.005, 0.01, -4.319, -1.262, 0.006, 0.01
 296631300, -4.742, -0.9170001, 0.006, 0.01, -4.532, -1.079, 0.005, 0.01
 296831220, -4.949, -0.775, 0.008, 0.01, -4.742, -0.9170001, 0.006, 0.01
 297031140, -5.155, -0.6530001, 0.006, 0.01, -4.949, -0.775, 0.008, 0.01
 297231060, -5.36, -0.55, 0.002, 0.01, -5.155, -0.6530001, 0.006, 0.01
 297430980, -5.56, -0.465, -0.002, 0.01, -5.36, -0.55, 0.002, 0.01
 297630900, -5.751, -0.393, -0.006, 0.01, -5.56, -0.465, -0.002, 0.01
 297830820, -5.929, -0.33, -0.009000001, 0.01, -5.751, -0.393, -0.006, 0.01
 298030740, -6.098001, -0.278, -0.014, 0.01, -5.929, -0.33, -0.009000001, 0.01
 298230660, -6.257, -0.235, -0.019, 0.01, -6.098001, -0.278, -0.014, 0.01
 298431413, -6.405, -0.2, -0.023, 0.01, -6.257, -0.235, -0.019, 0.01
 298631333, -6.544, -0.171, -0.028, 0.01, -6.405, -0.2, -0.023, 0.01
 298831253, -6.674, -0.148, -0.032, 0.01, -6.544, -0.171, -0.028, 0.01
 299031173, -6.794, -0.13, -0.031, 0.01, -6.674, -0.148, -0.032, 0.01
 299231093, -6.908, -0.114, -0.03, 0.01, -6.794, -0.13, -0.031, 0.01
 299431013, -7.016, -0.103, -0.03, 0.01, -6.908, -0.114, -0.03, 0.01
 299630933, -7.114, -0.09500001, -0.027, 0.01, -7.016, -0.103, -0.03, 0.01
 299830853, -7.209, -0.08800001, -0.026, 0.01, -7.114, -0.09500001, -0.027, 0.01
 300030773, -7.3, -0.082, -0.027, 0.01, -7.209, -0.08800001, -0.026, 0.01
 300230693, -7.384, -0.07700001, -0.028, 0.01, -7.3, -0.082, -0.027, 0.01
 300431446, -7.462, -0.072, -0.027, 0.01, -7.384, -0.07700001, -0.028, 0.01
 300631366, -7.535, -0.068, -0.024, 0.01, -7.462, -0.072, -0.027, 0.01
 300831286, -7.602, -0.06500001, -0.019, 0.01, -7.535, -0.068, -0.024, 0.01
 301031206, -7.667, -0.062, -0.014, 0.01, -7.602, -0.06500001, -0.019, 0.01
 301231126, -7.734, -0.058, -0.012, 0.01, -7.667, -0.062, -0.014, 0.01
 301431046, -7.799, -0.053, -0.014, 0.01, -7.734, -0.058, -0.012, 0.01
 301630966, -7.859, -0.05, -0.015, 0.01, -7.799, -0.053, -0.014, 0.01
 301830886, -7.912, -0.046, -0.013, 0.01, -7.859, -0.05, -0.015, 0.01
 302030806, -7.961, -0.043, -0.007, 0.01, -7.912, -0.046, -0.013, 0.01
 302230726, -8.011001, -0.041, 0, 0.01, -7.961, -0.043, -0.007, 0.01
 302431479, -8.061001, -0.038, 0.01, 0.01, -8.011001, -0.041, 0, 0.01
 302631399, -8.110001, -0.033, 0.019, 0.01, -8.061001, -0.038, 0.01, 0.01
 302831319, -8.156, -0.027, 0.026, 0.01, -8.110001, -0.033, 0.019, 0.01
 303031239, -8.202001, -0.021, 0.032, 0.01, -8.156, -0.027, 0.026, 0.01
 303231159, -8.248, -0.015, 0.034, 0.01, -8.202001, -0.021, 0.032, 0.01
 303431079, -8.293, -0.009000001, 0.033, 0.01, -8.248, -0.015, 0.034, 0.01
 303630999, -8.338, -0.001, 0.029, 0.01, -8.293, -0.009000001, 0.033, 0.01
 303830919, -8.38, 0.005, 0.025, 0.01, -8.338, -0.001, 0.029, 0.01
 304030839, -8.423, 0.012, 0.019, 0.01, -8.38, 0.005, 0.025, 0.01
 304230759, -8.463, 0.017, 0.013, 0.01, -8.423, 0.012, 0.019, 0.01
 304430679, -8.502001, 0.021, 0.007, 0.01, -8.463, 0.017, 0.013, 0.01
 304631432, -8.54, 0.025, 0.002, 0.01, -8.502001, 0.021, 0.007, 0.01
 304831352, -8.574, 0.03, 0, 0.01, -8.54, 0.025, 0.002, 0.01
 305031272, -8.607, 0.035, -0.002, 0.01, -8.574, 0.03, 0, 0.01
 305231192, -8.641001, 0.038, -0.004, 0.01, -8.607, 0.035, -0.002, 0.01
 305431112, -8.674001, 0.04, -0.005, 0.01, -8.641001, 0.038, -0.004, 0.01
 305631032, -8.705001, 0.042, -0.005, 0.01, -8.674001, 0.04, -0.005, 0.01
 305830952, -8.733001, 0.044, -0.003, 0.01, -8.705001, 0.042, -0.005, 0.01
 306030872, -8.764001, 0.045, -0.002, 0.01, -8.733001, 0.044, -0.003, 0.01
 306230792, -8.795, 0.045, -0.002, 0.01, -8.764001, 0.045, -0.002, 0.01
 306430712, -8.827001, 0.045, -0.004, 0.01, -8.795, 0.045, -0.002, 0.01
 306631465, -8.856, 0.045, -0.006, 0.01, -8.827001, 0.045, -0.004, 0.01
 306831385, -8.883, 0.046, -0.007, 0.01, -8.856, 0.045, -0.006, 0.01
 307031305, -8.907001, 0.047, -0.004, 0.01, -8.883, 0.046, -0.007, 0.01
 307231225, -8.931001, 0.046, -0.001, 0.01, -8.907001, 0.047, -0.004, 0.01
 307431145, -8.957001, 0.046, 0.002, 0.01, -8.931001, 0.046, -0.001, 0.01
 307631065, -8.983001, 0.043, 0.007, 0.01, -8.957001, 0.046, 0.002, 0.01
 307830985, -9.007, 0.042, 0.011, 0.01, -8.983001, 0.043, 0.007, 0.01
 308030905, -9.032001, 0.042, 0.012, 0.01, -9.007, 0.042, 0.011, 0.01
 308230825, -9.055, 0.043, 0.014, 0.01, -9.032001, 0.042, 0.012, 0.01
 308430745, -9.077001, 0.043, 0.017, 0.01, -9.055, 0.043, 0.014, 0.01
 308630665, -9.1, 0.043, 0.019, 0.01, -9.077001, 0.043, 0.017, 0.01
 308831418, -9.124001, 0.041, 0.019, 0.01, -9.1, 0.043, 0.019, 0.01
 309031338, -9.148001, 0.039, 0.017, 0.01, -9.124001, 0.041, 0.019, 0.01
 309231258, -9.169001, 0.038, 0.016, 0.01, -9.148001, 0.039, 0.017, 0.01
 309431178, -9.189, 0.038, 0.014, 0.01, -9.169001, 0.038, 0.016, 0.01
 309631098, -9.209001, 0.036, 0.011, 0.01, -9.189, 0.038, 0.014, 0.01
 309831018, -9.227, 0.035, 0.009000001, 0.01, -9.209001, 0.036, 0.011, 0.01
 310030938, -9.244, 0.033, 0.01, 0.01, -9.227, 0.035, 0.009000001, 0.01
 310230858, -9.261001, 0.032, 0.011, 0.01, -9.244, 0.033, 0.01, 0.01
 310430778, -9.281, 0.03, 0.008, 0.01, -9.261001, 0.032, 0.011, 0.01
 310630698, -9.301001, 0.029, 0.005, 0.01, -9.281, 0.03, 0.008, 0.01
 310831451, -9.317, 0.027, 0.004, 0.01, -9.301001, 0.029, 0.005, 0.01
 311031371, -9.332001, 0.027, 0.002, 0.01, -9.317, 0.027, 0.004, 0.01
 311231291, -9.348001, 0.027, 0, 0.01, -9.332001, 0.027, 0.002, 0.01
 311431211, -9.365001, 0.026, -0.004, 0.01, -9.348001, 0.027, 0, 0.01
 311631131, -9.381001, 0.021, -0.01, 0.01, -9.365001, 0.026, -0.004, 0.01
 311831051, -9.394, 0.017, -0.014, 0.01, -9.381001, 0.021, -0.01, 0.01
 312030971, -9.406, 0.013, -0.015, 0.01, -9.394, 0.017, -0.014, 0.01
 312230891, -9.417001, 0.01, -0.014, 0.01, -9.406, 0.013, -0.015, 0.01
 312430811, -9.428, 0.004, -0.012, 0.01, -9.417001, 0.01, -0.014, 0.01
 312630731, -9.438001, 0.002, -0.006, 0.01, -9.428, 0.004, -0.012, 0.01
 312831484, -9.448001, 0.001, 0, 0.01, -9.438001, 0.002, -0.006, 0.01
 313031404, -9.461, 0, 0.002, 0.01, -9.448001, 0.001, 0, 0.01
 313231324, -9.475, -0.003, 0.004, 0.01, -9.461, 0, 0.002, 0.01
 313431244, -9.489, -0.004, 0.004, 0.01, -9.475, -0.003, 0.004, 0.01
 313631164, -9.502001, -0.004, 0.003, 0.01, -9.489, -0.004, 0.004, 0.01
 313831084, -9.513, -0.004, 0.002, 0.01, -9.502001, -0.004, 0.003, 0.01
 314031004, -9.518001, -0.004, 0.002, 0.01, -9.513, -0.004, 0.002, 0.01
 314230924, -9.490001, -0.007, -0.006, 0.01, -9.518001, -0.004, 0.002, 0.01
 314430844, -9.373, -0.007, -0.019, 0.01, -9.490001, -0.007, -0.006, 0.01
 314630764, -9.198001, 0.004, -0.025, 0.01, -9.373, -0.007, -0.019, 0.01
 314830684, -9.02, 0.032, -0.025, 0.01, -9.198001, 0.004, -0.025, 0.01
 315031437, -8.849, 0.058, -0.026, 0.01, -9.02, 0.032, -0.025, 0.01
 315231357, -8.667001, 0.082, -0.025, 0.01, -8.849, 0.058, -0.026, 0.01
 315431277, -8.467, 0.11, -0.021, 0.01, -8.667001, 0.082, -0.025, 0.01
 315631197, -8.256001, 0.144, -0.016, 0.01, -8.467, 0.11, -0.021, 0.01
 315831117, -8.043, 0.185, -0.013, 0.01, -8.256001, 0.144, -0.016, 0.01
 316031037, -7.828001, 0.232, -0.013, 0.01, -8.043, 0.185, -0.013, 0.01
 316230957, -7.608, 0.284, -0.009000001, 0.01, -7.828001, 0.232, -0.013, 0.01
 316430877, -7.383, 0.342, -0.005, 0.01, -7.608, 0.284, -0.009000001, 0.01
 316630797, -7.156, 0.407, -0.003, 0.01, -7.383, 0.342, -0.005, 0.01
 316830717, -6.928, 0.478, 0, 0.01, -7.156, 0.407, -0.003, 0.01
 317031470, -6.697001, 0.555, 0, 0.01, -6.928, 0.478, 0, 0.01
 317231390, -6.463, 0.638, 0, 0.01, -6.697001, 0.555, 0, 0.01
 317431310, -6.225, 0.7270001, 0.004, 0.01, -6.463, 0.638, 0, 0.01
 317631230, -5.985, 0.8240001, 0.011, 0.01, -6.225, 0.7270001, 0.004, 0.01
 317831150, -5.742, 0.928, 0.017, 0.01, -5.985, 0.8240001, 0.011, 0.01
 318031070, -5.498, 1.041, 0.019, 0.01, -5.742, 0.928, 0.017, 0.01
 318230990, -5.248, 1.163, 0.021, 0.01, -5.498, 1.041, 0.019, 0.01
 318430910, -4.99, 1.3, 0.023, 0.01, -5.248, 1.163, 0.021, 0.01
 318630830, -4.721, 1.463, 0.026, 0.01, -4.99, 1.3, 0.023, 0.01
 318830750, -4.438, 1.652, 0.026, 0.01, -4.721, 1.463, 0.026, 0.01
 319030670, -4.139, 1.862, 0.025, 0.01, -4.438, 1.652, 0.026, 0.01
 319231423, -3.826, 2.084, 0.025, 0.01, -4.139, 1.862, 0.025, 0.01
 319431343, -3.505, 2.314, 0.025, 0.01, -3.826, 2.084, 0.025, 0.01
 319631263, -3.178, 2.549, 0.024, 0.01, -3.505, 2.314, 0.025, 0.01
 319831183, -2.852, 2.788, 0.024, 0.01, -3.178, 2.549, 0.024, 0.01
 320031103, -2.537, 3.025, 0.024, 0.01, -2.852, 2.788, 0.024, 0.01
 320231023, -2.241, 3.258, 0.025, 0.01, -2.537, 3.025, 0.024, 0.01
 320430943, -1.967, 3.488, 0.025, 0.01, -2.241, 3.258, 0.025, 0.01
 320630863, -1.718, 3.715, 0.025, 0.01, -1.967, 3.488, 0.025, 0.01
 320830783, -1.494, 3.937, 0.023, 0.01, -1.718, 3.715, 0.025, 0.01
 321030703, -1.291, 4.154, 0.021, 0.01, -1.494, 3.937, 0.023, 0.01
 321231456, -1.106, 4.366, 0.017, 0.01, -1.291, 4.154, 0.021, 0.01
 321431376, -0.9400001, 4.574, 0.012, 0.01, -1.106, 4.366, 0.017, 0.01
 321631296, -0.793, 4.78, 0.007, 0.01, -0.9400001, 4.574, 0.012, 0.01
 321831216, -0.665, 4.984, 0.002, 0.01, -0.793, 4.78, 0.007, 0.01
 322031136, -0.5560001, 5.186, 0, 0.01, -0.665, 4.984, 0.002, 0.01
 322231056, -0.466, 5.387, -0.001, 0.01, -0.5560001, 5.186, 0, 0.01
 322430976, -0.391, 5.584, -0.004, 0.01, -0.466, 5.387, -0.001, 0.01
 322630896, -0.329, 5.774, -0.008, 0.01, -0.391, 5.584, -0.004, 0.01
 322830816, -0.279, 5.952, -0.014, 0.01, -0.329, 5.774, -0.008, 0.01
 323030736, -0.238, 6.118001, -0.02, 0.01, -0.279, 5.952, -0.014, 0.01
 323230656, -0.204, 6.272, -0.023, 0.01, -0.238, 6.118001, -0.02, 0.01
 323431409, -0.176, 6.416, -0.024, 0.01, -0.204, 6.272, -0.023, 0.01
 323631329, -0.152, 6.552001, -0.023, 0.01, -0.176, 6.416, -0.024, 0.01
 323831249, -0.133, 6.679, -0.018, 0.01, -0.152, 6.552001, -0.023, 0.01
 324031169, -0.118, 6.798, -0.01, 0.01, -0.133, 6.679, -0.018, 0.01
 324231089, -0.108, 6.91, -0.003, 0.01, -0.118, 6.798, -0.01, 0.01
 324431009, -0.102, 7.018, 0.001, 0.01, -0.108, 6.91, -0.003, 0.01
 324630929, -0.097, 7.119, 0.002, 0.01, -0.102, 7.018, 0.001, 0.01
 324830849, -0.093, 7.215, 0.002, 0.01, -0.097, 7.119, 0.002, 0.01
 325030769, -0.09, 7.303, 0.001, 0.01, -0.093, 7.215, 0.002, 0.01
 325230689, -0.086, 7.387001, 0, 0.01, -0.09, 7.303, 0.001, 0.01
 325431442, -0.081, 7.465, -0.004, 0.01, -0.086, 7.387001, 0, 0.01
 325631362, -0.07700001, 7.538001, -0.007, 0.01, -0.081, 7.465, -0.004, 0.01
 325831282, -0.072, 7.606, -0.01, 0.01, -0.07700001, 7.538001, -0.007, 0.01
 326031202, -0.068, 7.671, -0.012, 0.01, -0.072, 7.606, -0.01, 0.01
 326231122, -0.064, 7.735, -0.017, 0.01, -0.068, 7.671, -0.012, 0.01
 326431042, -0.061, 7.795001, -0.021, 0.01, -0.064, 7.735, -0.017, 0.01
 326630962, -0.056, 7.851, -0.022, 0.01, -0.061, 7.795001, -0.021, 0.01
 326830882, -0.051, 7.906, -0.021, 0.01, -0.056, 7.851, -0.022, 0.01
 327030802, -0.046, 7.959001, -0.019, 0.01, -0.051, 7.906, -0.021, 0.01
 327230722, -0.041, 8.009001, -0.016, 0.01, -0.046, 7.959001, -0.019, 0.01
 327431475, -0.035, 8.058001, -0.015, 0.01, -0.041, 8.009001, -0.016, 0.01
 327631395, -0.032, 8.106, -0.015, 0.01, -0.035, 8.058001, -0.015, 0.01
 327831315, -0.028, 8.151, -0.016, 0.01, -0.032, 8.106, -0.015, 0.01
 328031235, -0.022, 8.194, -0.015, 0.01, -0.028, 8.151, -0.016, 0.01
 328231155, -0.016, 8.235001, -0.01, 0.01, -0.022, 8.194, -0.015, 0.01
 328431075, -0.013, 8.275001, -0.003, 0.01, -0.016, 8.235001, -0.01, 0.01
 328630995, -0.01, 8.316, 0.003, 0.01, -0.013, 8.275001, -0.003, 0.01
 328830915, -0.006, 8.356, 0.007, 0.01, -0.01, 8.316, 0.003, 0.01
 329030835, -0.003, 8.396001, 0.011, 0.01, -0.006, 8.356, 0.007, 0.01
 329230755, 0, 8.436001, 0.014, 0.01, -0.003, 8.396001, 0.011, 0.01
 329430675, 0.003, 8.477, 0.016, 0.01, 0, 8.436001, 0.014, 0.01
 329631428, 0.01, 8.517, 0.016, 0.01, 0.003, 8.477, 0.016, 0.01
 329831348, 0.012, 8.556001, 0.015, 0.01, 0.01, 8.517, 0.016, 0.01
 330031268, 0.013, 8.593, 0.012, 0.01, 0.012, 8.556001, 0.015, 0.01
 330231188, 0.013, 8.629001, 0.009000001, 0.01, 0.013, 8.593, 0.012, 0.01
 330431108, 0.014, 8.664001, 0.005, 0.01, 0.013, 8.629001, 0.009000001, 0.01
 330631028, 0.017, 8.698, 0.002, 0.01, 0.014, 8.664001, 0.005, 0.01
 330830948, 0.022, 8.729, 0, 0.01, 0.017, 8.698, 0.002, 0.01
 331030868, 0.027, 8.762, -0.004, 0.01, 0.022, 8.729, 0, 0.01
 331230788, 0.027, 8.794001, -0.008, 0.01, 0.027, 8.762, -0.004, 0.01
 331430708, 0.026, 8.822001, -0.01, 0.01, 0.027, 8.794001, -0.008, 0.01
 331631461, 0.027, 8.848001, -0.01, 0.01, 0.026, 8.822001, -0.01, 0.01
 331831381, 0.028, 8.873, -0.007, 0.01, 0.027, 8.848001, -0.01, 0.01
 332031301, 0.028, 8.900001, -0.004, 0.01, 0.028, 8.873, -0.007, 0.01
 332231221, 0.028, 8.925, 0, 0.01, 0.028, 8.900001, -0.004, 0.01
 332431141, 0.029, 8.950001, 0.003, 0.01, 0.028, 8.925, 0, 0.01
 332631061, 0.029, 8.977, 0.004, 0.01, 0.029, 8.950001, 0.003, 0.01
 332830981, 0.028, 9.003, 0.005, 0.01, 0.029, 8.977, 0.004, 0.01
 333030901, 0.028, 9.028001, 0.006, 0.01, 0.028, 9.003, 0.005, 0.01
 333230821, 0.027, 9.052, 0.006, 0.01, 0.028, 9.028001, 0.006, 0.01
 333430741, 0.026, 9.076, 0.006, 0.01, 0.027, 9.052, 0.006, 0.01
 333630661, 0.026, 9.098001, 0.006, 0.01, 0.026, 9.076, 0.006, 0.01
 333831414, 0.026, 9.119, 0.007, 0.01, 0.026, 9.098001, 0.006, 0.01
 334031334, 0.025, 9.138, 0.01, 0.01, 0.026, 9.119, 0.007, 0.01
 334231254, 0.018, 9.159, 0.013, 0.01, 0.025, 9.138, 0.01, 0.01
 334431174, 0.021, 9.18, 0.014, 0.01, 0.018, 9.159, 0.013, 0.01
 334631094, 0.028, 9.202001, 0.014, 0.01, 0.021, 9.18, 0.014, 0.01
 334831014, 0.025, 9.223001, 0.011, 0.01, 0.028, 9.202001, 0.014, 0.01
 335030934, 0.015, 9.242001, 0.006, 0.01, 0.025, 9.223001, 0.011, 0.01
 335230854, 0.015, 9.261001, 0.002, 0.01, 0.015, 9.242001, 0.006, 0.01
 335430774, 0.016, 9.278001, 0, 0.01, 0.015, 9.261001, 0.002, 0.01
 335630694, 0.017, 9.294001, 0, 0.01, 0.016, 9.278001, 0, 0.01
 335831447, 0.017, 9.311001, -0.001, 0.01, 0.017, 9.294001, 0, 0.01
 336031367, 0.017, 9.328, -0.003, 0.01, 0.017, 9.311001, -0.001, 0.01
 336231287, 0.017, 9.345, -0.007, 0.01, 0.017, 9.328, -0.003, 0.01
 336431207, 0.016, 9.359, -0.011, 0.01, 0.017, 9.345, -0.007, 0.01
 336631127, 0.015, 9.374001, -0.014, 0.01, 0.016, 9.359, -0.011, 0.01
 336831047, 0.015, 9.388, -0.015, 0.01, 0.015, 9.374001, -0.014, 0.01
 337030967, 0.014, 9.402, -0.015, 0.01, 0.015, 9.388, -0.015, 0.01
 337230887, 0.013, 9.413, -0.012, 0.01, 0.014, 9.402, -0.015, 0.01
 337430807, 0.013, 9.421, -0.009000001, 0.01, 0.013, 9.413, -0.012, 0.01
 337630727, 0.013, 9.422001, -0.006, 0.01, 0.013, 9.421, -0.009000001, 0.01
 337831480, 0.012, 9.417001, -0.004, 0.01, 0.013, 9.422001, -0.006, 0.01
 338031400, 0.009000001, 9.403001, -0.002, 0.01, 0.012, 9.417001, -0.004, 0.01
 338231320, 0.006, 9.384001, -0.004, 0.01, 0.009000001, 9.403001, -0.002, 0.01
 338431240, 0.003, 9.357, -0.005, 0.01, 0.006, 9.384001, -0.004, 0.01
 338631160, -0.001, 9.320001, -0.005, 0.01, 0.003, 9.357, -0.005, 0.01
 338831080, -0.003, 9.278001, -0.008, 0.01, -0.001, 9.320001, -0.005, 0.01
 339031000, -0.004, 9.228001, -0.011, 0.01, -0.003, 9.278001, -0.008, 0.01
 339230920, -0.006, 9.169001, -0.015, 0.01, -0.004, 9.228001, -0.011, 0.01
 339430840, -0.01, 9.101001, -0.02, 0.01, -0.006, 9.169001, -0.015, 0.01
 339630760, -0.017, 9.025001, -0.024, 0.01, -0.01, 9.101001, -0.02, 0.01
 339830680, -0.02, 8.940001, -0.029, 0.01, -0.017, 9.025001, -0.024, 0.01
 340031433, -0.022, 8.845, -0.033, 0.01, -0.02, 8.940001, -0.029, 0.01
 340231353, -0.022, 8.739, -0.033, 0.01, -0.022, 8.845, -0.033, 0.01
 340431273, -0.025, 8.624001, -0.03, 0.01, -0.022, 8.739, -0.033, 0.01
 340631193, -0.03, 8.5, -0.023, 0.01, -0.025, 8.624001, -0.03, 0.01
 340831113, -0.037, 8.368, -0.014, 0.01, -0.03, 8.5, -0.023, 0.01
 341031033, -0.039, 8.228001, -0.005, 0.01, -0.037, 8.368, -0.014, 0.01
 341230953, -0.04, 8.079, 0.001, 0.01, -0.039, 8.228001, -0.005, 0.01
 341430873, -0.041, 7.921, 0.006, 0.01, -0.04, 8.079, 0.001, 0.01
 341630793, -0.041, 7.754, 0.008, 0.01, -0.041, 7.921, 0.006, 0.01
 341830713, -0.044, 7.575, 0.01, 0.01, -0.041, 7.754, 0.008, 0.01
 342031466, -0.046, 7.385, 0.01, 0.01, -0.044, 7.575, 0.01, 0.01
 342231386, -0.047, 7.184, 0.011, 0.01, -0.046, 7.385, 0.01, 0.01
 342431306, -0.047, 6.977, 0.011, 0.01, -0.047, 7.184, 0.011, 0.01
 342631226, -0.048, 6.768, 0.01, 0.01, -0.047, 6.977, 0.011, 0.01
 342831146, -0.048, 6.555, 0.006, 0.01, -0.048, 6.768, 0.01, 0.01
 343031066, -0.047, 6.335001, 0.004, 0.01, -0.048, 6.555, 0.006, 0.01
 343230986, -0.045, 6.111, 0.003, 0.01, -0.047, 6.335001, 0.004, 0.01
 343430906, -0.043, 5.885, 0, 0.01, -0.045, 6.111, 0.003, 0.01
 343630826, -0.041, 5.657, -0.001, 0.01, -0.043, 5.885, 0, 0.01
 343830746, -0.038, 5.426, -0.001, 0.01, -0.041, 5.657, -0.001, 0.01
 344030666, -0.032, 5.191, 0, 0.01, -0.038, 5.426, -0.001, 0.01
 344231419, -0.024, 4.955, 0.003, 0.01, -0.032, 5.191, 0, 0.01
 344431339, -0.021, 4.72, 0.004, 0.01, -0.024, 4.955, 0.003, 0.01
 344631259, -0.016, 4.485, 0.004, 0.01, -0.021, 4.72, 0.004, 0.01
 344831179, -0.006, 4.247, 0.002, 0.01, -0.016, 4.485, 0.004, 0.01
 345031099, 0, 4.003, 0, 0.01, -0.006, 4.247, 0.002, 0.01
 345231019, 0.006, 3.756, -0.001, 0.01, 0, 4.003, 0, 0.01
 345430939, 0.014, 3.505, -0.001, 0.01, 0.006, 3.756, -0.001, 0.01
 345630859, 0.02, 3.25, 0, 0.01, 0.014, 3.505, -0.001, 0.01
 345830779, 0.029, 2.99, 0, 0.01, 0.02, 3.25, 0, 0.01
 346030699, 0.035, 2.722, 0, 0.01, 0.029, 2.99, 0, 0.01
 346231452, 0.041, 2.445, 0, 0.01, 0.035, 2.722, 0, 0.01
 346431372, 0.047, 2.155, 0.001, 0.01, 0.041, 2.445, 0, 0.01
 346631292, 0.05, 1.84, 0.002, 0.01, 0.047, 2.155, 0.001, 0.01
 346831212, 0.047, 1.491, 0.002, 0.01, 0.05, 1.84, 0.002, 0.01
 347031132, 0.04, 1.129, 0.002, 0.01, 0.047, 1.491, 0.002, 0.01
 347231052, 0.032, 0.8060001, 0.001, 0.01, 0.04, 1.129, 0.002, 0.01
 347430972, 0.03, 0.537, 0.001, 0.01, 0.032, 0.8060001, 0.001, 0.01
 347630892, 0.028, 0.176, -0.023, 0.01, 0.03, 0.537, 0.001, 0.01
 347830812, 0.024, -0.25, -0.111, 0.01, 0.028, 0.176, -0.023, 0.01
 348030732, 0.022, -0.523, -0.27, 0.01, 0.024, -0.25, -0.111, 0.01
 348231485, 0.034, -0.59, -0.464, 0.01, 0.022, -0.523, -0.27, 0.01
 348431405, 0.048, -0.563, -0.674, 0.01, 0.034, -0.59, -0.464, 0.01
 348631325, 0.064, -0.5330001, -0.891, 0.01, 0.048, -0.563, -0.674, 0.01
 348831245, 0.08000001, -0.501, -1.103, 0.01, 0.064, -0.5330001, -0.891, 0.01
 349031165, 0.097, -0.436, -1.306, 0.01, 0.08000001, -0.501, -1.103, 0.01
 349231085, 0.112, -0.336, -1.492, 0.01, 0.097, -0.436, -1.306, 0.01
 349431005, 0.122, -0.23, -1.646, 0.01, 0.112, -0.336, -1.492, 0.01
 349630925, 0.125, -0.14, -1.767, 0.01, 0.122, -0.23, -1.646, 0.01
 349830845, 0.124, -0.06500001, -1.863, 0.01, 0.125, -0.14, -1.767, 0.01
 350030765, 0.119, 0, -1.936, 0.01, 0.124, -0.06500001, -1.863, 0.01
 350230685, 0.109, 0.056, -1.955, 0.01, 0.119, 0, -1.936, 0.01
 350431438, 0.096, 0.09500001, -1.816, 0.01, 0.109, 0.056, -1.955, 0.01
 350631358, 0.079, 0.121, -1.602, 0.01, 0.096, 0.09500001, -1.816, 0.01
 350831278, 0.055, 0.135, -1.344, 0.01, 0.079, 0.121, -1.602, 0.01
 351031198, 0, 0.139, -1.063, 0.01, 0.055, 0.135, -1.344, 0.01
 351231118, -0.108, 0.133, -0.799, 0.01, 0, 0.139, -1.063, 0.01
 351431038, -0.265, 0.119, -0.577, 0.01, -0.108, 0.133, -0.799, 0.01
 351630958, -0.447, 0.098, -0.405, 0.01, -0.265, 0.119, -0.577, 0.01
 351830878, -0.637, 0.07300001, -0.277, 0.01, -0.447, 0.098, -0.405, 0.01
 352030798, -0.825, 0.045, -0.188, 0.01, -0.637, 0.07300001, -0.277, 0.01
 352230718, -1.004, 0.017, -0.128, 0.01, -0.825, 0.045, -0.188, 0.01
 352431471, -1.171, -0.01, -0.09, 0.01, -1.004, 0.017, -0.128, 0.01
 352631391, -1.337, -0.038, -0.064, 0.01, -1.171, -0.01, -0.09, 0.01
 352831311, -1.512, -0.066, -0.048, 0.01, -1.337, -0.038, -0.064, 0.01
 353031231, -1.695, -0.093, -0.037, 0.01, -1.512, -0.066, -0.048, 0.01
 353231151, -1.881, -0.121, -0.03, 0.01, -1.695, -0.093, -0.037, 0.01
 353431071, -2.067, -0.147, -0.025, 0.01, -1.881, -0.121, -0.03, 0.01
 353630991, -2.254, -0.174, -0.02, 0.01, -2.067, -0.147, -0.025, 0.01
 353830911, -2.445, -0.201, -0.016, 0.01, -2.254, -0.174, -0.02, 0.01
 354030831, -2.639, -0.227, -0.012, 0.01, -2.445, -0.201, -0.016, 0.01
 354230751, -2.834, -0.254, -0.008, 0.01, -2.639, -0.227, -0.012, 0.01
 354430671, -3.03, -0.28, -0.004, 0.01, -2.834, -0.254, -0.008, 0.01
 354631424, -3.226, -0.306, -0.001, 0.01, -3.03, -0.28, -0.004, 0.01
 354831344, -3.423, -0.331, 0.001, 0.01, -3.226, -0.306, -0.001, 0.01
 355031264, -3.619, -0.356, 0.003, 0.01, -3.423, -0.331, 0.001, 0.01
 355231184, -3.816, -0.382, 0.004, 0.01, -3.619, -0.356, 0.003, 0.01
 355431104, -4.014, -0.408, 0.005, 0.01, -3.816, -0.382, 0.004, 0.01
 355631024, -4.212, -0.434, 0.006, 0.01, -4.014, -0.408, 0.005, 0.01
 355830944, -4.41, -0.46, 0.007, 0.01, -4.212, -0.434, 0.006, 0.01
 356030864, -4.609, -0.485, 0.008, 0.01, -4.41, -0.46, 0.007, 0.01
 356230784, -4.808, -0.511, 0.008, 0.01, -4.609, -0.485, 0.008, 0.01
 356430704, -5.007, -0.537, 0.007, 0.01, -4.808, -0.511, 0.008, 0.01
 356631457, -5.201, -0.563, 0.005, 0.01, -5.007, -0.537, 0.007, 0.01
 356831377, -5.385, -0.587, 0.003, 0.01, -5.201, -0.563, 0.005, 0.01
 357031297, -5.558, -0.608, 0.001, 0.01, -5.385, -0.587, 0.003, 0.01
 357231217, -5.723, -0.627, 0, 0.01, -5.558, -0.608, 0.001, 0.01
 357431137, -5.879, -0.643, -0.002, 0.01, -5.723, -0.627, 0, 0.01
 357631057, -6.026, -0.6580001, -0.003, 0.01, -5.879, -0.643, -0.002, 0.01
 357830977, -6.165, -0.6720001, -0.002, 0.01, -6.026, -0.6580001, -0.003, 0.01
 358030897, -6.298, -0.688, 0, 0.01, -6.165, -0.6720001, -0.002, 0.01
 358230817, -6.424, -0.703, 0.001, 0.01, -6.298, -0.688, 0, 0.01
 358430737, -6.544, -0.7180001, 0.003, 0.01, -6.424, -0.703, 0.001, 0.01
 358630657, -6.658, -0.734, 0.002, 0.01, -6.544, -0.7180001, 0.003, 0.01
 358831410, -6.765, -0.749, 0, 0.01, -6.658, -0.734, 0.002, 0.01
 359031330, -6.867, -0.7640001, -0.001, 0.01, -6.765, -0.749, 0, 0.01
 359231250, -6.963, -0.7780001, -0.003, 0.01, -6.867, -0.7640001, -0.001, 0.01
 359431170, -7.056, -0.791, -0.005, 0.01, -6.963, -0.7780001, -0.003, 0.01
 359631090, -7.145, -0.802, -0.006, 0.01, -7.056, -0.791, -0.005, 0.01
 359831010, -7.229001, -0.812, -0.007, 0.01, -7.145, -0.802, -0.006, 0.01
 360030930, -7.308001, -0.823, -0.005, 0.01, -7.229001, -0.812, -0.007, 0.01
 360230850, -7.384, -0.8330001, -0.004, 0.01, -7.308001, -0.823, -0.005, 0.01
 360430770, -7.459001, -0.844, -0.005, 0.01, -7.384, -0.8330001, -0.004, 0.01
 360630690, -7.53, -0.8560001, -0.007, 0.01, -7.459001, -0.844, -0.005, 0.01
 360831443, -7.597001, -0.867, -0.006, 0.01, -7.53, -0.8560001, -0.007, 0.01
 361031363, -7.662, -0.878, -0.005, 0.01, -7.597001, -0.867, -0.006, 0.01
 361231283, -7.726, -0.8850001, -0.004, 0.01, -7.662, -0.878, -0.005, 0.01
 361431203, -7.785, -0.89, -0.001, 0.01, -7.726, -0.8850001, -0.004, 0.01
 361631123, -7.843, -0.8940001, 0.002, 0.01, -7.785, -0.89, -0.001, 0.01
 361831043, -7.900001, -0.8980001, 0.006, 0.01, -7.843, -0.8940001, 0.002, 0.01
 362030963, -7.956, -0.9020001, 0.007, 0.01, -7.900001, -0.8980001, 0.006, 0.01
 362230883, -8.012, -0.906, 0.006, 0.01, -7.956, -0.9020001, 0.007, 0.01
 362430803, -8.065001, -0.909, 0.003, 0.01, -8.012, -0.906, 0.006, 0.01
 362630723, -8.117001, -0.9110001, 0, 0.01, -8.065001, -0.909, 0.003, 0.01
 362831476, -8.164001, -0.9110001, -0.002, 0.01, -8.117001, -0.9110001, 0, 0.01
 363031396, -8.209001, -0.9110001, -0.001, 0.01, -8.164001, -0.9110001, -0.002, 0.01
 363231316, -8.253, -0.9120001, 0, 0.01, -8.209001, -0.9110001, -0.001, 0.01
 363431236, -8.297, -0.913, 0.001, 0.01, -8.253, -0.9120001, 0, 0.01
