TimeUS,COFN,COFE,COFD,CNe,CEe,CDe,POFN,POFE,POFD,PNe,PEe,PDe
 139834044, 0, 0, 0, 0, 0, 0, 0, 0, 0, 0, 0, 0
 140033964, 0, 0, 0, 0, 0, 0, 0, 0, 0, 0, 0, 0
 140233884, 0, 0, 0, 0, 0, 0, 0, 0, 0, 0, 0, 0
 140433804, 0, 0, 0, 0, 0, 0, 0, 0, 0, 0, 0, 0
 140633724, 0, 0, 0, 0, 0, 0, 0, 0, 0, 0, 0, 0
 140833644, 0, 0, 0, 0, 0, 0, 0, 0, 0, 0, 0, 0
 141033564, 0, 0, 0, 0, 0, 0, 0, 0, 0, 0, 0, 0
 141233484, 0, 0, 0, 0, 0, 0, 0, 0, 0, 0, 0, 0
 141434237, 0, 0, 0, 0, 0, 0, 0, 0, 0, 0, 0, 0
 141634157, 0, 0, 0, 0, 0, 0, 0, 0, 0, 0, 0, 0
 141834077, 0, 0, 0, 0, 0, 0, 0, 0, 0, 0, 0, 0
 142033997, 0, 0, 0, 0, 0, 0, 0, 0, 0, 0, 0, 0
 142233917, 0, 0, 0, 0, 0, 0, 0, 0, 0, 0, 0, 0
 142433837, 0, 0, 0, 0, 0, 0, 0, 0, 0, 0, 0, 0
 142633757, 0, 0, 0, 0, 0, 0, 0, 0, 0, 0, 0, 0
 142833677, 0, 0, 0, 0, 0, 0, 0, 0, 0, 0, 0, 0
 143033597, 0, 0, 0, 0, 0, 0, 0, 0, 0, 0, 0, 0
 143233517, 0, 0, 0, 0, 0, 0, 0, 0, 0, 0, 0, 0
 143434270, 0, 0, 0, 0, 0, 0, 0, 0, 0, 0, 0, 0
 143634190, -0.3949837, 0.04591715, 0.01585095, 0.1650556, -0.008883585, 0.9882483, 0, 0, 0, 0, 0, 0
 143834110, 0.1088386, -0.01317254, -0.07238545, 0.1486846, -0.0119744, 0.9896381, -0.3949837, 0.04591715, 0.01585095, 0.1650556, -0.008883585, 0.9882483
 144034030, 0.03063273, -0.006162205, -0.06914021, 0.1286434, -0.009302201, 0.9917179, 0.1088386, -0.01317254, -0.07238545, 0.1486846, -0.0119744, 0.9896381
 144233950, 0.003983837, -0.002820623, -0.06103168, 0.1314828, -0.01336645, 0.9912567, 0.03063273, -0.006162205, -0.06914021, 0.1286434, -0.009302201, 0.9917179
 144433870, -0.02848023, 0.0002693998, -0.05170404, 0.135321, -0.01656368, 0.9906797, 0.003983837, -0.002820623, -0.06103168, 0.1314828, -0.01336645, 0.9912567
 144633790, -0.07707135, 0.005425446, -0.04983218, 0.1389267, -0.01174727, 0.9902493, -0.02848023, 0.0002693998, -0.05170404, 0.135321, -0.01656368, 0.9906797
 144833710, -0.1286115, 0.01169475, -0.04746599, 0.1418635, -0.006193994, 0.9898894, -0.07707135, 0.005425446, -0.04983218, 0.1389267, -0.01174727, 0.9902493
 145033630, -0.1948018, 0.01941784, -0.03305636, 0.1451247, -0.01152837, 0.9893904, -0.1286115, 0.01169475, -0.04746599, 0.1418635, -0.006193994, 0.9898894
 145233550, -0.3175255, 0.04183148, -0.01434904, 0.1615001, -0.01457857, 0.9869894, -0.1948018, 0.01941784, -0.03305636, 0.1451247, -0.01152837, 0.9893904
 145434303, -0.6827152, 0.07294787, 0.04077955, 0.2421989, -0.01984499, 0.9749776, -0.3175255, 0.04183148, -0.01434904, 0.1615001, -0.01457857, 0.9869894
 145634223, -1.209441, 0.1270225, 0.08691515, 0.4232954, -0.04194993, 0.948446, -0.6827152, 0.07294787, 0.04077955, 0.2421989, -0.01984499, 0.9749776
 145834143, 14.44197, -1.62451, -2.208292, 19.38046, -2.180061, -1.871176, -1.209441, 0.1270225, 0.08691515, 0.4232954, -0.04194993, 0.948446
 146034063, 1.362125, -0.1581305, -0.2664198, 1.086092, -0.1112567, 0.8473776, 14.44197, -1.62451, -2.208292, 19.38046, -2.180061, -1.871176
 146233983, 1.20034, -0.134948, -0.2468195, 0.7875825, -0.07779635, 0.8898718, 1.362125, -0.1581305, -0.2664198, 1.086092, -0.1112567, 0.8473776
 146433903, 1.016735, -0.1192694, -0.2466545, 0.571417, -0.05513659, 0.9242521, 1.20034, -0.134948, -0.2468195, 0.7875825, -0.07779635, 0.8898718
 146633823, 0.8040619, -0.08208291, -0.1825494, 0.3939701, -0.03586318, 0.9516962, 1.016735, -0.1192694, -0.2466545, 0.571417, -0.05513659, 0.9242521
 146833743, 0.5346019, -0.06574848, -0.1417685, 0.2622762, -0.01709767, 0.9717445, 0.8040619, -0.08208291, -0.1825494, 0.3939701, -0.03586318, 0.9516962
 147033663, 0.4579044, -0.04465158, -0.1297261, 0.2332865, -0.01578294, 0.9761794, 0.5346019, -0.06574848, -0.1417685, 0.2622762, -0.01709767, 0.9717445
 147233583, 0.4880751, -0.04990346, -0.1650448, 0.2403882, -0.0144194, 0.9750564, 0.4579044, -0.04465158, -0.1297261, 0.2332865, -0.01578294, 0.9761794
 147433503, 0.4156276, -0.049595, -0.1225957, 0.2166828, -0.003890265, 0.9788615, 0.4880751, -0.04990346, -0.1650448, 0.2403882, -0.0144194, 0.9750564
 147634256, 0.4685529, -0.05454278, -0.1298988, 0.2258101, -0.002665226, 0.9775946, 0.4156276, -0.049595, -0.1225957, 0.2166828, -0.003890265, 0.9788615
 147834176, 0.3987326, -0.04005121, -0.120622, 0.2113295, -0.001303472, 0.9795771, 0.4685529, -0.05454278, -0.1298988, 0.2258101, -0.002665226, 0.9775946
 148034096, 0.3683326, -0.03108826, -0.1155363, 0.2031101, -0.00281626, 0.9808996, 0.3987326, -0.04005121, -0.120622, 0.2113295, -0.001303472, 0.9795771
 148234016, 0.3926195, -0.04181032, -0.1129745, 0.2031988, -0.004528063, 0.9810746, 0.3683326, -0.03108826, -0.1155363, 0.2031101, -0.00281626, 0.9808996
 148433936, 0.3977616, -0.06126871, -0.1538155, 0.2031403, -0.004129252, 0.981169, 0.3926195, -0.04181032, -0.1129745, 0.2031988, -0.004528063, 0.9810746
 148633856, 0.340092, -0.04164186, -0.1410404, 0.1953143, -0.001347433, 0.9821995, 0.3977616, -0.06126871, -0.1538155, 0.2031403, -0.004129252, 0.981169
 148833776, 0.3485471, -0.05451992, -0.1113332, 0.1933398, -0.00231822, 0.9826118, 0.340092, -0.04164186, -0.1410404, 0.1953143, -0.001347433, 0.9821995
 149033696, 0.3555362, -0.03129582, -0.1069103, 0.193491, -0.00243216, 0.9826148, 0.3485471, -0.05451992, -0.1113332, 0.1933398, -0.00231822, 0.9826118
 149233616, 0.3415068, -0.0520918, -0.1091662, 0.188293, -0.004113622, 0.983528, 0.3555362, -0.03129582, -0.1069103, 0.193491, -0.00243216, 0.9826148
 149433536, 0.346568, -0.05274841, -0.1099561, 0.1889963, -0.004904823, 0.9834234, 0.3415068, -0.0520918, -0.1091662, 0.188293, -0.004113622, 0.983528
 149634289, 0.34627, -0.03847719, -0.1092314, 0.1878707, -0.002983653, 0.983641, 0.346568, -0.05274841, -0.1099561, 0.1889963, -0.004904823, 0.9834234
 149834209, 0.2779558, -0.04021921, -0.09930724, 0.1779985, -0.002906933, 0.9850959, 0.34627, -0.03847719, -0.1092314, 0.1878707, -0.002983653, 0.983641
 150034129, 0.2866535, -0.04144573, -0.09874588, 0.1730664, -0.003155205, 0.9860119, 0.2779558, -0.04021921, -0.09930724, 0.1779985, -0.002906933, 0.9850959
 150234049, 0.2896159, -0.03793266, -0.09803569, 0.1699379, -0.003142301, 0.9865685, 0.2866535, -0.04144573, -0.09874588, 0.1730664, -0.003155205, 0.9860119
 150433969, 0.2954304, -0.0147621, -0.09940062, 0.1738868, -0.0009332672, 0.9859164, 0.2896159, -0.03793266, -0.09803569, 0.1699379, -0.003142301, 0.9865685
 150633889, 0.2591968, -0.01613634, -0.09480867, 0.1705129, 0.0002176184, 0.9863418, 0.2954304, -0.0147621, -0.09940062, 0.1738868, -0.0009332672, 0.9859164
 150833809, 0.2361215, -0.02842396, -0.09164789, 0.1674746, 0.004135818, 0.986762, 0.2591968, -0.01613634, -0.09480867, 0.1705129, 0.0002176184, 0.9863418
 151033729, 0.2238438, -0.02783617, -0.0901742, 0.167123, 0.00644183, 0.9867663, 0.2361215, -0.02842396, -0.09164789, 0.1674746, 0.004135818, 0.986762
 151233649, 0.2594835, -0.01507236, -0.0929815, 0.164027, 0.004574858, 0.9874296, 0.2238438, -0.02783617, -0.0901742, 0.167123, 0.00644183, 0.9867663
 151433569, 0.2524244, -0.01791298, -0.09169839, 0.1616639, 0.003896501, 0.9877928, 0.2594835, -0.01507236, -0.0929815, 0.164027, 0.004574858, 0.9874296
 151633489, 0.2585925, -0.0230992, -0.09282809, 0.1632845, 0.001984851, 0.9875559, 0.2524244, -0.01791298, -0.09169839, 0.1616639, 0.003896501, 0.9877928
 151834242, 0.2346086, -0.02160053, -0.09053868, 0.1639035, 0.003943145, 0.987357, 0.2585925, -0.0230992, -0.09282809, 0.1632845, 0.001984851, 0.9875559
 152034162, 0.232979, -0.0174754, -0.09068272, 0.1654725, 0.005092869, 0.9870858, 0.2346086, -0.02160053, -0.09053868, 0.1639035, 0.003943145, 0.987357
 152234082, 0.1996815, -0.01990834, -0.08606795, 0.1608648, 0.005787331, 0.987735, 0.232979, -0.0174754, -0.09068272, 0.1654725, 0.005092869, 0.9870858
 152434002, 0.1970821, -0.007614672, -0.08488643, 0.1571643, 0.005572304, 0.9883274, 0.1996815, -0.01990834, -0.08606795, 0.1608648, 0.005787331, 0.987735
 152633922, 0.2226765, -0.03863874, -0.0885506, 0.160324, 0.005163417, 0.9878945, 0.1970821, -0.007614672, -0.08488643, 0.1571643, 0.005572304, 0.9883274
 152833842, 0.2249689, -0.02531599, -0.08757539, 0.1554598, 0.003218607, 0.988688, 0.2226765, -0.03863874, -0.0885506, 0.160324, 0.005163417, 0.9878945
 153033762, 0.1997921, -0.02638007, -0.08499181, 0.1549835, 0.001655256, 0.9886881, 0.2249689, -0.02531599, -0.08757539, 0.1554598, 0.003218607, 0.988688
 153233682, 0.2175399, -0.009399799, -0.08730783, 0.1582685, 0.002039031, 0.9882262, 0.1997921, -0.02638007, -0.08499181, 0.1549835, 0.001655256, 0.9886881
 153433602, 0.1789936, -0.007040116, -0.08194943, 0.1519215, 0.001851959, 0.9891114, 0.2175399, -0.009399799, -0.08730783, 0.1582685, 0.002039031, 0.9882262
 153633522, 0.1835752, -0.04231022, -0.08268844, 0.1507395, 0.001398704, 0.9892954, 0.1789936, -0.007040116, -0.08194943, 0.1519215, 0.001851959, 0.9891114
 153834275, 0.167654, -0.01145814, -0.07983795, 0.1464924, 0.002693308, 0.9898975, 0.1835752, -0.04231022, -0.08268844, 0.1507395, 0.001398704, 0.9892954
 154034195, 0.1797044, -0.02360589, -0.08168847, 0.1487828, 0.0005248431, 0.9895859, 0.167654, -0.01145814, -0.07983795, 0.1464924, 0.002693308, 0.9898975
 154234115, 0.16296, -0.0396271, -0.07982972, 0.1462582, -0.001052102, 0.9899166, 0.1797044, -0.02360589, -0.08168847, 0.1487828, 0.0005248431, 0.9895859
 154434035, 0.2003885, -0.01238671, -0.0834474, 0.1480908, -0.001548022, 0.9897479, 0.16296, -0.0396271, -0.07982972, 0.1462582, -0.001052102, 0.9899166
 154633955, 0.191144, -0.01733633, -0.08244407, 0.1474217, 0.001797664, 0.9898198, 0.2003885, -0.01238671, -0.0834474, 0.1480908, -0.001548022, 0.9897479
 154833875, 0.1476728, -0.03601559, -0.07799041, 0.1452987, 0.0005018413, 0.9900247, 0.191144, -0.01733633, -0.08244407, 0.1474217, 0.001797664, 0.9898198
 155033795, 0.1781253, -0.04052255, -0.08105201, 0.1451402, 0.001323581, 0.9901175, 0.1476728, -0.03601559, -0.07799041, 0.1452987, 0.0005018413, 0.9900247
 155233715, 0.1438072, -0.03033726, -0.07647813, 0.1391956, 0.003175872, 0.9908888, 0.1781253, -0.04052255, -0.08105201, 0.1451402, 0.001323581, 0.9901175
 155433635, 0.1502968, -0.02265292, -0.07709984, 0.1399285, 0.004679614, 0.9907955, 0.1438072, -0.03033726, -0.07647813, 0.1391956, 0.003175872, 0.9908888
 155633555, 0.1567751, -0.03222067, -0.07782932, 0.139457, 0.002203193, 0.9908822, 0.1502968, -0.02265292, -0.07709984, 0.1399285, 0.004679614, 0.9907955
 155833475, 0.1668904, -0.02839067, -0.07901396, 0.1409923, 0.002183275, 0.9906895, 0.1567751, -0.03222067, -0.07782932, 0.139457, 0.002203193, 0.9908822
 156034228, 0.1590878, -0.02847831, -0.07831967, 0.1411496, 0.001168491, 0.9906507, 0.1668904, -0.02839067, -0.07901396, 0.1409923, 0.002183275, 0.9906895
 156234148, 0.1463665, -0.02238013, -0.07666019, 0.1391393, 0.001262654, 0.9909086, 0.1590878, -0.02847831, -0.07831967, 0.1411496, 0.001168491, 0.9906507
 156434068, 0.1331845, -0.01995344, -0.07493507, 0.1365794, 0.002064294, 0.9912375, 0.1463665, -0.02238013, -0.07666019, 0.1391393, 0.001262654, 0.9909086
 156633988, 0.1561153, -0.02684571, -0.07765578, 0.1389686, 0.0009200461, 0.9909526, 0.1331845, -0.01995344, -0.07493507, 0.1365794, 0.002064294, 0.9912375
 156833908, 0.1507028, -0.01542446, -0.07694358, 0.1385587, 0.001342647, 0.990985, 0.1561153, -0.02684571, -0.07765578, 0.1389686, 0.0009200461, 0.9909526
 157033828, 0.1529611, -0.01749745, -0.07674457, 0.136106, 0.0009048823, 0.9913453, 0.1507028, -0.01542446, -0.07694358, 0.1385587, 0.001342647, 0.990985
 157233748, 0.1587569, -0.007727947, -0.07696149, 0.1351967, 0.003244492, 0.9914811, 0.1529611, -0.01749745, -0.07674457, 0.136106, 0.0009048823, 0.9913453
 157433668, 0.1449609, -0.03492782, -0.07607813, 0.1351627, 0.001630412, 0.9914514, 0.1587569, -0.007727947, -0.07696149, 0.1351967, 0.003244492, 0.9914811
 157633588, 0.1223954, -0.02156928, -0.07362523, 0.1345279, 0.002139742, 0.991497, 0.1449609, -0.03492782, -0.07607813, 0.1351627, 0.001630412, 0.9914514
 157833508, 0.1365518, -0.0001575126, -0.07490738, 0.1361304, 0.003190907, 0.9913104, 0.1223954, -0.02156928, -0.07362523, 0.1345279, 0.002139742, 0.991497
 158034261, 0.1585163, -0.01350111, -0.07721828, 0.1363621, 0.002857862, 0.99132, 0.1365518, -0.0001575126, -0.07490738, 0.1361304, 0.003190907, 0.9913104
 158234181, 0.1461036, -0.02138165, -0.07573967, 0.1336615, 0.00253506, 0.9916589, 0.1585163, -0.01350111, -0.07721828, 0.1363621, 0.002857862, 0.99132
 158434101, 0.1310129, -0.0005443096, -0.07386218, 0.1324873, 0.004186151, 0.9917891, 0.1461036, -0.02138165, -0.07573967, 0.1336615, 0.00253506, 0.9916589
 158634021, 0.1132613, 0.003904559, -0.07188586, 0.1306831, 0.005077278, 0.9919949, 0.1310129, -0.0005443096, -0.07386218, 0.1324873, 0.004186151, 0.9917891
 158833941, 0.1266295, -0.02558056, -0.07276906, 0.1251792, 0.004545156, 0.9927178, 0.1132613, 0.003904559, -0.07188586, 0.1306831, 0.005077278, 0.9919949
 159033861, 0.1432134, -0.03264963, -0.07346717, 0.1198488, 0.004590784, 0.9934044, 0.1266295, -0.02558056, -0.07276906, 0.1251792, 0.004545156, 0.9927178
 159233781, 0.142362, -0.01406287, -0.07174974, 0.1103343, 0.006311277, 0.9944993, 0.1432134, -0.03264963, -0.07346717, 0.1198488, 0.004590784, 0.9934044
 159433701, 0.1347553, -0.03001122, -0.07073252, 0.1055736, 0.005265336, 0.9950015, 0.142362, -0.01406287, -0.07174974, 0.1103343, 0.006311277, 0.9944993
 159633621, 0.1164562, -0.02103633, -0.06840508, 0.09743837, 0.005438088, 0.9957991, 0.1347553, -0.03001122, -0.07073252, 0.1055736, 0.005265336, 0.9950015
 159833541, 0.1158835, -0.002832028, -0.06726686, 0.09006443, 0.007300091, 0.9964867, 0.1164562, -0.02103633, -0.06840508, 0.09743837, 0.005438088, 0.9957991
 160034294, 0.116721, -0.02788471, -0.06721323, 0.08824079, 0.01133333, 0.996604, 0.1158835, -0.002832028, -0.06726686, 0.09006443, 0.007300091, 0.9964867
 160234214, 0.1117148, -0.02265025, -0.06598777, 0.0809702, 0.01525707, 0.9971616, 0.116721, -0.02788471, -0.06721323, 0.08824079, 0.01133333, 0.996604
 160434134, 0.1052583, -0.009640677, -0.06488232, 0.07343501, 0.01266254, 0.9977751, 0.1117148, -0.02265025, -0.06598777, 0.0809702, 0.01525707, 0.9971616
 160634054, 0.1046029, -0.01506538, -0.06407432, 0.06487101, 0.005716885, 0.9984282, 0.1052583, -0.009640677, -0.06488232, 0.07343501, 0.01266254, 0.9977751
 160833974, 0.1230033, -0.02199047, -0.06460678, 0.06463888, 0.007776461, 0.9984567, 0.1046029, -0.01506538, -0.06407432, 0.06487101, 0.005716885, 0.9984282
 161033894, 0.1317475, 0.004212931, -0.06216164, 0.04673519, -0.06617276, 0.997313, 0.1230033, -0.02199047, -0.06460678, 0.06463888, 0.007776461, 0.9984567
 161233814, 0.1255294, 0.02355284, -0.05042813, -0.006874688, -0.4441419, 0.8965771, 0.1317475, 0.004212931, -0.06216164, 0.04673519, -0.06617276, 0.997313
 161433734, 0.09867086, 0.02641619, -0.05155027, 0.003549371, -0.5221049, 0.8535061, 0.1255294, 0.02355284, -0.05042813, -0.006874688, -0.4441419, 0.8965771
 161633654, 0.09507426, 0.001417091, -0.06618271, 0.04936188, -0.3482043, 0.9366845, 0.09867086, 0.02641619, -0.05155027, 0.003549371, -0.5221049, 0.8535061
 161833574, 0.1266332, -0.0116006, -0.06783445, 0.05238741, -0.2205393, 0.97456, 0.09507426, 0.001417091, -0.06618271, 0.04936188, -0.3482043, 0.9366845
 162033494, 0.09596837, 0.02136332, -0.05700849, 0.03253172, -0.2506397, 0.9680911, 0.1266332, -0.0116006, -0.06783445, 0.05238741, -0.2205393, 0.97456
 162234247, 0.1184588, 0.01779584, -0.05677398, 0.02232045, -0.3058589, 0.9524109, 0.09596837, 0.02136332, -0.05700849, 0.03253172, -0.2506397, 0.9680911
 162434167, 0.1144821, 0.01026304, -0.0592959, 0.02278804, -0.2867366, 0.9583197, 0.1184588, 0.01779584, -0.05677398, 0.02232045, -0.3058589, 0.9524109
 162634087, 0.1317882, 0.001459285, -0.0612627, 0.02397642, -0.2363621, 0.9719669, 0.1144821, 0.01026304, -0.0592959, 0.02278804, -0.2867366, 0.9583197
 162834007, 0.1069309, 0.005240754, -0.05963677, 0.01808424, -0.2101185, 0.9780639, 0.1317882, 0.001459285, -0.0612627, 0.02397642, -0.2363621, 0.9719669
 163033927, 0.1028328, 0.001510691, -0.05976154, 0.01017887, -0.2085273, 0.9785092, 0.1069309, 0.005240754, -0.05963677, 0.01808424, -0.2101185, 0.9780639
 163233847, 0.1168634, 0.02134353, -0.05412007, 0.004206924, -0.2059097, 0.9791393, 0.1028328, 0.001510691, -0.05976154, 0.01017887, -0.2085273, 0.9785092
 163433767, 0.1008127, -0.002650734, -0.05941316, -0.0006242506, -0.1889797, 0.9825175, 0.1168634, 0.02134353, -0.05412007, 0.004206924, -0.2059097, 0.9791393
 163633687, 0.1092057, 0.01580163, -0.05480371, -0.004834205, -0.1752233, 0.9850746, 0.1008127, -0.002650734, -0.05941316, -0.0006242506, -0.1889797, 0.9825175
 163833607, 0.1281898, 0.02604089, -0.05188645, -0.007356729, -0.1652747, 0.9868131, 0.1092057, 0.01580163, -0.05480371, -0.004834205, -0.1752233, 0.9850746
 164033527, 0.114258, 0.004254329, -0.05606428, -0.0121119, -0.1602304, 0.9875603, 0.1281898, 0.02604089, -0.05188645, -0.007356729, -0.1652747, 0.9868131
 164234280, 0.1177059, 0.00647244, -0.05532934, -0.01350415, -0.1508147, 0.98903, 0.114258, 0.004254329, -0.05606428, -0.0121119, -0.1602304, 0.9875603
 164434200, 0.1059105, 0.01396907, -0.05401346, -0.01922439, -0.1368884, 0.9909468, 0.1177059, 0.00647244, -0.05532934, -0.01350415, -0.1508147, 0.98903
 164634120, 0.09459108, 0.02694692, -0.05238268, -0.02270044, -0.1238492, 0.9925821, 0.1059105, 0.01396907, -0.05401346, -0.01922439, -0.1368884, 0.9909468
 164834040, 0.1208884, 0.0148958, -0.05264011, -0.02468655, -0.1168894, 0.9934051, 0.09459108, 0.02694692, -0.05238268, -0.02270044, -0.1238492, 0.9925821
 165033960, 0.1077511, 0.01182493, -0.05326935, -0.03006121, -0.1122006, 0.9937759, 0.1208884, 0.0148958, -0.05264011, -0.02468655, -0.1168894, 0.9934051
 165233880, 0.1075275, 0.02897418, -0.05085239, -0.0322645, -0.1051345, 0.9944919, 0.1077511, 0.01182493, -0.05326935, -0.03006121, -0.1122006, 0.9937759
 165433800, 0.0953076, 0.0193226, -0.05252102, -0.03695463, -0.09827523, 0.9950062, 0.1075275, 0.02897418, -0.05085239, -0.0322645, -0.1051345, 0.9944919
 165633720, 0.1128503, 0.02730894, -0.05031597, -0.03960202, -0.08811106, 0.9958854, 0.0953076, 0.0193226, -0.05252102, -0.03695463, -0.09827523, 0.9950062
 165833640, 0.08995268, 0.02559693, -0.05197755, -0.04292349, -0.07816836, 0.9965467, 0.1128503, 0.02730894, -0.05031597, -0.03960202, -0.08811106, 0.9958854
 166033560, 0.09216129, 0.02579461, -0.0519357, -0.04257594, -0.07366222, 0.9969076, 0.08995268, 0.02559693, -0.05197755, -0.04292349, -0.07816836, 0.9965467
 166233480, 0.1277195, 0.009419588, -0.05106572, -0.04245422, -0.0712768, 0.9971216, 0.09216129, 0.02579461, -0.0519357, -0.04257594, -0.07366222, 0.9969076
 166434233, 0.1003199, 0.02730407, -0.05126721, -0.04350699, -0.06810485, 0.9972735, 0.1277195, 0.009419588, -0.05106572, -0.04245422, -0.0712768, 0.9971216
 166634153, 0.1103919, 0.02644492, -0.05051814, -0.04521377, -0.06506415, 0.997413, 0.1003199, 0.02730407, -0.05126721, -0.04350699, -0.06810485, 0.9972735
 166834073, 0.09962721, 0.0003411649, -0.05350301, -0.04678337, -0.06013508, 0.9976161, 0.1103919, 0.02644492, -0.05051814, -0.04521377, -0.06506415, 0.997413
 167033993, 0.1055273, 0.03423668, -0.05019906, -0.04870018, -0.05234005, 0.9979978, 0.09962721, 0.0003411649, -0.05350301, -0.04678337, -0.06013508, 0.9976161
 167233913, 0.1128891, 0.007830456, -0.05127127, -0.05286469, -0.04924622, 0.9979313, 0.1055273, 0.03423668, -0.05019906, -0.04870018, -0.05234005, 0.9979978
 167433833, 0.1117474, 0.02171871, -0.05038433, -0.05269122, -0.04888012, 0.9979535, 0.1128891, 0.007830456, -0.05127127, -0.05286469, -0.04924622, 0.9979313
 167633753, 0.1176036, 0.003833713, -0.05127319, -0.05221671, -0.04638539, 0.9981059, 0.1117474, 0.02171871, -0.05038433, -0.05269122, -0.04888012, 0.9979535
 167833673, 0.1035221, 0.005352193, -0.05218775, -0.05338234, -0.04436173, 0.9981183, 0.1176036, 0.003833713, -0.05127319, -0.05221671, -0.04638539, 0.9981059
 168033593, 0.1312485, 0.01498982, -0.04942215, -0.05200847, -0.04337852, 0.9982804, 0.1035221, 0.005352193, -0.05218775, -0.05338234, -0.04436173, 0.9981183
 168233513, 0.09929201, 0.03043975, -0.0508385, -0.05443763, -0.03800057, 0.9983385, 0.1312485, 0.01498982, -0.04942215, -0.05200847, -0.04337852, 0.9982804
 168434266, 0.1231056, 0.03306139, -0.04898237, -0.053394, -0.03297824, 0.998608, 0.09929201, 0.03043975, -0.0508385, -0.05443763, -0.03800057, 0.9983385
 168634186, 0.1205762, 0.02343155, -0.04959661, -0.05542234, -0.0299967, 0.9985793, 0.1231056, 0.03306139, -0.04898237, -0.053394, -0.03297824, 0.998608
 168834106, 0.1193095, 0.005076594, -0.05061125, -0.0565435, -0.03153053, 0.9984524, 0.1205762, 0.02343155, -0.04959661, -0.05542234, -0.0299967, 0.9985793
 169034026, 0.09554063, 0.03901362, -0.05075565, -0.05631886, -0.028753, 0.9985464, 0.1193095, 0.005076594, -0.05061125, -0.0565435, -0.03153053, 0.9984524
 169233946, 0.1288578, 0.04472496, -0.04789874, -0.0553219, -0.02505899, 0.9987529, 0.09554063, 0.03901362, -0.05075565, -0.05631886, -0.028753, 0.9985464
 169433866, 0.1231839, 0.0155115, -0.04931348, -0.06063758, -0.02312686, 0.9984555, 0.1288578, 0.04472496, -0.04789874, -0.0553219, -0.02505899, 0.9987529
 169633786, 0.09930293, 0.02487838, -0.05070395, -0.06393729, -0.02036686, 0.9982856, 0.1231839, 0.0155115, -0.04931348, -0.06063758, -0.02312686, 0.9984555
 169833706, 0.1250377, 0.0199371, -0.04902314, -0.06026386, -0.02048445, 0.9985421, 0.09930293, 0.02487838, -0.05070395, -0.06393729, -0.02036686, 0.9982856
 170033626, 0.09427841, 0.0396721, -0.05096974, -0.05969305, -0.01686827, 0.9986212, 0.1250377, 0.0199371, -0.04902314, -0.06026386, -0.02048445, 0.9985421
 170233546, 0.1124472, 0.02120985, -0.05014998, -0.06109501, -0.01223606, 0.9986103, 0.09427841, 0.0396721, -0.05096974, -0.05969305, -0.01686827, 0.9986212
 170434299, 0.1063728, 0.02747781, -0.05028718, -0.06300582, -0.01092397, 0.998504, 0.1124472, 0.02120985, -0.05014998, -0.06109501, -0.01223606, 0.9986103
 170634219, 0.1002623, 0.0265003, -0.0506763, -0.06558897, -0.008753696, 0.9983504, 0.1063728, 0.02747781, -0.05028718, -0.06300582, -0.01092397, 0.998504
 170834139, 0.1375132, 0.01631473, -0.04767906, -0.06510373, -0.003045138, 0.9984601, 0.1002623, 0.0265003, -0.0506763, -0.06558897, -0.008753696, 0.9983504
 171034059, 0.1075387, 0.0118784, -0.05064685, -0.06500229, -0.002654474, 0.998421, 0.1375132, 0.01631473, -0.04767906, -0.06510373, -0.003045138, 0.9984601
 171233979, 0.1120571, 0.01494753, -0.05056379, -0.06053905, -0.007484896, 0.9986852, 0.1075387, 0.0118784, -0.05064685, -0.06500229, -0.002654474, 0.998421
 171433899, 0.112988, 0.04225402, -0.04952047, -0.05967424, -0.01001685, 0.998741, 0.1120571, 0.01494753, -0.05056379, -0.06053905, -0.007484896, 0.9986852
 171633819, 0.104353, 0.03234464, -0.05064581, -0.05941164, -0.01095742, 0.9987259, 0.112988, 0.04225402, -0.04952047, -0.05967424, -0.01001685, 0.998741
 171833739, 0.1179643, 0.02131103, -0.0496743, -0.06083122, -0.01373226, 0.998614, 0.104353, 0.03234464, -0.05064581, -0.05941164, -0.01095742, 0.9987259
 172033659, 0.1068382, 0.008288069, -0.05121518, -0.06032649, -0.01726419, 0.9985642, 0.1179643, 0.02131103, -0.0496743, -0.06083122, -0.01373226, 0.998614
 172233579, 0.1102283, 0.01631273, -0.05061546, -0.06065891, -0.01134733, 0.9986399, 0.1068382, 0.008288069, -0.05121518, -0.06032649, -0.01726419, 0.9985642
 172433499, 0.1352013, 0.03427209, -0.04804616, -0.05945791, -0.004907332, 0.9988171, 0.1102283, 0.01631273, -0.05061546, -0.06065891, -0.01134733, 0.9986399
 172634252, 0.1268831, 0.03016208, -0.04900547, -0.0588977, -0.004805537, 0.9988339, 0.1352013, 0.03427209, -0.04804616, -0.05945791, -0.004907332, 0.9988171
 172834172, 0.1163955, 0.03631643, -0.04987546, -0.05725907, -0.00573346, 0.9989151, 0.1268831, 0.03016208, -0.04900547, -0.0588977, -0.004805537, 0.9988339
 173034092, 0.1299238, 0.01834146, -0.04945574, -0.05543122, -0.01112151, 0.9989759, 0.1163955, 0.03631643, -0.04987546, -0.05725907, -0.00573346, 0.9989151
 173234012, 0.1064608, 0.00700678, -0.05160763, -0.05734938, -0.01915275, 0.9987037, 0.1299238, 0.01834146, -0.04945574, -0.05543122, -0.01112151, 0.9989759
 173433932, 0.1083343, 0.008072881, -0.05145349, -0.05672827, -0.0220757, 0.9986819, 0.1064608, 0.00700678, -0.05160763, -0.05734938, -0.01915275, 0.9987037
 173633852, 0.1224548, 0.04084301, -0.04885963, -0.05505503, -0.02163365, 0.9988332, 0.1083343, 0.008072881, -0.05145349, -0.05672827, -0.0220757, 0.9986819
 173833772, 0.1234372, 0.03500892, -0.0492919, -0.05293455, -0.02264466, 0.9989212, 0.1224548, 0.04084301, -0.04885963, -0.05505503, -0.02163365, 0.9988332
 174033692, 0.1059802, 0.04391051, -0.05044904, -0.05149892, -0.02147207, 0.999007, 0.1234372, 0.03500892, -0.0492919, -0.05293455, -0.02264466, 0.9989212
 174233612, 0.1366817, 0.02803396, -0.04896707, -0.04961451, -0.02377833, 0.999079, 0.1059802, 0.04391051, -0.05044904, -0.05149892, -0.02147207, 0.999007
 174433532, 0.1185521, 0.02610897, -0.0504685, -0.04963999, -0.02540888, 0.9990084, 0.1366817, 0.02803396, -0.04896707, -0.04961451, -0.02377833, 0.999079
 174634285, 0.1303834, 0.03493825, -0.04942316, -0.0466345, -0.02622281, 0.9991577, 0.1185521, 0.02610897, -0.0504685, -0.04963999, -0.02540888, 0.9990084
 174834205, 0.131505, 0.02555986, -0.04975988, -0.04770469, -0.02407503, 0.9991543, 0.1303834, 0.03493825, -0.04942316, -0.0466345, -0.02622281, 0.9991577
 175034125, 0.1018192, 0.005913129, -0.05270486, -0.05090327, -0.02005278, 0.9990283, 0.131505, 0.02555986, -0.04975988, -0.04770469, -0.02407503, 0.9991543
 175234045, 0.1343756, 0.0114406, -0.04987239, -0.05147919, -0.01443664, 0.9991449, 0.1018192, 0.005913129, -0.05270486, -0.05090327, -0.02005278, 0.9990283
 175433965, 0.1231807, 0.03129042, -0.04994717, -0.0495571, -0.02242413, 0.9990948, 0.1343756, 0.0114406, -0.04987239, -0.05147919, -0.01443664, 0.9991449
 175633885, 0.1223155, 0.0286462, -0.05017316, -0.04398072, -0.04789057, 0.9984547, 0.1231807, 0.03129042, -0.04994717, -0.0495571, -0.02242413, 0.9990948
 175833805, 0.129411, 0.01563785, -0.05161994, -0.03325333, -0.08451945, 0.9964365, 0.1223155, 0.0286462, -0.05017316, -0.04398072, -0.04789057, 0.9984547
 176033725, 0.1252673, 0.0495212, -0.04743624, -0.01897271, -0.1400091, 0.9905649, 0.129411, 0.01563785, -0.05161994, -0.03325333, -0.08451945, 0.9964365
 176233645, 0.09793818, 0.05370428, -0.04678451, -0.00312916, -0.2017141, 0.980007, 0.1252673, 0.0495212, -0.04743624, -0.01897271, -0.1400091, 0.9905649
 176433565, 0.1242712, 0.02024959, -0.05107169, -0.09584682, 0.2356537, 0.9676967, 0.09793818, 0.05370428, -0.04678451, -0.00312916, -0.2017141, 0.980007
 176633485, 0.1021495, -0.003412737, -0.04708796, -0.1781525, 0.5876666, 0.7899293, 0.1242712, 0.02024959, -0.05107169, -0.09584682, 0.2356537, 0.9676967
 176834238, 0.09547624, 0.006905757, -0.05618194, -0.1241606, 0.4791785, 0.8695108, 0.1021495, -0.003412737, -0.04708796, -0.1781525, 0.5876666, 0.7899293
 177034158, 0.1067732, 0.01884545, -0.05587136, -0.07093076, 0.2437991, 0.9678019, 0.09547624, 0.006905757, -0.05618194, -0.1241606, 0.4791785, 0.8695108
 177234078, 0.136667, 0.008301362, -0.04791668, -0.08706488, 0.2330582, 0.9691662, 0.1067732, 0.01884545, -0.05587136, -0.07093076, 0.2437991, 0.9678019
 177433998, 0.1134674, -0.005973353, -0.04505158, -0.1173452, 0.3485005, 0.9305229, 0.136667, 0.008301362, -0.04791668, -0.08706488, 0.2330582, 0.9691662
 177633918, 0.1283832, -0.01588005, -0.03847682, -0.1228137, 0.3766147, 0.9188053, 0.1134674, -0.005973353, -0.04505158, -0.1173452, 0.3485005, 0.9305229
 177833838, 0.1223201, -0.002522448, -0.04443309, -0.1205077, 0.3441741, 0.9317289, 0.1283832, -0.01588005, -0.03847682, -0.1228137, 0.3766147, 0.9188053
 178033758, 0.1109809, -0.01797629, -0.04118136, -0.1210315, 0.2827555, 0.9520873, 0.1223201, -0.002522448, -0.04443309, -0.1205077, 0.3441741, 0.9317289
 178233678, 0.09978757, -0.003018276, -0.04580174, -0.1319415, 0.2727834, 0.9535416, 0.1109809, -0.01797629, -0.04118136, -0.1210315, 0.2827555, 0.9520873
 178433598, 0.09394389, 0.005170504, -0.04795745, -0.1459393, 0.2896143, 0.9465119, 0.09978757, -0.003018276, -0.04580174, -0.1319415, 0.2727834, 0.9535416
 178633518, 0.1257908, -0.000874538, -0.03956705, -0.1521528, 0.2893993, 0.9456397, 0.09394389, 0.005170504, -0.04795745, -0.1459393, 0.2896143, 0.9465119
 178834271, 0.1133886, -0.008071896, -0.03927741, -0.1574504, 0.2703913, 0.9503622, 0.1257908, -0.000874538, -0.03956705, -0.1521528, 0.2893993, 0.9456397
 179034191, 0.09808479, 0.01166853, -0.04646619, -0.1626708, 0.2521505, 0.9544815, 0.1133886, -0.008071896, -0.03927741, -0.1574504, 0.2703913, 0.9503622
 179234111, 0.1024841, 0.01138389, -0.04477602, -0.167974, 0.2431661, 0.9558986, 0.09808479, 0.01166853, -0.04646619, -0.1626708, 0.2521505, 0.9544815
 179434031, 0.1102836, -0.002025673, -0.03968541, -0.1705234, 0.2298417, 0.9587407, 0.1024841, 0.01138389, -0.04477602, -0.167974, 0.2431661, 0.9558986
 179633951, 0.1305674, 0.009080432, -0.03745357, -0.171249, 0.2162328, 0.9618115, 0.1102836, -0.002025673, -0.03968541, -0.1705234, 0.2298417, 0.9587407
 179833871, 0.1060689, -0.02334499, -0.03583709, -0.1749274, 0.2055442, 0.9634346, 0.1305674, 0.009080432, -0.03745357, -0.171249, 0.2162328, 0.9618115
 180033791, 0.1264719, -0.009627522, -0.0342271, -0.1739377, 0.1949949, 0.9658425, 0.1060689, -0.02334499, -0.03583709, -0.1749274, 0.2055442, 0.9634346
 180233711, 0.111556, -0.01909049, -0.03570227, -0.1753844, 0.1823778, 0.9680152, 0.1264719, -0.009627522, -0.0342271, -0.1739377, 0.1949949, 0.9658425
 180433631, 0.1282742, -0.007221132, -0.03400987, -0.1760735, 0.1727099, 0.9696946, 0.111556, -0.01909049, -0.03570227, -0.1753844, 0.1823778, 0.9680152
 180633551, 0.1166454, -0.02955103, -0.03310285, -0.1777413, 0.1603417, 0.9714833, 0.1282742, -0.007221132, -0.03400987, -0.1760735, 0.1727099, 0.9696946
 180834304, 0.1282699, 0.0067523, -0.03548557, -0.1787383, 0.1418767, 0.9742059, 0.1166454, -0.02955103, -0.03310285, -0.1777413, 0.1603417, 0.9714833
 181034224, 0.1387902, -0.02113181, -0.02973196, -0.1801844, 0.1268039, 0.9760196, 0.1282699, 0.0067523, -0.03548557, -0.1787383, 0.1418767, 0.9742059
 181234144, 0.1394022, -0.006818642, -0.03087775, -0.1824723, 0.1204185, 0.9764113, 0.1387902, -0.02113181, -0.02973196, -0.1801844, 0.1268039, 0.9760196
 181434064, 0.1249628, 0.001795577, -0.03480966, -0.183561, 0.1112126, 0.9772786, 0.1394022, -0.006818642, -0.03087775, -0.1824723, 0.1204185, 0.9764113
 181633984, 0.1155886, 0.0001734644, -0.0363097, -0.1870176, 0.09691556, 0.9781294, 0.1249628, 0.001795577, -0.03480966, -0.183561, 0.1112126, 0.9772786
 181833904, 0.1456055, -0.002261033, -0.02938929, -0.1863166, 0.08109096, 0.979751, 0.1155886, 0.0001734644, -0.0363097, -0.1870176, 0.09691556, 0.9781294
 182033824, 0.145567, -0.03025057, -0.02770109, -0.1872366, 0.07293064, 0.9802048, 0.1456055, -0.002261033, -0.02938929, -0.1863166, 0.08109096, 0.979751
 182233744, 0.1369496, 0.00754536, -0.03175174, -0.1874914, 0.07481647, 0.9800161, 0.145567, -0.03025057, -0.02770109, -0.1872366, 0.07293064, 0.9802048
 182433664, 0.131698, -0.005334541, -0.03199594, -0.1893739, 0.07053269, 0.9799554, 0.1369496, 0.00754536, -0.03175174, -0.1874914, 0.07481647, 0.9800161
 182633584, 0.1345797, -0.0166617, -0.0307904, -0.1899424, 0.06182399, 0.9804329, 0.131698, -0.005334541, -0.03199594, -0.1893739, 0.07053269, 0.9799554
 182833504, 0.1532167, -0.01348915, -0.02673263, -0.189635, 0.05471484, 0.9809508, 0.1345797, -0.0166617, -0.0307904, -0.1899424, 0.06182399, 0.9804329
 183034257, 0.1586928, -0.02766703, -0.0251921, -0.1888178, 0.04919042, 0.9814065, 0.1532167, -0.01348915, -0.02673263, -0.189635, 0.05471484, 0.9809508
 183234177, 0.15575, -0.01715472, -0.02595049, -0.1909308, 0.04586086, 0.9811567, 0.1586928, -0.02766703, -0.0251921, -0.1888178, 0.04919042, 0.9814065
 183434097, 0.1471842, -0.02102244, -0.02776176, -0.1931955, 0.03496177, 0.9811434, 0.15575, -0.01715472, -0.02595049, -0.1909308, 0.04586086, 0.9811567
 183634017, 0.1481911, -0.02258854, -0.02760297, -0.1943294, 0.02347955, 0.9812623, 0.1471842, -0.02102244, -0.02776176, -0.1931955, 0.03496177, 0.9811434
 183833937, 0.1484341, 0.007323099, -0.0275836, -0.1949559, 0.0205732, 0.981218, 0.1481911, -0.02258854, -0.02760297, -0.1943294, 0.02347955, 0.9812623
 184033857, 0.1462842, -0.007834977, -0.02848253, -0.1923927, 0.01572812, 0.9818011, 0.1484341, 0.007323099, -0.0275836, -0.1949559, 0.0205732, 0.981218
 184233777, 0.1405431, -0.01502316, -0.02973805, -0.1939704, 0.009605226, 0.9815554, 0.1462842, -0.007834977, -0.02848253, -0.1923927, 0.01572812, 0.9818011
 184433697, 0.1669825, 0.0037876, -0.02309955, -0.1948193, -0.0001401957, 0.9814956, 0.1405431, -0.01502316, -0.02973805, -0.1939704, 0.009605226, 0.9815554
 184633617, 0.1369903, -0.0100783, -0.03009821, -0.1989376, -0.009369433, 0.9805577, 0.1669825, 0.0037876, -0.02309955, -0.1948193, -0.0001401957, 0.9814956
 184833537, 0.1573431, -0.01889926, -0.02542287, -0.1989961, -0.009775478, 0.9805767, 0.1369903, -0.0100783, -0.03009821, -0.1989376, -0.009369433, 0.9805577
 185034290, 0.1786509, 0.004094033, -0.01995923, -0.1964553, -0.009912437, 0.9811449, 0.1573431, -0.01889926, -0.02542287, -0.1989961, -0.009775478, 0.9805767
 185234210, 0.1523673, 0.009626363, -0.02619272, -0.1964704, -0.008275421, 0.981104, 0.1786509, 0.004094033, -0.01995923, -0.1964553, -0.009912437, 0.9811449
 185434130, 0.1792217, 0.008593923, -0.01967611, -0.1965904, -0.009098439, 0.9811294, 0.1523673, 0.009626363, -0.02619272, -0.1964704, -0.008275421, 0.981104
 185634050, 0.1627873, -0.01188249, -0.02520158, -0.1914413, -0.01551329, 0.9820194, 0.1792217, 0.008593923, -0.01967611, -0.1965904, -0.009098439, 0.9811294
 185833970, 0.1753049, -0.015723, -0.0239259, -0.1828013, -0.01993463, 0.9836105, 0.1627873, -0.01188249, -0.02520158, -0.1914413, -0.01551329, 0.9820194
 186033890, 0.1803966, -0.01883884, -0.02466761, -0.1723379, -0.01614503, 0.9855778, 0.1753049, -0.015723, -0.0239259, -0.1828013, -0.01993463, 0.9836105
 186233810, 0.1650577, 0.009807687, -0.02838813, -0.1637942, -0.01457161, 0.9870389, 0.1803966, -0.01883884, -0.02466761, -0.1723379, -0.01614503, 0.9855778
 186433730, 0.1857768, -0.007195595, -0.02605455, -0.1561949, -0.01743699, 0.988261, 0.1650577, 0.009807687, -0.02838813, -0.1637942, -0.01457161, 0.9870389
 186633650, 0.1600316, 0.003291881, -0.03168857, -0.1508344, -0.01919171, 0.9890094, 0.1857768, -0.007195595, -0.02605455, -0.1561949, -0.01743699, 0.988261
 186833570, 0.1868556, 0.01479126, -0.0278628, -0.1407088, -0.01750125, 0.9905989, 0.1600316, 0.003291881, -0.03168857, -0.1508344, -0.01919171, 0.9890094
 187033490, 0.1837507, 0.007972702, -0.02999833, -0.1336585, -0.01511293, 0.9916028, 0.1868556, 0.01479126, -0.0278628, -0.1407088, -0.01750125, 0.9905989
 187234243, 0.177665, -0.004087732, -0.03233407, -0.1291574, -0.01935535, 0.9921045, 0.1837507, 0.007972702, -0.02999833, -0.1336585, -0.01511293, 0.9916028
 187434163, 0.1845601, 0.009827719, -0.03175231, -0.1225781, -0.02089122, 0.992932, 0.177665, -0.004087732, -0.03233407, -0.1291574, -0.01935535, 0.9921045
 187634083, 0.1992012, 0.003564437, -0.03121831, -0.1139165, -0.02414969, 0.9939219, 0.1845601, 0.009827719, -0.03175231, -0.1225781, -0.02089122, 0.992932
 187834003, 0.1832909, -0.006764838, -0.03555417, -0.106489, -0.02102925, 0.9947717, 0.1992012, 0.003564437, -0.03121831, -0.1139165, -0.02414969, 0.9939219
 188033923, 0.1880029, -0.02080142, -0.03602082, -0.1021917, -0.01304608, 0.9953641, 0.1832909, -0.006764838, -0.03555417, -0.106489, -0.02102925, 0.9947717
 188233843, 0.2097263, -0.01049138, -0.03346302, -0.09729667, -0.01051414, 0.9959273, 0.1880029, -0.02080142, -0.03602082, -0.1021917, -0.01304608, 0.9953641
 188433763, 0.2084144, 0.002183808, -0.03532376, -0.08694543, -0.0120309, 0.9968889, 0.2097263, -0.01049138, -0.03346302, -0.09729667, -0.01051414, 0.9959273
 188633683, 0.2124827, -0.01574503, -0.03685125, -0.07976259, -0.01296262, 0.9974805, 0.2084144, 0.002183808, -0.03532376, -0.08694543, -0.0120309, 0.9968889
 188833603, 0.1866052, -0.001100895, -0.040545, -0.07501693, -0.009119587, 0.9978319, 0.2124827, -0.01574503, -0.03685125, -0.07976259, -0.01296262, 0.9974805
 189033523, 0.1800203, -0.008598498, -0.04268828, -0.06845913, -0.0064376, 0.9983051, 0.1866052, -0.001100895, -0.040545, -0.07501693, -0.009119587, 0.9978319
 189234276, 0.2222872, -0.003694871, -0.03949846, -0.05977188, -0.005410464, 0.9989831, 0.1800203, -0.008598498, -0.04268828, -0.06845913, -0.0064376, 0.9983051
 189434196, 0.1880541, -0.01836069, -0.04365341, -0.05929847, -0.003004445, 0.9989225, 0.2222872, -0.003694871, -0.03949846, -0.05977188, -0.005410464, 0.9989831
 189634116, 0.1956456, 6.104854E-05, -0.04244324, -0.05922904, 0.002993675, 0.9989546, 0.1880541, -0.01836069, -0.04365341, -0.05929847, -0.003004445, 0.9989225
 189834036, 0.2068792, 0.01229668, -0.04138795, -0.05775146, 0.009656671, 0.9990361, 0.1956456, 6.104854E-05, -0.04244324, -0.05922904, 0.002993675, 0.9989546
 190033956, 0.2066339, 0.002919214, -0.04110418, -0.0598984, 0.01468165, 0.9988418, 0.2068792, 0.01229668, -0.04138795, -0.05775146, 0.009656671, 0.9990361
 190233876, 0.1930152, 0.007827432, -0.04116355, -0.06714363, 0.01205356, 0.9983827, 0.2066339, 0.002919214, -0.04110418, -0.0598984, 0.01468165, 0.9988418
 190433796, 0.1815008, -0.01111157, -0.04160906, -0.07308092, 0.008623902, 0.9979625, 0.1930152, 0.007827432, -0.04116355, -0.06714363, 0.01205356, 0.9983827
 190633716, 0.1796898, 0.01012041, -0.04003018, -0.08183742, 0.007899027, 0.9972956, 0.1815008, -0.01111157, -0.04160906, -0.07308092, 0.008623902, 0.9979625
 190833636, 0.1933806, -1.998094E-05, -0.03691559, -0.08980831, 0.008138583, 0.9966332, 0.1796898, 0.01012041, -0.04003018, -0.08183742, 0.007899027, 0.9972956
 191033556, 0.1759561, 0.01172601, -0.03804214, -0.09636417, 0.01310585, 0.9959334, 0.1933806, -1.998094E-05, -0.03691559, -0.08980831, 0.008138583, 0.9966332
 191233476, 0.1994225, -0.006677575, -0.03431655, -0.09903136, 0.01561016, 0.9956809, 0.1759561, 0.01172601, -0.03804214, -0.09636417, 0.01310585, 0.9959334
 191434229, 0.2037331, -0.004964832, -0.03318021, -0.1015641, 0.01329986, 0.995471, 0.1994225, -0.006677575, -0.03431655, -0.09903136, 0.01561016, 0.9956809
 191634149, 0.1941368, 0.01873827, -0.03318378, -0.1079457, 0.01151479, 0.9948109, 0.2037331, -0.004964832, -0.03318021, -0.1015641, 0.01329986, 0.995471
 191834069, 0.2221228, -0.003632092, -0.02880563, -0.1086774, 0.01225571, 0.9947846, 0.1941368, 0.01873827, -0.03318378, -0.1079457, 0.01151479, 0.9948109
 192033989, 0.1804592, 0.008599873, -0.03451967, -0.1129883, 0.01278465, 0.9941954, 0.2221228, -0.003632092, -0.02880563, -0.1086774, 0.01225571, 0.9947846
 192233909, 0.2034831, 0.005094176, -0.03097725, -0.112428, 0.01308674, 0.9943095, 0.1804592, 0.008599873, -0.03451967, -0.1129883, 0.01278465, 0.9941954
 192433829, 0.1860164, -0.01800078, -0.03322358, -0.1156638, 0.0199312, 0.9937686, 0.2034831, 0.005094176, -0.03097725, -0.112428, 0.01308674, 0.9943095
 192633749, 0.2030198, -0.01498812, -0.03021331, -0.1167136, 0.02222186, 0.993641, 0.1860164, -0.01800078, -0.03322358, -0.1156638, 0.0199312, 0.9937686
 192833669, 0.2140301, -0.01431058, -0.02760975, -0.1202614, 0.02267712, 0.9932378, 0.2030198, -0.01498812, -0.03021331, -0.1167136, 0.02222186, 0.993641
 193033589, 0.2224014, -0.01334243, -0.02531872, -0.1240007, 0.02387017, 0.9927745, 0.2140301, -0.01431058, -0.02760975, -0.1202614, 0.02267712, 0.9932378
 193233509, 0.1957226, 0.009223786, -0.03006106, -0.1238687, 0.02016668, 0.9928126, 0.2224014, -0.01334243, -0.02531872, -0.1240007, 0.02387017, 0.9927745
 193434262, 0.2113166, -0.01506345, -0.02690361, -0.126595, 0.01377505, 0.992605, 0.1957226, 0.009223786, -0.03006106, -0.1238687, 0.02016668, 0.9928126
 193634182, 0.2125602, 0.01639748, -0.025604, -0.1306727, 0.01431436, 0.9920906, 0.2113166, -0.01506345, -0.02690361, -0.126595, 0.01377505, 0.992605
 193834102, 0.2338205, -0.01995362, -0.02145729, -0.1322806, 0.01782703, 0.9918633, 0.2125602, 0.01639748, -0.025604, -0.1306727, 0.01431436, 0.9920906
 194034022, 0.2409257, -0.01455809, -0.01898308, -0.1369364, 0.01822258, 0.9912491, 0.2338205, -0.01995362, -0.02145729, -0.1322806, 0.01782703, 0.9918633
 194233942, 0.2191187, -0.001260328, -0.02221566, -0.1413328, 0.01887101, 0.9905586, 0.2409257, -0.01455809, -0.01898308, -0.1369364, 0.01822258, 0.9912491
 194433862, 0.2455207, -0.002561542, -0.01770318, -0.1383516, 0.01713267, 0.9910938, 0.2191187, -0.001260328, -0.02221566, -0.1413328, 0.01887101, 0.9905586
 194633782, 0.2205422, -0.01433382, -0.02148945, -0.1435737, 0.01709301, 0.9902657, 0.2455207, -0.002561542, -0.01770318, -0.1383516, 0.01713267, 0.9910938
 194833702, 0.2165028, -0.001269302, -0.02285833, -0.1407014, 0.01890821, 0.9906403, 0.2205422, -0.01433382, -0.02148945, -0.1435737, 0.01709301, 0.9902657
 195033622, 0.2467665, -0.01320835, -0.01868306, -0.1332801, 0.02076658, 0.9917182, 0.2165028, -0.001269302, -0.02285833, -0.1407014, 0.01890821, 0.9906403
 195233542, 0.2425379, 0.01463704, -0.02070273, -0.1285025, 0.02495615, 0.9922545, 0.2467665, -0.01320835, -0.01868306, -0.1332801, 0.02076658, 0.9917182
 195434295, 0.2557044, 0.007564453, -0.01941187, -0.1237712, 0.02937134, 0.9927767, 0.2425379, 0.01463704, -0.02070273, -0.1285025, 0.02495615, 0.9922545
 195634215, 0.2351611, -0.01254478, -0.0229972, -0.1237663, 0.03046371, 0.9926633, 0.2557044, 0.007564453, -0.01941187, -0.1237712, 0.02937134, 0.9927767
 195834135, 0.2374928, -0.01289058, -0.0245038, -0.1156439, 0.02926957, 0.9936858, 0.2351611, -0.01254478, -0.0229972, -0.1237663, 0.03046371, 0.9926633
 196034055, 0.2244062, -0.00108883, -0.02710655, -0.1145524, 0.02094783, 0.9939879, 0.2374928, -0.01289058, -0.0245038, -0.1156439, 0.02926957, 0.9936858
 196233975, 0.2669582, 0.01363997, -0.02220103, -0.1046714, 0.01408428, 0.9953522, 0.2244062, -0.00108883, -0.02710655, -0.1145524, 0.02094783, 0.9939879
 196433895, 0.2267314, -0.01586018, -0.02954066, -0.1024951, 0.01133797, 0.9954598, 0.2669582, 0.01363997, -0.02220103, -0.1046714, 0.01408428, 0.9953522
 196633815, 0.2727155, -0.006396122, -0.02476201, -0.09196685, 0.01663374, 0.9965789, 0.2267314, -0.01586018, -0.02954066, -0.1024951, 0.01133797, 0.9954598
 196833735, 0.2434308, -0.004652205, -0.03030261, -0.08773251, 0.01747326, 0.9968408, 0.2727155, -0.006396122, -0.02476201, -0.09196685, 0.01663374, 0.9965789
 197033655, 0.2549666, -0.01299718, -0.03037351, -0.08073622, 0.01829252, 0.9974533, 0.2434308, -0.004652205, -0.03030261, -0.08773251, 0.01747326, 0.9968408
 197233575, 0.2787066, 0.00503757, -0.02906248, -0.0728116, 0.02057466, 0.9981202, 0.2549666, -0.01299718, -0.03037351, -0.08073622, 0.01829252, 0.9974533
 197433495, 0.2655484, -0.006321565, -0.03204506, -0.06829197, 0.02574336, 0.9982622, 0.2787066, 0.00503757, -0.02906248, -0.0728116, 0.02057466, 0.9981202
 197634248, 0.3011936, 0.009762837, -0.03027298, -0.058072, 0.02843323, 0.9989961, 0.2655484, -0.006321565, -0.03204506, -0.06829197, 0.02574336, 0.9982622
 197834168, 0.3040494, -0.0135161, -0.03142793, -0.05237216, 0.02794912, 0.9993259, 0.3011936, 0.009762837, -0.03027298, -0.058072, 0.02843323, 0.9989961
 198034088, 0.2828265, -0.01821127, -0.0353574, -0.04763779, 0.02772573, 0.9994739, 0.3040494, -0.0135161, -0.03142793, -0.05237216, 0.02794912, 0.9993259
 198234008, 0.2712094, 0.007139687, -0.03768723, -0.04462712, 0.02838608, 0.9995613, 0.2828265, -0.01821127, -0.0353574, -0.04763779, 0.02772573, 0.9994739
 198433928, 0.2907176, 0.009110304, -0.03772192, -0.03675484, 0.02575861, 1.000036, 0.2712094, 0.007139687, -0.03768723, -0.04462712, 0.02838608, 0.9995613
 198633848, 0.2606044, 0.0005464425, -0.04059964, -0.03799647, 0.02592498, 0.999837, 0.2907176, 0.009110304, -0.03772192, -0.03675484, 0.02575861, 1.000036
 198833768, 0.2995238, -0.001723884, -0.03840177, -0.03098616, 0.02681923, 1.000237, 0.2606044, 0.0005464425, -0.04059964, -0.03799647, 0.02592498, 0.999837
 199033688, 0.2575589, 0.005613144, -0.04254554, -0.03112576, 0.0215695, 1.000192, 0.2995238, -0.001723884, -0.03840177, -0.03098616, 0.02681923, 1.000237
 199233608, 0.2780051, 0.004347898, -0.04507337, -0.01459295, 0.01461651, 1.000777, 0.2575589, 0.005613144, -0.04254554, -0.03112576, 0.0215695, 1.000192
 199433528, 0.294086, -0.01077786, -0.04800446, -2.72505E-05, 0.01562405, 1.000931, 0.2780051, 0.004347898, -0.04507337, -0.01459295, 0.01461651, 1.000777
 199634281, 0.3174578, -0.01752522, -0.05057828, 0.01364315, 0.01403751, 1.000972, 0.294086, -0.01077786, -0.04800446, -2.72505E-05, 0.01562405, 1.000931
 199834201, 0.2655886, -0.003155514, -0.05467268, 0.01796409, 0.0133217, 1.000693, 0.3174578, -0.01752522, -0.05057828, 0.01364315, 0.01403751, 1.000972
 200034121, 0.3166417, 0.002738637, -0.05720034, 0.03499892, 0.01426061, 1.000462, 0.2655886, -0.003155514, -0.05467268, 0.01796409, 0.0133217, 1.000693
 200234041, 0.3099152, -0.01288282, -0.05964439, 0.04165704, 0.01503428, 1.000156, 0.3166417, 0.002738637, -0.05720034, 0.03499892, 0.01426061, 1.000462
 200433961, 0.2974716, 0.001622769, -0.06175359, 0.04764906, 0.01465869, 0.9998446, 0.3099152, -0.01288282, -0.05964439, 0.04165704, 0.01503428, 1.000156
 200633881, 0.2923044, -0.01991698, -0.06415688, 0.05492301, 0.01367639, 0.9994527, 0.2974716, 0.001622769, -0.06175359, 0.04764906, 0.01465869, 0.9998446
 200833801, 0.2889399, -0.001010309, -0.06674917, 0.06413418, 0.01577829, 0.99887, 0.2923044, -0.01991698, -0.06415688, 0.05492301, 0.01367639, 0.9994527
 201033721, 0.2562473, 0.006437709, -0.06641363, 0.06238132, 0.02237554, 0.9987269, 0.2889399, -0.001010309, -0.06674917, 0.06413418, 0.01577829, 0.99887
 201233641, 0.2600476, 0.005765604, -0.06596255, 0.06064622, 0.02174597, 0.9988607, 0.2562473, 0.006437709, -0.06641363, 0.06238132, 0.02237554, 0.9987269
 201433561, 0.2571284, 0.008584176, -0.06528102, 0.05812623, 0.01740655, 0.9990857, 0.2600476, 0.005765604, -0.06596255, 0.06064622, 0.02174597, 0.9988607
 201633481, 0.2328875, 0.0006521078, -0.06329944, 0.04929902, 0.01533587, 0.9995034, 0.2571284, 0.008584176, -0.06528102, 0.05812623, 0.01740655, 0.9990857
 201834234, 0.2751861, -0.02116463, -0.06385022, 0.05292527, 0.01537422, 0.9994614, 0.2328875, 0.0006521078, -0.06329944, 0.04929902, 0.01533587, 0.9995034
 202034154, 0.2472475, -0.002365974, -0.06174473, 0.04351672, 0.02286312, 0.9996734, 0.2751861, -0.02116463, -0.06385022, 0.05292527, 0.01537422, 0.9994614
 202234074, 0.2230218, -0.01570695, -0.05978798, 0.03339896, 0.02335888, 0.9999633, 0.2472475, -0.002365974, -0.06174473, 0.04351672, 0.02286312, 0.9996734
 202433994, 0.2628233, -0.01877714, -0.05841269, 0.03212469, 0.02435358, 1.000115, 0.2230218, -0.01570695, -0.05978798, 0.03339896, 0.02335888, 0.9999633
 202633914, 0.2453497, 0.0006473309, -0.0571447, 0.02445531, 0.02592006, 1.000238, 0.2628233, -0.01877714, -0.05841269, 0.03212469, 0.02435358, 1.000115
 202833834, 0.2595831, 0.0003136471, -0.05528646, 0.01931295, 0.0288423, 1.00032, 0.2453497, 0.0006473309, -0.0571447, 0.02445531, 0.02592006, 1.000238
 203033754, 0.2432387, -0.008855679, -0.05415186, 0.01218265, 0.03122318, 1.000297, 0.2595831, 0.0003136471, -0.05528646, 0.01931295, 0.0288423, 1.00032
 203233674, 0.2454963, -0.01969104, -0.05279281, 0.007149423, 0.02725744, 1.000463, 0.2432387, -0.008855679, -0.05415186, 0.01218265, 0.03122318, 1.000297
 203433594, 0.2381483, 0.01392036, -0.05206545, 0.001544312, 0.0276806, 1.000469, 0.2454963, -0.01969104, -0.05279281, 0.007149423, 0.02725744, 1.000463
 203633514, 0.219735, -0.01499389, -0.0517063, -0.003445979, 0.03186284, 1.000265, 0.2381483, 0.01392036, -0.05206545, 0.001544312, 0.0276806, 1.000469
 203834267, 0.2067109, 0.01763221, -0.05165993, -0.009272318, 0.0358599, 1.000075, 0.219735, -0.01499389, -0.0517063, -0.003445979, 0.03186284, 1.000265
 204034187, 0.2399567, -0.01828935, -0.04857853, -0.01122582, 0.03478005, 1.000172, 0.2067109, 0.01763221, -0.05165993, -0.009272318, 0.0358599, 1.000075
 204234107, 0.2121895, -0.01504868, -0.04907291, -0.01821796, 0.02816773, 1.000193, 0.2399567, -0.01828935, -0.04857853, -0.01122582, 0.03478005, 1.000172
 204434027, 0.238791, 0.005520207, -0.04729957, -0.01826682, 0.02819472, 1.000283, 0.2121895, -0.01504868, -0.04907291, -0.01821796, 0.02816773, 1.000193
 204633947, 0.2382308, 0.01462772, -0.04717967, -0.018971, 0.02419771, 1.000378, 0.238791, 0.005520207, -0.04729957, -0.01826682, 0.02819472, 1.000283
 204833867, 0.2197449, 0.01732077, -0.04796833, -0.02146193, 0.02185146, 1.000326, 0.2382308, 0.01462772, -0.04717967, -0.018971, 0.02419771, 1.000378
 205033787, 0.2328123, -0.01094143, -0.04686955, -0.02162929, 0.02520086, 1.000267, 0.2197449, 0.01732077, -0.04796833, -0.02146193, 0.02185146, 1.000326
 205233707, 0.2250449, -0.02179618, -0.04659272, -0.02540334, 0.02452407, 1.000165, 0.2328123, -0.01094143, -0.04686955, -0.02162929, 0.02520086, 1.000267
 205433627, 0.2252176, 0.009693225, -0.04700324, -0.02396753, 0.02173122, 1.000283, 0.2250449, -0.02179618, -0.04659272, -0.02540334, 0.02452407, 1.000165
 205633547, 0.1963698, -0.003924649, -0.04786299, -0.03055698, 0.0218279, 1.000012, 0.2252176, 0.009693225, -0.04700324, -0.02396753, 0.02173122, 1.000283
 205834300, 0.2387387, -0.007995639, -0.04433633, -0.03073385, 0.01910752, 1.000183, 0.1963698, -0.003924649, -0.04786299, -0.03055698, 0.0218279, 1.000012
 206034220, 0.2149762, -0.01478011, -0.04575723, -0.0338839, 0.01503649, 1.000074, 0.2387387, -0.007995639, -0.04433633, -0.03073385, 0.01910752, 1.000183
 206234140, 0.2017465, 0.01383442, -0.04727107, -0.03096855, 0.01439979, 1.000158, 0.2149762, -0.01478011, -0.04575723, -0.0338839, 0.01503649, 1.000074
 206434060, 0.2001233, -0.009749908, -0.04743709, -0.0315715, 0.01406912, 1.000126, 0.2017465, 0.01383442, -0.04727107, -0.03096855, 0.01439979, 1.000158
 206633980, 0.2066345, -0.006989068, -0.04662466, -0.0331418, 0.008866104, 1.000153, 0.2001233, -0.009749908, -0.04743709, -0.0315715, 0.01406912, 1.000126
 206833900, 0.1999, 0.01741389, -0.04671311, -0.03405994, 0.009871758, 1.00011, 0.2066345, -0.006989068, -0.04662466, -0.0331418, 0.008866104, 1.000153
 207033820, 0.2011849, -0.01820109, -0.04706423, -0.03290248, 0.01820062, 1.000015, 0.1999, 0.01741389, -0.04671311, -0.03405994, 0.009871758, 1.00011
 207233740, 0.2268193, -0.002319462, -0.04522131, -0.03131525, 0.02374206, 1.000031, 0.2011849, -0.01820109, -0.04706423, -0.03290248, 0.01820062, 1.000015
 207433660, 0.2236836, -0.007897016, -0.04498104, -0.03353582, 0.02467248, 0.9999233, 0.2268193, -0.002319462, -0.04522131, -0.03131525, 0.02374206, 1.000031
 207633580, 0.2208789, 0.0172545, -0.04461275, -0.03667019, 0.02352763, 0.9998472, 0.2236836, -0.007897016, -0.04498104, -0.03353582, 0.02467248, 0.9999233
 207833500, 0.1984651, 0.005869122, -0.04654934, -0.03650588, 0.01967721, 0.9998673, 0.2208789, 0.0172545, -0.04461275, -0.03667019, 0.02352763, 0.9998472
 208034253, 0.2234342, -0.008962365, -0.04518412, -0.03312017, 0.01359855, 1.000148, 0.1984651, 0.005869122, -0.04654934, -0.03650588, 0.01967721, 0.9998673
 208234173, 0.1934035, -0.006517509, -0.04746159, -0.03431729, 0.01070854, 1.000061, 0.2234342, -0.008962365, -0.04518412, -0.03312017, 0.01359855, 1.000148
 208434093, 0.2120533, -0.003265369, -0.04616778, -0.03306117, 0.005387519, 1.000197, 0.1934035, -0.006517509, -0.04746159, -0.03431729, 0.01070854, 1.000061
 208634013, 0.2139018, -0.007019137, -0.04567754, -0.03481936, 0.008244653, 1.000121, 0.2120533, -0.003265369, -0.04616778, -0.03306117, 0.005387519, 1.000197
 208833933, 0.2214243, -0.005838003, -0.04605464, -0.0299192, 0.01346052, 1.000246, 0.2139018, -0.007019137, -0.04567754, -0.03481936, 0.008244653, 1.000121
 209033853, 0.2199717, 0.01752519, -0.04727304, -0.02451547, 0.01443664, 1.000371, 0.2214243, -0.005838003, -0.04605464, -0.0299192, 0.01346052, 1.000246
 209233773, 0.2249776, -0.004515498, -0.05005622, -0.01040658, 0.01695232, 1.0006, 0.2199717, 0.01752519, -0.04727304, -0.02451547, 0.01443664, 1.000371
 209433693, 0.2321798, 0.007393978, -0.05295567, 0.004467195, 0.01833668, 1.000651, 0.2249776, -0.004515498, -0.05005622, -0.01040658, 0.01695232, 1.0006
 209633613, 0.1899692, -0.005548801, -0.05627122, 0.01157668, 0.01960661, 1.000446, 0.2321798, 0.007393978, -0.05295567, 0.004467195, 0.01833668, 1.000651
 209833533, 0.2112253, 0.003199234, -0.05805913, 0.02388225, 0.02072928, 1.000268, 0.1899692, -0.005548801, -0.05627122, 0.01157668, 0.01960661, 1.000446
 210034286, 0.2051868, -0.006001482, -0.06065051, 0.03577298, 0.01943447, 0.9999192, 0.2112253, 0.003199234, -0.05805913, 0.02388225, 0.02072928, 1.000268
 210234206, 0.1879714, 0.01619678, -0.06253344, 0.04488036, 0.01961438, 0.9995186, 0.2051868, -0.006001482, -0.06065051, 0.03577298, 0.01943447, 0.9999192
 210434126, 0.2290198, 0.01133242, -0.06513879, 0.0574261, 0.01626907, 0.9990504, 0.1879714, 0.01619678, -0.06253344, 0.04488036, 0.01961438, 0.9995186
 210634046, 0.1962857, -0.0006864412, -0.06603009, 0.06255309, 0.0158523, 0.9986485, 0.2290198, 0.01133242, -0.06513879, 0.0574261, 0.01626907, 0.9990504
 210833966, 0.2106929, -0.0151148, -0.06752294, 0.06801204, 0.01014488, 0.9983985, 0.1962857, -0.0006864412, -0.06603009, 0.06255309, 0.0158523, 0.9986485
 211033886, 0.1852233, -0.01174235, -0.06711955, 0.06829242, 0.004560489, 0.9983545, 0.2106929, -0.0151148, -0.06752294, 0.06801204, 0.01014488, 0.9983985
 211233806, 0.1707758, 0.01343535, -0.06607269, 0.06642339, 0.007243279, 0.9984452, 0.1852233, -0.01174235, -0.06711955, 0.06829242, 0.004560489, 0.9983545
 211433726, 0.1839357, 0.003163807, -0.06591074, 0.06322324, 0.003594887, 0.9986963, 0.1707758, 0.01343535, -0.06607269, 0.06642339, 0.007243279, 0.9984452
 211633646, 0.1822667, -0.01833018, -0.06535738, 0.05790262, -0.001066407, 0.9990086, 0.1839357, 0.003163807, -0.06591074, 0.06322324, 0.003594887, 0.9986963
 211833566, 0.2064956, -0.01445985, -0.06422196, 0.0518377, 0.002130298, 0.9994032, 0.1822667, -0.01833018, -0.06535738, 0.05790262, -0.001066407, 0.9990086
 212033486, 0.1808235, 0.01062328, -0.06212743, 0.04316562, 0.007211858, 0.9997384, 0.2064956, -0.01445985, -0.06422196, 0.0518377, 0.002130298, 0.9994032
 212234239, 0.1910517, -0.009567473, -0.06167855, 0.03971083, 0.01085722, 0.9998616, 0.1808235, 0.01062328, -0.06212743, 0.04316562, 0.007211858, 0.9997384
 212434159, 0.158621, -0.006644913, -0.06039637, 0.03122649, 0.01576173, 1.000024, 0.1910517, -0.009567473, -0.06167855, 0.03971083, 0.01085722, 0.9998616
 212634079, 0.1873555, 0.01443209, -0.05880764, 0.02476064, 0.02065945, 1.000192, 0.158621, -0.006644913, -0.06039637, 0.03122649, 0.01576173, 1.000024
 212833999, 0.1852771, 0.005269023, -0.05729924, 0.01620485, 0.02182167, 1.00033, 0.1873555, 0.01443209, -0.05880764, 0.02476064, 0.02065945, 1.000192
 213033919, 0.1982003, -0.01660892, -0.05578341, 0.01010377, 0.01584627, 1.000543, 0.1852771, 0.005269023, -0.05729924, 0.01620485, 0.02182167, 1.00033
 213233839, 0.1693135, -0.01926223, -0.05571372, 0.00385638, 0.01785523, 1.000482, 0.1982003, -0.01660892, -0.05578341, 0.01010377, 0.01584627, 1.000543
 213433759, 0.1563426, 0.01291652, -0.05524616, -0.002501534, 0.02808381, 1.000242, 0.1693135, -0.01926223, -0.05571372, 0.00385638, 0.01785523, 1.000482
 213633679, 0.1877339, -0.005468936, -0.05331727, -0.004429383, 0.03554725, 1.000056, 0.1563426, 0.01291652, -0.05524616, -0.002501534, 0.02808381, 1.000242
 213833599, 0.1865678, -0.0009365512, -0.05237559, -0.01023843, 0.03668663, 0.9999711, 0.1877339, -0.005468936, -0.05331727, -0.004429383, 0.03554725, 1.000056
 214033519, 0.1785583, -0.008814756, -0.05158283, -0.01654473, 0.03696448, 0.9998524, 0.1865678, -0.0009365512, -0.05237559, -0.01023843, 0.03668663, 0.9999711
 214234272, 0.1942179, 0.004569786, -0.05027718, -0.01932906, 0.0335325, 0.9999682, 0.1785583, -0.008814756, -0.05158283, -0.01654473, 0.03696448, 0.9998524
 214434192, 0.1938146, -0.01775062, -0.04972083, -0.02128067, 0.02897904, 1.000057, 0.1942179, 0.004569786, -0.05027718, -0.01932906, 0.0335325, 0.9999682
 214634112, 0.1963471, 0.002896563, -0.04870171, -0.02654029, 0.02860655, 0.9999595, 0.1938146, -0.01775062, -0.04972083, -0.02128067, 0.02897904, 1.000057
 214834032, 0.1658337, -0.01546024, -0.05039719, -0.02855033, 0.02765134, 0.99985, 0.1963471, 0.002896563, -0.04870171, -0.02654029, 0.02860655, 0.9999595
 215033952, 0.1824902, 0.01590993, -0.04935232, -0.02906163, 0.0293744, 0.9998415, 0.1658337, -0.01546024, -0.05039719, -0.02855033, 0.02765134, 0.99985
 215233872, 0.1617689, 0.002705773, -0.04966245, -0.03577913, 0.0290134, 0.9995797, 0.1824902, 0.01590993, -0.04935232, -0.02906163, 0.0293744, 0.9998415
 215433792, 0.1659368, 0.003344079, -0.04735513, -0.04809552, 0.0298345, 0.9990465, 0.1617689, 0.002705773, -0.04966245, -0.03577913, 0.0290134, 0.9995797
 215633712, 0.1832327, 0.01153511, -0.04330274, -0.06203575, 0.02497866, 0.998453, 0.1659368, 0.003344079, -0.04735513, -0.04809552, 0.0298345, 0.9990465
 215833632, 0.1564391, -0.001988369, -0.04326163, -0.08034406, 0.02007809, 0.9971899, 0.1832327, 0.01153511, -0.04330274, -0.06203575, 0.02497866, 0.998453
 216033552, 0.180475, 0.009455084, -0.03793634, -0.09384104, 0.01926295, 0.9960832, 0.1564391, -0.001988369, -0.04326163, -0.08034406, 0.02007809, 0.9971899
 216234305, 0.1673992, 0.003459226, -0.03702686, -0.1104519, 0.01666033, 0.9943914, 0.180475, 0.009455084, -0.03793634, -0.09384104, 0.01926295, 0.9960832
 216434225, 0.1521825, -0.0108723, -0.03707436, -0.1263025, 0.01455029, 0.992496, 0.1673992, 0.003459226, -0.03702686, -0.1104519, 0.01666033, 0.9943914
 216634145, 0.1764927, 0.01016612, -0.03125209, -0.1357069, 0.01668832, 0.9912823, 0.1521825, -0.0108723, -0.03707436, -0.1263025, 0.01455029, 0.992496
 216834065, 0.1607118, -0.01825028, -0.0323599, -0.1473395, 0.01738204, 0.9895579, 0.1764927, 0.01016612, -0.03125209, -0.1357069, 0.01668832, 0.9912823
 217033985, 0.189547, 0.007873347, -0.02598451, -0.1514259, 0.01812142, 0.9890057, 0.1607118, -0.01825028, -0.0323599, -0.1473395, 0.01738204, 0.9895579
 217233905, 0.1642966, -0.005847343, -0.03014549, -0.1569587, 0.01214133, 0.9881687, 0.189547, 0.007873347, -0.02598451, -0.1514259, 0.01812142, 0.9890057
 217433825, 0.1534412, -0.0179921, -0.03307545, -0.1529396, 0.008295513, 0.9888107, 0.1642966, -0.005847343, -0.03014549, -0.1569587, 0.01214133, 0.9881687
 217633745, 0.1911741, -0.01952006, -0.02679981, -0.1466494, 0.01010796, 0.9898285, 0.1534412, -0.0179921, -0.03307545, -0.1529396, 0.008295513, 0.9888107
 217833665, 0.1979086, -0.001118012, -0.02608505, -0.1425637, 0.01391278, 0.9904057, 0.1911741, -0.01952006, -0.02679981, -0.1466494, 0.01010796, 0.9898285
 218033585, 0.192679, 0.00801541, -0.02786807, -0.1382295, 0.01753138, 0.9909552, 0.1979086, -0.001118012, -0.02608505, -0.1425637, 0.01391278, 0.9904057
 218233505, 0.1751491, 0.008212336, -0.03225366, -0.1315071, 0.01912156, 0.9918, 0.192679, 0.00801541, -0.02786807, -0.1382295, 0.01753138, 0.9909552
 218434258, 0.1744272, 0.001615745, -0.03359333, -0.1244783, 0.02156556, 0.9926516, 0.1751491, 0.008212336, -0.03225366, -0.1315071, 0.01912156, 0.9918
 218634178, 0.1677404, -0.008332964, -0.03583954, -0.1172443, 0.02665931, 0.993389, 0.1744272, 0.001615745, -0.03359333, -0.1244783, 0.02156556, 0.9926516
 218834098, 0.1932237, 0.003583416, -0.03373409, -0.1069255, 0.02801303, 0.9945816, 0.1677404, -0.008332964, -0.03583954, -0.1172443, 0.02665931, 0.993389
 219034018, 0.1876605, 0.005936189, -0.03603869, -0.09915064, 0.03008519, 0.9953149, 0.1932237, 0.003583416, -0.03373409, -0.1069255, 0.02801303, 0.9945816
 219233938, 0.2137563, -0.001178942, -0.03439029, -0.08836076, 0.02613199, 0.9965066, 0.1876605, 0.005936189, -0.03603869, -0.09915064, 0.03008519, 0.9953149
 219433858, 0.201539, -0.001538738, -0.03669808, -0.08562136, 0.02218848, 0.9967903, 0.2137563, -0.001178942, -0.03439029, -0.08836076, 0.02613199, 0.9965066
 219633778, 0.1922964, 0.01510348, -0.03868785, -0.08112186, 0.02052058, 0.9972075, 0.201539, -0.001538738, -0.03669808, -0.08562136, 0.02218848, 0.9967903
