TimeUS,COFN,COFE,COFD,CNe,CEe,CDe,POFN,POFE,POFD,PNe,PEe,PDe
 158154213, 0, 0, 0, 0, 0, 0, 0, 0, 0, 0, 0, 0
 158254173, 0, 0, 0, 0, 0, 0, 0, 0, 0, 0, 0, 0
 158354133, 0, 0, 0, 0, 0, 0, 0, 0, 0, 0, 0, 0
 158454093, 0, 0, 0, 0, 0, 0, 0, 0, 0, 0, 0, 0
 158554053, 0, 0, 0, 0, 0, 0, 0, 0, 0, 0, 0, 0
 158654013, 0, 0, 0, 0, 0, 0, 0, 0, 0, 0, 0, 0
 158773965, 0, 0, 0, 0, 0, 0, 0, 0, 0, 0, 0, 0
 158873925, 0, 0, 0, 0, 0, 0, 0, 0, 0, 0, 0, 0
 158973885, 0, 0, 0, 0, 0, 0, 0, 0, 0, 0, 0, 0
 159073845, 0, 0, 0, 0, 0, 0, 0, 0, 0, 0, 0, 0
 159173805, 0, 0, 0, 0, 0, 0, 0, 0, 0, 0, 0, 0
 159273765, 0, 0, 0, 0, 0, 0, 0, 0, 0, 0, 0, 0
 159373725, 0, 0, 0, 0, 0, 0, 0, 0, 0, 0, 0, 0
 159473685, 0, 0, 0, 0, 0, 0, 0, 0, 0, 0, 0, 0
 159573645, 0, 0, 0, 0, 0, 0, 0, 0, 0, 0, 0, 0
 159673605, 0, 0, 0, 0, 0, 0, 0, 0, 0, 0, 0, 0
 159773565, 0, 0, 0, 0, 0, 0, 0, 0, 0, 0, 0, 0
 159873525, 0, 0, 0, 0, 0, 0, 0, 0, 0, 0, 0, 0
 159973485, 0, 0, 0, 0, 0, 0, 0, 0, 0, 0, 0, 0
 160074278, 0, 0, 0, 0, 0, 0, 0, 0, 0, 0, 0, 0
 160174238, 0, 0, 0, 0, 0, 0, 0, 0, 0, 0, 0, 0
 160274198, 0, 0, 0, 0, 0, 0, 0, 0, 0, 0, 0, 0
 160374158, 0, 0, 0, 0, 0, 0, 0, 0, 0, 0, 0, 0
 160474118, 0, 0, 0, 0, 0, 0, 0, 0, 0, 0, 0, 0
 160574078, 0, 0, 0, 0, 0, 0, 0, 0, 0, 0, 0, 0
 160674038, 0, 0, 0, 0, 0, 0, 0, 0, 0, 0, 0, 0
 160773998, 0, 0, 0, 0, 0, 0, 0, 0, 0, 0, 0, 0
 160893950, 0, 0, 0, 0, 0, 0, 0, 0, 0, 0, 0, 0
 160993910, 0, 0, 0, 0, 0, 0, 0, 0, 0, 0, 0, 0
 161093870, 0, 0, 0, 0, 0, 0, 0, 0, 0, 0, 0, 0
 161193830, 0, 0, 0, 0, 0, 0, 0, 0, 0, 0, 0, 0
 161293790, 0, 0, 0, 0, 0, 0, 0, 0, 0, 0, 0, 0
 161393750, 0, 0, 0, 0, 0, 0, 0, 0, 0, 0, 0, 0
 161493710, 0, 0, 0, 0, 0, 0, 0, 0, 0, 0, 0, 0
 161593670, -0.2291438, 0.02323101, -0.03643742, 0.1110415, -0.004921617, 0.9938377, 0, 0, 0, 0, 0, 0
 161693630, 0.2409654, -0.02854348, -0.05690466, 0.2555265, -0.01876926, 0.9778, -0.2291438, 0.02323101, -0.03643742, 0.1110415, -0.004921617, 0.9938377
 161793590, 0.09770793, -0.009526975, -0.04138066, 0.1473882, -0.004811314, 0.9896624, 0.2409654, -0.02854348, -0.05690466, 0.2555265, -0.01876926, 0.9778
 161893550, 0.05644155, -0.004116294, -0.06699023, 0.1341084, -0.002646844, 0.9911415, 0.09770793, -0.009526975, -0.04138066, 0.1473882, -0.004811314, 0.9896624
 161993510, 0.03843162, -0.004466866, -0.0650051, 0.130954, -0.003164375, 0.9914752, 0.05644155, -0.004116294, -0.06699023, 0.1341084, -0.002646844, 0.9911415
 162094303, 0.01730264, -0.0005832301, -0.06253804, 0.1287032, -0.003588072, 0.9917199, 0.03843162, -0.004466866, -0.0650051, 0.130954, -0.003164375, 0.9914752
 162194263, 0.005377462, -0.001496233, -0.06114984, 0.1303725, -0.004886752, 0.9914824, 0.01730264, -0.0005832301, -0.06253804, 0.1287032, -0.003588072, 0.9917199
 162294223, -0.007429446, 0.001283868, -0.06456872, 0.1311934, -0.006555935, 0.9913584, 0.005377462, -0.001496233, -0.06114984, 0.1303725, -0.004886752, 0.9914824
 162394183, -0.0214124, -0.0002093536, -0.05771656, 0.1338775, -0.009362471, 0.9909713, -0.007429446, 0.001283868, -0.06456872, 0.1311934, -0.006555935, 0.9913584
 162494143, -0.04723191, 0.002904163, -0.05412591, 0.1363421, -0.009516567, 0.9906307, -0.0214124, -0.0002093536, -0.05771656, 0.1338775, -0.009362471, 0.9909713
 162594103, -0.06277721, 0.004249952, -0.04178149, 0.1385406, -0.006247822, 0.9903526, -0.04723191, 0.002904163, -0.05412591, 0.1363421, -0.009516567, 0.9906307
 162694063, -0.09067063, 0.004679041, -0.04797765, 0.1391006, -0.003527191, 0.9902877, -0.06277721, 0.004249952, -0.04178149, 0.1385406, -0.006247822, 0.9903526
 162794023, -0.1183091, 0.008768108, -0.04395425, 0.1411541, -0.002033181, 0.9900047, -0.09067063, 0.004679041, -0.04797765, 0.1391006, -0.003527191, 0.9902877
 162913975, -0.1510182, 0.02077241, -0.03911196, 0.1435039, -0.003356532, 0.9896742, -0.1183091, 0.008768108, -0.04395425, 0.1411541, -0.002033181, 0.9900047
 163013935, -0.1966985, 0.02379834, -0.05777209, 0.146305, -0.006651645, 0.9892598, -0.1510182, 0.02077241, -0.03911196, 0.1435039, -0.003356532, 0.9896742
 163113895, -0.2944452, 0.03370722, -0.05342547, 0.1571861, -0.009226228, 0.9876707, -0.1966985, 0.02379834, -0.05777209, 0.146305, -0.006651645, 0.9892598
 163213855, -0.3664918, 0.03550264, -0.03749103, 0.1686699, -0.01032322, 0.9859703, -0.2944452, 0.03370722, -0.05342547, 0.1571861, -0.009226228, 0.9876707
 163313815, -0.4010158, 0.04185545, -0.002109792, 0.174501, -0.01202394, 0.9851141, -0.3664918, 0.03550264, -0.03749103, 0.1686699, -0.01032322, 0.9859703
 163413775, -0.6282253, 0.07270246, 0.03745304, 0.2257431, -0.02010905, 0.9774485, -0.4010158, 0.04185545, -0.002109792, 0.174501, -0.01202394, 0.9851141
 163513735, -0.9652241, 0.1084741, 0.08446929, 0.3334288, -0.03293739, 0.9610603, -0.6282253, 0.07270246, 0.03745304, 0.2257431, -0.02010905, 0.9774485
 163613695, -1.071977, 0.128754, 0.1013196, 0.3703234, -0.03506925, 0.9554044, -0.9652241, 0.1084741, 0.08446929, 0.3334288, -0.03293739, 0.9610603
 163713655, -2.134994, 0.2537553, 0.2303612, 0.9001102, -0.09752919, 0.8758067, -1.071977, 0.128754, 0.1013196, 0.3703234, -0.03506925, 0.9554044
 163813615, -31.82032, 3.740408, 4.779792, 28.65806, -3.368878, -3.343552, -2.134994, 0.2537553, 0.2303612, 0.9001102, -0.09752919, 0.8758067
 163913575, 1.866518, -0.2233939, -0.3779811, 2.427865, -0.2803705, 0.6386043, -31.82032, 3.740408, 4.779792, 28.65806, -3.368878, -3.343552
 164013535, 2.16388, -0.2598577, -0.3961467, 3.473999, -0.404264, 0.4735796, 1.866518, -0.2233939, -0.3779811, 2.427865, -0.2803705, 0.6386043
 164113495, 1.324871, -0.1520672, -0.2662084, 0.9734825, -0.1090042, 0.8608825, 2.16388, -0.2598577, -0.3961467, 3.473999, -0.404264, 0.4735796
 164214288, 0.9719051, -0.1165893, -0.2049531, 0.5477486, -0.05780949, 0.9275967, 1.324871, -0.1520672, -0.2662084, 0.9734825, -0.1090042, 0.8608825
 164314248, 0.931311, -0.1073874, -0.203047, 0.5003665, -0.05062164, 0.9351311, 0.9719051, -0.1165893, -0.2049531, 0.5477486, -0.05780949, 0.9275967
 164414208, 0.6693266, -0.07366645, -0.1947417, 0.3334477, -0.02932946, 0.9602847, 0.931311, -0.1073874, -0.203047, 0.5003665, -0.05062164, 0.9351311
 164514168, 0.6856801, -0.0757589, -0.1665522, 0.3331401, -0.02922046, 0.9604336, 0.6693266, -0.07366645, -0.1947417, 0.3334477, -0.02932946, 0.9602847
 164614128, 0.6814382, -0.08365311, -0.1610211, 0.326177, -0.02770138, 0.9615106, 0.6856801, -0.0757589, -0.1665522, 0.3331401, -0.02922046, 0.9604336
 164714088, 0.5321954, -0.07302091, -0.1422266, 0.2621547, -0.01911461, 0.9716002, 0.6814382, -0.08365311, -0.1610211, 0.326177, -0.02770138, 0.9615106
 164814048, 0.5403286, -0.06835969, -0.1409828, 0.2578536, -0.01790019, 0.9727432, 0.5321954, -0.07302091, -0.1422266, 0.2621547, -0.01911461, 0.9716002
 164914008, 0.5515232, -0.07639337, -0.1411324, 0.2563285, -0.0180517, 0.9732932, 0.5403286, -0.06835969, -0.1409828, 0.2578536, -0.01790019, 0.9727432
 165033960, 0.4959972, -0.0532535, -0.1306435, 0.2321822, -0.01374124, 0.9772077, 0.5515232, -0.07639337, -0.1411324, 0.2563285, -0.0180517, 0.9732932
 165133920, 0.4621946, -0.06645603, -0.1245873, 0.2186493, -0.01289267, 0.9793818, 0.4959972, -0.0532535, -0.1306435, 0.2321822, -0.01374124, 0.9772077
 165233880, 0.4304178, -0.05025583, -0.1174488, 0.2033423, -0.01256429, 0.9819062, 0.4621946, -0.06645603, -0.1245873, 0.2186493, -0.01289267, 0.9793818
 165333840, 0.4411006, -0.05880577, -0.1168718, 0.2002842, -0.01275267, 0.9826502, 0.4304178, -0.05025583, -0.1174488, 0.2033423, -0.01256429, 0.9819062
 165433800, 0.4531006, -0.04942872, -0.1166511, 0.1984897, -0.01232324, 0.9831377, 0.4411006, -0.05880577, -0.1168718, 0.2002842, -0.01275267, 0.9826502
 165533760, 0.4424028, -0.05551355, -0.1141197, 0.1923794, -0.01105398, 0.9841088, 0.4531006, -0.04942872, -0.1166511, 0.1984897, -0.01232324, 0.9831377
 165633720, 0.3861859, -0.04068409, -0.110412, 0.1756178, -0.006320281, 0.9864159, 0.4424028, -0.05551355, -0.1141197, 0.1923794, -0.01105398, 0.9841088
 165733680, 0.448945, -0.05717935, -0.08097092, 0.183627, -0.007721744, 0.9857364, 0.3861859, -0.04068409, -0.110412, 0.1756178, -0.006320281, 0.9864159
 165833640, 0.3805156, -0.03982574, -0.09734574, 0.1672169, -0.006295162, 0.9877321, 0.448945, -0.05717935, -0.08097092, 0.183627, -0.007721744, 0.9857364
 165933600, 0.4460198, -0.03811529, -0.1026093, 0.1752516, -0.007030696, 0.9871268, 0.3805156, -0.03982574, -0.09734574, 0.1672169, -0.006295162, 0.9877321
 166033560, 0.4369699, -0.0630248, -0.06977738, 0.1681089, -0.006448734, 0.988184, 0.4460198, -0.03811529, -0.1026093, 0.1752516, -0.007030696, 0.9871268
 166133520, 0.364005, -0.05937155, -0.09157814, 0.1521516, -0.005116594, 0.989952, 0.4369699, -0.0630248, -0.06977738, 0.1681089, -0.006448734, 0.988184
 166233480, 0.3799252, -0.03963822, -0.06686345, 0.1517499, -0.002696522, 0.9901224, 0.364005, -0.05937155, -0.09157814, 0.1521516, -0.005116594, 0.989952
 166334273, 0.3623263, -0.03103251, -0.09399121, 0.145634, -0.001550457, 0.9908885, 0.3799252, -0.03963822, -0.06686345, 0.1517499, -0.002696522, 0.9901224
 166434233, 0.3860328, -0.04238368, -0.09473614, 0.1453266, -0.002306353, 0.9911365, 0.3623263, -0.03103251, -0.09399121, 0.145634, -0.001550457, 0.9908885
 166534193, 0.3608685, -0.05074891, -0.09143509, 0.1379301, -0.001878668, 0.9919614, 0.3860328, -0.04238368, -0.09473614, 0.1453266, -0.002306353, 0.9911365
 166634153, 0.3496351, -0.05863879, -0.0943042, 0.1321027, -0.004321758, 0.9926542, 0.3608685, -0.05074891, -0.09143509, 0.1379301, -0.001878668, 0.9919614
 166734113, 0.3586822, -0.04864798, -0.05821756, 0.1268308, -0.01559714, 0.9932636, 0.3496351, -0.05863879, -0.0943042, 0.1321027, -0.004321758, 0.9926542
 166834073, 0.3661613, -0.02784428, -0.08597222, 0.1200827, -0.03245976, 0.9937519, 0.3586822, -0.04864798, -0.05821756, 0.1268308, -0.01559714, 0.9932636
 166934033, 0.3591673, -0.0348743, -0.05319018, 0.1102751, -0.04628846, 0.9942662, 0.3661613, -0.02784428, -0.08597222, 0.1200827, -0.03245976, 0.9937519
 167033993, 0.3633315, -0.05490796, -0.05243503, 0.1042339, -0.05211498, 0.994661, 0.3591673, -0.0348743, -0.05319018, 0.1102751, -0.04628846, 0.9942662
 167153945, 0.3635703, -0.04384632, -0.05016366, 0.100092, -0.04854779, 0.995259, 0.3633315, -0.05490796, -0.05243503, 0.1042339, -0.05211498, 0.994661
 167253905, 0.3490189, -0.05008557, -0.04833214, 0.09512164, -0.03914428, 0.9960575, 0.3635703, -0.04384632, -0.05016366, 0.100092, -0.04854779, 0.995259
 167353865, 0.3612586, -0.06104014, -0.04784402, 0.09406045, -0.02981297, 0.9965659, 0.3490189, -0.05008557, -0.04833214, 0.09512164, -0.03914428, 0.9960575
 167453825, 0.3719555, -0.04585651, -0.04613023, 0.09203259, -0.0225981, 0.9970132, 0.3612586, -0.06104014, -0.04784402, 0.09406045, -0.02981297, 0.9965659
 167553785, 0.3348987, -0.05257003, -0.04317668, 0.08214231, -0.01984437, 0.9976863, 0.3719555, -0.04585651, -0.04613023, 0.09203259, -0.0225981, 0.9970132
 167653745, 0.3721801, -0.03224401, -0.01182925, 0.08139743, -0.02135987, 0.9979488, 0.3348987, -0.05257003, -0.04317668, 0.08214231, -0.01984437, 0.9976863
 167753705, 0.3801195, -0.05280003, -0.04130838, 0.07843092, -0.02488983, 0.998171, 0.3721801, -0.03224401, -0.01182925, 0.08139743, -0.02135987, 0.9979488
 167853665, 0.3563615, -0.03977958, -0.03865877, 0.07043865, -0.02516102, 0.9985888, 0.3801195, -0.05280003, -0.04130838, 0.07843092, -0.02488983, 0.998171
 167953625, 0.3309976, -0.02805757, -0.00642259, 0.0632572, -0.02383238, 0.9989433, 0.3563615, -0.03977958, -0.03865877, 0.07043865, -0.02516102, 0.9985888
 168053585, 0.3783162, -0.05615072, -0.03175891, 0.06595174, -0.02302865, 0.9990967, 0.3309976, -0.02805757, -0.00642259, 0.0632572, -0.02383238, 0.9989433
 168153545, 0.3664813, -0.03303834, -0.004461932, 0.06074471, -0.01938163, 0.9994136, 0.3783162, -0.05615072, -0.03175891, 0.06595174, -0.02302865, 0.9990967
 168253505, 0.3611931, -0.02776436, -0.002666806, 0.05590763, -0.01556059, 0.9997273, 0.3664813, -0.03303834, -0.004461932, 0.06074471, -0.01938163, 0.9994136
 168354298, 0.3549322, -0.04075567, -0.001116727, 0.05008848, -0.01327033, 1.00003, 0.3611931, -0.02776436, -0.002666806, 0.05590763, -0.01556059, 0.9997273
 168454258, 0.3475142, -0.02435095, 0.001230434, 0.04355956, -0.01200042, 1.000306, 0.3549322, -0.04075567, -0.001116727, 0.05008848, -0.01327033, 1.00003
 168554218, 0.3436454, -0.0559712, -0.028119, 0.03878648, -0.01287911, 1.00047, 0.3475142, -0.02435095, 0.001230434, 0.04355956, -0.01200042, 1.000306
 168654178, 0.3732342, -0.02829783, 0.0043343, 0.03858037, -0.01234181, 1.000669, 0.3436454, -0.0559712, -0.028119, 0.03878648, -0.01287911, 1.00047
 168754138, 0.3167241, -0.0157562, 0.004692287, 0.02910525, -0.00985064, 1.000688, 0.3732342, -0.02829783, 0.0043343, 0.03858037, -0.01234181, 1.000669
 168854098, 0.3366492, -0.04097756, 0.005248233, 0.02922015, -0.009046874, 1.000797, 0.3167241, -0.0157562, 0.004692287, 0.02910525, -0.00985064, 1.000688
 168954058, 0.3667517, -0.0209992, 0.008066111, 0.02800483, -0.007819129, 1.001023, 0.3366492, -0.04097756, 0.005248233, 0.02922015, -0.009046874, 1.000797
 169054018, 0.3163113, -0.02387997, 0.008312411, 0.01722538, -0.00639501, 1.000988, 0.3667517, -0.0209992, 0.008066111, 0.02800483, -0.007819129, 1.001023
 169173970, 0.3418619, -0.04585297, 0.01085777, 0.01390611, -0.005399534, 1.001183, 0.3163113, -0.02387997, 0.008312411, 0.01722538, -0.00639501, 1.000988
 169273930, 0.3119491, -0.02225183, 0.01183227, 0.005406603, -0.002962926, 1.001116, 0.3418619, -0.04585297, 0.01085777, 0.01390611, -0.005399534, 1.001183
 169373890, 0.3071776, -0.02876075, 0.01244595, 0.001961164, -0.002685037, 1.001106, 0.3119491, -0.02225183, 0.01183227, 0.005406603, -0.002962926, 1.001116
 169473850, 0.3138081, -0.02810906, 0.01336943, 0.0005643703, -0.003957694, 1.001136, 0.3071776, -0.02876075, 0.01244595, 0.001961164, -0.002685037, 1.001106
 169573810, 0.3423307, -0.04158937, 0.01497638, 0.002125103, -0.00582573, 1.001278, 0.3138081, -0.02810906, 0.01336943, 0.0005643703, -0.003957694, 1.001136
 169673770, 0.3494989, -0.02832781, 0.01617606, 0.001165684, -0.006085189, 1.00132, 0.3423307, -0.04158937, 0.01497638, 0.002125103, -0.00582573, 1.001278
 169773730, 0.3030104, -0.01190468, 0.0145508, -0.005264156, -0.004971946, 1.001068, 0.3494989, -0.02832781, 0.01617606, 0.001165684, -0.006085189, 1.00132
 169873690, 0.3306627, -0.03371057, 0.01603333, -0.003573112, -0.004430261, 1.001216, 0.3030104, -0.01190468, 0.0145508, -0.005264156, -0.004971946, 1.001068
 169973650, 0.3212076, -0.03551093, 0.01688134, -0.008744713, -0.003005661, 1.001139, 0.3306627, -0.03371057, 0.01603333, -0.003573112, -0.004430261, 1.001216
 170073610, 0.3574562, -0.02873967, 0.02022628, -0.007754147, -0.00177555, 1.001357, 0.3212076, -0.03551093, 0.01688134, -0.008744713, -0.003005661, 1.001139
 170173570, 0.3136636, -0.02635773, 0.01852167, -0.0156549, -0.001888406, 1.00102, 0.3574562, -0.02873967, 0.02022628, -0.007754147, -0.00177555, 1.001357
 170273530, 0.3258876, -0.031728, 0.02003859, -0.01688863, -0.002423676, 1.001062, 0.3136636, -0.02635773, 0.01852167, -0.0156549, -0.001888406, 1.00102
 170373490, 0.303787, -0.02514789, 0.02001516, -0.02339927, 0.0001491606, 1.000823, 0.3258876, -0.031728, 0.02003859, -0.01688863, -0.002423676, 1.001062
 170474283, 0.3364307, -0.05157502, 0.02305189, -0.02260602, 0.002592441, 1.001008, 0.303787, -0.02514789, 0.02001516, -0.02339927, 0.0001491606, 1.000823
 170574243, 0.3560708, -0.04696282, 0.02532808, -0.02232819, 0.004161533, 1.001125, 0.3364307, -0.05157502, 0.02305189, -0.02260602, 0.002592441, 1.001008
 170674203, 0.3185414, -0.0501622, 0.0232529, -0.02889831, 0.005150316, 1.000739, 0.3560708, -0.04696282, 0.02532808, -0.02232819, 0.004161533, 1.001125
 170774163, 0.3101608, -0.04102081, 0.02299624, -0.0306869, 0.006465539, 1.000636, 0.3185414, -0.0501622, 0.0232529, -0.02889831, 0.005150316, 1.000739
 170874123, 0.3375139, -0.03006759, 0.02499218, -0.02707546, 0.006589575, 1.000884, 0.3101608, -0.04102081, 0.02299624, -0.0306869, 0.006465539, 1.000636
 170974083, 0.3196584, -0.03945432, 0.02406238, -0.03085818, 0.005108788, 1.000686, 0.3375139, -0.03006759, 0.02499218, -0.02707546, 0.006589575, 1.000884
 171074043, 0.3537412, -0.04356062, 0.02739551, -0.02885292, 0.004399253, 1.000943, 0.3196584, -0.03945432, 0.02406238, -0.03085818, 0.005108788, 1.000686
 171174003, 0.3333709, -0.01453433, 0.02658697, -0.03301589, 0.005390905, 1.000692, 0.3537412, -0.04356062, 0.02739551, -0.02885292, 0.004399253, 1.000943
 171293955, 0.3596825, -0.04438742, 0.02877112, -0.03053477, 0.005013271, 1.000928, 0.3333709, -0.01453433, 0.02658697, -0.03301589, 0.005390905, 1.000692
 171393915, 0.3184998, -0.02093934, 0.02618116, -0.03731517, 0.006711373, 1.000453, 0.3596825, -0.04438742, 0.02877112, -0.03053477, 0.005013271, 1.000928
 171493875, 0.3143518, -0.04856441, 0.02653338, -0.0403177, 0.008052491, 1.000304, 0.3184998, -0.02093934, 0.02618116, -0.03731517, 0.006711373, 1.000453
 171593835, 0.3365735, -0.03576156, 0.02922848, -0.03987508, 0.008099163, 1.000441, 0.3143518, -0.04856441, 0.02653338, -0.0403177, 0.008052491, 1.000304
 171693795, 0.3715256, -0.01622351, 0.03268659, -0.03632135, 0.007164624, 1.0008, 0.3365735, -0.03576156, 0.02922848, -0.03987508, 0.008099163, 1.000441
 171793755, 0.3170404, -0.04439421, 0.02797573, -0.04385508, 0.007699446, 1.000172, 0.3715256, -0.01622351, 0.03268659, -0.03632135, 0.007164624, 1.0008
 171893715, 0.3486909, -0.02240015, 0.03140523, -0.04131745, 0.009092879, 1.000445, 0.3170404, -0.04439421, 0.02797573, -0.04385508, 0.007699446, 1.000172
 171993675, 0.3193147, -0.03762295, 0.06383029, -0.0442631, 0.01061449, 1.000152, 0.3486909, -0.02240015, 0.03140523, -0.04131745, 0.009092879, 1.000445
 172093635, 0.3110772, -0.01786155, 0.05839379, -0.04611168, 0.01204847, 1.000008, 0.3193147, -0.03762295, 0.06383029, -0.0442631, 0.01061449, 1.000152
 172193595, 0.3664241, -0.0291309, 0.06358388, -0.03961442, 0.01063174, 1.00063, 0.3110772, -0.01786155, 0.05839379, -0.04611168, 0.01204847, 1.000008
 172293555, 0.3421549, -0.02045475, 0.03151024, -0.04396241, 0.009790856, 1.000285, 0.3664241, -0.0291309, 0.06358388, -0.03961442, 0.01063174, 1.00063
 172393515, 0.3553284, -0.02981079, 0.03282117, -0.04267232, 0.008410696, 1.000434, 0.3421549, -0.02045475, 0.03151024, -0.04396241, 0.009790856, 1.000285
 172493475, 0.3185489, -0.04611006, 0.05950933, -0.04712986, 0.007725947, 1.000038, 0.3553284, -0.02981079, 0.03282117, -0.04267232, 0.008410696, 1.000434
 172594268, 0.339272, -0.02171211, 0.06155711, -0.04439741, 0.01026181, 1.00026, 0.3185489, -0.04611006, 0.05950933, -0.04712986, 0.007725947, 1.000038
 172694228, 0.3530168, -0.04466918, 0.03256847, -0.04249604, 0.01136324, 1.000399, 0.339272, -0.02171211, 0.06155711, -0.04439741, 0.01026181, 1.00026
 172794188, 0.357041, -0.04163358, 0.03356246, -0.04357664, 0.01240704, 1.000366, 0.3530168, -0.04466918, 0.03256847, -0.04249604, 0.01136324, 1.000399
 172894148, 0.343731, -0.01818856, 0.06310619, -0.04688259, 0.01251706, 1.000149, 0.357041, -0.04163358, 0.03356246, -0.04357664, 0.01240704, 1.000366
 172994108, 0.3171308, -0.0446782, 0.03084422, -0.05201375, 0.01162993, 0.9997323, 0.343731, -0.01818856, 0.06310619, -0.04688259, 0.01251706, 1.000149
 173094068, 0.3218925, -0.03073245, 0.03145369, -0.05190308, 0.01107545, 0.9997706, 0.3171308, -0.0446782, 0.03084422, -0.05201375, 0.01162993, 0.9997323
 173194028, 0.3177683, -0.04442025, 0.06645478, -0.0527327, 0.0109334, 0.999724, 0.3218925, -0.03073245, 0.03145369, -0.05190308, 0.01107545, 0.9997706
 173313980, 0.3414744, -0.03425026, 0.06411478, -0.05056049, 0.01171872, 0.9999668, 0.3177683, -0.04442025, 0.06645478, -0.0527327, 0.0109334, 0.999724
 173413940, 0.3549643, -0.0198295, 0.06038198, -0.04858932, 0.0131828, 1.000132, 0.3414744, -0.03425026, 0.06411478, -0.05056049, 0.01171872, 0.9999668
 173513900, 0.3139522, -0.03290508, 0.03099172, -0.05356672, 0.01369742, 0.9996036, 0.3549643, -0.0198295, 0.06038198, -0.04858932, 0.0131828, 1.000132
 173613860, 0.3554237, -0.02560377, 0.06520419, -0.04768919, 0.01277434, 1.000188, 0.3139522, -0.03290508, 0.03099172, -0.05356672, 0.01369742, 0.9996036
 173713820, 0.3559611, -0.05060497, 0.03492333, -0.04730206, 0.01240914, 1.000198, 0.3554237, -0.02560377, 0.06520419, -0.04768919, 0.01277434, 1.000188
 173813780, 0.3341763, -0.01239085, 0.06265118, -0.0491758, 0.01442224, 0.9999554, 0.3559611, -0.05060497, 0.03492333, -0.04730206, 0.01240914, 1.000198
 173913740, 0.3214665, -0.03211455, 0.06146328, -0.05081447, 0.01426679, 0.999797, 0.3341763, -0.01239085, 0.06265118, -0.0491758, 0.01442224, 0.9999554
 174013700, 0.3811346, -0.03643762, 0.03744961, -0.04367989, 0.01330066, 1.000541, 0.3214665, -0.03211455, 0.06146328, -0.05081447, 0.01426679, 0.999797
 174113660, 0.336964, -0.03988695, 0.05858507, -0.05053786, 0.01388755, 0.9999106, 0.3811346, -0.03643762, 0.03744961, -0.04367989, 0.01330066, 1.000541
 174213620, 0.3499389, -0.03192145, 0.06461604, -0.04791561, 0.01425944, 1.000125, 0.336964, -0.03988695, 0.05858507, -0.05053786, 0.01388755, 0.9999106
 174313580, 0.3373745, -0.04022349, 0.06308815, -0.04870258, 0.01418711, 1.000003, 0.3499389, -0.03192145, 0.06461604, -0.04791561, 0.01425944, 1.000125
 174413540, 0.3771603, -0.02871896, 0.03673295, -0.04319907, 0.01493002, 1.000512, 0.3373745, -0.04022349, 0.06308815, -0.04870258, 0.01418711, 1.000003
 174513500, 0.3650885, -0.02374042, 0.03577251, -0.04546241, 0.01706654, 1.000285, 0.3771603, -0.02871896, 0.03673295, -0.04319907, 0.01493002, 1.000512
 174614293, 0.3758316, -0.03741381, 0.03712605, -0.03961503, 0.01733834, 0.953027, 0.3650885, -0.02374042, 0.03577251, -0.04546241, 0.01706654, 1.000285
 174714253, 0.3232127, -0.02268739, 0.03232144, -0.05316919, 0.01805452, 0.9996074, 0.3758316, -0.03741381, 0.03712605, -0.03961503, 0.01733834, 0.953027
 174814213, 0.3224467, -0.04386688, 0.03229862, -0.05300765, 0.01740388, 0.9996228, 0.3232127, -0.02268739, 0.03232144, -0.05316919, 0.01805452, 0.9996074
 174914173, 0.3236837, -0.02241411, 0.06273586, -0.05326939, 0.01878964, 0.9996102, 0.3224467, -0.04386688, 0.03229862, -0.05300765, 0.01740388, 0.9996228
 175014133, 0.3771831, -0.04966594, 0.03833181, -0.04627197, 0.01870712, 1.000324, 0.3236837, -0.02241411, 0.06273586, -0.05326939, 0.01878964, 0.9996102
 175114093, 0.3247758, -0.03361325, 0.0632317, -0.0539388, 0.01897937, 0.9995779, 0.3771831, -0.04966594, 0.03833181, -0.04627197, 0.01870712, 1.000324
 175214053, 0.3697754, -0.03044746, 0.03739034, -0.04745361, 0.01723561, 1.000235, 0.3247758, -0.03361325, 0.0632317, -0.0539388, 0.01897937, 0.9995779
 175314013, 0.3537092, -0.03691639, 0.03579856, -0.04985598, 0.0160871, 1.000018, 0.3697754, -0.03044746, 0.03739034, -0.04745361, 0.01723561, 1.000235
 175433965, 0.3661654, -0.03426676, 0.06717925, -0.04736172, 0.01710266, 1.000241, 0.3537092, -0.03691639, 0.03579856, -0.04985598, 0.0160871, 1.000018
 175533925, 0.3611495, -0.0154273, 0.03600104, -0.04746745, 0.01825807, 1.000153, 0.3661654, -0.03426676, 0.06717925, -0.04736172, 0.01710266, 1.000241
 175633885, 0.3771389, -0.04970693, 0.03725501, -0.04343458, 0.01682127, 1.000494, 0.3611495, -0.0154273, 0.03600104, -0.04746745, 0.01825807, 1.000153
 175733845, 0.3885745, -0.03380929, 0.06335296, -0.04118575, 0.01666987, 1.00071, 0.3771389, -0.04970693, 0.03725501, -0.04343458, 0.01682127, 1.000494
 175833805, 0.3890471, -0.02462418, 0.03845579, -0.04209577, 0.01689091, 1.000651, 0.3885745, -0.03380929, 0.06335296, -0.04118575, 0.01666987, 1.00071
 175933765, 0.331748, -0.04377828, 0.06323873, -0.05068914, 0.01672344, 0.9998375, 0.3890471, -0.02462418, 0.03845579, -0.04209577, 0.01689091, 1.000651
 176033725, 0.3508673, -0.01573465, 0.03489899, -0.04857613, 0.01786924, 1.000036, 0.331748, -0.04377828, 0.06323873, -0.05068914, 0.01672344, 0.9998375
 176133685, 0.3880002, -0.04242437, 0.0681404, -0.04034616, 0.01610961, 1.000764, 0.3508673, -0.01573465, 0.03489899, -0.04857613, 0.01786924, 1.000036
 176233645, 0.3834266, -0.01652712, 0.03698447, -0.04055978, 0.01726115, 1.000666, 0.3880002, -0.04242437, 0.0681404, -0.04034616, 0.01610961, 1.000764
 176333605, 0.3463897, -0.04277911, 0.05813319, -0.04408458, 0.01720801, 1.000244, 0.3834266, -0.01652712, 0.03698447, -0.04055978, 0.01726115, 1.000666
 176433565, 0.3716826, -0.02149489, 0.06547375, -0.04032489, 0.01827961, 1.000585, 0.3463897, -0.04277911, 0.05813319, -0.04408458, 0.01720801, 1.000244
 176533525, 0.3502435, -0.02742563, 0.03362199, -0.0448298, 0.01745558, 1.000217, 0.3716826, -0.02149489, 0.06547375, -0.04032489, 0.01827961, 1.000585
 176633485, 0.3609072, -0.02317106, 0.03408811, -0.04196395, 0.01466384, 1.000468, 0.3502435, -0.02742563, 0.03362199, -0.0448298, 0.01745558, 1.000217
 176734278, 0.4048121, -0.03638562, 0.06846015, -0.03457926, 0.01180965, 1.001212, 0.3609072, -0.02317106, 0.03408811, -0.04196395, 0.01466384, 1.000468
 176834238, 0.3629312, -0.02422778, 0.03471713, -0.04294094, 0.01192464, 1.000482, 0.4048121, -0.03638562, 0.06846015, -0.03457926, 0.01180965, 1.001212
 176934198, 0.3895737, -0.04032292, 0.03775543, -0.03972415, 0.0115442, 1.000855, 0.3629312, -0.02422778, 0.03471713, -0.04294094, 0.01192464, 1.000482
 177034158, 0.4108236, -0.03456218, 0.03995399, -0.03649308, 0.01110004, 1.001192, 0.3895737, -0.04032292, 0.03775543, -0.03972415, 0.0115442, 1.000855
 177134118, 0.3587967, -0.04666338, 0.03509901, -0.04548808, 0.01122493, 1.000352, 0.4108236, -0.03456218, 0.03995399, -0.03649308, 0.01110004, 1.001192
 177234078, 0.3718407, -0.0329891, 0.06663167, -0.04319003, 0.01261899, 1.00057, 0.3587967, -0.04666338, 0.03509901, -0.04548808, 0.01122493, 1.000352
 177334038, 0.3608554, -0.02778949, 0.03564542, -0.04597634, 0.01378966, 1.000314, 0.3718407, -0.0329891, 0.06663167, -0.04319003, 0.01261899, 1.00057
 177433998, 0.4030466, -0.04698261, 0.06954205, -0.03724697, 0.01251743, 1.001115, 0.3608554, -0.02778949, 0.03564542, -0.04597634, 0.01378966, 1.000314
 177553950, 0.3980093, -0.035687, 0.03867983, -0.03813555, 0.01316694, 1.000991, 0.4030466, -0.04698261, 0.06954205, -0.03724697, 0.01251743, 1.001115
 177653910, 0.3772252, -0.03137952, 0.0360521, -0.04006436, 0.01325281, 1.000719, 0.3980093, -0.035687, 0.03867983, -0.03813555, 0.01316694, 1.000991
 177753870, 0.372533, -0.0459611, 0.03507673, -0.03930531, 0.01212552, 1.000726, 0.3772252, -0.03137952, 0.0360521, -0.04006436, 0.01325281, 1.000719
 177853830, 0.367731, -0.02691809, 0.03386613, -0.0383172, 0.01160281, 1.000725, 0.372533, -0.0459611, 0.03507673, -0.03930531, 0.01212552, 1.000726
 177953790, 0.359165, -0.02946319, 0.002233714, -0.03809954, 0.01174358, 1.000639, 0.367731, -0.02691809, 0.03386613, -0.0383172, 0.01160281, 1.000725
 178053750, 0.4012688, -0.03103891, 0.03585817, -0.03004286, 0.01141396, 1.001318, 0.359165, -0.02946319, 0.002233714, -0.03809954, 0.01174358, 1.000639
 178153710, 0.3481235, -0.01849362, 0.03153643, -0.0400125, 0.01199725, 1.000495, 0.4012688, -0.03103891, 0.03585817, -0.03004286, 0.01141396, 1.001318
 178253670, 0.3962568, -0.04979397, 0.03597227, -0.03241039, 0.008966742, 1.001224, 0.3481235, -0.01849362, 0.03153643, -0.0400125, 0.01199725, 1.000495
 178353630, 0.40305, -0.03080448, 0.03674059, -0.03176881, 0.009227702, 1.001302, 0.3962568, -0.04979397, 0.03597227, -0.03241039, 0.008966742, 1.001224
 178453590, 0.3492687, -0.01884565, 0.03200613, -0.04106143, 0.009425333, 1.000487, 0.40305, -0.03080448, 0.03674059, -0.03176881, 0.009227702, 1.001302
 178553550, 0.3767019, -0.0336173, 0.03437829, -0.03650448, 0.007460089, 1.000905, 0.3492687, -0.01884565, 0.03200613, -0.04106143, 0.009425333, 1.000487
 178653510, 0.3816748, -0.02972159, 0.03460089, -0.03519747, 0.006715023, 1.000999, 0.3767019, -0.0336173, 0.03437829, -0.03650448, 0.007460089, 1.000905
 178754303, 0.3528152, -0.01229583, 0.001978347, -0.04044361, 0.007273433, 1.000534, 0.3816748, -0.02972159, 0.03460089, -0.03519747, 0.006715023, 1.000999
 178854263, 0.4032952, -0.04336175, 0.03651204, -0.03153439, 0.006306678, 1.00133, 0.3528152, -0.01229583, 0.001978347, -0.04044361, 0.007273433, 1.000534
 178954223, 0.3550974, -0.0124951, 0.03241203, -0.03995212, 0.008867531, 1.000579, 0.4032952, -0.04336175, 0.03651204, -0.03153439, 0.006306678, 1.00133
 179054183, 0.4115088, -0.03367652, 0.03717139, -0.02994983, 0.006412976, 1.001457, 0.3550974, -0.0124951, 0.03241203, -0.03995212, 0.008867531, 1.000579
 179154143, 0.3651735, -0.02464245, 0.0327373, -0.03711765, 0.004896182, 1.000793, 0.4115088, -0.03367652, 0.03717139, -0.02994983, 0.006412976, 1.001457
 179254103, 0.4160591, -0.02526689, 0.0365552, -0.02704644, 0.002108494, 1.001599, 0.3651735, -0.02464245, 0.0327373, -0.03711765, 0.004896182, 1.000793
 179354063, 0.4030581, -0.01830976, 0.005625566, -0.03048344, 0.002567629, 1.001337, 0.4160591, -0.02526689, 0.0365552, -0.02704644, 0.002108494, 1.001599
 179454023, 0.3654324, -0.01961371, 0.03261999, -0.03669801, 0.005038844, 1.000808, 0.4030581, -0.01830976, 0.005625566, -0.03048344, 0.002567629, 1.001337
 179573975, 0.3524113, -0.04103279, 0.03090687, -0.03726457, 0.006658361, 1.000675, 0.3654324, -0.01961371, 0.03261999, -0.03669801, 0.005038844, 1.000808
 179673935, 0.3818774, -0.03832605, 0.03299856, -0.03123976, 0.007355228, 1.001117, 0.3524113, -0.04103279, 0.03090687, -0.03726457, 0.006658361, 1.000675
 179773895, 0.386843, -0.03224009, 0.0330346, -0.0294893, 0.006759414, 1.001216, 0.3818774, -0.03832605, 0.03299856, -0.03123976, 0.007355228, 1.001117
 179873855, 0.4220463, -0.01917884, 0.005611159, -0.02329864, 0.004792405, 1.001706, 0.386843, -0.03224009, 0.0330346, -0.0294893, 0.006759414, 1.001216
 179973815, 0.3607217, -0.03606756, 8.266047E-05, -0.03313795, 0.0005699759, 1.000881, 0.4220463, -0.01917884, 0.005611159, -0.02329864, 0.004792405, 1.001706
 180073775, 0.3427066, -0.04170902, 0.0287882, -0.03636899, -0.002582571, 1.000651, 0.3607217, -0.03606756, 8.266047E-05, -0.03313795, 0.0005699759, 1.000881
 180173735, 0.3847889, -0.02822552, 0.03240385, -0.02962353, -0.004152266, 1.0012, 0.3427066, -0.04170902, 0.0287882, -0.03636899, -0.002582571, 1.000651
 180273695, 0.401853, -0.03399618, 0.008651918, -0.02713511, -0.004633924, 1.001406, 0.3847889, -0.02822552, 0.03240385, -0.02962353, -0.004152266, 1.0012
 180373655, 0.3619168, -0.04579544, 0.02994778, -0.03266277, -0.005043111, 1.000911, 0.401853, -0.03399618, 0.008651918, -0.02713511, -0.004633924, 1.001406
 180473615, 0.3659972, -0.04287771, 0.03018595, -0.031958, -0.007421662, 1.000949, 0.3619168, -0.04579544, 0.02994778, -0.03266277, -0.005043111, 1.000911
 180573575, 0.3784867, -0.01445952, 0.03196918, -0.0308536, -0.01150397, 1.001045, 0.3659972, -0.04287771, 0.03018595, -0.031958, -0.007421662, 1.000949
 180673535, 0.3630612, -0.01965965, 0.03048504, -0.03348533, -0.01795929, 1.000739, 0.3784867, -0.01445952, 0.03196918, -0.0308536, -0.01150397, 1.001045
 180773495, 0.3949351, -0.03927381, 0.03263443, -0.02909306, -0.02534417, 1.000987, 0.3630612, -0.01965965, 0.03048504, -0.03348533, -0.01795929, 1.000739
 180874288, 0.391514, -0.01451842, 0.03368553, -0.03128489, -0.0348689, 1.000599, 0.3949351, -0.03927381, 0.03263443, -0.02909306, -0.02534417, 1.000987
 180974248, 0.3923356, -0.0234205, 0.03353712, -0.03296769, -0.05765205, 0.9994962, 0.391514, -0.01451842, 0.03368553, -0.03128489, -0.0348689, 1.000599
 181074208, 0.3483559, -0.008550717, 0.0008293428, -0.0427635, -0.1096906, 0.9943817, 0.3923356, -0.0234205, 0.03353712, -0.03296769, -0.05765205, 0.9994962
 181174168, 0.3630526, -0.004415188, 0.007990083, -0.04184228, -0.1596892, 0.9877332, 0.3483559, -0.008550717, 0.0008293428, -0.0427635, -0.1096906, 0.9943817
 181274128, 0.402533, -0.01921696, 0.03398217, -0.03384368, -0.1611659, 0.9881467, 0.3630526, -0.004415188, 0.007990083, -0.04184228, -0.1596892, 0.9877332
 181374088, 0.3396882, -0.02714455, 0.05710272, -0.03970746, -0.1174591, 0.9935955, 0.402533, -0.01921696, 0.03398217, -0.03384368, -0.1611659, 0.9881467
 181474048, 0.3677833, -0.05084036, 0.0573015, -0.03016818, -0.05724132, 0.9994167, 0.3396882, -0.02714455, 0.05710272, -0.03970746, -0.1174591, 0.9935955
 181574008, 0.3950016, -0.02279379, 0.03157976, -0.02447458, -0.00897144, 1.001378, 0.3677833, -0.05084036, 0.0573015, -0.03016818, -0.05724132, 0.9994167
 181693960, 0.3696838, -0.02960934, 0.03011797, -0.02917578, 0.009161003, 1.001034, 0.3950016, -0.02279379, 0.03157976, -0.02447458, -0.00897144, 1.001378
 181793920, 0.3952897, -0.03432871, 0.03223279, -0.02680436, -0.007129559, 1.00133, 0.3696838, -0.02960934, 0.03011797, -0.02917578, 0.009161003, 1.001034
 181893880, 0.3821877, -0.008696209, 0.03198851, -0.03043817, -0.03644318, 1.000476, 0.3952897, -0.03432871, 0.03223279, -0.02680436, -0.007129559, 1.00133
 181993840, 0.3731632, 0.0001961626, 0.03192721, -0.03238352, -0.06267546, 0.9990431, 0.3821877, -0.008696209, 0.03198851, -0.03043817, -0.03644318, 1.000476
 182093800, 0.3599711, -6.881775E-05, 0.001114855, -0.03623842, -0.07635833, 0.9978352, 0.3731632, 0.0001961626, 0.03192721, -0.03238352, -0.06267546, 0.9990431
 182193760, 0.3632329, -0.01532094, 0.02983985, -0.03419086, -0.0745905, 0.9980808, 0.3599711, -6.881775E-05, 0.001114855, -0.03623842, -0.07635833, 0.9978352
 182293720, 0.342048, -0.002619676, 0.02862018, -0.03569719, -0.06019605, 0.9988519, 0.3632329, -0.01532094, 0.02983985, -0.03419086, -0.0745905, 0.9980808
 182393680, 0.3668412, -0.02555281, 0.02877094, -0.03037102, -0.0434268, 1.00007, 0.342048, -0.002619676, 0.02862018, -0.03569719, -0.06019605, 0.9988519
 182493640, 0.3963361, -0.0118319, 0.03173972, -0.02489046, -0.03020697, 1.000956, 0.3668412, -0.02555281, 0.02877094, -0.03037102, -0.0434268, 1.00007
 182593600, 0.396708, -0.01869475, 0.03129127, -0.02421888, -0.02476976, 1.001122, 0.3963361, -0.0118319, 0.03173972, -0.02489046, -0.03020697, 1.000956
 182693560, 0.3978722, -0.02930042, 0.03053356, -0.02312438, -0.02616939, 1.001118, 0.396708, -0.01869475, 0.03129127, -0.02421888, -0.02476976, 1.001122
 182793520, 0.4049312, -0.02833167, 0.03084658, -0.02173957, -0.03257386, 1.001026, 0.3978722, -0.02930042, 0.03053356, -0.02312438, -0.02616939, 1.001118
 182893480, 0.3534123, -0.02389948, 0.02699351, -0.03013637, -0.03737455, 1.000217, 0.4049312, -0.02833167, 0.03084658, -0.02173957, -0.03257386, 1.001026
 182994273, 0.3955189, -0.01906093, 0.03093397, -0.02468555, -0.03977527, 1.000611, 0.3534123, -0.02389948, 0.02699351, -0.03013637, -0.03737455, 1.000217
 183094233, 0.3714311, -0.01392386, 0.02959678, -0.02932374, -0.04010136, 1.000273, 0.3955189, -0.01906093, 0.03093397, -0.02468555, -0.03977527, 1.000611
 183194193, 0.3773009, -0.02291583, 0.02898251, -0.02677182, -0.03768794, 1.000481, 0.3714311, -0.01392386, 0.02959678, -0.02932374, -0.04010136, 1.000273
 183294153, 0.399653, -0.00312718, 0.03131627, -0.02205562, -0.03349939, 1.000941, 0.3773009, -0.02291583, 0.02898251, -0.02677182, -0.03768794, 1.000481
 183394113, 0.3761581, -0.02301392, 0.02868368, -0.0260578, -0.03004682, 1.000748, 0.399653, -0.00312718, 0.03131627, -0.02205562, -0.03349939, 1.000941
 183494073, 0.3752914, -0.02023803, 0.02859132, -0.02564119, -0.0256787, 1.000873, 0.3761581, -0.02301392, 0.02868368, -0.0260578, -0.03004682, 1.000748
 183594033, 0.3710917, 0.00504263, 0.029519, -0.02690125, -0.02195415, 1.000905, 0.3752914, -0.02023803, 0.02859132, -0.02564119, -0.0256787, 1.000873
 183693993, 0.3449979, -0.02296762, 0.02661379, -0.03138305, -0.02137958, 1.000585, 0.3710917, 0.00504263, 0.029519, -0.02690125, -0.02195415, 1.000905
 183813945, 0.3655336, -0.007376002, 0.02888408, -0.02854426, -0.0199345, 1.000852, 0.3449979, -0.02296762, 0.02661379, -0.03138305, -0.02137958, 1.000585
 183913905, 0.3485145, -0.0008676024, 0.02768761, -0.03081351, -0.01754743, 1.00071, 0.3655336, -0.007376002, 0.02888408, -0.02854426, -0.0199345, 1.000852
 184013865, 0.3537731, -0.01368775, 0.02709586, -0.02843119, -0.01582723, 1.000839, 0.3485145, -0.0008676024, 0.02768761, -0.03081351, -0.01754743, 1.00071
 184113825, 0.4082113, -0.01508871, 0.03072289, -0.01872584, -0.01469741, 1.001527, 0.3537731, -0.01368775, 0.02709586, -0.02843119, -0.01582723, 1.000839
 184213785, 0.3937027, 0.003921595, 0.02978426, -0.02002725, -0.01219469, 1.001412, 0.4082113, -0.01508871, 0.03072289, -0.01872584, -0.01469741, 1.001527
 184313745, 0.3422787, -0.02252845, 0.01943757, -0.0111385, -0.0123162, 1.001144, 0.3937027, 0.003921595, 0.02978426, -0.02002725, -0.01219469, 1.001412
 184413705, 0.3418777, -0.008941839, 0.01297959, 0.008720379, -0.01092966, 1.001185, 0.3422787, -0.02252845, 0.01943757, -0.0111385, -0.0123162, 1.001144
 184513665, 0.3681541, 0.009099783, 0.01316294, 0.01597087, -0.006162649, 1.001328, 0.3418777, -0.008941839, 0.01297959, 0.008720379, -0.01092966, 1.001185
 184613625, 0.3728739, -0.01583426, 0.013111, 0.01573547, -0.004404621, 1.001365, 0.3681541, 0.009099783, 0.01316294, 0.01597087, -0.006162649, 1.001328
 184713585, 0.4106267, -0.009463863, 0.01445109, 0.02198827, -0.004008057, 1.001571, 0.3728739, -0.01583426, 0.013111, 0.01573547, -0.004404621, 1.001365
 184813545, 0.4043583, 0.00533106, 0.014772, 0.02040721, -0.002156233, 1.001561, 0.4106267, -0.009463863, 0.01445109, 0.02198827, -0.004008057, 1.001571
 184913505, 0.3817005, 0.008110551, 0.01404042, 0.01673146, 0.0002179164, 1.001439, 0.4043583, 0.00533106, 0.014772, 0.02040721, -0.002156233, 1.001561
 185014298, 0.357141, 0.009182528, 0.01334438, 0.0125212, 0.003602923, 1.00131, 0.3817005, 0.008110551, 0.01404042, 0.01673146, 0.0002179164, 1.001439
 185114258, 0.3835645, -0.006339357, 0.01487243, 0.01449503, 0.005295958, 1.001469, 0.357141, 0.009182528, 0.01334438, 0.0125212, 0.003602923, 1.00131
 185214218, 0.3996845, 0.008995309, 0.01726414, 0.01298958, 0.008561378, 1.001612, 0.3835645, -0.006339357, 0.01487243, 0.01449503, 0.005295958, 1.001469
 185314178, 0.3529114, -0.002190097, 0.01546474, 0.005088314, 0.009447694, 1.001303, 0.3996845, 0.008995309, 0.01726414, 0.01298958, 0.008561378, 1.001612
 185414138, 0.3708171, -0.009925193, 0.0160186, 0.008152891, 0.009446517, 1.00141, 0.3529114, -0.002190097, 0.01546474, 0.005088314, 0.009447694, 1.001303
 185514098, 0.372368, -0.001891996, 0.01653545, 0.007385876, 0.009208261, 1.001434, 0.3708171, -0.009925193, 0.0160186, 0.008152891, 0.009446517, 1.00141
 185614058, 0.3895123, -0.01399644, 0.01773987, 0.008627743, 0.008558583, 1.001564, 0.372368, -0.001891996, 0.01653545, 0.007385876, 0.009208261, 1.001434
 185714018, 0.3695014, -0.006958147, 0.01652105, 0.006620124, 0.01126717, 1.001395, 0.3895123, -0.01399644, 0.01773987, 0.008627743, 0.008558583, 1.001564
 185833970, 0.3948179, -0.01612398, 0.01791069, 0.009871755, 0.01414548, 1.001536, 0.3695014, -0.006958147, 0.01652105, 0.006620124, 0.01126717, 1.001395
 185933930, 0.3652377, -0.004395876, 0.01610526, 0.006712455, 0.01646483, 1.001292, 0.3948179, -0.01612398, 0.01791069, 0.009871755, 0.01414548, 1.001536
 186033890, 0.3659415, 0.008802291, 0.0158372, 0.007682111, 0.01663705, 1.001295, 0.3652377, -0.004395876, 0.01610526, 0.006712455, 0.01646483, 1.001292
 186133850, 0.3585653, -0.006015331, 0.01553924, 0.006514709, 0.01675283, 1.001239, 0.3659415, 0.008802291, 0.0158372, 0.007682111, 0.01663705, 1.001295
 186233810, 0.3987782, -0.006000529, 0.01754229, 0.01201595, 0.01659088, 1.001516, 0.3585653, -0.006015331, 0.01553924, 0.006514709, 0.01675283, 1.001239
 186333770, 0.372376, 0.005414779, 0.01609971, 0.008686285, 0.01624965, 1.001341, 0.3987782, -0.006000529, 0.01754229, 0.01201595, 0.01659088, 1.001516
 186433730, 0.3537266, 0.002647575, 0.01506642, 0.006568551, 0.0175131, 1.001196, 0.372376, 0.005414779, 0.01609971, 0.008686285, 0.01624965, 1.001341
 186533690, 0.3899694, 0.008156409, 0.016017, 0.01350422, 0.01980592, 1.001369, 0.3537266, 0.002647575, 0.01506642, 0.006568551, 0.0175131, 1.001196
 186633650, 0.3948973, 0.01330545, 0.01603785, 0.01467517, 0.02085507, 1.001377, 0.3899694, 0.008156409, 0.016017, 0.01350422, 0.01980592, 1.001369
 186733610, 0.3931375, -0.00468284, 0.0156084, 0.01547542, 0.02218978, 1.001311, 0.3948973, 0.01330545, 0.01603785, 0.01467517, 0.02085507, 1.001377
 186833570, 0.3853277, 0.006898439, 0.04548871, 0.01387331, 0.02386745, 1.001247, 0.3931375, -0.00468284, 0.0156084, 0.01547542, 0.02218978, 1.001311
 186933530, 0.3707343, -0.01919981, 0.01522538, 0.01089216, 0.02229041, 1.00118, 0.3853277, 0.006898439, 0.04548871, 0.01387331, 0.02386745, 1.001247
 187033490, 0.3741065, -0.004563402, 0.01600384, 0.009495061, 0.0227962, 1.001216, 0.3707343, -0.01919981, 0.01522538, 0.01089216, 0.02229041, 1.00118
 187134283, 0.3971316, -0.02049239, 0.01732652, 0.01261883, 0.02488885, 1.001319, 0.3741065, -0.004563402, 0.01600384, 0.009495061, 0.0227962, 1.001216
 187234243, 0.3816644, 0.007051499, 0.01689677, 0.008930985, 0.02789515, 1.001159, 0.3971316, -0.02049239, 0.01732652, 0.01261883, 0.02488885, 1.001319
 187334203, 0.3642495, 0.003868499, 0.0159241, 0.006923188, 0.02808417, 1.001031, 0.3816644, 0.007051499, 0.01689677, 0.008930985, 0.02789515, 1.001159
 187434163, 0.4023163, 0.001546342, 0.01788962, 0.01214191, 0.02761941, 1.001309, 0.3642495, 0.003868499, 0.0159241, 0.006923188, 0.02808417, 1.001031
 187534123, 0.3830335, 0.004448555, 0.01657335, 0.01020313, 0.02655518, 1.001193, 0.4023163, 0.001546342, 0.01788962, 0.01214191, 0.02761941, 1.001309
 187634083, 0.3736448, -0.007781488, 0.01677447, 0.007473785, 0.02731301, 1.001115, 0.3830335, 0.004448555, 0.01657335, 0.01020313, 0.02655518, 1.001193
 187734043, 0.3675151, 0.0003604931, 0.01703684, 0.004897505, 0.02931537, 1.001031, 0.3736448, -0.007781488, 0.01677447, 0.007473785, 0.02731301, 1.001115
 187834003, 0.3783765, -0.02065036, 0.01892816, 0.003679082, 0.03078919, 1.001069, 0.3675151, 0.0003604931, 0.01703684, 0.004897505, 0.02931537, 1.001031
 187953955, 0.4110211, -0.01200018, 0.02080461, 0.008048497, 0.03295537, 1.001268, 0.3783765, -0.02065036, 0.01892816, 0.003679082, 0.03078919, 1.001069
 188053915, 0.4015343, 0.006160006, 0.0194882, 0.007816344, 0.03376976, 1.001161, 0.4110211, -0.01200018, 0.02080461, 0.008048497, 0.03295537, 1.001268
 188153875, 0.4065564, -0.0008815294, 0.01901303, 0.01071524, 0.03175742, 1.001245, 0.4015343, 0.006160006, 0.0194882, 0.007816344, 0.03376976, 1.001161
 188253835, 0.4001289, 0.006669529, 0.04843646, 0.01047641, 0.03039826, 1.001248, 0.4065564, -0.0008815294, 0.01901303, 0.01071524, 0.03175742, 1.001245
 188353795, 0.4119967, -0.0177427, 0.01952397, 0.01157535, 0.02877822, 1.001372, 0.4001289, 0.006669529, 0.04843646, 0.01047641, 0.03039826, 1.001248
 188453755, 0.3990267, -0.01551253, 0.01913093, 0.008859832, 0.02813855, 1.001299, 0.4119967, -0.0177427, 0.01952397, 0.01157535, 0.02877822, 1.001372
 188553715, 0.3692443, -0.004946014, 0.01743883, 0.004597817, 0.02791123, 1.001088, 0.3990267, -0.01551253, 0.01913093, 0.008859832, 0.02813855, 1.001299
 188653675, 0.3718439, 0.007514312, 0.01787606, 0.003778983, 0.03013169, 1.001054, 0.3692443, -0.004946014, 0.01743883, 0.004597817, 0.02791123, 1.001088
 188753635, 0.3583128, -0.01097998, 0.0191188, -0.003041662, 0.02472192, 1.001093, 0.3718439, 0.007514312, 0.01787606, 0.003778983, 0.03013169, 1.001054
 188853595, 0.3522468, -0.01521865, 0.02052339, -0.009662796, 0.003296431, 1.001306, 0.3583128, -0.01097998, 0.0191188, -0.003041662, 0.02472192, 1.001093
 188953555, 0.4247477, -0.005087838, 0.0266857, -0.00250734, -0.02348045, 1.001719, 0.3522468, -0.01521865, 0.02052339, -0.009662796, 0.003296431, 1.001306
 189053515, 0.3929243, -0.01270721, 0.02521892, -0.01043767, -0.0409953, 1.000794, 0.4247477, -0.005087838, 0.0266857, -0.00250734, -0.02348045, 1.001719
 189153475, 0.3711213, -0.02223917, 0.02382466, -0.01543593, -0.04245689, 1.000483, 0.3929243, -0.01270721, 0.02521892, -0.01043767, -0.0409953, 1.000794
 189254268, 0.366203, 0.003488098, 0.02557426, -0.01784741, -0.02730031, 1.000946, 0.3711213, -0.02223917, 0.02382466, -0.01543593, -0.04245689, 1.000483
 189354228, 0.3851048, -0.007401309, 0.02592454, -0.01323035, -0.005906556, 1.001524, 0.366203, 0.003488098, 0.02557426, -0.01784741, -0.02730031, 1.000946
 189454188, 0.366758, -0.006676389, 0.02416968, -0.01428151, 0.01425905, 1.001276, 0.3851048, -0.007401309, 0.02592454, -0.01323035, -0.005906556, 1.001524
 189554148, 0.4044678, 0.005839067, 0.05533575, -0.0045931, 0.0291895, 1.001399, 0.366758, -0.006676389, 0.02416968, -0.01428151, 0.01425905, 1.001276
 189654108, 0.412708, 0.005418558, 0.0246423, -0.0008346774, 0.04020846, 1.001091, 0.4044678, 0.005839067, 0.05533575, -0.0045931, 0.0291895, 1.001399
 189754068, 0.4099286, -0.0006161733, 0.02410922, -4.884973E-05, 0.04496057, 1.00086, 0.412708, 0.005418558, 0.0246423, -0.0008346774, 0.04020846, 1.001091
 189854028, 0.3633669, -0.00187441, 0.02114996, -0.006882448, 0.04453941, 1.000442, 0.4099286, -0.0006161733, 0.02410922, -4.884973E-05, 0.04496057, 1.00086
 189973980, 0.3909131, 0.0042431, 0.02266495, -0.002639234, 0.03944577, 1.000913, 0.3633669, -0.00187441, 0.02114996, -0.006882448, 0.04453941, 1.000442
 190073940, 0.4347482, 0.007240651, 0.02491746, 0.005558275, 0.03590792, 1.001485, 0.3909131, 0.0042431, 0.02266495, -0.002639234, 0.03944577, 1.000913
 190173900, 0.3725933, -0.01282815, 0.05139991, -0.003605504, 0.03472763, 1.000936, 0.4347482, 0.007240651, 0.02491746, 0.005558275, 0.03590792, 1.001485
 190273860, 0.3611031, -0.002493812, 0.05097344, -0.006596975, 0.02979455, 1.000992, 0.3725933, -0.01282815, 0.05139991, -0.003605504, 0.03472763, 1.000936
 190373820, 0.3716215, 0.006997562, 0.0520156, -0.00617709, 0.01481184, 1.001421, 0.3611031, -0.002493812, 0.05097344, -0.006596975, 0.02979455, 1.000992
 190473780, 0.3613449, -0.0102646, 0.02144797, -0.008719705, 0.002857728, 1.001401, 0.3716215, 0.006997562, 0.0520156, -0.00617709, 0.01481184, 1.001421
 190573740, 0.3990685, -0.005759936, 0.02428955, -0.003759962, 0.007578142, 1.001741, 0.3613449, -0.0102646, 0.02144797, -0.008719705, 0.002857728, 1.001401
 190673700, 0.4152204, 0.007456345, 0.05491056, 0.000557106, 0.01694903, 1.001825, 0.3990685, -0.005759936, 0.02428955, -0.003759962, 0.007578142, 1.001741
 190773660, 0.3717678, 0.005205874, 0.0212812, -0.004469644, 0.02074811, 1.001315, 0.4152204, 0.007456345, 0.05491056, 0.000557106, 0.01694903, 1.001825
 190873620, 0.4452213, 0.01026986, 0.02476537, 0.009938542, 0.01776636, 1.002089, 0.3717678, 0.005205874, 0.0212812, -0.004469644, 0.02074811, 1.001315
 190973580, 0.4096386, -0.009142287, 0.0524687, 0.004631646, 0.01145016, 1.00183, 0.4452213, 0.01026986, 0.02476537, 0.009938542, 0.01776636, 1.002089
 191073540, 0.3966354, -0.007647255, 0.05144253, 0.003172487, 0.007523553, 1.001745, 0.4096386, -0.009142287, 0.0524687, 0.004631646, 0.01145016, 1.00183
 191173500, 0.4185629, -0.008933584, 0.02209893, 0.007802784, 0.005747573, 1.001938, 0.3966354, -0.007647255, 0.05144253, 0.003172487, 0.007523553, 1.001745
 191274293, 0.3739699, 0.009746758, 0.02038442, 0.001594082, 0.008526898, 0.9539857, 0.4185629, -0.008933584, 0.02209893, 0.007802784, 0.005747573, 1.001938
 191374253, 0.4009917, 0.01047362, 0.02244449, 0.001990721, 0.0121298, 1.001742, 0.3739699, 0.009746758, 0.02038442, 0.001594082, 0.008526898, 0.9539857
 191474213, 0.3731659, -0.01156604, 0.04615198, -0.003093798, 0.01599207, 1.001431, 0.4009917, 0.01047362, 0.02244449, 0.001990721, 0.0121298, 1.001742
 191574173, 0.4496265, -0.008014183, 0.02548708, 0.01009317, 0.01810369, 1.002146, 0.3731659, -0.01156604, 0.04615198, -0.003093798, 0.01599207, 1.001431
 191674133, 0.4340819, -0.002104091, -0.0008606613, 0.007796932, 0.0184489, 1.001953, 0.4496265, -0.008014183, 0.02548708, 0.01009317, 0.01810369, 1.002146
 191774093, 0.3757973, 0.004036138, 0.02069075, -0.0014605, 0.0150501, 1.001466, 0.4340819, -0.002104091, -0.0008606613, 0.007796932, 0.0184489, 1.001953
 191874053, 0.4450832, -0.018975, 0.02389351, 0.0118246, 0.009385281, 1.002181, 0.3757973, 0.004036138, 0.02069075, -0.0014605, 0.0150501, 1.001466
 191974013, 0.4110736, 0.0002036314, 0.02191727, 0.006247316, 0.008283642, 1.001861, 0.4450832, -0.018975, 0.02389351, 0.0118246, 0.009385281, 1.002181
 192093965, 0.4087228, 0.003572527, 0.0214069, 0.006793145, 0.009523391, 1.001821, 0.4110736, 0.0002036314, 0.02191727, 0.006247316, 0.008283642, 1.001861
 192193925, 0.3794011, -0.01889017, 0.01987579, 0.001502521, 0.01030383, 1.001545, 0.4087228, 0.003572527, 0.0214069, 0.006793145, 0.009523391, 1.001821
 192293885, 0.3707245, -0.0001880913, 0.0195758, -0.0001196153, 0.01169597, 1.001463, 0.3794011, -0.01889017, 0.01987579, 0.001502521, 0.01030383, 1.001545
 192393845, 0.4047174, -0.0155888, 0.02066355, 0.007085711, 0.0112448, 1.001749, 0.3707245, -0.0001880913, 0.0195758, -0.0001196153, 0.01169597, 1.001463
 192493805, 0.4410549, -0.01599392, 0.02240043, 0.01392232, 0.01119741, 1.002079, 0.4047174, -0.0155888, 0.02066355, 0.007085711, 0.0112448, 1.001749
 192593765, 0.420255, -0.01561225, 0.02146088, 0.009823471, 0.01216586, 1.001875, 0.4410549, -0.01599392, 0.02240043, 0.01392232, 0.01119741, 1.002079
 192693725, 0.4084731, 0.00995269, -0.008959217, 0.007090788, 0.01424833, 1.001741, 0.420255, -0.01561225, 0.02146088, 0.009823471, 0.01216586, 1.001875
 192793685, 0.4309046, -0.01486875, 0.02233431, 0.01105276, 0.01514718, 1.001939, 0.4084731, 0.00995269, -0.008959217, 0.007090788, 0.01424833, 1.001741
 192893645, 0.4303149, -0.007710129, 0.02214447, 0.01126821, 0.01557446, 1.001923, 0.4309046, -0.01486875, 0.02233431, 0.01105276, 0.01514718, 1.001939
 192993605, 0.3825322, 0.004995014, 0.01928911, 0.004064851, 0.01469567, 1.001515, 0.4303149, -0.007710129, 0.02214447, 0.01126821, 0.01557446, 1.001923
 193093565, 0.3941123, 0.007304952, 0.01967045, 0.006452188, 0.01514378, 1.001601, 0.3825322, 0.004995014, 0.01928911, 0.004064851, 0.01469567, 1.001515
 193193525, 0.4043992, -0.01643297, 0.02036813, 0.007899564, 0.02034547, 1.001587, 0.3941123, 0.007304952, 0.01967045, 0.006452188, 0.01514378, 1.001601
 193293485, 0.3967769, 0.00711106, 0.0195298, 0.007346179, 0.02765476, 1.001351, 0.4043992, -0.01643297, 0.02036813, 0.007899564, 0.02034547, 1.001587
 193394278, 0.4031456, 0.01115913, 0.01921159, 0.009845864, 0.02685957, 1.001413, 0.3967769, 0.00711106, 0.0195298, 0.007346179, 0.02765476, 1.001351
 193494238, 0.4080628, -0.01630512, 0.01939657, 0.01135003, 0.0235997, 1.001514, 0.4031456, 0.01115913, 0.01921159, 0.009845864, 0.02685957, 1.001413
 193594198, 0.4336756, -0.01941695, 0.0204121, 0.016352, 0.02336823, 1.001722, 0.4080628, -0.01630512, 0.01939657, 0.01135003, 0.0235997, 1.001514
 193694158, 0.3932064, 0.004861708, 0.01891009, 0.00781735, 0.02678073, 1.001331, 0.4336756, -0.01941695, 0.0204121, 0.016352, 0.02336823, 1.001722
 193794118, 0.4399947, -0.01424226, 0.02197631, 0.01436558, 0.02259677, 1.00184, 0.3932064, 0.004861708, 0.01891009, 0.00781735, 0.02678073, 1.001331
 193894078, 0.3937539, 0.0006774312, 0.02001312, 0.005175851, 0.01605523, 1.001577, 0.4399947, -0.01424226, 0.02197631, 0.01436558, 0.02259677, 1.00184
 193994038, 0.3996044, -0.003205687, 0.0199923, 0.00690278, 0.01480238, 1.001637, 0.3937539, 0.0006774312, 0.02001312, 0.005175851, 0.01605523, 1.001577
 194093998, 0.4138203, 0.006763534, 0.01987038, 0.01133722, 0.01881089, 1.001675, 0.3996044, -0.003205687, 0.0199923, 0.00690278, 0.01480238, 1.001637
 194213950, 0.4374439, -0.005444099, 0.02055251, 0.01654795, 0.01846869, 1.001856, 0.4138203, 0.006763534, 0.01987038, 0.01133722, 0.01881089, 1.001675
 194313910, 0.4384558, 0.006595773, -0.009202085, 0.01582398, 0.01554191, 1.001913, 0.4374439, -0.005444099, 0.02055251, 0.01654795, 0.01846869, 1.001856
 194413870, 0.3914782, -0.01440921, 0.01859461, 0.007773686, 0.01068176, 1.001598, 0.4384558, 0.006595773, -0.009202085, 0.01582398, 0.01554191, 1.001913
 194513830, 0.4292371, 0.009427778, 0.02029022, 0.01472773, 0.01187764, 1.001892, 0.3914782, -0.01440921, 0.01859461, 0.007773686, 0.01068176, 1.001598
 194613790, 0.3798194, -0.0036932, 0.01753975, 0.007319007, 0.01202935, 1.001486, 0.4292371, 0.009427778, 0.02029022, 0.01472773, 0.01187764, 1.001892
 194713750, 0.3928007, 0.002815543, -0.01175244, 0.00882379, 0.01206, 1.001575, 0.3798194, -0.0036932, 0.01753975, 0.007319007, 0.01202935, 1.001486
 194813710, 0.4232647, -0.01311729, -0.01014966, 0.01313522, 0.008247472, 1.001851, 0.3928007, 0.002815543, -0.01175244, 0.00882379, 0.01206, 1.001575
 194913670, 0.4248844, -0.0141183, -0.01007536, 0.01337944, 0.008572296, 1.00186, 0.4232647, -0.01311729, -0.01014966, 0.01313522, 0.008247472, 1.001851
 195013630, 0.4082161, 0.0098441, 0.01883822, 0.01196383, 0.01447106, 1.001668, 0.4248844, -0.0141183, -0.01007536, 0.01337944, 0.008572296, 1.00186
 195113590, 0.3649181, 0.002301694, 0.01662391, 0.005519476, 0.01940298, 1.001259, 0.4082161, 0.0098441, 0.01883822, 0.01196383, 0.01447106, 1.001668
 195213550, 0.4233364, 0.00469868, 0.02004528, 0.01309484, 0.02311143, 1.001636, 0.3649181, 0.002301694, 0.01662391, 0.005519476, 0.01940298, 1.001259
 195313510, 0.4073674, -0.006713975, -0.009478921, 0.007145915, 0.02405507, 1.001493, 0.4233364, 0.00469868, 0.02004528, 0.01309484, 0.02311143, 1.001636
 195414303, 0.3860383, -0.01204819, 0.01970228, 0.003495011, 0.02440595, 1.001322, 0.4073674, -0.006713975, -0.009478921, 0.007145915, 0.02405507, 1.001493
 195514263, 0.3674614, -0.009216601, 0.01813448, 0.002210852, 0.0249542, 1.00116, 0.3860383, -0.01204819, 0.01970228, 0.003495011, 0.02440595, 1.001322
 195614223, 0.3841019, -0.01184079, 0.01844513, 0.00610425, 0.02412879, 1.001297, 0.3674614, -0.009216601, 0.01813448, 0.002210852, 0.0249542, 1.00116
 195714183, 0.371634, 0.01476125, 0.01820084, 0.002753865, 0.02429541, 1.00122, 0.3841019, -0.01184079, 0.01844513, 0.00610425, 0.02412879, 1.001297
 195814143, 0.3600033, -0.002464053, 0.01849993, -0.00115348, 0.02201508, 1.001176, 0.371634, 0.01476125, 0.01820084, 0.002753865, 0.02429541, 1.00122
 195914103, 0.365102, -0.01538104, 0.01898568, -0.0008391365, 0.02161218, 1.001217, 0.3600033, -0.002464053, 0.01849993, -0.00115348, 0.02201508, 1.001176
 196014063, 0.4161952, 0.009739242, 0.02136268, 0.007598568, 0.02486506, 1.001572, 0.365102, -0.01538104, 0.01898568, -0.0008391365, 0.02161218, 1.001217
 196114023, 0.3767748, -0.01820182, -0.01031333, 0.0005998313, 0.02668491, 1.001172, 0.4161952, 0.009739242, 0.02136268, 0.007598568, 0.02486506, 1.001572
 196233975, 0.3515757, -0.01614496, 0.01870815, -0.003521867, 0.03232188, 1.000822, 0.3767748, -0.01820182, -0.01031333, 0.0005998313, 0.02668491, 1.001172
 196333935, 0.3906697, 0.003658677, 0.02066454, 0.001815815, 0.03533797, 1.001041, 0.3515757, -0.01614496, 0.01870815, -0.003521867, 0.03232188, 1.000822
 196433895, 0.4090705, -0.006189723, 0.02197017, 0.004316572, 0.030089, 1.001367, 0.3906697, 0.003658677, 0.02066454, 0.001815815, 0.03533797, 1.001041
 196533855, 0.3539234, -0.0106659, 0.01939892, -0.005499948, 0.02087122, 1.001135, 0.4090705, -0.006189723, 0.02197017, 0.004316572, 0.030089, 1.001367
 196633815, 0.3619995, -0.004782847, 0.01987357, -0.004556172, 0.01257539, 1.00134, 0.3539234, -0.0106659, 0.01939892, -0.005499948, 0.02087122, 1.001135
 196733775, 0.3961214, 0.003661829, 0.02186907, 0.0005155429, 0.008374497, 1.001676, 0.3619995, -0.004782847, 0.01987357, -0.004556172, 0.01257539, 1.00134
 196833735, 0.3720478, -0.01345397, 0.02090422, -0.004585061, 0.008629682, 1.001455, 0.3961214, 0.003661829, 0.02186907, 0.0005155429, 0.008374497, 1.001676
 196933695, 0.3705865, 0.01275022, 0.02130421, -0.005736694, 0.01649334, 1.001352, 0.3720478, -0.01345397, 0.02090422, -0.004585061, 0.008629682, 1.001455
 197033655, 0.3991752, 0.001330172, 0.02315485, -0.001865368, 0.0268444, 1.001376, 0.3705865, 0.01275022, 0.02130421, -0.005736694, 0.01649334, 1.001352
 197133615, 0.3889186, -0.001473787, 0.0225965, -0.003509976, 0.03705198, 1.000953, 0.3991752, 0.001330172, 0.02315485, -0.001865368, 0.0268444, 1.001376
 197233575, 0.3766436, -0.006803451, 0.0223261, -0.006228656, 0.04200187, 1.00064, 0.3889186, -0.001473787, 0.0225965, -0.003509976, 0.03705198, 1.000953
 197333535, 0.418612, 0.005344094, -0.000652615, 0.0004583746, 0.04083635, 1.001073, 0.3766436, -0.006803451, 0.0223261, -0.006228656, 0.04200187, 1.00064
 197433495, 0.4204742, 0.00881994, 0.0246338, 0.0006907769, 0.03145485, 1.001446, 0.418612, 0.005344094, -0.000652615, 0.0004583746, 0.04083635, 1.001073
 197534288, 0.3976033, 0.001298653, 0.02388483, -0.004266661, 0.01990766, 1.001514, 0.4204742, 0.00881994, 0.0246338, 0.0006907769, 0.03145485, 1.001446
 197634248, 0.419823, -0.01256798, 0.02518132, -0.0007483996, 0.009823568, 1.001875, 0.3976033, 0.001298653, 0.02388483, -0.004266661, 0.01990766, 1.001514
 197734208, 0.4047296, -0.01720015, 0.02374159, -0.002202045, 0.005914091, 1.001755, 0.419823, -0.01256798, 0.02518132, -0.0007483996, 0.009823568, 1.001875
 197834168, 0.3883251, -0.01843572, 0.02290406, -0.00503644, 0.0081664, 1.001584, 0.4047296, -0.01720015, 0.02374159, -0.002202045, 0.005914091, 1.001755
 197934128, 0.355833, -0.003993859, 0.02118996, -0.01004721, 0.01811724, 1.001169, 0.3883251, -0.01843572, 0.02290406, -0.00503644, 0.0081664, 1.001584
 198034088, 0.3706396, 0.003649982, 0.02208696, -0.008032598, 0.0284629, 1.00106, 0.355833, -0.003993859, 0.02118996, -0.01004721, 0.01811724, 1.001169
 198134048, 0.3661548, 0.002198942, 0.02127915, -0.00723014, 0.03455294, 1.000839, 0.3706396, 0.003649982, 0.02208696, -0.008032598, 0.0284629, 1.00106
 198234008, 0.3927313, 0.007364149, 0.02261958, -0.002883758, 0.03370769, 1.001107, 0.3661548, 0.002198942, 0.02127915, -0.00723014, 0.03455294, 1.000839
 198353960, 0.3528879, 0.0004447047, 0.02036665, -0.008743674, 0.02737681, 1.000951, 0.3927313, 0.007364149, 0.02261958, -0.002883758, 0.03370769, 1.001107
 198453920, 0.3541977, 0.006289471, -0.0097773, -0.008429974, 0.02216039, 1.001082, 0.3528879, 0.0004447047, 0.02036665, -0.008743674, 0.02737681, 1.000951
 198553880, 0.4008812, -0.002440148, 0.02367737, -0.002897985, 0.01732473, 1.001586, 0.3541977, 0.006289471, -0.0097773, -0.008429974, 0.02216039, 1.001082
 198653840, 0.3501241, 0.002482994, 0.02108788, -0.01168621, 0.01459361, 1.001169, 0.4008812, -0.002440148, 0.02367737, -0.002897985, 0.01732473, 1.001586
 198753800, 0.3440283, 0.003392743, 0.02104027, -0.01346294, 0.01414312, 1.001113, 0.3501241, 0.002482994, 0.02108788, -0.01168621, 0.01459361, 1.001169
 198853760, 0.3437955, 0.003538873, 0.0207571, -0.01273357, 0.01577185, 1.001096, 0.3440283, 0.003392743, 0.02104027, -0.01346294, 0.01414312, 1.001113
 198953720, 0.3650104, 0.001209762, 0.02117241, -0.007384811, 0.02016551, 1.001217, 0.3437955, 0.003538873, 0.0207571, -0.01273357, 0.01577185, 1.001096
 199053680, 0.3789375, -0.01526273, 0.02182232, -0.004506569, 0.02717053, 1.001166, 0.3650104, 0.001209762, 0.02117241, -0.007384811, 0.02016551, 1.001217
 199153640, 0.3838031, -0.01254195, -0.007121919, -0.006122954, 0.03353221, 1.000989, 0.3789375, -0.01526273, 0.02182232, -0.004506569, 0.02717053, 1.001166
 199253600, 0.3780254, 0.01020718, 0.02284892, -0.008434497, 0.03469583, 1.000911, 0.3838031, -0.01254195, -0.007121919, -0.006122954, 0.03353221, 1.000989
 199353560, 0.4096372, -0.01667089, 0.02573499, -0.005168494, 0.02722747, 1.001417, 0.3780254, 0.01020718, 0.02284892, -0.008434497, 0.03469583, 1.000911
 199453520, 0.3615454, -0.01264243, 0.02318034, -0.01412359, 0.01884303, 1.001135, 0.4096372, -0.01667089, 0.02573499, -0.005168494, 0.02722747, 1.001417
 199553480, 0.3451546, -0.004187114, 0.02243109, -0.0173788, 0.01276734, 1.001072, 0.3615454, -0.01264243, 0.02318034, -0.01412359, 0.01884303, 1.001135
 199654273, 0.4063647, -0.00971208, 0.02618385, -0.007869806, 0.01115773, 1.001679, 0.3451546, -0.004187114, 0.02243109, -0.0173788, 0.01276734, 1.001072
 199754233, 0.4098069, -0.001224745, 0.02634394, -0.007045127, 0.01806792, 1.001618, 0.4063647, -0.00971208, 0.02618385, -0.007869806, 0.01115773, 1.001679
 199854193, 0.3949783, 0.01116257, 0.02520074, -0.009190816, 0.02784351, 1.001252, 0.4098069, -0.001224745, 0.02634394, -0.007045127, 0.01806792, 1.001618
