TimeUS,CGpN,CGpE,CGpD,CGpe,PGpN,PGpE,PGpD,PGpe
 196366422, 0, 0, 0, 0.01, 0, 0, 0, 0
 196431396, 0, 0, 0, 0.01, 0, 0, 0, 0.01
 196631316, 0, 0, 0, 0.01, 0, 0, 0, 0.01
 196831236, 0, 0, 0, 0.01, 0, 0, 0, 0.01
 197031156, 0, 0, 0, 0.01, 0, 0, 0, 0.01
 197231076, 0, 0, 0, 0.01, 0, 0, 0, 0.01
 197430996, 0, 0, 0, 0.01, 0, 0, 0, 0.01
 197630916, 0, 0, 0, 0.01, 0, 0, 0, 0.01
 197830836, 0, 0, 0, 0.01, 0, 0, 0, 0.01
 198030756, 0, 0, 0, 0.01, 0, 0, 0, 0.01
 198230676, 0, 0, 0, 0.01, 0, 0, 0, 0.01
 198431429, 0, 0, 0, 0.01, 0, 0, 0, 0.01
 198631349, 0, 0, 0, 0.01, 0, 0, 0, 0.01
 198831269, 0, 0, 0, 0.01, 0, 0, 0, 0.01
 199031189, 0, 0, 0, 0.01, 0, 0, 0, 0.01
 199231109, 0, 0, 0, 0.01, 0, 0, 0, 0.01
 199431029, 0, 0, 0, 0.01, 0, 0, 0, 0.01
 199630949, 0, 0, 0, 0.01, 0, 0, 0, 0.01
 199830869, 0, 0, 0, 0.01, 0, 0, 0, 0.01
 200030789, 0, 0, 0, 0.01, 0, 0, 0, 0.01
 200230709, 0, 0, 0, 0.01, 0, 0, 0, 0.01
 200431462, 0, 0, 0, 0.01, 0, 0, 0, 0.01
 200631382, 0, 0, 0, 0.01, 0, 0, 0, 0.01
 200831302, 0, 0, 0, 0.01, 0, 0, 0, 0.01
 201031222, 0, 0, 0, 0.01, 0, 0, 0, 0.01
 201231142, 0, 0, 0, 0.01, 0, 0, 0, 0.01
 201431062, 0, 0, 0, 0.01, 0, 0, 0, 0.01
 201630982, 0, 0, 0, 0.01, 0, 0, 0, 0.01
 201830902, 0, 0, 0, 0.01, 0, 0, 0, 0.01
 202030822, 0, 0, 0, 0.01, 0, 0, 0, 0.01
 202230742, 0, 0, 0, 0.01, 0, 0, 0, 0.01
 202430662, 0, 0, 0, 0.01, 0, 0, 0, 0.01
 202631415, 0, 0, 0, 0.01, 0, 0, 0, 0.01
 202831335, 0, 0, 0, 0.01, 0, 0, 0, 0.01
 203031255, 0, 0, 0, 0.01, 0, 0, 0, 0.01
 203231175, 0, 0, 0, 0.01, 0, 0, 0, 0.01
 203431095, 0, 0, 0, 0.01, 0, 0, 0, 0.01
 203631015, 0, 0, 0, 0.01, 0, 0, 0, 0.01
 203830935, 0, 0, 0, 0.01, 0, 0, 0, 0.01
 204030855, 0, 0, 0, 0.01, 0, 0, 0, 0.01
 204230775, 0, 0, 0, 0.01, 0, 0, 0, 0.01
 204430695, 0, 0, 0, 0.01, 0, 0, 0, 0.01
 204631448, 0, 0, 0, 0.01, 0, 0, 0, 0.01
 204831368, 0, 0, 0, 0.01, 0, 0, 0, 0.01
 205031288, 0, 0, 0, 0.01, 0, 0, 0, 0.01
 205231208, 0, 0, 0, 0.01, 0, 0, 0, 0.01
 205431128, 0, 0, 0, 0.01, 0, 0, 0, 0.01
 205631048, 0, 0, 0, 0.01, 0, 0, 0, 0.01
 205830968, 0, 0, 0, 0.01, 0, 0, 0, 0.01
 206030888, 0, 0, 0, 0.01, 0, 0, 0, 0.01
 206230808, 0, 0, 0, 0.01, 0, 0, 0, 0.01
 206430728, 0, 0, 0, 0.01, 0, 0, 0, 0.01
 206631481, 0, 0, 0, 0.01, 0, 0, 0, 0.01
 206831401, 0, 0, 0, 0.01, 0, 0, 0, 0.01
 207031321, 0, 0, 0, 0.01, 0, 0, 0, 0.01
 207231241, 0, 0, 0, 0.01, 0, 0, 0, 0.01
 207431161, 0, 0, 0, 0.01, 0, 0, 0, 0.01
 207631081, 0, 0, 0, 0.01, 0, 0, 0, 0.01
 207831001, 0, 0, 0, 0.01, 0, 0, 0, 0.01
 208030921, 0, 0, 0, 0.01, 0, 0, 0, 0.01
 208230841, 0, 0, 0, 0.01, 0, 0, 0, 0.01
 208430761, 0, 0, 0, 0.01, 0, 0, 0, 0.01
 208630681, 0, 0, 0, 0.01, 0, 0, 0, 0.01
 208831434, 0, 0, 0, 0.01, 0, 0, 0, 0.01
 209031354, 0, 0, 0, 0.01, 0, 0, 0, 0.01
 209231274, 0, 0, 0, 0.01, 0, 0, 0, 0.01
 209431194, 0, 0, 0, 0.01, 0, 0, 0, 0.01
 209631114, 0, 0, 0, 0.01, 0, 0, 0, 0.01
 209831034, 0, 0, 0, 0.01, 0, 0, 0, 0.01
 210030954, 0, 0, 0, 0.01, 0, 0, 0, 0.01
 210230874, 0, 0, 0, 0.01, 0, 0, 0, 0.01
 210430794, 0, 0, 0, 0.01, 0, 0, 0, 0.01
 210630714, 0, 0, 0, 0.01, 0, 0, 0, 0.01
 210831467, 0, 0, 0, 0.01, 0, 0, 0, 0.01
 211031387, 0, 0, 0, 0.01, 0, 0, 0, 0.01
 211231307, 0, 0, 0, 0.01, 0, 0, 0, 0.01
 211431227, 0, 0, 0, 0.01, 0, 0, 0, 0.01
 211631147, 0, 0, 0, 0.01, 0, 0, 0, 0.01
 211831067, 0, 0, 0, 0.01, 0, 0, 0, 0.01
 212030987, 0, 0, 0, 0.01, 0, 0, 0, 0.01
 212230907, 0, 0, 0, 0.01, 0, 0, 0, 0.01
 212430827, 0, 0, 0, 0.01, 0, 0, 0, 0.01
 212630747, 0, 0, 0, 0.01, 0, 0, 0, 0.01
 212830667, 0, 0, 0, 0.01, 0, 0, 0, 0.01
 213031420, 0, 0, 0, 0.01, 0, 0, 0, 0.01
 213231340, 0, 0, 0, 0.01, 0, 0, 0, 0.01
 213431260, 0, 0, 0, 0.01, 0, 0, 0, 0.01
 213631180, 0, 0, 0, 0.01, 0, 0, 0, 0.01
 213831100, 0, 0, 0, 0.01, 0, 0, 0, 0.01
 214031020, 0, 0, 0, 0.01, 0, 0, 0, 0.01
 214230940, 0, 0, 0, 0.01, 0, 0, 0, 0.01
 214430860, 0, 0, 0, 0.01, 0, 0, 0, 0.01
 214630780, 0, 0, 0, 0.01, 0, 0, 0, 0.01
 214830700, 0, 0, 0, 0.01, 0, 0, 0, 0.01
 215031453, 0, 0, 0, 0.01, 0, 0, 0, 0.01
 215231373, 0, 0, 0, 0.01, 0, 0, 0, 0.01
 215431293, 0, 0, 0, 0.01, 0, 0, 0, 0.01
 215631213, 0, 0, 0, 0.01, 0, 0, 0, 0.01
 215831133, 0, 0, 0, 0.01, 0, 0, 0, 0.01
 216031053, 0, 0, 0, 0.01, 0, 0, 0, 0.01
 216230973, 0, 0, 0, 0.01, 0, 0, 0, 0.01
 216430893, 0, 0, 0, 0.01, 0, 0, 0, 0.01
 216630813, 0, 0, 0, 0.01, 0, 0, 0, 0.01
 216830733, 0, 0, 0, 0.01, 0, 0, 0, 0.01
 217031486, 0, 0, 0, 0.01, 0, 0, 0, 0.01
 217231406, 0, 0, 0, 0.01, 0, 0, 0, 0.01
 217431326, 0, 0, 0, 0.01, 0, 0, 0, 0.01
 217631246, 0, 0, 0, 0.01, 0, 0, 0, 0.01
 217831166, 0, 0, 0, 0.01, 0, 0, 0, 0.01
 218031086, 0, 0, 0, 0.01, 0, 0, 0, 0.01
 218231006, 0, 0, 0, 0.01, 0, 0, 0, 0.01
 218430926, 0, 0, 0, 0.01, 0, 0, 0, 0.01
 218630846, 0, 0, 0, 0.01, 0, 0, 0, 0.01
 218830766, 0, 0, 0, 0.01, 0, 0, 0, 0.01
 219030686, 0, 0, 0, 0.01, 0, 0, 0, 0.01
 219231439, 0, 0, 0, 0.01, 0, 0, 0, 0.01
 219431359, 0, 0, 0, 0.01, 0, 0, 0, 0.01
 219631279, 0, 0, 0, 0.01, 0, 0, 0, 0.01
 219831199, 0, 0, 0, 0.01, 0, 0, 0, 0.01
 220031119, 0, 0, 0, 0.01, 0, 0, 0, 0.01
 220231039, 0, 0, 0, 0.01, 0, 0, 0, 0.01
 220430959, 0, 0, 0, 0.01, 0, 0, 0, 0.01
 220630879, 0, 0, 0, 0.01, 0, 0, 0, 0.01
 220830799, 0, 0, 0, 0.01, 0, 0, 0, 0.01
 221030719, 0, 0, 0, 0.01, 0, 0, 0, 0.01
 221231472, 0, 0, 0, 0.01, 0, 0, 0, 0.01
 221431392, 0, 0, 0, 0.01, 0, 0, 0, 0.01
 221631312, 0, 0, 0, 0.01, 0, 0, 0, 0.01
 221831232, 0, 0, 0, 0.01, 0, 0, 0, 0.01
 222031152, 0, 0, 0, 0.01, 0, 0, 0, 0.01
 222231072, 0, 0, 0, 0.01, 0, 0, 0, 0.01
 222430992, 0, 0, 0, 0.01, 0, 0, 0, 0.01
 222630912, 0, 0, 0, 0.01, 0, 0, 0, 0.01
 222830832, 0, 0, 0, 0.01, 0, 0, 0, 0.01
 223030752, 0, 0, 0, 0.01, 0, 0, 0, 0.01
 223230672, 0, 0, 0, 0.01, 0, 0, 0, 0.01
 223431425, 0, 0, 0, 0.01, 0, 0, 0, 0.01
 223631345, 0, 0, 0, 0.01, 0, 0, 0, 0.01
 223831265, 0, 0, 0, 0.01, 0, 0, 0, 0.01
 224031185, 0, 0, 0, 0.01, 0, 0, 0, 0.01
 224231105, 0, 0, 0, 0.01, 0, 0, 0, 0.01
 224431025, 0, 0, 0, 0.01, 0, 0, 0, 0.01
 224630945, 0, 0, 0, 0.01, 0, 0, 0, 0.01
 224830865, 0, 0, 0, 0.01, 0, 0, 0, 0.01
 225030785, 0, 0, 0, 0.01, 0, 0, 0, 0.01
 225230705, 0, 0, 0, 0.01, 0, 0, 0, 0.01
 225431458, 0, 0, 0, 0.01, 0, 0, 0, 0.01
 225631378, 0, 0, 0, 0.01, 0, 0, 0, 0.01
 225831298, 0, 0, 0, 0.01, 0, 0, 0, 0.01
 226031218, 0, 0, 0, 0.01, 0, 0, 0, 0.01
 226231138, 0, 0, 0, 0.01, 0, 0, 0, 0.01
 226431058, 0, 0, 0, 0.01, 0, 0, 0, 0.01
 226630978, 0, 0, 0, 0.01, 0, 0, 0, 0.01
 226830898, 0, 0, 0, 0.01, 0, 0, 0, 0.01
 227030818, 0, 0, 0, 0.01, 0, 0, 0, 0.01
 227230738, 0, 0, 0, 0.01, 0, 0, 0, 0.01
 227430658, 0, 0, 0, 0.01, 0, 0, 0, 0.01
 227631411, 0, 0, 0, 0.01, 0, 0, 0, 0.01
 227831331, 0, 0, 0, 0.01, 0, 0, 0, 0.01
 228031251, 0, 0, 0, 0.01, 0, 0, 0, 0.01
 228231171, 0, 0, 0, 0.01, 0, 0, 0, 0.01
 228431091, 0, 0, 0, 0.01, 0, 0, 0, 0.01
 228631011, 0, 0, 0, 0.01, 0, 0, 0, 0.01
 228830931, 0, 0, 0, 0.01, 0, 0, 0, 0.01
 229030851, 0, 0, 0, 0.01, 0, 0, 0, 0.01
 229230771, 0, 0, 0, 0.01, 0, 0, 0, 0.01
 229430691, 0, 0, 0, 0.01, 0, 0, 0, 0.01
 229631444, 0, 0, 0, 0.01, 0, 0, 0, 0.01
 229831364, 0, 0, 0, 0.01, 0, 0, 0, 0.01
 230031284, 0, 0, 0, 0.01, 0, 0, 0, 0.01
 230231204, 0, 0, 0, 0.01, 0, 0, 0, 0.01
 230431124, 0, 0, 0, 0.01, 0, 0, 0, 0.01
 230631044, 0, 0, 0, 0.01, 0, 0, 0, 0.01
 230830964, 0, 0, 0, 0.01, 0, 0, 0, 0.01
 231030884, 0, 0, 0, 0.01, 0, 0, 0, 0.01
 231230804, 0, 0, 0, 0.01, 0, 0, 0, 0.01
 231430724, 0, 0, 0, 0.01, 0, 0, 0, 0.01
 231631477, 0, 0, 0, 0.01, 0, 0, 0, 0.01
 231831397, 0, 0, 0, 0.01, 0, 0, 0, 0.01
 232031317, 0, 0, 0, 0.01, 0, 0, 0, 0.01
 232231237, 0, 0, 0, 0.01, 0, 0, 0, 0.01
 232431157, 0, 0, 0, 0.01, 0, 0, 0, 0.01
 232631077, 0, 0, 0, 0.01, 0, 0, 0, 0.01
 232830997, 0, 0, 0, 0.01, 0, 0, 0, 0.01
 233030917, 0, 0, 0, 0.01, 0, 0, 0, 0.01
 233230837, 0, 0, 0, 0.01, 0, 0, 0, 0.01
 233430757, 0, 0, 0, 0.01, 0, 0, 0, 0.01
 233630677, 0, 0, 0, 0.01, 0, 0, 0, 0.01
 233831430, 0, 0, 0, 0.01, 0, 0, 0, 0.01
 234031350, 0, 0, 0, 0.01, 0, 0, 0, 0.01
 234231270, 0, 0, 0, 0.01, 0, 0, 0, 0.01
 234431190, 0, 0, 0, 0.01, 0, 0, 0, 0.01
 234631110, 0, 0, 0, 0.01, 0, 0, 0, 0.01
 234831030, 0, 0, 0, 0.01, 0, 0, 0, 0.01
 235030950, 0, 0, 0, 0.01, 0, 0, 0, 0.01
 235230870, 0, 0, 0, 0.01, 0, 0, 0, 0.01
 235430790, 0, 0, 0, 0.01, 0, 0, 0, 0.01
 235630710, 0, 0, 0, 0.01, 0, 0, 0, 0.01
 235831463, 0, 0, 0, 0.01, 0, 0, 0, 0.01
 236031383, 0, 0, 0, 0.01, 0, 0, 0, 0.01
 236231303, 0, 0, 0, 0.01, 0, 0, 0, 0.01
 236431223, 0, 0, 0, 0.01, 0, 0, 0, 0.01
 236631143, 0, 0, 0, 0.01, 0, 0, 0, 0.01
 236831063, 0, 0, 0, 0.01, 0, 0, 0, 0.01
 237030983, 0, 0, 0, 0.01, 0, 0, 0, 0.01
 237230903, 0, 0, 0, 0.01, 0, 0, 0, 0.01
 237430823, 0, 0, 0, 0.01, 0, 0, 0, 0.01
 237630743, 0, 0, 0, 0.01, 0, 0, 0, 0.01
 237830663, 0, 0, 0, 0.01, 0, 0, 0, 0.01
 238031416, 0, 0, 0, 0.01, 0, 0, 0, 0.01
 238231336, 0, 0, 0, 0.01, 0, 0, 0, 0.01
 238431256, 0, 0, 0, 0.01, 0, 0, 0, 0.01
 238631176, 0, 0, 0, 0.01, 0, 0, 0, 0.01
 238831096, 0, 0, 0, 0.01, 0, 0, 0, 0.01
 239031016, 0, 0, 0, 0.01, 0, 0, 0, 0.01
 239230936, 0, 0, 0, 0.01, 0, 0, 0, 0.01
 239430856, 0, 0, 0, 0.01, 0, 0, 0, 0.01
 239630776, 0, 0, 0, 0.01, 0, 0, 0, 0.01
 239830696, 0, 0, 0, 0.01, 0, 0, 0, 0.01
 240031449, 0, 0, 0, 0.01, 0, 0, 0, 0.01
 240231369, 0, 0, 0, 0.01, 0, 0, 0, 0.01
 240431289, 0, 0, 0, 0.01, 0, 0, 0, 0.01
 240631209, 0, 0, 0, 0.01, 0, 0, 0, 0.01
 240831129, 0, 0, 0, 0.01, 0, 0, 0, 0.01
 241031049, 0, 0, 0, 0.01, 0, 0, 0, 0.01
 241230969, 0, 0, 0, 0.01, 0, 0, 0, 0.01
 241430889, 0, 0, 0, 0.01, 0, 0, 0, 0.01
 241630809, 0, 0, 0, 0.01, 0, 0, 0, 0.01
 241830729, 0, 0, 0, 0.01, 0, 0, 0, 0.01
 242031482, 0, 0, 0, 0.01, 0, 0, 0, 0.01
 242231402, 0, 0, 0, 0.01, 0, 0, 0, 0.01
 242431322, 0, 0, 0, 0.01, 0, 0, 0, 0.01
 242631242, 0, 0, 0, 0.01, 0, 0, 0, 0.01
 242831162, 0, 0, 0, 0.01, 0, 0, 0, 0.01
 243031082, 0, 0, 0, 0.01, 0, 0, 0, 0.01
 243231002, 0, 0, 0, 0.01, 0, 0, 0, 0.01
 243430922, 0, 0, 0, 0.01, 0, 0, 0, 0.01
 243630842, 0, 0, 0, 0.01, 0, 0, 0, 0.01
 243830762, 0, 0, 0, 0.01, 0, 0, 0, 0.01
 244030682, 0, 0, 0, 0.01, 0, 0, 0, 0.01
 244231435, 0, 0, 0, 0.01, 0, 0, 0, 0.01
 244431355, 0, 0, 0, 0.01, 0, 0, 0, 0.01
 244631275, 0, 0, 0, 0.01, 0, 0, 0, 0.01
 244831195, 0, 0, 0, 0.01, 0, 0, 0, 0.01
 245031115, 0, 0, 0, 0.01, 0, 0, 0, 0.01
 245231035, 0, 0, 0, 0.01, 0, 0, 0, 0.01
 245430955, 0, 0, 0, 0.01, 0, 0, 0, 0.01
 245630875, 0, 0, 0, 0.01, 0, 0, 0, 0.01
 245830795, 0, 0, 0, 0.01, 0, 0, 0, 0.01
 246030715, 0, 0, 0, 0.01, 0, 0, 0, 0.01
 246231468, 0, 0, 0, 0.01, 0, 0, 0, 0.01
 246431388, 0, 0, 0, 0.01, 0, 0, 0, 0.01
 246631308, 0, 0, 0, 0.01, 0, 0, 0, 0.01
 246831228, 0, 0, 0, 0.01, 0, 0, 0, 0.01
 247031148, 0, 0, 0, 0.01, 0, 0, 0, 0.01
 247231068, 0, 0, 0, 0.01, 0, 0, 0, 0.01
 247430988, 0, 0, 0, 0.01, 0, 0, 0, 0.01
 247630908, 0, 0, 0, 0.01, 0, 0, 0, 0.01
 247830828, 0, 0, 0, 0.01, 0, 0, 0, 0.01
 248030748, 0, 0, -0.292, 0.01, 0, 0, 0, 0.01
 248230668, 0, 0, -0.263, 0.01, 0, 0, -0.292, 0.01
 248431421, 0, 0, -0.231, 0.01, 0, 0, -0.263, 0.01
 248631341, -0.005, -0.005, -1.519, 0.01, 0, 0, -0.231, 0.01
 248831261, -0.019, -0.02, -2.089, 0.01, -0.005, -0.005, -1.519, 0.01
 249031181, -0.036, -0.039, -2.207, 0.01, -0.019, -0.02, -2.089, 0.01
 249231101, -0.052, -0.055, -2.432, 0.01, -0.036, -0.039, -2.207, 0.01
 249431021, -0.067, -0.06900001, -2.666, 0.01, -0.052, -0.055, -2.432, 0.01
 249630941, -0.079, -0.081, -2.852, 0.01, -0.067, -0.06900001, -2.666, 0.01
 249830861, -0.09, -0.09, -3.012, 0.01, -0.079, -0.081, -2.852, 0.01
 250030781, -0.098, -0.097, -3.156, 0.01, -0.09, -0.09, -3.012, 0.01
 250230701, -0.105, -0.103, -3.282, 0.01, -0.098, -0.097, -3.156, 0.01
 250431454, -0.11, -0.107, -3.392, 0.01, -0.105, -0.103, -3.282, 0.01
 250631374, -0.114, -0.11, -3.488, 0.01, -0.11, -0.107, -3.392, 0.01
 250831294, -0.117, -0.112, -3.573, 0.01, -0.114, -0.11, -3.488, 0.01
 251031214, -0.12, -0.115, -3.647, 0.01, -0.117, -0.112, -3.573, 0.01
 251231134, -0.123, -0.117, -3.711, 0.01, -0.12, -0.115, -3.647, 0.01
 251431054, -0.126, -0.12, -3.768, 0.01, -0.123, -0.117, -3.711, 0.01
 251630974, -0.128, -0.123, -3.819, 0.01, -0.126, -0.12, -3.768, 0.01
 251830894, -0.131, -0.126, -3.863, 0.01, -0.128, -0.123, -3.819, 0.01
 252030814, -0.134, -0.128, -3.902, 0.01, -0.131, -0.126, -3.863, 0.01
 252230734, -0.137, -0.131, -3.936, 0.01, -0.134, -0.128, -3.902, 0.01
 252430654, -0.139, -0.134, -3.966, 0.01, -0.137, -0.131, -3.936, 0.01
 252631407, -0.141, -0.136, -3.992, 0.01, -0.139, -0.134, -3.966, 0.01
 252831327, -0.143, -0.139, -4.015, 0.01, -0.141, -0.136, -3.992, 0.01
 253031247, -0.144, -0.141, -4.035, 0.01, -0.143, -0.139, -4.015, 0.01
 253231167, -0.145, -0.143, -4.053, 0.01, -0.144, -0.141, -4.035, 0.01
 253431087, -0.144, -0.144, -4.068, 0.01, -0.145, -0.143, -4.053, 0.01
 253631007, -0.144, -0.144, -4.082, 0.01, -0.144, -0.144, -4.068, 0.01
 253830927, -0.143, -0.144, -4.094, 0.01, -0.144, -0.144, -4.082, 0.01
 254030847, -0.142, -0.143, -4.105, 0.01, -0.143, -0.144, -4.094, 0.01
 254230767, -0.14, -0.143, -4.114, 0.01, -0.142, -0.143, -4.105, 0.01
 254430687, -0.138, -0.141, -4.122, 0.01, -0.14, -0.143, -4.114, 0.01
 254631440, -0.136, -0.14, -4.129, 0.01, -0.138, -0.141, -4.122, 0.01
 254831360, -0.135, -0.139, -4.135, 0.01, -0.136, -0.14, -4.129, 0.01
 255031280, -0.133, -0.137, -4.14, 0.01, -0.135, -0.139, -4.135, 0.01
 255231200, -0.131, -0.135, -4.126, 0.01, -0.133, -0.137, -4.14, 0.01
 255431120, -0.13, -0.133, -4.056, 0.01, -0.131, -0.135, -4.126, 0.01
 255631040, -0.126, -0.13, -3.698, 0.01, -0.13, -0.133, -4.056, 0.01
 255830960, -0.122, -0.125, -3.094, 0.01, -0.126, -0.13, -3.698, 0.01
 256030880, -0.118, -0.121, -2.563, 0.01, -0.122, -0.125, -3.094, 0.01
 256230800, -0.115, -0.117, -2.099, 0.01, -0.118, -0.121, -2.563, 0.01
 256430720, -0.112, -0.114, -1.732, 0.01, -0.115, -0.117, -2.099, 0.01
 256631473, -0.107, -0.11, -1.483, 0.01, -0.112, -0.114, -1.732, 0.01
 256831393, -0.09200001, -0.09900001, -1.278, 0.01, -0.107, -0.11, -1.483, 0.01
 257031313, -0.07300001, -0.086, -1.092, 0.01, -0.09200001, -0.09900001, -1.278, 0.01
 257231233, -0.058, -0.072, -0.91, 0.01, -0.07300001, -0.086, -1.092, 0.01
 257431153, -0.047, -0.053, -0.726, 0.01, -0.058, -0.072, -0.91, 0.01
 257631073, -0.036, -0.03, -0.561, 0.01, -0.047, -0.053, -0.726, 0.01
 257830993, -0.025, -0.006, -0.422, 0.01, -0.036, -0.03, -0.561, 0.01
 258030913, -0.016, 0.014, -0.309, 0.01, -0.025, -0.006, -0.422, 0.01
 258230833, -0.01, 0.033, -0.221, 0.01, -0.016, 0.014, -0.309, 0.01
 258430753, -0.006, 0.048, -0.155, 0.01, -0.01, 0.033, -0.221, 0.01
 258630673, -0.004, 0.059, -0.107, 0.01, -0.006, 0.048, -0.155, 0.01
 258831426, -0.003, 0.067, -0.072, 0.01, -0.004, 0.059, -0.107, 0.01
 259031346, -0.003, 0.072, -0.048, 0.01, -0.003, 0.067, -0.072, 0.01
 259231266, -0.003, 0.07300001, -0.03, 0.01, -0.003, 0.072, -0.048, 0.01
 259431186, -0.004, 0.07300001, -0.017, 0.01, -0.003, 0.07300001, -0.03, 0.01
 259631106, -0.005, 0.071, -0.008, 0.01, -0.004, 0.07300001, -0.017, 0.01
 259831026, -0.006, 0.068, -0.001, 0.01, -0.005, 0.071, -0.008, 0.01
 260030946, -0.007, 0.063, 0.003, 0.01, -0.006, 0.068, -0.001, 0.01
 260230866, -0.007, 0.058, 0.007, 0.01, -0.007, 0.063, 0.003, 0.01
 260430786, -0.008, 0.053, 0.01, 0.01, -0.007, 0.058, 0.007, 0.01
 260630706, -0.008, 0.047, 0.012, 0.01, -0.008, 0.053, 0.01, 0.01
 260831459, -0.008, 0.042, 0.014, 0.01, -0.008, 0.047, 0.012, 0.01
 261031379, -0.009000001, 0.038, 0.015, 0.01, -0.008, 0.042, 0.014, 0.01
 261231299, -0.009000001, 0.034, 0.016, 0.01, -0.009000001, 0.038, 0.015, 0.01
 261431219, -0.008, 0.03, 0.016, 0.01, -0.009000001, 0.034, 0.016, 0.01
 261631139, -0.006, 0.027, 0.016, 0.01, -0.008, 0.03, 0.016, 0.01
 261831059, -0.004, 0.025, 0.016, 0.01, -0.006, 0.027, 0.016, 0.01
 262030979, -0.002, 0.023, 0.014, 0.01, -0.004, 0.025, 0.016, 0.01
 262230899, 0, 5E-05, 0.013, 0.01, -0.002, 0.023, 0.014, 0.01
 262430819, 0, 5E-05, 0.012, 0.01, 0, 5E-05, 0.013, 0.01
 262630739, 0, 5E-05, 0.011, 0.01, 0, 5E-05, 0.012, 0.01
 262830659, 0, 5E-05, 0.01, 0.01, 0, 5E-05, 0.011, 0.01
 263031412, 0, 5E-05, 0.009000001, 0.01, 0, 5E-05, 0.01, 0.01
 263231332, 0, 5E-05, 0.008, 0.01, 0, 5E-05, 0.009000001, 0.01
 263431252, 0, 5E-05, 0.007, 0.01, 0, 5E-05, 0.008, 0.01
 263631172, 0, 5E-05, 0.006, 0.01, 0, 5E-05, 0.007, 0.01
 263831092, 0, 5E-05, 0.005, 0.01, 0, 5E-05, 0.006, 0.01
 264031012, 0, 5E-05, 0.004, 0.01, 0, 5E-05, 0.005, 0.01
 264230932, 0, 5E-05, 0.004, 0.01, 0, 5E-05, 0.004, 0.01
 264430852, 0, 5E-05, 0.003, 0.01, 0, 5E-05, 0.004, 0.01
 264630772, 0, 5E-05, 0.002, 0.01, 0, 5E-05, 0.003, 0.01
 264830692, 0, 5E-05, 0.002, 0.01, 0, 5E-05, 0.002, 0.01
 265031445, 0, 5E-05, 0.001, 0.01, 0, 5E-05, 0.002, 0.01
 265231365, 0, 5E-05, 0.001, 0.01, 0, 5E-05, 0.001, 0.01
 265431285, 0, 5E-05, 0, 0.01, 0, 5E-05, 0.001, 0.01
 265631205, 0, 5E-05, 0, 0.01, 0, 5E-05, 0, 0.01
 265831125, 0, 5E-05, 0, 0.01, 0, 5E-05, 0, 0.01
 266031045, 0, 5E-05, 0, 0.01, 0, 5E-05, 0, 0.01
 266230965, 0, 5E-05, -0.001, 0.01, 0, 5E-05, 0, 0.01
 266430885, 0, 5E-05, -0.001, 0.01, 0, 5E-05, -0.001, 0.01
 266630805, 0, 5E-05, -0.001, 0.01, 0, 5E-05, -0.001, 0.01
 266830725, 0, 5E-05, -0.002, 0.01, 0, 5E-05, -0.001, 0.01
 267031478, 0, 5E-05, -0.002, 0.01, 0, 5E-05, -0.002, 0.01
 267231398, 0, 5E-05, -0.002, 0.01, 0, 5E-05, -0.002, 0.01
 267431318, 0, 5E-05, -0.003, 0.01, 0, 5E-05, -0.002, 0.01
 267631238, 0, 5E-05, -0.003, 0.01, 0, 5E-05, -0.003, 0.01
 267831158, 0, 5E-05, -0.003, 0.01, 0, 5E-05, -0.003, 0.01
 268031078, 0, 5E-05, -0.004, 0.01, 0, 5E-05, -0.003, 0.01
 268230998, 0, 5E-05, -0.004, 0.01, 0, 5E-05, -0.004, 0.01
 268430918, 0, 5E-05, -0.004, 0.01, 0, 5E-05, -0.004, 0.01
 268630838, 0, 5E-05, -0.004, 0.01, 0, 5E-05, -0.004, 0.01
 268830758, 0, 5E-05, -0.004, 0.01, 0, 5E-05, -0.004, 0.01
 269030678, 0, 5E-05, -0.005, 0.01, 0, 5E-05, -0.004, 0.01
 269231431, 0, 5E-05, -0.005, 0.01, 0, 5E-05, -0.005, 0.01
 269431351, 0, 5E-05, -0.005, 0.01, 0, 5E-05, -0.005, 0.01
 269631271, 0, 5E-05, -0.005, 0.01, 0, 5E-05, -0.005, 0.01
 269831191, 0, 5E-05, -0.005, 0.01, 0, 5E-05, -0.005, 0.01
 270031111, 0, 5E-05, -0.004, 0.01, 0, 5E-05, -0.005, 0.01
 270231031, 0, 5E-05, -0.004, 0.01, 0, 5E-05, -0.004, 0.01
 270430951, 0, 5E-05, -0.004, 0.01, 0, 5E-05, -0.004, 0.01
 270630871, 0, 5E-05, -0.004, 0.01, 0, 5E-05, -0.004, 0.01
 270830791, 0, 5E-05, -0.004, 0.01, 0, 5E-05, -0.004, 0.01
 271030711, 0, 5E-05, -0.004, 0.01, 0, 5E-05, -0.004, 0.01
 271231464, 0, 5E-05, -0.004, 0.01, 0, 5E-05, -0.004, 0.01
 271431384, 0, 5E-05, -0.004, 0.01, 0, 5E-05, -0.004, 0.01
 271631304, 0, 5E-05, -0.004, 0.01, 0, 5E-05, -0.004, 0.01
 271831224, 0, 5E-05, -0.004, 0.01, 0, 5E-05, -0.004, 0.01
 272031144, 0, 5E-05, -0.004, 0.01, 0, 5E-05, -0.004, 0.01
 272231064, 0, 5E-05, -0.004, 0.01, 0, 5E-05, -0.004, 0.01
 272430984, 0, 5E-05, -0.004, 0.01, 0, 5E-05, -0.004, 0.01
 272630904, 0, 5E-05, -0.004, 0.01, 0, 5E-05, -0.004, 0.01
 272830824, 0, 5E-05, -0.004, 0.01, 0, 5E-05, -0.004, 0.01
 273030744, 0, 5E-05, -0.004, 0.01, 0, 5E-05, -0.004, 0.01
 273230664, 0, 5E-05, -0.004, 0.01, 0, 5E-05, -0.004, 0.01
 273431417, 0, 5E-05, -0.004, 0.01, 0, 5E-05, -0.004, 0.01
 273631337, 0, 5E-05, -0.004, 0.01, 0, 5E-05, -0.004, 0.01
 273831257, 0, 5E-05, -0.003, 0.01, 0, 5E-05, -0.004, 0.01
 274031177, 0, 5E-05, -0.003, 0.01, 0, 5E-05, -0.003, 0.01
 274231097, 0, 5E-05, -0.003, 0.01, 0, 5E-05, -0.003, 0.01
 274431017, 0, 5E-05, -0.002, 0.01, 0, 5E-05, -0.003, 0.01
 274630937, 0, 5E-05, -0.002, 0.01, 0, 5E-05, -0.002, 0.01
 274830857, 0, 5E-05, -0.002, 0.01, 0, 5E-05, -0.002, 0.01
 275030777, 0, 5E-05, -0.002, 0.01, 0, 5E-05, -0.002, 0.01
 275230697, 0, 5E-05, -0.002, 0.01, 0, 5E-05, -0.002, 0.01
 275431450, 0, 5E-05, -0.002, 0.01, 0, 5E-05, -0.002, 0.01
 275631370, 0, 5E-05, -0.002, 0.01, 0, 5E-05, -0.002, 0.01
 275831290, 0, 5E-05, -0.002, 0.01, 0, 5E-05, -0.002, 0.01
 276031210, 0, 5E-05, -0.002, 0.01, 0, 5E-05, -0.002, 0.01
 276231130, 0, 5E-05, -0.002, 0.01, 0, 5E-05, -0.002, 0.01
 276431050, 0, 5E-05, -0.002, 0.01, 0, 5E-05, -0.002, 0.01
 276630970, 0, 5E-05, -0.002, 0.01, 0, 5E-05, -0.002, 0.01
 276830890, 0, 5E-05, -0.002, 0.01, 0, 5E-05, -0.002, 0.01
 277030810, 0, 5E-05, -0.002, 0.01, 0, 5E-05, -0.002, 0.01
 277230730, 0, 5E-05, -0.001, 0.01, 0, 5E-05, -0.002, 0.01
 277431483, 0, 5E-05, -0.001, 0.01, 0, 5E-05, -0.001, 0.01
 277631403, 0, 5E-05, -0.001, 0.01, 0, 5E-05, -0.001, 0.01
 277831323, 0, 5E-05, 0, 0.01, 0, 5E-05, -0.001, 0.01
 278031243, 0, 5E-05, 0, 0.01, 0, 5E-05, 0, 0.01
 278231163, 0, 5E-05, 0, 0.01, 0, 5E-05, 0, 0.01
 278431083, 0, 5E-05, 0, 0.01, 0, 5E-05, 0, 0.01
 278631003, 0, 5E-05, 0, 0.01, 0, 5E-05, 0, 0.01
 278830923, 0, 5E-05, 0, 0.01, 0, 5E-05, 0, 0.01
 279030843, 0, 5E-05, 0, 0.01, 0, 5E-05, 0, 0.01
 279230763, 0, 5E-05, 0, 0.01, 0, 5E-05, 0, 0.01
 279430683, 0, 5E-05, 0, 0.01, 0, 5E-05, 0, 0.01
 279631436, 0, 5E-05, 0, 0.01, 0, 5E-05, 0, 0.01
 279831356, 0, 5E-05, 0.001, 0.01, 0, 5E-05, 0, 0.01
 280031276, 0, 5E-05, 0, 0.01, 0, 5E-05, 0.001, 0.01
 280231196, 0, 5E-05, 0.001, 0.01, 0, 5E-05, 0, 0.01
 280431116, 0, 5E-05, 0, 0.01, 0, 5E-05, 0.001, 0.01
 280631036, 0, 5E-05, 0, 0.01, 0, 5E-05, 0, 0.01
 280830956, 0, 5E-05, 0, 0.01, 0, 5E-05, 0, 0.01
 281030876, 0, 5E-05, 0, 0.01, 0, 5E-05, 0, 0.01
 281230796, 0, 5E-05, 0, 0.01, 0, 5E-05, 0, 0.01
 281430716, 0, 5E-05, 0, 0.01, 0, 5E-05, 0, 0.01
 281631469, 0, 5E-05, 0, 0.01, 0, 5E-05, 0, 0.01
 281831389, 0, 5E-05, 0, 0.01, 0, 5E-05, 0, 0.01
 282031309, 0, 5E-05, 0, 0.01, 0, 5E-05, 0, 0.01
 282231229, 0, 5E-05, 0, 0.01, 0, 5E-05, 0, 0.01
 282431149, 0, 5E-05, 0, 0.01, 0, 5E-05, 0, 0.01
 282631069, 0, 5E-05, 0, 0.01, 0, 5E-05, 0, 0.01
 282830989, 0, 5E-05, 0, 0.01, 0, 5E-05, 0, 0.01
 283030909, 0, 5E-05, 0, 0.01, 0, 5E-05, 0, 0.01
 283230829, 0, 5E-05, 0, 0.01, 0, 5E-05, 0, 0.01
 283430749, 0, 5E-05, 0, 0.01, 0, 5E-05, 0, 0.01
 283630669, 0, 5E-05, 0.001, 0.01, 0, 5E-05, 0, 0.01
 283831422, 0, 5E-05, 0.001, 0.01, 0, 5E-05, 0.001, 0.01
 284031342, 0, 5E-05, 0, 0.01, 0, 5E-05, 0.001, 0.01
 284231262, 0, 5E-05, 0, 0.01, 0, 5E-05, 0, 0.01
 284431182, 0, 5E-05, 0, 0.01, 0, 5E-05, 0, 0.01
 284631102, 0, 5E-05, 0, 0.01, 0, 5E-05, 0, 0.01
 284831022, 0, 5E-05, 0, 0.01, 0, 5E-05, 0, 0.01
 285030942, 0, 5E-05, 0, 0.01, 0, 5E-05, 0, 0.01
 285230862, 0, 5E-05, 0, 0.01, 0, 5E-05, 0, 0.01
 285430782, 0, 5E-05, 0, 0.01, 0, 5E-05, 0, 0.01
 285630702, 0, 5E-05, 0, 0.01, 0, 5E-05, 0, 0.01
 285831455, 0, 5E-05, 0, 0.01, 0, 5E-05, 0, 0.01
 286031375, 0, 5E-05, 0, 0.01, 0, 5E-05, 0, 0.01
 286231295, 0, 5E-05, 0, 0.01, 0, 5E-05, 0, 0.01
 286431215, 0, 5E-05, 0, 0.01, 0, 5E-05, 0, 0.01
 286631135, 0, 5E-05, 0.001, 0.01, 0, 5E-05, 0, 0.01
 286831055, 0, 5E-05, 0, 0.01, 0, 5E-05, 0.001, 0.01
 287030975, 0, 5E-05, 0, 0.01, 0, 5E-05, 0, 0.01
 287230895, 0, 5E-05, 0, 0.01, 0, 5E-05, 0, 0.01
 287430815, 0, 5E-05, 0, 0.01, 0, 5E-05, 0, 0.01
 287630735, 0, 5E-05, 0, 0.01, 0, 5E-05, 0, 0.01
 287830655, 0, 5E-05, 0, 0.01, 0, 5E-05, 0, 0.01
 288031408, 0, 5E-05, 0, 0.01, 0, 5E-05, 0, 0.01
 288231328, 0, 5E-05, 0, 0.01, 0, 5E-05, 0, 0.01
 288431248, 0, 5E-05, 0, 0.01, 0, 5E-05, 0, 0.01
 288631168, 0, 5E-05, 0, 0.01, 0, 5E-05, 0, 0.01
 288831088, 0, 5E-05, 0, 0.01, 0, 5E-05, 0, 0.01
 289031008, 0, 5E-05, 0, 0.01, 0, 5E-05, 0, 0.01
 289230928, 0, 5E-05, 0, 0.01, 0, 5E-05, 0, 0.01
 289430848, 0, 5E-05, 0, 0.01, 0, 5E-05, 0, 0.01
 289630768, 0, 5E-05, -0.001, 0.01, 0, 5E-05, 0, 0.01
 289830688, 0, 5E-05, -0.001, 0.01, 0, 5E-05, -0.001, 0.01
 290031441, 0, 5E-05, -0.001, 0.01, 0, 5E-05, -0.001, 0.01
 290231361, 0, 5E-05, -0.001, 0.01, 0, 5E-05, -0.001, 0.01
 290431281, 0, 5E-05, -0.001, 0.01, 0, 5E-05, -0.001, 0.01
 290631201, 0, 5E-05, 0, 0.01, 0, 5E-05, -0.001, 0.01
 290831121, 0, 5E-05, 0, 0.01, 0, 5E-05, 0, 0.01
 291031041, 0, 5E-05, 0, 0.01, 0, 5E-05, 0, 0.01
 291230961, 0, 5E-05, -0.001, 0.01, 0, 5E-05, 0, 0.01
 291430881, 0, 5E-05, -0.001, 0.01, 0, 5E-05, -0.001, 0.01
 291630801, 0, 5E-05, -0.002, 0.01, 0, 5E-05, -0.001, 0.01
 291830721, 0, 5E-05, -0.002, 0.01, 0, 5E-05, -0.002, 0.01
 292031474, 0, 5E-05, -0.003, 0.01, 0, 5E-05, -0.002, 0.01
 292231394, 0, 5E-05, -0.002, 0.01, 0, 5E-05, -0.003, 0.01
 292431314, 0, 5E-05, -0.002, 0.01, 0, 5E-05, -0.002, 0.01
 292631234, 0, 5E-05, -0.002, 0.01, 0, 5E-05, -0.002, 0.01
 292831154, 0, 5E-05, -0.002, 0.01, 0, 5E-05, -0.002, 0.01
 293031074, 0, 5E-05, -0.001, 0.01, 0, 5E-05, -0.002, 0.01
 293230994, 0, 5E-05, -0.001, 0.01, 0, 5E-05, -0.001, 0.01
 293430914, 0, 5E-05, -0.002, 0.01, 0, 5E-05, -0.001, 0.01
 293630834, 0, 5E-05, -0.002, 0.01, 0, 5E-05, -0.002, 0.01
 293830754, 0, 5E-05, -0.002, 0.01, 0, 5E-05, -0.002, 0.01
 294030674, 0, 5E-05, -0.002, 0.01, 0, 5E-05, -0.002, 0.01
 294231427, 0, 5E-05, -0.002, 0.01, 0, 5E-05, -0.002, 0.01
 294431347, 0, 5E-05, -0.002, 0.01, 0, 5E-05, -0.002, 0.01
 294631267, 0, 5E-05, -0.001, 0.01, 0, 5E-05, -0.002, 0.01
 294831187, 0, 5E-05, 0, 0.01, 0, 5E-05, -0.001, 0.01
 295031107, 0, 5E-05, 0, 0.01, 0, 5E-05, 0, 0.01
 295231027, 0, 5E-05, -0.001, 0.01, 0, 5E-05, 0, 0.01
 295430947, 0, 5E-05, -0.001, 0.01, 0, 5E-05, -0.001, 0.01
 295630867, 0, 5E-05, -0.001, 0.01, 0, 5E-05, -0.001, 0.01
 295830787, 0, 5E-05, -0.001, 0.01, 0, 5E-05, -0.001, 0.01
 296030707, 0, 5E-05, -0.001, 0.01, 0, 5E-05, -0.001, 0.01
 296231460, 0, 5E-05, -0.001, 0.01, 0, 5E-05, -0.001, 0.01
 296431380, 0, 5E-05, 0, 0.01, 0, 5E-05, -0.001, 0.01
 296631300, 0, 5E-05, 0, 0.01, 0, 5E-05, 0, 0.01
 296831220, 0, 5E-05, 0, 0.01, 0, 5E-05, 0, 0.01
 297031140, 0, 5E-05, 0, 0.01, 0, 5E-05, 0, 0.01
 297231060, 0, 5E-05, -0.001, 0.01, 0, 5E-05, 0, 0.01
 297430980, 0, 5E-05, -0.001, 0.01, 0, 5E-05, -0.001, 0.01
 297630900, 0, 5E-05, 0, 0.01, 0, 5E-05, -0.001, 0.01
 297830820, 0, 5E-05, -0.001, 0.01, 0, 5E-05, 0, 0.01
 298030740, 0, 5E-05, 0, 0.01, 0, 5E-05, -0.001, 0.01
 298230660, 0, 5E-05, 0, 0.01, 0, 5E-05, 0, 0.01
 298431413, 0, 5E-05, 0, 0.01, 0, 5E-05, 0, 0.01
 298631333, 0, 5E-05, -0.001, 0.01, 0, 5E-05, 0, 0.01
 298831253, 0, 5E-05, -0.001, 0.01, 0, 5E-05, -0.001, 0.01
 299031173, 0, 5E-05, -0.001, 0.01, 0, 5E-05, -0.001, 0.01
 299231093, 0, 5E-05, -0.001, 0.01, 0, 5E-05, -0.001, 0.01
 299431013, 0, 5E-05, -0.001, 0.01, 0, 5E-05, -0.001, 0.01
 299630933, 0, 5E-05, 0, 0.01, 0, 5E-05, -0.001, 0.01
 299830853, 0, 5E-05, 0, 0.01, 0, 5E-05, 0, 0.01
 300030773, 0, 5E-05, 0, 0.01, 0, 5E-05, 0, 0.01
 300230693, 0, 5E-05, -0.001, 0.01, 0, 5E-05, 0, 0.01
 300431446, 0, 5E-05, -0.001, 0.01, 0, 5E-05, -0.001, 0.01
 300631366, 0, 5E-05, -0.001, 0.01, 0, 5E-05, -0.001, 0.01
 300831286, 0, 5E-05, -0.001, 0.01, 0, 5E-05, -0.001, 0.01
 301031206, 0, 5E-05, -0.001, 0.01, 0, 5E-05, -0.001, 0.01
 301231126, 0, 5E-05, -0.001, 0.01, 0, 5E-05, -0.001, 0.01
 301431046, 0, 5E-05, -0.001, 0.01, 0, 5E-05, -0.001, 0.01
 301630966, 0, 5E-05, -0.001, 0.01, 0, 5E-05, -0.001, 0.01
 301830886, 0, 5E-05, -0.002, 0.01, 0, 5E-05, -0.001, 0.01
 302030806, 0, 5E-05, -0.002, 0.01, 0, 5E-05, -0.002, 0.01
 302230726, 0, 5E-05, -0.002, 0.01, 0, 5E-05, -0.002, 0.01
 302431479, 0, 5E-05, -0.002, 0.01, 0, 5E-05, -0.002, 0.01
 302631399, 0, 5E-05, -0.002, 0.01, 0, 5E-05, -0.002, 0.01
 302831319, 0, 5E-05, -0.002, 0.01, 0, 5E-05, -0.002, 0.01
 303031239, 0, 5E-05, -0.001, 0.01, 0, 5E-05, -0.002, 0.01
 303231159, 0, 5E-05, -0.001, 0.01, 0, 5E-05, -0.001, 0.01
 303431079, 0, 5E-05, -0.001, 0.01, 0, 5E-05, -0.001, 0.01
 303630999, 0, 5E-05, -0.001, 0.01, 0, 5E-05, -0.001, 0.01
 303830919, 0, 5E-05, -0.001, 0.01, 0, 5E-05, -0.001, 0.01
 304030839, 0, 5E-05, -0.001, 0.01, 0, 5E-05, -0.001, 0.01
 304230759, 0, 5E-05, -0.001, 0.01, 0, 5E-05, -0.001, 0.01
 304430679, 0, 5E-05, -0.001, 0.01, 0, 5E-05, -0.001, 0.01
 304631432, 0, 5E-05, 0, 0.01, 0, 5E-05, -0.001, 0.01
 304831352, 0, 5E-05, 0, 0.01, 0, 5E-05, 0, 0.01
 305031272, 0, 5E-05, 0, 0.01, 0, 5E-05, 0, 0.01
 305231192, 0, 5E-05, -0.001, 0.01, 0, 5E-05, 0, 0.01
 305431112, 0, 5E-05, -0.001, 0.01, 0, 5E-05, -0.001, 0.01
 305631032, 0, 5E-05, -0.001, 0.01, 0, 5E-05, -0.001, 0.01
 305830952, 0, 5E-05, 0, 0.01, 0, 5E-05, -0.001, 0.01
 306030872, 0, 5E-05, 0, 0.01, 0, 5E-05, 0, 0.01
 306230792, 0, 5E-05, 0, 0.01, 0, 5E-05, 0, 0.01
 306430712, 0, 5E-05, -0.001, 0.01, 0, 5E-05, 0, 0.01
 306631465, 0, 5E-05, -0.001, 0.01, 0, 5E-05, -0.001, 0.01
 306831385, 0, 5E-05, -0.001, 0.01, 0, 5E-05, -0.001, 0.01
 307031305, 0, 5E-05, -0.001, 0.01, 0, 5E-05, -0.001, 0.01
 307231225, 0, 5E-05, -0.001, 0.01, 0, 5E-05, -0.001, 0.01
 307431145, 0, 5E-05, -0.001, 0.01, 0, 5E-05, -0.001, 0.01
 307631065, 0, 5E-05, -0.002, 0.01, 0, 5E-05, -0.001, 0.01
 307830985, 0, 5E-05, -0.002, 0.01, 0, 5E-05, -0.002, 0.01
 308030905, 0, 5E-05, -0.002, 0.01, 0, 5E-05, -0.002, 0.01
 308230825, 0, 5E-05, -0.003, 0.01, 0, 5E-05, -0.002, 0.01
 308430745, 0, 5E-05, -0.002, 0.01, 0, 5E-05, -0.003, 0.01
 308630665, 0, 5E-05, -0.002, 0.01, 0, 5E-05, -0.002, 0.01
 308831418, 0, 5E-05, -0.002, 0.01, 0, 5E-05, -0.002, 0.01
 309031338, 0, 5E-05, -0.001, 0.01, 0, 5E-05, -0.002, 0.01
 309231258, 0, 5E-05, -0.001, 0.01, 0, 5E-05, -0.001, 0.01
 309431178, 0, 5E-05, -0.001, 0.01, 0, 5E-05, -0.001, 0.01
 309631098, 0, 5E-05, -0.001, 0.01, 0, 5E-05, -0.001, 0.01
 309831018, 0, 5E-05, -0.001, 0.01, 0, 5E-05, -0.001, 0.01
 310030938, 0, 5E-05, -0.001, 0.01, 0, 5E-05, -0.001, 0.01
 310230858, 0, 5E-05, -0.001, 0.01, 0, 5E-05, -0.001, 0.01
 310430778, 0, 5E-05, 0, 0.01, 0, 5E-05, -0.001, 0.01
 310630698, 0, 5E-05, 0, 0.01, 0, 5E-05, 0, 0.01
 310831451, 0, 5E-05, 0, 0.01, 0, 5E-05, 0, 0.01
 311031371, 0, 5E-05, -0.001, 0.01, 0, 5E-05, 0, 0.01
 311231291, 0, 5E-05, -0.001, 0.01, 0, 5E-05, -0.001, 0.01
 311431211, 0, 5E-05, 0, 0.01, 0, 5E-05, -0.001, 0.01
 311631131, 0, 5E-05, 0, 0.01, 0, 5E-05, 0, 0.01
 311831051, 0, 5E-05, -0.001, 0.01, 0, 5E-05, 0, 0.01
 312030971, 0, 5E-05, -0.001, 0.01, 0, 5E-05, -0.001, 0.01
 312230891, 0, 5E-05, -0.001, 0.01, 0, 5E-05, -0.001, 0.01
 312430811, 0, 5E-05, -0.001, 0.01, 0, 5E-05, -0.001, 0.01
 312630731, 0, 5E-05, -0.001, 0.01, 0, 5E-05, -0.001, 0.01
 312831484, 0, 5E-05, 0, 0.01, 0, 5E-05, -0.001, 0.01
 313031404, 0, 5E-05, 0, 0.01, 0, 5E-05, 0, 0.01
 313231324, 0, 5E-05, -0.001, 0.01, 0, 5E-05, 0, 0.01
 313431244, 0, 5E-05, -0.001, 0.01, 0, 5E-05, -0.001, 0.01
 313631164, 0, 5E-05, -0.002, 0.01, 0, 5E-05, -0.001, 0.01
 313831084, 0, 5E-05, -0.002, 0.01, 0, 5E-05, -0.002, 0.01
 314031004, 0, 5E-05, -0.002, 0.01, 0, 5E-05, -0.002, 0.01
 314230924, 0, 5E-05, -0.001, 0.01, 0, 5E-05, -0.002, 0.01
 314430844, 0, 5E-05, -0.001, 0.01, 0, 5E-05, -0.001, 0.01
 314630764, 0, 5E-05, -0.001, 0.01, 0, 5E-05, -0.001, 0.01
 314830684, 0, 5E-05, -0.001, 0.01, 0, 5E-05, -0.001, 0.01
 315031437, 0, 5E-05, -0.001, 0.01, 0, 5E-05, -0.001, 0.01
 315231357, 0, 5E-05, -0.001, 0.01, 0, 5E-05, -0.001, 0.01
 315431277, 0, 5E-05, 0, 0.01, 0, 5E-05, -0.001, 0.01
 315631197, 0, 5E-05, 0, 0.01, 0, 5E-05, 0, 0.01
 315831117, 0, 5E-05, 0, 0.01, 0, 5E-05, 0, 0.01
 316031037, 0, 5E-05, 0.001, 0.01, 0, 5E-05, 0, 0.01
 316230957, 0, 5E-05, 0.001, 0.01, 0, 5E-05, 0.001, 0.01
 316430877, 0, 5E-05, 0, 0.01, 0, 5E-05, 0.001, 0.01
 316630797, 0, 5E-05, 0, 0.01, 0, 5E-05, 0, 0.01
 316830717, 0, 5E-05, 0, 0.01, 0, 5E-05, 0, 0.01
 317031470, 0, 5E-05, 0.001, 0.01, 0, 5E-05, 0, 0.01
 317231390, 0, 5E-05, 0.001, 0.01, 0, 5E-05, 0.001, 0.01
 317431310, 0, 5E-05, 0, 0.01, 0, 5E-05, 0.001, 0.01
 317631230, 0, 5E-05, 0, 0.01, 0, 5E-05, 0, 0.01
 317831150, 0, 5E-05, 0, 0.01, 0, 5E-05, 0, 0.01
 318031070, 0, 5E-05, 0, 0.01, 0, 5E-05, 0, 0.01
 318230990, 0, 5E-05, 0, 0.01, 0, 5E-05, 0, 0.01
 318430910, 0, 5E-05, 0, 0.01, 0, 5E-05, 0, 0.01
 318630830, 0, 5E-05, 0, 0.01, 0, 5E-05, 0, 0.01
 318830750, 0, 5E-05, 0, 0.01, 0, 5E-05, 0, 0.01
 319030670, 0, 5E-05, 0, 0.01, 0, 5E-05, 0, 0.01
 319231423, 0, 5E-05, 0, 0.01, 0, 5E-05, 0, 0.01
 319431343, 0, 5E-05, 0, 0.01, 0, 5E-05, 0, 0.01
 319631263, 0, 5E-05, 0.001, 0.01, 0, 5E-05, 0, 0.01
 319831183, 0, 5E-05, 0, 0.01, 0, 5E-05, 0.001, 0.01
 320031103, 0, 5E-05, 0, 0.01, 0, 5E-05, 0, 0.01
 320231023, 0, 5E-05, 0, 0.01, 0, 5E-05, 0, 0.01
 320430943, 0, 5E-05, 0, 0.01, 0, 5E-05, 0, 0.01
 320630863, 0, 5E-05, 0, 0.01, 0, 5E-05, 0, 0.01
 320830783, 0, 5E-05, -0.001, 0.01, 0, 5E-05, 0, 0.01
 321030703, 0, 5E-05, -0.001, 0.01, 0, 5E-05, -0.001, 0.01
 321231456, 0, 5E-05, -0.002, 0.01, 0, 5E-05, -0.001, 0.01
 321431376, 0, 5E-05, -0.002, 0.01, 0, 5E-05, -0.002, 0.01
 321631296, 0, 5E-05, -0.002, 0.01, 0, 5E-05, -0.002, 0.01
 321831216, 0, 5E-05, -0.002, 0.01, 0, 5E-05, -0.002, 0.01
 322031136, 0, 5E-05, -0.001, 0.01, 0, 5E-05, -0.002, 0.01
 322231056, 0, 5E-05, -0.001, 0.01, 0, 5E-05, -0.001, 0.01
 322430976, 0, 5E-05, -0.001, 0.01, 0, 5E-05, -0.001, 0.01
 322630896, 0, 5E-05, -0.001, 0.01, 0, 5E-05, -0.001, 0.01
 322830816, -0.655, 4.806, -0.001, 0.01, 0, 5E-05, -0.001, 0.01
 323030736, -0.657, 4.822, -0.001, 0.01, -0.655, 4.806, -0.001, 0.01
 323230656, -0.659, 4.838, 0, 0.01, -0.657, 4.822, -0.001, 0.01
 323431409, -0.664, 4.851, 0.002, 0.01, -0.659, 4.838, 0, 0.01
 323631329, -0.679, 4.849, 0.027, 0.01, -0.664, 4.851, 0.002, 0.01
 323831249, -0.703, 4.828, 0.087, 0.01, -0.679, 4.849, 0.027, 0.01
 324031169, -0.733, 4.793, 0.193, 0.01, -0.703, 4.828, 0.087, 0.01
 324231089, -0.749, 4.719, 0.341, 0.01, -0.733, 4.793, 0.193, 0.01
 324431009, -0.701, 4.352, 0.466, 0.01, -0.749, 4.719, 0.341, 0.01
 324630929, -0.629, 3.816, 0.549, 0.01, -0.701, 4.352, 0.466, 0.01
 324830849, -0.565, 3.307, 0.649, 0.01, -0.629, 3.816, 0.549, 0.01
 325030769, -0.514, 2.884, 0.77, 0.01, -0.565, 3.307, 0.649, 0.01
 325230689, -0.471, 2.528, 0.9110001, 0.01, -0.514, 2.884, 0.77, 0.01
 325431442, -0.435, 2.221, 1.06, 0.01, -0.471, 2.528, 0.9110001, 0.01
 325631362, -0.403, 1.951, 1.21, 0.01, -0.435, 2.221, 1.06, 0.01
 325831282, -0.375, 1.712, 1.35, 0.01, -0.403, 1.951, 1.21, 0.01
 326031202, -0.351, 1.502, 1.471, 0.01, -0.375, 1.712, 1.35, 0.01
 326231122, -0.331, 1.318, 1.569, 0.01, -0.351, 1.502, 1.471, 0.01
 326431042, -0.313, 1.155, 1.646, 0.01, -0.331, 1.318, 1.569, 0.01
 326630962, -0.299, 1.012, 1.703, 0.01, -0.313, 1.155, 1.646, 0.01
 326830882, -0.286, 0.8850001, 1.743, 0.01, -0.299, 1.012, 1.703, 0.01
 327030802, -0.276, 0.774, 1.766, 0.01, -0.286, 0.8850001, 1.743, 0.01
 327230722, -0.267, 0.6760001, 1.775, 0.01, -0.276, 0.774, 1.766, 0.01
 327431475, -0.26, 0.589, 1.77, 0.01, -0.267, 0.6760001, 1.775, 0.01
 327631395, -0.254, 0.513, 1.753, 0.01, -0.26, 0.589, 1.77, 0.01
 327831315, -0.25, 0.445, 1.727, 0.01, -0.254, 0.513, 1.753, 0.01
 328031235, -0.247, 0.385, 1.696, 0.01, -0.25, 0.445, 1.727, 0.01
 328231155, -0.244, 0.332, 1.66, 0.01, -0.247, 0.385, 1.696, 0.01
 328431075, -0.242, 0.285, 1.623, 0.01, -0.244, 0.332, 1.66, 0.01
 328630995, -0.24, 0.243, 1.585, 0.01, -0.242, 0.285, 1.623, 0.01
 328830915, -0.239, 0.205, 1.548, 0.01, -0.24, 0.243, 1.585, 0.01
 329030835, -0.237, 0.172, 1.513, 0.01, -0.239, 0.205, 1.548, 0.01
 329230755, -0.236, 0.143, 1.482, 0.01, -0.237, 0.172, 1.513, 0.01
 329430675, -0.234, 0.117, 1.454, 0.01, -0.236, 0.143, 1.482, 0.01
 329631428, -0.231, 0.09500001, 1.43, 0.01, -0.234, 0.117, 1.454, 0.01
 329831348, -0.226, 0.075, 1.411, 0.01, -0.231, 0.09500001, 1.43, 0.01
 330031268, -0.219, 0.057, 1.395, 0.01, -0.226, 0.075, 1.411, 0.01
 330231188, -0.212, 0.041, 1.384, 0.01, -0.219, 0.057, 1.395, 0.01
 330431108, -0.204, 0.027, 1.376, 0.01, -0.212, 0.041, 1.384, 0.01
 330631028, -0.196, 0.015, 1.372, 0.01, -0.204, 0.027, 1.376, 0.01
 330830948, -0.188, 0.004, 1.37, 0.01, -0.196, 0.015, 1.372, 0.01
 331030868, -0.18, -0.004, 1.372, 0.01, -0.188, 0.004, 1.37, 0.01
 331230788, -0.171, -0.012, 1.376, 0.01, -0.18, -0.004, 1.372, 0.01
 331430708, -0.162, -0.019, 1.381, 0.01, -0.171, -0.012, 1.376, 0.01
 331631461, -0.154, -0.025, 1.386, 0.01, -0.162, -0.019, 1.381, 0.01
 331831381, -0.146, -0.029, 1.392, 0.01, -0.154, -0.025, 1.386, 0.01
 332031301, -0.138, -0.033, 1.4, 0.01, -0.146, -0.029, 1.392, 0.01
 332231221, -0.13, -0.037, 1.407, 0.01, -0.138, -0.033, 1.4, 0.01
 332431141, -0.122, -0.041, 1.413, 0.01, -0.13, -0.037, 1.407, 0.01
 332631061, -0.115, -0.044, 1.418, 0.01, -0.122, -0.041, 1.413, 0.01
 332830981, -0.108, -0.047, 1.423, 0.01, -0.115, -0.044, 1.418, 0.01
 333030901, -0.102, -0.049, 1.427, 0.01, -0.108, -0.047, 1.423, 0.01
 333230821, -0.097, -0.051, 1.431, 0.01, -0.102, -0.049, 1.427, 0.01
 333430741, -0.093, -0.052, 1.434, 0.01, -0.097, -0.051, 1.431, 0.01
 333630661, -0.09, -0.053, 1.438, 0.01, -0.093, -0.052, 1.434, 0.01
 333831414, -0.086, -0.054, 1.44, 0.01, -0.09, -0.053, 1.438, 0.01
 334031334, -0.083, -0.054, 1.442, 0.01, -0.086, -0.054, 1.44, 0.01
 334231254, -0.081, -0.054, 1.444, 0.01, -0.083, -0.054, 1.442, 0.01
 334431174, -0.078, -0.054, 1.445, 0.01, -0.081, -0.054, 1.444, 0.01
 334631094, -0.075, -0.054, 1.447, 0.01, -0.078, -0.054, 1.445, 0.01
 334831014, -0.07300001, -0.054, 1.448, 0.01, -0.075, -0.054, 1.447, 0.01
 335030934, -0.071, -0.055, 1.447, 0.01, -0.07300001, -0.054, 1.448, 0.01
 335230854, -0.06900001, -0.055, 1.446, 0.01, -0.071, -0.055, 1.447, 0.01
 335430774, -0.06900001, -0.056, 1.443, 0.01, -0.06900001, -0.055, 1.446, 0.01
 335630694, -0.06900001, -0.056, 1.441, 0.01, -0.06900001, -0.056, 1.443, 0.01
 335831447, -0.07, -0.057, 1.44, 0.01, -0.06900001, -0.056, 1.441, 0.01
 336031367, -0.07, -0.057, 1.438, 0.01, -0.07, -0.057, 1.44, 0.01
 336231287, -0.071, -0.057, 1.437, 0.01, -0.07, -0.057, 1.438, 0.01
 336431207, -0.072, -0.057, 1.436, 0.01, -0.071, -0.057, 1.437, 0.01
 336631127, -0.07300001, -0.057, 1.434, 0.01, -0.072, -0.057, 1.436, 0.01
 336831047, -0.07300001, -0.057, 1.434, 0.01, -0.07300001, -0.057, 1.434, 0.01
 337030967, -0.07300001, -0.057, 1.433, 0.01, -0.07300001, -0.057, 1.434, 0.01
 337230887, -0.07300001, -0.056, 1.432, 0.01, -0.07300001, -0.057, 1.433, 0.01
 337430807, -0.07300001, -0.056, 1.431, 0.01, -0.07300001, -0.056, 1.432, 0.01
 337630727, -0.07300001, -0.056, 1.431, 0.01, -0.07300001, -0.056, 1.431, 0.01
 337831480, -0.072, -0.056, 1.43, 0.01, -0.07300001, -0.056, 1.431, 0.01
 338031400, -0.072, -0.056, 1.43, 0.01, -0.072, -0.056, 1.43, 0.01
 338231320, -0.071, -0.056, 1.426, 0.01, -0.072, -0.056, 1.43, 0.01
 338431240, -0.07, -0.057, 1.413, 0.01, -0.071, -0.056, 1.426, 0.01
 338631160, -0.06900001, -0.058, 1.382, 0.01, -0.07, -0.057, 1.413, 0.01
 338831080, -0.06900001, -0.06, 1.328, 0.01, -0.06900001, -0.058, 1.382, 0.01
 339031000, -0.06900001, -0.061, 1.244, 0.01, -0.06900001, -0.06, 1.328, 0.01
 339230920, -0.06900001, -0.062, 1.134, 0.01, -0.06900001, -0.061, 1.244, 0.01
 339430840, -0.07, -0.063, 1.007, 0.01, -0.06900001, -0.062, 1.134, 0.01
 339630760, -0.071, -0.064, 0.872, 0.01, -0.07, -0.063, 1.007, 0.01
 339830680, -0.072, -0.064, 0.735, 0.01, -0.071, -0.064, 0.872, 0.01
 340031433, -0.07300001, -0.06500001, 0.608, 0.01, -0.072, -0.064, 0.735, 0.01
 340231353, -0.074, -0.06500001, 0.435, 0.01, -0.07300001, -0.06500001, 0.608, 0.01
 340431273, -0.07600001, -0.066, 0.163, 0.01, -0.074, -0.06500001, 0.435, 0.01
 340631193, -0.07700001, -0.067, 0.016, 0.01, -0.07600001, -0.066, 0.163, 0.01
 340831113, -0.07700001, -0.067, -0.023, 0.01, -0.07700001, -0.067, 0.016, 0.01
 341031033, -0.07700001, -0.067, 0.006, 0.01, -0.07700001, -0.067, -0.023, 0.01
 341230953, -0.07700001, -0.066, 0.074, 0.01, -0.07700001, -0.067, 0.006, 0.01
 341430873, -0.07700001, -0.066, 0.157, 0.01, -0.07700001, -0.066, 0.074, 0.01
 341630793, -0.07600001, -0.066, 0.238, 0.01, -0.07700001, -0.066, 0.157, 0.01
 341830713, -0.07600001, -0.06500001, 0.308, 0.01, -0.07600001, -0.066, 0.238, 0.01
 342031466, -0.07600001, -0.06500001, 0.365, 0.01, -0.07600001, -0.06500001, 0.308, 0.01
 342231386, -0.07600001, -0.064, 0.407, 0.01, -0.07600001, -0.06500001, 0.365, 0.01
 342431306, -0.07600001, -0.064, 0.436, 0.01, -0.07600001, -0.064, 0.407, 0.01
 342631226, -0.07600001, -0.064, 0.455, 0.01, -0.07600001, -0.064, 0.436, 0.01
 342831146, -0.07600001, -0.064, 0.467, 0.01, -0.07600001, -0.064, 0.455, 0.01
 343031066, -0.07600001, -0.064, 0.473, 0.01, -0.07600001, -0.064, 0.467, 0.01
 343230986, -0.07600001, -0.064, 0.475, 0.01, -0.07600001, -0.064, 0.473, 0.01
 343430906, -0.07600001, -0.064, 0.477, 0.01, -0.07600001, -0.064, 0.475, 0.01
 343630826, -0.07600001, -0.063, 0.478, 0.01, -0.07600001, -0.064, 0.477, 0.01
 343830746, -0.075, -0.063, 0.479, 0.01, -0.07600001, -0.063, 0.478, 0.01
 344030666, -0.075, -0.063, 0.479, 0.01, -0.075, -0.063, 0.479, 0.01
 344231419, -0.07600001, -0.063, 0.479, 0.01, -0.075, -0.063, 0.479, 0.01
 344431339, -0.07600001, -0.063, 0.479, 0.01, -0.07600001, -0.063, 0.479, 0.01
 344631259, -0.07600001, -0.063, 0.479, 0.01, -0.07600001, -0.063, 0.479, 0.01
 344831179, -0.07600001, -0.063, 0.479, 0.01, -0.07600001, -0.063, 0.479, 0.01
 345031099, -0.07600001, -0.063, 0.48, 0.01, -0.07600001, -0.063, 0.479, 0.01
 345231019, -0.07600001, -0.062, 0.48, 0.01, -0.07600001, -0.063, 0.48, 0.01
 345430939, -0.07600001, -0.062, 0.48, 0.01, -0.07600001, -0.062, 0.48, 0.01
 345630859, -0.07600001, -0.062, 0.48, 0.01, -0.07600001, -0.062, 0.48, 0.01
 345830779, -0.075, -0.062, 0.481, 0.01, -0.07600001, -0.062, 0.48, 0.01
 346030699, -0.075, -0.062, 0.481, 0.01, -0.075, -0.062, 0.481, 0.01
 346231452, -0.075, -0.061, 0.481, 0.01, -0.075, -0.062, 0.481, 0.01
 346431372, -0.075, -0.061, 0.48, 0.01, -0.075, -0.061, 0.481, 0.01
 346631292, -0.075, -0.061, 0.481, 0.01, -0.075, -0.061, 0.48, 0.01
 346831212, -0.075, -0.061, 0.481, 0.01, -0.075, -0.061, 0.481, 0.01
 347031132, -0.075, -0.061, 0.481, 0.01, -0.075, -0.061, 0.481, 0.01
 347231052, -0.075, -0.06, 0.481, 0.01, -0.075, -0.061, 0.481, 0.01
 347430972, -0.075, -0.06, 0.48, 0.01, -0.075, -0.06, 0.481, 0.01
 347630892, -0.074, -0.06, 0.48, 0.01, -0.075, -0.06, 0.48, 0.01
 347830812, -0.074, -0.06, 0.48, 0.01, -0.074, -0.06, 0.48, 0.01
 348030732, -0.074, -0.059, 0.479, 0.01, -0.074, -0.06, 0.48, 0.01
 348231485, -0.074, -0.059, 0.478, 0.01, -0.074, -0.059, 0.479, 0.01
 348431405, -0.07300001, -0.058, 0.477, 0.01, -0.074, -0.059, 0.478, 0.01
 348631325, -0.07300001, -0.058, 0.477, 0.01, -0.07300001, -0.058, 0.477, 0.01
 348831245, -0.072, -0.057, 0.477, 0.01, -0.07300001, -0.058, 0.477, 0.01
 349031165, -0.072, -0.057, 0.477, 0.01, -0.072, -0.057, 0.477, 0.01
 349231085, -0.071, -0.056, 0.477, 0.01, -0.072, -0.057, 0.477, 0.01
 349431005, -0.071, -0.056, 0.476, 0.01, -0.071, -0.056, 0.477, 0.01
 349630925, -0.07, -0.056, 0.476, 0.01, -0.071, -0.056, 0.476, 0.01
 349830845, -0.07, -0.056, 0.476, 0.01, -0.07, -0.056, 0.476, 0.01
 350030765, -0.06900001, -0.055, 0.476, 0.01, -0.07, -0.056, 0.476, 0.01
 350230685, -0.06900001, -0.055, 0.477, 0.01, -0.06900001, -0.055, 0.476, 0.01
 350431438, -0.068, -0.055, 0.476, 0.01, -0.06900001, -0.055, 0.477, 0.01
 350631358, -0.068, -0.055, 0.476, 0.01, -0.068, -0.055, 0.476, 0.01
 350831278, -0.068, -0.054, 0.477, 0.01, -0.068, -0.055, 0.476, 0.01
 351031198, -0.067, -0.054, 0.477, 0.01, -0.068, -0.054, 0.477, 0.01
 351231118, -0.067, -0.054, 0.477, 0.01, -0.067, -0.054, 0.477, 0.01
 351431038, -0.067, -0.054, 0.477, 0.01, -0.067, -0.054, 0.477, 0.01
 351630958, -0.066, -0.053, 0.477, 0.01, -0.067, -0.054, 0.477, 0.01
 351830878, -0.066, -0.053, 0.476, 0.01, -0.066, -0.053, 0.477, 0.01
 352030798, -0.066, -0.052, 0.477, 0.01, -0.066, -0.053, 0.476, 0.01
 352230718, -0.06500001, -0.051, 0.477, 0.01, -0.066, -0.052, 0.477, 0.01
 352431471, -0.06500001, -0.051, 0.478, 0.01, -0.06500001, -0.051, 0.477, 0.01
 352631391, -0.06500001, -0.05, 0.478, 0.01, -0.06500001, -0.051, 0.478, 0.01
 352831311, -0.06500001, -0.05, 0.478, 0.01, -0.06500001, -0.05, 0.478, 0.01
 353031231, -0.06500001, -0.05, 0.478, 0.01, -0.06500001, -0.05, 0.478, 0.01
 353231151, -0.06500001, -0.05, 0.478, 0.01, -0.06500001, -0.05, 0.478, 0.01
 353431071, -0.064, -0.05, 0.477, 0.01, -0.06500001, -0.05, 0.478, 0.01
 353630991, -0.064, -0.049, 0.478, 0.01, -0.064, -0.05, 0.477, 0.01
 353830911, -0.064, -0.049, 0.478, 0.01, -0.064, -0.049, 0.478, 0.01
 354030831, -0.064, -0.049, 0.478, 0.01, -0.064, -0.049, 0.478, 0.01
 354230751, -0.064, -0.049, 0.477, 0.01, -0.064, -0.049, 0.478, 0.01
 354430671, -0.064, -0.049, 0.475, 0.01, -0.064, -0.049, 0.477, 0.01
 354631424, -0.064, -0.05, 0.475, 0.01, -0.064, -0.049, 0.475, 0.01
 354831344, -0.063, -0.05, 0.474, 0.01, -0.064, -0.05, 0.475, 0.01
 355031264, -0.063, -0.05, 0.474, 0.01, -0.063, -0.05, 0.474, 0.01
 355231184, -0.063, -0.05, 0.475, 0.01, -0.063, -0.05, 0.474, 0.01
 355431104, -0.063, -0.05, 0.474, 0.01, -0.063, -0.05, 0.475, 0.01
 355631024, -0.062, -0.05, 0.472, 0.01, -0.063, -0.05, 0.474, 0.01
 355830944, -0.062, -0.049, 0.468, 0.01, -0.062, -0.05, 0.472, 0.01
 356030864, -0.061, -0.049, 0.464, 0.01, -0.062, -0.049, 0.468, 0.01
 356230784, -0.061, -0.048, 0.464, 0.01, -0.061, -0.049, 0.464, 0.01
 356430704, -0.061, -0.047, 0.466, 0.01, -0.061, -0.048, 0.464, 0.01
 356631457, -0.06, -0.047, 0.465, 0.01, -0.061, -0.047, 0.466, 0.01
 356831377, -0.06, -0.046, 0.46, 0.01, -0.06, -0.047, 0.465, 0.01
 357031297, -0.06, -0.045, 0.458, 0.01, -0.06, -0.046, 0.46, 0.01
 357231217, -0.06, -0.044, 0.46, 0.01, -0.06, -0.045, 0.458, 0.01
 357431137, 0.011, 0.007, -0.08000001, 0.01, -0.06, -0.044, 0.46, 0.01
 357631057, 0.009000001, 0.004, -0.07300001, 0.01, 0.011, 0.007, -0.08000001, 0.01
 357830977, -0.002, 0, 0.019, 0.01, 0.009000001, 0.004, -0.07300001, 0.01
 358030897, 0, 0, 0.007, 0.01, -0.002, 0, 0.019, 0.01
 358230817, 0, 0, -0.003, 0.01, 0, 0, 0.007, 0.01
 358430737, 0, 0, 0, 0.01, 0, 0, -0.003, 0.01
 358630657, 0, 0, 0, 0.01, 0, 0, 0, 0.01
 358831410, 0, 0, 0, 0.01, 0, 0, 0, 0.01
 359031330, 0, 0, 0, 0.01, 0, 0, 0, 0.01
 359231250, 0, 0, 0, 0.01, 0, 0, 0, 0.01
 359431170, 0, 0, 0, 0.01, 0, 0, 0, 0.01
 359631090, 0, 0, 0, 0.01, 0, 0, 0, 0.01
 359831010, 0, 0, 0, 0.01, 0, 0, 0, 0.01
 360030930, 0, 0, 0, 0.01, 0, 0, 0, 0.01
 360230850, 0, 0, 0, 0.01, 0, 0, 0, 0.01
 360430770, 0, 0, 0, 0.01, 0, 0, 0, 0.01
 360630690, 0, 0, 0, 0.01, 0, 0, 0, 0.01
 360831443, 0, 0, 0, 0.01, 0, 0, 0, 0.01
