TimeUS,CAN,CAE,CAD,CAe,NAN,NAE,NAD,NAe,m10,m00,Gye
 196075705, 1.414942E-06, 3.895337E-05, 3.815554E-06, 6.484905E-06, 0, 0, 0, 0, -0.9999978, -0.001444828, 2.134519
 196231476, 0.07755768, 3.085387, 0.4467385, 0.5092212, -0.192569, 3.434586, 0.0008972698, 0.5092143, -0.9999978, -0.00144279, 102.5383
 196431396, -0.1924905, 3.442013, 0.0006467613, 0.5097404, -4.792761E-05, 0.004182681, -0.0001900962, 0.0005187925, -0.9999978, -0.001438866, 171.0713
 196631316, -0.0002379489, 0.01141777, -0.0003669201, 0.00104407, -0.0003987682, 0.003962108, 1.162898E-05, 0.0005187925, -0.9999978, -0.001432786, 0.3503954
 196831236, -0.0004326994, 0.01084304, -0.0001425113, 0.00104407, 0.0001924221, 0.004110496, -6.903271E-05, 0.0005187925, -0.9999978, -0.001425883, 0.3503954
 197031156, -0.0002792333, 0.01118793, -2.555181E-05, 0.00104407, -0.0005188234, 0.003931931, -0.0002429562, 0.0005187925, -0.9999978, -0.001420059, 0.3503954
 197231076, -0.0002406248, 0.01145619, -0.0004386147, 0.00104407, 0.0001167442, 0.00426053, -0.0001635922, 0.0005187925, -0.9999978, -0.001414016, 0.3503954
 197430996, 0.0001392579, 0.01157156, -0.0004684148, 0.00104407, -7.903041E-06, 0.003886687, -0.0004933613, 0.0005187925, -0.9999978, -0.001408897, 0.3503954
 197630916, -5.72156E-05, 0.01100616, -0.0008824155, 0.00104407, 5.157538E-05, 0.00399544, -0.0001973638, 0.0005187925, -0.9999978, -0.0014037, 0.3503954
 197830836, 0.000433038, 0.01156998, -0.0004633623, 0.00104407, 0.000166026, 0.004324734, -0.0003313753, 0.0005187925, -0.9999978, -0.001396811, 0.3503954
 198030756, 0.0004152576, 0.01175504, -0.0008572844, 0.00104407, -1.669732E-05, 0.004380938, -0.000356634, 0.0005187925, -0.9999978, -0.001390295, 0.3503954
 198230676, 0.0001037211, 0.01191893, -0.0003428065, 0.00104407, 0.000356761, 0.004039928, -0.0003227314, 0.0005187925, -0.9999978, -0.001383463, 0.3503954
 198431429, 0.0002752525, 0.01138181, -0.0004919011, 0.001046232, 0.0001034209, 0.004128811, -0.0001305538, 0.0005209541, -0.9999978, -0.001379021, 0.3511209
 198631349, -2.10615E-05, 0.01145094, -0.0001993804, 0.001046232, -0.0002275832, 0.004208555, -0.0001417225, 0.0005187925, -0.9999978, -0.001384838, 0.3511209
 198831269, 2.867694E-05, 0.01142707, -0.0001054938, 0.00104407, 0.0001896208, 0.004126244, -0.0005046922, 0.0005187925, -0.9999978, -0.001389498, 0.3503954
 199031189, 0.0002987777, 0.01192018, -0.0006623607, 0.00104407, 0.0002372852, 0.004750076, -0.0002932817, 0.0005187925, -0.9999978, -0.001395063, 0.3503954
 199231109, 0.0001279227, 0.01191455, -0.0004134382, 0.00104407, -0.0001384645, 0.004263569, -2.399676E-05, 0.0005187925, -0.9999978, -0.001398915, 0.3503954
 199431029, -0.0001952756, 0.01145145, -3.302922E-05, 0.00104407, 7.169798E-05, 0.004133736, 3.266217E-05, 0.0005187925, -0.9999978, -0.001401676, 0.3503954
 199630949, 3.016603E-05, 0.01125023, 0.0001444727, 0.00104407, 0.0001546952, 0.003790037, 5.309364E-05, 0.0005187925, -0.9999978, -0.001403694, 0.3503954
 199830869, -7.163004E-05, 0.01144133, 2.387643E-05, 0.00104407, -0.0003767751, 0.004603618, -0.0001574148, 0.0005187925, -0.9999978, -0.001405186, 0.3503954
 200030789, -0.000303506, 0.01184473, -0.0003113836, 0.00104407, 0.0005358559, 0.003849385, -0.0002660342, 0.0005187925, -0.9999978, -0.001405728, 0.3503954
 200230709, 0.0007597404, 0.0110232, -4.436266E-05, 0.00104407, 0.0003070735, 0.00424563, 4.557574E-05, 0.0005187925, -0.9999978, -0.001405695, 0.3503954
 200431462, 0.0003243018, 0.01140515, -0.0004614259, 0.001046232, 0.000149638, 0.003896395, -0.000402789, 0.0005209541, -0.9999978, -0.001406929, 0.3511209
 200631382, -3.003082E-05, 0.01145062, -0.0006598324, 0.001046232, -0.0001102771, 0.00423086, -0.0002697688, 0.0005187925, -0.9999978, -0.001406044, 0.3511209
 200831302, 2.292368E-05, 0.01129673, -0.0002802991, 0.00104407, -2.761126E-05, 0.004238196, -3.580926E-05, 0.0005187925, -0.9999978, -0.001403679, 0.3503954
 201031222, 4.740327E-05, 0.01151242, 5.005979E-05, 0.00104407, 0.0003802775, 0.003987026, -0.0002452262, 0.0005187925, -0.9999979, -0.001398147, 0.3503954
 201231142, 0.0002796731, 0.01096339, -0.0003679389, 0.00104407, -0.0001016123, 0.003900523, 0.0001459027, 0.0005187925, -0.9999979, -0.001393225, 0.3503954
 201431062, -0.0004247491, 0.0111259, 0.0001624351, 0.00104407, -0.0002312822, 0.003975304, 8.688069E-06, 0.0005187925, -0.9999979, -0.001388214, 0.3503954
 201630982, -4.724437E-05, 0.01094001, 4.923996E-05, 0.00104407, 0.0001033574, 0.003768961, 0.0003822442, 0.0005187925, -0.9999979, -0.001382701, 0.3503954
 201830902, -0.0001381801, 0.01095793, 0.0002111638, 0.00104407, -0.0007017953, 0.004352471, 4.058643E-06, 0.0005187925, -0.9999979, -0.001376478, 0.3503954
 202030822, -0.0005998562, 0.01172122, -0.0002102642, 0.00104407, 0.0002164979, 0.003956037, -0.0001730179, 0.0005187925, -0.9999979, -0.001370417, 0.3503954
 202230742, 0.0003080087, 0.01131555, -0.0003487646, 0.00104407, 0.0002778769, 0.004248765, 0.0002787547, 0.0005187925, -0.9999978, -0.001363494, 0.3503954
 202430662, 0.000521316, 0.01145769, -2.786832E-05, 0.00104407, 0.0002102591, 0.004097249, -0.0003620249, 0.0005187925, -0.9999978, -0.001357292, 0.3503954
 202631415, 0.0004200707, 0.0113162, -0.0005541251, 0.001046232, 0.0003050567, 0.003832125, -0.0001997192, 0.0005209541, -0.9999978, -0.001352737, 0.3511209
 202831335, 0.0004953579, 0.01108678, -0.0003898011, 0.001046232, -0.0001082503, 0.003812, 3.827947E-05, 0.0005187925, -0.9999978, -0.001346351, 0.3511209
 203031255, -9.540077E-05, 0.01128178, -2.148366E-05, 0.00104407, 0.0004499706, 0.004692581, 0.0002119551, 0.0005187925, -0.9999978, -0.001338868, 0.3503954
 203231175, 0.0003411105, 0.01198975, -0.0001477366, 0.00104407, 5.162715E-05, 0.004317674, -0.0005462905, 0.0005187925, -0.9999978, -0.001331675, 0.3503954
 203431095, 0.0001559668, 0.01140727, -0.0005723798, 0.00104407, 0.0002684678, 0.004122844, 0.0001717679, 0.0005187925, -0.9999978, -0.001322748, 0.3503954
 203631015, 0.0004298788, 0.01161828, 0.000325858, 0.00104407, 0.0004303464, 0.004209533, 2.771937E-05, 0.0005187925, -0.9999978, -0.001315509, 0.3503954
 203830935, 0.0004612057, 0.01177255, -1.08008E-05, 0.00104407, -0.0002123592, 0.004330282, -4.95748E-05, 0.0005187925, -0.9999978, -0.001322408, 0.3503954
 204030855, 9.342297E-05, 0.0117421, -0.0002975716, 0.00104407, 0.0001583873, 0.004287847, -0.0003135583, 0.0005187925, -0.9999978, -0.001329195, 0.3503954
 204230775, 0.0002662721, 0.01160782, -0.0005048545, 0.00104407, 0.0004297201, 0.004100586, -0.0002552167, 0.0005187925, -0.9999978, -0.001334444, 0.3503954
 204430695, 0.0005905461, 0.01133945, -0.0005884046, 0.00104407, -0.0001397523, 0.00424288, -0.0002149306, 0.0005187925, -0.9999978, -0.001338779, 0.3503954
 204631448, -0.0001138789, 0.01153577, -3.265344E-05, 0.001046232, -1.03307E-05, 0.004491356, -0.0003127798, 0.0005209541, -0.9999979, -0.001344768, 0.3511209
 204831368, 0.0001450311, 0.01142746, -0.0001649408, 0.001046232, -9.984129E-05, 0.003903118, 0.0001344095, 0.0005187925, -0.9999978, -0.001346504, 0.3511209
 205031288, -0.0002065732, 0.01128749, -0.0003083581, 0.00104407, 1.522409E-05, 0.004399516, -0.0002629194, 0.0005187925, -0.9999978, -0.001347652, 0.3503954
 205231208, -7.158923E-05, 0.01165433, -0.0003817735, 0.00104407, 0.000218006, 0.004175982, -0.0002495041, 0.0005187925, -0.9999978, -0.001348746, 0.3503954
 205431128, 0.0002991585, 0.01130744, -0.0001992597, 0.00104407, -0.0001754362, 0.003595656, 0.0003013883, 0.0005187925, -0.9999978, -0.00135015, 0.3503954
 205631048, 7.810544E-05, 0.01106144, -1.872024E-05, 0.00104407, 1.896294E-05, 0.003892705, 0.0003011631, 0.0005187925, -0.9999978, -0.001350206, 0.3503954
 205830968, -6.732124E-05, 0.01122328, 0.0001788116, 0.00104407, -0.0001530972, 0.00442502, 0.0001718191, 0.0005187925, -0.9999978, -0.001348299, 0.3503954
 206030888, 6.016773E-06, 0.01159743, -0.0001388959, 0.00104407, -0.0001844402, 0.00397639, -0.0002009768, 0.0005187925, -0.9999978, -0.001346545, 0.3503954
 206230808, 6.713584E-05, 0.01111383, -0.0002092205, 0.00104407, 5.652873E-05, 0.00421018, 6.404342E-05, 0.0005187925, -0.9999978, -0.001344774, 0.3503954
 206430728, 0.000215271, 0.01134986, 0.0001622135, 0.00104407, 0.000318996, 0.004109085, -0.0001398993, 0.0005187925, -0.9999978, -0.001342901, 0.3503954
 206631481, 0.0004902367, 0.01137953, -0.0001187319, 0.001046232, -8.245927E-07, 0.004371638, 9.576626E-06, 0.0005209541, -0.9999978, -0.001342095, 0.3511209
 206831401, -8.599377E-05, 0.01187787, 9.410511E-05, 0.001046232, -5.814758E-05, 0.004159224, -1.02908E-05, 0.0005187925, -0.9999979, -0.001340573, 0.3511209
 207031321, -0.0001849061, 0.01120502, -0.0003311966, 0.00104407, -0.0001203081, 0.004476186, -0.0004639247, 0.0005187925, -0.9999979, -0.001337991, 0.3503954
 207231241, 4.077233E-05, 0.01174304, -0.0004898722, 0.00104407, -9.259542E-05, 0.003841405, -1.547903E-06, 0.0005187925, -0.9999978, -0.001333253, 0.3503954
 207431161, -0.000182439, 0.01089863, 3.711167E-05, 0.00104407, -0.0002812467, 0.004178637, 0.000105582, 0.0005187925, -0.9999978, -0.001328357, 0.3503954
 207631081, -0.0001147326, 0.01139004, -7.073191E-05, 0.00104407, 0.0002360545, 0.004461547, 0.0001358549, 0.0005187925, -0.9999978, -0.001323485, 0.3503954
 207831001, 0.0001310536, 0.011516, 0.0001830536, 0.00104407, -1.430777E-05, 0.003711174, 0.0006078469, 0.0005187925, -0.9999978, -0.001318677, 0.3503954
 208030921, -0.0001856141, 0.01136342, 0.0004773721, 0.00104407, -0.0001750437, 0.004352669, 0.0004435207, 0.0005187925, -0.9999978, -0.001313293, 0.3503954
 208230841, -1.096989E-05, 0.01164306, 0.0003397191, 0.00104407, 0.0002124581, 0.004017094, -0.0002636868, 0.0005187925, -0.9999978, -0.001307344, 0.3503954
 208430761, -3.222159E-05, 0.01129272, -0.0003057365, 0.00104407, -0.0002269728, 0.004470391, -0.0002227202, 0.0005187925, -0.9999978, -0.0013024, 0.3503954
 208630681, -0.0001615865, 0.01190593, -0.000443591, 0.00104407, -3.777099E-05, 0.00420743, -0.00011029, 0.0005187925, -0.9999978, -0.001296205, 0.3503954
 208831434, 4.6442E-05, 0.01200739, -0.0001090738, 0.001046232, 0.0002323416, 0.00445631, -4.233733E-05, 0.0005209541, -0.9999979, -0.001292189, 0.3511209
 209031354, 0.0005221677, 0.01184276, 8.133215E-05, 0.001046232, 0.0005781124, 0.004157016, 0.0007108873, 0.0005187925, -0.9999979, -0.001300871, 0.3511209
 209231274, 0.0006544473, 0.01145626, 0.0007717346, 0.00104407, 0.0001212774, 0.003985843, 0.000511599, 0.0005187925, -0.9999979, -0.001307267, 0.3503954
 209431194, 6.592248E-05, 0.011399, 0.0003381807, 0.00104407, -0.0003780371, 0.003721942, -0.0003013704, 0.0005187925, -0.9999979, -0.00131292, 0.3503954
 209631114, -0.0006303386, 0.01103126, -0.0002252906, 0.00104407, 1.486519E-05, 0.004256179, 2.823058E-05, 0.0005187925, -0.9999979, -0.001317776, 0.3503954
 209831034, -0.0001126163, 0.01159676, 1.71557E-05, 0.00104407, 0.0001330251, 0.004795478, 2.211996E-05, 0.0005187925, -0.9999979, -0.001321251, 0.3503954
 210030954, 0.0002528509, 0.01213057, 0.000157391, 0.00104407, 2.791912E-05, 0.004245683, -0.0002181599, 0.0005187925, -0.9999979, -0.001324998, 0.3503954
 210230874, -0.0001620912, 0.01159516, -8.098107E-05, 0.00104407, -0.0003045537, 0.004163213, 0.0002441669, 0.0005187925, -0.9999979, -0.001327641, 0.3503954
 210430794, -0.0002124676, 0.01150065, 0.0001315496, 0.00104407, 0.000187661, 0.004379606, -4.731312E-05, 0.0005187925, -0.9999979, -0.001328825, 0.3503954
 210630714, 0.0001076854, 0.01115077, -6.336298E-05, 0.00104407, 0.0004009211, 0.003874197, -0.0001442558, 0.0005187925, -0.9999979, -0.001327206, 0.3503954
 210831467, 0.0002844945, 0.01135606, -1.876234E-05, 0.001046232, 0.0001125793, 0.003763924, 7.605331E-05, 0.0005209541, -0.9999979, -0.001327744, 0.3511209
 211031387, 0.0001499148, 0.01117828, 9.497499E-05, 0.001046232, 3.716064E-06, 0.004262806, -0.0003954664, 0.0005187925, -0.9999979, -0.001327649, 0.3511209
 211231307, 5.851431E-05, 0.01126027, -0.0007074863, 0.00104407, -6.740362E-05, 0.003741483, 7.566732E-07, 0.0005187925, -0.9999979, -0.001326652, 0.3503954
 211431227, -0.0002906173, 0.01109145, -0.000304365, 0.00104407, 0.0003254065, 0.004328442, 0.0001823375, 0.0005187925, -0.9999979, -0.001323969, 0.3503954
 211631147, 0.0002374031, 0.01148868, -0.0001277722, 0.00104407, -0.0004244978, 0.004056684, -0.0001943133, 0.0005187925, -0.9999979, -0.001322264, 0.3503954
 211831067, -0.0008235982, 0.01129246, -0.0002039499, 0.00104407, -0.0001014356, 0.004309929, -0.0004203128, 0.0005187925, -0.9999979, -0.001319887, 0.3503954
 212030987, 1.512308E-05, 0.01175713, -0.0004063781, 0.00104407, 0.0002301006, 0.004443306, 6.021832E-05, 0.0005187925, -0.9999979, -0.001316278, 0.3503954
 212230907, 0.0002377907, 0.01152822, 0.0001811566, 0.00104407, 6.057368E-05, 0.004017333, 0.0002941087, 0.0005187925, -0.9999979, -0.001313005, 0.3503954
 212430827, 0.0001965042, 0.0111052, 0.0001557692, 0.00104407, 0.0003189177, 0.004049378, -0.0003093018, 0.0005187925, -0.9999979, -0.001308361, 0.3503954
 212630747, 0.0003771879, 0.01117885, -0.0002445316, 0.00104407, 0.0001145444, 0.003731998, 0.000127317, 0.0005187925, -0.9999979, -0.001303892, 0.3503954
 212830667, -0.0001985368, 0.01071338, -6.074622E-05, 0.00104407, -0.0003141139, 0.004181168, -0.0001618083, 0.0005187925, -0.9999979, -0.001299034, 0.3503954
 213031420, -0.0002856635, 0.0113888, -0.0006147583, 0.001046232, -0.0005168123, 0.003701638, -0.0001826263, 0.0005209541, -0.9999979, -0.001295616, 0.3511209
 213231340, -0.0004603207, 0.01124635, 4.562659E-05, 0.001046232, 0.0002284972, 0.004087063, 0.0004856634, 0.0005187925, -0.9999979, -0.001290731, 0.3511209
 213431260, 0.000252426, 0.01138272, 0.0005288285, 0.00104407, -0.0001845204, 0.004321112, -0.0001571563, 0.0005187925, -0.9999979, -0.001283395, 0.3503954
 213631180, -0.0001544516, 0.01144984, -0.0003591899, 0.00104407, -4.265998E-05, 0.003947047, -0.0005149735, 0.0005187925, -0.9999979, -0.001277928, 0.3503954
 213831100, -0.0001248231, 0.01119111, -0.0007229178, 0.00104407, -8.72898E-05, 0.003804472, -0.0003264361, 0.0005187925, -0.9999979, -0.001272149, 0.3503954
 214031020, 0.0002393387, 0.01140533, -0.0003965592, 0.00104407, 3.293363E-05, 0.004446504, 7.480489E-05, 0.0005187925, -0.9999979, -0.001266188, 0.3503954
 214230940, 0.000204543, 0.01195236, 8.04591E-05, 0.00104407, -7.147174E-05, 0.003902727, 5.013128E-06, 0.0005187925, -0.9999979, -0.001275673, 0.3503954
 214430860, 0.0003917578, 0.01115104, 1.791019E-06, 0.00104407, -6.746841E-05, 0.00413944, 8.430685E-06, 0.0005187925, -0.9999979, -0.001284298, 0.3503954
 214630780, 0.0001776717, 0.01169608, -0.0003056245, 0.00104407, -8.365566E-05, 0.00424784, -0.0003329506, 0.0005187925, -0.9999979, -0.001291671, 0.3503954
 214830700, 4.126811E-05, 0.01190745, -0.0003865996, 0.00104407, 7.851002E-05, 0.004640932, -6.781368E-05, 0.0005187925, -0.9999979, -0.001298483, 0.3503954
 215031453, 0.0001154796, 0.01204301, -0.0006327858, 0.001046232, 0.0001920692, 0.004572118, -0.0003619097, 0.0005209541, -0.9999979, -0.001303837, 0.3511209
 215231373, 6.243582E-05, 0.01221595, -0.0005504829, 0.001046232, -5.369875E-06, 0.00438792, 1.092473E-05, 0.0005187925, -0.9999979, -0.001307905, 0.3511209
 215431293, 0.0001455022, 0.01150249, 6.480722E-05, 0.00104407, 6.761689E-05, 0.003891718, 0.0003583487, 0.0005187925, -0.9999979, -0.001310055, 0.3503954
 215631213, 9.001222E-05, 0.01117365, 0.0002760199, 0.00104407, -0.000152273, 0.00371701, -0.0002367026, 0.0005187925, -0.9999979, -0.001311686, 0.3503954
 215831133, 0.0002314389, 0.01068982, -0.0001900092, 0.00104407, 0.0003305504, 0.00420174, -9.291029E-06, 0.0005187925, -0.9999979, -0.001313014, 0.3503954
 216031053, 0.0005035246, 0.01130792, -8.036734E-05, 0.00104407, 0.0001617781, 0.004339499, -9.462862E-05, 0.0005187925, -0.9999979, -0.001313288, 0.3503954
 216230973, 0.000338602, 0.0115949, -0.0002249545, 0.00104407, 0.000244163, 0.00362572, 2.386688E-05, 0.0005187925, -0.9999979, -0.001313508, 0.3503954
 216430893, 0.0007148618, 0.01083219, -0.0002958235, 0.00104407, 0.0003047195, 0.004293915, -0.0002457005, 0.0005187925, -0.9999979, -0.001312872, 0.3503954
 216630813, 9.776701E-05, 0.01144551, -0.0002845293, 0.00104407, 0.0002383558, 0.004285866, 0.0004974139, 0.0005187925, -0.9999979, -0.001312292, 0.3503954
 216830733, -4.91033E-05, 0.01149183, 4.992869E-05, 0.00104407, -0.0003327399, 0.003684296, -0.0003056244, 0.0005187925, -0.9999979, -0.001309966, 0.3503954
 217031486, -0.0001952919, 0.0107873, -0.0009184429, 0.001046232, -0.0001126611, 0.003814726, -0.0002788441, 0.0005187925, -0.9999979, -0.001306185, 0.3511209
 217231406, 0.0001213841, 0.01101688, -0.0001243591, 0.001046232, -6.595153E-05, 0.004165379, 0.0001148825, 0.0005209541, -0.9999979, -0.00130464, 0.3511209
 217431326, -1.274434E-05, 0.01130259, 2.048866E-05, 0.001046232, 0.0003245474, 0.004173158, -9.845012E-05, 0.0005187925, -0.9999979, -0.001301343, 0.3511209
 217631246, -0.0001265321, 0.01124373, -0.0003027968, 0.00104407, -0.0003469046, 0.00423654, -0.0003424931, 0.0005187925, -0.9999979, -0.001295936, 0.3503954
 217831166, -0.0006872711, 0.01179415, -0.000374749, 0.00104407, -0.000195222, 0.004251599, 2.004894E-05, 0.0005187925, -0.9999979, -0.001293579, 0.3503954
 218031086, -0.0001134422, 0.01154907, -0.0003047773, 0.00104407, -0.0001171525, 0.004104626, -0.0001559266, 0.0005187925, -0.9999979, -0.001290663, 0.3503954
 218231006, -0.0001693999, 0.01123143, -0.0003660812, 0.00104407, -0.0001477647, 0.003995822, -0.0001021823, 0.0005187925, -0.9999979, -0.00128718, 0.3503954
 218430926, 0.0001000173, 0.01141965, -0.0001522707, 0.00104407, -5.380992E-05, 0.00440414, -0.0001289281, 0.0005187925, -0.9999979, -0.001283932, 0.3503954
 218630846, -9.184398E-05, 0.01161872, -0.0005133278, 0.00104407, 0.0001031983, 0.004277835, 0.0004039257, 0.0005187925, -0.9999978, -0.001280114, 0.3503954
 218830766, 0.0001707144, 0.01174707, 7.404217E-05, 0.00104407, -0.000244256, 0.004368478, -0.0003895989, 0.0005187925, -0.9999978, -0.001276288, 0.3503954
 219030686, -0.0004051518, 0.01180833, -0.0003675207, 0.00104407, -5.172719E-05, 0.004250715, -0.0002331766, 0.0005187925, -0.9999978, -0.001273118, 0.3503954
 219231439, 0.0002380631, 0.01198491, -0.0005456044, 0.001046232, 0.0001598225, 0.004229254, -0.0002904949, 0.0005209541, -0.9999978, -0.001269583, 0.3511209
 219431359, 0.0004273219, 0.01146048, -0.0002834489, 0.001046232, 0.0004930625, 0.004494573, -9.835003E-05, 0.0005187925, -0.9999978, -0.00127945, 0.3511209
 219631279, 0.0005673096, 0.0116047, -0.0004415247, 0.00104407, 3.700586E-05, 0.004071672, -0.0001974162, 0.0005187925, -0.9999978, -0.001287561, 0.3503954
 219831199, 0.0001225975, 0.01147654, -0.0004112791, 0.00104407, 0.0001237938, 0.004236288, 5.496925E-05, 0.0005187925, -0.9999978, -0.001295759, 0.3503954
 220031119, 0.0001579473, 0.01161343, -0.0001734422, 0.00104407, -1.042057E-05, 0.004499268, 9.628972E-05, 0.0005187925, -0.9999978, -0.001303637, 0.3503954
 220231039, 7.340244E-05, 0.01152841, -0.0002183565, 0.00104407, -0.0001171508, 0.003856409, 5.290299E-05, 0.0005187925, -0.9999978, -0.001311799, 0.3503954
 220430959, -0.0002465637, 0.01115473, 0.0001275303, 0.00104407, -0.0001160301, 0.004248838, 4.069486E-05, 0.0005187925, -0.9999978, -0.001319241, 0.3503954
 220630879, -0.0003313663, 0.01176404, -5.246331E-05, 0.00104407, -0.0002725581, 0.004211554, -8.29055E-05, 0.0005187925, -0.9999978, -0.001324563, 0.3503954
 220830799, -0.0003906256, 0.01169817, 0.0001353712, 0.00104407, -0.0004771539, 0.004970152, 0.0001560779, 0.0005187925, -0.9999978, -0.001329474, 0.3503954
 221030719, -0.0004104545, 0.0124021, -0.0001231762, 0.00104407, 0.0004458057, 0.004025912, 0.0002129692, 0.0005187925, -0.9999978, -0.00133331, 0.3503954
 221231472, 0.0006535786, 0.01115418, -8.690973E-05, 0.001046232, 0.0002811064, 0.003800457, -6.680399E-05, 0.0005209541, -0.9999978, -0.00133437, 0.3511209
 221431392, 0.0001808917, 0.01128592, -0.0003631077, 0.001046232, 0.0001655419, 0.004455466, 0.0004595789, 0.0005187925, -0.9999978, -0.001338086, 0.3511209
 221631312, 0.0005336987, 0.01166067, 0.0004785699, 0.00104407, 0.0004465651, 0.004115114, -0.0001658015, 0.0005187925, -0.9999978, -0.001341025, 0.3503954
 221831232, 0.0002656986, 0.0113776, -0.0005959711, 0.00104407, -0.0004910732, 0.004323486, -0.0001555834, 0.0005187925, -0.9999978, -0.001341241, 0.3503954
 222031152, -0.0003662936, 0.01183497, -0.0002954565, 0.00104407, -0.0001190992, 0.004105176, 0.0001834171, 0.0005187925, -0.9999978, -0.001341439, 0.3503954
 222231072, -0.0001022297, 0.01153001, -3.084618E-05, 0.00104407, 0.0002315061, 0.004176822, 0.0002405515, 0.0005187925, -0.9999978, -0.001341297, 0.3503954
 222430992, 0.000195839, 0.01161085, -0.0001740332, 0.00104407, 0.0001062536, 0.004286706, -0.0003997097, 0.0005187925, -0.9999978, -0.00134154, 0.3503954
 222630912, -0.0002525485, 0.01133144, -0.0007089663, 0.00104407, -0.0002165702, 0.004143531, -0.0007013268, 0.0005187925, -0.9999978, -0.001343155, 0.3503954
 222830832, 6.39742E-05, 0.01154725, -0.0007133802, 0.00104407, -0.0002394039, 0.004871088, -0.0001429022, 0.0005187925, -0.9999978, -0.001343718, 0.3503954
 223030752, -0.0002773786, 0.01195613, -0.0005099522, 0.00104407, -0.0002872069, 0.00394497, -0.0002491562, 0.0005187925, -0.9999978, -0.001342892, 0.3503954
 223230672, -0.0006367839, 0.01106275, -0.0003246199, 0.00104407, -1.85376E-05, 0.004244054, -0.0001728463, 0.0005187925, -0.9999978, -0.001341315, 0.3503954
 223431425, 8.298042E-06, 0.01149124, -0.0003691511, 0.001046232, -8.060288E-07, 0.004093225, -0.0005201448, 0.0005209541, -0.9999978, -0.001339267, 0.3511209
 223631345, -5.93906E-05, 0.0114823, -0.0008448256, 0.001046232, -0.0003528699, 0.004370288, -0.000183398, 0.0005187925, -0.9999978, -0.001336765, 0.3511209
 223831265, -0.0005849613, 0.01168285, -0.000279316, 0.00104407, -0.0001730883, 0.004401234, 6.655295E-05, 0.0005187925, -0.9999978, -0.001333036, 0.3503954
 224031185, -0.0005557109, 0.01198738, 5.963686E-05, 0.00104407, -0.0005565397, 0.004588211, -0.0001821051, 0.0005187925, -0.9999978, -0.001330189, 0.3503954
 224231105, -0.0005501524, 0.01201046, -0.0004247002, 0.00104407, -9.7215E-05, 0.004081139, -0.0003385107, 0.0005187925, -0.9999978, -0.001327181, 0.3503954
 224431025, 4.641833E-05, 0.01131511, -0.0005339809, 0.00104407, -0.0003091077, 0.004490495, 0.0001028234, 0.0005187925, -0.9999978, -0.001323851, 0.3503954
 224630945, -0.0005126232, 0.01173716, -0.0001958027, 0.00104407, -0.0002836941, 0.004283302, -8.535188E-05, 0.0005187925, -0.9999977, -0.00133633, 0.3503954
 224830865, -2.349501E-05, 0.01171716, -6.720238E-05, 0.00104407, -1.210113E-05, 0.003886565, -0.0001033095, 0.0005187925, -0.9999977, -0.001347728, 0.3503954
 225030785, -0.0001359345, 0.01123717, -1.753462E-05, 0.00104407, -0.0004816106, 0.00421134, 0.0001691809, 0.0005187925, -0.9999977, -0.001360138, 0.3503954
 225230705, -0.0001140383, 0.0113855, 0.0001154271, 0.00104407, 0.0002760515, 0.004646937, -8.031968E-05, 0.0005187925, -0.9999977, -0.00136966, 0.3503954
 225431458, 0.0002123098, 0.01197269, -0.0004064518, 0.001046232, 0.0001509296, 0.004383549, 6.151521E-06, 0.0005209541, -0.9999977, -0.001378776, 0.3511209
 225631378, -0.0001710762, 0.01170969, -0.0004131412, 0.001046232, -0.0001370431, 0.00392839, -0.0003492353, 0.0005187925, -0.9999977, -0.00138657, 0.3511209
 225831298, 0.0001382873, 0.01176104, -0.0004285909, 0.00104407, 0.0001222895, 0.004354645, -0.0001200947, 0.0005187925, -0.9999977, -0.001392291, 0.3503954
 226031218, 0.000228694, 0.01162661, -0.0001620479, 0.00104407, -0.0002031312, 0.00417236, 6.750625E-05, 0.0005187925, -0.9999977, -0.001396856, 0.3503954
 226231138, -8.606457E-05, 0.01136305, -0.0001676758, 0.00104407, -0.0001356698, 0.004223606, 1.137278E-05, 0.0005187925, -0.9999977, -0.001402162, 0.3503954
 226431058, -0.0002224483, 0.01156871, -0.0005045339, 0.00104407, 3.644414E-05, 0.004191867, -0.0003450026, 0.0005187925, -0.9999977, -0.001407345, 0.3503954
 226630978, -2.192669E-05, 0.01176498, -0.0004465379, 0.00104407, 0.0001234226, 0.004446678, -0.0002776048, 0.0005187925, -0.9999977, -0.001411089, 0.3503954
 226830898, -0.000123555, 0.01177538, -0.0006800934, 0.00104407, -0.0002246937, 0.004071376, -0.0001990678, 0.0005187925, -0.9999977, -0.001414683, 0.3503954
 227030818, -0.0002750314, 0.01145674, -0.0003440434, 0.00104407, 0.0002625888, 0.004098849, -0.0002320458, 0.0005187925, -0.9999977, -0.001417802, 0.3503954
 227230738, 0.000372266, 0.01173383, -0.0004201555, 0.00104407, 0.0002504583, 0.004069397, -0.0003975017, 0.0005187925, -0.9999977, -0.001419455, 0.3503954
 227430658, 0.0003152908, 0.01152014, -0.0005994221, 0.00104407, -0.000377163, 0.004427412, -7.535303E-05, 0.0005187925, -0.9999977, -0.001423042, 0.3503954
 227631411, -0.0004757021, 0.01204891, 8.774265E-05, 0.001046232, -1.920244E-05, 0.004352733, 0.0001107973, 0.0005209541, -0.9999977, -0.001424335, 0.3511209
 227831331, 0.0001752393, 0.01214497, -0.0004199294, 0.001046232, 0.000186277, 0.00439282, -0.0003503804, 0.0005187925, -0.9999977, -0.001424668, 0.3511209
 228031251, 0.0003587625, 0.0114898, -0.0006366816, 0.00104407, -0.0001632127, 0.004447364, -2.821866E-05, 0.0005187925, -0.9999977, -0.001423747, 0.3503954
 228231171, -0.0001481673, 0.01199573, -0.0001008131, 0.00104407, 0.0003412234, 0.004502635, -0.0005730731, 0.0005187925, -0.9999977, -0.001422876, 0.3503954
 228431091, 0.000650148, 0.01180892, -0.0006122534, 0.00104407, 0.0005435192, 0.004382067, -0.0003147451, 0.0005187925, -0.9999977, -0.001421174, 0.3503954
 228631011, 0.0007931844, 0.01173681, -0.000273408, 0.00104407, 0.0001188957, 0.003965566, -2.690192E-05, 0.0005187925, -0.9999977, -0.001420617, 0.3503954
 228830931, 0.0003416381, 0.01154066, -4.136578E-05, 0.00104407, 0.0001849471, 0.004741319, 0.0002570412, 0.0005187925, -0.9999976, -0.001418781, 0.3503954
 229030851, 0.0001518498, 0.01220992, 0.0002436462, 0.00104407, -0.0002218631, 0.004364731, -0.0003464362, 0.0005187925, -0.9999976, -0.001416743, 0.3503954
 229230771, -0.0004821774, 0.01171251, -0.0006257786, 0.00104407, -7.480183E-05, 0.004013522, -0.0001975104, 0.0005187925, -0.9999976, -0.001414554, 0.3503954
 229430691, 0.0002490539, 0.01155312, -0.0004037326, 0.00104407, -0.000134666, 0.004343319, 0.000344252, 0.0005187925, -0.9999976, -0.001412844, 0.3503954
 229631444, 9.518377E-05, 0.01161155, 0.0003836446, 0.001046232, -3.995337E-05, 0.00437029, 8.256907E-05, 0.0005209541, -0.9999976, -0.001413011, 0.3511209
 229831364, 0.0001027251, 0.01207895, -1.288535E-05, 0.001046232, 0.0001558378, 0.004813137, -0.0001203925, 0.0005187925, -0.9999976, -0.001425556, 0.3511209
 230031284, -0.0001420304, 0.01216734, -0.0007205155, 0.00104407, -3.357065E-05, 0.004230657, -0.0003443282, 0.0005187925, -0.9999976, -0.001436011, 0.3503954
 230231204, -9.000763E-05, 0.01149954, -0.0005633235, 0.00104407, -0.0001585378, 0.004497259, 7.122766E-05, 0.0005187925, -0.9999976, -0.001447091, 0.3503954
 230431124, -0.0001989677, 0.0118797, 9.994325E-05, 0.00104407, -0.0001834277, 0.003970772, 0.0002706112, 0.0005187925, -0.9999976, -0.001455887, 0.3503954
 230631044, 2.440363E-06, 0.01141637, 0.0002023149, 0.00104407, 0.0001090773, 0.004723603, -0.0001007571, 0.0005187925, -0.9999976, -0.001463921, 0.3503954
 230830964, 0.0001691204, 0.01232586, -0.0001801342, 0.00104407, -0.0003003486, 0.004614834, -0.0001958099, 0.0005187925, -0.9999976, -0.001470426, 0.3503954
 231030884, -0.0004134638, 0.01187246, -0.0003780795, 0.00104407, 9.723545E-05, 0.004311237, 0.0001132739, 0.0005187925, -0.9999976, -0.001476314, 0.3503954
 231230804, -0.000126037, 0.01186683, -0.000273583, 0.00104407, -0.0004275196, 0.004313912, -0.0001252353, 0.0005187925, -0.9999976, -0.001481414, 0.3503954
 231430724, -0.0007089875, 0.01158966, -0.0004176389, 0.00104407, 3.617848E-05, 0.004219843, -4.258837E-06, 0.0005187925, -0.9999976, -0.001483914, 0.3503954
 231631477, -1.970089E-05, 0.01158828, -0.0005042979, 0.001046232, -8.184098E-05, 0.003977798, -0.0001637741, 0.0005209541, -0.9999976, -0.001487038, 0.3511209
 231831397, -0.0002506538, 0.01123667, -0.0001311417, 0.001046232, -0.0001663658, 0.004402941, 0.0001426102, 0.0005187925, -0.9999976, -0.001491097, 0.3511209
 232031317, -0.0003464681, 0.011572, 0.0001022085, 0.00104407, -0.0001276126, 0.004074099, 5.555076E-05, 0.0005187925, -0.9999976, -0.001492777, 0.3503954
 232231237, -0.000344113, 0.01127029, -1.354868E-05, 0.00104407, -0.0002354063, 0.004027728, -0.000203167, 0.0005187925, -0.9999976, -0.00149175, 0.3503954
 232431157, -2.992873E-06, 0.01125277, -0.0003164241, 0.00104407, 0.0001080521, 0.004035552, -0.0002227369, 0.0005187925, -0.9999976, -0.00149132, 0.3503954
 232631077, 3.073726E-05, 0.01110908, -0.0004119214, 0.00104407, -0.0001743605, 0.004322159, 0.000177266, 0.0005187925, -0.9999976, -0.001491249, 0.3503954
 232830997, -6.629826E-05, 0.01188855, 0.0003129721, 0.00104407, -3.063081E-05, 0.004365036, -0.0001000338, 0.0005187925, -0.9999976, -0.00149104, 0.3503954
 233030917, 0.0001237061, 0.01215569, -0.000315186, 0.00104407, -0.0001107994, 0.00457452, 3.112739E-05, 0.0005187925, -0.9999976, -0.001489931, 0.3503954
 233230837, -0.0003893701, 0.01172544, -0.0003164349, 0.00104407, -0.000560616, 0.004195333, 0.0003701767, 0.0005187925, -0.9999976, -0.001487921, 0.3503954
 233430757, -0.0008391451, 0.0114043, 0.0004384468, 0.00104407, -0.000302776, 0.004071892, 0.0001836733, 0.0005187925, -0.9999976, -0.001485892, 0.3503954
 233630677, -0.0005519193, 0.01145628, 7.499082E-05, 0.00104407, -0.0001284059, 0.004210786, 0.0002502215, 0.0005187925, -0.9999976, -0.001482593, 0.3503954
 233831430, -0.0003261183, 0.01152417, -0.0001133286, 0.001046232, -0.0001061213, 0.004149836, -3.079374E-05, 0.0005209541, -0.9999976, -0.001482273, 0.3511209
 234031350, 0.0001260438, 0.01164451, -0.0001702164, 0.001046232, -0.000349489, 0.003992537, -0.0001689378, 0.0005187925, -0.9999976, -0.001478762, 0.3511209
 234231270, -0.0001169534, 0.01139356, -0.0004402699, 0.00104407, 0.0004307352, 0.004074216, -0.0004460303, 0.0005187925, -0.9999976, -0.001474516, 0.3503954
 234431190, 0.0006301199, 0.01133907, -0.0003233749, 0.00104407, -0.0001611356, 0.004001179, -0.0003298608, 0.0005187925, -0.9999976, -0.00147094, 0.3503954
 234631110, -0.0001700325, 0.01165509, -0.0006388123, 0.00104407, 8.703849E-05, 0.004387249, 0.0001030295, 0.0005187925, -0.9999976, -0.001468218, 0.3503954
 234831030, 4.771345E-05, 0.01213728, -0.0001010002, 0.00104407, 0.0001552915, 0.004380713, -0.0002408483, 0.0005187925, -0.9999976, -0.001464208, 0.3503954
 235030950, 7.207889E-05, 0.01160289, -0.000528353, 0.00104407, -9.743276E-05, 0.0040702, -0.0005262785, 0.0005187925, -0.9999976, -0.001474892, 0.3503954
 235230870, -9.454556E-05, 0.01131612, -0.0008813728, 0.00104407, 0.0001108852, 0.004152898, -6.794238E-05, 0.0005187925, -0.9999974, -0.001485132, 0.3503954
 235430790, 0.0002066257, 0.01146753, -0.0001523874, 0.00104407, 0.0002931278, 0.004600297, -0.0001154557, 0.0005187925, -0.9999974, -0.00149353, 0.3503954
 235630710, 0.0003560861, 0.01197095, -0.0003222011, 0.00104407, 0.0001544716, 0.004477426, 0.00021229, 0.0005187925, -0.9999974, -0.001502455, 0.3503954
 235831463, -7.343814E-05, 0.01167479, 0.0002550703, 0.001046232, -0.0002159431, 0.003764932, -2.244686E-05, 0.0005209541, -0.9999974, -0.001511163, 0.3511209
 236031383, -0.0007498944, 0.01112653, -0.0001890634, 0.001046232, -0.0007408995, 0.00449819, -5.780529E-05, 0.0005187925, -0.9999974, -0.001517522, 0.3511209
 236231303, -0.0008030353, 0.01168258, -9.395179E-05, 0.00104407, -6.970759E-05, 0.004216961, 0.0001178818, 0.0005187925, -0.9999976, -0.001522907, 0.3503954
 236431223, 0.0002585672, 0.01139052, -0.0001740534, 0.00104407, 0.000346698, 0.004517799, -0.000501594, 0.0005187925, -0.9999974, -0.001526146, 0.3503954
 236631143, 0.0003488707, 0.01139267, -0.0007759314, 0.00104407, -0.0001899801, 0.004154705, -0.0004166759, 0.0005187925, -0.9999974, -0.001530846, 0.3503954
 236831063, -0.0002861533, 0.01132368, -0.0002971831, 0.00104407, -0.0005246794, 0.004156594, 0.000208173, 0.0005187925, -0.9999974, -0.001534209, 0.3503954
 237030983, -0.0003072907, 0.01162062, 0.0001816416, 0.00104407, 0.0002389332, 0.004502867, -0.0002655159, 0.0005187925, -0.9999974, -0.001537673, 0.3503954
 237230903, 6.056026E-05, 0.01216354, -0.0004062255, 0.00104407, 0.0005179846, 0.00415077, -0.0002972999, 0.0005187925, -0.9999974, -0.001539999, 0.3503954
 237430823, 2.703162E-05, 0.01159755, -0.0005146628, 0.00104407, -0.0002244229, 0.004437748, -0.0001634921, 0.0005187925, -0.9999974, -0.001542134, 0.3503954
 237630743, -0.000231842, 0.01158935, -5.79995E-05, 0.00104407, -0.000174528, 0.003664365, -0.000151365, 0.0005187925, -0.9999974, -0.001543146, 0.3503954
 237830663, -0.0002219688, 0.01085787, -9.041985E-05, 0.00104407, 0.0003273516, 0.004357995, -0.0001176602, 0.0005187925, -0.9999974, -0.001544212, 0.3503954
 238031416, 0.0004725065, 0.0120573, -0.000436954, 0.001046232, 4.151899E-05, 0.004448846, -0.0002239042, 0.0005209541, -0.9999974, -0.001546362, 0.3511209
 238231336, -9.000853E-05, 0.01175277, -0.0003922081, 0.001046232, -4.991797E-05, 0.004115069, -0.0001946815, 0.0005187925, -0.9999974, -0.001547177, 0.3511209
 238431256, 8.194792E-05, 0.01152651, -0.0002772831, 0.00104407, 0.0001535096, 0.004339144, -0.0001716273, 0.0005187925, -0.9999974, -0.001544849, 0.3503954
 238631176, 0.0001199574, 0.01179279, -6.239656E-05, 0.00104407, -1.202944E-05, 0.004237971, -0.0001059204, 0.0005187925, -0.9999974, -0.001544156, 0.3503954
 238831096, -0.0002510723, 0.01138602, -0.0002419576, 0.00104407, -0.0002009516, 0.004279878, -0.0001317987, 0.0005187925, -0.9999974, -0.001541886, 0.3503954
 239031016, -0.0001731857, 0.01131424, -0.0001650257, 0.00104407, -0.00048081, 0.003837591, -0.0001889105, 0.0005187925, -0.9999974, -0.001539866, 0.3503954
 239230936, -0.0004821377, 0.01115419, -0.0004978811, 0.00104407, -0.0004933606, 0.004248573, -0.0003596608, 0.0005187925, -0.9999974, -0.001537596, 0.3503954
 239430856, -0.0003227545, 0.0115711, -0.0004963499, 0.00104407, 5.504238E-05, 0.004133384, 0.0002839419, 0.0005187925, -0.9999974, -0.001535033, 0.3503954
 239630776, -5.70797E-05, 0.01165463, 0.0001263173, 0.00104407, -4.448492E-05, 0.004282176, -8.266244E-06, 0.0005187925, -0.9999974, -0.001532434, 0.3503954
 239830696, 0.0002098292, 0.01180351, -1.047792E-05, 0.00104407, 0.000296953, 0.004186805, 0.0001286207, 0.0005187925, -0.9999974, -0.001530072, 0.3503954
 240031449, 0.0004096411, 0.01162228, 0.0004032822, 0.001046232, -1.71929E-05, 0.004196619, 1.382285E-07, 0.0005209541, -0.9999974, -0.001530178, 0.3511209
 240231369, -0.0004455685, 0.01175603, -0.0001151423, 0.001046232, -0.0002399344, 0.004481636, -0.0001194893, 0.0005187925, -0.9999974, -0.001539658, 0.3511209
 240431289, -0.0002002622, 0.01187187, 0.0001126161, 0.00104407, -6.396696E-05, 0.003977983, -1.652772E-05, 0.0005187925, -0.9999974, -0.00154693, 0.3503954
 240631209, -0.0005241048, 0.01138391, -0.0002480695, 0.00104407, -0.000142791, 0.004380693, -0.0003771811, 0.0005187925, -0.9999974, -0.001554187, 0.3503954
 240831129, -0.0003178676, 0.01184605, -0.0007112305, 0.00104407, -0.000411491, 0.0042465, -0.0003266982, 0.0005187925, -0.9999974, -0.001561708, 0.3503954
 241031049, -0.0002269119, 0.0111561, -0.0004419418, 0.00104407, -9.224746E-05, 0.003695087, -9.341673E-05, 0.0005187925, -0.9999974, -0.001567572, 0.3503954
 241230969, -0.0005447057, 0.01115193, -0.0001197777, 0.00104407, -0.0002831012, 0.004351225, 0.0001164543, 0.0005187925, -0.9999974, -0.001572665, 0.3503954
 241430889, -0.0003508574, 0.01170972, 0.0001093093, 0.00104407, -0.0001552877, 0.004259471, -0.0003581426, 0.0005187925, -0.9999974, -0.001577513, 0.3503954
 241630809, -0.0002448238, 0.01156144, -0.0005082589, 0.00104407, -0.0002511287, 0.004239483, 3.565791E-05, 0.0005187925, -0.9999974, -0.00158166, 0.3503954
 241830729, -9.317986E-05, 0.01144741, -0.0002945591, 0.00104407, 0.0003344145, 0.003645759, -0.000156688, 0.0005187925, -0.9999974, -0.001584606, 0.3503954
 242031482, 0.0003470226, 0.01132909, -9.811925E-05, 0.001046232, -1.673844E-05, 0.004281272, -3.210532E-05, 0.0005209541, -0.9999973, -0.001589048, 0.3511209
 242231402, -3.131049E-05, 0.01152798, -5.417286E-05, 0.001046232, -0.0001888021, 0.004748639, 7.813308E-05, 0.0005187925, -0.9999973, -0.001592599, 0.3511209
 242431322, -0.0002919951, 0.01205971, -0.0003419235, 0.00104407, 7.81383E-06, 0.004461223, -0.0002466216, 0.0005187925, -0.9999973, -0.001594716, 0.3503954
 242631242, 8.265761E-06, 0.01185565, -0.0005008064, 0.00104407, 0.000192211, 0.003769018, 2.865599E-05, 0.0005187925, -0.9999973, -0.001593096, 0.3503954
 242831162, 1.666004E-05, 0.01093756, -0.0003337395, 0.00104407, -0.0002414195, 0.004185643, 4.367868E-05, 0.0005187925, -0.9999973, -0.001593612, 0.3503954
 243031082, -0.0002902306, 0.01176601, -0.0001448635, 0.00104407, 0.0003248273, 0.004108121, 0.0004325173, 0.0005187925, -0.9999973, -0.001593164, 0.3503954
 243231002, 5.829307E-05, 0.01146734, 0.0004516572, 0.00104407, -0.0002299712, 0.004369367, -7.330106E-05, 0.0005187925, -0.9999973, -0.00159367, 0.3503954
 243430922, -0.0001182445, 0.01162408, -0.0002572556, 0.00104407, 0.0004881402, 0.00402959, -3.753472E-05, 0.0005187925, -0.9999973, -0.001592962, 0.3503954
 243630842, 0.000609768, 0.0117113, -2.100341E-05, 0.00104407, -0.0001369333, 0.004441548, -0.0001226471, 0.0005187925, -0.9999973, -0.001591791, 0.3503954
 243830762, -0.0003091803, 0.01209118, -0.0003021605, 0.00104407, -0.0003451167, 0.004485031, 8.252418E-05, 0.0005187925, -0.9999973, -0.001590041, 0.3503954
 244030682, -0.0005275118, 0.01167452, 0.0001187207, 0.00104407, 8.041079E-05, 0.004525106, -0.00017795, 0.0005187925, -0.9999973, -0.001587218, 0.3503954
 244231435, -0.0004620021, 0.01205507, -0.0004149259, 0.001046232, -0.0001421801, 0.004508447, 0.0001402583, 0.0005209541, -0.9999973, -0.001587861, 0.3511209
 244431355, -6.985018E-05, 0.01197179, -0.0001483118, 0.001046232, 0.0001880955, 0.004458362, -0.0001733086, 0.0005187925, -0.9999973, -0.001584698, 0.3511209
 244631275, 9.08681E-05, 0.01197654, -0.0004890417, 0.00104407, 0.0002914293, 0.004350502, 7.587616E-05, 0.0005187925, -0.9999973, -0.001578388, 0.3503954
 244831195, 0.0002138481, 0.01167383, -0.0002190715, 0.00104407, -0.00025853, 0.004244029, 1.005129E-05, 0.0005187925, -0.9999973, -0.001573919, 0.3503954
 245031115, -0.0003596083, 0.01174193, -0.0001963271, 0.00104407, 0.0002548362, 0.004472909, -8.649941E-05, 0.0005187925, -0.9999973, -0.001567311, 0.3503954
 245231035, 0.0005346741, 0.01206467, -0.0001325923, 0.00104407, -0.0003297871, 0.004428437, -3.034927E-05, 0.0005187925, -0.9999973, -0.001562462, 0.3503954
 245430955, -0.0004435217, 0.01183335, -0.0001466212, 0.00104407, -0.0003016517, 0.004431096, -0.0005579133, 0.0005187925, -0.9999973, -0.00157194, 0.3503954
 245630875, -0.0007323356, 0.0118695, -0.000624466, 0.00104407, -0.0002491993, 0.004148114, 0.0002481993, 0.0005187925, -0.9999974, -0.001579653, 0.3503954
 245830795, -0.0003661469, 0.01096864, 0.000138554, 0.00104407, 0.0001938709, 0.003995473, -0.000489199, 0.0005187925, -0.9999974, -0.001586629, 0.3503954
 246030715, 0.0006567214, 0.01115046, -0.0006284774, 0.00104407, 0.0004616678, 0.003921146, -0.0003652636, 0.0005187925, -0.9999974, -0.001591426, 0.3503954
 246231468, 0.0005619844, 0.01115249, -0.0005469912, 0.001046232, -0.0004977928, 0.004041509, -0.0002380483, 0.0005209541, -0.9999974, -0.001597103, 0.3511209
 246431388, -0.0005674607, 0.01163326, -0.0009862198, 0.001046232, -1.831644E-05, 0.004037585, -0.0001138875, 0.0005187925, -0.9999973, -0.001602366, 0.3511209
 246631308, 0.0001140696, 0.01154364, -0.0002768232, 0.00104407, 7.149019E-05, 0.004674308, -0.0001693251, 0.0005187925, -0.9999974, -0.001605798, 0.3503954
 246831228, 8.618731E-05, 0.0115373, -0.0003096569, 0.00104407, -0.0001872021, 0.003819698, -0.0006582106, 0.0005187925, -0.9999974, -0.001606505, 0.3503954
 247031148, -0.0002519322, 0.01133342, -0.0006028434, 0.00104407, -4.80186E-05, 0.004392235, 0.0004421694, 0.0005187925, -0.9999974, -0.001608063, 0.3503954
 247231068, -0.0002884634, 0.01186546, 0.000507589, 0.00104407, 3.315067E-05, 0.004312126, 4.181738E-05, 0.0005187925, -0.9999974, -0.001609212, 0.3503954
 247430988, -8.692342E-05, 0.01164222, 0.0001543453, 0.00104407, -4.083634E-05, 0.004245061, 0.0002666634, 0.0005187925, -0.9999974, -0.001608549, 0.3503954
 247630908, -0.000168939, 0.01161012, 0.0002313296, 0.00104407, -5.90033E-06, 0.004327178, 0.0001501126, 0.0005187925, -0.9999974, -0.001608504, 0.3503954
 247830828, 0.0005257793, 0.01200165, -0.2015207, 0.00104407, 0.0006849961, 0.004877907, -0.2623467, 0.0005187925, -0.9999974, -0.001607067, 0.3503954
 248030748, 0.0007633252, 0.01236314, -0.3666294, 0.00104407, -0.0003257025, 0.004074406, 0.03355949, 0.0005187925, -0.9999974, -0.001604796, 0.3503954
 248230668, -0.0007923088, 0.01111669, 0.1395722, 0.00104407, -0.0002125508, 0.004321736, 0.05067902, 0.0005187925, -0.9999974, -0.001603003, 0.3503954
 248431421, -0.001562292, 0.01014748, -0.8305827, 0.001046232, -0.002254355, 0.001870566, -0.8707317, 0.0005209541, -0.9999973, -0.001646935, 0.3511209
 248631341, -0.01369767, -0.002778818, -1.816881, 0.001046232, -0.00876383, -0.004978838, -0.2984506, 0.0005187925, -0.9999813, -0.001731101, 0.3511209
 248831261, -0.02648531, -0.01526099, -0.4612041, 0.00104407, -0.01071085, -0.006089622, -0.05643495, 0.0005187925, -0.9999729, -0.001816254, 0.3503954
 249031181, -0.02788249, -0.01554205, -0.2445066, 0.00104407, -0.009442873, -0.005012261, -0.1362466, 0.0005187925, -0.9999726, -0.00192435, 0.3503954
 249231101, -0.02445793, -0.0117374, -0.385875, 0.00104407, -0.007983649, -0.003437797, -0.1370316, 0.0005187925, -0.9999741, -0.002044474, 0.3503954
 249431021, -0.02059371, -0.007679467, -0.3401757, 0.00104407, -0.006835889, -0.002048046, -0.1069132, 0.0005187925, -0.9999756, -0.002166249, 0.3503954
 249630941, -0.01724017, -0.004035874, -0.2757221, 0.00104407, -0.005606867, -0.0009246728, -0.09300076, 0.0005187925, -0.9999774, -0.002276771, 0.3503954
 249830861, -0.01408171, -0.001122441, -0.2444866, 0.00104407, -0.004304718, 0.0001817416, -0.08365005, 0.0005187925, -0.9999797, -0.002373841, 0.3503954
 250030781, -0.01128093, 0.001897307, -0.2166909, 0.00104407, -0.003743161, 0.001326285, -0.07215022, 0.0005187925, -0.9999818, -0.002384803, 0.3503954
 250230701, -0.009333442, 0.004496818, -0.1887767, 0.00104407, -0.003171112, 0.001996327, -0.06385669, 0.0005187925, -0.9999831, -0.002174339, 0.3503954
 250431454, -0.007626126, 0.005789344, -0.1668953, 0.001046232, -0.002228166, 0.002230669, -0.05624444, 0.0005209541, -0.9999839, -0.00195726, 0.3511209
 250631374, -0.005391577, 0.006856938, -0.1464313, 0.001046232, -0.001801367, 0.002560438, -0.04940869, 0.0005187925, -0.9999846, -0.00176424, 0.3511209
 250831294, -0.004726068, 0.007681878, -0.1269957, 0.00104407, -0.001829272, 0.003054838, -0.04216642, 0.0005187925, -0.9999849, -0.001806586, 0.3503954
 251031214, -0.004723674, 0.008573299, -0.1106696, 0.00104407, -0.001506336, 0.003250889, -0.03788533, 0.0005187925, -0.999984, -0.002349634, 0.3503954
 251231134, -0.004085874, 0.008922651, -0.09912592, 0.00104407, -0.001449854, 0.003188181, -0.03374326, 0.0005187925, -0.9999824, -0.00295496, 0.3503954
 251431054, -0.0036915, 0.009022005, -0.08745661, 0.00104407, -0.00103424, 0.003358693, -0.02976136, 0.0005187925, -0.9999797, -0.003516123, 0.3503954
 251630974, -0.002973853, 0.008787929, -0.07704166, 0.00104407, -0.001230745, 0.00319687, -0.02611234, 0.0005187925, -0.9999766, -0.004037911, 0.3503954
 251830894, 0.0006214584, 0.01146836, 0.5043592, 0.00104407, 0.001287053, 0.004483675, 0.3205219, 0.0005187925, -0.9999699, -0.004600791, 0.3503954
 252030814, 0.002871098, 0.01158863, 0.8318369, 0.00104407, 0.0007464528, 0.003903396, 0.2795556, 0.0005187925, -0.9999642, -0.00518229, 0.3503954
 252230734, 0.002174511, 0.01051995, 0.727598, 0.00104407, 0.0006870934, 0.003919106, 0.2453858, 0.0005187925, -0.9999603, -0.005720527, 0.3503954
 252430654, 0.001497289, 0.01070129, 0.6388983, 0.00104407, 0.0005649516, 0.003932607, 0.2156498, 0.0005187925, -0.9999592, -0.006063757, 0.3503954
 252631407, 0.001513731, 0.01112612, 0.5626041, 0.001046232, 0.0007515685, 0.00420103, 0.189741, 0.0005209541, -0.9999592, -0.006371032, 0.3511209
 252831327, 0.001637118, 0.01179766, 0.4926386, 0.001046232, 0.0001096567, 0.004483123, 0.1660191, 0.0005187925, -0.9999593, -0.006659577, 0.3511209
 253031247, 0.0007572617, 0.01272608, 0.4316221, 0.00104407, 0.0003342184, 0.004702456, 0.1452667, 0.0005187925, -0.9999583, -0.007019693, 0.3503954
 253231167, 0.0009557318, 0.01291431, 0.3739183, 0.00104407, 0.0004163013, 0.004699287, 0.1211618, 0.0005187925, -0.9999513, -0.00756067, 0.3503954
 253431087, -0.007349464, 0.00286592, 0.3216223, 0.00104407, -0.009317715, -0.00566522, 0.1062229, 0.0005187925, -0.9998132, -0.00794743, 0.3503954
 253631007, -0.06294755, -0.01725503, 0.2651829, 0.00104407, -0.04499638, -0.003787382, 0.08333613, 0.0005187925, -0.9998667, -0.008795266, 0.3503954
 253830927, -0.1824874, 0.008788619, 0.2061741, 0.00104407, -0.09918452, 0.01346861, 0.063334, 0.0005187925, -0.9999442, -0.01050485, 0.3503954
 254030847, -0.3348814, 0.05337615, 0.1560623, 0.00104407, -0.1548694, 0.02733044, 0.04839569, 0.0005187925, -0.9998246, -0.0117433, 0.3503954
 254230767, -0.481097, 0.08146039, 0.1164597, 0.00104407, -0.2040924, 0.03134353, 0.03451715, 0.0005187925, -0.9997821, -0.009894934, 0.3503954
 254430687, -0.6046918, 0.07442923, 0.08450244, 0.00104407, -0.2427356, 0.01959428, 0.02636279, 0.0005187925, -0.9999375, -0.003667581, 0.3503954
 254631440, -0.6968002, 0.03228214, 0.06539641, 0.001046232, -0.2687682, -0.0001172401, 0.02020909, 0.0005209541, -0.9999717, 0.006150851, 0.3511209
 254831360, -0.762439, -0.02668607, 0.04999923, 0.001046232, -0.2924212, -0.023064, 0.01516705, 0.0005187925, -0.9996047, 0.01814472, 0.3511209
 255031280, -0.8171114, -0.08586261, 0.03485075, 0.00104407, -0.3030407, -0.04222879, 0.007761995, 0.0005187925, -0.9989384, 0.03035195, 0.3503954
 255231200, -0.7950962, -0.1208128, 0.01271359, 0.00104407, -0.266225, -0.04473299, 0.0003829234, 0.0005187925, -0.998482, 0.04144663, 0.3503954
 255431120, -0.6735028, -0.1315251, 0.002676461, 0.00104407, -0.2189422, -0.05542453, 0.002563893, 0.0005187925, -0.9970034, 0.06159487, 0.3503954
 255631040, -0.5689699, -0.183633, 0.007217494, 0.00104407, -0.1924246, -0.08409531, 0.002247235, 0.0005187925, -0.9936978, 0.08795496, 0.3503954
 255830960, -0.4892692, -0.2524718, 0.001813226, 0.00104407, -0.1559722, -0.1002701, -0.002093536, 0.0005187925, -0.9903792, 0.1107009, 0.3503954
 256030880, -0.3748963, -0.2710863, -0.009391295, 0.00104407, -0.109502, -0.09525405, -0.004662874, 0.0005187925, -0.987801, 0.1318867, 0.3503954
 256230800, -0.2565107, -0.2521486, -0.0113051, 0.00104407, -0.07097943, -0.08797007, -0.003576006, 0.0005187925, -0.9839073, 0.1589846, 0.3503954
 256430720, -0.1511226, -0.2538701, -0.008841012, 0.00104407, -0.03300784, -0.1019713, -0.00343883, 0.0005187925, -0.9756761, 0.1960174, 0.3503954
 256631473, -0.06075302, -0.2985278, -0.009483264, 0.001046232, -0.008877265, -0.1159675, -0.004177376, 0.0005209541, -0.9668018, 0.2310949, 0.3511209
 256831393, -0.01622858, -0.2977285, -0.01109562, 0.001046232, -0.003096204, -0.09534212, -0.00427832, 0.0005187925, -0.961434, 0.2591903, 0.3511209
 257031313, -0.007867527, -0.2327819, -0.01300504, 0.00104407, -0.002309186, -0.07202745, -0.00539428, 0.0005187925, -0.9539065, 0.2909413, 0.3503954
 257231233, 0.006492418, -0.1943043, -0.01507295, 0.00104407, 0.01036281, -0.07119303, -0.007292707, 0.0005187925, -0.9411935, 0.3297607, 0.3503954
 257431153, 0.06888923, -0.2061364, -0.01741981, 0.00104407, 0.04757826, -0.08121699, -0.005467888, 0.0005187925, -0.9247806, 0.370058, 0.3503954
 257631073, 0.1686189, -0.217916, -0.0147222, 0.00104407, 0.07888739, -0.07403494, -0.005171456, 0.0005187925, -0.9103885, 0.4036712, 0.3503954
 257830993, 0.2218251, -0.2037699, -0.00772003, 0.00104407, 0.08027279, -0.07896298, -0.0006618128, 0.0005187925, -0.8940521, 0.4369983, 0.3503954
 258030913, 0.1974842, -0.2413987, 0.0021911, 0.00104407, 0.05887588, -0.1008545, 0.002012664, 0.0005187925, -0.8772019, 0.4677873, 0.3503954
 258230833, 0.1329562, -0.288703, 0.006562748, 0.00104407, 0.03463285, -0.109369, 0.002282385, 0.0005187925, -0.8631961, 0.4934856, 0.3503954
 258430753, 0.08372875, -0.2898656, 0.002854292, 0.00104407, 0.0270208, -0.09841827, -0.0003561478, 0.0005187925, -0.8506032, 0.5166342, 0.3503954
 258630673, 0.08684095, -0.2506011, -0.005935083, 0.00104407, 0.04007214, -0.08161686, -0.003725311, 0.0005187925, -0.8352131, 0.5418757, 0.3503954
 258831426, 0.1379376, -0.2138499, -0.006762611, 0.001046232, 0.06449762, -0.07380533, -0.001615161, 0.0005209541, -0.815215, 0.5703285, 0.3511209
 259031346, 0.1881522, -0.2027201, 0.001775636, 0.001046232, 0.07095282, -0.07473756, 0.002710589, 0.0005187925, -0.7949128, 0.5977577, 0.3511209
 259231266, 0.1714554, -0.2027104, 0.0121423, 0.00104407, 0.04818922, -0.07186275, 0.006965733, 0.0005187925, -0.7774317, 0.6225209, 0.3503954
 259431186, 0.1212967, -0.1957252, 0.01854986, 0.00104407, 0.04336312, -0.07155014, 0.006814116, 0.0005187925, -0.7544605, 0.6503029, 0.3503954
 259631106, 0.1447594, -0.2063172, 0.01819618, 0.00104407, 0.06721377, -0.0809476, 0.007019723, 0.0005187925, -0.7264985, 0.6787906, 0.3503954
 259831026, 0.2052554, -0.2219525, 0.02220275, 0.00104407, 0.08290778, -0.07912616, 0.009170868, 0.0005187925, -0.7038122, 0.7011217, 0.3503954
 260030946, 0.2229677, -0.2027828, 0.02375273, 0.00104407, 0.07755967, -0.06596952, 0.00731122, 0.0005187925, -0.6860396, 0.7198939, 0.3503954
 260230866, 0.2044369, -0.1681155, 0.01962981, 0.00104407, 0.07096032, -0.05577017, 0.006691465, 0.0005187925, -0.6650354, 0.7402689, 0.3503954
 260430786, 0.1967137, -0.152081, 0.01513983, 0.00104407, 0.07335103, -0.05553836, 0.003877931, 0.0005187925, -0.6390679, 0.7627164, 0.3503954
 260630706, 0.1925061, -0.1432116, 0.009401612, 0.00104407, 0.06256342, -0.04600245, 0.001882081, 0.0005187925, -0.6155636, 0.7836283, 0.3503954
 260831459, 0.1579274, -0.1133345, 0.005536838, 0.001046232, 0.05242369, -0.03553243, 0.002163098, 0.0005209541, -0.5876534, 0.8060583, 0.3511209
 261031379, 0.1571818, -0.1026532, 0.004774805, 0.001046232, 0.06703546, -0.04161885, 0.001190977, 0.0005187925, -0.5519179, 0.8299494, 0.3511209
 261231299, 0.2135449, -0.1266578, 0.002046138, 0.00104407, 0.09269357, -0.05253063, -0.0002171839, 0.0005187925, -0.5170535, 0.8499972, 0.3503954
 261431219, 0.2590328, -0.1420752, 0.001162337, 0.00104407, 0.09297732, -0.04889175, 0.0007354499, 0.0005187925, -0.4929668, 0.8644427, 0.3503954
 261631139, 0.2432463, -0.1254344, 0.002460419, 0.00104407, 0.08346538, -0.04207719, 0.0002258315, 0.0005187925, -0.4703063, 0.8776742, 0.3503954
 261831059, 0.2300508, -0.1125067, 0.002082291, 0.00104407, 0.08515444, -0.04029588, 0.000546287, 0.0005187925, -0.444479, 0.8907982, 0.3503954
 262030979, 0.2239606, -0.1035688, 0.0003867155, 0.00104407, 0.07376904, -0.03329084, -0.0006907429, 0.0005187925, -0.422389, 0.9027562, 0.3503954
 262230899, 0.1749444, -0.0767566, -0.002048861, 0.00104407, 0.04983004, -0.02052347, -0.0004540045, 0.0005187925, -0.3987327, 0.9152238, 0.3503954
 262430819, 0.1408251, -0.05513378, -0.004200945, 0.00104407, 0.0587166, -0.02089947, -0.00301108, 0.0005187925, -0.3614615, 0.9301572, 0.3503954
 262630739, 0.2036644, -0.06202563, -0.002339477, 0.00104407, 0.09697974, -0.0254036, 0.001082956, 0.0005187925, -0.3189938, 0.9432896, 0.3503954
 262830659, 0.2959557, -0.07258833, 0.003871283, 0.00104407, 0.1206854, -0.02751782, 0.001468383, 0.0005187925, -0.283605, 0.952585, 0.3503954
 263031412, 0.3389312, -0.07432406, 0.002940194, 0.001046232, 0.1260237, -0.02597623, -0.0002163542, 0.0005209541, -0.2546526, 0.9600152, 0.3511209
 263231332, 0.3346803, -0.06297217, -0.0004322333, 0.001046232, 0.114969, -0.01859283, -0.0006175944, 0.0005187925, -0.2294822, 0.9671158, 0.3511209
 263431252, 0.3008269, -0.04224029, 0.000165021, 0.00104407, 0.1029506, -0.01208942, 0.0009212694, 0.0005187925, -0.2009303, 0.9742274, 0.3503954
 263631172, 0.2820213, -0.02980224, 0.003211494, 0.00104407, 0.1042651, -0.009061295, 0.001873881, 0.0005187925, -0.1665955, 0.9803993, 0.3503954
 263831092, 0.2970089, -0.02275663, 0.004248502, 0.00104407, 0.1143897, -0.007124068, 0.001657758, 0.0005187925, -0.1298648, 0.9849199, 0.3503954
 264031012, 0.3192968, -0.01429837, 0.005288062, 0.00104407, 0.1177421, -0.001982315, 0.002307632, 0.0005187925, -0.09624455, 0.9884768, 0.3503954
 264230932, 0.3074251, -0.0004448179, 0.004640051, 0.00104407, 0.1020579, 0.002357292, 0.001790557, 0.0005187925, -0.06699711, 0.9922962, 0.3503954
 264430852, 0.2692224, 0.01081295, 0.003415153, 0.00104407, 0.09536818, 0.005642994, 0.0003639625, 0.0005187925, -0.0325227, 0.9943127, 0.3503954
 264630772, 0.2684235, 0.01921, 0.0008637847, 0.00104407, 0.1007428, 0.008377758, -0.0002090404, 0.0005187925, 0.003204694, 0.9945325, 0.3503954
 264830692, 0.2709384, 0.02478718, -0.001150756, 0.00104407, 0.09470769, 0.009747301, -0.0007245753, 0.0005187925, 0.03523752, 0.9945393, 0.3503954
 265031445, 0.2488685, 0.02855032, -0.002630015, 0.001046232, 0.08561042, 0.01184412, -0.0009398807, 0.0005209541, 0.06723779, 0.9935763, 0.3511209
 265231365, 0.2410513, 0.03718838, -0.0008473207, 0.001046232, 0.09384651, 0.01661712, 6.105827E-06, 0.0005187925, 0.1030251, 0.9896685, 0.3511209
 265431285, 0.2732265, 0.05317122, 0.002819843, 0.00104407, 0.1065969, 0.02338488, 0.002554907, 0.0005187925, 0.1361624, 0.9845827, 0.3503954
 265631205, 0.279005, 0.06491161, 0.005893915, 0.00104407, 0.09156932, 0.02273721, 0.002002908, 0.0005187925, 0.1616074, 0.9821266, 0.3503954
 265831125, 0.2221781, 0.05767719, 0.001241754, 0.00104407, 0.06675918, 0.01876259, -0.001216038, 0.0005187925, 0.1888484, 0.979075, 0.3503954
 266031045, 0.1644885, 0.0508385, -0.003282609, 0.00104407, 0.05135463, 0.01777178, -0.001719298, 0.0005187925, 0.2219093, 0.9732255, 0.3503954
 266230965, 0.1455592, 0.05183148, -0.002071443, 0.00104407, 0.05849915, 0.02147947, 0.000538888, 0.0005187925, 0.262177, 0.9629523, 0.3503954
 266430885, 0.1862278, 0.0695165, 0.001999029, 0.00104407, 0.08196083, 0.03145467, 0.0001651079, 0.0005187925, 0.3025979, 0.9498045, 0.3503954
 266630805, 0.2421897, 0.09694672, 0.003659018, 0.00104407, 0.09580012, 0.0408283, 0.003502479, 0.0005187925, 0.3360797, 0.9374661, 0.3503954
 266830725, 0.2664298, 0.117557, 0.009057626, 0.00104407, 0.09846631, 0.04556755, 0.003415921, 0.0005187925, 0.3642945, 0.9263313, 0.3503954
 267031478, 0.275203, 0.1322153, 0.008784825, 0.001046232, 0.1036771, 0.05278123, 0.003223869, 0.0005209541, 0.3917274, 0.9140579, 0.3511209
 267231398, 0.2899397, 0.1531027, 0.008087966, 0.001046232, 0.1086365, 0.06016596, 0.003133955, 0.0005187925, 0.4186015, 0.9008089, 0.3511209
 267431318, 0.2945483, 0.1685548, 0.005217287, 0.00104407, 0.1038297, 0.06253272, 0.0007327974, 0.0005187925, 0.4441303, 0.8886738, 0.3503954
 267631238, 0.2610256, 0.1609852, 0.0004481967, 0.00104407, 0.08124859, 0.05176457, 0.0004070239, 0.0005187925, 0.4694011, 0.8780104, 0.3503954
 267831158, 0.1913787, 0.1229331, 0.0008514776, 0.00104407, 0.05425049, 0.03510058, 0.0005294075, 0.0005187925, 0.4977139, 0.8648361, 0.3503954
 268031078, 0.1396367, 0.087828, -0.001089592, 0.00104407, 0.04886868, 0.03045076, -0.000135818, 0.0005187925, 0.5325283, 0.844457, 0.3503954
 268230998, 0.1528419, 0.09928656, 0.0001537268, 0.00104407, 0.06685436, 0.04609101, -0.0001814855, 0.0005187925, 0.5683937, 0.8195364, 0.3503954
 268430918, 0.1945416, 0.1409637, -0.001866582, 0.00104407, 0.07363302, 0.05712146, -0.0009722587, 0.0005187925, 0.595305, 0.7996686, 0.3503954
 268630838, 0.202363, 0.1706522, -0.0007908711, 0.00104407, 0.07539786, 0.07115565, 0.0002743529, 0.0005187925, 0.6200756, 0.7794046, 0.3503954
 268830758, 0.2125113, 0.2191851, 0.001120051, 0.00104407, 0.07958873, 0.09220398, -0.0001974436, 0.0005187925, 0.6433712, 0.7582761, 0.3503954
 269030678, 0.2172821, 0.2718677, -0.002551824, 0.00104407, 0.07840396, 0.1079531, -0.001216069, 0.0005187925, 0.6655141, 0.7371613, 0.3503954
 269231431, 0.2052069, 0.3087224, -0.002164611, 0.001046232, 0.06822027, 0.118254, -0.0001105633, 0.0005209541, 0.6879488, 0.7158511, 0.3511209
 269431351, 0.1648228, 0.3236191, -0.001476458, 0.001046232, 0.04870104, 0.1167432, -0.0002949036, 0.0005187925, 0.7118638, 0.6935683, 0.3511209
 269631271, 0.1346639, 0.308291, 0.0008324605, 0.00104407, 0.05427947, 0.1058084, 0.001612827, 0.0005187925, 0.7388671, 0.6645376, 0.3503954
 269831191, 0.1843194, 0.2829182, 0.008654007, 0.00104407, 0.0866335, 0.1007354, 0.005256933, 0.0005187925, 0.764871, 0.6311927, 0.3503954
 270031111, 0.2560551, 0.2798615, 0.0109769, 0.00104407, 0.09844097, 0.1048366, 0.001928835, 0.0005187925, 0.7850811, 0.6035638, 0.3503954
 270231031, 0.2520918, 0.305705, 0.00153553, 0.00104407, 0.08104183, 0.1222551, -0.001072701, 0.0005187925, 0.8015767, 0.5792024, 0.3503954
 270430951, 0.2024666, 0.3429194, -0.003552418, 0.00104407, 0.06486568, 0.1254392, -0.0009621346, 0.0005187925, 0.8159124, 0.5591037, 0.3503954
 270630871, 0.1720922, 0.3103034, 0.0003696429, 0.00104407, 0.0614453, 0.09298904, 0.001640965, 0.0005187925, 0.8304841, 0.5419809, 0.3503954
 270830791, 0.1659911, 0.2223184, 0.008218839, 0.00104407, 0.05872998, 0.06711262, 0.004137047, 0.0005187925, 0.8472984, 0.5191023, 0.3503954
 271030711, 0.1405609, 0.1845898, 0.01190075, 0.00104407, 0.03892676, 0.07023773, 0.004095617, 0.0005187925, 0.8658019, 0.4892587, 0.3503954
 271231464, 0.07905883, 0.2070165, 0.01314877, 0.001046232, 0.01573152, 0.08199662, 0.005814416, 0.0005209541, 0.8842369, 0.4559798, 0.3511209
 271431384, 0.04440287, 0.2178483, 0.01989476, 0.001046232, 0.02052129, 0.07308809, 0.00845739, 0.0005187925, 0.9010653, 0.4236649, 0.3511209
 271631304, 0.07129226, 0.184145, 0.02405788, 0.00104407, 0.03234963, 0.05976397, 0.008379827, 0.0005187925, 0.9159516, 0.3926284, 0.3503954
 271831224, 0.08228272, 0.1684616, 0.02158995, 0.00104407, 0.02513225, 0.06607708, 0.006804, 0.0005187925, 0.9292433, 0.3600365, 0.3503954
 272031144, 0.05580712, 0.1938784, 0.01623903, 0.00104407, 0.01453299, 0.07603773, 0.004942309, 0.0005187925, 0.9403999, 0.3293875, 0.3503954
 272231064, 0.0433206, 0.2173004, 0.01434469, 0.00104407, 0.01900719, 0.08436977, 0.006918588, 0.0005187925, 0.9499715, 0.298326, 0.3503954
 272430984, 0.0597678, 0.2421544, 0.01932705, 0.00104407, 0.02399571, 0.09361313, 0.007480984, 0.0005187925, 0.9579239, 0.268894, 0.3503954
 272630904, 0.05518316, 0.2647555, 0.01591621, 0.00104407, 0.01338218, 0.1006548, 0.003864606, 0.0005187925, 0.9650623, 0.2401843, 0.3503954
 272830824, 0.01862936, 0.2821228, 0.01047057, 0.00104407, -0.001567143, 0.1050828, 0.003501963, 0.0005187925, 0.9718772, 0.2098608, 0.3503954
 273030744, -0.004514796, 0.2928276, 0.009737112, 0.00104407, 0.0001121306, 0.1092112, 0.003794605, 0.0005187925, 0.9779888, 0.1762693, 0.3503954
 273230664, 0.008906863, 0.3003897, 0.01388727, 0.00104407, 0.006839415, 0.109567, 0.006130323, 0.0005187925, 0.9832245, 0.1423526, 0.3503954
 273431417, 0.02063248, 0.3104496, 0.01488788, 0.001046232, 0.007829343, 0.1199723, 0.003678635, 0.0005209541, 0.9864853, 0.1057721, 0.3511209
 273631337, 0.02031436, 0.3496128, 0.01213139, 0.001046232, 0.007119217, 0.1386225, 0.004479893, 0.0005187925, 0.9872499, 0.07031504, 0.3511209
 273831257, 0.01503398, 0.3700494, 0.01068502, 0.00104407, 0.002057517, 0.1241428, 0.003226114, 0.0005187925, 0.9901619, 0.04619123, 0.3503954
 274031177, -0.005738094, 0.3175277, 0.007792805, 0.00104407, -0.0079447, 0.1069577, 0.00177273, 0.0005187925, 0.9922547, 0.01856903, 0.3503954
