TimeUS,COFN,COFE,COFD,CNe,CEe,CDe,POFN,POFE,POFD,PNe,PEe,PDe
 170560915, 0, 0, 0, 0, 0, 0, 0, 0, 0, 0, 0, 0
 170630887, -0.001393226, -0.00524065, -0.003002105, 0.02631737, -0.02654434, 6.259816E-05, 0, 0, 0, 0, 0, 0
 170830807, 0, 0, 0, 0.02631737, -0.02654434, 6.259816E-05, -0.001393226, -0.00524065, -0.003002105, 0.02631737, -0.02654434, 6.259816E-05
 171030727, -0.008758701, 0.01632675, 1.096263E-05, 0.02579292, -0.027115, 0.4000036, 0, 0, 0, 0.02631737, -0.02654434, 6.259816E-05
 171231480, -0.01152526, -0.002566231, -2.546917E-05, 0.0257326, -0.0275085, 0.4000032, -0.008758701, 0.01632675, 1.096263E-05, 0.02579292, -0.027115, 0.4000036
 171431400, 0.003355049, -0.003230861, 8.554566E-07, 0.02605078, -0.02752393, 0.4000039, -0.01152526, -0.002566231, -2.546917E-05, 0.0257326, -0.0275085, 0.4000032
 171631320, 0.01261543, 0.02307966, 6.152525E-05, 0.0262707, -0.02699181, 0.4000051, 0.003355049, -0.003230861, 8.554566E-07, 0.02605078, -0.02752393, 0.4000039
 171831240, 0.01036559, 0.006274783, 2.964058E-05, 0.02621318, -0.02731716, 0.4000046, 0.01261543, 0.02307966, 6.152525E-05, 0.0262707, -0.02699181, 0.4000051
 172031160, -0.01208286, -0.005347244, -3.142181E-05, 0.0257122, -0.02757514, 0.4000035, 0.01036559, 0.006274783, 2.964058E-05, 0.02621318, -0.02731716, 0.4000046
 172231080, -0.009510557, 0.006913644, -6.399706E-06, 0.0257603, -0.02730232, 0.4000044, -0.01208286, -0.005347244, -3.142181E-05, 0.0257122, -0.02757514, 0.4000035
 172431000, 0.009937458, -0.003183837, 1.342029E-05, 0.02619322, -0.02752385, 0.4000049, -0.009510557, 0.006913644, -6.399706E-06, 0.0257603, -0.02730232, 0.4000044
 172630920, 0.01729855, 0.01124145, 5.126615E-05, 0.02637698, -0.02721585, 0.4000058, 0.009937458, -0.003183837, 1.342029E-05, 0.02619322, -0.02752385, 0.4000049
 172830840, 0.008709343, -0.006054789, 6.284138E-06, 0.02616456, -0.0275938, 0.4000045, 0.01729855, 0.01124145, 5.126615E-05, 0.02637698, -0.02721585, 0.4000058
 173030760, -0.01929644, -0.01089408, -5.402962E-05, 0.02557537, -0.02770688, 0.4000031, 0.008709343, -0.006054789, 6.284138E-06, 0.02616456, -0.0275938, 0.4000045
 173230680, 0.01839069, -0.0230048, -4.019992E-06, 0.02641893, -0.02801868, 0.4000038, -0.01929644, -0.01089408, -5.402962E-05, 0.02557537, -0.02770688, 0.4000031
 173431433, 0.01981006, 0.003620026, 4.247081E-05, 0.02645914, -0.02737208, 0.4000047, 0.01839069, -0.0230048, -4.019992E-06, 0.02641893, -0.02801868, 0.4000038
 173631353, 0.01569874, 0.004119078, 3.572883E-05, 0.0263518, -0.02736023, 0.4000046, 0.01981006, 0.003620026, 4.247081E-05, 0.02645914, -0.02737208, 0.4000047
 173831273, -0.00451544, -0.02514407, -4.991093E-05, 0.02587786, -0.02807801, 0.4000024, 0.01569874, 0.004119078, 3.572883E-05, 0.0263518, -0.02736023, 0.4000046
 174031193, 0.004681354, -0.02168669, -2.743037E-05, 0.02608349, -0.02798728, 0.4000027, -0.00451544, -0.02514407, -4.991093E-05, 0.02587786, -0.02807801, 0.4000024
 174231113, -0.007317556, -0.008859671, -2.815869E-05, 0.02582049, -0.02766048, 0.4000027, 0.004681354, -0.02168669, -2.743037E-05, 0.02608349, -0.02798728, 0.4000027
 174431033, 0.005834628, -0.01632347, -1.634486E-05, 0.0261141, -0.0278442, 0.4000029, -0.007317556, -0.008859671, -2.815869E-05, 0.02582049, -0.02766048, 0.4000027
 174630953, 0.01952805, 0.02439625, 7.602228E-05, 0.02645569, -0.02696823, 0.4000051, 0.005834628, -0.01632347, -1.634486E-05, 0.0261141, -0.0278442, 0.4000029
 174830873, -0.003086755, 0.02512184, 3.575549E-05, 0.02591212, -0.02695423, 0.4000042, 0.01952805, 0.02439625, 7.602228E-05, 0.02645569, -0.02696823, 0.4000051
 175030793, 0.004640201, -0.003646369, 2.507072E-06, 0.02608566, -0.02753058, 0.4000037, -0.003086755, 0.02512184, 3.575549E-05, 0.02591212, -0.02695423, 0.4000042
 175230713, -0.006862064, -0.01280635, -3.355524E-05, 0.02583203, -0.02774866, 0.400003, 0.004640201, -0.003646369, 2.507072E-06, 0.02608566, -0.02753058, 0.4000037
 175431466, -0.01642654, -0.02118585, -6.471707E-05, 0.02564215, -0.02796406, 0.4000023, -0.006862064, -0.01280635, -3.355524E-05, 0.02583203, -0.02774866, 0.400003
 175631386, 0.02506423, -0.004389476, 3.875057E-05, 0.02660386, -0.02754417, 0.4000049, -0.01642654, -0.02118585, -6.471707E-05, 0.02564215, -0.02796406, 0.4000023
 175831306, -0.001209107, 0.02461973, 3.798042E-05, 0.02595204, -0.02695658, 0.4000048, 0.02506423, -0.004389476, 3.875057E-05, 0.02660386, -0.02754417, 0.4000049
 176031226, 0.02489269, 0.02360654, 8.408604E-05, 0.02659804, -0.0269721, 0.4000061, -0.001209107, 0.02461973, 3.798042E-05, 0.02595204, -0.02695658, 0.4000048
 176231146, 0.01836224, 0.01524298, 5.843373E-05, 0.02642379, -0.02712386, 0.4000056, 0.02489269, 0.02360654, 8.408604E-05, 0.02659804, -0.0269721, 0.4000061
 176431066, 0.002926276, -0.01400199, -1.741754E-05, 0.0260434, -0.02777388, 0.4000039, 0.01836224, 0.01524298, 5.843373E-05, 0.02642379, -0.02712386, 0.4000056
 176630986, -0.0117596, -0.01291934, -4.286072E-05, 0.02572484, -0.02774854, 0.4000035, 0.002926276, -0.01400199, -1.741754E-05, 0.0260434, -0.02777388, 0.4000039
 176830906, 0.0004235399, 0.01574152, 2.656163E-05, 0.02598064, -0.02711905, 0.400005, -0.0117596, -0.01291934, -4.286072E-05, 0.02572484, -0.02774854, 0.4000035
 177030826, 0.003596088, 0.006736206, 1.771372E-05, 0.0260526, -0.02729945, 0.4000048, 0.0004235399, 0.01574152, 2.656163E-05, 0.02598064, -0.02711905, 0.400005
 177230746, 0.01907465, -0.0213736, 3.601053E-07, 0.02643418, -0.02796935, 0.4000044, 0.003596088, 0.006736206, 1.771372E-05, 0.0260526, -0.02729945, 0.4000048
 177430666, -0.02405781, 0.01765206, -1.6042E-05, 0.02549016, -0.02708164, 0.4000045, 0.01907465, -0.0213736, 3.601053E-07, 0.02643418, -0.02796935, 0.4000044
 177631419, -0.02342718, -0.01573191, -6.973519E-05, 0.02549489, -0.02781769, 0.4000039, -0.02405781, 0.01765206, -1.6042E-05, 0.02549016, -0.02708164, 0.4000045
 177831339, 0.003786072, 0.01251104, 2.756815E-05, 0.02604563, -0.02717902, 0.400006, -0.02342718, -0.01573191, -6.973519E-05, 0.02549489, -0.02781769, 0.4000039
 178031259, 0.01382435, -0.002934903, 2.120602E-05, 0.0262903, -0.02750742, 0.4000058, 0.003786072, 0.01251104, 2.756815E-05, 0.02604563, -0.02717902, 0.400006
 178231179, 0.004981989, -0.005308343, 6.882492E-07, 0.02608109, -0.02755925, 0.4000052, 0.01382435, -0.002934903, 2.120602E-05, 0.0262903, -0.02750742, 0.4000058
 178431099, 0.02202844, -0.008757677, 2.671059E-05, 0.02651306, -0.02764001, 0.4000057, 0.004981989, -0.005308343, 6.882492E-07, 0.02608109, -0.02755925, 0.4000052
 178631019, 0.008543911, 0.02432848, 5.516492E-05, 0.02617183, -0.02695467, 0.400006, 0.02202844, -0.008757677, 2.671059E-05, 0.02651306, -0.02764001, 0.4000057
 178830939, 0.02051354, -0.00174808, 3.499701E-05, 0.02647748, -0.02747287, 0.4000058, 0.008543911, 0.02432848, 5.516492E-05, 0.02617183, -0.02695467, 0.400006
 179030859, -0.01814208, -0.01728909, -6.108422E-05, 0.02560664, -0.027847, 0.4000037, 0.02051354, -0.00174808, 3.499701E-05, 0.02647748, -0.02747287, 0.4000058
 179230779, -0.02041937, -0.01060148, -5.439814E-05, 0.02556676, -0.02767608, 0.4000039, -0.01814208, -0.01728909, -6.108422E-05, 0.02560664, -0.027847, 0.4000037
 179430699, 0.01784166, 0.00807956, 4.552563E-05, 0.02641271, -0.02725426, 0.400006, -0.02041937, -0.01060148, -5.439814E-05, 0.02556676, -0.02767608, 0.4000039
 179631452, 0.01045273, 0.007540499, 3.11522E-05, 0.02622772, -0.02726753, 0.4000054, 0.01784166, 0.00807956, 4.552563E-05, 0.02641271, -0.02725426, 0.400006
 179831372, 0.02269745, 0.0140113, 6.392396E-05, 0.0265427, -0.02713933, 0.4000061, 0.01045273, 0.007540499, 3.11522E-05, 0.02622772, -0.02726753, 0.4000054
 180031292, 0.01598609, 0.01202995, 4.846519E-05, 0.02636795, -0.02717971, 0.4000055, 0.02269745, 0.0140113, 6.392396E-05, 0.0265427, -0.02713933, 0.4000061
 180231212, -0.007519417, 0.02424382, 2.565324E-05, 0.02582427, -0.02695805, 0.4000044, 0.01598609, 0.01202995, 4.846519E-05, 0.02636795, -0.02717971, 0.4000055
 180431132, 0.008596704, -0.01194246, -3.8246E-06, 0.02618353, -0.02772381, 0.4000037, -0.007519417, 0.02424382, 2.565324E-05, 0.02582427, -0.02695805, 0.4000044
 180631052, -0.0252053, -0.0240261, -8.514938E-05, 0.02548623, -0.02803704, 0.4000021, 0.008596704, -0.01194246, -3.8246E-06, 0.02618353, -0.02772381, 0.4000037
 180830972, -0.0238372, -0.008263852, -5.690597E-05, 0.02551057, -0.02763075, 0.4000029, -0.0252053, -0.0240261, -8.514938E-05, 0.02548623, -0.02803704, 0.4000021
 181030892, -0.01870027, -0.007591435, -4.639362E-05, 0.02560427, -0.02761556, 0.4000029, -0.0238372, -0.008263852, -5.690597E-05, 0.02551057, -0.02763075, 0.4000029
 181230812, -0.01831342, 0.01183498, -1.394244E-05, 0.02561303, -0.02719313, 0.4000033, -0.01870027, -0.007591435, -4.639362E-05, 0.02560427, -0.02761556, 0.4000029
 181430732, 0.02134213, -0.007380986, 2.673556E-05, 0.02650909, -0.02761528, 0.4000041, -0.01831342, 0.01183498, -1.394244E-05, 0.02561303, -0.02719313, 0.4000033
 181631485, 0.003692245, 0.01250148, 2.725525E-05, 0.02606854, -0.02718327, 0.4000041, 0.02134213, -0.007380986, 2.673556E-05, 0.02650909, -0.02761528, 0.4000041
 181831405, -0.02000303, -0.001901437, -3.968862E-05, 0.02557784, -0.02749082, 0.4000027, 0.003692245, 0.01250148, 2.725525E-05, 0.02606854, -0.02718327, 0.4000041
 182031325, -0.02077282, 0.003029761, -3.309204E-05, 0.02556144, -0.02738324, 0.4000029, -0.02000303, -0.001901437, -3.968862E-05, 0.02557784, -0.02749082, 0.4000027
 182231245, 0.02051961, 0.02462107, 7.858747E-05, 0.02648033, -0.02696681, 0.4000051, -0.02077282, 0.003029761, -3.309204E-05, 0.02556144, -0.02738324, 0.4000029
 182431165, -0.004357126, -0.0102869, -2.520686E-05, 0.02588254, -0.02769755, 0.4000026, 0.02051961, 0.02462107, 7.858747E-05, 0.02648033, -0.02696681, 0.4000051
 182631085, -0.01266384, -0.01356304, -4.606788E-05, 0.02571028, -0.02777998, 0.4000022, -0.004357126, -0.0102869, -2.520686E-05, 0.02588254, -0.02769755, 0.4000026
 182831005, 0.02526908, -0.009944227, 3.013564E-05, 0.02660313, -0.02769155, 0.4000041, -0.01266384, -0.01356304, -4.606788E-05, 0.02571028, -0.02777998, 0.4000022
 183030925, -0.004869379, -0.01014069, -2.618238E-05, 0.02586631, -0.02770183, 0.4000024, 0.02526908, -0.009944227, 3.013564E-05, 0.02660313, -0.02769155, 0.4000041
 183230845, -0.01816734, -0.002830725, -3.844962E-05, 0.02560203, -0.02752938, 0.4000021, -0.004869379, -0.01014069, -2.618238E-05, 0.02586631, -0.02770183, 0.4000024
 183430765, 0.007357792, -0.02348815, -2.595176E-05, 0.02614589, -0.02804298, 0.4000023, -0.01816734, -0.002830725, -3.844962E-05, 0.02560203, -0.02752938, 0.4000021
 183630685, 0.01604983, 0.01683202, 5.769146E-05, 0.02636612, -0.02711564, 0.4000039, 0.007357792, -0.02348815, -2.595176E-05, 0.02614589, -0.02804298, 0.4000023
 183831438, 0.008768343, 0.008434479, 3.015614E-05, 0.02618711, -0.02727968, 0.4000033, 0.01604983, 0.01683202, 5.769146E-05, 0.02636612, -0.02711564, 0.4000039
 184031358, -0.01308968, -0.01281847, -4.523763E-05, 0.02571074, -0.02776039, 0.4000017, 0.008768343, 0.008434479, 3.015614E-05, 0.02618711, -0.02727968, 0.4000033
 184231278, -0.0186385, -0.01329896, -5.600597E-05, 0.02560705, -0.02777159, 0.4000014, -0.01308968, -0.01281847, -4.523763E-05, 0.02571074, -0.02776039, 0.4000017
 184431198, -0.02237403, -0.023418, -7.962253E-05, 0.02554031, -0.02803645, 0.4000007, -0.0186385, -0.01329896, -5.600597E-05, 0.02560705, -0.02777159, 0.4000014
 184631118, 0.005918441, 0.02213812, 4.777007E-05, 0.02612345, -0.02701587, 0.4000034, -0.02237403, -0.023418, -7.962253E-05, 0.02554031, -0.02803645, 0.4000007
 184831038, 0.0001461247, -0.02476751, -4.133054E-05, 0.02599209, -0.02807774, 0.4000011, 0.005918441, 0.02213812, 4.777007E-05, 0.02612345, -0.02701587, 0.4000034
 185030958, -0.005459669, -0.02110847, -4.529285E-05, 0.02587126, -0.02797846, 0.400001, 0.0001461247, -0.02476751, -4.133054E-05, 0.02599209, -0.02807774, 0.4000011
 185230878, -0.003674947, -0.01242918, -2.744802E-05, 0.02590746, -0.02775257, 0.4000017, -0.005459669, -0.02110847, -4.529285E-05, 0.02587126, -0.02797846, 0.400001
 185430798, -0.002503594, -0.00345557, -1.032322E-05, 0.02593189, -0.0275379, 0.4000022, -0.003674947, -0.01242918, -2.744802E-05, 0.02590746, -0.02775257, 0.4000017
 185630718, 0.01539119, -0.01331528, 5.64095E-06, 0.02635367, -0.0277764, 0.4000025, -0.002503594, -0.00345557, -1.032322E-05, 0.02593189, -0.0275379, 0.4000022
 185831471, 0.01519145, -0.005185855, 1.895689E-05, 0.02634673, -0.02758121, 0.4000028, 0.01539119, -0.01331528, 5.64095E-06, 0.02635367, -0.0277764, 0.4000025
 186031391, 0.0004844277, -0.01775136, -2.899739E-05, 0.02599511, -0.02789224, 0.4000016, 0.01519145, -0.005185855, 1.895689E-05, 0.02634673, -0.02758121, 0.4000028
 186231311, -0.01617299, 0.01801068, 8.774696E-07, 0.02565145, -0.02709472, 0.4000023, 0.0004844277, -0.01775136, -2.899739E-05, 0.02599511, -0.02789224, 0.4000016
 186431231, 0.0131225, -0.02019296, -1.010745E-05, 0.0262953, -0.02795618, 0.400002, -0.01617299, 0.01801068, 8.774696E-07, 0.02565145, -0.02709472, 0.4000023
 186631151, -0.01734921, -0.006422052, -4.253214E-05, 0.02562661, -0.02761493, 0.4000012, 0.0131225, -0.02019296, -1.010745E-05, 0.0262953, -0.02795618, 0.400002
 186831071, -0.02384116, 0.01277459, -2.195345E-05, 0.02550808, -0.02719979, 0.4000018, -0.01734921, -0.006422052, -4.253214E-05, 0.02562661, -0.02761493, 0.4000012
 187030991, -0.004388214, 0.01217177, 1.251258E-05, 0.02588473, -0.02720923, 0.4000027, -0.02384116, 0.01277459, -2.195345E-05, 0.02550808, -0.02719979, 0.4000018
 187230911, -0.005864386, 0.001927048, -7.490609E-06, 0.02585378, -0.02741979, 0.4000024, -0.004388214, 0.01217177, 1.251258E-05, 0.02588473, -0.02720923, 0.4000027
 187430831, -0.0129325, -0.0005519515, -2.47131E-05, 0.02570582, -0.0274708, 0.4000026, -0.005864386, 0.001927048, -7.490609E-06, 0.02585378, -0.02741979, 0.4000024
 187630751, -0.01613264, 0.007777858, -1.689146E-05, 0.02563969, -0.02728964, 0.4000032, -0.0129325, -0.0005519515, -2.47131E-05, 0.02570582, -0.0274708, 0.4000026
 187830671, 0.01356569, 0.01517819, 5.054634E-05, 0.02629136, -0.0271429, 0.4000048, -0.01613264, 0.007777858, -1.689146E-05, 0.02563969, -0.02728964, 0.4000032
 188031424, -0.01071975, -0.0003522181, -2.060476E-05, 0.02573922, -0.02746868, 0.4000033, 0.01356569, 0.01517819, 5.054634E-05, 0.02629136, -0.0271429, 0.4000048
 188231344, -0.007319469, -0.01944337, -4.637832E-05, 0.02580781, -0.02793512, 0.4000025, -0.01071975, -0.0003522181, -2.060476E-05, 0.02573922, -0.02746868, 0.4000033
 188431264, 0.01305593, 0.006592787, 3.547552E-05, 0.02627528, -0.02732055, 0.4000043, -0.007319469, -0.01944337, -4.637832E-05, 0.02580781, -0.02793512, 0.4000025
 188631184, -0.01371754, 0.01727788, 3.57273E-06, 0.02568266, -0.02710857, 0.4000034, 0.01305593, 0.006592787, 3.547552E-05, 0.02627528, -0.02732055, 0.4000043
 188831104, 0.011769, 0.01062116, 3.958793E-05, 0.026249, -0.02723515, 0.4000042, -0.01371754, 0.01727788, 3.57273E-06, 0.02568266, -0.02710857, 0.4000034
 189031024, 0.002759981, -0.01925951, -2.70074E-05, 0.02603807, -0.02792484, 0.4000026, 0.011769, 0.01062116, 3.958793E-05, 0.026249, -0.02723515, 0.4000042
 189230944, 0.02324424, -0.009722591, 2.654849E-05, 0.02655288, -0.02767985, 0.4000041, 0.002759981, -0.01925951, -2.70074E-05, 0.02603807, -0.02792484, 0.4000026
 189430864, 0.02515891, -0.004891766, 3.799463E-05, 0.02660683, -0.02756143, 0.4000045, 0.02324424, -0.009722591, 2.654849E-05, 0.02655288, -0.02767985, 0.4000041
 189630784, 0.01368832, 0.01133304, 4.360788E-05, 0.02630646, -0.02720824, 0.4000045, 0.02515891, -0.004891766, 3.799463E-05, 0.02660683, -0.02756143, 0.4000045
 189830704, 0.003841942, -0.02485697, -3.370756E-05, 0.026068, -0.02806468, 0.4000028, 0.01368832, 0.01133304, 4.360788E-05, 0.02630646, -0.02720824, 0.4000045
 190031457, 0.002440847, 0.02298789, 4.206218E-05, 0.02603252, -0.02698648, 0.4000049, 0.003841942, -0.02485697, -3.370756E-05, 0.026068, -0.02806468, 0.4000028
 190231377, -0.01032464, -0.01265136, -3.958819E-05, 0.02575703, -0.02774106, 0.4000034, 0.002440847, 0.02298789, 4.206218E-05, 0.02603252, -0.02698648, 0.4000049
 190431297, -0.02483172, -0.002405244, -4.946994E-05, 0.02548747, -0.02749389, 0.4000034, -0.01032464, -0.01265136, -3.958819E-05, 0.02575703, -0.02774106, 0.4000034
 190631217, 0.003322531, -0.01727386, -2.194206E-05, 0.02605396, -0.0278563, 0.4000037, -0.02483172, -0.002405244, -4.946994E-05, 0.02548747, -0.02749389, 0.4000034
 190831137, -0.02281459, 0.009089039, -2.70824E-05, 0.02552283, -0.02724726, 0.4000037, 0.003322531, -0.01727386, -2.194206E-05, 0.02605396, -0.0278563, 0.4000037
 191031057, -0.01506626, -0.001124367, -2.949683E-05, 0.02566482, -0.02746631, 0.4000037, -0.02281459, 0.009089039, -2.70824E-05, 0.02552283, -0.02724726, 0.4000037
 191230977, 0.01045095, 0.01073853, 3.66914E-05, 0.02622068, -0.0272139, 0.4000051, -0.01506626, -0.001124367, -2.949683E-05, 0.02566482, -0.02746631, 0.4000037
 191430897, 0.008742124, 0.007757507, 2.87965E-05, 0.02617817, -0.02727849, 0.4000048, 0.01045095, 0.01073853, 3.66914E-05, 0.02622068, -0.0272139, 0.4000051
 191630817, 0.01414456, -0.01079252, 8.306264E-06, 0.0263125, -0.02770028, 0.4000041, 0.008742124, 0.007757507, 2.87965E-05, 0.02617817, -0.02727849, 0.4000048
 191830737, 0.02000617, 0.01971428, 6.923763E-05, 0.02646175, -0.02704708, 0.4000057, 0.01414456, -0.01079252, 8.306264E-06, 0.0263125, -0.02770028, 0.4000041
 192030657, 0.01976479, -0.01368016, 1.420535E-05, 0.02645254, -0.02777061, 0.4000047, 0.02000617, 0.01971428, 6.923763E-05, 0.02646175, -0.02704708, 0.4000057
 192231410, -0.01733297, -0.007372313, -4.423691E-05, 0.0256153, -0.0276177, 0.4000033, 0.01976479, -0.01368016, 1.420535E-05, 0.02645254, -0.02777061, 0.4000047
 192431330, 0.01743955, -0.02263361, -4.88622E-06, 0.02639256, -0.02800519, 0.4000041, -0.01733297, -0.007372313, -4.423691E-05, 0.0256153, -0.0276177, 0.4000033
 192631250, 0.01639812, -0.01947998, -1.59955E-06, 0.02636442, -0.02792143, 0.4000042, 0.01743955, -0.02263361, -4.88622E-06, 0.02639256, -0.02800519, 0.4000041
 192831170, -0.01797343, -0.02360472, -7.221309E-05, 0.02560172, -0.02803237, 0.4000027, 0.01639812, -0.01947998, -1.59955E-06, 0.02636442, -0.02792143, 0.4000042
 193031090, -0.002765704, -0.01555599, -3.069837E-05, 0.02590806, -0.02781918, 0.4000037, -0.01797343, -0.02360472, -7.221309E-05, 0.02560172, -0.02803237, 0.4000027
 193231010, 0.01014378, -0.0176496, -1.005067E-05, 0.02620325, -0.02787277, 0.4000043, -0.002765704, -0.01555599, -3.069837E-05, 0.02590806, -0.02781918, 0.4000037
 193430930, -0.003800346, 0.0213832, 2.804685E-05, 0.02588049, -0.02701768, 0.4000053, 0.01014378, -0.0176496, -1.005067E-05, 0.02620325, -0.02787277, 0.4000043
 193630850, -0.01218714, 0.01864863, 7.803324E-06, 0.02570832, -0.02706606, 0.4000049, -0.003800346, 0.0213832, 2.804685E-05, 0.02588049, -0.02701768, 0.4000053
 193830770, 0.01173046, -0.004195802, 1.496285E-05, 0.02624501, -0.02753895, 0.400005, -0.01218714, 0.01864863, 7.803324E-06, 0.02570832, -0.02706606, 0.4000049
 194030690, 0.005166718, 0.01630681, 3.612221E-05, 0.02609024, -0.0271052, 0.4000054, 0.01173046, -0.004195802, 1.496285E-05, 0.02624501, -0.02753895, 0.400005
 194231443, -0.01448376, 0.01070753, -9.389732E-06, 0.02567232, -0.02721213, 0.4000045, 0.005166718, 0.01630681, 3.612221E-05, 0.02609024, -0.0271052, 0.4000054
 194431363, 0.001139227, 0.02051528, 3.517027E-05, 0.02600155, -0.02702098, 0.4000055, -0.01448376, 0.01070753, -9.389732E-06, 0.02567232, -0.02721213, 0.4000045
 194631283, -0.001213392, -0.01487497, -2.610675E-05, 0.0259522, -0.02778744, 0.4000041, 0.001139227, 0.02051528, 3.517027E-05, 0.02600155, -0.02702098, 0.4000055
 194831203, -0.01817663, -0.02488314, -7.301923E-05, 0.02560778, -0.02804824, 0.4000033, -0.001213392, -0.01487497, -2.610675E-05, 0.0259522, -0.02778744, 0.4000041
 195031123, -0.02276927, 0.02471656, -2.630532E-06, 0.02552251, -0.02693701, 0.4000053, -0.01817663, -0.02488314, -7.301923E-05, 0.02560778, -0.02804824, 0.4000033
 195231043, 0.01399134, -0.01837083, -3.216937E-06, 0.02630465, -0.02786897, 0.4000057, -0.02276927, 0.02471656, -2.630532E-06, 0.02552251, -0.02693701, 0.4000053
 195430963, 0.02306284, 0.02275198, 7.887588E-05, 0.02653843, -0.02696983, 0.4000078, 0.01399134, -0.01837083, -3.216937E-06, 0.02630465, -0.02786897, 0.4000057
 195630883, 0.02264709, 0.01347205, 6.337189E-05, 0.02652741, -0.02714115, 0.4000076, 0.02306284, 0.02275198, 7.887588E-05, 0.02653843, -0.02696983, 0.4000078
 195830803, -0.005712276, -0.02458271, -4.932229E-05, 0.02584229, -0.02803057, 0.4000053, 0.02264709, 0.01347205, 6.337189E-05, 0.02652741, -0.02714115, 0.4000076
 196030723, 0.005154307, -0.01094684, -7.452738E-06, 0.02608156, -0.02767188, 0.4000068, -0.005712276, -0.02458271, -4.932229E-05, 0.02584229, -0.02803057, 0.4000053
 196231476, 0.01303201, -0.01030706, 8.252664E-06, 0.02627393, -0.02765553, 0.4000071, 0.005154307, -0.01094684, -7.452738E-06, 0.02608156, -0.02767188, 0.4000068
 196431396, -0.005030675, -0.01208979, -2.826126E-05, 0.02585904, -0.02770043, 0.4000059, 0.01303201, -0.01030706, 8.252664E-06, 0.02627393, -0.02765553, 0.4000071
 196631316, -0.0007870499, 0.01771595, 2.625894E-05, 0.025952, -0.02705323, 0.400007, -0.005030675, -0.01208979, -2.826126E-05, 0.02585904, -0.02770043, 0.4000059
 196831236, 0.01382098, -0.009368199, 1.116175E-05, 0.02629271, -0.02763559, 0.400007, -0.0007870499, 0.01771595, 2.625894E-05, 0.025952, -0.02705323, 0.400007
 197031156, 0.02261154, -0.008065452, 2.984637E-05, 0.0265181, -0.02760574, 0.4000077, 0.01382098, -0.009368199, 1.116175E-05, 0.02629271, -0.02763559, 0.400007
 197231076, -0.01047011, -0.01144526, -3.77999E-05, 0.02573797, -0.02769067, 0.4000059, 0.02261154, -0.008065452, 2.984637E-05, 0.0265181, -0.02760574, 0.4000077
 197430996, -0.02214549, 0.01611476, -1.617454E-05, 0.02551581, -0.02709187, 0.4000063, -0.01047011, -0.01144526, -3.77999E-05, 0.02573797, -0.02769067, 0.4000059
 197630916, 0.004536417, -0.01086836, -8.814619E-06, 0.02606441, -0.02768255, 0.400006, -0.02214549, 0.01611476, -1.617454E-05, 0.02551581, -0.02709187, 0.4000063
 197830836, -0.006783534, -0.009343766, -2.774318E-05, 0.02581602, -0.02764895, 0.4000053, 0.004536417, -0.01086836, -8.814619E-06, 0.02606441, -0.02768255, 0.400006
 198030756, -0.01414913, -0.006630366, -3.731195E-05, 0.02566624, -0.0275861, 0.4000051, -0.006783534, -0.009343766, -2.774318E-05, 0.02581602, -0.02764895, 0.4000053
 198230676, -0.01404767, 0.007768594, -1.400697E-05, 0.02566558, -0.02726699, 0.4000057, -0.01414913, -0.006630366, -3.731195E-05, 0.02566624, -0.0275861, 0.4000051
 198431429, 0.006963531, -0.01598729, -1.271914E-05, 0.02611922, -0.027819, 0.4000055, -0.01404767, 0.007768594, -1.400697E-05, 0.02566558, -0.02726699, 0.4000057
 198631349, 0.02235784, 0.002317951, 4.58047E-05, 0.02651316, -0.02739068, 0.4000063, 0.006963531, -0.01598729, -1.271914E-05, 0.02611922, -0.027819, 0.4000055
 198831269, 0.00813893, 0.006985569, 2.662835E-05, 0.026155, -0.02729124, 0.4000055, 0.02235784, 0.002317951, 4.58047E-05, 0.02651316, -0.02739068, 0.4000063
 199031189, -0.01709113, 0.0220686, 3.978854E-06, 0.02561834, -0.02699552, 0.4000051, 0.00813893, 0.006985569, 2.662835E-05, 0.026155, -0.02729124, 0.4000055
 199231109, -0.0229924, 0.01516456, -1.828056E-05, 0.02551234, -0.02711931, 0.4000049, -0.01709113, 0.0220686, 3.978854E-06, 0.02561834, -0.02699552, 0.4000051
 199431029, -0.005174752, 0.0114972, 8.796749E-06, 0.0258576, -0.02718698, 0.4000057, -0.0229924, 0.01516456, -1.828056E-05, 0.02551234, -0.02711931, 0.4000049
 199630949, 0.0207851, -0.009656414, 2.322401E-05, 0.02647811, -0.02765403, 0.4000062, -0.005174752, 0.0114972, 8.796749E-06, 0.0258576, -0.02718698, 0.4000057
 199830869, -0.01522065, -0.003129302, -3.341179E-05, 0.02565145, -0.0274984, 0.4000052, 0.0207851, -0.009656414, 2.322401E-05, 0.02647811, -0.02765403, 0.4000062
 200030789, -0.0215705, 0.01333244, -1.910737E-05, 0.02553274, -0.02714692, 0.4000057, -0.01522065, -0.003129302, -3.341179E-05, 0.02565145, -0.0274984, 0.4000052
 200230709, -0.01722711, 0.01821385, -3.290561E-06, 0.02561305, -0.02705143, 0.4000061, -0.0215705, 0.01333244, -1.910737E-05, 0.02553274, -0.02714692, 0.4000057
 200431462, -0.024557, 0.007548514, -3.390482E-05, 0.02548142, -0.02725953, 0.4000056, -0.01722711, 0.01821385, -3.290561E-06, 0.02561305, -0.02705143, 0.4000061
 200631382, 0.007501849, -0.01375913, -7.855613E-06, 0.02614304, -0.02774966, 0.4000058, -0.024557, 0.007548514, -3.390482E-05, 0.02548142, -0.02725953, 0.4000056
 200831302, -0.02457494, -0.002228801, -4.923531E-05, 0.02548363, -0.02747054, 0.4000053, 0.007501849, -0.01375913, -7.855613E-06, 0.02614304, -0.02774966, 0.4000058
 201031222, -0.01915336, 0.003695329, -2.996283E-05, 0.0255777, -0.02733544, 0.4000061, -0.02457494, -0.002228801, -4.923531E-05, 0.02548363, -0.02747054, 0.4000053
 201231142, -0.005117023, 0.02446864, 2.855818E-05, 0.02585285, -0.02692845, 0.4000076, -0.01915336, 0.003695329, -2.996283E-05, 0.0255777, -0.02733544, 0.4000061
 201431062, 0.02157428, 0.02111195, 7.343449E-05, 0.02648932, -0.02698494, 0.4000092, -0.005117023, 0.02446864, 2.855818E-05, 0.02585285, -0.02692845, 0.4000076
 201630982, -0.0189506, -0.01954698, -6.617713E-05, 0.02557283, -0.02788622, 0.4000061, 0.02157428, 0.02111195, 7.343449E-05, 0.02648932, -0.02698494, 0.4000092
 201830902, -0.01361102, -0.0227309, -6.11834E-05, 0.02567266, -0.02797258, 0.4000062, -0.0189506, -0.01954698, -6.617713E-05, 0.02557283, -0.02788622, 0.4000061
 202030822, -0.01694254, -0.02314051, -6.823946E-05, 0.02560644, -0.02798365, 0.4000062, -0.01361102, -0.0227309, -6.11834E-05, 0.02567266, -0.02797258, 0.4000062
 202230742, -0.02545991, 0.02285239, -1.270974E-05, 0.02545302, -0.02695715, 0.4000075, -0.01694254, -0.02314051, -6.823946E-05, 0.02560644, -0.02798365, 0.4000062
 202430662, 0.01462277, 0.01022974, 4.393252E-05, 0.02630204, -0.02720077, 0.4000084, -0.02545991, 0.02285239, -1.270974E-05, 0.02545302, -0.02695715, 0.4000075
 202631415, 0.01396081, -0.00742842, 1.486451E-05, 0.02628329, -0.02759368, 0.4000077, 0.01462277, 0.01022974, 4.393252E-05, 0.02630204, -0.02720077, 0.4000084
 202831335, 0.01279259, 0.02126711, 5.814754E-05, 0.02625402, -0.02699463, 0.4000085, 0.01396081, -0.00742842, 1.486451E-05, 0.02628329, -0.02759368, 0.4000077
 203031255, -0.0176532, -0.01184829, -5.249833E-05, 0.02559107, -0.02770279, 0.4000059, 0.01279259, 0.02126711, 5.814754E-05, 0.02625402, -0.02699463, 0.4000085
 203231175, -0.02084349, 0.01434272, -1.669938E-05, 0.02553398, -0.02712957, 0.4000064, -0.0176532, -0.01184829, -5.249833E-05, 0.02559107, -0.02770279, 0.4000059
 203431095, 0.01525582, 0.0254518, 7.001047E-05, 0.02631853, -0.02693024, 0.400008, -0.02084349, 0.01434272, -1.669938E-05, 0.02553398, -0.02712957, 0.4000064
 203631015, -0.005919764, 0.02398226, 2.733679E-05, 0.02582424, -0.02695565, 0.4000071, 0.01525582, 0.0254518, 7.001047E-05, 0.02631853, -0.02693024, 0.400008
 203830935, -0.01975239, 0.02445061, 1.863751E-06, 0.02555135, -0.02695097, 0.4000064, -0.005919764, 0.02398226, 2.733679E-05, 0.02582424, -0.02695565, 0.4000071
 204030855, -0.02295566, -0.01509291, -6.843769E-05, 0.0254935, -0.02779796, 0.4000048, -0.01975239, 0.02445061, 1.863751E-06, 0.02555135, -0.02695097, 0.4000064
 204230775, 0.005156211, 0.00246995, 1.383769E-05, 0.02607069, -0.02738065, 0.4000066, -0.02295566, -0.01509291, -6.843769E-05, 0.0254935, -0.02779796, 0.4000048
 204430695, 0.000169515, 0.0209238, 3.401859E-05, 0.02596066, -0.02700976, 0.400007, 0.005156211, 0.00246995, 1.383769E-05, 0.02607069, -0.02738065, 0.4000066
 204631448, 0.01225947, 0.009804105, 3.88527E-05, 0.02624985, -0.02722001, 0.4000071, 0.000169515, 0.0209238, 3.401859E-05, 0.02596066, -0.02700976, 0.400007
 204831368, -0.01009648, -0.006029629, -2.860263E-05, 0.02574908, -0.02756431, 0.4000056, 0.01225947, 0.009804105, 3.88527E-05, 0.02624985, -0.02722001, 0.4000071
 205031288, -0.01600964, -0.00527176, -3.834186E-05, 0.0256371, -0.02754683, 0.4000052, -0.01009648, -0.006029629, -2.860263E-05, 0.02574908, -0.02756431, 0.4000056
 205231208, -0.01035637, 0.00230125, -1.558771E-05, 0.02575097, -0.02737807, 0.4000053, -0.01600964, -0.00527176, -3.834186E-05, 0.0256371, -0.02754683, 0.4000052
 205431128, 0.02518387, -0.02397074, 8.37231E-06, 0.02660019, -0.02802222, 0.4000057, -0.01035637, 0.00230125, -1.558771E-05, 0.02575097, -0.02737807, 0.4000053
 205631048, -0.02405318, 0.01326137, -2.341687E-05, 0.02549718, -0.02714817, 0.4000051, 0.02518387, -0.02397074, 8.37231E-06, 0.02660019, -0.02802222, 0.4000057
 205830968, -0.01938155, 0.0002974239, -3.540659E-05, 0.02558121, -0.02741809, 0.4000049, -0.02405318, 0.01326137, -2.341687E-05, 0.02549718, -0.02714817, 0.4000051
 206030888, -0.0148962, 0.005183797, -1.929184E-05, 0.02566605, -0.02731252, 0.4000051, -0.01938155, 0.0002974239, -3.540659E-05, 0.02558121, -0.02741809, 0.4000049
 206230808, 0.02203608, -0.01092454, 2.334619E-05, 0.02651747, -0.027681, 0.4000061, -0.0148962, 0.005183797, -1.929184E-05, 0.02566605, -0.02731252, 0.4000051
 206430728, 0.0105142, 0.01026918, 3.581111E-05, 0.02622197, -0.02720731, 0.4000063, 0.02203608, -0.01092454, 2.334619E-05, 0.02651747, -0.027681, 0.4000061
 206631481, -0.01497908, -0.01601725, -5.326082E-05, 0.02566661, -0.02781158, 0.400004, 0.0105142, 0.01026918, 3.581111E-05, 0.02622197, -0.02720731, 0.4000063
 206831401, 0.004918768, -0.0002864847, 8.639679E-06, 0.02608785, -0.02743519, 0.4000055, -0.01497908, -0.01601725, -5.326082E-05, 0.02566661, -0.02781158, 0.400004
 207031321, 0.01782282, 0.006706046, 4.384213E-05, 0.02640345, -0.02728421, 0.4000065, 0.004918768, -0.0002864847, 8.639679E-06, 0.02608785, -0.02743519, 0.4000055
 207231241, -0.00612315, -0.003909586, -1.763101E-05, 0.02584022, -0.02751673, 0.4000051, 0.01782282, 0.006706046, 4.384213E-05, 0.02640345, -0.02728421, 0.4000065
 207431161, 0.0206129, 0.01816908, 6.739239E-05, 0.02647615, -0.02705669, 0.4000071, -0.00612315, -0.003909586, -1.763101E-05, 0.02584022, -0.02751673, 0.4000051
 207631081, -0.0008397134, -0.001895247, -4.60598E-06, 0.02595327, -0.02747234, 0.4000054, 0.0206129, 0.01816908, 6.739239E-05, 0.02647615, -0.02705669, 0.4000071
 207831001, -0.01061719, 0.006538739, -9.254361E-06, 0.02574507, -0.02729042, 0.4000052, -0.0008397134, -0.001895247, -4.60598E-06, 0.02595327, -0.02747234, 0.4000054
 208030921, -0.007220561, -0.01155925, -3.215313E-05, 0.02581333, -0.02770454, 0.4000047, -0.01061719, 0.006538739, -9.254361E-06, 0.02574507, -0.02729042, 0.4000052
 208230841, 0.000931947, 0.002866072, 6.386471E-06, 0.02598848, -0.02737159, 0.4000055, -0.007220561, -0.01155925, -3.215313E-05, 0.02581333, -0.02770454, 0.4000047
 208430761, 0.01129255, -0.007625751, 8.750192E-06, 0.02623218, -0.02761343, 0.4000054, 0.000931947, 0.002866072, 6.386471E-06, 0.02598848, -0.02737159, 0.4000055
 208630681, 0.0230807, -0.01342776, 2.132469E-05, 0.02653738, -0.02775713, 0.4000056, 0.01129255, -0.007625751, 8.750192E-06, 0.02623218, -0.02761343, 0.4000054
 208831434, 0.01727319, -0.01116472, 1.414275E-05, 0.02638126, -0.02770443, 0.4000054, 0.0230807, -0.01342776, 2.132469E-05, 0.02653738, -0.02775713, 0.4000056
 209031354, -0.0123299, -0.003050586, -2.832204E-05, 0.02570174, -0.02751409, 0.4000045, 0.01727319, -0.01116472, 1.414275E-05, 0.02638126, -0.02770443, 0.4000054
 209231274, -0.01586467, 0.01564876, -4.332156E-06, 0.02563458, -0.02711638, 0.4000053, -0.0123299, -0.003050586, -2.832204E-05, 0.02570174, -0.02751409, 0.4000045
 209431194, 0.01029401, -0.002410519, 1.536608E-05, 0.02620816, -0.02748975, 0.4000057, -0.01586467, 0.01564876, -4.332156E-06, 0.02563458, -0.02711638, 0.4000053
 209631114, 0.0005303918, 0.01972247, 3.284022E-05, 0.02598345, -0.02703274, 0.4000059, 0.01029401, -0.002410519, 1.536608E-05, 0.02620816, -0.02748975, 0.4000057
 209831034, 0.01208038, 0.01990954, 5.429209E-05, 0.0262593, -0.02702448, 0.4000066, 0.0005303918, 0.01972247, 3.284022E-05, 0.02598345, -0.02703274, 0.4000059
 210030954, -0.0006652317, -0.02528312, -4.152137E-05, 0.02596193, -0.02805442, 0.4000044, 0.01208038, 0.01990954, 5.429209E-05, 0.0262593, -0.02702448, 0.4000066
 210230874, -0.01433979, 0.01855767, 3.037529E-06, 0.02567988, -0.02704385, 0.4000055, -0.0006652317, -0.02528312, -4.152137E-05, 0.02596193, -0.02805442, 0.4000044
 210430794, -0.01967863, -0.002168994, -3.959204E-05, 0.02558184, -0.02746842, 0.4000047, -0.01433979, 0.01855767, 3.037529E-06, 0.02567988, -0.02704385, 0.4000055
 210630714, -0.009478996, -0.01037841, -3.371699E-05, 0.02577899, -0.02765824, 0.400005, -0.01967863, -0.002168994, -3.959204E-05, 0.02558184, -0.02746842, 0.4000047
 210831467, -0.004186871, -0.01670438, -3.379441E-05, 0.02588954, -0.02781367, 0.4000052, -0.009478996, -0.01037841, -3.371699E-05, 0.02577899, -0.02765824, 0.400005
 211031387, -0.01156139, -0.02190185, -5.542418E-05, 0.02573882, -0.02795069, 0.4000046, -0.004186871, -0.01670438, -3.379441E-05, 0.02588954, -0.02781367, 0.4000052
 211231307, 0.001647323, 0.01830536, 3.169925E-05, 0.02602083, -0.02704006, 0.4000064, -0.01156139, -0.02190185, -5.542418E-05, 0.02573882, -0.02795069, 0.4000046
 211431227, 0.009682358, 0.007094111, 2.877937E-05, 0.02621118, -0.02725978, 0.4000064, 0.001647323, 0.01830536, 3.169925E-05, 0.02602083, -0.02704006, 0.4000064
 211631147, -0.004828714, 0.0122027, 1.027916E-05, 0.02588122, -0.02715577, 0.4000059, 0.009682358, 0.007094111, 2.877937E-05, 0.02621118, -0.02725978, 0.4000064
 211831067, 0.004012491, 0.01870215, 3.666728E-05, 0.02607791, -0.02703356, 0.4000063, -0.004828714, 0.0122027, 1.027916E-05, 0.02588122, -0.02715577, 0.4000059
 212030987, -0.01903916, 0.01600579, -9.514202E-06, 0.02559985, -0.02708563, 0.4000052, 0.004012491, 0.01870215, 3.666728E-05, 0.02607791, -0.02703356, 0.4000063
 212230907, -0.003884648, 0.01754449, 2.055689E-05, 0.02590135, -0.02705744, 0.4000058, -0.01903916, 0.01600579, -9.514202E-06, 0.02559985, -0.02708563, 0.4000052
 212430827, -0.006519428, -0.004849077, -1.95616E-05, 0.02584342, -0.02752705, 0.4000051, -0.003884648, 0.01754449, 2.055689E-05, 0.02590135, -0.02705744, 0.4000058
 212630747, 0.01481245, 0.001020051, 2.874235E-05, 0.02633684, -0.02739557, 0.4000062, -0.006519428, -0.004849077, -1.95616E-05, 0.02584342, -0.02752705, 0.4000051
 212830667, -0.02327263, -0.008603473, -5.644386E-05, 0.02551767, -0.02762105, 0.4000042, 0.01481245, 0.001020051, 2.874235E-05, 0.02633684, -0.02739557, 0.4000062
 213031420, -0.02145196, -0.006991421, -5.072621E-05, 0.0255469, -0.02758344, 0.4000045, -0.02327263, -0.008603473, -5.644386E-05, 0.02551767, -0.02762105, 0.4000042
 213231340, -0.01369649, -0.008804785, -3.942211E-05, 0.02568956, -0.02762895, 0.4000047, -0.02145196, -0.006991421, -5.072621E-05, 0.0255469, -0.02758344, 0.4000045
 213431260, 0.02500249, 0.0165769, 7.300127E-05, 0.02659591, -0.02708538, 0.4000072, -0.01369649, -0.008804785, -3.942211E-05, 0.02568956, -0.02762895, 0.4000047
 213631180, -0.01965389, 0.008319263, -2.319315E-05, 0.02557448, -0.02725008, 0.400005, 0.02500249, 0.0165769, 7.300127E-05, 0.02659591, -0.02708538, 0.4000072
 213831100, -0.01515293, 0.02108461, 5.839052E-06, 0.02565766, -0.02700759, 0.4000053, -0.01965389, 0.008319263, -2.319315E-05, 0.02557448, -0.02725008, 0.400005
 214031020, -0.004597358, 0.01119589, 9.620137E-06, 0.02587125, -0.02719879, 0.4000053, -0.01515293, 0.02108461, 5.839052E-06, 0.02565766, -0.02700759, 0.4000053
 214230940, 0.01407162, 0.02213319, 6.250668E-05, 0.02630302, -0.02699591, 0.4000063, -0.004597358, 0.01119589, 9.620137E-06, 0.02587125, -0.02719879, 0.4000053
 214430860, 0.001773921, -0.00999084, -1.301498E-05, 0.02600929, -0.02767265, 0.4000046, 0.01407162, 0.02213319, 6.250668E-05, 0.02630302, -0.02699591, 0.4000063
 214630780, -0.02533505, 0.02354939, -8.778403E-06, 0.02547562, -0.02696735, 0.4000047, 0.001773921, -0.00999084, -1.301498E-05, 0.02600929, -0.02767265, 0.4000046
 214830700, -0.005006961, -0.01366381, -3.143639E-05, 0.02586841, -0.02775945, 0.4000039, -0.02533505, 0.02354939, -8.778403E-06, 0.02547562, -0.02696735, 0.4000047
 215031453, 0.006841325, 0.01662541, 3.953015E-05, 0.02613705, -0.02709162, 0.4000055, -0.005006961, -0.01366381, -3.143639E-05, 0.02586841, -0.02775945, 0.4000039
 215231373, -0.01594686, -0.01312889, -5.044977E-05, 0.02564988, -0.02773879, 0.400004, 0.006841325, 0.01662541, 3.953015E-05, 0.02613705, -0.02709162, 0.4000055
 215431293, -0.0002712961, 0.01797887, 2.813642E-05, 0.02597395, -0.02705587, 0.4000059, -0.01594686, -0.01312889, -5.044977E-05, 0.02564988, -0.02773879, 0.400004
 215631213, 0.01366237, -0.006311108, 1.508041E-05, 0.02630617, -0.02756548, 0.4000058, -0.0002712961, 0.01797887, 2.813642E-05, 0.02597395, -0.02705587, 0.4000059
 215831133, 0.02482636, 0.007068348, 5.683456E-05, 0.02659778, -0.02726494, 0.4000072, 0.01366237, -0.006311108, 1.508041E-05, 0.02630617, -0.02756548, 0.4000058
 216031053, 0.002653921, -0.004405229, -2.033391E-06, 0.02603989, -0.02751525, 0.4000059, 0.02482636, 0.007068348, 5.683456E-05, 0.02659778, -0.02726494, 0.4000072
 216230973, -0.003844195, 0.02114972, 2.615574E-05, 0.02589921, -0.02698882, 0.4000063, 0.002653921, -0.004405229, -2.033391E-06, 0.02603989, -0.02751525, 0.4000059
 216430893, -0.02226491, -0.004239492, -4.725366E-05, 0.02554139, -0.02751132, 0.4000045, -0.003844195, 0.02114972, 2.615574E-05, 0.02589921, -0.02698882, 0.4000063
 216630813, 0.004541741, -0.001422449, 6.016118E-06, 0.02609305, -0.02744747, 0.4000054, -0.02226491, -0.004239492, -4.725366E-05, 0.02554139, -0.02751132, 0.4000045
 216830733, -0.02160504, 0.01596317, -1.411715E-05, 0.02555726, -0.02708474, 0.400005, 0.004541741, -0.001422449, 6.016118E-06, 0.02609305, -0.02744747, 0.4000054
 217031486, 0.01917071, -0.01834883, 6.116232E-06, 0.02645569, -0.02785629, 0.4000056, -0.02160504, 0.01596317, -1.411715E-05, 0.02555726, -0.02708474, 0.400005
 217231406, -0.0009060731, 0.01478306, 2.149578E-05, 0.02596816, -0.02710561, 0.400006, 0.01917071, -0.01834883, 6.116232E-06, 0.02645569, -0.02785629, 0.4000056
 217431326, -0.02062585, -0.01765672, -6.528279E-05, 0.02557204, -0.02784116, 0.400004, -0.0009060731, 0.01478306, 2.149578E-05, 0.02596816, -0.02710561, 0.400006
 217631246, 0.008002887, -0.01303728, -6.026968E-06, 0.02617201, -0.02772767, 0.400005, -0.02062585, -0.01765672, -6.528279E-05, 0.02557204, -0.02784116, 0.400004
 217831166, -0.01878558, -0.01089856, -5.194155E-05, 0.02559924, -0.02768164, 0.4000039, 0.008002887, -0.01303728, -6.026968E-06, 0.02617201, -0.02772767, 0.400005
 218031086, -0.005413876, 0.001380379, -7.769605E-06, 0.02586077, -0.02740013, 0.4000048, -0.01878558, -0.01089856, -5.194155E-05, 0.02559924, -0.02768164, 0.4000039
 218231006, -0.008715626, 0.01658162, 1.059076E-05, 0.02578919, -0.0270896, 0.4000053, -0.005413876, 0.001380379, -7.769605E-06, 0.02586077, -0.02740013, 0.4000048
 218430926, -0.004591193, -0.01273921, -2.921799E-05, 0.02587347, -0.0277365, 0.4000042, -0.008715626, 0.01658162, 1.059076E-05, 0.02578919, -0.0270896, 0.4000053
 218630846, -0.01340028, 0.01115941, -6.667289E-06, 0.02569194, -0.02720524, 0.4000045, -0.004591193, -0.01273921, -2.921799E-05, 0.02587347, -0.0277365, 0.4000042
 218830766, -0.0008409093, -0.00575125, -1.105024E-05, 0.02595157, -0.02757688, 0.4000042, -0.01340028, 0.01115941, -6.667289E-06, 0.02569194, -0.02720524, 0.4000045
 219030686, 0.003849036, 0.006366299, 1.77612E-05, 0.02605538, -0.02731084, 0.4000048, -0.0008409093, -0.00575125, -1.105024E-05, 0.02595157, -0.02757688, 0.4000042
 219231439, 0.01971717, -0.01730711, 8.267714E-06, 0.02644655, -0.02786705, 0.4000046, 0.003849036, 0.006366299, 1.77612E-05, 0.02605538, -0.02731084, 0.4000048
 219431359, 0.01536856, 0.004917035, 3.710519E-05, 0.02633182, -0.02734362, 0.4000053, 0.01971717, -0.01730711, 8.267714E-06, 0.02644655, -0.02786705, 0.4000046
 219631279, 0.02200919, 0.01317949, 6.322257E-05, 0.02650738, -0.02717453, 0.4000058, 0.01536856, 0.004917035, 3.710519E-05, 0.02633182, -0.02734362, 0.4000053
 219831199, 0.02472599, -0.006733887, 3.488511E-05, 0.02658704, -0.02760381, 0.400005, 0.02200919, 0.01317949, 6.322257E-05, 0.02650738, -0.02717453, 0.4000058
 220031119, 0.02465807, 0.01912657, 7.728879E-05, 0.02658897, -0.02705886, 0.4000057, 0.02472599, -0.006733887, 3.488511E-05, 0.02658704, -0.02760381, 0.400005
 220231039, 0.01996628, -0.01645676, 9.735619E-06, 0.02646556, -0.0278399, 0.4000042, 0.02465807, 0.01912657, 7.728879E-05, 0.02658897, -0.02705886, 0.4000057
 220430959, 0.01957426, -0.006647576, 2.506949E-05, 0.02645807, -0.02759437, 0.4000046, 0.01996628, -0.01645676, 9.735619E-06, 0.02646556, -0.0278399, 0.4000042
 220630879, 0.01835057, -0.01340561, 1.16902E-05, 0.02642891, -0.02775697, 0.4000042, 0.01957426, -0.006647576, 2.506949E-05, 0.02645807, -0.02759437, 0.4000046
 220830799, 0.007833963, 0.01246389, 3.457813E-05, 0.02616869, -0.02717672, 0.4000046, 0.01835057, -0.01340561, 1.16902E-05, 0.02642891, -0.02775697, 0.4000042
 221030719, -0.02026836, 0.0007345737, -3.555855E-05, 0.02558084, -0.02742263, 0.4000029, 0.007833963, 0.01246389, 3.457813E-05, 0.02616869, -0.02717672, 0.4000046
 221231472, -0.01323835, 0.02349929, 1.423283E-05, 0.0257158, -0.02696924, 0.4000039, -0.02026836, 0.0007345737, -3.555855E-05, 0.02558084, -0.02742263, 0.4000029
 221431392, 0.01667681, 0.003156317, 3.514465E-05, 0.02639599, -0.02736454, 0.4000045, -0.01323835, 0.02349929, 1.423283E-05, 0.0257158, -0.02696924, 0.4000039
 221631312, 0.01999833, 0.01365712, 5.805249E-05, 0.02648309, -0.02714805, 0.400005, 0.01667681, 0.003156317, 3.514465E-05, 0.02639599, -0.02736454, 0.4000045
 221831232, 0.02342102, 0.01415453, 6.511404E-05, 0.02657381, -0.02713972, 0.4000051, 0.01999833, 0.01365712, 5.805249E-05, 0.02648309, -0.02714805, 0.400005
 222031152, 0.01812724, 0.002668587, 3.700016E-05, 0.02643273, -0.02737559, 0.4000045, 0.02342102, 0.01415453, 6.511404E-05, 0.02657381, -0.02713972, 0.4000051
 222231072, -0.0106624, 0.0221383, 1.65722E-05, 0.02577027, -0.02698985, 0.4000039, 0.01812724, 0.002668587, 3.700016E-05, 0.02643273, -0.02737559, 0.4000045
 222430992, -0.002930878, 0.02205847, 3.034879E-05, 0.02593272, -0.02699125, 0.4000041, -0.0106624, 0.0221383, 1.65722E-05, 0.02577027, -0.02698985, 0.4000039
 222630912, 0.0003036274, -0.001180677, -1.371876E-06, 0.02600379, -0.02746351, 0.4000033, -0.002930878, 0.02205847, 3.034879E-05, 0.02593272, -0.02699125, 0.4000041
 222830832, 0.01415416, 0.01758039, 5.411524E-05, 0.02633434, -0.02708071, 0.4000042, 0.0003036274, -0.001180677, -1.371876E-06, 0.02600379, -0.02746351, 0.4000033
 223030752, 0.01483596, -0.0184739, -3.602001E-06, 0.02635226, -0.02788862, 0.4000028, 0.01415416, 0.01758039, 5.411524E-05, 0.02633434, -0.02708071, 0.4000042
 223230672, -0.02159999, 0.01502775, -0.08103497, 0.02599942, -0.02757271, 0.4000026, 0.01483596, -0.0184739, -3.602001E-06, 0.02635226, -0.02788862, 0.4000028
 223431425, 0.01290039, -0.0151886, -0.1408992, 0.02783827, -0.02935429, 0.400003, -0.02159999, 0.01502775, -0.08103497, 0.02599942, -0.02757271, 0.4000026
 223631345, 0.004181151, 0.01978588, -0.2725795, 0.03093054, -0.02902079, 0.4000067, 0.01290039, -0.0151886, -0.1408992, 0.02783827, -0.02935429, 0.400003
 223831265, 0.005298155, 0.0128729, -0.6626434, 0.03755562, -0.0329766, 0.4000019, 0.004181151, 0.01978588, -0.2725795, 0.03093054, -0.02902079, 0.4000067
 224031185, 0.01887788, -0.01314952, -1.046395, 0.04722471, -0.04203247, 0.3999973, 0.005298155, 0.0128729, -0.6626434, 0.03755562, -0.0329766, 0.4000019
 224231105, -0.03101145, 0.003060284, -1.401385, 0.05964314, -0.05494067, 0.399994, 0.01887788, -0.01314952, -1.046395, 0.04722471, -0.04203247, 0.3999973
 224431025, 0.06922517, -0.07321014, -1.650527, 0.07680576, -0.07204089, 0.3999808, -0.03101145, 0.003060284, -1.401385, 0.05964314, -0.05494067, 0.399994
 224630945, 0.07934822, -0.120366, -1.908546, 0.09547549, -0.09154755, 0.3999666, 0.06922517, -0.07321014, -1.650527, 0.07680576, -0.07204089, 0.3999808
 224830865, 0.04218794, 0.05013813, -2.190058, 0.1164913, -0.1118126, 0.3999362, 0.07934822, -0.120366, -1.908546, 0.09547549, -0.09154755, 0.3999666
 225030785, 0.05789346, -0.08169112, -2.388937, 0.1402304, -0.1367331, 0.3999195, 0.04218794, 0.05013813, -2.190058, 0.1164913, -0.1118126, 0.3999362
 225230705, 0.09030119, -0.04432827, -2.598136, 0.1662965, -0.1626775, 0.3999231, 0.05789346, -0.08169112, -2.388937, 0.1402304, -0.1367331, 0.3999195
 225431458, -0.02576352, -0.2088518, -2.776344, 0.1932839, -0.1922808, 0.3999682, 0.09030119, -0.04432827, -2.598136, 0.1662965, -0.1626775, 0.3999231
 225631378, -0.1473635, 0.02159884, -2.979048, 0.2225593, -0.2205738, 0.4000204, -0.02576352, -0.2088518, -2.776344, 0.1932839, -0.1922808, 0.3999682
 225831298, -0.02219824, -0.3129826, -3.13984, 0.2544622, -0.2549071, 0.4001301, -0.1473635, 0.02159884, -2.979048, 0.2225593, -0.2205738, 0.4000204
 226031218, -0.039859, -0.1305034, -3.235196, 0.2903747, -0.2844826, 1.00015, -0.02219824, -0.3129826, -3.13984, 0.2544622, -0.2549071, 0.4001301
 226231138, 0.2162132, -0.07875864, -3.333656, 0.3265997, -0.317912, 1.000075, -0.039859, -0.1305034, -3.235196, 0.2903747, -0.2844826, 1.00015
 226431058, 0.2429155, -0.2435734, -3.469172, 0.3619277, -0.354564, 1.00003, 0.2162132, -0.07875864, -3.333656, 0.3265997, -0.317912, 1.000075
 226630978, 0.2803216, -0.2015055, -3.577657, 0.3981737, -0.3903905, 0.9999671, 0.2429155, -0.2435734, -3.469172, 0.3619277, -0.354564, 1.00003
 226830898, -0.2449579, 0.2389338, -3.644411, 0.4314208, -0.425115, 1.000021, 0.2803216, -0.2015055, -3.577657, 0.3981737, -0.3903905, 0.9999671
 227030818, -0.2431248, -0.3310529, -3.535269, 0.4678255, -0.4652992, 1.000302, -0.2449579, 0.2389338, -3.644411, 0.4314208, -0.425115, 1.000021
 227230738, -0.2306572, 0.3626444, -3.39395, 0.5029796, -0.4976289, 1.000491, -0.2431248, -0.3310529, -3.535269, 0.4678255, -0.4652992, 1.000302
 227430658, -0.2298897, -0.1762909, -3.194188, 0.536307, -0.5337509, 1.0006, -0.2306572, 0.3626444, -3.39395, 0.5029796, -0.4976289, 1.000491
 227631411, -0.204192, 0.114813, -2.90023, 0.5622178, -0.565824, 1.001871, -0.2298897, -0.1762909, -3.194188, 0.536307, -0.5337509, 1.0006
 227831331, 0.326731, 0.3668087, -2.589776, 0.5726988, -0.6007952, 1.008975, -0.204192, 0.114813, -2.90023, 0.5622178, -0.565824, 1.001871
 228031251, -0.129566, 0.3883059, -2.320737, 0.5921354, -0.6293463, 1.00898, 0.326731, 0.3668087, -2.589776, 0.5726988, -0.6007952, 1.008975
 228231171, 0.5727652, 0.4777882, -2.072701, 0.625411, -0.6511384, 1.006099, -0.129566, 0.3883059, -2.320737, 0.5921354, -0.6293463, 1.00898
 228431091, 0.2459954, 0.5506683, -1.82576, 0.6099725, -0.674076, 1.024121, 0.5727652, 0.4777882, -2.072701, 0.625411, -0.6511384, 1.006099
 228631011, 0.2935832, 0.2366065, -1.568872, 0.5783889, -0.6981743, 1.049001, 0.2459954, 0.5506683, -1.82576, 0.6099725, -0.674076, 1.024121
 228830931, 0.02285175, 0.3072827, -1.427679, 0.5631289, -0.7181543, 1.062701, 0.2935832, 0.2366065, -1.568872, 0.5783889, -0.6981743, 1.049001
 229030851, -0.2360773, 0.03003758, -1.225845, 0.561667, -0.734967, 1.069379, 0.02285175, 0.3072827, -1.427679, 0.5631289, -0.7181543, 1.062701
 229230771, -0.1386894, 0.5145846, -1.028158, 0.5605878, -0.7464166, 1.075814, -0.2360773, 0.03003758, -1.225845, 0.561667, -0.734967, 1.069379
 229430691, -1.081741, 0.3590285, -0.9347774, 0.5603152, -0.7563004, 1.081792, -0.1386894, 0.5145846, -1.028158, 0.5605878, -0.7464166, 1.075814
 229631444, -0.3754434, 0.7538474, -0.6770562, 0.558692, -0.7638616, 1.086085, -1.081741, 0.3590285, -0.9347774, 0.5603152, -0.7563004, 1.081792
 229831364, -1.648514, -0.1153228, -0.7950003, 0.5606958, -0.7729576, 1.090981, -0.3754434, 0.7538474, -0.6770562, 0.558692, -0.7638616, 1.086085
 230031284, -0.4828736, -0.2125442, -0.5333608, 0.5632637, -0.7842587, 1.085021, -1.648514, -0.1153228, -0.7950003, 0.5606958, -0.7729576, 1.090981
 230231204, -2.01006, 0.09744559, -0.7006603, 0.6361317, -0.7359372, 1.08728, -0.4828736, -0.2125442, -0.5333608, 0.5632637, -0.7842587, 1.085021
 230431124, -0.7841483, -1.080743, -0.5177964, 0.7388198, -0.5692546, 1.125433, -2.01006, 0.09744559, -0.7006603, 0.6361317, -0.7359372, 1.08728
 230631044, -0.8859114, -0.5717284, -0.3888719, 0.8113543, -0.2702985, 1.184259, -0.7841483, -1.080743, -0.5177964, 0.7388198, -0.5692546, 1.125433
 230830964, 0.5170723, -1.755247, -0.05707238, 0.8078947, 0.07308215, 1.225381, -0.8859114, -0.5717284, -0.3888719, 0.8113543, -0.2702985, 1.184259
 231030884, 1.219635, -2.258009, 0.2036397, 0.7121403, 0.4108163, 1.22604, 0.5170723, -1.755247, -0.05707238, 0.8078947, 0.07308215, 1.225381
 231230804, 1.456507, -0.6718082, 0.3481359, 0.5463864, 0.671387, 1.189507, 1.219635, -2.258009, 0.2036397, 0.7121403, 0.4108163, 1.22604
 231430724, 2.944526, 0.3678941, 0.8569087, 0.4067356, 0.8472497, 1.154856, 1.456507, -0.6718082, 0.3481359, 0.5463864, 0.671387, 1.189507
 231631477, 2.635683, 0.81098, 0.7891972, 0.2601029, 0.9613924, 1.102636, 2.944526, 0.3678941, 0.8569087, 0.4067356, 0.8472497, 1.154856
 231831397, 2.629548, 1.914883, 0.775536, 0.2065609, 1.016624, 1.074953, 2.635683, 0.81098, 0.7891972, 0.2601029, 0.9613924, 1.102636
 232031317, 2.310769, 1.914761, 0.7515171, 0.2153441, 0.9866245, 1.095484, 2.629548, 1.914883, 0.775536, 0.2065609, 1.016624, 1.074953
 232231237, 2.252039, 0.9341729, 0.8491016, 0.2592559, 0.8911612, 1.154683, 2.310769, 1.914761, 0.7515171, 0.2153441, 0.9866245, 1.095484
 232431157, 2.494126, 1.289235, 1.086101, 0.3108471, 0.7925611, 1.218825, 2.252039, 0.9341729, 0.8491016, 0.2592559, 0.8911612, 1.154683
 232631077, 3.298023, -0.09742705, 1.294409, 0.3575999, 0.7077726, 1.263265, 2.494126, 1.289235, 1.086101, 0.3108471, 0.7925611, 1.218825
 232830997, 3.604926, 0.2207623, 1.538908, 0.3734994, 0.6834137, 1.27931, 3.298023, -0.09742705, 1.294409, 0.3575999, 0.7077726, 1.263265
 233030917, 4.166735, -0.1588428, 1.785728, 0.3722901, 0.7039471, 1.279501, 3.604926, 0.2207623, 1.538908, 0.3734994, 0.6834137, 1.27931
 233230837, 3.301869, 0.3187942, 1.49408, 0.3032468, 0.7498211, 1.251266, 4.166735, -0.1588428, 1.785728, 0.3722901, 0.7039471, 1.279501
 233430757, 4.363432, 0.851768, 2.032923, 0.2964789, 0.7991066, 1.250687, 3.301869, 0.3187942, 1.49408, 0.3032468, 0.7498211, 1.251266
 233630677, 4.47029, 0.6883994, 2.141813, 0.265047, 0.823629, 1.242404, 4.363432, 0.851768, 2.032923, 0.2964789, 0.7991066, 1.250687
 233831430, 4.380784, 0.2705422, 2.206596, 0.2429406, 0.8234317, 1.241245, 4.47029, 0.6883994, 2.141813, 0.265047, 0.823629, 1.242404
 234031350, 3.764231, 1.223685, 2.002865, 0.221918, 0.8083803, 1.243014, 4.380784, 0.2705422, 2.206596, 0.2429406, 0.8234317, 1.241245
 234231270, 4.370632, 0.1836299, 2.25644, 0.2447022, 0.7790322, 1.265463, 3.764231, 1.223685, 2.002865, 0.221918, 0.8083803, 1.243014
 234431190, 5.083856, -0.08194953, 2.619271, 0.2780029, 0.7583077, 1.291868, 4.370632, 0.1836299, 2.25644, 0.2447022, 0.7790322, 1.265463
 234631110, 3.738964, 0.8539868, 2.091455, 0.225837, 0.7428074, 1.274179, 5.083856, -0.08194953, 2.619271, 0.2780029, 0.7583077, 1.291868
 234831030, 4.754872, 0.6977884, 2.662844, 0.2627595, 0.7407383, 1.295664, 3.738964, 0.8539868, 2.091455, 0.225837, 0.7428074, 1.274179
 235030950, 4.984087, 0.9824829, 2.790781, 0.2654953, 0.7467324, 1.298961, 4.754872, 0.6977884, 2.662844, 0.2627595, 0.7407383, 1.295664
 235230870, 4.183073, -0.3208051, 2.311987, 0.2138996, 0.7441979, 1.274581, 4.984087, 0.9824829, 2.790781, 0.2654953, 0.7467324, 1.298961
 235430790, 4.155682, 0.3154945, 2.436742, 0.2059067, 0.7500328, 1.272476, 4.183073, -0.3208051, 2.311987, 0.2138996, 0.7441979, 1.274581
 235630710, 4.839951, -0.07897265, 2.735711, 0.2245035, 0.7531469, 1.284531, 4.155682, 0.3154945, 2.436742, 0.2059067, 0.7500328, 1.272476
 235831463, 5.415772, 0.5021033, 3.064189, 0.2502453, 0.7539724, 1.301413, 4.839951, -0.07897265, 2.735711, 0.2245035, 0.7531469, 1.284531
 236031383, 5.719222, 0.5354813, 3.282112, 0.2636213, 0.7480221, 1.313275, 5.415772, 0.5021033, 3.064189, 0.2502453, 0.7539724, 1.301413
 236231303, 5.090566, -0.08663676, 2.911369, 0.2242336, 0.7345871, 1.297304, 5.719222, 0.5354813, 3.282112, 0.2636213, 0.7480221, 1.313275
 236431223, 4.623245, 1.093784, 2.801826, 0.2062766, 0.7314102, 1.291298, 5.090566, -0.08663676, 2.911369, 0.2242336, 0.7345871, 1.297304
 236631143, 5.481261, 0.194426, 3.1489, 0.2411798, 0.7255647, 1.311267, 4.623245, 1.093784, 2.801826, 0.2062766, 0.7314102, 1.291298
 236831063, 5.818099, 0.4494434, 3.406301, 0.2583665, 0.7271151, 1.321615, 5.481261, 0.194426, 3.1489, 0.2411798, 0.7255647, 1.311267
 237030983, 5.318156, 0.1458273, 3.116076, 0.2242294, 0.7229589, 1.304901, 5.818099, 0.4494434, 3.406301, 0.2583665, 0.7271151, 1.321615
 237230903, 5.727535, 0.8230969, 3.371834, 0.2440414, 0.7272514, 1.318382, 5.318156, 0.1458273, 3.116076, 0.2242294, 0.7229589, 1.304901
 237430823, 5.148508, -0.1420499, 3.061926, 0.2045115, 0.7192201, 1.298699, 5.727535, 0.8230969, 3.371834, 0.2440414, 0.7272514, 1.318382
 237630743, 5.128977, 0.1100011, 3.044779, 0.2002742, 0.7162016, 1.298759, 5.148508, -0.1420499, 3.061926, 0.2045115, 0.7192201, 1.298699
 237830663, 5.96357, 0.2398053, 3.501513, 0.2430765, 0.717167, 1.325192, 5.128977, 0.1100011, 3.044779, 0.2002742, 0.7162016, 1.298759
 238031416, 5.003319, 0.6022774, 3.058401, 0.1905656, 0.7100965, 1.298242, 5.96357, 0.2398053, 3.501513, 0.2430765, 0.717167, 1.325192
 238231336, 6.262336, -0.06588261, 3.705979, 0.2539546, 0.7123492, 1.335666, 5.003319, 0.6022774, 3.058401, 0.1905656, 0.7100965, 1.298242
 238431256, 5.408532, -0.2187492, 3.293347, 0.201825, 0.7056125, 1.307939, 6.262336, -0.06588261, 3.705979, 0.2539546, 0.7123492, 1.335666
 238631176, 5.817129, 0.8027179, 3.571288, 0.2256387, 0.7077943, 1.324394, 5.408532, -0.2187492, 3.293347, 0.201825, 0.7056125, 1.307939
 238831096, 5.050892, 0.2131779, 3.060831, 0.1776367, 0.6982175, 1.297825, 5.817129, 0.8027179, 3.571288, 0.2256387, 0.7077943, 1.324394
 239031016, 5.77543, 0.2892431, 3.443953, 0.2313843, 0.7002777, 1.316693, 5.050892, 0.2131779, 3.060831, 0.1776367, 0.6982175, 1.297825
 239230936, 6.12979, 0.6586445, 3.51975, 0.2661179, 0.7020571, 1.323605, 5.77543, 0.2892431, 3.443953, 0.2313843, 0.7002777, 1.316693
 239430856, 5.61072, 0.627618, 3.308336, 0.2347194, 0.6966031, 1.307849, 6.12979, 0.6586445, 3.51975, 0.2661179, 0.7020571, 1.323605
 239630776, 6.532382, 0.9246787, 3.754661, 0.284987, 0.7004122, 1.339957, 5.61072, 0.627618, 3.308336, 0.2347194, 0.6966031, 1.307849
 239830696, 6.628177, -0.165104, 3.804796, 0.284085, 0.6946337, 1.340687, 6.532382, 0.9246787, 3.754661, 0.284987, 0.7004122, 1.339957
 240031449, 6.599923, 0.8968255, 3.851345, 0.2916047, 0.6961725, 1.342111, 6.628177, -0.165104, 3.804796, 0.284085, 0.6946337, 1.340687
 240231369, 6.739719, 0.830613, 3.842689, 0.3051282, 0.6947976, 1.343641, 6.599923, 0.8968255, 3.851345, 0.2916047, 0.6961725, 1.342111
 240431289, 5.396918, 0.5795948, 3.05233, 0.2233257, 0.6847849, 1.296081, 6.739719, 0.830613, 3.842689, 0.3051282, 0.6947976, 1.343641
 240631209, 5.798458, 1.023917, 3.2518, 0.247383, 0.6878623, 1.309059, 5.396918, 0.5795948, 3.05233, 0.2233257, 0.6847849, 1.296081
 240831129, 5.611552, 0.3979288, 3.134228, 0.2301659, 0.6808931, 1.3024, 5.798458, 1.023917, 3.2518, 0.247383, 0.6878623, 1.309059
 241031049, 6.588071, 0.9407167, 3.771901, 0.2877815, 0.6867541, 1.340039, 5.611552, 0.3979288, 3.134228, 0.2301659, 0.6808931, 1.3024
 241230969, 6.123312, 0.8557466, 3.531048, 0.2528683, 0.6816689, 1.324186, 6.588071, 0.9407167, 3.771901, 0.2877815, 0.6867541, 1.340039
 241430889, 6.28234, 0.0189731, 3.518538, 0.2585186, 0.6792932, 1.324753, 6.123312, 0.8557466, 3.531048, 0.2528683, 0.6816689, 1.324186
 241630809, 5.455642, -0.1705477, 3.065655, 0.2113698, 0.6744231, 1.295663, 6.28234, 0.0189731, 3.518538, 0.2585186, 0.6792932, 1.324753
 241830729, 6.258598, 0.7005637, 3.586239, 0.2661814, 0.679556, 1.324341, 5.455642, -0.1705477, 3.065655, 0.2113698, 0.6744231, 1.295663
 242031482, 5.280777, 0.8121862, 3.027693, 0.2062069, 0.6731809, 1.292691, 6.258598, 0.7005637, 3.586239, 0.2661814, 0.679556, 1.324341
 242231402, 5.589263, 0.009650161, 3.229901, 0.2182916, 0.6680406, 1.301557, 5.280777, 0.8121862, 3.027693, 0.2062069, 0.6731809, 1.292691
 242431322, 5.4544, 0.8221495, 3.188907, 0.2106278, 0.6688335, 1.299696, 5.589263, 0.009650161, 3.229901, 0.2182916, 0.6680406, 1.301557
 242631242, 6.287853, 0.1141798, 3.584141, 0.2549818, 0.6676397, 1.325424, 5.4544, 0.8221495, 3.188907, 0.2106278, 0.6688335, 1.299696
 242831162, 5.526694, 0.01510578, 3.1847, 0.2100762, 0.662808, 1.298411, 6.287853, 0.1141798, 3.584141, 0.2549818, 0.6676397, 1.325424
 243031082, 6.433075, -0.2526739, 3.616185, 0.2674297, 0.6665209, 1.325978, 5.526694, 0.01510578, 3.1847, 0.2100762, 0.662808, 1.298411
 243231002, 6.581464, 0.8472745, 3.762147, 0.2856652, 0.6691499, 1.333978, 6.433075, -0.2526739, 3.616185, 0.2674297, 0.6665209, 1.325978
 243430922, 5.64122, 0.8145178, 3.310455, 0.2244925, 0.6620364, 1.301867, 6.581464, 0.8472745, 3.762147, 0.2856652, 0.6691499, 1.333978
 243630842, 5.515646, 0.1075129, 3.214548, 0.2150375, 0.6551836, 1.295452, 5.64122, 0.8145178, 3.310455, 0.2244925, 0.6620364, 1.301867
 243830762, 5.409888, 0.6252508, 3.119076, 0.2135893, 0.6546909, 1.291362, 5.515646, 0.1075129, 3.214548, 0.2150375, 0.6551836, 1.295452
 244030682, 6.643837, -0.179573, 3.768572, 0.2877041, 0.656394, 1.33119, 5.409888, 0.6252508, 3.119076, 0.2135893, 0.6546909, 1.291362
 244231435, 5.645317, 0.3377061, 3.266766, 0.2205282, 0.6494749, 1.298469, 6.643837, -0.179573, 3.768572, 0.2877041, 0.656394, 1.33119
 244431355, 6.48044, 0.152238, 3.729583, 0.2680913, 0.6516316, 1.327767, 5.645317, 0.3377061, 3.266766, 0.2205282, 0.6494749, 1.298469
 244631275, 6.248866, 0.5310817, 3.619095, 0.2574052, 0.6576609, 1.315004, 6.48044, 0.152238, 3.729583, 0.2680913, 0.6516316, 1.327767
 244831195, 6.099188, -0.1976706, 3.514452, 0.2544083, 0.6643882, 1.298993, 6.248866, 0.5310817, 3.619095, 0.2574052, 0.6576609, 1.315004
 245031115, 6.769017, 0.6352803, 3.793016, 0.3081718, 0.6702917, 1.321175, 6.099188, -0.1976706, 3.514452, 0.2544083, 0.6643882, 1.298993
 245231035, 6.2704, 0.6747001, 3.536757, 0.2744476, 0.6605219, 1.305453, 6.769017, 0.6352803, 3.793016, 0.3081718, 0.6702917, 1.321175
 245430955, 5.985045, 0.1404532, 3.412867, 0.2525962, 0.6478969, 1.298686, 6.2704, 0.6747001, 3.536757, 0.2744476, 0.6605219, 1.305453
 245630875, 5.343957, -0.3791813, 3.000515, 0.21038, 0.6402252, 1.27771, 5.985045, 0.1404532, 3.412867, 0.2525962, 0.6478969, 1.298686
 245830795, 6.466981, 0.1192065, 3.588922, 0.2832452, 0.6420562, 1.317646, 5.343957, -0.3791813, 3.000515, 0.21038, 0.6402252, 1.27771
 246030715, 5.390327, -0.2057357, 3.031789, 0.2158176, 0.6372304, 1.280296, 6.466981, 0.1192065, 3.588922, 0.2832452, 0.6420562, 1.317646
 246231468, 5.630946, 0.05080799, 3.128978, 0.2295789, 0.6370462, 1.288967, 5.390327, -0.2057357, 3.031789, 0.2158176, 0.6372304, 1.280296
 246431388, 6.250088, 0.3667577, 3.470815, 0.2684106, 0.6391414, 1.312349, 5.630946, 0.05080799, 3.128978, 0.2295789, 0.6370462, 1.288967
 246631308, 5.373932, 0.1554203, 2.954784, 0.2119115, 0.6366, 1.281662, 6.250088, 0.3667577, 3.470815, 0.2684106, 0.6391414, 1.312349
 246831228, 6.105256, 0.20801, 3.365873, 0.2554336, 0.637016, 1.308551, 5.373932, 0.1554203, 2.954784, 0.2119115, 0.6366, 1.281662
 247031148, 5.376716, -0.1970196, 3.023617, 0.2116955, 0.6334351, 1.285275, 6.105256, 0.20801, 3.365873, 0.2554336, 0.637016, 1.308551
 247231068, 5.284752, 0.08479552, 2.95432, 0.2062373, 0.6324348, 1.284115, 5.376716, -0.1970196, 3.023617, 0.2116955, 0.6334351, 1.285275
 247430988, 5.902332, -0.280413, 3.28611, 0.2434406, 0.6302294, 1.306685, 5.284752, 0.08479552, 2.95432, 0.2062373, 0.6324348, 1.284115
 247630908, 5.624932, 0.2792782, 3.120685, 0.2262856, 0.6327113, 1.297925, 5.902332, -0.280413, 3.28611, 0.2434406, 0.6302294, 1.306685
