TimeUS,CGpN,CGpE,CGpD,CGpe,PGpN,PGpE,PGpD,PGpe
 170758336, 0, 0, 0, 2.5, 0, 0, 0, 0
 170830807, 0, 0, 0, 2.5, 0, 0, 0, 2.5
 171030727, 0, 0, 0, 2.5, 0, 0, 0, 2.5
 171231480, 0, 0, 0, 2.5, 0, 0, 0, 2.5
 171431400, 0, 0, 0, 2.5, 0, 0, 0, 2.5
 171631320, 0, 0, 0, 2.5, 0, 0, 0, 2.5
 171831240, 0, 0, 0, 2.5, 0, 0, 0, 2.5
 172031160, 0, 0, 0, 2.5, 0, 0, 0, 2.5
 172231080, 0, 0, 0, 2.5, 0, 0, 0, 2.5
 172431000, 0, 0, 0, 2.5, 0, 0, 0, 2.5
 172630920, 0, 0, 0, 2.5, 0, 0, 0, 2.5
 172830840, 0, 0, 0, 2.5, 0, 0, 0, 2.5
 173030760, 0, 0, 0, 2.5, 0, 0, 0, 2.5
 173230680, 0, 0, 0, 2.5, 0, 0, 0, 2.5
 173431433, 0, 0, 0, 2.5, 0, 0, 0, 2.5
 173631353, 0, 0, 0, 2.5, 0, 0, 0, 2.5
 173831273, 0, 0, 0, 2.5, 0, 0, 0, 2.5
 174031193, 0, 0, 0, 2.5, 0, 0, 0, 2.5
 174231113, 0, 0, 0, 2.5, 0, 0, 0, 2.5
 174431033, 0, 0, 0, 2.5, 0, 0, 0, 2.5
 174630953, 0, 0, 0, 2.5, 0, 0, 0, 2.5
 174830873, 0, 0, 0, 2.5, 0, 0, 0, 2.5
 175030793, 0, 0, 0, 2.5, 0, 0, 0, 2.5
 175230713, 0, 0, 0, 2.5, 0, 0, 0, 2.5
 175431466, 0, 0, 0, 2.5, 0, 0, 0, 2.5
 175631386, 0, 0, 0, 2.5, 0, 0, 0, 2.5
 175831306, 0, 0, 0, 2.5, 0, 0, 0, 2.5
 176031226, 0, 0, 0, 2.5, 0, 0, 0, 2.5
 176231146, 0, 0, 0, 2.5, 0, 0, 0, 2.5
 176431066, 0, 0, 0, 2.5, 0, 0, 0, 2.5
 176630986, 0, 0, 0, 2.5, 0, 0, 0, 2.5
 176830906, 0, 0, 0, 2.5, 0, 0, 0, 2.5
 177030826, 0, 0, 0, 2.5, 0, 0, 0, 2.5
 177230746, 0, 0, 0, 2.5, 0, 0, 0, 2.5
 177430666, 0, 0, 0, 2.5, 0, 0, 0, 2.5
 177631419, 0, 0, 0, 2.5, 0, 0, 0, 2.5
 177831339, 0, 0, 0, 2.5, 0, 0, 0, 2.5
 178031259, 0, 0, 0, 2.5, 0, 0, 0, 2.5
 178231179, 0, 0, 0, 2.5, 0, 0, 0, 2.5
 178431099, 0, 0, 0, 2.5, 0, 0, 0, 2.5
 178631019, 0, 0, 0, 2.5, 0, 0, 0, 2.5
 178830939, 0, 0, 0, 2.5, 0, 0, 0, 2.5
 179030859, 0, 0, 0, 2.5, 0, 0, 0, 2.5
 179230779, 0, 0, 0, 2.5, 0, 0, 0, 2.5
 179430699, 0, 0, 0, 2.5, 0, 0, 0, 2.5
 179631452, 0, 0, 0, 2.5, 0, 0, 0, 2.5
 179831372, 0, 0, 0, 2.5, 0, 0, 0, 2.5
 180031292, 0, 0, 0, 2.5, 0, 0, 0, 2.5
 180231212, 0, 0, 0, 2.5, 0, 0, 0, 2.5
 180431132, 0, 0, 0, 2.5, 0, 0, 0, 2.5
 180631052, 0, 0, 0, 2.5, 0, 0, 0, 2.5
 180830972, 0, 0, 0, 2.5, 0, 0, 0, 2.5
 181030892, 0, 0, 0, 2.5, 0, 0, 0, 2.5
 181230812, 0, 0, 0, 2.5, 0, 0, 0, 2.5
 181430732, 0, 0, 0, 2.5, 0, 0, 0, 2.5
 181631485, 0, 0, 0, 2.5, 0, 0, 0, 2.5
 181831405, 0, 0, 0, 2.5, 0, 0, 0, 2.5
 182031325, 0, 0, 0, 2.5, 0, 0, 0, 2.5
 182231245, 0, 0, 0, 2.5, 0, 0, 0, 2.5
 182431165, 0, 0, 0, 2.5, 0, 0, 0, 2.5
 182631085, 0, 0, 0, 2.5, 0, 0, 0, 2.5
 182831005, 0, 0, 0, 2.5, 0, 0, 0, 2.5
 183030925, 0, 0, 0, 2.5, 0, 0, 0, 2.5
 183230845, 0, 0, 0, 2.5, 0, 0, 0, 2.5
 183430765, 0, 0, 0, 2.5, 0, 0, 0, 2.5
 183630685, 0, 0, 0, 2.5, 0, 0, 0, 2.5
 183831438, 0, 0, 0, 2.5, 0, 0, 0, 2.5
 184031358, 0, 0, 0, 2.5, 0, 0, 0, 2.5
 184231278, 0, 0, 0, 2.5, 0, 0, 0, 2.5
 184431198, 0, 0, 0, 2.5, 0, 0, 0, 2.5
 184631118, 0, 0, 0, 2.5, 0, 0, 0, 2.5
 184831038, 0, 0, 0, 2.5, 0, 0, 0, 2.5
 185030958, 0, 0, 0, 2.5, 0, 0, 0, 2.5
 185230878, 0, 0, 0, 2.5, 0, 0, 0, 2.5
 185430798, 0, 0, 0, 2.5, 0, 0, 0, 2.5
 185630718, 0, 0, 0, 2.5, 0, 0, 0, 2.5
 185831471, 0, 0, 0, 2.5, 0, 0, 0, 2.5
 186031391, 0, 0, 0, 2.5, 0, 0, 0, 2.5
 186231311, 0, 0, 0, 2.5, 0, 0, 0, 2.5
 186431231, 0, 0, 0, 2.5, 0, 0, 0, 2.5
 186631151, 0, 0, 0, 2.5, 0, 0, 0, 2.5
 186831071, 0, 0, 0, 2.5, 0, 0, 0, 2.5
 187030991, 0, 0, 0, 2.5, 0, 0, 0, 2.5
 187230911, 0, 0, 0, 2.5, 0, 0, 0, 2.5
 187430831, 0, 0, 0, 2.5, 0, 0, 0, 2.5
 187630751, 0, 0, 0, 2.5, 0, 0, 0, 2.5
 187830671, 0, 0, 0, 2.5, 0, 0, 0, 2.5
 188031424, 0, 0, 0, 2.5, 0, 0, 0, 2.5
 188231344, 0, 0, 0, 2.5, 0, 0, 0, 2.5
 188431264, 0, 0, 0, 2.5, 0, 0, 0, 2.5
 188631184, 0, 0, 0, 2.5, 0, 0, 0, 2.5
 188831104, 0, 0, 0, 2.5, 0, 0, 0, 2.5
 189031024, 0, 0, 0, 2.5, 0, 0, 0, 2.5
 189230944, 0, 0, 0, 2.5, 0, 0, 0, 2.5
 189430864, 0, 0, 0, 2.5, 0, 0, 0, 2.5
 189630784, 0, 0, 0, 2.5, 0, 0, 0, 2.5
 189830704, 0, 0, 0, 2.5, 0, 0, 0, 2.5
 190031457, 0, 0, 0, 2.5, 0, 0, 0, 2.5
 190231377, 0, 0, 0, 2.5, 0, 0, 0, 2.5
 190431297, 0, 0, 0, 2.5, 0, 0, 0, 2.5
 190631217, 0, 0, 0, 2.5, 0, 0, 0, 2.5
 190831137, 0, 0, 0, 2.5, 0, 0, 0, 2.5
 191031057, 0, 0, 0, 2.5, 0, 0, 0, 2.5
 191230977, 0, 0, 0, 2.5, 0, 0, 0, 2.5
 191430897, 0, 0, 0, 2.5, 0, 0, 0, 2.5
 191630817, 0, 0, 0, 2.5, 0, 0, 0, 2.5
 191830737, 0, 0, 0, 2.5, 0, 0, 0, 2.5
 192030657, 0, 0, 0, 2.5, 0, 0, 0, 2.5
 192231410, 0, 0, 0, 2.5, 0, 0, 0, 2.5
 192431330, 0, 0, 0, 2.5, 0, 0, 0, 2.5
 192631250, 0, 0, 0, 2.5, 0, 0, 0, 2.5
 192831170, 0, 0, 0, 2.5, 0, 0, 0, 2.5
 193031090, 0, 0, 0, 2.5, 0, 0, 0, 2.5
 193231010, 0, 0, 0, 2.5, 0, 0, 0, 2.5
 193430930, 0, 0, 0, 2.5, 0, 0, 0, 2.5
 193630850, 0, 0, 0, 2.5, 0, 0, 0, 2.5
 193830770, 0, 0, 0, 2.5, 0, 0, 0, 2.5
 194030690, 0, 0, 0, 2.5, 0, 0, 0, 2.5
 194231443, 0, 0, 0, 2.5, 0, 0, 0, 2.5
 194431363, 0, 0, 0, 2.5, 0, 0, 0, 2.5
 194631283, 0, 0, 0, 2.5, 0, 0, 0, 2.5
 194831203, 0, 0, 0, 2.5, 0, 0, 0, 2.5
 195031123, 0, 0, 0, 2.5, 0, 0, 0, 2.5
 195231043, 0, 0, 0, 2.5, 0, 0, 0, 2.5
 195430963, 0, 0, 0, 2.5, 0, 0, 0, 2.5
 195630883, 0, 0, 0, 2.5, 0, 0, 0, 2.5
 195830803, 0, 0, 0, 2.5, 0, 0, 0, 2.5
 196030723, 0, 0, 0, 2.5, 0, 0, 0, 2.5
 196231476, 0, 0, 0, 2.5, 0, 0, 0, 2.5
 196431396, 0, 0, 0, 2.5, 0, 0, 0, 2.5
 196631316, 0, 0, 0, 2.5, 0, 0, 0, 2.5
 196831236, 0, 0, 0, 2.5, 0, 0, 0, 2.5
 197031156, 0, 0, 0, 2.5, 0, 0, 0, 2.5
 197231076, 0, 0, 0, 2.5, 0, 0, 0, 2.5
 197430996, 0, 0, 0, 2.5, 0, 0, 0, 2.5
 197630916, 0, 0, 0, 2.5, 0, 0, 0, 2.5
 197830836, 0, 0, 0, 2.5, 0, 0, 0, 2.5
 198030756, 0, 0, 0, 2.5, 0, 0, 0, 2.5
 198230676, 0, 0, 0, 2.5, 0, 0, 0, 2.5
 198431429, 0, 0, 0, 2.5, 0, 0, 0, 2.5
 198631349, 0, 0, 0, 2.5, 0, 0, 0, 2.5
 198831269, 0, 0, 0, 2.5, 0, 0, 0, 2.5
 199031189, 0, 0, 0, 2.5, 0, 0, 0, 2.5
 199231109, 0, 0, 0, 2.5, 0, 0, 0, 2.5
 199431029, 0, 0, 0, 2.5, 0, 0, 0, 2.5
 199630949, 0, 0, 0, 2.5, 0, 0, 0, 2.5
 199830869, 0, 0, 0, 2.5, 0, 0, 0, 2.5
 200030789, 0, 0, 0, 2.5, 0, 0, 0, 2.5
 200230709, 0, 0, 0, 2.5, 0, 0, 0, 2.5
 200431462, 0, 0, 0, 2.5, 0, 0, 0, 2.5
 200631382, 0, 0, 0, 2.5, 0, 0, 0, 2.5
 200831302, 0, 0, 0, 2.5, 0, 0, 0, 2.5
 201031222, 0, 0, 0, 2.5, 0, 0, 0, 2.5
 201231142, 0, 0, 0, 2.5, 0, 0, 0, 2.5
 201431062, 0, 0, 0, 2.5, 0, 0, 0, 2.5
 201630982, 0, 0, 0, 2.5, 0, 0, 0, 2.5
 201830902, 0, 0, 0, 2.5, 0, 0, 0, 2.5
 202030822, 0, 0, 0, 2.5, 0, 0, 0, 2.5
 202230742, 0, 0, 0, 2.5, 0, 0, 0, 2.5
 202430662, 0, 0, 0, 2.5, 0, 0, 0, 2.5
 202631415, 0, 0, 0, 2.5, 0, 0, 0, 2.5
 202831335, 0, 0, 0, 2.5, 0, 0, 0, 2.5
 203031255, 0, 0, 0, 2.5, 0, 0, 0, 2.5
 203231175, 0, 0, 0, 2.5, 0, 0, 0, 2.5
 203431095, 0, 0, 0, 2.5, 0, 0, 0, 2.5
 203631015, 0, 0, 0, 2.5, 0, 0, 0, 2.5
 203830935, 0, 0, 0, 2.5, 0, 0, 0, 2.5
 204030855, 0, 0, 0, 2.5, 0, 0, 0, 2.5
 204230775, 0, 0, 0, 2.5, 0, 0, 0, 2.5
 204430695, 0, 0, 0, 2.5, 0, 0, 0, 2.5
 204631448, 0, 0, 0, 2.5, 0, 0, 0, 2.5
 204831368, 0, 0, 0, 2.5, 0, 0, 0, 2.5
 205031288, 0, 0, 0, 2.5, 0, 0, 0, 2.5
 205231208, 0, 0, 0, 2.5, 0, 0, 0, 2.5
 205431128, 0, 0, 0, 2.5, 0, 0, 0, 2.5
 205631048, 0, 0, 0, 2.5, 0, 0, 0, 2.5
 205830968, 0, 0, 0, 2.5, 0, 0, 0, 2.5
 206030888, 0, 0, 0, 2.5, 0, 0, 0, 2.5
 206230808, 0, 0, 0, 2.5, 0, 0, 0, 2.5
 206430728, 0, 0, 0, 2.5, 0, 0, 0, 2.5
 206631481, 0, 0, 0, 2.5, 0, 0, 0, 2.5
 206831401, 0, 0, 0, 2.5, 0, 0, 0, 2.5
 207031321, 0, 0, 0, 2.5, 0, 0, 0, 2.5
 207231241, 0, 0, 0, 2.5, 0, 0, 0, 2.5
 207431161, 0, 0, 0, 2.5, 0, 0, 0, 2.5
 207631081, 0, 0, 0, 2.5, 0, 0, 0, 2.5
 207831001, 0, 0, 0, 2.5, 0, 0, 0, 2.5
 208030921, 0, 0, 0, 2.5, 0, 0, 0, 2.5
 208230841, 0, 0, 0, 2.5, 0, 0, 0, 2.5
 208430761, 0, 0, 0, 2.5, 0, 0, 0, 2.5
 208630681, 0, 0, 0, 2.5, 0, 0, 0, 2.5
 208831434, 0, 0, 0, 2.5, 0, 0, 0, 2.5
 209031354, 0, 0, 0, 2.5, 0, 0, 0, 2.5
 209231274, 0, 0, 0, 2.5, 0, 0, 0, 2.5
 209431194, 0, 0, 0, 2.5, 0, 0, 0, 2.5
 209631114, 0, 0, 0, 2.5, 0, 0, 0, 2.5
 209831034, 0, 0, 0, 2.5, 0, 0, 0, 2.5
 210030954, 0, 0, 0, 2.5, 0, 0, 0, 2.5
 210230874, 0, 0, 0, 2.5, 0, 0, 0, 2.5
 210430794, 0, 0, 0, 2.5, 0, 0, 0, 2.5
 210630714, 0, 0, 0, 2.5, 0, 0, 0, 2.5
 210831467, 0, 0, 0, 2.5, 0, 0, 0, 2.5
 211031387, 0, 0, 0, 2.5, 0, 0, 0, 2.5
 211231307, 0, 0, 0, 2.5, 0, 0, 0, 2.5
 211431227, 0, 0, 0, 2.5, 0, 0, 0, 2.5
 211631147, 0, 0, 0, 2.5, 0, 0, 0, 2.5
 211831067, 0, 0, 0, 2.5, 0, 0, 0, 2.5
 212030987, 0, 0, 0, 2.5, 0, 0, 0, 2.5
 212230907, 0, 0, 0, 2.5, 0, 0, 0, 2.5
 212430827, 0, 0, 0, 2.5, 0, 0, 0, 2.5
 212630747, 0, 0, 0, 2.5, 0, 0, 0, 2.5
 212830667, 0, 0, 0, 2.5, 0, 0, 0, 2.5
 213031420, 0, 0, 0, 2.5, 0, 0, 0, 2.5
 213231340, 0, 0, 0, 2.5, 0, 0, 0, 2.5
 213431260, 0, 0, 0, 2.5, 0, 0, 0, 2.5
 213631180, 0, 0, 0, 2.5, 0, 0, 0, 2.5
 213831100, 0, 0, 0, 2.5, 0, 0, 0, 2.5
 214031020, 0, 0, 0, 2.5, 0, 0, 0, 2.5
 214230940, 0, 0, 0, 2.5, 0, 0, 0, 2.5
 214430860, 0, 0, 0, 2.5, 0, 0, 0, 2.5
 214630780, 0, 0, 0, 2.5, 0, 0, 0, 2.5
 214830700, 0, 0, 0, 2.5, 0, 0, 0, 2.5
 215031453, 0, 0, 0, 2.5, 0, 0, 0, 2.5
 215231373, 0, 0, 0, 2.5, 0, 0, 0, 2.5
 215431293, 0, 0, 0, 2.5, 0, 0, 0, 2.5
 215631213, 0, 0, 0, 2.5, 0, 0, 0, 2.5
 215831133, 0, 0, 0, 2.5, 0, 0, 0, 2.5
 216031053, 0, 0, 0, 2.5, 0, 0, 0, 2.5
 216230973, 0, 0, 0, 2.5, 0, 0, 0, 2.5
 216430893, 0, 0, 0, 2.5, 0, 0, 0, 2.5
 216630813, 0, 0, 0, 2.5, 0, 0, 0, 2.5
 216830733, 0, 0, 0, 2.5, 0, 0, 0, 2.5
 217031486, 0, 0, 0, 2.5, 0, 0, 0, 2.5
 217231406, 0, 0, 0, 2.5, 0, 0, 0, 2.5
 217431326, 0, 0, 0, 2.5, 0, 0, 0, 2.5
 217631246, 0, 0, 0, 2.5, 0, 0, 0, 2.5
 217831166, 0, 0, 0, 2.5, 0, 0, 0, 2.5
 218031086, 0, 0, 0, 2.5, 0, 0, 0, 2.5
 218231006, 0, 0, 0, 2.5, 0, 0, 0, 2.5
 218430926, 0, 0, 0, 2.5, 0, 0, 0, 2.5
 218630846, 0, 0, 0, 2.5, 0, 0, 0, 2.5
 218830766, 0, 0, 0, 2.5, 0, 0, 0, 2.5
 219030686, 0, 0, 0, 2.5, 0, 0, 0, 2.5
 219231439, 0, 0, 0, 2.5, 0, 0, 0, 2.5
 219431359, 0, 0, 0, 2.5, 0, 0, 0, 2.5
 219631279, 0, 0, 0, 2.5, 0, 0, 0, 2.5
 219831199, 0, 0, 0, 2.5, 0, 0, 0, 2.5
 220031119, 0, 0, 0, 2.5, 0, 0, 0, 2.5
 220231039, 0, 0, 0, 2.5, 0, 0, 0, 2.5
 220430959, 0, 0, 0, 2.5, 0, 0, 0, 2.5
 220630879, 0, 0, 0, 2.5, 0, 0, 0, 2.5
 220830799, 0, 0, 0, 2.5, 0, 0, 0, 2.5
 221030719, 0, 0, 0, 2.5, 0, 0, 0, 2.5
 221231472, 0, 0, 0, 2.5, 0, 0, 0, 2.5
 221431392, 0, 0, 0, 2.5, 0, 0, 0, 2.5
 221631312, 0, 0, 0, 2.5, 0, 0, 0, 2.5
 221831232, 0, 0, 0, 2.5, 0, 0, 0, 2.5
 222031152, 0, 0, 0, 2.5, 0, 0, 0, 2.5
 222231072, 0, 0, 0, 2.5, 0, 0, 0, 2.5
 222430992, 0, 0, 0, 2.5, 0, 0, 0, 2.5
 222630912, 0, 0, 0, 2.5, 0, 0, 0, 2.5
 222830832, 0, 0, 0, 2.5, 0, 0, 0, 2.5
 223030752, 0, 0, -0.129, 2.5, 0, 0, 0, 2.5
 223230672, 0, 0, -0.313, 2.5, 0, 0, -0.129, 2.5
 223431425, 0, 0, -0.21, 2.5, 0, 0, -0.313, 2.5
 223631345, -0.001, -0.001, -0.812, 2.5, 0, 0, -0.21, 2.5
 223831265, -0.01, -0.011, -1.923, 2.5, -0.001, -0.001, -0.812, 2.5
 224031185, -0.026, -0.026, -2.142, 2.5, -0.01, -0.011, -1.923, 2.5
 224231105, -0.042, -0.042, -2.305, 2.5, -0.026, -0.026, -2.142, 2.5
 224431025, -0.056, -0.055, -2.552, 2.5, -0.042, -0.042, -2.305, 2.5
 224630945, -0.068, -0.067, -2.761, 2.5, -0.056, -0.055, -2.552, 2.5
 224830865, -0.078, -0.07600001, -2.932, 2.5, -0.068, -0.067, -2.761, 2.5
 225030785, -0.086, -0.083, -3.084, 2.5, -0.078, -0.07600001, -2.932, 2.5
 225230705, -0.09200001, -0.089, -3.219, 2.5, -0.086, -0.083, -3.084, 2.5
 225431458, -0.096, -0.093, -3.337, 2.5, -0.09200001, -0.089, -3.219, 2.5
 225631378, -0.098, -0.097, -3.44, 2.5, -0.096, -0.093, -3.337, 2.5
 225831298, -0.09900001, -0.1, -3.531, 2.5, -0.098, -0.097, -3.44, 2.5
 226031218, -0.101, -0.102, -3.61, 2.5, -0.09900001, -0.1, -3.531, 2.5
 226231138, -0.102, -0.105, -3.679, 2.5, -0.101, -0.102, -3.61, 2.5
 226431058, -0.105, -0.108, -3.74, 2.5, -0.102, -0.105, -3.679, 2.5
 226630978, -0.107, -0.11, -3.794, 2.5, -0.105, -0.108, -3.74, 2.5
 226830898, -0.109, -0.112, -3.842, 2.5, -0.107, -0.11, -3.794, 2.5
 227030818, -0.112, -0.114, -3.823, 2.5, -0.109, -0.112, -3.842, 2.5
 227230738, -0.11, -0.112, -3.255, 2.5, -0.112, -0.114, -3.823, 2.5
 227430658, -0.108, -0.111, -2.682, 2.5, -0.11, -0.112, -3.255, 2.5
 227631411, -0.101, -0.102, -2.013, 2.5, -0.108, -0.111, -2.682, 2.5
 227831331, -0.09500001, -0.094, -1.536, 2.5, -0.101, -0.102, -2.013, 2.5
 228031251, -0.09900001, -0.087, -1.208, 2.5, -0.09500001, -0.094, -1.536, 2.5
 228231171, -0.056, -0.081, -0.973, 2.5, -0.09900001, -0.087, -1.208, 2.5
 228431091, 0.075, -0.087, -0.793, 2.5, -0.056, -0.081, -0.973, 2.5
 228631011, 0.259, -0.107, -0.659, 2.5, 0.075, -0.087, -0.793, 2.5
 228830931, 0.439, -0.124, -0.568, 2.5, 0.259, -0.107, -0.659, 2.5
 229030851, 0.601, -0.103, -0.508, 2.5, 0.439, -0.124, -0.568, 2.5
 229230771, 0.7640001, -0.059, -0.472, 2.5, 0.601, -0.103, -0.508, 2.5
 229430691, 0.943, -0.021, -0.452, 2.5, 0.7640001, -0.059, -0.472, 2.5
 229631444, 1.122, 0.003, -0.447, 2.5, 0.943, -0.021, -0.452, 2.5
 229831364, 1.281, 0.023, -0.459, 2.5, 1.122, 0.003, -0.447, 2.5
 230031284, 1.434, 0.082, -0.48, 2.5, 1.281, 0.023, -0.459, 2.5
 230231204, 1.608, 0.196, -0.515, 2.5, 1.434, 0.082, -0.48, 2.5
 230431124, 1.802, 0.317, -0.571, 2.5, 1.608, 0.196, -0.515, 2.5
 230631044, 2.004, 0.401, -0.638, 2.5, 1.802, 0.317, -0.571, 2.5
 230830964, 2.224, 0.414, -0.706, 2.5, 2.004, 0.401, -0.638, 2.5
 231030884, 2.479, 0.374, -0.771, 2.5, 2.224, 0.414, -0.706, 2.5
 231230804, 2.738, 0.312, -0.839, 2.5, 2.479, 0.374, -0.771, 2.5
 231430724, 2.97, 0.24, -0.9080001, 2.5, 2.738, 0.312, -0.839, 2.5
 231631477, 3.18, 0.14, -0.974, 2.5, 2.97, 0.24, -0.9080001, 2.5
 231831397, 3.39, 0.018, -1.045, 2.5, 3.18, 0.14, -0.974, 2.5
 232031317, 3.595, -0.074, -1.118, 2.5, 3.39, 0.018, -1.045, 2.5
 232231237, 3.784, -0.083, -1.189, 2.5, 3.595, -0.074, -1.118, 2.5
 232431157, 3.962, 0.007, -1.254, 2.5, 3.784, -0.083, -1.189, 2.5
 232631077, 4.147, 0.175, -1.314, 2.5, 3.962, 0.007, -1.254, 2.5
 232830997, 4.34, 0.359, -1.375, 2.5, 4.147, 0.175, -1.314, 2.5
 233030917, 4.528, 0.495, -1.44, 2.5, 4.34, 0.359, -1.375, 2.5
 233230837, 4.724, 0.545, -1.503, 2.5, 4.528, 0.495, -1.44, 2.5
 233430757, 4.937, 0.5190001, -1.562, 2.5, 4.724, 0.545, -1.503, 2.5
 233630677, 5.159, 0.454, -1.616, 2.5, 4.937, 0.5190001, -1.562, 2.5
 233831430, 5.348, 0.397, -1.622, 2.5, 5.159, 0.454, -1.616, 2.5
 234031350, 5.441, 0.369, -1.565, 2.5, 5.348, 0.397, -1.622, 2.5
 234231270, 5.443, 0.356, -1.476, 2.5, 5.441, 0.369, -1.565, 2.5
 234431190, 5.422, 0.342, -1.369, 2.5, 5.443, 0.356, -1.476, 2.5
 234631110, 5.422, 0.332, -1.267, 2.5, 5.422, 0.342, -1.369, 2.5
 234831030, 5.433, 0.33, -1.182, 2.5, 5.422, 0.332, -1.267, 2.5
 235030950, 5.44, 0.345, -1.115, 2.5, 5.433, 0.33, -1.182, 2.5
 235230870, 5.438, 0.383, -1.067, 2.5, 5.44, 0.345, -1.115, 2.5
 235430790, 5.438, 0.426, -1.034, 2.5, 5.438, 0.383, -1.067, 2.5
 235630710, 5.444, 0.453, -1.017, 2.5, 5.438, 0.426, -1.034, 2.5
 235831463, 5.46, 0.455, -1.026, 2.5, 5.444, 0.453, -1.017, 2.5
 236031383, 5.473, 0.444, -1.043, 2.5, 5.46, 0.455, -1.026, 2.5
 236231303, 5.48, 0.417, -1.059, 2.5, 5.473, 0.444, -1.043, 2.5
 236431223, 5.485, 0.384, -1.075, 2.5, 5.48, 0.417, -1.059, 2.5
 236631143, 5.49, 0.356, -1.089, 2.5, 5.485, 0.384, -1.075, 2.5
 236831063, 5.491, 0.341, -1.095, 2.5, 5.49, 0.356, -1.089, 2.5
 237030983, 5.49, 0.329, -1.096, 2.5, 5.491, 0.341, -1.095, 2.5
 237230903, 5.489, 0.317, -1.096, 2.5, 5.49, 0.329, -1.096, 2.5
 237430823, 5.487, 0.313, -1.093, 2.5, 5.489, 0.317, -1.096, 2.5
 237630743, 5.486, 0.311, -1.09, 2.5, 5.487, 0.313, -1.093, 2.5
 237830663, 5.484, 0.313, -1.081, 2.5, 5.486, 0.311, -1.09, 2.5
 238031416, 5.478, 0.322, -1.064, 2.5, 5.484, 0.313, -1.081, 2.5
 238231336, 5.477, 0.322, -1.049, 2.5, 5.478, 0.322, -1.064, 2.5
 238431256, 5.48, 0.3, -1.041, 2.5, 5.477, 0.322, -1.049, 2.5
 238631176, 5.485, 0.284, -1.04, 2.5, 5.48, 0.3, -1.041, 2.5
 238831096, 5.479, 0.283, -1.015, 2.5, 5.485, 0.284, -1.04, 2.5
 239031016, 5.483, 0.289, -1.017, 2.5, 5.479, 0.283, -1.015, 2.5
 239230936, 5.496, 0.29, -1.035, 2.5, 5.483, 0.289, -1.017, 2.5
 239430856, 5.506, 0.288, -1.056, 2.5, 5.496, 0.29, -1.035, 2.5
 239630776, 5.508, 0.289, -1.068, 2.5, 5.506, 0.288, -1.056, 2.5
 239830696, 5.51, 0.292, -1.083, 2.5, 5.508, 0.289, -1.068, 2.5
 240031449, 5.516, 0.295, -1.108, 2.5, 5.51, 0.292, -1.083, 2.5
 240231369, 5.516, 0.29, -1.121, 2.5, 5.516, 0.295, -1.108, 2.5
 240431289, 5.508, 0.279, -1.111, 2.5, 5.516, 0.29, -1.121, 2.5
 240631209, 5.496, 0.273, -1.082, 2.5, 5.508, 0.279, -1.111, 2.5
 240831129, 5.49, 0.274, -1.048, 2.5, 5.496, 0.273, -1.082, 2.5
 241031049, 5.49, 0.269, -1.025, 2.5, 5.49, 0.274, -1.048, 2.5
 241230969, 5.493, 0.246, -1.012, 2.5, 5.49, 0.269, -1.025, 2.5
 241430889, 5.498, 0.216, -1.011, 2.5, 5.493, 0.246, -1.012, 2.5
 241630809, 5.499, 0.198, -1.007, 2.5, 5.498, 0.216, -1.011, 2.5
 241830729, 5.505, 0.207, -1.014, 2.5, 5.499, 0.198, -1.007, 2.5
 242031482, 5.51, 0.236, -1.029, 2.5, 5.505, 0.207, -1.014, 2.5
 242231402, 5.515, 0.267, -1.048, 2.5, 5.51, 0.236, -1.029, 2.5
 242431322, 5.504, 0.285, -1.033, 2.5, 5.515, 0.267, -1.048, 2.5
 242631242, 5.431, 0.288, -0.9020001, 2.5, 5.504, 0.285, -1.033, 2.5
 242831162, 5.285, 0.279, -0.738, 2.5, 5.431, 0.288, -0.9020001, 2.5
 243031082, 5.098, 0.267, -0.569, 2.5, 5.285, 0.279, -0.738, 2.5
 243231002, 4.911, 0.27, -0.416, 2.5, 5.098, 0.267, -0.569, 2.5
 243430922, 4.726, 0.284, -0.274, 2.5, 4.911, 0.27, -0.416, 2.5
 243630842, 4.554, 0.296, -0.102, 2.5, 4.726, 0.284, -0.274, 2.5
 243830762, 4.464, 0.287, 0.06500001, 2.5, 4.554, 0.296, -0.102, 2.5
 244030682, 4.452, 0.255, 0.212, 2.5, 4.464, 0.287, 0.06500001, 2.5
 244231435, 4.468, 0.225, 0.333, 2.5, 4.452, 0.255, 0.212, 2.5
 244431355, 4.492, 0.212, 0.433, 2.5, 4.468, 0.225, 0.333, 2.5
 244631275, 4.544, 0.211, 0.517, 2.5, 4.492, 0.212, 0.433, 2.5
 244831195, 4.63, 0.208, 0.587, 2.5, 4.544, 0.211, 0.517, 2.5
 245031115, 4.736, 0.208, 0.645, 2.5, 4.63, 0.208, 0.587, 2.5
 245231035, 4.853, 0.204, 0.694, 2.5, 4.736, 0.208, 0.645, 2.5
 245430955, 4.991, 0.187, 0.6850001, 2.5, 4.853, 0.204, 0.694, 2.5
 245630875, 5.08, 0.159, 0.64, 2.5, 4.991, 0.187, 0.6850001, 2.5
 245830795, 5.103, 0.119, 0.591, 2.5, 5.08, 0.159, 0.64, 2.5
 246030715, 5.109, 0.068, 0.549, 2.5, 5.103, 0.119, 0.591, 2.5
 246231468, 5.124, 0.029, 0.5190001, 2.5, 5.109, 0.068, 0.549, 2.5
 246431388, 5.144, 0.01, 0.498, 2.5, 5.124, 0.029, 0.5190001, 2.5
 246631308, 5.159, 0.002, 0.484, 2.5, 5.144, 0.01, 0.498, 2.5
 246831228, 5.169, -0.013, 0.471, 2.5, 5.159, 0.002, 0.484, 2.5
 247031148, 5.175, -0.025, 0.465, 2.5, 5.169, -0.013, 0.471, 2.5
 247231068, 5.181, -0.015, 0.469, 2.5, 5.175, -0.025, 0.465, 2.5
 247430988, 5.188, -0.001, 0.478, 2.5, 5.181, -0.015, 0.469, 2.5
 247630908, 5.195, -0.012, 0.486, 2.5, 5.188, -0.001, 0.478, 2.5
 247830828, 5.202, -0.044, 0.493, 2.5, 5.195, -0.012, 0.486, 2.5
 248030748, 5.204, -0.07600001, 0.503, 2.5, 5.202, -0.044, 0.493, 2.5
 248230668, 5.207, -0.07700001, 0.511, 2.5, 5.204, -0.07600001, 0.503, 2.5
 248431421, 5.211, -0.051, 0.515, 2.5, 5.207, -0.07700001, 0.511, 2.5
 248631341, 5.212, -0.018, 0.523, 2.5, 5.211, -0.051, 0.515, 2.5
 248831261, 5.213, 0.013, 0.532, 2.5, 5.212, -0.018, 0.523, 2.5
 249031181, 5.217, 0.029, 0.528, 2.5, 5.213, 0.013, 0.532, 2.5
 249231101, 5.223, 0.043, 0.514, 2.5, 5.217, 0.029, 0.528, 2.5
 249431021, 5.225, 0.057, 0.502, 2.5, 5.223, 0.043, 0.514, 2.5
 249630941, 5.222, 0.067, 0.496, 2.5, 5.225, 0.057, 0.502, 2.5
 249830861, 5.218, 0.07300001, 0.501, 2.5, 5.222, 0.067, 0.496, 2.5
 250030781, 5.217, 0.09, 0.509, 2.5, 5.218, 0.07300001, 0.501, 2.5
 250230701, 5.216, 0.121, 0.521, 2.5, 5.217, 0.09, 0.509, 2.5
 250431454, 5.214, 0.159, 0.53, 2.5, 5.216, 0.121, 0.521, 2.5
 250631374, 5.215, 0.185, 0.532, 2.5, 5.214, 0.159, 0.53, 2.5
 250831294, 5.22, 0.203, 0.527, 2.5, 5.215, 0.185, 0.532, 2.5
 251031214, 5.22, 0.21, 0.5190001, 2.5, 5.22, 0.203, 0.527, 2.5
 251231134, 5.218, 0.182, 0.512, 2.5, 5.22, 0.21, 0.5190001, 2.5
 251431054, 5.21, 0.132, 0.508, 2.5, 5.218, 0.182, 0.512, 2.5
 251630974, 5.21, 0.1, 0.498, 2.5, 5.21, 0.132, 0.508, 2.5
 251830894, 5.212, 0.08800001, 0.488, 2.5, 5.21, 0.1, 0.498, 2.5
 252030814, 5.209, 0.07, 0.485, 2.5, 5.212, 0.08800001, 0.488, 2.5
 252230734, 5.206, 0.053, 0.483, 2.5, 5.209, 0.07, 0.485, 2.5
 252430654, 5.207, 0.044, 0.49, 2.5, 5.206, 0.053, 0.483, 2.5
 252631407, 5.207, 0.026, 0.499, 2.5, 5.207, 0.044, 0.49, 2.5
 252831327, 5.204, -0.009000001, 0.504, 2.5, 5.207, 0.026, 0.499, 2.5
 253031247, 5.203, -0.038, 0.511, 2.5, 5.204, -0.009000001, 0.504, 2.5
 253231167, 5.202, -0.047, 0.523, 2.5, 5.203, -0.038, 0.511, 2.5
 253431087, 5.2, -0.053, 0.535, 2.5, 5.202, -0.047, 0.523, 2.5
 253631007, 5.2, -0.083, 0.538, 2.5, 5.2, -0.053, 0.535, 2.5
 253830927, 5.2, -0.12, 0.534, 2.5, 5.2, -0.083, 0.538, 2.5
 254030847, 5.201, -0.127, 0.527, 2.5, 5.2, -0.12, 0.534, 2.5
 254230767, 5.201, -0.109, 0.518, 2.5, 5.201, -0.127, 0.527, 2.5
 254430687, 5.202, -0.078, 0.509, 2.5, 5.201, -0.109, 0.518, 2.5
 254631440, 5.208, -0.05, 0.497, 2.5, 5.202, -0.078, 0.509, 2.5
 254831360, 5.214, -0.032, 0.483, 2.5, 5.208, -0.05, 0.497, 2.5
 255031280, 5.215, -0.023, 0.472, 2.5, 5.214, -0.032, 0.483, 2.5
 255231200, 5.215, -0.019, 0.467, 2.5, 5.215, -0.023, 0.472, 2.5
 255431120, 5.215, -0.008, 0.465, 2.5, 5.215, -0.019, 0.467, 2.5
 255631040, 5.215, 0.013, 0.477, 2.5, 5.215, -0.008, 0.465, 2.5
 255830960, 5.216, 0.02, 0.488, 2.5, 5.215, 0.013, 0.477, 2.5
 256030880, 5.222, 0.007, 0.489, 2.5, 5.216, 0.02, 0.488, 2.5
 256230800, 5.225, -0.001, 0.487, 2.5, 5.222, 0.007, 0.489, 2.5
 256430720, 5.227, 0.005, 0.483, 2.5, 5.225, -0.001, 0.487, 2.5
 256631473, 5.229, 0.009000001, 0.477, 2.5, 5.227, 0.005, 0.483, 2.5
 256831393, 5.229, -0.006, 0.472, 2.5, 5.229, 0.009000001, 0.477, 2.5
 257031313, 5.229, -0.016, 0.472, 2.5, 5.229, -0.006, 0.472, 2.5
 257231233, 5.23, 0.003, 0.473, 2.5, 5.229, -0.016, 0.472, 2.5
 257431153, 5.234, 0.035, 0.47, 2.5, 5.23, 0.003, 0.473, 2.5
 257631073, 5.238, 0.06, 0.461, 2.5, 5.234, 0.035, 0.47, 2.5
 257830993, 5.239, 0.074, 0.453, 2.5, 5.238, 0.06, 0.461, 2.5
 258030913, 5.237, 0.08800001, 0.454, 2.5, 5.239, 0.074, 0.453, 2.5
 258230833, 5.233, 0.08000001, 0.466, 2.5, 5.237, 0.08800001, 0.454, 2.5
 258430753, 5.223, 0.055, 0.484, 2.5, 5.233, 0.08000001, 0.466, 2.5
 258630673, 5.219, 0.033, 0.502, 2.5, 5.223, 0.055, 0.484, 2.5
 258831426, 5.221, 0.027, 0.513, 2.5, 5.219, 0.033, 0.502, 2.5
 259031346, 5.224, 0.035, 0.514, 2.5, 5.221, 0.027, 0.513, 2.5
 259231266, 5.222, 0.042, 0.517, 2.5, 5.224, 0.035, 0.514, 2.5
 259431186, 5.217, 0.044, 0.523, 2.5, 5.222, 0.042, 0.517, 2.5
 259631106, 5.216, 0.041, 0.522, 2.5, 5.217, 0.044, 0.523, 2.5
 259831026, 5.216, 0.026, 0.5190001, 2.5, 5.216, 0.041, 0.522, 2.5
 260030946, 5.213, -0.003, 0.517, 2.5, 5.216, 0.026, 0.5190001, 2.5
 260230866, 5.212, -0.028, 0.516, 2.5, 5.213, -0.003, 0.517, 2.5
 260430786, 5.212, -0.032, 0.514, 2.5, 5.212, -0.028, 0.516, 2.5
 260630706, 5.211, -0.024, 0.511, 2.5, 5.212, -0.032, 0.514, 2.5
 260831459, 5.208, -0.016, 0.516, 2.5, 5.211, -0.024, 0.511, 2.5
 261031379, 5.204, -0.002, 0.517, 2.5, 5.208, -0.016, 0.516, 2.5
 261231299, 5.206, 0.009000001, 0.514, 2.5, 5.204, -0.002, 0.517, 2.5
 261431219, 5.209, 0.001, 0.508, 2.5, 5.206, 0.009000001, 0.514, 2.5
 261631139, 5.206, -0.02, 0.507, 2.5, 5.209, 0.001, 0.508, 2.5
 261831059, 5.204, -0.042, 0.504, 2.5, 5.206, -0.02, 0.507, 2.5
 262030979, 5.208, -0.071, 0.439, 2.5, 5.204, -0.042, 0.504, 2.5
 262230899, 5.119, -0.097, 0.349, 2.5, 5.208, -0.071, 0.439, 2.5
 262430819, 4.935, -0.097, 0.262, 2.5, 5.119, -0.097, 0.349, 2.5
 262630739, 4.737, -0.07700001, 0.136, 2.5, 4.935, -0.097, 0.262, 2.5
 262830659, 4.631, -0.054, -0.096, 2.5, 4.737, -0.07700001, 0.136, 2.5
 263031412, 4.643, -0.04, -0.356, 2.5, 4.631, -0.054, -0.096, 2.5
 263231332, 4.696, -0.048, -0.623, 2.5, 4.643, -0.04, -0.356, 2.5
 263431252, 4.726, -0.06500001, -0.878, 2.5, 4.696, -0.048, -0.623, 2.5
 263631172, 4.739, -0.075, -1.101, 2.5, 4.726, -0.06500001, -0.878, 2.5
 263831092, 4.767, -0.09200001, -1.28, 2.5, 4.739, -0.075, -1.101, 2.5
 264031012, 4.829, -0.11, -1.422, 2.5, 4.767, -0.09200001, -1.28, 2.5
 264230932, 4.902, -0.118, -1.499, 2.5, 4.829, -0.11, -1.422, 2.5
 264430852, 4.935, -0.113, -1.515, 2.5, 4.902, -0.118, -1.499, 2.5
 264630772, 4.912, -0.09900001, -1.49, 2.5, 4.935, -0.113, -1.515, 2.5
 264830692, 4.881, -0.089, -1.447, 2.5, 4.912, -0.09900001, -1.49, 2.5
 265031445, 4.869, -0.08800001, -1.404, 2.5, 4.881, -0.089, -1.447, 2.5
 265231365, 4.867, -0.093, -1.363, 2.5, 4.869, -0.08800001, -1.404, 2.5
 265431285, 4.861, -0.097, -1.322, 2.5, 4.867, -0.093, -1.363, 2.5
 265631205, 4.857, -0.098, -1.294, 2.5, 4.861, -0.097, -1.322, 2.5
 265831125, 4.859, -0.09500001, -1.289, 2.5, 4.857, -0.098, -1.294, 2.5
 266031045, 4.865, -0.09500001, -1.301, 2.5, 4.859, -0.09500001, -1.289, 2.5
 266230965, 4.871, -0.08800001, -1.322, 2.5, 4.865, -0.09500001, -1.301, 2.5
 266430885, 4.87, -0.083, -1.334, 2.5, 4.871, -0.08800001, -1.322, 2.5
 266630805, 4.866, -0.078, -1.336, 2.5, 4.87, -0.083, -1.334, 2.5
 266830725, 4.864, -0.064, -1.331, 2.5, 4.866, -0.078, -1.336, 2.5
 267031478, 4.859, -0.052, -1.318, 2.5, 4.864, -0.064, -1.331, 2.5
 267231398, 4.857, -0.048, -1.302, 2.5, 4.859, -0.052, -1.318, 2.5
 267431318, 4.858, -0.041, -1.287, 2.5, 4.857, -0.048, -1.302, 2.5
 267631238, 4.868, -0.028, -1.285, 2.5, 4.858, -0.041, -1.287, 2.5
 267831158, 4.874, -0.019, -1.294, 2.5, 4.868, -0.028, -1.285, 2.5
 268031078, 4.873, -0.039, -1.309, 2.5, 4.874, -0.019, -1.294, 2.5
 268230998, 4.858, -0.082, -1.314, 2.5, 4.873, -0.039, -1.309, 2.5
 268430918, 4.849, -0.122, -1.312, 2.5, 4.858, -0.082, -1.314, 2.5
 268630838, 4.854, -0.137, -1.318, 2.5, 4.849, -0.122, -1.312, 2.5
 268830758, 4.866, -0.121, -1.321, 2.5, 4.854, -0.137, -1.318, 2.5
 269030678, 4.871, -0.078, -1.321, 2.5, 4.866, -0.121, -1.321, 2.5
 269231431, 4.856, -0.039, -1.319, 2.5, 4.871, -0.078, -1.321, 2.5
 269431351, 4.854, -0.012, -1.324, 2.5, 4.856, -0.039, -1.319, 2.5
 269631271, 4.873, 0.012, -1.331, 2.5, 4.854, -0.012, -1.324, 2.5
 269831191, 4.875, 0.032, -1.319, 2.5, 4.873, 0.012, -1.331, 2.5
 270031111, 4.863, 0.041, -1.293, 2.5, 4.875, 0.032, -1.319, 2.5
 270231031, 4.853, 0.051, -1.271, 2.5, 4.863, 0.041, -1.293, 2.5
 270430951, 4.859, 0.08000001, -1.253, 2.5, 4.853, 0.051, -1.271, 2.5
 270630871, 4.874, 0.125, -1.238, 2.5, 4.859, 0.08000001, -1.253, 2.5
 270830791, 4.875, 0.149, -1.227, 2.5, 4.874, 0.125, -1.238, 2.5
 271030711, 4.872, 0.134, -1.227, 2.5, 4.875, 0.149, -1.227, 2.5
 271231464, 4.877, 0.11, -1.243, 2.5, 4.872, 0.134, -1.227, 2.5
 271431384, 4.88, 0.106, -1.26, 2.5, 4.877, 0.11, -1.243, 2.5
 271631304, 4.877, 0.108, -1.264, 2.5, 4.88, 0.106, -1.26, 2.5
 271831224, 4.876, 0.094, -1.271, 2.5, 4.877, 0.108, -1.264, 2.5
 272031144, 4.875, 0.07300001, -1.278, 2.5, 4.876, 0.094, -1.271, 2.5
 272231064, 4.873, 0.061, -1.279, 2.5, 4.875, 0.07300001, -1.278, 2.5
 272430984, 4.868, 0.056, -1.271, 2.5, 4.873, 0.061, -1.279, 2.5
 272630904, 4.867, 0.055, -1.269, 2.5, 4.868, 0.056, -1.271, 2.5
 272830824, 4.869, 0.058, -1.275, 2.5, 4.867, 0.055, -1.269, 2.5
 273030744, 4.869, 0.063, -1.28, 2.5, 4.869, 0.058, -1.275, 2.5
 273230664, 4.866, 0.06900001, -1.278, 2.5, 4.869, 0.063, -1.28, 2.5
 273431417, 4.865, 0.075, -1.276, 2.5, 4.866, 0.06900001, -1.278, 2.5
 273631337, 4.861, 0.08400001, -1.27, 2.5, 4.865, 0.075, -1.276, 2.5
 273831257, 4.858, 0.109, -1.259, 2.5, 4.861, 0.08400001, -1.27, 2.5
 274031177, 4.87, 0.138, -1.249, 2.5, 4.858, 0.109, -1.259, 2.5
 274231097, 4.872, 0.147, -1.238, 2.5, 4.87, 0.138, -1.249, 2.5
 274431017, 4.855, 0.146, -1.222, 2.5, 4.872, 0.147, -1.238, 2.5
 274630937, 4.849, 0.135, -1.205, 2.5, 4.855, 0.146, -1.222, 2.5
 274830857, 4.862, 0.12, -1.209, 2.5, 4.849, 0.135, -1.205, 2.5
 275030777, 4.878, 0.103, -1.221, 2.5, 4.862, 0.12, -1.209, 2.5
 275230697, 4.876, 0.085, -1.235, 2.5, 4.878, 0.103, -1.221, 2.5
 275431450, 4.873, 0.062, -1.262, 2.5, 4.876, 0.085, -1.235, 2.5
 275631370, 4.871, 0.046, -1.28, 2.5, 4.873, 0.062, -1.262, 2.5
 275831290, 4.868, 0.039, -1.287, 2.5, 4.871, 0.046, -1.28, 2.5
 276031210, 4.857, 0.032, -1.29, 2.5, 4.868, 0.039, -1.287, 2.5
 276231130, 4.855, 0.015, -1.297, 2.5, 4.857, 0.032, -1.29, 2.5
 276431050, 4.871, 0.002, -1.298, 2.5, 4.855, 0.015, -1.297, 2.5
 276630970, 4.865, 0.007, -1.301, 2.5, 4.871, 0.002, -1.298, 2.5
 276830890, 4.849, 0.016, -1.307, 2.5, 4.865, 0.007, -1.301, 2.5
 277030810, 4.847, 0.029, -1.294, 2.5, 4.849, 0.016, -1.307, 2.5
 277230730, 4.814, 0.053, -1.171, 2.5, 4.847, 0.029, -1.294, 2.5
 277431483, 4.691, 0.09200001, -0.9810001, 2.5, 4.814, 0.053, -1.171, 2.5
 277631403, 4.518, 0.126, -0.772, 2.5, 4.691, 0.09200001, -0.9810001, 2.5
 277831323, 4.359, 0.136, -0.575, 2.5, 4.518, 0.126, -0.772, 2.5
 278031243, 4.216, 0.132, -0.41, 2.5, 4.359, 0.136, -0.575, 2.5
 278231163, 4.055, 0.147, -0.261, 2.5, 4.216, 0.132, -0.41, 2.5
 278431083, 3.894, 0.17, -0.074, 2.5, 4.055, 0.147, -0.261, 2.5
 278631003, 3.82, 0.187, 0.109, 2.5, 3.894, 0.17, -0.074, 2.5
 278830923, 3.825, 0.189, 0.275, 2.5, 3.82, 0.187, 0.109, 2.5
 279030843, 3.86, 0.176, 0.416, 2.5, 3.825, 0.189, 0.275, 2.5
 279230763, 3.908, 0.159, 0.535, 2.5, 3.86, 0.176, 0.416, 2.5
 279430683, 3.975, 0.134, 0.638, 2.5, 3.908, 0.159, 0.535, 2.5
 279631436, 4.069, 0.089, 0.726, 2.5, 3.975, 0.134, 0.638, 2.5
 279831356, 4.179, 0.04, 0.7820001, 2.5, 4.069, 0.089, 0.726, 2.5
 280031276, 4.287, 0.029, 0.772, 2.5, 4.179, 0.04, 0.7820001, 2.5
 280231196, 4.342, 0.055, 0.738, 2.5, 4.287, 0.029, 0.772, 2.5
 280431116, 4.362, 0.087, 0.693, 2.5, 4.342, 0.055, 0.738, 2.5
 280631036, 4.381, 0.106, 0.6440001, 2.5, 4.362, 0.087, 0.693, 2.5
 280830956, 4.405, 0.124, 0.603, 2.5, 4.381, 0.106, 0.6440001, 2.5
 281030876, 4.422, 0.137, 0.578, 2.5, 4.405, 0.124, 0.603, 2.5
 281230796, 4.431, 0.125, 0.568, 2.5, 4.422, 0.137, 0.578, 2.5
 281430716, 4.433, 0.087, 0.573, 2.5, 4.431, 0.125, 0.568, 2.5
 281631469, 4.434, 0.054, 0.59, 2.5, 4.433, 0.087, 0.573, 2.5
 281831389, 4.44, 0.046, 0.6, 2.5, 4.434, 0.054, 0.59, 2.5
 282031309, 4.449, 0.047, 0.603, 2.5, 4.44, 0.046, 0.6, 2.5
 282231229, 4.451, 0.041, 0.6020001, 2.5, 4.449, 0.047, 0.603, 2.5
 282431149, 4.452, 0.024, 0.6070001, 2.5, 4.451, 0.041, 0.6020001, 2.5
 282631069, 4.459, 0.018, 0.597, 2.5, 4.452, 0.024, 0.6070001, 2.5
 282830989, 4.467, 0.025, 0.577, 2.5, 4.459, 0.018, 0.597, 2.5
 283030909, 4.47, 0.016, 0.558, 2.5, 4.467, 0.025, 0.577, 2.5
 283230829, 4.468, -0.004, 0.55, 2.5, 4.47, 0.016, 0.558, 2.5
 283430749, 4.464, -0.018, 0.559, 2.5, 4.468, -0.004, 0.55, 2.5
 283630669, 4.464, -0.018, 0.571, 2.5, 4.464, -0.018, 0.559, 2.5
 283831422, 4.469, 0.002, 0.5790001, 2.5, 4.464, -0.018, 0.571, 2.5
 284031342, 4.473, 0.031, 0.585, 2.5, 4.469, 0.002, 0.5790001, 2.5
 284231262, 4.476, 0.05, 0.59, 2.5, 4.473, 0.031, 0.585, 2.5
 284431182, 4.477, 0.059, 0.596, 2.5, 4.476, 0.05, 0.59, 2.5
 284631102, 4.479, 0.064, 0.599, 2.5, 4.477, 0.059, 0.596, 2.5
 284831022, 4.481, 0.067, 0.6, 2.5, 4.479, 0.064, 0.599, 2.5
 285030942, 4.482, 0.07, 0.601, 2.5, 4.481, 0.067, 0.6, 2.5
 285230862, 4.477, 0.057, 0.614, 2.5, 4.482, 0.07, 0.601, 2.5
 285430782, 4.475, 0.032, 0.62, 2.5, 4.477, 0.057, 0.614, 2.5
 285630702, 4.473, 0.014, 0.623, 2.5, 4.475, 0.032, 0.62, 2.5
 285831455, 4.47, 0.006, 0.627, 2.5, 4.473, 0.014, 0.623, 2.5
 286031375, 4.469, 0, 0.626, 2.5, 4.47, 0.006, 0.627, 2.5
 286231295, 4.469, -0.016, 0.615, 2.5, 4.469, 0, 0.626, 2.5
 286431215, 4.467, -0.037, 0.609, 2.5, 4.469, -0.016, 0.615, 2.5
 286631135, 4.463, -0.057, 0.6070001, 2.5, 4.467, -0.037, 0.609, 2.5
 286831055, 4.463, -0.059, 0.604, 2.5, 4.463, -0.057, 0.6070001, 2.5
 287030975, 4.465, -0.046, 0.603, 2.5, 4.463, -0.059, 0.604, 2.5
 287230895, 4.464, -0.033, 0.61, 2.5, 4.465, -0.046, 0.603, 2.5
 287430815, 4.466, -0.031, 0.608, 2.5, 4.464, -0.033, 0.61, 2.5
 287630735, 4.467, -0.043, 0.6020001, 2.5, 4.466, -0.031, 0.608, 2.5
 287830655, 4.468, -0.051, 0.597, 2.5, 4.467, -0.043, 0.6020001, 2.5
 288031408, 4.47, -0.052, 0.589, 2.5, 4.468, -0.051, 0.597, 2.5
 288231328, 4.471, -0.05, 0.582, 2.5, 4.47, -0.052, 0.589, 2.5
 288431248, 4.469, -0.051, 0.589, 2.5, 4.471, -0.05, 0.582, 2.5
 288631168, 4.468, -0.053, 0.599, 2.5, 4.469, -0.051, 0.589, 2.5
 288831088, 4.468, -0.057, 0.612, 2.5, 4.468, -0.053, 0.599, 2.5
 289031008, 4.472, -0.071, 0.609, 2.5, 4.468, -0.057, 0.612, 2.5
 289230928, 4.476, -0.083, 0.598, 2.5, 4.472, -0.071, 0.609, 2.5
 289430848, 4.474, -0.09100001, 0.592, 2.5, 4.476, -0.083, 0.598, 2.5
 289630768, 4.471, -0.102, 0.591, 2.5, 4.474, -0.09100001, 0.592, 2.5
 289830688, 4.47, -0.11, 0.5930001, 2.5, 4.471, -0.102, 0.591, 2.5
 290031441, 4.472, -0.112, 0.594, 2.5, 4.47, -0.11, 0.5930001, 2.5
 290231361, 4.473, -0.1, 0.597, 2.5, 4.472, -0.112, 0.594, 2.5
 290431281, 4.475, -0.063, 0.606, 2.5, 4.473, -0.1, 0.597, 2.5
 290631201, 4.482, -0.032, 0.599, 2.5, 4.475, -0.063, 0.606, 2.5
 290831121, 4.486, -0.038, 0.59, 2.5, 4.482, -0.032, 0.599, 2.5
 291031041, 4.486, -0.062, 0.582, 2.5, 4.486, -0.038, 0.59, 2.5
 291230961, 4.487, -0.072, 0.569, 2.5, 4.486, -0.062, 0.582, 2.5
 291430881, 4.49, -0.066, 0.563, 2.5, 4.487, -0.072, 0.569, 2.5
 291630801, 4.484, -0.061, 0.561, 2.5, 4.49, -0.066, 0.563, 2.5
 291830721, 4.484, -0.068, 0.56, 2.5, 4.484, -0.061, 0.561, 2.5
 292031474, 4.505, -0.087, 0.567, 2.5, 4.484, -0.068, 0.56, 2.5
 292231394, 4.472, -0.093, 0.582, 2.5, 4.505, -0.087, 0.567, 2.5
 292431314, 4.462, -0.09500001, 0.594, 2.5, 4.472, -0.093, 0.582, 2.5
 292631234, 4.479, -0.081, 0.601, 2.5, 4.462, -0.09500001, 0.594, 2.5
 292831154, 4.512, -0.045, 0.605, 2.5, 4.479, -0.081, 0.601, 2.5
 293031074, 4.51, 0, 0.606, 2.5, 4.512, -0.045, 0.605, 2.5
 293230994, 4.503, 0.018, 0.597, 2.5, 4.51, 0, 0.606, 2.5
 293430914, 4.473, 0.008, 0.587, 2.5, 4.503, 0.018, 0.597, 2.5
 293630834, 4.498, -0.007, 0.5840001, 2.5, 4.473, 0.008, 0.587, 2.5
 293830754, 4.526, -0.026, 0.54, 2.5, 4.498, -0.007, 0.5840001, 2.5
 294030674, 4.531, -0.039, 0.376, 2.5, 4.526, -0.026, 0.54, 2.5
 294231427, 4.557, -0.041, 0.182, 2.5, 4.531, -0.039, 0.376, 2.5
 294431347, 4.604, -0.026, -0.013, 2.5, 4.557, -0.041, 0.182, 2.5
 294631267, 4.639, -0.011, -0.194, 2.5, 4.604, -0.026, -0.013, 2.5
 294831187, 4.688, -0.004, -0.353, 2.5, 4.639, -0.011, -0.194, 2.5
 295031107, 4.741, -0.022, -0.488, 2.5, 4.688, -0.004, -0.353, 2.5
 295231027, 4.793, -0.053, -0.6, 2.5, 4.741, -0.022, -0.488, 2.5
 295430947, 4.85, -0.086, -0.692, 2.5, 4.793, -0.053, -0.6, 2.5
 295630867, 4.921, -0.12, -0.768, 2.5, 4.85, -0.086, -0.692, 2.5
 295830787, 5.007, -0.138, -0.8340001, 2.5, 4.921, -0.12, -0.768, 2.5
 296030707, 5.102, -0.133, -0.8930001, 2.5, 5.007, -0.138, -0.8340001, 2.5
 296231460, 5.201, -0.116, -0.9480001, 2.5, 5.102, -0.133, -0.8930001, 2.5
 296431380, 5.313, -0.098, -0.9990001, 2.5, 5.201, -0.116, -0.9480001, 2.5
 296631300, 5.445, -0.081, -1.048, 2.5, 5.313, -0.098, -0.9990001, 2.5
 296831220, 5.595, -0.06900001, -1.093, 2.5, 5.445, -0.081, -1.048, 2.5
 297031140, 5.753, -0.074, -1.131, 2.5, 5.595, -0.06900001, -1.093, 2.5
 297231060, 5.902, -0.103, -1.164, 2.5, 5.753, -0.074, -1.131, 2.5
 297430980, 6.037, -0.138, -1.19, 2.5, 5.902, -0.103, -1.164, 2.5
 297630900, 6.167, -0.147, -1.208, 2.5, 6.037, -0.138, -1.19, 2.5
 297830820, 6.301, -0.123, -1.22, 2.5, 6.167, -0.147, -1.208, 2.5
 298030740, 6.426, -0.11, -1.231, 2.5, 6.301, -0.123, -1.22, 2.5
 298230660, 6.545, -0.129, -1.238, 2.5, 6.426, -0.11, -1.231, 2.5
 298431413, 6.665, -0.143, -1.222, 2.5, 6.545, -0.129, -1.238, 2.5
 298631333, 6.743001, -0.116, -1.153, 2.5, 6.665, -0.143, -1.222, 2.5
 298831253, 6.752, -0.071, -1.079, 2.5, 6.743001, -0.116, -1.153, 2.5
 299031173, 6.724, -0.042, -1.003, 2.5, 6.752, -0.071, -1.079, 2.5
 299231093, 6.708, -0.03, -0.936, 2.5, 6.724, -0.042, -1.003, 2.5
 299431013, 6.716001, -0.02, -0.8940001, 2.5, 6.708, -0.03, -0.936, 2.5
 299630933, 6.733, 0.002, -0.8800001, 2.5, 6.716001, -0.02, -0.8940001, 2.5
 299830853, 6.74, 0.037, -0.874, 2.5, 6.733, 0.002, -0.8800001, 2.5
 300030773, 6.74, 0.071, -0.868, 2.5, 6.74, 0.037, -0.874, 2.5
 300230693, 6.739, 0.09100001, -0.8610001, 2.5, 6.74, 0.071, -0.868, 2.5
 300431446, 6.742, 0.108, -0.859, 2.5, 6.739, 0.09100001, -0.8610001, 2.5
 300631366, 6.747, 0.126, -0.86, 2.5, 6.742, 0.108, -0.859, 2.5
 300831286, 6.749001, 0.139, -0.8650001, 2.5, 6.747, 0.126, -0.86, 2.5
 301031206, 6.747, 0.154, -0.8650001, 2.5, 6.749001, 0.139, -0.8650001, 2.5
 301231126, 6.743001, 0.17, -0.863, 2.5, 6.747, 0.154, -0.8650001, 2.5
 301431046, 6.74, 0.17, -0.858, 2.5, 6.743001, 0.17, -0.863, 2.5
 301630966, 6.735, 0.149, -0.85, 2.5, 6.74, 0.17, -0.858, 2.5
 301830886, 6.729, 0.124, -0.841, 2.5, 6.735, 0.149, -0.85, 2.5
 302030806, 6.724, 0.11, -0.831, 2.5, 6.729, 0.124, -0.841, 2.5
 302230726, 6.717, 0.096, -0.814, 2.5, 6.724, 0.11, -0.831, 2.5
 302431479, 6.710001, 0.063, -0.7960001, 2.5, 6.717, 0.096, -0.814, 2.5
 302631399, 6.708, 0.02, -0.788, 2.5, 6.710001, 0.063, -0.7960001, 2.5
 302831319, 6.711, -0.007, -0.785, 2.5, 6.708, 0.02, -0.788, 2.5
 303031239, 6.713, -0.011, -0.779, 2.5, 6.711, -0.007, -0.785, 2.5
 303231159, 6.714, -0.008, -0.772, 2.5, 6.713, -0.011, -0.779, 2.5
 303431079, 6.723001, -0.008, -0.784, 2.5, 6.714, -0.008, -0.772, 2.5
 303630999, 6.733, -0.009000001, -0.803, 2.5, 6.723001, -0.008, -0.784, 2.5
 303830919, 6.739, -0.015, -0.816, 2.5, 6.733, -0.009000001, -0.803, 2.5
 304030839, 6.739, -0.037, -0.826, 2.5, 6.739, -0.015, -0.816, 2.5
 304230759, 6.737, -0.07600001, -0.8330001, 2.5, 6.739, -0.037, -0.826, 2.5
 304430679, 6.678, -0.1, -0.744, 2.5, 6.737, -0.07600001, -0.8330001, 2.5
 304631432, 6.529, -0.09100001, -0.62, 2.5, 6.678, -0.1, -0.744, 2.5
 304831352, 6.332, -0.06, -0.485, 2.5, 6.529, -0.09100001, -0.62, 2.5
 305031272, 6.151, -0.037, -0.356, 2.5, 6.332, -0.06, -0.485, 2.5
 305231192, 5.995, -0.035, -0.249, 2.5, 6.151, -0.037, -0.356, 2.5
 305431112, 5.834, -0.031, -0.168, 2.5, 5.995, -0.035, -0.249, 2.5
 305631032, 5.653, -0.02, -0.111, 2.5, 5.834, -0.031, -0.168, 2.5
 305830952, 5.46, -0.021, -0.068, 2.5, 5.653, -0.02, -0.111, 2.5
 306030872, 5.25, -0.033, 0.025, 2.5, 5.46, -0.021, -0.068, 2.5
 306230792, 5.124, -0.045, 0.145, 2.5, 5.25, -0.033, 0.025, 2.5
 306430712, 5.105, -0.051, 0.264, 2.5, 5.124, -0.045, 0.145, 2.5
 306631465, 5.137, -0.055, 0.368, 2.5, 5.105, -0.051, 0.264, 2.5
 306831385, 5.188, -0.068, 0.456, 2.5, 5.137, -0.055, 0.368, 2.5
 307031305, 5.25, -0.09900001, 0.531, 2.5, 5.188, -0.068, 0.456, 2.5
 307231225, 5.34, -0.136, 0.5560001, 2.5, 5.25, -0.09900001, 0.531, 2.5
 307431145, 5.41, -0.146, 0.544, 2.5, 5.34, -0.136, 0.5560001, 2.5
 307631065, 5.434, -0.136, 0.523, 2.5, 5.41, -0.146, 0.544, 2.5
 307830985, 5.442, -0.122, 0.505, 2.5, 5.434, -0.136, 0.523, 2.5
 308030905, 5.457, -0.101, 0.492, 2.5, 5.442, -0.122, 0.505, 2.5
 308230825, 5.475, -0.063, 0.489, 2.5, 5.457, -0.101, 0.492, 2.5
 308430745, 5.491, -0.021, 0.493, 2.5, 5.475, -0.063, 0.489, 2.5
 308630665, 5.504, 0.019, 0.494, 2.5, 5.491, -0.021, 0.493, 2.5
 308831418, 5.514, 0.042, 0.491, 2.5, 5.504, 0.019, 0.494, 2.5
 309031338, 5.519, 0.042, 0.486, 2.5, 5.514, 0.042, 0.491, 2.5
 309231258, 5.526, 0.035, 0.482, 2.5, 5.519, 0.042, 0.486, 2.5
 309431178, 5.531, 0.033, 0.479, 2.5, 5.526, 0.035, 0.482, 2.5
 309631098, 5.537, 0.038, 0.472, 2.5, 5.531, 0.033, 0.479, 2.5
 309831018, 5.542, 0.047, 0.461, 2.5, 5.537, 0.038, 0.472, 2.5
 310030938, 5.545, 0.054, 0.455, 2.5, 5.542, 0.047, 0.461, 2.5
 310230858, 5.559, 0.056, 0.455, 2.5, 5.545, 0.054, 0.455, 2.5
 310430778, 5.532, 0.064, 0.462, 2.5, 5.559, 0.056, 0.455, 2.5
 310630698, 5.535, 0.09200001, 0.469, 2.5, 5.532, 0.064, 0.462, 2.5
 310831451, 5.573, 0.12, 0.474, 2.5, 5.535, 0.09200001, 0.469, 2.5
 311031371, 5.575, 0.126, 0.475, 2.5, 5.573, 0.12, 0.474, 2.5
 311231291, 5.556, 0.112, 0.482, 2.5, 5.575, 0.126, 0.475, 2.5
 311431211, 5.529, 0.111, 0.487, 2.5, 5.556, 0.112, 0.482, 2.5
 311631131, 5.546, 0.136, 0.484, 2.5, 5.529, 0.111, 0.487, 2.5
 311831051, 5.578, 0.166, 0.474, 2.5, 5.546, 0.136, 0.484, 2.5
 312030971, 5.574, 0.188, 0.463, 2.5, 5.578, 0.166, 0.474, 2.5
 312230891, 5.564, 0.205, 0.452, 2.5, 5.574, 0.188, 0.463, 2.5
 312430811, 5.54, 0.208, 0.449, 2.5, 5.564, 0.205, 0.452, 2.5
 312630731, 5.534, 0.204, 0.458, 2.5, 5.54, 0.208, 0.449, 2.5
 312831484, 5.571, 0.211, 0.473, 2.5, 5.534, 0.204, 0.458, 2.5
 313031404, 5.571, 0.217, 0.488, 2.5, 5.571, 0.211, 0.473, 2.5
 313231324, 5.537, 0.206, 0.496, 2.5, 5.571, 0.217, 0.488, 2.5
 313431244, 5.525, 0.187, 0.497, 2.5, 5.537, 0.206, 0.496, 2.5
 313631164, 5.536, 0.183, 0.496, 2.5, 5.525, 0.187, 0.497, 2.5
 313831084, 5.567, 0.172, 0.493, 2.5, 5.536, 0.183, 0.496, 2.5
 314031004, 5.551, 0.134, 0.489, 2.5, 5.567, 0.172, 0.493, 2.5
 314230924, 5.52, 0.097, 0.486, 2.5, 5.551, 0.134, 0.489, 2.5
 314430844, 5.523, 0.081, 0.477, 2.5, 5.52, 0.097, 0.486, 2.5
 314630764, 5.532, 0.07600001, 0.468, 2.5, 5.523, 0.081, 0.477, 2.5
 314830684, 5.535, 0.067, 0.456, 2.5, 5.532, 0.07600001, 0.468, 2.5
 315031437, 5.533, 0.055, 0.448, 2.5, 5.535, 0.067, 0.456, 2.5
 315231357, 5.53, 0.044, 0.447, 2.5, 5.533, 0.055, 0.448, 2.5
 315431277, 5.529, 0.033, 0.451, 2.5, 5.53, 0.044, 0.447, 2.5
 315631197, 5.532, 0.019, 0.454, 2.5, 5.529, 0.033, 0.451, 2.5
 315831117, 5.536, 0.009000001, 0.454, 2.5, 5.532, 0.019, 0.454, 2.5
 316031037, 5.536, 0.002, 0.458, 2.5, 5.536, 0.009000001, 0.454, 2.5
 316230957, 5.536, -0.003, 0.461, 2.5, 5.536, 0.002, 0.458, 2.5
 316430877, 5.556, -0.009000001, 0.458, 2.5, 5.536, -0.003, 0.461, 2.5
 316630797, 5.569, -0.01, 0.456, 2.5, 5.556, -0.009000001, 0.458, 2.5
 316830717, 5.54, -0.003, 0.46, 2.5, 5.569, -0.01, 0.456, 2.5
 317031470, 5.522, 0, 0.471, 2.5, 5.54, -0.003, 0.46, 2.5
 317231390, 5.532, -0.003, 0.479, 2.5, 5.522, 0, 0.471, 2.5
 317431310, 5.568, -0.006, 0.482, 2.5, 5.532, -0.003, 0.479, 2.5
 317631230, 5.568, -0.013, 0.482, 2.5, 5.568, -0.006, 0.482, 2.5
 317831150, 5.533, -0.034, 0.488, 2.5, 5.568, -0.013, 0.482, 2.5
 318031070, 5.522, -0.067, 0.493, 2.5, 5.533, -0.034, 0.488, 2.5
 318230990, 5.53, -0.087, 0.495, 2.5, 5.522, -0.067, 0.493, 2.5
 318430910, 5.553, -0.082, 0.485, 2.5, 5.53, -0.087, 0.495, 2.5
 318630830, 5.567, -0.07600001, 0.472, 2.5, 5.553, -0.082, 0.485, 2.5
 318830750, 5.536, -0.087, 0.463, 2.5, 5.567, -0.07600001, 0.472, 2.5
 319030670, 5.524, -0.09200001, 0.457, 2.5, 5.536, -0.087, 0.463, 2.5
 319231423, 5.536, -0.082, 0.449, 2.5, 5.524, -0.09200001, 0.457, 2.5
 319431343, 5.568, -0.074, 0.444, 2.5, 5.536, -0.082, 0.449, 2.5
 319631263, 5.567, -0.079, 0.441, 2.5, 5.568, -0.074, 0.444, 2.5
 319831183, 5.535, -0.103, 0.443, 2.5, 5.567, -0.079, 0.441, 2.5
 320031103, 5.525, -0.132, 0.449, 2.5, 5.535, -0.103, 0.443, 2.5
 320231023, 5.535, -0.153, 0.456, 2.5, 5.525, -0.132, 0.449, 2.5
 320430943, 5.566, -0.156, 0.462, 2.5, 5.535, -0.153, 0.456, 2.5
 320630863, 5.566, -0.146, 0.468, 2.5, 5.566, -0.156, 0.462, 2.5
 320830783, 5.534, -0.123, 0.473, 2.5, 5.566, -0.146, 0.468, 2.5
 321030703, 5.528, -0.11, 0.48, 2.5, 5.534, -0.123, 0.473, 2.5
 321231456, 5.545, -0.122, 0.489, 2.5, 5.528, -0.11, 0.48, 2.5
 321431376, 5.571, -0.137, 0.493, 2.5, 5.545, -0.122, 0.489, 2.5
 321631296, 5.554, -0.133, 0.497, 2.5, 5.571, -0.137, 0.493, 2.5
 321831216, 5.523, -0.112, 0.502, 2.5, 5.554, -0.133, 0.497, 2.5
 322031136, 5.529, -0.098, 0.5, 2.5, 5.523, -0.112, 0.502, 2.5
 322231056, 5.556, -0.094, 0.49, 2.5, 5.529, -0.098, 0.5, 2.5
 322430976, 5.57, -0.064, 0.481, 2.5, 5.556, -0.094, 0.49, 2.5
 322630896, 5.559, -0.011, 0.472, 2.5, 5.57, -0.064, 0.481, 2.5
 322830816, 5.531, 0.025, 0.465, 2.5, 5.559, -0.011, 0.472, 2.5
 323030736, 5.544, 0.031, 0.452, 2.5, 5.531, 0.025, 0.465, 2.5
 323230656, 5.576, 0.022, 0.44, 2.5, 5.544, 0.031, 0.452, 2.5
 323431409, 5.57, 0.011, 0.434, 2.5, 5.576, 0.022, 0.44, 2.5
 323631329, 5.539, -0.007, 0.441, 2.5, 5.57, 0.011, 0.434, 2.5
 323831249, 5.526, -0.019, 0.454, 2.5, 5.539, -0.007, 0.441, 2.5
 324031169, 5.536, 0, 0.468, 2.5, 5.526, -0.019, 0.454, 2.5
 324231089, 5.567, 0.052, 0.479, 2.5, 5.536, 0, 0.468, 2.5
 324431009, 5.569, 0.09900001, 0.488, 2.5, 5.567, 0.052, 0.479, 2.5
 324630929, 5.553, 0.106, 0.492, 2.5, 5.569, 0.09900001, 0.488, 2.5
 324830849, 5.531, 0.09100001, 0.496, 2.5, 5.553, 0.106, 0.492, 2.5
 325030769, 5.547, 0.09100001, 0.497, 2.5, 5.531, 0.09100001, 0.496, 2.5
 325230689, 5.576, 0.103, 0.49, 2.5, 5.547, 0.09100001, 0.497, 2.5
 325431442, 5.57, 0.105, 0.482, 2.5, 5.576, 0.103, 0.49, 2.5
 325631362, 5.539, 0.087, 0.477, 2.5, 5.57, 0.105, 0.482, 2.5
 325831282, 5.533, 0.068, 0.426, 2.5, 5.539, 0.087, 0.477, 2.5
 326031202, 5.487, 0.062, 0.342, 2.5, 5.533, 0.068, 0.426, 2.5
 326231122, 5.345, 0.06, 0.255, 2.5, 5.487, 0.062, 0.342, 2.5
 326431042, 5.137, 0.059, 0.183, 2.5, 5.345, 0.06, 0.255, 2.5
 326630962, 4.927, 0.064, 0.134, 2.5, 5.137, 0.059, 0.183, 2.5
 326830882, 4.735, 0.082, 0.176, 2.5, 4.927, 0.064, 0.134, 2.5
 327030802, 4.633, 0.113, 0.266, 2.5, 4.735, 0.082, 0.176, 2.5
 327230722, 4.617, 0.134, 0.372, 2.5, 4.633, 0.113, 0.266, 2.5
 327431475, 4.639, 0.119, 0.472, 2.5, 4.617, 0.134, 0.372, 2.5
 327631395, 4.676, 0.06, 0.53, 2.5, 4.639, 0.119, 0.472, 2.5
 327831315, 4.691, -0.015, 0.56, 2.5, 4.676, 0.06, 0.53, 2.5
 328031235, 4.683, -0.082, 0.581, 2.5, 4.691, -0.015, 0.56, 2.5
 328231155, 4.68, -0.127, 0.59, 2.5, 4.683, -0.082, 0.581, 2.5
 328431075, 4.686, -0.135, 0.599, 2.5, 4.68, -0.127, 0.59, 2.5
 328630995, 4.696, -0.121, 0.6020001, 2.5, 4.686, -0.135, 0.599, 2.5
 328830915, 4.707, -0.123, 0.589, 2.5, 4.696, -0.121, 0.6020001, 2.5
 329030835, 4.708, -0.157, 0.58, 2.5, 4.707, -0.123, 0.589, 2.5
 329230755, 4.708, -0.191, 0.575, 2.5, 4.708, -0.157, 0.58, 2.5
 329430675, 4.712, -0.196, 0.5700001, 2.5, 4.708, -0.191, 0.575, 2.5
 329631428, 4.719, -0.179, 0.565, 2.5, 4.712, -0.196, 0.5700001, 2.5
 329831348, 4.723, -0.162, 0.568, 2.5, 4.719, -0.179, 0.565, 2.5
 330031268, 4.736, -0.165, 0.562, 2.5, 4.723, -0.162, 0.568, 2.5
 330231188, 4.743, -0.179, 0.5470001, 2.5, 4.736, -0.165, 0.562, 2.5
 330431108, 4.743, -0.191, 0.535, 2.5, 4.743, -0.179, 0.5470001, 2.5
 330631028, 4.743, -0.179, 0.529, 2.5, 4.743, -0.191, 0.535, 2.5
 330830948, 4.744, -0.149, 0.531, 2.5, 4.743, -0.179, 0.529, 2.5
 331030868, 4.748, -0.124, 0.536, 2.5, 4.744, -0.149, 0.531, 2.5
 331230788, 4.752, -0.106, 0.541, 2.5, 4.748, -0.124, 0.536, 2.5
 331430708, 4.757, -0.081, 0.545, 2.5, 4.752, -0.106, 0.541, 2.5
 331631461, 4.762, -0.044, 0.543, 2.5, 4.757, -0.081, 0.545, 2.5
 331831381, 4.765, 0, 0.541, 2.5, 4.762, -0.044, 0.543, 2.5
 332031301, 4.767, 0.034, 0.543, 2.5, 4.765, 0, 0.541, 2.5
 332231221, 4.767, 0.04, 0.5470001, 2.5, 4.767, 0.034, 0.543, 2.5
 332431141, 4.769, 0.038, 0.548, 2.5, 4.767, 0.04, 0.5470001, 2.5
 332631061, 4.768, 0.055, 0.554, 2.5, 4.769, 0.038, 0.548, 2.5
 332830981, 4.767, 0.072, 0.558, 2.5, 4.768, 0.055, 0.554, 2.5
 333030901, 4.767, 0.066, 0.555, 2.5, 4.767, 0.072, 0.558, 2.5
 333230821, 4.765, 0.043, 0.55, 2.5, 4.767, 0.066, 0.555, 2.5
 333430741, 4.763, 0.014, 0.54, 2.5, 4.765, 0.043, 0.55, 2.5
 333630661, 4.756, -0.015, 0.538, 2.5, 4.763, 0.014, 0.54, 2.5
 333831414, 4.749, -0.034, 0.5420001, 2.5, 4.756, -0.015, 0.538, 2.5
 334031334, 4.745, -0.051, 0.546, 2.5, 4.749, -0.034, 0.5420001, 2.5
 334231254, 4.741, -0.08000001, 0.553, 2.5, 4.745, -0.051, 0.546, 2.5
 334431174, 4.737, -0.109, 0.559, 2.5, 4.741, -0.08000001, 0.553, 2.5
 334631094, 4.736, -0.109, 0.561, 2.5, 4.737, -0.109, 0.559, 2.5
 334831014, 4.738, -0.074, 0.559, 2.5, 4.736, -0.109, 0.561, 2.5
 335030934, 4.739, -0.034, 0.555, 2.5, 4.738, -0.074, 0.559, 2.5
 335230854, 4.739, -0.014, 0.549, 2.5, 4.739, -0.034, 0.555, 2.5
 335430774, 4.738, -0.015, 0.5470001, 2.5, 4.739, -0.014, 0.549, 2.5
 335630694, 4.74, -0.026, 0.534, 2.5, 4.738, -0.015, 0.5470001, 2.5
 335831447, 4.742, -0.045, 0.516, 2.5, 4.74, -0.026, 0.534, 2.5
 336031367, 4.739, -0.055, 0.508, 2.5, 4.742, -0.045, 0.516, 2.5
 336231287, 4.736, -0.046, 0.507, 2.5, 4.739, -0.055, 0.508, 2.5
 336431207, 4.736, -0.025, 0.507, 2.5, 4.736, -0.046, 0.507, 2.5
 336631127, 4.736, 0, 0.513, 2.5, 4.736, -0.025, 0.507, 2.5
 336831047, 4.735, 0.025, 0.523, 2.5, 4.736, 0, 0.513, 2.5
 337030967, 4.736, 0.047, 0.534, 2.5, 4.735, 0.025, 0.523, 2.5
 337230887, 4.737, 0.059, 0.541, 2.5, 4.736, 0.047, 0.534, 2.5
 337430807, 4.739, 0.057, 0.5420001, 2.5, 4.737, 0.059, 0.541, 2.5
 337630727, 4.741, 0.049, 0.538, 2.5, 4.739, 0.057, 0.5420001, 2.5
 337831480, 4.738, 0.036, 0.54, 2.5, 4.741, 0.049, 0.538, 2.5
 338031400, 4.715, 0.015, 0.551, 2.5, 4.738, 0.036, 0.54, 2.5
 338231320, 4.698, 0.008, 0.564, 2.5, 4.715, 0.015, 0.551, 2.5
 338431240, 4.742, 0.034, 0.575, 2.5, 4.698, 0.008, 0.564, 2.5
 338631160, 4.77, 0.078, 0.573, 2.5, 4.742, 0.034, 0.575, 2.5
 338831080, 4.75, 0.1, 0.559, 2.5, 4.77, 0.078, 0.573, 2.5
 339031000, 4.682, 0.096, 0.551, 2.5, 4.75, 0.1, 0.559, 2.5
 339230920, 4.69, 0.097, 0.548, 2.5, 4.682, 0.096, 0.551, 2.5
 339430840, 4.76, 0.093, 0.546, 2.5, 4.69, 0.097, 0.548, 2.5
 339630760, 4.764, 0.07700001, 0.546, 2.5, 4.76, 0.093, 0.546, 2.5
 339830680, 4.697, 0.054, 0.5560001, 2.5, 4.764, 0.07700001, 0.546, 2.5
 340031433, 4.67, 0.03, 0.568, 2.5, 4.697, 0.054, 0.5560001, 2.5
 340231353, 4.687, 0.005, 0.575, 2.5, 4.67, 0.03, 0.568, 2.5
 340431273, 4.703, -0.004, 0.578, 2.5, 4.687, 0.005, 0.575, 2.5
 340631193, 4.756, 0.019, 0.576, 2.5, 4.703, -0.004, 0.578, 2.5
 340831113, 4.692, 0.051, 0.567, 2.5, 4.756, 0.019, 0.576, 2.5
 341031033, 4.677, 0.055, 0.552, 2.5, 4.692, 0.051, 0.567, 2.5
 341230953, 4.709, 0.023, 0.537, 2.5, 4.677, 0.055, 0.552, 2.5
 341430873, 4.769, -0.023, 0.524, 2.5, 4.709, 0.023, 0.537, 2.5
 341630793, 4.751, -0.062, 0.512, 2.5, 4.769, -0.023, 0.524, 2.5
 341830713, 4.679, -0.078, 0.512, 2.5, 4.751, -0.062, 0.512, 2.5
 342031466, 4.682, -0.057, 0.521, 2.5, 4.679, -0.078, 0.512, 2.5
 342231386, 4.728, -0.011, 0.53, 2.5, 4.682, -0.057, 0.521, 2.5
 342431306, 4.767, 0.032, 0.539, 2.5, 4.728, -0.011, 0.53, 2.5
 342631226, 4.746, 0.074, 0.557, 2.5, 4.767, 0.032, 0.539, 2.5
 342831146, 4.687, 0.121, 0.572, 2.5, 4.746, 0.074, 0.557, 2.5
 343031066, 4.701, 0.17, 0.583, 2.5, 4.687, 0.121, 0.572, 2.5
 343230986, 4.77, 0.208, 0.592, 2.5, 4.701, 0.17, 0.583, 2.5
 343430906, 4.769, 0.222, 0.6, 2.5, 4.77, 0.208, 0.592, 2.5
 343630826, 4.746, 0.216, 0.592, 2.5, 4.769, 0.222, 0.6, 2.5
 343830746, 4.695, 0.208, 0.566, 2.5, 4.746, 0.216, 0.592, 2.5
 344030666, 4.767, 0.203, 0.541, 2.5, 4.695, 0.208, 0.566, 2.5
 344231419, 4.794, 0.192, 0.516, 2.5, 4.767, 0.203, 0.541, 2.5
 344431339, 4.783, 0.169, 0.501, 2.5, 4.794, 0.192, 0.516, 2.5
 344631259, 4.815, 0.163, 0.498, 2.5, 4.783, 0.169, 0.501, 2.5
 344831179, 4.869, 0.18, 0.504, 2.5, 4.815, 0.163, 0.498, 2.5
 345031099, 4.879, 0.186, 0.517, 2.5, 4.869, 0.18, 0.504, 2.5
 345231019, 4.963, 0.173, 0.538, 2.5, 4.879, 0.186, 0.517, 2.5
 345430939, 5.092, 0.165, 0.563, 2.5, 4.963, 0.173, 0.538, 2.5
 345630859, 5.186, 0.169, 0.588, 2.5, 5.092, 0.165, 0.563, 2.5
 345830779, 5.282, 0.161, 0.6160001, 2.5, 5.186, 0.169, 0.588, 2.5
 346030699, 5.401, 0.129, 0.649, 2.5, 5.282, 0.161, 0.6160001, 2.5
 346231452, 5.552, 0.09500001, 0.643, 2.5, 5.401, 0.129, 0.649, 2.5
 346431372, 5.664, 0.08400001, 0.6020001, 2.5, 5.552, 0.09500001, 0.643, 2.5
 346631292, 5.686, 0.086, 0.559, 2.5, 5.664, 0.08400001, 0.6020001, 2.5
 346831212, 5.676, 0.086, 0.526, 2.5, 5.686, 0.086, 0.559, 2.5
 347031132, 5.678, 0.08000001, 0.504, 2.5, 5.676, 0.086, 0.526, 2.5
 347231052, 5.68, 0.075, 0.491, 2.5, 5.678, 0.08000001, 0.504, 2.5
 347430972, 5.686, 0.074, 0.487, 2.5, 5.68, 0.075, 0.491, 2.5
 347630892, 5.689, 0.07, 0.481, 2.5, 5.686, 0.074, 0.487, 2.5
 347830812, 5.69, 0.058, 0.468, 2.5, 5.689, 0.07, 0.481, 2.5
 348030732, 5.687, 0.044, 0.458, 2.5, 5.69, 0.058, 0.468, 2.5
 348231485, 5.682, 0.036, 0.454, 2.5, 5.687, 0.044, 0.458, 2.5
 348431405, 5.678, 0.024, 0.458, 2.5, 5.682, 0.036, 0.454, 2.5
 348631325, 5.673, 0.001, 0.466, 2.5, 5.678, 0.024, 0.458, 2.5
 348831245, 5.67, -0.016, 0.467, 2.5, 5.673, 0.001, 0.466, 2.5
 349031165, 5.671, -0.031, 0.465, 2.5, 5.67, -0.016, 0.467, 2.5
 349231085, 5.669, -0.064, 0.466, 2.5, 5.671, -0.031, 0.465, 2.5
 349431005, 5.669, -0.112, 0.463, 2.5, 5.669, -0.064, 0.466, 2.5
 349630925, 5.67, -0.14, 0.455, 2.5, 5.669, -0.112, 0.463, 2.5
 349830845, 5.672, -0.131, 0.448, 2.5, 5.67, -0.14, 0.455, 2.5
 350030765, 5.674, -0.121, 0.441, 2.5, 5.672, -0.131, 0.448, 2.5
 350230685, 5.675, -0.127, 0.437, 2.5, 5.674, -0.121, 0.441, 2.5
 350431438, 5.672, -0.152, 0.446, 2.5, 5.675, -0.127, 0.437, 2.5
 350631358, 5.67, -0.176, 0.46, 2.5, 5.672, -0.152, 0.446, 2.5
 350831278, 5.673, -0.179, 0.469, 2.5, 5.67, -0.176, 0.46, 2.5
 351031198, 5.677, -0.174, 0.472, 2.5, 5.673, -0.179, 0.469, 2.5
 351231118, 5.693, -0.171, 0.464, 2.5, 5.677, -0.174, 0.472, 2.5
 351431038, 5.691, -0.172, 0.452, 2.5, 5.693, -0.171, 0.464, 2.5
 351630958, 5.648, -0.188, 0.448, 2.5, 5.691, -0.172, 0.452, 2.5
 351830878, 5.645, -0.21, 0.452, 2.5, 5.648, -0.188, 0.448, 2.5
 352030798, 5.697001, -0.212, 0.455, 2.5, 5.645, -0.21, 0.452, 2.5
 352230718, 5.72, -0.191, 0.455, 2.5, 5.697001, -0.212, 0.455, 2.5
 352431471, 5.673, -0.164, 0.455, 2.5, 5.72, -0.191, 0.455, 2.5
 352631391, 5.634, -0.144, 0.452, 2.5, 5.673, -0.164, 0.455, 2.5
 352831311, 5.674, -0.129, 0.447, 2.5, 5.634, -0.144, 0.452, 2.5
 353031231, 5.732, -0.124, 0.441, 2.5, 5.674, -0.129, 0.447, 2.5
 353231151, 5.723, -0.129, 0.433, 2.5, 5.732, -0.124, 0.441, 2.5
 353431071, 5.702, -0.127, 0.431, 2.5, 5.723, -0.129, 0.433, 2.5
 353630991, 5.647, -0.121, 0.435, 2.5, 5.702, -0.127, 0.431, 2.5
 353830911, 5.696, -0.117, 0.44, 2.5, 5.647, -0.121, 0.435, 2.5
 354030831, 5.736, -0.111, 0.444, 2.5, 5.696, -0.117, 0.44, 2.5
 354230751, 5.72, -0.107, 0.452, 2.5, 5.736, -0.111, 0.444, 2.5
 354430671, 5.67, -0.107, 0.461, 2.5, 5.72, -0.107, 0.452, 2.5
 354631424, 5.644, -0.103, 0.462, 2.5, 5.67, -0.107, 0.461, 2.5
 354831344, 5.716, -0.089, 0.455, 2.5, 5.644, -0.103, 0.462, 2.5
 355031264, 5.737, -0.061, 0.443, 2.5, 5.716, -0.089, 0.455, 2.5
 355231184, 5.718, -0.029, 0.432, 2.5, 5.737, -0.061, 0.443, 2.5
 355431104, 5.672, 0, 0.435, 2.5, 5.718, -0.029, 0.432, 2.5
 355631024, 5.643, 0.035, 0.443, 2.5, 5.672, 0, 0.435, 2.5
 355830944, 5.704, 0.067, 0.448, 2.5, 5.643, 0.035, 0.443, 2.5
 356030864, 5.729, 0.085, 0.448, 2.5, 5.704, 0.067, 0.448, 2.5
 356230784, 5.708, 0.087, 0.445, 2.5, 5.729, 0.085, 0.448, 2.5
 356430704, 5.641, 0.096, 0.451, 2.5, 5.708, 0.087, 0.445, 2.5
 356631457, 5.64, 0.126, 0.459, 2.5, 5.641, 0.096, 0.451, 2.5
 356831377, 5.701, 0.151, 0.454, 2.5, 5.64, 0.126, 0.459, 2.5
 357031297, 5.719, 0.15, 0.445, 2.5, 5.701, 0.151, 0.454, 2.5
 357231217, 5.664, 0.122, 0.447, 2.5, 5.719, 0.15, 0.445, 2.5
 357431137, 5.622, 0.08400001, 0.456, 2.5, 5.664, 0.122, 0.447, 2.5
 357631057, 5.636, 0.061, 0.462, 2.5, 5.622, 0.08400001, 0.456, 2.5
 357830977, 5.66, 0.061, 0.46, 2.5, 5.636, 0.061, 0.462, 2.5
 358030897, 5.709, 0.075, 0.454, 2.5, 5.66, 0.061, 0.46, 2.5
 358230817, 5.652, 0.08800001, 0.451, 2.5, 5.709, 0.075, 0.454, 2.5
 358430737, 5.62, 0.08400001, 0.452, 2.5, 5.652, 0.08800001, 0.451, 2.5
 358630657, 5.636, 0.06500001, 0.454, 2.5, 5.62, 0.08400001, 0.452, 2.5
 358831410, 5.685, 0.037, 0.448, 2.5, 5.636, 0.06500001, 0.454, 2.5
 359031330, 5.714, -0.001, 0.44, 2.5, 5.685, 0.037, 0.448, 2.5
 359231250, 5.649, -0.047, 0.438, 2.5, 5.714, -0.001, 0.44, 2.5
 359431170, 5.622, -0.08000001, 0.438, 2.5, 5.649, -0.047, 0.438, 2.5
 359631090, 5.642, -0.101, 0.44, 2.5, 5.622, -0.08000001, 0.438, 2.5
 359831010, 5.697001, -0.117, 0.438, 2.5, 5.642, -0.101, 0.44, 2.5
 360030930, 5.712, -0.131, 0.434, 2.5, 5.697001, -0.117, 0.438, 2.5
 360230850, 5.646, -0.138, 0.428, 2.5, 5.712, -0.131, 0.434, 2.5
 360430770, 5.625, -0.14, 0.424, 2.5, 5.646, -0.138, 0.428, 2.5
 360630690, 5.643, -0.128, 0.427, 2.5, 5.625, -0.14, 0.424, 2.5
 360831443, 5.698, -0.093, 0.431, 2.5, 5.643, -0.128, 0.427, 2.5
 361031363, 5.708, -0.061, 0.44, 2.5, 5.698, -0.093, 0.431, 2.5
 361231283, 5.633, -0.056, 0.445, 2.5, 5.708, -0.061, 0.44, 2.5
 361431203, 5.626, -0.078, 0.449, 2.5, 5.633, -0.056, 0.445, 2.5
 361631123, 5.648, -0.097, 0.45, 2.5, 5.626, -0.078, 0.449, 2.5
 361831043, 5.712, -0.096, 0.449, 2.5, 5.648, -0.097, 0.45, 2.5
 362030963, 5.701, -0.089, 0.444, 2.5, 5.712, -0.096, 0.449, 2.5
 362230883, 5.625, -0.087, 0.451, 2.5, 5.701, -0.089, 0.444, 2.5
 362430803, 5.627, -0.087, 0.458, 2.5, 5.625, -0.087, 0.451, 2.5
 362630723, 5.657, -0.085, 0.453, 2.5, 5.627, -0.087, 0.458, 2.5
 362831476, 5.714, -0.085, 0.44, 2.5, 5.657, -0.085, 0.453, 2.5
 363031396, 5.686, -0.089, 0.433, 2.5, 5.714, -0.085, 0.44, 2.5
 363231316, 5.624, -0.087, 0.439, 2.5, 5.686, -0.089, 0.433, 2.5
 363431236, 5.633, -0.08000001, 0.442, 2.5, 5.624, -0.087, 0.439, 2.5
 363631156, 5.665, -0.079, 0.44, 2.5, 5.633, -0.08000001, 0.442, 2.5
 363831076, 5.711, -0.071, 0.437, 2.5, 5.665, -0.079, 0.44, 2.5
 364030996, 5.663, -0.042, 0.432, 2.5, 5.711, -0.071, 0.437, 2.5
 364230916, 5.626, -0.007, 0.425, 2.5, 5.663, -0.042, 0.432, 2.5
 364430836, 5.647, 0.025, 0.349, 2.5, 5.626, -0.007, 0.425, 2.5
 364630756, 5.611, 0.047, 0.195, 2.5, 5.647, 0.025, 0.349, 2.5
 364830676, 5.507, 0.054, -0.004, 2.5, 5.611, 0.047, 0.195, 2.5
 365031429, 5.314, 0.051, -0.22, 2.5, 5.507, 0.054, -0.004, 2.5
 365231349, 5.101, 0.038, -0.443, 2.5, 5.314, 0.051, -0.22, 2.5
 365431269, 4.908, 0.029, -0.6670001, 2.5, 5.101, 0.038, -0.443, 2.5
 365631189, 4.711, 0.032, -0.8930001, 2.5, 4.908, 0.029, -0.6670001, 2.5
 365831109, 4.478, 0.038, -1.111, 2.5, 4.711, 0.032, -0.8930001, 2.5
 366031029, 4.218, 0.038, -1.318, 2.5, 4.478, 0.038, -1.111, 2.5
 366230949, 3.956, 0.048, -1.503, 2.5, 4.218, 0.038, -1.318, 2.5
 366430869, 3.704, 0.08000001, -1.655, 2.5, 3.956, 0.048, -1.503, 2.5
 366630789, 3.45, 0.112, -1.775, 2.5, 3.704, 0.08000001, -1.655, 2.5
 366830709, 3.183, 0.123, -1.868, 2.5, 3.45, 0.112, -1.775, 2.5
 367031462, 2.898, 0.116, -1.939, 2.5, 3.183, 0.123, -1.868, 2.5
 367231382, 2.591, 0.114, -1.916, 2.5, 2.898, 0.116, -1.939, 2.5
 367431302, 2.288, 0.118, -1.754, 2.5, 2.591, 0.114, -1.916, 2.5
 367631222, 1.999, 0.106, -1.523, 2.5, 2.288, 0.118, -1.754, 2.5
 367831142, 1.704, 0.089, -1.25, 2.5, 1.999, 0.106, -1.523, 2.5
 368031062, 1.361, 0.075, -0.9630001, 2.5, 1.704, 0.089, -1.25, 2.5
 368230982, 0.9990001, 0.059, -0.707, 2.5, 1.361, 0.075, -0.9630001, 2.5
 368430902, 0.675, 0.04, -0.499, 2.5, 0.9990001, 0.059, -0.707, 2.5
 368630822, 0.406, 0.028, -0.341, 2.5, 0.675, 0.04, -0.499, 2.5
 368830742, 0.16, 0.033, -0.226, 2.5, 0.406, 0.028, -0.341, 2.5
 369030662, -0.074, 0.036, -0.147, 2.5, 0.16, 0.033, -0.226, 2.5
 369231415, -0.305, 0.011, -0.096, 2.5, -0.074, 0.036, -0.147, 2.5
 369431335, -0.525, -0.02, -0.064, 2.5, -0.305, 0.011, -0.096, 2.5
 369631255, -0.733, -0.067, -0.046, 2.5, -0.525, -0.02, -0.064, 2.5
 369831175, -0.9170001, -0.101, -0.037, 2.5, -0.733, -0.067, -0.046, 2.5
 370031095, -1.079, -0.086, -0.032, 2.5, -0.9170001, -0.101, -0.037, 2.5
 370231015, -1.226, -0.042, -0.028, 2.5, -1.079, -0.086, -0.032, 2.5
 370430935, -1.372, 0.01, -0.024, 2.5, -1.226, -0.042, -0.028, 2.5
 370630855, -1.553, 0.059, -0.018, 2.5, -1.372, 0.01, -0.024, 2.5
 370830775, -1.756, 0.107, -0.014, 2.5, -1.553, 0.059, -0.018, 2.5
 371030695, -1.941, 0.132, -0.013, 2.5, -1.756, 0.107, -0.014, 2.5
 371231448, -2.108, 0.117, -0.011, 2.5, -1.941, 0.132, -0.013, 2.5
 371431368, -2.294, 0.071, -0.005, 2.5, -2.108, 0.117, -0.011, 2.5
 371631288, -2.5, 0.038, -0.001, 2.5, -2.294, 0.071, -0.005, 2.5
 371831208, -2.705, 0.033, 0, 2.5, -2.5, 0.038, -0.001, 2.5
 372031128, -2.902, 0.033, 0, 2.5, -2.705, 0.033, 0, 2.5
 372231048, -3.103, 0.026, 0.001, 2.5, -2.902, 0.033, 0, 2.5
 372430968, -3.305, 0.009000001, 0.001, 2.5, -3.103, 0.026, 0.001, 2.5
 372630888, -3.505, -0.005, 0, 2.5, -3.305, 0.009000001, 0.001, 2.5
 372830808, -3.687, -0.014, -0.002, 2.5, -3.505, -0.005, 0, 2.5
 373030728, -3.867, -0.014, -0.001, 2.5, -3.687, -0.014, -0.002, 2.5
 373231481, -4.06, -0.016, 0, 2.5, -3.867, -0.014, -0.001, 2.5
 373431401, -4.258, -0.029, 0.001, 2.5, -4.06, -0.016, 0, 2.5
 373631321, -4.453, -0.036, 0.001, 2.5, -4.258, -0.029, 0.001, 2.5
 373831241, -4.644, -0.032, 0.001, 2.5, -4.453, -0.036, 0.001, 2.5
 374031161, -4.827, -0.016, 0.002, 2.5, -4.644, -0.032, 0.001, 2.5
 374231081, -5.01, 0.008, 0.004, 2.5, -4.827, -0.016, 0.002, 2.5
 374431001, -5.195, 0.025, 0.007, 2.5, -5.01, 0.008, 0.004, 2.5
 374630921, -5.379, 0.034, 0.008, 2.5, -5.195, 0.025, 0.007, 2.5
 374830841, -5.558, 0.044, 0.006, 2.5, -5.379, 0.034, 0.008, 2.5
 375030761, -5.73, 0.054, 0.003, 2.5, -5.558, 0.044, 0.006, 2.5
