TimeUS,CAN,CAE,CAD,CAe
 170358496, 0, 0, 0, 0
 170435965, -0.2779374, 3.648671, -0.1355995, 0.4422752
 170535925, 3.230327E-05, 0.003764784, -8.746939E-05, 0.0002593961
 170635885, -9.196042E-05, 0.003620589, -0.000155743, 0.0002593961
 170735845, -0.0001490453, 0.003538573, -8.372057E-05, 0.0002593961
 170835805, 7.754355E-05, 0.003602098, 8.444982E-06, 0.0002593961
 170935765, -0.0001850152, 0.003603106, -4.83248E-05, 0.0002593961
 171035725, 0.0001076078, 0.003614426, -0.0001027316, 0.0002593961
 171135685, 0.0001397468, 0.003419042, -0.0001212362, 0.0002593961
 171236478, 0.0002047534, 0.003706498, -0.0001214022, 0.0002615578
 171336438, -0.0001278995, 0.003629536, -0.0002058588, 0.0002593961
 171436398, -3.24012E-05, 0.003612758, -3.38979E-05, 0.0002593961
 171536358, -0.0001041126, 0.00346655, -0.0001391164, 0.0002593961
 171636318, 0.0001536617, 0.003798061, -0.0002230252, 0.0002593961
 171736278, -0.000103972, 0.003690439, -0.0001733968, 0.0002593961
 171836238, 4.142115E-05, 0.003692456, -4.198183E-05, 0.0002593961
 171936198, -0.0001442204, 0.003671915, 6.569737E-05, 0.0002593961
 172036158, 0.0001362938, 0.0039242, -0.0001339031, 0.0002593961
 172136118, 1.292333E-05, 0.003636318, -9.773278E-05, 0.0002593961
 172236078, 7.852731E-05, 0.003494243, -0.0001292224, 0.0002593961
 172336038, 0.0001565812, 0.003568418, -3.967485E-05, 0.0002593961
 172435998, 2.213966E-05, 0.003554153, -3.846179E-05, 0.0002593961
 172535958, 0.0002571524, 0.003667603, -5.513136E-05, 0.0002593961
 172635918, -5.083675E-05, 0.003541857, 9.492412E-06, 0.0002593961
 172735878, 0.0001089123, 0.003545725, 0.0001998662, 0.0002593961
 172835838, 8.238955E-05, 0.003673296, -5.306267E-06, 0.0002593961
 172935798, -0.0001023063, 0.003574743, -0.000106397, 0.0002593961
 173035758, -0.0003011669, 0.003528242, -0.0002537797, 0.0002593961
 173135718, -4.985535E-05, 0.003817727, -0.0001715725, 0.0002593961
 173235678, 4.634457E-05, 0.003479911, -7.639332E-05, 0.0002593961
 173336471, -4.138947E-05, 0.003570284, -9.320385E-05, 0.0002615578
 173436431, -0.0001076945, 0.00390496, -0.0001559587, 0.0002593961
 173536391, -0.0001368563, 0.00378743, -0.0001443023, 0.0002593961
 173636351, 0.0001328917, 0.003675061, -0.0001417868, 0.0002593961
 173736311, 3.930198E-05, 0.003528714, -4.058406E-05, 0.0002593961
 173836271, 5.384058E-05, 0.003612533, -0.000145774, 0.0002593961
 173936231, 4.51211E-05, 0.003606642, -0.0001437875, 0.0002593961
 174036191, -0.0001290642, 0.00358298, -0.0001502818, 0.0002593961
 174136151, -0.0001880528, 0.003550333, -0.0001692714, 0.0002593961
 174236111, -1.711383E-05, 0.003477397, -2.996318E-05, 0.0002593961
 174336071, -9.484302E-05, 0.003585899, 5.004191E-05, 0.0002593961
 174436031, -0.0001176056, 0.003646055, 0.0001442392, 0.0002593961
 174535991, -0.000226244, 0.003594888, -6.852866E-05, 0.0002593961
 174635951, 0.0001480198, 0.003625151, -9.015171E-05, 0.0002593961
 174735911, -0.0001641727, 0.003790901, 5.82736E-05, 0.0002593961
 174835871, 0.0001464201, 0.003492945, -5.440322E-05, 0.0002593961
 174935831, -2.387227E-05, 0.003508871, -4.205233E-06, 0.0002593961
 175035791, -9.00196E-05, 0.003592733, -0.0002750119, 0.0002593961
 175135751, -4.490687E-05, 0.003531019, 2.606422E-05, 0.0002593961
 175235711, -0.0002052367, 0.003625028, -0.0001550662, 0.0002593961
 175335671, -2.862027E-05, 0.003716128, 3.935312E-05, 0.0002593961
 175436464, -5.353168E-05, 0.003538288, -8.076296E-05, 0.0002615578
 175536424, 1.220148E-05, 0.003825695, -7.444979E-05, 0.0002593961
 175636384, 9.906688E-06, 0.003661491, -3.515148E-05, 0.0002593961
 175736344, 2.5211E-05, 0.003403168, -3.960693E-05, 0.0002593961
 175836304, 0.0001196278, 0.003701163, -6.29924E-05, 0.0002593961
 175936264, 6.204869E-05, 0.003813382, -0.000196712, 0.0002593961
 176036224, -8.770198E-05, 0.003597805, -0.0001451841, 0.0002593961
 176136184, -3.385801E-05, 0.003350438, -1.328891E-05, 0.0002593961
 176236144, -0.000108939, 0.003663029, 0.0001063398, 0.0002593961
 176336104, 3.101669E-05, 0.003341666, -0.0002561701, 0.0002593961
 176436064, 2.945908E-05, 0.003573877, -0.0002440406, 0.0002593961
 176536024, -5.506758E-05, 0.003738065, 2.794935E-05, 0.0002593961
 176635984, 0.0001311469, 0.003750718, -4.725473E-05, 0.0002593961
 176735944, 0.0002049178, 0.003485449, -4.847256E-05, 0.0002593961
 176835904, -4.988729E-05, 0.003581097, -7.441881E-05, 0.0002593961
 176935864, 6.456518E-06, 0.003693713, 4.748471E-05, 0.0002593961
 177035824, -5.131826E-05, 0.00374137, -8.611094E-05, 0.0002593961
 177135784, 0.0002259669, 0.003523448, -8.428181E-05, 0.0002593961
 177235744, 0.0001932923, 0.00374069, -4.549471E-05, 0.0002593961
 177335704, 7.691418E-05, 0.003615909, -0.000129195, 0.0002593961
 177435664, 5.152093E-05, 0.003622348, -0.0002048662, 0.0002593961
 177536457, 6.302978E-05, 0.003564052, -9.463181E-05, 0.0002615578
 177636417, 0.0001064186, 0.003413861, 0.0001667107, 0.0002593961
 177736377, 8.023645E-05, 0.003668216, -0.0001890094, 0.0002593961
 177836337, 0.0003177378, 0.00354849, 0.0001173325, 0.0002593961
 177936297, 7.598073E-05, 0.003561018, -0.0003452267, 0.0002593961
 178036257, -0.000103679, 0.003415656, -1.446385E-05, 0.0002593961
 178136217, 0.0001225253, 0.003721477, 7.067235E-05, 0.0002593961
 178236177, 2.404856E-05, 0.003509144, -8.184733E-05, 0.0002593961
 178336137, 8.621109E-05, 0.003601301, -7.25587E-05, 0.0002593961
 178436097, -0.0002227552, 0.003560322, -5.906247E-05, 0.0002593961
 178536057, 4.220864E-05, 0.003446431, -2.04815E-05, 0.0002593961
 178636017, -0.0002114915, 0.003698674, -4.096897E-05, 0.0002593961
 178735977, 4.332088E-05, 0.003578134, -0.0001504082, 0.0002593961
 178835937, 0.000188794, 0.00362775, -8.01338E-05, 0.0002593961
 178935897, 0.0001656589, 0.003645607, -6.201885E-05, 0.0002593961
 179035857, 9.364286E-05, 0.003526429, -7.852869E-05, 0.0002593961
 179135817, -0.0001438498, 0.003401991, -7.826417E-05, 0.0002593961
 179235777, 2.525705E-05, 0.003312584, -0.0001989034, 0.0002593961
 179335737, -7.78792E-05, 0.003343312, -0.0001842382, 0.0002593961
 179435697, -0.0001158914, 0.003447735, -0.0001601544, 0.0002593961
 179535657, -5.905326E-05, 0.003648711, -5.827598E-05, 0.0002593961
 179636450, 0.0001934209, 0.003655424, -0.0001361294, 0.0002615578
 179736410, 2.443058E-05, 0.00345841, -0.0001500912, 0.0002593961
 179836370, -8.205468E-05, 0.003659248, 6.766951E-05, 0.0002593961
 179936330, -0.000137004, 0.003591258, 0.0001104676, 0.0002593961
 180036290, -9.015878E-05, 0.003395883, -7.370383E-05, 0.0002593961
 180136250, 0.0001460983, 0.003689404, -5.343565E-05, 0.0002593961
 180236210, -0.0001133775, 0.003592907, -0.0001203699, 0.0002593961
 180336170, -0.0001233913, 0.003538313, -0.000327412, 0.0002593961
 180436130, 7.88852E-05, 0.003615435, -5.418159E-05, 0.0002593961
 180536090, -3.111248E-06, 0.003626631, -0.0001474649, 0.0002593961
 180636050, -6.22974E-05, 0.003630677, -3.961529E-05, 0.0002593961
 180736010, -1.276644E-05, 0.003468819, -0.0001695872, 0.0002593961
 180835970, -3.324123E-05, 0.003385946, -9.319628E-05, 0.0002593961
 180935930, -3.396702E-05, 0.003443206, 3.928753E-06, 0.0002593961
 181035890, -5.831724E-05, 0.003539626, -0.0002129799, 0.0002593961
 181135850, -0.0001657475, 0.003416084, -9.291984E-05, 0.0002593961
 181235810, 8.119362E-05, 0.003683998, -0.0001281607, 0.0002593961
 181335770, -7.443505E-05, 0.003421341, 6.252171E-05, 0.0002593961
 181435730, -0.0001672524, 0.003462218, -0.0001688151, 0.0002593961
 181535690, 5.447938E-05, 0.003482953, -1.389543E-05, 0.0002593961
 181636483, 0.0001951753, 0.003426766, 0.000144122, 0.0002615578
 181736443, -2.556947E-05, 0.003620475, 8.576657E-05, 0.0002593961
 181836403, 6.435935E-05, 0.003707823, -0.0002039773, 0.0002593961
 181936363, 6.559202E-05, 0.003587322, -0.0002820043, 0.0002593961
 182036323, 0.0002269933, 0.003789244, 1.893955E-05, 0.0002593961
 182136283, 0.0001554445, 0.003688715, -8.164239E-05, 0.0002593961
 182236243, 0.0001461525, 0.003524437, 9.948209E-05, 0.0002593961
 182336203, -0.0001245887, 0.003633107, 2.550058E-05, 0.0002593961
 182436163, -0.0002715191, 0.003465252, -7.553177E-05, 0.0002593961
 182536123, -2.276776E-05, 0.003667949, -7.291505E-06, 0.0002593961
 182636083, 0.0001846482, 0.003548799, -5.122995E-05, 0.0002593961
 182736043, -0.0002371229, 0.003651948, 0.0001052876, 0.0002593961
 182836003, 0.0001468512, 0.003735897, 0.0001038613, 0.0002593961
 182935963, 9.781851E-05, 0.003730548, 9.688552E-05, 0.0002593961
 183035923, 2.166667E-05, 0.00355935, -0.0001034537, 0.0002593961
 183135883, 5.509743E-05, 0.00349177, -0.0001060884, 0.0002593961
 183235843, 3.32485E-05, 0.00369985, 0.0001155117, 0.0002593961
 183335803, -0.000171741, 0.003620864, 5.403622E-05, 0.0002593961
 183435763, -0.0001000354, 0.003342571, -6.850957E-05, 0.0002593961
 183535723, -7.483945E-05, 0.003772803, -2.094147E-05, 0.0002593961
 183635683, 0.0001125189, 0.003570796, -2.727371E-05, 0.0002593961
 183736476, -0.0001327328, 0.0037318, 5.100673E-05, 0.0002615578
 183836436, -5.567123E-05, 0.003514121, -0.0002703288, 0.0002593961
 183936396, -0.0002144649, 0.00352004, -0.000250803, 0.0002593961
 184036356, 3.490151E-05, 0.003467235, 3.827473E-06, 0.0002593961
 184136316, -0.0001351325, 0.003559374, -8.180205E-05, 0.0002593961
 184236276, 0.0001057232, 0.003650654, -0.0001427127, 0.0002593961
 184336236, 2.277383E-05, 0.00360101, -0.0001295489, 0.0002593961
 184436196, -1.900383E-05, 0.003618781, -5.463558E-06, 0.0002593961
 184536156, 2.491696E-05, 0.003777727, -5.309603E-05, 0.0002593961
 184636116, -2.711942E-05, 0.003552887, 6.433416E-05, 0.0002593961
 184736076, -2.245555E-05, 0.003493545, -0.0001296025, 0.0002593961
 184836036, -9.736414E-05, 0.003477303, -5.153742E-06, 0.0002593961
 184935996, 8.455383E-05, 0.003455166, 0.0002523664, 0.0002593961
 185035956, 6.147701E-05, 0.003742137, -0.0002020397, 0.0002593961
 185135916, 2.989698E-05, 0.003770533, -0.0002964491, 0.0002593961
 185235876, -0.0001740756, 0.003708877, -0.0001120477, 0.0002593961
 185335836, -4.084242E-05, 0.003734492, 9.676162E-05, 0.0002593961
 185435796, -2.569453E-05, 0.003526832, 1.625364E-05, 0.0002593961
 185535756, -4.52791E-05, 0.003415533, -3.776233E-06, 0.0002593961
 185635716, 3.403535E-05, 0.003584317, -0.0004090341, 0.0002593961
 185735676, -6.360316E-06, 0.003792252, -0.0001271561, 0.0002593961
 185836469, 4.18995E-05, 0.003425165, -0.0001666419, 0.0002615578
 185936429, 0.0001889816, 0.003612778, -0.0001852165, 0.0002593961
 186036389, -9.56592E-05, 0.003502828, -0.0002670411, 0.0002593961
 186136349, 0.0001639802, 0.003460025, -4.554359E-06, 0.0002593961
 186236309, 9.944073E-05, 0.003540655, 1.715212E-05, 0.0002593961
 186336269, -1.068191E-05, 0.00376066, -6.772669E-05, 0.0002593961
 186436229, -0.0001174836, 0.003790101, -0.0002043872, 0.0002593961
 186536189, -0.0001135584, 0.003718674, -0.0002649797, 0.0002593961
 186636149, 0.0001539866, 0.00372461, -0.0001642845, 0.0002593961
 186736109, 0.0003818882, 0.003817854, -7.50039E-05, 0.0002593961
 186836069, -0.0001215191, 0.00386971, 0.000169275, 0.0002593961
 186936029, -7.331157E-05, 0.003527605, -0.0001062397, 0.0002593961
 187035989, 5.493177E-05, 0.00354962, -0.0001596623, 0.0002593961
 187135949, 7.322566E-05, 0.003666444, -6.549003E-05, 0.0002593961
 187235909, 6.97162E-06, 0.003620896, 3.245606E-05, 0.0002593961
 187335869, -1.51724E-05, 0.003699514, -7.678058E-05, 0.0002593961
 187435829, -1.368932E-05, 0.003768125, -8.839286E-05, 0.0002593961
 187535789, -5.183788E-05, 0.003606437, -0.000107597, 0.0002593961
 187635749, -0.0001023503, 0.003620455, -0.00016272, 0.0002593961
 187735709, -5.380149E-05, 0.003491216, 4.006809E-05, 0.0002593961
 187835669, 4.024507E-05, 0.003953715, -0.0001145286, 0.0002593961
 187936462, -3.13523E-05, 0.00353049, -3.568374E-05, 0.0002615578
 188036422, 0.000182208, 0.003576197, 3.684835E-05, 0.0002593961
 188136382, 0.0001027603, 0.003742379, -3.793629E-05, 0.0002593961
 188236342, 0.0002006895, 0.003533136, 2.819363E-05, 0.0002593961
 188336302, -5.303649E-05, 0.00361018, 5.595473E-05, 0.0002593961
 188436262, 0.0001876268, 0.003748235, 6.551743E-05, 0.0002593961
 188536222, -6.595568E-05, 0.003558578, 5.626692E-05, 0.0002593961
 188636182, 5.347309E-06, 0.0035306, -0.0001422575, 0.0002593961
 188736142, -2.320428E-05, 0.003765381, -1.207105E-05, 0.0002593961
 188836102, -5.948339E-05, 0.003673272, 0.0001508204, 0.0002593961
 188936062, 0.0001035108, 0.003675927, -0.0002334579, 0.0002593961
 189036022, 4.195893E-05, 0.003482, -3.947824E-05, 0.0002593961
 189135982, 0.0001512248, 0.003557401, 0.0001382787, 0.0002593961
 189235942, 1.517014E-05, 0.003590844, -0.0001457013, 0.0002593961
 189335902, 0.0001019385, 0.003542988, -0.0001639294, 0.0002593961
 189435862, 5.153456E-05, 0.003569992, 2.648246E-05, 0.0002593961
 189535822, 0.000101788, 0.003615242, -6.332843E-05, 0.0002593961
 189635782, -6.59326E-05, 0.003531428, -0.0001666451, 0.0002593961
 189735742, 3.831121E-05, 0.003673029, -0.000346566, 0.0002593961
 189835702, 0.0001601313, 0.003591364, -0.0002254895, 0.0002593961
 189935662, 2.195344E-06, 0.003397035, -0.0002570637, 0.0002593961
 190036455, -0.0001255386, 0.003528846, -8.506351E-05, 0.0002615578
 190136415, 0.0001156083, 0.003633473, -0.0001168987, 0.0002593961
 190236375, 0.0001022037, 0.003454825, 1.26919E-05, 0.0002593961
 190336335, -1.566819E-05, 0.003624673, -2.288022E-05, 0.0002593961
 190436295, 0.0001305806, 0.003563139, -0.000117765, 0.0002593961
 190536255, -5.57716E-05, 0.003729411, -0.0001135837, 0.0002593961
 190636215, 5.6894E-05, 0.003634789, 5.139797E-05, 0.0002593961
 190736175, -7.029231E-05, 0.003684365, -0.0001324672, 0.0002593961
 190836135, 8.171834E-05, 0.003682501, -4.952475E-05, 0.0002593961
 190936095, -0.0001229808, 0.003268717, -1.00489E-05, 0.0002593961
 191036055, -5.526975E-05, 0.003572962, -0.0002047137, 0.0002593961
 191136015, -0.0001400875, 0.003546004, -1.857371E-05, 0.0002593961
 191235975, 0.0002404668, 0.003528241, 4.14468E-05, 0.0002593961
 191335935, 9.529578E-05, 0.003595634, 6.804245E-05, 0.0002593961
 191435895, -0.0001765047, 0.003469061, -0.0002759199, 0.0002593961
 191535855, -2.474339E-05, 0.003561169, -0.0001816094, 0.0002593961
 191635815, -9.503685E-05, 0.003581251, -5.629193E-05, 0.0002593961
 191735775, 5.498571E-05, 0.003529586, 0.0001114566, 0.0002593961
 191835735, -6.20659E-05, 0.003578184, -1.539092E-05, 0.0002593961
 191935695, 9.946658E-05, 0.003548665, 9.325946E-05, 0.0002593961
 192035655, -3.182833E-05, 0.003707256, -3.721537E-05, 0.0002593961
 192136448, -9.023964E-05, 0.003620118, 1.115313E-05, 0.0002615578
 192236408, -5.467304E-05, 0.003540873, -0.0001859922, 0.0002593961
 192336368, 2.974704E-05, 0.003686621, -8.105135E-05, 0.0002593961
 192436328, 0.0001766664, 0.003678406, 5.054002E-05, 0.0002593961
 192536288, 2.893967E-05, 0.003600738, 0.0002299831, 0.0002593961
 192636248, -2.814689E-05, 0.003877699, -8.797105E-05, 0.0002593961
 192736208, -0.0002178504, 0.003601384, -0.0001841464, 0.0002593961
 192836168, -9.223014E-05, 0.003593255, 4.78124E-05, 0.0002593961
 192936128, 0.0001034496, 0.003782214, -2.176725E-05, 0.0002593961
 193036088, 5.71294E-05, 0.003648751, 8.55068E-05, 0.0002593961
 193136048, -0.0001864858, 0.003461184, -5.909937E-05, 0.0002593961
 193236008, 0.0001159282, 0.003535429, -9.241936E-05, 0.0002593961
 193335968, 4.537634E-05, 0.003781717, -0.0002115512, 0.0002593961
 193435928, 9.752342E-05, 0.003642794, -0.0001955156, 0.0002593961
 193535888, -9.214129E-06, 0.003577108, -0.0001440115, 0.0002593961
 193635848, -1.455043E-05, 0.003641191, -1.227125E-05, 0.0002593961
 193735808, -1.725655E-05, 0.003739413, -9.563194E-05, 0.0002593961
 193835768, -2.241924E-05, 0.003400417, 6.622764E-05, 0.0002593961
 193935728, 9.749857E-05, 0.00335254, -0.000159238, 0.0002593961
 194035688, 1.474622E-05, 0.003573458, -0.0002158386, 0.0002593961
 194136481, -0.0002227505, 0.003706651, 4.953866E-05, 0.0002615578
 194236441, 0.0002014102, 0.003392361, -5.043277E-05, 0.0002593961
 194336401, 0.0001398607, 0.00356687, 0.0001571134, 0.0002593961
 194436361, 3.772632E-05, 0.00361949, -0.000108381, 0.0002593961
 194536321, 3.112274E-05, 0.003749825, 5.263368E-05, 0.0002593961
 194636281, -1.126391E-05, 0.003598879, -8.567479E-05, 0.0002593961
 194736241, 0.0001587083, 0.003663996, -0.0001083489, 0.0002593961
 194836201, -9.014484E-05, 0.003459488, -0.0001365365, 0.0002593961
 194936161, -0.0001543125, 0.003573562, 5.294707E-05, 0.0002593961
 195036121, 9.001785E-05, 0.003607689, -9.381231E-05, 0.0002593961
 195136081, -2.66025E-06, 0.00347173, -0.0003302349, 0.0002593961
 195236041, -0.0002157724, 0.00351993, -4.676853E-05, 0.0002593961
 195336001, 0.000153649, 0.003474303, -7.570929E-05, 0.0002593961
 195435961, 3.822555E-05, 0.00359963, -0.0001271919, 0.0002593961
 195535921, 7.857322E-05, 0.00359605, -0.0001378747, 0.0002593961
 195635881, 6.119948E-05, 0.00360301, -2.219982E-06, 0.0002593961
 195735841, 0.0002213966, 0.003346138, -0.0002278668, 0.0002593961
 195835801, 1.909617E-05, 0.003540989, 0.0001693048, 0.0002593961
 195935761, 0.0001863976, 0.003557877, -5.615134E-05, 0.0002593961
 196035721, 0.0001296839, 0.003581381, 7.580823E-05, 0.0002593961
 196135681, -2.18325E-05, 0.00344327, 1.990118E-05, 0.0002593961
 196236474, -0.0002532572, 0.003527023, -8.793531E-05, 0.0002615578
 196336434, 2.741909E-05, 0.003648622, -0.0001281547, 0.0002593961
 196436394, 0.0001283662, 0.003519213, -0.0001199981, 0.0002593961
 196536354, 6.742913E-05, 0.003458268, -3.097725E-05, 0.0002593961
 196636314, -0.00020087, 0.003515293, -6.505625E-05, 0.0002593961
 196736274, -3.080125E-05, 0.003437855, -0.0001108048, 0.0002593961
 196836234, 4.206951E-05, 0.003277968, -3.152659E-05, 0.0002593961
 196936194, -0.0001878852, 0.003508847, -2.112735E-05, 0.0002593961
 197036154, -0.0001267613, 0.003374108, 6.20403E-05, 0.0002593961
 197136114, 2.04682E-05, 0.003720043, -7.197002E-05, 0.0002593961
 197236074, 0.0002728206, 0.003544779, -6.624789E-05, 0.0002593961
 197336034, 0.000113283, 0.003517258, -8.785667E-05, 0.0002593961
 197435994, -7.494443E-05, 0.003600787, -0.0001030045, 0.0002593961
 197535954, -5.837972E-05, 0.003350612, -0.0001706251, 0.0002593961
 197635914, -1.008786E-05, 0.003553095, -0.0001733527, 0.0002593961
 197735874, 0.0002961971, 0.003617446, -0.000115613, 0.0002593961
 197835834, 0.0001911784, 0.003659843, -0.0001498076, 0.0002593961
 197935794, 0.000193003, 0.003652001, -0.0001525125, 0.0002593961
 198035754, 0.0001634455, 0.003604404, -0.0002912786, 0.0002593961
 198135714, 4.361989E-05, 0.003746072, -4.234645E-05, 0.0002593961
 198235674, 0.0002295892, 0.003588191, 2.846176E-05, 0.0002593961
 198336467, -2.617291E-05, 0.003515518, -9.791469E-05, 0.0002615578
 198436427, -7.939371E-05, 0.003635859, -5.744304E-05, 0.0002593961
 198536387, -0.0001243365, 0.003614489, 2.440434E-06, 0.0002593961
 198636347, 6.645334E-05, 0.003503718, -0.0001382096, 0.0002593961
 198736307, 0.0001217686, 0.003475613, 0.0002173961, 0.0002593961
 198836267, 0.0001489839, 0.003537289, -0.0001661911, 0.0002593961
 198936227, 0.0002270439, 0.003697844, -0.0001177519, 0.0002593961
 199036187, -8.604588E-05, 0.003857955, -2.655038E-05, 0.0002593961
 199136147, -7.419439E-05, 0.003376664, -0.0001240329, 0.0002593961
 199236107, -5.165916E-05, 0.003577658, 1.519073E-05, 0.0002593961
 199336067, -0.0001559663, 0.003419489, -1.110228E-05, 0.0002593961
 199436027, 0.0002002286, 0.003584455, -0.0001612078, 0.0002593961
 199535987, -8.11096E-05, 0.003542826, 1.275029E-05, 0.0002593961
 199635947, 8.982684E-05, 0.003367378, 6.186874E-06, 0.0002593961
 199735907, -3.182613E-06, 0.003599359, 7.929017E-06, 0.0002593961
 199835867, -0.0002410314, 0.003864089, -0.0001296895, 0.0002593961
 199935827, -0.000112266, 0.003515836, -5.375142E-05, 0.0002593961
 200035787, 0.0002022172, 0.003480359, 4.307216E-05, 0.0002593961
 200135747, -1.764185E-05, 0.003477175, 8.679375E-05, 0.0002593961
 200235707, 0.0002594422, 0.003431329, 0.0001038243, 0.0002593961
 200335667, -0.0001821936, 0.003493718, -0.0003649516, 0.0002593961
 200436460, 0.000168306, 0.003537442, -0.0001846969, 0.0002615578
 200536420, -7.576583E-05, 0.003707049, -0.0001506644, 0.0002593961
 200636380, -0.0001822175, 0.003629659, -5.859415E-05, 0.0002593961
 200736340, 8.196234E-05, 0.003513199, 0.0001264746, 0.0002593961
 200836300, 9.715233E-05, 0.003425038, -7.925678E-05, 0.0002593961
 200936260, -5.832233E-05, 0.003523223, 8.506828E-05, 0.0002593961
 201036220, 0.0001753273, 0.003599383, 2.753705E-05, 0.0002593961
 201136180, -7.684575E-05, 0.003479217, -0.0001739652, 0.0002593961
 201236140, -5.960859E-05, 0.003363597, 1.350816E-05, 0.0002593961
 201336100, -0.0002182007, 0.003482457, 8.047224E-05, 0.0002593961
 201436060, -0.0001592293, 0.003552466, -8.515764E-05, 0.0002593961
 201536020, 5.534678E-05, 0.003471033, -9.001824E-05, 0.0002593961
 201635980, 6.279693E-05, 0.003368442, 0.0001605857, 0.0002593961
 201735940, -7.482462E-05, 0.003490433, -8.882779E-05, 0.0002593961
 201835900, -0.0001569887, 0.003571896, -2.221172E-06, 0.0002593961
 201935860, 1.65624E-05, 0.003585183, -8.182708E-05, 0.0002593961
 202035820, 0.0001613521, 0.003503057, -0.0001333073, 0.0002593961
 202135780, 6.656529E-05, 0.003678252, 9.240743E-05, 0.0002593961
 202235740, -5.347051E-07, 0.003522955, -0.0002722199, 0.0002593961
 202335700, 0.0001909466, 0.003606649, -7.876344E-05, 0.0002593961
 202435660, -1.273913E-05, 0.003407586, -0.0001919848, 0.0002593961
 202536453, 0.000230965, 0.003544879, -5.201838E-05, 0.0002615578
 202636413, 9.976009E-05, 0.003430042, 1.063635E-05, 0.0002593961
 202736373, 6.411978E-05, 0.003640858, -7.361804E-05, 0.0002593961
 202836333, 0.0001069497, 0.003477323, -7.773149E-05, 0.0002593961
 202936293, -3.84636E-05, 0.003513066, -0.0002287402, 0.0002593961
 203036253, 0.0001363271, 0.003718439, 7.333681E-05, 0.0002593961
 203136213, 8.067519E-05, 0.003549011, -8.808902E-05, 0.0002593961
 203236173, -0.000170222, 0.003614962, -0.000259764, 0.0002593961
 203336133, -6.527915E-05, 0.003590741, -0.0001419942, 0.0002593961
 203436093, 0.0001748695, 0.003329266, 4.081641E-05, 0.0002593961
 203536053, -0.0001816733, 0.003743446, 0.0001890273, 0.0002593961
 203636013, 0.0002503343, 0.003589583, 2.740121E-05, 0.0002593961
 203735973, 3.158879E-05, 0.00369881, -0.0001117319, 0.0002593961
 203835933, 8.141199E-06, 0.003705562, -2.074128E-05, 0.0002593961
 203935893, 0.0001476393, 0.003736237, -5.718447E-05, 0.0002593961
 204035853, 9.654203E-05, 0.003504329, -0.0001353318, 0.0002593961
 204135813, -1.618357E-05, 0.003516212, 2.105109E-05, 0.0002593961
 204235773, 9.446132E-05, 0.003660206, -0.000158075, 0.0002593961
 204335733, 8.462399E-05, 0.003670454, -0.0002383482, 0.0002593961
 204435693, 1.629076E-05, 0.003471908, -7.961784E-05, 0.0002593961
 204536486, 1.847958E-05, 0.003515979, 8.557952E-05, 0.0002593961
 204636446, 4.272677E-05, 0.003547637, 0.0001485035, 0.0002615578
 204736406, 0.0001328169, 0.003386544, 0.0001340044, 0.0002593961
 204836366, 6.143699E-05, 0.003369761, 3.350586E-05, 0.0002593961
 204936326, 3.684097E-05, 0.003526065, -0.0001152853, 0.0002593961
 205036286, -7.08423E-05, 0.003688795, -0.0002732114, 0.0002593961
 205136246, -3.37001E-05, 0.00356866, -1.423981E-05, 0.0002593961
 205236206, 2.262082E-05, 0.003551915, -0.0001630214, 0.0002593961
 205336166, -3.420814E-05, 0.003413168, 4.573422E-05, 0.0002593961
 205436126, 0.0001194381, 0.003435922, 2.010494E-05, 0.0002593961
 205536086, 0.0002284311, 0.003697291, -0.0001462447, 0.0002593961
 205636046, 6.28719E-05, 0.003568886, -0.0001090448, 0.0002593961
 205736006, -3.870458E-05, 0.003425238, -9.817128E-05, 0.0002593961
 205835966, -9.924049E-05, 0.003734007, -5.933054E-06, 0.0002593961
 205935926, 0.0001912497, 0.003519015, -0.000129108, 0.0002593961
 206035886, -4.578296E-05, 0.003442871, -0.0002078488, 0.0002593961
 206135846, 0.0003096318, 0.003462573, -0.0001105581, 0.0002593961
 206235806, -7.388066E-05, 0.003476357, -3.113216E-05, 0.0002593961
 206335766, 0.0001246093, 0.003400443, 1.263828E-05, 0.0002593961
 206435726, 0.0001086319, 0.003433201, 4.493465E-05, 0.0002593961
 206535686, 5.972938E-05, 0.003437528, -0.0001024742, 0.0002593961
 206636479, 2.827322E-05, 0.003697566, 5.01476E-05, 0.0002615578
 206736439, 0.0001649365, 0.003588177, -7.622767E-06, 0.0002593961
 206836399, -0.0001330421, 0.003700956, 1.757396E-05, 0.0002593961
 206936359, -0.0001378071, 0.00326633, -5.480362E-05, 0.0002593961
 207036319, 0.0001001503, 0.003663545, -0.0002559746, 0.0002593961
 207136279, 5.509028E-05, 0.003655946, -5.179716E-05, 0.0002593961
 207236239, 0.0001016923, 0.003391815, 2.49846E-05, 0.0002593961
 207336199, 1.576734E-05, 0.003438977, -3.450205E-05, 0.0002593961
 207436159, -0.0001292508, 0.003450394, 8.641361E-05, 0.0002593961
 207536119, 0.0001699398, 0.003368913, -0.0002513464, 0.0002593961
 207636079, 4.438879E-05, 0.003654205, 5.384674E-05, 0.0002593961
 207736039, -3.971345E-05, 0.003432111, -9.120631E-06, 0.0002593961
 207835999, 6.767798E-06, 0.0033926, 5.579623E-05, 0.0002593961
 207935959, 5.797749E-05, 0.00370825, -0.0001763914, 0.0002593961
 208035919, -0.0001424162, 0.003733836, 0.0001073098, 0.0002593961
 208135879, 3.040223E-05, 0.00349158, 7.221552E-05, 0.0002593961
 208235839, 0.0002123437, 0.0036255, -0.0001279295, 0.0002593961
 208335799, -0.0001537999, 0.00359075, 0.0002474069, 0.0002593961
 208435759, 1.183789E-05, 0.003539553, -9.003495E-05, 0.0002593961
 208535719, 0.000116146, 0.003635586, -0.0001196478, 0.0002593961
 208635679, -2.104602E-05, 0.003662314, -0.0001402842, 0.0002593961
 208736472, -3.116115E-05, 0.003780295, 6.418848E-06, 0.0002615578
 208836432, 0.0001640108, 0.003653218, -5.142776E-05, 0.0002593961
 208936392, 0.0001071675, 0.003646485, -0.0001247443, 0.0002593961
 209036352, 0.0002204552, 0.003450903, 0.000250903, 0.0002593961
 209136312, 0.0001364709, 0.00356237, -1.647765E-05, 0.0002593961
 209236272, 5.069444E-07, 0.003551631, 3.09272E-05, 0.0002593961
 209336232, 9.404468E-05, 0.003760918, -2.173389E-05, 0.0002593961
 209436192, -4.396287E-05, 0.00338996, -0.0001041973, 0.0002593961
 209536152, -0.0002091677, 0.00348587, -4.297206E-05, 0.0002593961
 209636112, 2.59188E-05, 0.003580511, 0.0001276125, 0.0002593961
 209736072, -5.674508E-05, 0.003424517, -9.490625E-05, 0.0002593961
 209836032, -7.468525E-05, 0.003759662, 5.144089E-05, 0.0002593961
 209935992, 7.639794E-05, 0.003496742, 0.0001022395, 0.0002593961
 210035952, 8.684039E-05, 0.003636141, -3.527303E-05, 0.0002593961
 210135912, -0.0001478647, 0.003528987, 1.29612E-05, 0.0002593961
 210235872, -4.948321E-05, 0.003596022, 0.0001915928, 0.0002593961
 210335832, 4.728352E-05, 0.003604195, -0.0001447075, 0.0002593961
 210435792, 1.512212E-05, 0.003516495, 6.408155E-05, 0.0002593961
 210535752, -0.0001206946, 0.003217609, 9.878493E-07, 0.0002593961
 210635712, 7.800074E-05, 0.003407322, -4.159693E-05, 0.0002593961
 210735672, -0.0001099321, 0.003529185, 0.0001198921, 0.0002593961
 210836465, 3.299078E-05, 0.003710144, -7.797142E-06, 0.0002615578
 210936425, -6.561859E-05, 0.003638259, 2.157302E-05, 0.0002593961
 211036385, 0.0001902039, 0.003595542, -8.61061E-06, 0.0002593961
 211136345, -4.233773E-06, 0.003339635, -1.765737E-05, 0.0002593961
 211236305, -2.231583E-05, 0.003480926, -0.0002890062, 0.0002593961
 211336265, -0.00016912, 0.003494509, -0.0002024544, 0.0002593961
 211436225, -9.556804E-05, 0.003689603, 1.158251E-05, 0.0002593961
 211536185, -3.907823E-05, 0.003416919, -0.0003972908, 0.0002593961
 211636145, -5.676788E-05, 0.00353201, -3.620726E-05, 0.0002593961
 211736105, -0.0001893956, 0.003502598, 4.139914E-05, 0.0002593961
 211836065, -0.0001748617, 0.003514475, -8.864312E-05, 0.0002593961
 211936025, 9.40426E-05, 0.003647387, 7.83273E-05, 0.0002593961
 212035985, 4.115049E-05, 0.003636328, -0.000107025, 0.0002593961
 212135945, 8.821797E-05, 0.003365164, -6.473216E-05, 0.0002593961
 212235905, 1.515898E-06, 0.003586978, 0.0001723267, 0.0002593961
 212335865, -1.763962E-05, 0.003582567, 1.337709E-05, 0.0002593961
 212435825, 0.000161166, 0.003319507, -0.0001416367, 0.0002593961
 212535785, -2.784216E-05, 0.003596169, 9.097037E-05, 0.0002593961
 212635745, 8.607922E-05, 0.003430521, -4.049106E-06, 0.0002593961
 212735705, -0.0001168656, 0.003439558, -5.945806E-05, 0.0002593961
 212835665, -0.0002109258, 0.003451099, -6.982989E-05, 0.0002593961
 212936458, 0.0001079474, 0.00347202, -0.000210406, 0.0002615578
 213036418, -9.84671E-05, 0.003477426, -0.0002527156, 0.0002593961
 213136378, 0.0001487243, 0.003627488, 8.07582E-05, 0.0002593961
 213236338, -1.289931E-05, 0.003655001, 0.0001266426, 0.0002593961
 213336298, 3.146762E-05, 0.003496052, -2.676608E-05, 0.0002593961
 213436258, 1.775141E-05, 0.003545175, -6.35477E-05, 0.0002593961
 213536218, -1.154817E-05, 0.003554477, -6.398263E-05, 0.0002593961
 213636178, 2.800207E-05, 0.003376875, -0.0001773959, 0.0002593961
 213736138, -9.352829E-05, 0.003564898, -4.036243E-05, 0.0002593961
 213836098, 6.537356E-05, 0.003438141, -7.150294E-05, 0.0002593961
 213936058, 0.0001038282, 0.00360327, -7.256466E-05, 0.0002593961
 214036018, 0.0002231937, 0.003723782, 6.470594E-05, 0.0002593961
 214135978, 2.05843E-05, 0.003711188, -2.590335E-05, 0.0002593961
 214235938, 4.563005E-05, 0.003525057, -1.724984E-05, 0.0002593961
 214335898, 0.000452498, 0.003512142, 8.175559E-05, 0.0002593961
 214435858, 8.943091E-05, 0.003550339, -3.508714E-05, 0.0002593961
 214535818, 0.0001536128, 0.003637621, -0.00018142, 0.0002593961
 214635778, 6.851585E-05, 0.003635783, -9.19451E-05, 0.0002593961
 214735738, 4.227685E-05, 0.003792967, -1.397527E-05, 0.0002593961
 214835698, 0.0001047592, 0.003714973, -7.819743E-05, 0.0002593961
 214935658, 4.39878E-06, 0.003578872, -0.0003351397, 0.0002593961
 215036451, 7.294811E-05, 0.003568381, -0.0002026136, 0.0002615578
 215136411, -0.0001099432, 0.003716695, -2.594148E-05, 0.0002593961
 215236371, -7.761842E-06, 0.00371453, -8.049372E-06, 0.0002593961
 215336331, -5.324516E-05, 0.003519422, -4.692593E-06, 0.0002593961
 215436291, 0.0001106365, 0.003296455, 1.737735E-05, 0.0002593961
 215536251, -4.012828E-05, 0.003594398, -8.786618E-05, 0.0002593961
 215636211, 1.259301E-05, 0.003487505, 2.40778E-05, 0.0002593961
 215736171, 0.0002623125, 0.003421021, -0.0001285349, 0.0002593961
 215836131, 0.0001571121, 0.003408614, 0.0001101172, 0.0002593961
 215936091, 0.0001181259, 0.003415536, -6.098929E-05, 0.0002593961
 216036051, 6.215851E-06, 0.003422618, -5.816268E-06, 0.0002593961
 216136011, -1.073597E-06, 0.003544419, -7.591546E-05, 0.0002593961
 216235971, 7.038328E-05, 0.003393878, 8.248247E-05, 0.0002593961
 216335931, 0.0002244648, 0.00328425, -0.0002083791, 0.0002593961
 216435891, 0.000121155, 0.003722501, -0.0001115722, 0.0002593961
 216535851, -8.106936E-05, 0.003453334, -0.0001127793, 0.0002593961
 216635811, -9.946115E-05, 0.003460027, 8.61455E-05, 0.0002593961
 216735771, -0.0002362457, 0.003496761, -0.0002023996, 0.0002593961
 216835731, 3.880112E-05, 0.003366132, -0.0002588047, 0.0002593961
 216935691, 1.038694E-06, 0.003495013, -0.00028199, 0.0002593961
 217036484, 6.706918E-05, 0.003474519, -0.0002479645, 0.0002615578
 217136444, 2.108349E-05, 0.003423765, -8.423533E-05, 0.0002593961
 217236404, 0.0001510391, 0.003538899, 0.0001641249, 0.0002593961
 217336364, 1.417332E-05, 0.003451197, 5.90827E-05, 0.0002593961
 217436324, 2.497991E-05, 0.00345906, -0.0002043646, 0.0002593961
 217536284, -0.0001987858, 0.003507893, 2.40361E-05, 0.0002593961
 217636244, -0.0001301005, 0.003453958, -0.0001210408, 0.0002593961
 217736204, -0.0001105594, 0.003690371, 8.99956E-05, 0.0002593961
 217836164, -0.0001534973, 0.003651936, -3.171844E-05, 0.0002593961
 217936124, 9.315966E-05, 0.003523812, -0.0001949829, 0.0002593961
 218036084, -7.663263E-05, 0.003556031, -3.193293E-05, 0.0002593961
 218136044, -4.843955E-05, 0.003505558, -2.173627E-05, 0.0002593961
 218236004, 5.307473E-05, 0.003460628, -7.475603E-05, 0.0002593961
 218335964, 2.642443E-05, 0.003696479, 2.298628E-05, 0.0002593961
 218435924, 0.0002019201, 0.003556802, -0.0001561112, 0.0002593961
 218535884, 3.029414E-05, 0.003522204, -0.0003301456, 0.0002593961
 218635844, -6.151437E-05, 0.003544742, -7.722863E-06, 0.0002593961
 218735804, 5.82212E-05, 0.003573233, -8.646963E-05, 0.0002593961
 218835764, 7.313107E-05, 0.003613417, -0.0001942716, 0.0002593961
 218935724, -4.749102E-05, 0.003676833, 2.376439E-05, 0.0002593961
 219035684, -4.681361E-05, 0.003573827, -0.0001686101, 0.0002593961
 219136477, 0.0002096962, 0.003919141, -0.000158222, 0.0002615578
 219236437, 7.124081E-05, 0.003611733, -7.375507E-05, 0.0002593961
 219336397, 5.544747E-05, 0.003480119, 0.0001181392, 0.0002593961
 219436357, 0.0002157778, 0.003588755, -0.000156719, 0.0002593961
 219536317, 3.760439E-05, 0.003491503, -0.0003679854, 0.0002593961
 219636277, -6.00022E-05, 0.003430316, 4.99311E-05, 0.0002593961
 219736237, -4.951842E-06, 0.003687827, -0.000149555, 0.0002593961
 219836197, 0.0001082861, 0.003554392, -2.017645E-05, 0.0002593961
 219936157, -1.448909E-05, 0.003488018, -0.0002042633, 0.0002593961
 220036117, 5.606767E-05, 0.00367428, 8.141111E-06, 0.0002593961
 220136077, 0.000115208, 0.003584985, -0.0001500602, 0.0002593961
 220236037, 8.785863E-06, 0.003236679, -4.615247E-05, 0.0002593961
 220335997, -7.151432E-05, 0.00351578, 2.891455E-05, 0.0002593961
 220435957, 5.125464E-05, 0.003618669, -1.862972E-05, 0.0002593961
 220535917, -2.319666E-05, 0.003500292, -4.172205E-05, 0.0002593961
 220635877, -6.905087E-05, 0.003775844, -8.140524E-05, 0.0002593961
 220735837, 6.484758E-05, 0.003523335, 0.0001180617, 0.0002593961
 220835797, -0.000164964, 0.003773402, -2.737857E-05, 0.0002593961
 220935757, 5.993159E-05, 0.003630881, -0.0002543898, 0.0002593961
 221035717, 4.572247E-05, 0.003551693, 5.386819E-05, 0.0002593961
 221135677, 0.0002401131, 0.003529554, -2.181613E-05, 0.0002593961
 221236470, -1.878665E-05, 0.003502182, -0.0002906641, 0.0002615578
 221336430, -0.0001357332, 0.003515391, -0.0002878765, 0.0002593961
 221436390, 0.0001024933, 0.003643631, -0.0001026935, 0.0002593961
 221536350, 8.344224E-05, 0.003557838, 8.522675E-05, 0.0002593961
 221636310, 0.000216085, 0.0034874, -0.01000487, 0.0002593961
 221736270, 0.0002932401, 0.003699834, -0.1825948, 0.0002593961
 221836230, 0.0001655921, 0.003822783, -0.1141215, 0.0002593961
 221936190, 3.477483E-06, 0.003608147, 0.00716361, 0.0002593961
 222036150, -6.759199E-05, 0.003509339, 0.05516227, 0.0002593961
 222136110, -5.234796E-05, 0.003491139, 0.0484833, 0.0002593961
 222236070, 3.064923E-05, 0.003540357, -0.1499009, 0.0002593961
 222336030, -0.0008773298, 0.002490835, -0.6841486, 0.0002593961
 222435990, -0.003502313, -0.0001691067, -0.6179742, 0.0002593961
 222535950, -0.006029444, -0.002877566, -0.3243187, 0.0002593961
 222635910, -0.007165156, -0.004384988, -0.1132106, 0.0002593961
 222735870, -0.007451997, -0.004644035, -0.04962122, 0.0002593961
 222835830, -0.007306322, -0.004195151, -0.07238937, 0.0002593961
 222935790, -0.007103194, -0.003860238, -0.1088455, 0.0002593961
 223035750, -0.006653578, -0.003085164, -0.1246545, 0.0002593961
 223135710, -0.006098951, -0.002581882, -0.1193374, 0.0002593961
 223235670, -0.005763363, -0.001922255, -0.1057645, 0.0002593961
 223336463, -0.005270861, -0.001375786, -0.09395926, 0.0002615578
 223436423, -0.004806674, -0.0008651372, -0.08499403, 0.0002593961
 223536383, -0.004264348, -0.0003472014, -0.08007861, 0.0002593961
 223636343, -0.004078977, 0.0001417829, -0.07601468, 0.0002593961
 223736303, -0.003602609, 0.0006076653, -0.07201406, 0.0002593961
 223836263, -0.003396202, 0.001091121, -0.06755923, 0.0002593961
 223936223, -0.003102056, 0.001420409, -0.06300833, 0.0002593961
 224036183, -0.00281767, 0.001711697, -0.05898284, 0.0002593961
 224136143, -0.002438813, 0.002024328, -0.0551718, 0.0002593961
 224236103, -0.002166623, 0.002222727, -0.05168258, 0.0002593961
 224336063, -0.00190109, 0.002305315, -0.04856513, 0.0002593961
 224436023, -0.001726808, 0.002546896, -0.04544124, 0.0002593961
 224535983, -0.001621703, 0.002582001, -0.04258018, 0.0002593961
 224635943, -0.001329879, 0.002707719, -0.04000047, 0.0002593961
 224735903, -0.001032411, 0.002808506, -0.03735369, 0.0002593961
 224835863, -0.001001531, 0.002850708, -0.0346736, 0.0002593961
 224935823, -0.0008253084, 0.002904711, -0.03211799, 0.0002593961
 225035783, -0.0008649668, 0.003046389, -0.03021929, 0.0002593961
 225135743, -0.0007005016, 0.002903566, -0.02844995, 0.0002593961
 225235703, -0.0007841068, 0.002746031, -0.0270653, 0.0002593961
 225335663, -0.0008265636, 0.00265858, -0.02535804, 0.0002593961
 225436456, 0.0004592063, 0.003607339, 0.2602726, 0.0002615578
 225536416, 0.000393623, 0.003288679, 0.2721873, 0.0002593961
 225636376, 0.000223577, 0.003038414, 0.2541166, 0.0002593961
 225736336, 0.0003591063, 0.002883049, 0.2373938, 0.0002593961
 225836296, 0.0005749746, 0.002766121, 0.2221644, 0.0002593961
 225936256, 0.0004725559, 0.002548461, 0.2085466, 0.0002593961
 226036216, 0.000316648, 0.002695097, 0.1955598, 0.0002593961
 226136176, 0.0004227109, 0.002810729, 0.1825206, 0.0002593961
 226236136, 0.0003854135, 0.002778657, 0.1399457, 0.0002593961
 226336096, 0.000949608, 0.003581397, 0.1230845, 0.0002593961
 226436056, 0.002895402, 0.00588695, 0.1093252, 0.0002593961
 226536016, 0.008138974, 0.009928297, 0.09100206, 0.0002593961
 226635976, 0.02209238, 0.01762328, 0.07766956, 0.0002593961
 226735936, 0.04389973, 0.02784495, 0.06638061, 0.0002593961
 226835896, 0.06861898, 0.03879777, 0.05636822, 0.0002593961
 226935856, 0.09095784, 0.04801602, 0.04800503, 0.0002593961
 227035816, 0.1077345, 0.05431667, 0.04110396, 0.0002593961
 227135776, 0.1170814, 0.0576162, 0.03479062, 0.0002593961
 227235736, 0.1191283, 0.0577579, 0.02836902, 0.0002593961
 227335696, 0.1160141, 0.05589585, 0.02258371, 0.0002593961
 227435656, 0.1093906, 0.05270566, 0.01602514, 0.0002593961
 227536449, 0.1027732, 0.04973703, 0.009151775, 0.0002615578
 227636409, 0.09663717, 0.04673029, 0.001543759, 0.0002593961
 227736369, 0.0947693, 0.0458357, -0.0057895, 0.0002593961
 227836329, 0.09492691, 0.04790259, -0.01232254, 0.0002593961
 227936289, 0.09414171, 0.0564566, -0.01671178, 0.0002593961
 228036249, 0.09109131, 0.07178695, -0.02049291, 0.0002593961
 228136209, 0.08697857, 0.0863471, -0.02789546, 0.0002593961
 228236169, 0.08323781, 0.09373794, -0.03613365, 0.0002593961
 228336129, 0.08118093, 0.09112852, -0.04281491, 0.0002593961
 228436089, 0.0831363, 0.08019268, -0.04791985, 0.0002593961
 228536049, 0.08887208, 0.06484065, -0.05058859, 0.0002593961
 228636009, 0.098304, 0.04970067, -0.05216101, 0.0002593961
 228735969, 0.1082038, 0.0375281, -0.0529542, 0.0002593961
 228835929, 0.1163123, 0.02878698, -0.05363692, 0.0002593961
 228935889, 0.1209008, 0.02244677, -0.0542344, 0.0002593961
 229035849, 0.1215048, 0.01688156, -0.05444575, 0.0002593961
 229135809, 0.1189005, 0.01163862, -0.05293445, 0.0002593961
 229235769, 0.1139663, 0.007398332, -0.0502717, 0.0002593961
 229335729, 0.1073714, 0.004929092, -0.04728963, 0.0002593961
 229435689, 0.09954809, 0.004811884, -0.04382159, 0.0002593961
 229536482, 0.09195835, 0.007982597, -0.04070061, 0.0002615578
 229636442, 0.08369341, 0.01284371, -0.03629127, 0.0002593961
 229736402, 0.07991019, 0.01306974, -0.03175021, 0.0002593961
 229836362, 0.0811324, 0.00731059, -0.02764991, 0.0002593961
 229936322, 0.0846884, -0.00194674, -0.02490582, 0.0002593961
 230036282, 0.0859556, -0.009438969, -0.02376972, 0.0002593961
 230136242, 0.08186809, -0.01100133, -0.0214538, 0.0002593961
 230236202, 0.06725775, -0.006439155, -0.002959206, 0.0002593961
 230336162, 0.04870455, 0.003299638, 0.006662196, 0.0002593961
 230436122, 0.0277383, 0.01600848, 0.01266826, 0.0002593961
 230536082, 0.008973187, 0.03006271, 0.01760541, 0.0002593961
 230636042, -0.00370634, 0.0429045, 0.0220758, 0.0002593961
 230736002, -0.009662108, 0.05205117, 0.02496953, 0.0002593961
 230835962, -0.01017504, 0.05659147, 0.02638196, 0.0002593961
 230935922, -0.008072763, 0.05604641, 0.02588576, 0.0002593961
 231035882, -0.005567477, 0.05165589, 0.02454029, 0.0002593961
 231135842, -0.003690139, 0.04423093, 0.02234539, 0.0002593961
 231235802, -0.002362968, 0.03540042, 0.02006131, 0.0002593961
 231335762, -0.001042198, 0.02630574, 0.01781777, 0.0002593961
 231435722, 0.0002497099, 0.01829874, 0.01566698, 0.0002593961
 231535682, 0.001909904, 0.01151587, 0.01369908, 0.0002593961
 231636475, 0.0039336, 0.006215789, 0.01204537, 0.0002615578
 231736435, 0.005246935, 0.002989671, 0.01026385, 0.0002593961
 231836395, 0.005820361, 0.001292633, 0.008763796, 0.0002593961
 231936355, 0.005693541, 0.0009415544, 0.007055531, 0.0002593961
 232036315, 0.005074075, 0.001391854, 0.005932399, 0.0002593961
 232136275, 0.003895238, 0.00241462, 0.004441347, 0.0002593961
 232236235, 0.002457716, 0.003388971, 0.003556476, 0.0002593961
 232336195, 0.001061164, 0.004378361, 0.002745995, 0.0002593961
 232436155, 1.610913E-05, 0.005147703, 0.00214011, 0.0002593961
 232536115, -0.0006522551, 0.006032637, 0.001348771, 0.0002593961
 232636075, -0.001569678, 0.007441445, 0.001209817, 0.0002593961
 232736035, -0.002216999, 0.008430302, 0.0009098789, 0.0002593961
 232835995, -0.002537347, 0.009223636, 0.000244883, 0.0002593961
 232935955, -0.002726142, 0.009167354, 0.0001671837, 0.0002593961
 233035915, -0.002771754, 0.0084917, 0.0003649753, 0.0002593961
 233135875, -0.002174581, 0.007155259, 2.092002E-05, 0.0002593961
 233235835, -0.0015817, 0.005663414, -2.277178E-05, 0.0002593961
 233335795, -0.001141657, 0.004135295, 7.18759E-05, 0.0002593961
 233435755, -0.0007236294, 0.002962136, -0.0001196395, 0.0002593961
 233535715, -0.0003728701, 0.002175102, -0.000102728, 0.0002593961
 233635675, -0.0003147176, 0.001586028, 6.031842E-05, 0.0002593961
 233736468, -0.0004261949, 0.001665399, 0.0002424609, 0.0002615578
 233836428, -0.004124923, 0.0006696362, 0.016927, 0.0002593961
 233936388, -0.003863711, 0.001040311, 0.01531533, 0.0002593961
 234036348, -0.001272955, 0.001697695, 0.006666657, 0.0002593961
 234136308, 0.0007407481, 0.001757151, 0.001675674, 0.0002593961
 234236268, 0.001881739, 0.001692024, -0.001891088, 0.0002593961
 234336228, 0.002130906, 0.001358945, -0.004102678, 0.0002593961
 234436188, 0.001932885, 0.001465776, -0.005925452, 0.0002593961
 234536148, 0.0006536111, 0.001739423, -0.006760722, 0.0002593961
 234636108, -0.0005280615, 0.002359531, -0.007217454, 0.0002593961
 234736068, -0.001588161, 0.003052541, -0.006631429, 0.0002593961
 234836028, -0.002159199, 0.003822969, -0.006100233, 0.0002593961
 234935988, -0.002365367, 0.00419858, -0.005423627, 0.0002593961
 235035948, -0.002361561, 0.004137248, -0.005072878, 0.0002593961
 235135908, -0.002405598, 0.004049427, -0.004488851, 0.0002593961
 235235868, -0.00188758, 0.003653962, -0.00333004, 0.0002593961
 235335828, -0.001803994, 0.003346684, -0.002613732, 0.0002593961
 235435788, -0.001726825, 0.003118229, -0.001892049, 0.0002593961
 235535748, -0.002050419, 0.003522695, -0.001286494, 0.0002593961
 235635708, -0.003760395, 0.003322, 0.005005386, 0.0002593961
 235735668, -0.01550367, -0.001388209, 0.04766104, 0.0002593961
 235836461, -0.03241411, -0.008454992, 0.07065126, 0.0002615578
 235936421, -0.05309479, -0.01777556, 0.0850075, 0.0002593961
 236036381, -0.06520779, -0.02959568, 0.09891215, 0.0002593961
 236136341, -0.05812474, -0.04302614, 0.1114678, 0.0002593961
 236236301, -0.03758212, -0.05536785, 0.121714, 0.0002593961
 236336261, -0.01437862, -0.06416301, 0.1293262, 0.0002593961
 236436221, 0.005547857, -0.06839825, 0.1281329, 0.0002593961
 236536181, 0.01869404, -0.06885234, 0.1216828, 0.0002593961
 236636141, 0.02515928, -0.06689265, 0.1123133, 0.0002593961
 236736101, 0.02741291, -0.06310163, 0.1020203, 0.0002593961
 236836061, 0.02844675, -0.05860637, 0.09124691, 0.0002593961
 236936021, 0.03027201, -0.05411438, 0.08037671, 0.0002593961
 237035981, 0.03406357, -0.04990018, 0.07050055, 0.0002593961
 237135941, 0.03959211, -0.04685376, 0.06070691, 0.0002593961
 237235901, 0.04598377, -0.04429518, 0.05152011, 0.0002593961
 237335861, 0.05252151, -0.04242432, 0.04326596, 0.0002593961
 237435821, 0.05792896, -0.04115394, 0.03567555, 0.0002593961
 237535781, 0.06230556, -0.04035368, 0.02902437, 0.0002593961
 237635741, 0.06587225, -0.03985052, 0.02306635, 0.0002593961
 237735701, 0.06791641, -0.03974094, 0.01844506, 0.0002593961
 237835661, 0.06983558, -0.03960408, 0.01409607, 0.0002593961
 237936454, 0.07212433, -0.03974283, 0.01102406, 0.0002615578
 238036414, 0.07330345, -0.0387154, 0.008476352, 0.0002593961
 238136374, 0.07501598, -0.03744765, 0.006703185, 0.0002593961
 238236334, 0.07690071, -0.03546222, 0.004996337, 0.0002593961
 238336294, 0.07869112, -0.03285109, 0.003688951, 0.0002593961
 238436254, 0.07993658, -0.02988561, 0.002764088, 0.0002593961
 238536214, 0.08100736, -0.02685785, 0.002178742, 0.0002593961
 238636174, 0.08199961, -0.0235467, 0.001603798, 0.0002593961
 238736134, 0.08310859, -0.02065339, 0.001197302, 0.0002593961
 238836094, 0.0835719, -0.01766722, 0.001402255, 0.0002593961
 238936054, 0.0844133, -0.01493462, 0.001267324, 0.0002593961
 239036014, 0.08521683, -0.01295122, 0.001401126, 0.0002593961
 239135974, 0.08582749, -0.01104676, 0.001496331, 0.0002593961
 239235934, 0.08692893, -0.009580843, 0.001157033, 0.0002593961
 239335894, 0.08730119, -0.008253198, 0.001137614, 0.0002593961
 239435854, 0.08697563, -0.007262645, 0.001070631, 0.0002593961
 239535814, 0.08591332, -0.006692332, 0.0007740475, 0.0002593961
 239635774, 0.08435678, -0.006065832, 0.0002832566, 0.0002593961
 239735734, 0.08214882, -0.005218659, -0.0003120008, 0.0002593961
 239835694, 0.07974622, -0.004474041, -0.0003188657, 0.0002593961
 239935654, 0.07733528, -0.003984745, -0.0007157336, 0.0002593961
 240036447, 0.07579966, -0.003330255, -0.000666225, 0.0002615578
 240136407, 0.07326297, -0.002883903, -0.0009316315, 0.0002593961
 240236367, 0.07141206, -0.002500253, -0.001068529, 0.0002593961
 240336327, 0.06966663, -0.001738014, -0.0009738864, 0.0002593961
 240436287, 0.06796926, -0.0009504471, -0.0004686973, 0.0002593961
 240536247, 0.06623836, -0.0001104205, -0.0006616364, 0.0002593961
 240636207, 0.06425783, 0.001011828, -0.0004412352, 0.0002593961
 240736167, 0.06217219, 0.001882651, 2.244051E-05, 0.0002593961
 240836127, 0.06078974, 0.002136295, -0.000435662, 0.0002593961
 240936087, 0.05880441, 0.002797878, 0.000144468, 0.0002593961
 241036047, 0.05749731, 0.003133675, -0.0001595669, 0.0002593961
 241136007, 0.05583054, 0.003250918, -0.0002148448, 0.0002593961
 241235967, 0.05427836, 0.003403195, -0.0002974869, 0.0002593961
 241335927, 0.05270356, 0.003669972, -0.0004551092, 0.0002593961
 241435887, 0.05089641, 0.003624941, -0.0001762233, 0.0002593961
 241535847, 0.04952802, 0.003815365, -0.0008326762, 0.0002593961
 241635807, 0.04796387, 0.003479699, -8.595724E-05, 0.0002593961
 241735767, 0.04676929, 0.003666555, -0.0002487951, 0.0002593961
 241835727, 0.04549283, 0.003715613, -0.000178839, 0.0002593961
 241935687, 0.04400647, 0.003678671, 9.893273E-05, 0.0002593961
 242036480, 0.04329069, 0.003599851, -0.0002304311, 0.0002615578
 242136440, 0.04159652, 0.003572111, 0.0003620166, 0.0002593961
 242236400, 0.04063682, 0.003451265, -0.0001104259, 0.0002593961
 242336360, 0.03938752, 0.003521825, 0.0001745753, 0.0002593961
 242436320, 0.03871645, 0.003446625, -0.0002179251, 0.0002593961
 242536280, 0.03757969, 0.003453904, 5.052461E-06, 0.0002593961
 242636240, 0.03672997, 0.003622065, -0.0005657042, 0.0002593961
 242736200, 0.0354603, 0.003546286, -0.0005477251, 0.0002593961
 242836160, 0.03420345, 0.003688763, -0.000254839, 0.0002593961
 242936120, 0.03306283, 0.003688074, -0.000654631, 0.0002593961
 243036080, 0.0320622, 0.003614923, -0.0003337276, 0.0002593961
 243136040, 0.03121076, 0.003464505, -0.0003992104, 0.0002593961
 243236000, 0.03093441, 0.003411599, -0.0007412995, 0.0002593961
 243335960, 0.03053647, 0.003318014, -0.001007987, 0.0002593961
 243435920, 0.02997238, 0.003631526, -0.0007963034, 0.0002593961
 243535880, 0.0291214, 0.003634061, -0.0007757337, 0.0002593961
 243635840, 0.02894382, 0.003425456, -0.001005476, 0.0002593961
 243735800, 0.02793585, 0.003298752, -0.0006132817, 0.0002593961
 243835760, 0.02725172, 0.003282966, -2.574486E-05, 0.0002593961
 243935720, 0.02645371, 0.003132444, -0.0001285265, 0.0002593961
 244035680, 0.02569797, 0.003181967, -0.0004334301, 0.0002593961
 244136473, 0.02508414, 0.003058664, -0.0001191203, 0.0002615578
 244236433, 0.02412595, 0.00301635, 0.0004097909, 0.0002593961
 244336393, 0.02386314, 0.003020675, 3.274323E-05, 0.0002593961
 244436353, 0.02361991, 0.003039036, 0.0001195834, 0.0002593961
 244536313, 0.02326896, 0.002874317, 0.0002915169, 0.0002593961
 244636273, 0.02332352, 0.002958198, -0.000369774, 0.0002593961
 244736233, 0.02249314, 0.002720656, 0.0001526603, 0.0002593961
 244836193, 0.02262634, 0.002837011, -0.0006348941, 0.0002593961
 244936153, 0.02173942, 0.003068252, -0.0004634576, 0.0002593961
 245036113, 0.02118118, 0.003185347, -0.0002259673, 0.0002593961
 245136073, 0.02095651, 0.003136054, -0.001254458, 0.0002593961
 245236033, 0.02006362, 0.002985676, -0.0007537329, 0.0002593961
 245335993, 0.01936241, 0.002729492, -0.0003813052, 0.0002593961
 245435953, 0.01921508, 0.00235722, -0.0008692362, 0.0002593961
 245535913, 0.01920771, 0.001658799, -0.0007092523, 0.0002593961
 245635873, 0.01900116, 0.001045612, -6.946641E-05, 0.0002593961
 245735833, 0.01886646, 0.0005992599, 9.11503E-05, 0.0002593961
 245835793, 0.01874424, 0.0002635785, -0.0005488702, 0.0002593961
 245935753, 0.01823146, 0.000133542, -0.0002736166, 0.0002593961
 246035713, 0.01778949, -8.876178E-05, -5.153023E-05, 0.0002593961
 246135673, 0.01697468, -0.0003824564, -0.0001696718, 0.0002593961
 246236466, 0.01666914, -0.0005162657, -0.0001684635, 0.0002615578
 246336426, 0.01623779, -0.000285997, -0.0004056059, 0.0002593961
 246436386, 0.01586312, -7.916834E-05, 4.871445E-05, 0.0002593961
 246536346, 0.01562991, 0.0002955036, 0.0003248798, 0.0002593961
 246636306, 0.01583092, 0.0004837911, -5.889443E-05, 0.0002593961
 246736266, 0.01563001, 0.0007953047, 0.0002298723, 0.0002593961
 246836226, 0.01475709, 0.000795485, 0.0001340258, 0.0002593961
 246936186, 0.01227897, 0.001148094, -0.0008042777, 0.0002593961
 247036146, 0.008797943, 0.001410838, -0.0009600755, 0.0002593961
 247136106, 0.005684296, 0.001702265, -0.0004101423, 0.0002593961
 247236066, 0.003798893, 0.001789599, -0.0001455487, 0.0002593961
 247336026, 0.003682672, 0.001985481, 0.0001550483, 0.0002593961
 247435986, 0.005330381, 0.002046821, 7.087139E-05, 0.0002593961
 247535946, 0.007528053, 0.00195644, 0.001154977, 0.0002593961
 247635906, 0.009801191, 0.00192916, 0.001147763, 0.0002593961
 247735866, 0.01198071, 0.002199096, 0.001191537, 0.0002593961
 247835826, 0.01332131, 0.002442795, 0.0004843299, 0.0002593961
 247935786, 0.01344696, 0.002502387, -0.0001616296, 0.0002593961
 248035746, 0.01320685, 0.002631072, -0.0003393258, 0.0002593961
 248135706, 0.01234226, 0.002638952, -0.0008801133, 0.0002593961
 248235666, 0.01141467, 0.002783428, -0.0008369363, 0.0002593961
 248336459, 0.01098518, 0.002950898, -0.0006775848, 0.0002615578
 248436419, 0.0106301, 0.003090353, -0.0007492465, 0.0002593961
 248536379, 0.01063391, 0.003244199, -0.0001731692, 0.0002593961
 248636339, 0.01047798, 0.003399937, 0.0004082727, 0.0002593961
 248736299, 0.01080061, 0.003510742, 8.189383E-05, 0.0002593961
 248836259, 0.01111195, 0.003487355, -0.0003942414, 0.0002593961
 248936219, 0.0110663, 0.003667767, 0.0003057723, 0.0002593961
 249036179, 0.01125614, 0.003560705, 0.0003049132, 0.0002593961
 249136139, 0.01123248, 0.003541918, -0.0008072092, 0.0002593961
 249236099, 0.01073211, 0.003676214, -0.0003080804, 0.0002593961
 249336059, 0.0103554, 0.003737909, -0.0003343174, 0.0002593961
 249436019, 0.009923675, 0.003604935, 0.0001251459, 0.0002593961
 249535979, 0.009586927, 0.00372746, 0.0003795202, 0.0002593961
 249635939, 0.01001071, 0.003874648, -0.000598463, 0.0002593961
 249735899, 0.009951677, 0.004038069, -0.0009992154, 0.0002593961
 249835859, 0.009808725, 0.004313225, -0.0003428745, 0.0002593961
 249935819, 0.00975738, 0.004462177, -0.0004254546, 0.0002593961
 250035779, 0.009737296, 0.004360393, -0.0009103398, 0.0002593961
 250135739, 0.009312024, 0.004503926, -0.0007132154, 0.0002593961
 250235699, 0.008899021, 0.004365373, -0.0001339043, 0.0002593961
 250335659, 0.00831646, 0.004361386, -0.0004478606, 0.0002593961
 250436452, 0.008080904, 0.004420246, -0.0002424903, 0.0002615578
 250536412, 0.007484982, 0.004547736, -0.0001800437, 0.0002593961
 250636372, 0.007091803, 0.004362109, 4.056023E-05, 0.0002593961
 250736332, 0.007174477, 0.004282097, 0.0001104497, 0.0002593961
 250836292, 0.007427504, 0.00444284, 0.0001215198, 0.0002593961
 250936252, 0.00836149, 0.004630372, -5.544113E-05, 0.0002593961
 251036212, 0.008513192, 0.004683782, 0.0004231131, 0.0002593961
 251136172, 0.008934136, 0.004751401, 0.0006934634, 0.0002593961
 251236132, 0.009085519, 0.0046929, -0.0003121415, 0.0002593961
 251336092, 0.008364762, 0.004564382, -0.0002438487, 0.0002593961
 251436052, 0.007896003, 0.004245877, -0.0002820746, 0.0002593961
 251536012, 0.007358294, 0.004231049, -0.0001232489, 0.0002593961
 251635972, 0.006775364, 0.004060227, -8.262668E-05, 0.0002593961
 251735932, 0.006062753, 0.004133687, -8.220959E-05, 0.0002593961
 251835892, 0.006019311, 0.003967504, 5.004788E-05, 0.0002593961
 251935852, 0.006171336, 0.0037688, 0.0005674774, 0.0002593961
 252035812, 0.00678961, 0.003936796, 0.0001196049, 0.0002593961
 252135772, 0.006976356, 0.004551392, -0.0002906172, 0.0002593961
 252235732, 0.006874165, 0.005040132, 0.0001801116, 0.0002593961
 252335692, 0.00654521, 0.005148549, 0.0003731212, 0.0002593961
 252436485, 0.006725105, 0.005657023, 0.000420598, 0.0002615578
 252536445, 0.006068248, 0.005431435, 0.0003177123, 0.0002593961
 252636405, 0.005662812, 0.005041115, -0.0002418289, 0.0002593961
 252736365, 0.004940261, 0.004607575, -8.824393E-05, 0.0002593961
 252836325, 0.005043721, 0.00432918, -0.0007677498, 0.0002593961
 252936285, 0.00468783, 0.004225773, -0.0007576903, 0.0002593961
 253036245, 0.004359986, 0.004443634, -0.0003266482, 0.0002593961
 253136205, 0.004327503, 0.004456129, -0.0004361112, 0.0002593961
 253236165, 0.003963113, 0.004466007, -0.0002386175, 0.0002593961
 253336125, 0.003847544, 0.004404683, -0.0002254525, 0.0002593961
 253436085, 0.003650369, 0.004625425, -0.0001719108, 0.0002593961
 253536045, 0.004262727, 0.004517823, -0.0006423324, 0.0002593961
 253636005, 0.004594047, 0.004541657, -0.0006173238, 0.0002593961
 253735965, 0.004828494, 0.004633329, -0.0003357116, 0.0002593961
 253835925, 0.005379637, 0.004689115, -0.001033378, 0.0002593961
 253935885, -0.004989642, 0.0049719, -0.001233539, 0.0002593961
 254035845, -0.02464844, 0.004954495, -0.0005233292, 0.0002593961
 254135805, -0.03409207, 0.003477016, 0.0002637404, 0.0002593961
 254235765, -0.03415579, 0.0006633557, 0.0003616531, 0.0002593961
 254335725, -0.03240517, -0.004283442, 0.0005641766, 0.0002593961
 254435685, -0.02895175, -0.009636513, 0.001175633, 0.0002593961
 254536478, -0.02332262, -0.01488395, 0.001814646, 0.0002615578
 254636438, -0.0149672, -0.01896638, 0.002188483, 0.0002593961
 254736398, -0.004742429, -0.0220234, 0.00289437, 0.0002593961
 254836358, 0.007248753, -0.02392678, 0.003124612, 0.0002593961
 254936318, 0.02152609, -0.02509517, 0.003216336, 0.0002593961
 255036278, 0.03659315, -0.0259696, 0.003082477, 0.0002593961
 255136238, 0.04785056, -0.0250707, 0.001216648, 0.0002593961
 255236198, 0.05083847, -0.02145475, -0.002305098, 0.0002593961
 255336158, 0.04442444, -0.01568056, -0.005425753, 0.0002593961
 255436118, 0.03160575, -0.008902181, -0.007093411, 0.0002593961
 255536078, 0.01781333, -0.003352286, -0.006873251, 0.0002593961
 255636038, 0.04091446, -0.01003147, 0.006335048, 0.0002593961
 255735998, 0.1110747, -0.02784725, 0.01962106, 0.0002593961
 255835958, 0.1845597, -0.04336551, 0.01781334, 0.0002593961
 255935918, 0.238152, -0.05041602, 0.007025992, 0.0002593961
 256035878, 0.2641026, -0.04798321, -0.006252348, 0.0002593961
 256135838, 0.2640712, -0.03738643, -0.018113, 0.0002593961
 256235798, 0.2453862, -0.02206383, -0.02558542, 0.0002593961
 256335758, 0.2165952, -0.006188036, -0.02847311, 0.0002593961
 256435718, 0.1846531, 0.006339958, -0.02785359, 0.0002593961
 256535678, 0.1551644, 0.01376111, -0.02399796, 0.0002593961
 256636471, 0.1310257, 0.01654406, -0.01942719, 0.0002615578
 256736431, 0.1091549, 0.01474652, -0.01361092, 0.0002593961
 256836391, 0.0929603, 0.01076695, -0.007941617, 0.0002593961
 256936351, 0.07988276, 0.005500109, -0.002128818, 0.0002593961
 257036311, 0.07026592, 0.0002810952, 0.002617551, 0.0002593961
 257136271, 0.06232885, -0.003914188, 0.007940679, 0.0002593961
 257236231, 0.05751698, -0.006846532, 0.01151512, 0.0002593961
 257336191, 0.05403117, -0.008362968, 0.01481781, 0.0002593961
 257436151, 0.05264931, -0.008500753, 0.01650685, 0.0002593961
 257536111, 0.05229725, -0.007491054, 0.0174902, 0.0002593961
 257636071, 0.05359096, -0.005315884, 0.01691411, 0.0002593961
 257736031, 0.05529925, -0.002245943, 0.01612174, 0.0002593961
 257835991, 0.05817595, 0.001650613, 0.01363074, 0.0002593961
 257935951, 0.06082325, 0.006433896, 0.01138906, 0.0002593961
 258035911, 0.06407921, 0.01191101, 0.007671858, 0.0002593961
 258135871, 0.06640003, 0.0171745, 0.004721456, 0.0002593961
 258235831, 0.06909684, 0.02241491, 0.0008392754, 0.0002593961
 258335791, 0.07059465, 0.02726225, -0.002422188, 0.0002593961
 258435751, 0.07162858, 0.03140135, -0.006170848, 0.0002593961
 258535711, 0.07158665, 0.03450724, -0.009166559, 0.0002593961
 258635671, 0.0713636, 0.03633633, -0.01245664, 0.0002593961
 258736464, 0.07054423, 0.0372332, -0.01457406, 0.0002615578
 258836424, 0.06824447, 0.03690293, -0.01723404, 0.0002593961
 258936384, 0.06526414, 0.0359738, -0.0186284, 0.0002593961
 259036344, 0.06259251, 0.03419268, -0.02052644, 0.0002593961
 259136304, 0.05799504, 0.03235697, -0.02171852, 0.0002593961
 259236264, 0.05004254, 0.03041261, -0.02459806, 0.0002593961
 259336224, 0.03557745, 0.0292986, -0.02737539, 0.0002593961
 259436184, 0.01687828, 0.02860018, -0.02979192, 0.0002593961
 259536144, -0.004582634, 0.02900617, -0.03062006, 0.0002593961
 259636104, -0.02565674, 0.02969108, -0.03099764, 0.0002593961
 259736064, -0.04504659, 0.03138239, -0.0299723, 0.0002593961
 259836024, -0.06148123, 0.03352677, -0.02883642, 0.0002593961
 259935984, -0.07457823, 0.03590581, -0.02713394, 0.0002593961
 260035944, -0.08448102, 0.0382646, -0.02626886, 0.0002593961
 260135904, -0.09240451, 0.04065485, -0.02469271, 0.0002593961
 260235864, -0.09799117, 0.04269084, -0.02416309, 0.0002593961
 260335824, -0.1027099, 0.04453046, -0.02355049, 0.0002593961
 260435784, -0.1066233, 0.04634788, -0.02339233, 0.0002593961
 260535744, -0.1100871, 0.04777903, -0.02274548, 0.0002593961
 260635704, -0.1134836, 0.04886302, -0.02238907, 0.0002593961
 260735664, -0.1173371, 0.04941173, -0.02137581, 0.0002593961
 260836457, -0.1215264, 0.05049662, -0.02028612, 0.0002615578
 260936417, -0.1235993, 0.05020346, -0.01856569, 0.0002593961
 261036377, -0.1262403, 0.04992615, -0.01713668, 0.0002593961
 261136337, -0.1289061, 0.04973427, -0.01451632, 0.0002593961
 261236297, -0.1305238, 0.04887522, -0.01205795, 0.0002593961
 261336257, -0.1315064, 0.04823824, -0.009128734, 0.0002593961
 261436217, -0.1314794, 0.04751603, -0.00622959, 0.0002593961
 261536177, -0.1307052, 0.04660217, -0.002831038, 0.0002593961
 261636137, -0.1294074, 0.0456868, 0.0003490553, 0.0002593961
 261736097, -0.1273775, 0.04516292, 0.00376023, 0.0002593961
 261836057, -0.1249638, 0.044643, 0.006811163, 0.0002593961
 261936017, -0.1218068, 0.04424049, 0.00957223, 0.0002593961
