TimeUS,CGpN,CGpE,CGpD,CGpe,PGpN,PGpE,PGpD,PGpe
 139033531, 0, 0, 0, 0.01, 0, 0, 0, 0.01
 139234284, 0, 0, 0, 0.01, 0, 0, 0, 0.01
 139434204, 0.009000001, -0.001, 0, 0.01, 0, 0, 0, 0.01
 139634124, 0.249, -0.026, 0, 0.01, 0.009000001, -0.001, 0, 0.01
 139834044, 0.9350001, -0.098, 0.012, 0.01, 0.249, -0.026, 0, 0.01
 140033964, 2.096, -0.219, 0.037, 0.01, 0.9350001, -0.098, 0.012, 0.01
 140233884, 3.706, -0.388, 0.074, 0.01, 2.096, -0.219, 0.037, 0.01
 140433804, 5.711, -0.603, 0.123, 0.01, 3.706, -0.388, 0.074, 0.01
 140633724, 7.834001, -0.822, 0.182, 0.01, 5.711, -0.603, 0.123, 0.01
 140833644, 9.81, -1.032, 0.239, 0.01, 7.834001, -0.822, 0.182, 0.01
 141033564, 11.581, -1.218, 0.275, 0.01, 9.81, -1.032, 0.239, 0.01
 141233484, 13.126, -1.381, 0.205, 0.01, 11.581, -1.218, 0.275, 0.01
 141434237, 14.588, -1.536, 0.237, 0.01, 13.126, -1.381, 0.205, 0.01
 141634157, 16.568, -1.746, -0.8520001, 0.01, 14.588, -1.536, 0.237, 0.01
 141834077, 18.261, -1.937, -1.832, 0.01, 16.568, -1.746, -0.8520001, 0.01
 142033997, 19.746, -2.089, -2.319, 0.01, 18.261, -1.937, -1.832, 0.01
 142233917, 21.054, -2.253, -2.734, 0.01, 19.746, -2.089, -2.319, 0.01
 142433837, 22.177, -2.385, -3.182, 0.01, 21.054, -2.253, -2.734, 0.01
 142633757, 23.13, -2.493, -3.65, 0.01, 22.177, -2.385, -3.182, 0.01
 142833677, 23.96, -2.594, -3.981, 0.01, 23.13, -2.493, -3.65, 0.01
 143033597, 24.679, -2.66, -4.271, 0.01, 23.96, -2.594, -3.981, 0.01
 143233517, 25.279, -2.721, -4.581, 0.01, 24.679, -2.66, -4.271, 0.01
 143434270, 25.782, -2.799, -4.875, 0.01, 25.279, -2.721, -4.581, 0.01
 143634190, 26.213, -2.86, -5.1, 0.01, 25.782, -2.799, -4.875, 0.01
 143834110, 26.581, -2.92, -5.257, 0.01, 26.213, -2.86, -5.1, 0.01
 144034030, 26.88, -2.973, -5.428, 0.01, 26.581, -2.92, -5.257, 0.01
 144233950, 27.113, -3.026, -5.633, 0.01, 26.88, -2.973, -5.428, 0.01
 144433870, 27.319, -3.028, -5.782, 0.01, 27.113, -3.026, -5.633, 0.01
 144633790, 27.487, -3.019, -5.912, 0.01, 27.319, -3.028, -5.782, 0.01
 144833710, 27.624, -3.066, -5.925, 0.01, 27.487, -3.019, -5.912, 0.01
 145033630, 27.741, -3.081, -5.913, 0.01, 27.624, -3.066, -5.925, 0.01
 145233550, 27.841, -3.09, -5.932, 0.01, 27.741, -3.081, -5.913, 0.01
 145434303, 27.9, -3.107, -6.011, 0.01, 27.841, -3.09, -5.932, 0.01
 145634223, 27.986, -3.108, -5.983, 0.01, 27.9, -3.107, -6.011, 0.01
 145834143, 28.046, -3.121, -5.98, 0.01, 27.986, -3.108, -5.983, 0.01
 146034063, 28.123, -3.148, -5.889, 0.01, 28.046, -3.121, -5.98, 0.01
 146233983, 28.183, -3.179, -5.813, 0.01, 28.123, -3.148, -5.889, 0.01
 146433903, 28.3, -3.207, -5.524, 0.01, 28.183, -3.179, -5.813, 0.01
 146633823, 28.414, -3.223, -5.307, 0.01, 28.3, -3.207, -5.524, 0.01
 146833743, 28.522, -3.246, -5.086, 0.01, 28.414, -3.223, -5.307, 0.01
 147033663, 28.54, -3.209, -4.871, 0.01, 28.522, -3.246, -5.086, 0.01
 147233583, 28.544, -3.189, -4.693, 0.01, 28.54, -3.209, -4.871, 0.01
 147433503, 28.594, -3.204, -4.401, 0.01, 28.544, -3.189, -4.693, 0.01
 147634256, 28.642, -3.226, -4.18, 0.01, 28.594, -3.204, -4.401, 0.01
 147834176, 28.636, -3.29, -4.052, 0.01, 28.642, -3.226, -4.18, 0.01
 148034096, 28.644, -3.132, -3.776, 0.01, 28.636, -3.29, -4.052, 0.01
 148234016, 28.677, -2.581, -3.426, 0.01, 28.644, -3.132, -3.776, 0.01
 148433936, 28.639, -2.352, -3.264, 0.01, 28.677, -2.581, -3.426, 0.01
 148633856, 28.563, -2.388, -3.169, 0.01, 28.639, -2.352, -3.264, 0.01
 148833776, 28.517, -2.348, -2.834, 0.01, 28.563, -2.388, -3.169, 0.01
 149033696, 28.472, -2.135, -2.56, 0.01, 28.517, -2.348, -2.834, 0.01
 149233616, 28.43, -1.94, -2.267, 0.01, 28.472, -2.135, -2.56, 0.01
 149433536, 28.374, -1.83, -2.093, 0.01, 28.43, -1.94, -2.267, 0.01
 149634289, 28.316, -1.774, -1.876, 0.01, 28.374, -1.83, -2.093, 0.01
 149834209, 28.256, -1.658, -1.634, 0.01, 28.316, -1.774, -1.876, 0.01
 150034129, 28.205, -1.54, -1.316, 0.01, 28.256, -1.658, -1.634, 0.01
 150234049, 28.174, -1.423, -1.069, 0.01, 28.205, -1.54, -1.316, 0.01
 150433969, 28.15, -1.31, -0.9670001, 0.01, 28.174, -1.423, -1.069, 0.01
 150633889, 28.115, -1.207, -0.822, 0.01, 28.15, -1.31, -0.9670001, 0.01
 150833809, 28.093, -1.12, -0.652, 0.01, 28.115, -1.207, -0.822, 0.01
 151033729, 28.077, -1.058, -0.525, 0.01, 28.093, -1.12, -0.652, 0.01
 151233649, 28.064, -0.9950001, -0.271, 0.01, 28.077, -1.058, -0.525, 0.01
 151433569, 28.056, -0.9450001, -0.102, 0.01, 28.064, -0.9950001, -0.271, 0.01
 151633489, 28.034, -0.874, -0.045, 0.01, 28.056, -0.9450001, -0.102, 0.01
 151834242, 28.013, -0.8010001, -0.007, 0.01, 28.034, -0.874, -0.045, 0.01
 152034162, 27.999, -0.744, 0.03, 0.01, 28.013, -0.8010001, -0.007, 0.01
 152234082, 27.992, -0.712, 0.154, 0.01, 27.999, -0.744, 0.03, 0.01
 152434002, 27.986, -0.67, 0.297, 0.01, 27.992, -0.712, 0.154, 0.01
 152633922, 27.974, -0.648, 0.342, 0.01, 27.986, -0.67, 0.297, 0.01
 152833842, 27.977, -0.611, 0.505, 0.01, 27.974, -0.648, 0.342, 0.01
 153033762, 27.995, -0.574, 0.528, 0.01, 27.977, -0.611, 0.505, 0.01
 153233682, 28.004, -0.536, 0.521, 0.01, 27.995, -0.574, 0.528, 0.01
 153433602, 28.011, -0.508, 0.606, 0.01, 28.004, -0.536, 0.521, 0.01
 153633522, 28.023, -0.484, 0.687, 0.01, 28.011, -0.508, 0.606, 0.01
 153834275, 28.022, -0.454, 0.7690001, 0.01, 28.023, -0.484, 0.687, 0.01
 154034195, 28.028, -0.43, 0.774, 0.01, 28.022, -0.454, 0.7690001, 0.01
 154234115, 28.041, -0.404, 0.77, 0.01, 28.028, -0.43, 0.774, 0.01
 154434035, 28.051, -0.39, 0.804, 0.01, 28.041, -0.404, 0.77, 0.01
 154633955, 28.074, -0.366, 0.8330001, 0.01, 28.051, -0.39, 0.804, 0.01
 154833875, 28.108, -0.331, 0.7960001, 0.01, 28.074, -0.366, 0.8330001, 0.01
 155033795, 28.104, -0.308, 0.817, 0.01, 28.108, -0.331, 0.7960001, 0.01
 155233715, 28.119, -0.303, 0.9030001, 0.01, 28.104, -0.308, 0.817, 0.01
 155433635, 28.138, -0.299, 0.9310001, 0.01, 28.119, -0.303, 0.9030001, 0.01
 155633555, 28.156, -0.3, 0.973, 0.01, 28.138, -0.299, 0.9310001, 0.01
 155833475, 28.176, -0.304, 0.924, 0.01, 28.156, -0.3, 0.973, 0.01
 156034228, 28.195, -0.301, 0.892, 0.01, 28.176, -0.304, 0.924, 0.01
 156234148, 28.218, -0.284, 0.874, 0.01, 28.195, -0.301, 0.892, 0.01
 156434068, 28.246, -0.276, 0.9020001, 0.01, 28.218, -0.284, 0.874, 0.01
 156633988, 28.274, -0.258, 0.8660001, 0.01, 28.246, -0.276, 0.9020001, 0.01
 156833908, 28.294, -0.245, 0.859, 0.01, 28.274, -0.258, 0.8660001, 0.01
 157033828, 28.314, -0.239, 0.9030001, 0.01, 28.294, -0.245, 0.859, 0.01
 157233748, 28.331, -0.241, 0.9160001, 0.01, 28.314, -0.239, 0.9030001, 0.01
 157433668, 28.356, -0.233, 0.878, 0.01, 28.331, -0.241, 0.9160001, 0.01
 157633588, 28.39, -0.211, 0.8380001, 0.01, 28.356, -0.233, 0.878, 0.01
 157833508, 28.418, -0.204, 0.812, 0.01, 28.39, -0.211, 0.8380001, 0.01
 158034261, 28.442, -0.204, 0.839, 0.01, 28.418, -0.204, 0.812, 0.01
 158234181, 28.468, -0.201, 0.849, 0.01, 28.442, -0.204, 0.839, 0.01
 158434101, 28.488, -0.196, 0.821, 0.01, 28.468, -0.201, 0.849, 0.01
 158634021, 28.515, -0.19, 0.8330001, 0.01, 28.488, -0.196, 0.821, 0.01
 158833941, 28.552, -0.178, 0.864, 0.01, 28.515, -0.19, 0.8330001, 0.01
 159033861, 28.582, -0.177, 0.8290001, 0.01, 28.552, -0.178, 0.864, 0.01
 159233781, 28.605, -0.18, 0.831, 0.01, 28.582, -0.177, 0.8290001, 0.01
 159433701, 28.625, -0.165, 0.721, 0.01, 28.605, -0.18, 0.831, 0.01
 159633621, 28.64, -0.136, 0.683, 0.01, 28.625, -0.165, 0.721, 0.01
 159833541, 28.656, -0.109, 0.686, 0.01, 28.64, -0.136, 0.683, 0.01
 160034294, 28.663, -0.111, 0.603, 0.01, 28.656, -0.109, 0.686, 0.01
 160234214, 28.687, -0.152, 0.627, 0.01, 28.663, -0.111, 0.603, 0.01
 160434134, 28.713, -0.188, 0.641, 0.01, 28.687, -0.152, 0.627, 0.01
 160634054, 28.739, -0.156, 0.677, 0.01, 28.713, -0.188, 0.641, 0.01
 160833974, 28.758, -0.137, 0.605, 0.01, 28.739, -0.156, 0.677, 0.01
 161033894, 28.771, -0.151, 0.647, 0.01, 28.758, -0.137, 0.605, 0.01
 161233814, 28.788, -0.155, 0.563, 0.01, 28.771, -0.151, 0.647, 0.01
 161433734, 28.793, -0.136, 0.479, 0.01, 28.788, -0.155, 0.563, 0.01
 161633654, 28.807, -0.137, 0.492, 0.01, 28.793, -0.136, 0.479, 0.01
 161833574, 28.816, -0.118, 0.498, 0.01, 28.807, -0.137, 0.492, 0.01
 162033494, 28.832, -0.105, 0.466, 0.01, 28.816, -0.118, 0.498, 0.01
 162234247, 28.855, -0.11, 0.5100001, 0.01, 28.832, -0.105, 0.466, 0.01
 162434167, 28.86, -0.09900001, 0.497, 0.01, 28.855, -0.11, 0.5100001, 0.01
 162634087, 28.873, -0.075, 0.451, 0.01, 28.86, -0.09900001, 0.497, 0.01
 162834007, 28.89, -0.074, 0.395, 0.01, 28.873, -0.075, 0.451, 0.01
 163033927, 28.898, -0.094, 0.433, 0.01, 28.89, -0.074, 0.395, 0.01
 163233847, 28.904, -0.097, 0.468, 0.01, 28.898, -0.094, 0.433, 0.01
 163433767, 28.923, -0.108, 0.457, 0.01, 28.904, -0.097, 0.468, 0.01
 163633687, 28.945, -0.108, 0.461, 0.01, 28.923, -0.108, 0.457, 0.01
 163833607, 28.974, -0.111, 0.405, 0.01, 28.945, -0.108, 0.461, 0.01
 164033527, 28.988, -0.113, 0.413, 0.01, 28.974, -0.111, 0.405, 0.01
 164234280, 29.019, -0.098, 0.34, 0.01, 28.988, -0.113, 0.413, 0.01
 164434200, 29.034, -0.098, 0.339, 0.01, 29.019, -0.098, 0.34, 0.01
 164634120, 29.046, -0.11, 0.316, 0.01, 29.034, -0.098, 0.339, 0.01
 164834040, 29.048, -0.116, 0.302, 0.01, 29.046, -0.11, 0.316, 0.01
 165033960, 29.047, -0.116, 0.325, 0.01, 29.048, -0.116, 0.302, 0.01
 165233880, 29.068, -0.115, 0.318, 0.01, 29.047, -0.116, 0.325, 0.01
 165433800, 29.073, -0.131, 0.299, 0.01, 29.068, -0.115, 0.318, 0.01
 165633720, 29.075, -0.11, 0.315, 0.01, 29.073, -0.131, 0.299, 0.01
 165833640, 29.087, -0.124, 0.283, 0.01, 29.075, -0.11, 0.315, 0.01
 166033560, 29.103, -0.126, 0.264, 0.01, 29.087, -0.124, 0.283, 0.01
 166233480, 29.109, -0.123, 0.254, 0.01, 29.103, -0.126, 0.264, 0.01
 166434233, 29.124, -0.122, 0.225, 0.01, 29.109, -0.123, 0.254, 0.01
 166634153, 29.118, -0.126, 0.205, 0.01, 29.124, -0.122, 0.225, 0.01
 166834073, 29.126, -0.136, 0.168, 0.01, 29.118, -0.126, 0.205, 0.01
 167033993, 29.135, -0.142, 0.143, 0.01, 29.126, -0.136, 0.168, 0.01
 167233913, 29.143, -0.143, 0.216, 0.01, 29.135, -0.142, 0.143, 0.01
 167433833, 29.152, -0.137, 0.203, 0.01, 29.143, -0.143, 0.216, 0.01
 167633753, 29.16, -0.116, 0.165, 0.01, 29.152, -0.137, 0.203, 0.01
 167833673, 29.164, -0.09100001, 0.147, 0.01, 29.16, -0.116, 0.165, 0.01
 168033593, 29.166, -0.068, 0.14, 0.01, 29.164, -0.09100001, 0.147, 0.01
 168233513, 29.171, -0.067, 0.09500001, 0.01, 29.166, -0.068, 0.14, 0.01
 168434266, 29.167, -0.058, 0.049, 0.01, 29.171, -0.067, 0.09500001, 0.01
 168634186, 29.161, -0.087, 0.096, 0.01, 29.167, -0.058, 0.049, 0.01
 168834106, 29.163, -0.082, 0.128, 0.01, 29.161, -0.087, 0.096, 0.01
 169034026, 29.163, -0.06900001, 0.066, 0.01, 29.163, -0.082, 0.128, 0.01
 169233946, 29.159, -0.061, 0.089, 0.01, 29.163, -0.06900001, 0.066, 0.01
 169433866, 29.159, -0.055, 0.196, 0.01, 29.159, -0.061, 0.089, 0.01
 169633786, 29.168, -0.07300001, 0.218, 0.01, 29.159, -0.055, 0.196, 0.01
 169833706, 29.177, -0.059, 0.131, 0.01, 29.168, -0.07300001, 0.218, 0.01
 170033626, 29.197, -0.05, 0.038, 0.01, 29.177, -0.059, 0.131, 0.01
 170233546, 29.228, -0.066, 0.066, 0.01, 29.197, -0.05, 0.038, 0.01
 170434299, 29.23, -0.048, 0.08800001, 0.01, 29.228, -0.066, 0.066, 0.01
 170634219, 29.24, -0.038, 0.151, 0.01, 29.23, -0.048, 0.08800001, 0.01
 170834139, 29.258, -0.043, 0.191, 0.01, 29.24, -0.038, 0.151, 0.01
 171034059, 29.267, -0.056, 0.147, 0.01, 29.258, -0.043, 0.191, 0.01
 171233979, 29.291, -0.042, 0.078, 0.01, 29.267, -0.056, 0.147, 0.01
 171433899, 29.305, -0.042, 0.08000001, 0.01, 29.291, -0.042, 0.078, 0.01
 171633819, 29.295, -0.039, 0.045, 0.01, 29.305, -0.042, 0.08000001, 0.01
 171833739, 29.297, -0.031, 0.093, 0.01, 29.295, -0.039, 0.045, 0.01
 172033659, 29.249, 0.001, 0.067, 0.01, 29.297, -0.031, 0.093, 0.01
 172233579, 29.234, 0, 0.07300001, 0.01, 29.249, 0.001, 0.067, 0.01
 172433499, 29.253, -0.007, 0.07600001, 0.01, 29.234, 0, 0.07300001, 0.01
 172634252, 29.302, 0.003, 0.048, 0.01, 29.253, -0.007, 0.07600001, 0.01
 172834172, 29.236, -0.008, -0.021, 0.01, 29.302, 0.003, 0.048, 0.01
 173034092, 29.221, 0.001, -0.037, 0.01, 29.236, -0.008, -0.021, 0.01
 173234012, 29.228, 0.019, 0.039, 0.01, 29.221, 0.001, -0.037, 0.01
 173433932, 29.236, 0.022, 0.056, 0.01, 29.228, 0.019, 0.039, 0.01
 173633852, 29.287, 0.021, 0.049, 0.01, 29.236, 0.022, 0.056, 0.01
 173833772, 29.239, 0.048, -0.023, 0.01, 29.287, 0.021, 0.049, 0.01
 174033692, 29.223, 0.044, -0.08400001, 0.01, 29.239, 0.048, -0.023, 0.01
 174233612, 29.225, 0.064, -0.052, 0.01, 29.223, 0.044, -0.08400001, 0.01
 174433532, 29.232, 0.081, -0.01, 0.01, 29.225, 0.064, -0.052, 0.01
 174634285, 29.229, 0.102, -0.055, 0.01, 29.232, 0.081, -0.01, 0.01
 174834205, 29.225, 0.093, -0.035, 0.01, 29.229, 0.102, -0.055, 0.01
 175034125, 29.228, 0.086, 0.006, 0.01, 29.225, 0.093, -0.035, 0.01
 175234045, 29.238, 0.09500001, 0.042, 0.01, 29.228, 0.086, 0.006, 0.01
 175433965, 29.27, 0.1, 0.06, 0.01, 29.238, 0.09500001, 0.042, 0.01
 175633885, 29.307, 0.107, 0.054, 0.01, 29.27, 0.1, 0.06, 0.01
 175833805, 29.261, 0.108, -0.023, 0.01, 29.307, 0.107, 0.054, 0.01
 176033725, 29.235, 0.119, -0.023, 0.01, 29.261, 0.108, -0.023, 0.01
 176233645, 29.302, 0.109, 0.04, 0.01, 29.235, 0.119, -0.023, 0.01
 176433565, 29.319, 0.086, -0.033, 0.01, 29.302, 0.109, 0.04, 0.01
 176633485, 29.306, 0.06, -0.108, 0.01, 29.319, 0.086, -0.033, 0.01
 176834238, 29.255, 0.049, -0.098, 0.01, 29.306, 0.06, -0.108, 0.01
 177034158, 29.242, 0.078, -0.082, 0.01, 29.255, 0.049, -0.098, 0.01
 177234078, 29.323, 0.093, 0.012, 0.01, 29.242, 0.078, -0.082, 0.01
 177433998, 29.337, 0.103, 0.033, 0.01, 29.323, 0.093, 0.012, 0.01
 177633918, 29.325, 0.098, 0.049, 0.01, 29.337, 0.103, 0.033, 0.01
 177833838, 29.327, 0.08800001, 0.026, 0.01, 29.325, 0.098, 0.049, 0.01
 178033758, 29.326, 0.104, -0.037, 0.01, 29.327, 0.08800001, 0.026, 0.01
 178233678, 29.322, 0.098, -0.12, 0.01, 29.326, 0.104, -0.037, 0.01
 178433598, 29.318, 0.107, -0.074, 0.01, 29.322, 0.098, -0.12, 0.01
 178633518, 29.325, 0.108, -0.037, 0.01, 29.318, 0.107, -0.074, 0.01
 178834271, 29.327, 0.118, -0.011, 0.01, 29.325, 0.108, -0.037, 0.01
 179034191, 29.329, 0.156, -0.001, 0.01, 29.327, 0.118, -0.011, 0.01
 179234111, 29.332, 0.31, 0.024, 0.01, 29.329, 0.156, -0.001, 0.01
 179434031, 29.29, -0.601, -0.371, 0.01, 29.332, 0.31, 0.024, 0.01
 179633951, 28.985, -3.814, 0.774, 0.01, 29.29, -0.601, -0.371, 0.01
 179833871, 27.685, -9.693001, 0.537, 0.01, 28.985, -3.814, 0.774, 0.01
 180033791, 24.755, -15.602, -2.412, 0.01, 27.685, -9.693001, 0.537, 0.01
 180233711, 23.372, -17.541, -3.403, 0.01, 24.755, -15.602, -2.412, 0.01
 180433631, 22.876, -18.095, -2.572, 0.01, 23.372, -17.541, -3.403, 0.01
 180633551, 22.159, -18.637, -1.692, 0.01, 22.876, -18.095, -2.572, 0.01
 180834304, 21.167, -19.492, -1.239, 0.01, 22.159, -18.637, -1.692, 0.01
 181034224, 20.076, -20.484, -0.987, 0.01, 21.167, -19.492, -1.239, 0.01
 181234144, 18.942, -21.461, -0.762, 0.01, 20.076, -20.484, -0.987, 0.01
 181434064, 17.756, -22.388, -0.611, 0.01, 18.942, -21.461, -0.762, 0.01
 181633984, 16.583, -23.21, -0.377, 0.01, 17.756, -22.388, -0.611, 0.01
 181833904, 15.351, -23.993, -0.207, 0.01, 16.583, -23.21, -0.377, 0.01
 182033824, 14.108, -24.709, -0.04, 0.01, 15.351, -23.993, -0.207, 0.01
 182233744, 12.84, -25.358, 0.106, 0.01, 14.108, -24.709, -0.04, 0.01
 182433664, 11.612, -25.919, 0.273, 0.01, 12.84, -25.358, 0.106, 0.01
 182633584, 10.374, -26.408, 0.401, 0.01, 11.612, -25.919, 0.273, 0.01
 182833504, 9.145, -26.831, 0.523, 0.01, 10.374, -26.408, 0.401, 0.01
 183034257, 7.922, -27.191, 0.612, 0.01, 9.145, -26.831, 0.523, 0.01
 183234177, 6.756001, -27.477, 0.747, 0.01, 7.922, -27.191, 0.612, 0.01
 183434097, 5.632, -27.711, 0.8430001, 0.01, 6.756001, -27.477, 0.747, 0.01
 183634017, 4.557, -27.897, 0.9080001, 0.01, 5.632, -27.711, 0.8430001, 0.01
 183833937, 3.543, -28.022, 1.012, 0.01, 4.557, -27.897, 0.9080001, 0.01
 184033857, 2.593, -28.104, 1.124, 0.01, 3.543, -28.022, 1.012, 0.01
 184233777, 1.662, -28.161, 1.207, 0.01, 2.593, -28.104, 1.124, 0.01
 184433697, 0.7500001, -28.209, 1.236, 0.01, 1.662, -28.161, 1.207, 0.01
 184633617, -0.08000001, -28.22, 1.262, 0.01, 0.7500001, -28.209, 1.236, 0.01
 184833537, -0.808, -28.204, 1.349, 0.01, -0.08000001, -28.22, 1.262, 0.01
 185034290, -1.504, -28.182, 1.39, 0.01, -0.808, -28.204, 1.349, 0.01
 185234210, -2.169, -28.148, 1.401, 0.01, -1.504, -28.182, 1.39, 0.01
 185434130, -2.766, -28.119, 1.47, 0.01, -2.169, -28.148, 1.401, 0.01
 185634050, -3.31, -28.088, 1.464, 0.01, -2.766, -28.119, 1.47, 0.01
 185833970, -3.788, -28.054, 1.463, 0.01, -3.31, -28.088, 1.464, 0.01
 186033890, -4.228, -28.024, 1.428, 0.01, -3.788, -28.054, 1.463, 0.01
 186233810, -4.62, -28.008, 1.347, 0.01, -4.228, -28.024, 1.428, 0.01
 186433730, -4.929, -27.985, 1.295, 0.01, -4.62, -28.008, 1.347, 0.01
 186633650, -5.16, -27.977, 1.232, 0.01, -4.929, -27.985, 1.295, 0.01
 186833570, -5.367, -27.98, 1.139, 0.01, -5.16, -27.977, 1.232, 0.01
 187033490, -5.541, -27.982, 1.028, 0.01, -5.367, -27.98, 1.139, 0.01
 187234243, -5.649, -27.982, 0.973, 0.01, -5.541, -27.982, 1.028, 0.01
 187434163, -5.732, -27.998, 0.941, 0.01, -5.649, -27.982, 0.973, 0.01
 187634083, -5.791, -28.023, 0.849, 0.01, -5.732, -27.998, 0.941, 0.01
 187834003, -5.773, -28.047, 0.7450001, 0.01, -5.791, -28.023, 0.849, 0.01
 188033923, -5.747, -28.067, 0.7640001, 0.01, -5.773, -28.047, 0.7450001, 0.01
 188233843, -5.716, -28.091, 0.7640001, 0.01, -5.747, -28.067, 0.7640001, 0.01
 188433763, -5.632, -28.121, 0.62, 0.01, -5.716, -28.091, 0.7640001, 0.01
 188633683, -5.589, -28.141, 0.571, 0.01, -5.632, -28.121, 0.62, 0.01
 188833603, -5.443, -28.159, 0.478, 0.01, -5.589, -28.141, 0.571, 0.01
 189033523, -5.272, -28.191, 0.404, 0.01, -5.443, -28.159, 0.478, 0.01
 189234276, -5.14, -28.222, 0.354, 0.01, -5.272, -28.191, 0.404, 0.01
 189434196, -5, -28.256, 0.347, 0.01, -5.14, -28.222, 0.354, 0.01
 189634116, -4.8, -28.298, 0.321, 0.01, -5, -28.256, 0.347, 0.01
 189834036, -4.595, -28.333, 0.199, 0.01, -4.8, -28.298, 0.321, 0.01
 190033956, -4.4, -28.36, 0.116, 0.01, -4.595, -28.333, 0.199, 0.01
 190233876, -4.176, -28.385, 0.082, 0.01, -4.4, -28.36, 0.116, 0.01
 190433796, -3.976, -28.416, 0.015, 0.01, -4.176, -28.385, 0.082, 0.01
 190633716, -3.767, -28.455, 0.062, 0.01, -3.976, -28.416, 0.015, 0.01
 190833636, -3.577, -28.49, 0.131, 0.01, -3.767, -28.455, 0.062, 0.01
 191033556, -3.392, -28.528, 0.083, 0.01, -3.577, -28.49, 0.131, 0.01
 191233476, -3.203, -28.569, 0.027, 0.01, -3.392, -28.528, 0.083, 0.01
 191434229, -2.99, -28.61, -0.058, 0.01, -3.203, -28.569, 0.027, 0.01
 191634149, -2.8, -28.629, -0.038, 0.01, -2.99, -28.61, -0.058, 0.01
 191834069, -2.622, -28.66, -0.054, 0.01, -2.8, -28.629, -0.038, 0.01
 192033989, -2.412, -28.694, -0.09900001, 0.01, -2.622, -28.66, -0.054, 0.01
 192233909, -2.196, -28.726, -0.143, 0.01, -2.412, -28.694, -0.09900001, 0.01
 192433829, -2.026, -28.749, -0.171, 0.01, -2.196, -28.726, -0.143, 0.01
 192633749, -1.84, -28.765, -0.208, 0.01, -2.026, -28.749, -0.171, 0.01
 192833669, -1.677, -28.788, -0.224, 0.01, -1.84, -28.765, -0.208, 0.01
 193033589, -1.543, -28.802, -0.215, 0.01, -1.677, -28.788, -0.224, 0.01
 193233509, -1.392, -28.811, -0.279, 0.01, -1.543, -28.802, -0.215, 0.01
 193434262, -1.217, -28.807, -0.305, 0.01, -1.392, -28.811, -0.279, 0.01
 193634182, -1.057, -28.81, -0.372, 0.01, -1.217, -28.807, -0.305, 0.01
 193834102, -0.915, -28.84, -0.414, 0.01, -1.057, -28.81, -0.372, 0.01
 194034022, -0.79, -28.851, -0.354, 0.01, -0.915, -28.84, -0.414, 0.01
 194233942, -0.666, -28.857, -0.351, 0.01, -0.79, -28.851, -0.354, 0.01
 194433862, -0.55, -28.869, -0.469, 0.01, -0.666, -28.857, -0.351, 0.01
 194633782, -0.466, -28.878, -0.427, 0.01, -0.55, -28.869, -0.469, 0.01
 194833702, -0.382, -28.894, -0.453, 0.01, -0.466, -28.878, -0.427, 0.01
 195033622, -0.282, -28.904, -0.482, 0.01, -0.382, -28.894, -0.453, 0.01
 195233542, -0.205, -28.913, -0.482, 0.01, -0.282, -28.904, -0.482, 0.01
 195434295, -0.157, -28.918, -0.435, 0.01, -0.205, -28.913, -0.482, 0.01
 195634215, -0.09900001, -28.932, -0.317, 0.01, -0.157, -28.918, -0.435, 0.01
 195834135, 0.028, -28.951, -0.438, 0.01, -0.09900001, -28.932, -0.317, 0.01
 196034055, 0.063, -28.983, -0.428, 0.01, 0.028, -28.951, -0.438, 0.01
 196233975, 0.127, -28.987, -0.467, 0.01, 0.063, -28.983, -0.428, 0.01
 196433895, 0.167, -28.988, -0.506, 0.01, 0.127, -28.987, -0.467, 0.01
 196633815, 0.195, -28.996, -0.518, 0.01, 0.167, -28.988, -0.506, 0.01
 196833735, 0.213, -29.004, -0.497, 0.01, 0.195, -28.996, -0.518, 0.01
 197033655, 0.281, -29.015, -0.492, 0.01, 0.213, -29.004, -0.497, 0.01
 197233575, 0.319, -29.029, -0.466, 0.01, 0.281, -29.015, -0.492, 0.01
 197433495, 0.338, -29.044, -0.474, 0.01, 0.319, -29.029, -0.466, 0.01
 197634248, 0.347, -29.046, -0.493, 0.01, 0.338, -29.044, -0.474, 0.01
 197834168, 0.353, -29.053, -0.466, 0.01, 0.347, -29.046, -0.493, 0.01
 198034088, 0.37, -29.054, -0.514, 0.01, 0.353, -29.053, -0.466, 0.01
 198234008, 0.378, -29.064, -0.487, 0.01, 0.37, -29.054, -0.514, 0.01
 198433928, 0.354, -29.069, -0.527, 0.01, 0.378, -29.064, -0.487, 0.01
 198633848, 0.396, -29.059, -0.536, 0.01, 0.354, -29.069, -0.527, 0.01
 198833768, 0.397, -29.049, -0.481, 0.01, 0.396, -29.059, -0.536, 0.01
 199033688, 0.4, -29.039, -0.422, 0.01, 0.397, -29.049, -0.481, 0.01
 199233608, 0.403, -29.024, -0.538, 0.01, 0.4, -29.039, -0.422, 0.01
 199433528, 0.368, -29.01, -0.489, 0.01, 0.403, -29.024, -0.538, 0.01
 199634281, 0.365, -29.015, -0.381, 0.01, 0.368, -29.01, -0.489, 0.01
 199834201, 0.432, -29.016, -0.315, 0.01, 0.365, -29.015, -0.381, 0.01
 200034121, 0.424, -29.013, -0.343, 0.01, 0.432, -29.016, -0.315, 0.01
 200234041, 0.42, -29.013, -0.307, 0.01, 0.424, -29.013, -0.343, 0.01
 200433961, 0.274, -29.01, -0.302, 0.01, 0.42, -29.013, -0.307, 0.01
 200633881, 0.238, -29.012, -0.293, 0.01, 0.274, -29.01, -0.302, 0.01
 200833801, 0.255, -29.01, -0.349, 0.01, 0.238, -29.012, -0.293, 0.01
 201033721, 0.238, -29.008, -0.333, 0.01, 0.255, -29.01, -0.349, 0.01
 201233641, 0.229, -29.008, -0.321, 0.01, 0.238, -29.008, -0.333, 0.01
 201433561, 0.226, -29.003, -0.331, 0.01, 0.229, -29.008, -0.321, 0.01
 201633481, 0.227, -29.006, -0.253, 0.01, 0.226, -29.003, -0.331, 0.01
 201834234, 0.22, -29.005, -0.351, 0.01, 0.227, -29.006, -0.253, 0.01
 202034154, 0.234, -28.993, -0.312, 0.01, 0.22, -29.005, -0.351, 0.01
 202234074, 0.24, -28.954, -0.249, 0.01, 0.234, -28.993, -0.312, 0.01
 202433994, 0.228, -28.943, -0.247, 0.01, 0.24, -28.954, -0.249, 0.01
 202633914, 0.228, -28.948, -0.215, 0.01, 0.228, -28.943, -0.247, 0.01
 202833834, 0.208, -28.98, -0.204, 0.01, 0.228, -28.948, -0.215, 0.01
 203033754, 0.163, -28.949, -0.221, 0.01, 0.208, -28.98, -0.204, 0.01
 203233674, 0.147, -28.936, -0.234, 0.01, 0.163, -28.949, -0.221, 0.01
 203433594, 0.148, -28.939, -0.209, 0.01, 0.147, -28.936, -0.234, 0.01
 203633514, 0.133, -28.943, -0.217, 0.01, 0.148, -28.939, -0.209, 0.01
 203834267, 0.121, -28.95, -0.188, 0.01, 0.133, -28.943, -0.217, 0.01
 204034187, 0.09, -28.984, -0.129, 0.01, 0.121, -28.95, -0.188, 0.01
 204234107, 0.059, -29.006, -0.106, 0.01, 0.09, -28.984, -0.129, 0.01
 204434027, 0.044, -28.968, -0.109, 0.01, 0.059, -29.006, -0.106, 0.01
 204633947, 0.036, -28.94, -0.145, 0.01, 0.044, -28.968, -0.109, 0.01
 204833867, 0.027, -29.012, -0.145, 0.01, 0.036, -28.94, -0.145, 0.01
 205033787, -0.012, -29.027, -0.146, 0.01, 0.027, -29.012, -0.145, 0.01
 205233707, -0.02, -29.018, -0.138, 0.01, -0.012, -29.027, -0.146, 0.01
 205433627, -0.003, -28.96, -0.194, 0.01, -0.02, -29.018, -0.138, 0.01
 205633547, -0.019, -28.951, -0.142, 0.01, -0.003, -28.96, -0.194, 0.01
 205834300, -0.038, -29.024, -0.037, 0.01, -0.019, -28.951, -0.142, 0.01
 206034220, -0.054, -29.038, -0.002, 0.01, -0.038, -29.024, -0.037, 0.01
 206234140, -0.115, -29.028, -0.127, 0.01, -0.054, -29.038, -0.002, 0.01
 206434060, -0.168, -29.025, -0.139, 0.01, -0.115, -29.028, -0.127, 0.01
 206633980, -0.148, -29.037, -0.06900001, 0.01, -0.168, -29.025, -0.139, 0.01
 206833900, -0.129, -29.036, -0.068, 0.01, -0.148, -29.037, -0.06900001, 0.01
 207033820, -0.129, -29.024, -0.093, 0.01, -0.129, -29.036, -0.068, 0.01
 207233740, -0.129, -29.003, -0.118, 0.01, -0.129, -29.024, -0.093, 0.01
 207433660, -0.015, -28.951, -0.087, 0.01, -0.129, -29.003, -0.118, 0.01
 207633580, 0.035, -29.02, 0.006, 0.01, -0.015, -28.951, -0.087, 0.01
 207833500, 0.031, -29.024, -0.013, 0.01, 0.035, -29.02, 0.006, 0.01
 208034253, 0.021, -29.001, -0.08800001, 0.01, 0.031, -29.024, -0.013, 0.01
 208234173, 0.006, -28.937, -0.106, 0.01, 0.021, -29.001, -0.08800001, 0.01
 208434093, 0.007, -28.938, -0.106, 0.01, 0.006, -28.937, -0.106, 0.01
 208634013, 0.018, -28.997, -0.026, 0.01, 0.007, -28.938, -0.106, 0.01
 208833933, 0.024, -29.008, -0.033, 0.01, 0.018, -28.997, -0.026, 0.01
 209033853, 0.045, -28.929, -0.109, 0.01, 0.024, -29.008, -0.033, 0.01
 209233773, 0.055, -28.911, -0.178, 0.01, 0.045, -28.929, -0.109, 0.01
 209433693, 0.057, -28.918, -0.164, 0.01, 0.055, -28.911, -0.178, 0.01
 209633613, 0.035, -28.923, -0.079, 0.01, 0.057, -28.918, -0.164, 0.01
 209833533, 0.116, -28.924, -0.142, 0.01, 0.035, -28.923, -0.079, 0.01
 210034286, -2.387, -28.765, -0.021, 0.01, 0.116, -28.924, -0.142, 0.01
 210234206, -6.374, -28.305, 1.103, 0.01, -2.387, -28.765, -0.021, 0.01
 210434126, -13.19, -25.924, -1.021, 0.01, -6.374, -28.305, 1.103, 0.01
 210634046, -16.702, -23.744, -3.241, 0.01, -13.19, -25.924, -1.021, 0.01
 210833966, -17.635, -23.075, -2.974, 0.01, -16.702, -23.744, -3.241, 0.01
 211033886, -18.112, -22.475, -2.025, 0.01, -17.635, -23.075, -2.974, 0.01
 211233806, -18.872, -21.585, -1.382, 0.01, -18.112, -22.475, -2.025, 0.01
 211433726, -19.881, -20.525, -1.074, 0.01, -18.872, -21.585, -1.382, 0.01
 211633646, -20.911, -19.394, -0.9080001, 0.01, -19.881, -20.525, -1.074, 0.01
 211833566, -21.831, -18.278, -0.697, 0.01, -20.911, -19.394, -0.9080001, 0.01
 212033486, -22.69, -17.116, -0.506, 0.01, -21.831, -18.278, -0.697, 0.01
 212234239, -23.523, -15.868, -0.353, 0.01, -22.69, -17.116, -0.506, 0.01
 212434159, -24.28, -14.615, -0.197, 0.01, -23.523, -15.868, -0.353, 0.01
 212634079, -24.954, -13.378, -0.005, 0.01, -24.28, -14.615, -0.197, 0.01
 212833999, -25.548, -12.145, 0.153, 0.01, -24.954, -13.378, -0.005, 0.01
 213033919, -26.068, -10.93, 0.292, 0.01, -25.548, -12.145, 0.153, 0.01
 213233839, -26.525, -9.679001, 0.39, 0.01, -26.068, -10.93, 0.292, 0.01
 213433759, -26.904, -8.476001, 0.5, 0.01, -26.525, -9.679001, 0.39, 0.01
 213633679, -27.224, -7.293, 0.608, 0.01, -26.904, -8.476001, 0.5, 0.01
 213833599, -27.489, -6.168, 0.728, 0.01, -27.224, -7.293, 0.608, 0.01
 214033519, -27.684, -5.108, 0.848, 0.01, -27.489, -6.168, 0.728, 0.01
 214234272, -27.833, -4.087, 0.952, 0.01, -27.684, -5.108, 0.848, 0.01
 214434192, -27.932, -3.064, 1.016, 0.01, -27.833, -4.087, 0.952, 0.01
 214634112, -27.997, -2.15, 1.15, 0.01, -27.932, -3.064, 1.016, 0.01
 214834032, -28.04, -1.233, 1.196, 0.01, -27.997, -2.15, 1.15, 0.01
 215033952, -28.05, -0.385, 1.245, 0.01, -28.04, -1.233, 1.196, 0.01
 215233872, -28.045, 0.408, 1.281, 0.01, -28.05, -0.385, 1.245, 0.01
 215433792, -28.027, 1.121, 1.332, 0.01, -28.045, 0.408, 1.281, 0.01
 215633712, -28.014, 1.766, 1.384, 0.01, -28.027, 1.121, 1.332, 0.01
 215833632, -27.976, 2.347, 1.407, 0.01, -28.014, 1.766, 1.384, 0.01
 216033552, -27.945, 2.897, 1.39, 0.01, -27.976, 2.347, 1.407, 0.01
 216234305, -27.914, 3.382, 1.39, 0.01, -27.945, 2.897, 1.39, 0.01
 216434225, -27.881, 3.785, 1.395, 0.01, -27.914, 3.382, 1.39, 0.01
 216634145, -27.858, 4.174, 1.352, 0.01, -27.881, 3.785, 1.395, 0.01
 216834065, -27.842, 4.506, 1.32, 0.01, -27.858, 4.174, 1.352, 0.01
 217033985, -27.842, 4.787, 1.251, 0.01, -27.842, 4.506, 1.32, 0.01
 217233905, -27.852, 4.994, 1.25, 0.01, -27.842, 4.787, 1.251, 0.01
 217433825, -27.877, 5.148, 1.176, 0.01, -27.852, 4.994, 1.25, 0.01
 217633745, -27.893, 5.288, 1.1, 0.01, -27.877, 5.148, 1.176, 0.01
 217833665, -27.922, 5.374, 1.076, 0.01, -27.893, 5.288, 1.1, 0.01
 218033585, -27.978, 5.429, 0.9990001, 0.01, -27.922, 5.374, 1.076, 0.01
 218233505, -28.028, 5.459, 0.897, 0.01, -27.978, 5.429, 0.9990001, 0.01
 218434258, -28.038, 5.468, 0.8060001, 0.01, -28.028, 5.459, 0.897, 0.01
 218634178, -28.072, 5.436, 0.719, 0.01, -28.038, 5.468, 0.8060001, 0.01
 218834098, -28.127, 5.378, 0.601, 0.01, -28.072, 5.436, 0.719, 0.01
 219034018, -28.158, 5.307, 0.536, 0.01, -28.127, 5.378, 0.601, 0.01
 219233938, -28.173, 5.219, 0.43, 0.01, -28.158, 5.307, 0.536, 0.01
 219433858, -28.178, 5.08, 0.356, 0.01, -28.173, 5.219, 0.43, 0.01
 219633778, -28.223, 4.932, 0.388, 0.01, -28.178, 5.08, 0.356, 0.01
 219833698, -28.258, 4.766, 0.269, 0.01, -28.223, 4.932, 0.388, 0.01
 220033618, -28.288, 4.599, 0.243, 0.01, -28.258, 4.766, 0.269, 0.01
 220233538, -28.333, 4.444, 0.191, 0.01, -28.288, 4.599, 0.243, 0.01
 220434291, -28.364, 4.298, 0.119, 0.01, -28.333, 4.444, 0.191, 0.01
 220634211, -28.395, 4.104, 0.119, 0.01, -28.364, 4.298, 0.119, 0.01
 220834131, -28.422, 3.908, 0.057, 0.01, -28.395, 4.104, 0.119, 0.01
 221034051, -28.476, 3.705, 0.01, 0.01, -28.422, 3.908, 0.057, 0.01
 221233971, -28.529, 3.518, -0.026, 0.01, -28.476, 3.705, 0.01, 0.01
 221433891, -28.534, 3.353, -0.16, 0.01, -28.529, 3.518, -0.026, 0.01
 221633811, -28.569, 3.175, -0.127, 0.01, -28.534, 3.353, -0.16, 0.01
 221833731, -28.591, 2.979, -0.108, 0.01, -28.569, 3.175, -0.127, 0.01
 222033651, -28.607, 2.775, -0.163, 0.01, -28.591, 2.979, -0.108, 0.01
 222233571, -28.622, 2.606, -0.209, 0.01, -28.607, 2.775, -0.163, 0.01
 222433491, -28.643, 2.441, -0.254, 0.01, -28.622, 2.606, -0.209, 0.01
 222634244, -28.665, 2.296, -0.315, 0.01, -28.643, 2.441, -0.254, 0.01
 222834164, -28.709, 2.11, -0.307, 0.01, -28.665, 2.296, -0.315, 0.01
 223034084, -28.737, 1.938, -0.293, 0.01, -28.709, 2.11, -0.307, 0.01
 223234004, -28.747, 1.776, -0.311, 0.01, -28.737, 1.938, -0.293, 0.01
 223433924, -28.757, 1.635, -0.349, 0.01, -28.747, 1.776, -0.311, 0.01
 223633844, -28.754, 1.489, -0.378, 0.01, -28.757, 1.635, -0.349, 0.01
 223833764, -28.763, 1.33, -0.349, 0.01, -28.754, 1.489, -0.378, 0.01
 224033684, -28.794, 1.172, -0.349, 0.01, -28.763, 1.33, -0.349, 0.01
 224233604, -28.822, 1.047, -0.371, 0.01, -28.794, 1.172, -0.349, 0.01
 224433524, -28.842, 0.932, -0.325, 0.01, -28.822, 1.047, -0.371, 0.01
 224634277, -28.85, 0.791, -0.383, 0.01, -28.842, 0.932, -0.325, 0.01
 224834197, -28.856, 0.683, -0.397, 0.01, -28.85, 0.791, -0.383, 0.01
 225034117, -28.865, 0.58, -0.471, 0.01, -28.856, 0.683, -0.397, 0.01
 225234037, -28.869, 0.494, -0.485, 0.01, -28.865, 0.58, -0.471, 0.01
 225433957, -28.882, 0.42, -0.426, 0.01, -28.869, 0.494, -0.485, 0.01
 225633877, -28.897, 0.34, -0.429, 0.01, -28.882, 0.42, -0.426, 0.01
 225833797, -28.904, 0.272, -0.414, 0.01, -28.897, 0.34, -0.429, 0.01
 226033717, -28.896, 0.179, -0.446, 0.01, -28.904, 0.272, -0.414, 0.01
 226233637, -28.896, 0.127, -0.443, 0.01, -28.896, 0.179, -0.446, 0.01
 226433557, -28.894, 0.083, -0.47, 0.01, -28.896, 0.127, -0.443, 0.01
 226633477, -28.904, 0.015, -0.433, 0.01, -28.894, 0.083, -0.47, 0.01
 226834230, -28.904, -0.035, -0.407, 0.01, -28.904, 0.015, -0.433, 0.01
 227034150, -28.878, -0.071, -0.45, 0.01, -28.904, -0.035, -0.407, 0.01
 227234070, -28.875, -0.07300001, -0.426, 0.01, -28.878, -0.071, -0.45, 0.01
 227433990, -28.884, -0.087, -0.393, 0.01, -28.875, -0.07300001, -0.426, 0.01
 227633910, -28.878, -0.123, -0.441, 0.01, -28.884, -0.087, -0.393, 0.01
 227833830, -28.862, -0.165, -0.413, 0.01, -28.878, -0.123, -0.441, 0.01
 228033750, -28.859, -0.221, -0.409, 0.01, -28.862, -0.165, -0.413, 0.01
 228233670, -28.867, -0.255, -0.366, 0.01, -28.859, -0.221, -0.409, 0.01
 228433590, -28.863, -0.266, -0.342, 0.01, -28.867, -0.255, -0.366, 0.01
 228633510, -28.856, -0.293, -0.343, 0.01, -28.863, -0.266, -0.342, 0.01
 228834263, -28.845, -0.302, -0.373, 0.01, -28.856, -0.293, -0.343, 0.01
 229034183, -28.84, -0.301, -0.305, 0.01, -28.845, -0.302, -0.373, 0.01
 229234103, -28.838, -0.325, -0.325, 0.01, -28.84, -0.301, -0.305, 0.01
 229434023, -28.845, -0.314, -0.254, 0.01, -28.838, -0.325, -0.325, 0.01
 229633943, -28.843, -0.296, -0.241, 0.01, -28.845, -0.314, -0.254, 0.01
 229833863, -28.842, -0.407, -0.342, 0.01, -28.843, -0.296, -0.241, 0.01
 230033783, -28.686, 2.055, -0.272, 0.01, -28.842, -0.407, -0.342, 0.01
 230233703, -28.277, 6.03, 0.923, 0.01, -28.686, 2.055, -0.272, 0.01
 230433623, -25.933, 13.085, -1.053, 0.01, -28.277, 6.03, 0.923, 0.01
 230633543, -23.574, 16.869, -3.42, 0.01, -25.933, 13.085, -1.053, 0.01
 230834296, -22.897, 17.928, -3.214, 0.01, -23.574, 16.869, -3.42, 0.01
 231034216, -22.343, 18.477, -2.247, 0.01, -22.897, 17.928, -3.214, 0.01
 231234136, -21.461, 19.247, -1.646, 0.01, -22.343, 18.477, -2.247, 0.01
 231434056, -20.404, 20.237, -1.317, 0.01, -21.461, 19.247, -1.646, 0.01
 231633976, -19.253, 21.271, -1.106, 0.01, -20.404, 20.237, -1.317, 0.01
 231833896, -18.06, 22.233, -0.9260001, 0.01, -19.253, 21.271, -1.106, 0.01
 232033816, -16.831, 23.124, -0.749, 0.01, -18.06, 22.233, -0.9260001, 0.01
 232233736, -15.613, 23.912, -0.546, 0.01, -16.831, 23.124, -0.749, 0.01
 232433656, -14.373, 24.647, -0.367, 0.01, -15.613, 23.912, -0.546, 0.01
 232633576, -13.156, 25.285, -0.171, 0.01, -14.373, 24.647, -0.367, 0.01
 232833496, -11.852, 25.89, -0.061, 0.01, -13.156, 25.285, -0.171, 0.01
 233034249, -10.562, 26.397, 0.034, 0.01, -11.852, 25.89, -0.061, 0.01
 233234169, -9.343, 26.811, 0.159, 0.01, -10.562, 26.397, 0.034, 0.01
 233434089, -8.191, 27.148, 0.307, 0.01, -9.343, 26.811, 0.159, 0.01
 233634009, -7.099, 27.402, 0.507, 0.01, -8.191, 27.148, 0.307, 0.01
 233833929, -5.965, 27.638, 0.609, 0.01, -7.099, 27.402, 0.507, 0.01
 234033849, -4.922, 27.818, 0.766, 0.01, -5.965, 27.638, 0.609, 0.01
 234233769, -3.897, 27.966, 0.835, 0.01, -4.922, 27.818, 0.766, 0.01
 234433689, -2.919, 28.056, 0.9350001, 0.01, -3.897, 27.966, 0.835, 0.01
 234633609, -2, 28.12, 1.03, 0.01, -2.919, 28.056, 0.9350001, 0.01
 234833529, -1.12, 28.154, 1.09, 0.01, -2, 28.12, 1.03, 0.01
 235034282, -0.321, 28.17, 1.202, 0.01, -1.12, 28.154, 1.09, 0.01
 235234202, 0.439, 28.169, 1.226, 0.01, -0.321, 28.17, 1.202, 0.01
 235434122, 1.136, 28.153, 1.297, 0.01, 0.439, 28.169, 1.226, 0.01
 235634042, 1.803, 28.122, 1.309, 0.01, 1.136, 28.153, 1.297, 0.01
 235833962, 2.36, 28.088, 1.383, 0.01, 1.803, 28.122, 1.309, 0.01
 236033882, 2.864, 28.055, 1.403, 0.01, 2.36, 28.088, 1.383, 0.01
 236233802, 3.329, 28.016, 1.404, 0.01, 2.864, 28.055, 1.403, 0.01
 236433722, 3.756, 27.989, 1.34, 0.01, 3.329, 28.016, 1.404, 0.01
 236633642, 4.14, 27.972, 1.262, 0.01, 3.756, 27.989, 1.34, 0.01
 236833562, 4.43, 27.967, 1.282, 0.01, 4.14, 27.972, 1.262, 0.01
 237033482, 4.695, 27.968, 1.248, 0.01, 4.43, 27.967, 1.282, 0.01
 237234235, 4.885, 27.973, 1.223, 0.01, 4.695, 27.968, 1.248, 0.01
 237434155, 5.032, 27.99, 1.085, 0.01, 4.885, 27.973, 1.223, 0.01
 237634075, 5.158, 28.003, 1.058, 0.01, 5.032, 27.99, 1.085, 0.01
 237833995, 5.273, 28.022, 0.9820001, 0.01, 5.158, 28.003, 1.058, 0.01
 238033915, 5.308, 28.056, 0.8650001, 0.01, 5.273, 28.022, 0.9820001, 0.01
 238233835, 5.313, 28.088, 0.8100001, 0.01, 5.308, 28.056, 0.8650001, 0.01
 238433755, 5.329, 28.117, 0.7320001, 0.01, 5.313, 28.088, 0.8100001, 0.01
 238633675, 5.309, 28.14, 0.648, 0.01, 5.329, 28.117, 0.7320001, 0.01
 238833595, 5.254, 28.172, 0.516, 0.01, 5.309, 28.14, 0.648, 0.01
 239033515, 5.156, 28.188, 0.5, 0.01, 5.254, 28.172, 0.516, 0.01
 239234268, 5.032, 28.223, 0.382, 0.01, 5.156, 28.188, 0.5, 0.01
 239434188, 4.921, 28.272, 0.352, 0.01, 5.032, 28.223, 0.382, 0.01
 239634108, 4.811, 28.296, 0.374, 0.01, 4.921, 28.272, 0.352, 0.01
 239834028, 4.653, 28.323, 0.298, 0.01, 4.811, 28.296, 0.374, 0.01
 240033948, 4.461, 28.336, 0.12, 0.01, 4.653, 28.323, 0.298, 0.01
 240233868, 4.322, 28.367, 0.072, 0.01, 4.461, 28.336, 0.12, 0.01
 240433788, 4.171, 28.393, 0.056, 0.01, 4.322, 28.367, 0.072, 0.01
 240633708, 4.004, 28.419, -0.043, 0.01, 4.171, 28.393, 0.056, 0.01
 240833628, 3.837, 28.442, -0.037, 0.01, 4.004, 28.419, -0.043, 0.01
 241033548, 3.661, 28.495, -0.063, 0.01, 3.837, 28.442, -0.037, 0.01
 241234301, 3.471, 28.52, -0.119, 0.01, 3.661, 28.495, -0.063, 0.01
 241434221, 3.299, 28.539, -0.132, 0.01, 3.471, 28.52, -0.119, 0.01
 241634141, 3.147, 28.55, -0.181, 0.01, 3.299, 28.539, -0.132, 0.01
 241834061, 2.99, 28.564, -0.248, 0.01, 3.147, 28.55, -0.181, 0.01
 242033981, 2.815, 28.583, -0.142, 0.01, 2.99, 28.564, -0.248, 0.01
 242233901, 2.617, 28.61, -0.227, 0.01, 2.815, 28.583, -0.142, 0.01
 242433821, 2.43, 28.637, -0.289, 0.01, 2.617, 28.61, -0.227, 0.01
 242633741, 2.249, 28.659, -0.341, 0.01, 2.43, 28.637, -0.289, 0.01
 242833661, 2.093, 28.688, -0.377, 0.01, 2.249, 28.659, -0.341, 0.01
 243033581, 1.923, 28.721, -0.344, 0.01, 2.093, 28.688, -0.377, 0.01
 243233501, 1.749, 28.736, -0.33, 0.01, 1.923, 28.721, -0.344, 0.01
 243434254, 1.605, 28.754, -0.368, 0.01, 1.749, 28.736, -0.33, 0.01
 243634174, 1.471, 28.767, -0.408, 0.01, 1.605, 28.754, -0.368, 0.01
 243834094, 1.332, 28.786, -0.472, 0.01, 1.471, 28.767, -0.408, 0.01
 244034014, 1.181, 28.804, -0.535, 0.01, 1.332, 28.786, -0.472, 0.01
 244233934, 1.067, 28.818, -0.455, 0.01, 1.181, 28.804, -0.535, 0.01
 244433854, 0.979, 28.851, -0.408, 0.01, 1.067, 28.818, -0.455, 0.01
 244633774, 0.8700001, 28.867, -0.457, 0.01, 0.979, 28.851, -0.408, 0.01
 244833694, 0.748, 28.859, -0.512, 0.01, 0.8700001, 28.867, -0.457, 0.01
 245033614, 0.652, 28.85, -0.49, 0.01, 0.748, 28.859, -0.512, 0.01
 245233534, 0.567, 28.839, -0.497, 0.01, 0.652, 28.85, -0.49, 0.01
 245434287, 0.469, 28.843, -0.495, 0.01, 0.567, 28.839, -0.497, 0.01
 245634207, 0.393, 28.843, -0.445, 0.01, 0.469, 28.843, -0.495, 0.01
 245834127, 0.312, 28.846, -0.402, 0.01, 0.393, 28.843, -0.445, 0.01
 246034047, 0.243, 28.862, -0.41, 0.01, 0.312, 28.846, -0.402, 0.01
 246233967, 0.181, 28.848, -0.488, 0.01, 0.243, 28.862, -0.41, 0.01
 246433887, 0.127, 28.828, -0.52, 0.01, 0.181, 28.848, -0.488, 0.01
 246633807, 0.1, 28.834, -0.419, 0.01, 0.127, 28.828, -0.52, 0.01
 246833727, 0.047, 28.833, -0.376, 0.01, 0.1, 28.834, -0.419, 0.01
 247033647, 0.022, 28.827, -0.387, 0.01, 0.047, 28.833, -0.376, 0.01
 247233567, -0.003, 28.824, -0.338, 0.01, 0.022, 28.827, -0.387, 0.01
 247433487, -0.062, 28.817, -0.382, 0.01, -0.003, 28.824, -0.338, 0.01
 247634240, -0.115, 28.815, -0.381, 0.01, -0.062, 28.817, -0.382, 0.01
 247834160, -0.121, 28.817, -0.381, 0.01, -0.115, 28.815, -0.381, 0.01
 248034080, -0.126, 28.819, -0.385, 0.01, -0.121, 28.817, -0.381, 0.01
 248234000, -0.143, 28.808, -0.306, 0.01, -0.126, 28.819, -0.385, 0.01
 248433920, -0.177, 28.817, -0.284, 0.01, -0.143, 28.808, -0.306, 0.01
 248633840, -0.242, 28.784, -0.317, 0.01, -0.177, 28.817, -0.284, 0.01
 248833760, -0.245, 28.779, -0.293, 0.01, -0.242, 28.784, -0.317, 0.01
 249033680, -0.244, 28.783, -0.281, 0.01, -0.245, 28.779, -0.293, 0.01
 249233600, -0.268, 28.775, -0.268, 0.01, -0.244, 28.783, -0.281, 0.01
 249433520, -0.251, 28.765, -0.299, 0.01, -0.268, 28.775, -0.268, 0.01
 249634273, -0.264, 28.753, -0.239, 0.01, -0.251, 28.765, -0.299, 0.01
 249834193, -0.271, 28.759, -0.214, 0.01, -0.264, 28.753, -0.239, 0.01
 250034113, -0.27, 28.768, -0.261, 0.01, -0.271, 28.759, -0.214, 0.01
 250234033, -0.303, 28.786, -0.245, 0.01, -0.27, 28.768, -0.261, 0.01
 250433953, -0.315, 28.788, -0.189, 0.01, -0.303, 28.786, -0.245, 0.01
 250633873, -0.297, 28.805, -0.116, 0.01, -0.315, 28.788, -0.189, 0.01
 250833793, -0.272, 28.813, -0.11, 0.01, -0.297, 28.805, -0.116, 0.01
 251033713, -0.255, 28.815, -0.128, 0.01, -0.272, 28.813, -0.11, 0.01
 251233633, -0.231, 28.828, -0.152, 0.01, -0.255, 28.815, -0.128, 0.01
 251433553, -0.239, 28.821, -0.213, 0.01, -0.231, 28.828, -0.152, 0.01
 251633473, -0.244, 28.807, -0.258, 0.01, -0.239, 28.821, -0.213, 0.01
 251834226, -0.21, 28.808, -0.157, 0.01, -0.244, 28.807, -0.258, 0.01
 252034146, -0.169, 28.809, -0.09200001, 0.01, -0.21, 28.808, -0.157, 0.01
 252234066, -0.177, 28.816, -0.093, 0.01, -0.169, 28.809, -0.09200001, 0.01
 252433986, -0.167, 28.824, -0.093, 0.01, -0.177, 28.816, -0.093, 0.01
 252633906, -0.168, 28.837, -0.07700001, 0.01, -0.167, 28.824, -0.093, 0.01
 252833826, -0.16, 28.845, -0.122, 0.01, -0.168, 28.837, -0.07700001, 0.01
 253033746, -0.135, 28.84, -0.136, 0.01, -0.16, 28.845, -0.122, 0.01
 253233666, -0.117, 28.828, -0.08000001, 0.01, -0.135, 28.84, -0.136, 0.01
 253433586, -0.118, 28.813, -0.096, 0.01, -0.117, 28.828, -0.08000001, 0.01
 253633506, -0.102, 28.813, -0.08800001, 0.01, -0.118, 28.813, -0.096, 0.01
 253834259, -0.09100001, 28.832, -0.071, 0.01, -0.102, 28.813, -0.08800001, 0.01
 254034179, -0.108, 28.848, -0.028, 0.01, -0.09100001, 28.832, -0.071, 0.01
 254234099, -0.105, 28.857, -0.046, 0.01, -0.108, 28.848, -0.028, 0.01
 254434019, -0.112, 28.867, -0.09200001, 0.01, -0.105, 28.857, -0.046, 0.01
 254633939, -0.07600001, 28.876, -0.035, 0.01, -0.112, 28.867, -0.09200001, 0.01
 254833859, -0.06500001, 28.886, 0.059, 0.01, -0.07600001, 28.876, -0.035, 0.01
 255033779, -0.039, 28.876, -0.068, 0.01, -0.06500001, 28.886, 0.059, 0.01
 255233699, -0.049, 28.867, -0.087, 0.01, -0.039, 28.876, -0.068, 0.01
 255433619, -0.074, 28.876, -0.041, 0.01, -0.049, 28.867, -0.087, 0.01
 255633539, -0.087, 28.867, -0.105, 0.01, -0.074, 28.876, -0.041, 0.01
 255834292, -0.081, 28.851, -0.09500001, 0.01, -0.087, 28.867, -0.105, 0.01
 256034212, -0.042, 28.841, -0.125, 0.01, -0.081, 28.851, -0.09500001, 0.01
 256234132, -0.048, 28.853, -0.09100001, 0.01, -0.042, 28.841, -0.125, 0.01
 256434052, -0.049, 28.843, -0.062, 0.01, -0.048, 28.853, -0.09100001, 0.01
 256633972, -0.001, 28.833, -0.06, 0.01, -0.049, 28.843, -0.062, 0.01
 256833892, -0.015, 28.829, -0.07, 0.01, -0.001, 28.833, -0.06, 0.01
 257033812, -0.082, 28.831, -0.129, 0.01, -0.015, 28.829, -0.07, 0.01
 257233732, -0.101, 28.821, -0.155, 0.01, -0.082, 28.831, -0.129, 0.01
 257433652, -0.08800001, 28.827, -0.083, 0.01, -0.101, 28.821, -0.155, 0.01
 257633572, -0.07600001, 28.839, -0.012, 0.01, -0.08800001, 28.827, -0.083, 0.01
 257833492, -0.04, 28.858, -0.015, 0.01, -0.07600001, 28.839, -0.012, 0.01
 258034245, -0.054, 28.868, -0.047, 0.01, -0.04, 28.858, -0.015, 0.01
 258234165, -0.053, 28.882, -0.09500001, 0.01, -0.054, 28.868, -0.047, 0.01
 258434085, 0.001, 28.894, -0.045, 0.01, -0.053, 28.882, -0.09500001, 0.01
 258634005, 0.026, 28.893, -0.003, 0.01, 0.001, 28.894, -0.045, 0.01
 258833925, 0.034, 28.889, 0.022, 0.01, 0.026, 28.893, -0.003, 0.01
 259033845, 0.029, 28.884, -0.059, 0.01, 0.034, 28.889, 0.022, 0.01
 259233765, 0.027, 28.878, -0.138, 0.01, 0.029, 28.884, -0.059, 0.01
 259433685, 0.015, 28.88, -0.086, 0.01, 0.027, 28.878, -0.138, 0.01
 259633605, -0.112, 28.864, -0.149, 0.01, 0.015, 28.88, -0.086, 0.01
 259833525, 0.7600001, 28.818, -0.479, 0.01, -0.112, 28.864, -0.149, 0.01
 260034278, 3.819, 28.573, 0.7410001, 0.01, 0.7600001, 28.818, -0.479, 0.01
 260234198, 9.616, 27.368, 0.486, 0.01, 3.819, 28.573, 0.7410001, 0.01
 260434118, 15.405, 24.553, -2.493, 0.01, 9.616, 27.368, 0.486, 0.01
 260634038, 17.235, 23.313, -3.341, 0.01, 15.405, 24.553, -2.493, 0.01
 260833958, 17.761, 22.837, -2.452, 0.01, 17.235, 23.313, -3.341, 0.01
 261033878, 18.377, 22.067, -1.665, 0.01, 17.761, 22.837, -2.452, 0.01
 261233798, 19.294, 21.058, -1.258, 0.01, 18.377, 22.067, -1.665, 0.01
 261433718, 20.33, 19.953, -1.076, 0.01, 19.294, 21.058, -1.258, 0.01
 261633638, 21.293, 18.843, -0.8930001, 0.01, 20.33, 19.953, -1.076, 0.01
 261833558, 22.098, 17.816, -0.566, 0.01, 21.293, 18.843, -0.8930001, 0.01
 262033478, 22.924, 16.669, -0.344, 0.01, 22.098, 17.816, -0.566, 0.01
 262234231, 23.761, 15.396, -0.249, 0.01, 22.924, 16.669, -0.344, 0.01
 262434151, 24.451, 14.226, -0.068, 0.01, 23.761, 15.396, -0.249, 0.01
 262634071, 25.078, 13.036, 0.105, 0.01, 24.451, 14.226, -0.068, 0.01
 262833991, 25.642, 11.836, 0.249, 0.01, 25.078, 13.036, 0.105, 0.01
 263033911, 26.16, 10.608, 0.363, 0.01, 25.642, 11.836, 0.249, 0.01
 263233831, 26.596, 9.412001, 0.475, 0.01, 26.16, 10.608, 0.363, 0.01
 263433751, 26.979, 8.192, 0.553, 0.01, 26.596, 9.412001, 0.475, 0.01
 263633671, 27.294, 7.006001, 0.624, 0.01, 26.979, 8.192, 0.553, 0.01
 263833591, 27.522, 5.932, 0.742, 0.01, 27.294, 7.006001, 0.624, 0.01
 264033511, 27.696, 4.88, 0.823, 0.01, 27.522, 5.932, 0.742, 0.01
 264234264, 27.812, 3.886, 0.906, 0.01, 27.696, 4.88, 0.823, 0.01
 264434184, 27.895, 2.977, 1.039, 0.01, 27.812, 3.886, 0.906, 0.01
 264634104, 27.964, 2.057, 1.129, 0.01, 27.895, 2.977, 1.039, 0.01
 264834024, 28.003, 1.166, 1.197, 0.01, 27.964, 2.057, 1.129, 0.01
 265033944, 28.025, 0.325, 1.205, 0.01, 28.003, 1.166, 1.197, 0.01
 265233864, 28.022, -0.398, 1.276, 0.01, 28.025, 0.325, 1.205, 0.01
 265433784, 28.003, -1.083, 1.319, 0.01, 28.022, -0.398, 1.276, 0.01
 265633704, 27.978, -1.729, 1.366, 0.01, 28.003, -1.083, 1.319, 0.01
 265833624, 27.961, -2.316, 1.396, 0.01, 27.978, -1.729, 1.366, 0.01
 266033544, 27.943, -2.875, 1.35, 0.01, 27.961, -2.316, 1.396, 0.01
 266234297, 27.917, -3.327, 1.337, 0.01, 27.943, -2.875, 1.35, 0.01
 266434217, 27.898, -3.706, 1.351, 0.01, 27.917, -3.327, 1.337, 0.01
 266634137, 27.889, -4.066, 1.383, 0.01, 27.898, -3.706, 1.351, 0.01
 266834057, 27.883, -4.365, 1.379, 0.01, 27.889, -4.066, 1.383, 0.01
 267033977, 27.877, -4.623, 1.338, 0.01, 27.883, -4.365, 1.379, 0.01
 267233897, 27.875, -4.874, 1.16, 0.01, 27.877, -4.623, 1.338, 0.01
 267433817, 27.876, -5.04, 1.1, 0.01, 27.875, -4.874, 1.16, 0.01
 267633737, 27.872, -5.169, 0.979, 0.01, 27.876, -5.04, 1.1, 0.01
 267833657, 27.916, -5.258, 0.9160001, 0.01, 27.872, -5.169, 0.979, 0.01
 268033577, 27.94, -5.326, 0.8650001, 0.01, 27.916, -5.258, 0.9160001, 0.01
 268233497, 27.949, -5.342, 0.79, 0.01, 27.94, -5.326, 0.8650001, 0.01
 268434250, 27.968, -5.329, 0.7500001, 0.01, 27.949, -5.342, 0.79, 0.01
 268634170, 28.015, -5.306, 0.633, 0.01, 27.968, -5.329, 0.7500001, 0.01
 268834090, 28.074, -5.272, 0.565, 0.01, 28.015, -5.306, 0.633, 0.01
 269034010, 28.105, -5.198, 0.487, 0.01, 28.074, -5.272, 0.565, 0.01
 269233930, 28.124, -5.114, 0.5100001, 0.01, 28.105, -5.198, 0.487, 0.01
 269433850, 28.169, -4.983, 0.443, 0.01, 28.124, -5.114, 0.5100001, 0.01
 269633770, 28.231, -4.854, 0.357, 0.01, 28.169, -4.983, 0.443, 0.01
 269833690, 28.253, -4.709, 0.247, 0.01, 28.231, -4.854, 0.357, 0.01
 270033610, 28.282, -4.564, 0.195, 0.01, 28.253, -4.709, 0.247, 0.01
 270233530, 28.344, -4.402, 0.228, 0.01, 28.282, -4.564, 0.195, 0.01
 270434283, 28.387, -4.217, 0.164, 0.01, 28.344, -4.402, 0.228, 0.01
 270634203, 28.399, -4.033, 0.097, 0.01, 28.387, -4.217, 0.164, 0.01
 270834123, 28.425, -3.851, 0.029, 0.01, 28.399, -4.033, 0.097, 0.01
 271034043, 28.447, -3.661, -0.07, 0.01, 28.425, -3.851, 0.029, 0.01
 271233963, 28.471, -3.493, -0.071, 0.01, 28.447, -3.661, -0.07, 0.01
 271433883, 28.505, -3.314, -0.054, 0.01, 28.471, -3.493, -0.071, 0.01
 271633803, 28.529, -3.142, -0.067, 0.01, 28.505, -3.314, -0.054, 0.01
 271833723, 28.544, -2.943, -0.16, 0.01, 28.529, -3.142, -0.067, 0.01
 272033643, 28.58, -2.764, -0.174, 0.01, 28.544, -2.943, -0.16, 0.01
 272233563, 28.628, -2.594, -0.108, 0.01, 28.58, -2.764, -0.174, 0.01
 272433483, 28.658, -2.404, -0.141, 0.01, 28.628, -2.594, -0.108, 0.01
 272634236, 28.679, -2.23, -0.216, 0.01, 28.658, -2.404, -0.141, 0.01
 272834156, 28.694, -2.06, -0.286, 0.01, 28.679, -2.23, -0.216, 0.01
 273034076, 28.707, -1.919, -0.313, 0.01, 28.694, -2.06, -0.286, 0.01
 273233996, 28.729, -1.758, -0.243, 0.01, 28.707, -1.919, -0.313, 0.01
 273433916, 28.749, -1.578, -0.279, 0.01, 28.729, -1.758, -0.243, 0.01
 273633836, 28.796, -1.44, -0.226, 0.01, 28.749, -1.578, -0.279, 0.01
 273833756, 28.815, -1.299, -0.307, 0.01, 28.796, -1.44, -0.226, 0.01
 274033676, 28.816, -1.161, -0.374, 0.01, 28.815, -1.299, -0.307, 0.01
 274233596, 28.818, -1.034, -0.415, 0.01, 28.816, -1.161, -0.374, 0.01
 274433516, 28.833, -0.896, -0.431, 0.01, 28.818, -1.034, -0.415, 0.01
 274634269, 28.832, -0.8060001, -0.411, 0.01, 28.833, -0.896, -0.431, 0.01
 274834189, 28.85, -0.724, -0.369, 0.01, 28.832, -0.8060001, -0.411, 0.01
 275034109, 28.87, -0.62, -0.359, 0.01, 28.85, -0.724, -0.369, 0.01
 275234029, 28.887, -0.505, -0.393, 0.01, 28.87, -0.62, -0.359, 0.01
 275433949, 28.881, -0.399, -0.438, 0.01, 28.887, -0.505, -0.393, 0.01
 275633869, 28.879, -0.306, -0.469, 0.01, 28.881, -0.399, -0.438, 0.01
 275833789, 28.878, -0.228, -0.496, 0.01, 28.879, -0.306, -0.469, 0.01
 276033709, 28.865, -0.132, -0.497, 0.01, 28.878, -0.228, -0.496, 0.01
 276233629, 28.847, -0.05, -0.493, 0.01, 28.865, -0.132, -0.497, 0.01
 276433549, 28.854, -0.001, -0.442, 0.01, 28.847, -0.05, -0.493, 0.01
 276634302, 28.859, 0.043, -0.386, 0.01, 28.854, -0.001, -0.442, 0.01
 276834222, 28.848, 0.09500001, -0.425, 0.01, 28.859, 0.043, -0.386, 0.01
 277034142, 28.844, 0.142, -0.411, 0.01, 28.848, 0.09500001, -0.425, 0.01
 277234062, 28.833, 0.187, -0.357, 0.01, 28.844, 0.142, -0.411, 0.01
 277433982, 28.842, 0.229, -0.312, 0.01, 28.833, 0.187, -0.357, 0.01
 277633902, 28.84, 0.233, -0.37, 0.01, 28.842, 0.229, -0.312, 0.01
 277833822, 28.832, 0.246, -0.43, 0.01, 28.84, 0.233, -0.37, 0.01
 278033742, 28.828, 0.27, -0.329, 0.01, 28.832, 0.246, -0.43, 0.01
 278233662, 28.272, 0.166, -0.374, 0.01, 28.828, 0.27, -0.329, 0.01
 278433582, 26.424, 2.318, -0.294, 0.01, 28.272, 0.166, -0.374, 0.01
 278633502, 24.184, 5.4, 0.938, 0.01, 26.424, 2.318, -0.294, 0.01
 278834255, 20.584, 10.52, -0.1, 0.01, 24.184, 5.4, 0.938, 0.01
 279034175, 16.845, 13.184, -1.894, 0.01, 20.584, 10.52, -0.1, 0.01
 279234095, 14.748, 13.46, -1.837, 0.01, 16.845, 13.184, -1.894, 0.01
 279434015, 13.235, 13.388, -0.9950001, 0.01, 14.748, 13.46, -1.837, 0.01
 279633935, 11.603, 13.527, -0.398, 0.01, 13.235, 13.388, -0.9950001, 0.01
 279833855, 9.825001, 13.761, -0.212, 0.01, 11.603, 13.527, -0.398, 0.01
 280033775, 8.161, 13.852, -0.129, 0.01, 9.825001, 13.761, -0.212, 0.01
 280233695, 6.7, 13.797, 0.064, 0.01, 8.161, 13.852, -0.129, 0.01
 280433615, 5.331, 13.684, 0.308, 0.01, 6.7, 13.797, 0.064, 0.01
 280633535, 3.977, 13.534, 0.49, 0.01, 5.331, 13.684, 0.308, 0.01
 280834288, 2.649, 13.324, 0.59, 0.01, 3.977, 13.534, 0.49, 0.01
 281034208, 1.394, 13.034, 0.665, 0.01, 2.649, 13.324, 0.59, 0.01
 281234128, 0.244, 12.677, 0.758, 0.01, 1.394, 13.034, 0.665, 0.01
 281434048, -0.83, 12.267, 0.862, 0.01, 0.244, 12.677, 0.758, 0.01
 281633968, -1.849, 11.808, 0.9490001, 0.01, -0.83, 12.267, 0.862, 0.01
 281833888, -2.817, 11.297, 1.008, 0.01, -1.849, 11.808, 0.9490001, 0.01
 282033808, -3.714, 10.739, 1.054, 0.01, -2.817, 11.297, 1.008, 0.01
 282233728, -4.524, 10.147, 1.106, 0.01, -3.714, 10.739, 1.054, 0.01
 282433648, -5.251, 9.533, 1.154, 0.01, -4.524, 10.147, 1.106, 0.01
 282633568, -5.898, 8.904, 1.189, 0.01, -5.251, 9.533, 1.154, 0.01
 282833488, -6.465, 8.272, 1.222, 0.01, -5.898, 8.904, 1.189, 0.01
 283034241, -6.955, 7.646, 1.258, 0.01, -6.465, 8.272, 1.222, 0.01
 283234161, -7.371, 7.041, 1.295, 0.01, -6.955, 7.646, 1.258, 0.01
 283434081, -7.727, 6.458, 1.325, 0.01, -7.371, 7.041, 1.295, 0.01
 283634001, -8.026, 5.902, 1.353, 0.01, -7.727, 6.458, 1.325, 0.01
 283833921, -8.275001, 5.378, 1.38, 0.01, -8.026, 5.902, 1.353, 0.01
 284033841, -8.484, 4.885, 1.404, 0.01, -8.275001, 5.378, 1.38, 0.01
 284233761, -8.658, 4.422, 1.416, 0.01, -8.484, 4.885, 1.404, 0.01
 284433681, -8.8, 3.991, 1.42, 0.01, -8.658, 4.422, 1.416, 0.01
 284633601, -8.913, 3.594, 1.423, 0.01, -8.8, 3.991, 1.42, 0.01
 284833521, -9.002001, 3.231, 1.427, 0.01, -8.913, 3.594, 1.423, 0.01
 285034274, -9.070001, 2.897, 1.424, 0.01, -9.002001, 3.231, 1.427, 0.01
 285234194, -9.123, 2.589, 1.418, 0.01, -9.070001, 2.897, 1.424, 0.01
 285434114, -9.163, 2.311, 1.41, 0.01, -9.123, 2.589, 1.418, 0.01
 285634034, -9.195001, 2.059, 1.404, 0.01, -9.163, 2.311, 1.41, 0.01
 285833954, -9.211, 1.832, 1.398, 0.01, -9.195001, 2.059, 1.404, 0.01
 286033874, -9.22, 1.627, 1.388, 0.01, -9.211, 1.832, 1.398, 0.01
 286233794, -9.221001, 1.442, 1.375, 0.01, -9.22, 1.627, 1.388, 0.01
 286433714, -9.215, 1.277, 1.363, 0.01, -9.221001, 1.442, 1.375, 0.01
 286633634, -9.205001, 1.129, 1.355, 0.01, -9.215, 1.277, 1.363, 0.01
 286833554, -9.191, 0.997, 1.348, 0.01, -9.205001, 1.129, 1.355, 0.01
 287033474, -9.175, 0.8790001, 1.337, 0.01, -9.191, 0.997, 1.348, 0.01
 287234227, -9.134001, 0.774, 1.323, 0.01, -9.175, 0.8790001, 1.337, 0.01
 287434147, -9.098001, 0.6810001, 1.314, 0.01, -9.134001, 0.774, 1.323, 0.01
 287634067, -9.073, 0.598, 1.306, 0.01, -9.098001, 0.6810001, 1.314, 0.01
 287833987, -9.048, 0.525, 1.298, 0.01, -9.073, 0.598, 1.306, 0.01
 288033907, -9.024, 0.461, 1.288, 0.01, -9.048, 0.525, 1.298, 0.01
 288233827, -9.015, 0.405, 1.278, 0.01, -9.024, 0.461, 1.288, 0.01
 288433747, -8.997001, 0.356, 1.271, 0.01, -9.015, 0.405, 1.278, 0.01
 288633667, -8.974, 0.312, 1.266, 0.01, -8.997001, 0.356, 1.271, 0.01
 288833587, -8.956, 0.275, 1.264, 0.01, -8.974, 0.312, 1.266, 0.01
 289033507, -8.932, 0.242, 1.263, 0.01, -8.956, 0.275, 1.264, 0.01
 289234260, -8.908, 0.214, 1.263, 0.01, -8.932, 0.242, 1.263, 0.01
 289434180, -8.867001, 0.19, 1.259, 0.01, -8.908, 0.214, 1.263, 0.01
 289634100, -8.843, 0.17, 1.253, 0.01, -8.867001, 0.19, 1.259, 0.01
 289834020, -8.831, 0.154, 1.245, 0.01, -8.843, 0.17, 1.253, 0.01
 290033940, -8.81, 0.139, 1.238, 0.01, -8.831, 0.154, 1.245, 0.01
 290233860, -8.786, 0.127, 1.236, 0.01, -8.81, 0.139, 1.238, 0.01
 290433780, -8.764001, 0.116, 1.235, 0.01, -8.786, 0.127, 1.236, 0.01
 290633700, -8.75, 0.107, 1.233, 0.01, -8.764001, 0.116, 1.235, 0.01
 290833620, -8.728001, 0.09900001, 1.229, 0.01, -8.75, 0.107, 1.233, 0.01
 291033540, -8.708, 0.093, 1.226, 0.01, -8.728001, 0.09900001, 1.229, 0.01
 291234293, -8.689, 0.087, 1.223, 0.01, -8.708, 0.093, 1.226, 0.01
 291434213, -8.674001, 0.082, 1.22, 0.01, -8.689, 0.087, 1.223, 0.01
 291634133, -8.658, 0.078, 1.217, 0.01, -8.674001, 0.082, 1.22, 0.01
 291834053, -8.64, 0.074, 1.216, 0.01, -8.658, 0.078, 1.217, 0.01
 292033973, -8.624001, 0.071, 1.213, 0.01, -8.64, 0.074, 1.216, 0.01
 292233893, -8.599, 0.068, 1.209, 0.01, -8.624001, 0.071, 1.213, 0.01
 292433813, -8.574, 0.06500001, 1.205, 0.01, -8.599, 0.068, 1.209, 0.01
 292633733, -8.556001, 0.061, 1.203, 0.01, -8.574, 0.06500001, 1.205, 0.01
 292833653, -8.541, 0.058, 1.201, 0.01, -8.556001, 0.061, 1.203, 0.01
