TimeUS,COFN,COFE,COFD,CNe,CEe,CDe,POFN,POFE,POFD,PNe,PEe,PDe
 157954293, 0, 0, 0, 0, 0, 0, 0, 0, 0, 0, 0, 0
 158054253, 0, 0, 0, 0, 0, 0, 0, 0, 0, 0, 0, 0
 158154213, 0, 0, 0, 0, 0, 0, 0, 0, 0, 0, 0, 0
 158254173, 0, 0, 0, 0, 0, 0, 0, 0, 0, 0, 0, 0
 158354133, 0, 0, 0, 0, 0, 0, 0, 0, 0, 0, 0, 0
 158454093, 0, 0, 0, 0, 0, 0, 0, 0, 0, 0, 0, 0
 158554053, 0, 0, 0, 0, 0, 0, 0, 0, 0, 0, 0, 0
 158654013, 0, 0, 0, 0, 0, 0, 0, 0, 0, 0, 0, 0
 158773965, 0, 0, 0, 0, 0, 0, 0, 0, 0, 0, 0, 0
 158873925, 0, 0, 0, 0, 0, 0, 0, 0, 0, 0, 0, 0
 158973885, 0, 0, 0, 0, 0, 0, 0, 0, 0, 0, 0, 0
 159073845, 0, 0, 0, 0, 0, 0, 0, 0, 0, 0, 0, 0
 159173805, 0, 0, 0, 0, 0, 0, 0, 0, 0, 0, 0, 0
 159273765, 0, 0, 0, 0, 0, 0, 0, 0, 0, 0, 0, 0
 159373725, 0, 0, 0, 0, 0, 0, 0, 0, 0, 0, 0, 0
 159473685, 0, 0, 0, 0, 0, 0, 0, 0, 0, 0, 0, 0
 159573645, 0, 0, 0, 0, 0, 0, 0, 0, 0, 0, 0, 0
 159673605, 0, 0, 0, 0, 0, 0, 0, 0, 0, 0, 0, 0
 159773565, 0, 0, 0, 0, 0, 0, 0, 0, 0, 0, 0, 0
 159873525, 0, 0, 0, 0, 0, 0, 0, 0, 0, 0, 0, 0
 159973485, 0, 0, 0, 0, 0, 0, 0, 0, 0, 0, 0, 0
 160074278, 0, 0, 0, 0, 0, 0, 0, 0, 0, 0, 0, 0
 160174238, 0, 0, 0, 0, 0, 0, 0, 0, 0, 0, 0, 0
 160274198, 0, 0, 0, 0, 0, 0, 0, 0, 0, 0, 0, 0
 160374158, 0, 0, 0, 0, 0, 0, 0, 0, 0, 0, 0, 0
 160474118, 0, 0, 0, 0, 0, 0, 0, 0, 0, 0, 0, 0
 160574078, 0, 0, 0, 0, 0, 0, 0, 0, 0, 0, 0, 0
 160674038, 0, 0, 0, 0, 0, 0, 0, 0, 0, 0, 0, 0
 160773998, 0, 0, 0, 0, 0, 0, 0, 0, 0, 0, 0, 0
 160893950, 0, 0, 0, 0, 0, 0, 0, 0, 0, 0, 0, 0
 160993910, 0, 0, 0, 0, 0, 0, 0, 0, 0, 0, 0, 0
 161093870, 0, 0, 0, 0, 0, 0, 0, 0, 0, 0, 0, 0
 161193830, 0, 0, 0, 0, 0, 0, 0, 0, 0, 0, 0, 0
 161293790, 0, 0, 0, 0, 0, 0, 0, 0, 0, 0, 0, 0
 161393750, -0.2158551, 0.0226905, -0.009066848, 0.102141, -0.007697021, 0.9947603, 0, 0, 0, 0, 0, 0
 161493710, 0.6120297, -0.06785204, -0.1268613, 1.413304, -0.1492552, 0.8629451, -0.2158551, 0.0226905, -0.009066848, 0.102141, -0.007697021, 0.9947603
 161593670, 0.1462947, -0.01838897, -0.04555934, 0.1631739, -0.01025498, 0.9883537, 0.6120297, -0.06785204, -0.1268613, 1.413304, -0.1492552, 0.8629451
 161693630, 0.06687821, -0.00964502, -0.03758722, 0.1303846, -0.003798895, 0.9916818, 0.1462947, -0.01838897, -0.04555934, 0.1631739, -0.01025498, 0.9883537
 161793590, 0.04010928, -0.003317974, -0.06491876, 0.1256891, -0.0003788867, 0.9921665, 0.06687821, -0.00964502, -0.03758722, 0.1303846, -0.003798895, 0.9916818
 161893550, 0.02685507, -0.0002636101, -0.03326792, 0.1232504, 0.0007401465, 0.9924288, 0.04010928, -0.003317974, -0.06491876, 0.1256891, -0.0003788867, 0.9921665
 161993510, 0.01212296, -0.001488711, -0.06181434, 0.1227776, -0.0005614604, 0.9924702, 0.02685507, -0.0002636101, -0.03326792, 0.1232504, 0.0007401465, 0.9924288
 162094303, -0.005631886, 0.002237047, -0.05973775, 0.1221391, -0.00202373, 0.9925343, 0.01212296, -0.001488711, -0.06181434, 0.1227776, -0.0005614604, 0.9924702
 162194263, -0.01727427, 0.0009356016, -0.0583439, 0.1241593, -0.003989968, 0.9922733, -0.005631886, 0.002237047, -0.05973775, 0.1221391, -0.00202373, 0.9925343
 162294223, -0.02999234, 0.003850438, -0.05673403, 0.1251467, -0.005889429, 0.9921391, -0.01727427, 0.0009356016, -0.0583439, 0.1241593, -0.003989968, 0.9922733
 162394183, -0.04659022, 0.002222526, -0.05457351, 0.1279205, -0.008481784, 0.9917644, -0.02999234, 0.003850438, -0.05673403, 0.1251467, -0.005889429, 0.9921391
 162494143, -0.07925015, 0.006075061, -0.05013211, 0.1307319, -0.008377161, 0.9913988, -0.04659022, 0.002222526, -0.05457351, 0.1279205, -0.008481784, 0.9917644
 162594103, -0.09911148, 0.007935477, -0.04735915, 0.133014, -0.005104822, 0.9911193, -0.07925015, 0.006075061, -0.05013211, 0.1307319, -0.008377161, 0.9913988
 162694063, -0.1328109, 0.008859562, -0.03279366, 0.1341937, -0.002505872, 0.9909726, -0.09911148, 0.007935477, -0.04735915, 0.133014, -0.005104822, 0.9911193
 162794023, -0.169471, 0.01393553, -0.03781273, 0.1371113, -0.001203694, 0.990584, -0.1328109, 0.008859562, -0.03279366, 0.1341937, -0.002505872, 0.9909726
 162913975, -0.2117133, 0.02751952, -0.03194623, 0.1407242, -0.002499698, 0.9901012, -0.169471, 0.01393553, -0.03781273, 0.1371113, -0.001203694, 0.990584
 163013935, -0.2707282, 0.03185814, -0.02395069, 0.1462706, -0.005761917, 0.9893433, -0.2117133, 0.02751952, -0.03194623, 0.1407242, -0.002499698, 0.9901012
 163113895, -0.4213391, 0.0474661, 0.002072778, 0.1699634, -0.009532588, 0.9860824, -0.2707282, 0.03185814, -0.02395069, 0.1462706, -0.005761917, 0.9893433
 163213855, -0.5401213, 0.05400674, -0.02140397, 0.1939425, -0.01195167, 0.9827225, -0.4213391, 0.0474661, 0.002072778, 0.1699634, -0.009532588, 0.9860824
 163313815, -0.5706099, 0.06002191, 0.01806926, 0.200624, -0.01374015, 0.9818079, -0.5401213, 0.05400674, -0.02140397, 0.1939425, -0.01195167, 0.9827225
 163413775, -0.9734046, 0.1106753, 0.07546633, 0.3251016, -0.03007166, 0.964282, -0.5706099, 0.06002191, 0.01806926, 0.200624, -0.01374015, 0.9818079
 163513735, -1.697044, 0.1901774, 0.1801644, 0.6550746, -0.06839877, 0.9170483, -0.9734046, 0.1106753, 0.07546633, 0.3251016, -0.03007166, 0.964282
 163613695, -1.846402, 0.215767, 0.2073054, 0.7253222, -0.07456217, 0.9068627, -1.697044, 0.1901774, 0.1801644, 0.6550746, -0.06839877, 0.9170483
 163713655, -6.986438, 0.8062458, 0.9283217, 4.661209, -0.5269461, 0.350254, -1.846402, 0.215767, 0.2073054, 0.7253222, -0.07456217, 0.9068627
 163813615, 4.079252, -0.4782585, -0.643253, 38.11924, -4.401552, -4.433317, -6.986438, 0.8062458, 0.9283217, 4.661209, -0.5269461, 0.350254
 163913575, 1.315329, -0.156436, -0.2505411, 0.9854435, -0.1089943, 0.8681294, 4.079252, -0.4782585, -0.643253, 38.11924, -4.401552, -4.433317
 164013535, 1.512168, -0.1801996, -0.3110665, 1.274436, -0.1430095, 0.8250932, 1.315329, -0.156436, -0.2505411, 0.9854435, -0.1089943, 0.8681294
 164113495, 1.085413, -0.1211987, -0.2135817, 0.6428381, -0.06804477, 0.9169234, 1.512168, -0.1801996, -0.3110665, 1.274436, -0.1430095, 0.8250932
 164214288, 0.8556112, -0.101076, -0.1839902, 0.4367474, -0.04337217, 0.9473997, 1.085413, -0.1211987, -0.2135817, 0.6428381, -0.06804477, 0.9169234
 164314248, 0.841319, -0.09481545, -0.1814106, 0.4165314, -0.03934771, 0.9504709, 0.8556112, -0.101076, -0.1839902, 0.4367474, -0.04337217, 0.9473997
 164414208, 0.6316873, -0.06777306, -0.1526719, 0.3002893, -0.02424069, 0.9668358, 0.841319, -0.09481545, -0.1814106, 0.4165314, -0.03934771, 0.9504709
 164514168, 0.6507925, -0.07011209, -0.1449521, 0.3029898, -0.02438634, 0.9665442, 0.6316873, -0.06777306, -0.1526719, 0.3002893, -0.02424069, 0.9668358
 164614128, 0.6499676, -0.07861697, -0.149838, 0.2991307, -0.02322016, 0.9671564, 0.6507925, -0.07011209, -0.1449521, 0.3029898, -0.02438634, 0.9665442
 164714088, 0.5163518, -0.07029192, -0.1344683, 0.2449995, -0.01589784, 0.9752374, 0.6499676, -0.07861697, -0.149838, 0.2991307, -0.02322016, 0.9671564
 164814048, 0.5280311, -0.06589282, -0.1334962, 0.2415466, -0.01476971, 0.9762275, 0.5163518, -0.07029192, -0.1344683, 0.2449995, -0.01589784, 0.9752374
 164914008, 0.5399522, -0.07408915, -0.133484, 0.2402524, -0.01498475, 0.9767449, 0.5280311, -0.06589282, -0.1334962, 0.2415466, -0.01476971, 0.9762275
 165033960, 0.4905021, -0.05145509, -0.1142616, 0.2183626, -0.01101961, 0.9800978, 0.5399522, -0.07408915, -0.133484, 0.2402524, -0.01498475, 0.9767449
 165133920, 0.4584635, -0.06520149, -0.1188333, 0.2059022, -0.01031464, 0.981984, 0.4905021, -0.05145509, -0.1142616, 0.2183626, -0.01101961, 0.9800978
 165233880, 0.4286104, -0.04913139, -0.1123375, 0.1913548, -0.01000482, 0.9842353, 0.4584635, -0.06520149, -0.1188333, 0.2059022, -0.01031464, 0.981984
 165333840, 0.4426562, -0.05825246, -0.08690505, 0.1885824, -0.0101162, 0.9849002, 0.4286104, -0.04913139, -0.1123375, 0.1913548, -0.01000482, 0.9842353
 165433800, 0.4525322, -0.0483827, -0.1115615, 0.1871212, -0.009553871, 0.9853156, 0.4426562, -0.05825246, -0.08690505, 0.1885824, -0.0101162, 0.9849002
 165533760, 0.442252, -0.0546101, -0.1092635, 0.1814597, -0.008267147, 0.9861521, 0.4525322, -0.0483827, -0.1115615, 0.1871212, -0.009553871, 0.9853156
 165633720, 0.3858963, -0.0398013, -0.1062676, 0.1650996, -0.003586075, 0.9882103, 0.442252, -0.0546101, -0.1092635, 0.1814597, -0.008267147, 0.9861521
 165733680, 0.4441245, -0.05567613, -0.1059528, 0.1728654, -0.004874703, 0.9876274, 0.3858963, -0.0398013, -0.1062676, 0.1650996, -0.003586075, 0.9882103
 165833640, 0.380172, -0.03896781, -0.06821419, 0.1565594, -0.003620574, 0.9894415, 0.4441245, -0.05567613, -0.1059528, 0.1728654, -0.004874703, 0.9876274
 165933600, 0.4411814, -0.03650445, -0.1075182, 0.1640766, -0.004364702, 0.9889727, 0.380172, -0.03896781, -0.06821419, 0.1565594, -0.003620574, 0.9894415
 166033560, 0.4321649, -0.06161227, -0.06969595, 0.1568089, -0.003873026, 0.9899709, 0.4411814, -0.03650445, -0.1075182, 0.1640766, -0.004364702, 0.9889727
 166133520, 0.3626509, -0.05859887, -0.06239159, 0.1411084, -0.002606094, 0.9915513, 0.4321649, -0.06161227, -0.06969595, 0.1568089, -0.003873026, 0.9899709
 166233480, 0.3770242, -0.03850587, -0.06247494, 0.1406904, -2.016686E-05, 0.9917199, 0.3626509, -0.05859887, -0.06239159, 0.1411084, -0.002606094, 0.9915513
 166334273, 0.3635235, -0.0305, -0.05495726, 0.1346394, 0.001222905, 0.9924188, 0.3770242, -0.03850587, -0.06247494, 0.1406904, -2.016686E-05, 0.9917199
 166434233, 0.3860276, -0.04165702, -0.09044343, 0.1345801, 0.0005189395, 0.9926432, 0.3635235, -0.0305, -0.05495726, 0.1346394, 0.001222905, 0.9924188
 166534193, 0.363622, -0.05046371, -0.0576528, 0.127683, 0.0008815331, 0.9933297, 0.3860276, -0.04165702, -0.09044343, 0.1345801, 0.0005189395, 0.9926432
 166634153, 0.3508798, -0.05820386, -0.09073729, 0.1224228, -0.0013973, 0.9939046, 0.363622, -0.05046371, -0.0576528, 0.127683, 0.0008815331, 0.9933297
 166734113, 0.3583458, -0.04756757, -0.08465865, 0.1176218, -0.01200555, 0.9944536, 0.3508798, -0.05820386, -0.09073729, 0.1224228, -0.0013973, 0.9939046
 166834073, 0.3697571, -0.02905883, -0.04766721, 0.1112751, -0.0281835, 0.9949147, 0.3583458, -0.04756757, -0.08465865, 0.1176218, -0.01200555, 0.9944536
 166934033, 0.3615043, -0.0346197, -0.04996689, 0.1019344, -0.04150274, 0.9953822, 0.3697571, -0.02905883, -0.04766721, 0.1112751, -0.0281835, 0.9949147
 167033993, 0.3663047, -0.05454208, -0.04920493, 0.096331, -0.04735652, 0.9957163, 0.3615043, -0.0346197, -0.04996689, 0.1019344, -0.04150274, 0.9953822
 167153945, 0.3667431, -0.04353869, -0.04714624, 0.09257367, -0.04442348, 0.9962018, 0.3663047, -0.05454208, -0.04920493, 0.096331, -0.04735652, 0.9957163
 167253905, 0.3524977, -0.04979256, -0.04553217, 0.08783458, -0.03571039, 0.9968774, 0.3667431, -0.04353869, -0.04714624, 0.09257367, -0.04442348, 0.9962018
 167353865, 0.3646789, -0.06064055, -0.04504442, 0.08710873, -0.02692318, 0.997304, 0.3524977, -0.04979256, -0.04553217, 0.08783458, -0.03571039, 0.9968774
 167453825, 0.376617, -0.04667095, -0.01348578, 0.08549742, -0.02003128, 0.9976779, 0.3646789, -0.06064055, -0.04504442, 0.08710873, -0.02692318, 0.997304
 167553785, 0.3385982, -0.05238068, -0.04087407, 0.07590729, -0.01741931, 0.9982458, 0.376617, -0.04667095, -0.01348578, 0.08549742, -0.02003128, 0.9976779
 167653745, 0.3756597, -0.03130158, -0.03945431, 0.07572269, -0.01893696, 0.9984761, 0.3385982, -0.05238068, -0.04087407, 0.07590729, -0.01741931, 0.9982458
 167753705, 0.3842956, -0.05303842, -0.0289404, 0.07303945, -0.02242756, 0.9986701, 0.3756597, -0.03130158, -0.03945431, 0.07572269, -0.01893696, 0.9984761
 167853665, 0.3604175, -0.04085098, -0.006595583, 0.06531104, -0.02258284, 0.9990224, 0.3842956, -0.05303842, -0.0289404, 0.07303945, -0.02242756, 0.9986701
 167953625, 0.3344968, -0.02705537, -0.03465752, 0.05861095, -0.02100892, 0.9993103, 0.3604175, -0.04085098, -0.006595583, 0.06531104, -0.02258284, 0.9990224
 168053585, 0.3826155, -0.05686911, -0.00488986, 0.06205114, -0.02006206, 0.9994423, 0.3344968, -0.02705537, -0.03465752, 0.05861095, -0.02100892, 0.9993103
 168153545, 0.3703705, -0.0331014, -0.002898695, 0.05731877, -0.01631817, 0.9996982, 0.3826155, -0.05686911, -0.00488986, 0.06205114, -0.02006206, 0.9994423
 168253505, 0.3650174, -0.02788044, -0.001293381, 0.05290135, -0.01256252, 0.9999586, 0.3703705, -0.0331014, -0.002898695, 0.05731877, -0.01631817, 0.9996982
 168354298, 0.3588774, -0.04070924, 0.0001523809, 0.04747503, -0.01037005, 1.000217, 0.3650174, -0.02788044, -0.001293381, 0.05290135, -0.01256252, 0.9999586
 168454258, 0.3515882, -0.02375445, -0.02770329, 0.04134244, -0.009211973, 1.000451, 0.3588774, -0.04070924, 0.0001523809, 0.04747503, -0.01037005, 1.000217
 168554218, 0.3469152, -0.05651249, 0.002853121, 0.03702961, -0.01020667, 1.000587, 0.3515882, -0.02375445, -0.02770329, 0.04134244, -0.009211973, 1.000451
 168654178, 0.3775435, -0.02846175, 0.005155853, 0.03741885, -0.009719664, 1.000772, 0.3469152, -0.05651249, 0.002853121, 0.03702961, -0.01020667, 1.000587
 168754138, 0.3213037, -0.01606017, 0.00527327, 0.02816933, -0.00710576, 1.000758, 0.3775435, -0.02846175, 0.005155853, 0.03741885, -0.009719664, 1.000772
 168854098, 0.3424097, -0.04120284, 0.005860544, 0.02880641, -0.006131101, 1.000863, 0.3213037, -0.01606017, 0.00527327, 0.02816933, -0.00710576, 1.000758
 168954058, 0.3739938, -0.02143994, 0.008622874, 0.02807816, -0.00479644, 1.001088, 0.3424097, -0.04120284, 0.005860544, 0.02880641, -0.006131101, 1.000863
 169054018, 0.3231613, -0.02429512, 0.00880326, 0.0172741, -0.003533516, 1.001036, 0.3739938, -0.02143994, 0.008622874, 0.02807816, -0.00479644, 1.001088
 169173970, 0.3497691, -0.0463636, 0.01146205, 0.01420843, -0.00314134, 1.001235, 0.3231613, -0.02429512, 0.00880326, 0.0172741, -0.003533516, 1.001036
 169273930, 0.319333, -0.02276996, 0.01235747, 0.005623952, -0.0009729266, 1.001156, 0.3497691, -0.0463636, 0.01146205, 0.01420843, -0.00314134, 1.001235
 169373890, 0.3143284, -0.02929087, 0.01292591, 0.002348084, -0.0008091033, 1.001143, 0.319333, -0.02276996, 0.01235747, 0.005623952, -0.0009729266, 1.001156
 169473850, 0.3210903, -0.02864967, 0.01377208, 0.001287729, -0.002100484, 1.001178, 0.3143284, -0.02929087, 0.01292591, 0.002348084, -0.0008091033, 1.001143
 169573810, 0.3503648, -0.0421996, 0.01537478, 0.00324079, -0.003948838, 1.001332, 0.3210903, -0.02864967, 0.01377208, 0.001287729, -0.002100484, 1.001178
 169673770, 0.3577286, -0.02896796, 0.01654123, 0.002404351, -0.004180454, 1.001378, 0.3503648, -0.0421996, 0.01537478, 0.00324079, -0.003948838, 1.001332
 169773730, 0.3103133, -0.01248687, 0.01484425, -0.004208289, -0.003016023, 1.001116, 0.3577286, -0.02896796, 0.01654123, 0.002404351, -0.004180454, 1.001378
 169873690, 0.3383535, -0.03436228, 0.01636533, -0.002296742, -0.002303287, 1.001269, 0.3103133, -0.01248687, 0.01484425, -0.004208289, -0.003016023, 1.001116
 169973650, 0.3287527, -0.03616591, 0.01723212, -0.007442303, -0.00065336, 1.001194, 0.3383535, -0.03436228, 0.01636533, -0.002296742, -0.002303287, 1.001269
 170073610, 0.3656801, -0.02942851, 0.02064054, -0.006357595, 0.0006609866, 1.001421, 0.3287527, -0.03616591, 0.01723212, -0.007442303, -0.00065336, 1.001194
 170173570, 0.3210909, -0.02697614, 0.01899408, -0.0146885, 0.0006064866, 1.001074, 0.3656801, -0.02942851, 0.02064054, -0.006357595, 0.0006609866, 1.001421
 170273530, 0.3336409, -0.03239366, 0.0206145, -0.01600131, 0.0001166109, 1.001121, 0.3210909, -0.02697614, 0.01899408, -0.0146885, 0.0006064866, 1.001074
 170373490, 0.3112639, -0.02578792, 0.02055663, -0.02249518, 0.002735558, 1.000876, 0.3336409, -0.03239366, 0.0206145, -0.01600131, 0.0001166109, 1.001121
 170474283, 0.3449486, -0.05232311, 0.02366579, -0.0212285, 0.005097306, 1.001078, 0.3112639, -0.02578792, 0.02055663, -0.02249518, 0.002735558, 1.000876
 170574243, 0.365272, -0.04779454, 0.02583997, -0.02042133, 0.006479191, 1.001213, 0.3449486, -0.05232311, 0.02366579, -0.0212285, 0.005097306, 1.001078
 170674203, 0.3270043, -0.0509529, 0.02360725, -0.02673445, 0.007275456, 1.000831, 0.365272, -0.04779454, 0.02583997, -0.02042133, 0.006479191, 1.001213
 170774163, 0.3182594, -0.04179164, 0.02314074, -0.02805001, 0.00842637, 1.000739, 0.3270043, -0.0509529, 0.02360725, -0.02673445, 0.007275456, 1.000831
 170874123, 0.3460833, -0.03088973, 0.0249197, -0.02381775, 0.008414989, 1.001003, 0.3182594, -0.04179164, 0.02314074, -0.02805001, 0.00842637, 1.000739
 170974083, 0.3276703, -0.04022587, 0.0239285, -0.02744577, 0.006830282, 1.000818, 0.3460833, -0.03088973, 0.0249197, -0.02381775, 0.008414989, 1.001003
 171074043, 0.362245, -0.04440206, 0.02721185, -0.02523739, 0.00596941, 1.001086, 0.3276703, -0.04022587, 0.0239285, -0.02744577, 0.006830282, 1.000818
 171174003, 0.3414008, -0.01534698, 0.02637053, -0.02949067, 0.006870016, 1.000838, 0.362245, -0.04440206, 0.02721185, -0.02523739, 0.00596941, 1.001086
 171293955, 0.3682846, -0.04526759, 0.02855589, -0.02679633, 0.006316788, 1.001083, 0.3414008, -0.01534698, 0.02637053, -0.02949067, 0.006870016, 1.000838
 171393915, 0.3262024, -0.02173904, 0.02594804, -0.03369646, 0.007901064, 1.000613, 0.3682846, -0.04526759, 0.02855589, -0.02679633, 0.006316788, 1.001083
 171493875, 0.3170821, -0.04865976, 0.02837892, 0.04468311, 0.01562678, 0.01223735, 0.3262024, -0.02173904, 0.02594804, -0.03369646, 0.007901064, 1.000613
 171593835, 0.3356878, -0.03612887, 0.05819413, -0.03634901, 0.008794816, 1.000575, 0.3170821, -0.04865976, 0.02837892, 0.04468311, 0.01562678, 0.01223735
 171693795, 0.3725887, -0.01677805, 0.03147103, -0.03249947, 0.007761312, 1.000935, 0.3356878, -0.03612887, 0.05819413, -0.03634901, 0.008794816, 1.000575
 171793755, 0.3168615, -0.04413084, 0.02687162, -0.04029083, 0.008287873, 1.000309, 0.3725887, -0.01677805, 0.03147103, -0.03249947, 0.007761312, 1.000935
 171893715, 0.3472947, -0.02263974, 0.0301075, -0.03794942, 0.009731136, 1.000562, 0.3168615, -0.04413084, 0.02687162, -0.04029083, 0.008287873, 1.000309
 171993675, 0.3255401, -0.03774162, 0.02828831, -0.04079238, 0.01152015, 1.000303, 0.3472947, -0.02263974, 0.0301075, -0.03794942, 0.009731136, 1.000562
 172093635, 0.3167294, -0.0182476, 0.02796363, -0.04310573, 0.01292517, 1.000142, 0.3255401, -0.03774162, 0.02828831, -0.04079238, 0.01152015, 1.000303
 172193595, 0.3725783, -0.0295045, 0.03315621, -0.03664929, 0.01143993, 1.00076, 0.3167294, -0.0182476, 0.02796363, -0.04310573, 0.01292517, 1.000142
 172293555, 0.3451664, -0.02100717, 0.03099685, -0.0411759, 0.01056104, 1.000413, 0.3725783, -0.0295045, 0.03315621, -0.03664929, 0.01143993, 1.00076
 172393515, 0.3583754, -0.03027639, 0.03227266, -0.03981256, 0.008924732, 1.000568, 0.3451664, -0.02100717, 0.03099685, -0.0411759, 0.01056104, 1.000413
 172493475, 0.3214301, -0.04631592, 0.05901413, -0.04436214, 0.007791133, 1.000177, 0.3583754, -0.03027639, 0.03227266, -0.03981256, 0.008924732, 1.000568
 172594268, 0.3420313, -0.02226828, 0.06099349, -0.04162455, 0.009936219, 1.000398, 0.3214301, -0.04631592, 0.05901413, -0.04436214, 0.007791133, 1.000177
 172694228, 0.3557454, -0.04496053, 0.03198722, -0.03973589, 0.01079617, 1.000538, 0.3420313, -0.02226828, 0.06099349, -0.04162455, 0.009936219, 1.000398
 172794188, 0.360167, -0.04198996, 0.03302797, -0.04080185, 0.01176648, 1.000514, 0.3557454, -0.04496053, 0.03198722, -0.03973589, 0.01079617, 1.000538
 172894148, 0.3501014, -0.01874367, 0.032782, -0.04408731, 0.01217363, 1.000303, 0.360167, -0.04198996, 0.03302797, -0.04080185, 0.01176648, 1.000514
 172994108, 0.3204452, -0.04498191, 0.0304454, -0.04929175, 0.01161361, 0.999887, 0.3501014, -0.01874367, 0.032782, -0.04408731, 0.01217363, 1.000303
 173094068, 0.3218609, -0.03125825, 0.06084044, -0.04914451, 0.01128288, 0.999922, 0.3204452, -0.04498191, 0.0304454, -0.04929175, 0.01161361, 0.999887
 173194028, 0.3246406, -0.04456851, 0.03119506, -0.0498196, 0.01131879, 0.9998875, 0.3218609, -0.03125825, 0.06084044, -0.04914451, 0.01128288, 0.999922
 173313980, 0.3480045, -0.03461105, 0.03376574, -0.04752386, 0.01193981, 1.000137, 0.3246406, -0.04456851, 0.03119506, -0.0498196, 0.01131879, 0.9998875
 173413940, 0.3580665, -0.02045024, 0.06479909, -0.04547844, 0.01293672, 1.000308, 0.3480045, -0.03461105, 0.03376574, -0.04752386, 0.01193981, 1.000137
 173513900, 0.3173588, -0.03330705, 0.03050598, -0.05056767, 0.01304796, 0.999786, 0.3580665, -0.02045024, 0.06479909, -0.04547844, 0.01293672, 1.000308
 173613860, 0.3591304, -0.0262113, 0.0646381, -0.04456342, 0.01186315, 1.000372, 0.3173588, -0.03330705, 0.03050598, -0.05056767, 0.01304796, 0.999786
 173713820, 0.3595388, -0.05092677, 0.0343279, -0.04416226, 0.01147884, 1.00038, 0.3591304, -0.0262113, 0.0646381, -0.04456342, 0.01186315, 1.000372
 173813780, 0.3373413, -0.01305769, 0.06206504, -0.04608895, 0.01377229, 1.000132, 0.3595388, -0.05092677, 0.0343279, -0.04416226, 0.01147884, 1.00038
 173913740, 0.3250054, -0.03255363, 0.06093457, -0.04767729, 0.01394415, 0.9999766, 0.3373413, -0.01305769, 0.06206504, -0.04608895, 0.01377229, 1.000132
 174013700, 0.3846364, -0.03690301, 0.03676219, -0.040369, 0.01317116, 1.000713, 0.3250054, -0.03255363, 0.06093457, -0.04767729, 0.01394415, 0.9999766
 174113660, 0.3418837, -0.04016576, 0.03305845, -0.04754335, 0.01390135, 1.000074, 0.3846364, -0.03690301, 0.03676219, -0.040369, 0.01317116, 1.000713
 174213620, 0.3551995, -0.0322558, 0.0341253, -0.04511314, 0.01427395, 1.000272, 0.3418837, -0.04016576, 0.03305845, -0.04754335, 0.01390135, 1.000074
 174313580, 0.3397425, -0.04051673, 0.06257983, -0.04619249, 0.01417337, 1.000139, 0.3551995, -0.0322558, 0.0341253, -0.04511314, 0.01427395, 1.000272
 174413540, 0.3797992, -0.02913268, 0.03625727, -0.04082076, 0.01469096, 1.000639, 0.3397425, -0.04051673, 0.06257983, -0.04619249, 0.01417337, 1.000139
 174513500, 0.3676202, -0.02416648, 0.03534473, -0.043237, 0.01644462, 1.000415, 0.3797992, -0.02913268, 0.03625727, -0.04082076, 0.01469096, 1.000639
 174614293, 0.3783726, -0.03779793, 0.03666075, -0.03744552, 0.01644517, 0.9531542, 0.3676202, -0.02416648, 0.03534473, -0.043237, 0.01644462, 1.000415
 174714253, 0.3250372, -0.02303334, 0.03186662, -0.05101608, 0.01695428, 0.99975, 0.3783726, -0.03779793, 0.03666075, -0.03744552, 0.01644517, 0.9531542
 174814213, 0.3212822, -0.04403323, 0.06164564, -0.05078364, 0.01620567, 0.9997691, 0.3250372, -0.02303334, 0.03186662, -0.05101608, 0.01695428, 0.99975
 174914173, 0.3287213, -0.02287637, 0.0324496, -0.05110718, 0.01763202, 0.9997569, 0.3212822, -0.04403323, 0.06164564, -0.05078364, 0.01620567, 0.9997691
 175014133, 0.37651, -0.04978587, 0.06274331, -0.04430991, 0.01793734, 1.000445, 0.3287213, -0.02287637, 0.0324496, -0.05110718, 0.01763202, 0.9997569
 175114093, 0.3300102, -0.0340753, 0.0331185, -0.05214454, 0.01879349, 0.999691, 0.37651, -0.04978587, 0.06274331, -0.04430991, 0.01793734, 1.000445
 175214053, 0.3685509, -0.03065301, 0.06687151, -0.04562997, 0.01735323, 1.000334, 0.3300102, -0.0340753, 0.0331185, -0.05214454, 0.01879349, 0.999691
 175314013, 0.3558885, -0.03720338, 0.03544892, -0.04787048, 0.01633849, 1.000127, 0.3685509, -0.03065301, 0.06687151, -0.04562997, 0.01735323, 1.000334
 175433965, 0.3712575, -0.0346476, 0.03687851, -0.04519211, 0.01737546, 1.000355, 0.3558885, -0.03720338, 0.03544892, -0.04787048, 0.01633849, 1.000127
 175533925, 0.3594787, -0.01559004, 0.06532341, -0.04539007, 0.01851657, 1.000256, 0.3712575, -0.0346476, 0.03687851, -0.04519211, 0.01737546, 1.000355
 175633885, 0.3793239, -0.04994755, 0.03682462, -0.04131107, 0.01703913, 1.0006, 0.3594787, -0.01559004, 0.06532341, -0.04539007, 0.01851657, 1.000256
 175733845, 0.3936781, -0.03423705, 0.03810759, -0.03912352, 0.01682057, 1.000816, 0.3793239, -0.04994755, 0.03682462, -0.04131107, 0.01703913, 1.0006
 175833805, 0.3910043, -0.02494935, 0.0380723, -0.04024076, 0.01696562, 1.000746, 0.3936781, -0.03423705, 0.03810759, -0.03912352, 0.01682057, 1.000816
 175933765, 0.3367079, -0.04413383, 0.03308397, -0.04888979, 0.01678032, 0.99994, 0.3910043, -0.02494935, 0.0380723, -0.04024076, 0.01696562, 1.000746
 176033725, 0.3494175, -0.0159227, 0.06430636, -0.0466327, 0.01785759, 1.00014, 0.3367079, -0.04413383, 0.03308397, -0.04888979, 0.01678032, 0.99994
 176133685, 0.392907, -0.04281494, 0.03776145, -0.0381747, 0.01609812, 1.000869, 0.3494175, -0.0159227, 0.06430636, -0.0466327, 0.01785759, 1.00014
 176233645, 0.3824065, -0.01673944, 0.06129429, -0.03846292, 0.01722782, 1.000763, 0.392907, -0.04281494, 0.03776145, -0.0381747, 0.01609812, 1.000869
 176333605, 0.3474816, -0.04298176, 0.06263612, -0.04207181, 0.01712287, 1.000343, 0.3824065, -0.01673944, 0.06129429, -0.03846292, 0.01722782, 1.000763
 176433565, 0.3760936, -0.02189744, 0.03513372, -0.03841914, 0.01789685, 1.000681, 0.3474816, -0.04298176, 0.06263612, -0.04207181, 0.01712287, 1.000343
 176533525, 0.3515451, -0.02764982, 0.03318088, -0.04305954, 0.01683913, 1.000316, 0.3760936, -0.02189744, 0.03513372, -0.03841914, 0.01789685, 1.000681
 176633485, 0.3620216, -0.02341214, 0.03360761, -0.04020644, 0.01392452, 1.00056, 0.3515451, -0.02764982, 0.03318088, -0.04305954, 0.01683913, 1.000316
 176734278, 0.4095658, -0.03670354, 0.03809453, -0.03264854, 0.01119263, 1.001303, 0.3620216, -0.02341214, 0.03360761, -0.04020644, 0.01392452, 1.00056
 176834238, 0.3610878, -0.02453463, 0.06401026, -0.04097616, 0.0114259, 1.000579, 0.4095658, -0.03670354, 0.03809453, -0.03264854, 0.01119263, 1.001303
 176934198, 0.3875267, -0.04056285, 0.06684935, -0.03744917, 0.0111149, 1.000956, 0.3610878, -0.02453463, 0.06401026, -0.04097616, 0.0114259, 1.000579
 177034158, 0.4093603, -0.03481641, 0.06389435, -0.03384388, 0.01073417, 1.0013, 0.3875267, -0.04056285, 0.06684935, -0.03744917, 0.0111149, 1.000956
 177134118, 0.3591873, -0.04677907, 0.03415374, -0.0427071, 0.01107496, 1.000479, 0.4093603, -0.03481641, 0.06389435, -0.03384388, 0.01073417, 1.0013
 177234078, 0.3755303, -0.03315229, 0.03580597, -0.04031755, 0.01267149, 1.000695, 0.3591873, -0.04677907, 0.03415374, -0.0427071, 0.01107496, 1.000479
 177334038, 0.3614494, -0.02793542, 0.03475573, -0.04327812, 0.01395182, 1.000437, 0.3755303, -0.03315229, 0.03580597, -0.04031755, 0.01267149, 1.000695
 177433998, 0.4068128, -0.04719908, 0.03884378, -0.03487219, 0.01277754, 1.001203, 0.3614494, -0.02793542, 0.03475573, -0.04327812, 0.01395182, 1.000437
 177553950, 0.4005405, -0.03579733, 0.007998703, -0.03629782, 0.01346118, 1.001047, 0.4068128, -0.04719908, 0.03884378, -0.03487219, 0.01277754, 1.001203
 177653910, 0.3758133, -0.03135366, 0.03521645, -0.03854911, 0.01340798, 1.000759, 0.4005405, -0.03579733, 0.007998703, -0.03629782, 0.01346118, 1.001047
 177753870, 0.3702471, -0.04597612, 0.03419447, -0.03803491, 0.0121765, 1.000749, 0.3758133, -0.03135366, 0.03521645, -0.03854911, 0.01340798, 1.000759
 177853830, 0.3688073, -0.02679399, 0.003251752, -0.03717142, 0.01144779, 1.00075, 0.3702471, -0.04597612, 0.03419447, -0.03803491, 0.0121765, 1.000749
 177953790, 0.3541258, -0.02939195, 0.03142738, -0.03728594, 0.01133896, 1.000651, 0.3688073, -0.02679399, 0.003251752, -0.03717142, 0.01144779, 1.00075
 178053750, 0.3989896, -0.03094079, 0.03520405, -0.02956591, 0.01102946, 1.001303, 0.3541258, -0.02939195, 0.03142738, -0.03728594, 0.01133896, 1.000651
 178153710, 0.3489579, -0.01829851, 0.001172416, -0.0395266, 0.01181608, 1.000498, 0.3989896, -0.03094079, 0.03520405, -0.02956591, 0.01102946, 1.001303
 178253670, 0.3939541, -0.0498914, 0.03547844, -0.03228747, 0.009109029, 1.001194, 0.3489579, -0.01829851, 0.001172416, -0.0395266, 0.01181608, 1.000498
 178353630, 0.4008104, -0.03071817, 0.03630448, -0.03178656, 0.009393263, 1.001267, 0.3939541, -0.0498914, 0.03547844, -0.03228747, 0.009109029, 1.001194
 178453590, 0.3496179, -0.01858004, 0.006757177, -0.04097727, 0.009340817, 1.000473, 0.4008104, -0.03071817, 0.03630448, -0.03178656, 0.009393263, 1.001267
 178553550, 0.3745506, -0.03355663, 0.03398615, -0.03654556, 0.007036176, 1.000881, 0.3496179, -0.01858004, 0.006757177, -0.04097727, 0.009340817, 1.000473
 178653510, 0.3794657, -0.02963201, 0.03418078, -0.0352128, 0.006049875, 1.000976, 0.3745506, -0.03355663, 0.03398615, -0.03654556, 0.007036176, 1.000881
 178754303, 0.3508018, -0.01206591, 0.001596466, -0.04033001, 0.006474155, 1.000526, 0.3794657, -0.02963201, 0.03418078, -0.0352128, 0.006049875, 1.000976
 178854263, 0.400937, -0.04337586, 0.03603401, -0.03159399, 0.005462409, 1.0013, 0.3508018, -0.01206591, 0.001596466, -0.04033001, 0.006474155, 1.000526
 178954223, 0.3530164, -0.01227911, 0.03201587, -0.03984672, 0.007996405, 1.00057, 0.400937, -0.04337586, 0.03603401, -0.03159399, 0.005462409, 1.0013
 179054183, 0.4123956, -0.0334145, 0.006864026, -0.02995727, 0.005572844, 1.00143, 0.3530164, -0.01227911, 0.03201587, -0.03984672, 0.007996405, 1.00057
 179154143, 0.3628832, -0.02449069, 0.03229273, -0.0370285, 0.004021814, 1.000777, 0.4123956, -0.0334145, 0.006864026, -0.02995727, 0.005572844, 1.00143
 179254103, 0.4134483, -0.02505503, 0.03604743, -0.0271169, 0.001257966, 1.001559, 0.3628832, -0.02449069, 0.03229273, -0.0370285, 0.004021814, 1.000777
 179354063, 0.3979028, -0.01836498, 0.03503202, -0.03051329, 0.00172298, 1.001305, 0.4134483, -0.02505503, 0.03604743, -0.0271169, 0.001257966, 1.001559
 179454023, 0.3663121, -0.01912044, 0.00239365, -0.03668585, 0.004181837, 1.000792, 0.3979028, -0.01836498, 0.03503202, -0.03051329, 0.00172298, 1.001305
 179573975, 0.3532633, -0.04082117, 0.000704689, -0.03737138, 0.005609085, 1.000659, 0.3663121, -0.01912044, 0.00239365, -0.03668585, 0.004181837, 1.000792
 179673935, 0.379041, -0.03811811, 0.03260447, -0.03164982, 0.005799572, 1.001082, 0.3532633, -0.04082117, 0.000704689, -0.03737138, 0.005609085, 1.000659
 179773895, 0.3842897, -0.03197799, 0.03268348, -0.02992523, 0.004568887, 1.001185, 0.379041, -0.03811811, 0.03260447, -0.03164982, 0.005799572, 1.001082
 179873855, 0.4163147, -0.01902641, 0.03510617, -0.02389269, 0.002108241, 1.001657, 0.3842897, -0.03197799, 0.03268348, -0.02992523, 0.004568887, 1.001185
 179973815, 0.3556442, -0.03629297, 0.02954746, -0.03338768, -0.002510048, 1.000846, 0.4163147, -0.01902641, 0.03510617, -0.02389269, 0.002108241, 1.001657
 180073775, 0.340093, -0.04158813, 0.02831643, -0.03655189, -0.005887712, 1.000609, 0.3556442, -0.03629297, 0.02954746, -0.03338768, -0.002510048, 1.000846
 180173735, 0.3855565, -0.02721073, -0.002861682, -0.02989312, -0.007774664, 1.001143, 0.340093, -0.04158813, 0.02831643, -0.03655189, -0.005887712, 1.000609
 180273695, 0.3998363, -0.03341388, 0.003222026, -0.02756441, -0.009257227, 1.001328, 0.3855565, -0.02721073, -0.002861682, -0.02989312, -0.007774664, 1.001143
 180373655, 0.362287, -0.04468707, -0.0004563853, -0.03310428, -0.01184101, 1.000816, 0.3998363, -0.03341388, 0.003222026, -0.02756441, -0.009257227, 1.001328
 180473615, 0.3637559, -0.04225984, 0.02963117, -0.03267426, -0.01772009, 1.000773, 0.362287, -0.04468707, -0.0004563853, -0.03310428, -0.01184101, 1.000816
 180573575, 0.3758219, -0.01309965, 0.03179612, -0.03207621, -0.02771672, 1.00066, 0.3637559, -0.04225984, 0.02963117, -0.03267426, -0.01772009, 1.000773
 180673535, 0.3635579, -0.0158151, 0.0005613789, -0.03537792, -0.04546295, 0.9997801, 0.3758219, -0.01309965, 0.03179612, -0.03207621, -0.02771672, 1.00066
 180773495, 0.3923846, -0.03465965, 0.03193488, -0.0330002, -0.08115097, 0.9978545, 0.3635579, -0.0158151, 0.0005613789, -0.03537792, -0.04546295, 0.9997801
 180874288, 0.3959145, 0.0322246, -0.07699911, -0.04227403, -0.2133242, 0.9777249, 0.3923846, -0.03465965, 0.03193488, -0.0330002, -0.08115097, 0.9978545
 180974248, 0.389562, 0.04828606, -0.09566162, -0.04819473, -0.3501901, 0.9370643, 0.3959145, 0.0322246, -0.07699911, -0.04227403, -0.2133242, 0.9777249
 181074208, 0.3247019, -0.03874445, 0.0772495, -0.04881185, -0.3499001, 0.9368167, 0.389562, 0.04828606, -0.09566162, -0.04819473, -0.3501901, 0.9370643
 181174168, 0.3385938, -0.07677421, 0.1945997, -0.02926078, -0.2271267, 0.9748262, 0.3247019, -0.03874445, 0.0772495, -0.04881185, -0.3499001, 0.9368167
 181274128, 0.3967781, -0.04502156, 0.1084467, -0.007074468, -0.04865698, 1.00057, 0.3385938, -0.07677421, 0.1945997, -0.02926078, -0.2271267, 0.9748262
 181374088, 0.3445224, -0.02672973, -0.005901331, -0.01487596, 0.0996282, 0.9962193, 0.3967781, -0.04502156, 0.1084467, -0.007074468, -0.04865698, 1.00057
 181474048, 0.3705588, -0.03554248, -3.965013E-05, -0.01539439, 0.1566072, 0.989037, 0.3445224, -0.02672973, -0.005901331, -0.01487596, 0.0996282, 0.9962193
 181574008, 0.3891309, 0.008318324, 0.05793203, -0.0178293, 0.1205184, 0.9942331, 0.3705588, -0.03554248, -3.965013E-05, -0.01539439, 0.1566072, 0.989037
 181693960, 0.367884, -0.005456381, 0.02893169, -0.02724352, 0.01173915, 1.001038, 0.3891309, 0.008318324, 0.05793203, -0.0178293, 0.1205184, 0.9942331
 181793920, 0.3943531, -0.01657673, 0.001139777, -0.02778514, -0.07242674, 0.998659, 0.367884, -0.005456381, 0.02893169, -0.02724352, 0.01173915, 1.001038
 181893880, 0.379844, -0.0002628469, 0.002212744, -0.03217199, -0.1120424, 0.9947444, 0.3943531, -0.01657673, 0.001139777, -0.02778514, -0.07242674, 0.998659
 181993840, 0.3686956, -0.001720658, 0.03101112, -0.03226272, -0.1010402, 0.9958538, 0.379844, -0.0002628469, 0.002212744, -0.03217199, -0.1120424, 0.9947444
 182093800, 0.3533222, -0.005911241, 0.02899442, -0.03334969, -0.05780569, 0.9991474, 0.3686956, -0.001720658, 0.03101112, -0.03226272, -0.1010402, 0.9958538
 182193760, 0.3597917, -0.01501586, 0.02864275, -0.02989091, -0.008360732, 1.000936, 0.3533222, -0.005911241, 0.02899442, -0.03334969, -0.05780569, 0.9991474
 182293720, 0.3386247, 0.00274768, 0.02695959, -0.03212681, 0.02624529, 1.000416, 0.3597917, -0.01501586, 0.02864275, -0.02989091, -0.008360732, 1.000936
 182393680, 0.3639524, -0.01566117, 0.02936187, -0.02880662, 0.03389084, 1.000456, 0.3386247, 0.00274768, 0.02695959, -0.03212681, 0.02624529, 1.000416
 182493640, 0.3923253, 0.0005270513, 0.03160014, -0.02524899, 0.01963183, 1.001167, 0.3639524, -0.01566117, 0.02936187, -0.02880662, 0.03389084, 1.000456
 182593600, 0.3931753, -0.007671106, 0.03168907, -0.02565756, -0.005266102, 1.001338, 0.3923253, 0.0005270513, 0.03160014, -0.02524899, 0.01963183, 1.001167
 182693560, 0.3936098, -0.02139921, 0.03082698, -0.02515684, -0.02637603, 1.001016, 0.3931753, -0.007671106, 0.03168907, -0.02565756, -0.005266102, 1.001338
 182793520, 0.4009573, -0.02351529, 0.0309644, -0.02361492, -0.03623927, 1.000808, 0.3936098, -0.02139921, 0.03082698, -0.02515684, -0.02637603, 1.001016
 182893480, 0.3527904, -0.02012844, -0.002752619, -0.03124592, -0.03113762, 1.000371, 0.4009573, -0.02351529, 0.0309644, -0.02361492, -0.03623927, 1.000808
 182994273, 0.3920287, -0.01674464, 0.03105078, -0.02538926, -0.01711544, 1.001198, 0.3527904, -0.02012844, -0.002752619, -0.03124592, -0.03113762, 1.000371
 183094233, 0.368862, -0.01105276, 0.02969929, -0.02943661, -0.003495513, 1.001041, 0.3920287, -0.01674464, 0.03105078, -0.02538926, -0.01711544, 1.001198
 183194193, 0.3747508, -0.01874393, 0.02948714, -0.02674685, 0.005244455, 1.001151, 0.368862, -0.01105276, 0.02969929, -0.02943661, -0.003495513, 1.001041
 183294153, 0.3967703, 0.002599341, 0.03090029, -0.02200966, 0.007445354, 1.001443, 0.3747508, -0.01874393, 0.02948714, -0.02674685, 0.005244455, 1.001151
 183394113, 0.3745064, -0.01748697, 0.02895764, -0.02562976, 0.003282316, 1.001185, 0.3967703, 0.002599341, 0.03090029, -0.02200966, 0.007445354, 1.001443
 183494073, 0.3727034, -0.01513518, 0.02849942, -0.02516538, -0.001009874, 1.001188, 0.3745064, -0.01748697, 0.02895764, -0.02562976, 0.003282316, 1.001185
 183594033, 0.3686197, 0.009467242, 0.02885008, -0.02631221, -0.003509074, 1.001133, 0.3727034, -0.01513518, 0.02849942, -0.02516538, -0.001009874, 1.001188
 183693993, 0.3429524, -0.01990961, 0.02642649, -0.03068219, -0.005711069, 1.000802, 0.3686197, 0.009467242, 0.02885008, -0.02631221, -0.003509074, 1.001133
 183813945, 0.3630797, -0.004696735, 0.0284263, -0.02799479, -0.003135467, 1.001039, 0.3429524, -0.01990961, 0.02642649, -0.03068219, -0.005711069, 1.000802
 183913905, 0.3461668, 0.001507249, 0.02720775, -0.03039242, 0.001896817, 1.000856, 0.3630797, -0.004696735, 0.0284263, -0.02799479, -0.003135467, 1.001039
 184013865, 0.3515515, -0.01139686, 0.02701304, -0.02835453, 0.006024158, 1.00093, 0.3461668, 0.001507249, 0.02720775, -0.03039242, 0.001896817, 1.000856
 184113825, 0.4056248, -0.01236544, 0.03072321, -0.01906617, 0.008436803, 1.00156, 0.3515515, -0.01139686, 0.02701304, -0.02835453, 0.006024158, 1.00093
 184213785, 0.3909911, 0.006704152, 0.02941358, -0.02048917, 0.01066724, 1.001391, 0.4056248, -0.01236544, 0.03072321, -0.01906617, 0.008436803, 1.00156
 184313745, 0.3400722, -0.0204713, 0.01975343, -0.0115425, 0.008913044, 1.001159, 0.3909911, 0.006704152, 0.02941358, -0.02048917, 0.01066724, 1.001391
 184413705, 0.3394205, -0.006910445, 0.01310253, 0.00808654, 0.008095901, 1.001199, 0.3400722, -0.0204713, 0.01975343, -0.0115425, 0.008913044, 1.001159
 184513665, 0.3658632, 0.0112431, 0.01310471, 0.01502594, 0.0103353, 1.001289, 0.3394205, -0.006910445, 0.01310253, 0.00808654, 0.008095901, 1.001199
 184613625, 0.3709483, -0.01416034, 0.013541, 0.01458759, 0.01076839, 1.001316, 0.3658632, 0.0112431, 0.01310471, 0.01502594, 0.0103353, 1.001289
 184713585, 0.4087371, -0.008002191, 0.01492908, 0.02056701, 0.01213126, 1.001513, 0.3709483, -0.01416034, 0.013541, 0.01458759, 0.01076839, 1.001316
 184813545, 0.402994, 0.006344048, 0.01507611, 0.01889024, 0.01735918, 1.001425, 0.4087371, -0.008002191, 0.01492908, 0.02056701, 0.01213126, 1.001513
 184913505, 0.3799891, 0.008774598, 0.01417308, 0.01533353, 0.02437783, 1.001149, 0.402994, 0.006344048, 0.01507611, 0.01889024, 0.01735918, 1.001425
 185014298, 0.3557621, 0.009789107, 0.01336173, 0.01130761, 0.03193838, 1.00081, 0.3799891, 0.008774598, 0.01417308, 0.01533353, 0.02437783, 1.001149
 185114258, 0.3809204, -0.005084979, 0.04523725, 0.01347411, 0.03597303, 1.000837, 0.3557621, 0.009789107, 0.01336173, 0.01130761, 0.03193838, 1.00081
 185214218, 0.3981445, 0.009856732, 0.01701291, 0.01237734, 0.0396282, 1.000856, 0.3809204, -0.005084979, 0.04523725, 0.01347411, 0.03597303, 1.000837
 185314178, 0.352182, -0.001534202, 0.01540745, 0.005133182, 0.0390558, 1.000579, 0.3981445, 0.009856732, 0.01701291, 0.01237734, 0.0396282, 1.000856
 185414138, 0.3695615, -0.009540675, 0.01596954, 0.008610032, 0.03663281, 1.000769, 0.352182, -0.001534202, 0.01540745, 0.005133182, 0.0390558, 1.000579
 185514098, 0.3715517, -0.0018696, 0.01614986, 0.008286063, 0.03416312, 1.000878, 0.3695615, -0.009540675, 0.01596954, 0.008610032, 0.03663281, 1.000769
 185614058, 0.3885046, -0.01442841, 0.01750822, 0.009744719, 0.03135657, 1.001088, 0.3715517, -0.0018696, 0.01614986, 0.008286063, 0.03416312, 1.000878
 185714018, 0.3685431, -0.007611514, 0.01608339, 0.007956356, 0.03216036, 1.000923, 0.3885046, -0.01442841, 0.01750822, 0.009744719, 0.03135657, 1.001088
 185833970, 0.3923052, -0.01683549, 0.04750176, 0.01132392, 0.03320707, 1.001056, 0.3685431, -0.007611514, 0.01608339, 0.007956356, 0.03216036, 1.000923
 185933930, 0.3638068, -0.005778004, 0.01552283, 0.008236185, 0.03450792, 1.000809, 0.3923052, -0.01683549, 0.04750176, 0.01132392, 0.03320707, 1.001056
 186033890, 0.3643707, 0.00716464, 0.01500503, 0.009225372, 0.03383421, 1.000834, 0.3638068, -0.005778004, 0.01552283, 0.008236185, 0.03450792, 1.000809
 186133850, 0.3567578, -0.007959337, 0.01499545, 0.007978898, 0.03317246, 1.000805, 0.3643707, 0.00716464, 0.01500503, 0.009225372, 0.03383421, 1.000834
 186233810, 0.3973413, -0.008489804, 0.01700667, 0.01330974, 0.03220488, 1.001101, 0.3567578, -0.007959337, 0.01499545, 0.007978898, 0.03317246, 1.000805
 186333770, 0.3702182, 0.002897696, 0.01557878, 0.009448357, 0.03092515, 1.000969, 0.3973413, -0.008489804, 0.01700667, 0.01330974, 0.03220488, 1.001101
 186433730, 0.3522225, -4.955567E-06, 0.0147903, 0.00702351, 0.03097444, 1.000854, 0.3702182, 0.002897696, 0.01557878, 0.009448357, 0.03092515, 1.000969
 186533690, 0.3881181, 0.004963889, 0.01574025, 0.01362833, 0.03178889, 1.001038, 0.3522225, -4.955567E-06, 0.0147903, 0.00702351, 0.03097444, 1.000854
 186633650, 0.3923523, 0.00978502, 0.01576163, 0.01453172, 0.03153779, 1.001073, 0.3881181, 0.004963889, 0.01574025, 0.01362833, 0.03178889, 1.001038
 186733610, 0.3902512, -0.008543094, 0.01558208, 0.01517078, 0.03182681, 1.001028, 0.3923523, 0.00978502, 0.01576163, 0.01453172, 0.03153779, 1.001073
 186833570, 0.3843375, 0.002736077, 0.01543589, 0.01357661, 0.03269672, 1.000979, 0.3902512, -0.008543094, 0.01558208, 0.01517078, 0.03182681, 1.001028
 186933530, 0.3683096, -0.02342634, 0.01536366, 0.01064062, 0.03053648, 1.000945, 0.3843375, 0.002736077, 0.01543589, 0.01357661, 0.03269672, 1.000979
 187033490, 0.3718551, -0.008905554, 0.01602437, 0.009220283, 0.03028569, 1.001, 0.3683096, -0.02342634, 0.01536366, 0.01064062, 0.03053648, 1.000945
 187134283, 0.3945294, -0.02536056, 0.01750651, 0.01214574, 0.03128775, 1.00112, 0.3718551, -0.008905554, 0.01602437, 0.009220283, 0.03028569, 1.001
 187234243, 0.3795611, 0.002316035, 0.01697036, 0.008375213, 0.03321693, 1.00098, 0.3945294, -0.02536056, 0.01750651, 0.01214574, 0.03128775, 1.00112
 187334203, 0.3604865, -0.0004730667, 0.04598415, 0.006334212, 0.03248429, 1.000882, 0.3795611, 0.002316035, 0.01697036, 0.008375213, 0.03321693, 1.00098
 187434163, 0.3993522, -0.004020698, 0.01801538, 0.01135966, 0.0311779, 1.001183, 0.3604865, -0.0004730667, 0.04598415, 0.006334212, 0.03248429, 1.000882
 187534123, 0.3803416, -0.001035869, 0.01672232, 0.009400859, 0.02911409, 1.001105, 0.3993522, -0.004020698, 0.01801538, 0.01135966, 0.0311779, 1.001183
 187634083, 0.3705059, -0.01328465, 0.01692857, 0.006635793, 0.02862392, 1.001059, 0.3803416, -0.001035869, 0.01672232, 0.009400859, 0.02911409, 1.001105
 187734043, 0.364375, -0.005113307, 0.01719302, 0.003996961, 0.02953971, 1.001003, 0.3705059, -0.01328465, 0.01692857, 0.006635793, 0.02862392, 1.001059
 187834003, 0.3746578, -0.02658801, 0.01910175, 0.002641022, 0.03027225, 1.001059, 0.364375, -0.005113307, 0.01719302, 0.003996961, 0.02953971, 1.001003
 187953955, 0.4079168, -0.01866401, 0.02126144, 0.006500848, 0.03189681, 1.001282, 0.3746578, -0.02658801, 0.01910175, 0.002641022, 0.03027225, 1.001059
 188053915, 0.3976087, -5.849803E-05, 0.04517949, 0.005726717, 0.03259436, 1.001188, 0.4079168, -0.01866401, 0.02126144, 0.006500848, 0.03189681, 1.001282
 188153875, 0.4025397, -0.007311425, 0.04991494, 0.008152142, 0.03050761, 1.001282, 0.3976087, -5.849803E-05, 0.04517949, 0.005726717, 0.03259436, 1.001188
 188253835, 0.3999052, -0.0005449718, 0.01955161, 0.007738635, 0.02909245, 1.001293, 0.4025397, -0.007311425, 0.04991494, 0.008152142, 0.03050761, 1.001282
 188353795, 0.4092126, -0.02495566, 0.02055681, 0.008737415, 0.02734433, 1.001415, 0.3999052, -0.0005449718, 0.01955161, 0.007738635, 0.02909245, 1.001293
 188453755, 0.3965587, -0.02260678, 0.02010467, 0.006172784, 0.02669662, 1.001337, 0.4092126, -0.02495566, 0.02055681, 0.008737415, 0.02734433, 1.001415
 188553715, 0.3672027, -0.01158, 0.01828655, 0.002175894, 0.0263866, 1.001121, 0.3965587, -0.02260678, 0.02010467, 0.006172784, 0.02669662, 1.001337
 188653675, 0.3702604, 7.080752E-05, 0.01860417, 0.001897797, 0.03268268, 1.000965, 0.3672027, -0.01158, 0.01828655, 0.002175894, 0.0263866, 1.001121
 188753635, 0.3563187, -0.01976277, 0.01981051, -0.004017971, 0.04107595, 1.000539, 0.3702604, 7.080752E-05, 0.01860417, 0.001897797, 0.03268268, 1.000965
 188853595, 0.3503462, -0.02446373, 0.02127862, -0.009826817, 0.03805453, 1.000575, 0.3563187, -0.01976277, 0.01981051, -0.004017971, 0.04107595, 1.000539
 188953555, 0.423384, -0.01498974, 0.02691737, -0.002352882, 0.02543786, 1.001655, 0.3503462, -0.02446373, 0.02127862, -0.009826817, 0.03805453, 1.000575
 189053515, 0.391784, -0.02071986, 0.0258141, -0.01023075, 0.01403535, 1.001529, 0.423384, -0.01498974, 0.02691737, -0.002352882, 0.02543786, 1.001655
 189153475, 0.3693694, -0.02878589, 0.0249574, -0.01571368, 0.008698361, 1.001332, 0.391784, -0.02071986, 0.0258141, -0.01023075, 0.01403535, 1.001529
 189254268, 0.3653116, -0.002456187, 0.02567323, -0.01859324, 0.01158048, 1.00123, 0.3693694, -0.02878589, 0.0249574, -0.01571368, 0.008698361, 1.001332
 189354228, 0.3810067, -0.01412205, 0.05636209, -0.01444056, 0.01572326, 1.001386, 0.3653116, -0.002456187, 0.02567323, -0.01859324, 0.01158048, 1.00123
 189454188, 0.365276, -0.01415513, 0.02466377, -0.01553731, 0.01976101, 1.001153, 0.3810067, -0.01412205, 0.05636209, -0.01444056, 0.01572326, 1.001386
 189554148, 0.402989, -0.003815448, 0.05598456, -0.006117683, 0.02004292, 1.001599, 0.365276, -0.01415513, 0.02466377, -0.01553731, 0.01976101, 1.001153
 189654108, 0.411645, -0.004572844, 0.02547802, -0.002570335, 0.01542817, 1.001763, 0.402989, -0.003815448, 0.05598456, -0.006117683, 0.02004292, 1.001599
 189754068, 0.4088342, -0.01119288, 0.02481077, -0.002018478, 0.007314357, 1.001828, 0.411645, -0.004572844, 0.02547802, -0.002570335, 0.01542817, 1.001763
 189854028, 0.3601525, -0.0128801, 0.05155717, -0.008784246, 0.001755118, 1.001407, 0.4088342, -0.01119288, 0.02481077, -0.002018478, 0.007314357, 1.001828
 189973980, 0.3894802, -0.009727055, 0.02301957, -0.00341519, 0.009805157, 1.001626, 0.3601525, -0.0128801, 0.05155717, -0.008784246, 0.001755118, 1.001407
 190073940, 0.433182, -0.00795056, 0.02501982, 0.005681444, 0.01971518, 1.001914, 0.3894802, -0.009727055, 0.02301957, -0.00341519, 0.009805157, 1.001626
 190173900, 0.3731651, -0.02414719, 0.02118449, -0.003132276, 0.0198375, 1.001336, 0.433182, -0.00795056, 0.02501982, 0.005681444, 0.01971518, 1.001914
 190273860, 0.3617851, -0.01237645, 0.02086587, -0.006329179, 0.0114927, 1.001363, 0.3731651, -0.02414719, 0.02118449, -0.003132276, 0.0198375, 1.001336
 190373820, 0.3721272, -0.005158371, 0.02189761, -0.005837809, 0.007790904, 1.001489, 0.3617851, -0.01237645, 0.02086587, -0.006329179, 0.0114927, 1.001363
 190473780, 0.3583587, -0.02349472, 0.02122448, -0.008069117, 0.01513195, 1.001276, 0.3721272, -0.005158371, 0.02189761, -0.005837809, 0.007790904, 1.001489
 190573740, 0.3954808, -0.01842473, 0.02406212, -0.002993725, 0.02956949, 1.001303, 0.3583587, -0.02349472, 0.02122448, -0.008069117, 0.01513195, 1.001276
 190673700, 0.4126857, -0.002862032, 0.04969827, 0.0007107109, 0.03618193, 1.00128, 0.3954808, -0.01842473, 0.02406212, -0.002993725, 0.02956949, 1.001303
 190773660, 0.3696555, -0.003419952, 0.02159852, -0.005430713, 0.02892127, 1.001088, 0.4126857, -0.002862032, 0.04969827, 0.0007107109, 0.03618193, 1.00128
 190873620, 0.4430899, -0.001589298, 0.02553992, 0.007882923, 0.01688823, 1.00209, 0.3696555, -0.003419952, 0.02159852, -0.005430713, 0.02892127, 1.001088
 190973580, 0.4090509, -0.02210577, 0.02323248, 0.0025758, 0.01054881, 1.001825, 0.4430899, -0.001589298, 0.02553992, 0.007882923, 0.01688823, 1.00209
 191073540, 0.3963998, -0.02124949, 0.02202063, 0.001846254, 0.01249577, 1.001681, 0.4090509, -0.02210577, 0.02323248, 0.0025758, 0.01054881, 1.001825
 191173500, 0.4159102, -0.02321422, 0.02231675, 0.007339463, 0.01562611, 1.001811, 0.3963998, -0.02124949, 0.02202063, 0.001846254, 0.01249577, 1.001681
 191274293, 0.3726299, -0.002362368, 0.02012254, 0.002113741, 0.01930336, 0.9538115, 0.4159102, -0.02321422, 0.02231675, 0.007339463, 0.01562611, 1.001811
 191374253, 0.3984063, -0.002266694, 0.02192872, 0.002777793, 0.02269945, 1.001524, 0.3726299, -0.002362368, 0.02012254, 0.002113741, 0.01930336, 0.9538115
 191474213, 0.3719828, -0.02410599, -0.009133153, -0.002278719, 0.02521317, 1.001206, 0.3984063, -0.002266694, 0.02192872, 0.002777793, 0.02269945, 1.001524
 191574173, 0.4445348, -0.02319485, 0.02510283, 0.01023032, 0.02516753, 1.001918, 0.3719828, -0.02410599, -0.009133153, -0.002278719, 0.02521317, 1.001206
 191674133, 0.4277069, -0.01710283, 0.02396433, 0.007363603, 0.02472398, 1.001756, 0.4445348, -0.02319485, 0.02510283, 0.01023032, 0.02516753, 1.001918
 191774093, 0.3718157, -0.009368702, 0.02091539, -0.002671767, 0.02197543, 1.001297, 0.4277069, -0.01710283, 0.02396433, 0.007363603, 0.02472398, 1.001756
 191874053, 0.4394137, -0.03524396, 0.02450783, 0.009686675, 0.01640857, 1.002044, 0.3718157, -0.009368702, 0.02091539, -0.002671767, 0.02197543, 1.001297
 191974013, 0.4074134, -0.01494977, 0.02229512, 0.004672825, 0.0162237, 1.001726, 0.4394137, -0.03524396, 0.02450783, 0.009686675, 0.01640857, 1.002044
 192093965, 0.4043952, -0.01166495, 0.02156687, 0.005582504, 0.01819562, 1.001658, 0.4074134, -0.01494977, 0.02229512, 0.004672825, 0.0162237, 1.001726
 192193925, 0.3745871, -0.0333435, 0.02012275, 0.0007598177, 0.01935724, 1.001374, 0.4043952, -0.01166495, 0.02156687, 0.005582504, 0.01819562, 1.001658
 192293885, 0.3668036, -0.01442686, 0.01963327, -0.0006896816, 0.02053851, 1.001285, 0.3745871, -0.0333435, 0.02012275, 0.0007598177, 0.01935724, 1.001374
 192393845, 0.3996919, -0.03152644, 0.02087796, 0.006255999, 0.01928839, 1.001583, 0.3668036, -0.01442686, 0.01963327, -0.0006896816, 0.02053851, 1.001285
 192493805, 0.4362837, -0.03372719, 0.02269762, 0.01289068, 0.01864248, 1.001922, 0.3996919, -0.03152644, 0.02087796, 0.006255999, 0.01928839, 1.001583
 192593765, 0.4150965, -0.03275067, 0.02182727, 0.008621667, 0.01965879, 1.001714, 0.4362837, -0.03372719, 0.02269762, 0.01289068, 0.01864248, 1.001922
 192693725, 0.4031285, -0.006849453, 0.02127691, 0.005818024, 0.02185633, 1.001566, 0.4150965, -0.03275067, 0.02182727, 0.008621667, 0.01965879, 1.001714
 192793685, 0.4258172, -0.03300782, 0.02287181, 0.009605173, 0.02250035, 1.001759, 0.4031285, -0.006849453, 0.02127691, 0.005818024, 0.02185633, 1.001566
 192893645, 0.4255361, -0.02609127, 0.02258112, 0.009994283, 0.0230985, 1.001736, 0.4258172, -0.03300782, 0.02287181, 0.009605173, 0.02250035, 1.001759
 192993605, 0.3789394, -0.01172664, 0.01948203, 0.003355727, 0.02396134, 1.001303, 0.4255361, -0.02609127, 0.02258112, 0.009994283, 0.0230985, 1.001736
 193093565, 0.3906313, -0.009843863, 0.01973561, 0.006018978, 0.02320098, 1.001412, 0.3789394, -0.01172664, 0.01948203, 0.003355727, 0.02396134, 1.001303
 193193525, 0.3996336, -0.03376579, 0.0204492, 0.007574722, 0.0227535, 1.001495, 0.3906313, -0.009843863, 0.01973561, 0.006018978, 0.02320098, 1.001412
 193293485, 0.3929853, -0.01000835, 0.01962781, 0.006987553, 0.02384492, 1.00141, 0.3996336, -0.03376579, 0.0204492, 0.007574722, 0.0227535, 1.001495
 193394278, 0.3994606, -0.007958696, 0.01939857, 0.009385012, 0.02516717, 1.001418, 0.3929853, -0.01000835, 0.01962781, 0.006987553, 0.02384492, 1.00141
 193494238, 0.4030832, -0.03662397, 0.01977658, 0.01073842, 0.02743346, 1.001379, 0.3994606, -0.007958696, 0.01939857, 0.009385012, 0.02516717, 1.001418
 193594198, 0.4283873, -0.04048818, 0.02102595, 0.01540307, 0.02967051, 1.001517, 0.4030832, -0.03662397, 0.01977658, 0.01073842, 0.02743346, 1.001379
 193694158, 0.3896441, -0.01368357, 0.01939004, 0.007003881, 0.03332397, 1.001104, 0.4283873, -0.04048818, 0.02102595, 0.01540307, 0.02967051, 1.001517
 193794118, 0.435265, -0.03607924, 0.02277004, 0.01335547, 0.03306269, 1.001512, 0.3896441, -0.01368357, 0.01939004, 0.007003881, 0.03332397, 1.001104
 193894078, 0.3922908, -0.02042191, -0.00930604, 0.004498314, 0.03525329, 1.001059, 0.435265, -0.03607924, 0.02277004, 0.01335547, 0.03306269, 1.001512
 193994038, 0.3963942, -0.02345851, 0.02076201, 0.006203596, 0.03674991, 1.001048, 0.3922908, -0.02042191, -0.00930604, 0.004498314, 0.03525329, 1.001059
 194093998, 0.4117842, -0.01331188, 0.02053134, 0.01055368, 0.03612935, 1.001182, 0.3963942, -0.02345851, 0.02076201, 0.006203596, 0.03674991, 1.001048
 194213950, 0.4353028, -0.02787085, 0.02151429, 0.01568847, 0.03242453, 1.001491, 0.4117842, -0.01331188, 0.02053134, 0.01055368, 0.03612935, 1.001182
 194313910, 0.4345243, -0.01716829, 0.02139686, 0.01512513, 0.03101126, 1.001535, 0.4353028, -0.02787085, 0.02151429, 0.01568847, 0.03242453, 1.001491
 194413870, 0.388537, -0.03614337, 0.01942273, 0.007408351, 0.02860752, 1.001231, 0.4345243, -0.01716829, 0.02139686, 0.01512513, 0.03101126, 1.001535
 194513830, 0.427342, -0.01308948, 0.02075979, 0.01397081, 0.02243698, 1.001696, 0.388537, -0.03614337, 0.01942273, 0.007408351, 0.02860752, 1.001231
 194613790, 0.3778484, -0.0235657, 0.01813651, 0.006100897, 0.01384934, 1.001457, 0.427342, -0.01308948, 0.02075979, 0.01397081, 0.02243698, 1.001696
 194713750, 0.3886415, -0.0195257, 0.0189637, 0.006938521, 0.01212278, 1.001567, 0.3778484, -0.0235657, 0.01813651, 0.006100897, 0.01384934, 1.001457
 194813710, 0.4191915, -0.03907032, 0.02091012, 0.01125832, 0.01395752, 1.001798, 0.3886415, -0.0195257, 0.0189637, 0.006938521, 0.01212278, 1.001567
 194913670, 0.4207138, -0.03989951, 0.02100118, 0.01186714, 0.01769426, 1.001748, 0.4191915, -0.03907032, 0.02091012, 0.01125832, 0.01395752, 1.001798
 195013630, 0.408224, -0.01409301, 0.01957457, 0.01127245, 0.02152109, 1.001549, 0.4207138, -0.03989951, 0.02100118, 0.01186714, 0.01769426, 1.001748
 195113590, 0.3640223, -0.01890497, 0.01696865, 0.005722996, 0.02121651, 1.001218, 0.408224, -0.01409301, 0.01957457, 0.01127245, 0.02152109, 1.001549
 195213550, 0.4228716, -0.02068478, 0.02003454, 0.01433336, 0.01887414, 1.001709, 0.3640223, -0.01890497, 0.01696865, 0.005722996, 0.02121651, 1.001218
 195313510, 0.4042857, -0.03154976, 0.02009862, 0.008929595, 0.01633587, 1.001632, 0.4228716, -0.02068478, 0.02003454, 0.01433336, 0.01887414, 1.001709
 195414303, 0.3846146, -0.03637713, 0.01914463, 0.005673423, 0.01542105, 1.001491, 0.4042857, -0.03154976, 0.02009862, 0.008929595, 0.01633587, 1.001632
 195514263, 0.365456, -0.03258181, 0.01750361, 0.00463292, 0.0167426, 1.001318, 0.3846146, -0.03637713, 0.01914463, 0.005673423, 0.01542105, 1.001491
 195614223, 0.3825078, -0.03647868, 0.01779494, 0.008697968, 0.01718934, 1.001421, 0.365456, -0.03258181, 0.01750361, 0.00463292, 0.0167426, 1.001318
 195714183, 0.3711538, -0.009149117, 0.01781209, 0.005054068, 0.01869906, 1.001326, 0.3825078, -0.03647868, 0.01779494, 0.008697968, 0.01718934, 1.001421
 195814143, 0.3584205, -0.02528868, 0.01823711, 0.0003200732, 0.01514007, 1.0013, 0.3711538, -0.009149117, 0.01781209, 0.005054068, 0.01869906, 1.001326
 195914103, 0.3636095, -0.03843293, 0.01882549, -0.00013965, 0.01042098, 1.001399, 0.3584205, -0.02528868, 0.01823711, 0.0003200732, 0.01514007, 1.0013
 196014063, 0.4156891, -0.01668195, 0.02174529, 0.007486682, 0.006402344, 1.00186, 0.3636095, -0.03843293, 0.01882549, -0.00013965, 0.01042098, 1.001399
 196114023, 0.3725585, -0.04195573, 0.01949778, -0.0001482107, 0.002528718, 1.001521, 0.4156891, -0.01668195, 0.02174529, 0.007486682, 0.006402344, 1.00186
 196233975, 0.3498257, -0.03997115, 0.01868121, -0.003900088, 0.00897004, 1.001304, 0.3725585, -0.04195573, 0.01949778, -0.0001482107, 0.002528718, 1.001521
 196333935, 0.3898579, -0.02372602, 0.02108731, 0.002214134, 0.01909288, 1.001483, 0.3498257, -0.03997115, 0.01868121, -0.003900088, 0.00897004, 1.001304
 196433895, 0.4084061, -0.03527314, 0.02230523, 0.005514622, 0.02576963, 1.001491, 0.3898579, -0.02372602, 0.02108731, 0.002214134, 0.01909288, 1.001483
 196533855, 0.3523584, -0.0353038, 0.01966512, -0.004090317, 0.02781726, 1.000974, 0.4084061, -0.03527314, 0.02230523, 0.005514622, 0.02576963, 1.001491
 196633815, 0.360076, -0.02840661, 0.05009177, -0.003455441, 0.02145796, 1.001202, 0.3523584, -0.0353038, 0.01966512, -0.004090317, 0.02781726, 1.000974
 196733775, 0.3972003, -0.02162571, 0.0222528, 0.000829719, 0.01113687, 1.001667, 0.360076, -0.02840661, 0.05009177, -0.003455441, 0.02145796, 1.001202
 196833735, 0.3725286, -0.03721851, 0.02127021, -0.004828535, 0.003305922, 1.001504, 0.3972003, -0.02162571, 0.0222528, 0.000829719, 0.01113687, 1.001667
 196933695, 0.3725165, -0.01160643, 0.02173374, -0.00556872, 0.002644571, 1.001503, 0.3725286, -0.03721851, 0.02127021, -0.004828535, 0.003305922, 1.001504
 197033655, 0.4013571, -0.02567613, 0.02324912, -0.0005823895, 0.007056804, 1.001743, 0.3725165, -0.01160643, 0.02173374, -0.00556872, 0.002644571, 1.001503
 197133615, 0.3905502, -0.02843338, 0.02236646, -0.001021575, 0.01611955, 1.001541, 0.4013571, -0.02567613, 0.02324912, -0.0005823895, 0.007056804, 1.001743
 197233575, 0.3778197, -0.03322715, 0.0217876, -0.002751362, 0.02277355, 1.001301, 0.3905502, -0.02843338, 0.02236646, -0.001021575, 0.01611955, 1.001541
 197333535, 0.419081, -0.02377981, 0.02386031, 0.004438065, 0.02590114, 1.001593, 0.3778197, -0.03322715, 0.0217876, -0.002751362, 0.02277355, 1.001301
 197433495, 0.4235973, -0.02186457, -0.005865691, 0.004594058, 0.02530635, 1.001634, 0.419081, -0.02377981, 0.02386031, 0.004438065, 0.02590114, 1.001593
 197534288, 0.3979685, -0.02706779, 0.02324851, -0.0006190948, 0.02245563, 1.001483, 0.4235973, -0.02186457, -0.005865691, 0.004594058, 0.02530635, 1.001634
 197634248, 0.4200596, -0.04132334, 0.02465976, 0.002375353, 0.01435526, 1.001844, 0.3979685, -0.02706779, 0.02324851, -0.0006190948, 0.02245563, 1.001483
 197734208, 0.4057469, -0.04420919, 0.02364344, -0.00036598, 0.006767965, 1.001787, 0.4200596, -0.04132334, 0.02465976, 0.002375353, 0.01435526, 1.001844
 197834168, 0.3901259, -0.04438269, 0.02305636, -0.004135311, 0.002960905, 1.001656, 0.4057469, -0.04420919, 0.02364344, -0.00036598, 0.006767965, 1.001787
 197934128, 0.3584967, -0.0282693, 0.02120863, -0.008516956, 0.006890832, 1.001353, 0.3901259, -0.04438269, 0.02305636, -0.004135311, 0.002960905, 1.001656
 198034088, 0.3737828, -0.02232629, 0.02190576, -0.00523717, 0.01319207, 1.001429, 0.3584967, -0.0282693, 0.02120863, -0.008516956, 0.006890832, 1.001353
 198134048, 0.3667622, -0.02381143, 0.02041466, -0.002925411, 0.01970545, 1.001276, 0.3737828, -0.02232629, 0.02190576, -0.00523717, 0.01319207, 1.001429
 198234008, 0.3938272, -0.02132659, -0.003669655, 0.002498064, 0.02390087, 1.001394, 0.3667622, -0.02381143, 0.02041466, -0.002925411, 0.01970545, 1.001276
 198353960, 0.3514018, -0.02498763, 0.01946763, -0.004515655, 0.02580902, 1.001017, 0.3938272, -0.02132659, -0.003669655, 0.002498064, 0.02390087, 1.001394
 198453920, 0.3531124, -0.01817429, -0.01023011, -0.005850378, 0.02079529, 1.001126, 0.3514018, -0.02498763, 0.01946763, -0.004515655, 0.02580902, 1.001017
 198553880, 0.3990378, -0.02936123, 0.02387911, -0.002883919, 0.01057218, 1.001676, 0.3531124, -0.01817429, -0.01023011, -0.005850378, 0.02079529, 1.001126
 198653840, 0.3491182, -0.02114221, 0.02179151, -0.01352232, 0.002350125, 1.001249, 0.3990378, -0.02936123, 0.02387911, -0.002883919, 0.01057218, 1.001676
 198753800, 0.343394, -0.02037818, 0.02177414, -0.01558666, -0.00239935, 1.00118, 0.3491182, -0.02114221, 0.02179151, -0.01352232, 0.002350125, 1.001249
 198853760, 0.343266, -0.02097248, 0.02131775, -0.01420909, -0.0006418489, 1.001202, 0.343394, -0.02037818, 0.02177414, -0.01558666, -0.00239935, 1.00118
 198953720, 0.3639507, -0.02544736, 0.02131613, -0.007154889, 0.008781274, 1.001383, 0.343266, -0.02097248, 0.02131775, -0.01420909, -0.0006418489, 1.001202
 199053680, 0.3787193, -0.04320478, -0.008410558, -0.002240159, 0.02268183, 1.001288, 0.3639507, -0.02544736, 0.02131613, -0.007154889, 0.008781274, 1.001383
 199153640, 0.379695, -0.03941598, 0.02226988, -0.002288379, 0.03458953, 1.000967, 0.3787193, -0.04320478, -0.008410558, -0.002240159, 0.02268183, 1.001288
 199253600, 0.3794841, -0.01741976, -0.007841956, -0.003749993, 0.03983901, 1.000749, 0.379695, -0.03941598, 0.02226988, -0.002288379, 0.03458953, 1.000967
 199353560, 0.4075612, -0.04536891, 0.02507656, -0.0008694232, 0.03371615, 1.001235, 0.3794841, -0.01741976, -0.007841956, -0.003749993, 0.03983901, 1.000749
 199453520, 0.3600686, -0.03728827, 0.02256049, -0.01072893, 0.02208552, 1.001113, 0.4075612, -0.04536891, 0.02507656, -0.0008694232, 0.03371615, 1.001235
 199553480, 0.3442714, -0.02751261, 0.02180141, -0.01490533, 0.009472687, 1.00115, 0.3600686, -0.03728827, 0.02256049, -0.01072893, 0.02208552, 1.001113
 199654273, 0.4048329, -0.03783711, 0.02538664, -0.005951729, 0.001860789, 1.001755, 0.3442714, -0.02751261, 0.02180141, -0.01490533, 0.009472687, 1.00115
