TimeUS,COFN,COFE,COFD,CNe,CEe,CDe,POFN,POFE,POFD,PNe,PEe,PDe
 158034261, 0, 0, 0, 0, 0, 0, 0, 0, 0, 0, 0, 0
 158234181, 0, 0, 0, 0, 0, 0, 0, 0, 0, 0, 0, 0
 158434101, 0, 0, 0, 0, 0, 0, 0, 0, 0, 0, 0, 0
 158634021, 0, 0, 0, 0, 0, 0, 0, 0, 0, 0, 0, 0
 158833941, 0, 0, 0, 0, 0, 0, 0, 0, 0, 0, 0, 0
 159033861, 0, 0, 0, 0, 0, 0, 0, 0, 0, 0, 0, 0
 159233781, 0, 0, 0, 0, 0, 0, 0, 0, 0, 0, 0, 0
 159433701, 0, 0, 0, 0, 0, 0, 0, 0, 0, 0, 0, 0
 159633621, 0, 0, 0, 0, 0, 0, 0, 0, 0, 0, 0, 0
 159833541, 0, 0, 0, 0, 0, 0, 0, 0, 0, 0, 0, 0
 160034294, 0, 0, 0, 0, 0, 0, 0, 0, 0, 0, 0, 0
 160234214, 0, 0, 0, 0, 0, 0, 0, 0, 0, 0, 0, 0
 160434134, 0, 0, 0, 0, 0, 0, 0, 0, 0, 0, 0, 0
 160634054, 0, 0, 0, 0, 0, 0, 0, 0, 0, 0, 0, 0
 160833974, 0, 0, 0, 0, 0, 0, 0, 0, 0, 0, 0, 0
 161033894, 0, 0, 0, 0, 0, 0, 0, 0, 0, 0, 0, 0
 161233814, 0, 0, 0, 0, 0, 0, 0, 0, 0, 0, 0, 0
 161433734, 0, 0, 0, 0, 0, 0, 0, 0, 0, 0, 0, 0
 161633654, -0.2158551, 0.0226905, -0.009066848, 0.1027187, -0.00772079, 0.9947043, 0, 0, 0, 0, 0, 0
 161833574, 0.1462947, -0.01838897, -0.04555934, 0.1636955, -0.01026564, 0.9882992, -0.2158551, 0.0226905, -0.009066848, 0.1027187, -0.00772079, 0.9947043
 162033494, 0.04010928, -0.003317974, -0.06491876, 0.1257806, -0.0003352654, 0.9921563, 0.1462947, -0.01838897, -0.04555934, 0.1636955, -0.01026564, 0.9882992
 162234247, 0.01212296, -0.001488711, -0.06181434, 0.122849, -0.0005087771, 0.9924622, 0.04010928, -0.003317974, -0.06491876, 0.1257806, -0.0003352654, 0.9921563
 162434167, -0.01727427, 0.0009356016, -0.0583439, 0.124234, -0.003929678, 0.9922649, 0.01212296, -0.001488711, -0.06181434, 0.122849, -0.0005087771, 0.9924622
 162634087, -0.04659022, 0.002222526, -0.05457351, 0.1280122, -0.008415597, 0.9917537, -0.01727427, 0.0009356016, -0.0583439, 0.124234, -0.003929678, 0.9922649
 162834007, -0.09911148, 0.007935477, -0.04735915, 0.1331534, -0.005035808, 0.9911017, -0.04659022, 0.002222526, -0.05457351, 0.1280122, -0.008415597, 0.9917537
 163033927, -0.169471, 0.01393553, -0.03781273, 0.1373447, -0.001136486, 0.9905533, -0.09911148, 0.007935477, -0.04735915, 0.1331534, -0.005035808, 0.9911017
 163233847, -0.2707282, 0.03185814, -0.02395069, 0.1466856, -0.005704679, 0.9892885, -0.169471, 0.01393553, -0.03781273, 0.1373447, -0.001136486, 0.9905533
 163433767, -0.5401213, 0.05400674, -0.02140397, 0.1950406, -0.0119643, 0.9825723, -0.2707282, 0.03185814, -0.02395069, 0.1466856, -0.005704679, 0.9892885
 163633687, -0.9734046, 0.1106753, 0.07546633, 0.3277227, -0.03024896, 0.9639178, -0.5401213, 0.05400674, -0.02140397, 0.1950406, -0.0119643, 0.9825723
 163833607, -1.846402, 0.215767, 0.2073054, 0.7314954, -0.07514233, 0.9059862, -0.9734046, 0.1106753, 0.07546633, 0.3277227, -0.03024896, 0.9639178
 164033527, 4.079252, -0.4782585, -0.643253, 34.42392, -3.974147, -3.905619, -1.846402, 0.215767, 0.2073054, 0.7314954, -0.07514233, 0.9059862
 164234280, 1.512168, -0.1801996, -0.3110665, 1.298737, -0.1456619, 0.8215612, 4.079252, -0.4782585, -0.643253, 34.42392, -3.974147, -3.905619
 164434200, 0.8556112, -0.101076, -0.1839902, 0.4412357, -0.04373419, 0.9467559, 1.512168, -0.1801996, -0.3110665, 1.298737, -0.1456619, 0.8215612
 164634120, 0.6316873, -0.06777306, -0.1526719, 0.3023916, -0.02431779, 0.9665322, 0.8556112, -0.101076, -0.1839902, 0.4412357, -0.04373419, 0.9467559
 164834040, 0.6499676, -0.07861697, -0.149838, 0.3012303, -0.02328875, 0.9668551, 0.6316873, -0.06777306, -0.1526719, 0.3023916, -0.02431779, 0.9665322
 165033960, 0.5280311, -0.06589282, -0.1334962, 0.2428719, -0.01473903, 0.9760475, 0.6499676, -0.07861697, -0.149838, 0.3012303, -0.02328875, 0.9668551
 165233880, 0.4905021, -0.05145509, -0.1142616, 0.2194643, -0.01095472, 0.979957, 0.5280311, -0.06589282, -0.1334962, 0.2428719, -0.01473903, 0.9760475
 165433800, 0.4286104, -0.04913139, -0.1123375, 0.1922145, -0.009903323, 0.9841345, 0.4905021, -0.05145509, -0.1142616, 0.2194643, -0.01095472, 0.979957
 165633720, 0.4525322, -0.0483827, -0.1115615, 0.1880308, -0.009450981, 0.9852159, 0.4286104, -0.04913139, -0.1123375, 0.1922145, -0.009903323, 0.9841345
 165833640, 0.3858963, -0.0398013, -0.1062676, 0.1658071, -0.003451924, 0.9881379, 0.4525322, -0.0483827, -0.1115615, 0.1880308, -0.009450981, 0.9852159
 166033560, 0.380172, -0.03896781, -0.06821419, 0.1572353, -0.003475617, 0.9893767, 0.3858963, -0.0398013, -0.1062676, 0.1658071, -0.003451924, 0.9881379
 166233480, 0.4321649, -0.06161227, -0.06969595, 0.1576066, -0.003735657, 0.989901, 0.380172, -0.03896781, -0.06821419, 0.1572353, -0.003475617, 0.9893767
 166434233, 0.3770242, -0.03850587, -0.06247494, 0.1413459, 0.0001408393, 0.9916661, 0.4321649, -0.06161227, -0.06969595, 0.1576066, -0.003735657, 0.989901
 166634153, 0.3860276, -0.04165702, -0.09044343, 0.1352547, 0.0006838441, 0.9925928, 0.3770242, -0.03850587, -0.06247494, 0.1413459, 0.0001408393, 0.9916661
 166834073, 0.3508798, -0.05820386, -0.09073729, 0.123029, -0.001219123, 0.993864, 0.3860276, -0.04165702, -0.09044343, 0.1352547, 0.0006838441, 0.9925928
 167033993, 0.3697571, -0.02905883, -0.04766721, 0.1119024, -0.02799913, 0.9948859, 0.3508798, -0.05820386, -0.09073729, 0.123029, -0.001219123, 0.993864
 167233913, 0.3663047, -0.05454208, -0.04920493, 0.09695624, -0.04717061, 0.9957003, 0.3697571, -0.02905883, -0.04766721, 0.1119024, -0.02799913, 0.9948859
 167433833, 0.3667431, -0.04353869, -0.04714624, 0.09257367, -0.04442348, 0.9962018, 0.3663047, -0.05454208, -0.04920493, 0.09695624, -0.04717061, 0.9957003
 167633753, 0.3646789, -0.06064055, -0.04504442, 0.08772968, -0.02672975, 0.9972902, 0.3667431, -0.04353869, -0.04714624, 0.09257367, -0.04442348, 0.9962018
 167833673, 0.3385982, -0.05238068, -0.04087407, 0.07648119, -0.01721404, 0.9982365, 0.3646789, -0.06064055, -0.04504442, 0.08772968, -0.02672975, 0.9972902
 168033593, 0.3842956, -0.05303842, -0.0289404, 0.07368942, -0.02222705, 0.9986654, 0.3385982, -0.05238068, -0.04087407, 0.07648119, -0.01721404, 0.9982365
 168233513, 0.3344968, -0.02705537, -0.03465752, 0.05917358, -0.02079358, 0.9993119, 0.3842956, -0.05303842, -0.0289404, 0.07368942, -0.02222705, 0.9986654
 168434266, 0.3703705, -0.0331014, -0.002898695, 0.05793853, -0.01610598, 0.9997016, 0.3344968, -0.02705537, -0.03465752, 0.05917358, -0.02079358, 0.9993119
 168634186, 0.3588774, -0.04070924, 0.0001523809, 0.04807715, -0.01015416, 1.000224, 0.3703705, -0.0331014, -0.002898695, 0.05793853, -0.01610598, 0.9997016
 168834106, 0.3469152, -0.05651249, 0.002853121, 0.03761522, -0.00998647, 1.0006, 0.3588774, -0.04070924, 0.0001523809, 0.04807715, -0.01015416, 1.000224
 169034026, 0.3213037, -0.01606017, 0.00527327, 0.02871125, -0.006875811, 1.000773, 0.3469152, -0.05651249, 0.002853121, 0.03761522, -0.00998647, 1.0006
 169233946, 0.3739938, -0.02143994, 0.008622874, 0.02870044, -0.004572554, 1.001108, 0.3213037, -0.01606017, 0.00527327, 0.02871125, -0.006875811, 1.000773
 169433866, 0.3497691, -0.0463636, 0.01146205, 0.01479618, -0.002914924, 1.00126, 0.3739938, -0.02143994, 0.008622874, 0.02870044, -0.004572554, 1.001108
 169633786, 0.3143284, -0.02929087, 0.01292591, 0.002882421, -0.000576593, 1.00117, 0.3497691, -0.0463636, 0.01146205, 0.01479618, -0.002914924, 1.00126
 169833706, 0.3503648, -0.0421996, 0.01537478, 0.00382844, -0.003721666, 1.001364, 0.3143284, -0.02929087, 0.01292591, 0.002882421, -0.000576593, 1.00117
 170033626, 0.3103133, -0.01248687, 0.01484425, -0.00368217, -0.002779502, 1.001146, 0.3503648, -0.0421996, 0.01537478, 0.00382844, -0.003721666, 1.001364
 170233546, 0.3287527, -0.03616591, 0.01723212, -0.006887499, -0.000422487, 1.001228, 0.3103133, -0.01248687, 0.01484425, -0.00368217, -0.002779502, 1.001146
 170434299, 0.3210909, -0.02697614, 0.01899408, -0.0141465, 0.0008408297, 1.00111, 0.3287527, -0.03616591, 0.01723212, -0.006887499, -0.000422487, 1.001228
 170634219, 0.3112639, -0.02578792, 0.02055663, -0.02196674, 0.002971285, 1.000915, 0.3210909, -0.02697614, 0.01899408, -0.0141465, 0.0008408297, 1.00111
 170834139, 0.365272, -0.04779454, 0.02583997, -0.01981042, 0.006706053, 1.001258, 0.3112639, -0.02578792, 0.02055663, -0.02196674, 0.002971285, 1.000915
 171034059, 0.3182594, -0.04179164, 0.02314074, -0.02751016, 0.008660445, 1.000781, 0.365272, -0.04779454, 0.02583997, -0.01981042, 0.006706053, 1.001258
 171233979, 0.3276703, -0.04022587, 0.0239285, -0.0268935, 0.007064289, 1.000861, 0.3182594, -0.04179164, 0.02314074, -0.02751016, 0.008660445, 1.000781
 171433899, 0.3414008, -0.01534698, 0.02637053, -0.0289216, 0.007104375, 1.000884, 0.3276703, -0.04022587, 0.0239285, -0.0268935, 0.007064289, 1.000861
 171633819, 0.3262024, -0.02173904, 0.02594804, -0.03314873, 0.008136918, 1.000659, 0.3414008, -0.01534698, 0.02637053, -0.0289216, 0.007104375, 1.000884
 171833739, 0.3356878, -0.03612887, 0.05819413, -0.03578337, 0.009023784, 1.000625, 0.3262024, -0.02173904, 0.02594804, -0.03314873, 0.008136918, 1.000659
 172033659, 0.3168615, -0.04413084, 0.02687162, -0.03975584, 0.008518748, 1.000357, 0.3356878, -0.03612887, 0.05819413, -0.03578337, 0.009023784, 1.000625
 172233579, 0.3255401, -0.03774162, 0.02828831, -0.04024586, 0.01174825, 1.000352, 0.3168615, -0.04413084, 0.02687162, -0.03975584, 0.008518748, 1.000357
 172433499, 0.3725783, -0.0295045, 0.03315621, -0.03602979, 0.01166047, 1.000816, 0.3255401, -0.03774162, 0.02828831, -0.04024586, 0.01174825, 1.000352
 172634252, 0.3583754, -0.03027639, 0.03227266, -0.03921681, 0.00914626, 1.000624, 0.3725783, -0.0295045, 0.03315621, -0.03602979, 0.01166047, 1.000816
 172834172, 0.3420313, -0.02226828, 0.06099349, -0.04105154, 0.01015767, 1.000451, 0.3583754, -0.03027639, 0.03227266, -0.03921681, 0.00914626, 1.000624
 173034092, 0.360167, -0.04198996, 0.03302797, -0.0402014, 0.01198414, 1.000569, 0.3420313, -0.02226828, 0.06099349, -0.04105154, 0.01015767, 1.000451
 173234012, 0.3204452, -0.04498191, 0.0304454, -0.04875397, 0.01183486, 0.9999391, 0.360167, -0.04198996, 0.03302797, -0.0402014, 0.01198414, 1.000569
 173433932, 0.3246406, -0.04456851, 0.03119506, -0.04927595, 0.01153784, 0.9999408, 0.3204452, -0.04498191, 0.0304454, -0.04875397, 0.01183486, 0.9999391
 173633852, 0.3580665, -0.02045024, 0.06479909, -0.04487923, 0.0131506, 1.000367, 0.3246406, -0.04456851, 0.03119506, -0.04927595, 0.01153784, 0.9999408
 173833772, 0.3591304, -0.0262113, 0.0646381, -0.04396129, 0.01207429, 1.00043, 0.3580665, -0.02045024, 0.06479909, -0.04487923, 0.0131506, 1.000367
 174033692, 0.3373413, -0.01305769, 0.06206504, -0.04552551, 0.01398646, 1.000185, 0.3591304, -0.0262113, 0.0646381, -0.04396129, 0.01207429, 1.00043
 174233612, 0.3846364, -0.03690301, 0.03676219, -0.03972307, 0.01337508, 1.000775, 0.3373413, -0.01305769, 0.06206504, -0.04552551, 0.01398646, 1.000185
 174433532, 0.3551995, -0.0322558, 0.0341253, -0.04452162, 0.01448245, 1.000329, 0.3846364, -0.03690301, 0.03676219, -0.03972307, 0.01337508, 1.000775
 174634285, 0.3797992, -0.02913268, 0.03625727, -0.04018443, 0.01489477, 1.0007, 0.3551995, -0.0322558, 0.0341253, -0.04452162, 0.01448245, 1.000329
 174834205, 0.3783726, -0.03779793, 0.03666075, -0.03680983, 0.01664674, 0.9532151, 0.3797992, -0.02913268, 0.03625727, -0.04018443, 0.01489477, 1.0007
 175034125, 0.3212822, -0.04403323, 0.06164564, -0.05024221, 0.01641423, 0.9998215, 0.3783726, -0.03779793, 0.03666075, -0.03680983, 0.01664674, 0.9532151
 175234045, 0.37651, -0.04978587, 0.06274331, -0.04367013, 0.01813651, 1.000507, 0.3212822, -0.04403323, 0.06164564, -0.05024221, 0.01641423, 0.9998215
 175433965, 0.3685509, -0.03065301, 0.06687151, -0.0450071, 0.0175535, 1.000395, 0.37651, -0.04978587, 0.06274331, -0.04367013, 0.01813651, 1.000507
 175633885, 0.3712575, -0.0346476, 0.03687851, -0.04456865, 0.01757426, 1.000416, 0.3685509, -0.03065301, 0.06687151, -0.0450071, 0.0175535, 1.000395
 175833805, 0.3793239, -0.04994755, 0.03682462, -0.04066901, 0.01723508, 1.000661, 0.3712575, -0.0346476, 0.03687851, -0.04456865, 0.01757426, 1.000416
 176033725, 0.3910043, -0.02494935, 0.0380723, -0.03957878, 0.01716019, 1.00081, 0.3793239, -0.04994755, 0.03682462, -0.04066901, 0.01723508, 1.000661
 176233645, 0.3494175, -0.0159227, 0.06430636, -0.04604588, 0.0180572, 1.000197, 0.3910043, -0.02494935, 0.0380723, -0.03957878, 0.01716019, 1.00081
 176433565, 0.3824065, -0.01673944, 0.06129429, -0.03781309, 0.01742105, 1.000824, 0.3494175, -0.0159227, 0.06430636, -0.04604588, 0.0180572, 1.000197
 176633485, 0.3760936, -0.02189744, 0.03513372, -0.03778519, 0.01808921, 1.000739, 0.3824065, -0.01673944, 0.06129429, -0.03781309, 0.01742105, 1.000824
 176834238, 0.3620216, -0.02341214, 0.03360761, -0.03959939, 0.01411858, 1.000617, 0.3760936, -0.02189744, 0.03513372, -0.03778519, 0.01808921, 1.000739
 177034158, 0.3610878, -0.02453463, 0.06401026, -0.04036499, 0.01161885, 1.000637, 0.3620216, -0.02341214, 0.03360761, -0.03959939, 0.01411858, 1.000617
 177234078, 0.4093603, -0.03481641, 0.06389435, -0.03313067, 0.01091634, 1.001368, 0.3610878, -0.02453463, 0.06401026, -0.04036499, 0.01161885, 1.000637
 177433998, 0.3755303, -0.03315229, 0.03580597, -0.03968111, 0.01286, 1.000755, 0.4093603, -0.03481641, 0.06389435, -0.03313067, 0.01091634, 1.001368
 177633918, 0.4068128, -0.04719908, 0.03884378, -0.03416599, 0.01295849, 1.00127, 0.3755303, -0.03315229, 0.03580597, -0.03968111, 0.01286, 1.000755
 177833838, 0.4005405, -0.03579733, 0.007998703, -0.03629782, 0.01346118, 1.001047, 0.4068128, -0.04719908, 0.03884378, -0.03416599, 0.01295849, 1.00127
 178033758, 0.3702471, -0.04597612, 0.03419447, -0.0374066, 0.01236468, 1.000807, 0.4005405, -0.03579733, 0.007998703, -0.03629782, 0.01346118, 1.001047
 178233678, 0.3541258, -0.02939195, 0.03142738, -0.03669167, 0.01153027, 1.000704, 0.3702471, -0.04597612, 0.03419447, -0.0374066, 0.01236468, 1.000807
 178433598, 0.3489579, -0.01829851, 0.001172416, -0.03894924, 0.01201167, 1.00055, 0.3541258, -0.02939195, 0.03142738, -0.03669167, 0.01153027, 1.000704
 178633518, 0.4008104, -0.03071817, 0.03630448, -0.03109843, 0.009578607, 1.00133, 0.3489579, -0.01829851, 0.001172416, -0.03894924, 0.01201167, 1.00055
 178834271, 0.3745506, -0.03355663, 0.03398615, -0.03591207, 0.007226577, 1.00094, 0.4008104, -0.03071817, 0.03630448, -0.03109843, 0.009578607, 1.00133
 179034191, 0.3508018, -0.01206591, 0.001596466, -0.03975112, 0.00667293, 1.00058, 0.3745506, -0.03355663, 0.03398615, -0.03591207, 0.007226577, 1.00094
 179234111, 0.3530164, -0.01227911, 0.03201587, -0.03925905, 0.008195453, 1.000625, 0.3508018, -0.01206591, 0.001596466, -0.03975112, 0.00667293, 1.00058
 179434031, 0.3628832, -0.02449069, 0.03229273, -0.03642097, 0.004218814, 1.000833, 0.3530164, -0.01227911, 0.03201587, -0.03925905, 0.008195453, 1.000625
 179633951, 0.3979028, -0.01836498, 0.03503202, -0.0298366, 0.001915706, 1.001367, 0.3628832, -0.02449069, 0.03229273, -0.03642097, 0.004218814, 1.000833
 179833871, 0.3532633, -0.04082117, 0.000704689, -0.03678518, 0.005809058, 1.000713, 0.3979028, -0.01836498, 0.03503202, -0.0298366, 0.001915706, 1.001367
 180033791, 0.3842897, -0.03197799, 0.03268348, -0.02927543, 0.004764002, 1.001243, 0.3532633, -0.04082117, 0.000704689, -0.03678518, 0.005809058, 1.000713
 180233711, 0.3556442, -0.03629297, 0.02954746, -0.03279388, -0.002308419, 1.0009, 0.3842897, -0.03197799, 0.03268348, -0.02927543, 0.004764002, 1.001243
 180433631, 0.3855565, -0.02721073, -0.002861682, -0.02924944, -0.007575262, 1.001203, 0.3556442, -0.03629297, 0.02954746, -0.03279388, -0.002308419, 1.0009
 180633551, 0.362287, -0.04468707, -0.0004563853, -0.03250273, -0.01163769, 1.000873, 0.3855565, -0.02721073, -0.002861682, -0.02924944, -0.007575262, 1.001203
 180834304, 0.3758219, -0.01309965, 0.03179612, -0.03144995, -0.02751041, 1.000723, 0.362287, -0.04468707, -0.0004563853, -0.03250273, -0.01163769, 1.000873
 181034224, 0.3923846, -0.03465965, 0.03193488, -0.03234176, -0.08094488, 0.9979335, 0.3758219, -0.01309965, 0.03179612, -0.03144995, -0.02751041, 1.000723
 181234144, 0.389562, 0.04828606, -0.09566162, -0.0475909, -0.349967, 0.9372176, 0.3923846, -0.03465965, 0.03193488, -0.03234176, -0.08094488, 0.9979335
 181434064, 0.3385938, -0.07677421, 0.1945997, -0.0286787, -0.2269218, 0.9749248, 0.389562, 0.04828606, -0.09566162, -0.0475909, -0.349967, 0.9372176
 181633984, 0.3445224, -0.02672973, -0.005901331, -0.01431058, 0.0998468, 0.9962369, 0.3385938, -0.07677421, 0.1945997, -0.0286787, -0.2269218, 0.9749248
 181833904, 0.3891309, 0.008318324, 0.05793203, -0.01718549, 0.1207622, 0.9942551, 0.3445224, -0.02672973, -0.005901331, -0.01431058, 0.0998468, 0.9962369
 182033824, 0.3943531, -0.01657673, 0.001139777, -0.02714207, -0.0721869, 0.9987341, 0.3891309, 0.008318324, 0.05793203, -0.01718549, 0.1207622, 0.9942551
 182233744, 0.3686956, -0.001720658, 0.03101112, -0.03166139, -0.1008087, 0.9959323, 0.3943531, -0.01657673, 0.001139777, -0.02714207, -0.0721869, 0.9987341
 182433664, 0.3597917, -0.01501586, 0.02864275, -0.02930285, -0.008129202, 1.000989, 0.3686956, -0.001720658, 0.03101112, -0.03166139, -0.1008087, 0.9959323
 182633584, 0.3639524, -0.01566117, 0.02936187, -0.02821369, 0.03413072, 1.000499, 0.3597917, -0.01501586, 0.02864275, -0.02930285, -0.008129202, 1.000989
 182833504, 0.3931753, -0.007671106, 0.03168907, -0.02501173, -0.005022844, 1.001396, 0.3639524, -0.01566117, 0.02936187, -0.02821369, 0.03413072, 1.000499
 183034257, 0.4009573, -0.02351529, 0.0309644, -0.02295274, -0.03599946, 1.000874, 0.3931753, -0.007671106, 0.03168907, -0.02501173, -0.005022844, 1.001396
 183234177, 0.3920287, -0.01674464, 0.03105078, -0.02474462, -0.01687561, 1.001258, 0.4009573, -0.02351529, 0.0309644, -0.02295274, -0.03599946, 1.000874
 183434097, 0.3747508, -0.01874393, 0.02948714, -0.0261361, 0.00548778, 1.001202, 0.3920287, -0.01674464, 0.03105078, -0.02474462, -0.01687561, 1.001258
 183634017, 0.3745064, -0.01748697, 0.02895764, -0.02502116, 0.003529269, 1.001236, 0.3747508, -0.01874393, 0.02948714, -0.0261361, 0.00548778, 1.001202
 183833937, 0.3686197, 0.009467242, 0.02885008, -0.02571584, -0.003258806, 1.001184, 0.3745064, -0.01748697, 0.02895764, -0.02502116, 0.003529269, 1.001236
 184033857, 0.3630797, -0.004696735, 0.0284263, -0.0274085, -0.00288571, 1.00109, 0.3686197, 0.009467242, 0.02885008, -0.02571584, -0.003258806, 1.001184
 184233777, 0.3515515, -0.01139686, 0.02701304, -0.02778877, 0.006275054, 1.000976, 0.3630797, -0.004696735, 0.0284263, -0.0274085, -0.00288571, 1.00109
 184433697, 0.3909911, 0.006704152, 0.02941358, -0.01985156, 0.01092012, 1.001441, 0.3515515, -0.01139686, 0.02701304, -0.02778877, 0.006275054, 1.000976
 184633617, 0.3394205, -0.006910445, 0.01310253, 0.00863076, 0.008349723, 1.001223, 0.3909911, 0.006704152, 0.02941358, -0.01985156, 0.01092012, 1.001441
 184833537, 0.3709483, -0.01416034, 0.013541, 0.01518701, 0.01102141, 1.00134, 0.3394205, -0.006910445, 0.01310253, 0.00863076, 0.008349723, 1.001223
 185034290, 0.402994, 0.006344048, 0.01507611, 0.01955147, 0.01761204, 1.00145, 0.3709483, -0.01416034, 0.013541, 0.01518701, 0.01102141, 1.00134
 185234210, 0.3557621, 0.009789107, 0.01336173, 0.0118802, 0.03219178, 1.000828, 0.402994, 0.006344048, 0.01507611, 0.01955147, 0.01761204, 1.00145
 185434130, 0.3981445, 0.009856732, 0.01701291, 0.01302965, 0.0398803, 1.000879, 0.3557621, 0.009789107, 0.01336173, 0.0118802, 0.03219178, 1.000828
 185634050, 0.3695615, -0.009540675, 0.01596954, 0.009208355, 0.03688305, 1.000789, 0.3981445, 0.009856732, 0.01701291, 0.01302965, 0.0398803, 1.000879
 185833970, 0.3885046, -0.01442841, 0.01750822, 0.01038007, 0.03160361, 1.001113, 0.3695615, -0.009540675, 0.01596954, 0.009208355, 0.03688305, 1.000789
 186033890, 0.3923052, -0.01683549, 0.04750176, 0.01197013, 0.03345267, 1.00108, 0.3885046, -0.01442841, 0.01750822, 0.01038007, 0.03160361, 1.001113
 186233810, 0.3643707, 0.00716464, 0.01500503, 0.009815503, 0.03408163, 1.000855, 0.3923052, -0.01683549, 0.04750176, 0.01197013, 0.03345267, 1.00108
 186433730, 0.3973413, -0.008489804, 0.01700667, 0.01396377, 0.03244921, 1.001126, 0.3643707, 0.00716464, 0.01500503, 0.009815503, 0.03408163, 1.000855
 186633650, 0.3522225, -4.955567E-06, 0.0147903, 0.007592544, 0.03122026, 1.000875, 0.3973413, -0.008489804, 0.01700667, 0.01396377, 0.03244921, 1.001126
 186833570, 0.3923523, 0.00978502, 0.01576163, 0.01517586, 0.03178266, 1.001096, 0.3522225, -4.955567E-06, 0.0147903, 0.007592544, 0.03122026, 1.000875
 187033490, 0.3843375, 0.002736077, 0.01543589, 0.01420571, 0.03293977, 1.001, 0.3923523, 0.00978502, 0.01576163, 0.01517586, 0.03178266, 1.001096
 187234243, 0.3718551, -0.008905554, 0.01602437, 0.009826276, 0.03052753, 1.001023, 0.3843375, 0.002736077, 0.01543589, 0.01420571, 0.03293977, 1.001
 187434163, 0.3795611, 0.002316035, 0.01697036, 0.008995872, 0.0334583, 1.001004, 0.3718551, -0.008905554, 0.01602437, 0.009826276, 0.03052753, 1.001023
 187634083, 0.3993522, -0.004020698, 0.01801538, 0.01202005, 0.03141692, 1.00121, 0.3795611, 0.002316035, 0.01697036, 0.008995872, 0.0334583, 1.001004
 187834003, 0.3705059, -0.01328465, 0.01692857, 0.007240552, 0.02886303, 1.001084, 0.3993522, -0.004020698, 0.01801538, 0.01202005, 0.03141692, 1.00121
 188033923, 0.3746578, -0.02658801, 0.01910175, 0.003255017, 0.03050922, 1.001086, 0.3705059, -0.01328465, 0.01692857, 0.007240552, 0.02886303, 1.001084
 188233843, 0.4079168, -0.01866401, 0.02126144, 0.006500848, 0.03189681, 1.001282, 0.3746578, -0.02658801, 0.01910175, 0.003255017, 0.03050922, 1.001086
 188433763, 0.4025397, -0.007311425, 0.04991494, 0.008824144, 0.03074221, 1.001312, 0.4079168, -0.01866401, 0.02126144, 0.006500848, 0.03189681, 1.001282
 188633683, 0.4092126, -0.02495566, 0.02055681, 0.009422395, 0.02757526, 1.001447, 0.4025397, -0.007311425, 0.04991494, 0.008824144, 0.03074221, 1.001312
 188833603, 0.3672027, -0.01158, 0.01828655, 0.002776951, 0.02661989, 1.001149, 0.4092126, -0.02495566, 0.02055681, 0.009422395, 0.02757526, 1.001447
 189033523, 0.3563187, -0.01976277, 0.01981051, -0.003435481, 0.04130759, 1.000565, 0.3672027, -0.01158, 0.01828655, 0.002776951, 0.02661989, 1.001149
 189234276, 0.423384, -0.01498974, 0.02691737, -0.001635823, 0.02566503, 1.001698, 0.3563187, -0.01976277, 0.01981051, -0.003435481, 0.04130759, 1.000565
 189434196, 0.3693694, -0.02878589, 0.0249574, -0.01510523, 0.008925101, 1.001375, 0.423384, -0.01498974, 0.02691737, -0.001635823, 0.02566503, 1.001698
 189634116, 0.3810067, -0.01412205, 0.05636209, -0.01380548, 0.01594802, 1.001429, 0.3693694, -0.02878589, 0.0249574, -0.01510523, 0.008925101, 1.001375
 189834036, 0.402989, -0.003815448, 0.05598456, -0.005437117, 0.02026523, 1.001641, 0.3810067, -0.01412205, 0.05636209, -0.01380548, 0.01594802, 1.001429
 190033956, 0.4088342, -0.01119288, 0.02481077, -0.00132852, 0.007535244, 1.001872, 0.402989, -0.003815448, 0.05598456, -0.005437117, 0.02026523, 1.001641
 190233876, 0.3894802, -0.009727055, 0.02301957, -0.002764609, 0.01002434, 1.001666, 0.4088342, -0.01119288, 0.02481077, -0.00132852, 0.007535244, 1.001872
 190433796, 0.3731651, -0.02414719, 0.02118449, -0.00251314, 0.02005685, 1.00137, 0.3894802, -0.009727055, 0.02301957, -0.002764609, 0.01002434, 1.001666
 190633716, 0.3721272, -0.005158371, 0.02189761, -0.005222201, 0.008011953, 1.001527, 0.3731651, -0.02414719, 0.02118449, -0.00251314, 0.02005685, 1.00137
 190833636, 0.3954808, -0.01842473, 0.02406212, -0.002327051, 0.02978319, 1.00134, 0.3721272, -0.005158371, 0.02189761, -0.005222201, 0.008011953, 1.001527
 191033556, 0.3696555, -0.003419952, 0.02159852, -0.004818752, 0.02914051, 1.001121, 0.3954808, -0.01842473, 0.02406212, -0.002327051, 0.02978319, 1.00134
 191233476, 0.4090509, -0.02210577, 0.02323248, 0.003273327, 0.01076019, 1.001866, 0.3696555, -0.003419952, 0.02159852, -0.004818752, 0.02914051, 1.001121
 191434229, 0.4159102, -0.02321422, 0.02231675, 0.008054119, 0.01583393, 1.00185, 0.4090509, -0.02210577, 0.02323248, 0.003273327, 0.01076019, 1.001866
 191634149, 0.3984063, -0.002266694, 0.02192872, 0.003451422, 0.02291135, 1.001559, 0.4159102, -0.02321422, 0.02231675, 0.008054119, 0.01583393, 1.00185
 191834069, 0.4445348, -0.02319485, 0.02510283, 0.01101279, 0.02537199, 1.00196, 0.3984063, -0.002266694, 0.02192872, 0.003451422, 0.02291135, 1.001559
 192033989, 0.3718157, -0.009368702, 0.02091539, -0.002053175, 0.02218919, 1.00133, 0.4445348, -0.02319485, 0.02510283, 0.01101279, 0.02537199, 1.00196
 192233909, 0.4074134, -0.01494977, 0.02229512, 0.005367126, 0.01643235, 1.001764, 0.3718157, -0.009368702, 0.02091539, -0.002053175, 0.02218919, 1.00133
 192433829, 0.3745871, -0.0333435, 0.02012275, 0.001386993, 0.0195668, 1.001406, 0.4074134, -0.01494977, 0.02229512, 0.005367126, 0.01643235, 1.001764
 192633749, 0.3996919, -0.03152644, 0.02087796, 0.006934915, 0.01949669, 1.001617, 0.3745871, -0.0333435, 0.02012275, 0.001386993, 0.0195668, 1.001406
 192833669, 0.4150965, -0.03275067, 0.02182727, 0.009335008, 0.01986399, 1.00175, 0.3996919, -0.03152644, 0.02087796, 0.006934915, 0.01949669, 1.001617
 193033589, 0.4258172, -0.03300782, 0.02287181, 0.01034317, 0.02270344, 1.001796, 0.4150965, -0.03275067, 0.02182727, 0.009335008, 0.01986399, 1.00175
 193233509, 0.3789394, -0.01172664, 0.01948203, 0.00398897, 0.02417197, 1.001334, 0.4258172, -0.03300782, 0.02287181, 0.01034317, 0.02270344, 1.001796
 193434262, 0.3996336, -0.03376579, 0.0204492, 0.008253388, 0.02296052, 1.001527, 0.3789394, -0.01172664, 0.01948203, 0.00398897, 0.02417197, 1.001334
 193634182, 0.3994606, -0.007958696, 0.01939857, 0.01006008, 0.02537573, 1.001448, 0.3996336, -0.03376579, 0.0204492, 0.008253388, 0.02296052, 1.001527
 193834102, 0.4283873, -0.04048818, 0.02102595, 0.01614633, 0.02987299, 1.001549, 0.3994606, -0.007958696, 0.01939857, 0.01006008, 0.02537573, 1.001448
 194034022, 0.435265, -0.03607924, 0.02277004, 0.01411317, 0.03326578, 1.001546, 0.4283873, -0.04048818, 0.02102595, 0.01614633, 0.02987299, 1.001549
 194233942, 0.3963942, -0.02345851, 0.02076201, 0.006873269, 0.03695755, 1.001078, 0.435265, -0.03607924, 0.02277004, 0.01411317, 0.03326578, 1.001546
 194433862, 0.4353028, -0.02787085, 0.02151429, 0.01644468, 0.03262577, 1.001524, 0.3963942, -0.02345851, 0.02076201, 0.006873269, 0.03695755, 1.001078
 194633782, 0.388537, -0.03614337, 0.01942273, 0.008063413, 0.02881334, 1.00126, 0.4353028, -0.02787085, 0.02151429, 0.01644468, 0.03262577, 1.001524
 194833702, 0.3778484, -0.0235657, 0.01813651, 0.006732173, 0.01405826, 1.001487, 0.388537, -0.03614337, 0.01942273, 0.008063413, 0.02881334, 1.00126
 195033622, 0.4191915, -0.03907032, 0.02091012, 0.01197884, 0.0141577, 1.001834, 0.3778484, -0.0235657, 0.01813651, 0.006732173, 0.01405826, 1.001487
 195233542, 0.408224, -0.01409301, 0.01957457, 0.0119653, 0.02172497, 1.00158, 0.4191915, -0.03907032, 0.02091012, 0.01197884, 0.0141577, 1.001834
 195434295, 0.4228716, -0.02068478, 0.02003454, 0.0150587, 0.01907532, 1.001742, 0.408224, -0.01409301, 0.01957457, 0.0119653, 0.02172497, 1.00158
 195634215, 0.3846146, -0.03637713, 0.01914463, 0.00632032, 0.0156257, 1.001523, 0.4228716, -0.02068478, 0.02003454, 0.0150587, 0.01907532, 1.001742
 195834135, 0.3825078, -0.03647868, 0.01779494, 0.009340219, 0.0173954, 1.00145, 0.3846146, -0.03637713, 0.01914463, 0.00632032, 0.0156257, 1.001523
 196034055, 0.3584205, -0.02528868, 0.01823711, 0.0009151474, 0.01534955, 1.00133, 0.3825078, -0.03647868, 0.01779494, 0.009340219, 0.0173954, 1.00145
 196233975, 0.4156891, -0.01668195, 0.02174529, 0.008194685, 0.006604706, 1.001899, 0.3584205, -0.02528868, 0.01823711, 0.0009151474, 0.01534955, 1.00133
 196433895, 0.3498257, -0.03997115, 0.01868121, -0.003317811, 0.009177489, 1.001337, 0.4156891, -0.01668195, 0.02174529, 0.008194685, 0.006604706, 1.001899
 196633815, 0.4084061, -0.03527314, 0.02230523, 0.006210119, 0.02596981, 1.001526, 0.3498257, -0.03997115, 0.01868121, -0.003317811, 0.009177489, 1.001337
 196833735, 0.360076, -0.02840661, 0.05009177, -0.002853874, 0.02166697, 1.001233, 0.4084061, -0.03527314, 0.02230523, 0.006210119, 0.02596981, 1.001526
 197033655, 0.3725286, -0.03721851, 0.02127021, -0.004205823, 0.003512943, 1.001543, 0.360076, -0.02840661, 0.05009177, -0.002853874, 0.02166697, 1.001233
 197233575, 0.4013571, -0.02567613, 0.02324912, 9.645522E-05, 0.007258657, 1.001784, 0.3725286, -0.03721851, 0.02127021, -0.004205823, 0.003512943, 1.001543
 197433495, 0.3778197, -0.03322715, 0.0217876, -0.002118364, 0.02297885, 1.001335, 0.4013571, -0.02567613, 0.02324912, 9.645522E-05, 0.007258657, 1.001784
 197634248, 0.4235973, -0.02186457, -0.005865691, 0.005315453, 0.02550651, 1.001672, 0.3778197, -0.03322715, 0.0217876, -0.002118364, 0.02297885, 1.001335
 197834168, 0.4200596, -0.04132334, 0.02465976, 0.003095709, 0.01455428, 1.001886, 0.4235973, -0.02186457, -0.005865691, 0.005315453, 0.02550651, 1.001672
 198034088, 0.3901259, -0.04438269, 0.02305636, -0.00347656, 0.003163022, 1.001698, 0.4200596, -0.04132334, 0.02465976, 0.003095709, 0.01455428, 1.001886
 198234008, 0.3737828, -0.02232629, 0.02190576, -0.004613105, 0.01339724, 1.001466, 0.3901259, -0.04438269, 0.02305636, -0.00347656, 0.003163022, 1.001698
 198433928, 0.3938272, -0.02132659, -0.003669655, 0.003157802, 0.02410485, 1.001427, 0.3737828, -0.02232629, 0.02190576, -0.004613105, 0.01339724, 1.001466
 198633848, 0.3514018, -0.02498763, 0.01946763, -0.004515655, 0.02580902, 1.001017, 0.3938272, -0.02132659, -0.003669655, 0.003157802, 0.02410485, 1.001427
 198833768, 0.3990378, -0.02936123, 0.02387911, -0.002211209, 0.01077689, 1.001717, 0.3514018, -0.02498763, 0.01946763, -0.004515655, 0.02580902, 1.001017
 199033688, 0.343394, -0.02037818, 0.02177414, -0.01501872, -0.002185865, 1.00122, 0.3990378, -0.02936123, 0.02387911, -0.002211209, 0.01077689, 1.001717
 199233608, 0.3639507, -0.02544736, 0.02131613, -0.006549478, 0.008990155, 1.00142, 0.343394, -0.02037818, 0.02177414, -0.01501872, -0.002185865, 1.00122
 199433528, 0.379695, -0.03941598, 0.02226988, -0.001652006, 0.03479656, 1.000999, 0.3639507, -0.02544736, 0.02131613, -0.006549478, 0.008990155, 1.00142
 199634281, 0.4075612, -0.04536891, 0.02507656, -0.0001792908, 0.03392295, 1.001271, 0.379695, -0.03941598, 0.02226988, -0.001652006, 0.03479656, 1.000999
 199834201, 0.3442714, -0.02751261, 0.02180141, -0.0143354, 0.009689962, 1.001188, 0.4075612, -0.04536891, 0.02507656, -0.0001792908, 0.03392295, 1.001271
 200034121, 0.4113305, -0.03019783, -0.00431522, -0.003940683, 0.007055733, 1.001823, 0.3442714, -0.02751261, 0.02180141, -0.0143354, 0.009689962, 1.001188
 200234041, 0.4019451, -0.04418307, 0.02579036, -0.004504662, 0.02845582, 1.001373, 0.4113305, -0.03019783, -0.00431522, -0.003940683, 0.007055733, 1.001823
 200433961, 0.3904894, -0.0287916, 0.02534814, -0.007225707, 0.03581254, 1.001017, 0.4019451, -0.04418307, 0.02579036, -0.004504662, 0.02845582, 1.001373
 200633881, 0.3865862, -0.04816799, 0.02522176, -0.00840231, 0.023942, 1.00133, 0.3904894, -0.0287916, 0.02534814, -0.007225707, 0.03581254, 1.001017
 200833801, 0.3911503, -0.03206231, -0.0054614, -0.006918833, 0.01640906, 1.00151, 0.3865862, -0.04816799, 0.02522176, -0.00840231, 0.023942, 1.00133
 201033721, 0.3529143, -0.02262972, 0.02243951, -0.0126287, 0.02256567, 1.00106, 0.3911503, -0.03206231, -0.0054614, -0.006918833, 0.01640906, 1.00151
 201233641, 0.3616121, -0.02404781, 0.02319469, -0.01177916, 0.02566377, 1.001056, 0.3529143, -0.02262972, 0.02243951, -0.0126287, 0.02256567, 1.00106
 201433561, 0.3645407, -0.02218958, -0.002104465, -0.01051943, 0.02533473, 1.001087, 0.3616121, -0.02404781, 0.02319469, -0.01177916, 0.02566377, 1.001056
 201633481, 0.335448, -0.02725526, 0.02194695, -0.01655728, 0.02476683, 1.000837, 0.3645407, -0.02218958, -0.002104465, -0.01051943, 0.02533473, 1.001087
 201834234, 0.3926096, -0.05288627, 0.0243863, -0.004763585, 0.02159207, 1.001449, 0.335448, -0.02725526, 0.02194695, -0.01655728, 0.02476683, 1.000837
 202034154, 0.3623775, -0.03225844, 0.02308301, -0.01118125, 0.0237409, 1.001113, 0.3926096, -0.05288627, 0.0243863, -0.004763585, 0.02159207, 1.001449
 202234074, 0.3335424, -0.04295437, 0.02216817, -0.01779218, 0.02048058, 1.000902, 0.3623775, -0.03225844, 0.02308301, -0.01118125, 0.0237409, 1.001113
 202433994, 0.3894081, -0.05086871, 0.02579512, -0.009752922, 0.01974396, 1.001421, 0.3335424, -0.04295437, 0.02216817, -0.01779218, 0.02048058, 1.000902
 202633914, 0.3719867, -0.03096851, 0.02478832, -0.01294192, 0.02271897, 1.001185, 0.3894081, -0.05086871, 0.02579512, -0.009752922, 0.01974396, 1.001421
 202833834, 0.3957157, -0.03373043, 0.0266647, -0.00994366, 0.02493813, 1.001352, 0.3719867, -0.03096851, 0.02478832, -0.01294192, 0.02271897, 1.001185
 203033754, 0.3732221, -0.04060603, 0.02448339, -0.01085502, 0.02753148, 1.001099, 0.3957157, -0.03373043, 0.0266647, -0.00994366, 0.02493813, 1.001352
 203233674, 0.3771411, -0.0511687, 0.02500305, -0.01085194, 0.02542534, 1.001184, 0.3732221, -0.04060603, 0.02448339, -0.01085502, 0.02753148, 1.001099
 203433594, 0.3738152, -0.01864038, 0.02600298, -0.0161912, 0.01870942, 1.001233, 0.3771411, -0.0511687, 0.02500305, -0.01085194, 0.02542534, 1.001184
 203633514, 0.3494267, -0.04493761, 0.02409678, -0.01851859, 0.01747126, 1.001047, 0.3738152, -0.01864038, 0.02600298, -0.0161912, 0.01870942, 1.001233
 203834267, 0.3354344, -0.01254023, 0.02174052, -0.01644456, 0.02591299, 1.000813, 0.3494267, -0.04493761, 0.02409678, -0.01851859, 0.01747126, 1.001047
 204034187, 0.3769674, -0.05067912, 0.02470528, -0.009654526, 0.02883871, 1.001102, 0.3354344, -0.01254023, 0.02174052, -0.01644456, 0.02591299, 1.000813
 204234107, 0.3398935, -0.04463422, 0.02344622, -0.01900534, 0.0232533, 1.000861, 0.3769674, -0.05067912, 0.02470528, -0.009654526, 0.02883871, 1.001102
 204434027, 0.3819262, -0.02855912, 0.02756764, -0.01745671, 0.01868013, 1.001272, 0.3398935, -0.04463422, 0.02344622, -0.01900534, 0.0232533, 1.000861
 204633947, 0.3822918, -0.02085044, 0.02630695, -0.01411699, 0.02020469, 1.001297, 0.3819262, -0.02855912, 0.02756764, -0.01745671, 0.01868013, 1.001272
 204833867, 0.356957, -0.01600515, 0.02264224, -0.01213411, 0.02535519, 1.001025, 0.3822918, -0.02085044, 0.02630695, -0.01411699, 0.02020469, 1.001297
 205033787, 0.3719528, -0.04452333, 0.02374432, -0.008997455, 0.02838633, 1.001083, 0.356957, -0.01600515, 0.02264224, -0.01213411, 0.02535519, 1.001025
 205233707, 0.3606311, -0.05400592, 0.02440775, -0.01423493, 0.02602101, 1.001009, 0.3719528, -0.04452333, 0.02374432, -0.008997455, 0.02838633, 1.001083
 205433627, 0.3676175, -0.02447308, 0.02483952, -0.01489587, 0.01960598, 1.00119, 0.3606311, -0.05400592, 0.02440775, -0.01423493, 0.02602101, 1.001009
 205633547, 0.3276194, -0.03510461, 0.02248149, -0.02035012, 0.02413907, 1.000742, 0.3676175, -0.02447308, 0.02483952, -0.01489587, 0.01960598, 1.00119
 205834300, 0.3869858, -0.04458838, 0.02664179, -0.011915, 0.02793276, 1.001179, 0.3276194, -0.03510461, 0.02248149, -0.02035012, 0.02413907, 1.000742
 206034220, 0.3530637, -0.0485193, 0.02457875, -0.01685668, 0.02908909, 1.000833, 0.3869858, -0.04458838, 0.02664179, -0.011915, 0.02793276, 1.001179
 206234140, 0.3384476, -0.02009483, 0.02201598, -0.01570848, 0.02803162, 1.000788, 0.3530637, -0.0485193, 0.02457875, -0.01685668, 0.02908909, 1.000833
 206434060, 0.3350171, -0.04282486, 0.02232752, -0.01663332, 0.02751776, 1.000767, 0.3384476, -0.02009483, 0.02201598, -0.01570848, 0.02803162, 1.000788
 206633980, 0.3431985, -0.04135709, 0.02357194, -0.01808674, 0.02443119, 1.000872, 0.3350171, -0.04282486, 0.02232752, -0.01663332, 0.02751776, 1.000767
 206833900, 0.3391843, -0.01765892, 0.02355989, -0.02063151, 0.01759329, 1.000942, 0.3431985, -0.04135709, 0.02357194, -0.01808674, 0.02443119, 1.000872
 207033820, 0.3391539, -0.05265358, 0.02366755, -0.01967339, 0.02092261, 1.000899, 0.3391843, -0.01765892, 0.02355989, -0.02063151, 0.01759329, 1.000942
 207233740, 0.3769213, -0.04098317, 0.02505376, -0.01115185, 0.02610908, 1.001161, 0.3391539, -0.05265358, 0.02366755, -0.01967339, 0.02092261, 1.000899
 207433660, 0.3702455, -0.04526758, 0.02513009, -0.013159, 0.02711025, 1.001063, 0.3769213, -0.04098317, 0.02505376, -0.01115185, 0.02610908, 1.001161
 207633580, 0.3713045, -0.0211359, 0.026747, -0.01888608, 0.01651482, 1.001207, 0.3702455, -0.04526758, 0.02513009, -0.013159, 0.02711025, 1.001063
 207833500, 0.3397946, -0.03066653, 0.02440035, -0.02294718, 0.01339615, 1.000961, 0.3713045, -0.0211359, 0.026747, -0.01888608, 0.01651482, 1.001207
 208034253, 0.3739787, -0.04989953, 0.02473287, -0.01093635, 0.02431495, 1.001191, 0.3397946, -0.03066653, 0.02440035, -0.02294718, 0.01339615, 1.000961
 208234173, 0.3312205, -0.04219272, 0.02137819, -0.01386017, 0.03553922, 1.000535, 0.3739787, -0.04989953, 0.02473287, -0.01093635, 0.02431495, 1.001191
 208434093, 0.3574492, -0.04188871, 0.02378656, -0.01301686, 0.03227372, 1.000823, 0.3312205, -0.04219272, 0.02137819, -0.01386017, 0.03553922, 1.000535
 208634013, 0.3622535, -0.04667117, 0.02640344, -0.01818064, 0.03350709, 1.000737, 0.3574492, -0.04188871, 0.02378656, -0.01301686, 0.03227372, 1.000823
 208833933, 0.3733246, -0.04625561, 0.02685775, -0.01609692, 0.03155663, 1.000914, 0.3622535, -0.04667117, 0.02640344, -0.01818064, 0.03350709, 1.000737
 209033853, 0.3728512, -0.02392563, 0.02480938, -0.01304641, 0.02720259, 1.001041, 0.3733246, -0.04625561, 0.02685775, -0.01609692, 0.03155663, 1.000914
 209233773, 0.3741149, -0.04631448, 0.0233402, -0.007459126, 0.02377177, 1.001234, 0.3728512, -0.02392563, 0.02480938, -0.01304641, 0.02720259, 1.001041
 209433693, 0.3828317, -0.03643255, 0.02387606, -0.006339144, 0.02671045, 1.00123, 0.3741149, -0.04631448, 0.0233402, -0.007459126, 0.02377177, 1.001234
 209633613, 0.324265, -0.04303411, 0.0224872, -0.01917611, 0.03652316, 1.000376, 0.3828317, -0.03643255, 0.02387606, -0.006339144, 0.02671045, 1.00123
 209833533, 0.3561496, -0.03739454, 0.02529935, -0.01736063, 0.0375852, 1.000563, 0.324265, -0.04303411, 0.0224872, -0.01917611, 0.03652316, 1.000376
 210034286, 0.3467358, -0.04573131, 0.02305871, -0.01466701, 0.02762153, 1.000871, 0.3561496, -0.03739454, 0.02529935, -0.01736063, 0.0375852, 1.000563
 210234206, 0.3270229, -0.02276478, 0.02106315, -0.01625868, 0.02625911, 1.000764, 0.3467358, -0.04573131, 0.02305871, -0.01466701, 0.02762153, 1.000871
 210434126, 0.3879475, -0.0354856, 0.02629834, -0.0105895, 0.0321673, 1.001071, 0.3270229, -0.02276478, 0.02106315, -0.01625868, 0.02625911, 1.000764
 210634046, 0.3461184, -0.04227918, 0.02420894, -0.0169568, 0.03867508, 1.000466, 0.3879475, -0.0354856, 0.02629834, -0.0105895, 0.0321673, 1.001071
 210833966, 0.3693984, -0.05987305, 0.02551338, -0.01301031, 0.0306992, 1.00096, 0.3461184, -0.04227918, 0.02420894, -0.0169568, 0.03867508, 1.000466
 211033886, 0.3344009, -0.05337746, 0.02119438, -0.0133159, 0.02302312, 1.000935, 0.3693984, -0.05987305, 0.02551338, -0.01301031, 0.0306992, 1.00096
 211233806, 0.3214043, -0.02746411, 0.0201505, -0.01504996, 0.02478036, 1.000793, 0.3344009, -0.05337746, 0.02119438, -0.0133159, 0.02302312, 1.000935
 211433726, 0.3427151, -0.04058842, 0.02273373, -0.01594226, 0.02127768, 1.000984, 0.3214043, -0.02746411, 0.0201505, -0.01504996, 0.02478036, 1.000793
 211633646, 0.3438014, -0.06308196, 0.02297164, -0.01699479, 0.01276567, 1.001124, 0.3427151, -0.04058842, 0.02273373, -0.01594226, 0.02127768, 1.000984
 211833566, 0.3828835, -0.06513561, 0.02553289, -0.01047678, 0.0189141, 1.001382, 0.3438014, -0.06308196, 0.02297164, -0.01699479, 0.01276567, 1.001124
 212033486, 0.350088, -0.03528389, 0.02212421, -0.01115588, 0.03021516, 1.000863, 0.3828835, -0.06513561, 0.02553289, -0.01047678, 0.0189141, 1.001382
 212234239, 0.365585, -0.05776825, 0.02352606, -0.008584905, 0.03235588, 1.000929, 0.350088, -0.03528389, 0.02212421, -0.01115588, 0.03021516, 1.000863
 212434159, 0.3214256, -0.04921557, 0.02125841, -0.01593628, 0.0341699, 1.000508, 0.365585, -0.05776825, 0.02352606, -0.008584905, 0.03235588, 1.000929
 212634079, 0.3686056, -0.03396622, 0.02484905, -0.01339603, 0.02596987, 1.001077, 0.3214256, -0.04921557, 0.02125841, -0.01593628, 0.0341699, 1.000508
 212833999, 0.3656891, -0.04329901, 0.02525374, -0.01630529, 0.01448627, 1.001249, 0.3686056, -0.03396622, 0.02484905, -0.01339603, 0.02596987, 1.001077
 213033919, 0.3838639, -0.06973809, 0.02649866, -0.0136171, 0.01177648, 1.001466, 0.3656891, -0.04329901, 0.02525374, -0.01630529, 0.01448627, 1.001249
 213233839, 0.3418116, -0.06677836, 0.02284195, -0.01358039, 0.03008417, 1.000797, 0.3838639, -0.06973809, 0.02649866, -0.0136171, 0.01177648, 1.001466
 213433759, 0.3279499, -0.03122105, 0.02105265, -0.01415433, 0.03792694, 1.000432, 0.3418116, -0.06677836, 0.02284195, -0.01358039, 0.03008417, 1.000797
 213633679, 0.3737694, -0.05571388, 0.02411617, -0.007907573, 0.03064873, 1.001047, 0.3279499, -0.03122105, 0.02105265, -0.01415433, 0.03792694, 1.000432
 213833599, 0.3728541, -0.05190969, 0.02441731, -0.01016438, 0.02371234, 1.001207, 0.3737694, -0.05571388, 0.02411617, -0.007907573, 0.03064873, 1.001047
 214033519, 0.3602188, -0.05818786, 0.02419678, -0.01283687, 0.02598416, 1.001036, 0.3728541, -0.05190969, 0.02441731, -0.01016438, 0.02371234, 1.001207
 214234272, 0.3864166, -0.04900895, 0.02582636, -0.009474255, 0.02594713, 1.001258, 0.3602188, -0.05818786, 0.02419678, -0.01283687, 0.02598416, 1.001036
 214434192, 0.3837215, -0.0712777, 0.02543765, -0.008580118, 0.0232389, 1.001324, 0.3864166, -0.04900895, 0.02582636, -0.009474255, 0.02594713, 1.001258
 214634112, 0.3900366, -0.05234523, 0.02701504, -0.01115103, 0.02582198, 1.001274, 0.3837215, -0.0712777, 0.02543765, -0.008580118, 0.0232389, 1.001324
 214834032, 0.3413061, -0.06359343, 0.02308192, -0.01493416, 0.0275183, 1.000848, 0.3900366, -0.05234523, 0.02701504, -0.01115103, 0.02582198, 1.001274
 215033952, 0.3714766, -0.03724225, 0.02453885, -0.01094155, 0.02854485, 1.00106, 0.3413061, -0.06359343, 0.02308192, -0.01493416, 0.0275183, 1.000848
 215233872, 0.339706, -0.0459566, 0.02201634, -0.01329312, 0.02772978, 1.00085, 0.3714766, -0.03724225, 0.02453885, -0.01094155, 0.02854485, 1.00106
 215433792, 0.3474805, -0.04682816, 0.02328162, -0.01418379, 0.02951405, 1.000835, 0.339706, -0.0459566, 0.02201634, -0.01329312, 0.02772978, 1.00085
 215633712, 0.3780107, -0.04390329, 0.02550093, -0.01103824, 0.02807047, 1.001123, 0.3474805, -0.04682816, 0.02328162, -0.01418379, 0.02951405, 1.000835
 215833632, 0.3373645, -0.05201166, 0.02305019, -0.01677828, 0.02668617, 1.000815, 0.3780107, -0.04390329, 0.02550093, -0.01103824, 0.02807047, 1.001123
 216033552, 0.3782712, -0.04699039, 0.02528647, -0.01041297, 0.02598822, 1.001189, 0.3373645, -0.05201166, 0.02305019, -0.01677828, 0.02668617, 1.000815
 216234305, 0.3580319, -0.05038871, 0.02400382, -0.01309463, 0.0258544, 1.001022, 0.3782712, -0.04699039, 0.02528647, -0.01041297, 0.02598822, 1.001189
 216434225, 0.3325577, -0.06121658, 0.02271067, -0.01677862, 0.0263138, 1.000799, 0.3580319, -0.05038871, 0.02400382, -0.01309463, 0.0258544, 1.001022
 216634145, 0.3724357, -0.04725541, 0.02465678, -0.01032896, 0.02703106, 1.001121, 0.3325577, -0.06121658, 0.02271067, -0.01677862, 0.0263138, 1.000799
 216834065, 0.3418796, -0.07042605, 0.0232856, -0.01494997, 0.02586355, 1.000901, 0.3724357, -0.04725541, 0.02465678, -0.01032896, 0.02703106, 1.001121
 217033985, 0.3892111, -0.05276848, 0.02567759, -0.00740156, 0.0275408, 1.001261, 0.3418796, -0.07042605, 0.0232856, -0.01494997, 0.02586355, 1.000901
 217233905, 0.3443221, -0.05965427, 0.02391826, -0.01602842, 0.02915103, 1.000805, 0.3892111, -0.05276848, 0.02567759, -0.00740156, 0.0275408, 1.001261
 217433825, 0.3234482, -0.06904779, 0.02197035, -0.01635952, 0.02878206, 1.00069, 0.3443221, -0.05965427, 0.02391826, -0.01602842, 0.02915103, 1.000805
 217633745, 0.3784758, -0.07947066, 0.02603376, -0.009938575, 0.02737504, 1.00118, 0.3234482, -0.06904779, 0.02197035, -0.01635952, 0.02878206, 1.00069
 217833665, 0.3892471, -0.06334723, 0.02698252, -0.01010756, 0.02700075, 1.00126, 0.3784758, -0.07947066, 0.02603376, -0.009938575, 0.02737504, 1.00118
 218033585, 0.3782401, -0.05283797, 0.02639004, -0.0126061, 0.02755529, 1.001127, 0.3892471, -0.06334723, 0.02698252, -0.01010756, 0.02700075, 1.00126
 218233505, 0.3474035, -0.04854443, 0.02377306, -0.01543377, 0.02786459, 1.000867, 0.3782401, -0.05283797, 0.02639004, -0.0126061, 0.02755529, 1.001127
 218434258, 0.3426284, -0.05442178, 0.02400952, -0.01709449, 0.02888115, 1.000784, 0.3474035, -0.04854443, 0.02377306, -0.01543377, 0.02786459, 1.000867
 218634178, 0.3281953, -0.06189967, 0.023142, -0.01838885, 0.03052616, 1.00063, 0.3426284, -0.05442178, 0.02400952, -0.01709449, 0.02888115, 1.000784
 218834098, 0.3631539, -0.05671744, 0.02492787, -0.01311099, 0.02735037, 1.001022, 0.3281953, -0.06189967, 0.023142, -0.01838885, 0.03052616, 1.00063
 219034018, 0.3536098, -0.05312159, 0.02456988, -0.01502856, 0.02962624, 1.000866, 0.3631539, -0.05671744, 0.02492787, -0.01311099, 0.02735037, 1.001022
 219233938, 0.3912514, -0.06709527, -0.003275042, -0.008670781, 0.02823175, 1.001243, 0.3536098, -0.05312159, 0.02456988, -0.01502856, 0.02962624, 1.000866
 219433858, 0.3673939, -0.06358896, 0.02482842, -0.0117438, 0.02676594, 1.001052, 0.3912514, -0.06709527, -0.003275042, -0.008670781, 0.02823175, 1.001243
 219633778, 0.3518544, -0.04488405, 0.02419932, -0.015545, 0.02616384, 1.00094, 0.3673939, -0.06358896, 0.02482842, -0.0117438, 0.02676594, 1.001052
 219833698, 0.3315055, -0.05919793, 0.02225742, -0.01567071, 0.0253047, 1.000842, 0.3518544, -0.04488405, 0.02419932, -0.015545, 0.02616384, 1.00094
 220033618, 0.3180167, -0.06825473, 0.02169059, -0.01771056, 0.02535301, 1.000735, 0.3315055, -0.05919793, 0.02225742, -0.01567071, 0.0253047, 1.000842
 220233538, 0.3792634, -0.05319441, 0.02555882, -0.01029648, 0.02470266, 1.001236, 0.3180167, -0.06825473, 0.02169059, -0.01771056, 0.02535301, 1.000735
 220434291, 0.3820786, -0.08561866, 0.02581666, -0.007655874, 0.02667596, 1.001254, 0.3792634, -0.05319441, 0.02555882, -0.01029648, 0.02470266, 1.001236
 220634211, 0.3199498, -0.06235391, 0.0216602, -0.01684457, 0.02750057, 1.000704, 0.3820786, -0.08561866, 0.02581666, -0.007655874, 0.02667596, 1.001254
 220834131, 0.3685985, -0.0661262, 0.02475405, -0.01044754, 0.02608295, 1.001131, 0.3199498, -0.06235391, 0.0216602, -0.01684457, 0.02750057, 1.000704
 221034051, 0.3531714, -0.04809383, 0.02366581, -0.01323646, 0.02709227, 1.000959, 0.3685985, -0.0661262, 0.02475405, -0.01044754, 0.02608295, 1.001131
 221233971, 0.3414162, -0.05625919, 0.02310175, -0.01459725, 0.02805424, 1.000845, 0.3531714, -0.04809383, 0.02366581, -0.01323646, 0.02709227, 1.000959
 221433891, 0.3689192, -0.04992662, 0.02372352, -0.008141831, 0.02894552, 1.001067, 0.3414162, -0.05625919, 0.02310175, -0.01459725, 0.02805424, 1.000845
 221633811, 0.3444604, -0.07535836, 0.02358548, -0.01345525, 0.02891807, 1.000867, 0.3689192, -0.04992662, 0.02372352, -0.008141831, 0.02894552, 1.001067
 221833731, 0.3785734, -0.05380256, 0.02597367, -0.0111838, 0.0269745, 1.001163, 0.3444604, -0.07535836, 0.02358548, -0.01345525, 0.02891807, 1.000867
 222033651, 0.3637648, -0.08007853, 0.02484119, -0.01103343, 0.02672132, 1.001086, 0.3785734, -0.05380256, 0.02597367, -0.0111838, 0.0269745, 1.001163
 222233571, 0.3336504, -0.06706226, 0.02251579, -0.01442495, 0.02791614, 1.000814, 0.3637648, -0.08007853, 0.02484119, -0.01103343, 0.02672132, 1.001086
 222433491, 0.313575, -0.04967546, 0.02076341, -0.01640103, 0.02933187, 1.000625, 0.3336504, -0.06706226, 0.02251579, -0.01442495, 0.02791614, 1.000814
 222634244, 0.3513192, -0.08748168, 0.0234841, -0.0096016, 0.02994354, 1.000935, 0.313575, -0.04967546, 0.02076341, -0.01640103, 0.02933187, 1.000625
 222834164, 0.3432423, -0.05099553, 0.02283321, -0.01304421, 0.03045919, 1.000808, 0.3513192, -0.08748168, 0.0234841, -0.0096016, 0.02994354, 1.000935
 223034084, 0.3066311, -0.06928787, 0.02127692, -0.01935669, 0.0264015, 1.000627, 0.3432423, -0.05099553, 0.02283321, -0.01304421, 0.03045919, 1.000808
 223234004, 0.3735666, -0.06525178, 0.02579697, -0.01300183, 0.01726642, 1.00133, 0.3066311, -0.06928787, 0.02127692, -0.01935669, 0.0264015, 1.000627
 223433924, 0.3361298, -0.06760637, 0.02286437, -0.01546646, 0.02272657, 1.000946, 0.3735666, -0.06525178, 0.02579697, -0.01300183, 0.01726642, 1.00133
 223633844, 0.3606585, -0.0696789, 0.02394222, -0.008784339, 0.03272434, 1.000905, 0.3361298, -0.06760637, 0.02286437, -0.01546646, 0.02272657, 1.000946
 223833764, 0.3399631, -0.07838257, 0.02325993, -0.0129099, 0.03072505, 1.000799, 0.3606585, -0.0696789, 0.02394222, -0.008784339, 0.03272434, 1.000905
 224033684, 0.3149469, -0.07504604, 0.0216967, -0.01709609, 0.02763234, 1.000683, 0.3399631, -0.07838257, 0.02325993, -0.0129099, 0.03072505, 1.000799
 224233604, 0.3694586, -0.08148663, 0.02550282, -0.01001606, 0.02900608, 1.001079, 0.3149469, -0.07504604, 0.0216967, -0.01709609, 0.02763234, 1.000683
 224433524, 0.349274, -0.09020557, 0.02525805, -0.01389997, 0.0334792, 1.000765, 0.3694586, -0.08148663, 0.02550282, -0.01001606, 0.02900608, 1.001079
 224634277, 0.3051327, -0.06523106, 0.02121338, -0.01811671, 0.03378714, 1.000421, 0.349274, -0.09020557, 0.02525805, -0.01389997, 0.0334792, 1.000765
 224834197, 0.3572195, -0.0877291, 0.02503295, -0.01147826, 0.03108882, 1.000924, 0.3051327, -0.06523106, 0.02121338, -0.01811671, 0.03378714, 1.000421
 225034117, 0.3420828, -0.07768018, 0.02274535, -0.01063578, 0.03054435, 1.000845, 0.3572195, -0.0877291, 0.02503295, -0.01147826, 0.03108882, 1.000924
 225234037, 0.3319752, -0.07984672, 0.02228395, -0.01246173, 0.02942024, 1.0008, 0.3420828, -0.07768018, 0.02274535, -0.01063578, 0.03054435, 1.000845
 225433957, 0.3699004, -0.07509012, 0.02528436, -0.009362966, 0.03030379, 1.001046, 0.3319752, -0.07984672, 0.02228395, -0.01246173, 0.02942024, 1.0008
 225633877, 0.3547538, -0.06564321, 0.02429446, -0.01211267, 0.03020023, 1.000911, 0.3699004, -0.07509012, 0.02528436, -0.009362966, 0.03030379, 1.001046
 225833797, 0.3648849, -0.0751997, 0.02483771, -0.009976365, 0.02855821, 1.001058, 0.3547538, -0.06564321, 0.02429446, -0.01211267, 0.03020023, 1.000911
 226033717, 0.3704416, -0.06937321, 0.02472684, -0.008521046, 0.02821989, 1.001113, 0.3648849, -0.0751997, 0.02483771, -0.009976365, 0.02855821, 1.001058
 226233637, 0.332929, -0.07349171, 0.02274678, -0.01404861, 0.02856756, 1.000807, 0.3704416, -0.06937321, 0.02472684, -0.008521046, 0.02821989, 1.001113
 226433557, 0.3179112, -0.0793521, 0.02129923, -0.01351433, 0.03008053, 1.000689, 0.332929, -0.07349171, 0.02274678, -0.01404861, 0.02856756, 1.000807
 226633477, 0.3229033, -0.06102526, 0.0215939, -0.01470776, 0.02850867, 1.000735, 0.3179112, -0.0793521, 0.02129923, -0.01351433, 0.03008053, 1.000689
 226834230, 0.322996, -0.08755162, 0.02202659, -0.01397711, 0.02779389, 1.000784, 0.3229033, -0.06102526, 0.0215939, -0.01470776, 0.02850867, 1.000735
 227034150, 0.3258678, -0.09479688, 0.02217346, -0.0124534, 0.02903881, 1.000791, 0.322996, -0.08755162, 0.02202659, -0.01397711, 0.02779389, 1.000784
 227234070, 0.3604972, -0.08031911, 0.02443009, -0.009105511, 0.0305186, 1.000985, 0.3258678, -0.09479688, 0.02217346, -0.0124534, 0.02903881, 1.000791
 227433990, 0.3466746, -0.07760669, 0.02344477, -0.01085315, 0.03032456, 1.000882, 0.3604972, -0.08031911, 0.02443009, -0.009105511, 0.0305186, 1.000985
 227633910, 0.363993, -0.08256168, 0.02394948, -0.006911173, 0.02861575, 1.001085, 0.3466746, -0.07760669, 0.02344477, -0.01085315, 0.03032456, 1.000882
 227833830, 0.3462116, -0.07449022, 0.02273007, -0.009894975, 0.02702266, 1.000982, 0.363993, -0.08256168, 0.02394948, -0.006911173, 0.02861575, 1.001085
 228033750, 0.3130369, -0.05909415, 0.02097629, -0.01619397, 0.02683166, 1.000706, 0.3462116, -0.07449022, 0.02273007, -0.009894975, 0.02702266, 1.000982
 228233670, 0.3653033, -0.1025921, 0.02512588, -0.008670427, 0.02580893, 1.001179, 0.3130369, -0.05909415, 0.02097629, -0.01619397, 0.02683166, 1.000706
 228433590, 0.3646887, -0.07475848, 0.02440528, -0.008363172, 0.02933779, 1.001051, 0.3653033, -0.1025921, 0.02512588, -0.008670427, 0.02580893, 1.001179
 228633510, 0.3349441, -0.08385723, 0.02193118, -0.00920229, 0.0308488, 1.000818, 0.3646887, -0.07475848, 0.02440528, -0.008363172, 0.02933779, 1.001051
 228834263, 0.348915, -0.0873294, 0.02359037, -0.0085367, 0.03407248, 1.000809, 0.3349441, -0.08385723, 0.02193118, -0.00920229, 0.0308488, 1.000818
 229034183, 0.3341985, -0.08759365, 0.02353844, -0.01264479, 0.03515797, 1.000638, 0.348915, -0.0873294, 0.02359037, -0.0085367, 0.03407248, 1.000809
 229234103, 0.3482452, -0.07350418, 0.02316447, -0.009144403, 0.03297262, 1.000824, 0.3341985, -0.08759365, 0.02353844, -0.01264479, 0.03515797, 1.000638
 229434023, 0.3593034, -0.09918337, 0.02482685, -0.008494768, 0.03038638, 1.00101, 0.3482452, -0.07350418, 0.02316447, -0.009144403, 0.03297262, 1.000824
 229633943, 0.3076288, -0.09369905, 0.02108872, -0.01356747, 0.03201402, 1.00059, 0.3593034, -0.09918337, 0.02482685, -0.008494768, 0.03038638, 1.00101
 229833863, 0.3099776, -0.09395181, 0.0215312, -0.01422777, 0.03360059, 1.000513, 0.3076288, -0.09369905, 0.02108872, -0.01356747, 0.03201402, 1.00059
 230033783, 0.3466261, -0.1031859, 0.02339704, -0.00745042, 0.03187351, 1.000894, 0.3099776, -0.09395181, 0.0215312, -0.01422777, 0.03360059, 1.000513
 230233703, 0.3081338, -0.07937247, 0.02025416, -0.01156402, 0.03407304, 1.00054, 0.3466261, -0.1031859, 0.02339704, -0.00745042, 0.03187351, 1.000894
 230433623, 0.3549462, -0.09441134, 0.02403118, -0.007426102, 0.03212785, 1.000931, 0.3081338, -0.07937247, 0.02025416, -0.01156402, 0.03407304, 1.00054
 230633543, 0.3129393, -0.08678221, 0.0213492, -0.01317111, 0.03230447, 1.00061, 0.3549462, -0.09441134, 0.02403118, -0.007426102, 0.03212785, 1.000931
 230834296, 0.3172888, -0.06627625, 0.02133535, -0.01372931, 0.03271759, 1.000598, 0.3129393, -0.08678221, 0.0213492, -0.01317111, 0.03230447, 1.00061
 231034216, 0.3263132, -0.08439614, 0.02235225, -0.01236253, 0.03174491, 1.000711, 0.3172888, -0.06627625, 0.02133535, -0.01372931, 0.03271759, 1.000598
 231234136, 0.3319786, -0.08896869, 0.02264726, -0.01301758, 0.02434366, 1.000947, 0.3263132, -0.08439614, 0.02235225, -0.01236253, 0.03174491, 1.000711
 231434056, 0.3448836, -0.104812, 0.02374791, -0.01259858, 0.01828206, 1.001178, 0.3319786, -0.08896869, 0.02264726, -0.01301758, 0.02434366, 1.000947
 231633976, 0.3324401, -0.08963288, 0.02286711, -0.01228369, 0.02825996, 1.000858, 0.3448836, -0.104812, 0.02374791, -0.01259858, 0.01828206, 1.001178
 231833896, 0.3373252, -0.08972623, 0.02316366, -0.01006082, 0.03409889, 1.00073, 0.3324401, -0.08963288, 0.02286711, -0.01228369, 0.02825996, 1.000858
 232033816, 0.3070057, -0.07689892, 0.02078916, -0.01366849, 0.03370734, 1.000521, 0.3373252, -0.08972623, 0.02316366, -0.01006082, 0.03409889, 1.00073
 232233736, 0.3086112, -0.08318587, 0.02144119, -0.01504482, 0.03173345, 1.00058, 0.3070057, -0.07689892, 0.02078916, -0.01366849, 0.03370734, 1.000521
 232433656, 0.3462281, -0.09764247, 0.02436279, -0.01026789, 0.03230289, 1.000852, 0.3086112, -0.08318587, 0.02144119, -0.01504482, 0.03173345, 1.00058
 232633576, 0.3410872, -0.09786819, 0.02485396, -0.01313125, 0.03273044, 1.000774, 0.3462281, -0.09764247, 0.02436279, -0.01026789, 0.03230289, 1.000852
 232833496, 0.3475551, -0.09638459, 0.02415648, -0.009809215, 0.03050828, 1.000921, 0.3410872, -0.09786819, 0.02485396, -0.01313125, 0.03273044, 1.000774
 233034249, 0.3075692, -0.08321644, 0.02055783, -0.01331917, 0.02821248, 1.000705, 0.3475551, -0.09638459, 0.02415648, -0.009809215, 0.03050828, 1.000921
 233234169, 0.2889737, -0.08583221, 0.01940868, -0.01554623, 0.02694778, 1.000618, 0.3075692, -0.08321644, 0.02055783, -0.01331917, 0.02821248, 1.000705
 233434089, 0.3169734, -0.07596501, 0.02129623, -0.01340206, 0.02802033, 1.000753, 0.2889737, -0.08583221, 0.01940868, -0.01554623, 0.02694778, 1.000618
 233634009, 0.3109505, -0.1069892, 0.02263197, -0.01451922, 0.03373079, 1.000559, 0.3169734, -0.07596501, 0.02129623, -0.01340206, 0.02802033, 1.000753
 233833929, 0.320924, -0.1022425, 0.02262365, -0.01096828, 0.03644068, 1.000559, 0.3109505, -0.1069892, 0.02263197, -0.01451922, 0.03373079, 1.000559
 234033849, 0.3400181, -0.09355438, 0.02441627, -0.01100813, 0.03794077, 1.000606, 0.320924, -0.1022425, 0.02262365, -0.01096828, 0.03644068, 1.000559
 234233769, 0.3516637, -0.1066107, 0.02505283, -0.009615608, 0.03109603, 1.000946, 0.3400181, -0.09355438, 0.02441627, -0.01100813, 0.03794077, 1.000606
 234433689, 0.3220029, -0.07542002, 0.02226447, -0.01395597, 0.03130814, 1.000677, 0.3516637, -0.1066107, 0.02505283, -0.009615608, 0.03109603, 1.000946
 234633609, 0.3078674, -0.07805072, 0.0212083, -0.01491879, 0.03089526, 1.000603, 0.3220029, -0.07542002, 0.02226447, -0.01395597, 0.03130814, 1.000677
 234833529, 0.3149216, -0.07571053, 0.02117967, -0.01194717, 0.03439512, 1.000564, 0.3078674, -0.07805072, 0.0212083, -0.01491879, 0.03089526, 1.000603
 235034282, 0.327863, -0.08701064, 0.0227685, -0.01089334, 0.03659249, 1.00058, 0.3149216, -0.07571053, 0.02117967, -0.01194717, 0.03439512, 1.000564
 235234202, 0.2980407, -0.07699792, 0.02022728, -0.01369885, 0.03532652, 1.000424, 0.327863, -0.08701064, 0.0227685, -0.01089334, 0.03659249, 1.00058
 235434122, 0.3368103, -0.09559121, 0.02326142, -0.01009368, 0.03082726, 1.000845, 0.2980407, -0.07699792, 0.02022728, -0.01369885, 0.03532652, 1.000424
 235634042, 0.3501407, -0.09695199, 0.02343217, -0.007009428, 0.02840628, 1.001027, 0.3368103, -0.09559121, 0.02326142, -0.01009368, 0.03082726, 1.000845
 235833962, 0.2964152, -0.09089425, 0.02099905, -0.01644712, 0.03035105, 1.000551, 0.3501407, -0.09695199, 0.02343217, -0.007009428, 0.02840628, 1.001027
 236033882, 0.3227461, -0.09484539, 0.02287146, -0.01389074, 0.02886634, 1.000777, 0.2964152, -0.09089425, 0.02099905, -0.01644712, 0.03035105, 1.000551
 236233802, 0.3062352, -0.09055442, 0.02156127, -0.01560775, 0.02848624, 1.000669, 0.3227461, -0.09484539, 0.02287146, -0.01389074, 0.02886634, 1.000777
 236433722, 0.3148084, -0.09883054, 0.021205, -0.01069535, 0.02888933, 1.000776, 0.3062352, -0.09055442, 0.02156127, -0.01560775, 0.02848624, 1.000669
 236633642, 0.3372231, -0.09020044, 0.02199787, -0.006625772, 0.03083837, 1.000871, 0.3148084, -0.09883054, 0.021205, -0.01069535, 0.02888933, 1.000776
 236833562, 0.3229626, -0.09369893, 0.02215464, -0.01040518, 0.03298242, 1.000692, 0.3372231, -0.09020044, 0.02199787, -0.006625772, 0.03083837, 1.000871
 237033482, 0.3045373, -0.08322333, 0.02078308, -0.01247016, 0.0349391, 1.000494, 0.3229626, -0.09369893, 0.02215464, -0.01040518, 0.03298242, 1.000692
 237234235, 0.3427512, -0.1177625, 0.02443895, -0.009088084, 0.03006226, 1.000947, 0.3045373, -0.08322333, 0.02078308, -0.01247016, 0.0349391, 1.000494
 237434155, 0.2793679, -0.1054325, 0.01931996, -0.01543381, 0.02722171, 1.000592, 0.3427512, -0.1177625, 0.02443895, -0.009088084, 0.03006226, 1.000947
 237634075, 0.3145611, -0.1027344, 0.02178437, -0.01055708, 0.03307103, 1.000653, 0.2793679, -0.1054325, 0.01931996, -0.01543381, 0.02722171, 1.000592
 237833995, 0.3383097, -0.1173518, 0.0238225, -0.006140046, 0.03714938, 1.000704, 0.3145611, -0.1027344, 0.02178437, -0.01055708, 0.03307103, 1.000653
 238033915, 0.2835383, -0.1052202, 0.01970392, -0.01173291, 0.03682557, 1.000355, 0.3383097, -0.1173518, 0.0238225, -0.006140046, 0.03714938, 1.000704
 238233835, 0.295668, -0.112228, 0.02105135, -0.01217055, 0.0347979, 1.00049, 0.2835383, -0.1052202, 0.01970392, -0.01173291, 0.03682557, 1.000355
 238433755, 0.2800357, -0.1031215, 0.01988458, -0.01456134, 0.03435503, 1.000389, 0.295668, -0.112228, 0.02105135, -0.01217055, 0.0347979, 1.00049
 238633675, 0.3008814, -0.1140907, 0.02113003, -0.01084547, 0.03364407, 1.000574, 0.2800357, -0.1031215, 0.01988458, -0.01456134, 0.03435503, 1.000389
 238833595, 0.2882663, -0.08033065, 0.0191081, -0.01189455, 0.03541361, 1.000405, 0.3008814, -0.1140907, 0.02113003, -0.01084547, 0.03364407, 1.000574
