TimeUS,CAN,CAE,CAD,CAe
 170758336, 0, 0, 0, 0
 170835805, -0.0839233, 3.182581, 0.1799165, 0.4433128
 170935765, -0.0001857637, 0.003602265, -4.672446E-05, 0.0002593961
 171035725, 0.0001068593, 0.003613584, -0.0001011313, 0.0002593961
 171135685, 0.0001389984, 0.003418201, -0.0001196359, 0.0002593961
 171236478, 0.0002039986, 0.00370565, -0.0001197884, 0.0002615578
 171336438, -0.000128648, 0.003628695, -0.0002042585, 0.0002593961
 171436398, -3.314968E-05, 0.003611917, -3.229994E-05, 0.0002593961
 171536358, -0.0001048611, 0.00346571, -0.0001375161, 0.0002593961
 171636318, 0.0001529132, 0.003797221, -0.0002214249, 0.0002593961
 171736278, -0.0001047205, 0.003689598, -0.0001717965, 0.0002593961
 171836238, 4.067264E-05, 0.003691615, -4.038149E-05, 0.0002593961
 171936198, -0.0001449689, 0.003671074, 6.729771E-05, 0.0002593961
 172036158, 0.0001355453, 0.003923359, -0.0001323028, 0.0002593961
 172136118, 1.217486E-05, 0.003635478, -9.613244E-05, 0.0002593961
 172236078, 7.777881E-05, 0.003493401, -0.0001276221, 0.0002593961
 172336038, 0.0001558327, 0.003567576, -3.807452E-05, 0.0002593961
 172435998, 2.139116E-05, 0.003553312, -3.686145E-05, 0.0002593961
 172535958, 0.0002564039, 0.003666763, -5.35309E-05, 0.0002593961
 172635918, -5.158524E-05, 0.003541015, 1.109275E-05, 0.0002593961
 172735878, 0.0001081638, 0.003544884, 0.0002014665, 0.0002593961
 172835838, 8.164103E-05, 0.003672456, -3.705934E-06, 0.0002593961
 172935798, -0.0001030548, 0.003573902, -0.0001047967, 0.0002593961
 173035758, -0.0003019154, 0.0035274, -0.0002521793, 0.0002593961
 173135718, -5.060385E-05, 0.003816886, -0.0001699721, 0.0002593961
 173235678, 4.559611E-05, 0.00347907, -7.479297E-05, 0.0002593961
 173336471, -4.214426E-05, 0.003569436, -9.158999E-05, 0.0002615578
 173436431, -0.0001084429, 0.003904119, -0.0001543584, 0.0002593961
 173536391, -0.0001376047, 0.00378659, -0.000142702, 0.0002593961
 173636351, 0.0001321434, 0.00367422, -0.0001401865, 0.0002593961
 173736311, 3.855363E-05, 0.003527873, -3.898372E-05, 0.0002593961
 173836271, 5.309219E-05, 0.003611693, -0.0001441736, 0.0002593961
 173936231, 4.437273E-05, 0.003605801, -0.0001421872, 0.0002593961
 174036191, -0.0001298126, 0.003582139, -0.0001486815, 0.0002593961
 174136151, -0.0001888012, 0.003549493, -0.0001676711, 0.0002593961
 174236111, -1.786221E-05, 0.003476556, -2.836285E-05, 0.0002593961
 174336071, -9.559141E-05, 0.003585059, 5.164225E-05, 0.0002593961
 174436031, -0.000118354, 0.003645213, 0.0001458395, 0.0002593961
 174535991, -0.0002269924, 0.003594048, -6.692831E-05, 0.0002593961
 174635951, 0.0001472714, 0.003624311, -8.855138E-05, 0.0002593961
 174735911, -0.0001649211, 0.003790061, 5.987394E-05, 0.0002593961
 174835871, 0.0001456717, 0.003492104, -5.28029E-05, 0.0002593961
 174935831, -2.462065E-05, 0.003508029, -2.604872E-06, 0.0002593961
 175035791, -9.076795E-05, 0.003591892, -0.0002734116, 0.0002593961
 175135751, -4.565525E-05, 0.003530177, 2.766456E-05, 0.0002593961
 175235711, -0.0002059851, 0.003624186, -0.0001534658, 0.0002593961
 175335671, -2.936867E-05, 0.003715287, 4.095346E-05, 0.0002593961
 175436464, -5.428635E-05, 0.00353744, -7.914912E-05, 0.0002615578
 175536424, 1.145311E-05, 0.003824853, -7.284946E-05, 0.0002593961
 175636384, 9.158309E-06, 0.003660649, -3.355114E-05, 0.0002593961
 175736344, 2.446267E-05, 0.003402327, -3.80066E-05, 0.0002593961
 175836304, 0.0001188795, 0.003700321, -6.139206E-05, 0.0002593961
 175936264, 6.13003E-05, 0.003812541, -0.0001951116, 0.0002593961
 176036224, -8.845038E-05, 0.003596963, -0.0001435838, 0.0002593961
 176136184, -3.46064E-05, 0.003349597, -1.168857E-05, 0.0002593961
 176236144, -0.0001096874, 0.003662187, 0.0001079402, 0.0002593961
 176336104, 3.026837E-05, 0.003340824, -0.0002545697, 0.0002593961
 176436064, 2.871071E-05, 0.003573036, -0.0002424402, 0.0002593961
 176536024, -5.581597E-05, 0.003737224, 2.954968E-05, 0.0002593961
 176635984, 0.0001303985, 0.003749876, -4.565438E-05, 0.0002593961
 176735944, 0.0002041695, 0.003484608, -4.687222E-05, 0.0002593961
 176835904, -5.063567E-05, 0.003580256, -7.281847E-05, 0.0002593961
 176935864, 5.708114E-06, 0.003692872, 4.908504E-05, 0.0002593961
 177035824, -5.206665E-05, 0.003740529, -8.45106E-05, 0.0002593961
 177135784, 0.0002252186, 0.003522607, -8.268148E-05, 0.0002593961
 177235744, 0.0001925439, 0.003739849, -4.389439E-05, 0.0002593961
 177335704, 7.616583E-05, 0.003615068, -0.0001275947, 0.0002593961
 177435664, 5.077254E-05, 0.003621507, -0.0002032659, 0.0002593961
 177536457, 6.227508E-05, 0.003563203, -9.301794E-05, 0.0002615578
 177636417, 0.0001056702, 0.00341302, 0.0001683134, 0.0002593961
 177736377, 7.948808E-05, 0.003667374, -0.000187409, 0.0002593961
 177836337, 0.0003169894, 0.003547649, 0.0001189328, 0.0002593961
 177936297, 7.523236E-05, 0.003560177, -0.0003436358, 0.0002593961
 178036257, -0.0001044273, 0.003414815, -1.286349E-05, 0.0002593961
 178136217, 0.000121777, 0.003720636, 7.227272E-05, 0.0002593961
 178236177, 2.330018E-05, 0.003508302, -8.024699E-05, 0.0002593961
 178336137, 8.546273E-05, 0.00360046, -7.095835E-05, 0.0002593961
 178436097, -0.0002235035, 0.003559479, -5.74621E-05, 0.0002593961
 178536057, 4.146027E-05, 0.003445589, -1.888117E-05, 0.0002593961
 178636017, -0.0002122399, 0.003697834, -3.93686E-05, 0.0002593961
 178735977, 4.257251E-05, 0.003577293, -0.0001488078, 0.0002593961
 178835937, 0.0001880456, 0.00362691, -7.853345E-05, 0.0002593961
 178935897, 0.0001649105, 0.003644766, -6.041851E-05, 0.0002593961
 179035857, 9.289451E-05, 0.003525588, -7.692834E-05, 0.0002593961
 179135817, -0.0001445982, 0.003401151, -7.66638E-05, 0.0002593961
 179235777, 2.450869E-05, 0.003311743, -0.000197303, 0.0002593961
 179335737, -7.862761E-05, 0.00334247, -0.0001826378, 0.0002593961
 179435697, -0.0001166397, 0.003446895, -0.000158554, 0.0002593961
 179535657, -5.980166E-05, 0.003647869, -5.667564E-05, 0.0002593961
 179636450, 0.0001926662, 0.003654576, -0.0001345156, 0.0002615578
 179736410, 2.368223E-05, 0.003457568, -0.0001484908, 0.0002593961
 179836370, -8.280303E-05, 0.003658407, 6.926982E-05, 0.0002593961
 179936330, -0.0001377523, 0.003590417, 0.0001120679, 0.0002593961
 180036290, -9.090713E-05, 0.003395041, -7.21035E-05, 0.0002593961
 180136250, 0.0001453499, 0.003688563, -5.183528E-05, 0.0002593961
 180236210, -0.0001141259, 0.003592067, -0.0001187696, 0.0002593961
 180336170, -0.0001241396, 0.003537471, -0.0003258117, 0.0002593961
 180436130, 7.813684E-05, 0.003614594, -5.258125E-05, 0.0002593961
 180536090, -3.859635E-06, 0.00362579, -0.0001458645, 0.0002593961
 180636050, -6.304579E-05, 0.003629836, -3.801494E-05, 0.0002593961
 180736010, -1.351481E-05, 0.003467978, -0.0001679869, 0.0002593961
 180835970, -3.398961E-05, 0.003385105, -9.159596E-05, 0.0002593961
 180935930, -3.471538E-05, 0.003442364, 5.529098E-06, 0.0002593961
 181035890, -5.906563E-05, 0.003538786, -0.0002113772, 0.0002593961
 181135850, -0.0001664959, 0.003415243, -9.131712E-05, 0.0002593961
 181235810, 8.044527E-05, 0.003683158, -0.000126558, 0.0002593961
 181335770, -7.518341E-05, 0.003420501, 6.412205E-05, 0.0002593961
 181435730, -0.0001680008, 0.003461377, -0.0001672147, 0.0002593961
 181535690, 5.373101E-05, 0.003482113, -1.22951E-05, 0.0002593961
 181636483, 0.0001944206, 0.003425918, 0.0001457358, 0.0002615578
 181736443, -2.631785E-05, 0.003619634, 8.736692E-05, 0.0002593961
 181836403, 6.361098E-05, 0.003706982, -0.0002023769, 0.0002593961
 181936363, 6.484366E-05, 0.00358648, -0.0002804039, 0.0002593961
 182036323, 0.0002262449, 0.003788403, 2.053988E-05, 0.0002593961
 182136283, 0.0001546959, 0.003687873, -8.004206E-05, 0.0002593961
 182236243, 0.0001454041, 0.003523596, 0.0001010824, 0.0002593961
 182336203, -0.0001253372, 0.003632267, 2.709854E-05, 0.0002593961
 182436163, -0.0002722676, 0.00346441, -7.393381E-05, 0.0002593961
 182536123, -2.351624E-05, 0.003667109, -5.691154E-06, 0.0002593961
 182636083, 0.0001838997, 0.003547958, -4.962961E-05, 0.0002593961
 182736043, -0.0002378714, 0.003651108, 0.000106888, 0.0002593961
 182836003, 0.0001461029, 0.003735055, 0.0001054616, 0.0002593961
 182935963, 9.707017E-05, 0.003729707, 9.848589E-05, 0.0002593961
 183035923, 2.091832E-05, 0.003558509, -0.0001018534, 0.0002593961
 183135883, 5.434907E-05, 0.003490929, -0.0001044881, 0.0002593961
 183235843, 3.250011E-05, 0.003699009, 0.000117112, 0.0002593961
 183335803, -0.0001724894, 0.003620023, 5.563656E-05, 0.0002593961
 183435763, -0.0001007838, 0.003341731, -6.690925E-05, 0.0002593961
 183535723, -7.558786E-05, 0.003771962, -1.933995E-05, 0.0002593961
 183635683, 0.0001117705, 0.003569954, -2.566383E-05, 0.0002593961
 183736476, -0.0001334875, 0.003730953, 5.262059E-05, 0.0002615578
 183836436, -5.641959E-05, 0.00351328, -0.0002687285, 0.0002593961
 183936396, -0.0002152134, 0.003519199, -0.0002492027, 0.0002593961
 184036356, 3.415314E-05, 0.003466394, 5.427813E-06, 0.0002593961
 184136316, -0.0001358809, 0.003558533, -8.020173E-05, 0.0002593961
 184236276, 0.0001049748, 0.003649813, -0.0001411124, 0.0002593961
 184336236, 2.202548E-05, 0.003600169, -0.0001279486, 0.0002593961
 184436196, -1.975216E-05, 0.00361794, -3.863222E-06, 0.0002593961
 184536156, 2.416861E-05, 0.003776887, -5.14957E-05, 0.0002593961
 184636116, -2.786778E-05, 0.003552047, 6.593451E-05, 0.0002593961
 184736076, -2.320394E-05, 0.003492704, -0.0001280022, 0.0002593961
 184836036, -9.811247E-05, 0.003476461, -3.553396E-06, 0.0002593961
 184935996, 8.38055E-05, 0.003454325, 0.0002539667, 0.0002593961
 185035956, 6.072862E-05, 0.003741295, -0.0002004393, 0.0002593961
 185135916, 2.914861E-05, 0.003769693, -0.0002948487, 0.0002593961
 185235876, -0.000174824, 0.003708037, -0.0001104473, 0.0002593961
 185335836, -4.159079E-05, 0.003733651, 9.836194E-05, 0.0002593961
 185435796, -2.644294E-05, 0.003525991, 1.785518E-05, 0.0002593961
 185535756, -4.602743E-05, 0.003414693, -2.17351E-06, 0.0002593961
 185635716, 3.328699E-05, 0.003583475, -0.0004074338, 0.0002593961
 185735676, -7.108715E-06, 0.003791411, -0.0001255558, 0.0002593961
 185836469, 4.114481E-05, 0.003424317, -0.0001650281, 0.0002615578
 185936429, 0.0001882332, 0.003611937, -0.0001836161, 0.0002593961
 186036389, -9.640755E-05, 0.003501987, -0.0002654408, 0.0002593961
 186136349, 0.0001632319, 0.003459184, -2.954016E-06, 0.0002593961
 186236309, 9.869233E-05, 0.003539814, 1.875246E-05, 0.0002593961
 186336269, -1.14303E-05, 0.003759819, -6.612635E-05, 0.0002593961
 186436229, -0.0001182319, 0.00378926, -0.0002027868, 0.0002593961
 186536189, -0.0001143067, 0.003717834, -0.0002633793, 0.0002593961
 186636149, 0.0001532382, 0.003723769, -0.0001626841, 0.0002593961
 186736109, 0.0003811397, 0.003817013, -7.340356E-05, 0.0002593961
 186836069, -0.0001222675, 0.003868869, 0.0001708754, 0.0002593961
 186936029, -7.405988E-05, 0.003526763, -0.0001046394, 0.0002593961
 187035989, 5.41835E-05, 0.003548778, -0.0001580619, 0.0002593961
 187135949, 7.247739E-05, 0.003665602, -6.388968E-05, 0.0002593961
 187235909, 6.223381E-06, 0.003620055, 3.405639E-05, 0.0002593961
 187335869, -1.592068E-05, 0.003698674, -7.518024E-05, 0.0002593961
 187435829, -1.443755E-05, 0.003767284, -8.679254E-05, 0.0002593961
 187535789, -5.258614E-05, 0.003605596, -0.0001059966, 0.0002593961
 187635749, -0.0001030986, 0.003619614, -0.0001611243, 0.0002593961
 187735709, -5.454972E-05, 0.003490374, 4.166843E-05, 0.0002593961
 187835669, 3.949679E-05, 0.003952874, -0.0001129282, 0.0002593961
 187936462, -3.210683E-05, 0.003529642, -3.406989E-05, 0.0002615578
 188036422, 0.0001814597, 0.003575356, 3.844868E-05, 0.0002593961
 188136382, 0.0001020121, 0.003741537, -3.633595E-05, 0.0002593961
 188236342, 0.0001999412, 0.003532295, 2.979398E-05, 0.0002593961
 188336302, -5.378473E-05, 0.003609339, 5.755507E-05, 0.0002593961
 188436262, 0.0001868786, 0.003747394, 6.711776E-05, 0.0002593961
 188536222, -6.670391E-05, 0.003557736, 5.786726E-05, 0.0002593961
 188636182, 4.599076E-06, 0.003529758, -0.0001406572, 0.0002593961
 188736142, -2.395258E-05, 0.003764539, -1.047074E-05, 0.0002593961
 188836102, -6.023165E-05, 0.00367243, 0.0001524232, 0.0002593961
 188936062, 0.0001027626, 0.003675086, -0.0002318575, 0.0002593961
 189036022, 4.121071E-05, 0.003481159, -3.78779E-05, 0.0002593961
 189135982, 0.0001504765, 0.003556561, 0.000139879, 0.0002593961
 189235942, 1.442187E-05, 0.003590004, -0.000144101, 0.0002593961
 189335902, 0.0001011902, 0.003542148, -0.0001623291, 0.0002593961
 189435862, 5.078629E-05, 0.003569152, 2.808281E-05, 0.0002593961
 189535822, 0.0001010398, 0.003614401, -6.17281E-05, 0.0002593961
 189635782, -6.668083E-05, 0.003530587, -0.0001650448, 0.0002593961
 189735742, 3.756293E-05, 0.003672189, -0.0003449657, 0.0002593961
 189835702, 0.000159383, 0.003590523, -0.0002238915, 0.0002593961
 189935662, 1.447102E-06, 0.003396193, -0.0002554634, 0.0002593961
 190036455, -0.0001262932, 0.003527998, -8.344968E-05, 0.0002615578
 190136415, 0.00011486, 0.003632633, -0.0001152984, 0.0002593961
 190236375, 0.0001014555, 0.003453985, 1.429224E-05, 0.0002593961
 190336335, -1.641648E-05, 0.003623832, -2.127988E-05, 0.0002593961
 190436295, 0.0001298323, 0.003562298, -0.0001161671, 0.0002593961
 190536255, -5.651988E-05, 0.003728569, -0.0001119833, 0.0002593961
 190636215, 5.614576E-05, 0.003633947, 5.299593E-05, 0.0002593961
 190736175, -7.104056E-05, 0.003683524, -0.0001308669, 0.0002593961
 190836135, 8.097004E-05, 0.00368166, -4.792444E-05, 0.0002593961
 190936095, -0.0001237291, 0.003267876, -8.448564E-06, 0.0002593961
 191036055, -5.601798E-05, 0.003572122, -0.0002031134, 0.0002593961
 191136015, -0.0001408357, 0.003545163, -1.697338E-05, 0.0002593961
 191235975, 0.0002397186, 0.003527401, 4.304714E-05, 0.0002593961
 191335935, 9.454751E-05, 0.003594794, 6.964281E-05, 0.0002593961
 191435895, -0.000177253, 0.00346822, -0.0002743195, 0.0002593961
 191535855, -2.549167E-05, 0.003560328, -0.0001800091, 0.0002593961
 191635815, -9.578516E-05, 0.00358041, -5.469159E-05, 0.0002593961
 191735775, 5.423741E-05, 0.003528745, 0.0001130569, 0.0002593961
 191835735, -6.281412E-05, 0.003577343, -1.379057E-05, 0.0002593961
 191935695, 9.871826E-05, 0.003547824, 9.485978E-05, 0.0002593961
 192035655, -3.257662E-05, 0.003706415, -3.561502E-05, 0.0002593961
 192136448, -9.099422E-05, 0.003619271, 1.276697E-05, 0.0002615578
 192236408, -5.542131E-05, 0.003540031, -0.0001843895, 0.0002593961
 192336368, 2.899876E-05, 0.003685779, -7.945098E-05, 0.0002593961
 192436328, 0.0001759182, 0.003677565, 5.214036E-05, 0.0002593961
 192536288, 2.819139E-05, 0.003599897, 0.0002315834, 0.0002593961
 192636248, -2.889518E-05, 0.003876858, -8.637072E-05, 0.0002593961
 192736208, -0.0002185987, 0.003600543, -0.000182546, 0.0002593961
 192836168, -9.297842E-05, 0.003592415, 4.941275E-05, 0.0002593961
 192936128, 0.0001027013, 0.003781373, -2.01669E-05, 0.0002593961
 193036088, 5.638112E-05, 0.00364791, 8.710237E-05, 0.0002593961
 193136048, -0.0001872341, 0.003460343, -5.749904E-05, 0.0002593961
 193236008, 0.0001151799, 0.003534588, -9.081901E-05, 0.0002593961
 193335968, 4.462806E-05, 0.003780875, -0.0002099509, 0.0002593961
 193435928, 9.677516E-05, 0.003641953, -0.0001939153, 0.0002593961
 193535888, -9.962393E-06, 0.003576266, -0.0001424136, 0.0002593961
 193635848, -1.529869E-05, 0.003640349, -1.067093E-05, 0.0002593961
 193735808, -1.800481E-05, 0.003738572, -9.403162E-05, 0.0002593961
 193835768, -2.316747E-05, 0.003399577, 6.782798E-05, 0.0002593961
 193935728, 9.675029E-05, 0.003351699, -0.0001576377, 0.0002593961
 194035688, 1.399793E-05, 0.003572617, -0.0002142383, 0.0002593961
 194136481, -0.0002235051, 0.003705804, 5.115249E-05, 0.0002615578
 194236441, 0.000200662, 0.003391521, -4.883004E-05, 0.0002593961
 194336401, 0.0001391125, 0.00356603, 0.0001587161, 0.0002593961
 194436361, 3.697804E-05, 0.003618648, -0.0001067807, 0.0002593961
 194536321, 3.037434E-05, 0.003748983, 5.423402E-05, 0.0002593961
 194636281, -1.201231E-05, 0.003598038, -8.407447E-05, 0.0002593961
 194736241, 0.0001579599, 0.003663155, -0.0001067486, 0.0002593961
 194836201, -9.089312E-05, 0.003458647, -0.0001349362, 0.0002593961
 194936161, -0.0001550607, 0.003572721, 5.454742E-05, 0.0002593961
 195036121, 8.926958E-05, 0.003606848, -9.221199E-05, 0.0002593961
 195136081, -3.408521E-06, 0.003470889, -0.0003286346, 0.0002593961
 195236041, -0.0002165207, 0.003519089, -4.516821E-05, 0.0002593961
 195336001, 0.0001529008, 0.003473463, -7.4109E-05, 0.0002593961
 195435961, 3.747728E-05, 0.003598789, -0.0001255916, 0.0002593961
 195535921, 7.782497E-05, 0.003595209, -0.0001362744, 0.0002593961
 195635881, 6.045122E-05, 0.003602169, -6.196358E-07, 0.0002593961
 195735841, 0.0002206484, 0.003345298, -0.0002262664, 0.0002593961
 195835801, 1.834792E-05, 0.003540147, 0.0001709051, 0.0002593961
 195935761, 0.0001856493, 0.003557036, -5.455099E-05, 0.0002593961
 196035721, 0.0001289357, 0.003580539, 7.740857E-05, 0.0002593961
 196135681, -2.258081E-05, 0.003442428, 2.150153E-05, 0.0002593961
 196236474, -0.0002540119, 0.003526174, -8.632145E-05, 0.0002615578
 196336434, 2.667072E-05, 0.003647782, -0.0001265544, 0.0002593961
 196436394, 0.0001276178, 0.003518372, -0.0001183978, 0.0002593961
 196536354, 6.668075E-05, 0.003457426, -2.937691E-05, 0.0002593961
 196636314, -0.0002016183, 0.003514451, -6.346309E-05, 0.0002593961
 196736274, -3.15496E-05, 0.003437015, -0.0001092044, 0.0002593961
 196836234, 4.132115E-05, 0.003277127, -2.992624E-05, 0.0002593961
 196936194, -0.0001886336, 0.003508006, -1.952701E-05, 0.0002593961
 197036154, -0.0001275096, 0.003373266, 6.364063E-05, 0.0002593961
 197136114, 1.97198E-05, 0.003719201, -7.03697E-05, 0.0002593961
 197236074, 0.0002720722, 0.003543938, -6.464755E-05, 0.0002593961
 197336034, 0.0001125347, 0.003516417, -8.625632E-05, 0.0002593961
 197435994, -7.569282E-05, 0.003599946, -0.0001014042, 0.0002593961
 197535954, -5.912807E-05, 0.003349771, -0.0001690248, 0.0002593961
 197635914, -1.083622E-05, 0.003552253, -0.0001717524, 0.0002593961
 197735874, 0.0002954487, 0.003616605, -0.0001140126, 0.0002593961
 197835834, 0.0001904299, 0.003659002, -0.0001482073, 0.0002593961
 197935794, 0.0001922546, 0.003651161, -0.0001509122, 0.0002593961
 198035754, 0.000162697, 0.003603564, -0.0002896783, 0.0002593961
 198135714, 4.287139E-05, 0.003745232, -4.074613E-05, 0.0002593961
 198235674, 0.0002288408, 0.00358735, 3.00621E-05, 0.0002593961
 198336467, -2.69277E-05, 0.00351467, -9.630085E-05, 0.0002615578
 198436427, -8.014218E-05, 0.003635018, -5.58427E-05, 0.0002593961
 198536387, -0.000125085, 0.003613647, 4.040774E-06, 0.0002593961
 198636347, 6.570486E-05, 0.003502876, -0.0001366092, 0.0002593961
 198736307, 0.0001210202, 0.003474771, 0.0002189964, 0.0002593961
 198836267, 0.0001482355, 0.003536449, -0.0001645908, 0.0002593961
 198936227, 0.0002262954, 0.003697003, -0.0001161516, 0.0002593961
 199036187, -8.679439E-05, 0.003857114, -2.495006E-05, 0.0002593961
 199136147, -7.494287E-05, 0.003375822, -0.0001224326, 0.0002593961
 199236107, -5.240764E-05, 0.003576817, 1.679106E-05, 0.0002593961
 199336067, -0.0001567148, 0.003418648, -9.501947E-06, 0.0002593961
 199436027, 0.0001994801, 0.003583615, -0.0001596074, 0.0002593961
 199535987, -8.185808E-05, 0.003541985, 1.435063E-05, 0.0002593961
 199635947, 8.907839E-05, 0.003366538, 7.787207E-06, 0.0002593961
 199735907, -3.931098E-06, 0.003598518, 9.529349E-06, 0.0002593961
 199835867, -0.0002417799, 0.003863247, -0.0001280892, 0.0002593961
 199935827, -0.0001130145, 0.003514996, -5.215107E-05, 0.0002593961
 200035787, 0.0002014687, 0.003479519, 4.46725E-05, 0.0002593961
 200135747, -1.839031E-05, 0.003476334, 8.839408E-05, 0.0002593961
 200235707, 0.0002586937, 0.003430488, 0.0001054246, 0.0002593961
 200335667, -0.0001829421, 0.003492877, -0.0003633512, 0.0002593961
 200436460, 0.0001675512, 0.003536594, -0.0001830831, 0.0002615578
 200536420, -7.651432E-05, 0.003706208, -0.000149064, 0.0002593961
 200636380, -0.000182966, 0.003628818, -5.699382E-05, 0.0002593961
 200736340, 8.12138E-05, 0.003512358, 0.0001280749, 0.0002593961
 200836300, 9.640385E-05, 0.003424197, -7.765644E-05, 0.0002593961
 200936260, -5.907082E-05, 0.003522382, 8.666862E-05, 0.0002593961
 201036220, 0.0001745788, 0.003598542, 2.91374E-05, 0.0002593961
 201136180, -7.759418E-05, 0.003478376, -0.0001723649, 0.0002593961
 201236140, -6.035706E-05, 0.003362756, 1.51085E-05, 0.0002593961
 201336100, -0.0002189492, 0.003481616, 8.207016E-05, 0.0002593961
 201436060, -0.0001599779, 0.003551625, -8.355732E-05, 0.0002593961
 201536020, 5.459843E-05, 0.003470192, -8.841791E-05, 0.0002593961
 201635980, 6.204853E-05, 0.003367601, 0.0001621861, 0.0002593961
 201735940, -7.557299E-05, 0.003489593, -8.72275E-05, 0.0002593961
 201835900, -0.000157737, 0.003571056, -6.208361E-07, 0.0002593961
 201935860, 1.5814E-05, 0.003584342, -8.022675E-05, 0.0002593961
 202035820, 0.0001606037, 0.003502217, -0.0001317069, 0.0002593961
 202135780, 6.581688E-05, 0.003677411, 9.400776E-05, 0.0002593961
 202235740, -1.283086E-06, 0.003522114, -0.0002706208, 0.0002593961
 202335700, 0.0001901983, 0.003605809, -7.716189E-05, 0.0002593961
 202435660, -1.348748E-05, 0.003406745, -0.0001903833, 0.0002593961
 202536453, 0.0002302103, 0.003544031, -5.04034E-05, 0.0002615578
 202636413, 9.901175E-05, 0.003429202, 1.225935E-05, 0.0002593961
 202736373, 6.337139E-05, 0.003640016, -7.200817E-05, 0.0002593961
 202836333, 0.0001062014, 0.003476483, -7.613355E-05, 0.0002593961
 202936293, -3.921196E-05, 0.003512225, -0.0002271399, 0.0002593961
 203036253, 0.0001355788, 0.003717599, 7.493717E-05, 0.0002593961
 203136213, 7.99268E-05, 0.00354817, -8.64887E-05, 0.0002593961
 203236173, -0.0001709704, 0.003614121, -0.0002581637, 0.0002593961
 203336133, -6.602753E-05, 0.0035899, -0.0001403938, 0.0002593961
 203436093, 0.0001741211, 0.003328424, 4.241676E-05, 0.0002593961
 203536053, -0.0001824217, 0.003742605, 0.0001906276, 0.0002593961
 203636013, 0.0002495859, 0.003588741, 2.900155E-05, 0.0002593961
 203735973, 3.084042E-05, 0.003697969, -0.0001101315, 0.0002593961
 203835933, 7.392837E-06, 0.003704722, -1.914093E-05, 0.0002593961
 203935893, 0.000146891, 0.003735396, -5.558411E-05, 0.0002593961
 204035853, 9.579361E-05, 0.003503488, -0.0001337315, 0.0002593961
 204135813, -1.693193E-05, 0.003515371, 2.265142E-05, 0.0002593961
 204235773, 9.371296E-05, 0.003659365, -0.0001564747, 0.0002593961
 204335733, 8.387562E-05, 0.003669612, -0.0002367479, 0.0002593961
 204435693, 1.554251E-05, 0.003471066, -7.801749E-05, 0.0002593961
 204536486, 1.773132E-05, 0.003515138, 8.717985E-05, 0.0002593961
 204636446, 4.197533E-05, 0.003546791, 0.0001501107, 0.0002615578
 204736406, 0.0001320686, 0.003385704, 0.0001356047, 0.0002593961
 204836366, 6.068871E-05, 0.00336892, 3.51062E-05, 0.0002593961
 204936326, 3.609272E-05, 0.003525224, -0.0001136849, 0.0002593961
 205036286, -7.159056E-05, 0.003687955, -0.000271611, 0.0002593961
 205136246, -3.444835E-05, 0.003567819, -1.264664E-05, 0.0002593961
 205236206, 2.187256E-05, 0.003551074, -0.0001614235, 0.0002593961
 205336166, -3.49564E-05, 0.003412328, 4.73322E-05, 0.0002593961
 205436126, 0.0001186898, 0.003435081, 2.170528E-05, 0.0002593961
 205536086, 0.0002276828, 0.00369645, -0.0001446443, 0.0002593961
 205636046, 6.212365E-05, 0.003568045, -0.0001074444, 0.0002593961
 205736006, -3.945284E-05, 0.003424398, -9.657096E-05, 0.0002593961
 205835966, -9.998876E-05, 0.003733167, -4.335095E-06, 0.0002593961
 205935926, 0.0001905015, 0.003518174, -0.0001275077, 0.0002593961
 206035886, -4.653121E-05, 0.00344203, -0.000206258, 0.0002593961
 206135846, 0.0003088837, 0.003461732, -0.0001089626, 0.0002593961
 206235806, -7.462894E-05, 0.003475517, -2.953657E-05, 0.0002593961
 206335766, 0.000123861, 0.003399602, 1.423862E-05, 0.0002593961
 206435726, 0.0001078837, 0.003432361, 4.653499E-05, 0.0002593961
 206535686, 5.898113E-05, 0.003436686, -0.0001008739, 0.0002593961
 206636479, 2.751865E-05, 0.003696718, 5.176381E-05, 0.0002615578
 206736439, 0.0001641881, 0.003587337, -6.022427E-06, 0.0002593961
 206836399, -0.0001337904, 0.003700115, 1.917429E-05, 0.0002593961
 206936359, -0.0001385554, 0.003265489, -5.320328E-05, 0.0002593961
 207036319, 9.940206E-05, 0.003662704, -0.0002543743, 0.0002593961
 207136279, 5.434203E-05, 0.003655105, -5.019442E-05, 0.0002593961
 207236239, 0.0001009441, 0.003390975, 2.658616E-05, 0.0002593961
 207336199, 1.501913E-05, 0.003438137, -3.290052E-05, 0.0002593961
 207436159, -0.0001299991, 0.003449552, 8.801634E-05, 0.0002593961
 207536119, 0.0001691915, 0.003368072, -0.0002497461, 0.0002593961
 207636079, 4.36405E-05, 0.003653364, 5.544709E-05, 0.0002593961
 207736039, -4.046166E-05, 0.00343127, -7.520282E-06, 0.0002593961
 207835999, 6.019583E-06, 0.003391761, 5.739657E-05, 0.0002593961
 207935959, 5.722932E-05, 0.00370741, -0.0001747898, 0.0002593961
 208035919, -0.0001431644, 0.003732994, 0.0001089113, 0.0002593961
 208135879, 2.96541E-05, 0.003490739, 7.380035E-05, 0.0002593961
 208235839, 0.0002115954, 0.00362466, -0.0001263363, 0.0002593961
 208335799, -0.0001545482, 0.003589908, 0.0002490073, 0.0002593961
 208435759, 1.108962E-05, 0.003538711, -8.843698E-05, 0.0002593961
 208535719, 0.0001153977, 0.003634745, -0.0001180474, 0.0002593961
 208635679, -2.179429E-05, 0.003661473, -0.0001386838, 0.0002593961
 208736472, -3.191574E-05, 0.003779447, 8.032674E-06, 0.0002615578
 208836432, 0.0001632625, 0.003652377, -4.982743E-05, 0.0002593961
 208936392, 0.0001064193, 0.003645644, -0.000123144, 0.0002593961
 209036352, 0.0002197069, 0.003450062, 0.0002525034, 0.0002593961
 209136312, 0.0001357226, 0.003561528, -1.487971E-05, 0.0002593961
 209236272, -2.413017E-07, 0.00355079, 3.252516E-05, 0.0002593961
 209336232, 9.32964E-05, 0.003760078, -2.013354E-05, 0.0002593961
 209436192, -4.471114E-05, 0.003389119, -0.000102597, 0.0002593961
 209536152, -0.000209916, 0.003485029, -4.137172E-05, 0.0002593961
 209636112, 2.517052E-05, 0.00357967, 0.0001292129, 0.0002593961
 209736072, -5.749331E-05, 0.003423675, -9.330594E-05, 0.0002593961
 209836032, -7.543353E-05, 0.003758822, 5.304121E-05, 0.0002593961
 209935992, 7.564967E-05, 0.003495902, 0.0001038398, 0.0002593961
 210035952, 8.609215E-05, 0.0036353, -3.367269E-05, 0.0002593961
 210135912, -0.000148613, 0.003528146, 1.456632E-05, 0.0002593961
 210235872, -5.023148E-05, 0.00359518, 0.0001931931, 0.0002593961
 210335832, 4.653521E-05, 0.003603354, -0.0001431071, 0.0002593961
 210435792, 1.437386E-05, 0.003515655, 6.568186E-05, 0.0002593961
 210535752, -0.0001214428, 0.003216768, 2.588191E-06, 0.0002593961
 210635712, 7.725247E-05, 0.00340648, -3.99966E-05, 0.0002593961
 210735672, -0.0001106803, 0.003528343, 0.0001214924, 0.0002593961
 210836465, 3.223621E-05, 0.003709295, -6.183295E-06, 0.0002615578
 210936425, -6.636686E-05, 0.003637417, 2.317098E-05, 0.0002593961
 211036385, 0.0001894557, 0.003594701, -7.012663E-06, 0.0002593961
 211136345, -4.982042E-06, 0.003338794, -1.605942E-05, 0.0002593961
 211236305, -2.306407E-05, 0.003480085, -0.0002874107, 0.0002593961
 211336265, -0.0001698682, 0.003493667, -0.0002008541, 0.0002593961
 211436225, -9.63163E-05, 0.003688762, 1.318286E-05, 0.0002593961
 211536185, -3.982645E-05, 0.003416079, -0.0003956904, 0.0002593961
 211636145, -5.751614E-05, 0.003531169, -3.460691E-05, 0.0002593961
 211736105, -0.0001901439, 0.003501757, 4.299946E-05, 0.0002593961
 211836065, -0.00017561, 0.003513634, -8.704279E-05, 0.0002593961
 211936025, 9.329429E-05, 0.003646546, 7.992766E-05, 0.0002593961
 212035985, 4.040222E-05, 0.003635487, -0.0001054247, 0.0002593961
 212135945, 8.746973E-05, 0.003364324, -6.313183E-05, 0.0002593961
 212235905, 7.675808E-07, 0.003586137, 0.0001739271, 0.0002593961
 212335865, -1.838791E-05, 0.003581726, 1.497742E-05, 0.0002593961
 212435825, 0.0001604177, 0.003318666, -0.0001400363, 0.0002593961
 212535785, -2.859042E-05, 0.003595328, 9.25707E-05, 0.0002593961
 212635745, 8.533098E-05, 0.003429679, -2.451156E-06, 0.0002593961
 212735705, -0.0001176138, 0.003438716, -5.786726E-05, 0.0002593961
 212835665, -0.0002116741, 0.00345026, -6.822956E-05, 0.0002593961
 212936458, 0.0001071929, 0.003471171, -0.0002087922, 0.0002615578
 213036418, -9.921536E-05, 0.003476586, -0.0002511152, 0.0002593961
 213136378, 0.000147976, 0.003626647, 8.235854E-05, 0.0002593961
 213236338, -1.364759E-05, 0.00365416, 0.0001282429, 0.0002593961
 213336298, 3.071938E-05, 0.003495211, -2.516574E-05, 0.0002593961
 213436258, 1.700319E-05, 0.003544334, -6.194735E-05, 0.0002593961
 213536218, -1.229644E-05, 0.003553637, -6.238229E-05, 0.0002593961
 213636178, 2.725385E-05, 0.003376033, -0.0001757955, 0.0002593961
 213736138, -9.427654E-05, 0.003564056, -3.876207E-05, 0.0002593961
 213836098, 6.462532E-05, 0.0034373, -6.990259E-05, 0.0002593961
 213936058, 0.00010308, 0.003602429, -7.096429E-05, 0.0002593961
 214036018, 0.0002224455, 0.003722942, 6.630629E-05, 0.0002593961
 214135978, 1.983603E-05, 0.003710347, -2.430301E-05, 0.0002593961
 214235938, 4.48818E-05, 0.003524215, -1.564949E-05, 0.0002593961
 214335898, 0.0004517497, 0.003511302, 8.33559E-05, 0.0002593961
 214435858, 8.868266E-05, 0.003549499, -3.348681E-05, 0.0002593961
 214535818, 0.0001528646, 0.003636779, -0.0001798196, 0.0002593961
 214635778, 6.776757E-05, 0.003634942, -9.034476E-05, 0.0002593961
 214735738, 4.152858E-05, 0.003792126, -1.237494E-05, 0.0002593961
 214835698, 0.0001040109, 0.003714131, -7.659708E-05, 0.0002593961
 214935658, 3.650521E-06, 0.003578031, -0.0003335393, 0.0002593961
 215036451, 7.219354E-05, 0.003567534, -0.0002009998, 0.0002615578
 215136411, -0.0001106914, 0.003715854, -2.434115E-05, 0.0002593961
 215236371, -8.510105E-06, 0.00371369, -6.44902E-06, 0.0002593961
 215336331, -5.399342E-05, 0.003518581, -3.092247E-06, 0.0002593961
 215436291, 0.0001098883, 0.003295614, 1.897768E-05, 0.0002593961
 215536251, -4.087657E-05, 0.003593557, -8.626585E-05, 0.0002593961
 215636211, 1.184472E-05, 0.003486664, 2.567813E-05, 0.0002593961
 215736171, 0.0002615643, 0.003420181, -0.0001269345, 0.0002593961
 215836131, 0.0001563638, 0.003407774, 0.0001117176, 0.0002593961
 215936091, 0.0001173777, 0.003414695, -5.938896E-05, 0.0002593961
 216036051, 5.46757E-06, 0.003421776, -4.215934E-06, 0.0002593961
 216136011, -1.821888E-06, 0.003543578, -7.431515E-05, 0.0002593961
 216235971, 6.963505E-05, 0.003393037, 8.408281E-05, 0.0002593961
 216335931, 0.0002237165, 0.003283409, -0.0002067788, 0.0002593961
 216435891, 0.0001204068, 0.003721661, -0.0001099719, 0.0002593961
 216535851, -8.181762E-05, 0.003452492, -0.000111179, 0.0002593961
 216635811, -0.0001002094, 0.003459185, 8.774584E-05, 0.0002593961
 216735771, -0.000236994, 0.00349592, -0.0002007992, 0.0002593961
 216835731, 3.805287E-05, 0.00336529, -0.0002572044, 0.0002593961
 216935691, 2.904706E-07, 0.003494173, -0.0002803896, 0.0002593961
 217036484, 6.631459E-05, 0.003473671, -0.0002463507, 0.0002615578
 217136444, 2.033522E-05, 0.003422924, -8.263501E-05, 0.0002593961
 217236404, 0.0001502908, 0.003538058, 0.0001657252, 0.0002593961
 217336364, 1.342505E-05, 0.003450356, 6.069021E-05, 0.0002593961
 217436324, 2.423169E-05, 0.003458219, -0.0002027618, 0.0002593961
 217536284, -0.0001995341, 0.003507052, 2.56364E-05, 0.0002593961
 217636244, -0.0001308487, 0.003453117, -0.0001194404, 0.0002593961
 217736204, -0.0001113077, 0.003689528, 9.159595E-05, 0.0002593961
 217836164, -0.0001542456, 0.003651095, -3.01181E-05, 0.0002593961
 217936124, 9.24114E-05, 0.00352297, -0.0001933826, 0.0002593961
 218036084, -7.738087E-05, 0.00355519, -3.033258E-05, 0.0002593961
 218136044, -4.918783E-05, 0.003504717, -2.013593E-05, 0.0002593961
 218236004, 5.232648E-05, 0.003459787, -7.315571E-05, 0.0002593961
 218335964, 2.567616E-05, 0.003695638, 2.45866E-05, 0.0002593961
 218435924, 0.0002011718, 0.003555961, -0.0001545109, 0.0002593961
 218535884, 2.9546E-05, 0.003521364, -0.0003285452, 0.0002593961
 218635844, -6.226252E-05, 0.003543902, -6.120146E-06, 0.0002593961
 218735804, 5.747305E-05, 0.003572392, -8.486927E-05, 0.0002593961
 218835764, 7.238294E-05, 0.003612576, -0.0001926712, 0.0002593961
 218935724, -4.823917E-05, 0.003675992, 2.536473E-05, 0.0002593961
 219035684, -4.756174E-05, 0.003572986, -0.0001670098, 0.0002593961
 219136477, 0.0002089417, 0.003918294, -0.0001566081, 0.0002615578
 219236437, 7.049171E-05, 0.003610894, -7.215475E-05, 0.0002593961
 219336397, 5.311218E-05, 0.003481918, 0.0001197372, 0.0002593961
 219436357, 0.0002104536, 0.003595524, -0.0001550876, 0.0002593961
 219536317, 2.940088E-05, 0.003499779, -0.0003663659, 0.0002593961
 219636277, -7.098007E-05, 0.003437033, 5.153142E-05, 0.0002593961
 219736237, -1.482534E-05, 0.003693828, -0.0001479522, 0.0002593961
 219836197, 0.0001029512, 0.003560417, -1.85761E-05, 0.0002593961
 219936157, -1.775946E-05, 0.003492199, -0.0002026629, 0.0002593961
 220036117, 5.267799E-05, 0.003674967, 9.743855E-06, 0.0002593961
 220136077, 0.000111672, 0.00358502, -0.0001484599, 0.0002593961
 220236037, 5.080333E-06, 0.00323857, -4.455214E-05, 0.0002593961
 220335997, -7.528501E-05, 0.00351853, 3.051728E-05, 0.0002593961
 220435957, 4.750933E-05, 0.003621395, -1.702938E-05, 0.0002593961
 220535917, -2.691333E-05, 0.003503011, -4.011933E-05, 0.0002593961
 220635877, -7.273554E-05, 0.003778569, -7.970481E-05, 0.0002593961
 220735837, 6.119649E-05, 0.003526049, 0.0001197813, 0.0002593961
 220835797, -0.0001685806, 0.00377609, -2.573057E-05, 0.0002593961
 220935757, 5.634782E-05, 0.003633538, -0.0002527846, 0.0002593961
 221035717, 4.217257E-05, 0.003554321, 5.546854E-05, 0.0002593961
 221135677, 0.0002365956, 0.003532155, -2.021815E-05, 0.0002593961
 221236470, -2.230243E-05, 0.003504778, -0.0002890479, 0.0002615578
 221336430, -0.0001323869, 0.003610544, -0.0002932186, 0.0002593961
 221436390, 5.963512E-05, 0.003646339, 3.386695E-05, 0.0002593961
 221536350, 0.0001321903, 0.003553332, 0.0002141263, 0.0002593961
 221636310, 0.0002262936, 0.003450583, -0.0002393087, 0.0002593961
 221736270, -0.0001202268, 0.003429006, -0.000202396, 0.0002593961
 221836230, -0.0001132685, 0.00361542, -0.0001410933, 0.0002593961
 221936190, 0.0001162298, 0.003705286, -6.151957E-05, 0.0002593961
 222036150, 0.0001044237, 0.0036336, -7.107993E-06, 0.0002593961
 222136110, 4.0869E-05, 0.003567319, -5.055193E-05, 0.0002593961
 222236070, -1.992847E-06, 0.003639422, -0.0001254569, 0.0002593961
 222336030, -5.711428E-05, 0.003663829, -0.0002206491, 0.0002593961
 222435990, -1.91789E-05, 0.003627887, -0.0001479868, 0.0002593961
 222535950, -0.000204705, 0.003505137, -0.0001894574, 0.0002593961
 222635910, 1.622423E-05, 0.003440409, -5.272425E-05, 0.0002593961
 222735870, 0.0001462615, 0.00353836, -0.000784218, 0.0002593961
 222835830, 0.0004017214, 0.003937045, -0.1511462, 0.0002593961
 222935790, 0.0001862477, 0.003692907, -0.143769, 0.0002593961
 223035750, -6.962532E-05, 0.003622065, -0.01194247, 0.0002593961
 223135710, -0.0001012751, 0.003406999, 0.05119362, 0.0002593961
 223235670, -0.0002331092, 0.003457867, 0.05230298, 0.0002593961
 223336463, -4.447471E-05, 0.003559637, -0.05471937, 0.0002615578
 223436423, -0.0005815065, 0.002779811, -0.6288955, 0.0002593961
 223536383, -0.003054257, 0.0001610847, -0.663036, 0.0002593961
 223636343, -0.006027034, -0.00245693, -0.3803563, 0.0002593961
 223736303, -0.007600159, -0.003911713, -0.1417237, 0.0002593961
 223836263, -0.00830081, -0.004238298, -0.05251435, 0.0002593961
 223936223, -0.008151341, -0.004038922, -0.06503989, 0.0002593961
 224036183, -0.007643765, -0.003572277, -0.1029023, 0.0002593961
 224136143, -0.00694527, -0.002983673, -0.1234467, 0.0002593961
 224236103, -0.006357317, -0.002430267, -0.1214402, 0.0002593961
 224336063, -0.005773166, -0.001974928, -0.1086046, 0.0002593961
 224436023, -0.005298556, -0.00134222, -0.09533296, 0.0002593961
 224535983, -0.004888099, -0.0009365809, -0.08631458, 0.0002593961
 224635943, -0.004281016, -0.000463087, -0.08099759, 0.0002593961
 224735903, -0.003726813, -3.980025E-05, -0.07679893, 0.0002593961
 224835863, -0.003443978, 0.0002975461, -0.07268487, 0.0002593961
 224935823, -0.002907613, 0.0006360043, -0.06842643, 0.0002593961
 225035783, -0.002537399, 0.00111416, -0.06406023, 0.0002593961
 225135743, -0.001935682, 0.001372279, -0.05978177, 0.0002593961
 225235703, -0.001575486, 0.001671712, -0.05595801, 0.0002593961
 225335663, -0.001201803, 0.002029415, -0.05240978, 0.0002593961
 225436456, -0.0009161014, 0.002085029, -0.04955779, 0.0002615578
 225536416, -0.0007083216, 0.002178955, -0.04611778, 0.0002593961
 225636376, -0.0006301153, 0.00228989, -0.04306145, 0.0002593961
 225736336, -0.0005203751, 0.002393305, -0.04039523, 0.0002593961
 225836296, -0.0005076956, 0.00242383, -0.03785867, 0.0002593961
 225936256, -0.0007899079, 0.002230433, -0.03482, 0.0002593961
 226036216, -0.001030501, 0.002295818, -0.03280137, 0.0002593961
 226136176, -0.0009978132, 0.002285493, -0.03078431, 0.0002593961
 226236136, -0.0009932909, 0.002391121, -0.02930077, 0.0002593961
 226336096, -0.001255511, 0.002353371, -0.02751482, 0.0002593961
 226436056, -0.001194903, 0.002463418, -0.02586559, 0.0002593961
 226536016, -0.001134462, 0.002494815, -0.02402053, 0.0002593961
 226635976, -0.001196291, 0.002564919, -0.02258025, 0.0002593961
 226735936, -0.001253982, 0.002422422, -0.0211431, 0.0002593961
 226835896, -0.0007779041, 0.003021839, 0.07197002, 0.0002593961
 226935856, 0.0001277053, 0.003985195, 0.2894091, 0.0002593961
 227035816, 0.0001751719, 0.003692937, 0.2691658, 0.0002593961
 227135776, 0.0003754937, 0.003747819, 0.2454881, 0.0002593961
 227235736, 0.0009267828, 0.004825957, 0.3308497, 0.0002593961
 227335696, 0.002397503, 0.006883002, 0.3503141, 0.0002593961
 227435656, 0.00391017, 0.007654122, 0.3027422, 0.0002593961
 227536449, 0.003547744, 0.007517718, 0.2544197, 0.0002615578
 227636409, 0.0003348734, 0.006923641, 0.2097226, 0.0002593961
 227736369, -0.003118896, 0.006949674, 0.172693, 0.0002593961
 227836329, 0.0002148686, 0.00748087, 0.1448546, 0.0002593961
 227936289, 0.01437587, 0.00690956, 0.1224929, 0.0002593961
 228036249, 0.03668095, 0.004824392, 0.1058158, 0.0002593961
 228136209, 0.06026912, 0.001352532, 0.09293272, 0.0002593961
 228236169, 0.07932316, -0.002215567, 0.08265115, 0.0002593961
 228336129, 0.09036468, -0.005880881, 0.07141526, 0.0002593961
 228436089, 0.09397576, -0.00920118, 0.05903459, 0.0002593961
 228536049, 0.09107113, -0.007469969, 0.04828966, 0.0002593961
 228636009, 0.08549775, 0.0008680632, 0.03976048, 0.0002593961
 228735969, 0.08047796, 0.01177292, 0.03210199, 0.0002593961
 228835929, 0.07822179, 0.02049717, 0.02557101, 0.0002593961
 228935889, 0.07960156, 0.02509081, 0.02008722, 0.0002593961
 229035849, 0.0833539, 0.02557313, 0.01528885, 0.0002593961
 229135809, 0.08772071, 0.02330108, 0.01128545, 0.0002593961
 229235769, 0.09093812, 0.02018917, 0.00823953, 0.0002593961
 229335729, 0.0904088, 0.01675317, 0.004150705, 0.0002593961
 229435689, 0.08593234, 0.01345323, -0.0003344914, 0.0002593961
 229536482, 0.08079617, 0.01274653, -0.004556677, 0.0002615578
 229636442, 0.07533672, 0.01668048, -0.008516133, 0.0002593961
 229736402, 0.07418904, 0.0280864, -0.009748418, 0.0002593961
 229836362, 0.0782593, 0.04422948, -0.009976749, 0.0002593961
 229936322, 0.08476912, 0.05786732, -0.01447195, 0.0002593961
 230036282, 0.09109812, 0.06412008, -0.02125595, 0.0002593961
 230136242, 0.09583151, 0.06352746, -0.02659669, 0.0002593961
 230236202, 0.09875274, 0.05889355, -0.02971699, 0.0002593961
 230336162, 0.09999616, 0.04815967, -0.0318661, 0.0002593961
 230436122, 0.1013905, 0.0314742, -0.03369961, 0.0002593961
 230536082, 0.1062508, 0.01231871, -0.03365222, 0.0002593961
 230636042, 0.1152261, -0.005103205, -0.03269207, 0.0002593961
 230736002, 0.1242694, -0.01743312, -0.03211557, 0.0002593961
 230835962, 0.1298356, -0.02446724, -0.03205939, 0.0002593961
 230935922, 0.1294224, -0.0287402, -0.03306542, 0.0002593961
 231035882, 0.1240936, -0.03148094, -0.0342968, 0.0002593961
 231135842, 0.1158101, -0.03306399, -0.03488315, 0.0002593961
 231235802, 0.1079822, -0.03726808, -0.03344239, 0.0002593961
 231335762, 0.1033661, -0.04520054, -0.03238771, 0.0002593961
 231435722, 0.101579, -0.05281261, -0.03324535, 0.0002593961
 231535682, 0.1017558, -0.05745152, -0.03459344, 0.0002593961
 231636475, 0.1035011, -0.05702459, -0.03583107, 0.0002615578
 231736435, 0.1012461, -0.04717684, -0.03608776, 0.0002593961
 231836395, 0.09762151, -0.02979559, -0.03641292, 0.0002593961
 231936355, 0.09305143, -0.00667522, -0.03570553, 0.0002593961
 232036315, 0.08931986, 0.01824274, -0.03444096, 0.0002593961
 232136275, 0.08698088, 0.04371312, -0.03262755, 0.0002593961
 232236235, 0.08669412, 0.06715595, -0.0308254, 0.0002593961
 232336195, 0.0888515, 0.08535413, -0.02947304, 0.0002593961
 232436155, 0.09259587, 0.09548, -0.02883468, 0.0002593961
 232536115, 0.09480844, 0.09700343, -0.02963091, 0.0002593961
 232636075, 0.09359541, 0.09103612, -0.03103539, 0.0002593961
 232736035, 0.09133711, 0.07664137, -0.03213483, 0.0002593961
 232835995, 0.09117372, 0.05624209, -0.03257934, 0.0002593961
 232935955, 0.09339868, 0.03341929, -0.03160644, 0.0002593961
 233035915, 0.09764873, 0.01260299, -0.03034943, 0.0002593961
 233135875, 0.1026999, -0.005858405, -0.02929034, 0.0002593961
 233235835, 0.1066285, -0.02068015, -0.02859775, 0.0002593961
 233335795, 0.1080872, -0.02953566, -0.02746145, 0.0002593961
 233435755, 0.1070189, -0.03116454, -0.02624772, 0.0002593961
 233535715, 0.09901445, -0.02700577, -0.0150079, 0.0002593961
 233635675, 0.07782659, -0.01997137, 0.01304282, 0.0002593961
 233736468, 0.05309638, -0.01237349, 0.02490712, 0.0002615578
 233836428, 0.02479464, -0.005384762, 0.03340437, 0.0002593961
 233936388, 0.001999611, -0.001582905, 0.04104136, 0.0002593961
 234036348, -0.01084253, -0.001579703, 0.04788096, 0.0002593961
 234136308, -0.0140793, -0.002696687, 0.05289704, 0.0002593961
 234236268, -0.01020226, -0.002674603, 0.05338335, 0.0002593961
 234336228, -0.003851085, -0.001784803, 0.05107254, 0.0002593961
 234436188, 0.001229488, -0.0003351421, 0.04837803, 0.0002593961
 234536148, 0.003490375, 0.001804094, 0.04401369, 0.0002593961
 234636108, 0.003354576, 0.004620547, 0.03925463, 0.0002593961
 234736068, 0.001476374, 0.009188939, 0.03430714, 0.0002593961
 234836028, -0.001088526, 0.01549314, 0.02994109, 0.0002593961
 234935988, -0.002795073, 0.02136662, 0.02528241, 0.0002593961
 235035948, -0.003688178, 0.02493213, 0.02142983, 0.0002593961
 235135908, -0.003246396, 0.02573805, 0.01725395, 0.0002593961
 235235868, -0.002006419, 0.02346258, 0.01453262, 0.0002593961
 235335828, -0.0006145585, 0.01848088, 0.01172762, 0.0002593961
 235435788, 0.002848833, 0.01184653, 0.003293129, 0.0002593961
 235535748, 0.005151353, 0.005990761, -0.003424453, 0.0002593961
 235635708, 0.005113647, 0.002004568, -0.006487861, 0.0002593961
 235735668, 0.004341821, -0.001148419, -0.008291859, 0.0002593961
 235836461, 0.002776444, -0.005026539, -0.008340736, 0.0002615578
 235936421, 0.001343619, -0.008709391, -0.008122763, 0.0002593961
 236036381, 0.0002693359, -0.01135862, -0.008187999, 0.0002593961
 236136341, -0.000343029, -0.01263139, -0.008013439, 0.0002593961
 236236301, -0.000238204, -0.01314619, -0.008414892, 0.0002593961
 236336261, -0.0004426377, -0.01158844, -0.007825861, 0.0002593961
 236436221, -0.001195168, -0.007729107, -0.005951379, 0.0002593961
 236536181, -0.002067775, -0.003841684, -0.003838668, 0.0002593961
 236636141, -0.002843888, -0.002251351, -0.002117713, 0.0002593961
 236736101, -0.003341273, -0.002203305, -0.0004324135, 0.0002593961
 236836061, -0.003182894, -0.00289355, -0.0005124056, 0.0002593961
 236936021, -0.003271485, -0.002710003, -0.000642704, 0.0002593961
 237035981, -0.003635622, -0.0007742113, 0.001083028, 0.0002593961
 237135941, -0.003650599, 0.001073605, 0.001436869, 0.0002593961
 237235901, -0.003470821, 0.002114248, 0.0008705099, 0.0002593961
 237335861, -0.003195248, 0.002477456, 0.000813185, 0.0002593961
 237435821, -0.003668112, 0.002744503, 0.002071399, 0.0002593961
 237535781, -0.003978615, 0.003679744, 0.003269006, 0.0002593961
 237635741, -0.004914294, 0.005730946, 0.006665629, 0.0002593961
 237735701, -0.005778747, 0.007697452, 0.008689377, 0.0002593961
 237835661, -0.005219488, 0.008514828, 0.008165309, 0.0002593961
 237936454, -0.004294679, 0.005683786, 0.007474802, 0.0002615578
 238036414, -0.002851109, -0.001003719, 0.006120135, 0.0002593961
 238136374, -0.001720485, -0.006983841, 0.004432191, 0.0002593961
 238236334, -0.0008968514, -0.008651086, 0.002879737, 0.0002593961
 238336294, -0.0003732218, -0.006109367, 0.001179857, 0.0002593961
 238436254, -0.0005091767, -0.001412029, -0.0005996868, 0.0002593961
 238536214, -0.006666278, 0.002643166, 0.0144195, 0.0002593961
 238636174, -0.006101429, 0.005470798, 0.01071195, 0.0002593961
 238736134, -0.002155473, 0.006133602, 0.0014145, 0.0002593961
 238836094, 0.0009113777, 0.005742701, -0.004660212, 0.0002593961
 238936054, 0.003059945, 0.004730552, -0.008844321, 0.0002593961
 239036014, 0.003360488, 0.003180714, -0.01039585, 0.0002593961
 239135974, 0.002257547, 0.002523848, -0.01111848, 0.0002593961
 239235934, 0.0001910739, 0.002647464, -0.008782381, 0.0002593961
 239335894, -0.001986238, 0.003507995, -0.006319637, 0.0002593961
 239435854, -0.002749953, 0.004365286, -0.005956504, 0.0002593961
 239535814, -0.002883214, 0.004821993, -0.00578375, 0.0002593961
 239635774, -0.001000169, 0.005309262, -0.01032668, 0.0002593961
 239735734, -8.265882E-05, 0.005250279, -0.01291814, 0.0002593961
 239835694, -0.0009566335, 0.004206527, -0.0113258, 0.0002593961
 239935654, -0.002469, 0.001915097, -0.008950486, 0.0002593961
 240036447, -0.004840039, -0.0008545857, -0.003068071, 0.0002615578
 240136407, -0.00647088, -0.00261774, 0.002157901, 0.0002593961
 240236367, -0.008200142, -0.002180173, 0.008610375, 0.0002593961
 240336327, -0.008925205, 8.562885E-05, 0.01365611, 0.0002593961
 240436287, -0.008331111, 0.002371211, 0.01640227, 0.0002593961
 240536247, -0.007026997, 0.003819926, 0.01701039, 0.0002593961
 240636207, -0.005046459, 0.004287303, 0.01520404, 0.0002593961
 240736167, -0.003322362, 0.002336878, 0.0121151, 0.0002593961
 240836127, -0.002454642, -0.002387595, 0.01028771, 0.0002593961
 240936087, -0.002082243, -0.006981281, 0.008118614, 0.0002593961
 241036047, -0.001170443, -0.01045183, 0.003679479, 0.0002593961
 241136007, -0.0007110579, -0.01184537, -0.0001901247, 0.0002593961
 241235967, -0.001964665, -0.0109497, 0.001589758, 0.0002593961
 241335927, -0.002938198, -0.007070845, 0.002795103, 0.0002593961
 241435887, -0.002108122, -0.001015501, -0.0001950781, 0.0002593961
 241535847, -0.001220761, 0.006178143, -0.002901044, 0.0002593961
 241635807, -0.0004239672, 0.01216886, -0.004589453, 0.0002593961
 241735767, -0.0004696242, 0.01703536, -0.006049789, 0.0002593961
 241835727, -0.0003251227, 0.01987457, -0.008816953, 0.0002593961
 241935687, -0.0007581731, 0.01988568, -0.01044961, 0.0002593961
 242036480, -0.002280955, 0.01731882, -0.008637963, 0.0002615578
 242136440, -0.003537494, 0.01355242, -0.006265433, 0.0002593961
 242236400, -0.01626603, 0.009360855, 0.02794184, 0.0002593961
 242336360, -0.03383323, 0.005808456, 0.05974606, 0.0002593961
 242436320, -0.05223631, 0.002702873, 0.07259078, 0.0002593961
 242536280, -0.07115255, -0.000341329, 0.07991718, 0.0002593961
 242636240, -0.08642772, -0.002939485, 0.08365972, 0.0002593961
 242736200, -0.09544777, -0.003358886, 0.08436634, 0.0002593961
 242836160, -0.09830046, -0.000372678, 0.08245636, 0.0002593961
 242936120, -0.09741145, 0.003893949, 0.07829122, 0.0002593961
 243036080, -0.09471646, 0.007914819, 0.0724197, 0.0002593961
 243136040, -0.09306205, 0.01071, 0.06540257, 0.0002593961
 243236000, -0.09656384, 0.01154938, 0.07621211, 0.0002593961
 243335960, -0.09316827, 0.010247, 0.08434543, 0.0002593961
 243435920, -0.07733567, 0.007392372, 0.08552321, 0.0002593961
 243535880, -0.05463547, 0.001484545, 0.08390882, 0.0002593961
 243635840, -0.0308479, -0.006448698, 0.08064119, 0.0002593961
 243735800, -0.01232842, -0.0124685, 0.07515506, 0.0002593961
 243835760, -0.0005676887, -0.01422451, 0.06881162, 0.0002593961
 243935720, 0.004265204, -0.01270953, 0.06240688, 0.0002593961
 244035680, 0.005185645, -0.00914912, 0.05585006, 0.0002593961
 244136473, 0.006865805, -0.004625097, 0.05106483, 0.0002615578
 244236433, 0.0120801, 0.0003127628, 0.04644412, 0.0002593961
 244336393, 0.01983385, 0.003087313, 0.04306198, 0.0002593961
 244436353, 0.02889051, 0.002934512, 0.03934648, 0.0002593961
 244536313, 0.03717297, 0.001909737, 0.03574485, 0.0002593961
 244636273, 0.04358417, 0.002308859, 0.03260629, 0.0002593961
 244736233, 0.04807987, 0.002909328, 0.02937758, 0.0002593961
 244836193, 0.05131822, 0.003086678, 0.02706314, 0.0002593961
 244936153, 0.05362388, 0.001774397, 0.02524918, 0.0002593961
 245036113, 0.05730562, -0.001003281, 0.0211798, 0.0002593961
 245136073, 0.06585991, -0.0042724, -0.0003662957, 0.0002593961
 245236033, 0.06122979, -0.007010609, -0.01291576, 0.0002593961
 245335993, 0.04538404, -0.009640058, -0.02070702, 0.0002593961
 245435953, 0.02597001, -0.01211496, -0.02475864, 0.0002593961
 245535913, 0.009965731, -0.0156214, -0.02520103, 0.0002593961
 245635873, 0.0009015618, -0.01993657, -0.02391088, 0.0002593961
 245735833, -0.00149383, -0.02225879, -0.02148971, 0.0002593961
 245835793, 0.0004277834, -0.02106798, -0.0188699, 0.0002593961
 245935753, 0.00323936, -0.0171028, -0.01585232, 0.0002593961
 246035713, 0.005732867, -0.01215834, -0.01351053, 0.0002593961
 246135673, 0.006562947, -0.007020751, -0.01143447, 0.0002593961
 246236466, 0.005932148, -0.002414886, -0.009161588, 0.0002615578
 246336426, 0.004188552, -0.0001338955, -0.007506697, 0.0002593961
 246436386, 0.002949032, -0.001052267, -0.007519974, 0.0002593961
 246536346, 0.001538292, -0.003361257, -0.006979029, 0.0002593961
 246636306, 0.0004693287, -0.005464183, -0.005840957, 0.0002593961
 246736266, -3.802862E-05, -0.004207841, -0.004093666, 0.0002593961
 246836226, -0.0005005592, 0.0005445822, -0.001191871, 0.0002593961
 246936186, -0.0006911379, 0.006987465, 0.001279558, 0.0002593961
 247036146, -0.0005071068, 0.01190403, 0.002879265, 0.0002593961
 247136106, -0.0002908687, 0.01209798, 0.00434267, 0.0002593961
 247236066, -0.0001127683, 0.006905176, 0.004614843, 0.0002593961
 247336026, -0.0002271973, -0.0001662844, 0.004416107, 0.0002593961
 247435986, 5.436868E-05, -0.006333908, 0.003454936, 0.0002593961
 247535946, -8.758585E-05, -0.01132747, 0.002540555, 0.0002593961
 247635906, -0.001733838, -0.01483549, 0.003961437, 0.0002593961
 247735866, -0.002691173, -0.01397576, 0.005267148, 0.0002593961
 247835826, -0.002625325, -0.008348485, 0.004801267, 0.0002593961
 247935786, -0.002190583, 0.0002240879, 0.004156572, 0.0002593961
 248035746, -0.001480658, 0.00937569, 0.002846717, 0.0002593961
 248135706, -0.001108923, 0.01578868, 0.001528939, 0.0002593961
 248235666, -0.001946425, 0.01843926, 0.002513468, 0.0002593961
 248336459, -0.002687154, 0.01984831, 0.003226646, 0.0002615578
 248436419, -0.003577834, 0.02127369, 0.004864464, 0.0002593961
 248536379, -0.00375225, 0.02059584, 0.005585205, 0.0002593961
 248636339, -0.002651822, 0.01634247, 0.002473872, 0.0002593961
 248736299, -0.001883948, 0.01193494, -0.0004306155, 0.0002593961
 248836259, -0.0008753289, 0.01004543, -0.003990252, 0.0002593961
 248936219, -0.0004715707, 0.01009114, -0.006512695, 0.0002593961
 249036179, -0.001022601, 0.0103766, -0.007254094, 0.0002593961
 249136139, -0.002324838, 0.01064387, -0.006868176, 0.0002593961
 249236099, -0.003351536, 0.01068952, -0.005895431, 0.0002593961
 249336059, -0.005029208, 0.009444275, -0.004533071, 0.0002593961
 249436019, -0.005739739, 0.00693982, -0.0008769568, 0.0002593961
 249535979, -0.005935196, 0.006216924, 0.002170588, 0.0002593961
 249635939, -0.004981295, 0.007927977, 0.003046545, 0.0002593961
 249735899, -0.003967424, 0.01112318, 0.003231746, 0.0002593961
 249835859, -0.004014001, 0.01441631, 0.005046649, 0.0002593961
 249935819, -0.004284103, 0.01804353, 0.005978081, 0.0002593961
 250035779, -0.00398326, 0.02175834, 0.00602167, 0.0002593961
 250135739, -0.004210367, 0.02342016, 0.005069057, 0.0002593961
 250235699, -0.004611356, 0.02125203, 0.003297281, 0.0002593961
 250335659, -0.003800364, 0.01760767, 0.00135625, 0.0002593961
 250436452, -0.002126974, 0.01447162, -0.0007980542, 0.0002615578
 250536412, -0.0004578773, 0.01270962, -0.002510273, 0.0002593961
 250636372, -0.002380421, 0.01197653, -0.002870424, 0.0002593961
 250736332, -0.00336449, 0.009021355, -0.003418999, 0.0002593961
 250836292, -0.004097348, 0.002057137, -0.004086752, 0.0002593961
 250936252, -0.004324589, -0.007483898, -0.004517611, 0.0002593961
 251036212, -0.005397656, -0.01683569, -0.002792652, 0.0002593961
 251136172, -0.008784867, -0.02168623, -0.001573647, 0.0002593961
 251236132, -0.00634583, -0.02049326, -0.003204833, 0.0002593961
 251336092, -0.004055425, -0.01449668, -0.004551658, 0.0002593961
 251436052, -0.002660792, -0.006759776, -0.00565957, 0.0002593961
 251536012, -0.002434155, -0.001709986, -0.005630627, 0.0002593961
 251635972, -0.003692739, -0.001956559, -0.003760003, 0.0002593961
 251735932, -0.005247353, -0.004196842, -0.001786234, 0.0002593961
 251835892, -0.00504739, -0.005805395, -0.002355209, 0.0002593961
 251935852, -0.005114692, -0.005444429, -0.001703826, 0.0002593961
 252035812, -0.005123701, -0.003279122, 0.0009476696, 0.0002593961
 252135772, -0.002629351, -0.0009226391, 0.00277854, 0.0002593961
 252235732, -0.003289054, -0.0004894455, 0.004003228, 0.0002593961
 252335692, -0.003896315, -0.003634936, 0.004185791, 0.0002593961
 252436485, -0.003876774, -0.009025279, 0.003618815, 0.0002615578
 252536445, -0.005578728, -0.01366398, 0.00285931, 0.0002593961
 252636405, -0.005096857, -0.01501226, 0.002533531, 0.0002593961
 252736365, -0.003927116, -0.01256211, 0.002477607, 0.0002593961
 252836325, -0.004010651, -0.007191598, 0.004259899, 0.0002593961
 252936285, -0.00424933, -0.001559001, 0.005341315, 0.0002593961
 253036245, -0.004460542, 0.002486451, 0.006432497, 0.0002593961
 253136205, -0.004495272, 0.00200127, 0.006269812, 0.0002593961
 253236165, -0.004218251, -0.002747976, 0.004577368, 0.0002593961
 253336125, -0.003704718, -0.009538352, 0.002188985, 0.0002593961
 253436085, -0.003552044, -0.01523658, 8.768987E-05, 0.0002593961
 253536045, -0.003321372, -0.01613335, -0.001571683, 0.0002593961
 253636005, -0.003359355, -0.01057847, -0.002773399, 0.0002593961
 253735965, -0.003553456, -0.001952563, -0.003282281, 0.0002593961
 253835925, -0.003462569, 0.005785864, -0.004403207, 0.0002593961
 253935885, -0.003515943, 0.01211914, -0.004391775, 0.0002593961
 254035845, -0.00324455, 0.01666405, -0.004419117, 0.0002593961
 254135805, -0.003299934, 0.01901212, -0.003952435, 0.0002593961
 254235765, -0.002812723, 0.0197801, -0.004813573, 0.0002593961
 254335725, -0.00224646, 0.018325, -0.005141813, 0.0002593961
 254435685, 0.001784209, 0.01622022, -0.006765852, 0.0002593961
 254536478, 0.0002025815, 0.01365437, -0.007478334, 0.0002615578
 254636438, -0.001823898, 0.01079535, -0.007168889, 0.0002593961
 254736398, -0.003041111, 0.0082963, -0.005942356, 0.0002593961
 254836358, -0.003904635, 0.006501906, -0.00405752, 0.0002593961
 254936318, -0.003622515, 0.005728678, -0.003034366, 0.0002593961
 255036278, -0.00269741, 0.006066949, -0.003226235, 0.0002593961
 255136238, -0.00355314, 0.008394191, -0.002385438, 0.0002593961
 255236198, -0.003462339, 0.01256178, 0.001501686, 0.0002593961
 255336158, -0.003762162, 0.01506607, 0.005182422, 0.0002593961
 255436118, -0.003525505, 0.01401224, 0.006474585, 0.0002593961
 255536078, -0.003279394, 0.009230806, 0.006906027, 0.0002593961
 255636038, -0.001818476, 0.002956356, 0.00376681, 0.0002593961
 255735998, -0.000732975, -0.0020831, 0.0008526334, 0.0002593961
 255835958, -0.001115845, -0.003733678, -0.0001582347, 0.0002593961
 255935918, -0.001623184, -0.001670077, -0.0008726501, 0.0002593961
 256035878, -0.00226478, 0.002185073, -0.001029329, 0.0002593961
 256135838, -0.002662575, 0.006115231, -0.001639032, 0.0002593961
 256235798, -0.002478105, 0.00896616, -0.002707853, 0.0002593961
 256335758, -0.00254345, 0.008021464, -0.003309608, 0.0002593961
 256435718, -0.002978858, 0.002566236, -0.003301971, 0.0002593961
 256535678, -0.003499699, -0.003298979, -0.003102382, 0.0002593961
 256636471, -0.003926707, -0.005805416, -0.001645942, 0.0002615578
 256736431, -0.00368166, -0.00314808, -0.001056802, 0.0002593961
 256836391, -0.003589013, 0.004272305, 0.000428548, 0.0002593961
 256936351, -0.003493018, 0.01216701, 0.001502564, 0.0002593961
 257036311, -0.002164483, 0.01774825, -0.0002403133, 0.0002593961
 257136271, -0.00119871, 0.02023399, -0.00089337, 0.0002593961
 257236231, -0.001409093, 0.02016898, -0.002943112, 0.0002593961
 257336191, -0.00182586, 0.01737387, -0.00394683, 0.0002593961
 257436151, -0.002230599, 0.01294966, -0.004802991, 0.0002593961
 257536111, -0.002774169, 0.01056747, -0.00462705, 0.0002593961
 257636071, -0.003470003, 0.01185224, -0.00298619, 0.0002593961
 257736031, -0.003922163, 0.01201048, -0.0008686081, 0.0002593961
 257835991, -0.004807277, 0.008020826, 0.002022724, 0.0002593961
 257935951, -0.00521319, 0.001703232, 0.004274099, 0.0002593961
 258035911, -0.005965714, -0.004079533, 0.006983675, 0.0002593961
 258135871, -0.007417673, -0.008213461, 0.0086471, 0.0002593961
 258235831, -0.009395363, -0.009678368, 0.009706758, 0.0002593961
 258335791, -0.00641163, -0.008256732, 0.009582318, 0.0002593961
 258435751, -0.004286638, -0.004527921, 0.008193467, 0.0002593961
 258535711, -0.002927637, 0.000220389, 0.006269287, 0.0002593961
 258635671, -0.001937444, 0.004652977, 0.002956513, 0.0002593961
 258736464, -0.001739983, 0.007623168, 0.0005466603, 0.0002615578
 258836424, -0.003083295, 0.008959102, 0.0004421622, 0.0002593961
 258936384, -0.004015397, 0.008376399, 7.146113E-06, 0.0002593961
 259036344, -0.005721532, 0.006531686, 0.002702042, 0.0002593961
 259136304, -0.006491463, 0.005041159, 0.004246513, 0.0002593961
 259236264, -0.005068829, 0.004072629, 0.001779891, 0.0002593961
 259336224, -0.003743047, 0.003161104, -0.0007542798, 0.0002593961
 259436184, -0.003277147, 0.001237687, -0.001396096, 0.0002593961
 259536144, -0.003226452, -0.00177739, -0.002052295, 0.0002593961
 259636104, -0.004296461, -0.006418768, -0.001302662, 0.0002593961
 259736064, -0.004898186, -0.0102314, -0.001116802, 0.0002593961
 259836024, -0.005526051, -0.01186154, -0.0004621051, 0.0002593961
 259935984, -0.005091398, -0.01012557, -0.0008080265, 0.0002593961
 260035944, -0.002766186, -0.005286584, -0.001009531, 0.0002593961
 260135904, -0.003269305, 0.000834621, -0.0009685063, 0.0002593961
 260235864, -0.003430033, 0.005768001, -0.001339978, 0.0002593961
 260335824, -0.003267342, 0.008322069, -0.002226882, 0.0002593961
 260435784, -0.004506248, 0.008455314, 5.930739E-06, 0.0002593961
 260535744, -0.003194595, 0.008195224, 0.002029117, 0.0002593961
 260635704, -0.007029391, 0.009150912, 0.001854985, 0.0002593961
 260735664, -0.005774335, 0.01051558, 0.001096753, 0.0002593961
 260836457, -0.004118936, 0.01187368, 0.000410319, 0.0002615578
 260936417, -0.002593868, 0.01072127, -0.00104096, 0.0002593961
 261036377, -0.001907608, 0.007267056, -0.002588534, 0.0002593961
 261136337, -0.001835466, 0.002150451, -0.003778324, 0.0002593961
 261236297, -0.003398404, -0.003701749, -0.002150083, 0.0002593961
 261336257, -0.004821855, -0.006962875, -0.0008718208, 0.0002593961
 261436217, -0.005528177, -0.007067735, -6.677934E-05, 0.0002593961
 261536177, -0.005407108, -0.006677168, 0.0004557169, 0.0002593961
 261636137, -0.002776292, -0.007579577, -0.006581478, 0.0002593961
 261736097, 0.00123581, -0.009662733, -0.02814307, 0.0002593961
 261836057, -0.01047701, -0.01133036, -0.03781437, 0.0002593961
