TimeUS,COFN,COFE,COFD,CNe,CEe,CDe,POFN,POFE,POFD,PNe,PEe,PDe
 195860791, 0, 0, 0, 0, 0, 0, 0, 0, 0, 0, 0, 0
 196030723, 0.0005579006, 0.01650298, -0.002577687, 0.02636051, -0.02608577, 5.970445E-05, 0, 0, 0, 0, 0, 0
 196231476, 0.01303201, -0.01030706, 8.252664E-06, 0.02590832, -0.02728914, 0.4000069, 0.0005579006, 0.01650298, -0.002577687, 0.02636051, -0.02608577, 5.970445E-05
 196431396, -0.005030675, -0.01208979, -2.826126E-05, 0.02585904, -0.02770043, 0.4000059, 0.01303201, -0.01030706, 8.252664E-06, 0.02590832, -0.02728914, 0.4000069
 196631316, -0.0007870499, 0.01771595, 2.625894E-05, 0.025952, -0.02705323, 0.400007, -0.005030675, -0.01208979, -2.826126E-05, 0.02585904, -0.02770043, 0.4000059
 196831236, 0.01382098, -0.009368199, 1.116175E-05, 0.02629271, -0.02763559, 0.400007, -0.0007870499, 0.01771595, 2.625894E-05, 0.025952, -0.02705323, 0.400007
 197031156, 0.02261154, -0.008065452, 2.984637E-05, 0.0265181, -0.02760574, 0.4000077, 0.01382098, -0.009368199, 1.116175E-05, 0.02629271, -0.02763559, 0.400007
 197231076, -0.01047011, -0.01144526, -3.77999E-05, 0.02573797, -0.02769067, 0.4000059, 0.02261154, -0.008065452, 2.984637E-05, 0.0265181, -0.02760574, 0.4000077
 197430996, -0.02214549, 0.01611476, -1.617454E-05, 0.02551581, -0.02709187, 0.4000063, -0.01047011, -0.01144526, -3.77999E-05, 0.02573797, -0.02769067, 0.4000059
 197630916, 0.004536417, -0.01086836, -8.814619E-06, 0.02606441, -0.02768255, 0.400006, -0.02214549, 0.01611476, -1.617454E-05, 0.02551581, -0.02709187, 0.4000063
 197830836, -0.006783534, -0.009343766, -2.774318E-05, 0.02581602, -0.02764895, 0.4000053, 0.004536417, -0.01086836, -8.814619E-06, 0.02606441, -0.02768255, 0.400006
 198030756, -0.01414913, -0.006630366, -3.731195E-05, 0.02566624, -0.0275861, 0.4000051, -0.006783534, -0.009343766, -2.774318E-05, 0.02581602, -0.02764895, 0.4000053
 198230676, -0.01404767, 0.007768594, -1.400697E-05, 0.02566558, -0.02726699, 0.4000057, -0.01414913, -0.006630366, -3.731195E-05, 0.02566624, -0.0275861, 0.4000051
 198431429, 0.006963531, -0.01598729, -1.271914E-05, 0.02611922, -0.027819, 0.4000055, -0.01404767, 0.007768594, -1.400697E-05, 0.02566558, -0.02726699, 0.4000057
 198631349, 0.02235784, 0.002317951, 4.58047E-05, 0.02651316, -0.02739068, 0.4000063, 0.006963531, -0.01598729, -1.271914E-05, 0.02611922, -0.027819, 0.4000055
 198831269, 0.00813893, 0.006985569, 2.662835E-05, 0.026155, -0.02729124, 0.4000055, 0.02235784, 0.002317951, 4.58047E-05, 0.02651316, -0.02739068, 0.4000063
 199031189, -0.01709113, 0.0220686, 3.978854E-06, 0.02561834, -0.02699552, 0.4000051, 0.00813893, 0.006985569, 2.662835E-05, 0.026155, -0.02729124, 0.4000055
 199231109, -0.0229924, 0.01516456, -1.828056E-05, 0.02551234, -0.02711931, 0.4000049, -0.01709113, 0.0220686, 3.978854E-06, 0.02561834, -0.02699552, 0.4000051
 199431029, -0.005174752, 0.0114972, 8.796749E-06, 0.0258576, -0.02718698, 0.4000057, -0.0229924, 0.01516456, -1.828056E-05, 0.02551234, -0.02711931, 0.4000049
 199630949, 0.0207851, -0.009656414, 2.322401E-05, 0.02647811, -0.02765403, 0.4000062, -0.005174752, 0.0114972, 8.796749E-06, 0.0258576, -0.02718698, 0.4000057
 199830869, -0.01522065, -0.003129302, -3.341179E-05, 0.02565145, -0.0274984, 0.4000052, 0.0207851, -0.009656414, 2.322401E-05, 0.02647811, -0.02765403, 0.4000062
 200030789, -0.0215705, 0.01333244, -1.910737E-05, 0.02553274, -0.02714692, 0.4000057, -0.01522065, -0.003129302, -3.341179E-05, 0.02565145, -0.0274984, 0.4000052
 200230709, -0.01722711, 0.01821385, -3.290561E-06, 0.02561305, -0.02705143, 0.4000061, -0.0215705, 0.01333244, -1.910737E-05, 0.02553274, -0.02714692, 0.4000057
 200431462, -0.024557, 0.007548514, -3.390482E-05, 0.02548142, -0.02725953, 0.4000056, -0.01722711, 0.01821385, -3.290561E-06, 0.02561305, -0.02705143, 0.4000061
 200631382, 0.007501849, -0.01375913, -7.855613E-06, 0.02614304, -0.02774966, 0.4000058, -0.024557, 0.007548514, -3.390482E-05, 0.02548142, -0.02725953, 0.4000056
 200831302, -0.02457494, -0.002228801, -4.923531E-05, 0.02548363, -0.02747054, 0.4000053, 0.007501849, -0.01375913, -7.855613E-06, 0.02614304, -0.02774966, 0.4000058
 201031222, -0.01915336, 0.003695329, -2.996283E-05, 0.0255777, -0.02733544, 0.4000061, -0.02457494, -0.002228801, -4.923531E-05, 0.02548363, -0.02747054, 0.4000053
 201231142, -0.005117023, 0.02446864, 2.855818E-05, 0.02585285, -0.02692845, 0.4000076, -0.01915336, 0.003695329, -2.996283E-05, 0.0255777, -0.02733544, 0.4000061
 201431062, 0.02157428, 0.02111195, 7.343449E-05, 0.02648932, -0.02698494, 0.4000092, -0.005117023, 0.02446864, 2.855818E-05, 0.02585285, -0.02692845, 0.4000076
 201630982, -0.0189506, -0.01954698, -6.617713E-05, 0.02557283, -0.02788622, 0.4000061, 0.02157428, 0.02111195, 7.343449E-05, 0.02648932, -0.02698494, 0.4000092
 201830902, -0.01361102, -0.0227309, -6.11834E-05, 0.02567266, -0.02797258, 0.4000062, -0.0189506, -0.01954698, -6.617713E-05, 0.02557283, -0.02788622, 0.4000061
 202030822, -0.01694254, -0.02314051, -6.823946E-05, 0.02560644, -0.02798365, 0.4000062, -0.01361102, -0.0227309, -6.11834E-05, 0.02567266, -0.02797258, 0.4000062
 202230742, -0.02545991, 0.02285239, -1.270974E-05, 0.02545302, -0.02695715, 0.4000075, -0.01694254, -0.02314051, -6.823946E-05, 0.02560644, -0.02798365, 0.4000062
 202430662, 0.01462277, 0.01022974, 4.393252E-05, 0.02630204, -0.02720077, 0.4000084, -0.02545991, 0.02285239, -1.270974E-05, 0.02545302, -0.02695715, 0.4000075
 202631415, 0.01396081, -0.00742842, 1.486451E-05, 0.02628329, -0.02759368, 0.4000077, 0.01462277, 0.01022974, 4.393252E-05, 0.02630204, -0.02720077, 0.4000084
 202831335, 0.01279259, 0.02126711, 5.814754E-05, 0.02625402, -0.02699463, 0.4000085, 0.01396081, -0.00742842, 1.486451E-05, 0.02628329, -0.02759368, 0.4000077
 203031255, -0.0176532, -0.01184829, -5.249833E-05, 0.02559107, -0.02770279, 0.4000059, 0.01279259, 0.02126711, 5.814754E-05, 0.02625402, -0.02699463, 0.4000085
 203231175, -0.02084349, 0.01434272, -1.669938E-05, 0.02553398, -0.02712957, 0.4000064, -0.0176532, -0.01184829, -5.249833E-05, 0.02559107, -0.02770279, 0.4000059
 203431095, 0.01525582, 0.0254518, 7.001047E-05, 0.02631853, -0.02693024, 0.400008, -0.02084349, 0.01434272, -1.669938E-05, 0.02553398, -0.02712957, 0.4000064
 203631015, -0.005919764, 0.02398226, 2.733679E-05, 0.02582424, -0.02695565, 0.4000071, 0.01525582, 0.0254518, 7.001047E-05, 0.02631853, -0.02693024, 0.400008
 203830935, -0.01975239, 0.02445061, 1.863751E-06, 0.02555135, -0.02695097, 0.4000064, -0.005919764, 0.02398226, 2.733679E-05, 0.02582424, -0.02695565, 0.4000071
 204030855, -0.02295566, -0.01509291, -6.843769E-05, 0.0254935, -0.02779796, 0.4000048, -0.01975239, 0.02445061, 1.863751E-06, 0.02555135, -0.02695097, 0.4000064
 204230775, 0.005156211, 0.00246995, 1.383769E-05, 0.02607069, -0.02738065, 0.4000066, -0.02295566, -0.01509291, -6.843769E-05, 0.0254935, -0.02779796, 0.4000048
 204430695, 0.000169515, 0.0209238, 3.401859E-05, 0.02596066, -0.02700976, 0.400007, 0.005156211, 0.00246995, 1.383769E-05, 0.02607069, -0.02738065, 0.4000066
 204631448, 0.01225947, 0.009804105, 3.88527E-05, 0.02624985, -0.02722001, 0.4000071, 0.000169515, 0.0209238, 3.401859E-05, 0.02596066, -0.02700976, 0.400007
 204831368, -0.01009648, -0.006029629, -2.860263E-05, 0.02574908, -0.02756431, 0.4000056, 0.01225947, 0.009804105, 3.88527E-05, 0.02624985, -0.02722001, 0.4000071
 205031288, -0.01600964, -0.00527176, -3.834186E-05, 0.0256371, -0.02754683, 0.4000052, -0.01009648, -0.006029629, -2.860263E-05, 0.02574908, -0.02756431, 0.4000056
 205231208, -0.01035637, 0.00230125, -1.558771E-05, 0.02575097, -0.02737807, 0.4000053, -0.01600964, -0.00527176, -3.834186E-05, 0.0256371, -0.02754683, 0.4000052
 205431128, 0.02518387, -0.02397074, 8.37231E-06, 0.02660019, -0.02802222, 0.4000057, -0.01035637, 0.00230125, -1.558771E-05, 0.02575097, -0.02737807, 0.4000053
 205631048, -0.02405318, 0.01326137, -2.341687E-05, 0.02549718, -0.02714817, 0.4000051, 0.02518387, -0.02397074, 8.37231E-06, 0.02660019, -0.02802222, 0.4000057
 205830968, -0.01938155, 0.0002974239, -3.540659E-05, 0.02558121, -0.02741809, 0.4000049, -0.02405318, 0.01326137, -2.341687E-05, 0.02549718, -0.02714817, 0.4000051
 206030888, -0.0148962, 0.005183797, -1.929184E-05, 0.02566605, -0.02731252, 0.4000051, -0.01938155, 0.0002974239, -3.540659E-05, 0.02558121, -0.02741809, 0.4000049
 206230808, 0.02203608, -0.01092454, 2.334619E-05, 0.02651747, -0.027681, 0.4000061, -0.0148962, 0.005183797, -1.929184E-05, 0.02566605, -0.02731252, 0.4000051
 206430728, 0.0105142, 0.01026918, 3.581111E-05, 0.02622197, -0.02720731, 0.4000063, 0.02203608, -0.01092454, 2.334619E-05, 0.02651747, -0.027681, 0.4000061
 206631481, -0.01497908, -0.01601725, -5.326082E-05, 0.02566661, -0.02781158, 0.400004, 0.0105142, 0.01026918, 3.581111E-05, 0.02622197, -0.02720731, 0.4000063
 206831401, 0.004918768, -0.0002864847, 8.639679E-06, 0.02608785, -0.02743519, 0.4000055, -0.01497908, -0.01601725, -5.326082E-05, 0.02566661, -0.02781158, 0.400004
 207031321, 0.01782282, 0.006706046, 4.384213E-05, 0.02640345, -0.02728421, 0.4000065, 0.004918768, -0.0002864847, 8.639679E-06, 0.02608785, -0.02743519, 0.4000055
 207231241, -0.00612315, -0.003909586, -1.763101E-05, 0.02584022, -0.02751673, 0.4000051, 0.01782282, 0.006706046, 4.384213E-05, 0.02640345, -0.02728421, 0.4000065
 207431161, 0.0206129, 0.01816908, 6.739239E-05, 0.02647615, -0.02705669, 0.4000071, -0.00612315, -0.003909586, -1.763101E-05, 0.02584022, -0.02751673, 0.4000051
 207631081, -0.0008397134, -0.001895247, -4.60598E-06, 0.02595327, -0.02747234, 0.4000054, 0.0206129, 0.01816908, 6.739239E-05, 0.02647615, -0.02705669, 0.4000071
 207831001, -0.01061719, 0.006538739, -9.254361E-06, 0.02574507, -0.02729042, 0.4000052, -0.0008397134, -0.001895247, -4.60598E-06, 0.02595327, -0.02747234, 0.4000054
 208030921, -0.007220561, -0.01155925, -3.215313E-05, 0.02581333, -0.02770454, 0.4000047, -0.01061719, 0.006538739, -9.254361E-06, 0.02574507, -0.02729042, 0.4000052
 208230841, 0.000931947, 0.002866072, 6.386471E-06, 0.02598848, -0.02737159, 0.4000055, -0.007220561, -0.01155925, -3.215313E-05, 0.02581333, -0.02770454, 0.4000047
 208430761, 0.01129255, -0.007625751, 8.750192E-06, 0.02623218, -0.02761343, 0.4000054, 0.000931947, 0.002866072, 6.386471E-06, 0.02598848, -0.02737159, 0.4000055
 208630681, 0.0230807, -0.01342776, 2.132469E-05, 0.02653738, -0.02775713, 0.4000056, 0.01129255, -0.007625751, 8.750192E-06, 0.02623218, -0.02761343, 0.4000054
 208831434, 0.01727319, -0.01116472, 1.414275E-05, 0.02638126, -0.02770443, 0.4000054, 0.0230807, -0.01342776, 2.132469E-05, 0.02653738, -0.02775713, 0.4000056
 209031354, -0.0123299, -0.003050586, -2.832204E-05, 0.02570174, -0.02751409, 0.4000045, 0.01727319, -0.01116472, 1.414275E-05, 0.02638126, -0.02770443, 0.4000054
 209231274, -0.01586467, 0.01564876, -4.332156E-06, 0.02563458, -0.02711638, 0.4000053, -0.0123299, -0.003050586, -2.832204E-05, 0.02570174, -0.02751409, 0.4000045
 209431194, 0.01029401, -0.002410519, 1.536608E-05, 0.02620816, -0.02748975, 0.4000057, -0.01586467, 0.01564876, -4.332156E-06, 0.02563458, -0.02711638, 0.4000053
 209631114, 0.0005303918, 0.01972247, 3.284022E-05, 0.02598345, -0.02703274, 0.4000059, 0.01029401, -0.002410519, 1.536608E-05, 0.02620816, -0.02748975, 0.4000057
 209831034, 0.01208038, 0.01990954, 5.429209E-05, 0.0262593, -0.02702448, 0.4000066, 0.0005303918, 0.01972247, 3.284022E-05, 0.02598345, -0.02703274, 0.4000059
 210030954, -0.0006652317, -0.02528312, -4.152137E-05, 0.02596193, -0.02805442, 0.4000044, 0.01208038, 0.01990954, 5.429209E-05, 0.0262593, -0.02702448, 0.4000066
 210230874, -0.01433979, 0.01855767, 3.037529E-06, 0.02567988, -0.02704385, 0.4000055, -0.0006652317, -0.02528312, -4.152137E-05, 0.02596193, -0.02805442, 0.4000044
 210430794, -0.01967863, -0.002168994, -3.959204E-05, 0.02558184, -0.02746842, 0.4000047, -0.01433979, 0.01855767, 3.037529E-06, 0.02567988, -0.02704385, 0.4000055
 210630714, -0.009478996, -0.01037841, -3.371699E-05, 0.02577899, -0.02765824, 0.400005, -0.01967863, -0.002168994, -3.959204E-05, 0.02558184, -0.02746842, 0.4000047
 210831467, -0.004186871, -0.01670438, -3.379441E-05, 0.02588954, -0.02781367, 0.4000052, -0.009478996, -0.01037841, -3.371699E-05, 0.02577899, -0.02765824, 0.400005
 211031387, -0.01156139, -0.02190185, -5.542418E-05, 0.02573882, -0.02795069, 0.4000046, -0.004186871, -0.01670438, -3.379441E-05, 0.02588954, -0.02781367, 0.4000052
 211231307, 0.001647323, 0.01830536, 3.169925E-05, 0.02602083, -0.02704006, 0.4000064, -0.01156139, -0.02190185, -5.542418E-05, 0.02573882, -0.02795069, 0.4000046
 211431227, 0.009682358, 0.007094111, 2.877937E-05, 0.02621118, -0.02725978, 0.4000064, 0.001647323, 0.01830536, 3.169925E-05, 0.02602083, -0.02704006, 0.4000064
 211631147, -0.004828714, 0.0122027, 1.027916E-05, 0.02588122, -0.02715577, 0.4000059, 0.009682358, 0.007094111, 2.877937E-05, 0.02621118, -0.02725978, 0.4000064
 211831067, 0.004012491, 0.01870215, 3.666728E-05, 0.02607791, -0.02703356, 0.4000063, -0.004828714, 0.0122027, 1.027916E-05, 0.02588122, -0.02715577, 0.4000059
 212030987, -0.01903916, 0.01600579, -9.514202E-06, 0.02559985, -0.02708563, 0.4000052, 0.004012491, 0.01870215, 3.666728E-05, 0.02607791, -0.02703356, 0.4000063
 212230907, -0.003884648, 0.01754449, 2.055689E-05, 0.02590135, -0.02705744, 0.4000058, -0.01903916, 0.01600579, -9.514202E-06, 0.02559985, -0.02708563, 0.4000052
 212430827, -0.006519428, -0.004849077, -1.95616E-05, 0.02584342, -0.02752705, 0.4000051, -0.003884648, 0.01754449, 2.055689E-05, 0.02590135, -0.02705744, 0.4000058
 212630747, 0.01481245, 0.001020051, 2.874235E-05, 0.02633684, -0.02739557, 0.4000062, -0.006519428, -0.004849077, -1.95616E-05, 0.02584342, -0.02752705, 0.4000051
 212830667, -0.02327263, -0.008603473, -5.644386E-05, 0.02551767, -0.02762105, 0.4000042, 0.01481245, 0.001020051, 2.874235E-05, 0.02633684, -0.02739557, 0.4000062
 213031420, -0.02145196, -0.006991421, -5.072621E-05, 0.0255469, -0.02758344, 0.4000045, -0.02327263, -0.008603473, -5.644386E-05, 0.02551767, -0.02762105, 0.4000042
 213231340, -0.01369649, -0.008804785, -3.942211E-05, 0.02568956, -0.02762895, 0.4000047, -0.02145196, -0.006991421, -5.072621E-05, 0.0255469, -0.02758344, 0.4000045
 213431260, 0.02500249, 0.0165769, 7.300127E-05, 0.02659591, -0.02708538, 0.4000072, -0.01369649, -0.008804785, -3.942211E-05, 0.02568956, -0.02762895, 0.4000047
 213631180, -0.01965389, 0.008319263, -2.319315E-05, 0.02557448, -0.02725008, 0.400005, 0.02500249, 0.0165769, 7.300127E-05, 0.02659591, -0.02708538, 0.4000072
 213831100, -0.01515293, 0.02108461, 5.839052E-06, 0.02565766, -0.02700759, 0.4000053, -0.01965389, 0.008319263, -2.319315E-05, 0.02557448, -0.02725008, 0.400005
 214031020, -0.004597358, 0.01119589, 9.620137E-06, 0.02587125, -0.02719879, 0.4000053, -0.01515293, 0.02108461, 5.839052E-06, 0.02565766, -0.02700759, 0.4000053
 214230940, 0.01407162, 0.02213319, 6.250668E-05, 0.02630302, -0.02699591, 0.4000063, -0.004597358, 0.01119589, 9.620137E-06, 0.02587125, -0.02719879, 0.4000053
 214430860, 0.001773921, -0.00999084, -1.301498E-05, 0.02600929, -0.02767265, 0.4000046, 0.01407162, 0.02213319, 6.250668E-05, 0.02630302, -0.02699591, 0.4000063
 214630780, -0.02533505, 0.02354939, -8.778403E-06, 0.02547562, -0.02696735, 0.4000047, 0.001773921, -0.00999084, -1.301498E-05, 0.02600929, -0.02767265, 0.4000046
 214830700, -0.005006961, -0.01366381, -3.143639E-05, 0.02586841, -0.02775945, 0.4000039, -0.02533505, 0.02354939, -8.778403E-06, 0.02547562, -0.02696735, 0.4000047
 215031453, 0.006841325, 0.01662541, 3.953015E-05, 0.02613705, -0.02709162, 0.4000055, -0.005006961, -0.01366381, -3.143639E-05, 0.02586841, -0.02775945, 0.4000039
 215231373, -0.01594686, -0.01312889, -5.044977E-05, 0.02564988, -0.02773879, 0.400004, 0.006841325, 0.01662541, 3.953015E-05, 0.02613705, -0.02709162, 0.4000055
 215431293, -0.0002712961, 0.01797887, 2.813642E-05, 0.02597395, -0.02705587, 0.4000059, -0.01594686, -0.01312889, -5.044977E-05, 0.02564988, -0.02773879, 0.400004
 215631213, 0.01366237, -0.006311108, 1.508041E-05, 0.02630617, -0.02756548, 0.4000058, -0.0002712961, 0.01797887, 2.813642E-05, 0.02597395, -0.02705587, 0.4000059
 215831133, 0.02482636, 0.007068348, 5.683456E-05, 0.02659778, -0.02726494, 0.4000072, 0.01366237, -0.006311108, 1.508041E-05, 0.02630617, -0.02756548, 0.4000058
 216031053, 0.002653921, -0.004405229, -2.033391E-06, 0.02603989, -0.02751525, 0.4000059, 0.02482636, 0.007068348, 5.683456E-05, 0.02659778, -0.02726494, 0.4000072
 216230973, -0.003844195, 0.02114972, 2.615574E-05, 0.02589921, -0.02698882, 0.4000063, 0.002653921, -0.004405229, -2.033391E-06, 0.02603989, -0.02751525, 0.4000059
 216430893, -0.02226491, -0.004239492, -4.725366E-05, 0.02554139, -0.02751132, 0.4000045, -0.003844195, 0.02114972, 2.615574E-05, 0.02589921, -0.02698882, 0.4000063
 216630813, 0.004541741, -0.001422449, 6.016118E-06, 0.02609305, -0.02744747, 0.4000054, -0.02226491, -0.004239492, -4.725366E-05, 0.02554139, -0.02751132, 0.4000045
 216830733, -0.02160504, 0.01596317, -1.411715E-05, 0.02555726, -0.02708474, 0.400005, 0.004541741, -0.001422449, 6.016118E-06, 0.02609305, -0.02744747, 0.4000054
 217031486, 0.01917071, -0.01834883, 6.116232E-06, 0.02645569, -0.02785629, 0.4000056, -0.02160504, 0.01596317, -1.411715E-05, 0.02555726, -0.02708474, 0.400005
 217231406, -0.0009060731, 0.01478306, 2.149578E-05, 0.02596816, -0.02710561, 0.400006, 0.01917071, -0.01834883, 6.116232E-06, 0.02645569, -0.02785629, 0.4000056
 217431326, -0.02062585, -0.01765672, -6.528279E-05, 0.02557204, -0.02784116, 0.400004, -0.0009060731, 0.01478306, 2.149578E-05, 0.02596816, -0.02710561, 0.400006
 217631246, 0.008002887, -0.01303728, -6.026968E-06, 0.02617201, -0.02772767, 0.400005, -0.02062585, -0.01765672, -6.528279E-05, 0.02557204, -0.02784116, 0.400004
 217831166, -0.01878558, -0.01089856, -5.194155E-05, 0.02559924, -0.02768164, 0.4000039, 0.008002887, -0.01303728, -6.026968E-06, 0.02617201, -0.02772767, 0.400005
 218031086, -0.005413876, 0.001380379, -7.769605E-06, 0.02586077, -0.02740013, 0.4000048, -0.01878558, -0.01089856, -5.194155E-05, 0.02559924, -0.02768164, 0.4000039
 218231006, -0.008715626, 0.01658162, 1.059076E-05, 0.02578919, -0.0270896, 0.4000053, -0.005413876, 0.001380379, -7.769605E-06, 0.02586077, -0.02740013, 0.4000048
 218430926, -0.004591193, -0.01273921, -2.921799E-05, 0.02587347, -0.0277365, 0.4000042, -0.008715626, 0.01658162, 1.059076E-05, 0.02578919, -0.0270896, 0.4000053
 218630846, -0.01340028, 0.01115941, -6.667289E-06, 0.02569194, -0.02720524, 0.4000045, -0.004591193, -0.01273921, -2.921799E-05, 0.02587347, -0.0277365, 0.4000042
 218830766, -0.0008409093, -0.00575125, -1.105024E-05, 0.02595157, -0.02757688, 0.4000042, -0.01340028, 0.01115941, -6.667289E-06, 0.02569194, -0.02720524, 0.4000045
 219030686, 0.003849036, 0.006366299, 1.77612E-05, 0.02605538, -0.02731084, 0.4000048, -0.0008409093, -0.00575125, -1.105024E-05, 0.02595157, -0.02757688, 0.4000042
 219231439, 0.01971717, -0.01730711, 8.267714E-06, 0.02644655, -0.02786705, 0.4000046, 0.003849036, 0.006366299, 1.77612E-05, 0.02605538, -0.02731084, 0.4000048
 219431359, 0.01536856, 0.004917035, 3.710519E-05, 0.02633182, -0.02734362, 0.4000053, 0.01971717, -0.01730711, 8.267714E-06, 0.02644655, -0.02786705, 0.4000046
 219631279, 0.02200919, 0.01317949, 6.322257E-05, 0.02650738, -0.02717453, 0.4000058, 0.01536856, 0.004917035, 3.710519E-05, 0.02633182, -0.02734362, 0.4000053
 219831199, 0.02472599, -0.006733887, 3.488511E-05, 0.02658704, -0.02760381, 0.400005, 0.02200919, 0.01317949, 6.322257E-05, 0.02650738, -0.02717453, 0.4000058
 220031119, 0.02465807, 0.01912657, 7.728879E-05, 0.02658897, -0.02705886, 0.4000057, 0.02472599, -0.006733887, 3.488511E-05, 0.02658704, -0.02760381, 0.400005
 220231039, 0.01996628, -0.01645676, 9.735619E-06, 0.02646556, -0.0278399, 0.4000042, 0.02465807, 0.01912657, 7.728879E-05, 0.02658897, -0.02705886, 0.4000057
 220430959, 0.01957426, -0.006647576, 2.506949E-05, 0.02645807, -0.02759437, 0.4000046, 0.01996628, -0.01645676, 9.735619E-06, 0.02646556, -0.0278399, 0.4000042
 220630879, 0.01835057, -0.01340561, 1.163216E-05, 0.02642913, -0.02775841, 0.4000041, 0.01957426, -0.006647576, 2.506949E-05, 0.02645807, -0.02759437, 0.4000046
 220830799, 0.007833966, 0.01246389, 3.463128E-05, 0.02616925, -0.02717879, 0.4000044, 0.01835057, -0.01340561, 1.163216E-05, 0.02642913, -0.02775841, 0.4000041
 221030719, -0.02026836, 0.0007345849, -3.555436E-05, 0.02558093, -0.02742224, 0.4000029, 0.007833966, 0.01246389, 3.463128E-05, 0.02616925, -0.02717879, 0.4000044
 221231472, -0.01323834, 0.02349929, 1.416064E-05, 0.02571585, -0.02696799, 0.4000039, -0.02026836, 0.0007345849, -3.555436E-05, 0.02558093, -0.02742224, 0.4000029
 221431392, 0.01667681, 0.003156311, 3.523165E-05, 0.02639416, -0.02736594, 0.4000045, -0.01323834, 0.02349929, 1.416064E-05, 0.02571585, -0.02696799, 0.4000039
 221631312, 0.01999833, 0.01365711, 5.824435E-05, 0.02648095, -0.02715057, 0.400005, 0.01667681, 0.003156311, 3.523165E-05, 0.02639416, -0.02736594, 0.4000045
 221831232, 0.02342103, 0.01415452, 6.516108E-05, 0.02657294, -0.02713965, 0.4000052, 0.01999833, 0.01365711, 5.824435E-05, 0.02648095, -0.02715057, 0.400005
 222031152, 0.01812724, 0.002668576, 3.69546E-05, 0.02643365, -0.02737516, 0.4000045, 0.02342103, 0.01415452, 6.516108E-05, 0.02657294, -0.02713965, 0.4000052
 222231072, -0.01066239, 0.02213831, 1.657682E-05, 0.02577051, -0.02698983, 0.4000039, 0.01812724, 0.002668576, 3.69546E-05, 0.02643365, -0.02737516, 0.4000045
 222430992, -0.002930865, 0.02205847, 3.05596E-05, 0.02593206, -0.02699518, 0.4000039, -0.01066239, 0.02213831, 1.657682E-05, 0.02577051, -0.02698983, 0.4000039
 222630912, 0.0003036262, -0.001180678, -1.382847E-06, 0.02600481, -0.02746698, 0.400003, -0.002930865, 0.02205847, 3.05596E-05, 0.02593206, -0.02699518, 0.4000039
 222830832, 0.0141542, 0.01758035, 5.41244E-05, 0.02633446, -0.02708109, 0.4000041, 0.0003036262, -0.001180678, -1.382847E-06, 0.02600481, -0.02746698, 0.400003
 223030752, 0.01483588, -0.01847389, -3.601464E-06, 0.02634892, -0.0278913, 0.4000029, 0.0141542, 0.01758035, 5.41244E-05, 0.02633446, -0.02708109, 0.4000041
 223230672, -0.02139232, 0.0146529, -1.451302E-05, 0.02556345, -0.02714079, 0.4000027, 0.01483588, -0.01847389, -3.601464E-06, 0.02634892, -0.0278913, 0.4000029
 223431425, 0.01193865, -0.01455554, -2.40368E-06, 0.02627249, -0.02779404, 0.4000029, -0.02139232, 0.0146529, -1.451302E-05, 0.02556345, -0.02714079, 0.4000027
 223631345, 0.004958796, 0.01723087, 3.754918E-05, 0.02609972, -0.02709556, 0.4000039, 0.01193865, -0.01455554, -2.40368E-06, 0.02627249, -0.02779404, 0.4000029
 223831265, 0.005768578, 0.0132944, 3.264192E-05, 0.0261149, -0.02717317, 0.4000039, 0.004958796, 0.01723087, 3.754918E-05, 0.02609972, -0.02709556, 0.4000039
 224031185, 0.01051839, 0.001078131, 2.114487E-05, 0.02622614, -0.02743119, 0.4000037, 0.005768578, 0.0132944, 3.264192E-05, 0.0261149, -0.02717317, 0.4000039
 224231105, -0.01710926, 0.01269723, -1.032981E-05, 0.02562416, -0.02719264, 0.400003, 0.01051839, 0.001078131, 2.114487E-05, 0.02622614, -0.02743119, 0.4000037
 224431025, 0.02072321, -0.01462393, 1.395444E-05, 0.02647782, -0.0278092, 0.4000037, -0.01710926, 0.01269723, -1.032981E-05, 0.02562416, -0.02719264, 0.400003
 224630945, 0.01786408, -0.02299603, -5.368125E-06, 0.02639979, -0.02802886, 0.4000034, 0.02072321, -0.01462393, 1.395444E-05, 0.02647782, -0.0278092, 0.4000037
 224830865, 0.004680165, 0.02238215, 4.644516E-05, 0.02607651, -0.02701356, 0.4000044, 0.01786408, -0.02299603, -5.368125E-06, 0.02639979, -0.02802886, 0.4000034
 225030785, 0.005884675, -0.0056159, 1.469989E-06, 0.02610926, -0.02758798, 0.4000033, 0.004680165, 0.02238215, 4.644516E-05, 0.02607651, -0.02701356, 0.4000044
 225230705, 0.009284824, 0.002084921, 2.060363E-05, 0.02619398, -0.02741108, 0.4000036, 0.005884675, -0.0056159, 1.469989E-06, 0.02610926, -0.02758798, 0.4000033
 225431458, -0.008590849, -0.02018563, -4.953026E-05, 0.0257953, -0.02794895, 0.4000019, 0.009284824, 0.002084921, 2.060363E-05, 0.02619398, -0.02741108, 0.4000036
 225631378, -0.02237083, 0.0103138, -2.373797E-05, 0.02553477, -0.02723749, 0.4000025, -0.008590849, -0.02018563, -4.953026E-05, 0.0257953, -0.02794895, 0.4000019
 225831298, -0.006888458, -0.02523148, -5.452995E-05, 0.02583678, -0.02808278, 0.4000016, -0.02237083, 0.0103138, -2.373797E-05, 0.02553477, -0.02723749, 0.4000025
 226031218, -0.007880701, -0.005296557, -2.312676E-05, 0.02581675, -0.02757294, 0.4000025, -0.006888458, -0.02523148, -5.452995E-05, 0.02583678, -0.02808278, 0.4000016
 226231138, 0.01397237, -0.0001805751, 2.514647E-05, 0.02631759, -0.0274564, 0.4000036, -0.007880701, -0.005296557, -2.312676E-05, 0.02581675, -0.02757294, 0.4000025
 226431058, 0.0145708, -0.01207974, 6.43981E-06, 0.02633425, -0.02773696, 0.400003, 0.01397237, -0.0001805751, 2.514647E-05, 0.02631759, -0.0274564, 0.4000036
 226630978, 0.01569648, -0.007918097, 1.536483E-05, 0.02636321, -0.0276359, 0.4000032, 0.0145708, -0.01207974, 6.43981E-06, 0.02633425, -0.02773696, 0.400003
 226830898, -0.01806245, 0.01985903, 2.139059E-07, 0.02561631, -0.02705349, 0.4000028, 0.01569648, -0.007918097, 1.536483E-05, 0.02636321, -0.0276359, 0.4000032
 227030818, -0.01661034, -0.01370711, -5.312492E-05, 0.02564236, -0.02778137, 0.4000016, -0.01806245, 0.01985903, 2.139059E-07, 0.02561631, -0.02705349, 0.4000028
 227230738, -0.01511992, 0.02383059, 1.201976E-05, 0.02567118, -0.02698038, 0.4000032, -0.01661034, -0.01370711, -5.312492E-05, 0.02564236, -0.02778137, 0.4000016
 227430658, -0.01418417, -0.00397013, -3.246415E-05, 0.02568853, -0.02754491, 0.4000022, -0.01511992, 0.02383059, 1.201976E-05, 0.02567118, -0.02698038, 0.4000032
 227631411, -0.01336056, 0.009702079, -8.270064E-06, 0.02570159, -0.02725033, 0.4000028, -0.01418417, -0.00397013, -3.246415E-05, 0.02568853, -0.02754491, 0.4000022
 227831331, 0.008085592, 0.01985758, 4.792388E-05, 0.02616735, -0.02705423, 0.4000041, -0.01336056, 0.009702079, -8.270064E-06, 0.02570159, -0.02725033, 0.4000028
 228031251, -0.009996098, 0.0190736, 1.344981E-05, 0.02576712, -0.02706817, 0.4000034, 0.008085592, 0.01985758, 4.792388E-05, 0.02616735, -0.02705423, 0.4000041
 228231171, 0.0214314, 0.02171049, 7.548102E-05, 0.02650534, -0.02702082, 0.4000048, -0.009996098, 0.0190736, 1.344981E-05, 0.02576712, -0.02706817, 0.4000034
 228431091, 0.006219153, 0.02324392, 5.011668E-05, 0.02612396, -0.02699339, 0.400004, 0.0214314, 0.02171049, 7.548102E-05, 0.02650534, -0.02702082, 0.4000048
 228631011, 0.008604448, 0.009568019, 3.168242E-05, 0.02618218, -0.02725296, 0.4000036, 0.006219153, 0.02324392, 5.011668E-05, 0.02612396, -0.02699339, 0.400004
 228830931, 0.003057832, 0.01079812, 2.362576E-05, 0.02605351, -0.02722946, 0.4000032, 0.008604448, 0.009568019, 3.168242E-05, 0.02618218, -0.02725296, 0.4000036
 229030851, 0.0006245321, -0.0008899217, -3.495536E-07, 0.02599596, -0.02748, 0.4000027, 0.003057832, 0.01079812, 2.362576E-05, 0.02605351, -0.02722946, 0.4000032
 229230771, 0.01119077, 0.01582444, 4.718118E-05, 0.02624268, -0.02713637, 0.4000036, 0.0006245321, -0.0008899217, -3.495536E-07, 0.02599596, -0.02748, 0.4000027
 229430691, -0.01575627, 0.008688003, -1.411478E-05, 0.02565475, -0.02728296, 0.4000019, 0.01119077, 0.01582444, 4.718118E-05, 0.02624268, -0.02713637, 0.4000036
 229631444, 0.01661806, 0.02219598, 6.850071E-05, 0.02637655, -0.02702843, 0.4000036, -0.01575627, 0.008688003, -1.411478E-05, 0.02565475, -0.02728296, 0.4000019
 229831364, -0.02236616, -0.01023314, -5.877207E-05, 0.02552834, -0.02771319, 0.4000009, 0.01661806, 0.02219598, 6.850071E-05, 0.02637655, -0.02702843, 0.4000036
 230031284, 0.02507639, -0.01327476, 2.329061E-05, 0.0266049, -0.02778685, 0.4000025, -0.02236616, -0.01023314, -5.877207E-05, 0.02552834, -0.02771319, 0.4000009
 230231204, -0.02183054, 0.007612192, -2.68599E-05, 0.02554673, -0.02730415, 0.4000015, 0.02507639, -0.01327476, 2.329061E-05, 0.0266049, -0.02778685, 0.4000025
 230431124, 0.01590501, -0.02155168, -7.33824E-06, 0.02636631, -0.02799198, 0.4000021, -0.02183054, 0.007612192, -2.68599E-05, 0.02554673, -0.02730415, 0.4000015
 230631044, 0.01995241, 0.02321541, 7.511675E-05, 0.02647135, -0.02699741, 0.4000042, 0.01590501, -0.02155168, -7.33824E-06, 0.02636631, -0.02799198, 0.4000021
 230830964, 0.01639407, -0.008906238, 1.496062E-05, 0.02637926, -0.02766319, 0.4000031, 0.01995241, 0.02321541, 7.511675E-05, 0.02647135, -0.02699741, 0.4000042
 231030884, -0.01775194, -0.005143902, -4.074895E-05, 0.02562288, -0.02757228, 0.400002, 0.01639407, -0.008906238, 1.496062E-05, 0.02637926, -0.02766319, 0.4000031
 231230804, 0.00286546, 0.02400189, 4.481552E-05, 0.0260526, -0.02697531, 0.4000039, -0.01775194, -0.005143902, -4.074895E-05, 0.02562288, -0.02757228, 0.400002
 231430724, 0.001073869, -0.01900878, -2.916721E-05, 0.02601228, -0.02790714, 0.4000025, 0.00286546, 0.02400189, 4.481552E-05, 0.0260526, -0.02697531, 0.4000039
 231631477, -0.01373693, -0.007107693, -3.649064E-05, 0.02570036, -0.0276085, 0.4000026, 0.001073869, -0.01900878, -2.916721E-05, 0.02601228, -0.02790714, 0.4000025
 231831397, 0.007828479, -0.01453936, -9.573868E-06, 0.02616878, -0.02779064, 0.4000031, -0.01373693, -0.007107693, -3.649064E-05, 0.02570036, -0.0276085, 0.4000026
 232031317, 0.01228053, 0.002278554, 2.586783E-05, 0.02627928, -0.02739194, 0.4000041, 0.007828479, -0.01453936, -9.573868E-06, 0.02616878, -0.02779064, 0.4000031
 232231237, -0.00768228, 0.02052705, 1.944538E-05, 0.02582345, -0.02702639, 0.400004, 0.01228053, 0.002278554, 2.586783E-05, 0.02627928, -0.02739194, 0.4000041
 232431157, 0.02177468, 0.01687599, 6.681535E-05, 0.02652124, -0.0270929, 0.4000054, -0.00768228, 0.02052705, 1.944538E-05, 0.02582345, -0.02702639, 0.400004
 232631077, -0.01096762, -5.679099E-05, -1.997099E-05, 0.02575434, -0.02744264, 0.4000033, 0.02177468, 0.01687599, 6.681535E-05, 0.02652124, -0.0270929, 0.4000054
 232830997, 0.01008501, -0.007098124, 6.698294E-06, 0.02622008, -0.02761046, 0.4000036, -0.01096762, -5.679099E-05, -1.997099E-05, 0.02575434, -0.02744264, 0.4000033
 233030917, -0.004226136, -0.02083291, -4.20524E-05, 0.02589116, -0.02796081, 0.4000022, 0.01008501, -0.007098124, 6.698294E-06, 0.02622008, -0.02761046, 0.4000036
 233230837, 0.006474614, 0.01339415, 3.382837E-05, 0.02613363, -0.02717016, 0.4000039, -0.004226136, -0.02083291, -4.20524E-05, 0.02589116, -0.02796081, 0.4000022
 233430757, 0.01079722, -0.02189751, -1.637785E-05, 0.02623709, -0.02798724, 0.4000029, 0.006474614, 0.01339415, 3.382837E-05, 0.02613363, -0.02717016, 0.4000039
 233630677, -0.004174228, -0.02095028, -4.215484E-05, 0.02588957, -0.02796333, 0.4000024, 0.01079722, -0.02189751, -1.637785E-05, 0.02623709, -0.02798724, 0.4000029
 233831430, -0.02173391, -0.01218791, -6.002894E-05, 0.02554149, -0.02773985, 0.4000022, -0.004174228, -0.02095028, -4.215484E-05, 0.02588957, -0.02796333, 0.4000024
 234031350, 0.01687593, 0.009393012, 4.66105E-05, 0.02638096, -0.0272523, 0.4000047, -0.02173391, -0.01218791, -6.002894E-05, 0.02554149, -0.02773985, 0.4000022
 234231270, -0.01734284, -0.002091248, -3.550117E-05, 0.0256172, -0.02750217, 0.4000029, 0.01687593, 0.009393012, 4.66105E-05, 0.02638096, -0.0272523, 0.4000047
 234431190, -0.02331263, -0.02191428, -7.979508E-05, 0.02550739, -0.02799888, 0.4000016, -0.01734284, -0.002091248, -3.550117E-05, 0.0256172, -0.02750217, 0.4000029
 234631110, 0.01948395, 0.02510876, 7.85652E-05, 0.02644202, -0.02697049, 0.4000049, -0.02331263, -0.02191428, -7.979508E-05, 0.02550739, -0.02799888, 0.4000016
 234831030, 0.01263118, -0.007397822, 1.107291E-05, 0.02626283, -0.02763934, 0.4000035, 0.01948395, 0.02510876, 7.85652E-05, 0.02644202, -0.02697049, 0.4000049
 235030950, 0.02154487, -0.01245973, 1.911767E-05, 0.02649148, -0.0277669, 0.4000036, 0.01263118, -0.007397822, 1.107291E-05, 0.02626283, -0.02763934, 0.4000035
 235230870, -0.0242295, 0.02417986, -4.12358E-06, 0.0254845, -0.02699262, 0.400003, 0.02154487, -0.01245973, 1.911767E-05, 0.02649148, -0.0277669, 0.4000036
 235430790, -0.00335295, 0.02460979, 3.540464E-05, 0.02589351, -0.02698144, 0.4000038, -0.0242295, 0.02417986, -4.12358E-06, 0.0254845, -0.02699262, 0.400003
 235630710, -0.02173637, 0.005415228, -3.133957E-05, 0.02553058, -0.02734858, 0.4000027, -0.00335295, 0.02460979, 3.540464E-05, 0.02589351, -0.02698144, 0.4000038
 235831463, -0.003340449, -0.01371778, -2.926729E-05, 0.0258939, -0.02778934, 0.4000027, -0.02173637, 0.005415228, -3.133957E-05, 0.02553058, -0.02734858, 0.4000027
 236031383, -0.002420397, -0.0222837, -4.180558E-05, 0.02591847, -0.02801041, 0.4000022, -0.003340449, -0.01371778, -2.926729E-05, 0.0258939, -0.02778934, 0.4000027
 236231303, -0.0210367, 0.00415968, -3.170924E-05, 0.02555229, -0.02736896, 0.4000025, -0.002420397, -0.0222837, -4.180558E-05, 0.02591847, -0.02801041, 0.4000022
 236431223, 0.02538345, 0.01766211, 7.608437E-05, 0.02660781, -0.02709659, 0.400005, -0.0210367, 0.00415968, -3.170924E-05, 0.02555229, -0.02736896, 0.4000025
 236631143, -0.009618296, -0.005958996, -2.759502E-05, 0.02577008, -0.02759409, 0.4000027, 0.02538345, 0.01766211, 7.608437E-05, 0.02660781, -0.02709659, 0.400005
 236831063, -0.0009630627, -0.0172228, -3.034414E-05, 0.02595601, -0.02787108, 0.4000025, -0.009618296, -0.005958996, -2.759502E-05, 0.02577008, -0.02759409, 0.4000027
 237030983, -0.01045638, 0.002919365, -1.430323E-05, 0.02575605, -0.02739215, 0.4000029, -0.0009630627, -0.0172228, -3.034414E-05, 0.02595601, -0.02787108, 0.4000025
 237230903, 0.0127614, -0.01194871, 3.383322E-06, 0.02628229, -0.02773991, 0.400003, -0.01045638, 0.002919365, -1.430323E-05, 0.02575605, -0.02739215, 0.4000029
 237430823, -0.02110032, 0.0125141, -1.751407E-05, 0.02555735, -0.02719772, 0.4000023, 0.0127614, -0.01194871, 3.383322E-06, 0.02628229, -0.02773991, 0.400003
 237630743, -0.01176295, 0.01421919, 2.417286E-06, 0.02573446, -0.02716642, 0.4000025, -0.02110032, 0.0125141, -1.751407E-05, 0.02555735, -0.02719772, 0.4000023
 237830663, -0.009848253, -0.01342603, -4.044109E-05, 0.0257723, -0.02778174, 0.4000015, -0.01176295, 0.01421919, 2.417286E-06, 0.02573446, -0.02716642, 0.4000025
 238031416, 0.007879552, 0.01920412, 4.656431E-05, 0.02616276, -0.02707309, 0.4000036, -0.009848253, -0.01342603, -4.044109E-05, 0.0257723, -0.02778174, 0.4000015
 238231336, -0.02124641, -0.02068803, -7.336859E-05, 0.02555402, -0.0279694, 0.4000008, 0.007879552, 0.01920412, 4.656431E-05, 0.02616276, -0.02707309, 0.4000036
 238431256, -0.0234834, 0.009311857, -2.713719E-05, 0.02551519, -0.0272641, 0.400002, -0.02124641, -0.02068803, -7.336859E-05, 0.02555402, -0.0279694, 0.4000008
 238631176, 0.01381792, -0.007148109, 1.320521E-05, 0.02630978, -0.02762664, 0.4000029, -0.0234834, 0.009311857, -2.713719E-05, 0.02551519, -0.0272641, 0.400002
 238831096, -0.005601105, 0.02432767, 3.058323E-05, 0.02585984, -0.02698172, 0.4000031, 0.01381792, -0.007148109, 1.320521E-05, 0.02630978, -0.02762664, 0.4000029
 239031016, -0.005158134, 0.003089035, -4.200287E-06, 0.02586938, -0.02739752, 0.4000023, -0.005601105, 0.02432767, 3.058323E-05, 0.02585984, -0.02698172, 0.4000031
 239230936, 0.007857176, -0.004959728, 5.978835E-06, 0.02616182, -0.02758041, 0.4000025, -0.005158134, 0.003089035, -4.200287E-06, 0.02586938, -0.02739752, 0.4000023
 239430856, 0.008794279, 0.01131431, 3.527675E-05, 0.0261824, -0.02723176, 0.400003, 0.007857176, -0.004959728, 5.978835E-06, 0.02616182, -0.02758041, 0.4000025
 239630776, 0.01707187, -0.02091688, -4.253558E-06, 0.02638761, -0.02798462, 0.4000021, 0.008794279, 0.01131431, 3.527675E-05, 0.0261824, -0.02723176, 0.400003
 239830696, -0.02479885, -0.02186524, -8.301811E-05, 0.02548482, -0.02801455, 0.4000002, 0.01707187, -0.02091688, -4.253558E-06, 0.02638761, -0.02798462, 0.4000021
 240031449, 0.01656976, -0.02341882, -9.760701E-06, 0.02637127, -0.02805992, 0.4000016, -0.02479885, -0.02186524, -8.301811E-05, 0.02548482, -0.02801455, 0.4000002
 240231369, 0.01384834, -0.02549507, -1.815262E-05, 0.02629786, -0.02811586, 0.4000017, 0.01656976, -0.02341882, -9.760701E-06, 0.02637127, -0.02805992, 0.4000016
 240431289, 0.009135776, 0.02242861, 5.51388E-05, 0.02618252, -0.02702609, 0.4000036, 0.01384834, -0.02549507, -1.815262E-05, 0.02629786, -0.02811586, 0.4000017
 240631209, 0.0251018, 0.007001835, 5.810675E-05, 0.02659796, -0.02731862, 0.400004, 0.009135776, 0.02242861, 5.51388E-05, 0.02618252, -0.02702609, 0.4000036
 240831129, 0.001617821, 0.01449136, 2.732613E-05, 0.02600965, -0.02716351, 0.4000035, 0.0251018, 0.007001835, 5.810675E-05, 0.02659796, -0.02731862, 0.400004
 241031049, 0.01954141, -0.02336709, -3.030858E-06, 0.02644894, -0.02803849, 0.4000031, 0.001617821, 0.01449136, 2.732613E-05, 0.02600965, -0.02716351, 0.4000035
 241230969, 0.0181015, -0.008198446, 1.957301E-05, 0.02641237, -0.02765093, 0.4000036, 0.01954141, -0.02336709, -3.030858E-06, 0.02644894, -0.02803849, 0.4000031
 241430889, -0.0146907, -0.00947812, -4.271767E-05, 0.02567293, -0.0276842, 0.4000018, 0.0181015, -0.008198446, 1.957301E-05, 0.02641237, -0.02765093, 0.4000036
 241630809, -0.01882067, 0.02091303, 6.189694E-07, 0.02559615, -0.0270409, 0.4000027, -0.0146907, -0.00947812, -4.271767E-05, 0.02567293, -0.0276842, 0.4000018
 241830729, 0.01296734, -0.01040852, 6.296004E-06, 0.02628508, -0.0277057, 0.4000029, -0.01882067, 0.02091303, 6.189694E-07, 0.02559615, -0.0270409, 0.4000027
 242031482, 0.02097765, 0.02438448, 7.898628E-05, 0.02649264, -0.02697939, 0.4000045, 0.01296734, -0.01040852, 6.296004E-06, 0.02628508, -0.0277057, 0.4000029
 242231402, -0.01142852, 0.01411444, 2.760104E-06, 0.02574031, -0.02716678, 0.4000027, 0.02097765, 0.02438448, 7.898628E-05, 0.02649264, -0.02697939, 0.4000045
 242431322, 0.02123975, 0.01637485, 6.569755E-05, 0.0265052, -0.02712247, 0.400004, -0.01142852, 0.01411444, 2.760104E-06, 0.02574031, -0.02716678, 0.4000027
 242631242, -0.009409899, -0.01022187, -3.40095E-05, 0.02578546, -0.02769875, 0.4000017, 0.02123975, 0.01637485, 6.569755E-05, 0.0265052, -0.02712247, 0.400004
 242831162, -0.01071857, 0.0176391, 1.003376E-05, 0.02575805, -0.02709996, 0.4000026, -0.009409899, -0.01022187, -3.40095E-05, 0.02578546, -0.02769875, 0.4000017
 243031082, -0.02440136, -0.01169214, -6.369418E-05, 0.02550167, -0.02773743, 0.400001, -0.01071857, 0.0176391, 1.003376E-05, 0.02575805, -0.02709996, 0.4000026
 243231002, 0.01895071, -0.0195815, 1.567067E-06, 0.02644478, -0.02793921, 0.4000024, -0.02440136, -0.01169214, -6.369418E-05, 0.02550167, -0.02773743, 0.400001
 243430922, 0.02098836, 0.01205868, 5.816073E-05, 0.02649909, -0.02721065, 0.4000036, 0.01895071, -0.0195815, 1.567067E-06, 0.02644478, -0.02793921, 0.4000024
 243630842, -0.006780265, 0.01918669, 1.993274E-05, 0.02583839, -0.0270755, 0.4000025, 0.02098836, 0.01205868, 5.816073E-05, 0.02649909, -0.02721065, 0.4000036
 243830762, 0.01443322, 0.02353861, 6.567177E-05, 0.02632786, -0.02699821, 0.4000036, -0.006780265, 0.01918669, 1.993274E-05, 0.02583839, -0.0270755, 0.4000025
 244030682, -0.0219516, -0.01795745, -6.983838E-05, 0.02554574, -0.0279002, 0.4000005, 0.01443322, 0.02353861, 6.567177E-05, 0.02632786, -0.02699821, 0.4000036
 244231435, 0.00241085, 0.01413145, 2.813952E-05, 0.02603904, -0.02717238, 0.4000026, -0.0219516, -0.01795745, -6.983838E-05, 0.02554574, -0.0279002, 0.4000005
 244431355, -0.007756629, -0.01575617, -4.061569E-05, 0.02581594, -0.02784483, 0.4000012, 0.00241085, 0.01413145, 2.813952E-05, 0.02603904, -0.02717238, 0.4000026
 244631275, 0.009425852, -0.00812043, 3.497952E-06, 0.02619965, -0.02765567, 0.4000024, -0.007756629, -0.01575617, -4.061569E-05, 0.02581594, -0.02784483, 0.4000012
 244831195, -0.01784748, 0.0002786017, -3.215301E-05, 0.02561271, -0.02746159, 0.4000018, 0.009425852, -0.00812043, 3.497952E-06, 0.02619965, -0.02765567, 0.4000024
 245031115, 0.01611143, -0.02315335, -9.644313E-06, 0.02636326, -0.02804175, 0.4000021, -0.01784748, 0.0002786017, -3.215301E-05, 0.02561271, -0.02746159, 0.4000018
 245231035, 0.0215378, -0.007675915, 2.650241E-05, 0.0265038, -0.02764963, 0.400003, 0.01611143, -0.02315335, -9.644313E-06, 0.02636326, -0.02804175, 0.4000021
 245430955, 0.003295207, 0.0008466323, 7.495871E-06, 0.02604912, -0.02745502, 0.4000024, 0.0215378, -0.007675915, 2.650241E-05, 0.0265038, -0.02764963, 0.400003
 245630875, -0.01356719, 0.02468259, 1.702066E-05, 0.02569372, -0.02698384, 0.4000025, 0.003295207, 0.0008466323, 7.495871E-06, 0.02604912, -0.02745502, 0.4000024
 245830795, 0.007657944, -0.01699577, -1.456786E-05, 0.02615673, -0.02787423, 0.4000021, -0.01356719, 0.02468259, 1.702066E-05, 0.02569372, -0.02698384, 0.4000025
 246030715, -0.002247721, 0.02132466, 3.135709E-05, 0.02593092, -0.02703007, 0.4000035, 0.007657944, -0.01699577, -1.456786E-05, 0.02615673, -0.02787423, 0.4000021
 246231468, 0.008884243, 0.01230446, 3.651333E-05, 0.02618775, -0.02719706, 0.4000038, -0.002247721, 0.02132466, 3.135709E-05, 0.02593092, -0.02703007, 0.4000035
 246431388, 0.02182833, -0.01037906, 2.245152E-05, 0.0265193, -0.02769795, 0.4000035, 0.008884243, 0.01230446, 3.651333E-05, 0.02618775, -0.02719706, 0.4000038
 246631308, 0.01449893, 0.02215308, 6.297617E-05, 0.02632833, -0.0270133, 0.4000042, 0.02182833, -0.01037906, 2.245152E-05, 0.0265193, -0.02769795, 0.4000035
 246831228, 0.01660763, -0.004987445, 2.183826E-05, 0.02638241, -0.02757153, 0.4000033, 0.01449893, 0.02215308, 6.297617E-05, 0.02632833, -0.0270133, 0.4000042
 247031148, 0.001151467, 0.0211357, 3.702733E-05, 0.026009, -0.02703029, 0.4000037, 0.01660763, -0.004987445, 2.183826E-05, 0.02638241, -0.02757153, 0.4000033
 247231068, 0.01346411, 0.02520691, 6.598065E-05, 0.02630166, -0.02695721, 0.4000045, 0.001151467, 0.0211357, 3.702733E-05, 0.026009, -0.02703029, 0.4000037
 247430988, -0.0008161262, 0.003107842, 3.644234E-06, 0.0259656, -0.02738565, 0.4000031, 0.01346411, 0.02520691, 6.598065E-05, 0.02630166, -0.02695721, 0.4000045
 247630908, 0.02309571, 0.01372805, 6.443958E-05, 0.02655472, -0.02716774, 0.4000045, -0.0008161262, 0.003107842, 3.644234E-06, 0.0259656, -0.02738565, 0.4000031
 247830828, 0.009267964, -0.02009328, -1.6297E-05, 0.02620018, -0.02794283, 0.4000026, 0.02309571, 0.01372805, 6.443958E-05, 0.02655472, -0.02716774, 0.4000045
 248030748, 0.01329951, -0.02417833, -1.559835E-05, 0.02629954, -0.02805053, 0.4000028, 0.009267964, -0.02009328, -1.6297E-05, 0.02620018, -0.02794283, 0.4000026
 248230668, 0.0234823, 0.01198056, 6.207362E-05, 0.02656673, -0.02719875, 0.4000045, 0.01329951, -0.02417833, -1.559835E-05, 0.02629954, -0.02805053, 0.4000028
 248431421, -0.0156295, 0.008917103, -0.0696642, 0.02647295, -0.02807497, 0.4000029, 0.0234823, 0.01198056, 6.207362E-05, 0.02656673, -0.02719875, 0.4000045
 248631341, -0.0188949, 0.01277095, -0.1211307, 0.02833307, -0.02886323, 0.4000078, -0.0156295, 0.008917103, -0.0696642, 0.02647295, -0.02807497, 0.4000029
 248831261, -0.02568569, 0.02520108, -0.4027088, 0.0332761, -0.02982821, 0.4000086, -0.0188949, 0.01277095, -0.1211307, 0.02833307, -0.02886323, 0.4000078
 249031181, -0.03485977, -0.03391788, -0.8358822, 0.041048, -0.03669983, 0.4000173, -0.02568569, 0.02520108, -0.4027088, 0.0332761, -0.02982821, 0.4000086
 249231101, 0.01483966, -0.0130749, -1.149945, 0.0528204, -0.04695266, 0.4000046, -0.03485977, -0.03391788, -0.8358822, 0.041048, -0.03669983, 0.4000173
 249431021, -0.01832956, -0.00418628, -1.473099, 0.06650459, -0.06107321, 0.3999937, 0.01483966, -0.0130749, -1.149945, 0.0528204, -0.04695266, 0.4000046
 249630941, -0.04951112, -0.1000732, -1.774676, 0.08356269, -0.07976938, 0.3999835, -0.01832956, -0.00418628, -1.473099, 0.06650459, -0.06107321, 0.3999937
 249830861, 0.06284678, -0.1141185, -2.086299, 0.1046487, -0.1001657, 0.3999512, -0.04951112, -0.1000732, -1.774676, 0.08356269, -0.07976938, 0.3999835
 250030781, -0.01899297, -0.02194828, -2.335584, 0.1264247, -0.122108, 0.3999184, 0.06284678, -0.1141185, -2.086299, 0.1046487, -0.1001657, 0.3999512
 250230701, -0.01613072, -0.05225714, -2.501208, 0.1511507, -0.1474715, 0.3999016, -0.01899297, -0.02194828, -2.335584, 0.1264247, -0.122108, 0.3999184
 250431454, 0.1269343, 0.01290368, -2.710135, 0.1791701, -0.174464, 0.3998798, -0.01613072, -0.05225714, -2.501208, 0.1511507, -0.1474715, 0.3999016
 250631374, 0.06270645, -0.07211993, -2.828209, 0.2073352, -0.2041735, 0.3998936, 0.1269343, 0.01290368, -2.710135, 0.1791701, -0.174464, 0.3998798
 250831294, -0.1731925, -0.1086814, -3.014698, 0.2364909, -0.2348996, 0.3999472, 0.06270645, -0.07211993, -2.828209, 0.2073352, -0.2041735, 0.3998936
 251031214, 0.2071592, -0.1800237, -3.166886, 0.2749246, -0.2658229, 0.999954, -0.1731925, -0.1086814, -3.014698, 0.2364909, -0.2348996, 0.3999472
 251231134, -0.09888873, -0.2777525, -3.251692, 0.3055105, -0.299929, 0.9999337, 0.2071592, -0.1800237, -3.166886, 0.2749246, -0.2658229, 0.999954
 251431054, 0.326572, -0.0657858, -3.414233, 0.3441046, -0.3328721, 0.9998677, -0.09888873, -0.2777525, -3.251692, 0.3055105, -0.299929, 0.9999337
 251630974, 0.4005891, 0.2313933, -3.452694, 0.3798625, -0.3670268, 0.9998466, 0.326572, -0.0657858, -3.414233, 0.3441046, -0.3328721, 0.9998677
 251830894, 0.07082304, -0.06777646, -3.545562, 0.4127975, -0.405119, 0.9998636, 0.4005891, 0.2313933, -3.452694, 0.3798625, -0.3670268, 0.9998466
 252030814, 0.4005947, 0.06552997, -3.619668, 0.4525837, -0.441983, 0.9998351, 0.07082304, -0.06777646, -3.545562, 0.4127975, -0.405119, 0.9998636
 252230734, 0.322284, 0.08983516, -3.67205, 0.4891731, -0.4796155, 1.000088, 0.4005947, 0.06552997, -3.619668, 0.4525837, -0.441983, 0.9998351
 252430654, 0.07295709, -0.2214615, -3.561735, 0.5235222, -0.5182942, 1.000445, 0.322284, 0.08983516, -3.67205, 0.4891731, -0.4796155, 1.000088
 252631407, 0.5315635, 0.3019444, -3.332031, 0.5613885, -0.5513697, 1.000662, 0.07295709, -0.2214615, -3.561735, 0.5235222, -0.5182942, 1.000445
 252831327, -0.313099, -0.2837448, -2.97941, 0.5877858, -0.5869361, 1.000867, 0.5315635, 0.3019444, -3.332031, 0.5613885, -0.5513697, 1.000662
 253031247, 0.06328516, -0.3520967, -2.744977, 0.6180054, -0.6174766, 1.0008, -0.313099, -0.2837448, -2.97941, 0.5877858, -0.5869361, 1.000867
 253231167, 0.3497081, 0.3315868, -2.422256, 0.6454589, -0.6412639, 1.00068, 0.06328516, -0.3520967, -2.744977, 0.6180054, -0.6174766, 1.0008
 253431087, -0.2377332, -0.5598121, -2.081321, 0.6645586, -0.669497, 1.00066, 0.3497081, 0.3315868, -2.422256, 0.6454589, -0.6412639, 1.00068
 253631007, 0.3304837, -0.6039681, -1.852814, 0.6867774, -0.6903803, 1.0006, -0.2377332, -0.5598121, -2.081321, 0.6645586, -0.669497, 1.00066
 253830927, -0.02663104, -0.6938021, -1.604594, 0.7015952, -0.7091048, 1.00049, 0.3304837, -0.6039681, -1.852814, 0.6867774, -0.6903803, 1.0006
 254030847, 0.5081082, 0.1579855, -1.338289, 0.719235, -0.7188379, 1.000297, -0.02663104, -0.6938021, -1.604594, 0.7015952, -0.7091048, 1.00049
 254230767, -0.4696814, -0.6926566, -1.061115, 0.7261567, -0.7366229, 1.000216, 0.5081082, 0.1579855, -1.338289, 0.719235, -0.7188379, 1.000297
 254430687, 0.1365178, -0.1191431, -0.8699675, 0.7373955, -0.7424346, 1.00005, -0.4696814, -0.6926566, -1.061115, 0.7261567, -0.7366229, 1.000216
 254631440, -0.5149705, -0.8214157, -0.6362485, 0.7428586, -0.756914, 0.9988403, 0.1365178, -0.1191431, -0.8699675, 0.7373955, -0.7424346, 1.00005
 254831360, 0.4048961, 0.3343607, -0.5655462, 0.7694481, -0.7619995, 0.9818132, -0.5149705, -0.8214157, -0.6362485, 0.7428586, -0.756914, 0.9988403
 255031280, 0.4324735, -0.4776966, -0.504972, 0.8211074, -0.7747191, 0.9400008, 0.4048961, 0.3343607, -0.5655462, 0.7694481, -0.7619995, 0.9818132
 255231200, 0.5778482, -0.117096, -0.3792713, 0.886031, -0.7750914, 0.8841171, 0.4324735, -0.4776966, -0.504972, 0.8211074, -0.7747191, 0.9400008
 255431120, 0.6377238, 0.2128983, -0.3799714, 0.9450105, -0.772193, 0.82789, 0.5778482, -0.117096, -0.3792713, 0.886031, -0.7750914, 0.8841171
 255631040, 0.7392008, -0.8007491, -0.4189715, 0.9979136, -0.7746085, 0.773342, 0.6377238, 0.2128983, -0.3799714, 0.9450105, -0.772193, 0.82789
 255830960, 1.116678, 0.006284277, -0.5102796, 1.051642, -0.760528, 0.7163657, 0.7392008, -0.8007491, -0.4189715, 0.9979136, -0.7746085, 0.773342
 256030880, 1.277746, 0.1052378, -0.6324258, 1.101439, -0.746288, 0.6594439, 1.116678, 0.006284277, -0.5102796, 1.051642, -0.760528, 0.7163657
 256230800, 1.212456, 0.4010099, -0.6005885, 1.13703, -0.7273898, 0.6182989, 1.277746, 0.1052378, -0.6324258, 1.101439, -0.746288, 0.6594439
 256430720, 2.830734, -0.05967307, -1.365265, 1.183336, -0.708611, 0.602951, 1.212456, 0.4010099, -0.6005885, 1.13703, -0.7273898, 0.6182989
 256631473, 3.440727, -0.4796041, -1.451064, 1.197481, -0.6877044, 0.6259521, 2.830734, -0.05967307, -1.365265, 1.183336, -0.708611, 0.602951
 256831393, 2.840143, -0.3228434, -1.155639, 1.182461, -0.6598293, 0.6574963, 3.440727, -0.4796041, -1.451064, 1.197481, -0.6877044, 0.6259521
 257031313, 4.109769, -0.2514951, -1.617125, 1.232542, -0.6273182, 0.6494052, 2.840143, -0.3228434, -1.155639, 1.182461, -0.6598293, 0.6574963
 257231233, 4.345734, -0.3016141, -1.694036, 1.255321, -0.592629, 0.6502883, 4.109769, -0.2514951, -1.617125, 1.232542, -0.6273182, 0.6494052
 257431153, 3.361344, 0.2794151, -1.219958, 1.224936, -0.5538871, 0.6899121, 4.345734, -0.3016141, -1.694036, 1.255321, -0.592629, 0.6502883
 257631073, 4.385369, 0.2047905, -1.431835, 1.256611, -0.5125927, 0.7063528, 3.361344, 0.2794151, -1.219958, 1.224936, -0.5538871, 0.6899121
 257830993, 4.952704, 0.2196762, -1.590878, 1.28815, -0.4695104, 0.707296, 4.385369, 0.2047905, -1.431835, 1.256611, -0.5125927, 0.7063528
 258030913, 4.153955, 0.07909957, -1.297603, 1.272817, -0.4327676, 0.7173156, 4.952704, 0.2196762, -1.590878, 1.28815, -0.4695104, 0.707296
 258230833, 4.510862, 0.9415281, -1.543206, 1.302982, -0.3775897, 0.7135894, 4.153955, 0.07909957, -1.297603, 1.272817, -0.4327676, 0.7173156
 258430753, 4.605872, 2.011526, -1.670781, 1.324112, -0.3243327, 0.7172918, 4.510862, 0.9415281, -1.543206, 1.302982, -0.3775897, 0.7135894
 258630673, 4.645843, 0.8331003, -1.472093, 1.318345, -0.2860859, 0.7312049, 4.605872, 2.011526, -1.670781, 1.324112, -0.3243327, 0.7172918
 258831426, 4.726676, 1.268359, -1.571324, 1.331028, -0.2344875, 0.7346199, 4.645843, 0.8331003, -1.472093, 1.318345, -0.2860859, 0.7312049
 259031346, 4.417968, 2.29665, -1.684213, 1.337825, -0.1823494, 0.7382447, 4.726676, 1.268359, -1.571324, 1.331028, -0.2344875, 0.7346199
 259231266, 4.325485, 1.883173, -1.55304, 1.332052, -0.1401575, 0.7457399, 4.417968, 2.29665, -1.684213, 1.337825, -0.1823494, 0.7382447
 259431186, 3.482638, 1.41197, -1.224975, 1.303357, -0.1088169, 0.7601921, 4.325485, 1.883173, -1.55304, 1.332052, -0.1401575, 0.7457399
 259631106, 3.077801, 2.157033, -1.209941, 1.302351, -0.05979207, 0.76287, 3.482638, 1.41197, -1.224975, 1.303357, -0.1088169, 0.7601921
 259831026, 2.995976, 2.333932, -1.315912, 1.304152, -0.01214513, 0.7646936, 3.077801, 2.157033, -1.209941, 1.302351, -0.05979207, 0.76287
 260030946, 3.506412, 2.373231, -1.418981, 1.317165, 0.0405401, 0.7607107, 2.995976, 2.333932, -1.315912, 1.304152, -0.01214513, 0.7646936
 260230866, 3.790524, 1.864031, -1.389572, 1.316944, 0.08173922, 0.7610102, 3.506412, 2.373231, -1.418981, 1.317165, 0.0405401, 0.7607107
 260430786, 4.23185, 2.241632, -1.542691, 1.33212, 0.1380326, 0.7534162, 3.790524, 1.864031, -1.389572, 1.316944, 0.08173922, 0.7610102
 260630706, 4.036309, 3.173603, -1.80754, 1.339014, 0.1962075, 0.7470965, 4.23185, 2.241632, -1.542691, 1.33212, 0.1380326, 0.7534162
 260831459, 2.867891, 2.472093, -1.349688, 1.293333, 0.2081656, 0.763396, 4.036309, 3.173603, -1.80754, 1.339014, 0.1962075, 0.7470965
 261031379, 3.921456, 2.480697, -1.491918, 1.311362, 0.2658255, 0.7539351, 2.867891, 2.472093, -1.349688, 1.293333, 0.2081656, 0.763396
 261231299, 3.256305, 2.604527, -1.363775, 1.288178, 0.3035327, 0.7587492, 3.921456, 2.480697, -1.491918, 1.311362, 0.2658255, 0.7539351
 261431219, 3.148005, 3.403023, -1.65422, 1.289898, 0.3632628, 0.7516997, 3.256305, 2.604527, -1.363775, 1.288178, 0.3035327, 0.7587492
 261631139, 3.970684, 3.341506, -1.699362, 1.295503, 0.4173164, 0.7453318, 3.148005, 3.403023, -1.65422, 1.289898, 0.3632628, 0.7516997
 261831059, 2.627539, 3.347157, -1.478559, 1.255609, 0.437465, 0.7553016, 3.970684, 3.341506, -1.699362, 1.295503, 0.4173164, 0.7453318
 262030979, 3.861707, 3.508509, -1.648506, 1.267525, 0.5030805, 0.7440677, 2.627539, 3.347157, -1.478559, 1.255609, 0.437465, 0.7553016
 262230899, 2.771907, 4.054172, -1.672032, 1.239729, 0.5423682, 0.7457529, 3.861707, 3.508509, -1.648506, 1.267525, 0.5030805, 0.7440677
 262430819, 2.803916, 2.990894, -1.278817, 1.206854, 0.5540929, 0.7564304, 2.771907, 4.054172, -1.672032, 1.239729, 0.5423682, 0.7457529
 262630739, 2.486151, 4.236603, -1.721434, 1.203774, 0.6242496, 0.7444269, 2.803916, 2.990894, -1.278817, 1.206854, 0.5540929, 0.7564304
 262830659, 2.53653, 3.967822, -1.595738, 1.179567, 0.6570047, 0.7469541, 2.486151, 4.236603, -1.721434, 1.203774, 0.6242496, 0.7444269
 263031412, 2.489674, 4.361329, -1.691582, 1.162834, 0.7085702, 0.7425952, 2.53653, 3.967822, -1.595738, 1.179567, 0.6570047, 0.7469541
 263231332, 1.943736, 3.372097, -1.293796, 1.11964, 0.7101779, 0.756041, 2.489674, 4.361329, -1.691582, 1.162834, 0.7085702, 0.7425952
 263431252, 2.645196, 3.495792, -1.342819, 1.106836, 0.7572285, 0.7512772, 1.943736, 3.372097, -1.293796, 1.11964, 0.7101779, 0.756041
 263631172, 2.226346, 3.382838, -1.258726, 1.075818, 0.7849847, 0.7538021, 2.645196, 3.495792, -1.342819, 1.106836, 0.7572285, 0.7512772
 263831092, 1.687101, 3.763831, -1.353451, 1.047916, 0.8265298, 0.751135, 2.226346, 3.382838, -1.258726, 1.075818, 0.7849847, 0.7538021
 264031012, 1.373911, 4.521471, -1.591239, 1.025846, 0.8831521, 0.7433051, 1.687101, 3.763831, -1.353451, 1.047916, 0.8265298, 0.751135
 264230932, 1.905067, 3.544837, -1.230999, 0.9923399, 0.8881103, 0.7535323, 1.373911, 4.521471, -1.591239, 1.025846, 0.8831521, 0.7433051
 264430852, 1.606952, 4.814491, -1.653541, 0.9693084, 0.9619207, 0.7411566, 1.905067, 3.544837, -1.230999, 0.9923399, 0.8881103, 0.7535323
 264630772, 1.131853, 3.689889, -1.247509, 0.9244545, 0.9497764, 0.7577237, 1.606952, 4.814491, -1.653541, 0.9693084, 0.9619207, 0.7411566
 264830692, 0.3675632, 4.55513, -1.553065, 0.8946947, 1.005358, 0.7492779, 1.131853, 3.689889, -1.247509, 0.9244545, 0.9497764, 0.7577237
 265031445, 1.286379, 4.258584, -1.393731, 0.8645619, 1.028746, 0.7508972, 0.3675632, 4.55513, -1.553065, 0.8946947, 1.005358, 0.7492779
 265231365, 1.174318, 4.675645, -1.518489, 0.8313446, 1.071772, 0.745957, 1.286379, 4.258584, -1.393731, 0.8645619, 1.028746, 0.7508972
 265431285, 0.3063378, 4.77033, -1.584651, 0.7910054, 1.098794, 0.7467546, 1.174318, 4.675645, -1.518489, 0.8313446, 1.071772, 0.745957
 265631205, 0.573142, 4.293476, -1.392767, 0.7545595, 1.105861, 0.754573, 0.3063378, 4.77033, -1.584651, 0.7910054, 1.098794, 0.7467546
 265831125, 0.654287, 3.723054, -1.171034, 0.7181229, 1.110059, 0.7621469, 0.573142, 4.293476, -1.392767, 0.7545595, 1.105861, 0.754573
 266031045, -0.1244876, 5.10756, -1.682518, 0.6776463, 1.184302, 0.7452706, 0.654287, 3.723054, -1.171034, 0.7181229, 1.110059, 0.7621469
 266230965, -0.531718, 3.752837, -1.27385, 0.6386372, 1.156448, 0.7616815, -0.1244876, 5.10756, -1.682518, 0.6776463, 1.184302, 0.7452706
 266430885, -0.7333851, 4.036879, -1.379092, 0.5992319, 1.187525, 0.7580652, -0.531718, 3.752837, -1.27385, 0.6386372, 1.156448, 0.7616815
 266630805, -0.5316585, 3.727945, -1.247923, 0.5613618, 1.197116, 0.7600504, -0.7333851, 4.036879, -1.379092, 0.5992319, 1.187525, 0.7580652
 266830725, -0.5261844, 3.830542, -1.252604, 0.5209202, 1.217945, 0.7597358, -0.5316585, 3.727945, -1.247923, 0.5613618, 1.197116, 0.7600504
 267031478, -0.8747106, 3.77593, -1.292519, 0.4791478, 1.234166, 0.7607446, -0.5261844, 3.830542, -1.252604, 0.5209202, 1.217945, 0.7597358
 267231398, -0.3406409, 3.760022, -1.172636, 0.4420823, 1.245827, 0.7620327, -0.8747106, 3.77593, -1.292519, 0.4791478, 1.234166, 0.7607446
 267431318, -0.9819155, 3.731294, -1.266055, 0.3973447, 1.26285, 0.7602788, -0.3406409, 3.760022, -1.172636, 0.4420823, 1.245827, 0.7620327
 267631238, -1.280345, 3.550886, -1.259722, 0.3560759, 1.27221, 0.7610583, -0.9819155, 3.731294, -1.266055, 0.3973447, 1.26285, 0.7602788
 267831158, -1.514272, 3.491289, -1.278911, 0.3146886, 1.283905, 0.7602551, -1.280345, 3.550886, -1.259722, 0.3560759, 1.27221, 0.7610583
 268031078, -1.336304, 4.795847, -1.592264, 0.2623044, 1.335628, 0.7452263, -1.514272, 3.491289, -1.278911, 0.3146886, 1.283905, 0.7602551
 268230998, -1.706387, 4.407511, -1.54865, 0.220208, 1.334453, 0.7473941, -1.336304, 4.795847, -1.592264, 0.2623044, 1.335628, 0.7452263
 268430918, -1.672293, 3.665387, -1.330194, 0.18414, 1.317021, 0.7563384, -1.706387, 4.407511, -1.54865, 0.220208, 1.334453, 0.7473941
 268630838, -2.220462, 4.672734, -1.685152, 0.1225427, 1.362384, 0.7428586, -1.672293, 3.665387, -1.330194, 0.18414, 1.317021, 0.7563384
 268830758, -1.389728, 4.870107, -1.607843, 0.08741057, 1.361629, 0.746547, -2.220462, 4.672734, -1.685152, 0.1225427, 1.362384, 0.7428586
 269030678, -2.598723, 4.222147, -1.705724, 0.03674468, 1.360231, 0.7464658, -1.389728, 4.870107, -1.607843, 0.08741057, 1.361629, 0.746547
 269231431, -2.646007, 3.711379, -1.56912, 0.0006834716, 1.346968, 0.7518117, -2.598723, 4.222147, -1.705724, 0.03674468, 1.360231, 0.7464658
 269431351, -2.317342, 4.412341, -1.610475, -0.0488238, 1.362283, 0.7465699, -2.646007, 3.711379, -1.56912, 0.0006834716, 1.346968, 0.7518117
 269631271, -2.791175, 3.404265, -1.496829, -0.08367813, 1.340169, 0.7532134, -2.317342, 4.412341, -1.610475, -0.0488238, 1.362283, 0.7465699
 269831191, -2.554881, 4.502195, -1.632334, -0.1412691, 1.363109, 0.7445101, -2.791175, 3.404265, -1.496829, -0.08367813, 1.340169, 0.7532134
 270031111, -2.90147, 3.961121, -1.592288, -0.1830943, 1.347553, 0.7490201, -2.554881, 4.502195, -1.632334, -0.1412691, 1.363109, 0.7445101
 270231031, -3.180553, 3.528883, -1.570596, -0.2250457, 1.334574, 0.7519947, -2.90147, 3.961121, -1.592288, -0.1830943, 1.347553, 0.7490201
 270430951, -3.218521, 3.713552, -1.596053, -0.2726918, 1.331939, 0.7499729, -3.180553, 3.528883, -1.570596, -0.2250457, 1.334574, 0.7519947
 270630871, -2.892856, 2.381839, -1.263248, -0.2879878, 1.290141, 0.7637188, -3.218521, 3.713552, -1.596053, -0.2726918, 1.331939, 0.7499729
 270830791, -2.249796, 3.107675, -1.162909, -0.3270321, 1.284905, 0.7635887, -2.892856, 2.381839, -1.263248, -0.2879878, 1.290141, 0.7637188
 271030711, -2.774839, 2.449266, -1.216821, -0.3701239, 1.2699, 0.7622472, -2.249796, 3.107675, -1.162909, -0.3270321, 1.284905, 0.7635887
 271231464, -2.748082, 2.798668, -1.243711, -0.4153419, 1.263687, 0.7589182, -2.774839, 2.449266, -1.216821, -0.3701239, 1.2699, 0.7622472
 271431384, -3.791989, 3.467165, -1.642155, -0.49201, 1.278689, 0.7435069, -2.748082, 2.798668, -1.243711, -0.4153419, 1.263687, 0.7589182
 271631304, -3.171297, 2.693842, -1.395403, -0.5059738, 1.23983, 0.7548819, -3.791989, 3.467165, -1.642155, -0.49201, 1.278689, 0.7435069
 271831224, -3.944112, 2.336131, -1.580955, -0.5615395, 1.229071, 0.7508674, -3.171297, 2.693842, -1.395403, -0.5059738, 1.23983, 0.7548819
 272031144, -3.431041, 2.285578, -1.445469, -0.5881475, 1.20245, 0.7569358, -3.944112, 2.336131, -1.580955, -0.5615395, 1.229071, 0.7508674
 272231064, -3.244613, 2.690873, -1.463439, -0.6264095, 1.188511, 0.7563311, -3.431041, 2.285578, -1.445469, -0.5881475, 1.20245, 0.7569358
 272430984, -3.644403, 2.721727, -1.545579, -0.675266, 1.17608, 0.7505345, -3.244613, 2.690873, -1.463439, -0.6264095, 1.188511, 0.7563311
 272630904, -4.494773, 2.129644, -1.827733, -0.7330179, 1.160916, 0.7423767, -3.644403, 2.721727, -1.545579, -0.675266, 1.17608, 0.7505345
 272830824, -4.6761, 1.99259, -1.824954, -0.7756441, 1.13909, 0.7408456, -4.494773, 2.129644, -1.827733, -0.7330179, 1.160916, 0.7423767
