TimeUS,CAN,CAE,CAD,CAe,NAN,NAE,NAD,NAe,m10,m00,Gye
 158234181, -0.01045577, 0.01299784, -0.0002486783, 0.001091626, -0.003160008, 0.004719316, -0.0003775993, 0.0005187924, -0.108312, 0.9941158, 0.04579443
 158434101, 0.004724239, 0.01136089, -0.0007962379, 0.001089464, 0.01386862, 0.002356283, -8.526252E-05, 0.0005187924, -0.1083118, 0.9941157, 0.04570375
 158634021, 0.2743306, -0.01829865, 0.0002620412, 0.001089464, 0.2087394, -0.01844866, 0.00079354, 0.0005187924, -0.1083046, 0.9941165, 0.04570375
 158833941, 0.9569364, -0.09303518, 0.0124835, 0.001089464, 0.4480101, -0.04421927, 0.008196603, 0.0005187924, -0.1082769, 0.9941192, 0.05027412
 159033861, 1.716148, -0.1744765, 0.0333108, 0.001089464, 0.6844697, -0.06549006, 0.01385211, 0.0005187924, -0.1082329, 0.994122, 0.04570375
 159233781, 2.443439, -0.249455, 0.04976245, 0.001089464, 0.894545, -0.08598252, 0.01804107, 0.0005187924, -0.108183, 0.9941259, 0.04570375
 159433701, 3.089021, -0.3129445, 0.06468621, 0.001089464, 1.055063, -0.1057653, 0.02289037, 0.0005187924, -0.1081239, 0.9941308, 0.04570375
 159633621, 3.380662, -0.3484184, 0.07763824, 0.001089464, 1.039692, -0.1144719, 0.02530811, 0.0005187924, -0.1080741, 0.9941335, 0.04570375
 159833541, 3.198945, -0.3473823, 0.07947012, 0.001089464, 0.9366711, -0.09468487, 0.02411717, 0.0005187924, -0.1080535, 0.9941334, 0.04570375
 160034294, 2.88432, -0.298837, 0.05038975, 0.001091626, 0.8478041, -0.09881461, -0.02612835, 0.000520954, -0.1080894, 0.9941297, 0.04579443
 160234214, 2.546437, -0.2840028, -0.1019393, 0.001091626, 0.8019701, -0.08366663, -0.01915779, 0.0005187924, -0.1081043, 0.9941285, 0.04121499
 160434134, 2.39727, -0.2381164, -0.004263394, 0.001089464, 0.7063324, -0.06111796, 0.0412827, 0.0005187924, -0.1083354, 0.9941018, 0.04570375
 160634054, 2.803545, -0.3026555, -1.097723, 0.001089464, 1.02505, -0.1218175, -0.795714, 0.0005187924, -0.1108276, 0.9932964, 0.04570375
 160833974, 2.868803, -0.3589886, -1.959897, 0.001089464, 0.7815272, -0.09860977, -0.3966969, 0.0005187924, -0.1115525, 0.9918012, 0.05027412
 161033894, 2.380039, -0.2892162, -1.081552, 0.001089464, 0.6796075, -0.05327541, -0.2849925, 0.0005187924, -0.1092926, 0.9907822, 0.04570375
 161233814, 2.082222, -0.1677966, -0.8375179, 0.001089464, 0.5987774, -0.06819864, -0.2316088, 0.0005187924, -0.1113501, 0.9897816, 0.04570375
 161433734, 1.832652, -0.2153091, -0.6736262, 0.001089464, 0.5193835, -0.06461703, -0.2031424, 0.0005187924, -0.1110175, 0.9891714, 0.04570375
 161633654, 1.574359, -0.1782733, -0.6496513, 0.001089464, 0.4369421, -0.0488513, -0.2230406, 0.0005187924, -0.1097099, 0.9883325, 0.04570375
 161833574, 1.31864, -0.1353997, -0.7007091, 0.001089464, 0.3825982, -0.03816437, -0.1673283, 0.0005187924, -0.1091824, 0.987464, 0.04570375
 162033494, 1.155681, -0.1349278, -0.4911927, 0.001089464, 0.3278788, -0.05066043, -0.1424192, 0.0005187924, -0.1108301, 0.9867283, 0.04570375
 162234247, 0.9815931, -0.121794, -0.4666826, 0.001091626, 0.3023329, -0.02959937, -0.1729299, 0.000520954, -0.1096776, 0.9861044, 0.04121499
 162434167, 0.8529119, -0.06952751, -0.4975231, 0.001091626, 0.2442986, -0.007244783, -0.1847872, 0.0005187924, -0.1101775, 0.9850927, 0.04579443
 162634087, 0.6943502, -0.05817665, -0.4911869, 0.001089464, 0.2222603, -0.03615156, -0.1067583, 0.0005187924, -0.1131267, 0.9841148, 0.04570375
 162834007, 0.6114769, -0.1093218, -0.2669944, 0.001089464, 0.186245, -0.01776592, -0.08088908, 0.0005187924, -0.1120128, 0.9839528, 0.04570375
 163033927, 0.5161361, -0.05549411, -0.2196753, 0.001089464, 0.1438344, -0.01564125, -0.05493826, 0.0005187924, -0.1127784, 0.9836217, 0.05027412
 163233847, 0.4155971, -0.05899956, -0.2208756, 0.001089464, 0.1040595, -0.01392342, -0.06857312, 0.0005187924, -0.1143256, 0.9829747, 0.04570375
 163433767, 0.3367093, -0.04011756, -0.1829849, 0.001089464, 0.08345681, 0.001344829, -0.08505498, 0.0005187924, -0.1143443, 0.9826152, 0.04570375
 163633687, 0.265771, -0.02400759, -0.2442958, 0.001089464, 0.07879412, -0.002916184, -0.04221114, 0.0005187924, -0.1152319, 0.9822114, 0.04570375
 163833607, 0.2265337, -0.01958567, -0.09789009, 0.001089464, 0.05096527, -0.004968609, -0.06317624, 0.0005187924, -0.1156856, 0.9819424, 0.04570375
 164033527, 0.1517575, 0.005232252, -0.1897215, 0.001089464, 0.05855861, 0.009785197, -0.03645325, 0.0005187924, -0.1152516, 0.9816055, 0.04570375
 164234280, 0.1583559, -0.0003889399, -0.05070775, 0.001091626, 0.06079718, 0.0004677484, 0.02459639, 0.000520954, -0.1156866, 0.9818692, 0.04121499
 164434200, 0.1358143, -0.01504063, -0.0001515858, 0.001091626, 0.01711965, -0.004926384, -0.0743522, 0.0005187924, -0.1160748, 0.9815256, 0.04579443
 164634120, 0.08060703, -0.01596548, -0.0813142, 0.001089464, 0.02379527, -0.003176269, -0.005374903, 0.0005187924, -0.1158367, 0.9816174, 0.04570375
 164834040, 0.1149172, -0.01286387, 0.1001874, 0.001089464, 0.05451578, -0.002897024, 0.1032744, 0.0005187924, -0.1158302, 0.9825881, 0.04570375
 165033960, 0.151927, -0.01162059, 0.2881274, 0.001089464, 0.05136934, -0.01404805, 0.09702872, 0.0005187924, -0.1175288, 0.9832826, 0.05027412
 165233880, 0.1623759, -0.04213633, 0.3279053, 0.001089464, 0.05838966, -0.007724979, 0.1667685, 0.0005187924, -0.1173121, 0.9845144, 0.04570375
 165433800, 0.1919249, 0.00296513, 0.4377074, 0.001089464, 0.05489562, -0.007184333, 0.1004509, 0.0005187924, -0.1186379, 0.9853626, 0.04570375
 165633720, 0.1663752, -0.03622894, 0.3006731, 0.001089464, 0.06100877, -0.02176178, 0.130237, 0.0005187924, -0.1192272, 0.9861751, 0.04570375
 165833640, 0.1757932, -0.04313733, 0.3335723, 0.001089464, 0.03145012, -0.001723344, 0.05331662, 0.0005187924, -0.1193632, 0.9868255, 0.04570375
 166033560, 0.1487727, -0.01396136, 0.2780613, 0.001089464, 0.06506746, 0.006914633, 0.1328862, 0.0005187924, -0.1183317, 0.9878663, 0.04570375
 166233480, 0.1221646, 0.002957899, 0.326685, 0.001089464, -0.006040806, 0.0005060445, 0.07396284, 0.0005187924, -0.1196808, 0.9881857, 0.04570375
 166434233, -0.02100906, -0.00763282, 0.2820134, 0.001091626, -0.003002308, 0.004121209, 0.139261, 0.000520954, -0.1203518, 0.9887766, 0.04121499
 166634153, -0.01161749, -0.01420759, 0.3523681, 0.001091626, -0.01910863, -0.0158118, 0.1133702, 0.0005187924, -0.1206566, 0.989336, 0.04579443
 166834073, -0.04104221, 0.02138643, 0.4086224, 0.001089464, -0.00705117, 0.06007079, 0.1759581, 0.0005187924, -0.1182488, 0.9903944, 0.04570375
 167033993, -0.02748109, 0.2013499, 0.5850346, 0.001089464, -0.01504047, 0.06215428, 0.2151565, 0.0005187924, -0.1209441, 0.9909013, 0.04570375
 167233913, -0.07572812, 0.140569, 0.5092013, 0.001089464, -0.03766752, 0.01783627, 0.1332185, 0.0005187924, -0.1223541, 0.9911526, 0.05027412
 167433833, -0.1187975, 0.05146903, 0.392604, 0.001089464, -0.03407738, 0.006011893, 0.1366562, 0.0005187924, -0.1182286, 0.9920349, 0.04570375
 167633753, -0.1127227, 0.0521906, 0.437548, 0.001089464, -0.03891646, 0.03934016, 0.1536339, 0.0005187924, -0.1140881, 0.9929067, 0.04570375
 167833673, -0.1094349, 0.1197775, 0.4525483, 0.001089464, -0.03415435, 0.0392752, 0.133909, 0.0005187924, -0.1142965, 0.9931309, 0.04570375
 168033593, -0.1057154, 0.1056928, 0.3951608, 0.001089464, -0.02857582, 0.03156238, 0.1023958, 0.0005187924, -0.1124095, 0.9935113, 0.04570375
 168233513, -0.1088639, 0.0899358, 0.3538236, 0.001089464, -0.03815753, 0.02725027, 0.1050351, 0.0005187924, -0.1126475, 0.993588, 0.04570375
 168434266, -0.1105016, 0.03911493, 0.4345165, 0.001091626, -0.03292207, 0.009163794, 0.1617598, 0.000520954, -0.1113195, 0.9937839, 0.04121499
 168634186, -0.09046113, 0.05082416, 0.4625512, 0.001091626, -0.02976988, 0.02889234, 0.1341286, 0.0005187924, -0.1090164, 0.9939911, 0.04579443
 168834106, -0.08834244, 0.08110666, 0.3218815, 0.001089464, -0.03205341, 0.02066836, 0.06373298, 0.0005187924, -0.1082462, 0.9940094, 0.04570375
 169034026, -0.08612578, 0.06545088, 0.3137338, 0.001089464, -0.02885084, 0.02943913, 0.1381112, 0.0005187924, -0.106602, 0.994002, 0.04570375
 169233946, -0.07355141, 0.07479192, 0.4724922, 0.001089464, -0.02012698, 0.001750431, 0.1535455, 0.0005187924, -0.1061849, 0.9937173, 0.05027412
 169433866, -0.05563699, 0.01582596, 0.4005171, 0.001089464, -0.01767324, 0.007936035, 0.08391999, 0.0005187924, -0.1059573, 0.9935096, 0.04570375
 169633786, -0.05467692, 0.05777893, 0.2081299, 0.001089464, -0.007683979, 0.0364022, 0.04675091, 0.0005187924, -0.1045027, 0.9935108, 0.04570375
 169833706, -0.04311098, 0.08523818, 0.1250929, 0.001089464, -0.01823277, 0.01564801, 0.03560873, 0.0005187924, -0.1042166, 0.9934338, 0.04570375
 170033626, -0.0502315, 0.03496953, 0.2212995, 0.001089464, -0.01895642, 0.01666348, 0.1032311, 0.0005187924, -0.1034652, 0.9931408, 0.04570375
 170233546, -0.04479197, 0.06756916, 0.292468, 0.001089464, -0.006917281, 0.02718116, 0.06771554, 0.0005187924, -0.1015523, 0.9930359, 0.04570375
 170434299, -0.02596686, 0.07113316, 0.2801401, 0.001091626, -0.0006100516, 0.003263063, 0.108593, 0.0005187924, -0.1014557, 0.9925594, 0.04579443
 170634219, -0.006340312, 0.02247623, 0.2897393, 0.001091626, -0.0007121601, 0.007338712, 0.07785655, 0.000520954, -0.100196, 0.9923312, 0.04121499
 170834139, 0.002429135, 0.02427253, 0.1554628, 0.001091626, 0.003154657, 0.009088495, 0.01708747, 0.0005187924, -0.09960707, 0.9923128, 0.04579443
 171034059, 0.01153194, 0.05077256, 0.062405, 0.001089464, 0.0002256934, 0.01947025, 0.06721529, 0.0005187924, -0.097975, 0.992241, 0.04570375
 171233979, -0.008772683, 0.04832475, 0.1765809, 0.001089464, -0.01277727, 0.005218294, 0.03816498, 0.0005187924, -0.09822427, 0.9920088, 0.05027412
 171433899, -0.02711361, 0.03183982, 0.1177923, 0.001089464, -0.001807328, 0.01063542, 0.05528298, 0.0005187924, -0.09756914, 0.9918131, 0.04570375
 171633819, 0.009975129, 0.03865049, 0.1999168, 0.001089464, 0.004880629, 0.03146174, 0.04520028, 0.0005187924, -0.09519174, 0.9916737, 0.04570375
 171833739, 0.006126499, 0.09171645, 0.1036704, 0.001089464, -0.004990885, 0.02714266, 0.03748891, 0.0005187924, -0.09423368, 0.9916071, 0.04570375
 172033659, -0.01066956, 0.0467437, 0.09123185, 0.001089464, -0.004327661, -0.002596449, 0.01036458, 0.0005187924, -0.09510235, 0.9914485, 0.04570375
 172233579, -0.005086136, 0.01273112, 0.0477235, 0.001089464, -0.002356383, 0.01581069, 0.007238925, 0.0005187924, -0.0941825, 0.9914296, 0.04570375
 172433499, -0.000484916, 0.04252801, 0.03796257, 0.001089464, -0.005098679, 0.01606732, 0.002193718, 0.0005187924, -0.09377759, 0.9913889, 0.04570375
 172634252, -0.007409551, 0.02649841, 0.009041956, 0.001091626, -0.003567294, -0.002584676, -0.01126019, 0.000520954, -0.09446131, 0.9913259, 0.04121499
 172834172, 0.0008317715, 0.02670032, 0.03385303, 0.001091626, -0.008271634, 0.0256559, 0.05535723, 0.0005187924, -0.09143369, 0.9913473, 0.04579443
 173034092, -0.0055263, 0.06823811, 0.1562063, 0.001089464, 0.007912087, 0.005945936, 0.05523163, 0.0005187924, -0.09220735, 0.9909916, 0.04570375
 173234012, 0.01233093, 0.02416054, 0.1018211, 0.001089464, 0.004182395, 0.01346653, 0.02323116, 0.0005187924, -0.09190637, 0.9909303, 0.04570375
 173433932, 0.01208451, 0.03082143, 0.04779059, 0.001089464, 0.007065732, 0.01062967, 0.003255304, 0.0005187924, -0.08999137, 0.9910902, 0.05027412
 173633852, 0.03577798, 0.04701766, -0.0133252, 0.001089464, 0.0209072, 0.01538808, -0.004675043, 0.0005187924, -0.09002152, 0.9911265, 0.04570375
 173833772, 0.03918862, 0.02915822, -0.03730804, 0.001089464, 0.008099059, 0.007624305, -0.0214551, 0.0005187924, -0.0890728, 0.9913482, 0.04570375
 174033692, 0.02952638, 0.0401775, -0.006321372, 0.001089464, 0.01135405, 0.007184683, 0.02325653, 0.0005187924, -0.08859444, 0.9912673, 0.04570375
 174233612, 0.03495919, 0.03945445, 0.04522226, 0.001089464, 0.007601142, 0.01390131, -0.01743973, 0.0005187924, -0.08667845, 0.9914454, 0.04570375
 174433532, 0.01484358, 0.04829876, -0.05895575, 0.001089464, -0.006314675, 0.01390435, 0.002775131, 0.0005187924, -0.08680132, 0.9915211, 0.04570375
 174634285, -0.0121302, 0.01860757, 0.03369299, 0.001091626, 0.006790045, -0.006349725, 0.01012917, 0.000520954, -0.08743107, 0.9913248, 0.04121499
 174834205, 0.02039877, -0.003360305, 0.06842857, 0.001091626, 0.01023203, 0.002350976, 0.001049375, 0.0005187924, -0.08663211, 0.9912782, 0.04579443
 175034125, 0.02053357, 0.02426373, 0.03309429, 0.001089464, -0.0004999186, 0.01570969, 0.01642772, 0.0005187924, -0.08618963, 0.9911938, 0.04570375
 175234045, 0.02244269, 0.03828551, 0.02542258, 0.001089464, 0.02397553, 0.005837891, -0.01107487, 0.0005187924, -0.08595192, 0.9912596, 0.04570375
 175433965, 0.06832243, 0.02746299, -0.009065873, 0.001089464, 0.01385767, 0.004355518, -0.003621941, 0.0005187924, -0.08591748, 0.9912496, 0.05027412
 175633885, 0.02787628, 0.01964998, -0.07420246, 0.001089464, 0.00381228, 0.007257921, -0.03457155, 0.0005187924, -0.08520426, 0.9915541, 0.04570375
 175833805, 0.01529041, 0.02890404, -0.05410964, 0.001089464, 0.004051437, 0.01206924, 0.008684974, 0.0005187924, -0.08493838, 0.9915469, 0.04570375
 176033725, 0.02383104, 0.01230413, 0.03886536, 0.001089464, 0.01278757, -0.003052284, 0.001649006, 0.0005187924, -0.08638009, 0.9913552, 0.04570375
 176233645, 0.04816244, -0.01494598, -0.06869814, 0.001089464, 0.01054185, -0.002512302, -0.02463823, 0.0005187924, -0.0863566, 0.9916471, 0.04570375
 176433565, 0.04000282, -0.02084019, -0.08138549, 0.001089464, 0.003946712, -0.01706892, -0.006821191, 0.0005187924, -0.08750241, 0.9916787, 0.04570375
 176633485, 0.01590038, -0.01558422, -0.009042448, 0.001089464, 0.01733942, 0.004540636, -0.0417486, 0.0005187924, -0.0865605, 0.9918301, 0.04570375
 176834238, 0.0385145, 0.0452555, -0.04977415, 0.001091626, 0.001281844, 0.01440549, 0.02512988, 0.000520954, -0.08544154, 0.9918186, 0.04121499
 177034158, 0.02796744, 0.04065342, 0.08680794, 0.001091626, 0.01837223, -0.00380494, 0.02947184, 0.0005187924, -0.08641699, 0.9915813, 0.04579443
 177234078, 0.04210543, 0.01668295, 0.05184563, 0.001089464, 0.01408701, 0.02093404, -0.002764073, 0.0005187924, -0.08547007, 0.9915784, 0.04570375
 177433998, 0.0258938, 0.0274361, 0.01075183, 0.001089464, 0.004500846, -0.002561225, -0.02817464, 0.0005187924, -0.08570158, 0.9915961, 0.04570375
 177633918, 0.02641976, -0.005423433, -0.07708716, 0.001089464, 0.01707599, 0.008464777, -0.03851713, 0.0005187924, -0.08538675, 0.9918097, 0.05027412
 177833838, 0.04459055, 0.03400044, -0.1356647, 0.001089464, 0.01089078, 0.01074541, -0.05487163, 0.0005187924, -0.08534905, 0.9921115, 0.04570375
 178033758, 0.0275135, 0.01685743, -0.1695404, 0.001089464, -0.001673557, 0.009343571, -0.03611378, 0.0005187924, -0.085582, 0.9923751, 0.04570375
 178233678, 0.005521273, 0.02696464, -0.01228155, 0.001089464, 0.01083426, 0.005986764, 0.02052783, 0.0005187924, -0.08543248, 0.992259, 0.04570375
 178433598, 0.02604991, 0.02458919, 0.03971678, 0.001089464, 0.01548707, 0.005567851, 0.004884006, 0.0005187924, -0.08493351, 0.9922497, 0.04570375
 178633518, 0.02836442, 0.03043036, 0.0005539684, 0.001089464, 0.01043457, 0.02138206, -0.01893354, 0.0005187924, -0.08378749, 0.9924053, 0.04570375
 178834271, 0.02045041, 0.06959485, -0.033574, 0.001091626, 0.001184899, 0.04094182, 0.01739663, 0.000520954, -0.08231007, 0.9925276, 0.04121499
 179034191, 0.02605632, 0.08089661, 0.02576572, 0.001091626, 0.0126431, 0.02368092, 0.003219003, 0.0005187924, -0.0814262, 0.9926278, 0.04579443
 179234111, 0.03480847, 0.0688974, -0.05973962, 0.001089464, 0.0196695, 0.02264258, -0.04807182, 0.0005187924, -0.08118338, 0.9928773, 0.04570375
 179434031, 0.03686001, 0.05101001, -0.05612978, 0.001089464, -0.002888776, -0.006545783, 0.03221488, 0.0005187924, -0.08088142, 0.9927863, 0.04570375
 179633951, 0.0137275, 0.01366424, 0.007431561, 0.001089464, 0.001106734, 0.01604175, -0.03321129, 0.0005187924, -0.08052298, 0.9929968, 0.05027412
 179833871, 0.01751058, 0.02122368, -0.1116095, 0.001089464, 0.01268057, -0.001545921, -0.04597607, 0.0005187924, -0.08063839, 0.9931943, 0.04570375
 180033791, 0.03008643, 0.04139207, -0.08595317, 0.001089464, 0.008341672, 0.02835806, 0.01037821, 0.0005187924, -0.07882027, 0.993349, 0.04570375
 180233711, 0.007127827, 0.07501812, 0.01688001, 0.001089464, 0.004488844, 0.03361705, -0.003418127, 0.0005187924, -0.07913166, 0.9933654, 0.04570375
 180433631, 0.02504443, 0.07276476, -0.01831742, 0.001089464, 0.01991622, 0.01575012, -0.02787114, 0.0005187924, -0.07834264, 0.9934931, 0.04570375
 180633551, 0.02159631, 0.08318277, -0.03686378, 0.001089464, -0.01729182, 0.03388412, -0.02744244, 0.0005187924, -0.07549067, 0.9937222, 0.04570375
 180834304, -0.01781969, 0.1175342, -0.01576454, 0.001091626, -0.002391172, 0.03097459, 0.02398771, 0.0005187924, -0.07545674, 0.9936503, 0.04579443
 181034224, 0.03080556, 0.1273776, 0.03335041, 0.001091626, 0.006756685, 0.04834264, -0.006784175, 0.000520954, -0.06760822, 0.9941829, 0.04121499
 181234144, 0.04870535, 0.5647051, -0.03612304, 0.001091626, 0.02605637, 0.340055, -0.01631238, 0.0005187924, -0.06748577, 0.9944593, 0.04579443
 181434064, 0.03629889, 0.5921279, -0.05459891, 0.001089464, 0.005579968, -0.008683347, -0.04579115, 0.0005187924, -0.07635765, 0.9940416, 0.04570375
 181633984, 0.01225277, -0.2099539, -0.1084335, 0.001089464, 0.007011327, -0.1103014, 0.03612089, 0.0005187924, -0.05980528, 0.9949695, 0.04570375
 181833904, 0.01427184, -0.1489641, 0.1023913, 0.001089464, 0.001946859, 0.06054004, 0.013542, 0.0005187924, -0.04731813, 0.995504, 0.05027412
 182033824, 0.0344613, 0.3044344, 0.006452134, 0.001089464, 0.04003579, 0.129753, -0.00930309, 0.0005187924, -0.04882187, 0.9954839, 0.04570375
 182233744, 0.07945473, 0.3486339, 0.002105203, 0.001089464, 0.01533185, 0.07256214, -0.02050666, 0.0005187924, -0.05165006, 0.9954128, 0.04570375
 182433664, 0.02015371, 0.1350787, -0.07777104, 0.001089464, 0.001629013, 0.003836154, -0.02771585, 0.0005187924, -0.04832297, 0.995708, 0.04570375
 182633584, -0.007890808, 0.02833334, -0.06293323, 0.001089464, 0.003096577, 0.02992989, -0.02102535, 0.0005187924, -0.04007193, 0.9961101, 0.04570375
 182833504, -0.00169448, 0.1346454, -0.06807566, 0.001089464, 0.002001012, 0.05285494, 0.002464929, 0.0005187924, -0.03671413, 0.9962986, 0.04570375
 183034257, 0.007181544, 0.1718233, 0.03889048, 0.001091626, -0.0004249756, 0.06098878, 0.03028379, 0.000520954, -0.03560239, 0.9962274, 0.04121499
 183234177, -0.01129485, 0.1698851, 0.02206313, 0.001091626, -0.008154639, 0.06511389, -0.05312299, 0.0005187924, -0.03348103, 0.9964514, 0.04579443
 183434097, 0.02493659, 0.1568314, -0.09214276, 0.001089464, 0.01415701, 0.0532024, 0.01452163, 0.0005187924, -0.02914278, 0.9965863, 0.04570375
 183634017, 0.03151017, 0.1365219, 0.01926095, 0.001089464, -0.00191173, 0.04074705, 0.0282952, 0.0005187924, -0.02517704, 0.9966068, 0.04570375
 183833937, 0.008633069, 0.1342697, 0.05797729, 0.001089464, -0.00208594, 0.04601758, 0.016379, 0.0005187924, -0.02292701, 0.9966363, 0.05027412
 184033857, -0.006524592, 0.119272, -0.01567041, 0.001089464, -0.00976482, 0.03879969, -0.05104731, 0.0005187924, -0.02083947, 0.9968451, 0.04570375
 184233777, -0.003909137, 0.1034934, -0.1325923, 0.001089464, 0.004540596, 0.02888416, -0.0419937, 0.0005187924, -0.01855934, 0.9970497, 0.04570375
 184433697, -0.02535372, 0.1017992, -0.07706724, 0.001089464, -0.0363206, 0.03380135, 0.009451994, 0.0005187924, -0.01630923, 0.999274, 0.04570375
 184633617, -0.1239686, 0.09106766, 0.05665651, 0.001089464, -0.04652342, 0.01611088, 0.03140347, 0.0005187924, -0.0152724, 0.9992419, 0.04570375
 184833537, -0.1415562, 0.06008936, 0.02946886, 0.001089464, -0.03262722, 0.02206817, 0.0220734, 0.0005187924, -0.01466244, 0.9992383, 0.04570375
 185034290, -0.1131453, 0.05500765, 0.01415883, 0.001091626, -0.02810803, 0.0031841, -0.00402549, 0.000520954, -0.0147681, 0.9992087, 0.04579443
 185234210, -0.08799507, 0.006330583, 0.09827825, 0.001091626, -0.03135702, -0.005839603, 0.09892632, 0.0005187924, -0.01415072, 0.9989649, 0.04121499
 185434130, -0.09143019, 0.003070433, 0.1221323, 0.001089464, -0.03743173, 0.01728465, -0.02169897, 0.0005187924, -0.01352673, 0.9989674, 0.04570375
 185634050, -0.1012587, 0.02501846, -0.001152323, 0.001089464, -0.03223402, 0.00422778, 0.02895852, 0.0005187924, -0.01523102, 0.998844, 0.04570375
 185833970, -0.08942798, -0.001762212, -0.008601819, 0.001089464, -0.0203003, 0.01299186, 0.006188205, 0.0005187924, -0.01365925, 0.9988754, 0.05027412
 186033890, -0.06315103, 0.0179369, -0.06854175, 0.001089464, -0.003927564, 0.01907707, -0.04671068, 0.0005187924, -0.0131117, 0.9989817, 0.04570375
 186233810, -0.06461841, 0.03044457, -0.07819425, 0.001089464, -0.03158877, 0.01128334, 0.005988204, 0.0005187924, -0.01231834, 0.9989579, 0.04570375
 186433730, -0.1085075, 0.04812174, -0.04090739, 0.001089464, -0.03421142, 0.01896609, -0.01597728, 0.0005187924, -0.01153948, 0.9990281, 0.04570375
 186633650, -0.1055882, 0.04150674, -0.097148, 0.001089464, -0.03122894, 0.005821836, -0.03542408, 0.0005187924, -0.01070641, 0.9991148, 0.04570375
 186833570, -0.09058057, 0.01251322, -0.1038074, 0.001089464, -0.02759622, -0.00643308, 0.01276821, 0.0005187924, -0.01137934, 0.9991243, 0.04570375
 187033490, -0.09799514, 0.006879865, 0.03397543, 0.001089464, -0.02823451, -0.001282833, 0.04367616, 0.0005187924, -0.01127117, 0.999023, 0.04570375
 187234243, -0.1047671, -0.02223424, 0.09065248, 0.001091626, -0.01886444, -0.01234971, 0.0308219, 0.000520954, -0.0123632, 0.9989318, 0.04121499
 187434163, -0.08172533, -0.0304745, -0.002845488, 0.001091626, -0.0261134, -0.01070306, -0.001237412, 0.0005187924, -0.01162332, 0.9989387, 0.04579443
 187634083, -0.07601354, 0.003707909, -0.04079059, 0.001089464, -0.02112312, 0.01686593, 0.01168454, 0.0005187924, -0.01171758, 0.9989291, 0.04570375
 187834003, -0.06074891, -0.01208023, 0.1046365, 0.001089464, -0.0166634, -0.01050437, 0.08114985, 0.0005187924, -0.01328595, 0.9986908, 0.04570375
 188033923, -0.06719078, -0.0414152, 0.1325362, 0.001089464, -0.02224089, -0.01034092, -0.03916861, 0.0005187924, -0.013276, 0.9986988, 0.05027412
 188233843, -0.08880693, -0.01257595, -0.1605849, 0.001089464, -0.0330846, -0.002976007, -0.04926837, 0.0005187924, -0.01427107, 0.9988275, 0.04570375
 188433763, -0.08639589, -0.01956722, -0.04620055, 0.001089464, -0.03225186, -0.02226597, 0.01867234, 0.0005187924, -0.01565593, 0.998744, 0.04570375
 188633683, -0.08350945, -0.03597236, 0.001967886, 0.001089464, -0.02446476, -0.003012465, -0.01192484, 0.0005187924, -0.01609943, 0.99872, 0.04570375
 188833603, -0.06062305, -0.0271772, 0.1973616, 0.001089464, -0.01149726, 0.01683933, 0.1613898, 0.0005187924, -0.01316248, 0.9982445, 0.04570375
 189033523, -0.03714394, 0.1615059, 0.4113541, 0.001089464, -0.003498976, 0.08744541, 0.07664503, 0.0005187924, -0.01619587, 0.9977747, 0.04570375
 189234276, -0.02238685, 0.2333695, 0.2077372, 0.001091626, -0.008350743, 0.03867966, 0.07890105, 0.000520954, -0.02002789, 0.9974642, 0.04121499
 189434196, -0.02649217, 0.03103016, 0.05300238, 0.001091626, -0.009083109, -0.02006711, -0.07358837, 0.0005187924, -0.01631679, 0.9976877, 0.04579443
 189634116, -0.04270089, -0.08952332, -0.234799, 0.001089464, -0.01391324, -0.06342909, -0.1205031, 0.0005187924, -0.01443301, 0.9980721, 0.04570375
 189834036, -0.03256299, -0.1271741, -0.2184224, 0.001089464, -0.01399761, -0.004864783, -0.02870885, 0.0005187924, -0.009765957, 0.9982526, 0.04570375
 190033956, -0.04787285, -0.007824976, -0.05158745, 0.001089464, -0.01228197, 0.005836439, 0.002682089, 0.0005187924, -0.01114463, 0.9982432, 0.05027412
 190233876, -0.04700487, -0.01922976, -0.03355743, 0.001089464, -0.02755727, -0.02731693, 0.01785908, 0.0005187924, -0.01238763, 0.998267, 0.04570375
 190433796, -0.03246871, 0.0220189, 0.06824599, 0.001089464, 0.02888831, 0.06464706, 0.02292755, 0.0005187924, -0.01019935, 0.99819, 0.04570375
 190633716, 0.03145724, 0.1393881, 0.06844725, 0.001089464, -0.02115855, -0.03305439, 0.02317884, 0.0005187924, -0.01686736, 0.9980036, 0.04570375
 190833636, -0.06750558, -0.1021593, -0.08452613, 0.001089464, -0.0154541, -0.009019787, -0.07919204, 0.0005187924, -0.01362041, 0.9983491, 0.04570375
 191033556, -0.06319762, 0.007341559, -0.1563339, 0.001089464, -0.03263253, 0.02707678, -0.01374095, 0.0005187924, -0.01361724, 0.9984394, 0.04570375
 191233476, -0.08688311, 0.07112267, -0.06798595, 0.001089464, -0.02132712, 0.02349765, -0.01581303, 0.0005187924, -0.01419808, 0.998468, 0.04570375
 191434229, -0.04791164, 0.02366385, 0.04776438, 0.001091626, 0.01862531, -0.008897192, 0.04776469, 0.000520954, -0.01385972, 0.9982988, 0.04121499
 191634149, -0.003542327, -0.03121914, 0.051534, 0.001091626, -0.01810871, -0.009551782, -0.006155736, 0.0005187924, -0.01304195, 0.9983193, 0.04579443
 191834069, -0.06352745, 0.02409752, -0.06592247, 0.001089464, -0.0259792, 0.02233871, -0.02007475, 0.0005187924, -0.01108662, 0.9984688, 0.04570375
 192033989, -0.0671726, 0.05682018, -0.08247174, 0.001089464, -0.01306417, 0.01271424, -0.04516575, 0.0005187924, -0.0125507, 0.9985511, 0.04570375
 192233909, -0.05046313, 0.009982371, -0.0770402, 0.001089464, -0.01597848, 0.005903492, 0.00262146, 0.0005187924, -0.01234417, 0.998526, 0.05027412
 192433829, -0.04846205, 0.03251207, -0.04350515, 0.001089464, -0.01078444, 0.0239902, -0.03212435, 0.0005187924, -0.01046864, 0.9986413, 0.04570375
 192633749, -0.04365711, 0.03292432, -0.05697579, 0.001089464, -0.0219183, -0.01265319, -0.002553872, 0.0005187924, -0.01147, 0.9986364, 0.04570375
 192833669, -0.06740667, -0.03072059, 0.004426633, 0.001089464, -0.02517498, -0.007206417, -0.01324324, 0.0005187924, -0.01157205, 0.9985949, 0.04570375
 193033589, -0.06918012, -0.003987967, -0.0733409, 0.001089464, -0.01288097, 0.02220535, -0.01934918, 0.0005187924, -0.009553052, 0.9986993, 0.04570375
 193233509, -0.04535746, 0.05296701, -0.05189941, 0.001089464, -0.0176003, -0.001298763, 0.005737965, 0.0005187924, -0.01023004, 0.9986865, 0.04570375
 193434262, -0.07366181, -0.04668779, -0.0726646, 0.001091626, -0.01972295, -0.01193052, -0.0635828, 0.000520954, -0.008935343, 0.9988483, 0.04121499
 193634182, -0.07053728, 0.01006992, -0.115596, 0.001091626, -0.029446, 0.0002873888, -0.01750772, 0.0005187924, -0.009503611, 0.9988322, 0.04579443
 193834102, -0.1160337, -0.009894818, 0.04939653, 0.001089464, -0.03553919, 0.01328329, 0.039866, 0.0005187924, -0.006928111, 0.9987134, 0.04570375
 194034022, -0.05114368, 0.06978239, 0.02537406, 0.001089464, 0.009670734, 0.02621055, -0.04235219, 0.0005187924, -0.008755438, 0.9987707, 0.04570375
 194233942, -0.03021728, 0.006578579, -0.180609, 0.001089464, -0.03300809, -0.0204974, -0.04462001, 0.0005187924, -0.009141921, 0.9988382, 0.05027412
 194433862, -0.1009486, -0.0123285, -0.04681885, 0.001089464, -0.03774294, 0.02248618, 0.01495917, 0.0005187924, -0.00893179, 0.998818, 0.04570375
 194633782, -0.08442461, 0.03511525, -0.0355218, 0.001089464, -0.01769144, -0.005111858, -0.0256555, 0.0005187924, -0.008776841, 0.9988972, 0.04570375
 194833702, -0.06284585, 0.01087398, -0.03765642, 0.001089464, -0.01886279, 0.01678888, 0.006852174, 0.0005187924, -0.008086214, 0.9988527, 0.04570375
 195033622, -0.0576474, 0.04092632, -0.02684079, 0.001089464, -0.01262895, -0.008123075, -0.04542507, 0.0005187924, -0.009675599, 0.9989064, 0.04570375
 195233542, -0.05253274, -0.04396755, -0.05987252, 0.001089464, -0.02150687, -0.02093006, 0.04278617, 0.0005187924, -0.007961254, 0.9988257, 0.04570375
 195434295, -0.05101408, -0.04016499, 0.1551483, 0.001091626, -0.005818382, -0.007591593, 0.001683159, 0.000520954, -0.007559726, 0.9986871, 0.04579443
 195634215, -0.0446793, -0.008088326, -0.09012859, 0.001091626, -0.02777469, 0.01249026, -0.05461818, 0.0005187924, -0.005684817, 0.9988253, 0.04121499
 195834135, -0.06647786, 0.01735763, 0.00714419, 0.001089464, -0.02777599, 0.0005335864, 0.05628206, 0.0005187924, -0.007111025, 0.9986407, 0.04570375
 196034055, -0.07094322, -0.005656915, 0.08591955, 0.001089464, -0.02175945, 0.001132332, -0.02854515, 0.0005187924, -0.008074628, 0.9986432, 0.04570375
 196233975, -0.06358678, -0.03939709, -0.02581529, 0.001089464, -0.02051499, -0.02119243, 0.002951204, 0.0005187924, -0.009727955, 0.9985685, 0.05027412
 196433895, -0.04336348, -0.06989533, 0.01511525, 0.001089464, -0.01696911, -0.002911408, -0.0002503347, 0.0005187924, -0.007211626, 0.9985402, 0.04570375
 196633815, -0.04334602, 0.03985223, 0.02130531, 0.001089464, -0.01607032, 0.03127531, -0.003969511, 0.0005187924, -0.007262812, 0.9984684, 0.04570375
 196833735, -0.03747753, 0.09916002, 0.01823961, 0.001089464, -0.01068206, 0.02943772, 0.03873229, 0.0005187924, -0.008390634, 0.9983761, 0.04570375
 197033655, -0.02747184, 0.02159679, 0.09957556, 0.001089464, -0.01444255, -0.02473908, 0.007622625, 0.0005187924, -0.009919023, 0.998266, 0.04570375
 197233575, -0.03584668, -0.08779703, 0.02842486, 0.001089464, -0.009465755, -0.02317244, 0.03071224, 0.0005187924, -0.007554704, 0.9982342, 0.04570375
 197433495, -0.03068097, -0.06200678, 0.03684638, 0.001089464, -0.003174856, 0.001551545, 0.001029938, 0.0005187924, -0.006736322, 0.9982445, 0.04570375
 197634248, -0.007257472, 0.04433943, 0.04021182, 0.001091626, -0.001506553, 0.04048118, 0.03140933, 0.000520954, -0.008034006, 0.9981635, 0.04121499
 197834168, -0.01937427, 0.09606986, -0.01005959, 0.001091626, -0.008796524, 0.02004135, -0.01403544, 0.0005187924, -0.01086122, 0.9981862, 0.04579443
 198034088, -0.01309387, -0.0118196, 0.0008097189, 0.001089464, -0.009478938, -0.02343774, -0.002507923, 0.0005187924, -0.01156674, 0.9981493, 0.04570375
 198234008, -0.02151351, -0.09188606, -0.05406976, 0.001089464, -0.01809575, -0.02940194, -0.0338458, 0.0005187924, -0.008816481, 0.9982823, 0.04570375
 198433928, -0.03072819, -0.01978818, -0.0584467, 0.001089464, -0.008144801, 0.01899424, -0.02875512, 0.0005187924, -0.00884835, 0.9983303, 0.05027412
 198633848, -0.03230554, 0.05202725, 0.02219042, 0.001089464, -0.03565104, 0.01036849, 0.01893249, 0.0005187924, -0.009886751, 0.9981624, 0.04570375
 198833768, -0.08041029, 0.04606484, 0.06892073, 0.001089464, -0.00716957, 0.0142576, -0.002528514, 0.0005187924, -0.01084506, 0.9980996, 0.04570375
 199033688, -0.02785425, 0.004255529, -0.1209812, 0.001089464, -0.007018831, -0.02176429, -0.04353879, 0.0005187924, -0.01253827, 0.9982862, 0.04570375
 199233608, -0.03224254, -0.07527332, 0.0008407123, 0.001089464, -0.01433813, -0.02989301, 0.04367921, 0.0005187924, -0.0104033, 0.9980971, 0.04570375
 199433528, -0.03364602, -0.007971617, 0.1284449, 0.001089464, -0.007813818, 0.03391469, 0.03890083, 0.0005187924, -0.007967693, 0.9979501, 0.04570375
 199634281, -0.02177088, 0.09375056, 0.09331881, 0.001091626, -0.0006484463, 0.02354364, -0.001923051, 0.000520954, -0.01208321, 0.9978423, 0.04121499
 199834201, -0.01814393, 0.0303939, -0.03266464, 0.001091626, -0.01088408, -0.006158006, -0.02148866, 0.0005187924, -0.01176461, 0.9978923, 0.04579443
 200034121, -0.002457937, -0.04070696, 0.03661657, 0.001089464, 0.01424177, -0.0194742, 0.03686731, 0.0005187924, -0.01096001, 0.9976989, 0.04570375
 200234041, 0.03001043, -0.06595778, 0.06037872, 0.001089464, 0.008797348, -0.01441436, -0.01767864, 0.0005187924, -0.01098101, 0.9977145, 0.04570375
 200433961, 0.005873204, 0.02499702, -0.0284676, 0.001089464, -0.006152925, 0.04256718, 0.01482637, 0.0005187924, -0.01088344, 0.9977113, 0.05027412
 200633881, -0.01365096, 0.09406023, -0.07200742, 0.001089464, 0.004582731, 0.007737827, -0.06869199, 0.0005187924, -0.01434416, 0.9979454, 0.04570375
 200833801, 0.008942858, -0.0111211, -0.06614352, 0.001089464, 0.0004231808, 0.0001923173, 0.02640698, 0.0005187924, -0.01418802, 0.9978518, 0.04570375
 201033721, -0.009069017, -0.0002575628, 0.03135047, 0.001089464, -0.01561854, 0.004629218, -0.05153587, 0.0005187924, -0.01300608, 0.9979283, 0.04570375
 201233641, -0.03339449, 0.004729466, -0.05753719, 0.001089464, -0.0009097192, -0.008016235, 0.04128492, 0.0005187924, -0.01377532, 0.9978177, 0.04570375
 201433561, -0.0008921075, 0.004342535, 0.1149656, 0.001089464, -0.01282736, -0.0008523948, -0.01670922, 0.0005187924, -0.01353146, 0.9977917, 0.04570375
 201633481, -0.03043763, 0.01180209, -0.1131009, 0.001089464, -0.01090319, -0.0006881466, 0.0139115, 0.0005187924, -0.01394101, 0.9978984, 0.04570375
 201834234, -0.024953, 0.02391737, 0.06126295, 0.001091626, -0.002434684, 0.01024642, 0.0461053, 0.000520954, -0.0130885, 0.997784, 0.04121499
 202034154, -0.009832362, 0.03663162, 0.1211688, 0.001091626, -0.003025825, 0.01547331, 0.02951718, 0.0005187924, -0.01376188, 0.9976248, 0.04579443
 202234074, -0.01126263, 0.0361885, 0.02904369, 0.001089464, -0.001775849, 0.01410434, -0.01547281, 0.0005187924, -0.01204586, 0.9976647, 0.04570375
 202433994, 0.01230585, 0.04931853, 0.0006289529, 0.001089464, -0.004076535, 0.002651161, 0.001005781, 0.0005187924, -0.01380108, 0.9975976, 0.04570375
 202633914, -0.002162925, -0.04709807, 0.01023036, 0.001089464, -0.007422413, -0.03922804, -0.003754544, 0.0005187924, -0.01412645, 0.9975696, 0.05027412
 202833834, -0.01493486, -0.077456, -0.006045878, 0.001089464, 0.001852882, -0.00698707, -0.02238627, 0.0005187924, -0.01362846, 0.9976263, 0.04570375
 203033754, 0.002990371, 0.03384987, -0.01729025, 0.001089464, -0.0004643229, 0.03501309, 0.02492384, 0.0005187924, -0.01231208, 0.9975731, 0.04570375
 203233674, 0.001462306, 0.07517036, 0.03776998, 0.001089464, -0.0002067968, 0.007088086, -0.005298402, 0.0005187924, -0.01485487, 0.9975835, 0.04570375
 203433594, -0.008163297, 0.01540339, -0.03747461, 0.001089464, -0.006404821, 0.01008774, -0.03862523, 0.0005187924, -0.01424309, 0.9976726, 0.04570375
 203633514, 0.0006781158, 0.01732171, -0.0257929, 0.001089464, 0.01838775, 0.006474237, 0.06046727, 0.0005187924, -0.01463145, 0.997498, 0.04570375
 203834267, 0.04233221, -0.001453894, 0.1239722, 0.001091626, 0.003908953, -0.009349987, -0.009981426, 0.000520954, -0.01606015, 0.9974131, 0.04121499
 204034187, 0.0108604, -0.03039138, 0.01211365, 0.001091626, -0.01262981, -0.00885766, 0.0005695925, 0.0005187924, -0.01646657, 0.9973511, 0.04579443
 204234107, -0.02091658, -0.004186829, -0.01668374, 0.001089464, 0.004729404, 0.00122493, -0.03134312, 0.0005187924, -0.01619167, 0.9975035, 0.04570375
 204434027, -0.008435773, 0.01960229, -0.09093715, 0.001089464, -0.001974727, 0.009862076, -0.002129885, 0.0005187924, -0.0165912, 0.997573, 0.04570375
 204633947, -0.01111854, 0.02274982, -0.01506163, 0.001089464, -0.01359834, -0.0003383231, 0.003409166, 0.0005187924, -0.01763769, 0.9975844, 0.05027412
 204833867, -0.0289355, -0.01923282, 0.003106705, 0.001089464, -0.001753175, -0.007511316, 0.001002864, 0.0005187924, -0.01803729, 0.99757, 0.04570375
 205033787, -0.01130533, 0.008836168, 0.03150048, 0.001089464, -0.004895204, 0.02206534, 0.03934316, 0.0005187924, -0.01667969, 0.9974734, 0.04570375
 205233707, -0.02184255, 0.05758038, -0.02278351, 0.001089464, -0.007581548, 0.003250767, -0.07646343, 0.0005187924, -0.01710168, 0.9976938, 0.04570375
 205433627, -0.01665124, -0.001497547, -0.04881752, 0.001089464, -0.0006191139, -0.01593801, 0.05014063, 0.0005187924, -0.01883915, 0.9974681, 0.04570375
 205633547, 0.003399504, -0.01628011, 0.1408498, 0.001089464, 0.003601167, 0.005830713, 0.05562693, 0.0005187924, -0.0182331, 0.9972486, 0.04570375
 205834300, 0.008582325, 0.004633057, 0.1042378, 0.001091626, 0.003303788, 0.001275419, 0.0007336542, 0.0005187924, -0.01898301, 0.9972009, 0.04579443
 206034220, 0.006736278, 0.0007571462, -0.09593259, 0.001091626, -0.001721247, -0.008039605, -0.05522401, 0.000520954, -0.02105239, 0.9973848, 0.04121499
 206234140, 0.0139699, -0.0313015, -0.06623034, 0.001091626, 0.02330965, -0.00108538, 0.03980969, 0.0005187924, -0.02060058, 0.9973613, 0.04579443
 206434060, 0.03746786, 0.01715283, 0.08932603, 0.001089464, 0.006837597, 0.01976421, 0.02083558, 0.0005187924, -0.01990328, 0.997286, 0.04570375
 206633980, 0.00194635, 0.03452268, 0.002787017, 0.001089464, -0.003844002, 0.002546517, 0.002984474, 0.0005187924, -0.02170551, 0.9973319, 0.05027412
 206833900, -0.01944648, 0.006590909, -0.01924717, 0.001089464, -0.001253935, -0.002687831, -0.04028711, 0.0005187924, -0.02165056, 0.9974552, 0.04570375
 207033820, -0.01185455, 0.001013614, -0.05307867, 0.001089464, -0.0003332809, 0.01436407, 0.001332608, 0.0005187924, -0.02150918, 0.9974334, 0.04570375
 207233740, 0.008696241, 0.04792696, 0.04536422, 0.001089464, 0.00487678, 0.02154984, 0.01000262, 0.0005187924, -0.02060602, 0.9973104, 0.04570375
 207433660, 0.01349999, 0.04109852, 0.08882692, 0.001089464, 0.008598132, 0.009861866, 0.02552451, 0.0005187924, -0.02205811, 0.9970856, 0.04570375
 207633580, 0.009748425, 0.01927544, -0.01264479, 0.001089464, -0.003959392, 0.006913132, -0.03554733, 0.0005187924, -0.02139189, 0.9972979, 0.04570375
 207833500, -0.01722328, 0.02065337, -0.1029624, 0.001089464, -0.006775664, -0.003457101, -0.004926903, 0.0005187924, -0.02274332, 0.9973771, 0.04570375
 208034253, -0.01200102, -0.001914576, -0.005301429, 0.001091626, -0.00329041, -0.002682956, -0.02953192, 0.000520954, -0.02249097, 0.9974355, 0.04121499
 208234173, 0.002833304, 0.01104494, -0.04093757, 0.001091626, -0.006259634, 0.01255071, 0.03118574, 0.0005187924, -0.02226585, 0.9973681, 0.04579443
 208434093, -0.00722729, 0.03015267, 0.1008472, 0.001089464, -0.01435198, 0.004510752, 0.04414825, 0.0005187924, -0.02257415, 0.9972029, 0.04570375
 208634013, -0.02621023, 0.02916773, 0.03080059, 0.001089464, -0.004838475, 0.01848468, -0.01494611, 0.0005187924, -0.02084011, 0.9973507, 0.04570375
 208833933, -0.01577301, 0.06102367, -0.07798045, 0.001089464, -0.002624347, 0.008624095, -0.009155711, 0.0005187924, -0.0218143, 0.9974779, 0.05027412
 209033853, -0.01971321, 0.02239607, -0.088089, 0.001089464, -0.01501416, 8.292661E-05, -0.01931, 0.0005187924, -0.022114, 0.997615, 0.04570375
 209233773, -0.03149759, -0.02095789, -0.02944355, 0.001089464, -0.00590865, -0.02142607, 0.01704507, 0.0005187924, -0.02372472, 0.9975186, 0.04570375
 209433693, -0.004293086, -0.05666276, 0.1080671, 0.001089464, 0.01285612, 0.003647581, 0.01467289, 0.0005187924, -0.02239944, 0.9973614, 0.04570375
 209633613, 0.01458917, 0.01069324, 0.08885484, 0.001089464, -0.0005005301, 0.00626569, 0.009053804, 0.0005187924, -0.02306146, 0.997202, 0.04570375
 209833533, 0.0001942049, 0.03499173, -0.008627967, 0.001089464, -0.0003807787, 0.01762963, -0.01930065, 0.0005187924, -0.02413149, 0.9972628, 0.04570375
 210034286, 0.009473974, 0.05314869, -0.03892203, 0.001091626, 0.006535702, 0.01254507, -0.03680603, 0.000520954, -0.02424409, 0.9973276, 0.04121499
 210234206, 0.006063801, 0.03786472, -0.02663536, 0.001091626, 0.005602503, 0.005072961, 0.05084984, 0.0005187924, -0.02517122, 0.9972385, 0.04579443
 210434126, 0.01427025, -0.008957748, 0.04327726, 0.001089464, 0.0055359, -0.01321158, -0.01312411, 0.0005187924, -0.02466754, 0.9972907, 0.04570375
 210634046, 0.006503441, -0.02975321, 0.001679075, 0.001089464, -0.003448225, -0.002171122, -0.02405462, 0.0005187924, -0.02467587, 0.9972939, 0.04570375
 210833966, 0.0005868304, 0.02202133, -0.0886748, 0.001089464, -0.0003653949, 0.01889963, -0.02873291, 0.0005187924, -0.02596991, 0.9974387, 0.05027412
 211033886, 0.003367822, 0.01750732, -0.07758894, 0.001089464, 0.006633204, -0.008705005, -0.01009709, 0.0005187924, -0.02733752, 0.9974449, 0.04570375
 211233806, 0.01506606, -0.01099387, 0.0004675994, 0.001089464, -0.003780352, -0.00467488, 0.01049185, 0.0005187924, -0.02683351, 0.9974518, 0.04570375
 211433726, -0.02117131, 0.004809693, 0.02818283, 0.001089464, -0.004663089, -0.001170538, 0.0001611065, 0.0005187924, -0.02731144, 0.9973921, 0.04570375
 211633646, -0.01138342, 0.01360098, 0.06092991, 0.001089464, -0.003043909, 0.00151858, 0.002758162, 0.0005187924, -0.02754899, 0.9972855, 0.04570375
 211833566, -0.01202741, 0.0266121, -0.0002273412, 0.001089464, -0.006183842, 0.01704666, -0.007935114, 0.0005187924, -0.02688914, 0.9973338, 0.04570375
 212033486, -0.02844075, 0.02850603, -0.1108876, 0.001089464, -0.009404726, -0.002543528, -0.06119158, 0.0005187924, -0.02831334, 0.9975809, 0.04570375
 212234239, -0.02713193, -0.004014597, -0.09349623, 0.001091626, -0.00934682, -0.003873564, 0.04602422, 0.000520954, -0.02991421, 0.997449, 0.04121499
 212434159, -0.01184973, -0.02279052, 0.1144061, 0.001091626, 0.0003614315, -0.00142703, 0.01958269, 0.0005187924, -0.02954551, 0.9972928, 0.04579443
 212634079, -0.008129665, 0.006547727, 0.09013419, 0.001089464, -0.001432543, 0.01165793, -0.008964385, 0.0005187924, -0.02855295, 0.9972163, 0.04570375
 212833999, 0.0001811855, 0.03291107, 0.01679531, 0.001089464, 0.001821334, 0.01468866, -0.0009494415, 0.0005187924, -0.03013831, 0.997134, 0.04570375
 213033919, 0.01921228, 0.03992132, -0.07024493, 0.001089464, 0.002291069, 0.00969314, -0.03162882, 0.0005187924, -0.02987649, 0.9973041, 0.05027412
 213233839, 0.005736429, 0.03475981, -0.05576687, 0.001089464, -0.002925707, 0.008774269, 0.02153336, 0.0005187924, -0.02998844, 0.9973011, 0.04570375
 213433759, -0.01177193, 0.02456274, 0.0005346923, 0.001089464, -0.00755762, 0.004922753, -0.01347193, 0.0005187924, -0.03075524, 0.9973831, 0.04570375
 213633679, -0.00311938, 0.01176723, 0.01474771, 0.001089464, 0.006960208, 0.01062207, 0.0195997, 0.0005187924, -0.03016853, 0.9973134, 0.04570375
 213833599, 0.008465654, 0.05067378, 0.05922517, 0.001089464, -0.006148725, 0.01438708, 0.01495516, 0.0005187924, -0.02874417, 0.9972591, 0.04570375
 214033519, -0.0175738, 0.04311382, 0.02623617, 0.001089464, -0.006039567, 0.0145158, -0.01633639, 0.0005187924, -0.02989664, 0.997262, 0.04570375
 214234272, -0.01898707, 0.0149973, -0.06107425, 0.001091626, 0.001432668, 0.01578411, -0.01462115, 0.000520954, -0.03039179, 0.9973336, 0.04121499
 214434192, 0.02004236, -0.01008307, 0.07365731, 0.001091626, -0.0008345465, -0.02455818, 0.06551493, 0.0005187924, -0.03039543, 0.9970724, 0.04579443
 214634112, -0.001898443, -0.02514368, 0.02529769, 0.001089464, 0.0006843702, 0.002638572, -0.06418905, 0.0005187924, -0.02955103, 0.997295, 0.04570375
 214834032, -0.01672047, 0.03595503, -0.09932486, 0.001089464, 0.004364943, 0.008090318, 0.02556392, 0.0005187924, -0.03149009, 0.9972051, 0.04570375
 215033952, -0.01432923, 0.02481805, -0.01859021, 0.001089464, -0.005271844, 0.003286222, -0.04489123, 0.0005187924, -0.03216233, 0.9973816, 0.05027412
 215233872, -0.02026495, 0.005843347, -0.03841967, 0.001089464, -0.00125266, 0.006911037, 0.04025374, 0.0005187924, -0.0318995, 0.9972708, 0.04570375
 215433792, -0.01336354, 0.01394075, 0.06666719, 0.001089464, -0.004827091, 0.01264248, -0.01283456, 0.0005187924, -0.0319699, 0.997246, 0.04570375
 215633712, -0.01740403, 0.03376359, -0.004718638, 0.001089464, -0.006785518, 0.01023012, -0.01642228, 0.0005187924, -0.03290853, 0.9972159, 0.04570375
 215833632, -0.01805153, 0.02082752, -0.05741332, 0.001089464, 0.002774496, -0.002806932, -0.03190852, 0.0005187924, -0.03344304, 0.9972499, 0.04570375
 216033552, 0.0008355188, -0.02495138, -0.03303461, 0.001089464, -0.007354086, -0.006581808, -0.01885003, 0.0005187924, -0.03266345, 0.9972667, 0.04570375
 216234305, -0.02323895, -0.004980697, 0.008470615, 0.001091626, -0.000749268, 0.0004937128, 0.005191728, 0.0005187924, -0.03233321, 0.9972389, 0.04579443
 216434225, -0.01089833, 0.01692726, -0.01959385, 0.001091626, -0.009235584, 0.005972666, -0.01503651, 0.000520954, -0.03507911, 0.9972078, 0.04121499
 216634145, -0.02426948, 0.01415472, -0.01319405, 0.001091626, -0.01009151, 0.001143577, 0.02347848, 0.0005187924, -0.03567121, 0.9971075, 0.04579443
 216834065, -0.01488974, -0.03292453, 0.005854141, 0.001089464, -0.008276967, -0.01604432, 0.0009143604, 0.0005187924, -0.03550224, 0.9971517, 0.04570375
 217033985, -0.01021557, -0.0111499, 0.07059696, 0.001089464, 0.002374708, 0.01434465, 0.04907018, 0.0005187924, -0.03281023, 0.9970465, 0.04570375
 217233905, 0.01263695, 0.08650927, 0.02301286, 0.001089464, -0.007975025, 0.03452463, -0.05011899, 0.0005187924, -0.03480794, 0.9971611, 0.05027412
 217433825, -0.01652745, 0.0649364, -0.07987624, 0.001089464, 0.004370588, 0.008744336, 0.01472885, 0.0005187924, -0.03640301, 0.9970765, 0.04570375
 217633745, 0.000238586, 0.01038272, 0.05734785, 0.001089464, 0.002268363, -0.003540613, 0.01118947, 0.0005187924, -0.03638798, 0.9970267, 0.04570375
 217833665, 5.090889E-05, -0.02800709, 0.00957252, 0.001089464, 0.006695139, 0.001178797, 0.04668046, 0.0005187924, -0.03438552, 0.997074, 0.04570375
 218033585, 0.005475842, 0.02002579, 0.03719224, 0.001089464, -0.0006438041, 0.01279435, -0.03478689, 0.0005187924, -0.03597032, 0.9971048, 0.04570375
 218233505, -0.003423614, 0.03342897, -0.005928392, 0.001089464, 0.006715718, 0.01183517, 0.04205757, 0.0005187924, -0.03730379, 0.9969337, 0.04570375
 218434258, 0.02412754, 0.02004455, 0.08003484, 0.001091626, 0.007387867, -0.000642009, -0.02085134, 0.000520954, -0.03775808, 0.9969035, 0.04121499
 218634178, 0.01312196, -0.007804678, -0.04990492, 0.001091626, -0.005904688, -0.003001759, -0.04348174, 0.0005187924, -0.03948355, 0.996915, 0.04579443
 218834098, -0.017587, -0.01588583, -0.03587887, 0.001089464, -0.005162439, 0.004163651, 0.01781137, 0.0005187924, -0.03994709, 0.9968446, 0.04570375
 219034018, -0.01054539, -0.005714077, -0.01485103, 0.001089464, 0.002648387, 0.001673753, -0.0321507, 0.0005187924, -0.03931281, 0.9969577, 0.04570375
 219233938, 0.0005425616, 0.02126335, -0.05486033, 0.001089464, -0.01942431, 0.009984249, -0.01817186, 0.0005187924, -0.03948008, 0.9969996, 0.05027412
 219433858, -0.02906186, 0.02645324, 0.04891511, 0.001089464, 0.003264238, 0.01318738, 0.04847018, 0.0005187924, -0.03975281, 0.9968203, 0.04570375
 219633778, 0.0002475454, 0.03973425, -0.03104692, 0.001089464, 0.007005584, 0.01960179, -0.04245042, 0.0005187924, -0.03940026, 0.9970548, 0.04570375
 219833698, 0.003190843, 0.04449025, -0.01210804, 0.001089464, 0.0001119307, 0.01512991, 0.0260431, 0.0005187924, -0.03978482, 0.9969199, 0.04570375
 220033618, 0.00121807, 0.0116733, 0.02914309, 0.001089464, -0.002642901, -0.01012456, 0.009170773, 0.0005187924, -0.04254894, 0.9968092, 0.04570375
 220233538, -0.0143882, -0.02394745, -0.009869603, 0.001089464, 0.0002663344, 0.01124896, -0.003893248, 0.0005187924, -0.04093981, 0.9969307, 0.04570375
 220434291, -0.005431613, 0.03820439, 0.04187144, 0.001091626, -0.001216412, -0.004168659, 0.03762779, 0.000520954, -0.04217023, 0.9967628, 0.04579443
 220634211, -0.002729697, 0.004794717, 0.01079461, 0.001091626, -0.006580522, 0.009490775, -0.01460839, 0.0005187924, -0.04077619, 0.9968793, 0.04121499
 220834131, -0.01247855, 0.04552877, -0.01445357, 0.001089464, 0.00187896, 0.009528975, -0.03247356, 0.0005187924, -0.04120956, 0.9969096, 0.04570375
 221034051, 0.008036804, 0.01724485, -0.02952262, 0.001089464, 0.00514371, -0.004489964, 0.003040756, 0.0005187924, -0.04283132, 0.9968393, 0.04570375
 221233971, 0.0162091, -0.03124026, -0.07639975, 0.001089464, 0.00411265, -0.01990581, -0.01039413, 0.0005187924, -0.04400865, 0.996926, 0.05027412
 221433891, 0.00755694, -0.01425541, 0.06438302, 0.001089464, 0.004107741, 0.01116246, 0.05904048, 0.0005187924, -0.04270729, 0.9967418, 0.04570375
 221633811, -0.005649657, 0.0324719, 0.105789, 0.001089464, 0.001842193, 0.01497828, -0.02510935, 0.0005187924, -0.04290264, 0.9967875, 0.04570375
 221833731, -0.01015153, 0.0378562, -0.0531804, 0.001089464, -0.006808064, 0.006733743, 0.01173151, 0.0005187924, -0.04269702, 0.9968105, 0.04570375
 222033651, -0.01350906, -0.0006301734, 0.001855617, 0.001089464, -0.0004053915, -0.002363601, -0.02867162, 0.0005187924, -0.04486046, 0.9967663, 0.04570375
 222233571, -0.01129266, -0.004519354, -0.04802625, 0.001089464, -0.008090392, -0.008066715, -0.04050379, 0.0005187924, -0.04555118, 0.996791, 0.04570375
 222433491, -0.02138583, -0.0347914, -0.065503, 0.001089464, -0.00346744, -0.006863719, 0.0005573903, 0.0005187924, -0.04591333, 0.9967881, 0.04570375
 222634244, -0.01579728, 0.01794746, 0.05313828, 0.001091626, -0.00587023, 0.01592239, 0.0487164, 0.000520954, -0.04537245, 0.9966521, 0.04121499
 222834164, -0.005781208, 0.03550741, 0.09189016, 0.001091626, 0.007885719, -0.003190435, 0.002707218, 0.0005187924, -0.04588231, 0.9965717, 0.04579443
 223034084, 0.0105508, -0.00136581, 0.003735955, 0.001089464, 0.005458703, -0.0009048574, -0.02242971, 0.0005187924, -0.04795631, 0.9965048, 0.04570375
 223234004, 0.003368487, -0.01053112, -0.05606328, 0.001089464, 4.568961E-05, -0.006479308, 0.005893275, 0.0005187924, -0.04826058, 0.996547, 0.04570375
 223433924, -0.009245663, -0.003113183, -0.02113391, 0.001089464, -0.005759441, 0.01545371, -0.02466188, 0.0005187924, -0.04696543, 0.996694, 0.05027412
 223633844, -0.01439638, 0.04918933, 0.0007093442, 0.001089464, 0.00234524, 0.0147784, 0.03364943, 0.0005187924, -0.04684818, 0.9966014, 0.04570375
 223833764, -0.004415979, 0.04665848, 0.0463636, 0.001089464, 0.00671828, 0.01111691, 0.006449884, 0.0005187924, -0.04793078, 0.9965659, 0.04570375
 224033684, 0.006475632, 0.02618036, 0.01277659, 0.001089464, -0.01005307, -0.002021027, 0.03317736, 0.0005187924, -0.0484105, 0.9964521, 0.04570375
 224233604, -0.009221288, 0.01611057, 0.1022742, 0.001089464, -0.008538267, 0.02138873, 0.009428543, 0.0005187924, -0.04568913, 0.9964626, 0.04570375
 224433524, -0.006063799, 0.05615115, -0.03362666, 0.001089464, 4.25258E-07, 0.01682982, -0.0133237, 0.0005187924, -0.04745432, 0.9965076, 0.04570375
 224634277, -0.005840067, 0.011081, -0.0171448, 0.001091626, -0.001409851, -0.003391863, -0.002802393, 0.000520954, -0.04810813, 0.996498, 0.04121499
 224834197, -0.01290975, -0.02663902, -0.08018265, 0.001091626, -0.004690215, -0.01425066, -0.06626403, 0.0005187924, -0.04860172, 0.996689, 0.04579443
 225034117, -0.01498383, -0.006621536, -0.07697833, 0.001089464, 0.0005078704, 0.01551286, 0.03935279, 0.0005187924, -0.04855578, 0.996617, 0.04570375
 225234037, 0.01415617, 0.03471047, 0.1058009, 0.001089464, -0.0004360164, 0.005613577, 0.01676742, 0.0005187924, -0.05087591, 0.9964038, 0.04570375
 225433957, -0.0008482845, 0.01614187, 0.0193774, 0.001089464, 0.005170919, 0.02104446, 0.05063377, 0.0005187924, -0.05111773, 0.9963221, 0.05027412
 225633877, -0.002795535, 0.02444137, 0.06096381, 0.001089464, -0.009067219, 0.001984282, -0.02792385, 0.0005187924, -0.05109598, 0.9964395, 0.04570375
 225833797, -0.01330655, 0.03361099, -0.05617521, 0.001089464, -0.005487956, 0.02162432, -0.0200324, 0.0005187924, -0.04930542, 0.9965805, 0.04570375
 226033717, -0.0160875, 0.02450595, -0.009539845, 0.001089464, -0.0009113934, -0.01468946, 0.01758596, 0.0005187924, -0.05265409, 0.9963366, 0.04570375
 226233637, 0.004533042, -0.02276892, -0.01922525, 0.001089464, -0.004008231, 0.01538255, -0.02624921, 0.0005187924, -0.05080761, 0.9965579, 0.04570375
 226433557, -0.01076906, 0.04437553, -0.007251711, 0.001089464, -0.00818124, 0.003867656, -0.0001877987, 0.0005187924, -0.05220306, 0.9964177, 0.04570375
 226633477, -0.0174863, 0.02027182, 0.009739278, 0.001089464, -0.002420075, 0.01727438, -0.01866118, 0.0005187924, -0.05196655, 0.9964678, 0.04570375
 226834230, -0.01390081, 0.02169761, -0.05280538, 0.001091626, -0.004961807, -0.009346901, -0.001175224, 0.000520954, -0.05403518, 0.9963616, 0.04121499
 227034150, -0.01869951, -0.03289593, 0.02563257, 0.001091626, -0.01549818, -0.0003053785, 0.02648055, 0.0005187924, -0.05499391, 0.9962497, 0.04579443
 227234070, -0.02246344, -0.005153599, 0.04846511, 0.001089464, -0.005237965, -0.0004458867, -0.01420413, 0.0005187924, -0.05442026, 0.9963074, 0.04570375
 227433990, -0.01034878, 0.006294931, -0.06805967, 0.001089464, -0.004164343, 0.009008423, -0.008126164, 0.0005187924, -0.05450974, 0.996357, 0.04570375
 227633910, -0.01158892, 0.03364149, 0.007693216, 0.001089464, 0.002246574, 0.01790666, -0.01514058, 0.0005187924, -0.05419274, 0.9963769, 0.05027412
 227833830, 0.01594932, 0.06212361, -0.01372538, 0.001089464, 0.0141261, 0.01804915, 0.02168331, 0.0005187924, -0.05361935, 0.9963328, 0.04570375
 228033750, 0.01965726, 0.04974687, 0.04900436, 0.001089464, 0.003167717, 0.01088268, -0.01429253, 0.0005187924, -0.05431126, 0.9962841, 0.04570375
 228233670, -0.007392834, 0.02941004, -0.008922601, 0.001089464, -0.009268709, 0.005819413, 0.01083598, 0.0005187924, -0.05420655, 0.9962618, 0.04570375
 228433590, -0.01476663, 0.03301871, -0.01676638, 0.001089464, -0.00753113, 0.01888872, -0.009843702, 0.0005187924, -0.05362209, 0.9964204, 0.04570375
 228633510, -0.02775081, -0.002430021, -0.05879226, 0.001089464, -0.02348593, -0.02093762, 0.00923531, 0.0005187924, -0.05557838, 0.9963639, 0.04570375
 228834263, -0.04035661, -0.0520666, 0.05962576, 0.001091626, -0.009223586, -0.00932521, 0.0356896, 0.000520954, -0.05370338, 0.9963521, 0.04121499
 229034183, -0.02149536, 0.008323063, 0.005358676, 0.001091626, 0.001738106, 0.01127451, -0.02382538, 0.0005187924, -0.05471213, 0.9963927, 0.04579443
 229234103, -0.005296736, 0.04445101, 0.03058475, 0.001089464, -0.003534614, 0.01567277, 0.06835239, 0.0005187924, -0.05758278, 0.9960405, 0.04570375
 229434023, -0.01587501, 0.01052756, 0.07285501, 0.001089464, -0.0004859284, -0.004776014, -0.007912521, 0.0005187924, -0.05816567, 0.9960408, 0.04570375
 229633943, 0.0003730058, -0.03998222, 0.006603136, 0.001089464, 0.00659944, -0.009294211, 0.001788282, 0.0005187924, -0.05661827, 0.9961055, 0.05027412
 229833863, 0.003273642, 0.01409384, -0.07597895, 0.001089464, 0.0009730521, 0.02100467, -0.04998591, 0.0005187924, -0.05652132, 0.9963094, 0.04570375
 230033783, -0.003637416, 0.05199266, -0.06700166, 0.001089464, -0.003495609, 0.002263184, 0.02599182, 0.0005187924, -0.05969679, 0.9960932, 0.04570375
 230233703, -0.0125433, -0.005646341, 0.07854695, 0.001089464, -0.008999583, -0.0007675279, 0.03445915, 0.0005187924, -0.06015268, 0.9959517, 0.04570375
 230433623, -0.00223081, 0.01442044, 0.04083733, 0.001089464, 0.01363784, 0.0110344, -0.004348827, 0.0005187924, -0.05927119, 0.9960186, 0.04570375
 230633543, 0.01397979, 0.003934984, 0.0371828, 0.001089464, 0.00187075, -0.001486513, 0.02334633, 0.0005187924, -0.06097194, 0.9958041, 0.04570375
 230834296, 0.002969573, -0.01670638, 0.009545874, 0.001091626, -0.003540143, 0.002819607, -0.02158786, 0.000520954, -0.06065325, 0.9959214, 0.04579443
 231034216, 0.0007034545, 0.03802537, -0.06662938, 0.001091626, 0.003994285, 0.022545, -0.01916585, 0.0005187924, -0.06044861, 0.9960317, 0.04121499
 231234136, -5.207653E-05, 0.03675436, -0.01099384, 0.001089464, -0.000227206, -0.01769547, 0.02762613, 0.0005187924, -0.06293479, 0.9958203, 0.04570375
 231434056, -0.009058409, -0.01273015, 0.03699708, 0.001089464, -0.0003467197, 0.003851636, -0.03109907, 0.0005187924, -0.06219022, 0.9959088, 0.04570375
 231633976, -0.01221634, 0.01366663, -0.02904035, 0.001089464, -0.01020329, 0.01028143, -0.001864164, 0.0005187924, -0.06203359, 0.9958987, 0.05027412
 231833896, -0.02487947, 0.01181017, -0.01669897, 0.001089464, -0.004929386, 0.007303469, -0.01235305, 0.0005187924, -0.06287093, 0.9958643, 0.04570375
 232033816, -0.003529169, 0.01085086, 0.03806848, 0.001089464, -0.0007482671, -0.005308439, 0.007980968, 0.0005187924, -0.06397559, 0.9956754, 0.04570375
 232233736, 0.005758833, -0.01080904, 0.02783391, 0.001089464, 0.002333377, 0.01504548, -0.0006402314, 0.0005187924, -0.06408916, 0.9956151, 0.04570375
 232433656, 0.007204946, 0.02503845, 0.05615311, 0.001089464, 0.005550717, 0.0005675771, 0.01842667, 0.0005187924, -0.06528607, 0.9954376, 0.04570375
 232633576, 0.004223447, 0.0009294243, -0.084724, 0.001089464, -0.007768912, -0.00156598, -0.02828286, 0.0005187924, -0.06603437, 0.9956455, 0.04570375
 232833496, -0.02855059, 0.01598509, -0.117354, 0.001089464, -0.01295532, -0.00125155, -0.005589633, 0.0005187924, -0.06574237, 0.9958184, 0.04570375
 233034249, -0.02422975, 0.02962784, -0.006414534, 0.001091626, -0.01821573, 0.02205512, 0.01021669, 0.000520954, -0.06491632, 0.9958537, 0.04121499
 233234169, -0.02450154, 0.05310324, 0.04428535, 0.001091626, 0.0009470363, 0.01337998, -0.003019536, 0.0005187924, -0.06526745, 0.9957735, 0.04579443
 233434089, -0.01641831, 0.03429091, 0.08226579, 0.001089464, 0.00139224, 0.0114297, 0.04594115, 0.0005187924, -0.06450026, 0.995622, 0.04570375
 233634009, -0.007015805, 0.01671761, 0.01527812, 0.001089464, 0.003437781, 0.004598525, -0.05007806, 0.0005187924, -0.06540263, 0.9957037, 0.04570375
 233833929, -0.005061181, -0.01375165, 0.01536624, 0.001089464, -0.007479784, -0.005332855, 0.06117623, 0.0005187924, -0.06441542, 0.9955192, 0.05027412
 234033849, -0.004923898, 0.003989441, 0.04687624, 0.001089464, 0.00860748, 0.01228086, -0.02217988, 0.0005187924, -0.06461932, 0.995645, 0.04570375
 234233769, 0.004895886, 0.04044534, -0.03200127, 0.001089464, 0.0005256718, 0.01056559, 0.03511368, 0.0005187924, -0.06602326, 0.9954941, 0.04570375
 234433689, 0.001993475, 0.04703232, 0.04904319, 0.001089464, -0.008406796, 0.01695444, -0.04148196, 0.0005187924, -0.06703665, 0.9954929, 0.04570375
 234633609, -0.02377658, 0.01653382, -0.07628977, 0.001089464, -0.01109962, -0.02042134, 0.00557886, 0.0005187924, -0.0692481, 0.9953725, 0.04570375
 234833529, -0.02290813, -0.07661634, 0.04084215, 0.001089464, -0.002515273, -0.008457804, 0.01501665, 0.0005187924, -0.06816982, 0.9953913, 0.04570375
 235034282, -0.01359482, 0.003166119, -0.0175952, 0.001091626, -0.0007384955, 0.02227114, -0.02540372, 0.000520954, -0.06782737, 0.9954694, 0.04121499
 235234202, -0.007514965, 0.05352701, -0.01156189, 0.001091626, 0.0003874832, 0.007977797, -0.004757741, 0.0005187924, -0.07072538, 0.9952443, 0.04579443
 235434122, -0.01124757, 0.01188109, -0.03619019, 0.001089464, -0.003163803, 0.001467559, -0.0552574, 0.0005187924, -0.07147668, 0.995271, 0.04570375
 235634042, -0.01160576, 0.001061096, 0.01910987, 0.001089464, 0.001596565, -0.001306626, 0.04130036, 0.0005187924, -0.07148328, 0.9950652, 0.04570375
 235833962, -0.0005600182, 0.006405793, 0.04955583, 0.001089464, 0.01402632, 0.01121871, 0.009087931, 0.0005187924, -0.07157996, 0.9950625, 0.05027412
 236033882, 0.009861648, 0.02067911, -0.005749452, 0.001089464, -0.003218439, 0.001355148, -0.006606414, 0.0005187924, -0.07227437, 0.9950645, 0.04570375
 236233802, -0.009085748, 0.01634224, -0.08286881, 0.001089464, -0.01074843, 0.007448543, -0.07268238, 0.0005187924, -0.0725833, 0.9952802, 0.04570375
 236433722, -0.02405751, 0.01485627, -0.1451835, 0.001089464, -0.006040824, -0.0008648481, 0.007033013, 0.0005187924, -0.0730298, 0.9952881, 0.04570375
 236633642, -0.01242411, 0.005586223, 0.07554764, 0.001089464, -0.001240595, 0.008264397, 0.0393402, 0.0005187924, -0.07306558, 0.9951476, 0.04570375
 236833562, -0.0089401, -0.01504995, 0.05518733, 0.001089464, -0.009954663, -0.009175946, -0.01195324, 0.0005187924, -0.07424281, 0.9950473, 0.04570375
 237033482, -0.01187967, 0.01519035, 0.02043692, 0.001089464, -0.001792337, 0.01984736, -0.01411293, 0.0005187924, -0.0730269, 0.9950873, 0.04570375
 237234235, -0.008294241, 0.06983802, -0.09660788, 0.001091626, -0.002347854, 0.02772338, -0.03631741, 0.000520954, -0.0732649, 0.9952188, 0.04121499
 237434155, -0.006659753, 0.03730893, 0.006483189, 0.001091626, -0.01154482, -0.01347509, -0.01338805, 0.0005187924, -0.07608818, 0.9949414, 0.04579443
 237634075, -0.02777132, -0.05734068, -0.0001390679, 0.001089464, -0.009780708, -0.01567726, 0.01640823, 0.0005187924, -0.07366788, 0.9950736, 0.04570375
 237833995, -0.01432076, -0.006716521, -0.01205126, 0.001089464, -0.007186055, 0.02503837, -0.04225612, 0.0005187924, -0.07303555, 0.995217, 0.04570375
 238033915, -0.01287445, 0.06138727, -0.02188745, 0.001089464, 0.002186248, 0.01302451, 0.004093821, 0.0005187924, -0.07593987, 0.994912, 0.05027412
 238233835, -0.00143611, 0.01111065, 0.004626111, 0.001089464, -0.008113491, -0.007189537, 0.01658949, 0.0005187924, -0.07799962, 0.9947489, 0.04570375
