TimeUS,CAN,CAE,CAD,CAe
 157954293, -0.002784685, 0.003561146, -6.173525E-05, 0.0002615578
 158054253, -0.002773579, 0.00363996, -8.397557E-05, 0.0002593962
 158154213, -0.00285968, 0.003447438, 2.265977E-05, 0.0002593962
 158254173, 0.01084994, 0.002077309, -8.578682E-05, 0.0002593962
 158354133, 0.07345025, -0.005032061, -0.0002763977, 0.0002593962
 158454093, 0.165193, -0.01482583, 0.0003617746, 0.0002593962
 158554053, 0.2697061, -0.02693685, 0.003691798, 0.0002593962
 158654013, 0.3767216, -0.03628798, 0.006895167, 0.0002593962
 158773965, 0.603732, -0.06187963, 0.0120187, 0.0003112754
 158873925, 0.6076899, -0.06362192, 0.01218873, 0.0002593962
 158973885, 0.7065176, -0.07384478, 0.01446385, 0.0002593962
 159073845, 0.8033612, -0.08343725, 0.01642301, 0.0002593962
 159173805, 0.8858829, -0.09046369, 0.01870435, 0.0002593962
 159273765, 0.9498705, -0.1017455, 0.02068452, 0.0002593962
 159373725, 0.9549568, -0.101699, 0.02254847, 0.0002593962
 159473685, 0.9375848, -0.09425629, 0.02270005, 0.0002593962
 159573645, 0.8931489, -0.09323925, 0.02243561, 0.0002593962
 159673605, 0.8464754, -0.09220536, 0.02153331, 0.0002593962
 159773565, 0.7981483, -0.0925528, 0.02010855, 0.0002593962
 159873525, 0.7431148, -0.07310492, -0.01586061, 0.0002593962
 159973485, 0.7016079, -0.07151224, -0.04388164, 0.0002593962
 160074278, 0.6626565, -0.07370418, -0.009548705, 0.0002615578
 160174238, 0.6029224, -0.06607489, 0.025754, 0.0002593962
 160274198, 0.9195073, -0.09460531, -0.2050575, 0.0002593962
 160374158, 0.8866293, -0.08345217, -0.525009, 0.0002593962
 160474118, 0.8185452, -0.0731616, -0.5396711, 0.0002593962
 160574078, 0.7524575, -0.07917381, -0.4445396, 0.0002593962
 160674038, 0.7023289, -0.08254818, -0.2953848, 0.0002593962
 160773998, 0.6679147, -0.08559404, -0.1753717, 0.0002593962
 160893950, 0.7627218, -0.09620525, -0.2248833, 0.0003112754
 160993910, 0.5781578, -0.06611995, -0.2133956, 0.0002593962
 161093870, 0.5302163, -0.0442143, -0.246915, 0.0002593962
 161193830, 0.4938622, -0.03720587, -0.2287979, 0.0002593962
 161293790, 0.4619562, -0.05045577, -0.1976748, 0.0002593962
 161393750, 0.4284822, -0.05381952, -0.1616457, 0.0002593962
 161493710, 0.3947192, -0.04304988, -0.1702955, 0.0002593962
 161593670, 0.372607, -0.03216682, -0.1466956, 0.0002593962
 161693630, 0.3318356, -0.03536138, -0.1843449, 0.0002593962
 161793590, 0.3033887, -0.02522645, -0.1733343, 0.0002593962
 161893550, 0.2879864, -0.03107195, -0.1121697, 0.0002593962
 161993510, 0.2703262, -0.03621425, -0.1008932, 0.0002593962
 162094303, 0.2449064, -0.03405153, -0.1052835, 0.0002593962
 162194263, 0.2245441, -0.0189215, -0.114141, 0.0002615578
 162294223, 0.2073853, -0.01763896, -0.1029473, 0.0002593962
 162394183, 0.1894081, -0.01036332, -0.1140401, 0.0002593962
 162494143, 0.1688338, -0.005952524, -0.128896, 0.0002593962
 162594103, 0.151036, -0.01477015, -0.1228536, 0.0002593962
 162694063, 0.1447067, -0.03263553, -0.05218998, 0.0002593962
 162794023, 0.1331553, -0.02580249, -0.04836816, 0.0002593962
 162913975, 0.1523809, -0.01621883, -0.05588232, 0.0003112754
 163013935, 0.1145028, -0.009016038, -0.03833799, 0.0002593962
 163113895, 0.1034791, -0.02035592, -0.04408828, 0.0002593962
 163213855, 0.08704854, -0.01269496, -0.06490012, 0.0002593962
 163313815, 0.08042482, -0.0150289, -0.04161176, 0.0002593962
 163413775, 0.07237561, -0.003169761, -0.02616629, 0.0002593962
 163513735, 0.05570506, -0.002805347, -0.07829272, 0.0002593962
 163613695, 0.05446178, -0.01140327, -0.04533643, 0.0002593962
 163713655, 0.05058658, -0.009247206, -0.009044413, 0.0002593962
 163813615, 0.04427613, -0.001906104, -0.005584609, 0.0002593962
 163913575, 0.03313696, -0.000950086, -0.05620579, 0.0002593962
 164013535, 0.0359313, 0.009274826, -0.04034944, 0.0002593962
 164113495, 0.03820507, 0.005476454, -0.0223279, 0.0002593962
 164214288, 0.03253177, -0.007634624, 0.001886819, 0.0002615578
 164314248, 0.03706592, -0.004775472, 0.04138669, 0.0002593962
 164414208, 0.01532573, -0.007622662, -0.04888634, 0.0002593962
 164514168, 0.02032633, -0.005831964, -0.01996227, 0.0002593962
 164614128, 0.02595748, -0.003754965, 0.01643923, 0.0002593962
 164714088, 0.02177171, -0.002741182, 0.005148029, 0.0002593962
 164814048, 0.04466627, -0.003020897, 0.0826299, 0.0002593962
 164914008, 0.04335576, -0.0006885612, 0.09394483, 0.0002593962
 165033960, 0.04539478, -0.007085579, 0.09771009, 0.0003112754
 165133920, 0.03899829, -0.01784992, 0.07945395, 0.0002593962
 165233880, 0.04559745, -0.005914347, 0.1152401, 0.0002593962
 165333840, 0.05226775, 0.004712521, 0.124316, 0.0002593962
 165433800, 0.05184633, 0.008336516, 0.09955912, 0.0002593962
 165533760, 0.0341866, -0.01173077, 0.06394263, 0.0002593962
 165633720, 0.006702883, -0.01140492, 0.09418004, 0.0002593962
 165733680, -0.0002407158, -0.001971022, 0.1050813, 0.0002593962
 165833640, -0.008331578, -0.00230137, 0.07712445, 0.0002593962
 165933600, 0.005120789, -0.003325742, 0.08089267, 0.0002593962
 166033560, 0.01451346, 0.003155367, 0.1148891, 0.0002593962
 166133520, 0.01941595, -8.793746E-05, 0.1040574, 0.0002593962
 166233480, 0.02021103, -0.004304404, 0.06482178, 0.0002593962
 166334273, 0.02311354, -0.007520512, 0.06635091, 0.0002615578
 166434233, 0.02535189, -0.005208562, 0.1007336, 0.0002593962
 166534193, 0.02365171, -0.00992046, 0.0847439, 0.0002593962
 166634153, 0.004942304, -0.01409709, 0.07675134, 0.0002593962
 166734113, 0.002031197, -0.004447013, 0.1035737, 0.0002593962
 166834073, -0.001855794, 0.03013187, 0.1218679, 0.0002593962
 166934033, -0.006147166, 0.05389711, 0.1420397, 0.0002593962
 167033993, -0.003926794, 0.0546241, 0.1757963, 0.0002593962
 167153945, -0.01695122, 0.04759663, 0.1449156, 0.0003112754
 167253905, -0.02580054, 0.0193781, 0.09924212, 0.0002593962
 167353865, -0.02735371, 0.01057369, 0.08465511, 0.0002593962
 167453825, -0.0288204, 0.01286163, 0.1072069, 0.0002593962
 167553785, -0.02881763, 0.01099141, 0.09839337, 0.0002593962
 167653745, -0.02742886, 0.02969454, 0.127036, 0.0002593962
 167753705, -0.02021362, 0.0342679, 0.1147989, 0.0002593962
 167853665, -0.03092039, 0.02746345, 0.1060748, 0.0002593962
 167953625, -0.02973627, 0.02344111, 0.1002927, 0.0002593962
 168053585, -0.0317538, 0.02674958, 0.08404177, 0.0002593962
 168153545, -0.03409471, 0.02176565, 0.09484449, 0.0002593962
 168253505, -0.03356919, 0.02155423, 0.08425504, 0.0002593962
 168354298, -0.03769521, 7.453127E-05, 0.1306665, 0.0002593962
 168454258, -0.02497232, 0.005761025, 0.1238627, 0.0002615578
 168554218, -0.0254368, 0.01254847, 0.125158, 0.0002593962
 168654178, -0.0253104, 0.02140016, 0.09396441, 0.0002593962
 168754138, -0.02696592, 0.02349548, 0.08014078, 0.0002593962
 168854098, -0.03301001, 0.01950656, 0.04899717, 0.0002593962
 168954058, -0.02716815, 0.01557758, 0.08988221, 0.0002593962
 169054018, -0.02242121, 0.01857785, 0.1135403, 0.0002593962
 169173970, -0.02258954, 0.02706754, 0.1579188, 0.0003112754
 169273930, -0.01419332, 0.00720002, 0.1416952, 0.0002593962
 169373890, -0.01711211, 0.008329533, 0.09111206, 0.0002593962
 169473850, -0.01658021, 0.004614934, 0.07450958, 0.0002593962
 169573810, -0.01049688, 0.02117026, 0.03755003, 0.0002593962
 169673770, -0.008432513, 0.02541677, 0.04222836, 0.0002593962
 169773730, -0.01783976, 0.01927518, 0.02895247, 0.0002593962
 169873690, -0.01705812, 0.01351338, 0.02872412, 0.0002593962
 169973650, -0.01790448, 0.007377341, 0.07156268, 0.0002593962
 170073610, -0.01605106, 0.005738186, 0.101041, 0.0002593962
 170173570, -0.01144763, 0.01922627, 0.0841291, 0.0002593962
 170273530, -0.001260662, 0.02371888, 0.06895335, 0.0002593962
 170373490, -0.004843683, 0.02146239, 0.08493549, 0.0002593962
 170474283, -0.001414914, 0.00358142, 0.09707839, 0.0002615578
 170574243, 0.002544504, 0.009643243, 0.07159062, 0.0002593962
 170674203, -0.009916315, 0.005535978, 0.04785143, 0.0002593962
 170774163, -0.004342849, 0.004253273, 0.0268117, 0.0002593962
 170874123, -0.004061004, 0.006704502, -0.01081464, 0.0002593962
 170974083, -0.007274151, 0.01832297, -0.0006261319, 0.0002593962
 171074043, -0.003319984, 0.01835394, 0.0492248, 0.0002593962
 171174003, -0.004046503, 0.01066719, 0.04156663, 0.0002593962
 171293955, -0.006477041, 0.008275902, 0.03725183, 0.0003112754
 171393915, -0.003341818, 0.0109618, 0.02417578, 0.0002593962
 171493875, -0.003084111, 0.008818745, 0.0511881, 0.0002593962
 171593835, 0.001428049, 0.007247029, 0.05725013, 0.0002593962
 171693795, -0.003197469, 0.02462669, 0.0313011, 0.0002593962
 171793755, -0.003957797, 0.02284994, 0.009376828, 0.0002593962
 171893715, -0.007360331, 0.01906112, 0.03446694, 0.0002593962
 171993675, -0.003683888, 0.003677827, 0.02749614, 0.0002593962
 172093635, 0.001538466, -0.001914734, 0.01826327, 0.0002593962
 172193595, 0.003879423, 0.005338841, 0.02922013, 0.0002593962
 172293555, 0.0005623004, 0.01095242, 0.0159955, 0.0002593962
 172393515, -0.0007320146, 0.01202001, 0.02011268, 0.0002593962
 172493475, -0.003404448, 0.01067498, -0.0003873419, 0.0002593962
 172594268, -0.002839527, 0.0009815256, 0.008725056, 0.0002615578
 172694228, 0.00580988, -0.0005933989, -0.009506045, 0.0002593962
 172794188, 0.00700634, 0.01442056, 0.0186998, 0.0002593962
 172894148, 0.003724373, 0.01894916, 0.04943109, 0.0002593962
 172994108, 0.01034792, 0.01803534, 0.03602514, 0.0002593962
 173094068, 0.002174919, 0.006447768, 0.03843625, 0.0002593962
 173194028, 0.002575832, 0.006410155, 0.005682979, 0.0002593962
 173313980, 0.006928116, 0.006072283, 0.02440097, 0.0003112754
 173413940, 0.005114003, 0.006129308, 0.002135204, 0.0002593962
 173513900, 0.01188523, 0.01473204, -0.009467142, 0.0002593962
 173613860, 0.01033277, 0.01581312, -0.007144139, 0.0002593962
 173713820, 0.006592665, 0.00848403, -0.003495258, 0.0002593962
 173813780, -0.0002190925, 0.00280404, -0.02264551, 0.0002593962
 173913740, 0.003529651, 0.01295831, -0.01289872, 0.0002593962
 174013700, 0.00286109, 0.01414313, 0.01610623, 0.0002593962
 174113660, 0.005790299, 0.008969292, 0.02463481, 0.0002593962
 174213620, 0.005921414, 0.01733551, 0.006153276, 0.0002593962
 174313580, 0.008470597, 0.01470286, -0.01362157, 0.0002593962
 174413540, 0.007828658, 0.01495804, -0.01556242, 0.0002593962
 174513500, -0.0004725109, 0.006419783, 0.011692, 0.0002593962
 174614293, -0.004528611, 0.0003092809, 0.01596704, 0.0002615578
 174714253, -0.004327883, 0.0006060304, 0.02521846, 0.0002593962
 174814213, 0.001325306, 0.0007686396, 0.02401827, 0.0002593962
 174914173, 0.002372116, 0.008400738, 0.002735073, 0.0002593962
 175014133, 0.004843162, 0.009913179, 0.02069671, 0.0002593962
 175114093, 0.01127467, 0.009206157, 0.02047753, 0.0002593962
 175214053, 0.01925872, 0.005393204, 0.009265254, 0.0002593962
 175314013, 0.01714488, 0.01140509, -0.01853632, 0.0002593962
 175433965, 0.01217094, 0.008989673, 0.01195311, 0.0003112754
 175533925, 0.005462322, 0.005630303, -0.02590152, 0.0002593962
 175633885, 0.01045515, 0.004875856, -0.03608958, 0.0002593962
 175733845, 0.009312328, 0.009200304, -0.02007267, 0.0002593962
 175833805, 0.003758969, 0.01109779, 0.007769356, 0.0002593962
 175933765, 0.00470801, -0.002244022, 0.02118584, 0.0002593962
 176033725, 0.004912705, 0.001267786, 0.008709189, 0.0002593962
 176133685, 0.006440647, -0.006232012, -0.02541887, 0.0002593962
 176233645, 0.01317785, -0.00350824, -0.04338165, 0.0002593962
 176333605, 0.0167778, -0.003747474, -0.03298771, 0.0002593962
 176433565, 0.008892605, -0.009698507, -0.01617221, 0.0002593962
 176533525, 0.002408618, -0.004479327, 0.01533857, 0.0002593962
 176633485, 0.006473765, 0.006284182, -0.007679717, 0.0002593962
 176734278, 0.004641316, 0.01615908, -0.02602875, 0.0002615578
 176834238, 0.003959234, 0.01911364, 0.01647168, 0.0002593962
 176934198, 0.006213437, 0.01527162, 0.01917948, 0.0002593962
 177034158, 0.009166444, 0.005487413, 0.01847668, 0.0002593962
 177134118, 0.009043494, 0.004597792, -0.002641003, 0.0002593962
 177234078, 0.002377283, 0.01338703, 0.003901008, 0.0002593962
 177334038, 0.003054403, 0.005383246, 0.02065001, 0.0002593962
 177433998, -0.001094131, -0.002063401, -0.0002496478, 0.0002593962
 177553950, 0.007672055, 6.753707E-05, -0.006769809, 0.0003112754
 177653910, 0.01074793, -7.657928E-05, -0.02437257, 0.0002593962
 177753870, 0.00893148, 0.01392776, -0.0286762, 0.0002593962
 177853830, 0.01089296, 0.008955462, -0.04508929, 0.0002593962
 177953790, 0.004972259, 0.004747035, -0.04906166, 0.0002593962
 178053750, 6.383704E-05, 0.001582877, -0.03295563, 0.0002593962
 178153710, 0.006823459, 0.007612761, 0.01457843, 0.0002593962
 178253670, 0.009195464, 0.006475985, 0.02415043, 0.0002593962
 178353630, 0.01015864, 0.006148553, 0.01352879, 0.0002593962
 178453590, 0.01103097, 0.007341558, 0.006409045, 0.0002593962
 178553550, 0.007667036, 0.007530808, 0.006739943, 0.0002593962
 178653510, 0.001875555, 0.0161122, -0.01238857, 0.0002593962
 178754303, 0.001229557, 0.02094826, -0.01633769, 0.0002593962
 178854263, 0.005915781, 0.02569265, 0.007764014, 0.0002615578
 178954223, 0.008079508, 0.01864065, 0.002139189, 0.0002593962
 179054183, 0.01430433, 0.01504084, 0.003123874, 0.0002593962
 179154143, 0.0038238, 0.02497586, -0.02276976, 0.0002593962
 179254103, 0.009187167, 0.01607625, -0.03384364, 0.0002593962
 179354063, 0.006980757, 0.0155157, -0.02309405, 0.0002593962
 179454023, 0.006231758, 0.004382904, 0.02746969, 0.0002593962
 179573975, 0.008334728, 0.01581007, -0.0007355318, 0.0003112754
 179673935, 0.001929076, 0.007415215, -0.03013734, 0.0002593962
 179773895, 0.01326069, -0.001398774, -0.02910835, 0.0002593962
 179873855, 0.008778515, 0.005878055, -0.03514695, 0.0002593962
 179973815, 0.00506907, 0.01903649, -0.02937827, 0.0002593962
 180073775, 0.003741396, 0.02922279, 0.007705752, 0.0002593962
 180173735, -0.0007797155, 0.0203901, -0.001110386, 0.0002593962
 180273695, 8.11799E-06, 0.02314497, -0.001584325, 0.0002593962
 180373655, 0.008719236, 0.01747482, -0.002858591, 0.0002593962
 180473615, 0.01040749, 0.02243173, -0.01430855, 0.0002593962
 180573575, -0.002880911, 0.03533296, 0.009645885, 0.0002593962
 180673535, 0.0003508225, 0.05385917, -0.01497507, 0.0002593962
 180773495, 0.01246547, 0.05771969, 0.001944336, 0.0002593962
 180874288, 0.004601202, 0.004232164, -0.01248251, 0.0002615578
 180974248, 0.02548617, 0.5159289, 0.02254946, 0.0002593962
 181074208, 0.03367626, 0.6361894, 0.1307741, 0.0002593962
 181174168, 0.0304777, 0.3183096, -0.1144509, 0.0002593962
 181274128, -0.002106241, -0.08982965, -0.3666352, 0.0002593962
 181374088, -0.02376346, -0.3849088, -0.120519, 0.0002593962
 181474048, -0.0145922, -0.3506168, 0.1548191, 0.0002593962
 181574008, -0.004044625, -0.1640388, 0.1543229, 0.0002593962
 181693960, 0.0003501975, 0.08902245, 0.0632323, 0.0003112754
 181793920, 0.002956346, 0.2251461, 0.0265631, 0.0002593962
 181893880, 0.006065681, 0.2354046, 0.051759, 0.0002593962
 181993840, 0.005713714, 0.1538661, 0.02455586, 0.0002593962
 182093800, 0.004118112, 0.0408939, -0.01160402, 0.0002593962
 182193760, -0.0012943, -0.05869321, -0.008779112, 0.0002593962
 182293720, 0.001502558, -0.09166013, -0.02076682, 0.0002593962
 182393680, -0.001579727, -0.0693078, 0.00692246, 0.0002593962
 182493640, 0.002108695, -0.02132528, 0.005507688, 0.0002593962
 182593600, -0.0006846125, 0.04065222, 0.006664051, 0.0002593962
 182693560, 0.004236362, 0.08104845, -0.01560161, 0.0002593962
 182793520, -0.002668821, 0.08492903, -0.02374915, 0.0002593962
 182893480, 0.003342957, 0.05359073, 0.005289146, 0.0002593962
 182994273, 0.006341516, 0.01682829, 0.004112258, 0.0002615578
 183094233, 0.007821466, -0.004822258, 0.02228071, 0.0002593962
 183194193, 0.007982383, -0.008802049, -0.00690409, 0.0002593962
 183294153, 0.01112732, -0.001736146, -0.0488704, 0.0002593962
 183394113, 0.01950527, 0.02149813, -0.01347936, 0.0002593962
 183494073, 0.01178712, 0.0340375, -0.009079018, 0.0002593962
 183594033, 0.003703911, 0.03423738, -0.01558304, 0.0002593962
 183693993, -0.0002398872, 0.03252929, 0.02600265, 0.0002593962
 183813945, 0.004007871, 0.03820571, 0.004153726, 0.0003112754
 183913905, 8.458571E-05, 0.0163119, 0.008389968, 0.0002593962
 184013865, 0.0007703964, 0.007605258, -0.009508896, 0.0002593962
 184113825, 0.002513245, 0.007491305, -0.03930873, 0.0002593962
 184213785, 0.0005278531, 0.01195439, -0.01705954, 0.0002593962
 184313745, -0.006963117, 0.01432838, -0.02115386, 0.0002593962
 184413705, -0.01830457, 0.01600406, -0.0124959, 0.0002593962
 184513665, -0.03764933, 0.01863948, 0.01688349, 0.0002593962
 184613625, -0.03677188, 0.01124228, 0.0297056, 0.0002593962
 184713585, -0.03299783, 0.00908559, 0.01980586, 0.0002593962
 184813545, -0.04104828, 0.00734419, -0.01117947, 0.0002593962
 184913505, -0.0255237, 0.003020218, 0.01069104, 0.0002593962
 185014298, -0.02751982, -0.01860282, -0.01654962, 0.0002593962
 185114258, -0.02554027, -0.02585866, 0.004013681, 0.0002615578
 185214218, -0.02282253, -0.02258625, 0.05463361, 0.0002593962
 185314178, -0.02144409, -0.01709232, 0.05051145, 0.0002593962
 185414138, -0.02182253, -0.01100807, -0.02752593, 0.0002593962
 185514098, -0.02297137, -0.007015742, -0.01951471, 0.0002593962
 185614058, -0.02160763, -0.01132437, 0.01023997, 0.0002593962
 185714018, -0.02503864, -0.0210724, -0.009621317, 0.0002593962
 185833970, -0.03621277, -0.01032924, -0.02689975, 0.0003112754
 185933930, -0.02065711, -0.007930997, -0.02101633, 0.0002593962
 186033890, -0.03051062, -0.008734718, -0.04326931, 0.0002593962
 186133850, -0.03162239, -0.008377586, -0.02950153, 0.0002593962
 186233810, -0.03077717, -0.005663752, 0.00366421, 0.0002593962
 186333770, -0.03199368, 0.009480151, -0.005278688, 0.0002593962
 186433730, -0.03820202, 0.005495345, -0.02216658, 0.0002593962
 186533690, -0.03262649, 0.003198166, -0.0255685, 0.0002593962
 186633650, -0.02890518, 0.002493365, -0.03548836, 0.0002593962
 186733610, -0.02952366, 0.005653252, -0.03637698, 0.0002593962
 186833570, -0.02997894, -0.008691869, -0.01808344, 0.0002593962
 186933530, -0.03072154, -0.002349721, -0.01242404, 0.0002593962
 187033490, -0.02836653, 0.003902884, 0.02448513, 0.0002593962
 187134283, -0.02807246, -0.004827631, 0.01758679, 0.0002615578
 187234243, -0.02852311, -0.01181961, 0.02097261, 0.0002593962
 187334203, -0.02442474, -0.01233912, -0.007029716, 0.0002593962
 187434163, -0.02373368, -0.005518544, -0.0154943, 0.0002593962
 187534123, -0.0253527, 0.002200617, -0.0132601, 0.0002593962
 187634083, -0.02645048, 0.009880697, -0.02026356, 0.0002593962
 187734043, -0.0214494, -0.003491068, 0.02881585, 0.0002593962
 187834003, -0.02165243, -0.01025312, 0.04997653, 0.0002593962
 187953955, -0.02530833, -0.01268692, 0.06631494, 0.0003112754
 188053915, -0.01643639, -0.009226006, -0.01222927, 0.0002593962
 188153875, -0.02276573, 0.00553868, -0.04228569, 0.0002593962
 188253835, -0.02224497, -0.0007014892, -0.04490593, 0.0002593962
 188353795, -0.01933638, -0.004528564, -0.003015885, 0.0002593962
 188453755, -0.02188131, -0.00661576, 0.01567845, 0.0002593962
 188553715, -0.01511882, -0.002417365, -0.004673232, 0.0002593962
 188653675, -0.009728999, 0.006810526, -0.02441792, 0.0002593962
 188753635, -0.01080591, -0.02096937, 0.05582703, 0.0002593962
 188853595, -0.01125321, -0.03642759, 0.1241715, 0.0002593962
 188953555, -0.006669244, -0.007251602, 0.0972992, 0.0002593962
 189053515, -0.004147995, 0.02254955, 0.07906578, 0.0002593962
 189153475, -0.006286184, 0.02919486, 0.04728249, 0.0002593962
 189254268, -0.005769661, 0.01802226, 0.06597476, 0.0002615578
 189354228, -0.02385362, 0.00767295, 0.01885545, 0.0002593962
 189454188, 0.003481525, 0.005131709, -0.04260581, 0.0002593962
 189554148, -0.005227033, 0.0002536606, -0.04584137, 0.0002593962
 189654108, -0.005000101, -0.0100273, -0.09033318, 0.0002593962
 189754068, -0.003951918, 0.009164128, -0.04552459, 0.0002593962
 189854028, -0.007162143, 0.05057312, -0.0310335, 0.0002593962
 189973980, -0.01348115, 0.05274097, -0.0214871, 0.0003112754
 190073940, -0.01468288, -0.01465263, -0.01673142, 0.0002593962
 190173900, -0.01626515, -0.03281154, -0.04037917, 0.0002593962
 190273860, -0.01814719, 0.002329574, 0.002608848, 0.0002593962
 190373820, -0.01658483, 0.05671349, 0.01906752, 0.0002593962
 190473780, -0.007209508, 0.03609641, 0.02124, 0.0002593962
 190573740, -0.01257346, -0.009026306, 0.0224106, 0.0002593962
 190673700, -0.01033196, -0.05536628, 0.02519573, 0.0002593962
 190773660, -0.006881489, -0.03766839, -0.03848376, 0.0002593962
 190873620, -0.004823593, 0.02126123, -0.05128159, 0.0002593962
 190973580, -0.01333608, 0.03354042, -0.03078083, 0.0002593962
 191073540, -0.01317218, 0.01565107, -0.02746943, 0.0002593962
 191173500, -0.02138642, -0.008254741, -0.03940984, 0.0002593962
 191274293, -0.02336992, 0.001823734, -0.02519831, 0.0002615578
 191374253, -0.03165939, -0.009635198, 0.01280351, 0.0002593962
 191474213, -0.03510852, -0.003343011, 0.03341862, 0.0002593962
 191574173, 0.004257986, -0.006221168, -0.009486159, 0.0002593962
 191674133, -0.004755515, -0.007968483, 0.004798514, 0.0002593962
 191774093, -0.009356034, 0.009144481, -0.02528933, 0.0002593962
 191874053, -0.01448477, 0.0174873, -0.01565954, 0.0002593962
 191974013, -0.01547908, 0.01204715, -0.02078624, 0.0002593962
 192093965, -0.01810282, 0.003592028, -0.03995613, 0.0003112754
 192193925, -0.01507806, -0.005876128, -0.01389858, 0.0002593962
 192293885, -0.01593706, -0.001518446, 0.005202577, 0.0002593962
 192393845, -0.01394801, 0.01076488, -0.02620826, 0.0002593962
 192493805, -0.004559555, 0.009969369, -0.02555938, 0.0002593962
 192593765, -0.009519707, 0.002136956, -0.00668609, 0.0002593962
 192693725, -0.01355786, -0.00758494, 0.005695582, 0.0002593962
 192793685, -0.01494841, -0.009461241, 0.02395645, 0.0002593962
 192893645, -0.01815447, -0.007410959, -0.008021883, 0.0002593962
 192993605, -0.01666516, -0.007551508, -0.03365866, 0.0002593962
 193093565, -0.01840023, 0.01105561, -0.02943754, 0.0002593962
 193193525, -0.01495748, 0.01328485, -0.01817967, 0.0002593962
 193293485, -0.02255709, 0.00799357, -0.002190981, 0.0002593962
 193394278, -0.01959018, 0.0002008842, -0.03281235, 0.0002615578
 193494238, -0.0218957, -0.008750245, -0.04376187, 0.0002593962
 193594198, -0.01782361, -7.919385E-05, -0.002067397, 0.0002593962
 193694158, -0.03723645, -0.01157071, 0.0152359, 0.0002593962
 193794118, -0.03767183, -0.001001086, 0.03017243, 0.0002593962
 193894078, -0.007202514, 0.004388819, 0.03321739, 0.0002593962
 193994038, 0.02558899, -0.003466183, 0.004364718, 0.0002593962
 194093998, -0.003627401, -0.007651043, -0.05735691, 0.0002593962
 194213950, -0.01162265, -0.008531652, -0.06522907, 0.0003112754
 194313910, -0.01657237, -0.00810817, -0.002442927, 0.0002593962
 194413870, -0.04672372, -0.006535721, -0.005321157, 0.0002593962
 194513830, -0.04991635, -0.01055358, 0.01079875, 0.0002593962
 194613790, -0.01908082, 0.01811821, -0.03830519, 0.0002593962
 194713750, -0.01090505, 0.03336227, -0.0009602903, 0.0002593962
 194813710, -0.01115883, 0.0123105, 0.005457554, 0.0002593962
 194913670, -0.01228438, -0.001614631, 0.003411044, 0.0002593962
 195013630, -0.01085826, -0.005785799, -0.03348457, 0.0002593962
 195113590, -0.02364179, -0.004285097, -0.05841726, 0.0002593962
 195213550, -0.006077392, -0.001684461, -0.01443782, 0.0002593962
 195313510, -0.01762876, 0.004957142, 0.02888009, 0.0002593962
 195414303, -0.02459397, 0.007424405, 0.03947939, 0.0002593962
 195514263, -0.02134552, 0.007091112, -0.0228783, 0.0002615578
 195614223, -0.02683497, 0.01282065, -0.06027231, 0.0002593962
 195714183, -0.01781574, 0.01615861, 0.003118649, 0.0002593962
 195814143, -0.01815622, 0.0009864938, 0.03796825, 0.0002593962
 195914103, -0.0192122, 0.01121206, 0.05071347, 0.0002593962
 196014063, -0.01256571, 0.01745001, 0.0008710043, 0.0002593962
 196114023, -0.01342379, 0.02275993, -0.004151152, 0.0002593962
 196233975, -0.01703369, 0.01596123, 0.0215903, 0.0003112754
 196333935, 0.0002672888, -0.01223421, 0.005075026, 0.0002593962
 196433895, -0.01328931, -0.01773732, 0.007499536, 0.0002593962
 196533855, -0.01720072, -0.01822109, 0.01209525, 0.0002593962
 196633815, 0.00685174, 0.002973353, 0.006210407, 0.0002593962
 196733775, 0.02026733, 0.0234449, 0.008106164, 0.0002593962
 196833735, 0.004733034, 0.04577215, 0.01684256, 0.0002593962
 196933695, 0.001946498, 0.03237197, 0.02988751, 0.0002593962
 197033655, -0.006450414, 0.01322117, 0.01079319, 0.0002593962
 197133615, -0.007466948, 0.0006082813, -0.0004874377, 0.0002593962
 197233575, -0.009782917, -0.01187669, -0.0006081248, 0.0002593962
 197333535, -0.01613954, -0.005440952, 0.003901828, 0.0002593962
 197433495, -0.05554108, -0.007270988, -0.008272666, 0.0002593962
 197534288, -0.03626044, -0.003038197, 0.01485985, 0.0002615578
 197634248, 0.008709966, 0.005165574, 0.02417397, 0.0002593962
 197734208, 0.06812728, 0.02286693, -0.01584557, 0.0002593962
 197834168, 0.02218299, 0.03128237, -0.01604827, 0.0002593962
 197934128, 0.006668027, 0.01860585, 0.001280005, 0.0002593962
 198034088, -0.01570317, 0.001619126, -0.006159273, 0.0002593962
 198134048, -0.08310483, -0.009881014, -0.03523413, 0.0002593962
 198234008, -0.06880962, -0.0118239, -0.03445489, 0.0002593962
 198353960, -0.0296601, -0.005455202, 0.01834395, 0.0003112754
 198453920, -0.000632996, -0.003039569, -0.0002264357, 0.0002593962
 198553880, -0.001605827, 0.01762601, 0.03576374, 0.0002593962
 198653840, 0.003146636, 0.0333091, 0.03975128, 0.0002593962
 198753800, -0.001098223, 0.04040736, 0.02761335, 0.0002593962
 198853760, -0.004364762, 0.03816548, 0.005922399, 0.0002593962
 198953720, -0.01008024, 0.0188951, -0.06947423, 0.0002593962
 199053680, -0.01930468, -0.01880205, -0.07124635, 0.0002593962
 199153640, -0.01949639, -0.03454907, -0.009357398, 0.0002593962
 199253600, -0.0003890671, -0.02875881, 0.02952375, 0.0002593962
 199353560, -0.004883775, -0.01178917, 0.02397119, 0.0002593962
 199453520, 0.002286657, 0.02351847, 0.03580179, 0.0002593962
 199553480, -0.002479916, 0.03769048, 0.02829633, 0.0002593962
 199654273, 0.0127254, 0.04183285, 0.007236462, 0.0002615578
 199754233, -0.004701734, 0.01991217, -0.01540365, 0.0002593962
 199854193, -0.008409956, 0.009305501, -0.007477248, 0.0002593962
 199954153, -0.007259296, -0.006903135, 0.01773039, 0.0002593962
 200054113, 0.0137969, -0.01798806, 0.03523166, 0.0002593962
 200154073, -0.002149504, -0.01616776, 0.02896926, 0.0002593962
 200254033, -0.004113017, -0.0138967, -0.01350173, 0.0002593962
 200353993, 0.002149576, 0.003390012, -0.002509305, 0.0002593962
 200473945, -0.005463024, 0.02746789, 0.02214883, 0.0003112754
 200573905, -0.0003305317, 0.02472391, -0.0265294, 0.0002593962
 200673865, 0.001186508, 0.001460783, -0.0501879, 0.0002593962
 200773825, 0.002995571, -0.00462113, 0.01542295, 0.0002593962
 200873785, 0.005728464, -0.005984111, 0.02659129, 0.0002593962
 200973745, 0.008157385, 0.002463443, 0.02424429, 0.0002593962
 201073705, -0.003348037, 0.001325345, -0.03586461, 0.0002593962
 201173665, -0.004874089, -0.0006544743, -0.01980225, 0.0002593962
 201273625, -0.005291774, -0.003444757, 0.03753074, 0.0002593962
 201373585, -0.005001101, 0.007099597, 0.04203169, 0.0002593962
 201473545, -0.006182729, 0.002457033, -0.01888013, 0.0002593962
 201573505, -0.007597076, 0.005672833, -0.07135218, 0.0002593962
 201674298, -0.006760189, 0.006411658, 0.002975856, 0.0002593962
 201774258, -0.006732681, 0.006687433, 0.0153357, 0.0002615578
 201874218, -0.004835841, 0.01315537, 0.02926183, 0.0002593962
 201974178, -0.007870576, 0.0094202, 0.03824716, 0.0002593962
 202074138, 0.007982798, 0.01113457, 0.01423987, 0.0002593962
 202174098, -0.03376686, 0.004133332, -0.006387167, 0.0002593962
 202274058, -0.01009432, 0.01521593, -0.01027831, 0.0002593962
 202374018, 0.05100957, 0.01309418, 0.01216996, 0.0002593962
 202493970, 0.03219336, 0.0008350399, -0.0006446929, 0.0003112754
 202593930, 0.002688889, -0.01008959, 0.009939099, 0.0002593962
 202693890, -0.01507421, -0.007760666, -0.008272961, 0.0002593962
 202793850, -0.08363301, -0.006228137, -0.002035376, 0.0002593962
 202893810, -0.04127964, -0.005624588, -0.01673239, 0.0002593962
 202993770, -0.004751842, 0.003618199, 0.00629772, 0.0002593962
 203093730, 0.01140951, 0.01855127, 0.04230979, 0.0002593962
 203193690, 0.0760481, 0.01070554, 0.01937709, 0.0002593962
 203293650, 0.0580826, 0.01173557, -0.001797538, 0.0002593962
 203393610, 0.01249143, 0.01118422, 0.0002094578, 0.0002593962
 203493570, -0.01056941, 0.0134196, -0.04875761, 0.0002593962
 203593530, -0.01722872, -0.003325601, -0.02125123, 0.0002593962
 203693490, -0.07514446, -0.00244235, 0.026591, 0.0002593962
 203794283, -0.05719163, -0.007611068, 0.0107379, 0.0002615578
 203894243, -0.01185479, -0.01284821, 0.000520946, 0.0002593962
 203994203, 0.01255107, -0.0148941, 0.03432008, 0.0002593962
 204094163, 0.07981195, -0.001303799, 0.04597125, 0.0002593962
 204194123, 0.05340144, 0.01590574, 0.02801559, 0.0002593962
 204294083, 0.01720792, 0.01186602, -0.02235914, 0.0002593962
 204394043, -0.00469588, 0.006886713, -0.03179504, 0.0002593962
 204494003, -0.01029596, 0.004663842, -0.0327618, 0.0002593962
 204613955, -0.01789106, -0.005240901, -0.03692586, 0.0003112754
 204713915, -0.01880476, -0.008331287, -0.02004539, 0.0002593962
 204813875, -0.06548361, -0.0120347, 0.003875917, 0.0002593962
 204913835, -0.054818, -0.003170833, 0.007401919, 0.0002593962
 205013795, 0.01682149, 0.005439318, 0.03834242, 0.0002593962
 205113755, 0.07981568, 0.01249818, 0.03826935, 0.0002593962
 205213715, 0.03270316, 0.02132432, -0.01377275, 0.0002593962
 205313675, 0.007286937, 0.01312717, -0.02832853, 0.0002593962
 205413635, -0.009503679, 0.0001246261, 0.02471522, 0.0002593962
 205513595, -0.009957031, -0.01230616, 0.01473041, 0.0002593962
 205613555, -0.007237759, -0.002551576, 0.01903659, 0.0002593962
 205713515, -0.008276075, 0.004246152, 0.02578633, 0.0002593962
 205813475, -0.002830826, -0.01036276, 0.008983632, 0.0002593962
 205914268, -0.003285982, -0.001007841, -0.02506062, 0.0002615578
 206014228, -0.008315377, -0.000522119, -0.05671135, 0.0002593962
 206114188, -0.005768883, -0.01403578, -0.01726687, 0.0002593962
 206214148, -0.006940351, -0.01180143, -0.007132994, 0.0002593962
 206314108, -0.03272483, 0.001067528, 0.03146907, 0.0002593962
 206414068, -0.06521276, 0.01021363, 0.02600902, 0.0002593962
 206514028, 0.04374559, 0.007629028, 0.01821046, 0.0002593962
 206633980, 0.04986301, 0.009797454, 0.001307383, 0.0003112754
 206733940, 0.01043184, 0.009937316, 0.01825169, 0.0002593962
 206833900, -0.007335883, 0.008888477, -0.02545357, 0.0002593962
 206933860, -0.01352192, -0.002740089, -0.02903563, 0.0002593962
 207033820, -0.01551451, -0.001845059, -0.01159839, 0.0002593962
 207133780, -0.07804322, 0.009898629, -0.002831785, 0.0002593962
 207233740, -0.03988826, 0.01064198, 0.0129999, 0.0002593962
 207333700, 0.03251848, 0.007731994, 0.02311305, 0.0002593962
 207433660, 0.08007973, 0.01020619, 0.06049511, 0.0002593962
 207533620, 0.03744434, 0.01900777, 0.00771375, 0.0002593962
 207633580, 0.001747563, 0.02463196, -0.02503989, 0.0002593962
 207733540, -0.01629085, 0.01364778, -0.05764157, 0.0002593962
 207833500, -0.01414031, -0.008927222, -0.0369243, 0.0002593962
 207934293, -0.01738086, -0.01855098, -0.01120406, 0.0002615578
 208034253, -0.06754345, -0.01190811, -0.005273226, 0.0002593962
 208134213, -0.05379472, -0.0007009159, -0.02033948, 0.0002593962
 208234173, -0.01344593, 0.003233699, 0.02418393, 0.0002593962
 208334133, 0.06235217, 0.00776894, 0.0455858, 0.0002593962
 208434093, 0.06375864, -0.001665549, 0.05391063, 0.0002593962
 208534053, 0.02147007, -0.005835704, 0.03305247, 0.0002593962
 208634013, 0.0008450208, 0.008166624, -0.02596475, 0.0002593962
 208753965, -0.01422766, 0.02358522, -0.058491, 0.0003112754
 208853925, -0.01688496, 0.01755282, -0.04062913, 0.0002593962
 208953885, -0.08195193, 0.0152605, -0.05012911, 0.0002593962
 209053845, -0.04991674, 0.01473611, -0.03633602, 0.0002593962
 209153805, -0.00936753, 0.01214873, -0.01109262, 0.0002593962
 209253765, 0.008205201, -0.00964728, 0.03603555, 0.0002593962
 209353725, 0.07889415, -0.02792636, 0.07249951, 0.0002593962
 209453685, 0.05006193, -0.01010101, 0.03189541, 0.0002593962
 209553645, 0.005731199, 0.001182076, 0.03097576, 0.0002593962
 209653605, -0.01940706, 0.00372584, -0.009048599, 0.0002593962
 209753565, -0.0864265, 0.008907209, -0.03919274, 0.0002593962
 209853525, -0.05059205, 0.01419445, -0.0366105, 0.0002593962
 209953485, -0.01220369, 0.007867931, 0.001680599, 0.0002593962
 210054278, 0.006010452, 0.003700522, -0.004159655, 0.0002615578
 210154238, 0.008415967, 0.007508779, 0.005938986, 0.0002593962
 210254198, 0.03476571, -0.01180178, 0.0571301, 0.0002593962
 210354158, 0.07482088, -0.01829129, 0.002087178, 0.0002593962
 210454118, 0.02464346, -0.004241488, -0.009122937, 0.0002593962
 210554078, -0.01180738, 0.002263981, -0.003055027, 0.0002593962
 210654038, -0.08491273, 0.008747898, -0.03676365, 0.0002593962
 210753998, -0.05120317, 0.01158856, -0.03897769, 0.0002593962
 210873950, -0.02007422, 0.007229702, -0.04463364, 0.0003112754
 210973910, 0.000513966, 0.0001385312, 0.0003957406, 0.0002593962
 211073870, 0.007390282, -0.009867485, 0.01310264, 0.0002593962
 211173830, 0.009333427, -0.003544288, 0.01354699, 0.0002593962
 211273790, 0.02680795, 0.008953419, 0.01372609, 0.0002593962
 211373750, 0.0773393, 0.01644598, 0.00183628, 0.0002593962
 211473710, 0.0195237, 0.01664149, -0.003546859, 0.0002593962
 211573670, -0.06929457, 0.01291703, 0.008672562, 0.0002593962
 211673630, -0.06676865, 0.001268446, -0.01392495, 0.0002593962
 211773590, -0.02419912, -0.001984561, -0.01356917, 0.0002593962
 211873550, -0.01146024, 0.00274775, 0.003813333, 0.0002593962
 211973510, -0.007372334, -0.005550989, -0.0189817, 0.0002593962
 212074303, -0.0009433, -0.009017763, -0.03200857, 0.0002593962
 212174263, 0.0007187889, -0.006147314, 0.006676731, 0.0002615578
 212274223, 0.002261279, -0.01241725, 0.03752581, 0.0002593962
 212374183, -0.0004164758, -0.01305672, 0.03065451, 0.0002593962
 212474143, 0.001433289, 0.0116199, 0.015328, 0.0002593962
 212574103, -0.005683105, 0.0238222, 0.02846736, 0.0002593962
 212674063, 0.005218177, 0.02876573, -0.006629352, 0.0002593962
 212774023, -0.001195246, 0.02114554, 0.01532006, 0.0002593962
 212893975, -0.002455404, 0.00767468, -0.02125511, 0.0003112754
 212993935, -0.004406909, -0.01015521, -0.04628969, 0.0002593962
 213093895, -0.006757544, -0.01132307, -0.03037363, 0.0002593962
 213193855, -0.009030117, -0.007612774, -0.0160564, 0.0002593962
 213293815, 0.006565483, -0.001795373, 0.01388086, 0.0002593962
 213393775, -0.001041267, -0.000455975, -0.01485756, 0.0002593962
 213493735, -0.004308459, 0.006243583, -0.005324903, 0.0002593962
 213593695, 0.005698498, 0.006279527, 0.02026854, 0.0002593962
 213693655, -0.001141313, 0.0142176, 0.01633127, 0.0002593962
 213793615, 0.002222638, 0.01699866, 0.0174859, 0.0002593962
 213893575, 0.0002265226, 0.01314622, 0.02049197, 0.0002593962
 213993535, -0.001758486, 0.01208722, 0.008957692, 0.0002593962
 214093495, -0.006305962, 0.004375824, -0.01530731, 0.0002593962
 214194288, 0.00409805, 0.004052076, -0.02375919, 0.0002615578
 214294248, 0.005534953, 0.01121307, -0.003462426, 0.0002593962
 214394208, 0.007977352, 0.002545931, 0.05776875, 0.0002593962
 214494168, -0.0001396847, -0.006490336, 0.03073446, 0.0002593962
 214594128, 0.0006974774, 0.003739627, -0.02497362, 0.0002593962
 214694088, -0.001843058, -0.0004358489, -0.04772538, 0.0002593962
 214794048, -0.006990884, 0.001725999, -0.008625565, 0.0002593962
 214894008, -0.00380101, -8.422579E-05, 0.03390763, 0.0002593962
 215013960, -0.003729117, -0.005135204, -0.03446009, 0.0003112754
 215113920, -0.003173035, 0.003363799, -0.01887049, 0.0002593962
 215213880, -0.002955273, -0.0003031309, 0.02751509, 0.0002593962
 215313840, -0.002357873, 0.001793023, 0.04012368, 0.0002593962
 215413800, -0.003078245, -5.514669E-05, 0.002676064, 0.0002593962
 215513760, -0.003372273, 0.010517, 0.004250361, 0.0002593962
 215613720, 0.001161004, 0.005797051, 0.01196652, 0.0002593962
 215713680, 0.002483015, -0.0001912863, -0.02030759, 0.0002593962
 215813640, 0.004017561, 0.00740223, -0.009889707, 0.0002593962
 215913600, 0.001156677, 0.006308988, -0.01411914, 0.0002593962
 216013560, -0.0003517815, 0.003838684, 0.009739927, 0.0002593962
 216113520, -0.003213865, 0.008194365, 0.0001880177, 0.0002593962
 216213480, -0.007209157, 0.01297865, 0.02212949, 0.0002593962
 216314273, -0.001301623, -0.001190605, -0.01927102, 0.0002615578
 216414233, -0.009092602, -0.001629283, -0.00410852, 0.0002593962
 216514193, -0.01563141, -0.003167505, -0.01836316, 0.0002593962
 216614153, -0.008846626, -0.000804861, 0.01018843, 0.0002593962
 216714113, -0.003143468, 0.005490782, 0.007509354, 0.0002593962
 216814073, -0.005146065, -0.0001816979, -0.03122762, 0.0002593962
 216914033, -0.004580988, 0.003504705, 0.0101658, 0.0002593962
 217013993, -0.002964383, 0.003802362, 0.03058366, 0.0002593962
 217133945, 0.002601878, 0.01489908, 0.02940999, 0.0003112754
 217233905, -0.0001244614, 0.01124773, -0.03389635, 0.0002593962
 217333865, -0.004762191, -0.000156821, -0.03334004, 0.0002593962
 217433825, -0.002884534, 0.0001792191, 0.0116887, 0.0002593962
 217533785, -0.003852134, 0.008669274, 0.02388965, 0.0002593962
 217633745, 0.0005511052, 0.009936869, 0.02579965, 0.0002593962
 217733705, -0.002362099, 0.004120439, -0.003093235, 0.0002593962
 217833665, 0.003504203, 0.008947474, 0.01001451, 0.0002593962
 217933625, 0.001852996, 0.006232257, 0.02364611, 0.0002593962
 218033585, -0.00369114, -0.0007392472, -0.02737597, 0.0002593962
 218133545, -0.004786571, -0.005694215, -0.0108582, 0.0002593962
 218233505, -0.001073811, 0.001234069, 0.02956384, 0.0002593962
 218334298, 0.007457995, 0.001549279, 0.02473642, 0.0002593962
 218434258, -0.0003065342, -0.003270059, -0.003924317, 0.0002615578
 218534218, -0.0006920572, -0.001939844, -0.004537817, 0.0002593962
 218634178, -0.004076478, -0.004710672, -0.02374094, 0.0002593962
 218734138, -0.002727831, -0.007750901, -0.005167819, 0.0002593962
 218834098, 0.003263568, -0.007025618, 0.01240329, 0.0002593962
 218934058, 0.002111706, -0.009366501, -0.003203874, 0.0002593962
 219034018, -0.0002740251, -0.004673534, -0.02734584, 0.0002593962
 219153970, -0.0006914394, 0.005643141, -0.00152441, 0.0003112754
 219253930, -0.006491306, 0.008257285, -0.02024327, 0.0002593962
 219353890, -0.004346929, 0.005742178, 0.03009666, 0.0002593962
 219453850, -0.001851698, 0.006481671, 0.03843231, 0.0002593962
 219553810, 0.0003698889, 0.005998274, -0.03518008, 0.0002593962
 219653770, -0.004458613, 0.01339309, -0.04858494, 0.0002593962
 219753730, -0.006071005, 0.007626947, 0.01039773, 0.0002593962
 219853690, -0.0009126707, 0.01080468, 0.02398015, 0.0002593962
 219953650, -0.001506222, 0.001976398, 0.00309619, 0.0002593962
 220053610, -0.002590032, -0.01157145, -0.008194257, 0.0002593962
 220153570, -0.00792087, -0.009824611, -0.01584291, 0.0002593962
 220253530, -0.008212567, -0.0004943984, -0.01978178, 0.0002593962
 220353490, -0.001919548, 0.009514913, 0.01204365, 0.0002593962
 220454283, -0.004904729, 0.009440329, 0.02834883, 0.0002615578
 220554243, -0.00486259, -0.001412348, -0.01517477, 0.0002593962
 220654203, -0.001920839, 0.01071015, -0.009420803, 0.0002593962
 220754163, -0.002683881, 0.01550535, 0.01142105, 0.0002593962
 220854123, -0.001696639, 0.00895437, -0.02119659, 0.0002593962
 220954083, -0.00605566, 0.005212816, 0.001282741, 0.0002593962
 221054043, 0.001173188, -0.0008821492, 0.004790116, 0.0002593962
 221154003, 0.001358912, -0.01148637, -0.0410632, 0.0002593962
 221273955, 0.002823291, -0.02192825, -0.0197017, 0.0003112754
 221373915, 0.0004265288, 0.0007896109, 0.03766369, 0.0002593962
 221473875, 0.004822707, 0.01116975, 0.05943767, 0.0002593962
 221573835, -0.002641503, 0.007826066, 0.01823205, 0.0002593962
 221673795, -0.005956574, 0.00908994, -0.0147188, 0.0002593962
 221773755, -0.003104942, 0.009124856, -0.02500667, 0.0002593962
 221873715, -0.00652242, 0.007737902, 0.009132918, 0.0002593962
 221973675, -0.00442332, -0.003649152, 0.0008250186, 0.0002593962
 222073635, -0.003240213, -0.0054478, -0.02089899, 0.0002593962
 222173595, -0.008670071, 0.00238316, -0.002916599, 0.0002593962
 222273555, -0.007215145, -0.004709081, -0.02935927, 0.0002593962
 222373515, -0.007591945, -0.01154478, -0.0173904, 0.0002593962
 222473475, -0.002121786, -0.008030842, 0.002028903, 0.0002593962
 222574268, 0.003172273, 0.01825478, 0.01525859, 0.0002615578
 222674228, -0.01573359, 0.00635295, 0.0388171, 0.0002593962
 222774188, -0.003838334, 0.007055739, 0.01912926, 0.0002593962
 222874148, 0.001727284, 0.006233862, 0.008238957, 0.0002593962
 222974108, -0.0001931425, 0.0117192, 0.003914039, 0.0002593962
 223074068, 0.0009270373, 0.007658426, -0.01252892, 0.0002593962
 223174028, -0.003426322, 0.003172128, -0.01678926, 0.0002593962
 223293980, -0.005761155, -0.01532172, -0.007299354, 0.0003112754
 223393940, -0.006625922, -0.005839735, -0.0200375, 0.0002593962
 223493900, -0.006434008, 0.004838311, -0.01113934, 0.0002593962
 223593860, -0.00428429, 0.008652347, 0.01367783, 0.0002593962
 223693820, -0.001109246, 0.01703805, 0.01957206, 0.0002593962
 223793780, -0.001886218, 0.01545398, -0.006409865, 0.0002593962
 223893740, 0.00214192, 0.00937704, 0.002285671, 0.0002593962
 223993700, -0.002289096, 0.00347363, -0.004913986, 0.0002593962
 224093660, -0.004858222, -0.004002414, 0.03485518, 0.0002593962
 224193620, -0.002794903, -0.0007001662, 0.02861064, 0.0002593962
 224293580, 0.002861219, 0.01613567, 0.01322535, 0.0002593962
 224393540, 0.0007025029, 0.01126931, -0.03287669, 0.0002593962
 224493500, -0.0005339255, 0.004948612, -0.01312885, 0.0002593962
 224594293, -0.005033898, 0.002042497, 0.001914512, 0.0002615578
 224694253, 0.0001158185, 0.001697566, -0.01065384, 0.0002593962
 224794213, -0.006880815, 0.005588861, -0.04208921, 0.0002593962
 224894173, -0.008235065, -0.0008114669, -0.03657023, 0.0002593962
 224994133, -0.007303288, 0.001532769, -0.008785537, 0.0002593962
 225094093, 0.004729657, 0.004756204, 0.03638119, 0.0002593962
 225194053, 0.005545091, -0.003756519, 0.02968765, 0.0002593962
 225294013, -0.003729706, -0.003062754, 0.000926544, 0.0002593962
 225413965, -0.0006635418, 0.001082803, -0.01279397, 0.0003112754
 225513925, -0.002158934, 0.004385241, 0.04116337, 0.0002593962
 225613885, -0.004182009, -0.002511331, -0.01200482, 0.0002593962
 225713845, -0.001416536, 0.005813595, -0.02723651, 0.0002593962
 225813805, 0.001283162, 0.01662846, 0.00388668, 0.0002593962
 225913765, -0.006833002, 0.01512265, -0.01374633, 0.0002593962
 226013725, -0.003326689, -0.00588707, 0.0126407, 0.0002593962
 226113685, -0.002180563, -0.01036346, 0.005128039, 0.0002593962
 226213645, -0.0004582258, -0.0008660506, -0.02991746, 0.0002593962
 226313605, 0.002783408, 0.01558961, -0.007114634, 0.0002593962
 226413565, -0.00449855, 0.01201572, 0.0178768, 0.0002593962
 226513525, -0.0047616, -0.0003205664, 0.006846139, 0.0002593962
 226613485, -0.002761696, 0.008930559, 0.009312117, 0.0002593962
 226714278, -0.0008419191, 0.01210761, -0.03449646, 0.0002615578
 226814238, -0.007695384, -0.002362904, -0.006569389, 0.0002593962
 226914198, -0.008228621, -0.0122296, 0.01169702, 0.0002593962
 227014158, -0.002941687, -0.00919743, 0.008590627, 0.0002593962
 227114118, 0.001205746, -0.0056507, 0.02268756, 0.0002593962
 227214078, 0.001469198, 0.0002188003, 0.01093297, 0.0002593962
 227314038, -0.01599038, 0.001380655, -0.04176581, 0.0002593962
 227413998, -0.009974472, 0.004435683, -0.02088951, 0.0002593962
 227533950, -0.004481959, 0.01188973, 0.007006436, 0.0003112754
 227633910, 0.003057927, 0.009602185, 0.006314288, 0.0002593962
 227733870, 0.005416212, 0.02105042, -0.01539337, 0.0002593962
 227833830, 0.02183647, 0.01357434, 0.01545564, 0.0002593962
 227933790, 0.04137257, 0.01456206, 0.03053789, 0.0002593962
 228033750, 0.01139559, 0.005963953, 0.001321408, 0.0002593962
 228133710, -0.004003833, 0.009801912, -0.0007504512, 0.0002593962
 228233670, -0.06926648, 0.006991342, -0.001798559, 0.0002593962
 228333630, -0.03896733, 0.007941615, 0.00614872, 0.0002593962
 228433590, -0.006807464, 0.01511978, -0.02094935, 0.0002593962
 228533550, 0.002064714, 0.007299043, -0.01500396, 0.0002593962
 228633510, -0.0008227667, -0.01055658, -0.00593828, 0.0002593962
 228734303, 0.001724593, -0.01452047, 0.03145155, 0.0002593962
 228834263, 0.01171946, -0.002097943, 0.02651697, 0.0002615578
 228934223, 0.00716624, 0.01049557, -0.01448313, 0.0002593962
 229034183, -0.00582174, 0.002210501, -0.02959228, 0.0002593962
 229134143, -0.0126839, 0.007462779, -0.004054489, 0.0002593962
 229234103, -0.01066022, 0.001735496, 0.02664759, 0.0002593962
 229334063, -0.01129428, -0.001698706, 0.004827017, 0.0002593962
 229434023, -0.008622076, 0.004364172, -0.01950206, 0.0002593962
 229553975, -0.007948282, 0.004457991, 0.008213619, 0.0003112754
 229653935, -0.004239797, -0.0006305536, 0.002489906, 0.0002593962
 229753895, -0.002947741, 0.006887596, -0.03130593, 0.0002593962
 229853855, -0.003488222, 0.00487902, -0.03978059, 0.0002593962
 229953815, 0.007111769, 0.002923697, -0.01341956, 0.0002593962
 230053775, -0.00264472, -0.003098885, 0.01642625, 0.0002593962
 230153735, 0.0009440546, -0.01122248, 0.02483981, 0.0002593962
 230253695, 0.005773198, -0.005100091, 0.02512434, 0.0002593962
 230353655, 0.0003156823, 0.006231372, 0.008432867, 0.0002593962
 230453615, 0.001425031, 0.009195419, -0.01492804, 0.0002593962
 230553575, -0.01279909, 0.002232208, 0.009586265, 0.0002593962
 230653535, -0.01884075, -0.005481778, 0.02799855, 0.0002593962
 230753495, -0.002653777, -0.01320762, -0.001993669, 0.0002593962
 230854288, 0.0006485423, -0.002540113, -0.003211374, 0.0002615578
 230954248, 0.007700654, 0.01340821, -0.01230213, 0.0002593962
 231054208, 0.007565895, 0.02824299, -0.007722825, 0.0002593962
 231154168, 0.001634349, 0.02481086, -0.004220542, 0.0002593962
 231254128, -0.004746122, -0.003097326, 0.01581599, 0.0002593962
 231354088, -0.005148479, -0.002942201, 0.01462473, 0.0002593962
 231454048, -0.00641108, -0.007017361, -0.01823063, 0.0002593962
 231554008, -0.009596615, -0.002561441, 0.001314362, 0.0002593962
 231673960, -0.004857999, 0.005417487, 0.006754708, 0.0003112754
 231773920, -0.003800329, 0.002857601, -0.002538028, 0.0002593962
 231873880, -0.005827707, 0.002845014, -0.01426495, 0.0002593962
 231973840, -0.005607301, 0.006501666, 0.02631311, 0.0002593962
 232073800, -0.004465057, -0.002043874, 0.003825459, 0.0002593962
 232173760, -0.001162282, -0.000353606, 0.003814192, 0.0002593962
 232273720, -0.003312669, 0.0001475019, 0.003642351, 0.0002593962
 232373680, -0.0009041703, -0.0003214931, 0.03712221, 0.0002593962
 232473640, 0.003097941, -0.002465719, 0.0143632, 0.0002593962
 232573600, -0.0003510417, -0.002805769, -0.03879365, 0.0002593962
 232673560, -0.003372416, -0.000101264, -0.03360089, 0.0002593962
 232773520, -0.002890795, 0.01024129, -0.04696389, 0.0002593962
 232873480, -0.008184781, 0.006333847, -0.00788234, 0.0002593962
 232974273, -0.0001576467, 0.01576824, -0.00695949, 0.0002615578
 233074233, 0.0001332076, 0.0181562, 0.01161774, 0.0002593962
 233174193, 0.002412376, 0.01084147, 0.01453647, 0.0002593962
 233274153, -0.0003070036, 0.008665755, 0.004234012, 0.0002593962
 233374113, -0.007612817, 0.003130657, 0.04478678, 0.0002593962
 233474073, -0.003772168, 0.002325644, 0.03029495, 0.0002593962
 233574033, 0.0004185206, 0.002160772, -0.01907673, 0.0002593962
 233673993, 0.005171139, 0.004945784, -0.02748604, 0.0002593962
 233793945, 0.001405667, -0.002580194, 0.03987713, 0.0003112754
 233893905, 0.00130441, 0.008744868, 0.04148227, 0.0002593962
 233993865, 0.005420282, 0.0147332, -0.02691887, 0.0002593962
 234093825, 0.00366717, 0.0085629, -0.02793142, 0.0002593962
 234193785, -0.002862652, 0.00608664, -0.005890568, 0.0002593962
 234293745, -0.002660059, 0.005470525, 0.01790018, 0.0002593962
 234393705, 0.002254128, 0.009172813, 0.003681064, 0.0002593962
 234493665, -0.003270689, 0.01172638, -0.03639712, 0.0002593962
 234593625, -0.00412784, 0.002766299, -0.01614911, 0.0002593962
 234693585, -0.01091353, -0.005011013, 0.007206121, 0.0002593962
 234793545, -0.006236717, -0.01037799, 0.02695599, 0.0002593962
 234893505, 0.002343651, 0.001585684, 0.006846044, 0.0002593962
 234994298, 0.007891647, 0.009527876, -0.01897114, 0.0002593962
 235094258, 0.001873582, 0.0040808, -0.005395428, 0.0002615578
 235194218, -0.002257535, -6.244483E-05, 0.009871987, 0.0002593962
 235294178, -0.003775875, -0.003562642, -0.001099499, 0.0002593962
 235394138, -0.00503849, 0.003862535, -0.0214028, 0.0002593962
 235494098, -0.003763212, 0.003478316, -0.01017817, 0.0002593962
 235594058, -0.002781535, 0.006150176, 0.0497241, 0.0002593962
 235694018, -0.002695447, 0.002738933, 0.02561745, 0.0002593962
 235813970, -0.001337468, 0.009377096, -0.0006098025, 0.0003112754
 235913930, 0.0008076637, 0.004952895, 0.001464134, 0.0002593962
 236013890, -0.001524548, 0.004145959, -0.008543868, 0.0002593962
 236113850, -0.0009789413, 0.006043023, -0.0130258, 0.0002593962
 236213810, -0.003489101, 0.006844271, -0.03313511, 0.0002593962
 236313770, -0.00255843, 0.003075743, -0.05146679, 0.0002593962
 236413730, -0.007579296, 0.002890085, -0.01975408, 0.0002593962
 236513690, -0.004575779, 0.002467637, 0.02137895, 0.0002593962
 236613650, -0.00190588, 0.005009404, 0.03652615, 0.0002593962
 236713610, -0.002019063, 0.001940458, 0.01827473, 0.0002593962
 236813570, -0.006360158, -0.01426741, 0.007830347, 0.0002593962
 236913530, -0.006517472, 0.0003536985, 0.003400567, 0.0002593962
 237013490, 0.003941517, 0.01426796, 0.03094632, 0.0002593962
 237114283, 0.001914506, 0.01645718, -0.0224507, 0.0002615578
 237214243, -0.0008733122, 0.02422883, -0.04992459, 0.0002593962
 237314203, 0.002729411, 0.01817519, 0.00557071, 0.0002593962
 237414163, -0.003777433, -0.003445588, 0.02902514, 0.0002593962
 237514123, -0.008816518, -0.01237712, -0.009318771, 0.0002593962
 237614083, -0.008937183, -0.003628504, 0.01377827, 0.0002593962
 237714043, -0.002120068, 0.007637176, 0.002156635, 0.0002593962
 237814003, -0.0005702712, 0.00728347, -0.02435648, 0.0002593962
 237933955, -0.002489972, 0.003842743, -0.001060557, 0.0003112754
 238033915, -0.005249886, 0.002861627, 0.01476249, 0.0002593962
 238133875, -0.003327044, -0.004836266, 0.009367913, 0.0002593962
 238233835, -0.007185473, -0.01122604, -0.01037909, 0.0002593962
 238333795, -0.006487201, -0.003693728, 0.02020642, 0.0002593962
 238433755, -0.002353444, 0.003376261, -0.02010771, 0.0002593962
 238533715, -0.002899183, 0.002163893, -0.02320439, 0.0002593962
 238633675, -0.003789191, 0.007729518, -0.01754072, 0.0002593962
 238733635, -0.001802806, 0.003807979, 0.01406743, 0.0002593962
 238833595, -0.00330813, 0.009159141, 0.04253949, 0.0002593962
 238933555, -0.001129038, 0.006890315, -0.001415916, 0.0002593962
 239033515, -6.725302E-05, 0.01190387, -0.04412152, 0.0002593962
 239133475, -0.003395032, 0.0134879, 0.0091949, 0.0002593962
 239234268, -0.002240821, -0.0003796326, 0.02031828, 0.0002615578
 239334228, -0.003870623, -0.00556925, 0.01399117, 0.0002593962
 239434188, -0.002211252, 0.006023895, 0.07176623, 0.0002593962
 239534148, 0.00398776, 0.006333346, 0.02188008, 0.0002593962
 239634108, 0.0009342962, 0.01163567, -0.02901182, 0.0002593962
 239734068, 0.001904985, 0.01449201, -0.06618748, 0.0002593962
 239834028, -0.003866459, 0.01009828, -0.06056669, 0.0002593962
 239953980, -0.01502082, -0.003711045, -0.03081285, 0.0003112754
 240053940, -0.02556, -0.0002183284, 0.03388556, 0.0002593962
 240153900, -0.001828089, 0.004176576, 0.01258815, 0.0002593962
 240253860, -0.0004164108, -0.002219396, -0.002316721, 0.0002593962
 240353820, 0.000781992, -0.003804532, -0.03265509, 0.0002593962
 240453780, -0.001162969, 0.0008469849, -0.004149779, 0.0002593962
 240553740, -0.007479543, 0.003243691, 0.0294315, 0.0002593962
 240653700, -0.002722097, 0.001710342, 0.008164877, 0.0002593962
 240753660, 0.00163754, 0.00532737, -8.643523E-05, 0.0002593962
 240853620, -0.002013023, 0.006903633, -0.0107176, 0.0002593962
 240953580, -0.005840254, 0.0118184, -0.02774656, 0.0002593962
 241053540, -0.002652705, 0.009575921, 0.01794637, 0.0002593962
 241153500, -0.001912358, 0.004391354, 0.0163306, 0.0002593962
 241254293, -0.00525513, 0.002802001, 0.008344952, 0.0002615578
 241354253, -0.005743699, -0.003176578, -0.018296, 0.0002593962
 241454213, -0.008820646, -0.00831814, 0.004219036, 0.0002593962
 241554173, -0.01263896, -0.004905632, -0.03882661, 0.0002593962
 241654133, -0.010647, -0.001671886, -0.002591888, 0.0002593962
 241754093, -0.001275892, 0.01052944, 0.07761433, 0.0002593962
 241854053, -0.001687251, 0.01040312, 0.04280817, 0.0002593962
 241954013, 0.003805259, 0.003921808, -0.02952198, 0.0002593962
 242073965, 0.0003838015, 0.01989862, -0.02430842, 0.0003112754
 242173925, -0.000527233, 0.007600905, -0.005746897, 0.0002593962
 242273885, -0.003801206, 0.009237085, -0.02130751, 0.0002593962
 242373845, -0.0005482679, 0.01682088, -0.01927348, 0.0002593962
 242473805, -0.008760877, -0.0004623632, -0.0005810417, 0.0002593962
 242573765, -0.003806969, 0.004632221, 0.0009887936, 0.0002593962
 242673725, -0.002160536, 0.007912902, -0.003292721, 0.0002593962
 242773685, 0.002315111, 0.01450306, 0.03153348, 0.0002593962
 242873645, 0.003911188, 0.0096472, 0.0002780664, 0.0002593962
 242973605, 0.0006984288, 0.01605713, 0.008090805, 0.0002593962
 243073565, 0.003239947, 0.01371532, 0.06240132, 0.0002593962
 243173525, 0.004315007, 0.0004490385, -0.004901794, 0.0002593962
 243273485, -0.002321074, -0.007760227, -0.03053848, 0.0002593962
 243374278, 0.004110793, 0.001719917, 0.006951491, 0.0002615578
 243474238, 0.003660043, -0.001508216, -0.01594785, 0.0002593962
 243574198, 0.005805231, 0.002333898, -0.02151877, 0.0002593962
 243674158, 0.004471396, 0.00899834, -0.03675083, 0.0002593962
 243774118, 0.004004947, 0.01073296, -0.0488873, 0.0002593962
 243874078, 0.01179658, 0.00800989, 0.006254478, 0.0002593962
 243974038, 0.003608351, 0.007565154, 0.03694523, 0.0002593962
 244073998, -0.03691816, 0.008600805, 0.02577956, 0.0002593962
 244193950, -0.01988192, -0.007790201, 0.03379104, 0.0003112754
 244293910, -0.01021563, -0.006462547, -0.01322221, 0.0002593962
 244393870, 0.001299297, 0.002026016, -0.008174591, 0.0002593962
 244493830, 0.005442624, 0.01009462, -0.00298414, 0.0002593962
 244593790, 0.01630131, -0.00391519, -0.01971184, 0.0002593962
 244693750, 0.03927349, 0.01929628, 0.006253439, 0.0002593962
 244793710, 0.09476157, 0.1143854, -0.01327568, 0.0002593962
 244893670, -0.09749789, -0.4144989, -0.1885277, 0.0002593962
 244993630, -0.9534345, -0.9889586, 0.01701006, 0.0002593962
 245093590, -1.349181, -0.9664307, 0.6254765, 0.0002593962
 245193550, -1.552692, -1.030078, 0.6227422, 0.0002593962
 245293510, -2.161499, -1.631764, 0.05286574, 0.0002593962
 245394303, -2.773955, -1.804387, -0.7225355, 0.0002593962
 245494263, -2.753446, -1.180489, -1.176107, 0.0002615578
 245594223, -2.102301, -0.3701662, -0.9639013, 0.0002593962
 245694183, -1.387195, 0.1200844, -0.4250862, 0.0002593962
 245794143, -0.9156537, 0.3134975, 0.04513803, 0.0002593962
 245894103, -0.6921876, 0.3581209, 0.304694, 0.0002593962
 245994063, -0.630336, 0.3427813, 0.3816929, 0.0002593962
 246094023, -0.6521451, 0.3067786, 0.3443638, 0.0002593962
 246213975, -0.8669862, 0.3287553, 0.296215, 0.0003112754
 246313935, -0.7492815, 0.2503908, 0.135308, 0.0002593962
 246413895, -0.7480612, 0.253459, 0.06817407, 0.0002593962
 246513855, -0.7105551, 0.2667277, 0.04284107, 0.0002593962
 246613815, -0.6558557, 0.2800246, 0.05259959, 0.0002593962
 246713775, -0.6031134, 0.2883289, 0.07632708, 0.0002593962
 246813735, -0.5680993, 0.2904208, 0.09640573, 0.0002593962
 246913695, -0.5492661, 0.2910664, 0.1029156, 0.0002593962
 247013655, -0.5435353, 0.292183, 0.09421459, 0.0002593962
 247113615, -0.5423756, 0.2959779, 0.07423294, 0.0002593962
 247213575, -0.5394959, 0.3027589, 0.05129472, 0.0002593962
 247313535, -0.5300296, 0.311911, 0.03148175, 0.0002593962
 247413495, -0.5136589, 0.3208234, 0.01836214, 0.0002593962
 247514288, -0.4964604, 0.3330594, 0.01193171, 0.0002615578
 247614248, -0.4682073, 0.3378247, 0.01046652, 0.0002593962
 247714208, -0.445118, 0.3447368, 0.01195705, 0.0002593962
 247814168, -0.4240474, 0.3509598, 0.01510291, 0.0002593962
 247914128, -0.4045108, 0.3566537, 0.01742264, 0.0002593962
 248014088, -0.3861508, 0.3625848, 0.01760007, 0.0002593962
 248114048, -0.3684171, 0.3676926, 0.01468952, 0.0002593962
 248214008, -0.3503494, 0.3722616, 0.01071511, 0.0002593962
 248333960, -0.401951, 0.4599165, 0.007299783, 0.0003112754
 248433920, -0.3058473, 0.3785276, 0.002081877, 0.0002593962
 248533880, -0.2842486, 0.3790696, -0.0003864363, 0.0002593962
 248633840, -0.2619418, 0.3772141, -1.19829E-05, 0.0002593962
 248733800, -0.2390144, 0.3731725, 0.003562398, 0.0002593962
 248833760, -0.2164575, 0.3668931, 0.009080229, 0.0002593962
 248933720, -0.1959309, 0.3597617, 0.01400234, 0.0002593962
 249033680, -0.177856, 0.3524085, 0.01626778, 0.0002593962
 249133640, -0.1616952, 0.3452939, 0.01631125, 0.0002593962
 249233600, -0.1468535, 0.3381917, 0.01526429, 0.0002593962
 249333560, -0.1328777, 0.3308048, 0.01334642, 0.0002593962
 249433520, -0.1197878, 0.322897, 0.01158301, 0.0002593962
 249533480, -0.1070653, 0.3145374, 0.01056463, 0.0002593962
 249634273, -0.09625156, 0.308569, 0.009671589, 0.0002615578
 249734233, -0.08397382, 0.2964728, 0.008588987, 0.0002593962
 249834193, -0.07366525, 0.2869794, 0.008308729, 0.0002593962
 249934153, -0.06383986, 0.2769188, 0.009359925, 0.0002593962
 250034113, -0.05489668, 0.266912, 0.01118532, 0.0002593962
 250134073, -0.04709657, 0.2566383, 0.01236489, 0.0002593962
 250234033, -0.04040498, 0.2477022, 0.01234942, 0.0002593962
 250333993, -0.03444573, 0.2388636, 0.009838859, 0.0002593962
 250453945, -0.03527607, 0.2813706, 0.006195107, 0.0003112754
 250553905, -0.02361771, 0.2221922, 0.0001937283, 0.0002593962
 250653865, -0.01879066, 0.2145937, -0.002715731, 0.0002593962
 250753825, -0.01397685, 0.2067995, -0.003932657, 0.0002593962
 250853785, -0.008988797, 0.1990942, -0.002700727, 0.0002593962
 250953745, -0.004695303, 0.1907568, -0.0006828341, 0.0002593962
 251053705, -0.0009820971, 0.1824651, 0.001882639, 0.0002593962
 251153665, 0.002175203, 0.1746184, 0.003325562, 0.0002593962
 251253625, 0.004856391, 0.1669232, 0.003555411, 0.0002593962
 251353585, 0.006698697, 0.1594324, 0.00342561, 0.0002593962
 251453545, 0.008672643, 0.1522807, 0.002587056, 0.0002593962
 251553505, 0.01014982, 0.1457894, 0.001224171, 0.0002593962
 251654298, 0.0112982, 0.1398941, -0.0005461415, 0.0002593962
 251754258, 0.01273729, 0.1349067, -0.002293102, 0.0002615578
 251854218, 0.01389755, 0.1288363, -0.00317191, 0.0002593962
 251954178, 0.01519314, 0.1237662, -0.003561855, 0.0002593962
 252054138, 0.01625426, 0.1188897, -0.003991685, 0.0002593962
 252154098, 0.0172941, 0.113891, -0.003983792, 0.0002593962
 252254058, 0.01833991, 0.1083988, -0.00419649, 0.0002593962
 252354018, 0.01888272, 0.1035477, -0.003671331, 0.0002593962
 252473970, 0.02404105, 0.1199468, -0.004410743, 0.0003112754
 252573930, 0.02014507, 0.09280309, -0.003131262, 0.0002593962
 252673890, 0.0204853, 0.08853826, -0.002507408, 0.0002593962
 252773850, 0.02070929, 0.08434013, -0.001960733, 0.0002593962
 252873810, 0.0207248, 0.08075061, -0.0008542076, 0.0002593962
 252973770, 0.02077929, 0.07745311, -0.0003157687, 0.0002593962
 253073730, 0.02033109, 0.07467054, -0.001151292, 0.0002593962
 253173690, 0.02026771, 0.07192548, -0.002618543, 0.0002593962
 253273650, 0.02003745, 0.06960336, -0.004658237, 0.0002593962
 253373610, 0.02005344, 0.06675072, -0.006030425, 0.0002593962
