TimeUS,COFN,COFE,COFD,CNe,CEe,CDe,POFN,POFE,POFD,PNe,PEe,PDe
 140033964, 0, 0, 0, 0, 0, 0, 0, 0, 0, 0, 0, 0
 140233884, 0, 0, 0, 0, 0, 0, 0, 0, 0, 0, 0, 0
 140433804, 0, 0, 0, 0, 0, 0, 0, 0, 0, 0, 0, 0
 140633724, 0, 0, 0, 0, 0, 0, 0, 0, 0, 0, 0, 0
 140833644, 0, 0, 0, 0, 0, 0, 0, 0, 0, 0, 0, 0
 141033564, 0, 0, 0, 0, 0, 0, 0, 0, 0, 0, 0, 0
 141233484, 0, 0, 0, 0, 0, 0, 0, 0, 0, 0, 0, 0
 141434237, 0, 0, 0, 0, 0, 0, 0, 0, 0, 0, 0, 0
 141634157, 0, 0, 0, 0, 0, 0, 0, 0, 0, 0, 0, 0
 141834077, 0, 0, 0, 0, 0, 0, 0, 0, 0, 0, 0, 0
 142033997, 0, 0, 0, 0, 0, 0, 0, 0, 0, 0, 0, 0
 142233917, 0, 0, 0, 0, 0, 0, 0, 0, 0, 0, 0, 0
 142433837, 0, 0, 0, 0, 0, 0, 0, 0, 0, 0, 0, 0
 142633757, 0, 0, 0, 0, 0, 0, 0, 0, 0, 0, 0, 0
 142833677, 0, 0, 0, 0, 0, 0, 0, 0, 0, 0, 0, 0
 143033597, 0, 0, 0, 0, 0, 0, 0, 0, 0, 0, 0, 0
 143233517, 0, 0, 0, 0, 0, 0, 0, 0, 0, 0, 0, 0
 143434270, 0, 0, 0, 0, 0, 0, 0, 0, 0, 0, 0, 0
 143634190, -0.3949837, 0.04591712, 0.01585096, 0.1650556, -0.008883596, 0.9882483, 0, 0, 0, 0, 0, 0
 143834110, 0.1088415, -0.01315158, -0.07238564, 0.1486735, -0.01207662, 0.9896385, -0.3949837, 0.04591712, 0.01585096, 0.1650556, -0.008883596, 0.9882483
 144034030, 0.03063595, -0.006143127, -0.06914093, 0.1286201, -0.009514413, 0.9917189, 0.1088415, -0.01315158, -0.07238564, 0.1486735, -0.01207662, 0.9896385
 144233950, 0.003984898, -0.002813417, -0.06103208, 0.1314661, -0.01351835, 0.9912568, 0.03063595, -0.006143127, -0.06914093, 0.1286201, -0.009514413, 0.9917189
 144433870, -0.02847878, 0.0002759161, -0.05170482, 0.1352931, -0.01670336, 0.9906812, 0.003984898, -0.002813417, -0.06103208, 0.1314661, -0.01351835, 0.9912568
 144633790, -0.0770696, 0.005434916, -0.04983271, 0.1389051, -0.01197862, 0.9902495, -0.02847878, 0.0002759161, -0.05170482, 0.1352931, -0.01670336, 0.9906812
 144833710, -0.1286098, 0.0116986, -0.04746616, 0.1418519, -0.006319894, 0.9898903, -0.0770696, 0.005434916, -0.04983271, 0.1389051, -0.01197862, 0.9902495
 145033630, -0.1948013, 0.01940054, -0.03305602, 0.1451274, -0.01153301, 0.9893899, -0.1286098, 0.0116986, -0.04746616, 0.1418519, -0.006319894, 0.9898903
 145233550, -0.3175331, 0.04180304, -0.01435259, 0.1614903, -0.01455578, 0.9869913, -0.1948013, 0.01940054, -0.03305602, 0.1451274, -0.01153301, 0.9893899
 145434303, -0.6827047, 0.07287684, 0.04078267, 0.2421975, -0.01987924, 0.9749767, -0.3175331, 0.04180304, -0.01435259, 0.1614903, -0.01455578, 0.9869913
 145634223, -1.209492, 0.1269313, 0.08692477, 0.4232984, -0.04212216, 0.9484427, -0.6827047, 0.07287684, 0.04078267, 0.2421975, -0.01987924, 0.9749767
 145834143, 14.47656, -1.627007, -2.213534, 19.41151, -2.181924, -1.875926, -1.209492, 0.1269313, 0.08692477, 0.4232984, -0.04212216, 0.9484427
 146034063, 1.362207, -0.1579815, -0.2664387, 1.086208, -0.1112351, 0.8473553, 14.47656, -1.627007, -2.213534, 19.41151, -2.181924, -1.875926
 146233983, 1.200422, -0.1347997, -0.2468376, 0.7876547, -0.07790532, 0.8898565, 1.362207, -0.1579815, -0.2664387, 1.086208, -0.1112351, 0.8473553
 146433903, 1.016716, -0.1191246, -0.2466583, 0.5713765, -0.05529266, 0.9242542, 1.200422, -0.1347997, -0.2468376, 0.7876547, -0.07790532, 0.8898565
 146633823, 0.8040794, -0.08196566, -0.1825461, 0.393946, -0.03607498, 0.9516989, 1.016716, -0.1191246, -0.2466583, 0.5713765, -0.05529266, 0.9242542
 146833743, 0.5346184, -0.06566463, -0.1417707, 0.2622592, -0.01725896, 0.9717464, 0.8040794, -0.08196566, -0.1825461, 0.393946, -0.03607498, 0.9516989
 147033663, 0.4579046, -0.0446142, -0.1297306, 0.2332978, -0.01575673, 0.976177, 0.5346184, -0.06566463, -0.1417707, 0.2622592, -0.01725896, 0.9717464
 147233583, 0.4880991, -0.0497993, -0.1650471, 0.2404022, -0.01430254, 0.975055, 0.4579046, -0.0446142, -0.1297306, 0.2332978, -0.01575673, 0.976177
 147433503, 0.4156418, -0.04948875, -0.1225977, 0.2166935, -0.003793748, 0.9788597, 0.4880991, -0.0497993, -0.1650471, 0.2404022, -0.01430254, 0.975055
 147634256, 0.4685631, -0.05445382, -0.1299043, 0.2258257, -0.002588725, 0.9775912, 0.4156418, -0.04948875, -0.1225977, 0.2166935, -0.003793748, 0.9788597
 147834176, 0.3987475, -0.03997902, -0.1206264, 0.2113384, -0.001272737, 0.9795753, 0.4685631, -0.05445382, -0.1299043, 0.2258257, -0.002588725, 0.9775912
 148034096, 0.368329, -0.0310177, -0.1155562, 0.203153, -0.002918692, 0.9808904, 0.3987475, -0.03997902, -0.1206264, 0.2113384, -0.001272737, 0.9795753
 148234016, 0.3926239, -0.04174353, -0.1130157, 0.2032905, -0.00459344, 0.9810554, 0.368329, -0.0310177, -0.1155562, 0.203153, -0.002918692, 0.9808904
 148433936, 0.397768, -0.06120425, -0.1538542, 0.2032434, -0.004033339, 0.9811481, 0.3926239, -0.04174353, -0.1130157, 0.2032905, -0.00459344, 0.9810554
 148633856, 0.3400757, -0.04157963, -0.1410698, 0.1954145, -0.001207221, 0.9821796, 0.397768, -0.06120425, -0.1538542, 0.2032434, -0.004033339, 0.9811481
 148833776, 0.3485669, -0.05445552, -0.1113643, 0.1934382, -0.002177135, 0.9825928, 0.3400757, -0.04157963, -0.1410698, 0.1954145, -0.001207221, 0.9821796
 149033696, 0.3555274, -0.03123633, -0.1069472, 0.1936169, -0.002127313, 0.9825906, 0.3485669, -0.05445552, -0.1113643, 0.1934382, -0.002177135, 0.9825928
 149233616, 0.3414577, -0.05202077, -0.1091899, 0.1884131, -0.003819915, 0.9835059, 0.3555274, -0.03123633, -0.1069472, 0.1936169, -0.002127313, 0.9825906
 149433536, 0.346446, -0.05266851, -0.1099592, 0.1890596, -0.004733788, 0.9834111, 0.3414577, -0.05202077, -0.1091899, 0.1884131, -0.003819915, 0.9835059
 149634289, 0.3462791, -0.03840417, -0.1092589, 0.1879366, -0.003044423, 0.9836284, 0.346446, -0.05266851, -0.1099592, 0.1890596, -0.004733788, 0.9834111
 149834209, 0.2779601, -0.04016041, -0.09933092, 0.1780643, -0.002994288, 0.9850837, 0.3462791, -0.03840417, -0.1092589, 0.1879366, -0.003044423, 0.9836284
 150034129, 0.2866383, -0.04138706, -0.09879571, 0.1732424, -0.003105385, 0.9859811, 0.2779601, -0.04016041, -0.09933092, 0.1780643, -0.002994288, 0.9850837
 150234049, 0.2895923, -0.03787098, -0.09809314, 0.170146, -0.003042353, 0.9865329, 0.2866383, -0.04138706, -0.09879571, 0.1732424, -0.003105385, 0.9859811
 150433969, 0.2953929, -0.01469553, -0.09946211, 0.1741013, -0.000836147, 0.9858785, 0.2895923, -0.03787098, -0.09809314, 0.170146, -0.003042353, 0.9865329
 150633889, 0.2591623, -0.01607768, -0.09486388, 0.1707329, 0.0003076009, 0.9863037, 0.2953929, -0.01469553, -0.09946211, 0.1741013, -0.000836147, 0.9858785
 150833809, 0.2360899, -0.02837266, -0.09169935, 0.1677038, 0.004237441, 0.9867225, 0.2591623, -0.01607768, -0.09486388, 0.1707329, 0.0003076009, 0.9863037
 151033729, 0.2238099, -0.02778549, -0.09021979, 0.1673385, 0.006529787, 0.9867293, 0.2360899, -0.02837266, -0.09169935, 0.1677038, 0.004237441, 0.9867225
 151233649, 0.2593938, -0.01500419, -0.0930011, 0.164132, 0.004619077, 0.9874117, 0.2238099, -0.02778549, -0.09021979, 0.1673385, 0.006529787, 0.9867293
 151433569, 0.2523583, -0.01784042, -0.09168091, 0.1616134, 0.00379063, 0.9878012, 0.2593938, -0.01500419, -0.0930011, 0.164132, 0.004619077, 0.9874117
 151633489, 0.2585914, -0.02303113, -0.09282844, 0.1632704, 0.001819524, 0.9875585, 0.2523583, -0.01784042, -0.09168091, 0.1616134, 0.00379063, 0.9878012
 151834242, 0.2345876, -0.0215532, -0.09057315, 0.1640625, 0.004092054, 0.9873299, 0.2585914, -0.02303113, -0.09282844, 0.1632704, 0.001819524, 0.9875585
 152034162, 0.2329052, -0.01742643, -0.09072065, 0.1656805, 0.00543424, 0.987049, 0.2345876, -0.0215532, -0.09057315, 0.1640625, 0.004092054, 0.9873299
 152234082, 0.1996158, -0.01985537, -0.0860987, 0.1610707, 0.006100218, 0.9876993, 0.2329052, -0.01742643, -0.09072065, 0.1656805, 0.00543424, 0.987049
 152434002, 0.1970287, -0.007543478, -0.0848994, 0.1572508, 0.005527917, 0.9883138, 0.1996158, -0.01985537, -0.0860987, 0.1610707, 0.006100218, 0.9876993
 152633922, 0.2226281, -0.03861606, -0.08855294, 0.1603441, 0.005112357, 0.9878913, 0.1970287, -0.007543478, -0.0848994, 0.1572508, 0.005527917, 0.9883138
 152833842, 0.2249579, -0.02529178, -0.08758021, 0.1554814, 0.003205892, 0.9886846, 0.2226281, -0.03861606, -0.08855294, 0.1603441, 0.005112357, 0.9878913
 153033762, 0.1997358, -0.02632393, -0.0849877, 0.1549724, 0.001512199, 0.9886899, 0.2249579, -0.02529178, -0.08758021, 0.1554814, 0.003205892, 0.9886846
 153233682, 0.217541, -0.009365682, -0.08730449, 0.158248, 0.001937841, 0.9882298, 0.1997358, -0.02632393, -0.0849877, 0.1549724, 0.001512199, 0.9886899
 153433602, 0.1789989, -0.00700259, -0.08194655, 0.1518969, 0.001704264, 0.9891155, 0.217541, -0.009365682, -0.08730449, 0.158248, 0.001937841, 0.9882298
 153633522, 0.183545, -0.04223385, -0.08269608, 0.1506678, 0.0008280482, 0.989307, 0.1789989, -0.00700259, -0.08194655, 0.1518969, 0.001704264, 0.9891155
 153834275, 0.1676204, -0.01138261, -0.07982872, 0.1464168, 0.002041438, 0.9899102, 0.183545, -0.04223385, -0.08269608, 0.1506678, 0.0008280482, 0.989307
 154034195, 0.1796991, -0.02358074, -0.08168904, 0.1488201, 0.000794664, 0.98958, 0.1676204, -0.01138261, -0.07982872, 0.1464168, 0.002041438, 0.9899102
 154234115, 0.162929, -0.03962093, -0.07981077, 0.1463634, -0.0001885388, 0.9899015, 0.1796991, -0.02358074, -0.08168904, 0.1488201, 0.000794664, 0.98958
 154434035, 0.2003782, -0.01236966, -0.08345721, 0.1481906, -0.0007268172, 0.989734, 0.162929, -0.03962093, -0.07981077, 0.1463634, -0.0001885388, 0.9899015
 154633955, 0.1910991, -0.01730735, -0.08245791, 0.1475505, 0.002251439, 0.9897995, 0.2003782, -0.01236966, -0.08345721, 0.1481906, -0.0007268172, 0.989734
 154833875, 0.1476599, -0.03596937, -0.07801497, 0.1454108, 0.0002792291, 0.9900084, 0.1910991, -0.01730735, -0.08245791, 0.1475505, 0.002251439, 0.9897995
 155033795, 0.1781074, -0.04049573, -0.08107979, 0.145255, 0.001137093, 0.9901009, 0.1476599, -0.03596937, -0.07801497, 0.1454108, 0.0002792291, 0.9900084
 155233715, 0.1438071, -0.03031867, -0.07649217, 0.1392863, 0.003180248, 0.990876, 0.1781074, -0.04049573, -0.08107979, 0.145255, 0.001137093, 0.9901009
 155433635, 0.1503067, -0.02261875, -0.07708855, 0.1398341, 0.004569631, 0.9908093, 0.1438071, -0.03031867, -0.07649217, 0.1392863, 0.003180248, 0.990876
 155633555, 0.1567382, -0.0322075, -0.07781683, 0.1394238, 0.002317947, 0.9908865, 0.1503067, -0.02261875, -0.07708855, 0.1398341, 0.004569631, 0.9908093
 155833475, 0.1668804, -0.02833716, -0.07900897, 0.1409883, 0.002307846, 0.9906898, 0.1567382, -0.0322075, -0.07781683, 0.1394238, 0.002317947, 0.9908865
 156034228, 0.1590682, -0.02841065, -0.0783366, 0.1412084, 0.0008599684, 0.9906425, 0.1668804, -0.02833716, -0.07900897, 0.1409883, 0.002307846, 0.9906898
 156234148, 0.1463183, -0.02231519, -0.07667615, 0.1392043, 0.0007947553, 0.9908999, 0.1590682, -0.02841065, -0.0783366, 0.1412084, 0.0008599684, 0.9906425
 156434068, 0.1331368, -0.01989465, -0.07494924, 0.1366557, 0.001670092, 0.9912277, 0.1463183, -0.02231519, -0.07667615, 0.1392043, 0.0007947553, 0.9908999
 156633988, 0.1560785, -0.02683494, -0.07765894, 0.1390947, 0.001456108, 0.9909341, 0.1331368, -0.01989465, -0.07494924, 0.1366557, 0.001670092, 0.9912277
 156833908, 0.1506911, -0.01541901, -0.07694925, 0.1386659, 0.002023355, 0.9909689, 0.1560785, -0.02683494, -0.07765894, 0.1390947, 0.001456108, 0.9909341
 157033828, 0.1529712, -0.0174733, -0.07674435, 0.1361317, 0.001220305, 0.9913415, 0.1506911, -0.01541901, -0.07694925, 0.1386659, 0.002023355, 0.9909689
 157233748, 0.1587436, -0.007699117, -0.07696208, 0.1352143, 0.003414224, 0.991478, 0.1529712, -0.0174733, -0.07674435, 0.1361317, 0.001220305, 0.9913415
 157433668, 0.1449275, -0.03488569, -0.07609205, 0.1352589, 0.001572805, 0.9914384, 0.1587436, -0.007699117, -0.07696208, 0.1352143, 0.003414224, 0.991478
 157633588, 0.1223572, -0.02152619, -0.07363825, 0.134625, 0.00195855, 0.9914841, 0.1449275, -0.03488569, -0.07609205, 0.1352589, 0.001572805, 0.9914384
 157833508, 0.1365196, -0.0001222569, -0.07490041, 0.1361035, 0.003175526, 0.9913142, 0.1223572, -0.02152619, -0.07363825, 0.134625, 0.00195855, 0.9914841
 158034261, 0.1585128, -0.01345584, -0.07720716, 0.1362879, 0.002752103, 0.9913304, 0.1365196, -0.0001222569, -0.07490041, 0.1361035, 0.003175526, 0.9913142
 158234181, 0.1460949, -0.02134513, -0.07573333, 0.133618, 0.002492706, 0.9916649, 0.1585128, -0.01345584, -0.07720716, 0.1362879, 0.002752103, 0.9913304
 158434101, 0.1310045, -0.000510024, -0.07385386, 0.1324324, 0.004191895, 0.9917963, 0.1460949, -0.02134513, -0.07573333, 0.133618, 0.002492706, 0.9916649
 158634021, 0.1132537, 0.003936342, -0.0718778, 0.1306222, 0.00506351, 0.992003, 0.1310045, -0.000510024, -0.07385386, 0.1324324, 0.004191895, 0.9917963
 158833941, 0.1266139, -0.02553786, -0.07277218, 0.1251852, 0.004414155, 0.9927176, 0.1132537, 0.003936342, -0.0718778, 0.1306222, 0.00506351, 0.992003
 159033861, 0.1432044, -0.03259988, -0.07347227, 0.119826, 0.00432054, 0.9934084, 0.1266139, -0.02553786, -0.07277218, 0.1251852, 0.004414155, 0.9927176
 159233781, 0.1423552, -0.01401456, -0.07174119, 0.1102506, 0.006022516, 0.9945104, 0.1432044, -0.03259988, -0.07347227, 0.119826, 0.00432054, 0.9934084
 159433701, 0.1347602, -0.02997311, -0.07071249, 0.1053932, 0.005114329, 0.9950214, 0.1423552, -0.01401456, -0.07174119, 0.1102506, 0.006022516, 0.9945104
 159633621, 0.1164551, -0.02100642, -0.06838094, 0.0972307, 0.005400137, 0.9958196, 0.1347602, -0.02997311, -0.07071249, 0.1053932, 0.005114329, 0.9950214
 159833541, 0.1158858, -0.002793275, -0.06723969, 0.08983114, 0.007113246, 0.9965091, 0.1164551, -0.02100642, -0.06838094, 0.0972307, 0.005400137, 0.9958196
 160034294, 0.1167369, -0.02784451, -0.06721706, 0.08819747, 0.01105494, 0.996611, 0.1158858, -0.002793275, -0.06723969, 0.08983114, 0.007113246, 0.9965091
 160234214, 0.1117281, -0.02263467, -0.06598406, 0.08094482, 0.01534222, 0.9971624, 0.1167369, -0.02784451, -0.06721706, 0.08819747, 0.01105494, 0.996611
 160434134, 0.1052637, -0.009635403, -0.06488422, 0.07347803, 0.01301373, 0.9977674, 0.1117281, -0.02263467, -0.06598406, 0.08094482, 0.01534222, 0.9971624
 160634054, 0.1045954, -0.01502518, -0.06408214, 0.06493308, 0.005633993, 0.9984246, 0.1052637, -0.009635403, -0.06488422, 0.07347803, 0.01301373, 0.9977674
 160833974, 0.1230136, -0.02198729, -0.06457768, 0.06440021, 0.007768956, 0.9984722, 0.1045954, -0.01502518, -0.06408214, 0.06493308, 0.005633993, 0.9984246
 161033894, 0.1317675, 0.004206393, -0.0621166, 0.04639013, -0.06581502, 0.9973528, 0.1230136, -0.02198729, -0.06457768, 0.06440021, 0.007768956, 0.9984722
 161233814, 0.1255839, 0.02351734, -0.05042883, -0.006974157, -0.4435388, 0.8968749, 0.1317675, 0.004206393, -0.0621166, 0.04639013, -0.06581502, 0.9973528
 161433734, 0.09873286, 0.02640136, -0.05155899, 0.003599109, -0.5214387, 0.8539132, 0.1255839, 0.02351734, -0.05042883, -0.006974157, -0.4435388, 0.8968749
 161633654, 0.0951305, 0.001401024, -0.06616378, 0.04926642, -0.3475491, 0.9369329, 0.09873286, 0.02640136, -0.05155899, 0.003599109, -0.5214387, 0.8539132
 161833574, 0.1266686, -0.01160984, -0.06781881, 0.05235462, -0.2200266, 0.9746777, 0.0951305, 0.001401024, -0.06616378, 0.04926642, -0.3475491, 0.9369329
 162033494, 0.09598812, 0.0213545, -0.05702785, 0.03267165, -0.2501698, 0.968208, 0.1266686, -0.01160984, -0.06781881, 0.05235462, -0.2200266, 0.9746777
 162234247, 0.1184859, 0.01777498, -0.05678987, 0.02239848, -0.305374, 0.9525647, 0.09598812, 0.0213545, -0.05702785, 0.03267165, -0.2501698, 0.968208
 162434167, 0.1145216, 0.01024194, -0.05928849, 0.0226996, -0.2863729, 0.9584306, 0.1184859, 0.01777498, -0.05678987, 0.02239848, -0.305374, 0.9525647
 162634087, 0.1318325, 0.001436917, -0.0612347, 0.02376434, -0.2360506, 0.9720479, 0.1145216, 0.01024194, -0.05928849, 0.0226996, -0.2863729, 0.9584306
 162834007, 0.1069648, 0.005226668, -0.05961085, 0.0178446, -0.2098145, 0.9781336, 0.1318325, 0.001436917, -0.0612347, 0.02376434, -0.2360506, 0.9720479
 163033927, 0.1028768, 0.001493406, -0.05973461, 0.009925998, -0.2082381, 0.9785734, 0.1069648, 0.005226668, -0.05961085, 0.0178446, -0.2098145, 0.9781336
 163233847, 0.1168869, 0.0213301, -0.05410841, 0.004074624, -0.2057319, 0.9791772, 0.1028768, 0.001493406, -0.05973461, 0.009925998, -0.2082381, 0.9785734
 163433767, 0.1008284, -0.00266166, -0.05940437, -0.0007145591, -0.1888914, 0.9825344, 0.1168869, 0.0213301, -0.05410841, 0.004074624, -0.2057319, 0.9791772
 163633687, 0.1092244, 0.01577281, -0.0548103, -0.004837919, -0.1748076, 0.9851485, 0.1008284, -0.00266166, -0.05940437, -0.0007145591, -0.1888914, 0.9825344
 163833607, 0.1282092, 0.02601737, -0.05190886, -0.007262388, -0.1648602, 0.9868832, 0.1092244, 0.01577281, -0.0548103, -0.004837919, -0.1748076, 0.9851485
 164033527, 0.1142793, 0.004260655, -0.05606062, -0.01212764, -0.160289, 0.9875506, 0.1282092, 0.02601737, -0.05190886, -0.007262388, -0.1648602, 0.9868832
 164234280, 0.1177078, 0.006465175, -0.05532928, -0.01351856, -0.1510599, 0.9889924, 0.1142793, 0.004260655, -0.05606062, -0.01212764, -0.160289, 0.9875506
 164434200, 0.1059384, 0.01394358, -0.05401008, -0.01928188, -0.1368409, 0.9909523, 0.1177078, 0.006465175, -0.05532928, -0.01351856, -0.1510599, 0.9889924
 164634120, 0.09463774, 0.02691298, -0.0523849, -0.02279093, -0.1234239, 0.992633, 0.1059384, 0.01394358, -0.05401008, -0.01928188, -0.1368409, 0.9909523
 164834040, 0.1208674, 0.01485141, -0.05264487, -0.02473223, -0.1164725, 0.9934529, 0.09463774, 0.02691298, -0.0523849, -0.02279093, -0.1234239, 0.992633
 165033960, 0.1076897, 0.01177565, -0.05328207, -0.03004961, -0.1118691, 0.9938136, 0.1208674, 0.01485141, -0.05264487, -0.02473223, -0.1164725, 0.9934529
 165233880, 0.1075774, 0.02893158, -0.05083291, -0.03257051, -0.1046607, 0.9945319, 0.1076897, 0.01177565, -0.05328207, -0.03004961, -0.1118691, 0.9938136
 165433800, 0.0953524, 0.01930756, -0.05253562, -0.03684527, -0.0978245, 0.9950547, 0.1075774, 0.02893158, -0.05083291, -0.03257051, -0.1046607, 0.9945319
 165633720, 0.1127874, 0.02729874, -0.05038815, -0.03903288, -0.08790617, 0.9959259, 0.0953524, 0.01930756, -0.05253562, -0.03684527, -0.0978245, 0.9950547
 165833640, 0.08984824, 0.02555845, -0.05200355, -0.04279557, -0.07796854, 0.9965677, 0.1127874, 0.02729874, -0.05038815, -0.03903288, -0.08790617, 0.9959259
 166033560, 0.09206746, 0.02572841, -0.05190488, -0.04315088, -0.07329258, 0.99691, 0.08984824, 0.02555845, -0.05200355, -0.04279557, -0.07796854, 0.9965677
 166233480, 0.1276972, 0.009343785, -0.05094937, -0.04346999, -0.07085112, 0.997108, 0.09206746, 0.02572841, -0.05190488, -0.04315088, -0.07329258, 0.99691
 166434233, 0.100313, 0.0272376, -0.05121717, -0.04419614, -0.06763184, 0.9972754, 0.1276972, 0.009343785, -0.05094937, -0.04346999, -0.07085112, 0.997108
 166634153, 0.1104011, 0.02644628, -0.0504879, -0.04553516, -0.06482862, 0.9974136, 0.100313, 0.0272376, -0.05121717, -0.04419614, -0.06763184, 0.9972754
 166834073, 0.09963094, 0.000361762, -0.05352063, -0.04658356, -0.06031093, 0.9976149, 0.1104011, 0.02644628, -0.0504879, -0.04553516, -0.06482862, 0.9974136
 167033993, 0.1054176, 0.03419716, -0.05026869, -0.04805064, -0.05259151, 0.9980159, 0.09963094, 0.000361762, -0.05352063, -0.04658356, -0.06031093, 0.9976149
 167233913, 0.1127846, 0.007760432, -0.05130354, -0.05269579, -0.04904779, 0.9979498, 0.1054176, 0.03419716, -0.05026869, -0.04805064, -0.05259151, 0.9980159
 167433833, 0.1116562, 0.02163593, -0.050399, -0.05274977, -0.04843473, 0.997972, 0.1127846, 0.007760432, -0.05130354, -0.05269579, -0.04904779, 0.9979498
 167633753, 0.1175229, 0.003736224, -0.05124841, -0.05254739, -0.04572272, 0.9981189, 0.1116562, 0.02163593, -0.050399, -0.05274977, -0.04843473, 0.997972
 167833673, 0.1034769, 0.005257823, -0.05217502, -0.05361764, -0.0436129, 0.9981385, 0.1175229, 0.003736224, -0.05124841, -0.05254739, -0.04572272, 0.9981189
 168033593, 0.1312036, 0.01493445, -0.04944932, -0.05187667, -0.04307644, 0.9983002, 0.1034769, 0.005257823, -0.05217502, -0.05361764, -0.0436129, 0.9981385
 168233513, 0.09921035, 0.03041441, -0.05090559, -0.05374314, -0.03825629, 0.9983662, 0.1312036, 0.01493445, -0.04944932, -0.05187667, -0.04307644, 0.9983002
 168434266, 0.1230085, 0.03299252, -0.04911745, -0.05237305, -0.03291496, 0.998664, 0.09921035, 0.03041441, -0.05090559, -0.05374314, -0.03825629, 0.9983662
 168634186, 0.120478, 0.02336274, -0.04972799, -0.05446863, -0.02957047, 0.9986444, 0.1230085, 0.03299252, -0.04911745, -0.05237305, -0.03291496, 0.998664
 168834106, 0.1191415, 0.004991661, -0.05070825, -0.05586989, -0.03098531, 0.9985072, 0.120478, 0.02336274, -0.04972799, -0.05446863, -0.02957047, 0.9986444
 169034026, 0.09532923, 0.03893717, -0.05081284, -0.05598172, -0.0286092, 0.9985692, 0.1191415, 0.004991661, -0.05070825, -0.05586989, -0.03098531, 0.9985072
 169233946, 0.1286848, 0.0446449, -0.04786988, -0.05566222, -0.0251745, 0.9987307, 0.09532923, 0.03893717, -0.05081284, -0.05598172, -0.0286092, 0.9985692
 169433866, 0.1230228, 0.01542835, -0.04925817, -0.06124371, -0.02320592, 0.9984162, 0.1286848, 0.0446449, -0.04786988, -0.05566222, -0.0251745, 0.9987307
 169633786, 0.09917277, 0.02479987, -0.05066635, -0.06450749, -0.02029269, 0.9982501, 0.1230228, 0.01542835, -0.04925817, -0.06124371, -0.02320592, 0.9984162
 169833706, 0.1250177, 0.01987545, -0.04892688, -0.06110012, -0.02043199, 0.9984924, 0.09917277, 0.02479987, -0.05066635, -0.06450749, -0.02029269, 0.9982501
 170033626, 0.09440412, 0.03965029, -0.05088319, -0.0605482, -0.01684453, 0.9985701, 0.1250177, 0.01987545, -0.04892688, -0.06110012, -0.02043199, 0.9984924
 170233546, 0.1125245, 0.02118502, -0.05011033, -0.06141621, -0.01214137, 0.998592, 0.09440412, 0.03965029, -0.05088319, -0.0605482, -0.01684453, 0.9985701
 170434299, 0.1064354, 0.02746291, -0.05026479, -0.06315502, -0.01097858, 0.9984941, 0.1125245, 0.02118502, -0.05011033, -0.06141621, -0.01214137, 0.998592
 170634219, 0.1002454, 0.02646985, -0.05065085, -0.06579332, -0.009072991, 0.9983341, 0.1064354, 0.02746291, -0.05026479, -0.06315502, -0.01097858, 0.9984941
 170834139, 0.1376053, 0.01629258, -0.04757318, -0.06579144, -0.003372537, 0.998414, 0.1002454, 0.02646985, -0.05065085, -0.06579332, -0.009072991, 0.9983341
 171034059, 0.1076451, 0.01187654, -0.05057786, -0.06555065, -0.00283532, 0.9983848, 0.1376053, 0.01629258, -0.04757318, -0.06579144, -0.003372537, 0.998414
 171233979, 0.1120451, 0.01490755, -0.05057581, -0.06044643, -0.00745729, 0.9986911, 0.1076451, 0.01187654, -0.05057786, -0.06555065, -0.00283532, 0.9983848
 171433899, 0.112979, 0.0422123, -0.04952455, -0.05963957, -0.01005485, 0.9987426, 0.1120451, 0.01490755, -0.05057581, -0.06044643, -0.00745729, 0.9986911
 171633819, 0.1045892, 0.03237385, -0.05057946, -0.05982118, -0.01106237, 0.9987006, 0.112979, 0.0422123, -0.04952455, -0.05963957, -0.01005485, 0.9987426
 171833739, 0.1181718, 0.02132776, -0.04969616, -0.0605212, -0.01339707, 0.9986378, 0.1045892, 0.03237385, -0.05057946, -0.05982118, -0.01106237, 0.9987006
 172033659, 0.106967, 0.008314724, -0.05127486, -0.05962764, -0.01711989, 0.9986091, 0.1181718, 0.02132776, -0.04969616, -0.0605212, -0.01339707, 0.9986378
 172233579, 0.1103784, 0.01633843, -0.05066978, -0.06000905, -0.0113338, 0.9986796, 0.106967, 0.008314724, -0.05127486, -0.05962764, -0.01711989, 0.9986091
 172433499, 0.135375, 0.03428796, -0.04807598, -0.05911328, -0.004856832, 0.9988382, 0.1103784, 0.01633843, -0.05066978, -0.06000905, -0.0113338, 0.9986796
 172634252, 0.1269846, 0.03015557, -0.04901496, -0.05873515, -0.004839348, 0.9988436, 0.135375, 0.03428796, -0.04807598, -0.05911328, -0.004856832, 0.9988382
 172834172, 0.116474, 0.03629129, -0.04986171, -0.05734919, -0.005650764, 0.9989105, 0.1269846, 0.03015557, -0.04901496, -0.05873515, -0.004839348, 0.9988436
 173034092, 0.1299901, 0.01829514, -0.04944253, -0.0555462, -0.01075454, 0.9989736, 0.116474, 0.03629129, -0.04986171, -0.05734919, -0.005650764, 0.9989105
 173234012, 0.1064785, 0.006955622, -0.05161121, -0.05733004, -0.0188247, 0.998711, 0.1299901, 0.01829514, -0.04944253, -0.0555462, -0.01075454, 0.9989736
 173433932, 0.108339, 0.008019055, -0.05146831, -0.0566135, -0.02181181, 0.9986942, 0.1064785, 0.006955622, -0.05161121, -0.05733004, -0.0188247, 0.998711
 173633852, 0.1226277, 0.04084291, -0.04889871, -0.05469155, -0.02134209, 0.9988598, 0.108339, 0.008019055, -0.05146831, -0.0566135, -0.02181181, 0.9986942
 173833772, 0.1235802, 0.03500955, -0.04941202, -0.05193117, -0.02225895, 0.9989828, 0.1226277, 0.04084291, -0.04889871, -0.05469155, -0.02134209, 0.9988598
 174033692, 0.1060487, 0.04392122, -0.05057395, -0.05031569, -0.02122203, 0.9990728, 0.1235802, 0.03500955, -0.04941202, -0.05193117, -0.02225895, 0.9989828
 174233612, 0.1367193, 0.02805152, -0.04911483, -0.04846131, -0.02381028, 0.999135, 0.1060487, 0.04392122, -0.05057395, -0.05031569, -0.02122203, 0.9990728
 174433532, 0.1185995, 0.02612027, -0.05051196, -0.04919766, -0.02550651, 0.999028, 0.1367193, 0.02805152, -0.04911483, -0.04846131, -0.02381028, 0.999135
 174634285, 0.1304404, 0.03494135, -0.04942632, -0.04653908, -0.02633426, 0.9991593, 0.1185995, 0.02612027, -0.05051196, -0.04919766, -0.02550651, 0.999028
 174834205, 0.1313524, 0.02546608, -0.04975257, -0.04786193, -0.02421228, 0.9991432, 0.1304404, 0.03494135, -0.04942632, -0.04653908, -0.02633426, 0.9991593
 175034125, 0.1018468, 0.005862133, -0.05261961, -0.05176629, -0.02009146, 0.998983, 0.1313524, 0.02546608, -0.04975257, -0.04786193, -0.02421228, 0.9991432
 175234045, 0.1344994, 0.01139133, -0.04977404, -0.05220473, -0.01384582, 0.9991157, 0.1018468, 0.005862133, -0.05261961, -0.05176629, -0.02009146, 0.998983
 175433965, 0.1233705, 0.03135921, -0.05001187, -0.04891368, -0.02219623, 0.999132, 0.1344994, 0.01139133, -0.04977404, -0.05220473, -0.01384582, 0.9991157
 175633885, 0.1222739, 0.02871137, -0.0503239, -0.04249009, -0.04885868, 0.9984725, 0.1233705, 0.03135921, -0.05001187, -0.04891368, -0.02219623, 0.999132
 175833805, 0.1292868, 0.01549094, -0.05173162, -0.03253412, -0.08467785, 0.9964466, 0.1222739, 0.02871137, -0.0503239, -0.04249009, -0.04885868, 0.9984725
 176033725, 0.1253835, 0.04936474, -0.04735458, -0.02020802, -0.1387472, 0.9907182, 0.1292868, 0.01549094, -0.05173162, -0.03253412, -0.08467785, 0.9964466
 176233645, 0.09799406, 0.05351864, -0.04667029, -0.005298875, -0.2003549, 0.9802763, 0.1253835, 0.04936474, -0.04735458, -0.02020802, -0.1387472, 0.9907182
 176433565, 0.1243953, 0.02030152, -0.05084833, -0.0975088, 0.2351597, 0.9676509, 0.09799406, 0.05351864, -0.04667029, -0.005298875, -0.2003549, 0.9802763
 176633485, 0.1023982, -0.003295433, -0.04704983, -0.1780464, 0.5858676, 0.7912888, 0.1243953, 0.02030152, -0.05084833, -0.0975088, 0.2351597, 0.9676509
 176834238, 0.09570993, 0.006990623, -0.05615884, -0.1236168, 0.4772606, 0.8706427, 0.1023982, -0.003295433, -0.04704983, -0.1780464, 0.5858676, 0.7912888
 177034158, 0.1069572, 0.01888465, -0.05583997, -0.07057302, 0.2420276, 0.9682728, 0.09570993, 0.006990623, -0.05615884, -0.1236168, 0.4772606, 0.8706427
 177234078, 0.1368926, 0.008350535, -0.04792687, -0.08656883, 0.2310828, 0.9696839, 0.1069572, 0.01888465, -0.05583997, -0.07057302, 0.2420276, 0.9682728
 177433998, 0.11366, -0.005939634, -0.0451403, -0.116236, 0.3467687, 0.9313091, 0.1368926, 0.008350535, -0.04792687, -0.08656883, 0.2310828, 0.9696839
 177633918, 0.1285224, -0.01589469, -0.03865973, -0.1212131, 0.3751197, 0.9196294, 0.11366, -0.005939634, -0.0451403, -0.116236, 0.3467687, 0.9313091
 177833838, 0.122419, -0.002517827, -0.04459285, -0.1189084, 0.342587, 0.9325193, 0.1285224, -0.01589469, -0.03865973, -0.1212131, 0.3751197, 0.9196294
 178033758, 0.1110558, -0.01792649, -0.04134982, -0.119633, 0.2806896, 0.9528752, 0.122419, -0.002517827, -0.04459285, -0.1189084, 0.342587, 0.9325193
 178233678, 0.09986931, -0.002925131, -0.04589635, -0.1308243, 0.2703075, 0.9544005, 0.1110558, -0.01792649, -0.04134982, -0.119633, 0.2806896, 0.9528752
 178433598, 0.0940078, 0.005238451, -0.04800615, -0.145004, 0.2874638, 0.947311, 0.09986931, -0.002925131, -0.04589635, -0.1308243, 0.2703075, 0.9544005
 178633518, 0.125822, -0.000829095, -0.0396687, -0.1512371, 0.2876624, 0.9463164, 0.0940078, 0.005238451, -0.04800615, -0.145004, 0.2874638, 0.947311
 178834271, 0.1133838, -0.008003974, -0.03938672, -0.1565963, 0.2686339, 0.9510015, 0.125822, -0.000829095, -0.0396687, -0.1512371, 0.2876624, 0.9463164
 179034191, 0.098061, 0.01176794, -0.04650132, -0.1621245, 0.2502955, 0.9550626, 0.1133838, -0.008003974, -0.03938672, -0.1565963, 0.2686339, 0.9510015
 179234111, 0.1024647, 0.01148574, -0.04477783, -0.1678263, 0.2413899, 0.9563745, 0.098061, 0.01176794, -0.04650132, -0.1621245, 0.2502955, 0.9550626
 179434031, 0.1102747, -0.001901867, -0.03970603, -0.1704802, 0.2278932, 0.9592133, 0.1024647, 0.01148574, -0.04477783, -0.1678263, 0.2413899, 0.9563745
 179633951, 0.1305303, 0.009226966, -0.03746122, -0.1711941, 0.2140503, 0.9623094, 0.1102747, -0.001901867, -0.03970603, -0.1704802, 0.2278932, 0.9592133
 179833871, 0.1060467, -0.02321206, -0.03591061, -0.1748773, 0.2033886, 0.963901, 0.1305303, 0.009226966, -0.03746122, -0.1711941, 0.2140503, 0.9623094
 180033791, 0.1264701, -0.009499493, -0.03424886, -0.1740173, 0.1931303, 0.9662028, 0.1060467, -0.02321206, -0.03591061, -0.1748773, 0.2033886, 0.963901
 180233711, 0.1115456, -0.01898366, -0.03572347, -0.1755699, 0.180939, 0.9682515, 0.1264701, -0.009499493, -0.03424886, -0.1740173, 0.1931303, 0.9662028
 180433631, 0.1282736, -0.00709343, -0.03398734, -0.1764523, 0.1712641, 0.9698821, 0.1115456, -0.01898366, -0.03572347, -0.1755699, 0.180939, 0.9682515
 180633551, 0.1166984, -0.02943432, -0.03308175, -0.1782594, 0.1591769, 0.97158, 0.1282736, -0.00709343, -0.03398734, -0.1764523, 0.1712641, 0.9698821
 180834304, 0.1283007, 0.006871437, -0.03544322, -0.1790617, 0.1408358, 0.9742976, 0.1166984, -0.02943432, -0.03308175, -0.1782594, 0.1591769, 0.97158
 181034224, 0.1388502, -0.0210079, -0.02973854, -0.1802837, 0.125858, 0.9761239, 0.1283007, 0.006871437, -0.03544322, -0.1790617, 0.1408358, 0.9742976
 181234144, 0.1394202, -0.006688639, -0.03091336, -0.1823196, 0.1194931, 0.9765535, 0.1388502, -0.0210079, -0.02973854, -0.1802837, 0.125858, 0.9761239
 181434064, 0.1249251, 0.001919409, -0.03486989, -0.1831996, 0.1102998, 0.9774499, 0.1394202, -0.006688639, -0.03091336, -0.1823196, 0.1194931, 0.9765535
 181633984, 0.1155433, 0.0002933466, -0.03636583, -0.1866744, 0.09602698, 0.9782825, 0.1249251, 0.001919409, -0.03486989, -0.1831996, 0.1102998, 0.9774499
 181833904, 0.1455475, -0.002116317, -0.02942995, -0.186206, 0.08023183, 0.9798427, 0.1155433, 0.0002933466, -0.03636583, -0.1866744, 0.09602698, 0.9782825
 182033824, 0.1455905, -0.03011169, -0.02769335, -0.1874802, 0.07219926, 0.9802123, 0.1455475, -0.002116317, -0.02942995, -0.186206, 0.08023183, 0.9798427
 182233744, 0.1369494, 0.007674352, -0.03171944, -0.1877648, 0.07425678, 0.9800063, 0.1455905, -0.03011169, -0.02769335, -0.1874802, 0.07219926, 0.9802123
 182433664, 0.1317365, -0.005230407, -0.03195239, -0.189712, 0.07034377, 0.9799036, 0.1369494, 0.007674352, -0.03171944, -0.1877648, 0.07425678, 0.9800063
 182633584, 0.1346579, -0.01656456, -0.03073975, -0.190246, 0.06180627, 0.9803752, 0.1317365, -0.005230407, -0.03195239, -0.189712, 0.07034377, 0.9799036
 182833504, 0.1531355, -0.01332842, -0.02676778, -0.1896226, 0.0542802, 0.9809772, 0.1346579, -0.01656456, -0.03073975, -0.190246, 0.06180627, 0.9803752
 183034257, 0.158627, -0.02749872, -0.02521589, -0.188936, 0.04853228, 0.9814162, 0.1531355, -0.01332842, -0.02676778, -0.1896226, 0.0542802, 0.9809772
 183234177, 0.1556899, -0.0170134, -0.02595841, -0.1910521, 0.04553284, 0.9811482, 0.158627, -0.02749872, -0.02521589, -0.188936, 0.04853228, 0.9814162
 183434097, 0.1471233, -0.02090954, -0.02787379, -0.1925378, 0.03501177, 0.9812708, 0.1556899, -0.0170134, -0.02595841, -0.1910521, 0.04553284, 0.9811482
 183634017, 0.1481395, -0.02245185, -0.02778445, -0.1932382, 0.02311725, 0.9814864, 0.1471233, -0.02090954, -0.02787379, -0.1925378, 0.03501177, 0.9812708
 183833937, 0.1483033, 0.007467621, -0.02776848, -0.1938757, 0.01998715, 0.9814439, 0.1481395, -0.02245185, -0.02778445, -0.1932382, 0.02311725, 0.9814864
 184033857, 0.1461436, -0.007728359, -0.02862375, -0.1916523, 0.01556014, 0.9819484, 0.1483033, 0.007467621, -0.02776848, -0.1938757, 0.01998715, 0.9814439
 184233777, 0.140422, -0.01493393, -0.02982164, -0.1935554, 0.009768095, 0.9816355, 0.1461436, -0.007728359, -0.02862375, -0.1916523, 0.01556014, 0.9819484
 184433697, 0.1667935, 0.003911397, -0.02318515, -0.1945767, 3.442168E-05, 0.9815433, 0.140422, -0.01493393, -0.02982164, -0.1935554, 0.009768095, 0.9816355
 184633617, 0.1367278, -0.009971001, -0.03016284, -0.1989121, -0.009316299, 0.980563, 0.1667935, 0.003911397, -0.02318515, -0.1945767, 3.442168E-05, 0.9815433
 184833537, 0.1570449, -0.01878754, -0.02544484, -0.1993093, -0.009695774, 0.9805131, 0.1367278, -0.009971001, -0.03016284, -0.1989121, -0.009316299, 0.980563
 185034290, 0.1783326, 0.004205142, -0.01995755, -0.1969028, -0.009666935, 0.9810569, 0.1570449, -0.01878754, -0.02544484, -0.1993093, -0.009695774, 0.9805131
 185234210, 0.1520663, 0.00971385, -0.02620303, -0.1968984, -0.007964609, 0.9810202, 0.1783326, 0.004205142, -0.01995755, -0.1969028, -0.009666935, 0.9810569
 185434130, 0.1788472, 0.008699935, -0.01971025, -0.1969192, -0.008848874, 0.9810649, 0.1520663, 0.00971385, -0.02620303, -0.1968984, -0.007964609, 0.9810202
 185634050, 0.1624164, -0.01179403, -0.0252434, -0.1917138, -0.01542639, 0.9819667, 0.1788472, 0.008699935, -0.01971025, -0.1969192, -0.008848874, 0.9810649
 185833970, 0.1750521, -0.01565371, -0.02392624, -0.1831167, -0.01979977, 0.983554, 0.1624164, -0.01179403, -0.0252434, -0.1917138, -0.01542639, 0.9819667
 186033890, 0.179992, -0.01877274, -0.02476174, -0.172264, -0.01579161, 0.9855955, 0.1750521, -0.01565371, -0.02392624, -0.1831167, -0.01979977, 0.983554
 186233810, 0.1647783, 0.009865414, -0.02839868, -0.1641122, -0.01404027, 0.9869933, 0.179992, -0.01877274, -0.02476174, -0.172264, -0.01579161, 0.9855955
 186433730, 0.1857334, -0.007104969, -0.02594471, -0.1568302, -0.01731996, 0.9881623, 0.1647783, 0.009865414, -0.02839868, -0.1641122, -0.01404027, 0.9869933
 186633650, 0.1600568, 0.003347167, -0.03156388, -0.1515954, -0.01930008, 0.9888909, 0.1857334, -0.007104969, -0.02594471, -0.1568302, -0.01731996, 0.9881623
 186833570, 0.1868655, 0.0148227, -0.02775097, -0.1413271, -0.01722478, 0.9905156, 0.1600568, 0.003347167, -0.03156388, -0.1515954, -0.01930008, 0.9888909
 187033490, 0.1833343, 0.008012183, -0.02993005, -0.1344757, -0.01451726, 0.9915002, 0.1868655, 0.0148227, -0.02775097, -0.1413271, -0.01722478, 0.9905156
 187234243, 0.1776398, -0.004075095, -0.03205112, -0.1307963, -0.01876694, 0.991901, 0.1833343, 0.008012183, -0.02993005, -0.1344757, -0.01451726, 0.9915002
 187434163, 0.1849406, 0.009824801, -0.0313669, -0.1243743, -0.02051523, 0.9927172, 0.1776398, -0.004075095, -0.03205112, -0.1307963, -0.01876694, 0.991901
 187634083, 0.199264, 0.003583933, -0.03113289, -0.1143017, -0.02394641, 0.9938828, 0.1849406, 0.009824801, -0.0313669, -0.1243743, -0.02051523, 0.9927172
 187834003, 0.1833428, -0.006756811, -0.03549158, -0.1067785, -0.02067083, 0.9947483, 0.199264, 0.003583933, -0.03113289, -0.1143017, -0.02394641, 0.9938828
 188033923, 0.1881734, -0.02076648, -0.03587756, -0.1028154, -0.01291544, 0.995302, 0.1833428, -0.006756811, -0.03549158, -0.1067785, -0.02067083, 0.9947483
 188233843, 0.2099019, -0.01047254, -0.03330311, -0.09794407, -0.01046748, 0.9958648, 0.1881734, -0.02076648, -0.03587756, -0.1028154, -0.01291544, 0.995302
 188433763, 0.2086226, 0.002139961, -0.03520966, -0.08737233, -0.01146287, 0.9968588, 0.2099019, -0.01047254, -0.03330311, -0.09794407, -0.01046748, 0.9958648
 188633683, 0.2126717, -0.01575489, -0.03677527, -0.07997827, -0.01257644, 0.9974687, 0.2086226, 0.002139961, -0.03520966, -0.08737233, -0.01146287, 0.9968588
 188833603, 0.1867508, -0.001062636, -0.04050255, -0.07514855, -0.009071451, 0.9978228, 0.2126717, -0.01575489, -0.03677527, -0.07997827, -0.01257644, 0.9974687
 189033523, 0.180123, -0.008575078, -0.0427205, -0.06821492, -0.006575856, 0.9983213, 0.1867508, -0.001062636, -0.04050255, -0.07514855, -0.009071451, 0.9978228
 189234276, 0.2223713, -0.003689326, -0.03960315, -0.05925172, -0.005611455, 0.9990134, 0.180123, -0.008575078, -0.0427205, -0.06821492, -0.006575856, 0.9983213
 189434196, 0.1881814, -0.01843261, -0.0437367, -0.05878707, -0.003106343, 0.9989528, 0.2223713, -0.003689326, -0.03960315, -0.05925172, -0.005611455, 0.9990134
 189634116, 0.195675, 1.494761E-05, -0.04253389, -0.05873951, 0.003088372, 0.9989833, 0.1881814, -0.01843261, -0.0437367, -0.05878707, -0.003106343, 0.9989528
 189834036, 0.2067385, 0.01226578, -0.04146117, -0.05746638, 0.009708428, 0.9990516, 0.195675, 1.494761E-05, -0.04253389, -0.05873951, 0.003088372, 0.9989833
 190033956, 0.2067515, 0.002877277, -0.04110435, -0.05983337, 0.01480184, 0.9988443, 0.2067385, 0.01226578, -0.04146117, -0.05746638, 0.009708428, 0.9990516
 190233876, 0.1929955, 0.00778476, -0.04122721, -0.06682222, 0.01220432, 0.9984025, 0.2067515, 0.002877277, -0.04110435, -0.05983337, 0.01480184, 0.9988443
 190433796, 0.1814808, -0.01115694, -0.04169821, -0.07257767, 0.008784807, 0.9979978, 0.1929955, 0.00778476, -0.04122721, -0.06682222, 0.01220432, 0.9984025
 190633716, 0.1796459, 0.01007329, -0.040112, -0.08140788, 0.008032995, 0.9973295, 0.1814808, -0.01115694, -0.04169821, -0.07257767, 0.008784807, 0.9979978
 190833636, 0.1933399, -6.499654E-05, -0.03698853, -0.08944936, 0.008096782, 0.9966658, 0.1796459, 0.01007329, -0.040112, -0.08140788, 0.008032995, 0.9973295
 191033556, 0.1759123, 0.01168415, -0.03810158, -0.0960426, 0.01299599, 0.995966, 0.1933399, -6.499654E-05, -0.03698853, -0.08944936, 0.008096782, 0.9966658
 191233476, 0.1993687, -0.006728716, -0.03434858, -0.09890708, 0.01548668, 0.995695, 0.1759123, 0.01168415, -0.03810158, -0.0960426, 0.01299599, 0.995966
 191434229, 0.2036713, -0.005034241, -0.03316958, -0.1016564, 0.01342153, 0.9954598, 0.1993687, -0.006728716, -0.03434858, -0.09890708, 0.01548668, 0.995695
 191634149, 0.1940741, 0.01865897, -0.03317363, -0.1080871, 0.01191184, 0.9947908, 0.2036713, -0.005034241, -0.03316958, -0.1016564, 0.01342153, 0.9954598
 191834069, 0.2220476, -0.003726609, -0.02878205, -0.1088281, 0.01272448, 0.994762, 0.1940741, 0.01865897, -0.03317363, -0.1080871, 0.01191184, 0.9947908
 192033989, 0.1803985, 0.008537196, -0.03449737, -0.1131694, 0.01287244, 0.9941735, 0.2220476, -0.003726609, -0.02878205, -0.1088281, 0.01272448, 0.994762
 192233909, 0.2035026, 0.005043715, -0.03092154, -0.1126744, 0.01258435, 0.9942883, 0.1803985, 0.008537196, -0.03449737, -0.1131694, 0.01287244, 0.9941735
 192433829, 0.1860701, -0.01809114, -0.03316827, -0.1159336, 0.01968954, 0.993742, 0.2035026, 0.005043715, -0.03092154, -0.1126744, 0.01258435, 0.9942883
 192633749, 0.2031184, -0.01510455, -0.03020074, -0.1166595, 0.02251225, 0.993641, 0.1860701, -0.01809114, -0.03316827, -0.1159336, 0.01968954, 0.993742
 192833669, 0.2140934, -0.01442558, -0.02759711, -0.1202245, 0.02314971, 0.9932316, 0.2031184, -0.01510455, -0.03020074, -0.1166595, 0.02251225, 0.993641
 193033589, 0.2224677, -0.01339328, -0.02530349, -0.1239978, 0.0240287, 0.9927713, 0.2140934, -0.01442558, -0.02759711, -0.1202245, 0.02314971, 0.9932316
 193233509, 0.1957914, 0.009205808, -0.0300171, -0.1240084, 0.01970181, 0.9928046, 0.2224677, -0.01339328, -0.02530349, -0.1239978, 0.0240287, 0.9927713
 193434262, 0.2113778, -0.01513259, -0.02684315, -0.1268759, 0.01310393, 0.9925784, 0.1957914, 0.009205808, -0.0300171, -0.1240084, 0.01970181, 0.9928046
 193634182, 0.2126355, 0.01631321, -0.02551901, -0.1309691, 0.01380885, 0.9920587, 0.2113778, -0.01513259, -0.02684315, -0.1268759, 0.01310393, 0.9925784
 193834102, 0.2338881, -0.02006232, -0.02139413, -0.1325081, 0.01759956, 0.9918371, 0.2126355, 0.01631321, -0.02551901, -0.1309691, 0.01380885, 0.9920587
 194034022, 0.240997, -0.0146804, -0.01890443, -0.1371776, 0.01852681, 0.9912103, 0.2338881, -0.02006232, -0.02139413, -0.1325081, 0.01759956, 0.9918371
 194233942, 0.2192358, -0.001352438, -0.02211875, -0.1416649, 0.01903374, 0.9905084, 0.240997, -0.0146804, -0.01890443, -0.1371776, 0.01852681, 0.9912103
 194433862, 0.2456457, -0.002644108, -0.01757782, -0.1387604, 0.01674203, 0.9910437, 0.2192358, -0.001352438, -0.02211875, -0.1416649, 0.01903374, 0.9905084
 194633782, 0.2203858, -0.01439863, -0.02143089, -0.1440158, 0.01650546, 0.9902111, 0.2456457, -0.002644108, -0.01757782, -0.1387604, 0.01674203, 0.9910437
 194833702, 0.2163332, -0.001343764, -0.02277436, -0.1412432, 0.01852452, 0.9905699, 0.2203858, -0.01439863, -0.02143089, -0.1440158, 0.01650546, 0.9902111
 195033622, 0.2471768, -0.01330411, -0.01847, -0.1338208, 0.02064227, 0.9916494, 0.2163332, -0.001343764, -0.02277436, -0.1412432, 0.01852452, 0.9905699
 195233542, 0.2428143, 0.01454608, -0.02062889, -0.128582, 0.02490381, 0.9922464, 0.2471768, -0.01330411, -0.01847, -0.1338208, 0.02064227, 0.9916494
 195434295, 0.2558504, 0.007466297, -0.01949443, -0.1233273, 0.02933837, 0.9928334, 0.2428143, 0.01454608, -0.02062889, -0.128582, 0.02490381, 0.9922464
 195634215, 0.235224, -0.01263488, -0.02306989, -0.1233939, 0.03042878, 0.9927109, 0.2558504, 0.007466297, -0.01949443, -0.1233273, 0.02933837, 0.9928334
 195834135, 0.2376288, -0.01296033, -0.02448609, -0.1156081, 0.02927301, 0.9936904, 0.235224, -0.01263488, -0.02306989, -0.1233939, 0.03042878, 0.9927109
 196034055, 0.2245595, -0.001165902, -0.02702634, -0.1147901, 0.02094407, 0.9939609, 0.2376288, -0.01296033, -0.02448609, -0.1156081, 0.02927301, 0.9936904
 196233975, 0.2669868, 0.01354276, -0.02213198, -0.1049099, 0.01407944, 0.9953272, 0.2245595, -0.001165902, -0.02702634, -0.1147901, 0.02094407, 0.9939609
 196433895, 0.2267309, -0.01591017, -0.02945284, -0.1029005, 0.01110854, 0.9954206, 0.2669868, 0.01354276, -0.02213198, -0.1049099, 0.01407944, 0.9953272
 196633815, 0.2729059, -0.006467386, -0.02474332, -0.09192906, 0.01619484, 0.9965904, 0.2267309, -0.01591017, -0.02945284, -0.1029005, 0.01110854, 0.9954206
 196833735, 0.2434496, -0.004718099, -0.03045923, -0.08706925, 0.0171124, 0.9969053, 0.2729059, -0.006467386, -0.02474332, -0.09192906, 0.01619484, 0.9965904
 197033655, 0.2548057, -0.01309759, -0.03065101, -0.07972385, 0.01811441, 0.9975375, 0.2434496, -0.004718099, -0.03045923, -0.08706925, 0.0171124, 0.9969053
 197233575, 0.2784834, 0.004934363, -0.02930554, -0.07203677, 0.02067048, 0.9981737, 0.2548057, -0.01309759, -0.03065101, -0.07972385, 0.01811441, 0.9975375
 197433495, 0.2653148, -0.006416684, -0.03214455, -0.06801523, 0.0259641, 0.9982745, 0.2784834, 0.004934363, -0.02930554, -0.07203677, 0.02067048, 0.9981737
 197634248, 0.3008664, 0.009663417, -0.03028945, -0.05815702, 0.02851908, 0.9989871, 0.2653148, -0.006416684, -0.03214455, -0.06801523, 0.0259641, 0.9982745
 197834168, 0.3038743, -0.01361879, -0.03137285, -0.05261806, 0.02798891, 0.9993111, 0.3008664, 0.009663417, -0.03028945, -0.05815702, 0.02851908, 0.9989871
 198034088, 0.2826334, -0.01830659, -0.03529868, -0.04791619, 0.02776252, 0.9994586, 0.3038743, -0.01361879, -0.03137285, -0.05261806, 0.02798891, 0.9993111
 198234008, 0.2710478, 0.00705582, -0.03765479, -0.0448114, 0.02854387, 0.999548, 0.2826334, -0.01830659, -0.03529868, -0.04791619, 0.02776252, 0.9994586
 198433928, 0.2903657, 0.009041788, -0.03767961, -0.0370242, 0.02560805, 1.000028, 0.2710478, 0.00705582, -0.03765479, -0.0448114, 0.02854387, 0.999548
 198633848, 0.260341, 0.0004803848, -0.04052809, -0.03837011, 0.02567546, 0.9998282, 0.2903657, 0.009041788, -0.03767961, -0.0370242, 0.02560805, 1.000028
 198833768, 0.2992435, -0.001803427, -0.03831162, -0.03138497, 0.02651213, 1.000232, 0.260341, 0.0004803848, -0.04052809, -0.03837011, 0.02567546, 0.9998282
 199033688, 0.2576941, 0.005538468, -0.04249095, -0.03128124, 0.02139261, 1.000192, 0.2992435, -0.001803427, -0.03831162, -0.03138497, 0.02651213, 1.000232
 199233608, 0.2779561, 0.004254162, -0.04511911, -0.01443895, 0.01476354, 1.000777, 0.2576941, 0.005538468, -0.04249095, -0.03128124, 0.02139261, 1.000192
 199433528, 0.2939368, -0.01088084, -0.04802816, 3.346056E-05, 0.01591224, 1.000926, 0.2779561, 0.004254162, -0.04511911, -0.01443895, 0.01476354, 1.000777
 199634281, 0.3172763, -0.01764095, -0.05049664, 0.01336828, 0.01435795, 1.000971, 0.2939368, -0.01088084, -0.04802816, 3.346056E-05, 0.01591224, 1.000926
 199834201, 0.2654819, -0.003260133, -0.05459438, 0.01765588, 0.0136454, 1.000693, 0.3172763, -0.01764095, -0.05049664, 0.01336828, 0.01435795, 1.000971
 200034121, 0.3164854, 0.002624475, -0.0571205, 0.03472571, 0.01437598, 1.000469, 0.2654819, -0.003260133, -0.05459438, 0.01765588, 0.0136454, 1.000693
 200234041, 0.3097539, -0.0130242, -0.05958278, 0.04144412, 0.01501326, 1.000164, 0.3164854, 0.002624475, -0.0571205, 0.03472571, 0.01437598, 1.000469
 200433961, 0.2973249, 0.001477383, -0.06170017, 0.04746135, 0.01461778, 0.9998533, 0.3097539, -0.0130242, -0.05958278, 0.04144412, 0.01501326, 1.000164
 200633881, 0.2921573, -0.02005765, -0.06409222, 0.054694, 0.01359094, 0.9994657, 0.2973249, 0.001477383, -0.06170017, 0.04746135, 0.01461778, 0.9998533
 200833801, 0.2888099, -0.001122971, -0.06668503, 0.06391412, 0.01551147, 0.9988878, 0.2921573, -0.02005765, -0.06409222, 0.054694, 0.01359094, 0.9994657
 201033721, 0.2561266, 0.006335517, -0.06638694, 0.06228811, 0.02227131, 0.9987345, 0.2888099, -0.001122971, -0.06668503, 0.06391412, 0.01551147, 0.9988878
 201233641, 0.2599842, 0.005667634, -0.06595673, 0.06063316, 0.02165009, 0.9988634, 0.2561266, 0.006335517, -0.06638694, 0.06228811, 0.02227131, 0.9987345
 201433561, 0.2571435, 0.0084858, -0.06528083, 0.05813319, 0.01736226, 0.9990862, 0.2599842, 0.005667634, -0.06595673, 0.06063316, 0.02165009, 0.9988634
 201633481, 0.2329619, 0.0005727826, -0.06330328, 0.04932405, 0.01518502, 0.9995046, 0.2571435, 0.0084858, -0.06528083, 0.05813319, 0.01736226, 0.9990862
 201834234, 0.2749158, -0.02124483, -0.06386086, 0.05292062, 0.01489965, 0.9994677, 0.2329619, 0.0005727826, -0.06330328, 0.04932405, 0.01518502, 0.9995046
 202034154, 0.2472214, -0.002471743, -0.0616524, 0.04314807, 0.02268386, 0.9996933, 0.2749158, -0.02124483, -0.06386086, 0.05292062, 0.01489965, 0.9994677
 202234074, 0.2230716, -0.01578898, -0.05972767, 0.03313986, 0.02333526, 0.9999725, 0.2472214, -0.002471743, -0.0616524, 0.04314807, 0.02268386, 0.9996933
 202433994, 0.2627551, -0.0188371, -0.05842508, 0.03216024, 0.024184, 1.000118, 0.2230716, -0.01578898, -0.05972767, 0.03313986, 0.02333526, 0.9999725
 202633914, 0.2452895, 0.0005746593, -0.05715661, 0.0245044, 0.02578701, 1.00024, 0.2627551, -0.0188371, -0.05842508, 0.03216024, 0.024184, 1.000118
 202833834, 0.2595274, 0.0002425625, -0.05528739, 0.01931623, 0.02867294, 1.000325, 0.2452895, 0.0005746593, -0.05715661, 0.0245044, 0.02578701, 1.00024
 203033754, 0.2430921, -0.008907197, -0.05415251, 0.0121508, 0.03077494, 1.000311, 0.2595274, 0.0002425625, -0.05528739, 0.01931623, 0.02867294, 1.000325
 203233674, 0.245434, -0.01977991, -0.05278389, 0.00709622, 0.02707895, 1.000468, 0.2430921, -0.008907197, -0.05415251, 0.0121508, 0.03077494, 1.000311
 203433594, 0.2380922, 0.01384595, -0.05205277, 0.001485549, 0.027663, 1.000469, 0.245434, -0.01977991, -0.05278389, 0.00709622, 0.02707895, 1.000468
 203633514, 0.2195429, -0.01504094, -0.05167685, -0.003621046, 0.03189854, 1.000263, 0.2380922, 0.01384595, -0.05205277, 0.001485549, 0.027663, 1.000469
 203834267, 0.2065719, 0.01758406, -0.05155706, -0.009814866, 0.03590984, 1.000067, 0.2195429, -0.01504094, -0.05167685, -0.003621046, 0.03189854, 1.000263
 204034187, 0.2401794, -0.01835233, -0.04844769, -0.01169994, 0.03482958, 1.000165, 0.2065719, 0.01758406, -0.05155706, -0.009814866, 0.03590984, 1.000067
 204234107, 0.2122576, -0.01506612, -0.04912725, -0.01792519, 0.0282482, 1.000196, 0.2401794, -0.01835233, -0.04844769, -0.01169994, 0.03482958, 1.000165
 204434027, 0.2387687, 0.0054753, -0.04735412, -0.01803891, 0.02828353, 1.000284, 0.2122576, -0.01506612, -0.04912725, -0.01792519, 0.0282482, 1.000196
 204633947, 0.2376669, 0.01459221, -0.04709302, -0.01951775, 0.0241508, 1.000367, 0.2387687, 0.0054753, -0.04735412, -0.01803891, 0.02828353, 1.000284
 204833867, 0.2193557, 0.01728937, -0.0476151, -0.02321693, 0.02169388, 1.000289, 0.2376669, 0.01459221, -0.04709302, -0.01951775, 0.0241508, 1.000367
 205033787, 0.2326412, -0.01098875, -0.04645966, -0.0234789, 0.02505009, 1.000228, 0.2193557, 0.01728937, -0.0476151, -0.02321693, 0.02169388, 1.000289
 205233707, 0.225153, -0.0218373, -0.04624532, -0.0269247, 0.02456335, 1.000125, 0.2326412, -0.01098875, -0.04645966, -0.0234789, 0.02505009, 1.000228
 205433627, 0.2258876, 0.009641624, -0.0468477, -0.02443588, 0.02188178, 1.00027, 0.225153, -0.0218373, -0.04624532, -0.0269247, 0.02456335, 1.000125
 205633547, 0.1968851, -0.003963612, -0.04799837, -0.02964344, 0.02189456, 1.00004, 0.2258876, 0.009641624, -0.0468477, -0.02443588, 0.02188178, 1.00027
 205834300, 0.2391545, -0.008051935, -0.04457335, -0.02955956, 0.01932911, 1.000215, 0.1968851, -0.003963612, -0.04799837, -0.02964344, 0.02189456, 1.00004
 206034220, 0.2153006, -0.01482545, -0.04587492, -0.03318147, 0.01520448, 1.000096, 0.2391545, -0.008051935, -0.04457335, -0.02955956, 0.01932911, 1.000215
 206234140, 0.2021011, 0.01379229, -0.04719195, -0.03122801, 0.01446111, 1.00015, 0.2153006, -0.01482545, -0.04587492, -0.03318147, 0.01520448, 1.000096
 206434060, 0.2005481, -0.009795696, -0.04727174, -0.03223262, 0.01415989, 1.000105, 0.2021011, 0.01379229, -0.04719195, -0.03122801, 0.01446111, 1.00015
 206633980, 0.2070912, -0.007025602, -0.04644767, -0.03382622, 0.008843739, 1.000132, 0.2005481, -0.009795696, -0.04727174, -0.03223262, 0.01415989, 1.000105
 206833900, 0.2004616, 0.01737136, -0.04655295, -0.03463697, 0.009842188, 1.000092, 0.2070912, -0.007025602, -0.04644767, -0.03382622, 0.008843739, 1.000132
 207033820, 0.201834, -0.01827713, -0.04694489, -0.03323153, 0.01821833, 1.000006, 0.2004616, 0.01737136, -0.04655295, -0.03463697, 0.009842188, 1.000092
 207233740, 0.2273032, -0.002376578, -0.04515674, -0.03141318, 0.02380456, 1.000028, 0.201834, -0.01827713, -0.04694489, -0.03323153, 0.01821833, 1.000006
 207433660, 0.2241437, -0.007947647, -0.04490852, -0.0336732, 0.02481358, 0.9999165, 0.2273032, -0.002376578, -0.04515674, -0.03141318, 0.02380456, 1.000028
 207633580, 0.221324, 0.01720602, -0.04450263, -0.03700174, 0.02367377, 0.9998328, 0.2241437, -0.007947647, -0.04490852, -0.0336732, 0.02481358, 0.9999165
 207833500, 0.1988823, 0.005838371, -0.04642996, -0.03693379, 0.01963404, 0.9998534, 0.221324, 0.01720602, -0.04450263, -0.03700174, 0.02367377, 0.9998328
 208034253, 0.2238568, -0.008993322, -0.04505946, -0.03352338, 0.01348029, 1.000137, 0.1988823, 0.005838371, -0.04642996, -0.03693379, 0.01963404, 0.9998534
 208234173, 0.1937927, -0.006542573, -0.04737484, -0.03460996, 0.01061615, 1.000053, 0.2238568, -0.008993322, -0.04505946, -0.03352338, 0.01348029, 1.000137
 208434093, 0.2124787, -0.003291321, -0.04612561, -0.03309339, 0.005304534, 1.000198, 0.1937927, -0.006542573, -0.04737484, -0.03460996, 0.01061615, 1.000053
 208634013, 0.2142684, -0.00704899, -0.04568283, -0.03464919, 0.008083281, 1.000129, 0.2124787, -0.003291321, -0.04612561, -0.03309339, 0.005304534, 1.000198
 208833933, 0.2217799, -0.005853282, -0.04605906, -0.0297669, 0.01330179, 1.000254, 0.2142684, -0.00704899, -0.04568283, -0.03464919, 0.008083281, 1.000129
 209033853, 0.2200782, 0.01751599, -0.04727805, -0.02444116, 0.01427788, 1.000375, 0.2217799, -0.005853282, -0.04605906, -0.0297669, 0.01330179, 1.000254
 209233773, 0.2252676, -0.004520026, -0.0500398, -0.01039894, 0.01679334, 1.000604, 0.2200782, 0.01751599, -0.04727805, -0.02444116, 0.01427788, 1.000375
 209433693, 0.2325159, 0.007393559, -0.05298704, 0.004684903, 0.01816501, 1.000655, 0.2252676, -0.004520026, -0.0500398, -0.01039894, 0.01679334, 1.000604
 209633613, 0.1902345, -0.005544451, -0.05635471, 0.01206439, 0.01943545, 1.000444, 0.2325159, 0.007393559, -0.05298704, 0.004684903, 0.01816501, 1.000655
 209833533, 0.2114644, 0.003195863, -0.05817721, 0.02447584, 0.02073559, 1.000254, 0.1902345, -0.005544451, -0.05635471, 0.01206439, 0.01943545, 1.000444
 210034286, 0.2053737, -0.006016023, -0.06072423, 0.03615394, 0.01971272, 0.9999006, 0.2114644, 0.003195863, -0.05817721, 0.02447584, 0.02073559, 1.000254
 210234206, 0.1881037, 0.01618232, -0.06256881, 0.04503912, 0.01995954, 0.9995049, 0.2053737, -0.006016023, -0.06072423, 0.03615394, 0.01971272, 0.9999006
 210434126, 0.2291417, 0.01133629, -0.06516993, 0.05756127, 0.01626056, 0.9990432, 0.1881037, 0.01618232, -0.06256881, 0.04503912, 0.01995954, 0.9995049
 210634046, 0.1963641, -0.0006785399, -0.06611036, 0.0629532, 0.01570915, 0.9986258, 0.2291417, 0.01133629, -0.06516993, 0.05756127, 0.01626056, 0.9990432
 210833966, 0.2107273, -0.01511269, -0.0676779, 0.06873786, 0.01012483, 0.9983493, 0.1963641, -0.0006785399, -0.06611036, 0.0629532, 0.01570915, 0.9986258
 211033886, 0.1852022, -0.01175226, -0.0672507, 0.06901243, 0.004827123, 0.9983038, 0.2107273, -0.01511269, -0.0676779, 0.06873786, 0.01012483, 0.9983493
 211233806, 0.1707503, 0.01343487, -0.06617235, 0.06697598, 0.007608409, 0.9984056, 0.1852022, -0.01175226, -0.0672507, 0.06901243, 0.004827123, 0.9983038
 211433726, 0.1838874, 0.00317352, -0.06597026, 0.0635461, 0.003790541, 0.998675, 0.1707503, 0.01343487, -0.06617235, 0.06697598, 0.007608409, 0.9984056
 211633646, 0.1822865, -0.01831878, -0.06540123, 0.05813867, -0.001084594, 0.9989949, 0.1838874, 0.00317352, -0.06597026, 0.0635461, 0.003790541, 0.998675
 211833566, 0.2064652, -0.01445084, -0.06427292, 0.05208181, 0.002096612, 0.9993905, 0.1822865, -0.01831878, -0.06540123, 0.05813867, -0.001084594, 0.9989949
 212033486, 0.1808074, 0.01062734, -0.06214625, 0.04326471, 0.007290846, 0.9997335, 0.2064652, -0.01445084, -0.06427292, 0.05208181, 0.002096612, 0.9993905
 212234239, 0.1910466, -0.009562579, -0.06168666, 0.03975821, 0.01097378, 0.9998586, 0.1808074, 0.01062734, -0.06214625, 0.04326471, 0.007290846, 0.9997335
 212434159, 0.1586131, -0.00664089, -0.06040182, 0.0312638, 0.01586606, 1.000021, 0.1910466, -0.009562579, -0.06168666, 0.03975821, 0.01097378, 0.9998586
 212634079, 0.1873426, 0.0144433, -0.05882693, 0.02486089, 0.02067102, 1.00019, 0.1586131, -0.00664089, -0.06040182, 0.0312638, 0.01586606, 1.000021
 212833999, 0.1852815, 0.005280852, -0.057301, 0.01621474, 0.0217948, 1.000331, 0.1873426, 0.0144433, -0.05882693, 0.02486089, 0.02067102, 1.00019
 213033919, 0.1981857, -0.01658958, -0.05581812, 0.01026325, 0.0156814, 1.000544, 0.1852815, 0.005280852, -0.057301, 0.01621474, 0.0217948, 1.000331
 213233839, 0.1693085, -0.01924645, -0.05575874, 0.004089033, 0.01754894, 1.000486, 0.1981857, -0.01658958, -0.05581812, 0.01026325, 0.0156814, 1.000544
 213433759, 0.1563469, 0.01289814, -0.05528273, -0.002243223, 0.02787985, 1.000248, 0.1693085, -0.01924645, -0.05575874, 0.004089033, 0.01754894, 1.000486
 213633679, 0.1877156, -0.005495969, -0.05336473, -0.004170891, 0.03569601, 1.000052, 0.1563469, 0.01289814, -0.05528273, -0.002243223, 0.02787985, 1.000248
 213833599, 0.1865735, -0.0009546102, -0.05241656, -0.01001155, 0.03695916, 0.9999635, 0.1877156, -0.005495969, -0.05336473, -0.004170891, 0.03569601, 1.000052
 214033519, 0.1786661, -0.00882065, -0.05160945, -0.01635246, 0.03702092, 0.9998537, 0.1865735, -0.0009546102, -0.05241656, -0.01001155, 0.03695916, 0.9999635
 214234272, 0.194432, 0.004571592, -0.05030862, -0.01908387, 0.0333202, 0.9999806, 0.1786661, -0.00882065, -0.05160945, -0.01635246, 0.03702092, 0.9998537
 214434192, 0.1940376, -0.01774956, -0.04979859, -0.02081617, 0.02871206, 1.000076, 0.194432, 0.004571592, -0.05030862, -0.01908387, 0.0333202, 0.9999806
 214634112, 0.1965335, 0.002887699, -0.04878553, -0.02603141, 0.02850802, 0.9999762, 0.1940376, -0.01774956, -0.04979859, -0.02081617, 0.02871206, 1.000076
 214834032, 0.1659825, -0.01548057, -0.05041759, -0.02834156, 0.02783648, 0.9998512, 0.1965335, 0.002887699, -0.04878553, -0.02603141, 0.02850802, 0.9999762
 215033952, 0.1825459, 0.01590882, -0.0493166, -0.02925329, 0.02954039, 0.9998311, 0.1659825, -0.01548057, -0.05041759, -0.02834156, 0.02783648, 0.9998512
 215233872, 0.1614347, 0.0027037, -0.0495904, -0.03639685, 0.02905144, 0.9995555, 0.1825459, 0.01590882, -0.0493166, -0.02925329, 0.02954039, 0.9998311
 215433792, 0.1664975, 0.003390935, -0.04710639, -0.04931824, 0.02960242, 0.9989948, 0.1614347, 0.0027037, -0.0495904, -0.03639685, 0.02905144, 0.9995555
 215633712, 0.1834856, 0.01154052, -0.04331711, -0.06179006, 0.02474746, 0.9984745, 0.1664975, 0.003390935, -0.04710639, -0.04931824, 0.02960242, 0.9989948
 215833632, 0.1563382, -0.002028566, -0.04356261, -0.07843199, 0.02041027, 0.9973353, 0.1834856, 0.01154052, -0.04331711, -0.06179006, 0.02474746, 0.9984745
 216033552, 0.1804657, 0.00944009, -0.03819961, -0.09236284, 0.01948223, 0.9962173, 0.1563382, -0.002028566, -0.04356261, -0.07843199, 0.02041027, 0.9973353
 216234305, 0.1673227, 0.003453261, -0.03724328, -0.1091924, 0.01668799, 0.99453, 0.1804657, 0.00944009, -0.03819961, -0.09236284, 0.01948223, 0.9962173
 216434225, 0.1520789, -0.01087695, -0.03720263, -0.1255506, 0.01449008, 0.9925922, 0.1673227, 0.003453261, -0.03724328, -0.1091924, 0.01668799, 0.99453
 216634145, 0.1763715, 0.01015576, -0.03136662, -0.1351685, 0.01669931, 0.9913555, 0.1520789, -0.01087695, -0.03720263, -0.1255506, 0.01449008, 0.9925922
 216834065, 0.1606339, -0.01825931, -0.03239267, -0.1472165, 0.01743452, 0.989575, 0.1763715, 0.01015576, -0.03136662, -0.1351685, 0.01669931, 0.9913555
 217033985, 0.189493, 0.007872663, -0.02596842, -0.1515649, 0.01801352, 0.9889864, 0.1606339, -0.01825931, -0.03239267, -0.1472165, 0.01743452, 0.989575
 217233905, 0.1642431, -0.005839468, -0.03010928, -0.1572539, 0.01207011, 0.9881225, 0.189493, 0.007872663, -0.02596842, -0.1515649, 0.01801352, 0.9889864
 217433825, 0.153467, -0.01798541, -0.03299617, -0.1534586, 0.008134514, 0.9887316, 0.1642431, -0.005839468, -0.03010928, -0.1572539, 0.01207011, 0.9881225
 217633745, 0.1912239, -0.01952685, -0.02671829, -0.1470401, 0.01002584, 0.9897714, 0.153467, -0.01798541, -0.03299617, -0.1534586, 0.008134514, 0.9887316
 217833665, 0.1979612, -0.001150471, -0.02603851, -0.1427479, 0.0142064, 0.9903752, 0.1912239, -0.01952685, -0.02671829, -0.1470401, 0.01002584, 0.9897714
 218033585, 0.1926217, 0.008006476, -0.02785265, -0.1383712, 0.01763396, 0.9909335, 0.1979612, -0.001150471, -0.02603851, -0.1427479, 0.0142064, 0.9903752
 218233505, 0.1749634, 0.008221149, -0.03222374, -0.1318607, 0.0188683, 0.9917575, 0.1926217, 0.008006476, -0.02785265, -0.1383712, 0.01763396, 0.9909335
 218434258, 0.1746672, 0.001621582, -0.03344383, -0.1251162, 0.02125739, 0.9925785, 0.1749634, 0.008221149, -0.03222374, -0.1318607, 0.0188683, 0.9917575
 218634178, 0.1681255, -0.008334397, -0.03577757, -0.1172603, 0.02640105, 0.9933948, 0.1746672, 0.001621582, -0.03344383, -0.1251162, 0.02125739, 0.9925785
 218834098, 0.1931446, 0.003555492, -0.03389405, -0.1061424, 0.02810338, 0.9946628, 0.1681255, -0.008334397, -0.03577757, -0.1172603, 0.02640105, 0.9933948
 219034018, 0.1877833, 0.005915819, -0.03604115, -0.09904234, 0.03022361, 0.9953218, 0.1931446, 0.003555492, -0.03389405, -0.1061424, 0.02810338, 0.9946628
 219233938, 0.2139925, -0.001178266, -0.03429768, -0.08864509, 0.02585902, 0.9964891, 0.1877833, 0.005915819, -0.03604115, -0.09904234, 0.03022361, 0.9953218
 219433858, 0.2017918, -0.001539304, -0.03667924, -0.08554709, 0.02185374, 0.9968048, 0.2139925, -0.001178266, -0.03429768, -0.08864509, 0.02585902, 0.9964891
 219633778, 0.1921651, 0.01508089, -0.03881, -0.08053305, 0.02020444, 0.9972614, 0.2017918, -0.001539304, -0.03667924, -0.08554709, 0.02185374, 0.9968048
