TimeUS,CAN,CAE,CAD,CAe
 157954293, -0.002784766, 0.003560096, -6.095593E-05, 0.0002615578
 158054253, -0.002773659, 0.00363892, -8.32034E-05, 0.0002593962
 158154213, -0.00285976, 0.003446398, 2.343194E-05, 0.0002593962
 158254173, 0.01084985, 0.00207627, -8.501466E-05, 0.0002593962
 158354133, 0.07345013, -0.005033076, -0.0002756256, 0.0002593962
 158454093, 0.1651929, -0.01482665, 0.0003625468, 0.0002593962
 158554053, 0.2697062, -0.02693696, 0.00369258, 0.0002593962
 158654013, 0.3767217, -0.03628655, 0.006895939, 0.0002593962
 158773965, 0.6037323, -0.06187447, 0.01201965, 0.0003112754
 158873925, 0.6076906, -0.06361396, 0.01218953, 0.0002593962
 158973885, 0.7065187, -0.07384076, 0.01446459, 0.0002593962
 159073845, 0.8033633, -0.08343863, 0.01642375, 0.0002593962
 159173805, 0.8858896, -0.09046248, 0.01870508, 0.0002593962
 159273765, 0.9498785, -0.1017374, 0.02068518, 0.0002593962
 159373725, 0.954969, -0.1016892, 0.02254997, 0.0002593962
 159473685, 0.9375772, -0.09425677, 0.02270013, 0.0002593962
 159573645, 0.893124, -0.09332833, 0.02243602, 0.0002593962
 159673605, 0.846473, -0.09217519, 0.02153377, 0.0002593962
 159773565, 0.7981452, -0.0925943, 0.02010606, 0.0002593962
 159873525, 0.7430938, -0.07317489, -0.01595229, 0.0002593962
 159973485, 0.7016174, -0.07153454, -0.04390764, 0.0002593962
 160074278, 0.6626176, -0.07368124, -0.009531582, 0.0002615578
 160174238, 0.6029363, -0.06605159, 0.02576716, 0.0002593962
 160274198, 0.9193257, -0.094673, -0.2062624, 0.0002593962
 160374158, 0.8857266, -0.08306967, -0.5320263, 0.0002593962
 160474118, 0.8164293, -0.07229438, -0.5511752, 0.0002593962
 160574078, 0.7495648, -0.07806605, -0.4550281, 0.0002593962
 160674038, 0.6995767, -0.08155943, -0.3014849, 0.0002593962
 160773998, 0.6657575, -0.0848726, -0.1772567, 0.0002593962
 160893950, 0.7606086, -0.09584457, -0.2247434, 0.0003112754
 160993910, 0.5765721, -0.06608433, -0.2136572, 0.0002593962
 161093870, 0.5285277, -0.04424576, -0.2477746, 0.0002593962
 161193830, 0.4922058, -0.03693049, -0.2300659, 0.0002593962
 161293790, 0.4602272, -0.04974075, -0.2000192, 0.0002593962
 161393750, 0.4266327, -0.05289447, -0.1649636, 0.0002593962
 161493710, 0.3929126, -0.04201272, -0.1731296, 0.0002593962
 161593670, 0.3713575, -0.03085331, -0.1477391, 0.0002593962
 161693630, 0.3304853, -0.03711903, -0.1839193, 0.0002593962
 161793590, 0.3023197, -0.0299961, -0.1708525, 0.0002593962
 161893550, 0.2872706, -0.0364419, -0.1084922, 0.0002593962
 161993510, 0.2702819, -0.03963654, -0.09721687, 0.0002593962
 162094303, 0.2453439, -0.03612793, -0.1009591, 0.0002593962
 162194263, 0.2252026, -0.02086999, -0.1091105, 0.0002615578
 162294223, 0.2084218, -0.01976696, -0.09720646, 0.0002593962
 162394183, 0.1905675, -0.01289918, -0.1087882, 0.0002593962
 162494143, 0.1696504, -0.009120896, -0.1254374, 0.0002593962
 162594103, 0.1517646, -0.01801865, -0.1208061, 0.0002593962
 162694063, 0.1453106, -0.03564237, -0.05081769, 0.0002593962
 162794023, 0.1339549, -0.02876126, -0.0462424, 0.0002593962
 162913975, 0.1538358, -0.01637813, -0.05361769, 0.0003112754
 163013935, 0.1158387, -0.008704904, -0.03599912, 0.0002593962
 163113895, 0.1052336, -0.02085178, -0.03958137, 0.0002593962
 163213855, 0.08898551, -0.01400323, -0.05943149, 0.0002593962
 163313815, 0.0823766, -0.0165912, -0.03615437, 0.0002593962
 163413775, 0.07418714, -0.004708818, -0.02194295, 0.0002593962
 163513735, 0.05757033, -0.004349228, -0.07467364, 0.0002593962
 163613695, 0.05608933, -0.01281717, -0.04297357, 0.0002593962
 163713655, 0.05215532, -0.01060138, -0.007495694, 0.0002593962
 163813615, 0.04626888, -0.003223454, -0.001798015, 0.0002593962
 163913575, 0.0354643, -0.002859608, -0.05096816, 0.0002593962
 164013535, 0.03829139, 0.009252694, -0.03654521, 0.0002593962
 164113495, 0.04031923, 0.00640366, -0.0192426, 0.0002593962
 164214288, 0.03537524, -0.006906075, 0.007927807, 0.0002615578
 164314248, 0.0406824, -0.005205983, 0.05134138, 0.0002593962
 164414208, 0.0187423, -0.008493779, -0.04135008, 0.0002593962
 164514168, 0.02273811, -0.006778637, -0.01740583, 0.0002593962
 164614128, 0.02752774, -0.004607494, 0.01668272, 0.0002593962
 164714088, 0.02309025, -0.003467866, 0.004482774, 0.0002593962
 164814048, 0.04612801, -0.003586694, 0.08367855, 0.0002593962
 164914008, 0.04494257, -0.00117385, 0.09545189, 0.0002593962
 165033960, 0.04731133, -0.007708009, 0.1000261, 0.0003112754
 165133920, 0.04019161, -0.01853501, 0.08072359, 0.0002593962
 165233880, 0.04641876, -0.006105417, 0.1156397, 0.0002593962
 165333840, 0.05283067, 0.005095138, 0.1242345, 0.0002593962
 165433800, 0.0524975, 0.008836599, 0.09932767, 0.0002593962
 165533760, 0.03516416, -0.01123067, 0.06225532, 0.0002593962
 165633720, 0.009924307, -0.01146803, 0.08989494, 0.0002593962
 165733680, 0.001028495, -0.001936799, 0.1007136, 0.0002593962
 165833640, -0.008286029, -0.002351343, 0.07407669, 0.0002593962
 165933600, 0.004700076, -0.003746482, 0.07905715, 0.0002593962
 166033560, 0.01621889, 0.002574702, 0.1134322, 0.0002593962
 166133520, 0.023824, -0.0008058099, 0.1021832, 0.0002593962
 166233480, 0.02150453, -0.004509606, 0.06331241, 0.0002593962
 166334273, 0.02107967, -0.007113219, 0.06535424, 0.0002615578
 166434233, 0.0194963, -0.004324995, 0.1003745, 0.0002593962
 166534193, 0.02027627, -0.009274936, 0.08361658, 0.0002593962
 166634153, 0.002510286, -0.01436275, 0.0703824, 0.0002593962
 166734113, -0.001392839, -0.003611483, 0.08919814, 0.0002593962
 166834073, -0.005111538, 0.0370348, 0.1037452, 0.0002593962
 166934033, -0.009001096, 0.06471188, 0.1247314, 0.0002593962
 167033993, -0.008078995, 0.06453734, 0.1622651, 0.0002593962
 167153945, -0.02523953, 0.05425936, 0.1384699, 0.0003112754
 167253905, -0.03001196, 0.01916871, 0.09927341, 0.0002593962
 167353865, -0.02967668, 0.007113932, 0.08846752, 0.0002593962
 167453825, -0.02991155, 0.008941589, 0.1133344, 0.0002593962
 167553785, -0.0288613, 0.009829922, 0.104575, 0.0002593962
 167653745, -0.02673111, 0.03255488, 0.1325441, 0.0002593962
 167753705, -0.01907643, 0.03994635, 0.1190111, 0.0002593962
 167853665, -0.02966997, 0.03337171, 0.108602, 0.0002593962
 167953625, -0.02574261, 0.02718012, 0.1006559, 0.0002593962
 168053585, -0.02748143, 0.0276342, 0.08219577, 0.0002593962
 168153545, -0.03292591, 0.02274646, 0.09172575, 0.0002593962
 168253505, -0.03039973, 0.02187821, 0.08109581, 0.0002593962
 168354298, -0.0337365, 0.0002007028, 0.128647, 0.0002593962
 168454258, -0.02385164, 0.006807707, 0.1226487, 0.0002615578
 168554218, -0.02560901, 0.01429081, 0.1231367, 0.0002593962
 168654178, -0.02632203, 0.0237623, 0.08982383, 0.0002593962
 168754138, -0.02835415, 0.026063, 0.0763953, 0.0002593962
 168854098, -0.03430517, 0.02199101, 0.04803584, 0.0002593962
 168954058, -0.02850327, 0.01750832, 0.09039741, 0.0002593962
 169054018, -0.02352788, 0.01989308, 0.1160267, 0.0002593962
 169173970, -0.02361833, 0.02787283, 0.1627123, 0.0003112754
 169273930, -0.0103021, 0.006857, 0.1486248, 0.0002593962
 169373890, -0.0137819, 0.007920541, 0.09823526, 0.0002593962
 169473850, -0.01541255, 0.004202094, 0.08319185, 0.0002593962
 169573810, -0.01021863, 0.02093603, 0.04378722, 0.0002593962
 169673770, -0.008543573, 0.02518303, 0.04471838, 0.0002593962
 169773730, -0.0140301, 0.01911978, 0.027306, 0.0002593962
 169873690, -0.01263053, 0.01175797, 0.02615866, 0.0002593962
 169973650, -0.0167101, 0.003452968, 0.06975988, 0.0002593962
 170073610, -0.01716422, 0.00161122, 0.09898642, 0.0002593962
 170173570, -0.01486119, 0.0156259, 0.07985885, 0.0002593962
 170273530, -0.003693646, 0.02126006, 0.06174619, 0.0002593962
 170373490, -0.00511333, 0.01829818, 0.07936438, 0.0002593962
 170474283, -0.003023077, -0.001904929, 0.0943485, 0.0002615578
 170574243, 1.304396E-05, 0.002855748, 0.07260396, 0.0002593962
 170674203, -0.005479259, -0.000517821, 0.05107758, 0.0002593962
 170774163, -0.003631736, -0.001265285, 0.02946725, 0.0002593962
 170874123, -0.004797281, 0.003195368, -0.01003336, 0.0002593962
 170974083, -0.008360364, 0.01825941, -0.001005219, 0.0002593962
 171074043, -0.004497899, 0.02061558, 0.04666497, 0.0002593962
 171174003, -0.003615448, 0.01219698, 0.03717608, 0.0002593962
 171293955, -0.01039954, 0.008829542, 0.03355186, 0.0003112754
 171393915, -0.005423425, 0.01111162, 0.02380699, 0.0002593962
 171493875, -0.004697768, 0.008874197, 0.05219728, 0.0002593962
 171593835, 0.0005262732, 0.007761285, 0.05804248, 0.0002593962
 171693795, 0.0008055263, 0.02707155, 0.03161521, 0.0002593962
 171793755, -0.001704209, 0.02620932, 0.00871487, 0.0002593962
 171893715, -0.00700719, 0.02295286, 0.03072711, 0.0002593962
 171993675, -0.004536077, 0.005443682, 0.02345932, 0.0002593962
 172093635, -0.0002572778, -0.004919622, 0.01422806, 0.0002593962
 172193595, 0.002048577, -0.0004762658, 0.02583571, 0.0002593962
 172293555, 0.005691695, 0.00515152, 0.01534887, 0.0002593962
 172393515, 0.001519601, 0.007572978, 0.02186411, 0.0002593962
 172493475, -0.003757001, 0.007013745, 0.001455211, 0.0002593962
 172594268, -0.004224891, -0.001986919, 0.01039401, 0.0002615578
 172694228, 0.003329292, -0.00155214, -0.009395283, 0.0002593962
 172794188, 0.003586804, 0.01626977, 0.01733003, 0.0002593962
 172894148, 0.001904047, 0.0243156, 0.04945653, 0.0002593962
 172994108, 0.007226742, 0.02567392, 0.03802871, 0.0002593962
 173094068, 0.00225603, 0.01317261, 0.03986394, 0.0002593962
 173194028, 0.002194459, 0.01230921, 0.006078214, 0.0002593962
 173313980, 0.006326716, 0.01308981, 0.0244948, 0.0003112754
 173413940, 0.004850989, 0.01229585, 0.00211428, 0.0002593962
 173513900, 0.005296714, 0.02127223, -0.009959613, 0.0002593962
 173613860, 0.002005082, 0.02232119, -0.01215301, 0.0002593962
 173713820, 0.003790379, 0.01493175, -0.01110369, 0.0002593962
 173813780, 0.002000135, 0.006912987, -0.02700479, 0.0002593962
 173913740, 0.002867644, 0.01568617, -0.01429848, 0.0002593962
 174013700, 0.00128867, 0.01706201, 0.01617451, 0.0002593962
 174113660, 0.007166178, 0.0122321, 0.02710964, 0.0002593962
 174213620, 0.004673539, 0.02094398, 0.0110551, 0.0002593962
 174313580, 0.002516288, 0.01848971, -0.007298925, 0.0002593962
 174413540, 0.006096633, 0.01874495, -0.01030971, 0.0002593962
 174513500, -0.001170755, 0.009873733, 0.01696265, 0.0002593962
 174614293, -0.004035583, 0.002970247, 0.02034411, 0.0002615578
 174714253, -0.002546288, 0.0004300866, 0.02853283, 0.0002593962
 174814213, 0.007153461, -0.002054976, 0.02859562, 0.0002593962
 174914173, 0.01301296, 0.005195537, 0.005799662, 0.0002593962
 175014133, 0.01396236, 0.007272271, 0.02119371, 0.0002593962
 175114093, 0.01458281, 0.00652988, 0.02032633, 0.0002593962
 175214053, 0.01010977, 0.004224585, 0.009305902, 0.0002593962
 175314013, 0.01329595, 0.01379075, -0.01847142, 0.0002593962
 175433965, 0.02223691, 0.01451495, 0.01210014, 0.0003112754
 175533925, 0.008395866, 0.009902263, -0.02578709, 0.0002593962
 175633885, 0.003115525, 0.009403829, -0.03718426, 0.0002593962
 175733845, 0.00429255, 0.01400463, -0.02347602, 0.0002593962
 175833805, 0.002071967, 0.0158445, 0.002563805, 0.0002593962
 175933765, 0.004156181, 0.002337521, 0.01848138, 0.0002593962
 176033725, 0.01736347, 0.005673798, 0.01014261, 0.0002593962
 176133685, 0.01300659, -0.0016965, -0.02072646, 0.0002593962
 176233645, 0.008345641, 0.001234828, -0.03965062, 0.0002593962
 176333605, 0.01208231, 0.001064137, -0.0310962, 0.0002593962
 176433565, 0.009026244, -0.00550578, -0.01535464, 0.0002593962
 176533525, 0.004152523, -0.00212664, 0.01587899, 0.0002593962
 176633485, 0.007153818, 0.006655646, -0.007332471, 0.0002593962
 176734278, 0.00481226, 0.01392265, -0.0257924, 0.0002615578
 176834238, 0.003556633, 0.01721301, 0.01664493, 0.0002593962
 176934198, 0.00559939, 0.01453132, 0.01929756, 0.0002593962
 177034158, 0.009016661, 0.00530125, 0.01852218, 0.0002593962
 177134118, 0.009087602, 0.004897123, -0.002676446, 0.0002593962
 177234078, 0.003821737, 0.01418904, 0.004004716, 0.0002593962
 177334038, 0.004612255, 0.006224995, 0.02198876, 0.0002593962
 177433998, -0.0004088018, -0.001928956, 0.001114761, 0.0002593962
 177553950, 0.008044761, -0.001071282, -0.005931845, 0.0003112754
 177653910, 0.008800623, -0.001905229, -0.02410145, 0.0002593962
 177753870, 0.006719219, 0.01123613, -0.0286133, 0.0002593962
 177853830, 0.01032734, 0.005289554, -0.04610036, 0.0002593962
 177953790, 0.007650287, 1.486993E-05, -0.05037114, 0.0002593962
 178053750, 0.0007889761, -0.003113696, -0.0335689, 0.0002593962
 178153710, 0.003949962, 0.007040471, 0.0139333, 0.0002593962
 178253670, 0.003368293, 0.008026117, 0.02458977, 0.0002593962
 178353630, 0.005878975, 0.006236385, 0.01889753, 0.0002593962
 178453590, 0.009679336, 0.005413175, 0.01440736, 0.0002593962
 178553550, 0.007641297, 0.004190401, 0.01364989, 0.0002593962
 178653510, 0.002471605, 0.01211007, -0.001524554, 0.0002593962
 178754303, 0.005519559, 0.01703997, -0.003509262, 0.0002593962
 178854263, 0.01177023, 0.02296401, 0.01624582, 0.0002615578
 178954223, 0.01154774, 0.01808233, 0.007480299, 0.0002593962
 179054183, 0.01727131, 0.01780071, 0.005958452, 0.0002593962
 179154143, 0.01274199, 0.03113792, -0.02182525, 0.0002593962
 179254103, 0.01371886, 0.02530055, -0.03682613, 0.0002593962
 179354063, 0.009542508, 0.02497465, -0.0299881, 0.0002593962
 179454023, 0.00771177, 0.01558586, 0.01876278, 0.0002593962
 179573975, 0.009181688, 0.03168364, -0.01010984, 0.0003112754
 179673935, 0.002680209, 0.02055559, -0.03352852, 0.0002593962
 179773895, 0.003579365, 0.01069565, -0.02800537, 0.0002593962
 179873855, -0.0004148171, 0.01493296, -0.03007646, 0.0002593962
 179973815, 0.001973697, 0.02406567, -0.02311668, 0.0002593962
 180073775, 0.00690299, 0.0290606, 0.01424829, 0.0002593962
 180173735, 0.006840721, 0.01722367, 0.003704505, 0.0002593962
 180273695, 0.009690257, 0.02306859, -0.0004384384, 0.0002593962
 180373655, 0.0155989, 0.02549346, -0.005002957, 0.0002593962
 180473615, 0.009663638, 0.05015792, -0.02247655, 0.0002593962
 180573575, 0.003023714, 0.0919724, -0.003225972, 0.0002593962
 180673535, 0.002936191, 0.1419068, -0.02785538, 0.0002593962
 180773495, 0.0120794, 0.1728557, -0.01861222, 0.0002593962
 180874288, 0.01568047, 0.4932247, 0.06479549, 0.0002615578
 180974248, 0.01947051, 0.4632223, 0.06132458, 0.0002593962
 181074208, 0.01290932, 0.1408021, -0.1951046, 0.0002593962
 181174168, -0.01034597, -0.2111756, -0.2635385, 0.0002593962
 181274128, -0.01460094, -0.3561146, -0.03401583, 0.0002593962
 181374088, -0.003667293, -0.2647651, 0.1887627, 0.0002593962
 181474048, 0.005990853, -0.06496233, 0.1246641, 0.0002593962
 181574008, 0.006599688, 0.1194619, 0.009256292, 0.0002593962
 181693960, 0.005636078, 0.2806859, 0.04082648, 0.0003112754
 181793920, 0.003986916, 0.2004581, 0.04990186, 0.0002593962
 181893880, 0.002686772, 0.1008003, -0.0009410526, 0.0002593962
 181993840, -0.001132337, -0.01200124, -0.05292818, 0.0002593962
 182093800, 0.0118588, -0.08418202, -0.03078109, 0.0002593962
 182193760, 0.00343952, -0.09595503, 0.0214723, 0.0002593962
 182293720, 0.004731663, -0.05197562, -0.001665841, 0.0002593962
 182393680, -4.301444E-05, 0.005707651, -0.003048602, 0.0002593962
 182493640, 0.001732672, 0.04486182, -0.01161086, 0.0002593962
 182593600, -0.002279815, 0.06688176, -0.001336536, 0.0002593962
 182693560, 0.006131838, 0.06398407, -0.02209312, 0.0002593962
 182793520, 0.005040094, 0.04091053, -0.03326704, 0.0002593962
 182893480, 0.003976837, 0.003245447, -0.002922119, 0.0002593962
 182994273, 0.003682874, -0.02230676, 0.003474055, 0.0002615578
 183094233, -0.007912818, -0.01966786, 0.02618769, 0.0002593962
 183194193, 0.006372152, -0.006236884, -0.004727084, 0.0002593962
 183294153, 0.008747049, 0.008722471, -0.0477706, 0.0002593962
 183394113, 0.001457926, 0.03100536, -0.01308739, 0.0002593962
 183494073, 0.003537023, 0.03391825, -0.009809697, 0.0002593962
 183594033, 0.004119377, 0.02599205, -0.01722455, 0.0002593962
 183693993, -0.0001466547, 0.02008469, 0.02503458, 0.0002593962
 183813945, 0.002444031, 0.02252294, 0.004300438, 0.0003112754
 183913905, -0.001720588, 0.008258903, 0.008400636, 0.0002593962
 184013865, -0.001170664, 0.004785703, -0.009647314, 0.0002593962
 184113825, -0.003133096, 0.00827963, -0.03969159, 0.0002593962
 184213785, -0.0220628, 0.01633752, -0.01720448, 0.0002593962
 184313745, -0.04035483, 0.02127155, -0.01991139, 0.0002593962
 184413705, -0.03481643, 0.02341634, -0.009581851, 0.0002593962
 184513665, -0.03527244, 0.02390845, 0.01944193, 0.0002593962
 184613625, -0.03525421, 0.01511105, 0.03425677, 0.0002593962
 184713585, -0.03301124, 0.01251331, 0.02754771, 0.0002593962
 184813545, -0.03453585, 0.01364879, -0.004920936, 0.0002593962
 184913505, -0.02677884, 0.01610537, 0.01317114, 0.0002593962
 185014298, -0.02761745, 0.001828467, -0.01686016, 0.0002593962
 185114258, -0.02452759, -0.002921139, 0.001583157, 0.0002615578
 185214218, -0.02149182, -0.003238541, 0.05157706, 0.0002593962
 185314178, -0.02005337, 0.0002160624, 0.04641703, 0.0002593962
 185414138, -0.02390616, 0.003315477, -0.03116417, 0.0002593962
 185514098, -0.02438272, 0.004219633, -0.02282567, 0.0002593962
 185614058, -0.01696896, -0.0007369132, 0.006438254, 0.0002593962
 185714018, -0.02264982, -0.01084856, -0.01288922, 0.0002593962
 185833970, -0.03430001, 4.222931E-05, -0.02844662, 0.0003112754
 185933930, -0.01926981, 0.0003464808, -0.0201012, 0.0002593962
 186033890, -0.02921056, 0.0002336833, -0.04241565, 0.0002593962
 186133850, -0.03033607, 0.0003295917, -0.02820557, 0.0002593962
 186233810, -0.02938042, 0.002262584, 0.007072613, 0.0002593962
 186333770, -0.02664832, 0.01698866, -0.002102125, 0.0002593962
 186433730, -0.03264169, 0.01247418, -0.01878944, 0.0002593962
 186533690, -0.02953601, 0.009635667, -0.0216707, 0.0002593962
 186633650, -0.02673274, 0.008295548, -0.03275665, 0.0002593962
 186733610, -0.02778092, 0.01097127, -0.03468895, 0.0002593962
 186833570, -0.02838368, -0.004160493, -0.01700643, 0.0002593962
 186933530, -0.02929443, 0.001787206, -0.01083643, 0.0002593962
 187033490, -0.0270319, 0.0078164, 0.02658672, 0.0002593962
 187134283, -0.02673651, -0.002405497, 0.01848877, 0.0002615578
 187234243, -0.02725829, -0.01061398, 0.02044378, 0.0002593962
 187334203, -0.02321082, -0.01097468, -0.007458182, 0.0002593962
 187434163, -0.02263193, -0.003808711, -0.01558431, 0.0002593962
 187534123, -0.02438617, 0.003645457, -0.01305176, 0.0002593962
 187634083, -0.02559579, 0.01137218, -0.02005148, 0.0002593962
 187734043, -0.02061927, -0.004091064, 0.02674435, 0.0002593962
 187834003, -0.02088316, -0.01207253, 0.04767621, 0.0002593962
 187953955, -0.02432376, -0.014394, 0.06669074, 0.0003112754
 188053915, -0.0156298, -0.01009715, -0.01116954, 0.0002593962
 188153875, -0.02210994, 0.004809561, -0.04039273, 0.0002593962
 188253835, -0.02140252, -0.001424283, -0.04184254, 0.0002593962
 188353795, -0.01731323, -0.005330756, 0.001612905, 0.0002593962
 188453755, -0.02418348, -0.007504183, 0.02033337, 0.0002593962
 188553715, -0.007299575, -0.003257598, -0.002296778, 0.0002593962
 188653675, -0.014757, -5.146186E-05, -0.02327912, 0.0002593962
 188753635, -0.01410271, -0.01833912, 0.05553064, 0.0002593962
 188853595, -0.01128675, -0.00583986, 0.1214817, 0.0002593962
 188953555, -0.00612471, 0.04034165, 0.09494202, 0.0002593962
 189053515, -0.00395669, 0.06777276, 0.07834639, 0.0002593962
 189153475, -0.00628398, 0.06745123, 0.0454613, 0.0002593962
 189254268, -0.00879992, 0.03754903, 0.05971711, 0.0002615578
 189354228, -0.01457996, 0.009646139, 0.01068023, 0.0002593962
 189454188, -0.007305639, -0.01167091, -0.04680154, 0.0002593962
 189554148, -0.01008897, -0.02598352, -0.04410986, 0.0002593962
 189654108, -0.006613547, -0.03023251, -0.0863901, 0.0002593962
 189754068, 0.006382946, -0.005374166, -0.04224747, 0.0002593962
 189854028, 0.006501857, 0.01249457, -0.0304032, 0.0002593962
 189973980, -0.01692611, 0.00408911, -0.02311154, 0.0003112754
 190073940, -0.01666165, -0.00931822, -0.01620103, 0.0002593962
 190173900, -0.01552293, -0.01478654, -0.03888763, 0.0002593962
 190273860, -0.01810379, -0.02333954, 0.005163596, 0.0002593962
 190373820, -0.017458, 0.01923653, 0.02034868, 0.0002593962
 190473780, -0.006900969, 0.02703912, 0.02250397, 0.0002593962
 190573740, -0.0103637, 0.008641721, 0.02802665, 0.0002593962
 190673700, -0.007098538, -0.02859026, 0.03206717, 0.0002593962
 190773660, -0.03248079, -0.02077201, -0.03288871, 0.0002593962
 190873620, -0.02208057, 0.0165843, -0.04633432, 0.0002593962
 190973580, 0.002652712, 0.03863977, -0.02606278, 0.0002593962
 191073540, 0.007791473, 0.02454963, -0.02230118, 0.0002593962
 191173500, -0.009785713, -0.001506971, -0.03821193, 0.0002593962
 191274293, -0.01821703, -0.0005585713, -0.03004568, 0.0002615578
 191374253, -0.02481826, -0.01536864, 0.002336873, 0.0002593962
 191474213, -0.02031764, -0.007483047, 0.01908265, 0.0002593962
 191574173, -0.0273535, -0.004768609, -0.01994061, 0.0002593962
 191674133, -0.02270199, -0.0009635143, 0.0003824135, 0.0002593962
 191774093, -0.03904606, 0.01850569, -0.0208969, 0.0002593962
 191874053, -0.008809642, 0.02513986, -0.003247506, 0.0002593962
 191974013, -0.0001596396, 0.01772347, -0.002980985, 0.0002593962
 192093965, -0.006692339, 0.006281392, -0.02354851, 0.0003112754
 192193925, -0.009632939, -0.005247371, -0.01033521, 0.0002593962
 192293885, -0.01243316, -0.0004617722, -0.00166668, 0.0002593962
 192393845, -0.01227711, 0.01297277, -0.03939015, 0.0002593962
 192493805, -0.003883246, 0.01282022, -0.03710581, 0.0002593962
 192593765, -0.00903107, 0.004924511, -0.01296459, 0.0002593962
 192693725, -0.0160573, -0.004580782, 0.003822437, 0.0002593962
 192793685, -0.01699046, -0.006697726, 0.02526133, 0.0002593962
 192893645, -0.0184734, -0.00468842, -0.002871833, 0.0002593962
 192993605, -0.01594956, -0.004724638, -0.02690253, 0.0002593962
 193093565, -0.01785682, 0.01395785, -0.0214208, 0.0002593962
 193193525, -0.01422365, 0.01689539, -0.01210905, 0.0002593962
 193293485, -0.02161989, 0.005511382, 0.000890776, 0.0002593962
 193394278, -0.01806525, -0.009147271, -0.03257033, 0.0002615578
 193494238, -0.01564704, -0.02135228, -0.04577749, 0.0002593962
 193594198, -0.01388696, 0.00158725, -0.005304646, 0.0002593962
 193694158, -0.01982153, 0.0178904, 0.009568268, 0.0002593962
 193794118, -0.01570648, 0.02559807, 0.02364206, 0.0002593962
 193894078, -0.01409641, 0.00640264, 0.0274536, 0.0002593962
 193994038, -0.01354313, -0.01996705, -0.004760478, 0.0002593962
 194093998, -0.02122539, -0.007180036, -0.06781146, 0.0002593962
 194213950, -0.01764376, 0.02085604, -0.06670774, 0.0003112754
 194313910, -0.01139486, 0.002536552, 0.008104781, 0.0002593962
 194413870, -0.01943136, -0.01258618, 0.00952434, 0.0002593962
 194513830, -0.02766887, -0.008649405, 0.02082621, 0.0002593962
 194613790, -0.02999097, 0.01595023, -0.03805459, 0.0002593962
 194713750, -0.02190707, 0.02146372, -0.01123314, 0.0002593962
 194813710, -0.02135583, -0.0006525452, -0.01065544, 0.0002593962
 194913670, -0.01722785, -0.01089913, -0.00811563, 0.0002593962
 195013630, -0.01270741, -0.01300422, -0.0367998, 0.0002593962
 195113590, -0.02372796, -0.009295775, -0.0517388, 0.0002593962
 195213550, -0.01225953, -0.005010229, -0.0004939581, 0.0002593962
 195313510, -0.006683699, 0.002023542, 0.04485742, 0.0002593962
 195414303, -0.01453066, 0.003790489, 0.05151775, 0.0002593962
 195514263, -0.02627145, 0.003174833, -0.01662455, 0.0002615578
 195614223, -0.0279241, 0.008039143, -0.05982216, 0.0002593962
 195714183, -0.01800886, 0.01318962, 0.0007976401, 0.0002593962
 195814143, -0.01699662, -0.001757879, 0.03540566, 0.0002593962
 195914103, -0.01652204, -0.008546151, 0.04840592, 0.0002593962
 196014063, -0.01232542, -0.01674597, -0.001580455, 0.0002593962
 196114023, -0.01407238, -0.01582339, -0.007977784, 0.0002593962
 196233975, -0.01762622, -0.02169287, 0.0189571, 0.0003112754
 196333935, -0.01150928, -0.005178817, 0.004540038, 0.0002593962
 196433895, -0.008197825, 0.01541066, 0.006858484, 0.0002593962
 196533855, -0.00347585, 0.01907804, 0.01054569, 0.0002593962
 196633815, -0.0007442781, 0.02600123, 0.004369408, 0.0002593962
 196733775, -0.005536439, 0.01850769, 0.002611594, 0.0002593962
 196833735, -0.007605847, 0.0136436, 0.009577352, 0.0002593962
 196933695, -0.00397078, -0.01367541, 0.02718452, 0.0002593962
 197033655, -0.008530117, -0.02378109, 0.01466273, 0.0002593962
 197133615, -0.00726134, -0.01683569, 0.003644829, 0.0002593962
 197233575, -0.007909804, -0.01519578, 0.001799722, 0.0002593962
 197333535, -0.01324757, -0.004603598, 0.004748285, 0.0002593962
 197433495, -0.00909868, -0.005561144, -0.01008496, 0.0002593962
 197534288, -0.002208606, 0.009106367, 0.01142329, 0.0002615578
 197634248, -0.003226683, 0.01779178, 0.01795303, 0.0002593962
 197734208, -0.006303072, 0.02183303, -0.02450071, 0.0002593962
 197834168, -0.01030755, 0.01538932, -0.02397988, 0.0002593962
 197934128, 0.0003473412, -0.003082435, 0.003272349, 0.0002593962
 198034088, -0.006194562, -0.01914929, 0.008991125, 0.0002593962
 198134048, -0.003347778, -0.02395784, -0.0181492, 0.0002593962
 198234008, -0.01315639, -0.01345267, -0.02502844, 0.0002593962
 198353960, -0.005505413, 0.008532015, 0.007250297, 0.0003112754
 198453920, -0.005920254, 0.007175655, -0.02165249, 0.0002593962
 198553880, -0.03720311, 0.008013207, 0.01965318, 0.0002593962
 198653840, -0.01969548, 0.008221492, 0.03364994, 0.0002593962
 198753800, -0.01223593, 0.01356997, 0.02956029, 0.0002593962
 198853760, -0.003553744, 0.01627754, 0.01532867, 0.0002593962
 198953720, -0.005508975, 0.009192062, -0.05278571, 0.0002593962
 199053680, -0.01355829, -0.01611405, -0.05391602, 0.0002593962
 199153640, -0.0135675, -0.02572644, 0.003429576, 0.0002593962
 199253600, -0.01011426, -0.0238764, 0.03603626, 0.0002593962
 199353560, -0.008520961, -0.00397416, 0.02620485, 0.0002593962
 199453520, -0.006046849, 0.03217208, 0.03758382, 0.0002593962
 199553480, -0.007028782, 0.03189652, 0.03013343, 0.0002593962
 199654273, -0.002529758, 0.02652336, 0.009472066, 0.0002615578
 199754233, -0.00939835, 0.00374521, -0.01257719, 0.0002593962
 199854193, -0.009081208, -0.003518203, -0.005181509, 0.0002593962
 199954153, -0.006357194, -0.0148895, 0.01827769, 0.0002593962
 200054113, 0.01059013, -0.0216413, 0.03181403, 0.0002593962
 200154073, 0.001445821, -0.0189593, 0.02183538, 0.0002593962
 200254033, -0.00175385, -0.01900974, -0.01943562, 0.0002593962
 200353993, 0.002544249, 0.000395028, -0.007003909, 0.0002593962
 200473945, -0.007156275, 0.03445345, 0.01223228, 0.0003112754
 200573905, -0.00231166, 0.03382077, -0.03475625, 0.0002593962
 200673865, 0.0002547442, 0.008735555, -0.05855865, 0.0002593962
 200773825, 0.002000716, -0.002400841, 0.007687878, 0.0002593962
 200873785, 0.0003596893, -0.007147349, 0.02174301, 0.0002593962
 200973745, -0.001245978, 0.001434717, 0.02216912, 0.0002593962
 201073705, -0.009432259, 0.0005822097, -0.0343174, 0.0002593962
 201173665, -0.007125642, -0.0004404987, -0.01511258, 0.0002593962
 201273625, -0.005456939, -0.002833425, 0.04247927, 0.0002593962
 201373585, -0.004804434, 0.008146187, 0.04707014, 0.0002593962
 201473545, -0.005059645, 0.003622466, -0.01505659, 0.0002593962
 201573505, -0.006372727, 0.006851258, -0.0691853, 0.0002593962
 201674298, -0.005592191, 0.007060914, 0.002733853, 0.0002593962
 201774258, -0.005702396, 0.006870394, 0.01241141, 0.0002615578
 201874218, -0.004457818, 0.01328958, 0.02477215, 0.0002593962
 201974178, 0.0002160627, 0.00956222, 0.03558446, 0.0002593962
 202074138, -0.002665406, 0.01127059, 0.01312333, 0.0002593962
 202174098, -0.001902701, 0.003628676, -0.006820372, 0.0002593962
 202274058, 0.002532016, 0.01592463, -0.01038294, 0.0002593962
 202374018, -0.0004837147, 0.01770717, 0.01224047, 0.0002593962
 202493970, -0.002640457, 0.007650112, -0.001375602, 0.0003112754
 202593930, -0.0001274488, -0.01509244, 0.01313412, 0.0002593962
 202693890, -0.001227952, -0.02290491, 0.001435716, 0.0002593962
 202793850, -0.006014833, -0.02571121, 0.008137727, 0.0002593962
 202893810, -0.0005331156, -0.01263351, -0.01406457, 0.0002593962
 202993770, 0.0007702873, 0.01207471, -0.00265678, 0.0002593962
 203093730, -0.001683214, 0.03412045, 0.0257472, 0.0002593962
 203193690, -0.003301087, 0.01904341, 0.001139929, 0.0002593962
 203293650, -0.002384787, 0.006500918, -0.01333268, 0.0002593962
 203393610, -0.005552961, 0.002550018, 0.003688213, 0.0002593962
 203493570, -8.585611E-05, 0.01130113, -0.02672403, 0.0002593962
 203593530, 0.006456594, 0.0005830592, 0.009857391, 0.0002593962
 203693490, 0.01093772, 0.0004176892, 0.05421792, 0.0002593962
 203794283, 0.004685427, -0.005513259, 0.02772483, 0.0002615578
 203894243, 0.003430606, -0.009232705, 0.0003537955, 0.0002593962
 203994203, 0.0002528489, -0.01069335, 0.01250258, 0.0002593962
 204094163, -0.004217711, -0.003283992, 0.01240319, 0.0002593962
 204194123, 0.004761485, 0.006409888, 0.001326793, 0.0002593962
 204294083, 0.007013023, 0.003432165, -0.03301958, 0.0002593962
 204394043, -0.000874747, 0.006350093, -0.02461473, 0.0002593962
 204494003, -0.001174729, 0.009745521, -0.01466404, 0.0002593962
 204613955, -0.003743273, 0.003678203, -0.01524033, 0.0003112754
 204713915, -0.01083685, -0.003062174, -0.01063827, 0.0002593962
 204813875, -0.006134304, -0.01014909, 0.003560587, 0.0002593962
 204913835, -0.005146661, -0.001908474, -0.002931633, 0.0002593962
 205013795, -0.004709178, 0.009214219, 0.01841583, 0.0002593962
 205113755, -0.006645287, 0.01707357, 0.009621014, 0.0002593962
 205213715, -0.0104459, 0.01433618, -0.03898117, 0.0002593962
 205313675, -0.005263311, 0.005311268, -0.03571786, 0.0002593962
 205413635, -0.006436992, -0.002208924, 0.03667426, 0.0002593962
 205513595, -0.0003758305, -0.009382419, 0.03497687, 0.0002593962
 205613555, -0.0003012133, 0.001842762, 0.03775208, 0.0002593962
 205713515, -0.003024797, 0.007925793, 0.0382861, 0.0002593962
 205813475, 0.002647264, -0.006890859, 0.0163227, 0.0002593962
 205914268, 0.001074581, 0.002074324, -0.02070864, 0.0002615578
 206014228, -0.004294024, 0.00146008, -0.05299339, 0.0002593962
 206114188, -3.256288E-05, -0.01269227, -0.0160913, 0.0002593962
 206214148, 0.00411846, -0.010511, -0.00918061, 0.0002593962
 206314108, 0.004568387, 0.001697151, 0.02893766, 0.0002593962
 206414068, 0.004242126, 0.0109362, 0.02421084, 0.0002593962
 206514028, -0.00189931, 0.01214697, 0.01411268, 0.0002593962
 206633980, -0.002131775, 0.004201407, -0.01313647, 0.0003112754
 206733940, -0.003547908, -0.001406038, 0.009030447, 0.0002593962
 206833900, -0.007027261, 0.005026032, -0.0215475, 0.0002593962
 206933860, -0.007971904, 0.0008172454, -0.01857128, 0.0002593962
 207033820, -0.003396844, 0.00410122, 0.0009453518, 0.0002593962
 207133780, 0.001409448, 0.01234539, 0.00773724, 0.0002593962
 207233740, 0.006584505, 0.01543489, 0.0174591, 0.0002593962
 207333700, 0.001783672, 0.01235217, 0.01602986, 0.0002593962
 207433660, 0.002710564, 0.003382025, 0.0428081, 0.0002593962
 207533620, 0.002746324, -0.0006953912, -0.007721643, 0.0002593962
 207633580, -0.00592169, 0.00533457, -0.02438693, 0.0002593962
 207733540, -0.008842884, 0.01002151, -0.04348636, 0.0002593962
 207833500, -0.003193643, 0.002531275, -0.0190535, 0.0002593962
 207934293, -0.008322508, -0.001863529, 0.001789898, 0.0002615578
 208034253, -0.004474174, 0.0007361486, -0.001103331, 0.0002593962
 208134213, -0.003543553, 0.006545162, -0.02243297, 0.0002593962
 208234173, -0.007790094, 0.004892765, 0.01574669, 0.0002593962
 208334133, -0.001663306, 0.01177265, 0.02700208, 0.0002593962
 208434093, 9.734661E-05, 0.004611981, 0.03475184, 0.0002593962
 208534053, 0.004050609, 0.001196574, 0.02517491, 0.0002593962
 208634013, 0.0002171653, 0.01357123, -0.01594982, 0.0002593962
 208753965, -0.006201122, 0.02300898, -0.0297854, 0.0003112754
 208853925, -0.003709298, 0.01670802, -0.01697118, 0.0002593962
 208953885, -0.00719265, 0.009028911, -0.03756094, 0.0002593962
 209053845, -0.009389486, 0.001774383, -0.03716405, 0.0002593962
 209153805, -0.007009527, -0.002237787, -0.02581173, 0.0002593962
 209253765, -0.007977881, -0.01669748, 0.00867383, 0.0002593962
 209353725, -0.004137489, -0.02265094, 0.04357433, 0.0002593962
 209453685, -0.002652389, -0.002406696, 0.01494918, 0.0002593962
 209553645, -0.0041913, 0.003437837, 0.03747965, 0.0002593962
 209653605, -0.002349981, 0.002596599, 0.0184568, 0.0002593962
 209753565, -0.0007952049, 0.008175416, -0.005284865, 0.0002593962
 209853525, -0.002063007, 0.01693449, -0.0143908, 0.0002593962
 209953485, -0.0006664025, 0.01318557, 0.004989077, 0.0002593962
 210054278, -0.0006118083, 0.01272863, -0.01875003, 0.0002615578
 210154238, -0.003433172, 0.02093419, -0.01639844, 0.0002593962
 210254198, 0.006313366, -0.001289498, 0.03730185, 0.0002593962
 210354158, 0.003304329, -0.0178181, -0.008275325, 0.0002593962
 210454118, -0.001567437, -0.01391426, -0.007606686, 0.0002593962
 210554078, -0.005472866, -0.009894456, 0.01439584, 0.0002593962
 210654038, -0.0006066745, 0.002038295, -0.01009429, 0.0002593962
 210753998, 0.006115237, 0.0153708, -0.01553465, 0.0002593962
 210873950, 0.003963445, 0.0176434, -0.03739934, 0.0003112754
 210973910, 0.001607183, -0.0001087799, -0.01538457, 0.0002593962
 211073870, -0.002314003, -0.006778507, -0.01070713, 0.0002593962
 211173830, -0.0039123, -0.003586801, -0.007091717, 0.0002593962
 211273790, -0.007685617, -0.000179594, 0.001616098, 0.0002593962
 211373750, -0.001495693, 0.004142124, 0.002023412, 0.0002593962
 211473710, -0.006788029, 0.0004624941, 0.008746367, 0.0002593962
 211573670, -0.002857147, 0.004675545, 0.03279149, 0.0002593962
 211673630, -0.005831335, 0.005326643, 0.01336933, 0.0002593962
 211773590, -0.0002898623, 0.009817404, 0.001055209, 0.0002593962
 211873550, -0.006175914, 0.01412689, 0.0001114591, 0.0002593962
 211973510, -0.005596448, 0.003701238, -0.0336816, 0.0002593962
 212074303, 5.046718E-05, -0.0003549568, -0.05153623, 0.0002593962
 212174263, 0.000724062, 0.001450003, -0.01184484, 0.0002615578
 212274223, 0.002635645, -0.00178785, 0.02613913, 0.0002593962
 212374183, -0.0003293145, -0.01335488, 0.02840864, 0.0002593962
 212474143, -0.001320645, -0.004963735, 0.01787489, 0.0002593962
 212574103, -0.009665383, -0.0007299992, 0.03131305, 0.0002593962
 212674063, 0.0009682667, 0.01022374, -0.004330933, 0.0002593962
 212774023, -0.004299895, 0.006752827, 0.02001833, 0.0002593962
 212893975, -0.003471449, 0.009984866, -0.0146731, 0.0003112754
 212993935, -0.002759768, 0.00998823, -0.04280492, 0.0002593962
 213093895, -0.004333634, 0.01214083, -0.02762885, 0.0002593962
 213193855, -0.002585905, 0.009871318, -0.01426263, 0.0002593962
 213293815, -0.00367058, 0.008242663, 0.01565787, 0.0002593962
 213393775, -0.005343538, 0.00344807, -0.01349114, 0.0002593962
 213493735, -0.006473026, 0.003049875, -0.003418632, 0.0002593962
 213593695, 0.001046521, 0.001687844, 0.02328436, 0.0002593962
 213693655, -0.00587759, 0.01072068, 0.01924753, 0.0002593962
 213793615, -0.000919945, 0.01788242, 0.01902017, 0.0002593962
 213893575, -0.001986341, 0.01588641, 0.02056143, 0.0002593962
 213993535, -0.003950629, 0.008845503, 0.00827216, 0.0002593962
 214093495, -0.007845748, -0.006601625, -0.01627445, 0.0002593962
 214194288, -0.01013097, -0.009838264, -0.02469196, 0.0002615578
 214294248, -0.0002253709, -0.0007924263, -0.004927361, 0.0002593962
 214394208, 0.01142153, -0.003959223, 0.0556074, 0.0002593962
 214494168, 0.002516368, -0.01066873, 0.02855656, 0.0002593962
 214594128, 0.0005231766, 0.007325565, -0.02745203, 0.0002593962
 214694088, -0.002220121, 0.01020578, -0.05023665, 0.0002593962
 214794048, -0.008175612, 0.01188617, -0.01110116, 0.0002593962
 214894008, -0.005189765, 0.007537283, 0.03241551, 0.0002593962
 215013960, -0.005017305, 0.001959238, -0.03704222, 0.0003112754
 215113920, -0.005332498, 0.0041163, -0.02488672, 0.0002593962
 215213880, -0.004952965, -0.00122539, 0.01703143, 0.0002593962
 215313840, -0.004628105, 0.001472863, 0.03176128, 0.0002593962
 215413800, -0.005062561, 0.0009497568, -0.002361888, 0.0002593962
 215513760, -0.006440257, 0.01205862, -0.001429844, 0.0002593962
 215613720, -0.002467226, 0.007975284, 0.005996136, 0.0002593962
 215713680, -0.005524015, 0.00336293, -0.02408018, 0.0002593962
 215813640, -0.006068372, 0.01066077, -0.01211025, 0.0002593962
 215913600, -0.004670385, -2.491276E-05, -0.01650359, 0.0002593962
 216013560, -0.003497745, -0.009252953, 0.008364754, 0.0002593962
 216113520, -0.005535233, -0.006270875, 3.505219E-05, 0.0002593962
 216213480, -0.009038005, 0.00147766, 0.0233666, 0.0002593962
 216314273, -0.0006072334, -0.0006399393, -0.01752112, 0.0002615578
 216414233, -0.007645404, 0.007434609, -0.002818057, 0.0002593962
 216514193, -0.005790919, 0.007493145, -0.01606837, 0.0002593962
 216614153, -0.003965327, -0.0006490527, 0.01232589, 0.0002593962
 216714113, 0.008424236, -0.004424984, 0.01080455, 0.0002593962
 216814073, 0.002321418, -0.01683559, -0.02765797, 0.0002593962
 216914033, -0.001893638, -0.01132929, 0.008955328, 0.0002593962
 217013993, -0.001593961, 0.00172666, 0.02818111, 0.0002593962
 217133945, 0.002697537, 0.02866375, 0.02944147, 0.0003112754
 217233905, -0.0001428039, 0.0255648, -0.03067322, 0.0002593962
 217333865, -0.003547259, 0.01119902, -0.028524, 0.0002593962
 217433825, 0.0001387785, 0.005838074, 0.01587993, 0.0002593962
 217533785, 0.002984509, 0.01071318, 0.02774769, 0.0002593962
 217633745, 0.007189353, 0.01013697, 0.02846117, 0.0002593962
 217733705, 0.0005291071, 0.00314805, -0.003254161, 0.0002593962
 217833665, 0.003478554, 0.009280009, 0.006574603, 0.0002593962
 217933625, 0.0009599533, 0.00697718, 0.0200244, 0.0002593962
 218033585, -0.004450082, -0.0003048179, -0.03086261, 0.0002593962
 218133545, -0.005279775, -0.005584945, -0.01332893, 0.0002593962
 218233505, -0.004520274, 0.001552804, 0.02802817, 0.0002593962
 218334298, 0.001000554, 0.003004323, 0.02385256, 0.0002593962
 218434258, -0.003210298, -0.002607659, -0.004424961, 0.0002615578
 218534218, -0.0001610174, -0.0009013457, -0.00449427, 0.0002593962
 218634178, 0.0005953062, -0.003441431, -0.02267727, 0.0002593962
 218734138, 1.255253E-05, -0.006057646, -0.002164861, 0.0002593962
 218834098, 0.004755557, -0.004711243, 0.01469989, 0.0002593962
 218934058, 0.003386136, -0.007302675, -0.002181315, 0.0002593962
 219034018, 0.0001342985, -0.002614244, -0.02689761, 0.0002593962
 219153970, -0.001769911, 0.007952221, -0.001235639, 0.0003112754
 219253930, -0.007844429, 0.009356949, -0.02005788, 0.0002593962
 219353890, -0.005353143, 0.006726083, 0.03031422, 0.0002593962
 219453850, -0.002896885, 0.007609869, 0.04004955, 0.0002593962
 219553810, -0.000520078, 0.007669086, -0.03142376, 0.0002593962
 219653770, -0.006077151, 0.01428673, -0.04386399, 0.0002593962
 219753730, -0.006789888, 0.007958209, 0.0137509, 0.0002593962
 219853690, -0.002015134, 0.01188784, 0.02576108, 0.0002593962
 219953650, -0.001481753, 0.002979972, 0.002797848, 0.0002593962
 220053610, -0.0007602392, -0.009295842, -0.00903549, 0.0002593962
 220153570, -0.006291561, -0.008379021, -0.01640987, 0.0002593962
 220253530, -0.007808072, 0.0002111655, -0.01997389, 0.0002593962
 220353490, -0.00288009, 0.01083541, 0.01204297, 0.0002593962
 220454283, -0.005862012, 0.009831161, 0.02847784, 0.0002615578
 220554243, -0.004401195, -0.0007915962, -0.01515771, 0.0002593962
 220654203, -0.003117573, 0.01159314, -0.01056069, 0.0002593962
 220754163, -0.004554707, 0.01605895, 0.01027123, 0.0002593962
 220854123, -0.002724798, 0.009820614, -0.02178714, 0.0002593962
 220954083, -0.006511578, 0.005713977, 0.001094085, 0.0002593962
 221054043, 0.001622082, 0.00326827, 0.0055597, 0.0002593962
 221154003, 0.003010199, -0.01276078, -0.03965672, 0.0002593962
 221273955, 0.001108873, -0.03147102, -0.0186909, 0.0003112754
 221373915, -0.003211588, -0.003602284, 0.03903507, 0.0002593962
 221473875, 0.002381257, 0.01325825, 0.06164921, 0.0002593962
 221573835, -0.003187116, 0.01152693, 0.02258551, 0.0002593962
 221673795, -0.006019007, 0.01207435, -0.009537037, 0.0002593962
 221773755, -0.002868224, 0.01156617, -0.0215558, 0.0002593962
 221873715, -0.005923545, 0.008913095, 0.01116288, 0.0002593962
 221973675, -0.002269682, -0.002701035, 0.00176281, 0.0002593962
 222073635, -0.0008949079, -0.005292832, -0.02037692, 0.0002593962
 222173595, -0.007478868, 0.001123725, -0.002409219, 0.0002593962
 222273555, -0.005097795, -0.0054253, -0.02893575, 0.0002593962
 222373515, -0.004604264, -0.01232835, -0.01710328, 0.0002593962
 222473475, -0.007555996, -0.009457701, 0.0009882118, 0.0002593962
 222574268, -0.004203458, 0.02022689, 0.01265291, 0.0002615578
 222674228, -0.005094774, 0.008268478, 0.03508508, 0.0002593962
 222774188, 0.0001301626, 0.01079958, 0.0149377, 0.0002593962
 222874148, 0.002784476, 0.004832453, 0.004644777, 0.0002593962
 222974108, -0.001322239, 0.00316922, 0.001978559, 0.0002593962
 223074068, -0.0002672879, -0.004827322, -0.01337995, 0.0002593962
 223174028, -0.003714292, -0.002768789, -0.01645028, 0.0002593962
 223293980, -0.002478812, -0.008311078, -0.002251458, 0.0003112754
 223393940, -0.004592335, 0.003272262, -0.01539076, 0.0002593962
 223493900, -0.006004728, 0.01186077, -0.008179576, 0.0002593962
 223593860, -0.004721048, 0.0108573, 0.01524463, 0.0002593962
 223693820, -0.002940926, 0.0177044, 0.02048085, 0.0002593962
 223793780, -0.003510578, 0.01598786, -0.006543727, 0.0002593962
 223893740, 0.001172724, 0.009557705, -0.001485268, 0.0002593962
 223993700, -0.002403891, 0.005317748, -0.009926733, 0.0002593962
 224093660, -0.003757502, 8.528726E-05, 0.03150575, 0.0002593962
 224193620, -0.002275987, 0.003772643, 0.02746946, 0.0002593962
 224293580, 0.0007134813, 0.02020792, 0.01412854, 0.0002593962
 224393540, -0.000667464, 0.01483033, -0.03121074, 0.0002593962
 224493500, -0.00122199, 0.001218823, -0.01156504, 0.0002593962
 224594293, -0.005629244, -0.009690274, 0.000360936, 0.0002615578
 224694253, -0.0006645537, -0.01027516, -0.01412417, 0.0002593962
 224794213, -0.00826594, -0.007388829, -0.04428213, 0.0002593962
 224894173, -0.008108322, -0.004055642, -0.03760174, 0.0002593962
 224994133, -0.006962058, 0.008667415, -0.008010263, 0.0002593962
 225094093, 0.004678579, 0.01604461, 0.03866781, 0.0002593962
 225194053, 0.006854771, 0.005809687, 0.03357071, 0.0002593962
 225294013, -0.00235705, 0.00238234, 0.004790144, 0.0002593962
 225413965, 9.287649E-05, 0.005243644, -0.009012708, 0.0003112754
 225513925, -0.002195729, 0.004535809, 0.04407642, 0.0002593962
 225613885, -0.003079353, -0.003593904, -0.009130019, 0.0002593962
 225713845, -0.001641607, 0.005160356, -0.02549922, 0.0002593962
 225813805, -0.0007020006, 0.01593906, 0.004303736, 0.0002593962
 225913765, -0.008568615, 0.01336334, -0.0155903, 0.0002593962
 226013725, -0.001874672, -0.006958247, 0.01024522, 0.0002593962
 226113685, -0.001155092, -0.01119854, 0.003666402, 0.0002593962
 226213645, -0.005036041, -0.001356872, -0.03049969, 0.0002593962
 226313605, -0.0008101453, 0.01572539, -0.007098342, 0.0002593962
 226413565, -0.001623025, 0.01152356, 0.01903173, 0.0002593962
 226513525, -0.001550095, -8.213441E-05, 0.01120013, 0.0002593962
 226613485, -0.002224788, 0.009608299, 0.01442032, 0.0002593962
 226714278, -0.001315341, 0.01328261, -0.03144196, 0.0002615578
 226814238, -0.00606756, -0.002647476, -0.005267734, 0.0002593962
 226914198, -0.005208618, -0.0127762, 0.01159892, 0.0002593962
 227014158, -0.007339448, -0.009667579, 0.004633976, 0.0002593962
 227114118, -0.004600719, -0.005481887, 0.01637207, 0.0002593962
 227214078, -0.001967324, 0.0008830372, 0.007358772, 0.0002593962
 227314038, -0.0005187183, 0.001577283, -0.03953829, 0.0002593962
 227413998, -0.004624426, 0.004131887, -0.01726435, 0.0002593962
 227533950, -0.00546397, 0.01194283, 0.009380554, 0.0003112754
 227633910, -0.002317341, 0.01039116, 0.007089953, 0.0002593962
 227733870, 0.0004723667, 0.02187254, -0.01569262, 0.0002593962
 227833830, 0.009018247, 0.01547625, 0.01139683, 0.0002593962
 227933790, 0.001912924, 0.01784299, 0.02554421, 0.0002593962
 228033750, -0.0004970977, 0.008827913, -0.001436984, 0.0002593962
 228133710, -0.001364463, 0.0102941, -0.0005278668, 0.0002593962
 228233670, -0.00693762, 0.004006782, 0.001860856, 0.0002593962
 228333630, -0.004362235, 0.005173217, 0.009103489, 0.0002593962
 228433590, -0.004309393, 0.007139604, -0.02329426, 0.0002593962
 228533550, -0.008425802, -0.003519449, -0.0240797, 0.0002593962
 228633510, -0.01009317, -0.01831025, -0.01933571, 0.0002593962
 228734303, -0.007226946, -0.01988787, 0.02154362, 0.0002593962
 228834263, -0.002993188, -0.003599961, 0.02444253, 0.0002615578
 228934223, -0.005911009, 0.0190958, -0.01240195, 0.0002593962
 229034183, -0.006289055, 0.01436398, -0.02169655, 0.0002593962
 229134143, -0.005214889, 0.01728299, 0.009883015, 0.0002593962
 229234103, -0.0005324344, 0.004466142, 0.04278136, 0.0002593962
 229334063, -0.00488472, -0.01270095, 0.0183392, 0.0002593962
 229434023, -0.005718394, -0.01448355, -0.01263821, 0.0002593962
 229553975, -0.005833345, -0.01887983, 0.009884874, 0.0003112754
 229653935, -0.001976329, -0.01026907, 0.002849631, 0.0002593962
 229753895, -0.00147751, 0.01388363, -0.0315061, 0.0002593962
 229853855, -0.005753858, 0.02088594, -0.04112798, 0.0002593962
 229953815, -0.0008969383, 0.01869549, -0.01422579, 0.0002593962
 230053775, -0.00337692, 0.009391212, 0.01682041, 0.0002593962
 230153735, -0.006581504, -0.009149374, 0.02732823, 0.0002593962
 230253695, -0.00404845, -0.01681314, 0.0271189, 0.0002593962
 230353655, -0.005931626, -0.0141685, 0.009637467, 0.0002593962
 230453615, -0.0009909547, -0.00559362, -0.01421058, 0.0002593962
 230553575, 0.009672585, -0.0004509776, 0.009521946, 0.0002593962
 230653535, -0.03930098, 0.00333795, 0.02574151, 0.0002593962
 230753495, -0.005809246, 0.000483441, -0.005494208, 0.0002593962
 230854288, 0.05879155, 0.00910792, -0.007874996, 0.0002615578
 230954248, 0.03542111, 0.01920386, -0.01603649, 0.0002593962
 231054208, 0.009845068, 0.02103557, -0.0157335, 0.0002593962
 231154168, -0.007595084, 0.01196055, -0.01772982, 0.0002593962
 231254128, -0.04487741, -0.009014889, 0.005158811, 0.0002593962
 231354088, -0.0214037, -0.001021861, 0.008429817, 0.0002593962
 231454048, -0.008100001, -0.001272392, -0.01909188, 0.0002593962
 231554008, -0.003370092, 0.001090266, 0.00833768, 0.0002593962
 231673960, 0.005982429, 0.007784104, 0.02229912, 0.0003112754
 231773920, 0.006625327, 0.001402208, 0.008235516, 0.0002593962
 231873880, 0.0005643921, 0.0005888485, -0.006318759, 0.0002593962
 231973840, -0.00401176, 0.004663082, 0.03025963, 0.0002593962
 232073800, -0.003187495, -0.002835001, 0.003698671, 0.0002593962
 232173760, -0.00136392, 0.0004337081, 0.001518481, 0.0002593962
 232273720, -0.004174889, 0.001339722, -0.0001449957, 0.0002593962
 232373680, -0.002104972, 0.002010121, 0.03018207, 0.0002593962
 232473640, 0.001983899, 0.00130322, 0.005656068, 0.0002593962
 232573600, -0.001656674, 0.0005601185, -0.04969475, 0.0002593962
 232673560, -0.005375894, 0.001847479, -0.04282301, 0.0002593962
 232773520, -0.007052221, 0.01140667, -0.05347852, 0.0002593962
 232873480, -0.01139023, 0.006285046, -0.01184579, 0.0002593962
 232974273, -0.005399291, 0.01498026, -0.005943166, 0.0002615578
 233074233, -0.005341027, 0.01590782, 0.01468872, 0.0002593962
 233174193, -0.001231613, 0.01085872, 0.01753443, 0.0002593962
 233274153, -0.002787915, 0.01334433, 0.008785633, 0.0002593962
 233374113, -0.008599216, 0.003150976, 0.05356884, 0.0002593962
 233474073, -0.005020162, -0.007023248, 0.03892094, 0.0002593962
 233574033, -0.001020422, -0.01054816, -0.01399941, 0.0002593962
 233673993, -0.0009473599, -0.005463514, -0.02488679, 0.0002593962
 233793945, -0.002581891, -0.0126364, 0.04470085, 0.0003112754
 233893905, -0.000791368, 0.01302417, 0.04546614, 0.0002593962
 233993865, 0.003775301, 0.02863736, -0.02440729, 0.0002593962
 234093825, 0.003743669, 0.02148751, -0.02621511, 0.0002593962
 234193785, -0.002170975, 0.01375101, -0.004782022, 0.0002593962
 234293745, -0.00203, 0.008959406, 0.01871561, 0.0002593962
 234393705, 0.001075305, 0.0006860765, 0.005465628, 0.0002593962
 234493665, -0.005500023, -0.006482197, -0.03493107, 0.0002593962
 234593625, -0.004431132, -0.01399186, -0.0164181, 0.0002593962
 234693585, -0.009270536, -0.01803303, 0.001594411, 0.0002593962
 234793545, -0.00355532, -0.01858169, 0.02092534, 0.0002593962
 234893505, -0.003500621, 0.006683345, 0.003622618, 0.0002593962
 234994298, -0.003052857, 0.02556249, -0.01928093, 0.0002593962
 235094258, -0.001044334, 0.01904552, -0.004801583, 0.0002615578
 235194218, -0.002211468, 0.007835897, 0.01022413, 0.0002593962
 235294178, -0.006533865, -0.002936247, -0.001111282, 0.0002593962
 235394138, -0.007012694, -0.0008299312, -0.0213981, 0.0002593962
 235494098, -0.004407214, -0.002031592, -0.01017039, 0.0002593962
 235594058, -0.003477063, 0.001635267, 0.04977895, 0.0002593962
 235694018, -0.002330457, -3.03381E-05, 0.02566068, 0.0002593962
 235813970, -0.001953022, 0.007763578, -0.001176611, 0.0003112754
 235913930, 0.0009162, 0.005219619, 4.624412E-05, 0.0002593962
 236013890, -0.001151368, 0.004666809, -0.009505874, 0.0002593962
 236113850, -0.001004112, 0.007040548, -0.01354345, 0.0002593962
 236213810, -0.003684087, 0.007390154, -0.03469537, 0.0002593962
 236313770, -0.002053284, 0.003546644, -0.05424687, 0.0002593962
 236413730, -0.00706702, 0.001636822, -0.02334055, 0.0002593962
 236513690, -0.004163227, 0.001477255, 0.01905591, 0.0002593962
 236613650, -0.002159885, 0.00469878, 0.03538422, 0.0002593962
 236713610, -0.001626863, 0.001733061, 0.0164677, 0.0002593962
 236813570, -0.002218849, -0.01499467, 0.006189063, 0.0002593962
 236913530, -0.005616066, -0.0004119395, 0.002712423, 0.0002593962
 237013490, 0.001591675, 0.01501992, 0.03085896, 0.0002593962
 237114283, -0.0009050205, 0.01702385, -0.02227748, 0.0002615578
 237214243, -0.005477714, 0.02511745, -0.04953949, 0.0002593962
 237314203, -0.0005730208, 0.0193238, 0.00584276, 0.0002593962
 237414163, -0.001998713, -0.00359956, 0.0291256, 0.0002593962
 237514123, -0.005354536, -0.01976646, -0.009206435, 0.0002593962
 237614083, -0.007787531, -0.01645668, 0.01584897, 0.0002593962
 237714043, -0.003619499, -0.003983475, 0.005428631, 0.0002593962
 237814003, -0.0009772504, 0.007865197, -0.02245333, 0.0002593962
 237933955, -0.000576107, 0.01837579, -0.0001748055, 0.0003112754
 238033915, -0.003450618, 0.01537215, 0.01408164, 0.0002593962
 238133875, -4.978466E-05, 0.00541151, 0.008573621, 0.0002593962
 238233835, -0.002656085, -0.006451995, -0.01088264, 0.0002593962
 238333795, -0.004227913, -0.004134522, 0.02005442, 0.0002593962
 238433755, -0.002090584, 0.001304721, -0.01942056, 0.0002593962
 238533715, -0.002282454, 0.0005061569, -0.02147114, 0.0002593962
 238633675, -0.004368819, 0.006382762, -0.0164922, 0.0002593962
 238733635, -0.001577274, 0.002759042, 0.01336558, 0.0002593962
 238833595, -0.004194312, 0.009054512, 0.04239261, 0.0002593962
 238933555, -0.001298802, 0.009945117, -6.712042E-06, 0.0002593962
 239033515, -0.001390081, 0.01526966, -0.04151443, 0.0002593962
 239133475, -0.005011987, 0.01407735, 0.01280632, 0.0002593962
 239234268, -0.0004656814, 0.001779769, 0.02253662, 0.0002615578
 239334228, -0.001003373, -0.00511717, 0.0137455, 0.0002593962
 239434188, -0.003102521, -0.003206265, 0.07136879, 0.0002593962
 239534148, 0.002639732, -0.00354891, 0.02214788, 0.0002593962
 239634108, -0.0008549576, 0.009494011, -0.02741771, 0.0002593962
 239734068, 0.0001955971, 0.02133639, -0.06534193, 0.0002593962
 239834028, -0.004245819, 0.0173665, -0.06093435, 0.0002593962
 239953980, -0.006711229, 0.004473363, -0.02961705, 0.0003112754
 240053940, -0.007784117, 0.000897318, 0.03650373, 0.0002593962
 240153900, -0.003041824, -0.003101842, 0.01621354, 0.0002593962
 240253860, -0.00612236, -0.01501122, 0.0006280679, 0.0002593962
 240353820, -0.003240049, -0.01704809, -0.02933642, 0.0002593962
 240453780, -0.001666626, -0.006253404, -0.0002047201, 0.0002593962
 240553740, -0.005156005, 0.007127034, 0.03572294, 0.0002593962
 240653700, 0.001750999, 0.01450404, 0.01904784, 0.0002593962
 240753660, 0.005634684, 0.01794557, 0.01071955, 0.0002593962
 240853620, -0.001452303, 0.01647358, -0.003273216, 0.0002593962
 240953580, -0.01122625, 0.01556793, -0.02428773, 0.0002593962
 241053540, -0.006691989, 0.01025409, 0.01919952, 0.0002593962
 241153500, -0.001562366, -0.0009715987, 0.01748841, 0.0002593962
 241254293, -0.003503494, -0.01165815, 0.00879998, 0.0002615578
 241354253, -0.002221639, -0.02135943, -0.01944558, 0.0002593962
 241454213, -0.006290098, -0.02038507, 0.003645897, 0.0002593962
 241554173, -0.0137235, -0.003599157, -0.03825424, 0.0002593962
 241654133, -0.01057156, 0.007510339, -0.002635892, 0.0002593962
 241754093, -0.001251275, 0.02009105, 0.07747629, 0.0002593962
 241854053, 0.0001534657, 0.02069343, 0.04495814, 0.0002593962
 241954013, 0.007359467, 0.009971987, -0.02749934, 0.0002593962
 242073965, -0.0008347399, 0.005239885, -0.0261781, 0.0003112754
 242173925, -0.004070972, -0.006531701, -0.01198145, 0.0002593962
 242273885, -0.006334138, 0.003936637, -0.02844498, 0.0002593962
 242373845, -0.002321477, 0.02150366, -0.02393226, 0.0002593962
 242473805, -0.004889023, 0.005603287, -0.002884378, 0.0002593962
 242573765, -0.001033679, 0.01426199, -0.0006865235, 0.0002593962
 242673725, -0.0009437897, 0.01083938, -0.00439225, 0.0002593962
 242773685, 0.0004004496, 0.006164813, 0.02948853, 0.0002593962
 242873645, 0.002557028, -0.004563015, -0.003859835, 0.0002593962
 242973605, -0.002411522, 0.002182925, 0.00316396, 0.0002593962
 243073565, 0.0007398267, 0.00483744, 0.05954422, 0.0002593962
 243173525, 0.005092549, -0.006478835, -0.005925545, 0.0002593962
 243273485, -0.002642905, -0.00732723, -0.03092816, 0.0002593962
 243374278, -0.001587902, 0.01471356, 0.006739625, 0.0002615578
 243474238, 0.001854775, 0.01449408, -0.01533341, 0.0002593962
 243574198, -0.002032551, 0.01462549, -0.01949777, 0.0002593962
 243674158, -0.00192667, 0.01565869, -0.03244087, 0.0002593962
 243774118, -0.002985026, 0.01445398, -0.04291015, 0.0002593962
 243874078, -0.002134966, 0.01216159, 0.0148281, 0.0002593962
 243974038, -0.005315601, 6.66345E-05, 0.04496862, 0.0002593962
 244073998, -0.005641171, -0.01110285, 0.03159248, 0.0002593962
 244193950, 0.0006545876, -0.02897735, 0.0373933, 0.0003112754
 244293910, -0.006921145, -0.02138704, -0.01616343, 0.0002593962
 244393870, -0.002720822, 0.001893963, -0.01664583, 0.0002593962
 244493830, 0.002764795, 0.02512549, -0.01485542, 0.0002593962
 244593790, 0.01965852, 0.01745082, -0.02887514, 0.0002593962
 244693750, 0.03532758, 0.04040539, 0.002374004, 0.0002593962
 244793710, 0.04352645, 0.1379274, -0.01493471, 0.0002593962
 244893670, -0.06240255, -0.4349531, -0.2025418, 0.0002593962
 244993630, -0.6510502, -1.208547, -0.003993329, 0.0002593962
 245093590, -0.9965565, -1.288145, 0.6230533, 0.0002593962
 245193550, -1.166263, -1.385741, 0.6360519, 0.0002593962
 245293510, -1.587969, -2.137929, 0.06354111, 0.0002593962
 245394303, -2.141371, -2.501529, -0.719981, 0.0002593962
 245494263, -2.31562, -1.912139, -1.184779, 0.0002615578
 245594223, -1.925768, -0.9491944, -0.976158, 0.0002593962
 245694183, -1.374053, -0.2732963, -0.4309785, 0.0002593962
 245794143, -0.9628021, 0.04637346, 0.04668103, 0.0002593962
 245894103, -0.7560002, 0.1531255, 0.3108, 0.0002593962
 245994063, -0.6899208, 0.1564792, 0.3893813, 0.0002593962
 246094023, -0.7018576, 0.1153174, 0.3516689, 0.0002593962
 246213975, -0.9163917, 0.07626031, 0.3028755, 0.0003112754
 246313935, -0.7875598, 0.03223097, 0.1389706, 0.0002593962
 246413895, -0.7865511, 0.03544216, 0.07125711, 0.0002593962
 246513855, -0.7534983, 0.0584867, 0.04544477, 0.0002593962
 246613815, -0.7052082, 0.08592696, 0.05410255, 0.0002593962
 246713775, -0.6603605, 0.1080106, 0.07701175, 0.0002593962
 246813735, -0.6279809, 0.1203617, 0.09701955, 0.0002593962
 246913695, -0.6099649, 0.1266395, 0.1046231, 0.0002593962
 247013655, -0.604799, 0.1298684, 0.09760174, 0.0002593962
 247113615, -0.6055431, 0.1343566, 0.07821248, 0.0002593962
 247213575, -0.6063346, 0.14225, 0.05426208, 0.0002593962
 247313535, -0.6013493, 0.1543359, 0.03269693, 0.0002593962
 247413495, -0.5884057, 0.1688939, 0.01901058, 0.0002593962
 247514288, -0.5734375, 0.1866976, 0.01437755, 0.0002615578
 247614248, -0.5441635, 0.1998921, 0.01630551, 0.0002593962
 247714208, -0.5204108, 0.2130962, 0.02163899, 0.0002593962
 247814168, -0.4996547, 0.224534, 0.02729377, 0.0002593962
 247914128, -0.4824171, 0.2349143, 0.02978268, 0.0002593962
 248014088, -0.4679989, 0.2452832, 0.02933489, 0.0002593962
 248114048, -0.4545268, 0.2554281, 0.02602132, 0.0002593962
 248214008, -0.4416342, 0.2656267, 0.0214277, 0.0002593962
 248333960, -0.5221878, 0.338848, 0.01854945, 0.0003112754
 248433920, -0.4113904, 0.2887846, 0.009439573, 0.0002593962
 248533880, -0.3951494, 0.2986645, 0.005555962, 0.0002593962
 248633840, -0.3764106, 0.3065529, 0.004532812, 0.0002593962
 248733800, -0.3551752, 0.3125834, 0.00654079, 0.0002593962
 248833760, -0.3323898, 0.316103, 0.01029497, 0.0002593962
 248933720, -0.3097529, 0.3178858, 0.01391441, 0.0002593962
 249033680, -0.2897906, 0.3186555, 0.01565371, 0.0002593962
 249133640, -0.2712312, 0.3185339, 0.01608057, 0.0002593962
 249233600, -0.2527145, 0.3177561, 0.01621542, 0.0002593962
 249333560, -0.2352877, 0.3164133, 0.01566337, 0.0002593962
 249433520, -0.2183612, 0.314395, 0.01437841, 0.0002593962
 249533480, -0.2027549, 0.3118247, 0.01319754, 0.0002593962
 249634273, -0.1898163, 0.3109314, 0.01274551, 0.0002615578
 249734233, -0.174429, 0.303473, 0.01240444, 0.0002593962
 249834193, -0.1596659, 0.2984028, 0.01200971, 0.0002593962
 249934153, -0.1458375, 0.2924878, 0.01162087, 0.0002593962
 250034113, -0.1328135, 0.2861772, 0.01158512, 0.0002593962
 250134073, -0.120498, 0.2788203, 0.01128635, 0.0002593962
 250234033, -0.1089947, 0.2712533, 0.010707, 0.0002593962
 250333993, -0.09794112, 0.2630574, 0.009417313, 0.0002593962
 250453945, -0.1062381, 0.3103723, 0.0104253, 0.0003112754
 250553905, -0.07689518, 0.2446562, 0.008721666, 0.0002593962
 250653865, -0.06864467, 0.2359241, 0.009797143, 0.0002593962
 250753825, -0.06131948, 0.2275051, 0.01064479, 0.0002593962
 250853785, -0.05470445, 0.2201037, 0.01105634, 0.0002593962
 250953745, -0.04907409, 0.2126802, 0.009849698, 0.0002593962
 251053705, -0.04391062, 0.2055156, 0.008499921, 0.0002593962
 251153665, -0.03912696, 0.1989552, 0.006785177, 0.0002593962
 251253625, -0.03342689, 0.1924676, 0.004568904, 0.0002593962
 251353585, -0.02977012, 0.18557, 0.00208101, 0.0002593962
 251453545, -0.02570969, 0.1783215, -0.0004814987, 0.0002593962
 251553505, -0.02154554, 0.1705925, -0.002007006, 0.0002593962
 251654298, -0.01764957, 0.1628178, -0.00283372, 0.0002593962
 251754258, -0.01393659, 0.1564121, -0.00338376, 0.0002615578
 251854218, -0.01062599, 0.1488671, -0.003070928, 0.0002593962
 251954178, -0.007709241, 0.1427096, -0.002521622, 0.0002593962
 252054138, -0.005380845, 0.1375397, -0.00221469, 0.0002593962
 252154098, -0.003239058, 0.1325368, -0.001880885, 0.0002593962
 252254058, -0.001154475, 0.1272059, -0.002730812, 0.0002593962
 252354018, 0.0003878173, 0.122446, -0.003151891, 0.0002593962
 252473970, 0.002926299, 0.1430437, -0.004148864, 0.0003112754
 252573930, 0.004146756, 0.1111683, -0.002252497, 0.0002593962
 252673890, 0.005494934, 0.1063138, -0.0004691535, 0.0002593962
 252773850, 0.00652723, 0.1019059, 0.001127116, 0.0002593962
 252873810, 0.007129744, 0.09811001, 0.002785064, 0.0002593962
 252973770, 0.007652288, 0.09460629, 0.003110204, 0.0002593962
 253073730, 0.007628676, 0.09125833, 0.001231711, 0.0002593962
 253173690, 0.008086165, 0.08741947, -0.001802572, 0.0002593962
 253273650, 0.00845489, 0.08371316, -0.005410642, 0.0002593962
