TimeUS,CAN,CAE,CAD,CAe
 196263963, 0, 0, 0, 0
 196336434, -0.2980036, 3.782263, -0.08639043, 0.5094869
 196436394, 0.0001188766, 0.00352437, -0.0001210336, 0.0002593961
 196536354, 5.793956E-05, 0.003463425, -3.201276E-05, 0.0002593961
 196636314, -0.0002103595, 0.003520451, -6.609897E-05, 0.0002593961
 196736274, -4.02908E-05, 0.003443013, -0.0001118403, 0.0002593961
 196836234, 3.257997E-05, 0.003283126, -3.25621E-05, 0.0002593961
 196936194, -0.0001973748, 0.003514005, -2.216286E-05, 0.0002593961
 197036154, -0.0001362508, 0.003379266, 6.100479E-05, 0.0002593961
 197136114, 1.09786E-05, 0.0037252, -7.300554E-05, 0.0002593961
 197236074, 0.0002633311, 0.003549936, -6.728341E-05, 0.0002593961
 197336034, 0.0001037935, 0.003522417, -8.889219E-05, 0.0002593961
 197435994, -8.443401E-05, 0.003605944, -0.00010404, 0.0002593961
 197535954, -6.786927E-05, 0.003355769, -0.0001716606, 0.0002593961
 197635914, -1.957743E-05, 0.003558251, -0.0001743882, 0.0002593961
 197735874, 0.0002867075, 0.003622604, -0.0001166485, 0.0002593961
 197835834, 0.0001816887, 0.003665001, -0.0001508431, 0.0002593961
 197935794, 0.0001835133, 0.003657159, -0.0001535481, 0.0002593961
 198035754, 0.0001539558, 0.003609562, -0.0002923142, 0.0002593961
 198135714, 3.41302E-05, 0.00375123, -4.338196E-05, 0.0002593961
 198235674, 0.0002200995, 0.003593349, 2.742625E-05, 0.0002593961
 198336467, -3.574267E-05, 0.00352072, -9.895895E-05, 0.0002615578
 198436427, -8.88834E-05, 0.003641017, -5.847856E-05, 0.0002593961
 198536387, -0.0001338262, 0.003619647, 1.404916E-06, 0.0002593961
 198636347, 5.696365E-05, 0.003508875, -0.0001392451, 0.0002593961
 198736307, 0.000112279, 0.003480771, 0.0002163605, 0.0002593961
 198836267, 0.0001394942, 0.003542447, -0.0001672266, 0.0002593961
 198936227, 0.0002175542, 0.003703001, -0.0001187874, 0.0002593961
 199036187, -9.553559E-05, 0.003863112, -2.75859E-05, 0.0002593961
 199136147, -8.368407E-05, 0.003381821, -0.0001250684, 0.0002593961
 199236107, -6.114885E-05, 0.003582815, 1.41552E-05, 0.0002593961
 199336067, -0.000165456, 0.003424646, -1.21378E-05, 0.0002593961
 199436027, 0.0001907389, 0.003589614, -0.0001622433, 0.0002593961
 199535987, -9.05993E-05, 0.003547984, 1.171477E-05, 0.0002593961
 199635947, 8.033719E-05, 0.003372536, 5.151358E-06, 0.0002593961
 199735907, -1.267229E-05, 0.003604517, 6.893508E-06, 0.0002593961
 199835867, -0.0002505211, 0.003869246, -0.000130725, 0.0002593961
 199935827, -0.0001217557, 0.003520994, -5.478694E-05, 0.0002593961
 200035787, 0.0001927275, 0.003485517, 4.203664E-05, 0.0002593961
 200135747, -2.713152E-05, 0.003482333, 8.575823E-05, 0.0002593961
 200235707, 0.0002499525, 0.003436486, 0.0001027888, 0.0002593961
 200335667, -0.0001916833, 0.003498876, -0.000365987, 0.0002593961
 200436460, 0.0001587363, 0.003542645, -0.0001857412, 0.0002615578
 200536420, -8.525552E-05, 0.003712207, -0.0001516999, 0.0002593961
 200636380, -0.0001917072, 0.003634816, -5.962967E-05, 0.0002593961
 200736340, 7.247263E-05, 0.003518356, 0.0001254391, 0.0002593961
 200836300, 8.766264E-05, 0.003430195, -8.02923E-05, 0.0002593961
 200936260, -6.781201E-05, 0.003528381, 8.403276E-05, 0.0002593961
 201036220, 0.0001658376, 0.00360454, 2.650154E-05, 0.0002593961
 201136180, -8.633539E-05, 0.003484374, -0.0001750007, 0.0002593961
 201236140, -6.909827E-05, 0.003368754, 1.247265E-05, 0.0002593961
 201336100, -0.0002276904, 0.003487614, 7.943432E-05, 0.0002593961
 201436060, -0.0001687191, 0.003557623, -8.619317E-05, 0.0002593961
 201536020, 4.585721E-05, 0.00347619, -9.105377E-05, 0.0002593961
 201635980, 5.330733E-05, 0.0033736, 0.0001595503, 0.0002593961
 201735940, -8.431418E-05, 0.003495591, -8.986335E-05, 0.0002593961
 201835900, -0.0001664782, 0.003577054, -3.256678E-06, 0.0002593961
 201935860, 7.072804E-06, 0.00359034, -8.286259E-05, 0.0002593961
 202035820, 0.0001518626, 0.003508215, -0.0001343428, 0.0002593961
 202135780, 5.707567E-05, 0.00368341, 9.137195E-05, 0.0002593961
 202235740, -1.002427E-05, 0.003528111, -0.0002732566, 0.0002593961
 202335700, 0.000181457, 0.003611807, -7.979776E-05, 0.0002593961
 202435660, -2.222868E-05, 0.003412743, -0.0001930192, 0.0002593961
 202536453, 0.0002213953, 0.003550079, -5.306145E-05, 0.0002615578
 202636413, 9.027054E-05, 0.0034352, 9.623494E-06, 0.0002593961
 202736373, 5.463019E-05, 0.003646015, -7.464402E-05, 0.0002593961
 202836333, 9.746016E-05, 0.003482481, -7.876939E-05, 0.0002593961
 202936293, -4.795316E-05, 0.003518223, -0.0002297757, 0.0002593961
 203036253, 0.0001268376, 0.003723597, 7.23013E-05, 0.0002593961
 203136213, 7.118559E-05, 0.003554169, -8.912453E-05, 0.0002593961
 203236173, -0.0001797116, 0.00362012, -0.0002607995, 0.0002593961
 203336133, -7.476872E-05, 0.003595899, -0.0001430297, 0.0002593961
 203436093, 0.0001653799, 0.003334422, 3.97809E-05, 0.0002593961
 203536053, -0.0001911629, 0.003748603, 0.0001879917, 0.0002593961
 203636013, 0.0002408447, 0.00359474, 2.63657E-05, 0.0002593961
 203735973, 2.209923E-05, 0.003703968, -0.0001127674, 0.0002593961
 203835933, -1.348354E-06, 0.00371072, -2.177677E-05, 0.0002593961
 203935893, 0.0001381498, 0.003741395, -5.821998E-05, 0.0002593961
 204035853, 8.705244E-05, 0.003509487, -0.0001363674, 0.0002593961
 204135813, -2.567313E-05, 0.003521369, 2.001559E-05, 0.0002593961
 204235773, 8.497174E-05, 0.003665363, -0.0001591106, 0.0002593961
 204335733, 7.513442E-05, 0.003675611, -0.0002393838, 0.0002593961
 204435693, 6.801284E-06, 0.003477065, -8.065335E-05, 0.0002593961
 204536486, 8.99013E-06, 0.003521136, 8.454394E-05, 0.0002593961
 204636446, 3.319725E-05, 0.003552816, 0.0001474637, 0.0002615578
 204736406, 0.0001233274, 0.003391702, 0.0001329689, 0.0002593961
 204836366, 5.194755E-05, 0.003374919, 3.247035E-05, 0.0002593961
 204936326, 2.735153E-05, 0.003531223, -0.0001163208, 0.0002593961
 205036286, -8.033177E-05, 0.003693953, -0.0002742468, 0.0002593961
 205136246, -4.318955E-05, 0.003573817, -1.528249E-05, 0.0002593961
 205236206, 1.313136E-05, 0.003557073, -0.0001640593, 0.0002593961
 205336166, -4.36976E-05, 0.003418327, 4.469632E-05, 0.0002593961
 205436126, 0.0001099486, 0.00344108, 1.906942E-05, 0.0002593961
 205536086, 0.0002189416, 0.003702448, -0.0001472802, 0.0002593961
 205636046, 5.338246E-05, 0.003574044, -0.0001100803, 0.0002593961
 205736006, -4.819403E-05, 0.003430396, -9.920679E-05, 0.0002593961
 205835966, -0.0001087299, 0.003739165, -6.970944E-06, 0.0002593961
 205935926, 0.0001817603, 0.003524172, -0.0001301435, 0.0002593961
 206035886, -5.527241E-05, 0.003448029, -0.0002088938, 0.0002593961
 206135846, 0.0003001424, 0.00346773, -0.0001115984, 0.0002593961
 206235806, -8.337011E-05, 0.003481515, -3.217244E-05, 0.0002593961
 206335766, 0.0001151198, 0.0034056, 1.160278E-05, 0.0002593961
 206435726, 9.91425E-05, 0.003438359, 4.389914E-05, 0.0002593961
 206535686, 5.023995E-05, 0.003442685, -0.0001035097, 0.0002593961
 206636479, 1.87037E-05, 0.003702767, 4.910573E-05, 0.0002615578
 206736439, 0.0001554469, 0.003593334, -8.658277E-06, 0.0002593961
 206836399, -0.0001425316, 0.003706114, 1.653844E-05, 0.0002593961
 206936359, -0.0001472966, 0.003271487, -5.583912E-05, 0.0002593961
 207036319, 9.066085E-05, 0.003668702, -0.0002570101, 0.0002593961
 207136279, 4.560084E-05, 0.003661104, -5.283029E-05, 0.0002593961
 207236239, 9.220283E-05, 0.003396973, 2.395028E-05, 0.0002593961
 207336199, 6.277902E-06, 0.003444134, -3.553637E-05, 0.0002593961
 207436159, -0.0001387403, 0.003455551, 8.538049E-05, 0.0002593961
 207536119, 0.0001604504, 0.003374071, -0.0002523819, 0.0002593961
 207636079, 3.489931E-05, 0.003659362, 5.281124E-05, 0.0002593961
 207736039, -4.920285E-05, 0.003437269, -1.015614E-05, 0.0002593961
 207835999, -2.721613E-06, 0.003397758, 5.476072E-05, 0.0002593961
 207935959, 4.848813E-05, 0.003713408, -0.0001774257, 0.0002593961
 208035919, -0.0001519056, 0.003738993, 0.0001062755, 0.0002593961
 208135879, 2.09129E-05, 0.003496737, 7.11645E-05, 0.0002593961
 208235839, 0.0002028543, 0.003630658, -0.0001289722, 0.0002593961
 208335799, -0.0001632893, 0.003595907, 0.0002463714, 0.0002593961
 208435759, 2.348428E-06, 0.00354471, -9.107285E-05, 0.0002593961
 208535719, 0.0001066565, 0.003640744, -0.0001206833, 0.0002593961
 208635679, -3.053551E-05, 0.003667471, -0.0001413197, 0.0002593961
 208736472, -4.073071E-05, 0.003785496, 5.374602E-06, 0.0002615578
 208836432, 0.0001545213, 0.003658376, -5.246328E-05, 0.0002593961
 208936392, 9.767809E-05, 0.003651642, -0.0001257798, 0.0002593961
 209036352, 0.0002109657, 0.00345606, 0.0002498676, 0.0002593961
 209136312, 0.0001269814, 0.003567526, -1.751556E-05, 0.0002593961
 209236272, -8.982507E-06, 0.003556788, 2.988931E-05, 0.0002593961
 209336232, 8.455521E-05, 0.003766076, -2.27694E-05, 0.0002593961
 209436192, -5.345232E-05, 0.003395117, -0.0001052328, 0.0002593961
 209536152, -0.0002186572, 0.003491028, -4.400757E-05, 0.0002593961
 209636112, 1.642932E-05, 0.003585669, 0.000126577, 0.0002593961
 209736072, -6.623452E-05, 0.003429674, -9.594177E-05, 0.0002593961
 209836032, -8.417474E-05, 0.00376482, 5.040536E-05, 0.0002593961
 209935992, 6.690848E-05, 0.0035019, 0.0001012039, 0.0002593961
 210035952, 7.735095E-05, 0.003641299, -3.630855E-05, 0.0002593961
 210135912, -0.0001573542, 0.003534144, 1.193046E-05, 0.0002593961
 210235872, -5.897266E-05, 0.00360118, 0.0001905573, 0.0002593961
 210335832, 3.779403E-05, 0.003609352, -0.000145743, 0.0002593961
 210435792, 5.632664E-06, 0.003521653, 6.304603E-05, 0.0002593961
 210535752, -0.000130184, 0.003222767, -4.765934E-08, 0.0002593961
 210635712, 6.851128E-05, 0.00341248, -4.263244E-05, 0.0002593961
 210735672, -0.0001194215, 0.003534341, 0.0001188566, 0.0002593961
 210836465, 2.342124E-05, 0.003715344, -8.841393E-06, 0.0002615578
 210936425, -7.510806E-05, 0.003643416, 2.053512E-05, 0.0002593961
 211036385, 0.0001807145, 0.0036007, -9.648513E-06, 0.0002593961
 211136345, -1.372323E-05, 0.003344792, -1.869527E-05, 0.0002593961
 211236305, -3.180528E-05, 0.003486084, -0.0002900465, 0.0002593961
 211336265, -0.0001786095, 0.003499666, -0.0002034899, 0.0002593961
 211436225, -0.0001050575, 0.003694761, 1.054699E-05, 0.0002593961
 211536185, -4.856765E-05, 0.003422077, -0.0003983263, 0.0002593961
 211636145, -6.625734E-05, 0.003537167, -3.724277E-05, 0.0002593961
 211736105, -0.000198885, 0.003507756, 4.036361E-05, 0.0002593961
 211836065, -0.0001843511, 0.003519632, -8.967865E-05, 0.0002593961
 211936025, 8.455307E-05, 0.003652545, 7.729178E-05, 0.0002593961
 212035985, 3.166102E-05, 0.003641485, -0.0001080605, 0.0002593961
 212135945, 7.872852E-05, 0.003370322, -6.576767E-05, 0.0002593961
 212235905, -7.973636E-06, 0.003592135, 0.0001712912, 0.0002593961
 212335865, -2.712911E-05, 0.003587725, 1.234156E-05, 0.0002593961
 212435825, 0.0001516765, 0.003324665, -0.0001426722, 0.0002593961
 212535785, -3.733162E-05, 0.003601327, 8.993485E-05, 0.0002593961
 212635745, 7.658976E-05, 0.003435677, -5.087008E-06, 0.0002593961
 212735705, -0.000126355, 0.003444715, -6.05031E-05, 0.0002593961
 212835665, -0.0002204153, 0.003456258, -7.08654E-05, 0.0002593961
 212936458, 9.83779E-05, 0.003477221, -0.0002114503, 0.0002615578
 213036418, -0.0001079566, 0.003482584, -0.000253751, 0.0002593961
 213136378, 0.0001392348, 0.003632645, 7.972269E-05, 0.0002593961
 213236338, -2.238876E-05, 0.003660158, 0.0001256071, 0.0002593961
 213336298, 2.197818E-05, 0.003501209, -2.780159E-05, 0.0002593961
 213436258, 8.261997E-06, 0.003550333, -6.45832E-05, 0.0002593961
 213536218, -2.103764E-05, 0.003559635, -6.501814E-05, 0.0002593961
 213636178, 1.851266E-05, 0.003382032, -0.0001784314, 0.0002593961
 213736138, -0.0001030177, 0.003570055, -4.139793E-05, 0.0002593961
 213836098, 5.588413E-05, 0.0034433, -7.253845E-05, 0.0002593961
 213936058, 9.433876E-05, 0.003608427, -7.360018E-05, 0.0002593961
 214036018, 0.0002137042, 0.00372894, 6.367043E-05, 0.0002593961
 214135978, 1.109483E-05, 0.003716345, -2.693887E-05, 0.0002593961
 214235938, 3.614058E-05, 0.003530214, -1.828535E-05, 0.0002593961
 214335898, 0.0004430085, 0.0035173, 8.072008E-05, 0.0002593961
 214435858, 7.994146E-05, 0.003555498, -3.612266E-05, 0.0002593961
 214535818, 0.0001441234, 0.003642779, -0.0001824555, 0.0002593961
 214635778, 5.902639E-05, 0.003640941, -9.298061E-05, 0.0002593961
 214735738, 3.278737E-05, 0.003798124, -1.501079E-05, 0.0002593961
 214835698, 9.52697E-05, 0.00372013, -7.923294E-05, 0.0002593961
 214935658, -5.090672E-06, 0.00358403, -0.0003361751, 0.0002593961
 215036451, 6.337857E-05, 0.003573582, -0.0002036579, 0.0002615578
 215136411, -0.0001194327, 0.003721852, -2.6977E-05, 0.0002593961
 215236371, -1.72513E-05, 0.003719688, -9.084889E-06, 0.0002593961
 215336331, -6.27346E-05, 0.00352458, -5.728103E-06, 0.0002593961
 215436291, 0.0001011471, 0.003301612, 1.634183E-05, 0.0002593961
 215536251, -4.961776E-05, 0.003599555, -8.890171E-05, 0.0002593961
 215636211, 3.10352E-06, 0.003492662, 2.304228E-05, 0.0002593961
 215736171, 0.0002528231, 0.003426178, -0.0001295704, 0.0002593961
 215836131, 0.0001476226, 0.003413772, 0.0001090817, 0.0002593961
 215936091, 0.0001086365, 0.003420694, -6.20248E-05, 0.0002593961
 216036051, -3.273625E-06, 0.003427775, -6.851794E-06, 0.0002593961
 216136011, -1.056309E-05, 0.003549576, -7.695099E-05, 0.0002593961
 216235971, 6.089384E-05, 0.003399035, 8.144697E-05, 0.0002593961
 216335931, 0.0002149753, 0.003289407, -0.0002094146, 0.0002593961
 216435891, 0.0001116656, 0.003727658, -0.0001126077, 0.0002593961
 216535851, -9.055882E-05, 0.003458491, -0.0001138148, 0.0002593961
 216635811, -0.0001089506, 0.003465184, 8.510997E-05, 0.0002593961
 216735771, -0.0002457352, 0.003501918, -0.0002034351, 0.0002593961
 216835731, 2.931167E-05, 0.003371289, -0.0002598402, 0.0002593961
 216935691, -8.450729E-06, 0.003500171, -0.0002830255, 0.0002593961
 217036484, 5.749963E-05, 0.00347972, -0.0002490089, 0.0002615578
 217136444, 1.159403E-05, 0.003428922, -8.527085E-05, 0.0002593961
 217236404, 0.0001415496, 0.003544057, 0.0001630893, 0.0002593961
 217336364, 4.683855E-06, 0.003456355, 5.805436E-05, 0.0002593961
 217436324, 1.549048E-05, 0.003464217, -0.0002053977, 0.0002593961
 217536284, -0.0002082752, 0.00351305, 2.300059E-05, 0.0002593961
 217636244, -0.0001395899, 0.003459116, -0.0001220763, 0.0002593961
 217736204, -0.0001200489, 0.003695528, 8.896009E-05, 0.0002593961
 217836164, -0.0001629867, 0.003657093, -3.275395E-05, 0.0002593961
 217936124, 8.367019E-05, 0.00352897, -0.0001960185, 0.0002593961
 218036084, -8.612208E-05, 0.003561188, -3.296844E-05, 0.0002593961
 218136044, -5.792903E-05, 0.003510716, -2.277178E-05, 0.0002593961
 218236004, 4.358527E-05, 0.003465785, -7.579156E-05, 0.0002593961
 218335964, 1.693496E-05, 0.003701636, 2.195076E-05, 0.0002593961
 218435924, 0.0001924306, 0.003561959, -0.0001571467, 0.0002593961
 218535884, 2.08048E-05, 0.003527362, -0.0003311811, 0.0002593961
 218635844, -7.100371E-05, 0.0035499, -8.755992E-06, 0.0002593961
 218735804, 4.873185E-05, 0.003578391, -8.750516E-05, 0.0002593961
 218835764, 6.364173E-05, 0.003618575, -0.000195307, 0.0002593961
 218935724, -5.698035E-05, 0.00368199, 2.272889E-05, 0.0002593961
 219035684, -5.630295E-05, 0.003578984, -0.0001696456, 0.0002593961
 219136477, 0.0002001267, 0.003924342, -0.0001592662, 0.0002615578
 219236437, 6.175052E-05, 0.003616892, -7.479059E-05, 0.0002593961
 219336397, 4.4371E-05, 0.003487916, 0.0001171013, 0.0002593961
 219436357, 0.0002017124, 0.003601522, -0.0001577235, 0.0002593961
 219536317, 2.065967E-05, 0.003505778, -0.0003690018, 0.0002593961
 219636277, -7.972127E-05, 0.003443032, 4.889558E-05, 0.0002593961
 219736237, -2.356654E-05, 0.003699827, -0.0001505881, 0.0002593961
 219836197, 9.421002E-05, 0.003566416, -2.121196E-05, 0.0002593961
 219936157, -2.650066E-05, 0.003498199, -0.0002052988, 0.0002593961
 220036117, 4.393681E-05, 0.003680966, 7.107989E-06, 0.0002593961
 220136077, 0.0001029308, 0.003591018, -0.0001510957, 0.0002593961
 220236037, -3.661031E-06, 0.00324457, -4.718799E-05, 0.0002593961
 220335997, -8.428984E-05, 0.00352629, 2.788141E-05, 0.0002593961
 220435957, 3.800873E-05, 0.003632471, -1.966524E-05, 0.0002593961
 220535917, -3.684472E-05, 0.003514818, -4.27528E-05, 0.0002593961
 220635877, -8.303988E-05, 0.003788821, -8.234542E-05, 0.0002593961
 220735837, 5.147743E-05, 0.003533291, 0.0001171406, 0.0002593961
 220835797, -0.0001768684, 0.003779041, -2.837595E-05, 0.0002593961
 220935757, 4.808357E-05, 0.003635485, -0.0002554205, 0.0002593961
 221035717, 3.26898E-05, 0.003558169, 5.283268E-05, 0.0002593961
 221135677, 0.0002294388, 0.00353924, -2.2854E-05, 0.0002593961
 221236470, -2.399253E-05, 0.003516401, -0.000291706, 0.0002615578
 221336430, -0.0001337536, 0.003623381, -0.000295852, 0.0002593961
 221436390, 5.398555E-05, 0.003657697, 3.123585E-05, 0.0002593961
 221536350, 0.0001250307, 0.003561534, 0.0002114904, 0.0002593961
 221636310, 0.0002200733, 0.003454146, -0.0002419445, 0.0002593961
 221736270, -0.0001286569, 0.003432185, -0.0002050318, 0.0002593961
 221836230, -0.0001266874, 0.003621976, -0.0001437292, 0.0002593961
 221936190, 0.0001037104, 0.003712295, -6.415541E-05, 0.0002593961
 222036150, 9.800319E-05, 0.003638481, -9.746216E-06, 0.0002593961
 222136110, 3.547509E-05, 0.003577061, -5.318778E-05, 0.0002593961
 222236070, -1.084274E-05, 0.003660192, -0.000128088, 0.0002593961
 222336030, -6.790595E-05, 0.003683934, -0.000223285, 0.0002593961
 222435990, 2.329714E-05, 0.00359466, -0.0001588102, 0.0002593961
 222535950, -0.0003292455, 0.003378202, -0.0002190393, 0.0002593961
 222635910, -2.237129E-05, 0.003525983, -7.263853E-05, 0.0002593961
 222735870, 0.0001527586, 0.003544574, -9.994677E-05, 0.0002593961
 222835830, 0.0001665749, 0.003796273, 9.010643E-05, 0.0002593961
 222935790, -0.0001039285, 0.003467415, -0.00020831, 0.0002593961
 223035750, 5.312547E-05, 0.003434669, -0.0002603955, 0.0002593961
 223135710, -0.0001253209, 0.003507455, -7.313781E-05, 0.0002593961
 223235670, -0.0001460248, 0.003427744, -2.620603E-05, 0.0002593961
 223336463, -3.857029E-06, 0.003467685, -2.037861E-05, 0.0002615578
 223436423, -7.801644E-05, 0.003618292, -0.0001623267, 0.0002593961
 223536383, 0.0001479847, 0.003622363, -0.0001682967, 0.0002593961
 223636343, -0.000238713, 0.003623004, -3.467603E-05, 0.0002593961
 223736303, -3.682419E-05, 0.003573639, -7.598339E-05, 0.0002593961
 223836263, -0.0002050794, 0.003637969, -2.354752E-05, 0.0002593961
 223936223, -0.0001288206, 0.003738448, 0.0001533729, 0.0002593961
 224036183, -0.0003105969, 0.003684344, -0.0001448672, 0.0002593961
 224136143, -7.378489E-05, 0.003690085, -7.862283E-05, 0.0002593961
 224236103, 1.760562E-05, 0.003565747, -0.0001247181, 0.0002593961
 224336063, 0.0001156301, 0.00341566, -0.0001896755, 0.0002593961
 224436023, 5.631797E-05, 0.003562305, -6.878365E-05, 0.0002593961
 224535983, -6.437545E-05, 0.003584884, -0.0001113923, 0.0002593961
 224635943, -0.0001535934, 0.003599119, -0.0001605702, 0.0002593961
 224735903, 0.0002306997, 0.003669846, -6.174121E-05, 0.0002593961
 224835863, 3.559393E-06, 0.003449662, -3.560192E-05, 0.0002593961
 224935823, -4.712477E-05, 0.003578238, 1.32901E-05, 0.0002593961
 225035783, -7.674214E-05, 0.003537119, -1.111897E-05, 0.0002593961
 225135743, 0.0001782396, 0.00346406, 5.823309E-05, 0.0002593961
 225235703, 0.0001221551, 0.003542556, -3.14253E-05, 0.0002593961
 225335663, -3.967952E-05, 0.003708546, -0.0002497818, 0.0002593961
 225436456, -1.105688E-05, 0.00349016, -6.465748E-05, 0.0002615578
 225536416, -0.0001907854, 0.003551081, -0.0001960065, 0.0002593961
 225636376, -0.0001602405, 0.003568488, -0.0001466832, 0.0002593961
 225736336, -2.842835E-05, 0.003763296, -3.907548E-05, 0.0002593961
 225836296, 0.0003218217, 0.003743744, 2.501187E-06, 0.0002593961
 225936256, 7.548691E-05, 0.003542336, 2.995602E-05, 0.0002593961
 226036216, -6.238258E-05, 0.003569014, -6.413039E-05, 0.0002593961
 226136176, 7.668744E-05, 0.003485922, -0.000136651, 0.0002593961
 226236136, 8.904371E-05, 0.003513208, -5.74895E-05, 0.0002593961
 226336096, -0.0002048736, 0.00362548, -0.0003183891, 0.0002593961
 226436056, 9.043458E-05, 0.003571989, -0.0002360782, 0.0002593961
 226536016, 2.596062E-05, 0.003624089, 3.641698E-05, 0.0002593961
 226635976, -0.0001180564, 0.003770294, -0.0001835732, 0.0002593961
 226735936, -2.832543E-05, 0.0035644, -0.000249155, 0.0002593961
 226835896, -0.0001584077, 0.003559417, -6.398144E-05, 0.0002593961
 226935856, -0.0001459889, 0.003613823, -6.327481E-05, 0.0002593961
 227035816, 7.837957E-05, 0.003541506, -7.554726E-05, 0.0002593961
 227135776, 0.0001180922, 0.003871526, -4.262053E-05, 0.0002593961
 227235736, 5.564298E-06, 0.00354653, -0.0002327536, 0.0002593961
 227335696, 6.404323E-05, 0.003487291, -0.000195431, 0.0002593961
 227435656, -4.608955E-05, 0.003724968, -2.604397E-05, 0.0002593961
 227536449, -8.445567E-05, 0.003771074, 5.694615E-05, 0.0002615578
 227636409, 1.489523E-05, 0.003705311, 0.000102187, 0.0002593961
 227736369, 0.0002102389, 0.003861995, -0.0002666444, 0.0002593961
 227836329, 3.308357E-05, 0.003614542, -0.0002501488, 0.0002593961
 227936289, 7.293663E-06, 0.003340442, -7.282919E-05, 0.0002593961
 228036249, 0.0001010492, 0.00360707, -0.0001635564, 0.0002593961
 228136209, -7.009056E-05, 0.003567744, 5.394923E-05, 0.0002593961
 228236169, 5.863493E-05, 0.003728538, -0.0001299159, 0.0002593961
 228336129, 3.670682E-05, 0.003626277, 0.000175525, 0.0002593961
 228436089, 0.0003016588, 0.003460992, -0.0002319099, 0.0002593961
 228536049, 1.173707E-05, 0.003727261, 9.42032E-05, 0.0002593961
 228636009, 0.0002781419, 0.003455952, -7.184728E-05, 0.0002593961
 228735969, 4.750142E-05, 0.003712509, -3.472964E-05, 0.0002593961
 228835929, 9.992973E-05, 0.003694688, 7.580346E-05, 0.0002593961
 228935889, 0.0001739803, 0.003756868, 6.307817E-05, 0.0002593961
 229035849, -0.0002339775, 0.003587786, -8.71405E-05, 0.0002593961
 229135809, -0.0001067855, 0.003562527, -7.600008E-05, 0.0002593961
 229235769, -8.796304E-05, 0.003607518, -0.0002123758, 0.0002593961
 229335729, 0.0001544382, 0.003699996, -0.0001929274, 0.0002593961
 229435689, 0.0001163398, 0.003677072, 7.212375E-05, 0.0002593961
 229536482, 0.0001302917, 0.003649131, 0.0001035034, 0.0002615578
 229636442, 0.0001204606, 0.003477349, -6.974528E-06, 0.0002593961
 229736402, -0.0001045156, 0.003825429, 7.18735E-05, 0.0002593961
 229836362, 0.0002311966, 0.003767717, -0.000123791, 0.0002593961
 229936322, -0.0001437794, 0.003543773, -0.0002686987, 0.0002593961
 230036282, -0.0001411354, 0.003661529, -0.0002483233, 0.0002593961
 230136242, -0.0001067779, 0.003475357, -0.0001300852, 0.0002593961
 230236202, 8.984142E-05, 0.003730778, -3.151467E-05, 0.0002593961
 230336162, 4.500158E-05, 0.003661982, -4.833076E-05, 0.0002593961
 230436122, -0.0001036382, 0.003485264, 3.942342E-05, 0.0002593961
 230536082, 3.031694E-05, 0.003631905, 3.713433E-05, 0.0002593961
 230636042, 6.993335E-05, 0.003540299, -8.605731E-05, 0.0002593961
 230736002, 2.287926E-05, 0.003774048, 6.38325E-05, 0.0002593961
 230835962, 6.735599E-05, 0.003767276, -0.00010626, 0.0002593961
 230935922, -0.0001253268, 0.003646588, -0.0001036897, 0.0002593961
 231035882, 9.024592E-05, 0.00348937, -0.0001284753, 0.0002593961
 231135842, -0.0001398976, 0.003788454, -0.0001510469, 0.0002593961
 231235802, -7.837145E-05, 0.003646093, -0.000188547, 0.0002593961
 231335762, -0.0002833379, 0.003575693, -0.0001797005, 0.0002593961
 231435722, -1.111921E-05, 0.003590841, -5.245497E-05, 0.0002593961
 231535682, 0.0001893903, 0.00357997, -0.0003064634, 0.0002593961
 231636475, -0.0001858005, 0.003588453, -0.0001691332, 0.0002615578
 231736435, -0.0001774845, 0.003481905, -0.0001116496, 0.0002593961
 231836395, 3.213099E-05, 0.003708, 9.360621E-05, 0.0002593961
 231936355, -9.487052E-05, 0.003531955, 1.010967E-05, 0.0002593961
 232036315, -6.042609E-05, 0.003455435, -0.0001256023, 0.0002593961
 232136275, -0.0001903677, 0.003588199, -1.809111E-05, 0.0002593961
 232236235, -7.67695E-05, 0.003396321, -0.0001080105, 0.0002593961
 232336195, 0.0001894446, 0.003566717, -0.0001358788, 0.0002593961
 232436155, -8.07005E-06, 0.00346805, -1.148002E-05, 0.0002593961
 232536115, -0.0002139585, 0.003397488, -0.0002799512, 0.0002593961
 232636075, 0.0001691188, 0.003591306, 0.000138517, 0.0002593961
 232736035, 9.842521E-05, 0.003714885, 0.0001062731, 0.0002593961
 232835995, 3.133514E-05, 0.003528649, 1.369405E-05, 0.0002593961
 232935955, 7.584621E-06, 0.003706082, -0.0001595216, 0.0002593961
 233035915, 0.000194086, 0.003847747, -3.235833E-05, 0.0002593961
 233135875, -0.0001387277, 0.003537783, -0.0002136818, 0.0002593961
 233235835, -0.0002315844, 0.003386809, -3.279684E-05, 0.0002593961
 233335795, -0.0001175024, 0.003490283, 1.171716E-05, 0.0002593961
 233435755, -0.0001679906, 0.003524223, -5.689967E-05, 0.0002593961
 233535715, -7.139191E-05, 0.003513733, -0.0001541236, 0.0002593961
 233635675, -0.0002419016, 0.003720955, 0.0001039435, 0.0002593961
 233736468, -0.000155104, 0.003604224, -8.360538E-05, 0.0002615578
 233836428, -1.603265E-06, 0.003464844, -0.0002298914, 0.0002593961
 233936388, 0.0001878328, 0.003715392, 6.722024E-05, 0.0002593961
 234036348, 1.56683E-05, 0.00360352, -0.0002239785, 0.0002593961
 234136308, 0.0001037234, 0.003558078, -0.0001001398, 0.0002593961
 234236268, 0.0001409732, 0.003671829, -0.0001506894, 0.0002593961
 234336228, 7.540997E-05, 0.003532878, 0.0001656132, 0.0002593961
 234436188, 7.674451E-05, 0.003551823, -0.0001045429, 0.0002593961
 234536148, -0.0001861756, 0.003762916, -5.989778E-05, 0.0002593961
 234636108, 5.531769E-05, 0.00380117, -0.000215238, 0.0002593961
 234736068, -5.980269E-05, 0.003813122, -5.052691E-05, 0.0002593961
 234836028, 5.545923E-05, 0.003676434, -0.0001302067, 0.0002593961
 234935988, 0.0001039977, 0.003519508, -8.787097E-05, 0.0002593961
 235035948, -0.0001814364, 0.003599043, -0.0001189173, 0.0002593961
 235135908, -4.798879E-05, 0.003583477, -0.0003097832, 0.0002593961
 235235868, 0.0001475423, 0.003530644, -1.788258E-05, 0.0002593961
 235335828, 4.866467E-05, 0.003577685, -3.944129E-05, 0.0002593961
 235435788, -1.812437E-05, 0.003593754, -4.872636E-05, 0.0002593961
 235535748, 0.0001162695, 0.003563567, -0.0001181333, 0.0002593961
 235635708, -9.659478E-05, 0.003722281, -0.0001066496, 0.0002593961
 235735668, -5.607796E-05, 0.003526393, -0.0001035574, 0.0002593961
 235836461, -0.000162685, 0.00347215, 4.616162E-05, 0.0002615578
 235936421, -0.0001830741, 0.003497975, -0.000194753, 0.0002593961
 236036381, -0.0003714976, 0.003604663, 1.083298E-05, 0.0002593961
 236136341, -9.395515E-05, 0.003467753, 0.0001970778, 0.0002593961
 236236301, 2.602279E-05, 0.003575913, -0.0001867251, 0.0002593961
 236336261, 8.099292E-05, 0.003461592, -3.369413E-05, 0.0002593961
 236436221, 0.0001297727, 0.003599831, -0.0001923781, 0.0002593961
 236536181, -3.549287E-05, 0.003372156, -0.0001151137, 0.0002593961
 236636141, 3.912228E-06, 0.003477527, -0.0002529801, 0.0002593961
 236736101, -2.2304E-05, 0.003454973, 2.101296E-05, 0.0002593961
 236836061, -9.560893E-05, 0.003570662, 3.753352E-05, 0.0002593961
 236936021, 6.849448E-05, 0.003607956, -5.450095E-05, 0.0002593961
 237035981, 0.000154583, 0.003802032, 8.286975E-05, 0.0002593961
 237135941, -0.0002203737, 0.003697997, 9.65352E-05, 0.0002593961
 237235901, 5.762175E-05, 0.003710579, -0.0001777963, 0.0002593961
 237335861, -0.0001530244, 0.003569945, -0.0002266525, 0.0002593961
 237435821, -0.0003050605, 0.003664614, 1.476412E-05, 0.0002593961
 237535781, 3.059758E-05, 0.003667634, -1.839021E-05, 0.0002593961
 237635741, -0.000102454, 0.003295134, 3.103087E-05, 0.0002593961
 237735701, -4.026338E-05, 0.003376644, 9.186645E-05, 0.0002593961
 237835661, 2.251849E-06, 0.003698237, 5.80591E-05, 0.0002593961
 237936454, 5.962502E-05, 0.003717822, -0.0002692452, 0.0002615578
 238036414, -6.983466E-06, 0.003765203, -1.612972E-05, 0.0002593961
 238136374, -0.0001590838, 0.003604311, 5.60274E-05, 0.0002593961
 238236334, 7.68477E-06, 0.003529877, -0.0001115257, 0.0002593961
 238336294, -8.918761E-07, 0.003426964, -1.777414E-05, 0.0002593961
 238436254, 5.414381E-05, 0.003706886, -0.000115433, 0.0002593961
 238536214, 1.30324E-05, 0.003704844, -3.310428E-05, 0.0002593961
 238636174, -5.042396E-05, 0.003626408, 5.09547E-05, 0.0002593961
 238736134, -0.0002943139, 0.003443257, -9.21727E-05, 0.0002593961
 238836094, 1.217279E-05, 0.003651218, -8.560451E-05, 0.0002593961
 238936054, 0.0001779619, 0.00348468, -1.882873E-05, 0.0002593961
 239036014, -1.499258E-05, 0.003460732, -6.128958E-05, 0.0002593961
 239135974, -8.676521E-05, 0.003590823, -0.0001541975, 0.0002593961
 239235934, -7.387673E-05, 0.003560425, -0.0001268475, 0.0002593961
 239335894, 0.0001409407, 0.003532132, -0.0001967335, 0.0002593961
 239435854, 1.731314E-05, 0.003652461, 3.500134E-05, 0.0002593961
 239535814, -6.118097E-05, 0.003678038, 6.138373E-05, 0.0002593961
 239635774, -0.0001451706, 0.003622725, -0.0002263308, 0.0002593961
 239735734, 2.761286E-05, 0.003865813, -6.565447E-05, 0.0002593961
 239835694, 0.0001888043, 0.003568301, 9.960719E-05, 0.0002593961
 239935654, 0.0001161143, 0.003683705, 0.0001543989, 0.0002593961
 240036447, 5.302673E-05, 0.003620848, 9.133578E-05, 0.0002615578
 240136407, -0.0001841677, 0.003689613, -1.297908E-05, 0.0002593961
 240236367, -0.0001707875, 0.003694713, -0.0001688425, 0.0002593961
 240336327, 5.675013E-05, 0.003677395, 1.637876E-05, 0.0002593961
 240436287, -4.835288E-05, 0.003488396, 0.0001532966, 0.0002593961
 240536247, -0.0003264468, 0.00361547, -0.0001522993, 0.0002593961
 240636207, -4.705644E-05, 0.003624133, -9.851687E-05, 0.0002593961
 240736167, 0.0001172307, 0.003652042, -0.0001336993, 0.0002593961
 240836127, -0.0001873798, 0.003516954, -0.0001688687, 0.0002593961
 240936087, 0.0001133734, 0.003325787, 4.055784E-05, 0.0002593961
 241036047, 4.0382E-05, 0.003356664, -0.0001301924, 0.0002593961
 241136007, -0.0002564776, 0.003672209, -4.249898E-05, 0.0002593961
 241235967, -0.0001813059, 0.003615113, 4.600115E-05, 0.0002593961
 241335927, -6.030393E-06, 0.003622296, 7.299839E-05, 0.0002593961
 241435887, -0.000146829, 0.003501004, -0.0001122562, 0.0002593961
 241535847, 0.0001037332, 0.003535723, -1.9956E-05, 0.0002593961
 241635807, -0.0001558248, 0.003566971, -0.000107933, 0.0002593961
 241735767, 9.497794E-05, 0.003572973, -0.0001000814, 0.0002593961
 241835727, 1.192216E-05, 0.003410046, -0.0002547222, 0.0002593961
 241935687, -8.922945E-06, 0.003696357, -8.588097E-05, 0.0002593961
 242036480, 1.98992E-05, 0.003705746, 0.0001139221, 0.0002615578
 242136440, 1.622727E-05, 0.003415033, -0.0001080974, 0.0002593961
 242236400, -1.587963E-05, 0.003610472, 6.589518E-05, 0.0002593961
 242336360, -4.325614E-05, 0.003530088, -0.0003051908, 0.0002593961
 242436320, -0.0001076744, 0.003518591, -4.026948E-05, 0.0002593961
 242536280, -2.901285E-05, 0.003736321, -9.171631E-05, 0.0002593961
 242636240, 6.527895E-05, 0.003462928, -0.0002029585, 0.0002593961
 242736200, -0.000166739, 0.003509307, -0.0003144579, 0.0002593961
 242836160, -0.0001006655, 0.0034414, -5.931388E-05, 0.0002593961
 242936120, -3.521252E-05, 0.003658633, -0.0001932623, 0.0002593961
 243036080, 5.392711E-05, 0.003712365, -1.732253E-05, 0.0002593961
 243136040, -0.0001477712, 0.003652105, 8.648392E-05, 0.0002593961
 243236000, -8.496227E-05, 0.003528995, -4.228807E-05, 0.0002593961
 243335960, -0.0001509353, 0.003593476, -0.0001411421, 0.0002593961
 243435920, 0.0002538064, 0.003493831, -8.251821E-05, 0.0002593961
 243535880, 0.0001953562, 0.003814479, -2.541478E-05, 0.0002593961
 243635840, -4.054636E-05, 0.003563048, 5.177214E-05, 0.0002593961
 243735800, -3.809579E-05, 0.003798442, -0.0001576997, 0.0002593961
 243835760, -8.106921E-05, 0.00365624, -4.873471E-05, 0.0002593961
 243935720, -0.0001043749, 0.003478995, 0.0001824126, 0.0002593961
 244035680, -3.718949E-05, 0.003604429, -0.0001814223, 0.0002593961
 244136473, -0.0003316569, 0.003722398, -9.948642E-05, 0.0002615578
 244236433, -0.0001340311, 0.003618553, -0.0001927367, 0.0002593961
 244336393, -4.952952E-05, 0.003584855, -6.338564E-05, 0.0002593961
 244436353, 0.0001213984, 0.003679715, -8.834167E-05, 0.0002593961
 244536313, -0.0001838262, 0.003713607, -0.000197502, 0.0002593961
 244636273, 9.152314E-05, 0.003618631, -0.0001116425, 0.0002593961
 244736233, -2.982351E-05, 0.003663419, -8.719055E-05, 0.0002593961
 244836193, -7.231563E-05, 0.0035459, -6.103933E-05, 0.0002593961
 244936153, 4.287188E-05, 0.003698823, -5.057577E-05, 0.0002593961
 245036113, 5.697582E-06, 0.003560923, -6.92877E-05, 0.0002593961
 245136073, 0.0001178597, 0.003732031, -0.00015981, 0.0002593961
 245236033, 0.0001443579, 0.003726143, 9.121107E-05, 0.0002593961
 245335993, -6.484997E-05, 0.003571208, -8.908522E-06, 0.0002593961
 245435953, -6.549872E-05, 0.003645205, -0.0001444692, 0.0002593961
 245535913, -0.0002165914, 0.003686474, -0.0001257489, 0.0002593961
 245635873, -0.0001907741, 0.003499004, 8.773273E-05, 0.0002593961
 245735833, -0.0001432601, 0.003380873, -6.04757E-05, 0.0002593961
 245835793, 5.386119E-05, 0.003387764, -0.0001705321, 0.0002593961
 245935753, 0.0001560966, 0.003517267, -0.0001444334, 0.0002593961
 246035713, 0.0003077467, 0.003442534, 1.619524E-05, 0.0002593961
 246135673, 0.0001295366, 0.003451775, -0.0001560159, 0.0002593961
 246236466, -8.902079E-05, 0.003580999, -1.836081E-05, 0.0002615578
 246336426, -0.0001259055, 0.003756954, -0.0004174827, 0.0002593961
 246436386, -8.326321E-05, 0.003649054, -0.0002530289, 0.0002593961
 246536346, 8.602635E-05, 0.003645763, -5.011103E-05, 0.0002593961
 246636306, -3.765223E-05, 0.003712486, -0.0001290449, 0.0002593961
 246736266, 0.0001215262, 0.003351102, -4.207476E-05, 0.0002593961
 246836226, -8.676041E-05, 0.003400061, -4.473091E-05, 0.0002593961
 246936186, -5.759584E-06, 0.003706838, -1.269667E-05, 0.0002593961
 247036146, -6.023037E-05, 0.003729674, -8.727395E-06, 0.0002593961
 247136106, -0.0001112881, 0.003651215, -4.840225E-05, 0.0002593961
 247236066, -4.345857E-05, 0.003632032, 8.03709E-05, 0.0002593961
 247336026, -0.0001057744, 0.003609164, 0.0001176971, 0.0002593961
 247435986, -1.326357E-05, 0.003631052, 6.890997E-05, 0.0002593961
 247535946, -8.555445E-05, 0.003466475, 6.875029E-05, 0.0002593961
 247635906, -0.0001462438, 0.003763729, -6.361919E-05, 0.0002593961
 247735866, 2.348303E-05, 0.003586799, 9.425685E-06, 0.0002593961
 247835826, 0.0003207847, 0.00371977, -0.1237598, 0.0002593961
 247935786, 0.0002702692, 0.003793834, -0.1621883, 0.0002593961
 248035746, -2.283838E-05, 0.003580377, -0.025598, 0.0002593961
 248135706, -0.000219946, 0.003452986, 0.04769525, 0.0002593961
 248235666, -0.0001629034, 0.003480369, 0.05432604, 0.0002593961
 248336459, -7.982145E-05, 0.003537392, -0.008484902, 0.0002615578
 248436419, -0.000512896, 0.003032327, -0.5776611, 0.0002593961
 248536379, -0.0031554, 0.0001857597, -0.6862154, 0.0002593961
 248636339, -0.00612807, -0.002795713, -0.4181291, 0.0002593961
 248736299, -0.008023974, -0.004478193, -0.1633861, 0.0002593961
 248836259, -0.008828021, -0.005118979, -0.05623243, 0.0002593961
 248936219, -0.00864466, -0.005052587, -0.06073578, 0.0002593961
 249036179, -0.00833615, -0.004652692, -0.09870011, 0.0002593961
 249136139, -0.007784627, -0.003870139, -0.1222998, 0.0002593961
 249236099, -0.007083023, -0.003414529, -0.1225911, 0.0002593961
 249336059, -0.006471884, -0.002593223, -0.1103482, 0.0002593961
 249436019, -0.006036102, -0.002101306, -0.09677746, 0.0002593961
 249535979, -0.005376234, -0.001501338, -0.08729004, 0.0002593961
 249635939, -0.00483149, -0.00103369, -0.08132622, 0.0002593961
 249735899, -0.004381274, -0.0005460263, -0.07725218, 0.0002593961
 249835859, -0.003835929, -0.0001048711, -0.07333177, 0.0002593961
 249935819, -0.003435277, 0.0004789254, -0.06901421, 0.0002593961
 250035779, -0.00321941, 0.0009929503, -0.06444383, 0.0002593961
 250135739, -0.002708506, 0.001526273, -0.06003384, 0.0002593961
 250235699, -0.002490265, 0.001605432, -0.05611248, 0.0002593961
 250335659, -0.002177392, 0.001931181, -0.05280308, 0.0002593961
 250436452, -0.001861496, 0.001995376, -0.04999714, 0.0002615578
 250536412, -0.001414344, 0.002286754, -0.04654308, 0.0002593961
 250636372, -0.001397866, 0.002500258, -0.0434413, 0.0002593961
 250736332, -0.001453175, 0.002512647, -0.04073836, 0.0002593961
 250836292, -0.001547477, 0.002768437, -0.03773809, 0.0002593961
 250936252, -0.001610215, 0.002798849, -0.03509416, 0.0002593961
 251036212, -0.00172485, 0.002992363, -0.03257671, 0.0002593961
 251136172, -0.001757515, 0.002831702, -0.0311311, 0.0002593961
 251236132, -0.001734265, 0.002922476, -0.02957764, 0.0002593961
 251336092, -0.001709796, 0.002912148, -0.02754597, 0.0002593961
 251436052, -0.001883407, 0.002702133, -0.02601583, 0.0002593961
 251536012, -0.001762192, 0.002499518, -0.02434799, 0.0002593961
 251635972, -0.001768593, 0.002430377, -0.02276857, 0.0002593961
 251735932, -0.001455138, 0.002549004, -0.02130139, 0.0002593961
 251835892, -0.001376621, 0.002246155, -0.02004568, 0.0002593961
 251935852, -0.001380258, 0.002224782, -0.01864863, 0.0002593961
 252035812, -0.00138782, 0.002010595, -0.0175645, 0.0002593961
 252135772, -0.001138412, 0.002075895, -0.01650845, 0.0002593961
 252235732, -0.0009542526, 0.00192947, -0.01534539, 0.0002593961
 252335692, -0.00114859, 0.002064222, -0.01440348, 0.0002593961
 252436485, -0.0009034735, 0.001856461, -0.01363353, 0.0002615578
 252536445, -0.0008511612, 0.001874314, -0.0126237, 0.0002593961
 252636405, -0.0006261619, 0.001728168, -0.01205871, 0.0002593961
 252736365, -0.0005372793, 0.001679678, -0.01128278, 0.0002593961
 252836325, -0.0005230308, 0.001830546, -0.01058038, 0.0002593961
 252936285, -0.0005110794, 0.002117215, -0.009750144, 0.0002593961
 253036245, -0.0002209121, 0.002244596, -0.008854871, 0.0002593961
 253136205, -0.0001139844, 0.002395829, -0.008649725, 0.0002593961
 253236165, -1.029511E-05, 0.002674457, -0.008048065, 0.0002593961
 253336125, 1.761331E-05, 0.002819892, -0.007727853, 0.0002593961
 253436085, 0.0003189189, 0.003096041, -0.00713385, 0.0002593961
 253536045, 0.0003033045, 0.00320903, -0.006573117, 0.0002593961
 253636005, 0.0004527829, 0.003414696, -0.006119992, 0.0002593961
 253735965, 0.0006825857, 0.003590537, -0.005793383, 0.0002593961
 253835925, 0.0007869936, 0.003770168, -0.005521789, 0.0002593961
 253935885, 0.0009409195, 0.003868173, -0.004644278, 0.0002593961
 254035845, 0.0009569963, 0.003880651, -0.004444567, 0.0002593961
 254135805, 0.0008401509, 0.003963118, -0.004285194, 0.0002593961
 254235765, 0.001222953, 0.004172762, -0.004240551, 0.0002593961
 254335725, 0.001048835, 0.004227151, -0.004047628, 0.0002593961
 254435685, 0.001142932, 0.004311951, -0.003641888, 0.0002593961
 254536478, 0.001251695, 0.004536728, -0.003540073, 0.0002615578
 254636438, 0.001292466, 0.004743389, -0.003461633, 0.0002593961
 254736398, 0.00120985, 0.004719262, -0.00312955, 0.0002593961
 254836358, 0.001186534, 0.005022973, -0.002788448, 0.0002593961
 254936318, 0.001244024, 0.004936646, -0.002971055, 0.0002593961
 255036278, 0.001161985, 0.005013518, -0.002712346, 0.0002593961
 255136238, 0.001017038, 0.004972478, -0.002317137, 0.0002593961
 255236198, 0.001013356, 0.005092801, 0.02028675, 0.0002593961
 255336158, 0.0009550626, 0.005333804, 0.03552184, 0.0002593961
 255436118, 0.001033884, 0.005408348, 0.05768797, 0.0002593961
 255536078, 0.001976662, 0.006349498, 0.3318336, 0.0002593961
 255636038, 0.001917309, 0.006198581, 0.3082658, 0.0002593961
 255735998, 0.001725735, 0.006074964, 0.2878134, 0.0002593961
 255835958, 0.001489557, 0.005967364, 0.2691166, 0.0002593961
 255935918, 0.00155062, 0.005728777, 0.2523443, 0.0002593961
 256035878, 0.001376818, 0.00552946, 0.2368699, 0.0002593961
 256135838, 0.001109821, 0.005315671, 0.221722, 0.0002593961
 256235798, 0.001117404, 0.004636686, 0.1691847, 0.0002593961
 256335758, 0.005191515, 0.00177373, 0.1365064, 0.0002593961
 256435718, 0.01414222, -0.004124062, 0.1185144, 0.0002593961
 256535678, 0.02449279, -0.008924063, 0.1057089, 0.0002593961
 256636471, 0.03286966, -0.008244783, 0.09771837, 0.0002615578
 256736431, 0.03480855, 6.388628E-05, 0.0908966, 0.0002593961
 256836391, 0.03130907, 0.01385798, 0.08768278, 0.0002593961
 256936351, 0.02349931, 0.02714407, 0.08695363, 0.0002593961
 257036311, 0.01471917, 0.03552409, 0.08692889, 0.0002593961
 257136271, 0.009977364, 0.0382537, 0.08862945, 0.0002593961
 257236231, 0.0115212, 0.03682907, 0.09067307, 0.0002593961
 257336191, 0.01872427, 0.03204296, 0.09267918, 0.0002593961
 257436151, 0.02904857, 0.02570532, 0.09016669, 0.0002593961
 257536111, 0.03846455, 0.02331229, 0.08546011, 0.0002593961
 257636071, 0.04415403, 0.02676744, 0.0804714, 0.0002593961
 257736031, 0.04271568, 0.02741779, 0.07416453, 0.0002593961
 257835991, 0.03401285, 0.02004704, 0.06705726, 0.0002593961
 257935951, 0.01954478, 0.007526577, 0.06026442, 0.0002593961
 258035911, 0.002463951, -0.004518995, 0.05367525, 0.0002593961
 258135871, -0.01495379, -0.0135079, 0.04796085, 0.0002593961
 258235831, -0.02963694, -0.01811577, 0.04207903, 0.0002593961
 258335791, -0.03951803, -0.01782499, 0.0367289, 0.0002593961
 258435751, -0.0439574, -0.01360027, 0.03138921, 0.0002593961
 258535711, -0.04241473, -0.007211708, 0.02668481, 0.0002593961
 258635671, -0.03602966, -0.0008513134, 0.02227169, 0.0002593961
 258736464, -0.02642207, 0.003169075, 0.01899457, 0.0002615578
 258836424, -0.01497252, 0.004546196, 0.01552951, 0.0002593961
 258936384, -0.007859748, 0.003094947, 0.01327787, 0.0002593961
 259036344, -0.007657713, 0.0005441699, 0.01092316, 0.0002593961
 259136304, -0.01531104, -0.001170958, 0.009071803, 0.0002593961
 259236264, -0.02877528, -0.001501397, 0.007629627, 0.0002593961
 259336224, -0.037074, -0.001356703, 0.006440316, 0.0002593961
 259436184, -0.03485977, -0.002279273, 0.00540999, 0.0002593961
 259536144, -0.02472494, -0.006620283, 0.004393035, 0.0002593961
 259636104, -0.01315982, -0.01424074, 0.003709136, 0.0002593961
 259736064, -0.004617522, -0.02143162, 0.003275851, 0.0002593961
 259836024, -0.001622643, -0.02449313, 0.002721144, 0.0002593961
 259935984, -0.002283335, -0.02157147, 0.002063439, 0.0002593961
 260035944, -0.003952623, -0.01263884, 0.001498527, 0.0002593961
 260135904, -0.004413072, -0.002055492, 0.001294201, 0.0002593961
 260235864, -0.003403681, 0.006863469, 0.001227187, 0.0002593961
 260335824, -0.0008821073, 0.01126435, 0.00128636, 0.0002593961
 260435784, 0.002234288, 0.01131616, 0.0006401765, 0.0002593961
 260535744, 0.001102926, 0.01127342, 0.0006265684, 0.0002593961
 260635704, -0.005586233, 0.01493349, 0.0006782917, 0.0002593961
 260735664, -0.01278003, 0.02011278, 0.000589042, 0.0002593961
 260836457, -0.01551768, 0.02390494, 0.0004998515, 0.0002615578
 260936417, -0.01194389, 0.02277181, 0.0003446917, 0.0002593961
 261036377, -0.003414033, 0.01674687, -0.0003441412, 0.0002593961
 261136337, 0.007433811, 0.00684533, 5.282433E-05, 0.0002593961
 261236297, 0.01656657, -0.003599049, 4.995732E-05, 0.0002593961
 261336257, 0.01974657, -0.0097464, -7.457491E-05, 0.0002593961
 261436217, 0.01522417, -0.009727689, -0.0002657054, 0.0002593961
 261536177, 0.006584411, -0.009302835, -0.0001002471, 0.0002593961
 261636137, -0.001650313, -0.01205797, -0.0002029835, 0.0002593961
 261736097, -0.006709745, -0.01832408, 1.676247E-05, 0.0002593961
 261836057, -0.008998766, -0.02507252, 0.0001546074, 0.0002593961
 261936017, -0.01240041, -0.02700099, -0.0002166417, 0.0002593961
 262035977, -0.01935046, -0.02149868, -0.000211239, 0.0002593961
 262135937, -0.02881294, -0.01125115, -0.0001724375, 0.0002593961
 262235897, -0.03785494, -0.0003669783, 5.121804E-05, 0.0002593961
 262335857, -0.03845775, 0.008613947, -0.0004062767, 0.0002593961
 262435817, -0.02678647, 0.01455913, -0.0008757247, 0.0002593961
 262535777, -0.007015122, 0.01788746, -0.001007523, 0.0002593961
 262635737, 0.01439937, 0.01900012, -0.0009368248, 0.0002593961
 262735697, 0.03100926, 0.01791112, -0.0006655164, 0.0002593961
 262835657, 0.03961094, 0.01476299, -0.00108584, 0.0002593961
 262936450, 0.04153002, 0.009468337, -0.0006389532, 0.0002615578
 263036410, 0.03912464, 0.003351677, -0.0007575782, 0.0002593961
 263136370, 0.03433853, 0.002573829, -0.0006832093, 0.0002593961
 263236330, 0.02796822, 0.008697391, -0.0005549249, 0.0002593961
 263336290, 0.01832771, 0.01193727, -0.0006353984, 0.0002593961
 263436250, 0.0063875, 0.007156256, -0.0006338456, 0.0002593961
 263536210, -0.003719845, -0.005255587, -0.0005823844, 0.0002593961
 263636170, -0.01070899, -0.02173257, -0.0001602033, 0.0002593961
 263736130, -0.01404282, -0.03746562, 0.0001150672, 0.0002593961
 263836090, -0.01487463, -0.04911214, 0.0004200101, 0.0002593961
 263936050, -0.01327821, -0.05549626, 0.0004289353, 0.0002593961
 264036010, -0.01087552, -0.05634793, -8.092859E-05, 0.0002593961
 264135970, -0.008377381, -0.05389342, -0.0002464095, 0.0002593961
 264235930, -0.007014623, -0.04996655, -0.0004838735, 0.0002593961
 264335890, -0.006355339, -0.04651817, -0.0004102829, 0.0002593961
 264435850, -0.006582536, -0.04462718, -0.0008836168, 0.0002593961
 264535810, -0.007215787, -0.04520182, -0.0001817453, 0.0002593961
 264635770, -0.008028183, -0.04727917, -0.0001966286, 0.0002593961
 264735730, -0.009184557, -0.05033815, 0.0001546074, 0.0002593961
 264835690, -0.01029519, -0.05369898, 0.0002824869, 0.0002593961
 264936483, -0.01135649, -0.05699949, 0.0002856546, 0.0002615578
 265036443, -0.01127378, -0.05882599, 0.0002493635, 0.0002593961
 265136403, -0.01124283, -0.06028752, 0.0001879941, 0.0002593961
 265236363, -0.01110623, -0.06122385, -0.0001703057, 0.0002593961
 265336323, -0.01111463, -0.06197166, -2.978563E-05, 0.0002593961
 265436283, -0.01096547, -0.06245936, -0.0004157906, 0.0002593961
 265536243, -0.01095058, -0.06269604, -0.0005137891, 0.0002593961
 265636203, -0.01128762, -0.06291642, -0.000300615, 0.0002593961
 265736163, -0.01152179, -0.06332626, -0.0004725257, 0.0002593961
 265836123, -0.01158723, -0.06356174, -0.0008705471, 0.0002593961
 265936083, -0.01139268, -0.06439298, -0.0004608361, 0.0002593961
 266036043, -0.01159099, -0.06522953, -0.000465189, 0.0002593961
 266136003, -0.01163898, -0.06648781, -0.0003981236, 0.0002593961
 266235963, -0.01183919, -0.0673458, -0.0004928489, 0.0002593961
 266335923, -0.01208484, -0.06827416, -0.0004248302, 0.0002593961
 266435883, -0.01204397, -0.06935086, -0.0003495177, 0.0002593961
 266535843, -0.01235063, -0.0703298, -0.0003825171, 0.0002593961
 266635803, -0.01232035, -0.07084906, -0.0003335846, 0.0002593961
 266735763, -0.01239612, -0.07159352, -0.0003686681, 0.0002593961
 266835723, -0.01248529, -0.07202016, -0.0006597216, 0.0002593961
 266935683, -0.01227268, -0.07232194, -0.0008087045, 0.0002593961
 267036476, -0.01246682, -0.07336997, -0.0008609149, 0.0002615578
 267136436, -0.01232793, -0.07343329, -0.0007697245, 0.0002593961
 267236396, -0.01242678, -0.07405352, -0.0008640942, 0.0002593961
 267336356, -0.012571, -0.07510745, -0.001010462, 0.0002593961
 267436316, -0.01271641, -0.07605107, -0.001170305, 0.0002593961
 267536276, -0.012591, -0.07676526, -0.001202741, 0.0002593961
 267636236, -0.01274127, -0.07743864, -0.00141903, 0.0002593961
 267736196, -0.01263125, -0.07781857, -0.001508457, 0.0002593961
 267836156, -0.01247694, -0.07862553, -0.001725339, 0.0002593961
 267936116, -0.01239303, -0.07939905, -0.002005044, 0.0002593961
 268036076, -0.01239716, -0.0801736, -0.002198105, 0.0002593961
 268136036, -0.01237049, -0.08081993, -0.002151763, 0.0002593961
 268235996, -0.01222423, -0.08150021, -0.002680117, 0.0002593961
 268335956, -0.012188, -0.08251666, -0.002735864, 0.0002593961
 268435916, -0.01210913, -0.08315481, -0.003105027, 0.0002593961
 268535876, -0.01180801, -0.08381148, -0.003153481, 0.0002593961
 268635836, -0.01186234, -0.08452945, -0.003719888, 0.0002593961
 268735796, -0.01192092, -0.0850967, -0.003588503, 0.0002593961
 268835756, -0.01185334, -0.0859822, -0.004077826, 0.0002593961
 268935716, -0.0117173, -0.08653736, -0.004258616, 0.0002593961
 269035676, -0.01181495, -0.08697847, -0.005081389, 0.0002593961
 269136469, -0.01176928, -0.08820219, -0.004882474, 0.0002615578
 269236429, -0.01164364, -0.0885233, -0.005460149, 0.0002593961
 269336389, -0.01133917, -0.08863091, -0.005422642, 0.0002593961
 269436349, -0.01153228, -0.0897764, -0.006069609, 0.0002593961
 269536309, -0.01151526, -0.09023548, -0.005955482, 0.0002593961
 269636269, -0.01152107, -0.09151448, -0.006579731, 0.0002593961
 269736229, -0.0115044, -0.09227654, -0.006605986, 0.0002593961
 269836189, -0.01134179, -0.09325442, -0.007257993, 0.0002593961
 269936149, -0.01141815, -0.09379973, -0.007422008, 0.0002593961
 270036109, -0.01136316, -0.09465403, -0.008173561, 0.0002593961
 270136069, -0.01131467, -0.09517926, -0.008113787, 0.0002593961
 270236029, -0.01119731, -0.09604684, -0.008993018, 0.0002593961
 270335989, -0.01096602, -0.09636287, -0.008951858, 0.0002593961
 270435949, -0.01090402, -0.09754838, -0.009710079, 0.0002593961
 270535909, -0.01062682, -0.09807343, -0.009903488, 0.0002593961
 270635869, -0.01059146, -0.0992341, -0.01045247, 0.0002593961
 270735829, -0.01034774, -0.1000416, -0.01038235, 0.0002593961
 270835789, -0.01064802, -0.1012532, -0.01145082, 0.0002593961
 270935749, -0.01042465, -0.1016732, -0.01155095, 0.0002593961
 271035709, -0.01061087, -0.1026662, -0.01243051, 0.0002593961
 271135669, -0.01036819, -0.1028082, -0.01251863, 0.0002593961
 271236462, -0.01048308, -0.104505, -0.0135276, 0.0002615578
 271336422, -0.01018869, -0.1041671, -0.01348541, 0.0002593961
 271436382, -0.01012951, -0.1048943, -0.01425338, 0.0002593961
 271536342, -0.009884389, -0.1057488, -0.01425373, 0.0002593961
 271636302, -0.009626593, -0.1068062, -0.01535787, 0.0002593961
 271736262, -0.009416664, -0.1074369, -0.0154099, 0.0002593961
 271836222, -0.009331563, -0.1085991, -0.01644341, 0.0002593961
 271936182, -0.00908108, -0.1090564, -0.01650719, 0.0002593961
 272036142, -0.008988367, -0.1103042, -0.01758833, 0.0002593961
 272136102, -0.008834641, -0.1105645, -0.01758633, 0.0002593961
 272236062, -0.008724218, -0.1117738, -0.01881367, 0.0002593961
 272336022, -0.008568925, -0.1120958, -0.01878774, 0.0002593961
 272435982, -0.008532156, -0.1136317, -0.02002937, 0.0002593961
 272535942, -0.00807583, -0.1140827, -0.02010245, 0.0002593961
 272635902, -0.008120192, -0.1156535, -0.02144004, 0.0002593961
 272735862, -0.007666747, -0.1160224, -0.02128124, 0.0002593961
 272835822, -0.007873719, -0.1174078, -0.02281647, 0.0002593961
 272935782, -0.007349549, -0.1174607, -0.02250381, 0.0002593961
 273035742, -0.007305427, -0.1191946, -0.0239579, 0.0002593961
 273135702, -0.007202866, -0.1190463, -0.02401432, 0.0002593961
 273235662, -0.006945762, -0.1198884, -0.02557787, 0.0002593961
 273336455, -0.00492941, -0.1139697, -0.02868346, 0.0002615578
 273436415, -0.0004034287, -0.09780215, -0.03420797, 0.0002593961
 273536375, 0.00701791, -0.0719914, -0.0379454, 0.0002593961
 273636335, 0.01601979, -0.04238209, -0.04134748, 0.0002593961
 273736295, 0.0252973, -0.01062904, -0.04168897, 0.0002593961
 273836255, 0.03384332, 0.01848757, -0.04180476, 0.0002593961
 273936215, 0.04125273, 0.04448713, -0.03971231, 0.0002593961
 274036175, 0.04628535, 0.06501255, -0.0386228, 0.0002593961
 274136135, 0.04998481, 0.08220432, -0.03676752, 0.0002593961
 274236095, 0.05202222, 0.09464327, -0.0367622, 0.0002593961
 274336055, 0.05361429, 0.1056682, -0.03581092, 0.0002593961
 274436015, 0.0548114, 0.1138127, -0.03656711, 0.0002593961
 274535975, 0.0566961, 0.1218942, -0.03681789, 0.0002593961
 274635935, 0.0584284, 0.1283116, -0.0379443, 0.0002593961
 274735895, 0.06102452, 0.1357388, -0.03825083, 0.0002593961
 274835855, 0.06347305, 0.1421696, -0.03916832, 0.0002593961
 274935815, 0.06625095, 0.1495499, -0.03869513, 0.0002593961
 275035775, 0.06875034, 0.155927, -0.03830216, 0.0002593961
 275135735, 0.07124864, 0.1628565, -0.0368609, 0.0002593961
 275235695, 0.07355338, 0.1683922, -0.03551703, 0.0002593961
 275335655, 0.07557645, 0.1738829, -0.03247113, 0.0002593961
 275436448, 0.07766039, 0.179724, -0.02945464, 0.0002615578
 275536408, 0.07800275, 0.1813598, -0.02551948, 0.0002593961
 275636368, 0.07852471, 0.1830505, -0.0212644, 0.0002593961
 275736328, 0.0788593, 0.1841117, -0.01653088, 0.0002593961
 275836288, 0.07869226, 0.1834356, -0.01166824, 0.0002593961
 275936248, 0.07793949, 0.182197, -0.006208286, 0.0002593961
 276036208, 0.07686172, 0.1793681, -0.001123485, 0.0002593961
 276136168, 0.07543754, 0.1763497, 0.004469791, 0.0002593961
 276236128, 0.07371435, 0.1722342, 0.009862058, 0.0002593961
 276336088, 0.0718963, 0.1675952, 0.01500083, 0.0002593961
 276436048, 0.06975914, 0.1623136, 0.02023046, 0.0002593961
 276536008, 0.06765893, 0.1564558, 0.02476095, 0.0002593961
 276635968, 0.06523351, 0.1501819, 0.02929519, 0.0002593961
 276735928, 0.06302475, 0.1434116, 0.03309872, 0.0002593961
 276835888, 0.06067624, 0.1363478, 0.03660043, 0.0002593961
 276935848, 0.05846424, 0.1291848, 0.03946478, 0.0002593961
 277035808, 0.0561359, 0.1214826, 0.04168082, 0.0002593961
 277135768, 0.05373325, 0.1140979, 0.04357385, 0.0002593961
 277235728, 0.05146274, 0.1064715, 0.04418367, 0.0002593961
 277335688, 0.04911616, 0.09958763, 0.04450605, 0.0002593961
 277436481, 0.04716867, 0.09332199, 0.04493459, 0.0002615578
 277536441, 0.04441625, 0.0853615, 0.04364811, 0.0002593961
 277636401, 0.04219202, 0.07888854, 0.04205225, 0.0002593961
 277736361, 0.0400388, 0.07284808, 0.04015208, 0.0002593961
 277836321, 0.03804434, 0.0671226, 0.03823268, 0.0002593961
 277936281, 0.03614116, 0.06196761, 0.03527956, 0.0002593961
 278036241, 0.03437263, 0.05753645, 0.03238045, 0.0002593961
 278136201, 0.03289166, 0.05340573, 0.0292887, 0.0002593961
 278236161, 0.03105399, 0.04999465, 0.0259834, 0.0002593961
 278336121, 0.02970562, 0.047293, 0.02265184, 0.0002593961
 278436081, 0.0284979, 0.04518327, 0.01919652, 0.0002593961
 278536041, 0.02756091, 0.04347103, 0.01638567, 0.0002593961
 278636001, 0.02630455, 0.04227978, 0.01296646, 0.0002593961
 278735961, 0.02555898, 0.04141041, 0.009834019, 0.0002593961
 278835921, 0.02503484, 0.04119026, 0.007060365, 0.0002593961
 278935881, 0.02451111, 0.04157552, 0.004581186, 0.0002593961
 279035841, 0.02394379, 0.0420926, 0.002291486, 0.0002593961
 279135801, 0.02393022, 0.04295132, 0.0005182136, 0.0002593961
 279235761, 0.02366164, 0.04394162, -0.0009042541, 0.0002593961
 279335721, 0.02355899, 0.04475616, -0.002235273, 0.0002593961
 279435681, 0.02338658, 0.04558461, -0.003385595, 0.0002593961
 279536474, 0.02314859, 0.04663959, -0.00449432, 0.0002615578
 279636434, 0.02261293, 0.04789659, -0.005699711, 0.0002593961
 279736394, 0.02268015, 0.05060897, -0.006428394, 0.0002593961
 279836354, 0.02280145, 0.05308816, -0.007190587, 0.0002593961
 279936314, 0.02346642, 0.05641314, -0.00759041, 0.0002593961
 280036274, 0.0242476, 0.05965847, -0.007618416, 0.0002593961
 280136234, 0.02477761, 0.06228906, -0.007667637, 0.0002593961
 280236194, 0.0254845, 0.06476495, -0.00743596, 0.0002593961
 280336154, 0.02587897, 0.06703631, -0.006670061, 0.0002593961
 280436114, 0.02565383, 0.06883047, -0.006642533, 0.0002593961
 280536074, 0.02584636, 0.07040878, -0.005946004, 0.0002593961
 280636034, 0.02545051, 0.07189929, -0.005322107, 0.0002593961
 280735994, 0.0251043, 0.07260966, -0.004983551, 0.0002593961
 280835954, 0.02510156, 0.07344272, -0.004520142, 0.0002593961
 280935914, 0.02480678, 0.07445346, -0.003543607, 0.0002593961
 281035874, 0.02439082, 0.07468919, -0.003248766, 0.0002593961
 281135834, 0.02398251, 0.07503074, -0.002608914, 0.0002593961
 281235794, 0.02360828, 0.07532606, -0.002134431, 0.0002593961
 281335754, 0.02325998, 0.07526145, -0.001656779, 0.0002593961
 281435714, 0.0230239, 0.0757567, -0.00106005, 0.0002593961
 281535674, 0.02243786, 0.07540724, -0.0006181829, 0.0002593961
 281636467, 0.02227753, 0.07614481, -0.0001447094, 0.0002615578
 281736427, 0.02166894, 0.07502923, 0.0003574169, 0.0002593961
 281836387, 0.02116312, 0.07440249, 0.0005230062, 0.0002593961
 281936347, 0.02072224, 0.07425463, 0.000898127, 0.0002593961
 282036307, 0.0201224, 0.0736082, 0.001248641, 0.0002593961
 282136267, 0.01957994, 0.07293639, 0.00146219, 0.0002593961
 282236227, 0.01899407, 0.072578, 0.001898725, 0.0002593961
 282336187, 0.01824029, 0.0718971, 0.001779904, 0.0002593961
 282436147, 0.0175355, 0.07123642, 0.001959548, 0.0002593961
 282536107, 0.01686773, 0.07049414, 0.002247554, 0.0002593961
 282636067, 0.01630119, 0.0698193, 0.002504115, 0.0002593961
 282736027, 0.01544402, 0.0690197, 0.002291632, 0.0002593961
 282835987, 0.01455044, 0.06797189, 0.002394048, 0.0002593961
 282935947, 0.01415044, 0.06709727, 0.002503899, 0.0002593961
 283035907, 0.01338807, 0.06613839, 0.002501537, 0.0002593961
 283135867, 0.01235316, 0.06535067, 0.002483711, 0.0002593961
 283235827, 0.01159957, 0.06450341, 0.002368422, 0.0002593961
 283335787, 0.01090752, 0.06334236, 0.002337416, 0.0002593961
 283435747, 0.01023846, 0.06223751, 0.002348364, 0.0002593961
 283535707, 0.009621406, 0.0610234, 0.002132694, 0.0002593961
 283635667, 0.008893898, 0.06002105, 0.002113065, 0.0002593961
 283736460, 0.008322981, 0.05979139, 0.002202994, 0.0002615578
 283836420, 0.00720954, 0.05782951, 0.002025262, 0.0002593961
 283936380, 0.006591707, 0.05685688, 0.001760432, 0.0002593961
 284036340, 0.005627212, 0.05589239, 0.001864466, 0.0002593961
 284136300, 0.004543378, 0.05464549, 0.001652634, 0.0002593961
 284236260, 0.003827015, 0.05339737, 0.001272287, 0.0002593961
 284336220, 0.003149097, 0.05224437, 0.001251669, 0.0002593961
 284436180, 0.00236032, 0.05109471, 0.001245445, 0.0002593961
 284536140, 0.001617371, 0.05014331, 0.001097568, 0.0002593961
 284636100, 0.0009194805, 0.04892106, 0.001103781, 0.0002593961
 284736060, -1.508653E-05, 0.04733966, 0.0006339421, 0.0002593961
 284836020, -0.0005150812, 0.04629363, 0.0006189076, 0.0002593961
 284935980, -0.00142285, 0.04546313, 0.0008439965, 0.0002593961
 285035940, -0.0020963, 0.04379024, 0.0002435389, 0.0002593961
 285135900, -0.002815522, 0.04299938, 0.000367915, 0.0002593961
 285235860, -0.003522933, 0.04209118, 0.0002880529, 0.0002593961
 285335820, -0.004563214, 0.04085431, -0.0001033929, 0.0002593961
 285435780, -0.0050012, 0.0400014, 0.0004364449, 0.0002593961
 285535740, -0.006073939, 0.03835241, -0.0003365219, 0.0002593961
 285635700, -0.006723781, 0.03779497, 0.0001824019, 0.0002593961
 285735660, -0.007647212, 0.03599177, -0.0005737643, 0.0002593961
 285836453, -0.007899453, 0.03586889, 0.0001072331, 0.0002615578
 285936413, -0.008785972, 0.03384204, -0.0004586412, 0.0002593961
 286036373, -0.009526168, 0.03263037, -0.001128235, 0.0002593961
 286136333, -0.00987799, 0.03221801, -0.0004727975, 0.0002593961
 286236293, -0.01068646, 0.03071269, -0.0009646264, 0.0002593961
 286336253, -0.01102642, 0.02990858, -0.0005496317, 0.0002593961
 286436213, -0.01188429, 0.02896066, -0.0005343206, 0.0002593961
 286536173, -0.01243762, 0.02763566, -0.0007469037, 0.0002593961
 286636133, -0.01324276, 0.02620082, -0.001565718, 0.0002593961
 286736093, -0.0133101, 0.02609167, -0.00050729, 0.0002593961
 286836053, -0.01400505, 0.02467626, -0.0005423462, 0.0002593961
 286936013, -0.0148699, 0.02365031, -0.0007432551, 0.0002593961
 287035973, -0.01551431, 0.02243224, -0.001068024, 0.0002593961
 287135933, -0.01622875, 0.02119186, -0.001255162, 0.0002593961
 287235893, -0.01645954, 0.02002252, -0.00130157, 0.0002593961
 287335853, -0.01698256, 0.01938771, -0.001203896, 0.0002593961
 287435813, -0.0176933, 0.01882021, -0.0008974872, 0.0002593961
 287535773, -0.01799428, 0.018317, -0.0006698801, 0.0002593961
 287635733, -0.01878064, 0.01700835, -0.0009351815, 0.0002593961
 287735693, -0.01900201, 0.01643325, -0.0007033419, 0.0002593961
 287836486, -0.01962485, 0.01559871, -0.0009785874, 0.0002593961
