TimeUS,COFN,COFE,COFD,CNe,CEe,CDe,POFN,POFE,POFD,PNe,PEe,PDe
 140033964, 0, 0, 0, 0, 0, 0, 0, 0, 0, 0, 0, 0
 140233884, 0, 0, 0, 0, 0, 0, 0, 0, 0, 0, 0, 0
 140433804, 0, 0, 0, 0, 0, 0, 0, 0, 0, 0, 0, 0
 140633724, 0, 0, 0, 0, 0, 0, 0, 0, 0, 0, 0, 0
 140833644, 0, 0, 0, 0, 0, 0, 0, 0, 0, 0, 0, 0
 141033564, 0, 0, 0, 0, 0, 0, 0, 0, 0, 0, 0, 0
 141233484, 0, 0, 0, 0, 0, 0, 0, 0, 0, 0, 0, 0
 141434237, 0, 0, 0, 0, 0, 0, 0, 0, 0, 0, 0, 0
 141634157, 0, 0, 0, 0, 0, 0, 0, 0, 0, 0, 0, 0
 141834077, 0, 0, 0, 0, 0, 0, 0, 0, 0, 0, 0, 0
 142033997, 0, 0, 0, 0, 0, 0, 0, 0, 0, 0, 0, 0
 142233917, 0, 0, 0, 0, 0, 0, 0, 0, 0, 0, 0, 0
 142433837, 0, 0, 0, 0, 0, 0, 0, 0, 0, 0, 0, 0
 142633757, 0, 0, 0, 0, 0, 0, 0, 0, 0, 0, 0, 0
 142833677, 0, 0, 0, 0, 0, 0, 0, 0, 0, 0, 0, 0
 143033597, 0, 0, 0, 0, 0, 0, 0, 0, 0, 0, 0, 0
 143233517, 0, 0, 0, 0, 0, 0, 0, 0, 0, 0, 0, 0
 143434270, 0, 0, 0, 0, 0, 0, 0, 0, 0, 0, 0, 0
 143634190, -0.3949837, 0.04591712, 0.01585096, 0.1650556, -0.008883596, 0.9882483, 0, 0, 0, 0, 0, 0
 143834110, 0.1088415, -0.01315158, -0.07238564, 0.1486735, -0.01207662, 0.9896385, -0.3949837, 0.04591712, 0.01585096, 0.1650556, -0.008883596, 0.9882483
 144034030, 0.03063595, -0.006143127, -0.06914093, 0.1286201, -0.009514413, 0.9917189, 0.1088415, -0.01315158, -0.07238564, 0.1486735, -0.01207662, 0.9896385
 144233950, 0.003984898, -0.002813417, -0.06103208, 0.1314661, -0.01351835, 0.9912568, 0.03063595, -0.006143127, -0.06914093, 0.1286201, -0.009514413, 0.9917189
 144433870, -0.02847878, 0.0002759161, -0.05170482, 0.1352931, -0.01670336, 0.9906812, 0.003984898, -0.002813417, -0.06103208, 0.1314661, -0.01351835, 0.9912568
 144633790, -0.0770696, 0.005434916, -0.04983271, 0.1389051, -0.01197862, 0.9902495, -0.02847878, 0.0002759161, -0.05170482, 0.1352931, -0.01670336, 0.9906812
 144833710, -0.1286098, 0.0116986, -0.04746616, 0.1418519, -0.006319894, 0.9898903, -0.0770696, 0.005434916, -0.04983271, 0.1389051, -0.01197862, 0.9902495
 145033630, -0.1948013, 0.01940054, -0.03305602, 0.1451274, -0.01153301, 0.9893899, -0.1286098, 0.0116986, -0.04746616, 0.1418519, -0.006319894, 0.9898903
 145233550, -0.3175331, 0.04180304, -0.01435259, 0.1614903, -0.01455578, 0.9869913, -0.1948013, 0.01940054, -0.03305602, 0.1451274, -0.01153301, 0.9893899
 145434303, -0.6827047, 0.07287684, 0.04078267, 0.2421975, -0.01987924, 0.9749767, -0.3175331, 0.04180304, -0.01435259, 0.1614903, -0.01455578, 0.9869913
 145634223, -1.209492, 0.1269313, 0.08692477, 0.4232984, -0.04212216, 0.9484427, -0.6827047, 0.07287684, 0.04078267, 0.2421975, -0.01987924, 0.9749767
 145834143, 14.47656, -1.627007, -2.213534, 19.41151, -2.181924, -1.875926, -1.209492, 0.1269313, 0.08692477, 0.4232984, -0.04212216, 0.9484427
 146034063, 1.362207, -0.1579815, -0.2664387, 1.086208, -0.1112351, 0.8473553, 14.47656, -1.627007, -2.213534, 19.41151, -2.181924, -1.875926
 146233983, 1.200422, -0.1347997, -0.2468376, 0.7876547, -0.07790532, 0.8898565, 1.362207, -0.1579815, -0.2664387, 1.086208, -0.1112351, 0.8473553
 146433903, 1.016716, -0.1191246, -0.2466583, 0.5713765, -0.05529266, 0.9242542, 1.200422, -0.1347997, -0.2468376, 0.7876547, -0.07790532, 0.8898565
 146633823, 0.804097, -0.08196779, -0.1825057, 0.3939021, -0.03607005, 0.9517185, 1.016716, -0.1191246, -0.2466583, 0.5713765, -0.05529266, 0.9242542
 146833743, 0.535255, -0.06573606, -0.1408718, 0.2606767, -0.01707776, 0.9721914, 0.804097, -0.08196779, -0.1825057, 0.3939021, -0.03607005, 0.9517185
 147033663, 0.4612461, -0.04497224, -0.1267608, 0.2269685, -0.01506835, 0.977739, 0.535255, -0.06573606, -0.1408718, 0.2606767, -0.01707776, 0.9721914
 147233583, 0.4992796, -0.05110823, -0.1286837, 0.2276416, -0.01314756, 0.978289, 0.4612461, -0.04497224, -0.1267608, 0.2269685, -0.01506835, 0.977739
 147433503, 0.4249003, -0.05046543, -0.1139462, 0.1964979, -0.001928152, 0.9832535, 0.4992796, -0.05110823, -0.1286837, 0.2276416, -0.01314756, 0.978289
 147634256, 0.4837726, -0.05601731, -0.1171063, 0.200225, -0.0002907589, 0.9834578, 0.4249003, -0.05046543, -0.1139462, 0.1964979, -0.001928152, 0.9832535
 147834176, 0.4162516, -0.04188661, -0.1023443, 0.1786938, 0.00156855, 0.986263, 0.4837726, -0.05601731, -0.1171063, 0.200225, -0.0002907589, 0.9834578
 148034096, 0.3867278, -0.03324809, -0.09603614, 0.1641478, 0.0006054286, 0.9883438, 0.4162516, -0.04188661, -0.1023443, 0.1786938, 0.00156855, 0.986263
 148234016, 0.4120721, -0.04386253, -0.09489127, 0.1587131, -0.0005397527, 0.9894708, 0.3867278, -0.03324809, -0.09603614, 0.1641478, 0.0006054286, 0.9883438
 148433936, 0.4262736, -0.06351542, -0.06779599, 0.1524383, 0.0003874134, 0.9905601, 0.4120721, -0.04386253, -0.09489127, 0.1587131, -0.0005397527, 0.9894708
 148633856, 0.3640331, -0.0439782, -0.09039727, 0.136218, 0.004511375, 0.9922442, 0.4262736, -0.06351542, -0.06779599, 0.1524383, 0.0003874134, 0.9905601
 148833776, 0.3700041, -0.04940544, -0.08717439, 0.1224684, -0.02632571, 0.9937226, 0.3640331, -0.0439782, -0.09039727, 0.136218, 0.004511375, 0.9922442
 149033696, 0.3734628, -0.007837459, -0.1139382, 0.0966299, -0.161306, 0.9837747, 0.3700041, -0.04940544, -0.08717439, 0.1224684, -0.02632571, 0.9937226
 149233616, 0.3591683, -0.04914535, -0.04687631, 0.0799247, -0.2066016, 0.9766439, 0.3734628, -0.007837459, -0.1139382, 0.0966299, -0.161306, 0.9837747
 149433536, 0.3762549, -0.05920347, -0.02140154, 0.08772621, -0.1335307, 0.988747, 0.3591683, -0.04914535, -0.04687631, 0.0799247, -0.2066016, 0.9766439
 149634289, 0.3895202, -0.03801991, -0.01529571, 0.08586147, -0.07796974, 0.994923, 0.3762549, -0.05920347, -0.02140154, 0.08772621, -0.1335307, 0.988747
 149834209, 0.3242611, -0.03173883, -0.03955461, 0.06469142, -0.09340093, 0.994749, 0.3895202, -0.03801991, -0.01529571, 0.08586147, -0.07796974, 0.994923
 150034129, 0.3405551, -0.0374643, -0.006180724, 0.05194217, -0.1171347, 0.9930772, 0.3242611, -0.03173883, -0.03955461, 0.06469142, -0.09340093, 0.994749
 150234049, 0.3511606, -0.0358629, -0.002655638, 0.0450267, -0.1044079, 0.9948986, 0.3405551, -0.0374643, -0.006180724, 0.05194217, -0.1171347, 0.9930772
 150433969, 0.3657734, -0.01090808, 0.001253399, 0.04507171, -0.0793825, 0.9973014, 0.3511606, -0.0358629, -0.002655638, 0.0450267, -0.1044079, 0.9948986
 150633889, 0.332243, -0.007941608, -0.0267788, 0.03474242, -0.07137727, 0.9981118, 0.3657734, -0.01090808, 0.001253399, 0.04507171, -0.0793825, 0.9973014
 150833809, 0.3117802, -0.02233353, 0.004534379, 0.02380607, -0.06891844, 0.9984961, 0.332243, -0.007941608, -0.0267788, 0.03474242, -0.07137727, 0.9981118
 151033729, 0.3024608, -0.02164074, 0.006241306, 0.01711443, -0.06121737, 0.9990886, 0.3117802, -0.02233353, 0.004534379, 0.02380607, -0.06891844, 0.9984961
 151233649, 0.3484783, -0.006603114, 0.01259209, 0.011333, -0.05290323, 0.9998988, 0.3024608, -0.02164074, 0.006241306, 0.01711443, -0.06121737, 0.9990886
 151433569, 0.34579, -0.008615614, 0.01471786, 0.004268054, -0.04655335, 1.000253, 0.3484783, -0.006603114, 0.01259209, 0.011333, -0.05290323, 0.9998988
 151633489, 0.3605085, -0.01249666, 0.01632807, 0.002790898, -0.04481389, 1.000427, 0.34579, -0.008615614, 0.01471786, 0.004268054, -0.04655335, 1.000253
 151834242, 0.3369707, -0.01123083, 0.01572645, -0.001444392, -0.04100114, 1.000451, 0.3605085, -0.01249666, 0.01632807, 0.002790898, -0.04481389, 1.000427
 152034162, 0.3406825, -0.006454663, 0.01709605, -0.003622796, -0.03763743, 1.0006, 0.3369707, -0.01123083, 0.01572645, -0.001444392, -0.04100114, 1.000451
 152234082, 0.3046558, -0.01037501, 0.01672597, -0.01331595, -0.03233662, 1.000511, 0.3406825, -0.006454663, 0.01709605, -0.003622796, -0.03763743, 1.0006
 152434002, 0.3052678, 0.002345396, 0.01929121, -0.01948531, -0.02620827, 1.000598, 0.3046558, -0.01037501, 0.01672597, -0.01331595, -0.03233662, 1.000511
 152633922, 0.348129, -0.02631073, 0.02160983, -0.01662755, -0.02258429, 1.00096, 0.3052678, 0.002345396, 0.01929121, -0.01948531, -0.02620827, 1.000598
 152833842, 0.3562764, -0.01219499, 0.02507715, -0.02222393, -0.02061461, 1.000949, 0.348129, -0.02631073, 0.02160983, -0.01662755, -0.02258429, 1.00096
 153033762, 0.330084, -0.01474683, 0.02328182, -0.02611165, -0.02197943, 1.00067, 0.3562764, -0.01219499, 0.02507715, -0.02222393, -0.02061461, 1.000949
 153233682, 0.3587178, 0.004013937, 0.02656987, -0.02386618, -0.02058215, 1.000934, 0.330084, -0.01474683, 0.02328182, -0.02611165, -0.02197943, 1.00067
 153433602, 0.3125869, 0.003597328, 0.02482388, -0.03485775, -0.01767227, 1.000405, 0.3587178, 0.004013937, 0.02656987, -0.02386618, -0.02058215, 1.000934
 153633522, 0.3296448, -0.03060485, 0.02627534, -0.03658658, -0.01416415, 1.000475, 0.3125869, 0.003597328, 0.02482388, -0.03485775, -0.01767227, 1.000405
 153834275, 0.3101154, -0.0006668568, 0.02685265, -0.04282506, -0.01096524, 1.000177, 0.3296448, -0.03060485, 0.02627534, -0.03658658, -0.01416415, 1.000475
 154034195, 0.335533, -0.01159735, 0.02855788, -0.03931619, -0.01087441, 1.000453, 0.3101154, -0.0006668568, 0.02685265, -0.04282506, -0.01096524, 1.000177
 154234115, 0.3161003, -0.02817772, 0.02686131, -0.04310929, -0.011266, 1.000175, 0.335533, -0.01159735, 0.02855788, -0.03931619, -0.01087441, 1.000453
 154434035, 0.3696222, 0.001737516, 0.03294013, -0.03760206, -0.009407908, 1.000753, 0.3161003, -0.02817772, 0.02686131, -0.04310929, -0.011266, 1.000175
 154633955, 0.3624346, -0.003128095, 0.03263847, -0.0398252, -0.00474013, 1.000649, 0.3696222, 0.001737516, 0.03294013, -0.03760206, -0.009407908, 1.000753
 154833875, 0.3067477, -0.02503036, 0.05732694, -0.04685433, -0.004735522, 1.000019, 0.3624346, -0.003128095, 0.03263847, -0.0398252, -0.00474013, 1.000649
 155033795, 0.3550961, -0.02664293, 0.06280732, -0.04366894, -0.003625253, 1.000455, 0.3067477, -0.02503036, 0.05732694, -0.04685433, -0.004735522, 1.000019
 155233715, 0.3117211, -0.01895255, 0.03006738, -0.05342747, 0.0009430312, 0.9997121, 0.3550961, -0.02664293, 0.06280732, -0.04366894, -0.003625253, 1.000455
 155433635, 0.3246609, -0.01054567, 0.03185568, -0.05281895, 0.005596985, 0.9998032, 0.3117211, -0.01895255, 0.03006738, -0.05342747, 0.0009430312, 0.9997121
 155633555, 0.3401465, -0.01899452, 0.03347479, -0.05136636, 0.004188349, 0.9999758, 0.3246609, -0.01054567, 0.03185568, -0.05281895, 0.005596985, 0.9998032
 155833475, 0.3599884, -0.014158, 0.03501327, -0.04731769, 0.001974432, 1.000318, 0.3401465, -0.01899452, 0.03347479, -0.05136636, 0.004188349, 0.9999758
 156034228, 0.3535799, -0.01478628, 0.0340757, -0.04740119, -0.0003717765, 1.000272, 0.3599884, -0.014158, 0.03501327, -0.04731769, 0.001974432, 1.000318
 156234148, 0.3387104, -0.01017582, 0.03300392, -0.05024915, -0.0004262365, 1.000036, 0.3535799, -0.01478628, 0.0340757, -0.04740119, -0.0003717765, 1.000272
 156434068, 0.3201733, -0.009506659, 0.06181873, -0.05369772, 0.000386076, 0.9997608, 0.3387104, -0.01017582, 0.03300392, -0.05024915, -0.0004262365, 1.000036
 156633988, 0.3641565, -0.01261337, 0.03561246, -0.04695974, 0.000981424, 1.000373, 0.3201733, -0.009506659, 0.06181873, -0.05369772, 0.000386076, 0.9997608
 156833908, 0.3525739, -0.003455142, 0.06964962, -0.04824594, 0.001738388, 1.000223, 0.3641565, -0.01261337, 0.03561246, -0.04695974, 0.000981424, 1.000373
 157033828, 0.3650683, -0.004630029, 0.03649592, -0.04846812, 0.002539709, 1.000313, 0.3525739, -0.003455142, 0.06964962, -0.04824594, 0.001738388, 1.000223
 157233748, 0.3743239, 0.004332012, 0.06804291, -0.04744732, 0.007671552, 1.00044, 0.3650683, -0.004630029, 0.03649592, -0.04846812, 0.002539709, 1.000313
 157433668, 0.3659479, -0.02000996, 0.03606271, -0.04710782, 0.00795435, 1.000354, 0.3743239, 0.004332012, 0.06804291, -0.04744732, 0.007671552, 1.00044
 157633588, 0.330812, -0.01028243, 0.05711707, -0.04976769, 0.008332876, 0.9999928, 0.3659479, -0.02000996, 0.03606271, -0.04710782, 0.00795435, 1.000354
 157833508, 0.3558797, 0.009912856, 0.03419011, -0.04525379, 0.008288152, 1.000378, 0.330812, -0.01028243, 0.05711707, -0.04976769, 0.008332876, 0.9999928
 158034261, 0.3993787, 0.0002416689, 0.0386536, -0.03932187, 0.00831271, 1.000993, 0.3558797, 0.009912856, 0.03419011, -0.04525379, 0.008288152, 1.000378
 158234181, 0.3846969, -0.00780554, 0.03763296, -0.03814164, 0.009821519, 0.9533172, 0.3993787, 0.0002416689, 0.0386536, -0.03932187, 0.00831271, 1.000993
 158434101, 0.3605284, 0.009049397, 0.03518778, -0.04598059, 0.01230572, 1.000345, 0.3846969, -0.00780554, 0.03763296, -0.03814164, 0.009821519, 0.9533172
 158634021, 0.3362031, 0.01128865, 0.03266971, -0.04908959, 0.01352124, 1.000006, 0.3605284, 0.009049397, 0.03518778, -0.04598059, 0.01230572, 1.000345
 158833941, 0.3633684, -0.01256948, 0.06613547, -0.04656767, 0.0131519, 1.00035, 0.3362031, 0.01128865, 0.03266971, -0.04908959, 0.01352124, 1.000006
 159033861, 0.4010879, -0.01714411, 0.0391665, -0.03941011, 0.01321515, 1.000973, 0.3633684, -0.01256948, 0.06613547, -0.04656767, 0.0131519, 1.00035
 159233781, 0.3952805, -0.00166825, 0.06909461, -0.0404828, 0.0143816, 1.000901, 0.4010879, -0.01714411, 0.0391665, -0.03941011, 0.01321515, 1.000973
 159433701, 0.3923034, -0.01543777, 0.03721418, -0.03790655, 0.0122341, 1.00097, 0.3952805, -0.00166825, 0.06909461, -0.0404828, 0.0143816, 1.000901
 159633621, 0.3623287, -0.009106153, 0.03409938, -0.04199615, 0.01062727, 1.000563, 0.3923034, -0.01543777, 0.03721418, -0.03790655, 0.0122341, 1.00097
 159833541, 0.3604338, 0.005711592, 0.03409177, -0.04247733, 0.01037961, 1.000538, 0.3623287, -0.009106153, 0.03409938, -0.04199615, 0.01062727, 1.000563
 160034294, 0.3684086, -0.01481862, 0.03327804, -0.0371904, 0.01404414, 1.00076, 0.3604338, 0.005711592, 0.03409177, -0.04247733, 0.01037961, 1.000538
 160234214, 0.360227, -0.01176878, 0.03281384, -0.03910714, 0.01736903, 1.000567, 0.3684086, -0.01481862, 0.03327804, -0.0371904, 0.01404414, 1.00076
 160434134, 0.3481877, -0.00105481, 0.03195581, -0.04172571, 0.01421515, 1.00042, 0.360227, -0.01176878, 0.03281384, -0.03910714, 0.01736903, 1.000567
 160634054, 0.3493913, -0.005165526, 0.03259728, -0.04329763, 0.003380572, 1.000455, 0.3481877, -0.00105481, 0.03195581, -0.04172571, 0.01421515, 1.00042
 160833974, 0.3842648, -0.01042157, 0.03452521, -0.03450017, 0.001698675, 1.001093, 0.3493913, -0.005165526, 0.03259728, -0.04329763, 0.003380572, 1.000455
 161033894, 0.3955368, 0.004315454, 0.03634904, -0.03415669, 0.01065711, 1.001164, 0.3842648, -0.01042157, 0.03452521, -0.03450017, 0.001698675, 1.001093
 161233814, 0.4050914, -0.0005003894, 0.03579646, -0.02917517, 0.01033375, 1.001415, 0.3955368, 0.004315454, 0.03634904, -0.03415669, 0.01065711, 1.001164
 161433734, 0.3736691, 0.002431052, 0.03200822, -0.03174336, 0.006052697, 1.001073, 0.4050914, -0.0005003894, 0.03579646, -0.02917517, 0.01033375, 1.001415
 161633654, 0.358493, -0.01063494, 0.03076885, -0.03480918, 0.003870408, 1.000848, 0.3736691, 0.002431052, 0.03200822, -0.03174336, 0.006052697, 1.001073
 161833574, 0.4057055, -0.01907833, 0.03512435, -0.02787035, 0.007199004, 1.001471, 0.358493, -0.01063494, 0.03076885, -0.03480918, 0.003870408, 1.000848
 162033494, 0.3537484, 0.003791797, 0.000522716, -0.03639624, 0.01304748, 1.000661, 0.4057055, -0.01907833, 0.03512435, -0.02787035, 0.007199004, 1.001471
 162234247, 0.3953335, -0.002193024, 0.03468354, -0.03051388, 0.01411391, 1.001219, 0.3537484, 0.003791797, 0.000522716, -0.03639624, 0.01304748, 1.000661
 162434167, 0.3890875, -0.006860912, 0.03381388, -0.03084636, 0.01375252, 1.00115, 0.3953335, -0.002193024, 0.03468354, -0.03051388, 0.01411391, 1.001219
 162634087, 0.4196937, -0.01366461, 0.0359126, -0.02441196, 0.01231026, 1.001649, 0.3890875, -0.006860912, 0.03381388, -0.03084636, 0.01375252, 1.00115
 162834007, 0.372991, -0.01161172, 0.03136433, -0.0306831, 0.01624438, 1.00097, 0.4196937, -0.01366461, 0.0359126, -0.02441196, 0.01231026, 1.001649
 163033927, 0.3655637, -0.01556478, 0.0313043, -0.03323469, 0.02069193, 1.000742, 0.372991, -0.01161172, 0.03136433, -0.0306831, 0.01624438, 1.00097
 163233847, 0.392014, 0.0006446748, 0.03398906, -0.03026488, 0.02030309, 1.00108, 0.3655637, -0.01556478, 0.0313043, -0.03323469, 0.02069193, 1.000742
 163433767, 0.3647675, -0.01992183, 0.001230447, -0.03409639, 0.0199035, 1.000697, 0.392014, 0.0006446748, 0.03398906, -0.03026488, 0.02030309, 1.00108
 163633687, 0.3782654, -0.004367587, 0.03219699, -0.03097573, 0.01555663, 1.001016, 0.3647675, -0.01992183, 0.001230447, -0.03409639, 0.0199035, 1.000697
 163833607, 0.4143405, 0.002177717, 0.03471303, -0.02363436, 0.01463555, 1.001574, 0.3782654, -0.004367587, 0.03219699, -0.03097573, 0.01555663, 1.001016
 164033527, 0.3856025, -0.01641083, 0.03240287, -0.02900767, 0.01076229, 1.001194, 0.4143405, 0.002177717, 0.03471303, -0.02363436, 0.01463555, 1.001574
 164234280, 0.392625, -0.0149102, 0.03221598, -0.02600821, 0.008645315, 1.00136, 0.3856025, -0.01641083, 0.03240287, -0.02900767, 0.01076229, 1.001194
 164434200, 0.3722801, -0.007455253, 0.03078155, -0.02973571, 0.01136713, 1.001052, 0.392625, -0.0149102, 0.03221598, -0.02600821, 0.008645315, 1.00136
 164634120, 0.3550956, 0.004802851, 0.02864782, -0.03025368, 0.01522158, 1.000855, 0.3722801, -0.007455253, 0.03078155, -0.02973571, 0.01136713, 1.001052
 164834040, 0.398199, -0.008555191, 0.03167658, -0.02244951, 0.015364, 1.001414, 0.3550956, 0.004802851, 0.02864782, -0.03025368, 0.01522158, 1.000855
 165033960, 0.3736516, -0.009883366, 0.03034293, -0.02816881, 0.01346645, 1.001077, 0.398199, -0.008555191, 0.03167658, -0.02244951, 0.015364, 1.001414
 165233880, 0.3769471, 0.004197783, 0.03044047, -0.02704034, 0.0109474, 1.001173, 0.3736516, -0.009883366, 0.03034293, -0.02816881, 0.01346645, 1.001077
 165433800, 0.3532269, -0.002501358, 0.02861675, -0.03108891, 0.00865976, 1.000886, 0.3769471, 0.004197783, 0.03044047, -0.02704034, 0.0109474, 1.001173
 165633720, 0.387357, 0.001964497, 0.001059705, -0.02558712, 0.01111948, 1.001273, 0.3532269, -0.002501358, 0.02861675, -0.03108891, 0.00865976, 1.000886
 165833640, 0.3447303, 0.003365964, 0.02729535, -0.03047914, 0.01630734, 1.00075, 0.387357, 0.001964497, 0.001059705, -0.02558712, 0.01111948, 1.001273
 166033560, 0.3484455, 0.003353928, 0.02686454, -0.02790638, 0.01617532, 1.000852, 0.3447303, 0.003365964, 0.02729535, -0.03047914, 0.01630734, 1.00075
 166233480, 0.4058495, -0.01562278, 0.03130646, -0.01929311, 0.01326584, 1.001563, 0.3484455, 0.003353928, 0.02686454, -0.02790638, 0.01617532, 1.000852
 166434233, 0.3644048, 0.003388872, -0.002772374, -0.02380417, 0.01064987, 1.001131, 0.4058495, -0.01562278, 0.03130646, -0.01929311, 0.01326584, 1.001563
 166634153, 0.3783849, 0.0005536065, 0.02846514, -0.02168997, 0.008171811, 1.001328, 0.3644048, 0.003388872, -0.002772374, -0.02380417, 0.01064987, 1.001131
 166834073, 0.3534661, -0.02093275, 0.02581455, -0.02377954, 0.008432278, 1.001076, 0.3783849, 0.0005536065, 0.02846514, -0.02168997, 0.008171811, 1.001328
 167033993, 0.3726289, 0.008138687, 0.02733416, -0.0205786, 0.01244058, 1.001266, 0.3534661, -0.02093275, 0.02581455, -0.02377954, 0.008432278, 1.001076
 167233913, 0.3775539, -0.01588159, 0.02860877, -0.02252772, 0.01319827, 1.001242, 0.3726289, 0.008138687, 0.02733416, -0.0205786, 0.01244058, 1.001266
 167433833, 0.3803371, -0.003794402, 0.02835951, -0.02139757, 0.01160954, 1.001278, 0.3775539, -0.01588159, 0.02860877, -0.02252772, 0.01319827, 1.001242
 167633753, 0.3848825, -0.02018749, 0.02792818, -0.01835899, 0.01054453, 1.001419, 0.3803371, -0.003794402, 0.02835951, -0.02139757, 0.01160954, 1.001278
 167833673, 0.3612419, -0.01635149, 0.02591339, -0.02113637, 0.01063154, 1.001174, 0.3848825, -0.02018749, 0.02792818, -0.01835899, 0.01054453, 1.001419
 168033593, 0.4137034, -0.01307109, 0.02942492, -0.01218053, 0.008803824, 1.001799, 0.3612419, -0.01635149, 0.02591339, -0.02113637, 0.01063154, 1.001174
 168233513, 0.3612401, 0.00590272, 0.02533752, -0.01910034, 0.01058988, 1.001226, 0.4137034, -0.01307109, 0.02942492, -0.01218053, 0.008803824, 1.001799
 168434266, 0.4038458, 0.004493319, 0.02759202, -0.0106889, 0.01200958, 1.001696, 0.3612401, 0.00590272, 0.02533752, -0.01910034, 0.01058988, 1.001226
 168634186, 0.3935645, -0.004196428, 0.05228438, -0.01300798, 0.01415826, 1.001557, 0.4038458, 0.004493319, 0.02759202, -0.0106889, 0.01200958, 1.001696
 168834106, 0.3869632, -0.0195669, 0.02723932, -0.01581243, 0.01217634, 1.001461, 0.3935645, -0.004196428, 0.05228438, -0.01300798, 0.01415826, 1.001557
 169034026, 0.3570938, 0.01390234, 0.0247394, -0.0188053, 0.01323869, 1.001174, 0.3869632, -0.0195669, 0.02723932, -0.01581243, 0.01217634, 1.001461
 169233946, 0.4177176, 0.01342825, 0.029082, -0.00963372, 0.01414195, 1.001818, 0.3570938, 0.01390234, 0.0247394, -0.0188053, 0.01323869, 1.001174
 169433866, 0.3958229, -0.01095374, 0.02902341, -0.0171533, 0.01431912, 1.001493, 0.4177176, 0.01342825, 0.029082, -0.00963372, 0.01414195, 1.001818
 169633786, 0.3552897, 0.0006119903, 0.05160312, -0.02432412, 0.01642185, 1.001002, 0.3958229, -0.01095374, 0.02902341, -0.0171533, 0.01431912, 1.001493
 169833706, 0.4008137, -0.00773651, 0.02876704, -0.01475673, 0.01343275, 1.001592, 0.3552897, 0.0006119903, 0.05160312, -0.02432412, 0.01642185, 1.001002
 170033626, 0.3545502, 0.01475948, 0.02441778, -0.0187514, 0.01344831, 1.001154, 0.4008137, -0.00773651, 0.02876704, -0.01475673, 0.01343275, 1.001592
 170233546, 0.3789729, -0.005060499, 0.02639704, -0.01601615, 0.01574193, 1.001349, 0.3545502, 0.01475948, 0.02441778, -0.0187514, 0.01344831, 1.001154
 170434299, 0.3710064, 0.002522126, 0.02616322, -0.01808095, 0.01658695, 1.00124, 0.3789729, -0.005060499, 0.02639704, -0.01601615, 0.01574193, 1.001349
 170634219, 0.3602103, 0.002179537, 0.02599863, -0.02129914, 0.0187761, 1.001055, 0.3710064, 0.002522126, 0.02616322, -0.01808095, 0.01658695, 1.00124
 170834139, 0.424123, -0.01285931, 0.03098142, -0.01160412, 0.02358274, 1.001685, 0.3602103, 0.002179537, 0.02599863, -0.02129914, 0.0187761, 1.001055
 171034059, 0.3684819, -0.0115193, 0.02621118, -0.01872672, 0.02314205, 1.001075, 0.424123, -0.01285931, 0.03098142, -0.01160412, 0.02358274, 1.001685
 171233979, 0.3781126, -0.009299106, 0.02581197, -0.01457565, 0.01715141, 1.001345, 0.3684819, -0.0115193, 0.02621118, -0.01872672, 0.02314205, 1.001075
 171433899, 0.3897573, 0.01250914, 0.02696005, -0.01338741, 0.01400891, 1.001527, 0.3781126, -0.009299106, 0.02581197, -0.01457565, 0.01715141, 1.001345
 171633819, 0.3717717, 0.005567673, 0.02551696, -0.01574222, 0.01316275, 1.001346, 0.3897573, 0.01250914, 0.02696005, -0.01338741, 0.01400891, 1.001527
 171833739, 0.3916109, -0.005680237, 0.02750611, -0.01431017, 0.01194153, 1.001551, 0.3717717, 0.005567673, 0.02551696, -0.01574222, 0.01316275, 1.001346
 172033659, 0.3644042, -0.01494616, 0.05517035, -0.01717259, 0.008591573, 1.001322, 0.3916109, -0.005680237, 0.02750611, -0.01431017, 0.01194153, 1.001551
 172233579, 0.3754934, -0.009024964, 0.02594288, -0.01566615, 0.01296951, 1.001378, 0.3644042, -0.01494616, 0.05517035, -0.01717259, 0.008591573, 1.001322
 172433499, 0.4295477, 0.001837419, 0.02967278, -0.00639116, 0.01660181, 1.001963, 0.3754934, -0.009024964, 0.02594288, -0.01566615, 0.01296951, 1.001378
 172634252, 0.4110034, 0.0002876248, 0.02777349, -0.008128468, 0.0150417, 1.001777, 0.4295477, 0.001837419, 0.02967278, -0.00639116, 0.01660181, 1.001963
 172834172, 0.3933066, 0.006236972, 0.02596503, -0.009427108, 0.01469006, 1.001604, 0.4110034, 0.0002876248, 0.02777349, -0.008128468, 0.0150417, 1.001777
 173034092, 0.4120995, -0.009966726, 0.02740308, -0.006890293, 0.01203017, 1.001838, 0.3933066, 0.006236972, 0.02596503, -0.009427108, 0.01469006, 1.001604
 173234012, 0.3651159, -0.01654064, 0.05505411, -0.01653518, 0.006213004, 1.001362, 0.4120995, -0.009966726, 0.02740308, -0.006890293, 0.01203017, 1.001838
 173433932, 0.3700066, -0.01572399, 0.02501925, -0.01533154, 0.004087104, 1.001417, 0.3651159, -0.01654064, 0.05505411, -0.01653518, 0.006213004, 1.001362
 173633852, 0.4060532, 0.009251324, 0.0276705, -0.009125881, 0.005097033, 1.001831, 0.3700066, -0.01572399, 0.02501925, -0.01533154, 0.004087104, 1.001417
 173833772, 0.4048609, 0.004118103, 0.0273235, -0.008877594, 0.003962296, 1.001821, 0.4060532, 0.009251324, 0.0276705, -0.009125881, 0.005097033, 1.001831
 174033692, 0.3780031, 0.01477091, 0.02482594, -0.01128839, 0.007173447, 1.001533, 0.4048609, 0.004118103, 0.0273235, -0.008877594, 0.003962296, 1.001821
 174233612, 0.4275345, -0.003876344, 0.02766098, -0.002529237, 0.007996214, 1.00206, 0.3780031, 0.01477091, 0.02482594, -0.01128839, 0.007173447, 1.001533
 174433532, 0.3901689, -0.001625609, 0.02513316, -0.008678634, 0.008911505, 1.001639, 0.4275345, -0.003876344, 0.02766098, -0.002529237, 0.007996214, 1.00206
 174634285, 0.4148996, 0.003410002, 0.02684826, -0.004781112, 0.00975494, 1.001898, 0.3901689, -0.001625609, 0.02513316, -0.008678634, 0.008911505, 1.001639
 174834205, 0.4120163, -0.005189444, 0.02745643, -0.004175525, 0.01352826, 0.9542928, 0.4148996, 0.003410002, 0.02684826, -0.004781112, 0.00975494, 1.001898
 175034125, 0.3533784, -0.01575864, 0.0237527, -0.0174237, 0.01590867, 1.001122, 0.4120163, -0.005189444, 0.02745643, -0.004175525, 0.01352826, 0.9542928
 175234045, 0.4122346, -0.01676151, 0.02806999, -0.008739918, 0.02048441, 1.001664, 0.3533784, -0.01575864, 0.0237527, -0.0174237, 0.01590867, 1.001122
 175433965, 0.398424, 0.001547324, 0.02661487, -0.009933993, 0.01898881, 1.001555, 0.4122346, -0.01676151, 0.02806999, -0.008739918, 0.02048441, 1.001664
 175633885, 0.3967109, -0.00247242, -0.00337664, -0.01110298, 0.01619218, 1.001552, 0.398424, 0.001547324, 0.02661487, -0.009933993, 0.01898881, 1.001555
 175833805, 0.4027418, -0.01728156, 0.02675549, -0.009178374, 0.01315684, 1.001682, 0.3967109, -0.00247242, -0.00337664, -0.01110298, 0.01619218, 1.001552
 176033725, 0.4118249, 0.008714578, 0.02791659, -0.008677401, 0.01107127, 1.001813, 0.4027418, -0.01728156, 0.02675549, -0.009178374, 0.01315684, 1.001682
 176233645, 0.3684393, 0.01442538, 0.02482672, -0.01511769, 0.01109987, 1.001352, 0.4118249, 0.008714578, 0.02791659, -0.008677401, 0.01107127, 1.001813
 176433565, 0.401863, 0.01694486, -0.004388886, -0.006708313, 0.01137086, 1.00171, 0.3684393, 0.01442538, 0.02482672, -0.01511769, 0.01109987, 1.001352
 176633485, 0.3880337, 0.01080871, 0.02457202, -0.008274786, 0.01387715, 1.001554, 0.401863, 0.01694486, -0.004388886, -0.006708313, 0.01137086, 1.00171
 176834238, 0.3715439, 0.007956844, 0.02367279, -0.01132658, 0.01359458, 1.001387, 0.3880337, 0.01080871, 0.02457202, -0.008274786, 0.01387715, 1.001554
 177034158, 0.372088, 0.007321983, 0.02446016, -0.01330663, 0.01316483, 1.001371, 0.3715439, 0.007956844, 0.02367279, -0.01132658, 0.01359458, 1.001387
 177234078, 0.4184225, 0.0009887012, 0.02838156, -0.0080612, 0.01326075, 1.001838, 0.372088, 0.007321983, 0.02446016, -0.01330663, 0.01316483, 1.001371
 177433998, 0.3829313, -0.0004949033, -0.003502008, -0.01576022, 0.01345024, 1.001397, 0.4184225, 0.0009887012, 0.02838156, -0.0080612, 0.01326075, 1.001838
 177633918, 0.4112538, -0.01273479, 0.02854978, -0.01103651, 0.01397792, 1.001721, 0.3829313, -0.0004949033, -0.003502008, -0.01576022, 0.01345024, 1.001397
 177833838, 0.400737, -0.001494495, 0.02775198, -0.01311912, 0.01469265, 1.00155, 0.4112538, -0.01273479, 0.02854978, -0.01103651, 0.01397792, 1.001721
 178033758, 0.3767712, -0.0147699, -0.005202048, -0.01346822, 0.01535626, 1.001345, 0.400737, -0.001494495, 0.02775198, -0.01311912, 0.01469265, 1.00155
 178233678, 0.3562692, 0.001251943, 0.02209822, -0.01212995, 0.01638535, 1.001212, 0.3767712, -0.0147699, -0.005202048, -0.01346822, 0.01535626, 1.001345
 178433598, 0.3490112, 0.01225699, -0.00808025, -0.01434577, 0.01565387, 1.001135, 0.3562692, 0.001251943, 0.02209822, -0.01212995, 0.01638535, 1.001212
 178633518, 0.4041338, 0.004036298, -0.003888542, -0.007854588, 0.01404493, 1.001666, 0.3490112, 0.01225699, -0.00808025, -0.01434577, 0.01565387, 1.001135
 178834271, 0.3780777, -0.001435236, 1.341663E-05, -0.0135276, 0.01314524, 1.001392, 0.4041338, 0.004036298, -0.003888542, -0.007854588, 0.01404493, 1.001666
 179034191, 0.3473723, 0.01837281, 0.02343073, -0.01855883, 0.01237048, 1.001118, 0.3780777, -0.001435236, 1.341663E-05, -0.0135276, 0.01314524, 1.001392
 179234111, 0.3524315, 0.01867386, 0.02424669, -0.01917228, 0.01182236, 1.001148, 0.3473723, 0.01837281, 0.02343073, -0.01855883, 0.01237048, 1.001118
 179434031, 0.3637969, 0.006483469, 0.02461537, -0.01659599, 0.005206851, 1.001324, 0.3524315, 0.01867386, 0.02424669, -0.01917228, 0.01182236, 1.001148
 179633951, 0.39971, 0.01657699, -0.003228616, -0.01039393, 0.0009095278, 1.001704, 0.3637969, 0.006483469, 0.02461537, -0.01659599, 0.005206851, 1.001324
 179833871, 0.3523213, -0.01209636, 0.02334695, -0.01771202, 0.002931831, 1.001219, 0.39971, 0.01657699, -0.003228616, -0.01039393, 0.0009095278, 1.001704
 180033791, 0.3854733, 8.618878E-05, 0.0251037, -0.01109912, 0.004932225, 1.001567, 0.3523213, -0.01209636, 0.02334695, -0.01771202, 0.002931831, 1.001219
 180233711, 0.3572377, -0.007739279, 0.0229085, -0.01458912, 0.008979376, 1.00127, 0.3854733, 8.618878E-05, 0.0251037, -0.01109912, 0.004932225, 1.001567
 180433631, 0.3876374, -0.2663603, -0.4166142, 0.002298966, 0.4571331, 0.8910299, 0.3572377, -0.007739279, 0.0229085, -0.01458912, 0.008979376, 1.00127
 180633551, 0.1147899, -0.4893468, -0.1596106, 0.05406331, 0.9286851, 0.3684125, 0.3876374, -0.2663603, -0.4166142, 0.002298966, 0.4571331, 0.8910299
 180834304, -0.01278576, -0.4831142, -0.1931514, 0.2471872, 0.9163255, 0.3167251, 0.1147899, -0.4893468, -0.1596106, 0.05406331, 0.9286851, 0.3684125
 181034224, -0.03222352, -0.4473812, -0.3145448, 0.4448907, 0.7004023, 0.5594136, -0.01278576, -0.4831142, -0.1931514, 0.2471872, 0.9163255, 0.3167251
 181234144, -0.01999359, -0.4213001, -0.3759908, 0.4827186, 0.5789141, 0.6584475, -0.03222352, -0.4473812, -0.3145448, 0.4448907, 0.7004023, 0.5594136
 181434064, -0.04793392, -0.415798, -0.362545, 0.4868637, 0.5896235, 0.6456367, -0.01999359, -0.4213001, -0.3759908, 0.4827186, 0.5789141, 0.6584475
 181633984, -0.08587845, -0.4168505, -0.3358558, 0.5015713, 0.6149952, 0.6095673, -0.04793392, -0.415798, -0.362545, 0.4868637, 0.5896235, 0.6456367
 181833904, -0.08368137, -0.433764, -0.3290979, 0.5280125, 0.6034598, 0.5987758, -0.08587845, -0.4168505, -0.3358558, 0.5015713, 0.6149952, 0.6095673
 182033824, -0.1136093, -0.4409048, -0.3110985, 0.5533639, 0.5697938, 0.6087641, -0.08368137, -0.433764, -0.3290979, 0.5280125, 0.6034598, 0.5987758
 182233744, -0.1269052, -0.4074382, -0.3421438, 0.5758592, 0.5384037, 0.6164027, -0.1136093, -0.4409048, -0.3110985, 0.5533639, 0.5697938, 0.6087641
 182433664, -0.1534346, -0.4020879, -0.3339835, 0.5952252, 0.5077387, 0.6239456, -0.1269052, -0.4074382, -0.3421438, 0.5758592, 0.5384037, 0.6164027
 182633584, -0.1736124, -0.4013844, -0.326984, 0.6142237, 0.4763497, 0.6302591, -0.1534346, -0.4020879, -0.3339835, 0.5952252, 0.5077387, 0.6239456
 182833504, -0.1753331, -0.4069315, -0.3323861, 0.6319999, 0.4426893, 0.6372843, -0.1736124, -0.4013844, -0.326984, 0.6142237, 0.4763497, 0.6302591
 183034257, -0.1951027, -0.4086099, -0.3248194, 0.6469495, 0.4081919, 0.6452903, -0.1753331, -0.4069315, -0.3323861, 0.6319999, 0.4426893, 0.6372843
 183234177, -0.2068319, -0.3923247, -0.3349757, 0.6580537, 0.3762353, 0.6534265, -0.1951027, -0.4086099, -0.3248194, 0.6469495, 0.4081919, 0.6452903
 183434097, -0.2259603, -0.3761657, -0.3368191, 0.6634974, 0.3418437, 0.6666496, -0.2068319, -0.3923247, -0.3349757, 0.6580537, 0.3762353, 0.6534265
 183634017, -0.2362095, -0.3687884, -0.3408761, 0.6664342, 0.3081039, 0.6800515, -0.2259603, -0.3761657, -0.3368191, 0.6634974, 0.3418437, 0.6666496
 183833937, -0.2275868, -0.3509409, -0.3653882, 0.6689072, 0.2786021, 0.6903002, -0.2362095, -0.3687884, -0.3408761, 0.6664342, 0.3081039, 0.6800515
 184033857, -0.2458011, -0.3458317, -0.3591183, 0.6669078, 0.2480942, 0.703737, -0.2275868, -0.3509409, -0.3653882, 0.6689072, 0.2786021, 0.6903002
 184233777, -0.2598102, -0.334114, -0.3587085, 0.6633667, 0.2198112, 0.7163553, -0.2458011, -0.3458317, -0.3591183, 0.6669078, 0.2480942, 0.703737
 184433697, -0.2408362, -0.3534157, -0.3769728, 0.6558426, 0.1872592, 0.7325346, -0.2598102, -0.334114, -0.3587085, 0.6633667, 0.2198112, 0.7163553
 184633617, -0.2616827, -0.3173084, -0.3764411, 0.6398924, 0.1631797, 0.7519933, -0.2408362, -0.3534157, -0.3769728, 0.6558426, 0.1872592, 0.7325346
 184833537, -0.2624561, -0.3403382, -0.3758911, 0.6261428, 0.1395278, 0.7682896, -0.2616827, -0.3173084, -0.3764411, 0.6398924, 0.1631797, 0.7519933
 185034290, -0.2391401, -0.3622161, -0.3948893, 0.6093454, 0.1155769, 0.7857705, -0.2624561, -0.3403382, -0.3758911, 0.6261428, 0.1395278, 0.7682896
 185234210, -0.2416274, -0.3264229, -0.4050266, 0.5921108, 0.09881617, 0.8009397, -0.2391401, -0.3622161, -0.3948893, 0.6093454, 0.1155769, 0.7857705
 185434130, -0.234756, -0.3635713, -0.4075126, 0.5715736, 0.08014384, 0.8179993, -0.2416274, -0.3264229, -0.4050266, 0.5921108, 0.09881617, 0.8009397
 185634050, -0.2497927, -0.3454496, -0.4052926, 0.5444254, 0.06532726, 0.8375182, -0.234756, -0.3635713, -0.4075126, 0.5715736, 0.08014384, 0.8179993
 185833970, -0.2466083, -0.3683834, -0.4081923, 0.5158862, 0.05170876, 0.8564844, -0.2497927, -0.3454496, -0.4052926, 0.5444254, 0.06532726, 0.8375182
 186033890, -0.2443398, -0.3807748, -0.4126574, 0.4870434, 0.03868896, 0.8739955, -0.2466083, -0.3683834, -0.4081923, 0.5158862, 0.05170876, 0.8564844
 186233810, -0.2125376, -0.3646222, -0.4342747, 0.4551744, 0.03062855, 0.8912578, -0.2443398, -0.3807748, -0.4126574, 0.4870434, 0.03868896, 0.8739955
 186433730, 0.01095767, -0.3580189, 0.08938782, 0.4193941, 0.02121587, 0.909159, -0.2125376, -0.3646222, -0.4342747, 0.4551744, 0.03062855, 0.8912578
 186633650, 3.665127E-05, -0.3238059, 0.05649664, 0.3851123, 0.02218366, 0.9239308, 0.01095767, -0.3580189, 0.08938782, 0.4193941, 0.02121587, 0.909159
 186833570, 0.009582322, -0.364522, 0.08600372, 0.3524677, 0.01266398, 0.9373572, 3.665127E-05, -0.3238059, 0.05649664, 0.3851123, 0.02218366, 0.9239308
 187033490, -0.01440323, -0.3627986, 0.06076938, 0.3186146, 0.01112167, 0.9494003, 0.009582322, -0.364522, 0.08600372, 0.3524677, 0.01266398, 0.9373572
 187234243, -0.03150598, -0.3539515, 0.06471193, 0.2818241, 0.01426673, 0.9608709, -0.01440323, -0.3627986, 0.06076938, 0.3186146, 0.01112167, 0.9494003
 187434163, -0.02844948, -0.3669476, 0.06412644, 0.253177, 0.01375472, 0.9689375, -0.03150598, -0.3539515, 0.06471193, 0.2818241, 0.01426673, 0.9608709
 187634083, -0.04396981, -0.3905043, 0.0629499, 0.2231312, 0.009761214, 0.9765832, -0.02844948, -0.3669476, 0.06412644, 0.253177, 0.01375472, 0.9689375
 187834003, -0.0540923, -0.3647431, 0.06186569, 0.1948695, 0.01450844, 0.9823369, -0.04396981, -0.3905043, 0.0629499, 0.2231312, 0.009761214, 0.9765832
 188033923, -0.06999415, -0.3703103, 0.07048403, 0.1665938, 0.01896844, 0.9875392, -0.0540923, -0.3647431, 0.06186569, 0.1948695, 0.01450844, 0.9823369
 188233843, -0.07042657, -0.4083877, 0.07312804, 0.1472366, 0.0155631, 0.9910321, -0.06999415, -0.3703103, 0.07048403, 0.1665938, 0.01896844, 0.9875392
 188433763, -0.06450178, -0.4099059, 0.07006693, 0.113419, 0.01474094, 0.99556, -0.07042657, -0.4083877, 0.07312804, 0.1472366, 0.0155631, 0.9910321
 188633683, -0.08468477, -0.4163891, 0.07120016, 0.08204349, 0.01537792, 0.9987606, -0.06450178, -0.4099059, 0.07006693, 0.113419, 0.01474094, 0.99556
 188833603, -0.06855705, -0.3762141, 0.06544466, 0.05817743, 0.02471096, 0.9997764, -0.08468477, -0.4163891, 0.07120016, 0.08204349, 0.01537792, 0.9987606
 189033523, -0.07576251, -0.3686906, 0.03357742, 0.03723843, 0.0265173, 1.000644, -0.06855705, -0.3762141, 0.06544466, 0.05817743, 0.02471096, 0.9997764
 189234276, -0.08697088, -0.4406083, 0.0691857, 0.01552298, 0.01350258, 1.002419, -0.07576251, -0.3686906, 0.03357742, 0.03723843, 0.0265173, 1.000644
 189434196, -0.08774508, -0.383675, 0.03344924, -0.002633494, 0.02747267, 1.001498, -0.08697088, -0.4406083, 0.0691857, 0.01552298, 0.01350258, 1.002419
 189634116, -0.07634904, -0.3988033, 0.05999846, -0.02210521, 0.02818257, 1.001427, -0.08774508, -0.383675, 0.03344924, -0.002633494, 0.02747267, 1.001498
 189834036, -0.07115595, -0.4261484, 0.03599063, -0.03967415, 0.022476, 1.001351, -0.07634904, -0.3988033, 0.05999846, -0.02210521, 0.02818257, 1.001427
 190033956, -0.07786261, -0.4284579, 0.0342559, -0.05150617, 0.01991663, 1.000919, -0.07115595, -0.4261484, 0.03599063, -0.03967415, 0.022476, 1.001351
 190233876, -0.0686355, -0.4075508, 0.03209633, -0.06575087, 0.02492295, 0.9996784, -0.07786261, -0.4284579, 0.0342559, -0.05150617, 0.01991663, 1.000919
 190433796, -0.078845, -0.3866524, 0.02800423, -0.07493357, 0.02668349, 0.9987529, -0.0686355, -0.4075508, 0.03209633, -0.06575087, 0.02492295, 0.9996784
 190633716, -0.06077474, -0.3875574, 0.02966757, -0.07726257, 0.02786974, 0.9985272, -0.078845, -0.3866524, 0.02800423, -0.07493357, 0.02668349, 0.9987529
 190833636, -0.07078437, -0.4111065, 0.03142243, -0.0835493, 0.02518566, 0.9983914, -0.06077474, -0.3875574, 0.02966757, -0.07726257, 0.02786974, 0.9985272
 191033556, -0.05497023, -0.3834188, 0.02937254, -0.09229718, 0.02994531, 0.9971347, -0.07078437, -0.4111065, 0.03142243, -0.0835493, 0.02518566, 0.9983914
 191233476, -0.07292153, -0.4225574, 0.02972868, -0.1060252, 0.02071917, 0.9965094, -0.05497023, -0.3834188, 0.02937254, -0.09229718, 0.02994531, 0.9971347
 191434229, -0.06704269, -0.4331183, -0.001104204, -0.1174492, 0.01621248, 0.9954115, -0.07292153, -0.4225574, 0.02972868, -0.1060252, 0.02071917, 0.9965094
 191634149, -0.04814912, -0.4126996, 0.02955893, -0.1200937, 0.02024552, 0.9947487, -0.06704269, -0.4331183, -0.001104204, -0.1174492, 0.01621248, 0.9954115
 191834069, -0.0691799, -0.4613791, 0.03035253, -0.1237375, 0.008408129, 0.9952163, -0.04814912, -0.4126996, 0.02955893, -0.1200937, 0.02024552, 0.9947487
 192033989, -0.0455261, -0.3844707, 0.02584752, -0.1272227, 0.02271139, 0.9934629, -0.0691799, -0.4613791, 0.03035253, -0.1237375, 0.008408129, 0.9952163
 192233909, -0.05074588, -0.42186, 0.02710353, -0.1342587, 0.01355826, 0.9931591, -0.0455261, -0.3844707, 0.02584752, -0.1272227, 0.02271139, 0.9934629
 192433829, -0.06094993, -0.386693, 0.02191009, -0.1309326, 0.01766706, 0.9931123, -0.05074588, -0.42186, 0.02710353, -0.1342587, 0.01355826, 0.9931591
 192633749, -0.05397273, -0.4170569, -0.00623839, -0.1292903, 0.009582609, 0.9937676, -0.06094993, -0.386693, 0.02191009, -0.1309326, 0.01766706, 0.9931123
 192833669, -0.05721435, -0.4321242, 0.02428668, -0.1247044, 0.004361369, 0.9946215, -0.05397273, -0.4170569, -0.00623839, -0.1292903, 0.009582609, 0.9937676
 193033589, -0.05483634, -0.4442026, 0.02524363, -0.1173128, 0.0005509183, 0.9957013, -0.05721435, -0.4321242, 0.02428668, -0.1247044, 0.004361369, 0.9946215
 193233509, -0.02986158, -0.3951639, 0.02363009, -0.1125889, 0.007624622, 0.9955493, -0.05483634, -0.4442026, 0.02524363, -0.1173128, 0.0005509183, 0.9957013
 193434262, -0.04744728, -0.4180393, 0.02237883, -0.1132879, 0.001611143, 0.9957788, -0.02986158, -0.3951639, 0.02363009, -0.1125889, 0.007624622, 0.9955493
 193634182, -0.02122243, -0.4180239, 0.02418385, -0.1104026, -0.001469374, 0.9960871, -0.04744728, -0.4180393, 0.02237883, -0.1132879, 0.001611143, 0.9957788
 193834102, -0.04839478, -0.4505864, 0.02204599, -0.1045808, -0.01103798, 0.9971201, -0.02122243, -0.4180239, 0.02418385, -0.1104026, -0.001469374, 0.9960871
 194034022, -0.04165125, -0.4599799, 0.02437356, -0.09793959, -0.01121594, 0.9979272, -0.04839478, -0.4505864, 0.02204599, -0.1045808, -0.01103798, 0.9971201
 194233942, -0.02665388, -0.4172489, 0.02295235, -0.09038688, -0.003349923, 0.9980776, -0.04165125, -0.4599799, 0.02437356, -0.09793959, -0.01121594, 0.9979272
 194433862, -0.02473756, -0.4613632, -0.006645972, -0.08814763, -0.01704565, 0.9987307, -0.02665388, -0.4172489, 0.02295235, -0.09038688, -0.003349923, 0.9980776
 194633782, -0.03237121, -0.4098725, 0.020311, -0.08501456, -0.005923912, 0.9984357, -0.02473756, -0.4613632, -0.006645972, -0.08814763, -0.01704565, 0.9987307
 194833702, -0.0194595, -0.3986788, 0.02009318, -0.08120226, -0.005792387, 0.9986175, -0.03237121, -0.4098725, 0.020311, -0.08501456, -0.005923912, 0.9984357
 195033622, -0.02861919, -0.4449982, 0.02169887, -0.07691626, -0.0153212, 0.9994447, -0.0194595, -0.3986788, 0.02009318, -0.08120226, -0.005792387, 0.9986175
 195233542, -0.002393874, -0.4339969, -0.006553002, -0.0699203, -0.01211916, 0.9998194, -0.02861919, -0.4449982, 0.02169887, -0.07691626, -0.0153212, 0.9994447
 195434295, -0.00868755, -0.4485137, 0.02484023, -0.06505399, -0.01323931, 1.000354, -0.002393874, -0.4339969, -0.006553002, -0.0699203, -0.01211916, 0.9998194
 195634215, -0.02148104, -0.408986, 0.02270296, -0.06079564, -0.002769459, 1.000181, -0.00868755, -0.4485137, 0.02484023, -0.06505399, -0.01323931, 1.000354
 195834135, -0.01734336, -0.4098269, -0.009378828, -0.05511234, -0.008304849, 1.000465, -0.02148104, -0.408986, 0.02270296, -0.06079564, -0.002769459, 1.000181
 196034055, -0.009305873, -0.3820199, 0.01997216, -0.05063077, -0.003026884, 1.000447, -0.01734336, -0.4098269, -0.009378828, -0.05511234, -0.008304849, 1.000465
 196233975, 0.002102573, -0.4448031, 0.022943, -0.0420755, -0.01744112, 1.001446, -0.009305873, -0.3820199, 0.01997216, -0.05063077, -0.003026884, 1.000447
 196433895, -0.01745171, -0.3757369, -0.01209419, -0.03486562, -0.005113032, 1.001023, 0.002102573, -0.4448031, 0.022943, -0.0420755, -0.01744112, 1.001446
 196633815, -0.01042259, -0.4374108, 0.02128317, -0.02945292, -0.01722857, 1.00178, -0.01745171, -0.3757369, -0.01209419, -0.03486562, -0.005113032, 1.001023
 196833735, -0.007153609, -0.3858163, 0.01880807, -0.03082575, -0.007442322, 1.001252, -0.01042259, -0.4374108, 0.02128317, -0.02945292, -0.01722857, 1.00178
 197033655, -0.01253157, -0.3966746, 0.01923669, -0.03417952, -0.008786395, 1.001237, -0.007153609, -0.3858163, 0.01880807, -0.03082575, -0.007442322, 1.001252
 197233575, 0.00175962, -0.4279239, 0.02169427, -0.03676219, -0.01436319, 1.001457, -0.01253157, -0.3966746, 0.01923669, -0.03417952, -0.008786395, 1.001237
 197433495, -0.006353245, -0.4059057, 0.02021224, -0.02794294, -0.010219, 1.001531, 0.00175962, -0.4279239, 0.02169427, -0.03676219, -0.01436319, 1.001457
 197634248, 0.006808396, -0.4575092, 0.02306567, -0.01424933, -0.02113709, 1.00234, -0.006353245, -0.4059057, 0.02021224, -0.02794294, -0.010219, 1.001531
 197834168, -0.009789745, -0.4605418, 0.02316318, -0.007112078, -0.02107289, 1.002465, 0.006808396, -0.4575092, 0.02306567, -0.01424933, -0.02113709, 1.00234
 198034088, -0.01326481, -0.4246703, 0.04569666, -0.004098488, -0.01565706, 1.002106, -0.009789745, -0.4605418, 0.02316318, -0.007112078, -0.02107289, 1.002465
 198234008, 0.007203831, -0.4075916, 0.02021547, -0.0004155058, -0.01219749, 1.001955, -0.01326481, -0.4246703, 0.04569666, -0.004098488, -0.01565706, 1.002106
 198433928, 0.00911068, -0.4357727, 0.02079982, 0.002745796, -0.01974557, 1.002198, 0.007203831, -0.4075916, 0.02021547, -0.0004155058, -0.01219749, 1.001955
 198633848, 0.002334955, -0.3915962, 0.01860741, 0.006681411, -0.01050487, 1.001733, 0.00911068, -0.4357727, 0.02079982, 0.002745796, -0.01974557, 1.002198
 198833768, 0.001654043, -0.4499338, 0.02183099, 0.01199766, -0.02184658, 1.002298, 0.002334955, -0.3915962, 0.01860741, 0.006681411, -0.01050487, 1.001733
 199033688, 0.006971487, -0.3871919, 0.01953348, 0.01157035, -0.007641241, 1.001723, 0.001654043, -0.4499338, 0.02183099, 0.01199766, -0.02184658, 1.002298
 199233608, 0.005584893, -0.4126126, 0.04919778, 0.009922097, -0.01696305, 1.001947, 0.006971487, -0.3871919, 0.01953348, 0.01157035, -0.007641241, 1.001723
 199433528, -0.00570095, -0.4354562, 0.0503751, 0.01531535, -0.02141912, 1.002101, 0.005584893, -0.4126126, 0.04919778, 0.009922097, -0.01696305, 1.001947
 199634281, -0.009448126, -0.4729943, 0.0534947, 0.01369946, -0.02684953, 1.002597, -0.00570095, -0.4354562, 0.0503751, 0.01531535, -0.02141912, 1.002101
 199834201, 0.0005210095, -0.3963904, 0.05076178, 0.008950144, -0.008291293, 1.001889, -0.009448126, -0.4729943, 0.0534947, 0.01369946, -0.02684953, 1.002597
 200034121, 0.005502956, -0.4820352, 0.02502914, 0.009084243, -0.02680651, 1.002824, 0.0005210095, -0.3963904, 0.05076178, 0.008950144, -0.008291293, 1.001889
 200234041, -0.005807425, -0.4782678, 0.02556554, 0.01351737, -0.0244662, 1.002774, 0.005502956, -0.4820352, 0.02502914, 0.009084243, -0.02680651, 1.002824
 200433961, 0.003987499, -0.4654313, 0.02541119, 0.01634517, -0.02077618, 1.002619, -0.005807425, -0.4782678, 0.02556554, 0.01351737, -0.0244662, 1.002774
 200633881, -0.01069368, -0.4667199, 0.02555743, 0.01358128, -0.02100525, 1.002681, 0.003987499, -0.4654313, 0.02541119, 0.01634517, -0.02077618, 1.002619
 200833801, 0.003834469, -0.4669102, 0.02498408, 0.004694766, -0.02231076, 1.002737, -0.01069368, -0.4667199, 0.02555743, 0.01358128, -0.02100525, 1.002681
 201033721, 0.007681771, -0.4183198, 0.02274957, 0.0009735953, -0.01094951, 1.002187, 0.003834469, -0.4669102, 0.02498408, 0.004694766, -0.02231076, 1.002737
 201233641, 0.006855599, -0.4291027, 0.02354858, 0.004871676, -0.01241743, 1.002296, 0.007681771, -0.4183198, 0.02274957, 0.0009735953, -0.01094951, 1.002187
 201433561, 0.008557244, -0.4285671, 0.02324888, 0.01415539, -0.01273202, 1.002192, 0.006855599, -0.4291027, 0.02354858, 0.004871676, -0.01241743, 1.002296
 201633481, 0.003092295, -0.3951095, 0.02256978, 0.0227251, -0.002897047, 1.001673, 0.008557244, -0.4285671, 0.02324888, 0.01415539, -0.01273202, 1.002192
 201834234, -0.01272348, -0.471866, -0.004759645, 0.0237154, -0.02224517, 1.002456, 0.003092295, -0.3951095, 0.02256978, 0.0227251, -0.002897047, 1.001673
 202034154, 0.00279751, -0.427067, 0.02346975, 0.0250738, -0.01122295, 1.00195, -0.01272348, -0.471866, -0.004759645, 0.0237154, -0.02224517, 1.002456
 202234074, -0.007478992, -0.3926889, 0.0225609, 0.02148279, -0.001956601, 1.001654, 0.00279751, -0.427067, 0.02346975, 0.0250738, -0.01122295, 1.00195
 202433994, -0.009402526, -0.4621236, 0.02647127, 0.02314889, -0.01632676, 1.002426, -0.007478992, -0.3926889, 0.0225609, 0.02148279, -0.001956601, 1.001654
 202633914, 0.004985024, -0.43597, 0.02518307, 0.02958468, -0.009820815, 1.001945, -0.009402526, -0.4621236, 0.02647127, 0.02314889, -0.01632676, 1.002426
 202833834, 0.003662258, -0.4665399, -0.002904847, 0.03637362, -0.01542154, 1.002076, 0.004985024, -0.43597, 0.02518307, 0.02958468, -0.009820815, 1.001945
 203033754, -0.00375789, -0.4382189, 0.02571229, 0.03964871, -0.009587783, 1.001613, 0.003662258, -0.4665399, -0.002904847, 0.03637362, -0.01542154, 1.002076
 203233674, -0.01173803, -0.4440565, 0.0264578, 0.03699588, -0.01014008, 1.001783, -0.00375789, -0.4382189, 0.02571229, 0.03964871, -0.009587783, 1.001613
 203433594, 0.01324598, -0.432487, 0.02550861, 0.03380734, -0.007238835, 1.00177, -0.01173803, -0.4440565, 0.0264578, 0.03699588, -0.01014008, 1.001783
 203633514, -0.009722497, -0.4068366, -0.006063467, 0.03196215, -0.002608962, 1.001485, 0.01324598, -0.432487, 0.02550861, 0.03380734, -0.007238835, 1.00177
 203834267, 0.01553842, -0.383997, 0.02252893, 0.03317076, 0.002100725, 1.001227, -0.009722497, -0.4068366, -0.006063467, 0.03196215, -0.002608962, 1.001485
 204034187, -0.0127554, -0.4414048, 0.0271231, 0.03280731, -0.007392138, 1.001894, 0.01553842, -0.383997, 0.02252893, 0.03317076, 0.002100725, 1.001227
 204234107, -0.0112631, -0.3975081, 0.0248847, 0.02787221, 0.002395052, 1.001523, -0.0127554, -0.4414048, 0.0271231, 0.03280731, -0.007392138, 1.001894
 204434027, 0.004916411, -0.4454928, 0.02754504, 0.02795686, -0.0075581, 1.002127, -0.0112631, -0.3975081, 0.0248847, 0.02787221, 0.002395052, 1.001523
 204633947, 0.01165932, -0.4450303, 0.05207313, 0.02361735, -0.009036571, 1.00226, 0.004916411, -0.4454928, 0.02754504, 0.02795686, -0.0075581, 1.002127
 204833867, 0.01292277, -0.4183846, 0.02539621, 0.02030766, -0.003500242, 1.001989, 0.01165932, -0.4450303, 0.05207313, 0.02361735, -0.009036571, 1.00226
 205033787, -0.008788666, -0.4448943, 0.02710328, 0.02146389, -0.009179555, 1.002293, 0.01292277, -0.4183846, 0.02539621, 0.02030766, -0.003500242, 1.001989
 205233707, -0.01636965, -0.4322028, 0.05714101, 0.02132, -0.005512748, 1.002178, -0.008788666, -0.4448943, 0.02710328, 0.02146389, -0.009179555, 1.002293
 205433627, 0.006903589, -0.4387124, 0.02586354, 0.0230933, -0.009948779, 1.002191, -0.01636965, -0.4322028, 0.05714101, 0.02132, -0.005512748, 1.002178
 205633547, -0.004017564, -0.3918815, 0.02407183, 0.02805226, 0.001535263, 1.001507, 0.006903589, -0.4387124, 0.02586354, 0.0230933, -0.009948779, 1.002191
 205834300, -0.006773219, -0.4711084, 0.03019217, 0.02915541, -0.01271307, 1.00254, -0.004017564, -0.3918815, 0.02407183, 0.02805226, 0.001535263, 1.001507
 206034220, -0.01203287, -0.4295816, 0.02770191, 0.02515595, -0.00356283, 1.002081, -0.006773219, -0.4711084, 0.03019217, 0.02915541, -0.01271307, 1.00254
 206234140, 0.008179355, -0.4095362, 0.02477324, 0.02184439, -0.003098961, 1.001905, -0.01203287, -0.4295816, 0.02770191, 0.02515595, -0.00356283, 1.002081
 206434060, -0.009214667, -0.4086007, 0.02531606, 0.02203636, -0.001987718, 1.001896, 0.008179355, -0.4095362, 0.02477324, 0.02184439, -0.003098961, 1.001905
 206633980, -0.007276444, -0.4255407, 0.02748932, 0.02031198, -0.002964281, 1.002172, -0.009214667, -0.4086007, 0.02531606, 0.02203636, -0.001987718, 1.001896
 206833900, 0.009860662, -0.4171977, 0.02653182, 0.02060641, -0.00219623, 1.002072, -0.007276444, -0.4255407, 0.02748932, 0.02031198, -0.002964281, 1.002172
 207033820, -0.01535149, -0.422012, 0.026188, 0.01935204, -0.005262461, 1.002152, 0.009860662, -0.4171977, 0.02653182, 0.02060641, -0.00219623, 1.002072
 207233740, -0.004051524, -0.4714957, 0.05977943, 0.01397821, -0.01599929, 1.003001, -0.01535149, -0.422012, 0.026188, 0.01935204, -0.005262461, 1.002152
 207433660, -0.007900061, -0.4720438, 0.03105226, 0.009910223, -0.01309555, 1.003082, -0.004051524, -0.4714957, 0.05977943, 0.01397821, -0.01599929, 1.003001
 207633580, 0.009336574, -0.4700848, 0.0321912, 0.009028284, -0.01032737, 1.003111, -0.007900061, -0.4720438, 0.03105226, 0.009910223, -0.01309555, 1.003082
 207833500, 0.001819839, -0.4298234, 0.02807962, 0.008074453, -0.004171044, 1.002478, 0.009336574, -0.4700848, 0.0321912, 0.009028284, -0.01032737, 1.003111
 208034253, -0.009763937, -0.4774351, 0.06013757, 0.007079784, -0.0181348, 1.00321, 0.001819839, -0.4298234, 0.02807962, 0.008074453, -0.004171044, 1.002478
 208234173, -0.007434094, -0.4194292, 0.05638488, 0.01111997, -0.005044274, 1.002328, -0.009763937, -0.4774351, 0.06013757, 0.007079784, -0.0181348, 1.00321
 208434093, -0.004854001, -0.4610082, 0.029737, 0.008248185, -0.01235673, 1.002949, -0.007434094, -0.4194292, 0.05638488, 0.01111997, -0.005044274, 1.002328
 208634013, -0.007546314, -0.4639454, 0.06622587, 0.00449794, -0.01116782, 1.003104, -0.004854001, -0.4610082, 0.029737, 0.008248185, -0.01235673, 1.002949
 208833933, -0.005333555, -0.4836682, 0.03181854, -0.0002009282, -0.01686592, 1.003388, -0.007546314, -0.4639454, 0.06622587, 0.00449794, -0.01116782, 1.003104
 209033853, 0.01049638, -0.4801894, 0.03097807, -0.003108198, -0.01694337, 1.003245, -0.005333555, -0.4836682, 0.03181854, -0.0002009282, -0.01686592, 1.003388
 209233773, -0.005203192, -0.4907742, 0.03009178, -0.003631341, -0.0232764, 1.003418, 0.01049638, -0.4801894, 0.03097807, -0.003108198, -0.01694337, 1.003245
 209433693, 0.002624403, -0.5037848, 0.0657816, -0.001761793, -0.02798475, 1.003661, -0.005203192, -0.4907742, 0.03009178, -0.003631341, -0.0232764, 1.003418
 209633613, -0.005182878, -0.420737, 0.0268575, -0.001189206, -0.004173815, 1.002418, 0.002624403, -0.5037848, 0.0657816, -0.001761793, -0.02798475, 1.003661
 209833533, 0.001737022, -0.4652793, 0.03093424, -0.0006727064, -0.0122437, 1.003126, -0.005182878, -0.420737, 0.0268575, -0.001189206, -0.004173815, 1.002418
 210034286, -0.004277489, -0.4582462, 0.03012215, -0.001450955, -0.0111865, 1.003009, 0.001737022, -0.4652793, 0.03093424, -0.0006727064, -0.0122437, 1.003126
 210234206, 0.01091182, -0.4287623, 0.02846626, -0.0001835423, -0.004349247, 1.002577, -0.004277489, -0.4582462, 0.03012215, -0.001450955, -0.0111865, 1.003009
 210434126, 0.007718923, -0.5248949, 0.03486309, 0.004699069, -0.02848696, 1.004182, 0.01091182, -0.4287623, 0.02846626, -0.0001835423, -0.004349247, 1.002577
 210634046, -0.0002644759, -0.4602993, 0.03059718, 0.01388317, -0.01153015, 1.002985, 0.007718923, -0.5248949, 0.03486309, 0.004699069, -0.02848696, 1.004182
 210833966, -0.02669626, -0.4980495, 0.03571961, 0.107882, -0.02201105, 0.9979042, -0.0002644759, -0.4602993, 0.03059718, 0.01388317, -0.01153015, 1.002985
 211033886, -0.8286037, -0.3624955, -0.7103755, 0.7154891, -0.0311557, 0.6998529, -0.02669626, -0.4980495, 0.03571961, 0.107882, -0.02201105, 0.9979042
 211233806, -1.371271, 0.06343285, -0.4372912, 0.9993948, -0.1496248, 0.2964956, -0.8286037, -0.3624955, -0.7103755, 0.7154891, -0.0311557, 0.6998529
 211433726, -1.218087, 0.3203311, -0.7170431, 0.8450048, -0.3961504, 0.4883142, -1.371271, 0.06343285, -0.4372912, 0.9993948, -0.1496248, 0.2964956
 211633646, -1.030968, 0.3759578, -0.9756299, 0.6299899, -0.5048786, 0.6770703, -1.218087, 0.3203311, -0.7170431, 0.8450048, -0.3961504, 0.4883142
 211833566, -1.028294, 0.3485098, -1.006253, 0.5890566, -0.5161381, 0.7052894, -1.030968, 0.3759578, -0.9756299, 0.6299899, -0.5048786, 0.6770703
 212033486, -1.029065, 0.4116975, -0.9602724, 0.6237984, -0.5213382, 0.6702462, -1.028294, 0.3485098, -1.006253, 0.5890566, -0.5161381, 0.7052894
 212234239, -1.05256, 0.4652599, -0.9060834, 0.630081, -0.5449493, 0.6450378, -1.029065, 0.4116975, -0.9602724, 0.6237984, -0.5213382, 0.6702462
 212434159, -1.004607, 0.5415944, -0.9058226, 0.6091767, -0.5678442, 0.6451142, -1.05256, 0.4652599, -0.9060834, 0.630081, -0.5449493, 0.6450378
 212634079, -0.9868393, 0.5452473, -0.9338136, 0.5732637, -0.5937245, 0.6549025, -1.004607, 0.5415944, -0.9058226, 0.6091767, -0.5678442, 0.6451142
 212833999, -0.9595151, 0.5884842, -0.9363249, 0.539344, -0.615235, 0.6638005, -0.9868393, 0.5452473, -0.9338136, 0.5732637, -0.5937245, 0.6549025
 213033919, -0.9503, 0.6212867, -0.9311645, 0.5027329, -0.6345588, 0.6743919, -0.9595151, 0.5884842, -0.9363249, 0.539344, -0.615235, 0.6638005
 213233839, -0.8871066, 0.6840054, -0.9399405, 0.4665587, -0.6521257, 0.6833601, -0.9503, 0.6212867, -0.9311645, 0.5027329, -0.6345588, 0.6743919
 213433759, -0.8294985, 0.7044448, -0.9736763, 0.4340305, -0.6657895, 0.6915302, -0.8871066, 0.6840054, -0.9399405, 0.4665587, -0.6521257, 0.6833601
 213633679, -0.8369819, 0.7158781, -0.9720826, 0.3950308, -0.678557, 0.7026846, -0.8294985, 0.7044448, -0.9736763, 0.4340305, -0.6657895, 0.6915302
 213833599, -0.807039, 0.7308493, -0.988874, 0.3608723, -0.6849856, 0.7147825, -0.8369819, 0.7158781, -0.9720826, 0.3950308, -0.678557, 0.7026846
 214033519, -0.7735156, 0.7588936, -0.993818, 0.3298226, -0.6906382, 0.7242594, -0.807039, 0.7308493, -0.988874, 0.3608723, -0.6849856, 0.7147825
 214234272, -0.763374, 0.7537636, -1.016225, 0.2935157, -0.6941711, 0.7366668, -0.7735156, 0.7588936, -0.993818, 0.3298226, -0.6906382, 0.7242594
 214434192, -0.7433383, 0.778127, -1.017151, 0.2585597, -0.6929378, 0.7508826, -0.763374, 0.7537636, -1.016225, 0.2935157, -0.6941711, 0.7366668
 214634112, -0.7242479, 0.7693256, -1.043385, 0.2290437, -0.6902067, 0.7630537, -0.7433383, 0.778127, -1.017151, 0.2585597, -0.6929378, 0.7508826
 214834032, -0.3038983, -0.1439006, 0.08803779, 0.1906224, -0.649388, 0.7379061, -0.7242479, 0.7693256, -1.043385, 0.2290437, -0.6902067, 0.7630537
 215033952, -0.3398017, -0.1440228, 0.0546566, 0.1598552, -0.6412434, 0.7524998, -0.3038983, -0.1439006, 0.08803779, 0.1906224, -0.649388, 0.7379061
 215233872, -0.3199348, -0.1288387, 0.08309069, 0.1337702, -0.624337, 0.771352, -0.3398017, -0.1440228, 0.0546566, 0.1598552, -0.6412434, 0.7524998
 215433792, -0.3435932, -0.1009417, 0.06346344, 0.1106152, -0.6089331, 0.7873275, -0.3199348, -0.1288387, 0.08309069, 0.1337702, -0.624337, 0.771352
 215633712, -0.385462, -0.1013076, 0.06963201, 0.08373859, -0.5892518, 0.805902, -0.3435932, -0.1009417, 0.06346344, 0.1106152, -0.6089331, 0.7873275
 215833632, -0.3567661, -0.07414497, 0.07677316, 0.07133009, -0.5656665, 0.8234565, -0.385462, -0.1013076, 0.06963201, 0.08373859, -0.5892518, 0.805902
 216033552, -0.4174967, -0.05726584, 0.05362105, 0.0445501, -0.5441312, 0.8404812, -0.3567661, -0.07414497, 0.07677316, 0.07133009, -0.5656665, 0.8234565
 216234305, -0.4053251, -0.05721434, 0.08762447, 0.03254978, -0.5182627, 0.8571418, -0.4174967, -0.05726584, 0.05362105, 0.0445501, -0.5441312, 0.8404812
 216434225, -0.3927023, -0.0325081, 0.08971583, 0.02405408, -0.4883792, 0.874661, -0.4053251, -0.05721434, 0.08762447, 0.03254978, -0.5182627, 0.8571418
 216634145, -0.461655, -0.03204607, 0.0913891, -0.002233252, -0.4565743, 0.8933455, -0.3927023, -0.0325081, 0.08971583, 0.02405408, -0.4883792, 0.874661
 216834065, -0.4453665, -0.002814136, 0.1003338, -0.005571067, -0.4208914, 0.9105155, -0.461655, -0.03204607, 0.0913891, -0.002233252, -0.4565743, 0.8933455
 217033985, -0.547827, 0.01274559, 0.07251294, -0.04108272, -0.3889933, 0.9267455, -0.4453665, -0.002814136, 0.1003338, -0.005571067, -0.4208914, 0.9105155
 217233905, -0.4983816, 0.02636756, 0.07786821, -0.02948137, -0.3578297, 0.938324, -0.547827, 0.01274559, 0.07251294, -0.04108272, -0.3889933, 0.9267455
 217433825, -0.488686, 0.04385635, 0.07952762, -0.03169122, -0.3182468, 0.9523612, -0.4983816, 0.02636756, 0.07786821, -0.02948137, -0.3578297, 0.938324
 217633745, -0.6410648, 0.07026964, 0.09650461, -0.08684003, -0.2760569, 0.9695084, -0.488686, 0.04385635, 0.07952762, -0.03169122, -0.3182468, 0.9523612
 217833665, -0.7065343, 0.07785408, 0.1017238, -0.1166616, -0.2362844, 0.9826406, -0.6410648, 0.07026964, 0.09650461, -0.08684003, -0.2760569, 0.9695084
 218033585, -0.7153717, 0.08362846, 0.1021702, -0.1220501, -0.2014648, 0.9912922, -0.7065343, 0.07785408, 0.1017238, -0.1166616, -0.2362844, 0.9826406
 218233505, -0.6584105, 0.08499243, 0.09546365, -0.09744302, -0.1701289, 0.9954866, -0.7153717, 0.08362846, 0.1021702, -0.1220501, -0.2014648, 0.9912922
 218434258, -0.682659, 0.09967746, 0.09384182, -0.1083103, -0.1339037, 1.002595, -0.6584105, 0.08499243, 0.09546365, -0.09744302, -0.1701289, 0.9954866
 218634178, -0.6735715, 0.1086124, 0.09759597, -0.1040777, -0.09888063, 1.006925, -0.682659, 0.09967746, 0.09384182, -0.1083103, -0.1339037, 1.002595
 218834098, -0.8617727, 0.1427889, 0.08330271, -0.2126131, -0.04382498, 1.020852, -0.6735715, 0.1086124, 0.09759597, -0.1040777, -0.09888063, 1.006925
 219034018, -0.8529773, 0.1447678, 0.0815388, -0.2077575, -0.02327361, 1.021746, -0.8617727, 0.1427889, 0.08330271, -0.2126131, -0.04382498, 1.020852
 219233938, -1.146671, 0.2013211, 0.1056454, -0.4630887, 0.04346855, 1.045544, -0.8529773, 0.1447678, 0.0815388, -0.2077575, -0.02327361, 1.021746
 219433858, -1.017953, 0.1790369, 0.09138907, -0.334973, 0.03826831, 1.03351, -1.146671, 0.2013211, 0.1056454, -0.4630887, 0.04346855, 1.045544
 219633778, -0.9303676, 0.1565424, 0.1131166, -0.2684768, 0.05286518, 1.027931, -1.017953, 0.1790369, 0.09138907, -0.334973, 0.03826831, 1.03351
 219833698, -0.8535428, 0.1517473, 0.07242747, -0.2126177, 0.06120969, 1.021667, -0.9303676, 0.1565424, 0.1131166, -0.2684768, 0.05286518, 1.027931
 220033618, -0.8061609, 0.1482008, 0.06674334, -0.1817275, 0.06762078, 1.018377, -0.8535428, 0.1517473, 0.07242747, -0.2126177, 0.06120969, 1.021667
 220233538, -1.247155, 0.2111005, 0.1008911, -0.5883878, 0.1490845, 1.050268, -0.8061609, 0.1482008, 0.06674334, -0.1817275, 0.06762078, 1.018377
 220434291, -1.362555, 0.2445702, 0.1046142, -0.7507591, 0.1854712, 1.060052, -1.247155, 0.2111005, 0.1008911, -0.5883878, 0.1490845, 1.050268
