TimeUS,CGpN,CGpE,CGpD,CGpe,PGpN,PGpE,PGpD,PGpe
 158034261, 0, 0, 0, 0.01, 0, 0, 0, 0.01
 158234181, 0, 0, 0, 0.01, 0, 0, 0, 0.01
 158434101, 0.009000001, 0, 0, 0.01, 0, 0, 0, 0.01
 158634021, 0.249, -0.026, 0, 0.01, 0.009000001, 0, 0, 0.01
 158833941, 0.934, -0.097, 0.012, 0.01, 0.249, -0.026, 0, 0.01
 159033861, 2.092, -0.218, 0.037, 0.01, 0.934, -0.097, 0.012, 0.01
 159233781, 3.697, -0.388, 0.074, 0.01, 2.092, -0.218, 0.037, 0.01
 159433701, 5.696, -0.596, 0.123, 0.01, 3.697, -0.388, 0.074, 0.01
 159633621, 7.819, -0.8200001, 0.181, 0.01, 5.696, -0.596, 0.123, 0.01
 159833541, 9.808001, -1.026, 0.239, 0.01, 7.819, -0.8200001, 0.181, 0.01
 160034294, 11.576, -1.217, 0.275, 0.01, 9.808001, -1.026, 0.239, 0.01
 160234214, 13.138, -1.38, 0.205, 0.01, 11.576, -1.217, 0.275, 0.01
 160434134, 14.699, -1.551, 0.162, 0.01, 13.138, -1.38, 0.205, 0.01
 160634054, 16.663, -1.74, -0.946, 0.01, 14.699, -1.551, 0.162, 0.01
 160833974, 18.337, -1.923, -1.871, 0.01, 16.663, -1.74, -0.946, 0.01
 161033894, 19.814, -2.111, -2.28, 0.01, 18.337, -1.923, -1.871, 0.01
 161233814, 21.112, -2.262, -2.751, 0.01, 19.814, -2.111, -2.28, 0.01
 161433734, 22.222, -2.361, -3.259, 0.01, 21.112, -2.262, -2.751, 0.01
 161633654, 23.191, -2.485, -3.632, 0.01, 22.222, -2.361, -3.259, 0.01
 161833574, 24.019, -2.573, -3.983, 0.01, 23.191, -2.485, -3.632, 0.01
 162033494, 24.709, -2.647, -4.352, 0.01, 24.019, -2.573, -3.983, 0.01
 162234247, 25.317, -2.735, -4.577, 0.01, 24.709, -2.647, -4.352, 0.01
 162434167, 25.825, -2.792, -4.826, 0.01, 25.317, -2.735, -4.577, 0.01
 162634087, 26.247, -2.82, -5.077, 0.01, 25.825, -2.792, -4.826, 0.01
 162834007, 26.596, -2.87, -5.323, 0.01, 26.247, -2.82, -5.077, 0.01
 163033927, 26.898, -2.937, -5.431, 0.01, 26.596, -2.87, -5.323, 0.01
 163233847, 27.159, -2.969, -5.519, 0.01, 26.898, -2.937, -5.431, 0.01
 163433767, 27.369, -3.015, -5.644, 0.01, 27.159, -2.969, -5.519, 0.01
 163633687, 27.545, -3.042, -5.722, 0.01, 27.369, -3.015, -5.644, 0.01
 163833607, 27.666, -3.067, -5.849, 0.01, 27.545, -3.042, -5.722, 0.01
 164033527, 27.776, -3.088, -5.875, 0.01, 27.666, -3.067, -5.849, 0.01
 164234280, 27.858, -3.087, -5.978, 0.01, 27.776, -3.088, -5.875, 0.01
 164434200, 27.937, -3.103, -5.988, 0.01, 27.858, -3.087, -5.978, 0.01
 164634120, 27.998, -3.128, -6.02, 0.01, 27.937, -3.103, -5.988, 0.01
 164834040, 28.054, -3.143, -6.016, 0.01, 27.998, -3.128, -6.02, 0.01
 165033960, 28.139, -3.157, -5.889, 0.01, 28.054, -3.143, -6.016, 0.01
 165233880, 28.23, -3.174, -5.701, 0.01, 28.139, -3.157, -5.889, 0.01
 165433800, 28.33, -3.212, -5.48, 0.01, 28.23, -3.174, -5.701, 0.01
 165633720, 28.446, -3.207, -5.231, 0.01, 28.33, -3.212, -5.48, 0.01
 165833640, 28.494, -3.242, -5.054, 0.01, 28.446, -3.207, -5.231, 0.01
 166033560, 28.489, -3.252, -4.853, 0.01, 28.494, -3.242, -5.054, 0.01
 166233480, 28.517, -3.257, -4.635, 0.01, 28.489, -3.252, -4.853, 0.01
 166434233, 28.567, -3.268, -4.446, 0.01, 28.517, -3.257, -4.635, 0.01
 166634153, 28.624, -3.29, -4.259, 0.01, 28.567, -3.268, -4.446, 0.01
 166834073, 28.658, -3.324, -4.079, 0.01, 28.624, -3.29, -4.259, 0.01
 167033993, 28.663, -3.302, -3.825, 0.01, 28.658, -3.324, -4.079, 0.01
 167233913, 28.657, -3.196, -3.471, 0.01, 28.663, -3.302, -3.825, 0.01
 167433833, 28.619, -3.132, -3.229, 0.01, 28.657, -3.196, -3.471, 0.01
 167633753, 28.562, -3.111, -3.014, 0.01, 28.619, -3.132, -3.229, 0.01
 167833673, 28.505, -3.077, -2.769, 0.01, 28.562, -3.111, -3.014, 0.01
 168033593, 28.451, -3.015, -2.514, 0.01, 28.505, -3.077, -2.769, 0.01
 168233513, 28.386, -2.966, -2.305, 0.01, 28.451, -3.015, -2.514, 0.01
 168434266, 28.316, -2.923, -2.109, 0.01, 28.386, -2.966, -2.305, 0.01
 168634186, 28.25, -2.923, -1.834, 0.01, 28.316, -2.923, -2.109, 0.01
 168834106, 28.199, -2.894, -1.584, 0.01, 28.25, -2.923, -1.834, 0.01
 169034026, 28.14, -2.852, -1.433, 0.01, 28.199, -2.894, -1.584, 0.01
 169233946, 28.087, -2.818, -1.217, 0.01, 28.14, -2.852, -1.433, 0.01
 169433866, 28.054, -2.789, -0.923, 0.01, 28.087, -2.818, -1.217, 0.01
 169633786, 28.024, -2.783, -0.708, 0.01, 28.054, -2.789, -0.923, 0.01
 169833706, 28.002, -2.749, -0.612, 0.01, 28.024, -2.783, -0.708, 0.01
 170033626, 27.977, -2.717, -0.541, 0.01, 28.002, -2.749, -0.612, 0.01
 170233546, 27.946, -2.711, -0.375, 0.01, 27.977, -2.717, -0.541, 0.01
 170434299, 27.934, -2.678, -0.196, 0.01, 27.946, -2.711, -0.375, 0.01
 170634219, 27.931, -2.653, -0.002, 0.01, 27.934, -2.678, -0.196, 0.01
 170834139, 27.93, -2.643, 0.145, 0.01, 27.931, -2.653, -0.002, 0.01
 171034059, 27.925, -2.64, 0.191, 0.01, 27.93, -2.643, 0.145, 0.01
 171233979, 27.916, -2.612, 0.212, 0.01, 27.925, -2.64, 0.191, 0.01
 171433899, 27.912, -2.597, 0.307, 0.01, 27.916, -2.612, 0.212, 0.01
 171633819, 27.912, -2.581, 0.372, 0.01, 27.912, -2.597, 0.307, 0.01
 171833739, 27.917, -2.563, 0.491, 0.01, 27.912, -2.581, 0.372, 0.01
 172033659, 27.91, -2.52, 0.532, 0.01, 27.917, -2.563, 0.491, 0.01
 172233579, 27.908, -2.511, 0.591, 0.01, 27.91, -2.52, 0.532, 0.01
 172433499, 27.92, -2.509, 0.642, 0.01, 27.908, -2.511, 0.591, 0.01
 172634252, 27.922, -2.49, 0.675, 0.01, 27.92, -2.509, 0.642, 0.01
 172834172, 27.93, -2.489, 0.678, 0.01, 27.922, -2.49, 0.675, 0.01
 173034092, 27.951, -2.471, 0.714, 0.01, 27.93, -2.489, 0.678, 0.01
 173234012, 27.975, -2.447, 0.808, 0.01, 27.951, -2.471, 0.714, 0.01
 173433932, 27.988, -2.438, 0.8430001, 0.01, 27.975, -2.447, 0.808, 0.01
 173633852, 28.006, -2.433, 0.8650001, 0.01, 27.988, -2.438, 0.8430001, 0.01
 173833772, 28.039, -2.403, 0.846, 0.01, 28.006, -2.433, 0.8650001, 0.01
 174033692, 28.052, -2.401, 0.814, 0.01, 28.039, -2.403, 0.846, 0.01
 174233612, 28.066, -2.378, 0.827, 0.01, 28.052, -2.401, 0.814, 0.01
 174433532, 28.085, -2.356, 0.855, 0.01, 28.066, -2.378, 0.827, 0.01
 174634285, 28.106, -2.332, 0.827, 0.01, 28.085, -2.356, 0.855, 0.01
 174834205, 28.11, -2.335, 0.858, 0.01, 28.106, -2.332, 0.827, 0.01
 175034125, 28.118, -2.338, 0.9030001, 0.01, 28.11, -2.335, 0.858, 0.01
 175234045, 28.133, -2.328, 0.941, 0.01, 28.118, -2.338, 0.9030001, 0.01
 175433965, 28.176, -2.321, 0.9630001, 0.01, 28.133, -2.328, 0.941, 0.01
 175633885, 28.207, -2.311, 0.9580001, 0.01, 28.176, -2.321, 0.9630001, 0.01
 175833805, 28.233, -2.306, 0.892, 0.01, 28.207, -2.311, 0.9580001, 0.01
 176033725, 28.253, -2.293, 0.878, 0.01, 28.233, -2.306, 0.892, 0.01
 176233645, 28.274, -2.301, 0.91, 0.01, 28.253, -2.293, 0.878, 0.01
 176433565, 28.306, -2.321, 0.836, 0.01, 28.274, -2.301, 0.91, 0.01
 176633485, 28.341, -2.344, 0.781, 0.01, 28.306, -2.321, 0.836, 0.01
 176834238, 28.359, -2.351, 0.789, 0.01, 28.341, -2.344, 0.781, 0.01
 177034158, 28.376, -2.321, 0.7780001, 0.01, 28.359, -2.351, 0.789, 0.01
 177234078, 28.396, -2.303, 0.8200001, 0.01, 28.376, -2.321, 0.7780001, 0.01
 177433998, 28.414, -2.293, 0.8240001, 0.01, 28.396, -2.303, 0.8200001, 0.01
 177633918, 28.426, -2.297, 0.845, 0.01, 28.414, -2.293, 0.8240001, 0.01
 177833838, 28.452, -2.307, 0.8190001, 0.01, 28.426, -2.297, 0.845, 0.01
 178033758, 28.484, -2.29, 0.737, 0.01, 28.452, -2.307, 0.8190001, 0.01
 178233678, 28.5, -2.292, 0.64, 0.01, 28.484, -2.29, 0.737, 0.01
 178433598, 28.523, -2.284, 0.673, 0.01, 28.5, -2.292, 0.64, 0.01
 178633518, 28.551, -2.281, 0.6950001, 0.01, 28.523, -2.284, 0.673, 0.01
 178834271, 28.566, -2.266, 0.694, 0.01, 28.551, -2.281, 0.6950001, 0.01
 179034191, 28.582, -2.225, 0.68, 0.01, 28.566, -2.266, 0.694, 0.01
 179234111, 28.61, -2.196, 0.686, 0.01, 28.582, -2.225, 0.68, 0.01
 179434031, 28.631, -2.16, 0.6300001, 0.01, 28.61, -2.196, 0.686, 0.01
 179633951, 28.655, -2.143, 0.618, 0.01, 28.631, -2.16, 0.6300001, 0.01
 179833871, 28.673, -2.126, 0.605, 0.01, 28.655, -2.143, 0.618, 0.01
 180033791, 28.703, -2.132, 0.535, 0.01, 28.673, -2.126, 0.605, 0.01
 180233711, 28.72, -2.097, 0.492, 0.01, 28.703, -2.132, 0.535, 0.01
 180433631, 28.727, -2.055, 0.493, 0.01, 28.72, -2.097, 0.492, 0.01
 180633551, 28.749, -2.023, 0.476, 0.01, 28.727, -2.055, 0.493, 0.01
 180834304, 28.755, -1.951, 0.472, 0.01, 28.749, -2.023, 0.476, 0.01
 181034224, 28.777, -1.893, 0.465, 0.01, 28.755, -1.951, 0.472, 0.01
 181234144, 28.826, -0.858, 0.563, 0.01, 28.777, -1.893, 0.465, 0.01
 181434064, 28.883, -0.266, 0.224, 0.01, 28.826, -0.858, 0.563, 0.01
 181633984, 28.849, -1.016, 0.029, 0.01, 28.883, -0.266, 0.224, 0.01
 181833904, 28.843, -1.306, 0.332, 0.01, 28.849, -1.016, 0.029, 0.01
 182033824, 28.857, -0.877, 0.388, 0.01, 28.843, -1.306, 0.332, 0.01
 182233744, 28.878, -0.538, 0.444, 0.01, 28.857, -0.877, 0.388, 0.01
 182433664, 28.887, -0.631, 0.411, 0.01, 28.878, -0.538, 0.444, 0.01
 182633584, 28.893, -0.7780001, 0.416, 0.01, 28.887, -0.631, 0.411, 0.01
 182833504, 28.9, -0.706, 0.42, 0.01, 28.893, -0.7780001, 0.416, 0.01
 183034257, 28.91, -0.536, 0.381, 0.01, 28.9, -0.706, 0.42, 0.01
 183234177, 28.933, -0.489, 0.401, 0.01, 28.91, -0.536, 0.381, 0.01
 183434097, 28.958, -0.508, 0.388, 0.01, 28.933, -0.489, 0.401, 0.01
 183634017, 29.005, -0.471, 0.34, 0.01, 28.958, -0.508, 0.388, 0.01
 183833937, 29.021, -0.403, 0.327, 0.01, 29.005, -0.471, 0.34, 0.01
 184033857, 29.032, -0.338, 0.351, 0.01, 29.021, -0.403, 0.327, 0.01
 184233777, 0, 0.0125, 0.335, 0.01, 29.032, -0.338, 0.351, 0.01
 184433697, 0, 0.0125, 0.273, 0.01, 0, 0.0125, 0.335, 0.01
 184633617, 0, 0.0125, 0.246, 0.01, 0, 0.0125, 0.273, 0.01
 184833537, 0, 0.0125, 0.302, 0.01, 0, 0.0125, 0.246, 0.01
 185034290, 0, 0.0125, 0.304, 0.01, 0, 0.0125, 0.302, 0.01
 185234210, 0, 0.0125, 0.29, 0.01, 0, 0.0125, 0.304, 0.01
 185434130, 0, 0.0125, 0.376, 0.01, 0, 0.0125, 0.29, 0.01
 185634050, 0, 0.0125, 0.376, 0.01, 0, 0.0125, 0.376, 0.01
 185833970, 0, 0.0125, 0.378, 0.01, 0, 0.0125, 0.376, 0.01
 186033890, 0, 0.0125, 0.336, 0.01, 0, 0.0125, 0.378, 0.01
 186233810, 0, 0.0125, 0.263, 0.01, 0, 0.0125, 0.336, 0.01
 186433730, 0, 0.0125, 0.236, 0.01, 0, 0.0125, 0.263, 0.01
 186633650, 0, 0.0125, 0.203, 0.01, 0, 0.0125, 0.236, 0.01
 186833570, 0, 0.0125, 0.133, 0.01, 0, 0.0125, 0.203, 0.01
 187033490, 0, 0.0125, 0.072, 0.01, 0, 0.0125, 0.133, 0.01
 187234243, 0, 0.0125, 0.087, 0.01, 0, 0.0125, 0.072, 0.01
 187434163, 0, 0.0125, 0.126, 0.01, 0, 0.0125, 0.087, 0.01
 187634083, 0, 0.0125, 0.103, 0.01, 0, 0.0125, 0.126, 0.01
 187834003, 0, 0.0125, 0.063, 0.01, 0, 0.0125, 0.103, 0.01
 188033923, 0, 0.0125, 0.15, 0.01, 0, 0.0125, 0.063, 0.01
 188233843, 0, 0.0125, 0.211, 0.01, 0, 0.0125, 0.15, 0.01
 188433763, 0, 0.0125, 0.113, 0.01, 0, 0.0125, 0.211, 0.01
 188633683, 0, 0.0125, 0.118, 0.01, 0, 0.0125, 0.113, 0.01
 188833603, 0, 0.0125, 0.089, 0.01, 0, 0.0125, 0.118, 0.01
 189033523, 0, 0.0125, 0.265, 0.01, 0, 0.0125, 0.089, 0.01
 189234276, 0, 0.0125, 0.471, 0.01, 0, 0.0125, 0.265, 0.01
 189434196, 0, 0.0125, 0.594, 0.01, 0, 0.0125, 0.471, 0.01
 189634116, 0, 0.0125, 0.59, 0.01, 0, 0.0125, 0.594, 0.01
 189834036, 0, 0.0125, 0.446, 0.01, 0, 0.0125, 0.59, 0.01
 190033956, 0, 0.0125, 0.348, 0.01, 0, 0.0125, 0.446, 0.01
 190233876, 0, 0.0125, 0.31, 0.01, 0, 0.0125, 0.348, 0.01
 190433796, 0, 0.0125, 0.247, 0.01, 0, 0.0125, 0.31, 0.01
 190633716, 0, 0.0125, 0.293, 0.01, 0, 0.0125, 0.247, 0.01
 190833636, 0, 0.0125, 0.344, 0.01, 0, 0.0125, 0.293, 0.01
 191033556, 0, 0.0125, 0.273, 0.01, 0, 0.0125, 0.344, 0.01
 191233476, 0, 0.0125, 0.205, 0.01, 0, 0.0125, 0.273, 0.01
 191434229, 0, 0.0125, 0.117, 0.01, 0, 0.0125, 0.205, 0.01
 191634149, 0, 0.0125, 0.161, 0.01, 0, 0.0125, 0.117, 0.01
 191834069, 0, 0.0125, 0.175, 0.01, 0, 0.0125, 0.161, 0.01
 192033989, 0, 0.0125, 0.142, 0.01, 0, 0.0125, 0.175, 0.01
 192233909, 0, 0.0125, 0.085, 0.01, 0, 0.0125, 0.142, 0.01
 192433829, 0, 0.0125, 0.05, 0.01, 0, 0.0125, 0.085, 0.01
 192633749, 0, 0.0125, 0.009000001, 0.01, 0, 0.0125, 0.05, 0.01
 192833669, 0, 0.0125, -0.001, 0.01, 0, 0.0125, 0.009000001, 0.01
 193033589, 0, 0.0125, 0.023, 0.01, 0, 0.0125, -0.001, 0.01
 193233509, 0, 0.0125, -0.031, 0.01, 0, 0.0125, 0.023, 0.01
 193434262, 0, 0.0125, -0.06900001, 0.01, 0, 0.0125, -0.031, 0.01
 193634182, 0, 0.0125, -0.132, 0.01, 0, 0.0125, -0.06900001, 0.01
 193834102, 0, 0.0125, -0.164, 0.01, 0, 0.0125, -0.132, 0.01
 194034022, 0, 0.0125, -0.09500001, 0.01, 0, 0.0125, -0.164, 0.01
 194233942, 0, 0.0125, -0.08800001, 0.01, 0, 0.0125, -0.09500001, 0.01
 194433862, 0, 0.0125, -0.211, 0.01, 0, 0.0125, -0.08800001, 0.01
 194633782, 0, 0.0125, -0.205, 0.01, 0, 0.0125, -0.211, 0.01
 194833702, 0, 0.0125, -0.244, 0.01, 0, 0.0125, -0.205, 0.01
 195033622, 0, 0.0125, -0.234, 0.01, 0, 0.0125, -0.244, 0.01
 195233542, 0, 0.0125, -0.286, 0.01, 0, 0.0125, -0.234, 0.01
 195434295, 0, 0.0125, -0.347, 0.01, 0, 0.0125, -0.286, 0.01
 195634215, 0, 0.0125, -0.279, 0.01, 0, 0.0125, -0.347, 0.01
 195834135, 0, 0.0125, -0.379, 0.01, 0, 0.0125, -0.279, 0.01
 196034055, 0, 0.0125, -0.31, 0.01, 0, 0.0125, -0.379, 0.01
 196233975, 0, 0.0125, -0.273, 0.01, 0, 0.0125, -0.31, 0.01
 196433895, 0, 0.0125, -0.253, 0.01, 0, 0.0125, -0.273, 0.01
 196633815, 0, 0.0125, -0.241, 0.01, 0, 0.0125, -0.253, 0.01
 196833735, 0, 0.0125, -0.216, 0.01, 0, 0.0125, -0.241, 0.01
 197033655, 0, 0.0125, -0.189, 0.01, 0, 0.0125, -0.216, 0.01
 197233575, 0, 0.0125, -0.147, 0.01, 0, 0.0125, -0.189, 0.01
 197433495, 0, 0.0125, -0.145, 0.01, 0, 0.0125, -0.147, 0.01
 197634248, 0, 0.0125, -0.151, 0.01, 0, 0.0125, -0.145, 0.01
 197834168, 0, 0.0125, -0.109, 0.01, 0, 0.0125, -0.151, 0.01
 198034088, 0, 0.0125, -0.144, 0.01, 0, 0.0125, -0.109, 0.01
 198234008, 0, 0.0125, -0.15, 0.01, 0, 0.0125, -0.144, 0.01
 198433928, 0, 0.0125, -0.223, 0.01, 0, 0.0125, -0.15, 0.01
 198633848, 0, 0.0125, -0.207, 0.01, 0, 0.0125, -0.223, 0.01
 198833768, 0, 0.0125, -0.127, 0.01, 0, 0.0125, -0.207, 0.01
 199033688, 0, 0.0125, -0.081, 0.01, 0, 0.0125, -0.127, 0.01
 199233608, 0, 0.0125, -0.23, 0.01, 0, 0.0125, -0.081, 0.01
 199433528, 0, 0.0125, -0.221, 0.01, 0, 0.0125, -0.23, 0.01
 199634281, 0, 0.0125, -0.152, 0.01, 0, 0.0125, -0.221, 0.01
 199834201, 0, 0.0125, -0.105, 0.01, 0, 0.0125, -0.152, 0.01
 200034121, 0, 0.0125, -0.133, 0.01, 0, 0.0125, -0.105, 0.01
 200234041, 0, 0.0125, -0.083, 0.01, 0, 0.0125, -0.133, 0.01
 200433961, 0, 0.0125, -0.057, 0.01, 0, 0.0125, -0.083, 0.01
 200633881, 0, 0.0125, -0.049, 0.01, 0, 0.0125, -0.057, 0.01
 200833801, 0, 0.0125, -0.109, 0.01, 0, 0.0125, -0.049, 0.01
 201033721, 0, 0.0125, -0.08800001, 0.01, 0, 0.0125, -0.109, 0.01
 201233641, 0, 0.0125, -0.075, 0.01, 0, 0.0125, -0.08800001, 0.01
 201433561, 0, 0.0125, -0.09500001, 0.01, 0, 0.0125, -0.075, 0.01
 201633481, 0, 0.0125, -0.028, 0.01, 0, 0.0125, -0.09500001, 0.01
 201834234, 0, 0.0125, -0.129, 0.01, 0, 0.0125, -0.028, 0.01
 202034154, 0, 0.0125, -0.082, 0.01, 0, 0.0125, -0.129, 0.01
 202234074, 0, 0.0125, -0.017, 0.01, 0, 0.0125, -0.082, 0.01
 202433994, 0, 0.0125, -0.029, 0.01, 0, 0.0125, -0.017, 0.01
 202633914, 0, 0.0125, -0.013, 0.01, 0, 0.0125, -0.029, 0.01
 202833834, 0, 0.0125, -0.011, 0.01, 0, 0.0125, -0.013, 0.01
 203033754, 0, 0.0125, -0.029, 0.01, 0, 0.0125, -0.011, 0.01
 203233674, 0, 0.0125, -0.012, 0.01, 0, 0.0125, -0.029, 0.01
 203433594, 0, 0.0125, 0.041, 0.01, 0, 0.0125, -0.012, 0.01
 203633514, 0, 0.0125, 0.011, 0.01, 0, 0.0125, 0.041, 0.01
 203834267, 0, 0.0125, -0.033, 0.01, 0, 0.0125, 0.011, 0.01
 204034187, 0, 0.0125, -0.007, 0.01, 0, 0.0125, -0.033, 0.01
 204234107, 0, 0.0125, 0.06, 0.01, 0, 0.0125, -0.007, 0.01
 204434027, 0, 0.0125, 0.117, 0.01, 0, 0.0125, 0.06, 0.01
 204633947, 0, 0.0125, 0.049, 0.01, 0, 0.0125, 0.117, 0.01
 204833867, 0, 0.0125, -0.026, 0.01, 0, 0.0125, 0.049, 0.01
 205033787, 0, 0.0125, -0.037, 0.01, 0, 0.0125, -0.026, 0.01
 205233707, 0, 0.0125, 0.024, 0.01, 0, 0.0125, -0.037, 0.01
 205433627, 0, 0.0125, 0.023, 0.01, 0, 0.0125, 0.024, 0.01
 205633547, 0, 0.0125, 0.039, 0.01, 0, 0.0125, 0.023, 0.01
 205834300, 0, 0.0125, 0.081, 0.01, 0, 0.0125, 0.039, 0.01
 206034220, 0, 0.0125, 0.112, 0.01, 0, 0.0125, 0.081, 0.01
 206234140, 0, 0.0125, 0.015, 0.01, 0, 0.0125, 0.112, 0.01
 206434060, 0, 0.0125, 0.01, 0.01, 0, 0.0125, 0.015, 0.01
 206633980, 0, 0.0125, 0.07, 0.01, 0, 0.0125, 0.01, 0.01
 206833900, 0, 0.0125, 0.087, 0.01, 0, 0.0125, 0.07, 0.01
 207033820, 0, 0.0125, 0.07600001, 0.01, 0, 0.0125, 0.087, 0.01
 207233740, 0, 0.0125, 0.036, 0.01, 0, 0.0125, 0.07600001, 0.01
 207433660, 0, 0.0125, 0.051, 0.01, 0, 0.0125, 0.036, 0.01
 207633580, 0, 0.0125, 0.141, 0.01, 0, 0.0125, 0.051, 0.01
 207833500, 0, 0.0125, 0.118, 0.01, 0, 0.0125, 0.141, 0.01
 208034253, 0, 0.0125, 0.015, 0.01, 0, 0.0125, 0.118, 0.01
 208234173, 0, 0.0125, -0.006, 0.01, 0, 0.0125, 0.015, 0.01
 208434093, 0, 0.0125, -0.002, 0.01, 0, 0.0125, -0.006, 0.01
 208634013, 0, 0.0125, 0.106, 0.01, 0, 0.0125, -0.002, 0.01
 208833933, 0, 0.0125, 0.108, 0.01, 0, 0.0125, 0.106, 0.01
 209033853, 0, 0.0125, 0.008, 0.01, 0, 0.0125, 0.108, 0.01
 209233773, 0, 0.0125, -0.09100001, 0.01, 0, 0.0125, 0.008, 0.01
 209433693, 0, 0.0125, -0.07600001, 0.01, 0, 0.0125, -0.09100001, 0.01
 209633613, 0, 0.0125, 0.043, 0.01, 0, 0.0125, -0.07600001, 0.01
 209833533, 0, 0.0125, 0.074, 0.01, 0, 0.0125, 0.043, 0.01
 210034286, 0, 0.0125, -0.01, 0.01, 0, 0.0125, 0.074, 0.01
 210234206, 0, 0.0125, -0.018, 0.01, 0, 0.0125, -0.01, 0.01
 210434126, 0, 0.0125, 0.04, 0.01, 0, 0.0125, -0.018, 0.01
 210634046, 0, 0.0125, 0.041, 0.01, 0, 0.0125, 0.04, 0.01
 210833966, 0, 0.0125, 0.005, 0.01, 0, 0.0125, 0.041, 0.01
 211033886, 0, 0.0125, -0.083, 0.01, 0, 0.0125, 0.005, 0.01
 211233806, 0, 0.0125, -0.09100001, 0.01, 0, 0.0125, -0.083, 0.01
 211433726, 0, 0.0125, -0.045, 0.01, 0, 0.0125, -0.09100001, 0.01
 211633646, 0, 0.0125, -0.043, 0.01, 0, 0.0125, -0.045, 0.01
 211833566, 0, 0.0125, -0.035, 0.01, 0, 0.0125, -0.043, 0.01
 212033486, 0, 0.0125, -0.057, 0.01, 0, 0.0125, -0.035, 0.01
 212234239, 0, 0.0125, -0.09, 0.01, 0, 0.0125, -0.057, 0.01
 212434159, 0, 0.0125, -0.072, 0.01, 0, 0.0125, -0.09, 0.01
 212634079, 0, 0.0125, -0.019, 0.01, 0, 0.0125, -0.072, 0.01
 212833999, 0, 0.0125, 0.012, 0.01, 0, 0.0125, -0.019, 0.01
 213033919, 0, 0.0125, 0.018, 0.01, 0, 0.0125, 0.012, 0.01
 213233839, 0, 0.0125, -0.063, 0.01, 0, 0.0125, 0.018, 0.01
 213433759, 0, 0.0125, -0.09, 0.01, 0, 0.0125, -0.063, 0.01
 213633679, 0, 0.0125, -0.107, 0.01, 0, 0.0125, -0.09, 0.01
 213833599, 0, 0.0125, -0.08000001, 0.01, 0, 0.0125, -0.107, 0.01
 214033519, 0, 0.0125, -0.04, 0.01, 0, 0.0125, -0.08000001, 0.01
 214234272, 0, 0.0125, -0.023, 0.01, 0, 0.0125, -0.04, 0.01
 214434192, 0, 0.0125, -0.06, 0.01, 0, 0.0125, -0.023, 0.01
 214634112, 0, 0.0125, 0.026, 0.01, 0, 0.0125, -0.06, 0.01
 214834032, 0, 0.0125, -0.014, 0.01, 0, 0.0125, 0.026, 0.01
 215033952, 0, 0.0125, -0.033, 0.01, 0, 0.0125, -0.014, 0.01
 215233872, 0, 0.0125, -0.058, 0.01, 0, 0.0125, -0.033, 0.01
 215433792, 0, 0.0125, -0.029, 0.01, 0, 0.0125, -0.058, 0.01
 215633712, 0, 0.0125, 0.007, 0.01, 0, 0.0125, -0.029, 0.01
 215833632, 0, 0.0125, 0.025, 0.01, 0, 0.0125, 0.007, 0.01
 216033552, 0, 0.0125, -0.009000001, 0.01, 0, 0.0125, 0.025, 0.01
 216234305, 0, 0.0125, -0.008, 0.01, 0, 0.0125, -0.009000001, 0.01
 216434225, 0, 0.0125, 0.019, 0.01, 0, 0.0125, -0.008, 0.01
 216634145, 0, 0.0125, -0.013, 0.01, 0, 0.0125, 0.019, 0.01
 216834065, 0, 0.0125, -0.012, 0.01, 0, 0.0125, -0.013, 0.01
 217033985, 0, 0.0125, -0.045, 0.01, 0, 0.0125, -0.012, 0.01
 217233905, 0, 0.0125, 0.012, 0.01, 0, 0.0125, -0.045, 0.01
 217433825, 0, 0.0125, -0.005, 0.01, 0, 0.0125, 0.012, 0.01
 217633745, 0, 0.0125, -0.026, 0.01, 0, 0.0125, -0.005, 0.01
 217833665, 0, 0.0125, 0.025, 0.01, 0, 0.0125, -0.026, 0.01
 218033585, 0, 0.0125, 0.034, 0.01, 0, 0.0125, 0.025, 0.01
 218233505, 0, 0.0125, 0.026, 0.01, 0, 0.0125, 0.034, 0.01
 218434258, 0, 0.0125, 0.047, 0.01, 0, 0.0125, 0.026, 0.01
 218634178, 0, 0.0125, 0.067, 0.01, 0, 0.0125, 0.047, 0.01
 218834098, 0, 0.0125, 0.036, 0.01, 0, 0.0125, 0.067, 0.01
 219034018, 0, 0.0125, 0.051, 0.01, 0, 0.0125, 0.036, 0.01
 219233938, 0, 0.0125, 0.017, 0.01, 0, 0.0125, 0.051, 0.01
 219433858, 0, 0.0125, -0.005, 0.01, 0, 0.0125, 0.017, 0.01
 219633778, 0, 0.0125, 0.066, 0.01, 0, 0.0125, -0.005, 0.01
 219833698, 0, 0.0125, -0.016, 0.01, 0, 0.0125, 0.066, 0.01
 220033618, 0, 0.0125, 0.013, 0.01, 0, 0.0125, -0.016, 0.01
 220233538, 0, 0.0125, 0.008, 0.01, 0, 0.0125, 0.013, 0.01
 220434291, 0, 0.0125, -0.024, 0.01, 0, 0.0125, 0.008, 0.01
 220634211, 0, 0.0125, 0.009000001, 0.01, 0, 0.0125, -0.024, 0.01
 220834131, 0, 0.0125, -0.011, 0.01, 0, 0.0125, 0.009000001, 0.01
 221034051, 0, 0.0125, -0.017, 0.01, 0, 0.0125, -0.011, 0.01
 221233971, 0, 0.0125, -0.007, 0.01, 0, 0.0125, -0.017, 0.01
 221433891, 0, 0.0125, -0.08000001, 0.01, 0, 0.0125, -0.007, 0.01
 221633811, 0, 0.0125, 0, 0.01, 0, 0.0125, -0.08000001, 0.01
 221833731, 0, 0.0125, 0.039, 0.01, 0, 0.0125, 0, 0.01
 222033651, 0, 0.0125, 0.01, 0.01, 0, 0.0125, 0.039, 0.01
 222233571, 0, 0.0125, -0.004, 0.01, 0, 0.0125, 0.01, 0.01
 222433491, 0, 0.0125, -0.025, 0.01, 0, 0.0125, -0.004, 0.01
 222634244, 0, 0.0125, -0.053, 0.01, 0, 0.0125, -0.025, 0.01
 222834164, 0, 0.0125, -0.008, 0.01, 0, 0.0125, -0.053, 0.01
 223034084, 0, 0.0125, 0.032, 0.01, 0, 0.0125, -0.008, 0.01
 223234004, 0, 0.0125, 0.033, 0.01, 0, 0.0125, 0.032, 0.01
 223433924, 0, 0.0125, 0.002, 0.01, 0, 0.0125, 0.033, 0.01
 223633844, 0, 0.0125, -0.034, 0.01, 0, 0.0125, 0.002, 0.01
 223833764, 0, 0.0125, -0.007, 0.01, 0, 0.0125, -0.034, 0.01
 224033684, 0, 0.0125, 0.004, 0.01, 0, 0.0125, -0.007, 0.01
 224233604, 0, 0.0125, 0.01, 0.01, 0, 0.0125, 0.004, 0.01
 224433524, 0, 0.0125, 0.078, 0.01, 0, 0.0125, 0.01, 0.01
 224634277, 0, 0.0125, 0.038, 0.01, 0, 0.0125, 0.078, 0.01
 224834197, 0, 0.0125, 0.035, 0.01, 0, 0.0125, 0.038, 0.01
 225034117, 0, 0.0125, -0.041, 0.01, 0, 0.0125, 0.035, 0.01
 225234037, 0, 0.0125, -0.046, 0.01, 0, 0.0125, -0.041, 0.01
 225433957, 0, 0.0125, 0.013, 0.01, 0, 0.0125, -0.046, 0.01
 225633877, 0, 0.0125, 0.008, 0.01, 0, 0.0125, 0.013, 0.01
 225833797, 0, 0.0125, 0.022, 0.01, 0, 0.0125, 0.008, 0.01
 226033717, 0, 0.0125, -0.004, 0.01, 0, 0.0125, 0.022, 0.01
 226233637, 0, 0.0125, 0.005, 0.01, 0, 0.0125, -0.004, 0.01
 226433557, 0, 0.0125, -0.032, 0.01, 0, 0.0125, 0.005, 0.01
 226633477, 0, 0.0125, -0.013, 0.01, 0, 0.0125, -0.032, 0.01
 226834230, 0, 0.0125, -0.001, 0.01, 0, 0.0125, -0.013, 0.01
 227034150, 0, 0.0125, -0.038, 0.01, 0, 0.0125, -0.001, 0.01
 227234070, 0, 0.0125, -0.015, 0.01, 0, 0.0125, -0.038, 0.01
 227433990, 0, 0.0125, 0.008, 0.01, 0, 0.0125, -0.015, 0.01
 227633910, 0, 0.0125, -0.055, 0.01, 0, 0.0125, 0.008, 0.01
 227833830, 0, 0.0125, -0.041, 0.01, 0, 0.0125, -0.055, 0.01
 228033750, 0, 0.0125, -0.037, 0.01, 0, 0.0125, -0.041, 0.01
 228233670, 0, 0.0125, -0.003, 0.01, 0, 0.0125, -0.037, 0.01
 228433590, 0, 0.0125, -0.005, 0.01, 0, 0.0125, -0.003, 0.01
 228633510, 0, 0.0125, -0.025, 0.01, 0, 0.0125, -0.005, 0.01
 228834263, 0, 0.0125, -0.043, 0.01, 0, 0.0125, -0.025, 0.01
 229034183, 0, 0.0125, 0.021, 0.01, 0, 0.0125, -0.043, 0.01
 229234103, 0, 0.0125, -0.029, 0.01, 0, 0.0125, 0.021, 0.01
 229434023, 0, 0.0125, -0.004, 0.01, 0, 0.0125, -0.029, 0.01
 229633943, 0, 0.0125, -0.018, 0.01, 0, 0.0125, -0.004, 0.01
 229833863, 0, 0.0125, -0.005, 0.01, 0, 0.0125, -0.018, 0.01
 230033783, 0, 0.0125, -0.075, 0.01, 0, 0.0125, -0.005, 0.01
 230233703, 0, 0.0125, -0.081, 0.01, 0, 0.0125, -0.075, 0.01
 230433623, 0, 0.0125, -0.029, 0.01, 0, 0.0125, -0.081, 0.01
 230633543, 0, 0.0125, -0.03, 0.01, 0, 0.0125, -0.029, 0.01
 230834296, 0, 0.0125, 0.004, 0.01, 0, 0.0125, -0.03, 0.01
 231034216, 0, 0.0125, 0.002, 0.01, 0, 0.0125, 0.004, 0.01
 231234136, 0, 0.0125, -0.022, 0.01, 0, 0.0125, 0.002, 0.01
 231434056, 0, 0.0125, -0.013, 0.01, 0, 0.0125, -0.022, 0.01
 231633976, 0, 0.0125, -0.014, 0.01, 0, 0.0125, -0.013, 0.01
 231833896, 0, 0.0125, -0.006, 0.01, 0, 0.0125, -0.014, 0.01
 232033816, 0, 0.0125, -0.022, 0.01, 0, 0.0125, -0.006, 0.01
 232233736, 0, 0.0125, 0.01, 0.01, 0, 0.0125, -0.022, 0.01
 232433656, 0, 0.0125, 0.02, 0.01, 0, 0.0125, 0.01, 0.01
 232633576, 0, 0.0125, 0.085, 0.01, 0, 0.0125, 0.02, 0.01
 232833496, 0, 0.0125, 0.01, 0.01, 0, 0.0125, 0.085, 0.01
 233034249, 0, 0.0125, -0.057, 0.01, 0, 0.0125, 0.01, 0.01
 233234169, 0, 0.0125, -0.061, 0.01, 0, 0.0125, -0.057, 0.01
 233434089, 0, 0.0125, -0.033, 0.01, 0, 0.0125, -0.061, 0.01
 233634009, 0, 0.0125, 0.045, 0.01, 0, 0.0125, -0.033, 0.01
 233833929, 0, 0.0125, 0.003, 0.01, 0, 0.0125, 0.045, 0.01
 234033849, 0, 0.0125, 0.067, 0.01, 0, 0.0125, 0.003, 0.01
 234233769, 0, 0.0125, 0.043, 0.01, 0, 0.0125, 0.067, 0.01
 234433689, 0, 0.0125, 0.029, 0.01, 0, 0.0125, 0.043, 0.01
 234633609, 0, 0.0125, 0.024, 0.01, 0, 0.0125, 0.029, 0.01
 234833529, 0, 0.0125, -0.013, 0.01, 0, 0.0125, 0.024, 0.01
 235034282, 0, 0.0125, 0.032, 0.01, 0, 0.0125, -0.013, 0.01
 235234202, 0, 0.0125, -0.002, 0.01, 0, 0.0125, 0.032, 0.01
 235434122, 0, 0.0125, 0.009000001, 0.01, 0, 0.0125, -0.002, 0.01
 235634042, 0, 0.0125, -0.03, 0.01, 0, 0.0125, 0.009000001, 0.01
 235833962, 0, 0.0125, 0.048, 0.01, 0, 0.0125, -0.03, 0.01
 236033882, 0, 0.0125, 0.061, 0.01, 0, 0.0125, 0.048, 0.01
 236233802, 0, 0.0125, 0.052, 0.01, 0, 0.0125, 0.061, 0.01
 236433722, 0, 0.0125, -0.013, 0.01, 0, 0.0125, 0.052, 0.01
 236633642, 0, 0.0125, -0.07300001, 0.01, 0, 0.0125, -0.013, 0.01
 236833562, 0, 0.0125, 0.002, 0.01, 0, 0.0125, -0.07300001, 0.01
 237033482, 0, 0.0125, 0.019, 0.01, 0, 0.0125, 0.002, 0.01
 237234235, 0, 0.0125, 0.054, 0.01, 0, 0.0125, 0.019, 0.01
 237434155, 0, 0.0125, -0.027, 0.01, 0, 0.0125, 0.054, 0.01
 237634075, 0, 0.0125, 0.008, 0.01, 0, 0.0125, -0.027, 0.01
 237833995, 0, 0.0125, 0.015, 0.01, 0, 0.0125, 0.008, 0.01
 238033915, 0, 0.0125, -0.017, 0.01, 0, 0.0125, 0.015, 0.01
 238233835, 0, 0.0125, 0.003, 0.01, 0, 0.0125, -0.017, 0.01
 238433755, 0, 0.0125, 0, 0.01, 0, 0.0125, 0.003, 0.01
 238633675, 0, 0.0125, 0.001, 0.01, 0, 0.0125, 0, 0.01
 238833595, 0, 0.0125, -0.046, 0.01, 0, 0.0125, 0.001, 0.01
 239033515, 0, 0.0125, 0.018, 0.01, 0, 0.0125, -0.046, 0.01
 239234268, 0, 0.0125, -0.03, 0.01, 0, 0.0125, 0.018, 0.01
 239434188, 0, 0.0125, 0.005, 0.01, 0, 0.0125, -0.03, 0.01
 239634108, 0, 0.0125, 0.103, 0.01, 0, 0.0125, 0.005, 0.01
 239834028, 0, 0.0125, 0.09200001, 0.01, 0, 0.0125, 0.103, 0.01
 240033948, 0, 0.0125, -0.042, 0.01, 0, 0.0125, 0.09200001, 0.01
 240233868, 0, 0.0125, -0.046, 0.01, 0, 0.0125, -0.042, 0.01
 240433788, 0, 0.0125, -0.02, 0.01, 0, 0.0125, -0.046, 0.01
 240633708, 0, 0.0125, -0.06500001, 0.01, 0, 0.0125, -0.02, 0.01
 240833628, 0, 0.0125, -0.018, 0.01, 0, 0.0125, -0.06500001, 0.01
 241033548, 0, 0.0125, -0.023, 0.01, 0, 0.0125, -0.018, 0.01
 241234301, 0, 0.0125, -0.04, 0.01, 0, 0.0125, -0.023, 0.01
 241434221, 0, 0.0125, -0.007, 0.01, 0, 0.0125, -0.04, 0.01
 241634141, 0, 0.0125, -0.025, 0.01, 0, 0.0125, -0.007, 0.01
 241834061, 0, 0.0125, -0.075, 0.01, 0, 0.0125, -0.025, 0.01
 242033981, 0, 0.0125, 0.062, 0.01, 0, 0.0125, -0.075, 0.01
 242233901, 0, 0.0125, 0.008, 0.01, 0, 0.0125, 0.062, 0.01
 242433821, 0, 0.0125, -0.012, 0.01, 0, 0.0125, 0.008, 0.01
 242633741, 0, 0.0125, -0.038, 0.01, 0, 0.0125, -0.012, 0.01
 242833661, 0, 0.0125, -0.05, 0.01, 0, 0.0125, -0.038, 0.01
 243033581, 0, 0.0125, 0, 0.01, 0, 0.0125, -0.05, 0.01
 243233501, 0, 0.0125, 0.044, 0.01, 0, 0.0125, 0, 0.01
 243434254, 0, 0.0125, 0.045, 0.01, 0, 0.0125, 0.044, 0.01
 243634174, 0, 0.0125, 0.034, 0.01, 0, 0.0125, 0.045, 0.01
 243834094, 0, 0.0125, -0.02, 0.01, 0, 0.0125, 0.034, 0.01
 244034014, 0, 0.0125, -0.09200001, 0.01, 0, 0.0125, -0.02, 0.01
 244233934, 0, 0.0125, -0.023, 0.01, 0, 0.0125, -0.09200001, 0.01
 244433854, 27.627, -9.146001, 0.031, 0.01, 0, 0.0125, -0.023, 0.01
 244633774, 27.618, -9.199, 0.006, 0.01, 27.627, -9.146001, 0.031, 0.01
 244833694, 27.605, -9.239, -0.017, 0.01, 27.618, -9.199, 0.006, 0.01
 245033614, 27.69, -9.187, -0.105, 0.01, 27.605, -9.239, -0.017, 0.01
 245233534, 25.922, -11.188, 0.014, 0.01, 27.69, -9.187, -0.105, 0.01
 245434287, 22.518, -13.822, 1.389, 0.01, 25.922, -11.188, 0.014, 0.01
 245634207, 16.698, -18.097, 0.364, 0.01, 22.518, -13.822, 1.389, 0.01
 245834127, 11.848, -19.508, -1.462, 0.01, 16.698, -18.097, 0.364, 0.01
 246034047, 9.599001, -19.016, -1.405, 0.01, 11.848, -19.508, -1.462, 0.01
 246233967, 8.110001, -18.338, -0.559, 0.01, 9.599001, -19.016, -1.405, 0.01
 246433887, 6.493001, -17.816, 0.054, 0.01, 8.110001, -18.338, -0.559, 0.01
 246633807, 4.761, -17.351, 0.296, 0.01, 6.493001, -17.816, 0.054, 0.01
 246833727, 3.196, -16.827, 0.448, 0.01, 4.761, -17.351, 0.296, 0.01
 247033647, 1.844, -16.26, 0.678, 0.01, 3.196, -16.827, 0.448, 0.01
 247233567, 0.569, -15.683, 0.9170001, 0.01, 1.844, -16.26, 0.678, 0.01
 247433487, -0.694, -15.085, 1.067, 0.01, 0.569, -15.683, 0.9170001, 0.01
 247634240, -1.915, -14.443, 1.137, 0.01, -0.694, -15.085, 1.067, 0.01
 247834160, -3.035, -13.761, 1.179, 0.01, -1.915, -14.443, 1.137, 0.01
 248034080, -4.052, -13.042, 1.224, 0.01, -3.035, -13.761, 1.179, 0.01
 248234000, -4.982, -12.293, 1.274, 0.01, -4.052, -13.042, 1.224, 0.01
 248433920, -5.831, -11.517, 1.309, 0.01, -4.982, -12.293, 1.274, 0.01
 248633840, -6.592, -10.721, 1.325, 0.01, -5.831, -11.517, 1.309, 0.01
 248833760, -7.254, -9.92, 1.33, 0.01, -6.592, -10.721, 1.325, 0.01
 249033680, -7.812, -9.132, 1.349, 0.01, -7.254, -9.92, 1.33, 0.01
 249233600, -8.276, -8.370001, 1.385, 0.01, -7.812, -9.132, 1.349, 0.01
 249433520, -8.665, -7.637001, 1.421, 0.01, -8.276, -8.370001, 1.385, 0.01
 249634273, -8.989, -6.935, 1.449, 0.01, -8.665, -7.637001, 1.421, 0.01
 249834193, -9.255, -6.264, 1.472, 0.01, -8.989, -6.935, 1.449, 0.01
 250034113, -9.468, -5.635, 1.49, 0.01, -9.255, -6.264, 1.472, 0.01
 250234033, -9.634001, -5.048, 1.513, 0.01, -9.468, -5.635, 1.49, 0.01
 250433953, -9.762, -4.503, 1.539, 0.01, -9.634001, -5.048, 1.513, 0.01
 250633873, -9.862, -3.996, 1.554, 0.01, -9.762, -4.503, 1.539, 0.01
 250833793, -9.938001, -3.521, 1.551, 0.01, -9.862, -3.996, 1.554, 0.01
 251033713, -9.990001, -3.08, 1.543, 0.01, -9.938001, -3.521, 1.551, 0.01
 251233633, -10.019, -2.674, 1.542, 0.01, -9.990001, -3.08, 1.543, 0.01
 251433553, -10.033, -2.304, 1.547, 0.01, -10.019, -2.674, 1.542, 0.01
 251633473, -10.035, -1.966, 1.553, 0.01, -10.033, -2.304, 1.547, 0.01
 251834226, -10.028, -1.656, 1.553, 0.01, -10.035, -1.966, 1.553, 0.01
 252034146, -10.014, -1.373, 1.546, 0.01, -10.028, -1.656, 1.553, 0.01
 252234066, -9.993, -1.112, 1.536, 0.01, -10.014, -1.373, 1.546, 0.01
 252433986, -9.966001, -0.874, 1.526, 0.01, -9.993, -1.112, 1.536, 0.01
 252633906, -9.934, -0.6580001, 1.517, 0.01, -9.966001, -0.874, 1.526, 0.01
 252833826, -9.900001, -0.463, 1.509, 0.01, -9.934, -0.6580001, 1.517, 0.01
 253033746, -9.863001, -0.286, 1.505, 0.01, -9.900001, -0.463, 1.509, 0.01
 253233666, -9.825001, -0.125, 1.503, 0.01, -9.863001, -0.286, 1.505, 0.01
 253433586, -9.788, 0.024, 1.496, 0.01, -9.825001, -0.125, 1.503, 0.01
 253633506, -9.75, 0.162, 1.482, 0.01, -9.788, 0.024, 1.496, 0.01
 253834259, -9.71, 0.288, 1.466, 0.01, -9.75, 0.162, 1.482, 0.01
 254034179, -9.669001, 0.403, 1.452, 0.01, -9.71, 0.288, 1.466, 0.01
 254234099, -9.627001, 0.506, 1.445, 0.01, -9.669001, 0.403, 1.452, 0.01
 254434019, -9.587001, 0.601, 1.44, 0.01, -9.627001, 0.506, 1.445, 0.01
 254633939, -9.547001, 0.688, 1.43, 0.01, -9.587001, 0.601, 1.44, 0.01
 254833859, -9.507001, 0.766, 1.419, 0.01, -9.547001, 0.688, 1.43, 0.01
 255033779, -9.468, 0.8380001, 1.413, 0.01, -9.507001, 0.766, 1.419, 0.01
 255233699, -9.43, 0.904, 1.409, 0.01, -9.468, 0.8380001, 1.413, 0.01
 255433619, -9.393001, 0.965, 1.403, 0.01, -9.43, 0.904, 1.409, 0.01
 255633539, -9.357, 1.02, 1.395, 0.01, -9.393001, 0.965, 1.403, 0.01
 255834292, -9.322001, 1.072, 1.386, 0.01, -9.357, 1.02, 1.395, 0.01
 256034212, -9.287001, 1.119, 1.379, 0.01, -9.322001, 1.072, 1.386, 0.01
 256234132, -9.253, 1.162, 1.372, 0.01, -9.287001, 1.119, 1.379, 0.01
 256434052, -9.219001, 1.203, 1.364, 0.01, -9.253, 1.162, 1.372, 0.01
 256633972, -9.187, 1.239, 1.357, 0.01, -9.219001, 1.203, 1.364, 0.01
 256833892, -9.155001, 1.272, 1.351, 0.01, -9.187, 1.239, 1.357, 0.01
 257033812, -9.124001, 1.302, 1.346, 0.01, -9.155001, 1.272, 1.351, 0.01
 257233732, -9.094001, 1.33, 1.341, 0.01, -9.124001, 1.302, 1.346, 0.01
 257433652, -9.064, 1.354, 1.335, 0.01, -9.094001, 1.33, 1.341, 0.01
 257633572, -9.036, 1.377, 1.326, 0.01, -9.064, 1.354, 1.335, 0.01
 257833492, -9.007, 1.4, 1.316, 0.01, -9.036, 1.377, 1.326, 0.01
 258034245, -8.978001, 1.416, 1.307, 0.01, -9.007, 1.4, 1.316, 0.01
 258234165, -8.950001, 1.431, 1.302, 0.01, -8.978001, 1.416, 1.307, 0.01
 258434085, -8.922001, 1.449, 1.298, 0.01, -8.950001, 1.431, 1.302, 0.01
 258634005, -8.895, 1.471, 1.293, 0.01, -8.922001, 1.449, 1.298, 0.01
