TimeUS,CAN,CAE,CAD,CAe,NAN,NAE,NAD,NAe,m10,m00,Gye
 196263963, -3.794834E-06, 4.812696E-05, -1.09867E-06, 6.484905E-06, 0, 0, 0, 0, -0.9999978, -0.001442111, 2.136568
 196431396, -0.313916, 3.789018, -0.031478, 0.5097401, -0.08461063, 3.598166, -0.1831192, 0.5097331, -0.9999978, -0.001438866, 113.3347
 196631316, -0.08480071, 3.605401, -0.1832982, 0.5102592, -0.0003987848, 0.003962407, 1.040995E-05, 0.0005187925, -0.9999978, -0.001432786, 171.2454
 196831236, -0.000432745, 0.01084386, -0.0001458538, 0.00104407, 0.0001924054, 0.004110795, -7.025173E-05, 0.0005187925, -0.9999978, -0.001425883, 0.3503954
 197031156, -0.000279279, 0.01118875, -2.889431E-05, 0.00104407, -0.00051884, 0.003932229, -0.0002441752, 0.0005187925, -0.9999978, -0.001420059, 0.3503954
 197231076, -0.0002406704, 0.01145701, -0.0004419573, 0.00104407, 0.0001167275, 0.004260829, -0.0001648112, 0.0005187925, -0.9999978, -0.001414016, 0.3503954
 197430996, 0.0001392122, 0.01157237, -0.0004717572, 0.00104407, -7.919707E-06, 0.003886985, -0.0004945803, 0.0005187925, -0.9999978, -0.001408897, 0.3503954
 197630916, -5.726128E-05, 0.01100697, -0.0008857579, 0.00104407, 5.155873E-05, 0.003995738, -0.0001985828, 0.0005187925, -0.9999978, -0.0014037, 0.3503954
 197830836, 0.0004329924, 0.01157079, -0.0004667049, 0.00104407, 0.0001660094, 0.004325032, -0.0003325944, 0.0005187925, -0.9999978, -0.001396811, 0.3503954
 198030756, 0.0004152119, 0.01175585, -0.0008606269, 0.00104407, -1.671398E-05, 0.004381237, -0.000357853, 0.0005187925, -0.9999978, -0.001390295, 0.3503954
 198230676, 0.0001036755, 0.01191975, -0.000346149, 0.00104407, 0.0003567443, 0.004040227, -0.0003239503, 0.0005187925, -0.9999978, -0.001383463, 0.3503954
 198431429, 0.0002752067, 0.01138263, -0.0004952523, 0.001046232, 0.0001034041, 0.004129111, -0.0001317773, 0.0005209541, -0.9999978, -0.001379021, 0.3511209
 198631349, -2.110729E-05, 0.01145176, -0.0002027272, 0.001046232, -0.0002275998, 0.004208854, -0.0001429415, 0.0005187925, -0.9999978, -0.001384838, 0.3511209
 198831269, 2.863133E-05, 0.01142789, -0.0001088363, 0.00104407, 0.0001896042, 0.004126543, -0.0005059113, 0.0005187925, -0.9999978, -0.001389498, 0.3503954
 199031189, 0.000298732, 0.01192099, -0.0006657036, 0.00104407, 0.0002372685, 0.004750375, -0.0002945008, 0.0005187925, -0.9999978, -0.001395063, 0.3503954
 199231109, 0.000127877, 0.01191537, -0.0004167809, 0.00104407, -0.0001384811, 0.004263866, -2.521578E-05, 0.0005187925, -0.9999978, -0.001398915, 0.3503954
 199431029, -0.0001953213, 0.01145227, -3.63717E-05, 0.00104407, 7.168132E-05, 0.004134034, 3.144316E-05, 0.0005187925, -0.9999978, -0.001401676, 0.3503954
 199630949, 3.012033E-05, 0.01125104, 0.0001411302, 0.00104407, 0.0001546785, 0.003790335, 5.187462E-05, 0.0005187925, -0.9999978, -0.001403694, 0.3503954
 199830869, -7.16757E-05, 0.01144214, 2.053391E-05, 0.00104407, -0.0003767918, 0.004603917, -0.0001586339, 0.0005187925, -0.9999978, -0.001405186, 0.3503954
 200030789, -0.0003035518, 0.01184555, -0.0003147261, 0.00104407, 0.0005358392, 0.003849684, -0.0002672532, 0.0005187925, -0.9999978, -0.001405728, 0.3503954
 200230709, 0.0007596945, 0.01102402, -4.770504E-05, 0.00104407, 0.0003070568, 0.004245928, 4.435671E-05, 0.0005187925, -0.9999978, -0.001405695, 0.3503954
 200431462, 0.000324256, 0.01140596, -0.0004647771, 0.001046232, 0.0001496213, 0.003896695, -0.0004040122, 0.0005209541, -0.9999978, -0.001406929, 0.3511209
 200631382, -3.007648E-05, 0.01145144, -0.0006631792, 0.001046232, -0.0001102938, 0.004231159, -0.0002709878, 0.0005187925, -0.9999978, -0.001406044, 0.3511209
 200831302, 2.287797E-05, 0.01129755, -0.0002836416, 0.00104407, -2.762794E-05, 0.004238495, -3.702827E-05, 0.0005187925, -0.9999978, -0.001403679, 0.3503954
 201031222, 4.735757E-05, 0.01151324, 4.671729E-05, 0.00104407, 0.0003802609, 0.003987324, -0.0002464453, 0.0005187925, -0.9999979, -0.001398147, 0.3503954
 201231142, 0.0002796274, 0.01096421, -0.0003712814, 0.00104407, -0.000101629, 0.003900821, 0.0001446836, 0.0005187925, -0.9999979, -0.001393225, 0.3503954
 201431062, -0.0004247949, 0.01112672, 0.0001590926, 0.00104407, -0.0002312989, 0.003975602, 7.469046E-06, 0.0005187925, -0.9999979, -0.001388214, 0.3503954
 201630982, -4.729022E-05, 0.01094083, 4.589748E-05, 0.00104407, 0.0001033408, 0.00376926, 0.0003810252, 0.0005187925, -0.9999979, -0.001382701, 0.3503954
 201830902, -0.0001382257, 0.01095875, 0.0002078213, 0.00104407, -0.0007018119, 0.004352769, 2.839621E-06, 0.0005187925, -0.9999979, -0.001376478, 0.3503954
 202030822, -0.0005999019, 0.01172204, -0.0002136067, 0.00104407, 0.0002164812, 0.003956336, -0.0001742369, 0.0005187925, -0.9999979, -0.001370417, 0.3503954
 202230742, 0.0003079629, 0.01131637, -0.000352107, 0.00104407, 0.0002778602, 0.004249064, 0.0002775358, 0.0005187925, -0.9999978, -0.001363494, 0.3503954
 202430662, 0.0005212702, 0.01145851, -3.121077E-05, 0.00104407, 0.0002102424, 0.004097547, -0.0003632439, 0.0005187925, -0.9999978, -0.001357292, 0.3503954
 202631415, 0.0004200249, 0.01131702, -0.0005574762, 0.001046232, 0.0003050399, 0.003832425, -0.0002009426, 0.0005209541, -0.9999978, -0.001352737, 0.3511209
 202831335, 0.0004953122, 0.0110876, -0.0003931479, 0.001046232, -0.000108267, 0.003812299, 3.706045E-05, 0.0005187925, -0.9999978, -0.001346351, 0.3511209
 203031255, -9.544648E-05, 0.0112826, -2.482618E-05, 0.00104407, 0.000449954, 0.004692881, 0.0002107361, 0.0005187925, -0.9999978, -0.001338868, 0.3503954
 203231175, 0.0003410647, 0.01199056, -0.0001510791, 0.00104407, 5.16105E-05, 0.004317973, -0.0005475095, 0.0005187925, -0.9999978, -0.001331675, 0.3503954
 203431095, 0.0001559211, 0.01140809, -0.0005757222, 0.00104407, 0.0002684511, 0.004123141, 0.0001705488, 0.0005187925, -0.9999978, -0.001322748, 0.3503954
 203631015, 0.0004298333, 0.0116191, 0.0003225156, 0.00104407, 0.0004303297, 0.00420983, 2.650035E-05, 0.0005187925, -0.9999978, -0.001315509, 0.3503954
 203830935, 0.0004611602, 0.01177337, -1.414329E-05, 0.00104407, -0.0002123759, 0.00433058, -5.079382E-05, 0.0005187925, -0.9999978, -0.001322408, 0.3503954
 204030855, 9.337722E-05, 0.01174291, -0.000300914, 0.00104407, 0.0001583707, 0.004288146, -0.0003147773, 0.0005187925, -0.9999978, -0.001329195, 0.3503954
 204230775, 0.0002662265, 0.01160864, -0.0005081968, 0.00104407, 0.0004297033, 0.004100884, -0.0002564358, 0.0005187925, -0.9999978, -0.001334444, 0.3503954
 204430695, 0.0005905004, 0.01134027, -0.0005917469, 0.00104407, -0.000139769, 0.004243179, -0.0002161496, 0.0005187925, -0.9999978, -0.001338779, 0.3503954
 204631448, -0.0001139247, 0.01153659, -3.600468E-05, 0.001046232, -1.034742E-05, 0.004491656, -0.0003140031, 0.0005209541, -0.9999979, -0.001344768, 0.3511209
 204831368, 0.0001449853, 0.01142827, -0.0001682875, 0.001046232, -9.985796E-05, 0.003903416, 0.0001331905, 0.0005187925, -0.9999978, -0.001346504, 0.3511209
 205031288, -0.0002066188, 0.01128831, -0.0003117006, 0.00104407, 1.520742E-05, 0.004399814, -0.0002641384, 0.0005187925, -0.9999978, -0.001347652, 0.3503954
 205231208, -7.163492E-05, 0.01165515, -0.0003851161, 0.00104407, 0.0002179894, 0.00417628, -0.0002507232, 0.0005187925, -0.9999978, -0.001348746, 0.3503954
 205431128, 0.0002991128, 0.01130826, -0.0002026022, 0.00104407, -0.0001754529, 0.003595955, 0.0003001693, 0.0005187925, -0.9999978, -0.00135015, 0.3503954
 205631048, 7.805967E-05, 0.01106226, -2.206276E-05, 0.00104407, 1.894628E-05, 0.003893003, 0.000299944, 0.0005187925, -0.9999978, -0.001350206, 0.3503954
 205830968, -6.736693E-05, 0.01122409, 0.000175469, 0.00104407, -0.0001531139, 0.004425319, 0.0001706001, 0.0005187925, -0.9999978, -0.001348299, 0.3503954
 206030888, 5.971062E-06, 0.01159825, -0.0001422385, 0.00104407, -0.0001844569, 0.003976688, -0.0002021958, 0.0005187925, -0.9999978, -0.001346545, 0.3503954
 206230808, 6.709025E-05, 0.01111464, -0.0002125628, 0.00104407, 5.651207E-05, 0.004210478, 6.28244E-05, 0.0005187925, -0.9999978, -0.001344774, 0.3503954
 206430728, 0.0002152252, 0.01135068, 0.000158871, 0.00104407, 0.0003189793, 0.004109384, -0.0001411183, 0.0005187925, -0.9999978, -0.001342901, 0.3503954
 206631481, 0.0004901906, 0.01138035, -0.000122083, 0.001046232, -8.413624E-07, 0.004371937, 8.34886E-06, 0.0005209541, -0.9999978, -0.001342095, 0.3511209
 206831401, -8.603964E-05, 0.01187869, 9.075389E-05, 0.001046232, -5.816424E-05, 0.004159522, -1.150982E-05, 0.0005187925, -0.9999979, -0.001340573, 0.3511209
 207031321, -0.0001849518, 0.01120583, -0.000334539, 0.00104407, -0.0001203248, 0.004476486, -0.0004651438, 0.0005187925, -0.9999979, -0.001337991, 0.3503954
 207231241, 4.072662E-05, 0.01174386, -0.0004932146, 0.00104407, -9.261208E-05, 0.003841703, -2.766939E-06, 0.0005187925, -0.9999978, -0.001333253, 0.3503954
 207431161, -0.0001824846, 0.01089945, 3.376919E-05, 0.00104407, -0.0002812633, 0.004178935, 0.0001043629, 0.0005187925, -0.9999978, -0.001328357, 0.3503954
 207631081, -0.0001147783, 0.01139086, -7.407441E-05, 0.00104407, 0.0002360378, 0.004461845, 0.0001346359, 0.0005187925, -0.9999978, -0.001323485, 0.3503954
 207831001, 0.000131008, 0.01151682, 0.0001797111, 0.00104407, -1.432444E-05, 0.003711472, 0.000606628, 0.0005187925, -0.9999978, -0.001318677, 0.3503954
 208030921, -0.0001856598, 0.01136424, 0.0004740297, 0.00104407, -0.0001750604, 0.004352966, 0.0004423016, 0.0005187925, -0.9999978, -0.001313293, 0.3503954
 208230841, -1.101558E-05, 0.01164387, 0.0003363764, 0.00104407, 0.0002124415, 0.004017393, -0.0002649058, 0.0005187925, -0.9999978, -0.001307344, 0.3503954
 208430761, -3.226724E-05, 0.01129354, -0.000309079, 0.00104407, -0.0002269894, 0.004470689, -0.0002239392, 0.0005187925, -0.9999978, -0.0013024, 0.3503954
 208630681, -0.0001616322, 0.01190674, -0.0004469335, 0.00104407, -3.778766E-05, 0.004207729, -0.000111509, 0.0005187925, -0.9999978, -0.001296205, 0.3503954
 208831434, 4.639616E-05, 0.01200822, -0.000112425, 0.001046232, 0.0002323249, 0.004456608, -4.356072E-05, 0.0005209541, -0.9999979, -0.001292189, 0.3511209
 209031354, 0.0005221221, 0.01184358, 7.798535E-05, 0.001046232, 0.0005780958, 0.004157315, 0.0007096682, 0.0005187925, -0.9999979, -0.001300871, 0.3511209
 209231274, 0.0006544016, 0.01145708, 0.0007683922, 0.00104407, 0.0001212608, 0.003986141, 0.0005103799, 0.0005187925, -0.9999979, -0.001307267, 0.3503954
 209431194, 6.587681E-05, 0.01139981, 0.0003348383, 0.00104407, -0.0003780538, 0.00372224, -0.0003025895, 0.0005187925, -0.9999979, -0.00131292, 0.3503954
 209631114, -0.0006303842, 0.01103208, -0.0002286329, 0.00104407, 1.484852E-05, 0.004256478, 2.701155E-05, 0.0005187925, -0.9999979, -0.001317776, 0.3503954
 209831034, -0.000112662, 0.01159757, 1.381322E-05, 0.00104407, 0.0001330084, 0.004795775, 2.090094E-05, 0.0005187925, -0.9999979, -0.001321251, 0.3503954
 210030954, 0.0002528052, 0.01213138, 0.0001540486, 0.00104407, 2.790246E-05, 0.004245982, -0.0002193789, 0.0005187925, -0.9999979, -0.001324998, 0.3503954
 210230874, -0.0001621368, 0.01159598, -8.432352E-05, 0.00104407, -0.0003045704, 0.004163512, 0.0002429478, 0.0005187925, -0.9999979, -0.001327641, 0.3503954
 210430794, -0.0002125132, 0.01150147, 0.0001282071, 0.00104407, 0.0001876443, 0.004379905, -4.853214E-05, 0.0005187925, -0.9999979, -0.001328825, 0.3503954
 210630714, 0.0001076396, 0.01115159, -6.670548E-05, 0.00104407, 0.0004009043, 0.003874496, -0.0001454749, 0.0005187925, -0.9999979, -0.001327206, 0.3503954
 210831467, 0.0002844486, 0.01135688, -2.211364E-05, 0.001046232, 0.0001125626, 0.003764224, 7.482992E-05, 0.0005209541, -0.9999979, -0.001327744, 0.3511209
 211031387, 0.0001498691, 0.01117911, 9.162813E-05, 0.001046232, 3.699395E-06, 0.004263105, -0.0003966854, 0.0005187925, -0.9999979, -0.001327649, 0.3511209
 211231307, 5.846862E-05, 0.01126109, -0.0007108288, 0.00104407, -6.742028E-05, 0.003741782, -4.623471E-07, 0.0005187925, -0.9999979, -0.001326652, 0.3503954
 211431227, -0.000290663, 0.01109227, -0.0003077073, 0.00104407, 0.0003253899, 0.004328741, 0.0001811185, 0.0005187925, -0.9999979, -0.001323969, 0.3503954
 211631147, 0.0002373575, 0.0114895, -0.0001311147, 0.00104407, -0.0004245144, 0.004056982, -0.0001955323, 0.0005187925, -0.9999979, -0.001322264, 0.3503954
 211831067, -0.0008236439, 0.01129328, -0.0002072923, 0.00104407, -0.0001014522, 0.004310227, -0.0004215319, 0.0005187925, -0.9999979, -0.001319887, 0.3503954
 212030987, 1.507738E-05, 0.01175795, -0.0004097206, 0.00104407, 0.0002300839, 0.004443605, 5.89993E-05, 0.0005187925, -0.9999979, -0.001316278, 0.3503954
 212230907, 0.0002377449, 0.01152904, 0.0001778141, 0.00104407, 6.055702E-05, 0.004017631, 0.0002928897, 0.0005187925, -0.9999979, -0.001313005, 0.3503954
 212430827, 0.0001964585, 0.01110601, 0.0001524268, 0.00104407, 0.0003189011, 0.004049677, -0.0003105208, 0.0005187925, -0.9999979, -0.001308361, 0.3503954
 212630747, 0.0003771423, 0.01117967, -0.0002478741, 0.00104407, 0.0001145277, 0.003732296, 0.000126098, 0.0005187925, -0.9999979, -0.001303892, 0.3503954
 212830667, -0.0001985825, 0.0107142, -6.408867E-05, 0.00104407, -0.0003141307, 0.004181466, -0.0001630274, 0.0005187925, -0.9999979, -0.001299034, 0.3503954
 213031420, -0.0002857094, 0.01138962, -0.0006181096, 0.001046232, -0.000516829, 0.003701939, -0.0001838497, 0.0005209541, -0.9999979, -0.001295616, 0.3511209
 213231340, -0.0004603664, 0.01124717, 4.227974E-05, 0.001046232, 0.0002284805, 0.004087362, 0.0004844443, 0.0005187925, -0.9999979, -0.001290731, 0.3511209
 213431260, 0.0002523804, 0.01138354, 0.0005254858, 0.00104407, -0.0001845371, 0.00432141, -0.0001583753, 0.0005187925, -0.9999979, -0.001283395, 0.3503954
 213631180, -0.0001544972, 0.01145066, -0.0003625325, 0.00104407, -4.267665E-05, 0.003947345, -0.0005161926, 0.0005187925, -0.9999979, -0.001277928, 0.3503954
 213831100, -0.0001248688, 0.01119192, -0.0007262603, 0.00104407, -8.730644E-05, 0.00380477, -0.0003276551, 0.0005187925, -0.9999979, -0.001272149, 0.3503954
 214031020, 0.0002392931, 0.01140615, -0.0003999015, 0.00104407, 3.291696E-05, 0.004446802, 7.358586E-05, 0.0005187925, -0.9999979, -0.001266188, 0.3503954
 214230940, 0.0002044973, 0.01195318, 7.711662E-05, 0.00104407, -7.148842E-05, 0.003903025, 3.794107E-06, 0.0005187925, -0.9999979, -0.001275673, 0.3503954
 214430860, 0.0003917121, 0.01115186, -1.551482E-06, 0.00104407, -6.74851E-05, 0.00413974, 7.211665E-06, 0.0005187925, -0.9999979, -0.001284298, 0.3503954
 214630780, 0.000177626, 0.0116969, -0.000308967, 0.00104407, -8.367233E-05, 0.004248138, -0.0003341697, 0.0005187925, -0.9999979, -0.001291671, 0.3503954
 214830700, 4.122242E-05, 0.01190826, -0.000389942, 0.00104407, 7.849336E-05, 0.00464123, -6.903271E-05, 0.0005187925, -0.9999979, -0.001298483, 0.3503954
 215031453, 0.0001154337, 0.01204383, -0.000636137, 0.001046232, 0.0001920525, 0.004572416, -0.000363133, 0.0005209541, -0.9999979, -0.001303837, 0.3511209
 215231373, 6.239009E-05, 0.01221677, -0.0005538299, 0.001046232, -5.386542E-06, 0.004388219, 9.705712E-06, 0.0005187925, -0.9999979, -0.001307905, 0.3511209
 215431293, 0.0001454565, 0.0115033, 6.146474E-05, 0.00104407, 6.760022E-05, 0.003892015, 0.0003571297, 0.0005187925, -0.9999979, -0.001310055, 0.3503954
 215631213, 8.996655E-05, 0.01117446, 0.0002726775, 0.00104407, -0.0001522897, 0.003717309, -0.0002379216, 0.0005187925, -0.9999979, -0.001311686, 0.3503954
 215831133, 0.0002313932, 0.01069064, -0.0001933516, 0.00104407, 0.0003305338, 0.004202037, -1.051006E-05, 0.0005187925, -0.9999979, -0.001313014, 0.3503954
 216031053, 0.0005034789, 0.01130874, -8.370983E-05, 0.00104407, 0.0001617614, 0.004339799, -9.584762E-05, 0.0005187925, -0.9999979, -0.001313288, 0.3503954
 216230973, 0.0003385562, 0.01159572, -0.000228297, 0.00104407, 0.0002441463, 0.003626018, 2.264786E-05, 0.0005187925, -0.9999979, -0.001313508, 0.3503954
 216430893, 0.0007148162, 0.01083301, -0.000299166, 0.00104407, 0.0003047028, 0.004294214, -0.0002469195, 0.0005187925, -0.9999979, -0.001312872, 0.3503954
 216630813, 9.772116E-05, 0.01144634, -0.0002878717, 0.00104407, 0.0002383391, 0.004286164, 0.000496195, 0.0005187925, -0.9999979, -0.001312292, 0.3503954
 216830733, -4.914903E-05, 0.01149265, 4.658635E-05, 0.00104407, -0.0003327566, 0.003684594, -0.0003068435, 0.0005187925, -0.9999979, -0.001309966, 0.3503954
 217031486, -0.0001953376, 0.01078812, -0.000921794, 0.001046232, -0.0001126778, 0.003815025, -0.0002800632, 0.0005187925, -0.9999979, -0.001306185, 0.3511209
 217231406, 0.0001213383, 0.0110177, -0.0001277103, 0.001046232, -6.596826E-05, 0.004165678, 0.0001136591, 0.0005209541, -0.9999979, -0.00130464, 0.3511209
 217431326, -1.279009E-05, 0.01130341, 1.714174E-05, 0.001046232, 0.0003245308, 0.004173455, -9.966915E-05, 0.0005187925, -0.9999979, -0.001301343, 0.3511209
 217631246, -0.0001265778, 0.01124454, -0.0003061393, 0.00104407, -0.0003469212, 0.004236837, -0.0003437122, 0.0005187925, -0.9999979, -0.001295936, 0.3503954
 217831166, -0.0006873169, 0.01179497, -0.0003780916, 0.00104407, -0.0001952386, 0.004251896, 1.882991E-05, 0.0005187925, -0.9999979, -0.001293579, 0.3503954
 218031086, -0.0001134878, 0.01154989, -0.0003081198, 0.00104407, -0.0001171692, 0.004104924, -0.0001571456, 0.0005187925, -0.9999979, -0.001290663, 0.3503954
 218231006, -0.0001694456, 0.01123225, -0.0003694235, 0.00104407, -0.0001477813, 0.00399612, -0.0001034013, 0.0005187925, -0.9999979, -0.00128718, 0.3503954
 218430926, 9.997161E-05, 0.01142047, -0.0001556132, 0.00104407, -5.38266E-05, 0.004404438, -0.0001301471, 0.0005187925, -0.9999979, -0.001283932, 0.3503954
 218630846, -9.188968E-05, 0.01161954, -0.0005166704, 0.00104407, 0.0001031816, 0.004278133, 0.0004027066, 0.0005187925, -0.9999978, -0.001280114, 0.3503954
 218830766, 0.0001706687, 0.01174789, 7.069975E-05, 0.00104407, -0.0002442727, 0.004368777, -0.0003908179, 0.0005187925, -0.9999978, -0.001276288, 0.3503954
 219030686, -0.0004051976, 0.01180915, -0.0003708631, 0.00104407, -5.174387E-05, 0.004251012, -0.0002343957, 0.0005187925, -0.9999978, -0.001273118, 0.3503954
 219231439, 0.0002380173, 0.01198573, -0.0005489557, 0.001046232, 0.0001598058, 0.004229554, -0.0002917184, 0.0005209541, -0.9999978, -0.001269583, 0.3511209
 219431359, 0.0004272761, 0.0114613, -0.0002867958, 0.001046232, 0.000493046, 0.004494872, -9.956904E-05, 0.0005187925, -0.9999978, -0.00127945, 0.3511209
 219631279, 0.0005672639, 0.01160552, -0.0004448671, 0.00104407, 3.698919E-05, 0.004071971, -0.0001986352, 0.0005187925, -0.9999978, -0.001287561, 0.3503954
 219831199, 0.0001225517, 0.01147735, -0.0004146216, 0.00104407, 0.0001237772, 0.004236586, 5.375023E-05, 0.0005187925, -0.9999978, -0.001295759, 0.3503954
 220031119, 0.0001579016, 0.01161425, -0.0001767846, 0.00104407, -1.043724E-05, 0.004499567, 9.50707E-05, 0.0005187925, -0.9999978, -0.001303637, 0.3503954
 220231039, 7.335673E-05, 0.01152923, -0.000221699, 0.00104407, -0.0001171675, 0.003856708, 5.168396E-05, 0.0005187925, -0.9999978, -0.001311799, 0.3503954
 220430959, -0.0002466095, 0.01115556, 0.0001241878, 0.00104407, -0.0001160468, 0.004249137, 3.947585E-05, 0.0005187925, -0.9999978, -0.001319241, 0.3503954
 220630879, -0.000331412, 0.01176486, -5.580578E-05, 0.00104407, -0.0002725747, 0.004211852, -8.412451E-05, 0.0005187925, -0.9999978, -0.001324563, 0.3503954
 220830799, -0.0003906714, 0.01169899, 0.0001320287, 0.00104407, -0.0004771706, 0.00497045, 0.0001548588, 0.0005187925, -0.9999978, -0.001329474, 0.3503954
 221030719, -0.0004105001, 0.01240292, -0.0001265186, 0.00104407, 0.000445789, 0.00402621, 0.0002117502, 0.0005187925, -0.9999978, -0.00133331, 0.3503954
 221231472, 0.0006535325, 0.011155, -9.026093E-05, 0.001046232, 0.0002810897, 0.003800756, -6.802737E-05, 0.0005209541, -0.9999978, -0.00133437, 0.3511209
 221431392, 0.000180846, 0.01128674, -0.0003664544, 0.001046232, 0.0001655253, 0.004455765, 0.0004583599, 0.0005187925, -0.9999978, -0.001338086, 0.3511209
 221631312, 0.0005336531, 0.01166149, 0.0004752269, 0.00104407, 0.0004465485, 0.004115412, -0.0001670205, 0.0005187925, -0.9999978, -0.001341025, 0.3503954
 221831232, 0.0002656528, 0.01137842, -0.0005993136, 0.00104407, -0.0004910899, 0.004323784, -0.0001568024, 0.0005187925, -0.9999978, -0.001341241, 0.3503954
 222031152, -0.0003663391, 0.01183579, -0.0002987989, 0.00104407, -0.0001191158, 0.004105474, 0.0001821981, 0.0005187925, -0.9999978, -0.001341439, 0.3503954
 222231072, -0.0001022753, 0.01153083, -3.418862E-05, 0.00104407, 0.0002314895, 0.004177119, 0.0002393325, 0.0005187925, -0.9999978, -0.001341297, 0.3503954
 222430992, 0.0001957932, 0.01161166, -0.0001773756, 0.00104407, 0.000106237, 0.004287005, -0.0004009287, 0.0005187925, -0.9999978, -0.00134154, 0.3503954
 222630912, -0.0002525942, 0.01133225, -0.0007123086, 0.00104407, -0.0002165869, 0.004143829, -0.0007025459, 0.0005187925, -0.9999978, -0.001343155, 0.3503954
 222830832, 6.392854E-05, 0.01154807, -0.0007167225, 0.00104407, -0.0002394207, 0.004871387, -0.0001441212, 0.0005187925, -0.9999978, -0.001343718, 0.3503954
 223030752, -0.0002774244, 0.01195695, -0.0005132945, 0.00104407, -0.0002872235, 0.003945268, -0.0002503752, 0.0005187925, -0.9999978, -0.001342892, 0.3503954
 223230672, -0.0006368296, 0.01106357, -0.0003279626, 0.00104407, -1.855426E-05, 0.004244353, -0.0001740653, 0.0005187925, -0.9999978, -0.001341315, 0.3503954
 223431425, 8.252235E-06, 0.01149206, -0.0003725023, 0.001046232, -8.227448E-07, 0.004093524, -0.0005213682, 0.0005209541, -0.9999978, -0.001339267, 0.3511209
 223631345, -5.943636E-05, 0.01148312, -0.0008481725, 0.001046232, -0.0003528866, 0.004370586, -0.0001846171, 0.0005187925, -0.9999978, -0.001336765, 0.3511209
 223831265, -0.0005850068, 0.01168366, -0.0002826585, 0.00104407, -0.0001731049, 0.004401532, 6.533393E-05, 0.0005187925, -0.9999978, -0.001333036, 0.3503954
 224031185, -0.0005557565, 0.0119882, 5.629432E-05, 0.00104407, -0.0005565564, 0.004588509, -0.0001833242, 0.0005187925, -0.9999978, -0.001330189, 0.3503954
 224231105, -0.0005501979, 0.01201128, -0.0004280428, 0.00104407, -9.723166E-05, 0.004081437, -0.0003397297, 0.0005187925, -0.9999978, -0.001327181, 0.3503954
 224431025, 4.637266E-05, 0.01131593, -0.0005373234, 0.00104407, -0.0003091243, 0.004490793, 0.0001016044, 0.0005187925, -0.9999978, -0.001323851, 0.3503954
 224630945, -0.0005126687, 0.01173798, -0.0001991452, 0.00104407, -0.0002837109, 0.0042836, -8.65709E-05, 0.0005187925, -0.9999977, -0.00133633, 0.3503954
 224830865, -2.354084E-05, 0.01171797, -7.054481E-05, 0.00104407, -1.21178E-05, 0.003886864, -0.0001045286, 0.0005187925, -0.9999977, -0.001347728, 0.3503954
 225030785, -0.0001359802, 0.01123798, -2.087712E-05, 0.00104407, -0.0004816273, 0.004211639, 0.0001679619, 0.0005187925, -0.9999977, -0.001360138, 0.3503954
 225230705, -0.0001140839, 0.01138632, 0.0001120845, 0.00104407, 0.0002760348, 0.004647236, -8.153871E-05, 0.0005187925, -0.9999977, -0.00136966, 0.3503954
 225431458, 0.0002122638, 0.01197351, -0.0004098031, 0.001046232, 0.0001509129, 0.004383849, 4.92813E-06, 0.0005209541, -0.9999977, -0.001378776, 0.3511209
 225631378, -0.0001711219, 0.01171051, -0.0004164881, 0.001046232, -0.0001370598, 0.003928688, -0.0003504543, 0.0005187925, -0.9999977, -0.00138657, 0.3511209
 225831298, 0.0001382416, 0.01176186, -0.0004319335, 0.00104407, 0.0001222728, 0.004354943, -0.0001213136, 0.0005187925, -0.9999977, -0.001392291, 0.3503954
 226031218, 0.0002286483, 0.01162743, -0.0001653903, 0.00104407, -0.0002031478, 0.004172659, 6.628723E-05, 0.0005187925, -0.9999977, -0.001396856, 0.3503954
 226231138, -8.611031E-05, 0.01136387, -0.0001710183, 0.00104407, -0.0001356865, 0.004223906, 1.015376E-05, 0.0005187925, -0.9999977, -0.001402162, 0.3503954
 226431058, -0.0002224941, 0.01156953, -0.0005078763, 0.00104407, 3.642748E-05, 0.004192165, -0.0003462217, 0.0005187925, -0.9999977, -0.001407345, 0.3503954
 226630978, -2.197236E-05, 0.01176579, -0.0004498804, 0.00104407, 0.0001234059, 0.004446977, -0.0002788239, 0.0005187925, -0.9999977, -0.001411089, 0.3503954
 226830898, -0.0001236007, 0.0117762, -0.0006834359, 0.00104407, -0.0002247103, 0.004071674, -0.0002002868, 0.0005187925, -0.9999977, -0.001414683, 0.3503954
 227030818, -0.000275077, 0.01145756, -0.0003473858, 0.00104407, 0.0002625721, 0.004099147, -0.0002332648, 0.0005187925, -0.9999977, -0.001417802, 0.3503954
 227230738, 0.0003722203, 0.01173464, -0.0004234979, 0.00104407, 0.0002504417, 0.004069694, -0.0003987207, 0.0005187925, -0.9999977, -0.001419455, 0.3503954
 227430658, 0.000315245, 0.01152096, -0.0006027647, 0.00104407, -0.0003771797, 0.00442771, -7.657206E-05, 0.0005187925, -0.9999977, -0.001423042, 0.3503954
 227631411, -0.000475748, 0.01204973, 8.439142E-05, 0.001046232, -1.921917E-05, 0.004353033, 0.0001095738, 0.0005209541, -0.9999977, -0.001424335, 0.3511209
 227831331, 0.0001751936, 0.01214579, -0.0004232763, 0.001046232, 0.0001862603, 0.004393119, -0.0003515994, 0.0005187925, -0.9999977, -0.001424668, 0.3511209
 228031251, 0.0003587168, 0.01149062, -0.0006400242, 0.00104407, -0.0001632293, 0.004447662, -2.943768E-05, 0.0005187925, -0.9999977, -0.001423747, 0.3503954
 228231171, -0.0001482129, 0.01199654, -0.0001041556, 0.00104407, 0.0003412067, 0.004502933, -0.0005742922, 0.0005187925, -0.9999977, -0.001422876, 0.3503954
 228431091, 0.0006501024, 0.01180974, -0.0006155961, 0.00104407, 0.0005435027, 0.004382367, -0.0003159641, 0.0005187925, -0.9999977, -0.001421174, 0.3503954
 228631011, 0.0007931389, 0.01173763, -0.0002767504, 0.00104407, 0.000118879, 0.003965864, -2.812095E-05, 0.0005187925, -0.9999977, -0.001420617, 0.3503954
 228830931, 0.0003415923, 0.01154147, -4.470826E-05, 0.00104407, 0.0001849304, 0.004741617, 0.0002558221, 0.0005187925, -0.9999976, -0.001418781, 0.3503954
 229030851, 0.0001518039, 0.01221074, 0.0002403037, 0.00104407, -0.0002218797, 0.00436503, -0.0003476552, 0.0005187925, -0.9999976, -0.001416743, 0.3503954
 229230771, -0.000482223, 0.01171333, -0.0006291208, 0.00104407, -7.481852E-05, 0.00401382, -0.0001987294, 0.0005187925, -0.9999976, -0.001414554, 0.3503954
 229430691, 0.0002490082, 0.01155393, -0.0004070751, 0.00104407, -0.0001346827, 0.004343617, 0.0003430329, 0.0005187925, -0.9999976, -0.001412844, 0.3503954
 229631444, 9.513789E-05, 0.01161237, 0.0003802931, 0.001046232, -3.997008E-05, 0.004370588, 8.134567E-05, 0.0005209541, -0.9999976, -0.001413011, 0.3511209
 229831364, 0.0001026794, 0.01207977, -1.623214E-05, 0.001046232, 0.0001558212, 0.004813435, -0.0001216116, 0.0005187925, -0.9999976, -0.001425556, 0.3511209
 230031284, -0.0001420761, 0.01216816, -0.0007238579, 0.00104407, -3.358732E-05, 0.004230956, -0.0003455472, 0.0005187925, -0.9999976, -0.001436011, 0.3503954
 230231204, -9.005337E-05, 0.01150036, -0.0005666658, 0.00104407, -0.0001585544, 0.004497558, 7.000864E-05, 0.0005187925, -0.9999976, -0.001447091, 0.3503954
 230431124, -0.0001990133, 0.01188052, 9.660075E-05, 0.00104407, -0.0001834443, 0.00397107, 0.0002693922, 0.0005187925, -0.9999976, -0.001455887, 0.3503954
 230631044, 2.394692E-06, 0.01141718, 0.0001989724, 0.00104407, 0.0001090606, 0.004723901, -0.0001019761, 0.0005187925, -0.9999976, -0.001463921, 0.3503954
 230830964, 0.0001690747, 0.01232668, -0.0001834767, 0.00104407, -0.0003003652, 0.004615132, -0.000197029, 0.0005187925, -0.9999976, -0.001470426, 0.3503954
 231030884, -0.0004135096, 0.01187327, -0.000381422, 0.00104407, 9.721878E-05, 0.004311535, 0.0001120548, 0.0005187925, -0.9999976, -0.001476314, 0.3503954
 231230804, -0.0001260828, 0.01186765, -0.0002769256, 0.00104407, -0.0004275362, 0.00431421, -0.0001264543, 0.0005187925, -0.9999976, -0.001481414, 0.3503954
 231430724, -0.0007090331, 0.01159048, -0.0004209813, 0.00104407, 3.616181E-05, 0.004220141, -5.477855E-06, 0.0005187925, -0.9999976, -0.001483914, 0.3503954
 231631477, -1.974675E-05, 0.0115891, -0.0005076492, 0.001046232, -8.185775E-05, 0.003978099, -0.0001650019, 0.0005209541, -0.9999976, -0.001487038, 0.3511209
 231831397, -0.0002506996, 0.01123749, -0.0001344931, 0.001046232, -0.0001663825, 0.00440324, 0.0001413912, 0.0005187925, -0.9999976, -0.001491097, 0.3511209
 232031317, -0.0003465137, 0.01157282, 9.886595E-05, 0.00104407, -0.0001276293, 0.004074396, 5.433174E-05, 0.0005187925, -0.9999976, -0.001492777, 0.3503954
 232231237, -0.0003441587, 0.01127111, -1.689115E-05, 0.00104407, -0.000235423, 0.004028026, -0.000204386, 0.0005187925, -0.9999976, -0.00149175, 0.3503954
 232431157, -3.038625E-06, 0.01125359, -0.0003197666, 0.00104407, 0.0001080354, 0.00403585, -0.0002239559, 0.0005187925, -0.9999976, -0.00149132, 0.3503954
 232631077, 3.069152E-05, 0.01110989, -0.0004152639, 0.00104407, -0.0001743772, 0.004322459, 0.000176047, 0.0005187925, -0.9999976, -0.001491249, 0.3503954
 232830997, -6.634395E-05, 0.01188937, 0.0003096294, 0.00104407, -3.064746E-05, 0.004365334, -0.0001012528, 0.0005187925, -0.9999976, -0.00149104, 0.3503954
 233030917, 0.0001236605, 0.01215651, -0.0003185285, 0.00104407, -0.000110816, 0.004574819, 2.990837E-05, 0.0005187925, -0.9999976, -0.001489931, 0.3503954
 233230837, -0.0003894158, 0.01172626, -0.0003197773, 0.00104407, -0.0005606327, 0.004195631, 0.0003689577, 0.0005187925, -0.9999976, -0.001487921, 0.3503954
 233430757, -0.0008391911, 0.01140512, 0.0004351043, 0.00104407, -0.0003027927, 0.00407219, 0.0001824543, 0.0005187925, -0.9999976, -0.001485892, 0.3503954
 233630677, -0.000551965, 0.0114571, 7.164828E-05, 0.00104407, -0.0001284226, 0.004211085, 0.0002490025, 0.0005187925, -0.9999976, -0.001482593, 0.3503954
 233831430, -0.000326164, 0.01152499, -0.0001166798, 0.001046232, -0.000106138, 0.004150135, -3.201713E-05, 0.0005209541, -0.9999976, -0.001482273, 0.3511209
 234031350, 0.0001259981, 0.01164532, -0.0001735633, 0.001046232, -0.0003495057, 0.003992835, -0.0001701568, 0.0005187925, -0.9999976, -0.001478762, 0.3511209
 234231270, -0.0001169992, 0.01139438, -0.0004436124, 0.00104407, 0.0004307185, 0.004074515, -0.0004472493, 0.0005187925, -0.9999976, -0.001474516, 0.3503954
 234431190, 0.0006300741, 0.01133989, -0.0003267172, 0.00104407, -0.0001611523, 0.004001476, -0.0003310798, 0.0005187925, -0.9999976, -0.00147094, 0.3503954
 234631110, -0.0001700782, 0.01165591, -0.0006421548, 0.00104407, 8.702186E-05, 0.004387547, 0.0001018105, 0.0005187925, -0.9999976, -0.001468218, 0.3503954
 234831030, 4.766778E-05, 0.01213809, -0.0001043427, 0.00104407, 0.0001552749, 0.004381011, -0.0002420673, 0.0005187925, -0.9999976, -0.001464208, 0.3503954
 235030950, 7.203311E-05, 0.0116037, -0.0005316956, 0.00104407, -9.744943E-05, 0.004070499, -0.0005274975, 0.0005187925, -0.9999976, -0.001474892, 0.3503954
 235230870, -9.459126E-05, 0.01131694, -0.0008847155, 0.00104407, 0.0001108685, 0.004153196, -6.91614E-05, 0.0005187925, -0.9999974, -0.001485132, 0.3503954
 235430790, 0.0002065801, 0.01146835, -0.0001557299, 0.00104407, 0.0002931112, 0.004600595, -0.0001166747, 0.0005187925, -0.9999974, -0.00149353, 0.3503954
 235630710, 0.0003560405, 0.01197177, -0.0003255435, 0.00104407, 0.0001544549, 0.004477724, 0.000211071, 0.0005187925, -0.9999974, -0.001502455, 0.3503954
 235831463, -7.348401E-05, 0.01167561, 0.000251719, 0.001046232, -0.0002159599, 0.003765231, -2.367026E-05, 0.0005209541, -0.9999974, -0.001511163, 0.3511209
 236031383, -0.0007499401, 0.01112735, -0.0001924103, 0.001046232, -0.0007409162, 0.004498489, -5.90243E-05, 0.0005187925, -0.9999974, -0.001517522, 0.3511209
 236231303, -0.0008030811, 0.0116834, -9.729424E-05, 0.00104407, -6.972426E-05, 0.004217259, 0.0001166628, 0.0005187925, -0.9999976, -0.001522907, 0.3503954
 236431223, 0.0002585216, 0.01139133, -0.0001773959, 0.00104407, 0.0003466813, 0.004518098, -0.0005028131, 0.0005187925, -0.9999974, -0.001526146, 0.3503954
 236631143, 0.000348825, 0.01139348, -0.0007792741, 0.00104407, -0.0001899967, 0.004155003, -0.000417895, 0.0005187925, -0.9999974, -0.001530846, 0.3503954
 236831063, -0.000286199, 0.0113245, -0.0003005255, 0.00104407, -0.000524696, 0.004156893, 0.0002069539, 0.0005187925, -0.9999974, -0.001534209, 0.3503954
 237030983, -0.0003073364, 0.01162144, 0.0001782991, 0.00104407, 0.0002389165, 0.004503164, -0.0002667349, 0.0005187925, -0.9999974, -0.001537673, 0.3503954
 237230903, 6.051458E-05, 0.01216435, -0.000409568, 0.00104407, 0.000517968, 0.004151069, -0.0002985189, 0.0005187925, -0.9999974, -0.001539999, 0.3503954
 237430823, 2.698607E-05, 0.01159837, -0.000518005, 0.00104407, -0.0002244395, 0.004438047, -0.0001647112, 0.0005187925, -0.9999974, -0.001542134, 0.3503954
 237630743, -0.0002318877, 0.01159017, -6.134207E-05, 0.00104407, -0.0001745446, 0.003664664, -0.000152584, 0.0005187925, -0.9999974, -0.001543146, 0.3503954
 237830663, -0.0002220145, 0.01085869, -9.376232E-05, 0.00104407, 0.000327335, 0.004358292, -0.0001188792, 0.0005187925, -0.9999974, -0.001544212, 0.3503954
 238031416, 0.0004724608, 0.01205812, -0.0004403053, 0.001046232, 4.150227E-05, 0.004449146, -0.0002251277, 0.0005209541, -0.9999974, -0.001546362, 0.3511209
 238231336, -9.005429E-05, 0.0117536, -0.000395555, 0.001046232, -4.993465E-05, 0.004115367, -0.0001959005, 0.0005187925, -0.9999974, -0.001547177, 0.3511209
 238431256, 8.190221E-05, 0.01152733, -0.0002806256, 0.00104407, 0.0001534929, 0.004339443, -0.0001728463, 0.0005187925, -0.9999974, -0.001544849, 0.3503954
 238631176, 0.0001199117, 0.01179361, -6.573906E-05, 0.00104407, -1.20461E-05, 0.004238269, -0.0001071394, 0.0005187925, -0.9999974, -0.001544156, 0.3503954
 238831096, -0.0002511181, 0.01138684, -0.0002453001, 0.00104407, -0.0002009683, 0.004280176, -0.0001330177, 0.0005187925, -0.9999974, -0.001541886, 0.3503954
 239031016, -0.0001732313, 0.01131506, -0.0001683682, 0.00104407, -0.0004808267, 0.003837889, -0.0001901295, 0.0005187925, -0.9999974, -0.001539866, 0.3503954
 239230936, -0.0004821832, 0.01115501, -0.0005012235, 0.00104407, -0.0004933773, 0.004248871, -0.0003608797, 0.0005187925, -0.9999974, -0.001537596, 0.3503954
 239430856, -0.0003228002, 0.01157192, -0.0004996922, 0.00104407, 5.502572E-05, 0.004133682, 0.0002827228, 0.0005187925, -0.9999974, -0.001535033, 0.3503954
 239630776, -5.712539E-05, 0.01165545, 0.0001229747, 0.00104407, -4.450158E-05, 0.004282475, -9.485263E-06, 0.0005187925, -0.9999974, -0.001532434, 0.3503954
 239830696, 0.0002097836, 0.01180433, -1.382035E-05, 0.00104407, 0.0002969364, 0.004187104, 0.0001274016, 0.0005187925, -0.9999974, -0.001530072, 0.3503954
 240031449, 0.0004095955, 0.0116231, 0.0003999309, 0.001046232, -1.720962E-05, 0.004196919, -1.085164E-06, 0.0005209541, -0.9999974, -0.001530178, 0.3511209
 240231369, -0.0004456144, 0.01175685, -0.0001184891, 0.001046232, -0.0002399511, 0.004481934, -0.0001207083, 0.0005187925, -0.9999974, -0.001539658, 0.3511209
 240431289, -0.0002003079, 0.01187269, 0.0001092736, 0.00104407, -6.398361E-05, 0.003978282, -1.774674E-05, 0.0005187925, -0.9999974, -0.00154693, 0.3503954
 240631209, -0.0005241506, 0.01138473, -0.0002514119, 0.00104407, -0.0001428077, 0.004380992, -0.0003784001, 0.0005187925, -0.9999974, -0.001554187, 0.3503954
 240831129, -0.0003179134, 0.01184687, -0.0007145728, 0.00104407, -0.0004115077, 0.004246798, -0.0003279173, 0.0005187925, -0.9999974, -0.001561708, 0.3503954
 241031049, -0.0002269576, 0.01115692, -0.0004452843, 0.00104407, -9.226412E-05, 0.003695385, -9.463575E-05, 0.0005187925, -0.9999974, -0.001567572, 0.3503954
 241230969, -0.0005447514, 0.01115275, -0.0001231201, 0.00104407, -0.0002831178, 0.004351523, 0.0001152352, 0.0005187925, -0.9999974, -0.001572665, 0.3503954
 241430889, -0.000350903, 0.01171054, 0.0001059668, 0.00104407, -0.0001553044, 0.004259769, -0.0003593616, 0.0005187925, -0.9999974, -0.001577513, 0.3503954
 241630809, -0.0002448695, 0.01156226, -0.0005116013, 0.00104407, -0.0002511453, 0.004239781, 3.443889E-05, 0.0005187925, -0.9999974, -0.00158166, 0.3503954
 241830729, -9.32255E-05, 0.01144823, -0.0002979017, 0.00104407, 0.0003343977, 0.003646057, -0.000157907, 0.0005187925, -0.9999974, -0.001584606, 0.3503954
 242031482, 0.0003469766, 0.01132991, -0.0001014704, 0.001046232, -1.675523E-05, 0.004281573, -3.333308E-05, 0.0005209541, -0.9999973, -0.001589048, 0.3511209
 242231402, -3.135632E-05, 0.0115288, -5.752408E-05, 0.001046232, -0.0001888188, 0.004748936, 7.691406E-05, 0.0005187925, -0.9999973, -0.001592599, 0.3511209
 242431322, -0.0002920409, 0.01206053, -0.0003452659, 0.00104407, 7.797171E-06, 0.004461521, -0.0002478407, 0.0005187925, -0.9999973, -0.001594716, 0.3503954
 242631242, 8.220068E-06, 0.01185647, -0.0005041489, 0.00104407, 0.0001921943, 0.003769316, 2.743695E-05, 0.0005187925, -0.9999973, -0.001593096, 0.3503954
 242831162, 1.661436E-05, 0.01093838, -0.000337082, 0.00104407, -0.0002414362, 0.004185941, 4.245966E-05, 0.0005187925, -0.9999973, -0.001593612, 0.3503954
 243031082, -0.0002902762, 0.01176683, -0.000148206, 0.00104407, 0.0003248105, 0.004108419, 0.0004312983, 0.0005187925, -0.9999973, -0.001593164, 0.3503954
 243231002, 5.824718E-05, 0.01146816, 0.0004483146, 0.00104407, -0.0002299879, 0.004369665, -7.45201E-05, 0.0005187925, -0.9999973, -0.00159367, 0.3503954
 243430922, -0.0001182902, 0.01162489, -0.0002605981, 0.00104407, 0.0004881235, 0.004029889, -3.875374E-05, 0.0005187925, -0.9999973, -0.001592962, 0.3503954
 243630842, 0.0006097224, 0.01171212, -2.434591E-05, 0.00104407, -0.00013695, 0.004441847, -0.0001238661, 0.0005187925, -0.9999973, -0.001591791, 0.3503954
 243830762, -0.000309226, 0.01209199, -0.0003055029, 0.00104407, -0.0003451334, 0.004485328, 8.130516E-05, 0.0005187925, -0.9999973, -0.001590041, 0.3503954
 244030682, -0.0005275575, 0.01167534, 0.0001153782, 0.00104407, 8.039415E-05, 0.004525404, -0.000179169, 0.0005187925, -0.9999973, -0.001587218, 0.3503954
 244231435, -0.0004620478, 0.01205589, -0.0004182771, 0.001046232, -0.0001421968, 0.004508746, 0.000139035, 0.0005209541, -0.9999973, -0.001587861, 0.3511209
 244431355, -6.989588E-05, 0.01197261, -0.0001516585, 0.001046232, 0.0001880789, 0.00445866, -0.0001745277, 0.0005187925, -0.9999973, -0.001584698, 0.3511209
 244631275, 9.08224E-05, 0.01197735, -0.0004923841, 0.00104407, 0.0002914127, 0.004350801, 7.465713E-05, 0.0005187925, -0.9999973, -0.001578388, 0.3503954
 244831195, 0.0002138024, 0.01167465, -0.0002224139, 0.00104407, -0.0002585467, 0.004244328, 8.832256E-06, 0.0005187925, -0.9999973, -0.001573919, 0.3503954
 245031115, -0.0003596538, 0.01174275, -0.0001996696, 0.00104407, 0.0002548195, 0.004473207, -8.771844E-05, 0.0005187925, -0.9999973, -0.001567311, 0.3503954
 245231035, 0.0005346285, 0.01206549, -0.0001359347, 0.00104407, -0.0003298039, 0.004428736, -3.156829E-05, 0.0005187925, -0.9999973, -0.001562462, 0.3503954
 245430955, -0.0004435678, 0.01183417, -0.0001499637, 0.00104407, -0.0003016683, 0.004431393, -0.0005591325, 0.0005187925, -0.9999973, -0.00157194, 0.3503954
 245630875, -0.0007323812, 0.01187032, -0.0006278091, 0.00104407, -0.000249216, 0.004148413, 0.0002469803, 0.0005187925, -0.9999974, -0.001579653, 0.3503954
 245830795, -0.0003661928, 0.01096945, 0.0001352114, 0.00104407, 0.0001938542, 0.003995771, -0.0004904179, 0.0005187925, -0.9999974, -0.001586629, 0.3503954
 246030715, 0.0006566756, 0.01115128, -0.0006318198, 0.00104407, 0.0004616512, 0.003921444, -0.0003664828, 0.0005187925, -0.9999974, -0.001591426, 0.3503954
 246231468, 0.0005619386, 0.0111533, -0.0005503423, 0.001046232, -0.0004978096, 0.004041807, -0.0002392718, 0.0005209541, -0.9999974, -0.001597103, 0.3511209
 246431388, -0.0005675065, 0.01163408, -0.0009895668, 0.001046232, -1.83331E-05, 0.004037883, -0.0001151066, 0.0005187925, -0.9999973, -0.001602366, 0.3511209
 246631308, 0.0001140238, 0.01154446, -0.0002801656, 0.00104407, 7.147351E-05, 0.004674606, -0.0001705441, 0.0005187925, -0.9999974, -0.001605798, 0.3503954
 246831228, 8.614163E-05, 0.01153812, -0.0003129994, 0.00104407, -0.0001872187, 0.003819996, -0.0006594295, 0.0005187925, -0.9999974, -0.001606505, 0.3503954
 247031148, -0.000251978, 0.01133424, -0.0006061858, 0.00104407, -4.803527E-05, 0.004392533, 0.0004409503, 0.0005187925, -0.9999974, -0.001608063, 0.3503954
 247231068, -0.0002885091, 0.01186627, 0.0005042466, 0.00104407, 3.313401E-05, 0.004312424, 4.059836E-05, 0.0005187925, -0.9999974, -0.001609212, 0.3503954
 247430988, -0.000122931, 0.01168521, 0.0002181992, 0.00104407, -3.590676E-05, 0.004267198, 0.0002873808, 0.0005187925, -0.9999974, -0.001608806, 0.3503954
 247630908, -0.0001641655, 0.01163281, 0.0002511402, 0.00104407, -5.868096E-06, 0.004327614, 0.0001502533, 0.0005187925, -0.9999974, -0.001608752, 0.3503954
 247830828, 0.0003727161, 0.01186452, -0.1153545, 0.00104407, 0.0005817465, 0.004785306, -0.2036546, 0.0005187925, -0.9999974, -0.001607353, 0.3503954
 248030748, 0.0008467341, 0.01244243, -0.4080338, 0.00104407, -0.0002512925, 0.004143349, -0.005962176, 0.0005187925, -0.9999974, -0.00160519, 0.3503954
 248230668, -0.0007070274, 0.01119698, 0.09696463, 0.00104407, -0.0002296264, 0.004306832, 0.06187106, 0.0005187925, -0.9999974, -0.001603506, 0.3503954
 248431421, -0.0007992453, 0.0110326, -0.5028669, 0.001046232, -0.001060462, 0.003193259, -0.793888, 0.0005209541, -0.9999986, -0.001621918, 0.3511209
 248631341, -0.01024387, 0.0007849336, -1.94554, 0.001046232, -0.00778954, -0.004005556, -0.4308401, 0.0005187925, -0.9999847, -0.001669355, 0.3511209
 248831261, -0.02495204, -0.01382854, -0.6681153, 0.00104407, -0.01067473, -0.006129845, -0.05619387, 0.0005187925, -0.9999739, -0.001719101, 0.3503954
 249031181, -0.0281202, -0.01609829, -0.2165986, 0.00104407, -0.009644295, -0.005380502, -0.1234039, 0.0005187925, -0.9999721, -0.001796953, 0.3503954
 249231101, -0.02496737, -0.01278363, -0.374048, 0.00104407, -0.008143218, -0.003846488, -0.1427993, 0.0005187925, -0.9999732, -0.001888955, 0.3503954
 249431021, -0.02097637, -0.00873711, -0.3563344, 0.00104407, -0.006940632, -0.002397002, -0.111694, 0.0005187925, -0.9999749, -0.001984457, 0.3503954
 249630941, -0.01744957, -0.004955585, -0.2851484, 0.00104407, -0.005641257, -0.001242984, -0.09499472, 0.0005187925, -0.9999768, -0.002073037, 0.3503954
 249830861, -0.01409851, -0.001955538, -0.2497943, 0.00104407, -0.004271114, -0.0001040418, -0.08562761, 0.0005187925, -0.9999793, -0.002147228, 0.3503954
 250030781, -0.01113101, 0.001306281, -0.222894, 0.00104407, -0.003659745, 0.001220262, -0.07477585, 0.0005187925, -0.9999819, -0.002209333, 0.3503954
 250230701, -0.009047621, 0.00440537, -0.1942059, 0.00104407, -0.003040416, 0.002057672, -0.0652462, 0.0005187925, -0.9999836, -0.002121998, 0.3503954
 250431454, -0.007233458, 0.006027316, -0.1709555, 0.001046232, -0.002067377, 0.002344233, -0.05770724, 0.0005209541, -0.9999844, -0.00196121, 0.3511209
 250631374, -0.00495932, 0.007213574, -0.1502529, 0.001046232, -0.001674902, 0.002714285, -0.05083767, 0.0005187925, -0.9999853, -0.001826114, 0.3511209
 250831294, -0.004708242, 0.008157179, -0.1316175, 0.00104407, -0.002006084, 0.003258842, -0.04382007, 0.0005187925, -0.999986, -0.001755074, 0.3503954
 251031214, -0.005458039, 0.009174023, -0.1134469, 0.00104407, -0.001906817, 0.003489353, -0.03786883, 0.0005187925, -0.999986, -0.002045619, 0.3503954
 251231134, -0.005476167, 0.009498428, -0.1002263, 0.00104407, -0.002101079, 0.003329136, -0.03459287, 0.0005187925, -0.999984, -0.002650173, 0.3503954
 251431054, -0.005754095, 0.009132538, -0.08971194, 0.00104407, -0.00193003, 0.003238247, -0.03053785, 0.0005187925, -0.9999807, -0.003215847, 0.3503954
 251630974, -0.005583617, 0.008298983, -0.07897006, 0.00104407, -0.002220942, 0.002944405, -0.02677096, 0.0005187925, -0.999977, -0.003754991, 0.3503954
 251830894, -0.005156087, 0.007919887, -0.06930738, 0.00104407, -0.001486146, 0.002664706, -0.02333705, 0.0005187925, -0.9999733, -0.004275171, 0.3503954
 252030814, -0.004272844, 0.007049531, -0.06059799, 0.00104407, -0.001620082, 0.002429884, -0.02031507, 0.0005187925, -0.9999694, -0.00476686, 0.3503954
 252230734, -0.00380042, 0.006503388, -0.05302912, 0.00104407, -0.001216763, 0.002444736, -0.01783121, 0.0005187925, -0.9999654, -0.005230879, 0.3503954
 252430654, -0.003318775, 0.006426445, -0.04659866, 0.00104407, -0.001002767, 0.002213957, -0.01597339, 0.0005187925, -0.9999614, -0.005670562, 0.3503954
 252631407, -0.0025339, 0.005928521, -0.04148232, 0.001046232, -0.0005899784, 0.002053384, -0.01413532, 0.0005209541, -0.9999573, -0.006088417, 0.3511209
 252831327, -0.001718578, 0.005692497, -0.03651304, 0.001046232, -0.0009367578, 0.002194675, -0.01222733, 0.0005187925, -0.9999546, -0.006473516, 0.3511209
 253031247, -0.001756346, 0.006668506, -0.03142229, 0.00104407, -0.0003996603, 0.002638022, -0.01054799, 0.0005187925, -0.9999534, -0.006827846, 0.3503954
 253231167, -0.0005489582, 0.007906139, -0.02771084, 0.00104407, 0.0001775051, 0.003331057, -0.009300408, 0.0005187925, -0.9999527, -0.007164306, 0.3503954
 253431087, 0.0005240931, 0.00929798, -0.02451372, 0.00104407, 0.0006406713, 0.003747053, -0.00834689, 0.0005187925, -0.9999518, -0.007480526, 0.3503954
 253631007, 0.001423922, 0.01051504, -0.02143526, 0.00104407, 0.0006956687, 0.004057283, -0.007161002, 0.0005187925, -0.9999509, -0.0077817, 0.3503954
 253830927, 0.002170364, 0.01158243, -0.01883338, 0.00104407, 0.0006787016, 0.004762168, -0.006501922, 0.0005187925, -0.9999499, -0.008070291, 0.3503954
 254030847, 0.002594028, 0.01275859, -0.01584087, 0.00104407, 0.001050606, 0.004273907, -0.005151052, 0.0005187925, -0.9999477, -0.008481543, 0.3503954
 254230767, 0.003138252, 0.01255615, -0.01390947, 0.00104407, 0.00146682, 0.00507442, -0.004978985, 0.0005187925, -0.9999443, -0.009032402, 0.3503954
 254430687, 0.003705679, 0.01389211, -0.01288398, 0.00104407, 0.001214697, 0.004942175, -0.004008266, 0.0005187925, -0.9999412, -0.009553966, 0.3503954
 254631440, 0.003840483, 0.0144357, -0.01120511, 0.001046232, 0.00159865, 0.005786231, -0.003962262, 0.0005209541, -0.9999379, -0.01004923, 0.3511209
 254831360, 0.004113542, 0.01573793, -0.01016557, 0.001046232, 0.001335221, 0.00615186, -0.003306112, 0.0005187925, -0.9999343, -0.01051942, 0.3511209
 255031280, 0.003849465, 0.01625952, -0.009084418, 0.00104407, 0.001335207, 0.005754974, -0.003133896, 0.0005187925, -0.9999306, -0.01097264, 0.3503954
 255231200, 0.003413188, 0.01605935, 0.01360393, 0.00104407, 0.0009115888, 0.006253719, 0.04582449, 0.0005187925, -0.9999269, -0.01141606, 0.3503954
 255431120, 0.003037179, 0.01737717, 0.1606046, 0.00104407, 0.0009264315, 0.006293826, 0.05128944, 0.0005187925, -0.9999215, -0.0119233, 0.3503954
 255631040, 0.00493392, 0.01917581, 0.7051979, 0.00104407, 0.002238159, 0.007541311, 0.3587154, 0.0005187925, -0.999916, -0.01240238, 0.3503954
 255830960, 0.005534895, 0.01987115, 0.9313755, 0.00104407, 0.001690122, 0.007236897, 0.3131675, 0.0005187925, -0.9999095, -0.01287851, 0.3503954
 256030880, 0.004628977, 0.01878561, 0.8161348, 0.00104407, 0.001710703, 0.006408428, 0.2759658, 0.0005187925, -0.999903, -0.01333188, 0.3503954
 256230800, 0.004042802, 0.01667988, 0.6804624, 0.00104407, 0.001371829, 0.005449802, 0.1849077, 0.0005187925, -0.999893, -0.0137627, 0.3503954
 256430720, 0.02045821, 0.003581954, 0.4480282, 0.00104407, 0.018689, -0.005980377, 0.1362547, 0.0005187925, -0.9997597, -0.01412644, 0.3503954
 256631473, 0.07672781, -0.02356801, 0.3457318, 0.001046232, 0.03997431, -0.009111345, 0.1136348, 0.0005209541, -0.9997602, -0.01433798, 0.3511209
 256831393, 0.1079544, 0.004100324, 0.2971097, 0.001046232, 0.0357952, 0.01903047, 0.1024309, 0.0005187925, -0.9998404, -0.01422819, 0.3511209
 257031313, 0.07572994, 0.08247278, 0.2806783, 0.00104407, 0.01540491, 0.04312072, 0.1021695, 0.0005187925, -0.9993709, -0.01517436, 0.3503954
 257231233, 0.03747552, 0.1202197, 0.2858118, 0.00104407, 0.01423038, 0.04324162, 0.1064913, 0.0005187925, -0.9992586, -0.01647503, 0.3503954
 257431153, 0.06232514, 0.1029567, 0.2941415, 0.00104407, 0.03600512, 0.02898546, 0.10545, 0.0005187925, -0.9994931, -0.01753546, 0.3503954
 257631073, 0.1201631, 0.08006404, 0.2759729, 0.00104407, 0.05282515, 0.03252897, 0.09373429, 0.0005187925, -0.9992279, -0.01749497, 0.3503954
 257830993, 0.1321879, 0.08173869, 0.2390835, 0.00104407, 0.0380053, 0.0215111, 0.0773637, 0.0005187925, -0.9995575, -0.01853363, 0.3503954
 258030913, 0.06201032, 0.02570066, 0.1947509, 0.00104407, -0.0004095601, -0.007661617, 0.06126968, 0.0005187925, -0.9998192, -0.01877637, 0.3503954
 258230833, -0.04477881, -0.03963717, 0.1540758, 0.00104407, -0.03740931, -0.02182104, 0.04818605, 0.0005187925, -0.9997098, -0.0178313, 0.3503954
 258430753, -0.1225497, -0.05438888, 0.1185463, 0.00104407, -0.0522787, -0.01494042, 0.03604715, 0.0005187925, -0.9997888, -0.01746144, 0.3503954
 258630673, -0.1331764, -0.02384929, 0.08662044, 0.00104407, -0.04112017, 9.923024E-05, 0.02501259, 0.0005187925, -0.9998392, -0.01790562, 0.3503954
 258831426, -0.08449501, 0.007827494, 0.06072691, 0.001046232, -0.01551491, 0.005681562, 0.01755339, 0.0005209541, -0.9998196, -0.01851207, 0.3511209
 259031346, -0.031593, 0.009629842, 0.04253206, 0.001046232, -0.009393301, 0.00033435, 0.01238824, 0.0005187925, -0.9998137, -0.01928403, 0.3511209
 259231266, -0.05348661, -0.002388929, 0.02971742, 0.00104407, -0.0365195, -0.001814641, 0.008588286, 0.0005187925, -0.9997932, -0.02013679, 0.3503954
 259431186, -0.1102637, -0.005512875, 0.02078875, 0.00104407, -0.03995761, -0.002782311, 0.006042351, 0.0005187925, -0.9997672, -0.02079823, 0.3503954
 259631106, -0.07983715, -0.02347147, 0.01439847, 0.00104407, -0.01332721, -0.01830287, 0.00403768, 0.0005187925, -0.999541, -0.02078445, 0.3503954
 259831026, -0.01999087, -0.06500024, 0.01022933, 0.00104407, -0.001721083, -0.02907131, 0.002797171, 0.0005187925, -0.9992699, -0.02087758, 0.3503954
 260030946, -0.007958615, -0.06485633, 0.006508156, 0.00104407, -0.004824123, -0.01311692, 0.001463579, 0.0005187925, -0.9996094, -0.02142918, 0.3503954
 260230866, -0.01291631, -0.008962948, 0.003976401, 0.00104407, -0.003764004, 0.009913845, 0.001152827, 0.0005187925, -0.9997563, -0.02207574, 0.3503954
 260430786, -0.002719065, 0.03295505, 0.003147454, 0.00104407, 0.00301488, 0.01299604, 0.0002566872, 0.0005187925, -0.9997485, -0.02232898, 0.3503954
 260630706, -0.001140705, 0.03954487, 0.001550026, 0.00104407, -0.008337083, 0.01867467, 0.000623997, 0.0005187925, -0.9996949, -0.02276818, 0.3503954
 260831459, -0.03705117, 0.06341419, 0.001738552, 0.001046232, -0.0182009, 0.02878997, 0.0001352206, 0.0005209541, -0.9995356, -0.02359482, 0.3511209
 261031379, -0.03464359, 0.06976895, 0.0002368822, 0.001046232, -0.002260877, 0.01824606, -0.0006591972, 0.0005187925, -0.9996637, -0.02401209, 0.3511209
 261231299, 0.02153604, 0.02250442, -0.0004887389, 0.00104407, 0.02124079, -0.006122154, -0.0001250673, 0.0005187925, -0.9996486, -0.0243075, 0.3503954
 261431219, 0.0573901, -0.02602606, -0.0003831165, 0.00104407, 0.01660047, -0.01089939, -0.0003739124, 0.0005187925, -0.9995981, -0.02460987, 0.3503954
 261631139, 0.02241083, -0.0326635, -0.0006662348, 0.00104407, -0.003363969, -0.01508555, -0.0007675914, 0.0005187925, -0.999452, -0.02489361, 0.3503954
 261831059, -0.01930042, -0.0589271, -0.0005877168, 0.00104407, -0.0109542, -0.03058437, 6.619666E-05, 0.0005187925, -0.9989563, -0.02482384, 0.3503954
 262030979, -0.04296653, -0.08062461, -0.0003682701, 0.00104407, -0.02451769, -0.02374213, -0.0005196555, 0.0005187925, -0.9991534, -0.02533548, 0.3503954
 262230899, -0.09199408, -0.03661021, -0.000740835, 0.00104407, -0.04603412, 0.001703566, 0.0001231297, 0.0005187925, -0.9995649, -0.02676253, 0.3503954
 262430819, -0.1137227, 0.02485063, -0.00120437, 0.00104407, -0.02857199, 0.01834024, -0.001468767, 0.0005187925, -0.9996177, -0.02760083, 0.3503954
 262630739, -0.02285906, 0.05597935, -0.003418032, 0.00104407, 0.02095811, 0.02250559, -0.001364967, 0.0005187925, -0.9995931, -0.02753363, 0.3503954
 262830659, 0.09247829, 0.05623042, -0.00311661, 0.00104407, 0.04768683, 0.0166103, -0.001515596, 0.0005187925, -0.9996179, -0.02746494, 0.3503954
 263031412, 0.1304708, 0.03029493, -0.002932574, 0.001046232, 0.04555911, 0.003030431, -0.001191597, 0.0005209541, -0.9995869, -0.02773047, 0.3511209
 263231332, 0.110085, 0.01419439, -0.002468959, 0.001046232, 0.03136236, 0.01169771, -0.0004987259, 0.0005187925, -0.9996099, -0.0278116, 0.3511209
 263431252, 0.05777427, 0.03160933, -0.001743915, 0.00104407, 0.005037377, 0.007041572, -0.0004360671, 0.0005187925, -0.9995704, -0.02853211, 0.3503954
 263631172, -0.009057908, -0.01925662, -0.001095034, 0.00104407, -0.01353128, -0.02877007, -0.000564135, 0.0005187925, -0.9987056, -0.02853637, 0.3503954
 263831092, -0.04309998, -0.116377, -6.949558E-07, 0.00104407, -0.01759812, -0.05960545, 0.0003159069, 0.0005187925, -0.9969334, -0.02815804, 0.3503954
 264031012, -0.04255304, -0.1741637, 0.0007142593, 0.00104407, -0.01199583, -0.06615441, 6.588205E-05, 0.0005187925, -0.9960744, -0.02844824, 0.3503954
 264230932, -0.02798424, -0.1729936, -0.0007215665, 0.00104407, -0.008287027, -0.05799161, -0.000561922, 0.0005187925, -0.9960568, -0.02921808, 0.3503954
 264430852, -0.02155804, -0.1517034, -0.001720374, 0.00104407, -0.008065914, -0.05200646, -0.001254063, 0.0005187925, -0.995724, -0.03004873, 0.3503954
 264630772, -0.02354518, -0.1466111, -0.001579281, 0.00104407, -0.009618128, -0.05594977, -7.142308E-05, 0.0005187925, -0.9946061, -0.03066446, 0.3503954
 264830692, -0.02944121, -0.1623183, 0.00040047, 0.00104407, -0.01246093, -0.06373765, 0.0003179959, 0.0005187925, -0.9929547, -0.03113177, 0.3503954
 265031445, -0.03568548, -0.1822619, 0.0009717611, 0.001046232, -0.01304308, -0.0698157, 0.000215093, 0.0005209541, -0.9912021, -0.03152207, 0.3511209
 265231365, -0.03600798, -0.1942884, 0.0002838493, 0.001046232, -0.01297338, -0.07203432, -0.0003557809, 0.0005187925, -0.9895359, -0.03201309, 0.3511209
 265431285, -0.03568219, -0.1996106, -0.0007342739, 0.00104407, -0.01301892, -0.07352839, -0.0003063537, 0.0005187925, -0.9878033, -0.03268532, 0.3503954
 265631205, -0.03581218, -0.2022468, -0.001156718, 0.00104407, -0.01355727, -0.07384857, -0.000187521, 0.0005187925, -0.9859526, -0.03354045, 0.3503954
 265831125, -0.03726972, -0.203954, -0.001557324, 0.00104407, -0.0139862, -0.07472122, -0.001355932, 0.0005187925, -0.9838302, -0.03445181, 0.3503954
 266031045, -0.0376249, -0.2075582, -0.00235083, 0.00104407, -0.01349147, -0.07680625, -0.0007478714, 0.0005187925, -0.9812801, -0.0354398, 0.3503954
 266230965, -0.03756492, -0.2139588, -0.001707185, 0.00104407, -0.01381403, -0.07923941, -0.0007190235, 0.0005187925, -0.9784082, -0.03651505, 0.3503954
 266430885, -0.03851309, -0.2202323, -0.00160306, 0.00104407, -0.01402128, -0.08185785, -0.000566219, 0.0005187925, -0.9752415, -0.03759783, 0.3503954
 266630805, -0.03935117, -0.2265643, -0.001337632, 0.00104407, -0.01464451, -0.08366068, -0.0005384043, 0.0005187925, -0.9718781, -0.03869569, 0.3503954
 266830725, -0.0401349, -0.230786, -0.001525479, 0.00104407, -0.01463339, -0.08454383, -0.0007321135, 0.0005187925, -0.9683269, -0.0398187, 0.3503954
 267031478, -0.04002769, -0.2338852, -0.002556628, 0.001046232, -0.01438901, -0.08632834, -0.0009700193, 0.0005209541, -0.9644406, -0.04099511, 0.3511209
 267231398, -0.03970821, -0.2375566, -0.002643618, 0.001046232, -0.01479888, -0.08716594, -0.001180744, 0.0005187925, -0.9601315, -0.04216731, 0.3511209
 267431318, -0.04071141, -0.2420679, -0.003430846, 0.00104407, -0.01490525, -0.08951446, -0.001307847, 0.0005187925, -0.9554273, -0.04334043, 0.3503954
 267631238, -0.04093637, -0.2475747, -0.004033265, 0.00104407, -0.0151576, -0.09113904, -0.002253837, 0.0005187925, -0.9504379, -0.04459949, 0.3503954
 267831158, -0.04090974, -0.2515314, -0.0056342, 0.00104407, -0.01462676, -0.09270294, -0.002473863, 0.0005187925, -0.94512, -0.04586801, 0.3503954
 268031078, -0.04009828, -0.256307, -0.006733371, 0.00104407, -0.01443255, -0.09450866, -0.003114453, 0.0005187925, -0.9393988, -0.04713565, 0.3503954
 268230998, -0.03965501, -0.2609468, -0.008074616, 0.00104407, -0.01422919, -0.09593758, -0.003458897, 0.0005187925, -0.9333594, -0.04849196, 0.3503954
 268430918, -0.03918627, -0.2658509, -0.009578179, 0.00104407, -0.0144253, -0.09804305, -0.004228148, 0.0005187925, -0.9269858, -0.04985463, 0.3503954
 268630838, -0.03871626, -0.2706115, -0.011175, 0.00104407, -0.01360768, -0.09952882, -0.004820953, 0.0005187925, -0.9202679, -0.05122384, 0.3503954
 268830758, -0.03801629, -0.2749054, -0.01260352, 0.00104407, -0.0140542, -0.1013595, -0.005498409, 0.0005187925, -0.9132467, -0.05264079, 0.3503954
 269030678, -0.0381457, -0.2791983, -0.01501063, 0.00104407, -0.01391754, -0.1025211, -0.0064248, 0.0005187925, -0.9059979, -0.05410833, 0.3503954
 269231431, -0.03794571, -0.2836042, -0.01700779, 0.001046232, -0.01378629, -0.1048013, -0.007136606, 0.0005209541, -0.8983534, -0.05562433, 0.3511209
 269431351, -0.03728746, -0.2875922, -0.01889263, 0.001046232, -0.01369294, -0.106161, -0.0078458, 0.0005187925, -0.890407, -0.05722231, 0.3511209
 269631271, -0.03730712, -0.292402, -0.0206604, 0.00104407, -0.01365439, -0.1082511, -0.008717241, 0.0005187925, -0.8819429, -0.05891427, 0.3503954
 269831191, -0.0370792, -0.2983896, -0.02295702, 0.00104407, -0.01336588, -0.1101028, -0.009252127, 0.0005187925, -0.8733299, -0.06073633, 0.3503954
 270031111, -0.03677304, -0.3032462, -0.02508856, 0.00104407, -0.01344271, -0.1119677, -0.01037785, 0.0005187925, -0.8645918, -0.06265615, 0.3503954
 270231031, -0.03654538, -0.3079113, -0.02774525, 0.00104407, -0.01334857, -0.1134063, -0.01168101, 0.0005187925, -0.8556235, -0.06462652, 0.3503954
 270430951, -0.03577388, -0.3121462, -0.03075071, 0.00104407, -0.01280534, -0.115665, -0.01227928, 0.0005187925, -0.8464292, -0.06662367, 0.3503954
 270630871, -0.0345558, -0.3178517, -0.03311168, 0.00104407, -0.01263655, -0.1173672, -0.01331865, 0.0005187925, -0.836922, -0.06863303, 0.3503954
 270830791, -0.03409227, -0.3235678, -0.03561099, 0.00104407, -0.01256177, -0.1199425, -0.01431641, 0.0005187925, -0.8273095, -0.07070711, 0.3503954
 271030711, -0.03412228, -0.3294014, -0.03886538, 0.00104407, -0.01259832, -0.1214916, -0.01584576, 0.0005187925, -0.817796, -0.07286283, 0.3503954
 271231464, -0.03398529, -0.3340731, -0.0425095, 0.001046232, -0.01232039, -0.1230047, -0.01682257, 0.0005209541, -0.8081933, -0.07505437, 0.3511209
 271431384, -0.03317402, -0.3372774, -0.04511252, 0.001046232, -0.01190152, -0.1243182, -0.01823422, 0.0005187925, -0.7985494, -0.07735423, 0.3511209
 271631304, -0.03191972, -0.3421705, -0.04854656, 0.00104407, -0.01153068, -0.1267729, -0.0191359, 0.0005187925, -0.7887771, -0.0796159, 0.3503954
 271831224, -0.03074886, -0.3481936, -0.05174888, 0.00104407, -0.01125846, -0.1287206, -0.0207481, 0.0005187925, -0.7789795, -0.08179726, 0.3503954
 272031144, -0.02978305, -0.3534752, -0.05547297, 0.00104407, -0.01077331, -0.130634, -0.02183041, 0.0005187925, -0.7693121, -0.08392857, 0.3503954
 272231064, -0.02875659, -0.3585008, -0.05910591, 0.00104407, -0.01036922, -0.1326203, -0.02351802, 0.0005187925, -0.7596583, -0.08600491, 0.3503954
 272430984, -0.02787709, -0.3639594, -0.06321767, 0.00104407, -0.01010307, -0.1348719, -0.02475653, 0.0005187925, -0.7500798, -0.08801986, 0.3503954
 272630904, -0.0266671, -0.3703244, -0.06727762, 0.00104407, -0.01004957, -0.137219, -0.02672568, 0.0005187925, -0.740537, -0.09001001, 0.3503954
 272830824, -0.02596055, -0.3764179, -0.07174662, 0.00104407, -0.009344649, -0.1394513, -0.02869307, 0.0005187925, -0.7312397, -0.09197309, 0.3503954
 273030744, -0.02437466, -0.3819658, -0.0761722, 0.00104407, -0.008581861, -0.1418711, -0.03007408, 0.0005187925, -0.7221241, -0.09387131, 0.3503954
 273230664, -0.02307736, -0.3868248, -0.08083995, 0.00104407, -0.008152733, -0.1421824, -0.0317985, 0.0005187925, -0.7143589, -0.09590917, 0.3503954
 273431417, -0.0139371, -0.3605119, -0.09574857, 0.001046232, 0.0006006269, -0.1132016, -0.04302961, 0.0005209541, -0.7194766, -0.1004243, 0.3511209
