TimeUS,CAN,CAE,CAD,CAe,NAN,NAE,NAD,NAe,m10,m00,Gye
 196366422, 8.089011E-06, 4.501197E-05, -1.767167E-06, 6.484905E-06, 0, 0, 0, 0, -0.9999978, -0.001440745, 2.137684
 196431396, 0.6143556, 3.686417, -0.1681756, 0.5097396, -0.08438723, 3.598549, -0.1833066, 0.5097331, -0.9999978, -0.001438949, 25.6607
 196631316, -0.08457681, 3.605785, -0.183486, 0.5102592, -0.0003985204, 0.00396286, 1.019308E-05, 0.0005187925, -0.9999978, -0.00143287, 171.2454
 196831236, -0.0004320201, 0.0108451, -0.0001464568, 0.00104407, 0.0001926699, 0.004111248, -7.047338E-05, 0.0005187925, -0.9999978, -0.001425967, 0.3503954
 197031156, -0.000278554, 0.01119, -2.9502E-05, 0.00104407, -0.0005185757, 0.003932682, -0.0002443969, 0.0005187925, -0.9999978, -0.001420143, 0.3503954
 197231076, -0.0002399456, 0.01145826, -0.000442565, 0.00104407, 0.0001169918, 0.004261282, -0.0001650328, 0.0005187925, -0.9999978, -0.001414099, 0.3503954
 197430996, 0.0001399368, 0.01157361, -0.0004723649, 0.00104407, -7.65541E-06, 0.003887438, -0.0004948019, 0.0005187925, -0.9999978, -0.001408981, 0.3503954
 197630916, -5.653658E-05, 0.01100822, -0.0008863658, 0.00104407, 5.182303E-05, 0.003996192, -0.0001988045, 0.0005187925, -0.9999978, -0.001403784, 0.3503954
 197830836, 0.0004337171, 0.01157204, -0.0004673124, 0.00104407, 0.0001662739, 0.004325486, -0.000332816, 0.0005187925, -0.9999978, -0.001396895, 0.3503954
 198030756, 0.000415937, 0.0117571, -0.0008612344, 0.00104407, -1.64495E-05, 0.00438169, -0.0003580747, 0.0005187925, -0.9999978, -0.001390379, 0.3503954
 198230676, 0.0001044006, 0.011921, -0.0003467568, 0.00104407, 0.0003570089, 0.00404068, -0.000324172, 0.0005187925, -0.9999978, -0.001383547, 0.3503954
 198431429, 0.0002759337, 0.01138388, -0.0004958615, 0.001046232, 0.0001036695, 0.004129566, -0.0001319997, 0.0005209541, -0.9999978, -0.001379105, 0.3511209
 198631349, -2.038116E-05, 0.011453, -0.0002033358, 0.001046232, -0.0002273354, 0.004209307, -0.0001431631, 0.0005187925, -0.9999978, -0.001384923, 0.3511209
 198831269, 2.935638E-05, 0.01142913, -0.000109444, 0.00104407, 0.0001898687, 0.004126996, -0.0005061331, 0.0005187925, -0.9999978, -0.001389582, 0.3503954
 199031189, 0.0002994573, 0.01192224, -0.0006663114, 0.00104407, 0.0002375332, 0.004750827, -0.0002947224, 0.0005187925, -0.9999978, -0.001395147, 0.3503954
 199231109, 0.0001286023, 0.01191661, -0.0004173886, 0.00104407, -0.0001382166, 0.00426432, -2.543743E-05, 0.0005187925, -0.9999978, -0.001398999, 0.3503954
 199431029, -0.0001945962, 0.01145351, -3.697942E-05, 0.00104407, 7.19458E-05, 0.004134488, 3.122154E-05, 0.0005187925, -0.9999978, -0.00140176, 0.3503954
 199630949, 3.084545E-05, 0.01125228, 0.0001405225, 0.00104407, 0.000154943, 0.003790789, 5.165298E-05, 0.0005187925, -0.9999978, -0.001403779, 0.3503954
 199830869, -7.095055E-05, 0.01144339, 1.992623E-05, 0.00104407, -0.0003765273, 0.004604371, -0.0001588555, 0.0005187925, -0.9999978, -0.00140527, 0.3503954
 200030789, -0.0003028266, 0.01184679, -0.0003153337, 0.00104407, 0.0005361036, 0.003850137, -0.0002674749, 0.0005187925, -0.9999978, -0.001405813, 0.3503954
 200230709, 0.0007604198, 0.01102526, -4.83128E-05, 0.00104407, 0.0003073213, 0.004246381, 4.413507E-05, 0.0005187925, -0.9999978, -0.00140578, 0.3503954
 200431462, 0.0003249831, 0.01140721, -0.0004653865, 0.001046232, 0.0001498867, 0.00389715, -0.0004042347, 0.0005209541, -0.9999978, -0.001407013, 0.3511209
 200631382, -2.935042E-05, 0.01145269, -0.0006637877, 0.001046232, -0.0001100293, 0.004231612, -0.0002712094, 0.0005187925, -0.9999978, -0.00140613, 0.3511209
 200831302, 2.36032E-05, 0.01129879, -0.0002842493, 0.00104407, -2.736343E-05, 0.004238949, -3.724991E-05, 0.0005187925, -0.9999978, -0.001403764, 0.3503954
 201031222, 4.808281E-05, 0.01151449, 4.610961E-05, 0.00104407, 0.0003805254, 0.003987778, -0.0002466669, 0.0005187925, -0.9999979, -0.001398232, 0.3503954
 201231142, 0.0002803526, 0.01096545, -0.000371889, 0.00104407, -0.0001013645, 0.003901275, 0.000144462, 0.0005187925, -0.9999979, -0.00139331, 0.3503954
 201431062, -0.0004240696, 0.01112796, 0.0001584873, 0.00104407, -0.0002310346, 0.003976055, 7.247408E-06, 0.0005187925, -0.9999979, -0.001388299, 0.3503954
 201630982, -4.656534E-05, 0.01094207, 4.528974E-05, 0.00104407, 0.0001036051, 0.003769714, 0.0003808036, 0.0005187925, -0.9999979, -0.001382786, 0.3503954
 201830902, -0.0001375009, 0.01095999, 0.0002072138, 0.00104407, -0.0007015475, 0.004353222, 2.617981E-06, 0.0005187925, -0.9999979, -0.001376563, 0.3503954
 202030822, -0.0005991769, 0.01172328, -0.0002142144, 0.00104407, 0.0002167457, 0.003956789, -0.0001744585, 0.0005187925, -0.9999979, -0.001370503, 0.3503954
 202230742, 0.0003086879, 0.01131761, -0.0003527303, 0.00104407, 0.0002781246, 0.004249518, 0.0002772342, 0.0005187925, -0.9999979, -0.001363581, 0.3503954
 202430662, 0.000521995, 0.01145976, -3.189362E-05, 0.00104407, 0.0002105067, 0.004098, -0.0003635453, 0.0005187925, -0.9999979, -0.001357379, 0.3503954
 202631415, 0.0004207515, 0.01131827, -0.000558189, 0.001046232, 0.0003053053, 0.00383288, -0.0002012548, 0.0005209541, -0.9999979, -0.001352824, 0.3511209
 202831335, 0.0004960381, 0.01108884, -0.0003938473, 0.001046232, -0.0001080027, 0.003812752, 3.683881E-05, 0.0005187925, -0.9999979, -0.001346439, 0.3511209
 203031255, -9.472162E-05, 0.01128384, -2.543387E-05, 0.00104407, 0.0004502182, 0.004693334, 0.0002105145, 0.0005187925, -0.9999978, -0.001338956, 0.3503954
 203231175, 0.0003417897, 0.0119918, -0.0001516868, 0.00104407, 5.187481E-05, 0.004318426, -0.0005477311, 0.0005187925, -0.9999978, -0.001331763, 0.3503954
 203431095, 0.0001566458, 0.01140933, -0.0005763299, 0.00104407, 0.0002687155, 0.004123595, 0.0001703272, 0.0005187925, -0.9999978, -0.001322836, 0.3503954
 203631015, 0.000430558, 0.01162034, 0.000321908, 0.00104407, 0.0004305942, 0.004210284, 2.627871E-05, 0.0005187925, -0.9999978, -0.001315597, 0.3503954
 203830935, 0.000461885, 0.01177461, -1.475099E-05, 0.00104407, -0.0002121116, 0.004331033, -5.101547E-05, 0.0005187925, -0.9999978, -0.001322496, 0.3503954
 204030855, 9.410205E-05, 0.01174416, -0.0003015217, 0.00104407, 0.0001586349, 0.0042886, -0.000314999, 0.0005187925, -0.9999978, -0.001329283, 0.3503954
 204230775, 0.0002669512, 0.01160988, -0.0005088046, 0.00104407, 0.0004299678, 0.004101338, -0.0002566575, 0.0005187925, -0.9999978, -0.001334533, 0.3503954
 204430695, 0.0005912252, 0.01134151, -0.0005923548, 0.00104407, -0.0001395047, 0.004243632, -0.0002163712, 0.0005187925, -0.9999978, -0.001338868, 0.3503954
 204631448, -0.0001131983, 0.01153784, -3.661398E-05, 0.001046232, -1.008206E-05, 0.004492111, -0.0003142256, 0.0005209541, -0.9999979, -0.001344857, 0.3511209
 204831368, 0.0001457109, 0.01142952, -0.000168896, 0.001046232, -9.959386E-05, 0.003903869, 0.0001329689, 0.0005187925, -0.9999978, -0.001346593, 0.3511209
 205031288, -0.0002058946, 0.01128956, -0.0003123083, 0.00104407, 1.547169E-05, 0.004400267, -0.00026436, 0.0005187925, -0.9999978, -0.001347742, 0.3503954
 205231208, -7.091039E-05, 0.0116564, -0.0003857143, 0.00104407, 0.0002182535, 0.004176733, -0.0002509448, 0.0005187925, -0.9999978, -0.001348836, 0.3503954
 205431128, 0.0002998372, 0.0113095, -0.0002032074, 0.00104407, -0.0001751888, 0.003596408, 0.0002999477, 0.0005187925, -0.9999978, -0.001350239, 0.3503954
 205631048, 7.878405E-05, 0.0110635, -2.267045E-05, 0.00104407, 1.921038E-05, 0.003893456, 0.0002997225, 0.0005187925, -0.9999978, -0.001350295, 0.3503954
 205830968, -6.664268E-05, 0.01122534, 0.0001748638, 0.00104407, -0.00015285, 0.004425772, 0.0001703785, 0.0005187925, -0.9999978, -0.001348388, 0.3503954
 206030888, 6.695132E-06, 0.01159949, -0.0001428414, 0.00104407, -0.0001841926, 0.003977141, -0.0002024127, 0.0005187925, -0.9999978, -0.001346634, 0.3503954
 206230808, 6.78147E-05, 0.01111589, -0.0002131563, 0.00104407, 5.677632E-05, 0.004210931, 6.260275E-05, 0.0005187925, -0.9999978, -0.001344863, 0.3503954
 206430728, 0.0002159498, 0.01135192, 0.0001582633, 0.00104407, 0.0003192435, 0.004109837, -0.00014134, 0.0005187925, -0.9999979, -0.00134299, 0.3503954
 206631481, 0.0004909171, 0.01138159, -0.0001226948, 0.001046232, -5.753627E-07, 0.004372394, 8.125623E-06, 0.0005209541, -0.9999978, -0.001342186, 0.3511209
 206831401, -8.53133E-05, 0.01187994, 9.014455E-05, 0.001046232, -5.790012E-05, 0.004159975, -1.173146E-05, 0.0005187925, -0.9999979, -0.001340664, 0.3511209
 207031321, -0.0001842276, 0.01120708, -0.0003351468, 0.00104407, -0.0001200605, 0.004476939, -0.0004653654, 0.0005187925, -0.9999979, -0.001338081, 0.3503954
 207231241, 4.145114E-05, 0.0117451, -0.0004938259, 0.00104407, -9.234784E-05, 0.003842157, -3.068415E-06, 0.0005187925, -0.9999979, -0.001333343, 0.3503954
 207431161, -0.0001817602, 0.01090069, 3.30852E-05, 0.00104407, -0.0002809992, 0.004179389, 0.0001041413, 0.0005187925, -0.9999979, -0.001328447, 0.3503954
 207631081, -0.0001140539, 0.0113921, -7.468219E-05, 0.00104407, 0.0002363019, 0.004462299, 0.0001344143, 0.0005187925, -0.9999979, -0.001323577, 0.3503954
 207831001, 0.0001317322, 0.01151807, 0.0001791035, 0.00104407, -1.406036E-05, 0.003711926, 0.0006064062, 0.0005187925, -0.9999979, -0.001318768, 0.3503954
 208030921, -0.0001849357, 0.01136548, 0.0004734208, 0.00104407, -0.0001747963, 0.00435342, 0.0004420002, 0.0005187925, -0.9999979, -0.001313385, 0.3503954
 208230841, -1.029144E-05, 0.01164512, 0.0003357186, 0.00104407, 0.0002127056, 0.004017846, -0.0002651274, 0.0005187925, -0.9999979, -0.001307436, 0.3503954
 208430761, -3.154292E-05, 0.01129478, -0.0003096843, 0.00104407, -0.0002267251, 0.004471142, -0.0002241609, 0.0005187925, -0.9999979, -0.001302493, 0.3503954
 208630681, -0.0001609077, 0.01190798, -0.0004475412, 0.00104407, -3.752339E-05, 0.004208182, -0.0001117307, 0.0005187925, -0.9999978, -0.001296298, 0.3503954
 208831434, 4.712262E-05, 0.01200947, -0.0001130343, 0.001046232, 0.0002325903, 0.004457064, -4.378316E-05, 0.0005209541, -0.9999979, -0.001292282, 0.3511209
 209031354, 0.0005228476, 0.01184483, 7.737679E-05, 0.001046232, 0.00057836, 0.004157768, 0.0007094464, 0.0005187925, -0.9999979, -0.001300963, 0.3511209
 209231274, 0.0006551259, 0.01145832, 0.0007677893, 0.00104407, 0.0001215248, 0.003986594, 0.0005101583, 0.0005187925, -0.9999979, -0.00130736, 0.3503954
 209431194, 6.660116E-05, 0.01140106, 0.0003342306, 0.00104407, -0.0003777895, 0.003722693, -0.0003028111, 0.0005187925, -0.9999979, -0.001313012, 0.3503954
 209631114, -0.0006296597, 0.01103332, -0.0002292407, 0.00104407, 1.511294E-05, 0.004256932, 2.678991E-05, 0.0005187925, -0.9999979, -0.001317868, 0.3503954
 209831034, -0.0001119374, 0.01159881, 1.320549E-05, 0.00104407, 0.0001332726, 0.004796229, 2.067931E-05, 0.0005187925, -0.9999979, -0.001321343, 0.3503954
 210030954, 0.0002535297, 0.01213263, 0.0001534408, 0.00104407, 2.816656E-05, 0.004246435, -0.0002196005, 0.0005187925, -0.9999979, -0.00132509, 0.3503954
 210230874, -0.0001614125, 0.01159722, -8.493604E-05, 0.00104407, -0.000304306, 0.004163965, 0.0002427262, 0.0005187925, -0.9999979, -0.001327733, 0.3503954
 210430794, -0.0002117887, 0.01150271, 0.0001275994, 0.00104407, 0.0001879086, 0.004380359, -4.875377E-05, 0.0005187925, -0.9999979, -0.001328918, 0.3503954
 210630714, 0.0001083641, 0.01115284, -6.73132E-05, 0.00104407, 0.0004011685, 0.003874949, -0.0001456965, 0.0005187925, -0.9999979, -0.001327298, 0.3503954
 210831467, 0.0002851748, 0.01135812, -2.272288E-05, 0.001046232, 0.0001128277, 0.003764679, 7.460747E-05, 0.0005209541, -0.9999979, -0.001327837, 0.3511209
 211031387, 0.0001505943, 0.01118035, 9.102437E-05, 0.001046232, 3.963662E-06, 0.004263558, -0.0003969071, 0.0005187925, -0.9999979, -0.001327742, 0.3511209
 211231307, 5.919309E-05, 0.01126233, -0.0007114318, 0.00104407, -6.715603E-05, 0.003742235, -6.816117E-07, 0.0005187925, -0.9999979, -0.001326744, 0.3503954
 211431227, -0.0002899385, 0.01109351, -0.0003083128, 0.00104407, 0.0003256539, 0.004329195, 0.0001808968, 0.0005187925, -0.9999979, -0.001324061, 0.3503954
 211631147, 0.0002380817, 0.01149074, -0.0001317225, 0.00104407, -0.0004242503, 0.004057435, -0.0001957539, 0.0005187925, -0.9999979, -0.001322356, 0.3503954
 211831067, -0.0008229195, 0.01129453, -0.0002079001, 0.00104407, -0.000101188, 0.00431068, -0.0004217534, 0.0005187925, -0.9999979, -0.001319979, 0.3503954
 212030987, 1.58019E-05, 0.01175919, -0.0004103282, 0.00104407, 0.0002303482, 0.004444059, 5.877764E-05, 0.0005187925, -0.9999979, -0.00131637, 0.3503954
 212230907, 0.0002384695, 0.01153028, 0.0001772064, 0.00104407, 6.082129E-05, 0.004018085, 0.0002926681, 0.0005187925, -0.9999979, -0.001313097, 0.3503954
 212430827, 0.000197183, 0.01110725, 0.0001518191, 0.00104407, 0.0003191651, 0.00405013, -0.0003107425, 0.0005187925, -0.9999979, -0.001308454, 0.3503954
 212630747, 0.0003778665, 0.01118091, -0.0002484794, 0.00104407, 0.0001147919, 0.003732749, 0.0001258764, 0.0005187925, -0.9999979, -0.001303985, 0.3503954
 212830667, -0.0001978582, 0.01071544, -6.468687E-05, 0.00104407, -0.0003138664, 0.00418192, -0.000163249, 0.0005187925, -0.9999979, -0.001299126, 0.3503954
 213031420, -0.0002849829, 0.01139088, -0.0006187187, 0.001046232, -0.0005165638, 0.003702394, -0.0001840721, 0.0005209541, -0.9999979, -0.001295708, 0.3511209
 213231340, -0.0004596408, 0.01124841, 4.167121E-05, 0.001046232, 0.0002287446, 0.004087815, 0.0004842227, 0.0005187925, -0.9999979, -0.001290823, 0.3511209
 213431260, 0.0002531046, 0.01138478, 0.0005248781, 0.00104407, -0.0001842729, 0.004321863, -0.0001585969, 0.0005187925, -0.9999979, -0.001283487, 0.3503954
 213631180, -0.0001537729, 0.0114519, -0.0003631402, 0.00104407, -4.241256E-05, 0.003947798, -0.0005164143, 0.0005187925, -0.9999979, -0.00127802, 0.3503954
 213831100, -0.0001241445, 0.01119316, -0.000726868, 0.00104407, -8.704221E-05, 0.003805224, -0.0003278767, 0.0005187925, -0.9999979, -0.001272241, 0.3503954
 214031020, 0.0002400176, 0.01140739, -0.0004005092, 0.00104407, 3.318123E-05, 0.004447256, 7.336422E-05, 0.0005187925, -0.9999979, -0.00126628, 0.3503954
 214230940, 0.0002052218, 0.01195442, 7.650888E-05, 0.00104407, -7.122414E-05, 0.003903479, 3.572468E-06, 0.0005187925, -0.9999979, -0.001275765, 0.3503954
 214430860, 0.0003924367, 0.01115311, -2.159192E-06, 0.00104407, -6.722096E-05, 0.004140193, 6.990019E-06, 0.0005187925, -0.9999979, -0.00128439, 0.3503954
 214630780, 0.0001783504, 0.01169814, -0.0003095747, 0.00104407, -8.34082E-05, 0.004248592, -0.0003343913, 0.0005187925, -0.9999979, -0.001291763, 0.3503954
 214830700, 4.194689E-05, 0.0119095, -0.0003905498, 0.00104407, 7.875746E-05, 0.004641683, -6.925434E-05, 0.0005187925, -0.9999979, -0.001298574, 0.3503954
 215031453, 0.00011616, 0.01204507, -0.0006367465, 0.001046232, 0.0001923177, 0.004572872, -0.0003633555, 0.0005209541, -0.9999979, -0.001303929, 0.3511209
 215231373, 6.311551E-05, 0.01221802, -0.0005544383, 0.001046232, -5.122288E-06, 0.004388672, 9.484071E-06, 0.0005187925, -0.9999979, -0.001307997, 0.3511209
 215431293, 0.0001461809, 0.01150455, 6.085702E-05, 0.00104407, 6.786429E-05, 0.003892469, 0.0003569081, 0.0005187925, -0.9999979, -0.001310147, 0.3503954
 215631213, 9.069093E-05, 0.0111757, 0.0002720699, 0.00104407, -0.0001520256, 0.003717762, -0.0002381433, 0.0005187925, -0.9999979, -0.001311777, 0.3503954
 215831133, 0.0002321175, 0.01069188, -0.0001939592, 0.00104407, 0.000330798, 0.004202491, -1.073169E-05, 0.0005187925, -0.9999979, -0.001313105, 0.3503954
 216031053, 0.0005042034, 0.01130999, -8.431755E-05, 0.00104407, 0.0001620259, 0.004340252, -9.606927E-05, 0.0005187925, -0.9999979, -0.001313379, 0.3503954
 216230973, 0.000339281, 0.01159696, -0.0002289048, 0.00104407, 0.0002444104, 0.003626471, 2.242622E-05, 0.0005187925, -0.9999979, -0.001313599, 0.3503954
 216430893, 0.0007155405, 0.01083425, -0.0002997736, 0.00104407, 0.0003049672, 0.004294668, -0.0002471412, 0.0005187925, -0.9999979, -0.001312963, 0.3503954
 216630813, 9.844571E-05, 0.01144758, -0.0002884794, 0.00104407, 0.0002386034, 0.004286618, 0.0004959732, 0.0005187925, -0.9999979, -0.001312383, 0.3503954
 216830733, -4.842449E-05, 0.0114939, 4.59784E-05, 0.00104407, -0.0003324923, 0.003685048, -0.0003070652, 0.0005187925, -0.9999979, -0.001310057, 0.3503954
 217031486, -0.0001946114, 0.01078937, -0.0009224035, 0.001046232, -0.0001124137, 0.003815479, -0.0002802848, 0.0005187925, -0.9999979, -0.001306277, 0.3511209
 217231406, 0.0001220645, 0.01101894, -0.0001283196, 0.001046232, -6.570286E-05, 0.004166134, 0.0001134367, 0.0005209541, -0.9999979, -0.001304731, 0.3511209
 217431326, -1.206444E-05, 0.01130465, 1.652617E-05, 0.001046232, 0.000324795, 0.004173908, -9.989316E-05, 0.0005187925, -0.9999979, -0.001301434, 0.3511209
 217631246, -0.0001258534, 0.01124579, -0.0003067494, 0.00104407, -0.000346657, 0.004237291, -0.0003439338, 0.0005187925, -0.9999979, -0.001296027, 0.3503954
 217831166, -0.0006865926, 0.01179621, -0.0003786993, 0.00104407, -0.0001949745, 0.00425235, 1.860827E-05, 0.0005187925, -0.9999979, -0.001293669, 0.3503954
 218031086, -0.0001127634, 0.01155113, -0.0003087274, 0.00104407, -0.0001169051, 0.004105378, -0.0001573672, 0.0005187925, -0.9999979, -0.001290754, 0.3503954
 218231006, -0.0001687212, 0.01123349, -0.0003700314, 0.00104407, -0.0001475171, 0.003996573, -0.0001036229, 0.0005187925, -0.9999979, -0.001287271, 0.3503954
 218430926, 0.0001006961, 0.01142171, -0.0001562209, 0.00104407, -5.356251E-05, 0.004404891, -0.0001303688, 0.0005187925, -0.9999979, -0.001284023, 0.3503954
 218630846, -9.11656E-05, 0.01162079, -0.0005172808, 0.00104407, 0.0001034457, 0.004278586, 0.000402485, 0.0005187925, -0.9999978, -0.001280204, 0.3503954
 218830766, 0.0001713927, 0.01174914, 7.009201E-05, 0.00104407, -0.0002440087, 0.004369231, -0.0003910396, 0.0005187925, -0.9999978, -0.001276379, 0.3503954
 219030686, -0.0004044735, 0.01181039, -0.0003714708, 0.00104407, -5.147978E-05, 0.004251466, -0.0002346173, 0.0005187925, -0.9999978, -0.001273209, 0.3503954
 219231439, 0.0002387434, 0.01198698, -0.000549565, 0.001046232, 0.0001600708, 0.004230008, -0.0002919408, 0.0005209541, -0.9999978, -0.001269673, 0.3511209
 219431359, 0.0004280011, 0.01146255, -0.0002874043, 0.001046232, 0.0004933102, 0.004495326, -9.970966E-05, 0.0005187925, -0.9999978, -0.00127954, 0.3511209
 219631279, 0.000567988, 0.01160676, -0.0004453938, 0.00104407, 3.725325E-05, 0.004072424, -0.0001988569, 0.0005187925, -0.9999978, -0.001287651, 0.3503954
 219831199, 0.0001232758, 0.0114786, -0.0004152293, 0.00104407, 0.0001240413, 0.004237039, 5.352859E-05, 0.0005187925, -0.9999978, -0.001295848, 0.3503954
 220031119, 0.0001586257, 0.01161549, -0.0001773924, 0.00104407, -1.017317E-05, 0.004500021, 9.484906E-05, 0.0005187925, -0.9999978, -0.001303726, 0.3503954
 220231039, 7.408084E-05, 0.01153047, -0.0002223067, 0.00104407, -0.0001169034, 0.003857161, 5.146232E-05, 0.0005187925, -0.9999978, -0.001311888, 0.3503954
 220430959, -0.0002458854, 0.0111568, 0.0001235801, 0.00104407, -0.0001157827, 0.00424959, 3.925421E-05, 0.0005187925, -0.9999978, -0.00131933, 0.3503954
 220630879, -0.0003306879, 0.0117661, -5.641349E-05, 0.00104407, -0.0002723107, 0.004212306, -8.434616E-05, 0.0005187925, -0.9999978, -0.001324652, 0.3503954
 220830799, -0.0003899471, 0.01170023, 0.0001314126, 0.00104407, -0.0004769062, 0.004970904, 0.0001546372, 0.0005187925, -0.9999978, -0.001329562, 0.3503954
 221030719, -0.0004097756, 0.01240417, -0.0001271264, 0.00104407, 0.000446053, 0.004026663, 0.0002115285, 0.0005187925, -0.9999978, -0.001333399, 0.3503954
 221231472, 0.0006542585, 0.01115625, -9.087029E-05, 0.001046232, 0.0002813547, 0.003801211, -6.824981E-05, 0.0005209541, -0.9999978, -0.001334458, 0.3511209
 221431392, 0.0001815711, 0.01128798, -0.000367063, 0.001046232, 0.0001657893, 0.004456218, 0.0004581382, 0.0005187925, -0.9999978, -0.001338174, 0.3511209
 221631312, 0.0005343773, 0.01166274, 0.0004746194, 0.00104407, 0.0004468127, 0.004115866, -0.0001672421, 0.0005187925, -0.9999978, -0.001341112, 0.3503954
 221831232, 0.0002663772, 0.01137966, -0.0005999216, 0.00104407, -0.0004908256, 0.004324237, -0.000157024, 0.0005187925, -0.9999978, -0.001341328, 0.3503954
 222031152, -0.0003656145, 0.01183703, -0.0002994066, 0.00104407, -0.0001188513, 0.004105927, 0.0001819765, 0.0005187925, -0.9999978, -0.001341526, 0.3503954
 222231072, -0.0001015504, 0.01153208, -3.479642E-05, 0.00104407, 0.0002317537, 0.004177573, 0.0002391109, 0.0005187925, -0.9999978, -0.001341384, 0.3503954
 222430992, 0.000196518, 0.01161291, -0.0001779834, 0.00104407, 0.0001065013, 0.004287459, -0.0004011504, 0.0005187925, -0.9999978, -0.001341628, 0.3503954
 222630912, -0.0002518695, 0.0113335, -0.0007129164, 0.00104407, -0.0002163226, 0.004144283, -0.0007027675, 0.0005187925, -0.9999978, -0.001343242, 0.3503954
 222830832, 6.465311E-05, 0.01154932, -0.0007173301, 0.00104407, -0.0002391564, 0.00487184, -0.0001443428, 0.0005187925, -0.9999978, -0.001343805, 0.3503954
 223030752, -0.0002766999, 0.01195819, -0.0005139023, 0.00104407, -0.0002869593, 0.003945721, -0.0002505968, 0.0005187925, -0.9999978, -0.001342979, 0.3503954
 223230672, -0.0006361051, 0.01106482, -0.0003285703, 0.00104407, -1.829002E-05, 0.004244806, -0.0001742869, 0.0005187925, -0.9999978, -0.001341401, 0.3503954
 223431425, 8.978546E-06, 0.0114933, -0.0003731117, 0.001046232, -5.575243E-07, 0.004093979, -0.0005215906, 0.0005209541, -0.9999978, -0.001339354, 0.3511209
 223631345, -5.871092E-05, 0.01148436, -0.000848781, 0.001046232, -0.0003526223, 0.00437104, -0.0001848387, 0.0005187925, -0.9999978, -0.001336851, 0.3511209
 223831265, -0.0005842825, 0.01168491, -0.0002832662, 0.00104407, -0.0001728407, 0.004401986, 6.511228E-05, 0.0005187925, -0.9999978, -0.001333122, 0.3503954
 224031185, -0.000555032, 0.01198944, 5.568664E-05, 0.00104407, -0.0005562921, 0.004588962, -0.0001835458, 0.0005187925, -0.9999978, -0.001330275, 0.3503954
 224231105, -0.0005494732, 0.01201252, -0.0004286505, 0.00104407, -9.696757E-05, 0.00408189, -0.0003399513, 0.0005187925, -0.9999978, -0.001327267, 0.3503954
 224431025, 4.709698E-05, 0.01131717, -0.0005379312, 0.00104407, -0.0003088601, 0.004491247, 0.0001013874, 0.0005187925, -0.9999978, -0.001323938, 0.3503954
 224630945, -0.0005119444, 0.01173922, -0.0001997482, 0.00104407, -0.0002834466, 0.004284054, -8.679254E-05, 0.0005187925, -0.9999977, -0.001336416, 0.3503954
 224830865, -2.281623E-05, 0.01171921, -7.115257E-05, 0.00104407, -1.185355E-05, 0.003887317, -0.0001047478, 0.0005187925, -0.9999977, -0.001347814, 0.3503954
 225030785, -0.0001352558, 0.01123923, -2.148244E-05, 0.00104407, -0.0004813632, 0.004212092, 0.0001677402, 0.0005187925, -0.9999977, -0.001360224, 0.3503954
 225230705, -0.0001133595, 0.01138756, 0.0001114769, 0.00104407, 0.0002762991, 0.004647688, -8.176034E-05, 0.0005187925, -0.9999977, -0.001369747, 0.3503954
 225431458, 0.0002129904, 0.01197476, -0.0004104125, 0.001046232, 0.0001511781, 0.004384303, 4.705695E-06, 0.0005209541, -0.9999977, -0.001378862, 0.3511209
 225631378, -0.0001703965, 0.01171176, -0.0004170967, 0.001046232, -0.0001367956, 0.003929141, -0.0003506759, 0.0005187925, -0.9999977, -0.001386656, 0.3511209
 225831298, 0.0001389661, 0.0117631, -0.0004325412, 0.00104407, 0.0001225372, 0.004355397, -0.0001215353, 0.0005187925, -0.9999977, -0.001392376, 0.3503954
 226031218, 0.0002293731, 0.01162868, -0.0001659981, 0.00104407, -0.0002028835, 0.004173113, 6.606559E-05, 0.0005187925, -0.9999977, -0.001396942, 0.3503954
 226231138, -8.538541E-05, 0.01136511, -0.000171626, 0.00104407, -0.0001354222, 0.004224359, 9.932119E-06, 0.0005187925, -0.9999977, -0.001402247, 0.3503954
 226431058, -0.0002217692, 0.01157077, -0.000508484, 0.00104407, 3.669177E-05, 0.004192619, -0.0003464433, 0.0005187925, -0.9999977, -0.00140743, 0.3503954
 226630978, -2.124751E-05, 0.01176704, -0.0004504879, 0.00104407, 0.0001236704, 0.00444743, -0.0002790455, 0.0005187925, -0.9999977, -0.001411174, 0.3503954
 226830898, -0.0001228757, 0.01177744, -0.0006840436, 0.00104407, -0.000224446, 0.004072128, -0.0002005085, 0.0005187925, -0.9999977, -0.001414768, 0.3503954
 227030818, -0.0002743524, 0.0114588, -0.0003479936, 0.00104407, 0.0002628363, 0.004099601, -0.0002334864, 0.0005187925, -0.9999977, -0.001417887, 0.3503954
 227230738, 0.0003729445, 0.01173589, -0.0004241057, 0.00104407, 0.0002507057, 0.004070148, -0.0003989424, 0.0005187925, -0.9999977, -0.00141954, 0.3503954
 227430658, 0.0003159693, 0.0115222, -0.0006033723, 0.00104407, -0.0003769156, 0.004428164, -7.67937E-05, 0.0005187925, -0.9999977, -0.001423127, 0.3503954
 227631411, -0.0004750218, 0.01205098, 8.378211E-05, 0.001046232, -1.895395E-05, 0.004353488, 0.0001093514, 0.0005209541, -0.9999977, -0.00142442, 0.3511209
 227831331, 0.0001759189, 0.01214703, -0.0004238848, 0.001046232, 0.0001865246, 0.004393572, -0.000351821, 0.0005187925, -0.9999977, -0.001424753, 0.3511209
 228031251, 0.0003594413, 0.01149186, -0.0006406319, 0.00104407, -0.0001629653, 0.004448116, -2.965932E-05, 0.0005187925, -0.9999977, -0.001423832, 0.3503954
 228231171, -0.0001474886, 0.01199779, -0.0001047633, 0.00104407, 0.000341471, 0.004503387, -0.0005745139, 0.0005187925, -0.9999977, -0.00142296, 0.3503954
 228431091, 0.0006508267, 0.01181099, -0.0006162039, 0.00104407, 0.0005437667, 0.004382821, -0.0003161858, 0.0005187925, -0.9999977, -0.001421258, 0.3503954
 228631011, 0.0007938634, 0.01173888, -0.0002773582, 0.00104407, 0.0001191433, 0.003966318, -2.834259E-05, 0.0005187925, -0.9999977, -0.001420702, 0.3503954
 228830931, 0.000342317, 0.01154272, -4.531597E-05, 0.00104407, 0.0001851949, 0.004742071, 0.0002556005, 0.0005187925, -0.9999976, -0.001418866, 0.3503954
 229030851, 0.000152529, 0.01221198, 0.000239696, 0.00104407, -0.0002216153, 0.004365483, -0.0003478768, 0.0005187925, -0.9999976, -0.001416828, 0.3503954
 229230771, -0.0004814982, 0.01171457, -0.0006297285, 0.00104407, -7.455403E-05, 0.004014274, -0.000198951, 0.0005187925, -0.9999976, -0.001414639, 0.3503954
 229430691, 0.0002497331, 0.01155518, -0.0004076804, 0.00104407, -0.0001344183, 0.004344071, 0.0003428112, 0.0005187925, -0.9999976, -0.001412929, 0.3503954
 229631444, 9.586472E-05, 0.01161361, 0.0003796885, 0.001046232, -3.970484E-05, 0.004371044, 8.112323E-05, 0.0005209541, -0.9999976, -0.001413095, 0.3511209
 229831364, 0.0001034051, 0.01208101, -1.684074E-05, 0.001046232, 0.0001560858, 0.00481389, -0.0001218332, 0.0005187925, -0.9999976, -0.001425641, 0.3511209
 230031284, -0.000141351, 0.0121694, -0.0007244608, 0.00104407, -3.332301E-05, 0.004231409, -0.0003457689, 0.0005187925, -0.9999976, -0.001436096, 0.3503954
 230231204, -8.932858E-05, 0.01150161, -0.0005672738, 0.00104407, -0.0001582899, 0.004498011, 6.9787E-05, 0.0005187925, -0.9999976, -0.001447175, 0.3503954
 230431124, -0.0001982884, 0.01188176, 9.599303E-05, 0.00104407, -0.0001831801, 0.003971524, 0.0002691706, 0.0005187925, -0.9999976, -0.001455971, 0.3503954
 230631044, 3.119487E-06, 0.01141842, 0.0001983649, 0.00104407, 0.0001093249, 0.004724355, -0.0001021978, 0.0005187925, -0.9999976, -0.001464005, 0.3503954
 230830964, 0.0001697996, 0.01232792, -0.0001840844, 0.00104407, -0.0003001009, 0.004615586, -0.0001972506, 0.0005187925, -0.9999976, -0.00147051, 0.3503954
 231030884, -0.0004127847, 0.01187452, -0.0003820272, 0.00104407, 9.748308E-05, 0.004311988, 0.0001118332, 0.0005187925, -0.9999976, -0.001476398, 0.3503954
 231230804, -0.000125358, 0.01186889, -0.0002775333, 0.00104407, -0.0004272718, 0.004314664, -0.0001266759, 0.0005187925, -0.9999976, -0.001481498, 0.3503954
 231430724, -0.0007083084, 0.01159172, -0.0004215889, 0.00104407, 3.64261E-05, 0.004220594, -5.699495E-06, 0.0005187925, -0.9999976, -0.001483998, 0.3503954
 231631477, -1.901991E-05, 0.01159035, -0.0005082584, 0.001046232, -8.159153E-05, 0.003978556, -0.0001652251, 0.0005209541, -0.9999976, -0.001487122, 0.3511209
 231831397, -0.0002499726, 0.01123873, -0.0001351022, 0.001046232, -0.0001661179, 0.004403693, 0.0001411696, 0.0005187925, -0.9999976, -0.001491181, 0.3511209
 232031317, -0.0003457886, 0.01157407, 9.825832E-05, 0.00104407, -0.0001273648, 0.00407485, 5.41101E-05, 0.0005187925, -0.9999976, -0.001492861, 0.3503954
 232231237, -0.0003434335, 0.01127235, -1.750126E-05, 0.00104407, -0.0002351585, 0.00402848, -0.0002046053, 0.0005187925, -0.9999976, -0.001491833, 0.3503954
 232431157, -2.313394E-06, 0.01125483, -0.0003203671, 0.00104407, 0.0001082999, 0.004036304, -0.0002241776, 0.0005187925, -0.9999976, -0.001491404, 0.3503954
 232631077, 3.141677E-05, 0.01111114, -0.0004158717, 0.00104407, -0.0001741127, 0.004322912, 0.0001758253, 0.0005187925, -0.9999976, -0.001491333, 0.3503954
 232830997, -6.561873E-05, 0.01189061, 0.0003090218, 0.00104407, -3.038298E-05, 0.004365787, -0.0001014745, 0.0005187925, -0.9999976, -0.001491123, 0.3503954
 233030917, 0.0001243857, 0.01215775, -0.0003191362, 0.00104407, -0.0001105515, 0.004575273, 2.968673E-05, 0.0005187925, -0.9999976, -0.001490014, 0.3503954
 233230837, -0.0003886906, 0.0117275, -0.0003203851, 0.00104407, -0.0005603684, 0.004196086, 0.0003687361, 0.0005187925, -0.9999976, -0.001488005, 0.3503954
 233430757, -0.0008384656, 0.01140637, 0.0004344964, 0.00104407, -0.0003025282, 0.004072644, 0.0001822326, 0.0005187925, -0.9999976, -0.001485976, 0.3503954
 233630677, -0.0005512396, 0.01145834, 7.104057E-05, 0.00104407, -0.0001281581, 0.004211539, 0.0002487809, 0.0005187925, -0.9999976, -0.001482677, 0.3503954
 233831430, -0.0003254369, 0.01152624, -0.0001172891, 0.001046232, -0.0001058728, 0.00415059, -3.223957E-05, 0.0005209541, -0.9999976, -0.001482356, 0.3511209
 234031350, 0.000126724, 0.01164657, -0.0001741718, 0.001046232, -0.0003492412, 0.003993289, -0.0001703785, 0.0005187925, -0.9999976, -0.001478845, 0.3511209
 234231270, -0.000116274, 0.01139562, -0.0004442226, 0.00104407, 0.0004309831, 0.004074969, -0.0004474709, 0.0005187925, -0.9999976, -0.001474599, 0.3503954
 234431190, 0.0006307994, 0.01134113, -0.0003273274, 0.00104407, -0.0001608878, 0.00400193, -0.0003313014, 0.0005187925, -0.9999976, -0.001471024, 0.3503954
 234631110, -0.000169353, 0.01165715, -0.0006427624, 0.00104407, 8.728635E-05, 0.004388001, 0.0001015889, 0.0005187925, -0.9999976, -0.001468301, 0.3503954
 234831030, 4.839295E-05, 0.01213934, -0.0001049504, 0.00104407, 0.0001555394, 0.004381465, -0.0002422889, 0.0005187925, -0.9999976, -0.001464291, 0.3503954
 235030950, 7.275822E-05, 0.01160495, -0.0005323032, 0.00104407, -9.718494E-05, 0.004070953, -0.000527719, 0.0005187925, -0.9999976, -0.001474975, 0.3503954
 235230870, -9.386613E-05, 0.01131819, -0.0008853231, 0.00104407, 0.000111133, 0.00415365, -6.938304E-05, 0.0005187925, -0.9999976, -0.001485215, 0.3503954
 235430790, 0.0002073053, 0.01146959, -0.0001563377, 0.00104407, 0.0002933755, 0.004601047, -0.0001168963, 0.0005187925, -0.9999976, -0.001493614, 0.3503954
 235630710, 0.0003567653, 0.01197301, -0.0003261489, 0.00104407, 0.0001547196, 0.004478178, 0.0002106897, 0.0005187925, -0.9999976, -0.001502539, 0.3503954
 235831463, -7.275677E-05, 0.01167685, 0.0002509524, 0.001046232, -0.0002156944, 0.003765688, -2.38927E-05, 0.0005209541, -0.9999976, -0.001511247, 0.3511209
 236031383, -0.000749214, 0.01112859, -0.0001930188, 0.001046232, -0.0007406518, 0.004498944, -5.924596E-05, 0.0005187925, -0.9999974, -0.001517607, 0.3511209
 236231303, -0.0008023563, 0.01168465, -9.790198E-05, 0.00104407, -6.945994E-05, 0.004217713, 0.0001164412, 0.0005187925, -0.9999974, -0.001522992, 0.3503954
 236431223, 0.0002592463, 0.01139257, -0.0001780036, 0.00104407, 0.0003469457, 0.004518552, -0.0005030349, 0.0005187925, -0.9999974, -0.00152623, 0.3503954
 236631143, 0.0003495497, 0.01139472, -0.000779882, 0.00104407, -0.0001897324, 0.004155456, -0.0004181166, 0.0005187925, -0.9999974, -0.00153093, 0.3503954
 236831063, -0.0002854742, 0.01132574, -0.0003011332, 0.00104407, -0.0005244317, 0.004157347, 0.0002067323, 0.0005187925, -0.9999974, -0.001534293, 0.3503954
 237030983, -0.0003066116, 0.01162268, 0.0001776915, 0.00104407, 0.0002391808, 0.004503618, -0.0002669565, 0.0005187925, -0.9999974, -0.001537756, 0.3503954
 237230903, 6.123923E-05, 0.0121656, -0.0004101757, 0.00104407, 0.0005182321, 0.004151523, -0.0002987405, 0.0005187925, -0.9999974, -0.001540082, 0.3503954
 237430823, 2.771062E-05, 0.01159962, -0.0005186127, 0.00104407, -0.0002241752, 0.004438501, -0.0001649327, 0.0005187925, -0.9999974, -0.001542217, 0.3503954
 237630743, -0.000231163, 0.01159141, -6.194971E-05, 0.00104407, -0.0001742804, 0.003665118, -0.0001528057, 0.0005187925, -0.9999974, -0.001543229, 0.3503954
 237830663, -0.0002212897, 0.01085994, -9.437004E-05, 0.00104407, 0.0003275994, 0.004358746, -0.0001191008, 0.0005187925, -0.9999974, -0.001544295, 0.3503954
 238031416, 0.0004731875, 0.01205937, -0.0004409146, 0.001046232, 4.176767E-05, 0.004449602, -0.0002253501, 0.0005209541, -0.9999974, -0.001546444, 0.3511209
 238231336, -8.932834E-05, 0.01175484, -0.0003961635, 0.001046232, -4.967019E-05, 0.004115821, -0.0001961221, 0.0005187925, -0.9999974, -0.001547259, 0.3511209
 238431256, 8.262712E-05, 0.01152858, -0.0002812333, 0.00104407, 0.0001537572, 0.004339896, -0.0001730679, 0.0005187925, -0.9999974, -0.001544931, 0.3503954
 238631176, 0.0001206364, 0.01179485, -6.634677E-05, 0.00104407, -1.178163E-05, 0.004238723, -0.000107361, 0.0005187925, -0.9999974, -0.001544237, 0.3503954
 238831096, -0.0002503932, 0.01138809, -0.0002459078, 0.00104407, -0.000200704, 0.00428063, -0.0001332394, 0.0005187925, -0.9999974, -0.001541967, 0.3503954
 239031016, -0.0001725067, 0.0113163, -0.0001689759, 0.00104407, -0.0004805624, 0.003838343, -0.0001903511, 0.0005187925, -0.9999974, -0.001539948, 0.3503954
 239230936, -0.0004814586, 0.01115625, -0.0005018312, 0.00104407, -0.0004931129, 0.004249325, -0.0003611013, 0.0005187925, -0.9999974, -0.001537677, 0.3503954
 239430856, -0.0003220754, 0.01157316, -0.0005003, 0.00104407, 5.529002E-05, 0.004134136, 0.0002825012, 0.0005187925, -0.9999974, -0.001535115, 0.3503954
 239630776, -5.640064E-05, 0.0116567, 0.0001223671, 0.00104407, -4.423729E-05, 0.004282928, -9.704514E-06, 0.0005187925, -0.9999974, -0.001532516, 0.3503954
 239830696, 0.0002105083, 0.01180557, -1.442569E-05, 0.00104407, 0.0002972007, 0.004187556, 0.00012718, 0.0005187925, -0.9999974, -0.001530154, 0.3503954
 240031449, 0.0004103221, 0.01162435, 0.0003993217, 0.001046232, -1.694422E-05, 0.004197374, -1.3076E-06, 0.0005209541, -0.9999974, -0.001530259, 0.3511209
 240231369, -0.0004448884, 0.01175809, -0.0001190977, 0.001046232, -0.0002396867, 0.004482388, -0.00012093, 0.0005187925, -0.9999974, -0.001539739, 0.3511209
 240431289, -0.0001995831, 0.01187393, 0.0001086658, 0.00104407, -6.371932E-05, 0.003978736, -1.796838E-05, 0.0005187925, -0.9999974, -0.001547011, 0.3503954
 240631209, -0.0005234258, 0.01138597, -0.0002520197, 0.00104407, -0.0001425434, 0.004381445, -0.0003786217, 0.0005187925, -0.9999974, -0.001554267, 0.3503954
 240831129, -0.0003171886, 0.01184811, -0.0007151804, 0.00104407, -0.0004112434, 0.004247251, -0.0003281389, 0.0005187925, -0.9999974, -0.001561789, 0.3503954
 241031049, -0.000226233, 0.01115816, -0.0004458921, 0.00104407, -9.199983E-05, 0.003695838, -9.485739E-05, 0.0005187925, -0.9999974, -0.001567652, 0.3503954
 241230969, -0.0005440267, 0.011154, -0.0001237303, 0.00104407, -0.0002828536, 0.004351976, 0.0001150136, 0.0005187925, -0.9999974, -0.001572746, 0.3503954
 241430889, -0.0003501783, 0.01171178, 0.0001053591, 0.00104407, -0.0001550399, 0.004260222, -0.0003595832, 0.0005187925, -0.9999974, -0.001577594, 0.3503954
 241630809, -0.0002441446, 0.0115635, -0.0005122091, 0.00104407, -0.000250881, 0.004240235, 3.421725E-05, 0.0005187925, -0.9999973, -0.00158174, 0.3503954
 241830729, -9.250078E-05, 0.01144948, -0.0002985093, 0.00104407, 0.0003346622, 0.003646511, -0.0001581286, 0.0005187925, -0.9999974, -0.001584686, 0.3503954
 242031482, 0.0003477035, 0.01133116, -0.0001020797, 0.001046232, -1.648903E-05, 0.004282029, -3.35563E-05, 0.0005209541, -0.9999973, -0.001589129, 0.3511209
 242231402, -3.062966E-05, 0.01153005, -5.813339E-05, 0.001046232, -0.0001885545, 0.00474939, 7.669242E-05, 0.0005187925, -0.9999973, -0.001592679, 0.3511209
 242431322, -0.0002913162, 0.01206177, -0.0003458737, 0.00104407, 8.061794E-06, 0.004461975, -0.0002480623, 0.0005187925, -0.9999973, -0.001594796, 0.3503954
 242631242, 8.9451E-06, 0.01185772, -0.0005047566, 0.00104407, 0.0001924585, 0.00376977, 2.721533E-05, 0.0005187925, -0.9999973, -0.001593177, 0.3503954
 242831162, 1.733882E-05, 0.01093962, -0.0003376897, 0.00104407, -0.0002411721, 0.004186395, 4.223803E-05, 0.0005187925, -0.9999973, -0.001593693, 0.3503954
 243031082, -0.0002895519, 0.01176808, -0.0001488138, 0.00104407, 0.0003250749, 0.004108873, 0.0004310767, 0.0005187925, -0.9999973, -0.001593244, 0.3503954
 243231002, 5.897194E-05, 0.01146941, 0.0004477068, 0.00104407, -0.0002297236, 0.004370118, -7.474174E-05, 0.0005187925, -0.9999973, -0.001593751, 0.3503954
 243430922, -0.0001175656, 0.01162614, -0.0002612059, 0.00104407, 0.0004883878, 0.004030341, -3.897537E-05, 0.0005187925, -0.9999973, -0.001593043, 0.3503954
 243630842, 0.0006104469, 0.01171337, -2.495363E-05, 0.00104407, -0.0001366858, 0.004442301, -0.0001240877, 0.0005187925, -0.9999973, -0.001591872, 0.3503954
 243830762, -0.0003085016, 0.01209324, -0.0003061107, 0.00104407, -0.000344869, 0.004485782, 8.108351E-05, 0.0005187925, -0.9999973, -0.001590122, 0.3503954
 244030682, -0.0005268328, 0.01167658, 0.0001147705, 0.00104407, 8.065844E-05, 0.004525858, -0.0001793906, 0.0005187925, -0.9999973, -0.001587299, 0.3503954
 244231435, -0.0004613214, 0.01205714, -0.0004188864, 0.001046232, -0.0001419316, 0.004509202, 0.0001388125, 0.0005209541, -0.9999973, -0.001587942, 0.3511209
 244431355, -6.917055E-05, 0.01197385, -0.0001522671, 0.001046232, 0.000188343, 0.004459113, -0.0001747493, 0.0005187925, -0.9999973, -0.00158478, 0.3511209
 244631275, 9.154704E-05, 0.0119786, -0.0004929918, 0.00104407, 0.0002916768, 0.004351254, 7.443551E-05, 0.0005187925, -0.9999973, -0.00157847, 0.3503954
 244831195, 0.0002145271, 0.01167589, -0.0002230217, 0.00104407, -0.0002582822, 0.00424478, 8.610613E-06, 0.0005187925, -0.9999973, -0.001574001, 0.3503954
 245031115, -0.000358929, 0.01174399, -0.0002002797, 0.00104407, 0.0002550838, 0.00447366, -8.794008E-05, 0.0005187925, -0.9999973, -0.001567394, 0.3503954
 245231035, 0.0005353531, 0.01206673, -0.0001365425, 0.00104407, -0.0003295395, 0.004429189, -3.178993E-05, 0.0005187925, -0.9999973, -0.001562544, 0.3503954
 245430955, -0.0004428428, 0.01183541, -0.0001505714, 0.00104407, -0.000301404, 0.004431847, -0.0005593542, 0.0005187925, -0.9999973, -0.001572022, 0.3503954
 245630875, -0.0007316565, 0.01187157, -0.0006284164, 0.00104407, -0.0002489517, 0.004148867, 0.0002467587, 0.0005187925, -0.9999974, -0.001579734, 0.3503954
 245830795, -0.0003654679, 0.0109707, 0.0001346038, 0.00104407, 0.0001941185, 0.003996225, -0.0004906395, 0.0005187925, -0.9999974, -0.00158671, 0.3503954
 246030715, 0.0006574004, 0.01115252, -0.0006324276, 0.00104407, 0.0004619154, 0.003921898, -0.0003667043, 0.0005187925, -0.9999974, -0.001591508, 0.3503954
 246231468, 0.0005626651, 0.01115455, -0.0005509516, 0.001046232, -0.0004975444, 0.004042262, -0.0002394942, 0.0005209541, -0.9999974, -0.001597185, 0.3511209
 246431388, -0.0005667809, 0.01163533, -0.0009901754, 0.001046232, -1.806901E-05, 0.004038337, -0.0001153282, 0.0005187925, -0.9999973, -0.001602447, 0.3511209
 246631308, 0.0001147482, 0.01154571, -0.0002807734, 0.00104407, 7.173762E-05, 0.00467506, -0.0001707657, 0.0005187925, -0.9999974, -0.001605879, 0.3503954
 246831228, 8.686575E-05, 0.01153936, -0.0003136071, 0.00104407, -0.0001869547, 0.00382045, -0.0006596512, 0.0005187925, -0.9999974, -0.001606586, 0.3503954
 247031148, -0.0002512537, 0.01133548, -0.0006067936, 0.00104407, -4.777115E-05, 0.004392987, 0.0004407288, 0.0005187925, -0.9999974, -0.001608144, 0.3503954
 247231068, -0.0002877847, 0.01186752, 0.0005036391, 0.00104407, 3.339828E-05, 0.004312878, 4.037672E-05, 0.0005187925, -0.9999974, -0.001609294, 0.3503954
 247430988, -0.0001198897, 0.01174121, 4.033978E-05, 0.00104407, -4.154342E-05, 0.004246533, 0.0002671912, 0.0005187925, -0.9999974, -0.001608568, 0.3503954
 247630908, -0.0001638552, 0.01161791, -0.002924107, 0.00104407, -5.134573E-06, 0.004328469, -0.0002566944, 0.0005187925, -0.9999974, -0.001608522, 0.3503954
 247830828, 0.0006947835, 0.01216637, -0.2988257, 0.00104407, 0.0004497422, 0.004674278, -0.1361852, 0.0005187925, -0.9999974, -0.001607158, 0.3503954
 248030748, 0.000261203, 0.01193458, -0.09968553, 0.00104407, -0.0003942958, 0.004021679, 0.06774339, 0.0005187925, -0.9999974, -0.001605082, 0.3503954
 248230668, -0.0007962365, 0.01112496, 0.07127187, 0.00104407, -8.787767E-05, 0.004428546, -0.08447696, 0.0005187925, -0.999998, -0.001609528, 0.3503954
 248431421, -0.004324275, 0.00712974, -1.403584, 0.001046232, -0.005054601, -0.000839764, -0.7415653, 0.0005209541, -0.9999924, -0.001725807, 0.3511209
 248631341, -0.01945996, -0.009025202, -1.287653, 0.001046232, -0.009613643, -0.006321779, -0.126475, 0.0005187925, -0.999975, -0.001900923, 0.3511209
 248831261, -0.02695906, -0.01732605, -0.2473505, 0.00104407, -0.01008648, -0.006131377, -0.08431008, 0.0005187925, -0.9999695, -0.002060495, 0.3503954
 249031181, -0.02591116, -0.01523648, -0.3152293, 0.00104407, -0.008679873, -0.004731451, -0.1473117, 0.0005187925, -0.9999707, -0.002214772, 0.3503954
 249231101, -0.02258723, -0.01084333, -0.3835215, 0.00104407, -0.007424165, -0.003060538, -0.1242695, 0.0005187925, -0.9999729, -0.002367455, 0.3503954
 249431021, -0.01931601, -0.006482453, -0.3109617, 0.00104407, -0.006511258, -0.001522933, -0.1001954, 0.0005187925, -0.9999753, -0.002515016, 0.3503954
 249630941, -0.01655853, -0.002535304, -0.2620209, 0.00104407, -0.005462573, -0.0003713704, -0.08964119, 0.0005187925, -0.9999772, -0.002657918, 0.3503954
 249830861, -0.01371331, 0.0002422809, -0.2346268, 0.00104407, -0.004138217, 0.0005864024, -0.07972384, 0.0005187925, -0.9999789, -0.002802236, 0.3503954
 250030781, -0.01071063, 0.002840149, -0.2068489, 0.00104407, -0.003479185, 0.001598304, -0.0691758, 0.0005187925, -0.9999803, -0.002941755, 0.3503954
 250230701, -0.008489453, 0.005354677, -0.1803825, 0.00104407, -0.002800742, 0.002400458, -0.06072207, 0.0005187925, -0.9999815, -0.003070274, 0.3503954
 250431454, -0.006530262, 0.006960099, -0.1587607, 0.001046232, -0.001791627, 0.002661728, -0.05352922, 0.0005209541, -0.9999817, -0.003180363, 0.3511209
 250631374, -0.004261564, 0.007896681, -0.1392461, 0.001046232, -0.001456825, 0.002798356, -0.04701798, 0.0005187925, -0.9999809, -0.003290748, 0.3511209
 250831294, -0.004106006, 0.007894769, -0.1220726, 0.00104407, -0.001741554, 0.002912958, -0.04079047, 0.0005187925, -0.9999796, -0.003419502, 0.3503954
 251031214, -0.004675807, 0.007837004, -0.105875, 0.00104407, -0.001584059, 0.00280727, -0.03557817, 0.0005187925, -0.9999774, -0.003775365, 0.3503954
 251231134, -0.004482762, 0.007444324, -0.09324475, 0.00104407, -0.001669082, 0.002554993, -0.03208927, 0.0005187925, -0.9999739, -0.004362442, 0.3503954
 251431054, -0.004423602, 0.007331507, -0.0831005, 0.00104407, -0.001413123, 0.002766874, -0.02830935, 0.0005187925, -0.9999702, -0.004969393, 0.3503954
 251630974, -0.004241019, 0.007334981, -0.07324252, 0.00104407, -0.00180559, 0.002758708, -0.02482306, 0.0005187925, -0.9999663, -0.005546378, 0.3503954
 251830894, -0.004386624, 0.007656422, -0.06422155, 0.00104407, -0.001389013, 0.002690867, -0.02161523, 0.0005187925, -0.9999621, -0.006090731, 0.3503954
 252030814, -0.004314046, 0.007344855, -0.05610753, 0.00104407, -0.001792656, 0.002654115, -0.0187732, 0.0005187925, -0.9999579, -0.006605854, 0.3503954
 252230734, -0.004372625, 0.007301563, -0.04902712, 0.00104407, -0.001449955, 0.002827789, -0.01652028, 0.0005187925, -0.9999539, -0.007102796, 0.3503954
 252430654, -0.003838359, 0.00761754, -0.04317195, 0.00104407, -0.001130569, 0.002718068, -0.01481793, 0.0005187925, -0.9999495, -0.007579986, 0.3503954
 252631407, -0.002757153, 0.007427896, -0.03840607, 0.001046232, -0.0005879333, 0.002665895, -0.01307228, 0.0005209541, -0.9999452, -0.008033945, 0.3511209
 252831327, -0.001571429, 0.007548597, -0.03385617, 0.001046232, -0.0008293461, 0.002934489, -0.01132742, 0.0005187925, -0.9999425, -0.008452726, 0.3511209
 253031247, -0.001422033, 0.008700646, -0.02909434, 0.00104407, -0.000257734, 0.003367316, -0.009711735, 0.0005187925, -0.9999406, -0.008840551, 0.3503954
 253231167, -0.0001931663, 0.009787306, -0.02564482, 0.00104407, 0.0002899363, 0.003946721, -0.008631543, 0.0005187925, -0.9999385, -0.00921157, 0.3503954
 253431087, 0.0008003222, 0.01083716, -0.02275394, 0.00104407, 0.0007259162, 0.004229762, -0.007748853, 0.0005187925, -0.9999363, -0.009560599, 0.3503954
 253631007, 0.001625097, 0.01170971, -0.0198852, 0.00104407, 0.0007430108, 0.004426919, -0.006645293, 0.0005187925, -0.9999342, -0.009889764, 0.3503954
 253830927, 0.002141241, 0.01249021, -0.01746242, 0.00104407, 0.0005857624, 0.005040376, -0.006037115, 0.0005187925, -0.9999321, -0.01020033, 0.3503954
 254030847, 0.002260495, 0.01343073, -0.01548628, 0.00104407, 0.0009056432, 0.004475744, -0.005221523, 0.0005187925, -0.99993, -0.01049409, 0.3503954
 254230767, 0.002755033, 0.01295755, -0.01341895, 0.00104407, 0.001317304, 0.005107322, -0.004541072, 0.0005187925, -0.9999279, -0.01077159, 0.3503954
 254430687, 0.003251821, 0.01369173, -0.01174662, 0.00104407, 0.001027717, 0.004717605, -0.003625157, 0.0005187925, -0.9999258, -0.0110329, 0.3503954
 254631440, 0.003200528, 0.01360922, -0.009548654, 0.001046232, 0.001269068, 0.005383775, -0.003126311, 0.0005209541, -0.9999228, -0.01136333, 0.3511209
 254831360, 0.002994856, 0.0144676, -0.008538486, 0.001046232, 0.0008322578, 0.005602498, -0.003085673, 0.0005187925, -0.9999176, -0.01187154, 0.3511209
 255031280, 0.002513626, 0.01468577, 0.01295168, 0.00104407, 0.001035135, 0.005268543, 0.04571925, 0.0005187925, -0.9999115, -0.01238633, 0.3503954
 255231200, 0.002591741, 0.01410423, 0.1160177, 0.00104407, 0.0004978948, 0.005092505, 0.03816818, 0.0005187925, -0.9999029, -0.01303454, 0.3503954
 255431120, 0.003300314, 0.01537166, 0.42086, 0.00104407, 0.002144102, 0.006642056, 0.3818592, 0.0005187925, -0.999894, -0.01368651, 0.3503954
 255631040, 0.005729069, 0.01772028, 0.991011, 0.00104407, 0.002000921, 0.006496071, 0.3329257, 0.0005187925, -0.9998851, -0.01429948, 0.3503954
 255830960, 0.004814931, 0.01709681, 0.866057, 0.00104407, 0.001379168, 0.00631482, 0.2920128, 0.0005187925, -0.9998762, -0.01488108, 0.3503954
 256030880, 0.003646133, 0.01649179, 0.7602776, 0.00104407, 0.001283234, 0.005691832, 0.2568096, 0.0005187925, -0.9998676, -0.01542799, 0.3503954
 256230800, 0.002632132, 0.01504898, 0.6241811, 0.00104407, 0.0007078273, 0.005164046, 0.1710253, 0.0005187925, -0.9998627, -0.0157993, 0.3503954
 256430720, 0.006744603, 0.01727516, 0.4216305, 0.00104407, 0.005530095, 0.008587124, 0.1317042, 0.0005187925, -0.9998707, -0.01601238, 0.3503954
 256631473, 0.02106376, 0.02669278, 0.33891, 0.001046232, 0.01055966, 0.01142737, 0.1139827, 0.0005209541, -0.9998677, -0.01619137, 0.3511209
 256831393, 0.02912953, 0.03207183, 0.301558, 0.001046232, 0.01042988, 0.01163986, 0.106022, 0.0005187925, -0.9998604, -0.01646862, 0.3511209
 257031313, 0.02532457, 0.0334226, 0.2916023, 0.00104407, 0.007232403, 0.01332477, 0.1071458, 0.0005187925, -0.9998432, -0.01687585, 0.3503954
 257231233, 0.0185261, 0.03986209, 0.2924733, 0.00104407, 0.006192506, 0.01678442, 0.1029275, 0.0005187925, -0.999802, -0.01740345, 0.3503954
 257431153, 0.01714163, 0.04746404, 0.2694514, 0.00104407, 0.006076621, 0.01802177, 0.09062473, 0.0005187925, -0.9997612, -0.01802723, 0.3503954
 257631073, 0.01659037, 0.04923211, 0.2308234, 0.00104407, 0.005975149, 0.01771544, 0.07468973, 0.0005187925, -0.9997383, -0.01858466, 0.3503954
 257830993, 0.01444752, 0.04659785, 0.1875292, 0.00104407, 0.004254202, 0.01583805, 0.05919145, 0.0005187925, -0.9997323, -0.01906742, 0.3503954
 258030913, 0.009982717, 0.04107046, 0.1465441, 0.00104407, 0.003061484, 0.01365487, 0.04523677, 0.0005187925, -0.9997343, -0.01945998, 0.3503954
 258230833, 0.006448076, 0.03531684, 0.1111514, 0.00104407, 0.001577, 0.01183936, 0.03404027, 0.0005187925, -0.9997376, -0.01979278, 0.3503954
 258430753, 0.003261702, 0.0302201, 0.08271756, 0.00104407, 0.0006815214, 0.009923253, 0.02461733, 0.0005187925, -0.9997426, -0.02011623, 0.3503954
 258630673, 0.001487524, 0.0249248, 0.05945713, 0.00104407, 3.660588E-05, 0.007989435, 0.01710474, 0.0005187925, -0.9997485, -0.02046081, 0.3503954
 258831426, 0.0003378743, 0.01957232, 0.04175828, 0.001046232, 0.0003895145, 0.006391988, 0.01185238, 0.0005209541, -0.9997529, -0.02083069, 0.3511209
 259031346, 0.0005265251, 0.01499224, 0.0294926, 0.001046232, -0.0001686118, 0.004679436, 0.008260018, 0.0005187925, -0.9997522, -0.02123381, 0.3511209
 259231266, -0.0009840123, 0.01128879, 0.0207063, 0.00104407, -0.0005780435, 0.003392244, 0.005883514, 0.0005187925, -0.9997481, -0.02166269, 0.3503954
 259431186, -0.001440776, 0.008851702, 0.01481746, 0.00104407, -0.0006808299, 0.002960081, 0.004410819, 0.0005187925, -0.999742, -0.02213442, 0.3503954
 259631106, -0.001589055, 0.006829002, 0.01128495, 0.00104407, -0.0007507277, 0.002058218, 0.00380195, 0.0005187925, -0.9997365, -0.02258435, 0.3503954
 259831026, -0.001363578, 0.004669904, 0.008963038, 0.00104407, -0.0003747384, 0.001375015, 0.002009286, 0.0005187925, -0.9997308, -0.02297627, 0.3503954
 260030946, -0.0008988511, 0.003248961, 0.005407435, 0.00104407, -0.0001855033, 0.0007910946, 0.0007237924, 0.0005187925, -0.9997245, -0.02331782, 0.3503954
 260230866, -0.0003552673, 0.002386599, 0.003410655, 0.00104407, -0.0002000185, 0.001126818, 0.0009994536, 0.0005187925, -0.9997172, -0.02367483, 0.3503954
 260430786, -0.0002285815, 0.002851516, 0.003031437, 0.00104407, -4.45873E-05, 0.001136676, 0.0002217097, 0.0005187925, -0.9997085, -0.02405132, 0.3503954
 260630706, -3.703036E-05, 0.003474534, 0.001757799, 0.00104407, -0.0002708771, 0.001904027, 0.0003598466, 0.0005187925, -0.9996995, -0.02440576, 0.3503954
 260831459, -0.0007840858, 0.00514312, 0.001243976, 0.001046232, -4.760315E-06, 0.001974779, 0.0003732062, 0.0005209541, -0.9996901, -0.02479862, 0.3511209
 261031379, -4.943769E-05, 0.005063848, 0.0008081426, 0.001046232, 4.417554E-05, 0.00187699, -2.579847E-06, 0.0005187925, -0.9996804, -0.02521222, 0.3511209
 261231299, 0.001359317, 0.005279389, 0.0005520589, 0.00104407, 0.0009890508, 0.002056212, 0.0001836888, 0.0005187925, -0.9996703, -0.02561418, 0.3503954
 261431219, 0.00317594, 0.006272938, 0.0002465989, 0.00104407, 0.001391531, 0.002898988, 0.0001216056, 0.0005187925, -0.9996589, -0.02602035, 0.3503954
 261631139, 0.00325086, 0.008039999, -0.000623332, 0.00104407, 0.0008119091, 0.002963497, -0.001318212, 0.0005187925, -0.9996476, -0.02643757, 0.3503954
 261831059, 0.002250955, 0.008225147, -0.002476761, 0.00104407, 0.0006539606, 0.003186281, -0.001206478, 0.0005187925, -0.9996361, -0.02688224, 0.3503954
 262030979, 0.001804463, 0.008729941, -0.002854361, 0.00104407, 0.0002923814, 0.003200809, -0.001212404, 0.0005187925, -0.9996251, -0.02728297, 0.3503954
 262230899, 0.001078933, 0.009214323, -0.002481165, 0.00104407, 0.0004344219, 0.003492284, -0.0007950271, 0.0005187925, -0.9996145, -0.02766347, 0.3503954
 262430819, 0.0009720104, 0.009329453, -0.002092601, 0.00104407, 0.0002742237, 0.003421381, -0.00107916, 0.0005187925, -0.9996039, -0.0280697, 0.3503954
 262630739, 0.00139665, 0.009964963, -0.002209195, 0.00104407, 0.0007068347, 0.004132828, -0.001248658, 0.0005187925, -0.9995908, -0.02842524, 0.3503954
 262830659, 0.002404229, 0.0132049, -0.002617594, 0.00104407, 0.0008616542, 0.005756331, -0.001305728, 0.0005187925, -0.9995749, -0.02880793, 0.3503954
 263031412, 0.001763814, 0.01636945, -0.002374169, 0.001046232, 0.000471143, 0.006184944, -0.0007171154, 0.0005209541, -0.9995584, -0.02927185, 0.3511209
 263231332, 0.001200626, 0.0171307, -0.002025631, 0.001046232, 6.176194E-05, 0.006340833, -0.0005904625, 0.0005187925, -0.9995446, -0.02967065, 0.3511209
 263431252, 0.0008530324, 0.01737656, -0.001503696, 0.00104407, 1.609672E-05, 0.006273479, -0.0006916067, 0.0005187925, -0.9995322, -0.03002929, 0.3503954
 263631172, 0.0007732734, 0.01709387, -0.001932494, 0.00104407, 0.0006888792, 0.006065456, -0.0005345017, 0.0005187925, -0.9995196, -0.03037813, 0.3503954
 263831092, 0.001712145, 0.01727086, -0.00158302, 0.00104407, 0.0001842873, 0.006550499, -0.0008134745, 0.0005187925, -0.9995059, -0.03074073, 0.3503954
 264031012, 0.0006947501, 0.01774905, -0.001931824, 0.00104407, 0.0004655927, 0.006455217, -0.0006596859, 0.0005187925, -0.9994914, -0.03114197, 0.3503954
 264230932, 0.001320405, 0.01745499, -0.001829439, 0.00104407, 0.0001981504, 0.006068355, -0.0008335902, 0.0005187925, -0.9994768, -0.0315529, 0.3503954
 264430852, 0.00119123, 0.01711196, -0.001565936, 0.00104407, 0.0001184458, 0.006634682, -0.0008540956, 0.0005187925, -0.9994626, -0.03191955, 0.3503954
 264630772, 0.0008731431, 0.01754167, -0.001483484, 0.00104407, 0.000388273, 0.006260967, -0.0002594338, 0.0005187925, -0.9994482, -0.03228534, 0.3503954
 264830692, 0.001307082, 0.01731975, -0.0009255688, 0.00104407, 0.0002677508, 0.006202789, -0.0005600189, 0.0005187925, -0.9994323, -0.03265832, 0.3503954
 265031445, 0.0008919107, 0.01752309, -0.001116002, 0.001046232, 0.000686283, 0.006309562, -0.0003596707, 0.0005209541, -0.9994158, -0.03304518, 0.3511209
 265231365, 0.001430133, 0.01767623, -0.0009177566, 0.001046232, 0.0004617565, 0.006558617, -0.0006425515, 0.0005187925, -0.9993993, -0.0334111, 0.3511209
 265431285, 0.0009837358, 0.01789921, -0.001228318, 0.00104407, 0.0002277916, 0.006352003, -0.0005398497, 0.0005187925, -0.9993832, -0.03376359, 0.3503954
 265631205, 0.001038602, 0.01783787, -0.001258075, 0.00104407, 9.312432E-05, 0.006530454, -0.0002344242, 0.0005187925, -0.9993672, -0.03410019, 0.3503954
 265831125, 0.0008534559, 0.01805967, -0.000942884, 0.00104407, 0.0001507345, 0.006933405, -0.0008123008, 0.0005187925, -0.9993492, -0.03443316, 0.3503954
 266031045, 0.00120815, 0.01877993, -0.001277857, 0.00104407, 0.0006057045, 0.00689494, -0.0002998297, 0.0005187925, -0.9993304, -0.03480865, 0.3503954
 266230965, 0.001541456, 0.0186369, -0.001244201, 0.00104407, 0.0005575753, 0.006847273, -0.0001904679, 0.0005187925, -0.9993107, -0.03521008, 0.3503954
 266430885, 0.001518487, 0.01872339, -0.0006710919, 0.00104407, 0.0007714758, 0.006398326, -0.0005362843, 0.0005187925, -0.999294, -0.03556451, 0.3503954
 266630805, 0.001416918, 0.01756469, -0.001115692, 0.00104407, 0.0001713826, 0.006106873, -0.0003263348, 0.0005187925, -0.9992796, -0.03587336, 0.3503954
 266830725, 0.0005593126, 0.01709885, -0.0006229698, 0.00104407, 0.0001157163, 0.006451994, -7.446405E-06, 0.0005187925, -0.9992615, -0.03618069, 0.3503954
 267031478, 0.0003994911, 0.01799206, -0.0008047799, 0.001046232, 0.0003243588, 0.006576417, -0.0003611407, 0.0005209541, -0.9992402, -0.03650524, 0.3511209
 267231398, 0.0007064622, 0.01823945, -0.0007040092, 0.001046232, -9.51099E-05, 0.006762065, -0.0001082869, 0.0005187925, -0.9992196, -0.03687275, 0.3511209
 267431318, -9.752726E-05, 0.01812849, -0.0006117327, 0.00104407, -6.094444E-05, 0.006396885, -0.0001114649, 0.0005187925, -0.9991976, -0.03724084, 0.3503954
 267631238, -0.0001144636, 0.01790013, -0.0002618911, 0.00104407, -0.0002444376, 0.00682241, -0.0001384098, 0.0005187925, -0.9991728, -0.03758385, 0.3503954
 267831158, -9.662572E-05, 0.01896426, -0.0007809696, 0.00104407, 0.0002068898, 0.006879956, -0.0002017585, 0.0005187925, -0.9991503, -0.03789534, 0.3503954
 268031078, 0.0004980962, 0.01875105, -0.0007856787, 0.00104407, 0.0002653278, 0.006769979, -0.0002920187, 0.0005187925, -0.9991332, -0.03817626, 0.3503954
 268230998, 0.0004113993, 0.01807604, -0.0004714845, 0.00104407, 0.0002512342, 0.006480616, -4.490962E-05, 0.0005187925, -0.9991195, -0.03845516, 0.3503954
 268430918, 0.0003057121, 0.01676134, -0.0006077921, 0.00104407, -0.0001526484, 0.005914885, -0.0003355662, 0.0005187925, -0.9991023, -0.03869199, 0.3503954
 268630838, 0.0003076858, 0.0167597, -0.0007309695, 0.00104407, 0.0006056289, 0.006568226, -0.0001652331, 0.0005187925, -0.9990767, -0.03888427, 0.3503954
 268830758, 0.001115106, 0.01806036, -0.0002899893, 0.00104407, 0.0003306524, 0.006763815, -0.0001089304, 0.0005187925, -0.9990509, -0.03905997, 0.3503954
 269030678, 0.001282605, 0.01934331, -0.0005242802, 0.00104407, 0.0004445341, 0.007596886, -0.0002938799, 0.0005187925, -0.9990196, -0.03924196, 0.3503954
 269231431, 0.001323639, 0.0208952, -0.000437901, 0.001046232, 0.0003893336, 0.007459165, -7.529068E-05, 0.0005209541, -0.9989932, -0.0394742, 0.3511209
 269431351, 0.001048966, 0.02027834, -0.0001796322, 0.001046232, 0.0001046497, 0.006790907, -0.0003068471, 0.0005187925, -0.9989751, -0.03978613, 0.3511209
 269631271, 0.0003869155, 0.01827214, -0.0002021529, 0.00104407, 8.43301E-05, 0.006276986, -0.0001541987, 0.0005187925, -0.9989589, -0.04016692, 0.3503954
 269831191, 0.0002866798, 0.01642058, -0.0002184339, 0.00104407, 0.0001818693, 0.005594533, 0.0002882734, 0.0005187925, -0.9989405, -0.04056505, 0.3503954
 270031111, 0.0003850107, 0.01553477, 0.0002945735, 0.00104407, 0.0001809722, 0.005694096, -0.000268576, 0.0005187925, -0.9989066, -0.04089815, 0.3503954
 270231031, 0.0006090547, 0.01654504, -0.0002216369, 0.00104407, 0.0002272354, 0.006754863, -0.000110203, 0.0005187925, -0.9988641, -0.04119168, 0.3503954
 270430951, 0.00105288, 0.01877273, -0.0002027558, 0.00104407, 0.0005880104, 0.006681761, -0.0002044063, 0.0005187925, -0.9988226, -0.04146208, 0.3503954
 270630871, 0.001781043, 0.01961228, -0.0003775601, 0.00104407, 0.0005772376, 0.007518978, -5.954624E-05, 0.0005187925, -0.9987829, -0.04170866, 0.3503954
 270830791, 0.00212154, 0.0204401, -6.730128E-05, 0.00104407, 0.0008110466, 0.007074213, -2.839621E-05, 0.0005187925, -0.9987543, -0.04196653, 0.3503954
 271030711, 0.002261135, 0.01901556, -0.0002511998, 0.00104407, 0.0005950514, 0.006529998, -0.0001345215, 0.0005187925, -0.9987398, -0.04223916, 0.3503954
 271231464, 0.001195906, 0.01745989, -0.0003037882, 0.001046232, 3.750615E-05, 0.006206705, 8.774306E-05, 0.0005209541, -0.9987189, -0.04251364, 0.3511209
 271431384, -0.0009957227, 0.01695581, -8.445141E-05, 0.001046232, -0.0007890568, 0.006484257, -7.178295E-05, 0.0005187925, -0.9986805, -0.0427963, 0.3511209
 271631304, -0.002340327, 0.01731924, -0.0002863, 0.00104407, -0.0009093178, 0.006123889, 1.382232E-07, 0.0005187925, -0.9986399, -0.04305571, 0.3503954
 271831224, -0.001841663, 0.01740981, 3.45927E-06, 0.00104407, -0.0005304829, 0.006640137, 0.0001243487, 0.0005187925, -0.9986005, -0.04329044, 0.3503954
 272031144, -0.0001919586, 0.01789733, 0.0003342173, 0.00104407, 0.0003737444, 0.006419546, 0.0003382319, 0.0005187925, -0.9985621, -0.04353299, 0.3503954
 272231064, 0.001594049, 0.01788149, 0.0002796271, 0.00104407, 0.0007711125, 0.006633699, 0.0001814843, 0.0005187925, -0.9985235, -0.04380437, 0.3503954
 272430984, 0.001679563, 0.01791801, 0.0001232119, 0.00104407, 0.000329195, 0.006198795, -1.474862E-05, 0.0005187925, -0.9984881, -0.04404744, 0.3503954
 272630904, 0.0007624289, 0.01745535, -5.325299E-06, 0.00104407, -0.0003292141, 0.006584936, -4.932457E-05, 0.0005187925, -0.9984477, -0.04425259, 0.3503954
 272830824, -0.000170059, 0.01774623, -5.310441E-05, 0.00104407, -1.177983E-05, 0.006626099, -0.0002534436, 0.0005187925, -0.9984127, -0.04440435, 0.3503954
 273030744, 0.0003897901, 0.01735785, -0.0002820091, 0.00104407, 0.0005037884, 0.006045935, -0.0004648411, 0.0005187925, -0.9983794, -0.0445345, 0.3503954
 273230664, 0.0005944318, 0.01697467, -0.000344563, 0.00104407, 0.0001715924, 0.006312871, -4.866322E-05, 0.0005187925, -0.9983355, -0.0447039, 0.3503954
