TimeUS,COFN,COFE,COFD,CNe,CEe,CDe,POFN,POFE,POFD,PNe,PEe,PDe
 196075705, -0.00648198, -0.001736643, -0.002615935, 0.02620838, -0.02646387, 5.847134E-05, 0, 0, 0, 0, 0, 0
 196135681, -0.005030674, -0.01208979, -2.826127E-05, 0.02549495, -0.02733386, 0.4000058, -0.00648198, -0.001736643, -0.002615935, 0.02620838, -0.02646387, 5.847134E-05
 196236474, 0.007115088, -0.0140973, -8.844861E-06, 0.02576943, -0.02738403, 0.4000061, -0.005030674, -0.01208979, -2.826127E-05, 0.02549495, -0.02733386, 0.4000058
 196336434, -0.0007870514, 0.01771595, 2.625894E-05, 0.02558764, -0.0266886, 0.4000069, 0.007115088, -0.0140973, -8.844861E-06, 0.02576943, -0.02738403, 0.4000061
 196436394, -0.01689952, 0.008477898, -1.819349E-05, 0.02525689, -0.02687006, 0.4000061, -0.0007870514, 0.01771595, 2.625894E-05, 0.02558764, -0.0266886, 0.4000069
 196536354, 0.01382098, -0.009368198, 1.116175E-05, 0.02592701, -0.02726931, 0.4000069, -0.01689952, 0.008477898, -1.819349E-05, 0.02525689, -0.02687006, 0.4000061
 196636314, 0.00811283, -0.00397821, 8.999614E-06, 0.02578401, -0.02714279, 0.400007, 0.01382098, -0.009368198, 1.116175E-05, 0.02592701, -0.02726931, 0.4000069
 196736274, 0.02261154, -0.00806545, 2.984636E-05, 0.02615129, -0.02723959, 0.4000075, 0.00811283, -0.00397821, 8.999614E-06, 0.02578401, -0.02714279, 0.400007
 196836234, 0.01257039, 0.01819866, 5.232766E-05, 0.02589135, -0.02668341, 0.4000079, 0.02261154, -0.00806545, 2.984636E-05, 0.02615129, -0.02723959, 0.4000075
 196936194, -0.01047011, -0.01144526, -3.77999E-05, 0.02537415, -0.02732417, 0.4000058, 0.01257039, 0.01819866, 5.232766E-05, 0.02589135, -0.02668341, 0.4000079
 197036154, -0.00746101, -0.02464069, -5.312983E-05, 0.02543536, -0.02766832, 0.4000052, -0.01047011, -0.01144526, -3.77999E-05, 0.02537415, -0.02732417, 0.4000058
 197136114, -0.02214549, 0.01611476, -1.617453E-05, 0.02515231, -0.02672721, 0.4000062, -0.00746101, -0.02464069, -5.312983E-05, 0.02543536, -0.02766832, 0.4000052
 197236074, 0.02486857, 0.01684708, 7.374157E-05, 0.02620992, -0.02671466, 0.4000082, -0.02214549, 0.01611476, -1.617453E-05, 0.02515231, -0.02672721, 0.4000062
 197336034, 0.004536418, -0.01086836, -8.814621E-06, 0.02569962, -0.02731612, 0.4000059, 0.02486857, 0.01684708, 7.374157E-05, 0.02620992, -0.02671466, 0.4000082
 197435994, -0.02313381, -0.02068001, -7.658605E-05, 0.02513828, -0.02756878, 0.4000042, 0.004536418, -0.01086836, -8.814621E-06, 0.02569962, -0.02731612, 0.4000059
 197535954, -0.006783534, -0.009343766, -2.774318E-05, 0.02545202, -0.02728269, 0.4000052, -0.02313381, -0.02068001, -7.658605E-05, 0.02513828, -0.02756878, 0.4000042
 197635914, -0.01337414, -0.004307829, -3.205827E-05, 0.02531866, -0.02716449, 0.4000051, -0.006783534, -0.009343766, -2.774318E-05, 0.02545202, -0.02728269, 0.4000052
 197735874, -0.01414913, -0.006630367, -3.731195E-05, 0.02530256, -0.02722009, 0.400005, -0.01337414, -0.004307829, -3.205827E-05, 0.02531866, -0.02716449, 0.4000051
 197835834, -0.01873022, -0.008295685, -4.869611E-05, 0.02521496, -0.02726095, 0.4000047, -0.01414913, -0.006630367, -3.731195E-05, 0.02530256, -0.02722009, 0.400005
 197935794, -0.01404767, 0.007768593, -1.400697E-05, 0.02530189, -0.02690201, 0.4000056, -0.01873022, -0.008295685, -4.869611E-05, 0.02521496, -0.02726095, 0.4000047
 198035754, -0.002640904, -0.02518791, -4.561056E-05, 0.02553462, -0.02769298, 0.4000049, -0.01404767, 0.007768593, -1.400697E-05, 0.02530189, -0.02690201, 0.4000056
 198135714, 0.006963532, -0.01598729, -1.271915E-05, 0.0257542, -0.02745201, 0.4000055, -0.002640904, -0.02518791, -4.561056E-05, 0.02553462, -0.02769298, 0.4000049
 198235674, -0.02104901, 0.01951163, -7.977938E-06, 0.02517288, -0.02667802, 0.4000053, 0.006963532, -0.01598729, -1.271915E-05, 0.0257542, -0.02745201, 0.4000055
 198336467, 0.02235784, 0.002317953, 4.580469E-05, 0.02614638, -0.02702539, 0.4000062, -0.02104901, 0.01951163, -7.977938E-06, 0.02517288, -0.02667802, 0.4000053
 198436427, 0.02100493, -0.02271394, 2.111174E-06, 0.02611288, -0.02763633, 0.4000048, 0.02235784, 0.002317953, 4.580469E-05, 0.02614638, -0.02702539, 0.4000062
 198536387, 0.008138929, 0.00698557, 2.662835E-05, 0.02578987, -0.02692622, 0.4000055, 0.02100493, -0.02271394, 2.111174E-06, 0.02611288, -0.02763633, 0.4000048
 198636347, -0.007101696, 0.005190012, -4.806801E-06, 0.0254507, -0.02696159, 0.4000048, 0.008138929, 0.00698557, 2.662835E-05, 0.02578987, -0.02692622, 0.4000055
 198736307, -0.01709114, 0.0220686, 3.978857E-06, 0.02525473, -0.02663099, 0.400005, -0.007101696, 0.005190012, -4.806801E-06, 0.0254507, -0.02696159, 0.4000048
 198836267, 0.00337957, -0.0003072675, 5.787726E-06, 0.02568223, -0.02707813, 0.4000051, -0.01709114, 0.0220686, 3.978857E-06, 0.02525473, -0.02663099, 0.400005
 198936227, -0.02299241, 0.01516455, -1.828055E-05, 0.02514884, -0.02675463, 0.4000048, 0.00337957, -0.0003072675, 5.787726E-06, 0.02568223, -0.02707813, 0.4000051
 199036187, -0.02044013, -0.02142447, -7.236825E-05, 0.02519434, -0.02758892, 0.4000037, -0.02299241, 0.01516455, -1.828055E-05, 0.02514884, -0.02675463, 0.4000048
 199136147, -0.005174753, 0.0114972, 8.796751E-06, 0.0254935, -0.02682218, 0.4000056, -0.02044013, -0.02142447, -7.236825E-05, 0.02519434, -0.02758892, 0.4000037
 199236107, 0.01904198, -0.004272745, 2.859425E-05, 0.02606573, -0.02716029, 0.4000062, -0.005174753, 0.0114972, 8.796751E-06, 0.0254935, -0.02682218, 0.4000056
 199336067, 0.0207851, -0.009656413, 2.322401E-05, 0.02611154, -0.02728772, 0.4000061, 0.01904198, -0.004272745, 2.859425E-05, 0.02606573, -0.02716029, 0.4000062
 199436027, -0.00160652, -0.01395404, -2.530674E-05, 0.02556967, -0.02739347, 0.400005, 0.0207851, -0.009656413, 2.322401E-05, 0.02611154, -0.02728772, 0.4000061
 199535987, -0.01522065, -0.003129303, -3.341178E-05, 0.0252878, -0.02713269, 0.4000051, -0.00160652, -0.01395404, -2.530674E-05, 0.02556967, -0.02739347, 0.400005
 199635947, 0.02233824, 0.01966314, 7.316945E-05, 0.02614737, -0.02666303, 0.4000077, -0.01522065, -0.003129303, -3.341178E-05, 0.0252878, -0.02713269, 0.4000051
 199735907, -0.0215705, 0.01333244, -1.910737E-05, 0.02516923, -0.02678217, 0.4000056, 0.02233824, 0.01966314, 7.316945E-05, 0.02614737, -0.02666303, 0.4000077
 199835867, -0.02333405, 0.0237432, -5.761725E-06, 0.02513916, -0.02658988, 0.4000058, -0.0215705, 0.01333244, -1.910737E-05, 0.02516923, -0.02678217, 0.4000056
 199935827, -0.01722711, 0.01821385, -3.290555E-06, 0.02524946, -0.02668683, 0.400006, -0.02333405, 0.0237432, -5.761725E-06, 0.02513916, -0.02658988, 0.4000058
 200035787, 0.01537252, 0.006310529, 3.869307E-05, 0.02596792, -0.02691955, 0.4000072, -0.01722711, 0.01821385, -3.290555E-06, 0.02524946, -0.02668683, 0.400006
 200135747, -0.024557, 0.007548512, -3.390482E-05, 0.02511793, -0.02689453, 0.4000055, 0.01537252, 0.006310529, 3.869307E-05, 0.02596792, -0.02691955, 0.4000072
 200235707, 0.0230478, 0.01609212, 6.847358E-05, 0.02616984, -0.02672593, 0.4000077, -0.024557, 0.007548512, -3.390482E-05, 0.02511793, -0.02689453, 0.4000055
 200335667, 0.00750185, -0.01375913, -7.855615E-06, 0.02577798, -0.02738292, 0.4000057, 0.0230478, 0.01609212, 6.847358E-05, 0.02616984, -0.02672593, 0.4000077
 200436460, -0.01435289, -0.005372555, -3.511849E-05, 0.02530966, -0.02717977, 0.400005, 0.00750185, -0.01375913, -7.855615E-06, 0.02577798, -0.02738292, 0.4000057
 200536420, -0.02457494, -0.002228803, -4.92353E-05, 0.02512015, -0.0271049, 0.4000051, -0.01435289, -0.005372555, -3.511849E-05, 0.02530966, -0.02717977, 0.400005
 200636380, -0.01235253, 0.004987153, -1.522487E-05, 0.02534352, -0.02694403, 0.4000061, -0.02457494, -0.002228803, -4.92353E-05, 0.02512015, -0.0271049, 0.4000051
 200736340, -0.01915337, 0.003695327, -2.996283E-05, 0.02521414, -0.02697023, 0.400006, -0.01235253, 0.004987153, -1.522487E-05, 0.02534352, -0.02694403, 0.4000061
 200836300, 0.01151174, -0.02299223, -1.447597E-05, 0.02587218, -0.02761444, 0.4000063, -0.01915337, 0.003695327, -2.996283E-05, 0.02521414, -0.02697023, 0.400006
 200936260, -0.005117025, 0.02446864, 2.855818E-05, 0.02548875, -0.02656394, 0.4000075, 0.01151174, -0.02299223, -1.447597E-05, 0.02587218, -0.02761444, 0.4000063
 201036220, -0.004117732, -0.0171013, -3.429588E-05, 0.02550732, -0.02745461, 0.4000065, -0.005117025, 0.02446864, 2.855818E-05, 0.02548875, -0.02656394, 0.4000075
 201136180, 0.02157428, 0.02111195, 7.343449E-05, 0.02612264, -0.02662039, 0.4000091, -0.004117732, -0.0171013, -3.429588E-05, 0.02550732, -0.02745461, 0.4000065
 201236140, -0.0215125, -0.01397544, -6.230935E-05, 0.02516291, -0.02737477, 0.4000062, 0.02157428, 0.02111195, 7.343449E-05, 0.02612264, -0.02662039, 0.4000091
 201336100, -0.0189506, -0.01954699, -6.617712E-05, 0.02520927, -0.02751879, 0.400006, -0.0215125, -0.01397544, -6.230935E-05, 0.02516291, -0.02737477, 0.4000062
 201436060, 0.004683281, 0.01879744, 3.813199E-05, 0.02570016, -0.02666434, 0.4000083, -0.0189506, -0.01954699, -6.617712E-05, 0.02520927, -0.02751879, 0.400006
 201536020, -0.01361102, -0.0227309, -6.11834E-05, 0.02530895, -0.02760473, 0.4000061, 0.004683281, 0.01879744, 3.813199E-05, 0.02570016, -0.02666434, 0.4000083
 201635980, -0.02520641, -0.01304901, -6.812662E-05, 0.02509567, -0.02735435, 0.4000061, -0.01361102, -0.0227309, -6.11834E-05, 0.02530895, -0.02760473, 0.4000061
 201735940, -0.01694254, -0.02314051, -6.823946E-05, 0.02524284, -0.02761574, 0.4000061, -0.02520641, -0.01304901, -6.812662E-05, 0.02509567, -0.02735435, 0.4000061
 201835900, 0.01355353, 0.02243806, 6.074507E-05, 0.02590934, -0.02659868, 0.400009, -0.01694254, -0.02314051, -6.823946E-05, 0.02524284, -0.02761574, 0.4000061
 201935860, -0.02545991, 0.02285239, -1.270974E-05, 0.02508952, -0.02659263, 0.4000073, 0.01355353, 0.02243806, 6.074507E-05, 0.02590934, -0.02659868, 0.400009
 202035820, 0.02462573, 0.02370496, 8.395231E-05, 0.02619909, -0.02657977, 0.4000093, -0.02545991, 0.02285239, -1.270974E-05, 0.02508952, -0.02659263, 0.4000073
 202135780, 0.01462277, 0.01022974, 4.393252E-05, 0.02593622, -0.02683592, 0.4000083, 0.02462573, 0.02370496, 8.395231E-05, 0.02619909, -0.02657977, 0.4000093
 202235740, -0.00846323, 0.008905718, -2.029135E-06, 0.0254072, -0.02686614, 0.4000071, 0.01462277, 0.01022974, 4.393252E-05, 0.02593622, -0.02683592, 0.4000083
 202335700, 0.01396081, -0.007428417, 1.48645E-05, 0.02591754, -0.0272276, 0.4000075, -0.00846323, 0.008905718, -2.029135E-06, 0.0254072, -0.02686614, 0.4000071
 202435660, -0.007437942, 0.01036716, 2.246304E-06, 0.02542678, -0.02683782, 0.4000072, 0.01396081, -0.007428417, 1.48645E-05, 0.02591754, -0.0272276, 0.4000075
 202536453, 0.01279258, 0.02126711, 5.814754E-05, 0.02588841, -0.02663009, 0.4000084, -0.007437942, 0.01036716, 2.246304E-06, 0.02542678, -0.02683782, 0.4000072
 202636413, 0.02056731, 0.009055033, 5.3629E-05, 0.0260878, -0.02686454, 0.4000083, 0.01279258, 0.02126711, 5.814754E-05, 0.02588841, -0.02663009, 0.4000084
 202736373, -0.0176532, -0.01184829, -5.249833E-05, 0.02522746, -0.02733627, 0.4000058, 0.02056731, 0.009055033, 5.3629E-05, 0.0260878, -0.02686454, 0.4000083
 202836333, -0.01075166, -0.006795368, -3.131352E-05, 0.02536165, -0.02721547, 0.4000062, -0.0176532, -0.01184829, -5.249833E-05, 0.02522746, -0.02733627, 0.4000058
 202936293, -0.02084349, 0.01434272, -1.669938E-05, 0.02517044, -0.02676488, 0.4000063, -0.01075166, -0.006795368, -3.131352E-05, 0.02536165, -0.02721547, 0.4000062
 203036253, -0.01989864, 0.01935477, -6.677285E-06, 0.0251885, -0.02667357, 0.4000062, -0.02084349, 0.01434272, -1.669938E-05, 0.02517044, -0.02676488, 0.4000063
 203136213, 0.01525582, 0.02545181, 7.001047E-05, 0.02595263, -0.02656575, 0.4000079, -0.01989864, 0.01935477, -6.677285E-06, 0.0251885, -0.02667357, 0.4000062
 203236173, 0.01635173, 0.00929633, 4.612398E-05, 0.02597987, -0.02686773, 0.4000075, 0.01525582, 0.02545181, 7.001047E-05, 0.02595263, -0.02656575, 0.4000079
 203336133, -0.005919766, 0.02398226, 2.733679E-05, 0.02546017, -0.02659116, 0.400007, 0.01635173, 0.00929633, 4.612398E-05, 0.02597987, -0.02686773, 0.4000075
 203436093, 0.01583302, 0.02527288, 7.101436E-05, 0.02596463, -0.02656973, 0.400008, -0.005919766, 0.02398226, 2.733679E-05, 0.02546017, -0.02659116, 0.400007
 203536053, -0.0197524, 0.0244506, 1.863758E-06, 0.02518778, -0.02658648, 0.4000063, 0.01583302, 0.02527288, 7.101436E-05, 0.02596463, -0.02656973, 0.400008
 203636013, -0.007966609, -0.007819874, -2.795642E-05, 0.02541622, -0.02725228, 0.4000055, -0.0197524, 0.0244506, 1.863758E-06, 0.02518778, -0.02658648, 0.4000063
 203735973, -0.02295566, -0.01509292, -6.843769E-05, 0.02512997, -0.0274311, 0.4000047, -0.007966609, -0.007819874, -2.795642E-05, 0.02541622, -0.02725228, 0.4000055
 203835933, 0.02095151, -0.01530944, 1.515287E-05, 0.02609752, -0.02743644, 0.4000065, -0.02295566, -0.01509292, -6.843769E-05, 0.02512997, -0.0274311, 0.4000047
 203935893, 0.005156211, 0.00246995, 1.383769E-05, 0.02570581, -0.02701538, 0.4000065, 0.02095151, -0.01530944, 1.515287E-05, 0.02609752, -0.02743644, 0.4000065
 204035853, -0.02147775, 0.01995555, -8.684852E-06, 0.02515938, -0.02666388, 0.4000061, 0.005156211, 0.00246995, 1.383769E-05, 0.02570581, -0.02701538, 0.4000065
 204135813, 0.0001695132, 0.0209238, 3.401859E-05, 0.02559618, -0.02664523, 0.4000069, -0.02147775, 0.01995555, -8.684852E-06, 0.02515938, -0.02666388, 0.4000061
 204235773, -0.0006209483, -0.02311668, -3.833051E-05, 0.02558075, -0.02763326, 0.4000052, 0.0001695132, 0.0209238, 3.401859E-05, 0.02559618, -0.02664523, 0.4000069
 204335733, 0.01225947, 0.009804106, 3.88527E-05, 0.02588429, -0.02685514, 0.400007, -0.0006209483, -0.02311668, -3.833051E-05, 0.02558075, -0.02763326, 0.4000052
 204435693, -0.02413652, -0.01130415, -6.352417E-05, 0.02512044, -0.02732619, 0.4000048, 0.01225947, 0.009804106, 3.88527E-05, 0.02588429, -0.02685514, 0.400007
 204536486, -0.01009648, -0.00602963, -2.860263E-05, 0.02538522, -0.02719838, 0.4000055, -0.02413652, -0.01130415, -6.352417E-05, 0.02512044, -0.02732619, 0.4000048
 204636446, 0.0009862565, -0.00821753, -1.122941E-05, 0.02562445, -0.02724816, 0.4000058, -0.01009648, -0.00602963, -2.860263E-05, 0.02538522, -0.02719838, 0.4000055
 204736406, -0.01600964, -0.005271762, -3.834186E-05, 0.02527345, -0.02718096, 0.4000051, 0.0009862565, -0.00821753, -1.122941E-05, 0.02562445, -0.02724816, 0.4000058
 204836366, -0.006917791, -0.006693828, -2.363313E-05, 0.02545559, -0.02721636, 0.4000051, -0.01600964, -0.005271762, -3.834186E-05, 0.02527345, -0.02718096, 0.4000051
 204936326, -0.01035637, 0.002301249, -1.558771E-05, 0.02538712, -0.02701279, 0.4000052, -0.006917791, -0.006693828, -2.363313E-05, 0.02545559, -0.02721636, 0.4000051
 205036286, -0.003189465, 0.01766537, 2.242432E-05, 0.02553768, -0.02670309, 0.4000058, -0.01035637, 0.002301249, -1.558771E-05, 0.02538712, -0.02701279, 0.4000052
 205136246, 0.02518388, -0.02397074, 8.37231E-06, 0.026233, -0.0276542, 0.4000056, -0.003189465, 0.01766537, 2.242432E-05, 0.02553768, -0.02670309, 0.4000058
 205236206, -0.02200164, 0.01179959, -2.196706E-05, 0.02516893, -0.026813, 0.400005, 0.02518388, -0.02397074, 8.37231E-06, 0.026233, -0.0276542, 0.4000056
 205336166, -0.02405318, 0.01326137, -2.341687E-05, 0.02513367, -0.02678344, 0.400005, -0.02200164, 0.01179959, -2.196706E-05, 0.02516893, -0.026813, 0.400005
 205436126, 0.02548902, 0.02254303, 8.313562E-05, 0.0262429, -0.02661047, 0.4000074, -0.02405318, 0.01326137, -2.341687E-05, 0.02513367, -0.02678344, 0.400005
 205536086, -0.01938155, 0.0002974221, -3.540659E-05, 0.02521764, -0.02705267, 0.4000048, 0.02548902, 0.02254303, 8.313562E-05, 0.0262429, -0.02661047, 0.4000074
 205636046, 0.009291233, -0.006445364, 6.941998E-06, 0.02582587, -0.02720633, 0.4000057, -0.01938155, 0.0002974221, -3.540659E-05, 0.02521764, -0.02705267, 0.4000048
 205736006, -0.0148962, 0.005183795, -1.929184E-05, 0.02530237, -0.02694741, 0.400005, 0.009291233, -0.006445364, 6.941998E-06, 0.02582587, -0.02720633, 0.4000057
 205835966, 0.01000303, 0.02366162, 5.627656E-05, 0.02584367, -0.02659169, 0.4000065, -0.0148962, 0.005183795, -1.929184E-05, 0.02530237, -0.02694741, 0.400005
 205935926, 0.02203608, -0.01092454, 2.334619E-05, 0.02615071, -0.02731459, 0.400006, 0.01000303, 0.02366162, 5.627656E-05, 0.02584367, -0.02659169, 0.4000065
 206035886, 0.003368504, -0.02309843, -3.051304E-05, 0.02568691, -0.02762645, 0.4000047, 0.02203608, -0.01092454, 2.334619E-05, 0.02615071, -0.02731459, 0.400006
 206135846, 0.0105142, 0.01026919, 3.581111E-05, 0.02585659, -0.02684247, 0.4000062, 0.003368504, -0.02309843, -3.051304E-05, 0.02568691, -0.02762645, 0.4000047
 206235806, 0.008054192, 0.006567227, 2.538119E-05, 0.0257977, -0.02692015, 0.4000058, 0.0105142, 0.01026919, 3.581111E-05, 0.02585659, -0.02684247, 0.4000062
 206335766, -0.01497908, -0.01601725, -5.326082E-05, 0.02530293, -0.0274446, 0.4000039, 0.008054192, 0.006567227, 2.538119E-05, 0.0257977, -0.02692015, 0.4000058
 206435726, 0.003997717, 0.008273178, 2.061372E-05, 0.02570476, -0.02688574, 0.4000055, -0.01497908, -0.01601725, -5.326082E-05, 0.02530293, -0.0274446, 0.4000039
 206535686, 0.004918768, -0.0002864843, 8.639679E-06, 0.025723, -0.02706973, 0.4000054, 0.003997717, 0.008273178, 2.061372E-05, 0.02570476, -0.02688574, 0.4000055
 206636479, 0.0007731045, -0.003636355, -4.402636E-06, 0.02562509, -0.02714654, 0.4000053, 0.004918768, -0.0002864843, 8.639679E-06, 0.025723, -0.02706973, 0.4000054
 206736439, 0.01782282, 0.006706048, 4.384213E-05, 0.02603724, -0.0269192, 0.4000064, 0.0007731045, -0.003636355, -4.402636E-06, 0.02562509, -0.02714654, 0.4000053
 206836399, -0.006384432, 0.006115703, -2.041033E-06, 0.02547127, -0.02693108, 0.4000053, 0.01782282, 0.006706048, 4.384213E-05, 0.02603724, -0.0269192, 0.4000064
 206936359, -0.006123149, -0.003909586, -1.763101E-05, 0.02547615, -0.02715098, 0.400005, -0.006384432, 0.006115703, -2.041033E-06, 0.02547127, -0.02693108, 0.4000053
 207036319, -0.003342098, 0.01370832, 1.571012E-05, 0.02553549, -0.0267757, 0.4000058, -0.006123149, -0.003909586, -1.763101E-05, 0.02547615, -0.02715098, 0.400005
 207136279, 0.0206129, 0.01816908, 6.739239E-05, 0.02610959, -0.02669211, 0.400007, -0.003342098, 0.01370832, 1.571012E-05, 0.02553549, -0.0267757, 0.4000058
 207236239, 0.02272354, 0.01267706, 6.256561E-05, 0.02616564, -0.02679786, 0.4000068, 0.0206129, 0.01816908, 6.739239E-05, 0.02610959, -0.02669211, 0.400007
 207336199, -0.0008397132, -0.001895247, -4.60598E-06, 0.02558888, -0.02710675, 0.4000052, 0.02272354, 0.01267706, 6.256561E-05, 0.02616564, -0.02679786, 0.4000068
 207436159, -0.01785918, 0.009438192, -1.806288E-05, 0.02524234, -0.02686417, 0.400005, -0.0008397132, -0.001895247, -4.60598E-06, 0.02558888, -0.02710675, 0.4000052
 207536119, -0.01061719, 0.006538738, -9.254359E-06, 0.02538122, -0.0269254, 0.4000051, -0.01785918, 0.009438192, -1.806288E-05, 0.02524234, -0.02686417, 0.400005
 207636079, 0.006346086, 0.009567883, 2.730672E-05, 0.02574973, -0.02686424, 0.4000059, -0.01061719, 0.006538738, -9.254359E-06, 0.02538122, -0.0269254, 0.4000051
 207736039, -0.00722056, -0.01155925, -3.215314E-05, 0.02544932, -0.02733807, 0.4000046, 0.006346086, 0.009567883, 2.730672E-05, 0.02574973, -0.02686424, 0.4000059
 207835999, 0.007344489, 0.0177483, 4.239417E-05, 0.02577286, -0.02670493, 0.4000063, -0.00722056, -0.01155925, -3.215314E-05, 0.02544932, -0.02733807, 0.4000046
 207935959, 0.0009319467, 0.002866072, 6.386471E-06, 0.02562394, -0.02700635, 0.4000054, 0.007344489, 0.0177483, 4.239417E-05, 0.02577286, -0.02670493, 0.4000063
 208035919, 0.01433647, -0.01671619, -2.783927E-07, 0.02594181, -0.0274711, 0.4000052, 0.0009319467, 0.002866072, 6.386471E-06, 0.02562394, -0.02700635, 0.4000054
 208135879, 0.01129256, -0.007625749, 8.750191E-06, 0.02586671, -0.02724735, 0.4000053, 0.01433647, -0.01671619, -2.783927E-07, 0.02594181, -0.0274711, 0.4000052
 208235839, -0.0243453, 0.01459774, -2.179814E-05, 0.02512205, -0.02676993, 0.4000046, 0.01129256, -0.007625749, 8.750191E-06, 0.02586671, -0.02724735, 0.4000053
 208335799, 0.0230807, -0.01342776, 2.132469E-05, 0.02617047, -0.02739046, 0.4000055, -0.0243453, 0.01459774, -2.179814E-05, 0.02512205, -0.02676993, 0.4000046
 208435759, 0.007610855, -0.02375833, -2.455949E-05, 0.02577756, -0.02766041, 0.4000043, 0.0230807, -0.01342776, 2.132469E-05, 0.02617047, -0.02739046, 0.4000055
 208535719, 0.01727319, -0.01116472, 1.414275E-05, 0.0260151, -0.02733801, 0.4000053, 0.007610855, -0.02375833, -2.455949E-05, 0.02577756, -0.02766041, 0.4000043
 208635679, -0.0151225, 0.004410029, -2.123473E-05, 0.0252856, -0.02698345, 0.4000045, 0.01727319, -0.01116472, 1.414275E-05, 0.0260151, -0.02733801, 0.4000053
 208736472, -0.0123299, -0.003050587, -2.832204E-05, 0.02533795, -0.02714842, 0.4000044, -0.0151225, 0.004410029, -2.123473E-05, 0.0252856, -0.02698345, 0.4000045
 208836432, 0.006640683, 0.02007885, 4.559642E-05, 0.02574739, -0.0266732, 0.4000061, -0.0123299, -0.003050587, -2.832204E-05, 0.02533795, -0.02714842, 0.4000044
 208936392, -0.01586467, 0.01564875, -4.332156E-06, 0.02527091, -0.02675175, 0.4000052, 0.006640683, 0.02007885, 4.559642E-05, 0.02574739, -0.0266732, 0.4000061
 209036352, -0.003214048, 0.00450276, 1.28182E-06, 0.02553001, -0.02697343, 0.4000053, -0.01586467, 0.01564875, -4.332156E-06, 0.02527091, -0.02675175, 0.4000052
 209136312, 0.01029401, -0.002410518, 1.536608E-05, 0.02584279, -0.02712413, 0.4000056, -0.003214048, 0.00450276, 1.28182E-06, 0.02553001, -0.02697343, 0.4000053
 209236272, -0.01724508, -0.006003917, -4.19211E-05, 0.02525202, -0.02720613, 0.4000043, 0.01029401, -0.002410518, 1.536608E-05, 0.02584279, -0.02712413, 0.4000056
 209336232, 0.00053039, 0.01972247, 3.284023E-05, 0.02561894, -0.0266682, 0.4000058, -0.01724508, -0.006003917, -4.19211E-05, 0.02525202, -0.02720613, 0.4000043
 209436192, -0.0007569996, 0.004427652, 5.724538E-06, 0.02559218, -0.026969, 0.4000053, 0.00053039, 0.01972247, 3.284023E-05, 0.02561894, -0.0266682, 0.4000058
 209536152, 0.01208038, 0.01990954, 5.429209E-05, 0.02589374, -0.02665995, 0.4000065, -0.0007569996, 0.004427652, 5.724538E-06, 0.02559218, -0.026969, 0.4000053
 209636112, -0.00043749, 0.01262714, 1.93369E-05, 0.02560161, -0.02679507, 0.4000058, 0.01208038, 0.01990954, 5.429209E-05, 0.02589374, -0.02665995, 0.4000065
 209736072, -0.0006652294, -0.02528312, -4.152137E-05, 0.02559752, -0.02768622, 0.4000044, -0.00043749, 0.01262714, 1.93369E-05, 0.02560161, -0.02679507, 0.4000058
 209836032, -0.01394908, -0.005226095, -3.407176E-05, 0.02532288, -0.02717739, 0.4000046, -0.0006652294, -0.02528312, -4.152137E-05, 0.02559752, -0.02768622, 0.4000044
 209935992, -0.01433979, 0.01855767, 3.03753E-06, 0.02531617, -0.02667928, 0.4000055, -0.01394908, -0.005226095, -3.407176E-05, 0.02532288, -0.02717739, 0.4000046
 210035952, -0.009639028, 0.009508262, -2.688565E-06, 0.02540991, -0.02685325, 0.4000054, -0.01433979, 0.01855767, 3.03753E-06, 0.02531617, -0.02667928, 0.4000055
 210135912, -0.01967863, -0.002168996, -3.959204E-05, 0.02521827, -0.02710282, 0.4000047, -0.009639028, 0.009508262, -2.688565E-06, 0.02540991, -0.02685325, 0.4000054
 210235872, -0.005403987, 0.001610482, -7.368328E-06, 0.02550085, -0.02701732, 0.4000053, -0.01967863, -0.002168996, -3.959204E-05, 0.02521827, -0.02710282, 0.4000047
 210335832, -0.009478995, -0.01037841, -3.3717E-05, 0.02541509, -0.02729189, 0.400005, -0.005403987, 0.001610482, -7.368328E-06, 0.02550085, -0.02701732, 0.4000053
 210435792, -0.02222897, 0.02050013, -8.834024E-06, 0.02517128, -0.02663445, 0.4000058, -0.009478995, -0.01037841, -3.3717E-05, 0.02541509, -0.02729189, 0.400005
 210535752, -0.004186869, -0.01670438, -3.379442E-05, 0.02552536, -0.02744661, 0.4000051, -0.02222897, 0.02050013, -8.834024E-06, 0.02517128, -0.02663445, 0.4000058
 210635712, 0.01363446, 0.01009711, 4.075091E-05, 0.02594025, -0.02683181, 0.4000068, -0.004186869, -0.01670438, -3.379442E-05, 0.02552536, -0.02744661, 0.4000051
 210735672, -0.01156139, -0.02190185, -5.542418E-05, 0.02537501, -0.02758298, 0.4000045, 0.01363446, 0.01009711, 4.075091E-05, 0.02594025, -0.02683181, 0.4000068
 210836465, -0.02141864, -0.01537903, -6.335925E-05, 0.02518875, -0.02741482, 0.4000043, -0.01156139, -0.02190185, -5.542418E-05, 0.02537501, -0.02758298, 0.4000045
 210936425, 0.001647321, 0.01830536, 3.169925E-05, 0.02565625, -0.02667549, 0.4000063, -0.02141864, -0.01537903, -6.335925E-05, 0.02518875, -0.02741482, 0.4000043
 211036385, 0.0223659, -0.02333582, 4.319871E-06, 0.02616823, -0.02762312, 0.4000057, 0.001647321, 0.01830536, 3.169925E-05, 0.02565625, -0.02667549, 0.4000063
 211136345, 0.009682358, 0.007094112, 2.877937E-05, 0.02584588, -0.02689479, 0.4000063, 0.0223659, -0.02333582, 4.319871E-06, 0.02616823, -0.02762312, 0.4000057
 211236305, -0.01539799, -0.01335857, -4.894837E-05, 0.02530371, -0.02736164, 0.4000045, 0.009682358, 0.007094112, 2.877937E-05, 0.02584588, -0.02689479, 0.4000063
 211336265, -0.004828715, 0.0122027, 1.027916E-05, 0.02551708, -0.02679102, 0.4000058, -0.01539799, -0.01335857, -4.894837E-05, 0.02530371, -0.02736164, 0.4000045
 211436225, 0.01460489, -0.001728171, 2.392909E-05, 0.02596865, -0.02708641, 0.4000061, -0.004828715, 0.0122027, 1.027916E-05, 0.02551708, -0.02679102, 0.4000058
 211536185, 0.004012489, 0.01870215, 3.666729E-05, 0.02571313, -0.026669, 0.4000062, 0.01460489, -0.001728171, 2.392909E-05, 0.02596865, -0.02708641, 0.4000061
 211636145, 0.02080584, -0.01248817, 1.828022E-05, 0.02612933, -0.02734425, 0.4000058, 0.004012489, 0.01870215, 3.666729E-05, 0.02571313, -0.026669, 0.4000062
 211736105, -0.01903916, 0.01600579, -9.5142E-06, 0.02523626, -0.02672101, 0.4000051, 0.02080584, -0.01248817, 1.828022E-05, 0.02612933, -0.02734425, 0.4000058
 211836065, -0.02165342, -0.00266419, -4.366618E-05, 0.0251888, -0.02711149, 0.4000044, -0.01903916, 0.01600579, -9.5142E-06, 0.02523626, -0.02672101, 0.4000051
 211936025, -0.00388465, 0.01754449, 2.055689E-05, 0.02553715, -0.02669285, 0.4000057, -0.02165342, -0.00266419, -4.366618E-05, 0.0251888, -0.02711149, 0.4000044
 212035985, 0.01919236, 0.02295422, 7.128567E-05, 0.02608483, -0.02659563, 0.4000069, -0.00388465, 0.01754449, 2.055689E-05, 0.02553715, -0.02669285, 0.4000057
 212135945, -0.006519427, -0.004849078, -1.95616E-05, 0.02547937, -0.02716123, 0.400005, 0.01919236, 0.02295422, 7.128567E-05, 0.02608483, -0.02659563, 0.4000069
 212235905, 0.01731494, 0.0002291329, 3.208083E-05, 0.02603464, -0.02704501, 0.4000064, -0.006519427, -0.004849078, -1.95616E-05, 0.02547937, -0.02716123, 0.400005
 212335865, 0.01481245, 0.001020053, 2.874235E-05, 0.02597098, -0.02703021, 0.4000061, 0.01731494, 0.0002291329, 3.208083E-05, 0.02603464, -0.02704501, 0.4000064
 212435825, -0.003417507, -0.007133614, -1.757461E-05, 0.02554426, -0.02721926, 0.4000048, 0.01481245, 0.001020053, 2.874235E-05, 0.02597098, -0.02703021, 0.4000061
 212535785, -0.02327263, -0.008603475, -5.644386E-05, 0.02515414, -0.02725489, 0.4000041, -0.003417507, -0.007133614, -1.757461E-05, 0.02554426, -0.02721926, 0.4000048
 212635745, 0.002034675, -0.01477164, -1.97085E-05, 0.0256598, -0.02740702, 0.400005, -0.02327263, -0.008603475, -5.644386E-05, 0.02515414, -0.02725489, 0.4000041
 212735705, -0.02145196, -0.006991423, -5.072621E-05, 0.02518335, -0.02721743, 0.4000044, 0.002034675, -0.01477164, -1.97085E-05, 0.0256598, -0.02740702, 0.400005
 212835665, 0.003635301, -0.01428548, -1.602524E-05, 0.02569512, -0.02739615, 0.4000051, -0.02145196, -0.006991423, -5.072621E-05, 0.02518335, -0.02721743, 0.4000044
 212936458, -0.01369649, -0.008804787, -3.942212E-05, 0.02532583, -0.02726277, 0.4000046, 0.003635301, -0.01428548, -1.602524E-05, 0.02569512, -0.02739615, 0.4000051
 213036418, -0.007580588, -0.02144965, -4.837097E-05, 0.02544692, -0.02758419, 0.4000043, -0.01369649, -0.008804787, -3.942212E-05, 0.02532583, -0.02726277, 0.4000046
 213136378, 0.02500249, 0.0165769, 7.300128E-05, 0.02622872, -0.02672078, 0.4000071, -0.007580588, -0.02144965, -4.837097E-05, 0.02544692, -0.02758419, 0.4000043
 213236338, 0.0172518, -0.006841271, 2.109159E-05, 0.02602299, -0.02721915, 0.4000059, 0.02500249, 0.0165769, 7.300128E-05, 0.02622872, -0.02672078, 0.4000071
 213336298, -0.01965389, 0.008319261, -2.319315E-05, 0.0252109, -0.02688517, 0.4000049, 0.0172518, -0.006841271, 2.109159E-05, 0.02602299, -0.02721915, 0.4000059
 213436258, 0.01725381, -0.01948804, 7.698982E-07, 0.02602136, -0.0275365, 0.4000053, -0.01965389, 0.008319261, -2.319315E-05, 0.0252109, -0.02688517, 0.4000049
 213536218, -0.01515293, 0.02108461, 5.839056E-06, 0.02529396, -0.02664308, 0.4000053, 0.01725381, -0.01948804, 7.698982E-07, 0.02602136, -0.0275365, 0.4000053
 213636178, 0.01378474, 0.02162792, 6.076536E-05, 0.02593321, -0.02663581, 0.4000064, -0.01515293, 0.02108461, 5.839056E-06, 0.02529396, -0.02664308, 0.4000053
 213736138, -0.004597359, 0.01119589, 9.620137E-06, 0.02550708, -0.02683401, 0.4000052, 0.01378474, 0.02162792, 6.076536E-05, 0.02593321, -0.02663581, 0.4000064
 213836098, 0.0207329, 0.01847091, 6.878991E-05, 0.02611105, -0.02669595, 0.4000065, -0.004597359, 0.01119589, 9.620137E-06, 0.02550708, -0.02683401, 0.4000052
 213936058, 0.01407162, 0.02213319, 6.250668E-05, 0.02593723, -0.02663142, 0.4000062, 0.0207329, 0.01847091, 6.878991E-05, 0.02611105, -0.02669595, 0.4000065
 214036018, 0.002688785, 0.02410406, 4.452548E-05, 0.02566282, -0.02659822, 0.4000058, 0.01407162, 0.02213319, 6.250668E-05, 0.02593723, -0.02663142, 0.4000062
 214135978, 0.001773922, -0.00999084, -1.301498E-05, 0.02564467, -0.02730636, 0.4000045, 0.002688785, 0.02410406, 4.452548E-05, 0.02566282, -0.02659822, 0.4000058
 214235938, 0.01967585, 0.02534063, 7.800043E-05, 0.02608446, -0.02657484, 0.4000065, 0.001773922, -0.00999084, -1.301498E-05, 0.02564467, -0.02730636, 0.4000045
 214335898, -0.02533506, 0.02354939, -8.778403E-06, 0.02511209, -0.02660287, 0.4000046, 0.01967585, 0.02534063, 7.800043E-05, 0.02608446, -0.02657484, 0.4000065
 214435858, 0.01338077, 0.02197451, 6.036582E-05, 0.02592763, -0.02662892, 0.4000061, -0.02533506, 0.02354939, -8.778403E-06, 0.02511209, -0.02660287, 0.4000046
 214535818, -0.00500696, -0.01366381, -3.143639E-05, 0.02550427, -0.02739276, 0.4000039, 0.01338077, 0.02197451, 6.036582E-05, 0.02592763, -0.02662892, 0.4000061
 214635778, -0.01752773, 0.01036627, -1.550041E-05, 0.02525558, -0.02685163, 0.4000041, -0.00500696, -0.01366381, -3.143639E-05, 0.02550427, -0.02739276, 0.4000039
 214735738, 0.006841324, 0.01662541, 3.953015E-05, 0.02577201, -0.02672702, 0.4000054, -0.01752773, 0.01036627, -1.550041E-05, 0.02525558, -0.02685163, 0.4000041
 214835698, -0.004546756, -0.01385626, -3.07082E-05, 0.02551707, -0.02739345, 0.400004, 0.006841324, 0.01662541, 3.953015E-05, 0.02577201, -0.02672702, 0.4000054
 214935658, -0.01594686, -0.01312889, -5.044977E-05, 0.02528621, -0.02737215, 0.4000039, -0.004546756, -0.01385626, -3.07082E-05, 0.02551707, -0.02739345, 0.400004
 215036451, -0.01303755, -0.01717275, -5.146496E-05, 0.02534129, -0.02747131, 0.4000041, -0.01594686, -0.01312889, -5.044977E-05, 0.02528621, -0.02737215, 0.4000039
 215136411, -0.0002712977, 0.01797887, 2.813641E-05, 0.0256095, -0.0266913, 0.4000058, -0.01303755, -0.01717275, -5.146496E-05, 0.02534129, -0.02747131, 0.4000041
 215236371, 0.02207156, 0.004800353, 4.820011E-05, 0.02615725, -0.02695307, 0.4000064, -0.0002712977, 0.01797887, 2.813641E-05, 0.0256095, -0.0266913, 0.4000058
 215336331, 0.01366237, -0.006311107, 1.508041E-05, 0.02594044, -0.02719953, 0.4000057, 0.02207156, 0.004800353, 4.820011E-05, 0.02615725, -0.02695307, 0.4000064
 215436291, 0.002487315, 0.0004879699, 5.337239E-06, 0.02567368, -0.02704261, 0.4000056, 0.01366237, -0.006311107, 1.508041E-05, 0.02594044, -0.02719953, 0.4000057
 215536251, 0.02482636, 0.00706835, 5.683456E-05, 0.02623062, -0.02689995, 0.400007, 0.002487315, 0.0004879699, 5.337239E-06, 0.02567368, -0.02704261, 0.4000056
 215636211, 0.0210102, 0.01269279, 5.870025E-05, 0.02612647, -0.02678455, 0.4000072, 0.02482636, 0.00706835, 5.683456E-05, 0.02623062, -0.02689995, 0.400007
 215736171, 0.002653922, -0.004405229, -2.03339E-06, 0.02567522, -0.02714947, 0.4000058, 0.0210102, 0.01269279, 5.870025E-05, 0.02612647, -0.02678455, 0.4000072
 215836131, 0.01313235, -0.01381815, 2.455332E-06, 0.02592612, -0.02737571, 0.4000059, 0.002653922, -0.004405229, -2.03339E-06, 0.02567522, -0.02714947, 0.4000058
 215936091, -0.003844197, 0.02114972, 2.615573E-05, 0.02553501, -0.02662431, 0.4000062, 0.01313235, -0.01381815, 2.455332E-06, 0.02592612, -0.02737571, 0.4000059
 216036051, 0.01097707, 0.005756566, 2.908159E-05, 0.02587778, -0.02692452, 0.4000061, -0.003844197, 0.02114972, 2.615573E-05, 0.02553501, -0.02662431, 0.4000062
 216136011, -0.02226491, -0.004239494, -4.725367E-05, 0.02517786, -0.02714555, 0.4000044, 0.01097707, 0.005756566, 2.908159E-05, 0.02587778, -0.02692452, 0.4000061
 216235971, 0.006472507, -0.02427429, -2.636042E-05, 0.02577183, -0.02764955, 0.4000046, -0.02226491, -0.004239494, -4.725367E-05, 0.02517786, -0.02714555, 0.4000044
 216335931, 0.004541741, -0.001422449, 6.016118E-06, 0.02572822, -0.02708193, 0.4000053, 0.006472507, -0.02427429, -2.636042E-05, 0.02577183, -0.02764955, 0.4000046
 216435891, 0.009312541, -0.01785281, -1.117987E-05, 0.02584219, -0.02747962, 0.4000048, 0.004541741, -0.001422449, 6.016118E-06, 0.02572822, -0.02708193, 0.4000053
 216535851, -0.02160504, 0.01596317, -1.411715E-05, 0.02519371, -0.02672012, 0.4000049, 0.009312541, -0.01785281, -1.117987E-05, 0.02584219, -0.02747962, 0.4000048
 216635811, 0.002561803, 0.008853931, 1.851743E-05, 0.02568428, -0.02685906, 0.4000056, -0.02160504, 0.01596317, -1.411715E-05, 0.02519371, -0.02672012, 0.4000049
 216735771, 0.01917071, -0.01834883, 6.116234E-06, 0.0260893, -0.02748905, 0.4000055, 0.002561803, 0.008853931, 1.851743E-05, 0.02568428, -0.02685906, 0.4000056
 216835731, -0.01530246, -0.002662743, -3.200821E-05, 0.02530762, -0.02710615, 0.4000048, 0.01917071, -0.01834883, 6.116234E-06, 0.0260893, -0.02748905, 0.4000055
 216935691, -0.0009060744, 0.01478306, 2.149577E-05, 0.02560375, -0.02674096, 0.4000059, -0.01530246, -0.002662743, -3.200821E-05, 0.02530762, -0.02710615, 0.4000048
 217036484, -0.02147081, -0.01341558, -6.01982E-05, 0.02519223, -0.02736571, 0.4000041, -0.0009060744, 0.01478306, 2.149577E-05, 0.02560375, -0.02674096, 0.4000059
 217136444, -0.02062585, -0.01765672, -6.528279E-05, 0.02520848, -0.02747399, 0.4000039, -0.02147081, -0.01341558, -6.01982E-05, 0.02519223, -0.02736571, 0.4000041
 217236404, 0.005259786, 0.01698624, 3.630758E-05, 0.02574393, -0.02670233, 0.400006, -0.02062585, -0.01765672, -6.528279E-05, 0.02520848, -0.02747399, 0.4000039
 217336364, 0.008002888, -0.01303728, -6.026966E-06, 0.02580686, -0.02736106, 0.400005, 0.005259786, 0.01698624, 3.630758E-05, 0.02574393, -0.02670233, 0.400006
 217436324, 0.004338506, 0.009886729, 2.36534E-05, 0.02571874, -0.02684694, 0.4000055, 0.008002888, -0.01303728, -6.026966E-06, 0.02580686, -0.02736106, 0.400005
 217536284, -0.01878558, -0.01089856, -5.194155E-05, 0.02523565, -0.02731524, 0.4000039, 0.004338506, 0.009886729, 2.36534E-05, 0.02571874, -0.02684694, 0.4000055
 217636244, 0.02096912, -0.003082321, 3.367943E-05, 0.0261264, -0.02713363, 0.4000057, -0.01878558, -0.01089856, -5.194155E-05, 0.02523565, -0.02731524, 0.4000039
 217736204, -0.005413876, 0.001380378, -7.769605E-06, 0.02549665, -0.0270348, 0.4000047, 0.02096912, -0.003082321, 3.367943E-05, 0.0261264, -0.02713363, 0.4000057
 217836164, 0.005532848, 0.01671811, 3.721794E-05, 0.0257386, -0.02672305, 0.4000057, -0.005413876, 0.001380378, -7.769605E-06, 0.02549665, -0.0270348, 0.4000047
 217936124, -0.008715627, 0.01658162, 1.059076E-05, 0.02542525, -0.026725, 0.4000053, 0.005532848, 0.01671811, 3.721794E-05, 0.0257386, -0.02672305, 0.4000057
 218036084, 0.001749416, 0.02075653, 3.671421E-05, 0.02564932, -0.02664787, 0.4000058, -0.008715627, 0.01658162, 1.059076E-05, 0.02542525, -0.026725, 0.4000053
 218136044, -0.004591192, -0.01273921, -2.921799E-05, 0.0255093, -0.02736991, 0.4000041, 0.001749416, 0.02075653, 3.671421E-05, 0.02564932, -0.02664787, 0.4000058
 218236004, -0.02438799, 0.009498217, -2.985347E-05, 0.02512644, -0.02687261, 0.400004, -0.004591192, -0.01273921, -2.921799E-05, 0.0255093, -0.02736991, 0.4000041
 218335964, -0.01340028, 0.01115941, -6.667291E-06, 0.02532818, -0.02684046, 0.4000044, -0.02438799, 0.009498217, -2.985347E-05, 0.02512644, -0.02687261, 0.400004
 218435924, -0.009758202, 0.01257197, 2.451954E-06, 0.02539996, -0.02681367, 0.4000045, -0.01340028, 0.01115941, -6.667291E-06, 0.02532818, -0.02684046, 0.4000044
 218535884, -0.0008409087, -0.00575125, -1.105024E-05, 0.02558715, -0.02721099, 0.4000042, -0.009758202, 0.01257197, 2.451954E-06, 0.02539996, -0.02681367, 0.4000045
 218635844, -0.0238393, -0.0198073, -7.738301E-05, 0.02513178, -0.02756279, 0.4000026, -0.0008409087, -0.00575125, -1.105024E-05, 0.02558715, -0.02721099, 0.4000042
 218735804, 0.003849035, 0.006366299, 1.77612E-05, 0.0256906, -0.02694582, 0.4000047, -0.0238393, -0.0198073, -7.738301E-05, 0.02513178, -0.02756279, 0.4000026
 218835764, -0.02358875, 0.005020597, -3.590474E-05, 0.02513476, -0.02697541, 0.4000036, 0.003849035, 0.006366299, 1.77612E-05, 0.0256906, -0.02694582, 0.4000047
 218935724, 0.01971717, -0.01730711, 8.26772E-06, 0.02608008, -0.02749993, 0.4000045, -0.02358875, 0.005020597, -3.590474E-05, 0.02513476, -0.02697541, 0.4000036
 219035684, -0.004008351, 0.01307419, 1.419977E-05, 0.02551392, -0.02681173, 0.4000046, 0.01971717, -0.01730711, 8.26772E-06, 0.02608008, -0.02749993, 0.4000045
 219136477, 0.01536856, 0.004917036, 3.710519E-05, 0.02596587, -0.02697853, 0.4000053, -0.004008351, 0.01307419, 1.419977E-05, 0.02551392, -0.02681173, 0.4000046
 219236437, -0.02042023, 0.004924614, -3.028967E-05, 0.02518768, -0.02697819, 0.4000039, 0.01536856, 0.004917036, 3.710519E-05, 0.02596587, -0.02697853, 0.4000053
 219336397, 0.02200919, 0.01317949, 6.322257E-05, 0.0261406, -0.02680983, 0.4000058, -0.02042023, 0.004924614, -3.028967E-05, 0.02518768, -0.02697819, 0.4000039
 219436357, -0.002891238, -0.004458956, -1.28126E-05, 0.02554082, -0.02718559, 0.4000039, 0.02200919, 0.01317949, 6.322257E-05, 0.0261406, -0.02680983, 0.4000058
 219536317, 0.02472599, -0.006733885, 3.488512E-05, 0.02621988, -0.02723783, 0.4000049, -0.002891238, -0.004458956, -1.28126E-05, 0.02554082, -0.02718559, 0.4000039
 219636277, -0.01551068, -0.0243326, -6.907446E-05, 0.02528977, -0.02768449, 0.4000023, 0.02472599, -0.006733885, 3.488512E-05, 0.02621988, -0.02723783, 0.4000049
 219736237, 0.02465807, 0.01912657, 7.728879E-05, 0.02622183, -0.02669431, 0.4000056, -0.01551068, -0.0243326, -6.907446E-05, 0.02528977, -0.02768449, 0.4000023
 219836197, -0.01894793, -0.01885416, -6.614884E-05, 0.02522811, -0.02753681, 0.4000024, 0.02465807, 0.01912657, 7.728879E-05, 0.02622183, -0.02669431, 0.4000056
 219936157, 0.01996629, -0.01645676, 9.735619E-06, 0.02609906, -0.02747289, 0.4000041, -0.01894793, -0.01885416, -6.614884E-05, 0.02522811, -0.02753681, 0.4000024
 220036117, 0.002699737, 0.02361103, 4.371706E-05, 0.02567647, -0.0266091, 0.4000048, 0.01996629, -0.01645676, 9.735619E-06, 0.02609906, -0.02747289, 0.4000041
 220136077, 0.01957426, -0.006647574, 2.506949E-05, 0.02609163, -0.0272284, 0.4000045, 0.002699737, 0.02361103, 4.371706E-05, 0.02567647, -0.0266091, 0.4000048
 220236037, 0.0001367365, -0.009315804, -1.497403E-05, 0.025622, -0.02729089, 0.4000036, 0.01957426, -0.006647574, 2.506949E-05, 0.02609163, -0.0272284, 0.4000045
 220335997, 0.01835057, -0.01340561, 1.163216E-05, 0.02606284, -0.02739174, 0.4000041, 0.0001367365, -0.009315804, -1.497403E-05, 0.025622, -0.02729089, 0.4000036
 220435957, -0.004456061, 0.004777432, -3.157429E-07, 0.02552493, -0.02697179, 0.4000036, 0.01835057, -0.01340561, 1.163216E-05, 0.02606284, -0.02739174, 0.4000041
 220535917, 0.007833965, 0.01246389, 3.463129E-05, 0.02580412, -0.02681405, 0.4000043, -0.004456061, 0.004777432, -3.157429E-07, 0.02552493, -0.02697179, 0.4000036
 220635877, -0.002609201, -0.002577901, -8.946052E-06, 0.02556829, -0.02713281, 0.4000033, 0.007833965, 0.01246389, 3.463129E-05, 0.02580412, -0.02681405, 0.4000043
 220735837, -0.02026836, 0.0007345832, -3.555436E-05, 0.02521737, -0.02705686, 0.4000028, -0.002609201, -0.002577901, -8.946052E-06, 0.02556829, -0.02713281, 0.4000033
 220835797, 0.01714498, -1.637E-05, 3.101671E-05, 0.02603839, -0.02707154, 0.4000044, -0.02026836, 0.0007345832, -3.555436E-05, 0.02521737, -0.02705686, 0.4000028
 220935757, -0.01323834, 0.02349929, 1.416065E-05, 0.02535211, -0.02660349, 0.4000039, 0.01714498, -1.637E-05, 3.101671E-05, 0.02603839, -0.02707154, 0.4000044
 221035717, 0.0008853806, -0.02091072, -3.224288E-05, 0.02564954, -0.02757858, 0.4000028, -0.01323834, 0.02349929, 1.416065E-05, 0.02535211, -0.02660349, 0.4000039
 221135677, 0.01667681, 0.003156312, 3.523165E-05, 0.02602808, -0.02700072, 0.4000044, 0.0008853806, -0.02091072, -3.224288E-05, 0.02564954, -0.02757858, 0.4000028
 221236470, -4.100216E-05, -0.002597678, -4.288556E-06, 0.0256272, -0.02712924, 0.4000035, 0.01667681, 0.003156312, 3.523165E-05, 0.02602808, -0.02700072, 0.4000044
 221336430, 0.01999833, 0.01365711, 5.824435E-05, 0.02611446, -0.02678586, 0.4000049, -4.100216E-05, -0.002597678, -4.288556E-06, 0.0256272, -0.02712924, 0.4000035
 221436390, -0.00109936, -0.007167788, -1.361026E-05, 0.02560511, -0.02723535, 0.4000032, 0.01999833, 0.01365711, 5.824435E-05, 0.02611446, -0.02678586, 0.4000049
 221536350, 0.02342103, 0.01415452, 6.516108E-05, 0.02620598, -0.02677496, 0.4000051, -0.00109936, -0.007167788, -1.361026E-05, 0.02560511, -0.02723535, 0.4000032
 221636310, 0.0009295156, -0.002689841, -2.665839E-06, 0.02565041, -0.02712833, 0.4000036, 0.02342103, 0.01415452, 6.516108E-05, 0.02620598, -0.02677496, 0.4000051
 221736270, 0.01812724, 0.002668578, 3.69546E-05, 0.0260674, -0.02700991, 0.4000044, 0.0009295156, -0.002689841, -2.665839E-06, 0.02565041, -0.02712833, 0.4000036
 221836230, 0.02136778, -0.00444752, 3.118767E-05, 0.02615442, -0.02716949, 0.4000042, 0.01812724, 0.002668578, 3.69546E-05, 0.0260674, -0.02700991, 0.4000044
 221936190, -0.01066239, 0.0221383, 1.657682E-05, 0.02540667, -0.02662532, 0.4000038, 0.02136778, -0.00444752, 3.118767E-05, 0.02615442, -0.02716949, 0.4000042
 222036150, -0.02274093, -0.02278053, -7.767594E-05, 0.02517826, -0.02762721, 0.4000019, -0.01066239, 0.0221383, 1.657682E-05, 0.02540667, -0.02662532, 0.4000038
 222136110, -0.002930867, 0.02205847, 3.05596E-05, 0.02556781, -0.02663066, 0.4000039, -0.02274093, -0.02278053, -7.767594E-05, 0.02517826, -0.02762721, 0.4000019
 222236070, -0.001375669, -0.008188691, -1.584838E-05, 0.02560238, -0.02726439, 0.4000026, -0.002930867, 0.02205847, 3.05596E-05, 0.02556781, -0.02663066, 0.4000039
 222336030, 0.0003036263, -0.001180678, -1.382847E-06, 0.02564033, -0.02710145, 0.4000029, -0.001375669, -0.008188691, -1.584838E-05, 0.02560238, -0.02726439, 0.4000026
 222435990, -0.002703868, 0.02379772, 3.400585E-05, 0.0255749, -0.02660341, 0.4000036, 0.0003036263, -0.001180678, -1.382847E-06, 0.02564033, -0.02710145, 0.4000029
 222535950, 0.0141542, 0.01758035, 5.41244E-05, 0.02596868, -0.02671649, 0.4000041, -0.002703868, 0.02379772, 3.400585E-05, 0.0255749, -0.02660341, 0.4000036
 222635910, 0.0177777, -0.001981805, 2.866563E-05, 0.02606062, -0.0271216, 0.4000036, 0.0141542, 0.01758035, 5.41244E-05, 0.02596868, -0.02671649, 0.4000041
 222735870, 0.01483588, -0.01847389, -3.601468E-06, 0.02598306, -0.02752402, 0.4000028, 0.0177777, -0.001981805, 2.866563E-05, 0.02606062, -0.0271216, 0.4000036
 222835830, -0.008693075, -0.02257453, -5.284062E-05, 0.02544281, -0.027634, 0.4000017, 0.01483588, -0.01847389, -3.601468E-06, 0.02598306, -0.02752402, 0.4000028
 222935790, -0.02139232, 0.0146529, -1.451302E-05, 0.02519992, -0.02677612, 0.4000026, -0.008693075, -0.02257453, -5.284062E-05, 0.02544281, -0.027634, 0.4000017
 223035750, -0.02520852, -0.009961301, -6.190122E-05, 0.02513295, -0.02731194, 0.4000016, -0.02139232, 0.0146529, -1.451302E-05, 0.02519992, -0.02677612, 0.4000026
 223135710, 0.01193865, -0.01455554, -2.40368E-06, 0.02590696, -0.02742724, 0.4000029, -0.02520852, -0.009961301, -6.190122E-05, 0.02513295, -0.02731194, 0.4000016
 223235670, 0.01584726, 0.02288653, 6.664542E-05, 0.02600246, -0.02662819, 0.4000043, 0.01193865, -0.01455554, -2.40368E-06, 0.02590696, -0.02742724, 0.4000029
 223336463, 0.004958794, 0.01723087, 3.754918E-05, 0.02573486, -0.02673095, 0.4000039, 0.01584726, 0.02288653, 6.664542E-05, 0.02600246, -0.02662819, 0.4000043
 223436423, 0.01622369, -0.0105814, 1.215615E-05, 0.02600676, -0.02733145, 0.4000035, 0.004958794, 0.01723087, 3.754918E-05, 0.02573486, -0.02673095, 0.4000039
 223536383, 0.005768577, 0.0132944, 3.264192E-05, 0.02574998, -0.02680845, 0.4000039, 0.01622369, -0.0105814, 1.215615E-05, 0.02600676, -0.02733145, 0.4000035
 223636343, -0.02277304, -0.00295731, -4.669619E-05, 0.02516387, -0.02715465, 0.4000022, 0.005768577, 0.0132944, 3.264192E-05, 0.02574998, -0.02680845, 0.4000039
 223736303, 0.01051839, 0.001078132, 2.114487E-05, 0.02586076, -0.02706583, 0.4000036, -0.02277304, -0.00295731, -4.669619E-05, 0.02516387, -0.02715465, 0.4000022
 223836263, 0.02137191, 0.001649968, 4.219844E-05, 0.02613504, -0.02705545, 0.4000041, 0.01051839, 0.001078132, 2.114487E-05, 0.02586076, -0.02706583, 0.4000036
 223936223, -0.01710926, 0.01269723, -1.03298E-05, 0.02526054, -0.0268279, 0.4000029, 0.02137191, 0.001649968, 4.219844E-05, 0.02613504, -0.02705545, 0.4000041
 224036183, 0.02043557, -0.0173288, 8.726949E-06, 0.02610593, -0.02751174, 0.4000033, -0.01710926, 0.01269723, -1.03298E-05, 0.02526054, -0.0268279, 0.4000029
 224136143, 0.02072321, -0.01462393, 1.395444E-05, 0.02611123, -0.02744239, 0.4000036, 0.02043557, -0.0173288, 8.726949E-06, 0.02610593, -0.02751174, 0.4000033
 224236103, 0.002458252, -0.002030378, 1.171483E-06, 0.0256599, -0.02714075, 0.4000035, 0.02072321, -0.01462393, 1.395444E-05, 0.02611123, -0.02744239, 0.4000036
 224336063, 0.01786409, -0.02299603, -5.368129E-06, 0.02603357, -0.02766099, 0.4000033, 0.002458252, -0.002030378, 1.171483E-06, 0.0256599, -0.02714075, 0.4000035
 224436023, -0.005709389, 0.01871606, 2.089652E-05, 0.02547916, -0.02671603, 0.4000039, 0.01786409, -0.02299603, -5.368129E-06, 0.02603357, -0.02766099, 0.4000033
 224535983, 0.004680162, 0.02238215, 4.644516E-05, 0.02571167, -0.02664905, 0.4000043, -0.005709389, 0.01871606, 2.089652E-05, 0.02547916, -0.02671603, 0.4000039
 224635943, 0.009470624, 0.006612662, 2.872171E-05, 0.02582759, -0.02695208, 0.4000039, 0.004680162, 0.02238215, 4.644516E-05, 0.02571167, -0.02664905, 0.4000043
 224735903, 0.005884675, -0.005615899, 1.46999E-06, 0.02574432, -0.02722208, 0.4000032, 0.009470624, 0.006612662, 2.872171E-05, 0.02582759, -0.02695208, 0.4000039
 224835863, 0.01409858, -0.001785361, 2.304742E-05, 0.02594581, -0.02713342, 0.4000036, 0.005884675, -0.005615899, 1.46999E-06, 0.02574432, -0.02722208, 0.4000032
 224935823, 0.009284824, 0.002084922, 2.060363E-05, 0.02582873, -0.02704577, 0.4000036, 0.01409858, -0.001785361, 2.304742E-05, 0.02594581, -0.02713342, 0.4000036
 225035783, -0.0002148512, -0.006784128, -1.17189E-05, 0.02561007, -0.02724567, 0.4000028, 0.009284824, 0.002084922, 2.060363E-05, 0.02582873, -0.02704577, 0.4000036
 225135743, -0.008590847, -0.02018563, -4.953026E-05, 0.02543138, -0.02758143, 0.4000019, -0.0002148512, -0.006784128, -1.17189E-05, 0.02561007, -0.02724567, 0.4000028
 225235703, -0.0007784945, 0.01943407, 3.108743E-05, 0.02559801, -0.0266983, 0.4000036, -0.008590847, -0.02018563, -4.953026E-05, 0.02543138, -0.02758143, 0.4000019
 225335663, -0.02237083, 0.0103138, -2.373798E-05, 0.02517125, -0.02687264, 0.4000024, -0.0007784945, 0.01943407, 3.108743E-05, 0.02559801, -0.0266983, 0.4000036
 225436456, 0.02466644, -0.01092842, 2.678892E-05, 0.02623087, -0.0273449, 0.4000035, -0.02237083, 0.0103138, -2.373798E-05, 0.02517125, -0.02687264, 0.4000024
 225536416, -0.006888455, -0.02523148, -5.452996E-05, 0.02547278, -0.02771457, 0.4000015, 0.02466644, -0.01092842, 2.678892E-05, 0.02623087, -0.0273449, 0.4000035
 225636376, -0.002863105, -0.02527835, -4.717894E-05, 0.02555907, -0.02771452, 0.4000017, -0.006888455, -0.02523148, -5.452996E-05, 0.02547278, -0.02771457, 0.4000015
 225736336, -0.007880701, -0.005296558, -2.312676E-05, 0.0254528, -0.02720705, 0.4000025, -0.002863105, -0.02527835, -4.717894E-05, 0.02555907, -0.02771452, 0.4000017
 225836296, 0.02074379, 0.02522959, 7.959876E-05, 0.02612592, -0.02659, 0.4000047, -0.007880701, -0.005296558, -2.312676E-05, 0.0254528, -0.02720705, 0.4000025
 225936256, 0.01397237, -0.0001805739, 2.514647E-05, 0.02595185, -0.02709092, 0.4000036, 0.02074379, 0.02522959, 7.959876E-05, 0.02612592, -0.02659, 0.4000047
 226036216, 0.00275892, -0.01144717, -1.398486E-05, 0.02568388, -0.02735546, 0.4000025, 0.01397237, -0.0001805739, 2.514647E-05, 0.02595185, -0.02709092, 0.4000036
 226136176, 0.0145708, -0.01207974, 6.439812E-06, 0.02596845, -0.02737041, 0.400003, 0.00275892, -0.01144717, -1.398486E-05, 0.02568388, -0.02735546, 0.4000025
 226236136, 0.01921861, -0.01335213, 1.27416E-05, 0.02608869, -0.02740169, 0.4000031, 0.0145708, -0.01207974, 6.439812E-06, 0.02596845, -0.02737041, 0.400003
 226336096, 0.01569648, -0.007918095, 1.536483E-05, 0.02599727, -0.02726978, 0.4000032, 0.01921861, -0.01335213, 1.27416E-05, 0.02608869, -0.02740169, 0.4000031
 226436056, -0.005227205, 0.005721371, 8.475581E-09, 0.02550931, -0.0269644, 0.4000027, 0.01569648, -0.007918095, 1.536483E-05, 0.02599727, -0.02726978, 0.4000032
 226536016, -0.01806246, 0.01985903, 2.139059E-07, 0.02525274, -0.02668893, 0.4000027, -0.005227205, 0.005721371, 8.475581E-09, 0.02550931, -0.0269644, 0.4000027
 226635976, 0.01624317, 0.006367998, 4.027262E-05, 0.02600771, -0.02695514, 0.4000036, -0.01806246, 0.01985903, 2.139059E-07, 0.02525274, -0.02668893, 0.4000027
 226735936, -0.01661034, -0.01370711, -5.312492E-05, 0.02527875, -0.02741464, 0.4000016, 0.01624317, 0.006367998, 4.027262E-05, 0.02600771, -0.02695514, 0.4000036
 226835896, 0.02417946, 0.01213704, 6.422419E-05, 0.02621757, -0.02683408, 0.4000044, -0.01661034, -0.01370711, -5.312492E-05, 0.02527875, -0.02741464, 0.4000016
 226935856, -0.01511992, 0.02383059, 1.201975E-05, 0.02530753, -0.02661585, 0.4000031, 0.02417946, 0.01213704, 6.422419E-05, 0.02621757, -0.02683408, 0.4000044
 227035816, -0.01927675, 0.01037, -1.7926E-05, 0.02522949, -0.02686779, 0.4000026, -0.01511992, 0.02383059, 1.201975E-05, 0.02530753, -0.02661585, 0.4000031
 227135776, -0.01418417, -0.003970132, -3.246415E-05, 0.02532485, -0.02717913, 0.4000022, -0.01927675, 0.01037, -1.7926E-05, 0.02522949, -0.02686779, 0.4000026
 227235736, -0.008477933, 0.02220486, 2.15458E-05, 0.02543795, -0.02664723, 0.4000032, -0.01418417, -0.003970132, -3.246415E-05, 0.02532485, -0.02717913, 0.4000022
 227335696, -0.01336056, 0.009702078, -8.270068E-06, 0.02533789, -0.02688544, 0.4000027, -0.008477933, 0.02220486, 2.15458E-05, 0.02543795, -0.02664723, 0.4000032
 227435656, -0.01950134, 0.01869597, -4.591991E-06, 0.02521957, -0.02671187, 0.4000029, -0.01336056, 0.009702078, -8.270068E-06, 0.02533789, -0.02688544, 0.4000027
 227536449, 0.00808559, 0.01985758, 4.792388E-05, 0.02580224, -0.02668965, 0.400004, -0.01950134, 0.01869597, -4.591991E-06, 0.02521957, -0.02671187, 0.4000029
 227636409, -0.0221859, 0.02432242, -1.2276E-07, 0.02517305, -0.0266097, 0.400003, 0.00808559, 0.01985758, 4.792388E-05, 0.02580224, -0.02668965, 0.400004
 227736369, -0.0099961, 0.0190736, 1.34498E-05, 0.02540328, -0.02670358, 0.4000033, -0.0221859, 0.02432242, -1.2276E-07, 0.02517305, -0.0266097, 0.400003
 227836329, -0.02030939, 0.01121991, -1.858946E-05, 0.02520486, -0.02685433, 0.4000027, -0.0099961, 0.0190736, 1.34498E-05, 0.02540328, -0.02670358, 0.4000033
 227936289, 0.0214314, 0.0217105, 7.548102E-05, 0.0261387, -0.02665626, 0.4000047, -0.02030939, 0.01121991, -1.858946E-05, 0.02520486, -0.02685433, 0.4000027
 228036249, 0.004964223, -0.0100799, -7.703801E-06, 0.0257298, -0.02732489, 0.4000028, 0.0214314, 0.0217105, 7.548102E-05, 0.0261387, -0.02665626, 0.4000047
 228136209, 0.006219151, 0.02324392, 5.011668E-05, 0.02575903, -0.02662886, 0.400004, 0.004964223, -0.0100799, -7.703801E-06, 0.0257298, -0.02732489, 0.4000028
 228236169, 0.02439927, -0.003569477, 3.867577E-05, 0.0262206, -0.02717177, 0.4000039, 0.006219151, 0.02324392, 5.011668E-05, 0.02575903, -0.02662886, 0.400004
 228336129, 0.008604447, 0.00956802, 3.168242E-05, 0.02581702, -0.02688805, 0.4000035, 0.02439927, -0.003569477, 3.867577E-05, 0.0262206, -0.02717177, 0.4000039
 228436089, -0.001465661, -0.002632979, -7.071529E-06, 0.02558654, -0.02715125, 0.4000026, 0.008604447, 0.00956802, 3.168242E-05, 0.02581702, -0.02688805, 0.4000035
 228536049, 0.003057831, 0.01079812, 2.362576E-05, 0.02568885, -0.02686461, 0.4000031, -0.001465661, -0.002632979, -7.071529E-06, 0.02558654, -0.02715125, 0.4000026
 228636009, -0.0005593523, 0.009256018, 1.447923E-05, 0.02560814, -0.02689678, 0.4000028, 0.003057831, 0.01079812, 2.362576E-05, 0.02568885, -0.02686461, 0.4000031
 228735969, 0.0006245322, -0.0008899217, -3.495535E-07, 0.02563149, -0.02711446, 0.4000026, -0.0005593523, 0.009256018, 1.447923E-05, 0.02560814, -0.02689678, 0.4000028
 228835929, -0.001767567, -0.01860603, -3.447706E-05, 0.02557585, -0.02754448, 0.4000019, 0.0006245322, -0.0008899217, -3.495535E-07, 0.02563149, -0.02711446, 0.4000026
 228935889, 0.01119077, 0.01582444, 4.718117E-05, 0.02587726, -0.0267717, 0.4000036, -0.001767567, -0.01860603, -3.447706E-05, 0.02557585, -0.02754448, 0.4000019
 229035849, -0.004291872, -0.0007698722, -9.164397E-06, 0.0255229, -0.02711792, 0.4000021, 0.01119077, 0.01582444, 4.718117E-05, 0.02587726, -0.0267717, 0.4000036
 229135809, -0.01575627, 0.008688001, -1.411478E-05, 0.02529112, -0.02691802, 0.4000019, -0.004291872, -0.0007698722, -9.164397E-06, 0.0255229, -0.02711792, 0.4000021
 229235769, 0.0114419, 0.006617931, 3.227754E-05, 0.02588309, -0.02696347, 0.4000028, -0.01575627, 0.008688001, -1.411478E-05, 0.02529112, -0.02691802, 0.4000019
 229335729, 0.01661805, 0.02219598, 6.85007E-05, 0.02601051, -0.02666389, 0.4000036, 0.0114419, 0.006617931, 3.227754E-05, 0.02588309, -0.02696347, 0.4000028
 229435689, -0.0161274, 0.009856238, -1.290872E-05, 0.02527875, -0.026899, 0.4000019, 0.01661805, 0.02219598, 6.85007E-05, 0.02601051, -0.02666389, 0.4000036
 229536482, -0.02236616, -0.01023315, -5.877207E-05, 0.02516484, -0.02734683, 0.4000009, -0.0161274, 0.009856238, -1.290872E-05, 0.02527875, -0.026899, 0.4000019
 229636442, -0.0103312, -0.02113264, -5.519388E-05, 0.02539359, -0.02762393, 0.4000008, -0.02236616, -0.01023315, -5.877207E-05, 0.02516484, -0.02734683, 0.4000009
 229736402, 0.02507639, -0.01327476, 2.32906E-05, 0.02623775, -0.02742017, 0.4000025, -0.0103312, -0.02113264, -5.519388E-05, 0.02539359, -0.02762393, 0.4000008
 229836362, 0.01533674, 0.0002087351, 2.832375E-05, 0.02598444, -0.02710107, 0.4000024, 0.02507639, -0.01327476, 2.32906E-05, 0.02623775, -0.02742017, 0.4000025
 229936322, -0.02183054, 0.00761219, -2.685989E-05, 0.02518323, -0.02693915, 0.4000014, 0.01533674, 0.0002087351, 2.832375E-05, 0.02598444, -0.02710107, 0.4000024
 230036282, -0.01300469, -0.01780646, -5.37466E-05, 0.02534806, -0.02752811, 0.4000009, -0.02183054, 0.00761219, -2.685989E-05, 0.02518323, -0.02693915, 0.4000014
 230136242, 0.01590502, -0.02155168, -7.338234E-06, 0.02600037, -0.02762427, 0.400002, -0.01300469, -0.01780646, -5.37466E-05, 0.02534806, -0.02752811, 0.4000009
 230236202, 0.01705098, 0.016421, 5.852718E-05, 0.02603033, -0.02675839, 0.4000036, 0.01590502, -0.02155168, -7.338234E-06, 0.02600037, -0.02762427, 0.400002
 230336162, 0.01995241, 0.02321541, 7.511675E-05, 0.02610491, -0.02663286, 0.4000041, 0.01705098, 0.016421, 5.852718E-05, 0.02603033, -0.02675839, 0.4000036
 230436122, -0.02484671, 0.004003112, -3.85279E-05, 0.02513061, -0.02700509, 0.4000019, 0.01995241, 0.02321541, 7.511675E-05, 0.02610491, -0.02663286, 0.4000041
 230536082, 0.01639407, -0.008906236, 1.496062E-05, 0.02601326, -0.02729694, 0.400003, -0.02484671, 0.004003112, -3.85279E-05, 0.02513061, -0.02700509, 0.4000019
 230636042, -0.02123242, 0.01457575, -1.431341E-05, 0.02519611, -0.02678688, 0.4000024, 0.01639407, -0.008906236, 1.496062E-05, 0.02601326, -0.02729694, 0.400003
 230736002, -0.01775194, -0.005143904, -4.074895E-05, 0.02525932, -0.02720637, 0.4000019, -0.02123242, 0.01457575, -1.431341E-05, 0.02519611, -0.02678688, 0.4000024
 230835962, 0.006054692, 0.002857487, 1.573088E-05, 0.02575992, -0.02702612, 0.4000032, -0.01775194, -0.005143904, -4.074895E-05, 0.02525932, -0.02720637, 0.4000019
 230935922, 0.002865458, 0.02400189, 4.481552E-05, 0.02568798, -0.02661076, 0.4000038, 0.006054692, 0.002857487, 1.573088E-05, 0.02575992, -0.02702612, 0.4000032
 231035882, -0.02294091, -0.02136713, -7.654318E-05, 0.02516863, -0.02760504, 0.4000012, 0.002865458, 0.02400189, 4.481552E-05, 0.02568798, -0.02661076, 0.4000038
 231135842, 0.001073871, -0.01900878, -2.916721E-05, 0.02564779, -0.02753975, 0.4000025, -0.02294091, -0.02136713, -7.654318E-05, 0.02516863, -0.02760504, 0.4000012
 231235802, 0.01148565, -0.01349428, -1.173212E-06, 0.02589101, -0.02739636, 0.4000034, 0.001073871, -0.01900878, -2.916721E-05, 0.02564779, -0.02753975, 0.4000025
 231335762, -0.01373693, -0.007107694, -3.649064E-05, 0.02533669, -0.02724241, 0.4000025, 0.01148565, -0.01349428, -1.173212E-06, 0.02589101, -0.02739636, 0.4000034
 231435722, -0.01070093, 0.0005892019, -1.840274E-05, 0.02539719, -0.02706725, 0.4000028, -0.01373693, -0.007107694, -3.649064E-05, 0.02533669, -0.02724241, 0.4000025
 231535682, 0.00782848, -0.01453936, -9.573866E-06, 0.02580371, -0.02742378, 0.4000031, -0.01070093, 0.0005892019, -1.840274E-05, 0.02539719, -0.02706725, 0.4000028
 231636475, -0.01039585, 0.02378856, 1.994886E-05, 0.02540409, -0.02660578, 0.4000037, 0.00782848, -0.01453936, -9.573866E-06, 0.02580371, -0.02742378, 0.4000031
 231736435, 0.01228053, 0.002278554, 2.586783E-05, 0.02591377, -0.0270266, 0.400004, -0.01039585, 0.02378856, 1.994886E-05, 0.02540409, -0.02660578, 0.4000037
 231836395, -0.01806878, -0.003673301, -3.85899E-05, 0.02525665, -0.02716, 0.4000025, 0.01228053, 0.002278554, 2.586783E-05, 0.02591377, -0.0270266, 0.400004
 231936355, -0.007682281, 0.02052705, 1.944538E-05, 0.02545952, -0.0266618, 0.4000039, -0.01806878, -0.003673301, -3.85899E-05, 0.02525665, -0.02716, 0.4000025
 232036315, -0.00231611, -0.02486166, -4.447078E-05, 0.02557208, -0.02768986, 0.4000026, -0.007682281, 0.02052705, 1.944538E-05, 0.02545952, -0.0266618, 0.4000039
 232136275, 0.02177467, 0.01687599, 6.681534E-05, 0.02615457, -0.02672824, 0.4000053, -0.00231611, -0.02486166, -4.447078E-05, 0.02557208, -0.02768986, 0.4000026
 232236235, 0.01097203, -0.02238487, -1.640082E-05, 0.02587846, -0.02762311, 0.4000033, 0.02177467, 0.01687599, 6.681534E-05, 0.02615457, -0.02672824, 0.4000053
 232336195, -0.01096762, -5.679191E-05, -1.997099E-05, 0.02539057, -0.02707713, 0.4000033, 0.01097203, -0.02238487, -1.640082E-05, 0.02587846, -0.02762311, 0.4000033
 232436155, 0.009246873, -0.02299629, -2.068014E-05, 0.02583633, -0.02764242, 0.400003, -0.01096762, -5.679191E-05, -1.997099E-05, 0.02539057, -0.02707713, 0.4000033
 232536115, 0.01008501, -0.007098123, 6.698293E-06, 0.0258548, -0.02724437, 0.4000035, 0.009246873, -0.02299629, -2.068014E-05, 0.02583633, -0.02764242, 0.400003
 232636075, 0.006699721, 0.02503984, 5.348022E-05, 0.02577185, -0.02659228, 0.4000043, 0.01008501, -0.007098123, 6.698293E-06, 0.0258548, -0.02724437, 0.4000035
 232736035, -0.004226134, -0.02083291, -4.205239E-05, 0.02552704, -0.02759318, 0.4000022, 0.006699721, 0.02503984, 5.348022E-05, 0.02577185, -0.02659228, 0.4000043
 232835995, -0.006195697, 0.01028878, 5.70844E-06, 0.02548587, -0.02686798, 0.4000032, -0.004226134, -0.02083291, -4.205239E-05, 0.02552704, -0.02759318, 0.4000022
