TimeUS,COFN,COFE,COFD,CNe,CEe,CDe,POFN,POFE,POFD,PNe,PEe,PDe
 157954293, 0, 0, 0, 0, 0, 0, 0, 0, 0, 0, 0, 0
 158054253, 0, 0, 0, 0, 0, 0, 0, 0, 0, 0, 0, 0
 158154213, 0, 0, 0, 0, 0, 0, 0, 0, 0, 0, 0, 0
 158254173, 0, 0, 0, 0, 0, 0, 0, 0, 0, 0, 0, 0
 158354133, 0, 0, 0, 0, 0, 0, 0, 0, 0, 0, 0, 0
 158454093, 0, 0, 0, 0, 0, 0, 0, 0, 0, 0, 0, 0
 158554053, 0, 0, 0, 0, 0, 0, 0, 0, 0, 0, 0, 0
 158654013, 0, 0, 0, 0, 0, 0, 0, 0, 0, 0, 0, 0
 158773965, 0, 0, 0, 0, 0, 0, 0, 0, 0, 0, 0, 0
 158873925, 0, 0, 0, 0, 0, 0, 0, 0, 0, 0, 0, 0
 158973885, 0, 0, 0, 0, 0, 0, 0, 0, 0, 0, 0, 0
 159073845, 0, 0, 0, 0, 0, 0, 0, 0, 0, 0, 0, 0
 159173805, 0, 0, 0, 0, 0, 0, 0, 0, 0, 0, 0, 0
 159273765, 0, 0, 0, 0, 0, 0, 0, 0, 0, 0, 0, 0
 159373725, 0, 0, 0, 0, 0, 0, 0, 0, 0, 0, 0, 0
 159473685, 0, 0, 0, 0, 0, 0, 0, 0, 0, 0, 0, 0
 159573645, 0, 0, 0, 0, 0, 0, 0, 0, 0, 0, 0, 0
 159673605, 0, 0, 0, 0, 0, 0, 0, 0, 0, 0, 0, 0
 159773565, 0, 0, 0, 0, 0, 0, 0, 0, 0, 0, 0, 0
 159873525, 0, 0, 0, 0, 0, 0, 0, 0, 0, 0, 0, 0
 159973485, 0, 0, 0, 0, 0, 0, 0, 0, 0, 0, 0, 0
 160074278, 0, 0, 0, 0, 0, 0, 0, 0, 0, 0, 0, 0
 160174238, 0, 0, 0, 0, 0, 0, 0, 0, 0, 0, 0, 0
 160274198, 0, 0, 0, 0, 0, 0, 0, 0, 0, 0, 0, 0
 160374158, 0, 0, 0, 0, 0, 0, 0, 0, 0, 0, 0, 0
 160474118, 0, 0, 0, 0, 0, 0, 0, 0, 0, 0, 0, 0
 160574078, 0, 0, 0, 0, 0, 0, 0, 0, 0, 0, 0, 0
 160674038, 0, 0, 0, 0, 0, 0, 0, 0, 0, 0, 0, 0
 160773998, 0, 0, 0, 0, 0, 0, 0, 0, 0, 0, 0, 0
 160893950, 0, 0, 0, 0, 0, 0, 0, 0, 0, 0, 0, 0
 160993910, 0, 0, 0, 0, 0, 0, 0, 0, 0, 0, 0, 0
 161093870, 0, 0, 0, 0, 0, 0, 0, 0, 0, 0, 0, 0
 161193830, 0, 0, 0, 0, 0, 0, 0, 0, 0, 0, 0, 0
 161293790, -0.06615403, 0.005718337, 0.006057552, 0.00717896, 0.001539769, -0.0006016397, 0, 0, 0, 0, 0, 0
 161393750, -0.2825172, 0.02998565, -0.0320189, 0.1198214, -0.01002267, 0.9929762, -0.06615403, 0.005718337, 0.006057552, 0.00717896, 0.001539769, -0.0006016397
 161493710, 0.4140398, -0.04604974, -0.07282515, 0.5424544, -0.05432294, 0.9493875, -0.2825172, 0.02998565, -0.0320189, 0.1198214, -0.01002267, 0.9929762
 161593670, 0.1268779, -0.01653607, -0.07401086, 0.1559692, -0.008926217, 0.9889885, 0.4140398, -0.04604974, -0.07282515, 0.5424544, -0.05432294, 0.9493875
 161693630, 0.05810129, -0.009178876, -0.06695016, 0.131099, -0.001794405, 0.9915563, 0.1268779, -0.01653607, -0.07401086, 0.1559692, -0.008926217, 0.9889885
 161793590, 0.03667022, -0.003230579, -0.06462996, 0.1273349, 0.002879434, 0.9919416, 0.05810129, -0.009178876, -0.06695016, 0.131099, -0.001794405, 0.9915563
 161893550, 0.0242711, -8.581937E-05, -0.0330387, 0.1251306, 0.004593625, 0.9921787, 0.03667022, -0.003230579, -0.06462996, 0.1273349, 0.002879434, 0.9919416
 161993510, 0.01295054, -0.001391582, -0.03173951, 0.1245715, 0.003296791, 0.9922385, 0.0242711, -8.581937E-05, -0.0330387, 0.1251306, 0.004593625, 0.9921787
 162094303, -0.004916159, 0.002312618, -0.02961931, 0.1237885, 0.001558322, 0.9923295, 0.01295054, -0.001391582, -0.03173951, 0.1245715, 0.003296791, 0.9922385
 162194263, -0.02009364, 0.001074911, -0.05798262, 0.1256118, -0.0006547282, 0.9920976, -0.004916159, 0.002312618, -0.02961931, 0.1237885, 0.001558322, 0.9923295
 162294223, -0.03331358, 0.0040582, -0.05629791, 0.126415, -0.002597054, 0.9919923, -0.02009364, 0.001074911, -0.05798262, 0.1256118, -0.0006547282, 0.9920976
 162394183, -0.04964481, 0.002362065, -0.05413744, 0.1290634, -0.005085246, 0.9916394, -0.03331358, 0.0040582, -0.05629791, 0.126415, -0.002597054, 0.9919923
 162494143, -0.08307517, 0.006318149, -0.04956141, 0.131878, -0.004802311, 0.9912709, -0.04964481, 0.002362065, -0.05413744, 0.1290634, -0.005085246, 0.9916394
 162594103, -0.1035327, 0.008304182, -0.04164639, 0.1342106, -0.001441002, 0.9909707, -0.08307517, 0.006318149, -0.04956141, 0.131878, -0.004802311, 0.9912709
 162694063, -0.1407037, 0.009522283, -0.0467691, 0.1354138, 0.0008665966, 0.9908102, -0.1035327, 0.008304182, -0.04164639, 0.1342106, -0.001441002, 0.9909707
 162794023, -0.1772342, 0.01479804, -0.03666315, 0.1384386, 0.001490931, 0.9904016, -0.1407037, 0.009522283, -0.0467691, 0.1354138, 0.0008665966, 0.9908102
 162913975, -0.2226477, 0.02887947, -0.03542668, 0.1422461, -0.0006378526, 0.989894, -0.1772342, 0.01479804, -0.03666315, 0.1384386, 0.001490931, 0.9904016
 163013935, -0.2816541, 0.03333071, -0.01735055, 0.148037, -0.004406549, 0.9891062, -0.2226477, 0.02887947, -0.03542668, 0.1422461, -0.0006378526, 0.989894
 163113895, -0.4422503, 0.05021836, -9.183213E-05, 0.1739952, -0.008540466, 0.9855365, -0.2816541, 0.03333071, -0.01735055, 0.148037, -0.004406549, 0.9891062
 163213855, -0.5635832, 0.05726701, 0.01202691, 0.2003701, -0.01119106, 0.9818541, -0.4422503, 0.05021836, -9.183213E-05, 0.1739952, -0.008540466, 0.9855365
 163313815, -0.6034831, 0.06434364, 0.0223823, 0.2082462, -0.01302965, 0.9807941, -0.5635832, 0.05726701, 0.01202691, 0.2003701, -0.01119106, 0.9818541
 163413775, -1.04267, 0.119739, 0.08459034, 0.3510462, -0.03162097, 0.9607843, -0.6034831, 0.06434364, 0.0223823, 0.2082462, -0.01302965, 0.9807941
 163513735, -1.889773, 0.214542, 0.211315, 0.7597321, -0.07949476, 0.9026246, -1.04267, 0.119739, 0.08459034, 0.3510462, -0.03162097, 0.9607843
 163613695, -2.04487, 0.2411947, 0.2289726, 0.8363475, -0.08659136, 0.8915924, -1.889773, 0.214542, 0.211315, 0.7597321, -0.07949476, 0.9026246
 163713655, -10.29455, 1.199762, 1.382676, 7.657688, -0.8793801, -0.06740832, -2.04487, 0.2411947, 0.2289726, 0.8363475, -0.08659136, 0.8915924
 163813615, 3.567321, -0.424113, -0.5662755, 219.3729, -25.66104, -30.07944, -10.29455, 1.199762, 1.382676, 7.657688, -0.8793801, -0.06740832
 163913575, 1.264613, -0.1523219, -0.241583, 0.9062814, -0.09992573, 0.8805475, 3.567321, -0.424113, -0.5662755, 219.3729, -25.66104, -30.07944
 164013535, 1.456519, -0.1759241, -0.265535, 1.160562, -0.1308106, 0.843107, 1.264613, -0.1523219, -0.241583, 0.9062814, -0.09992573, 0.8805475
 164113495, 1.061186, -0.1198006, -0.2134093, 0.6163803, -0.06567085, 0.9215286, 1.456519, -0.1759241, -0.265535, 1.160562, -0.1308106, 0.843107
 164214288, 0.8453366, -0.1011724, -0.1808314, 0.4268314, -0.04286566, 0.9493896, 1.061186, -0.1198006, -0.2134093, 0.6163803, -0.06567085, 0.9215286
 164314248, 0.8329639, -0.09516525, -0.178227, 0.4079801, -0.03891036, 0.9523298, 0.8453366, -0.1011724, -0.1808314, 0.4268314, -0.04286566, 0.9493896
 164414208, 0.6279619, -0.0683434, -0.150508, 0.2957349, -0.02384124, 0.9678919, 0.8329639, -0.09516525, -0.178227, 0.4079801, -0.03891036, 0.9523298
 164514168, 0.6468678, -0.07069034, -0.1426943, 0.2987639, -0.02381244, 0.9675657, 0.6279619, -0.0683434, -0.150508, 0.2957349, -0.02384124, 0.9678919
 164614128, 0.6474717, -0.07936678, -0.1528333, 0.2954932, -0.02253323, 0.968083, 0.6468678, -0.07069034, -0.1426943, 0.2987639, -0.02381244, 0.9675657
 164714088, 0.5169878, -0.07122444, -0.1331891, 0.2424953, -0.01526113, 0.9758642, 0.6474717, -0.07936678, -0.1528333, 0.2954932, -0.02253323, 0.968083
 164814048, 0.5275198, -0.06668086, -0.1319888, 0.2387994, -0.01420487, 0.976885, 0.5169878, -0.07122444, -0.1331891, 0.2424953, -0.01526113, 0.9758642
 164914008, 0.5402163, -0.07499529, -0.1320041, 0.2376717, -0.01449243, 0.9773843, 0.5275198, -0.06668086, -0.1319888, 0.2387994, -0.01420487, 0.976885
 165033960, 0.4913717, -0.05235592, -0.1129656, 0.2158575, -0.01053872, 0.9806743, 0.5402163, -0.07499529, -0.1320041, 0.2376717, -0.01449243, 0.9773843
 165133920, 0.4593131, -0.06604436, -0.1175967, 0.2033402, -0.009872017, 0.9825354, 0.4913717, -0.05235592, -0.1129656, 0.2158575, -0.01053872, 0.9806743
 165233880, 0.4301703, -0.04997581, -0.111273, 0.1888974, -0.009848688, 0.9847343, 0.4593131, -0.06604436, -0.1175967, 0.2033402, -0.009872017, 0.9825354
 165333840, 0.4408278, -0.05862855, -0.1156128, 0.1861055, -0.01030254, 0.9853932, 0.4301703, -0.04997581, -0.111273, 0.1888974, -0.009848688, 0.9847343
 165433800, 0.4535471, -0.04920777, -0.1103763, 0.1845965, -0.01015228, 0.9858074, 0.4408278, -0.05862855, -0.1156128, 0.1861055, -0.01030254, 0.9853932
 165533760, 0.4463731, -0.05587393, -0.07832915, 0.1790131, -0.00900235, 0.9866118, 0.4535471, -0.04920777, -0.1103763, 0.1845965, -0.01015228, 0.9858074
 165633720, 0.3873032, -0.04059396, -0.1054116, 0.1628506, -0.004134121, 0.9885989, 0.4463731, -0.05587393, -0.07832915, 0.1790131, -0.00900235, 0.9866118
 165733680, 0.4457658, -0.05659269, -0.1050321, 0.1708831, -0.005225436, 0.9879995, 0.3873032, -0.04059396, -0.1054116, 0.1628506, -0.004134121, 0.9885989
 165833640, 0.3792527, -0.03945359, -0.09737843, 0.1546265, -0.003716304, 0.9897649, 0.4457658, -0.05659269, -0.1050321, 0.1708831, -0.005225436, 0.9879995
 165933600, 0.443295, -0.03753573, -0.1016882, 0.1622633, -0.004387897, 0.9892985, 0.3792527, -0.03945359, -0.09737843, 0.1546265, -0.003716304, 0.9897649
 166033560, 0.4314588, -0.06216375, -0.09878848, 0.1550933, -0.003815032, 0.9902703, 0.443295, -0.03753573, -0.1016882, 0.1622633, -0.004387897, 0.9892985
 166133520, 0.3642345, -0.05935009, -0.06173334, 0.1392949, -0.002508842, 0.9918234, 0.4314588, -0.06216375, -0.09878848, 0.1550933, -0.003815032, 0.9902703
 166233480, 0.3768303, -0.03907455, -0.08674242, 0.1389511, -0.0001112437, 0.9919838, 0.3642345, -0.05935009, -0.06173334, 0.1392949, -0.002508842, 0.9918234
 166334273, 0.3625365, -0.03094507, -0.0892411, 0.1329182, 0.0009661876, 0.9926667, 0.3768303, -0.03907455, -0.08674242, 0.1389511, -0.0001112437, 0.9919838
 166434233, 0.3894426, -0.04273736, -0.05985341, 0.1328786, 0.0001187958, 0.9928861, 0.3625365, -0.03094507, -0.0892411, 0.1329182, 0.0009661876, 0.9926667
 166534193, 0.3629919, -0.05089815, -0.0870206, 0.1261164, 0.0004599271, 0.9935437, 0.3894426, -0.04273736, -0.05985341, 0.1328786, 0.0001187958, 0.9928861
 166634153, 0.3521209, -0.0587487, -0.0853352, 0.1211253, -0.002467641, 0.9940697, 0.3629919, -0.05089815, -0.0870206, 0.1261164, 0.0004599271, 0.9935437
 166734113, 0.3613414, -0.04854798, -0.05455281, 0.1167217, -0.01528324, 0.9945245, 0.3521209, -0.0587487, -0.0853352, 0.1211253, -0.002467641, 0.9940697
 166834073, 0.3711008, -0.02905728, -0.05264698, 0.1107731, -0.03412093, 0.9947985, 0.3613414, -0.04854798, -0.05455281, 0.1167217, -0.01528324, 0.9945245
 166934033, 0.3625715, -0.0348368, -0.05018473, 0.1017506, -0.04943932, 0.9950474, 0.3711008, -0.02905728, -0.05264698, 0.1107731, -0.03412093, 0.9947985
 167033993, 0.3666736, -0.05490401, -0.0497155, 0.09646664, -0.05564763, 0.9952794, 0.3625715, -0.0348368, -0.05018473, 0.1017506, -0.04943932, 0.9950474
 167153945, 0.3675762, -0.04459669, -0.04265764, 0.09308096, -0.05083449, 0.9958542, 0.3666736, -0.05490401, -0.0497155, 0.09646664, -0.05564763, 0.9952794
 167253905, 0.3524966, -0.05048973, -0.04597125, 0.08847774, -0.03970345, 0.996671, 0.3675762, -0.04459669, -0.04265764, 0.09308096, -0.05083449, 0.9958542
 167353865, 0.3653235, -0.06150594, -0.04042579, 0.08782624, -0.02883354, 0.9971926, 0.3524966, -0.05048973, -0.04597125, 0.08847774, -0.03970345, 0.996671
 167453825, 0.3762075, -0.0461063, -0.04369767, 0.08603829, -0.02122244, 0.9976119, 0.3653235, -0.06150594, -0.04042579, 0.08782624, -0.02883354, 0.9971926
 167553785, 0.3386492, -0.05238772, -0.04101827, 0.07606281, -0.01940296, 0.998198, 0.3762075, -0.0461063, -0.04369767, 0.08603829, -0.02122244, 0.9976119
 167653745, 0.3762045, -0.03127724, -0.03948904, 0.07558521, -0.02241886, 0.9984191, 0.3386492, -0.05238772, -0.04101827, 0.07606281, -0.01940296, 0.998198
 167753705, 0.3848302, -0.0526772, -0.03900767, 0.07266034, -0.02721619, 0.9985848, 0.3762045, -0.03127724, -0.03948904, 0.07558521, -0.02241886, 0.9984191
 167853665, 0.3607083, -0.04110111, -0.006605324, 0.06474865, -0.02805182, 0.9989228, 0.3848302, -0.0526772, -0.03900767, 0.07266034, -0.02721619, 0.9985848
 167953625, 0.3349783, -0.02731412, -0.03463458, 0.05813283, -0.02628498, 0.999216, 0.3607083, -0.04110111, -0.006605324, 0.06474865, -0.02805182, 0.9989228
 168053585, 0.3832281, -0.05727644, -0.005021653, 0.06178882, -0.02467458, 0.9993607, 0.3349783, -0.02731412, -0.03463458, 0.05813283, -0.02628498, 0.999216
 168153545, 0.3708703, -0.03345988, -0.002976777, 0.05723981, -0.0202203, 0.9996352, 0.3832281, -0.05727644, -0.005021653, 0.06178882, -0.02467458, 0.9993607
 168253505, 0.3657391, -0.02818586, -0.001387894, 0.05299967, -0.01588041, 0.9999111, 0.3708703, -0.03345988, -0.002976777, 0.05723981, -0.0202203, 0.9996352
 168354298, 0.3597623, -0.04020954, -0.02499197, 0.04766823, -0.01344216, 1.000176, 0.3657391, -0.02818586, -0.001387894, 0.05299967, -0.01588041, 0.9999111
 168454258, 0.3523924, -0.02383072, -0.02782343, 0.04158335, -0.01234356, 1.000413, 0.3597623, -0.04020954, -0.02499197, 0.04766823, -0.01344216, 1.000176
 168554218, 0.347856, -0.0557152, -0.02739543, 0.03734038, -0.01356705, 1.000539, 0.3523924, -0.02383072, -0.02782343, 0.04158335, -0.01234356, 1.000413
 168654178, 0.3782219, -0.02855308, 0.004921246, 0.03789109, -0.01340483, 1.000717, 0.347856, -0.0557152, -0.02739543, 0.03734038, -0.01356705, 1.000539
 168754138, 0.3217894, -0.01613278, 0.00507959, 0.02865572, -0.01103065, 1.000711, 0.3782219, -0.02855308, 0.004921246, 0.03789109, -0.01340483, 1.000717
 168854098, 0.342982, -0.04121909, 0.005559266, 0.029328, -0.01000833, 1.000819, 0.3217894, -0.01613278, 0.00507959, 0.02865572, -0.01103065, 1.000711
 168954058, 0.3751477, -0.02072017, -0.02158091, 0.02856074, -0.008321838, 1.001054, 0.342982, -0.04121909, 0.005559266, 0.029328, -0.01000833, 1.000819
 169054018, 0.323542, -0.02426079, 0.008621608, 0.01769448, -0.006439764, 1.001015, 0.3751477, -0.02072017, -0.02158091, 0.02856074, -0.008321838, 1.001054
 169173970, 0.3506981, -0.04631016, 0.01132889, 0.01452512, -0.005139381, 1.001228, 0.323542, -0.02426079, 0.008621608, 0.01769448, -0.006439764, 1.001015
 169273930, 0.3201325, -0.02268134, 0.01236296, 0.005696617, -0.002315622, 1.001157, 0.3506981, -0.04631016, 0.01132889, 0.01452512, -0.005139381, 1.001228
 169373890, 0.3152826, -0.02918951, 0.0130357, 0.002158664, -0.001578299, 1.001148, 0.3201325, -0.02268134, 0.01236296, 0.005696617, -0.002315622, 1.001157
 169473850, 0.3220693, -0.02851417, 0.013983, 0.0008424781, -0.002467994, 1.001183, 0.3152826, -0.02918951, 0.0130357, 0.002158664, -0.001578299, 1.001148
 169573810, 0.3514362, -0.04202607, 0.01564797, 0.00271564, -0.00407704, 1.001339, 0.3220693, -0.02851417, 0.013983, 0.0008424781, -0.002467994, 1.001183
 169673770, 0.3588079, -0.02878101, 0.0168123, 0.001949225, -0.003874548, 1.001387, 0.3514362, -0.04202607, 0.01564797, 0.00271564, -0.00407704, 1.001339
 169773730, 0.3113402, -0.01240305, 0.01503541, -0.004508749, -0.00190847, 1.001122, 0.3588079, -0.02878101, 0.0168123, 0.001949225, -0.003874548, 1.001387
 169873690, 0.3396763, -0.03438096, 0.01658427, -0.002383772, -0.0002069008, 1.001279, 0.3113402, -0.01240305, 0.01503541, -0.004508749, -0.00190847, 1.001122
 169973650, 0.329966, -0.03616157, 0.01743795, -0.007395007, 0.002432588, 1.001198, 0.3396763, -0.03438096, 0.01658427, -0.002383772, -0.0002069008, 1.001279
 170073610, 0.3670099, -0.02932426, 0.02078938, -0.006066591, 0.00471819, 1.00142, 0.329966, -0.03616157, 0.01743795, -0.007395007, 0.002432588, 1.001198
 170173570, 0.3222515, -0.02682614, 0.01904134, -0.01410168, 0.005289755, 1.001074, 0.3670099, -0.02932426, 0.02078938, -0.006066591, 0.00471819, 1.00142
 170273530, 0.3348254, -0.03227971, 0.02059474, -0.01507675, 0.005399768, 1.001127, 0.3222515, -0.02682614, 0.01904134, -0.01410168, 0.005289755, 1.001074
 170373490, 0.31239, -0.02579888, 0.02046862, -0.02134643, 0.008879574, 1.000871, 0.3348254, -0.03227971, 0.02059474, -0.01507675, 0.005399768, 1.001127
 170474283, 0.3461533, -0.0523749, 0.02372612, -0.01994439, 0.01216956, 1.00105, 0.31239, -0.02579888, 0.02046862, -0.02134643, 0.008879574, 1.000871
 170574243, 0.3666342, -0.04781517, 0.02590861, -0.01916124, 0.01418727, 1.001167, 0.3461533, -0.0523749, 0.02372612, -0.01994439, 0.01216956, 1.00105
 170674203, 0.3282125, -0.05094734, 0.02377806, -0.02565676, 0.01489725, 1.000781, 0.3666342, -0.04781517, 0.02590861, -0.01916124, 0.01418727, 1.001167
 170774163, 0.3194619, -0.04173063, 0.0232611, -0.02714071, 0.01507097, 1.000693, 0.3282125, -0.05094734, 0.02377806, -0.02565676, 0.01489725, 1.000781
 170874123, 0.3473705, -0.03076074, 0.0249558, -0.02304569, 0.01346655, 1.000973, 0.3194619, -0.04173063, 0.0232611, -0.02714071, 0.01507097, 1.000693
 170974083, 0.3288824, -0.04011352, 0.02398074, -0.02677781, 0.01017895, 1.000814, 0.3473705, -0.03076074, 0.0249558, -0.02304569, 0.01346655, 1.000973
 171074043, 0.3635329, -0.0444589, 0.02719098, -0.02448929, 0.008023294, 1.001099, 0.3288824, -0.04011352, 0.02398074, -0.02677781, 0.01017895, 1.000814
 171174003, 0.3426231, -0.01555371, 0.02625903, -0.02868105, 0.008143725, 1.000859, 0.3635329, -0.0444589, 0.02719098, -0.02448929, 0.008023294, 1.001099
 171293955, 0.36937, -0.04557662, 0.02842612, -0.02598939, 0.006926244, 1.001108, 0.3426231, -0.01555371, 0.02625903, -0.02868105, 0.008143725, 1.000859
 171393915, 0.3272593, -0.02205214, 0.02584364, -0.03297215, 0.008173107, 1.00064, 0.36937, -0.04557662, 0.02842612, -0.02598939, 0.006926244, 1.001108
 171493875, 0.3175955, -0.04884973, 0.025766, -0.03650203, 0.008603739, 1.000458, 0.3272593, -0.02205214, 0.02584364, -0.03297215, 0.008173107, 1.00064
 171593835, 0.3362195, -0.03638219, 0.05806269, -0.0359152, 0.007352831, 1.000606, 0.3175955, -0.04884973, 0.025766, -0.03650203, 0.008603739, 1.000458
 171693795, 0.3730901, -0.01705559, 0.03137692, -0.03216899, 0.005107377, 1.000966, 0.3362195, -0.03638219, 0.05806269, -0.0359152, 0.007352831, 1.000606
 171793755, 0.3173367, -0.04437895, 0.0266754, -0.03994402, 0.004920731, 1.000348, 0.3730901, -0.01705559, 0.03137692, -0.03216899, 0.005107377, 1.000966
 171893715, 0.3478089, -0.02309958, 0.02990397, -0.03736389, 0.006572241, 1.000612, 0.3173367, -0.04437895, 0.0266754, -0.03994402, 0.004920731, 1.000348
 171993675, 0.325886, -0.03830992, 0.0279929, -0.0399243, 0.009863613, 1.000358, 0.3478089, -0.02309958, 0.02990397, -0.03736389, 0.006572241, 1.000612
 172093635, 0.317203, -0.01885844, 0.02763559, -0.04183263, 0.01356739, 1.00019, 0.325886, -0.03830992, 0.0279929, -0.0399243, 0.009863613, 1.000358
 172193595, 0.3729862, -0.0299854, 0.03272619, -0.03509629, 0.01422587, 1.000783, 0.317203, -0.01885844, 0.02763559, -0.04183263, 0.01356739, 1.00019
 172293555, 0.345777, -0.021321, 0.03060526, -0.03953902, 0.01476102, 1.000429, 0.3729862, -0.0299854, 0.03272619, -0.03509629, 0.01422587, 1.000783
 172393515, 0.3588325, -0.03049166, 0.03191667, -0.03821332, 0.0138232, 1.000578, 0.345777, -0.021321, 0.03060526, -0.03953902, 0.01476102, 1.000429
 172493475, 0.3250723, -0.046317, 0.02897536, -0.04279511, 0.01260187, 1.000202, 0.3588325, -0.03049166, 0.03191667, -0.03821332, 0.0138232, 1.000578
 172594268, 0.3457076, -0.02229588, 0.03082753, -0.04017562, 0.01358632, 1.00042, 0.3250723, -0.046317, 0.02897536, -0.04279511, 0.01260187, 1.000202
 172694228, 0.3545214, -0.0451249, 0.05161586, -0.03849486, 0.0122972, 1.000573, 0.3457076, -0.02229588, 0.03082753, -0.04017562, 0.01358632, 1.00042
 172794188, 0.357603, -0.04215944, 0.06253611, -0.03985352, 0.01048183, 1.000567, 0.3545214, -0.0451249, 0.05161586, -0.03849486, 0.0122972, 1.000573
 172894148, 0.3474046, -0.01906863, 0.06237861, -0.04348225, 0.008087775, 1.000371, 0.357603, -0.04215944, 0.06253611, -0.03985352, 0.01048183, 1.000567
 172994108, 0.3174537, -0.04542258, 0.05991682, -0.04897441, 0.005531878, 0.9999537, 0.3474046, -0.01906863, 0.06237861, -0.04348225, 0.008087775, 1.000371
 173094068, 0.325059, -0.03149394, 0.03072286, -0.04891887, 0.004005329, 0.9999907, 0.3174537, -0.04542258, 0.05991682, -0.04897441, 0.005531878, 0.9999537
 173194028, 0.3249523, -0.04495573, 0.03083451, -0.049691, 0.003213068, 0.9999548, 0.325059, -0.03149394, 0.03072286, -0.04891887, 0.004005329, 0.9999907
 173313980, 0.3483116, -0.03498916, 0.03347862, -0.04745223, 0.003134847, 1.000208, 0.3249523, -0.04495573, 0.03083451, -0.049691, 0.003213068, 0.9999548
 173413940, 0.358374, -0.02105352, 0.06463103, -0.04540785, 0.003940615, 1.000389, 0.3483116, -0.03498916, 0.03347862, -0.04745223, 0.003134847, 1.000208
 173513900, 0.3173697, -0.03352133, 0.03016419, -0.05043777, 0.004097614, 0.9998693, 0.358374, -0.02105352, 0.06463103, -0.04540785, 0.003940615, 1.000389
 173613860, 0.3589998, -0.02661447, 0.06421819, -0.04410965, 0.003155161, 1.000456, 0.3173697, -0.03352133, 0.03016419, -0.05043777, 0.004097614, 0.9998693
 173713820, 0.3592235, -0.05104148, 0.03360547, -0.04345183, 0.003399029, 1.000469, 0.3589998, -0.02661447, 0.06421819, -0.04410965, 0.003155161, 1.000456
 173813780, 0.3370911, -0.01336787, 0.06163137, -0.04522876, 0.006420255, 1.000243, 0.3592235, -0.05104148, 0.03360547, -0.04345183, 0.003399029, 1.000469
 173913740, 0.3247666, -0.0327265, 0.06036238, -0.04674464, 0.007146056, 1.00009, 0.3370911, -0.01336787, 0.06163137, -0.04522876, 0.006420255, 1.000243
 174013700, 0.3842657, -0.03670284, 0.03610543, -0.03946356, 0.006733652, 1.00081, 0.3247666, -0.0327265, 0.06036238, -0.04674464, 0.007146056, 1.00009
 174113660, 0.3385692, -0.04009299, 0.06233269, -0.04678876, 0.007622518, 1.000173, 0.3842657, -0.03670284, 0.03610543, -0.03946356, 0.006733652, 1.00081
 174213620, 0.3546507, -0.03188942, 0.03364663, -0.0445961, 0.008031178, 1.00036, 0.3385692, -0.04009299, 0.06233269, -0.04678876, 0.007622518, 1.000173
 174313580, 0.3423584, -0.04014219, 0.03230289, -0.04587132, 0.007988729, 1.000219, 0.3546507, -0.03188942, 0.03364663, -0.0445961, 0.008031178, 1.00036
 174413540, 0.3759734, -0.0287394, 0.06576875, -0.04077552, 0.008732915, 1.000702, 0.3423584, -0.04014219, 0.03230289, -0.04587132, 0.007988729, 1.000219
 174513500, 0.3666306, -0.02359089, 0.03509548, -0.04334902, 0.01115142, 1.000475, 0.3759734, -0.0287394, 0.06576875, -0.04077552, 0.008732915, 1.000702
 174614293, 0.3778417, -0.03726987, 0.03644392, -0.03754881, 0.01279915, 0.9532, 0.3666306, -0.02359089, 0.03509548, -0.04334902, 0.01115142, 1.000475
 174714253, 0.3211265, -0.02251148, 0.06156288, -0.05112884, 0.01504295, 0.9997685, 0.3778417, -0.03726987, 0.03644392, -0.03754881, 0.01279915, 0.9532
 174814213, 0.3239105, -0.04357157, 0.03173236, -0.05078997, 0.01635271, 0.999764, 0.3211265, -0.02251148, 0.06156288, -0.05112884, 0.01504295, 0.9997685
 174914173, 0.3251391, -0.02204083, 0.06222234, -0.05108156, 0.01920206, 0.999725, 0.3239105, -0.04357157, 0.03173236, -0.05078997, 0.01635271, 0.999764
 175014133, 0.3790222, -0.04909169, 0.03789373, -0.04416199, 0.02023157, 1.000406, 0.3251391, -0.02204083, 0.06222234, -0.05108156, 0.01920206, 0.999725
 175114093, 0.326807, -0.03302424, 0.06293778, -0.05200208, 0.02087391, 0.999655, 0.3790222, -0.04909169, 0.03789373, -0.04416199, 0.02023157, 1.000406
 175214053, 0.3715057, -0.02967953, 0.03698306, -0.04555596, 0.01837612, 1.000317, 0.326807, -0.03302424, 0.06293778, -0.05200208, 0.02087391, 0.999655
 175314013, 0.3522512, -0.03604402, 0.06520139, -0.04802684, 0.01555049, 1.000127, 0.3715057, -0.02967953, 0.03698306, -0.04555596, 0.01837612, 1.000317
 175433965, 0.3713653, -0.03373831, 0.03686, -0.04544363, 0.01463161, 1.000386, 0.3522512, -0.03604402, 0.06520139, -0.04802684, 0.01555049, 1.000127
 175533925, 0.3626601, -0.01492709, 0.03554565, -0.04575085, 0.01433387, 1.000309, 0.3713653, -0.03373831, 0.03686, -0.04544363, 0.01463161, 1.000386
 175633885, 0.3762381, -0.04914357, 0.06149985, -0.04183301, 0.01152391, 1.000651, 0.3626601, -0.01492709, 0.03554565, -0.04575085, 0.01433387, 1.000309
 175733845, 0.3929976, -0.0333719, 0.03790285, -0.03949478, 0.01039299, 1.000882, 0.3762381, -0.04914357, 0.06149985, -0.04183301, 0.01152391, 1.000651
 175833805, 0.3907522, -0.02409462, 0.03790387, -0.0404395, 0.0100671, 1.000827, 0.3929976, -0.0333719, 0.03790285, -0.03949478, 0.01039299, 1.000882
 175933765, 0.3325407, -0.04346785, 0.06755639, -0.04915329, 0.009620043, 1.000015, 0.3907522, -0.02409462, 0.03790387, -0.0404395, 0.0100671, 1.000827
 176033725, 0.352318, -0.01519746, 0.03443298, -0.04699349, 0.01066708, 1.000225, 0.3325407, -0.04346785, 0.06755639, -0.04915329, 0.009620043, 1.000015
 176133685, 0.3930947, -0.04186071, 0.03764684, -0.03869249, 0.008945204, 1.000938, 0.352318, -0.01519746, 0.03443298, -0.04699349, 0.01066708, 1.000225
 176233645, 0.3815767, -0.01585276, 0.06632622, -0.03913174, 0.01012214, 1.00083, 0.3930947, -0.04186071, 0.03764684, -0.03869249, 0.008945204, 1.000938
 176333605, 0.3500424, -0.04210493, 0.03263255, -0.04272068, 0.01037183, 1.000406, 0.3815767, -0.01585276, 0.06632622, -0.03913174, 0.01012214, 1.00083
 176433565, 0.3757766, -0.02077538, 0.03514035, -0.0389852, 0.01233143, 1.000739, 0.3500424, -0.04210493, 0.03263255, -0.04272068, 0.01037183, 1.000406
 176533525, 0.3514774, -0.02666136, 0.03317829, -0.04349091, 0.01282664, 1.000355, 0.3757766, -0.02077538, 0.03514035, -0.0389852, 0.01233143, 1.000739
 176633485, 0.3585336, -0.02239765, 0.06344047, -0.04060864, 0.01148806, 1.000569, 0.3514774, -0.02666136, 0.03317829, -0.04349091, 0.01282664, 1.000355
 176734278, 0.4060206, -0.03542726, 0.06788985, -0.03296071, 0.009914384, 1.001297, 0.3585336, -0.02239765, 0.06344047, -0.04060864, 0.01148806, 1.000569
 176834238, 0.3638494, -0.02318089, 0.03413418, -0.04111486, 0.01077801, 1.000578, 0.4060206, -0.03542726, 0.06788985, -0.03296071, 0.009914384, 1.001297
 176934198, 0.3903539, -0.03905873, 0.03697397, -0.03758801, 0.0107839, 1.000951, 0.3638494, -0.02318089, 0.03413418, -0.04111486, 0.01077801, 1.000578
 177034158, 0.4115531, -0.03316528, 0.03898872, -0.03401735, 0.01041738, 1.001292, 0.3903539, -0.03905873, 0.03697397, -0.03758801, 0.0107839, 1.000951
 177134118, 0.3592235, -0.04540177, 0.03414305, -0.04288412, 0.01034141, 1.000477, 0.4115531, -0.03316528, 0.03898872, -0.03401735, 0.01041738, 1.001292
 177234078, 0.3755348, -0.03169167, 0.0358202, -0.04057244, 0.01153958, 1.000696, 0.3592235, -0.04540177, 0.03414305, -0.04288412, 0.01034141, 1.000477
 177334038, 0.3579487, -0.02650398, 0.06460034, -0.04365608, 0.01294415, 1.000428, 0.3755348, -0.03169167, 0.0358202, -0.04057244, 0.01153958, 1.000696
 177433998, 0.4033176, -0.04556264, 0.0687049, -0.03525885, 0.0125426, 1.001184, 0.3579487, -0.02650398, 0.06460034, -0.04365608, 0.01294415, 1.000428
 177553950, 0.3970042, -0.03414484, 0.03786777, -0.036602, 0.01443292, 1.001015, 0.4033176, -0.04556264, 0.0687049, -0.03525885, 0.0125426, 1.001184
 177653910, 0.3751134, -0.02979119, 0.03521544, -0.03875351, 0.01552703, 1.000713, 0.3970042, -0.03414484, 0.03786777, -0.036602, 0.01443292, 1.001015
 177753870, 0.3704265, -0.0445083, 0.0343173, -0.03801329, 0.01561755, 1.000701, 0.3751134, -0.02979119, 0.03521544, -0.03875351, 0.01552703, 1.000713
 177853830, 0.3653968, -0.02529145, 0.03308144, -0.03707062, 0.01617147, 1.000682, 0.3704265, -0.0445083, 0.0343173, -0.03801329, 0.01561755, 1.000701
 177953790, 0.3541669, -0.02791474, 0.03143705, -0.03698087, 0.01666944, 1.000587, 0.3653968, -0.02529145, 0.03308144, -0.03707062, 0.01617147, 1.000682
 178053750, 0.3985403, -0.02912393, 0.03514448, -0.02933697, 0.01565459, 1.001243, 0.3541669, -0.02791474, 0.03143705, -0.03698087, 0.01666944, 1.000587
 178153710, 0.3456232, -0.01672167, 0.0309418, -0.03938111, 0.01513462, 1.000454, 0.3985403, -0.02912393, 0.03514448, -0.02933697, 0.01565459, 1.001243
 178253670, 0.3940413, -0.04827721, 0.03554281, -0.03222742, 0.01175368, 1.001166, 0.3456232, -0.01672167, 0.0309418, -0.03938111, 0.01513462, 1.000454
 178353630, 0.4005468, -0.02916986, 0.03642524, -0.03208438, 0.01222428, 1.001222, 0.3940413, -0.04827721, 0.03554281, -0.03222742, 0.01175368, 1.001166
 178453590, 0.3465559, -0.01737535, 0.03177494, -0.04151528, 0.01294561, 1.000404, 0.4005468, -0.02916986, 0.03642524, -0.03208438, 0.01222428, 1.001222
 178553550, 0.3744062, -0.03221687, 0.03436286, -0.03729088, 0.0116536, 1.000807, 0.3465559, -0.01737535, 0.03177494, -0.04151528, 0.01294561, 1.000404
 178653510, 0.3786237, -0.02821955, 0.03468159, -0.03652846, 0.01105411, 1.000878, 0.3744062, -0.03221687, 0.03436286, -0.03729088, 0.0116536, 1.000807
 178754303, 0.3473661, -0.0109939, 0.0320152, -0.04205633, 0.01083988, 1.000412, 0.3786237, -0.02821955, 0.03468159, -0.03652846, 0.01105411, 1.000878
 178854263, 0.4012374, -0.04195941, 0.03696695, -0.03357072, 0.008389256, 1.001216, 0.3473661, -0.0109939, 0.0320152, -0.04205633, 0.01083988, 1.000412
 178954223, 0.3526455, -0.01089637, 0.03279597, -0.0421959, 0.008700565, 1.000465, 0.4012374, -0.04195941, 0.03696695, -0.03357072, 0.008389256, 1.001216
 179054183, 0.4095811, -0.03204413, 0.03770885, -0.03254868, 0.003529754, 1.001357, 0.3526455, -0.01089637, 0.03279597, -0.0421959, 0.008700565, 1.000465
 179154143, 0.3665021, -0.02272354, 0.00338283, -0.03968247, -0.001082025, 1.000688, 0.4095811, -0.03204413, 0.03770885, -0.03254868, 0.003529754, 1.001357
 179254103, 0.4137715, -0.02365825, 0.03701808, -0.02980093, -0.006918267, 1.001464, 0.3665021, -0.02272354, 0.00338283, -0.03968247, -0.001082025, 1.000688
 179354063, 0.3984029, -0.0170615, 0.03593949, -0.03306461, -0.009443499, 1.001186, 0.4137715, -0.02365825, 0.03701808, -0.02980093, -0.006918267, 1.001464
 179454023, 0.3642868, -0.01822118, 0.03298705, -0.0390794, -0.009491106, 1.00067, 0.3984029, -0.0170615, 0.03593949, -0.03306461, -0.009443499, 1.001186
 179573975, 0.3509032, -0.03988537, 0.0308086, -0.03968412, -0.01004564, 1.000538, 0.3642868, -0.01822118, 0.03298705, -0.0390794, -0.009491106, 1.00067
 179673935, 0.3799786, -0.03695119, 0.03298227, -0.03391998, -0.01060889, 1.000976, 0.3509032, -0.03988537, 0.0308086, -0.03968412, -0.01004564, 1.000538
 179773895, 0.3849171, -0.03078601, 0.03319997, -0.03232571, -0.01127628, 1.001063, 0.3799786, -0.03695119, 0.03298227, -0.03391998, -0.01060889, 1.000976
 179873855, 0.4168771, -0.01769909, 0.03597513, -0.02635452, -0.01162558, 1.001536, 0.3849171, -0.03078601, 0.03319997, -0.03232571, -0.01127628, 1.001063
 179973815, 0.3560019, -0.03510468, 0.03010518, -0.0358815, -0.01314026, 1.000679, 0.4168771, -0.01769909, 0.03597513, -0.02635452, -0.01162558, 1.001536
 180073775, 0.340913, -0.04027838, 0.02895062, -0.03899765, -0.01347052, 1.000448, 0.3560019, -0.03510468, 0.03010518, -0.0358815, -0.01314026, 1.000679
 180173735, 0.3830808, -0.02593042, 0.03287479, -0.03235046, -0.014233, 1.001001, 0.340913, -0.04027838, 0.02895062, -0.03899765, -0.01347052, 1.000448
 180273695, 0.3982419, -0.0312397, 0.03401918, -0.03017059, -0.01883212, 1.001128, 0.3830808, -0.02593042, 0.03287479, -0.03235046, -0.014233, 1.001001
 180373655, 0.3609177, -0.04178508, 0.0299214, -0.03617917, -0.03147904, 1.000292, 0.3982419, -0.0312397, 0.03401918, -0.03017059, -0.01883212, 1.001128
 180473615, 0.3675884, -0.03517334, 5.392917E-05, -0.03650232, -0.05627498, 0.9992201, 0.3609177, -0.04178508, 0.0299214, -0.03617917, -0.03147904, 1.000292
 180573575, 0.3790335, -0.003450161, 0.00387956, -0.03694625, -0.09436745, 0.9964201, 0.3675884, -0.03517334, 5.392917E-05, -0.03650232, -0.05627498, 0.9992201
 180673535, 0.3651127, 0.0007503936, -0.02666702, -0.041797, -0.1538238, 0.9886569, 0.3790335, -0.003450161, 0.00387956, -0.03694625, -0.09436745, 0.9964201
 180773495, 0.3982805, 0.01313753, -0.08196265, -0.04152907, -0.2636113, 0.9654167, 0.3651127, 0.0007503936, -0.02666702, -0.041797, -0.1538238, 0.9886569
 180874288, 0.3839217, 0.03128289, -0.04558567, -0.043566, -0.3355028, 0.9426531, 0.3982805, 0.01313753, -0.08196265, -0.04152907, -0.2636113, 0.9654167
 180974248, 0.3681284, -0.06511543, 0.1398668, -0.0352902, -0.28736, 0.9587865, 0.3839217, 0.03128289, -0.04558567, -0.043566, -0.3355028, 0.9426531
 181074208, 0.3321118, -0.05258691, 0.1335996, -0.02671285, -0.1452522, 0.9903335, 0.3681284, -0.06511543, 0.1398668, -0.0352902, -0.28736, 0.9587865
 181174168, 0.3603233, -0.02732446, 0.05409668, -0.01503871, 0.01439714, 1.001226, 0.3321118, -0.05258691, 0.1335996, -0.02671285, -0.1452522, 0.9903335
 181274128, 0.4069217, -0.01828389, -0.0005747713, -0.009914007, 0.118029, 0.9947695, 0.3603233, -0.02732446, 0.05409668, -0.01503871, 0.01439714, 1.001226
 181374088, 0.3432854, 0.00057704, 0.02556938, -0.02597538, 0.1337364, 0.9919928, 0.4069217, -0.01828389, -0.0005747713, -0.009914007, 0.118029, 0.9947695
 181474048, 0.3691818, -0.01134441, 0.05965288, -0.02584106, 0.07625519, 0.9982613, 0.3432854, 0.00057704, 0.02556938, -0.02597538, 0.1337364, 0.9919928
 181574008, 0.3939168, 0.01077447, 0.0325481, -0.02625233, -0.0117827, 1.00129, 0.3691818, -0.01134441, 0.05965288, -0.02584106, 0.07625519, 0.9982613
 181693960, 0.3703265, -0.009347755, 0.0005159099, -0.03397286, -0.09309661, 0.9965596, 0.3939168, 0.01077447, 0.0325481, -0.02625233, -0.0117827, 1.00129
 181793920, 0.3919602, -0.0300645, 0.03014659, -0.03056567, -0.1091617, 0.9952316, 0.3703265, -0.009347755, 0.0005159099, -0.03397286, -0.09309661, 0.9965596
 181893880, 0.3791934, -0.01208274, 0.03075159, -0.03030712, -0.08098523, 0.9978282, 0.3919602, -0.0300645, 0.03014659, -0.03056567, -0.1091617, 0.9952316
 181993840, 0.371742, -0.003274358, 0.02989712, -0.02831225, -0.03005424, 1.000661, 0.3791934, -0.01208274, 0.03075159, -0.03030712, -0.08098523, 0.9978282
 182093800, 0.3558989, -0.00109332, 0.02868732, -0.03052701, 0.01605665, 1.0008, 0.371742, -0.003274358, 0.02989712, -0.02831225, -0.03005424, 1.000661
 182193760, 0.361934, -0.006568845, 0.0290762, -0.02902268, 0.03965058, 1.000229, 0.3558989, -0.00109332, 0.02868732, -0.03052701, 0.01605665, 1.0008
 182293720, 0.3404675, 0.0106254, 0.0269853, -0.03226629, 0.03890852, 1.000014, 0.361934, -0.006568845, 0.0290762, -0.02902268, 0.03965058, 1.000229
 182393680, 0.3656518, -0.01026757, 0.02932782, -0.0288897, 0.01964042, 1.00085, 0.3404675, 0.0106254, 0.0269853, -0.03226629, 0.03890852, 1.000014
 182493640, 0.3944845, 0.002244849, 0.03175992, -0.0247669, -0.003201747, 1.001388, 0.3656518, -0.01026757, 0.02932782, -0.0288897, 0.01964042, 1.00085
 182593600, 0.3944916, -0.008662464, 0.03137397, -0.02464583, -0.01933981, 1.001205, 0.3944845, 0.002244849, 0.03175992, -0.0247669, -0.003201747, 1.001388
 182693560, 0.3959635, -0.0231863, 0.03044122, -0.02324165, -0.02262812, 1.001176, 0.3944916, -0.008662464, 0.03137397, -0.02464583, -0.01933981, 1.001205
 182793520, 0.4034266, -0.02452551, 0.03076048, -0.02102359, -0.01511253, 1.001434, 0.3959635, -0.0231863, 0.03044122, -0.02324165, -0.02262812, 1.001176
 182893480, 0.3525797, -0.02113043, 0.02711146, -0.02853362, -2.616271E-05, 1.000952, 0.4034266, -0.02452551, 0.03076048, -0.02102359, -0.01511253, 1.001434
 182994273, 0.394035, -0.01462972, 0.03085564, -0.02283582, 0.01424145, 1.001325, 0.3525797, -0.02113043, 0.02711146, -0.02853362, -2.616271E-05, 1.000952
 183094233, 0.3731155, -0.008476088, -0.000525374, -0.02722854, 0.02105012, 1.000904, 0.394035, -0.01462972, 0.03085564, -0.02283582, 0.01424145, 1.001325
 183194193, 0.376507, -0.01628421, 0.02925218, -0.02477081, 0.02077842, 1.001015, 0.3731155, -0.008476088, -0.000525374, -0.02722854, 0.02105012, 1.000904
 183294153, 0.3982501, 0.004190841, 0.03038254, -0.02021933, 0.01594376, 1.001397, 0.376507, -0.01628421, 0.02925218, -0.02477081, 0.02077842, 1.001015
 183394113, 0.3753173, -0.01690307, 0.0285852, -0.02404147, 0.008984431, 1.001197, 0.3982501, 0.004190841, 0.03038254, -0.02021933, 0.01594376, 1.001397
 183494073, 0.3762105, -0.01492922, -0.001775799, -0.02346309, 0.005763132, 1.001223, 0.3753173, -0.01690307, 0.0285852, -0.02404147, 0.008984431, 1.001197
 183594033, 0.3694039, 0.009022865, 0.02822698, -0.0245645, 0.005978698, 1.001172, 0.3762105, -0.01492922, -0.001775799, -0.02346309, 0.005763132, 1.001223
 183693993, 0.343511, -0.02018148, 0.02615951, -0.02896701, 0.00637267, 1.000854, 0.3694039, 0.009022865, 0.02822698, -0.0245645, 0.005978698, 1.001172
 183813945, 0.3660624, -0.004555785, 0.003070444, -0.02624079, 0.009792645, 1.001052, 0.343511, -0.02018148, 0.02615951, -0.02896701, 0.00637267, 1.000854
 183913905, 0.3465223, 0.001600049, 0.02667584, -0.02873934, 0.01313766, 1.000824, 0.3660624, -0.004555785, 0.003070444, -0.02624079, 0.009792645, 1.001052
 184013865, 0.352233, -0.01131722, 0.02661275, -0.0266794, 0.01417042, 1.000899, 0.3465223, 0.001600049, 0.02667584, -0.02873934, 0.01313766, 1.000824
 184113825, 0.405897, -0.01246637, 0.02366471, -0.001491521, 0.01243306, 1.0017, 0.352233, -0.01131722, 0.02661275, -0.0266794, 0.01417042, 1.000899
 184213785, 0.392221, 0.006330957, 0.01478141, 0.01710074, 0.01044243, 1.001462, 0.405897, -0.01246637, 0.02366471, -0.001491521, 0.01243306, 1.0017
 184313745, 0.3415392, -0.02065762, -0.01892035, 0.01390929, 0.005804913, 1.001153, 0.392221, 0.006330957, 0.01478141, 0.01710074, 0.01044243, 1.001462
 184413705, 0.3395917, -0.007770703, 0.0112695, 0.0134614, 0.003541887, 1.001169, 0.3415392, -0.02065762, -0.01892035, 0.01390929, 0.005804913, 1.001153
 184513665, 0.3659268, 0.0101359, 0.01285701, 0.01589978, 0.005301049, 1.001315, 0.3395917, -0.007770703, 0.0112695, 0.0134614, 0.003541887, 1.001169
 184613625, 0.3710971, -0.01522026, 0.01343698, 0.01474702, 0.005254878, 1.00136, 0.3659268, 0.0101359, 0.01285701, 0.01589978, 0.005301049, 1.001315
 184713585, 0.4086696, -0.008982072, 0.01513385, 0.01997089, 0.005170035, 1.001587, 0.3710971, -0.01522026, 0.01343698, 0.01474702, 0.005254878, 1.00136
 184813545, 0.402864, 0.005708744, 0.01561818, 0.01772112, 0.007219633, 1.001571, 0.4086696, -0.008982072, 0.01513385, 0.01997089, 0.005170035, 1.001587
 184913505, 0.3804421, 0.008442547, 0.01482133, 0.01409727, 0.009635437, 1.001421, 0.402864, 0.005708744, 0.01561818, 0.01772112, 0.007219633, 1.001571
 185014298, 0.3555948, 0.009464292, 0.01399485, 0.01004921, 0.01251091, 1.001254, 0.3804421, 0.008442547, 0.01482133, 0.01409727, 0.009635437, 1.001421
 185114258, 0.3825857, -0.006207591, 0.01560148, 0.01239983, 0.01331921, 1.001413, 0.3555948, 0.009464292, 0.01399485, 0.01004921, 0.01251091, 1.001254
 185214218, 0.3980334, 0.009058977, 0.01764482, 0.01139199, 0.01537361, 1.001534, 0.3825857, -0.006207591, 0.01560148, 0.01239983, 0.01331921, 1.001413
 185314178, 0.3520839, -0.002282869, 0.0156585, 0.004308842, 0.01527813, 1.001227, 0.3980334, 0.009058977, 0.01764482, 0.01139199, 0.01537361, 1.001534
 185414138, 0.3692836, -0.01016246, 0.01600819, 0.007876385, 0.01457642, 1.001337, 0.3520839, -0.002282869, 0.0156585, 0.004308842, 0.01527813, 1.001227
 185514098, 0.3717386, -0.002197105, 0.01631325, 0.007776704, 0.01392436, 1.00137, 0.3692836, -0.01016246, 0.01600819, 0.007876385, 0.01457642, 1.001337
 185614058, 0.3881233, -0.01442865, 0.01736488, 0.009327099, 0.01288376, 1.001497, 0.3717386, -0.002197105, 0.01631325, 0.007776704, 0.01392436, 1.00137
 185714018, 0.3686609, -0.007404322, 0.01606146, 0.007662714, 0.01537458, 1.001324, 0.3881233, -0.01442865, 0.01736488, 0.009327099, 0.01288376, 1.001497
 185833970, 0.3937961, -0.016727, 0.01740393, 0.0109667, 0.01791372, 1.001451, 0.3686609, -0.007404322, 0.01606146, 0.007662714, 0.01537458, 1.001324
 185933930, 0.3620594, -0.004895053, 0.04549393, 0.007833194, 0.01982539, 1.001207, 0.3937961, -0.016727, 0.01740393, 0.0109667, 0.01791372, 1.001451
 186033890, 0.3642886, 0.008229105, 0.01519352, 0.008896686, 0.01958047, 1.001217, 0.3620594, -0.004895053, 0.04549393, 0.007833194, 0.01982539, 1.001207
 186133850, 0.3565622, -0.00670407, 0.01498721, 0.007541418, 0.01914046, 1.001173, 0.3642886, 0.008229105, 0.01519352, 0.008896686, 0.01958047, 1.001217
 186233810, 0.3971075, -0.006855087, 0.01704539, 0.01275316, 0.01858859, 1.001452, 0.3565622, -0.00670407, 0.01498721, 0.007541418, 0.01914046, 1.001173
 186333770, 0.3700183, 0.004627365, 0.01579478, 0.008818585, 0.01789614, 1.001291, 0.3971075, -0.006855087, 0.01704539, 0.01275316, 0.01858859, 1.001452
 186433730, 0.3519609, 0.00184603, 0.01499856, 0.006249633, 0.0186364, 1.001164, 0.3700183, 0.004627365, 0.01579478, 0.008818585, 0.01789614, 1.001291
 186533690, 0.3880143, 0.00725089, 0.01607002, 0.01277159, 0.02048421, 1.001344, 0.3519609, 0.00184603, 0.01499856, 0.006249633, 0.0186364, 1.001164
 186633650, 0.3920361, 0.01234669, 0.01614697, 0.01359639, 0.02116782, 1.001357, 0.3880143, 0.00725089, 0.01607002, 0.01277159, 0.02048421, 1.001344
 186733610, 0.3900863, -0.005757048, 0.015746, 0.01430992, 0.02224885, 1.001298, 0.3920361, 0.01234669, 0.01614697, 0.01359639, 0.02116782, 1.001357
 186833570, 0.3839197, 0.005702641, 0.01565871, 0.01276464, 0.02381119, 1.001237, 0.3900863, -0.005757048, 0.015746, 0.01430992, 0.02224885, 1.001298
 186933530, 0.3682997, -0.02038646, 0.01537318, 0.009833105, 0.02222721, 1.001171, 0.3839197, 0.005702641, 0.01565871, 0.01276464, 0.02381119, 1.001237
 187033490, 0.3715365, -0.005680525, 0.01615771, 0.008368451, 0.02279919, 1.001203, 0.3682997, -0.02038646, 0.01537318, 0.009833105, 0.02222721, 1.001171
 187134283, 0.3943618, -0.02177158, 0.01752542, 0.0113238, 0.02467977, 1.001311, 0.3715365, -0.005680525, 0.01615771, 0.008368451, 0.02279919, 1.001203
 187234243, 0.3791529, 0.005983552, 0.01713907, 0.00759273, 0.02729694, 1.001163, 0.3943618, -0.02177158, 0.01752542, 0.0113238, 0.02467977, 1.001311
 187334203, 0.3620648, 0.002790884, 0.01617135, 0.005655397, 0.02712606, 1.001047, 0.3791529, 0.005983552, 0.01713907, 0.00759273, 0.02729694, 1.001163
 187434163, 0.3994662, 0.0002973983, 0.01814868, 0.01067491, 0.02631094, 1.00133, 0.3620648, 0.002790884, 0.01617135, 0.005655397, 0.02712606, 1.001047
 187534123, 0.3804081, 0.003255937, 0.01685201, 0.008753899, 0.02485288, 1.001225, 0.3994662, 0.0002973983, 0.01814868, 0.01067491, 0.02631094, 1.00133
 187634083, 0.3708861, -0.009022494, 0.01699165, 0.006082729, 0.02519975, 1.001156, 0.3804081, 0.003255937, 0.01685201, 0.008753899, 0.02485288, 1.001225
 187734043, 0.3644915, -0.000794128, 0.01722409, 0.003544737, 0.0269624, 1.001078, 0.3708861, -0.009022494, 0.01699165, 0.006082729, 0.02519975, 1.001156
 187834003, 0.3750522, -0.02198127, 0.019067, 0.00223181, 0.02831382, 1.001117, 0.3644915, -0.000794128, 0.01722409, 0.003544737, 0.0269624, 1.001078
 187953955, 0.4082632, -0.01336933, 0.02125865, 0.006038826, 0.0304564, 1.001329, 0.3750522, -0.02198127, 0.019067, 0.00223181, 0.02831382, 1.001117
 188053915, 0.3988642, 0.004929359, 0.02024145, 0.005210638, 0.03136522, 1.001229, 0.4082632, -0.01336933, 0.02125865, 0.006038826, 0.0304564, 1.001329
 188153875, 0.4040153, -0.002135893, 0.0199991, 0.007552322, 0.02942546, 1.001317, 0.3988642, 0.004929359, 0.02024145, 0.005210638, 0.03136522, 1.001229
 188253835, 0.3991199, 0.005124186, 0.01962102, 0.00695093, 0.02805284, 1.001321, 0.4040153, -0.002135893, 0.0199991, 0.007552322, 0.02942546, 1.001317
 188353795, 0.4094512, -0.01904649, 0.02071137, 0.007850118, 0.02641805, 1.001445, 0.3991199, 0.005124186, 0.01962102, 0.00695093, 0.02805284, 1.001321
 188453755, 0.3966933, -0.01674849, 0.02029987, 0.005161189, 0.0257952, 1.001364, 0.4094512, -0.01904649, 0.02071137, 0.007850118, 0.02641805, 1.001445
 188553715, 0.3668985, -0.00602208, 0.0184781, 0.001115087, 0.0255772, 1.001141, 0.3966933, -0.01674849, 0.02029987, 0.005161189, 0.0257952, 1.001364
 188653675, 0.3703029, 0.00637121, 0.01887453, 0.0006915368, 0.02852366, 1.001094, 0.3668985, -0.00602208, 0.0184781, 0.001115087, 0.0255772, 1.001141
 188753635, 0.3561717, -0.01244426, 0.01985678, -0.005649704, 0.02564849, 1.001042, 0.3703029, 0.00637121, 0.01887453, 0.0006915368, 0.02852366, 1.001094
 188853595, 0.3483302, -0.01709489, 0.05101316, -0.01167806, 0.007990328, 1.001243, 0.3561717, -0.01244426, 0.01985678, -0.005649704, 0.02564849, 1.001042
 188953555, 0.4230563, -0.006660072, 0.02709962, -0.004134133, -0.01606508, 1.001836, 0.3483302, -0.01709489, 0.05101316, -0.01167806, 0.007990328, 1.001243
 189053515, 0.3910743, -0.01381381, 0.02554987, -0.01179701, -0.03306884, 1.001054, 0.4230563, -0.006660072, 0.02709962, -0.004134133, -0.01606508, 1.001836
 189153475, 0.3692283, -0.02306276, 0.02421607, -0.01686607, -0.03610893, 1.000693, 0.3910743, -0.01381381, 0.02554987, -0.01179701, -0.03306884, 1.001054
 189254268, 0.3625525, 0.001789196, 0.05077592, -0.01939136, -0.02378299, 1.000991, 0.3692283, -0.02306276, 0.02421607, -0.01686607, -0.03610893, 1.000693
 189354228, 0.380778, -0.009011405, 0.05614427, -0.0148084, -0.005002985, 1.001486, 0.3625525, 0.001789196, 0.05077592, -0.01939136, -0.02378299, 1.000991
 189454188, 0.3651395, -0.007910652, 0.0245048, -0.01576668, 0.01398086, 1.001242, 0.380778, -0.009011405, 0.05614427, -0.0148084, -0.005002985, 1.001486
 189554148, 0.4042723, 0.004585559, 0.02589003, -0.006473131, 0.02466695, 1.001485, 0.3651395, -0.007910652, 0.0245048, -0.01576668, 0.01398086, 1.001242
 189654108, 0.4106954, 0.005119275, 0.02528549, -0.002957813, 0.0275028, 1.001492, 0.4042723, 0.004585559, 0.02589003, -0.006473131, 0.02466695, 1.001485
 189754068, 0.4058251, -0.001339517, 0.0546154, -0.00218524, 0.02862522, 1.001432, 0.4106954, 0.005119275, 0.02528549, -0.002957813, 0.0275028, 1.001492
 189854028, 0.3604472, -0.003425363, 0.04654282, -0.008549839, 0.03030458, 1.000949, 0.4058251, -0.001339517, 0.0546154, -0.00218524, 0.02862522, 1.001432
 189973980, 0.3890693, 0.001931804, 0.02289454, -0.003643021, 0.03196838, 1.001157, 0.3604472, -0.003425363, 0.04654282, -0.008549839, 0.03030458, 1.000949
 190073940, 0.4325268, 0.00514472, 0.02485986, 0.00506711, 0.03401313, 1.001523, 0.3890693, 0.001931804, 0.02289454, -0.003643021, 0.03196838, 1.001157
 190173900, 0.3730043, -0.01473371, 0.02125509, -0.003383584, 0.03620559, 1.000871, 0.4325268, 0.00514472, 0.02485986, 0.00506711, 0.03401313, 1.001523
 190273860, 0.3613458, -0.00386702, 0.02071743, -0.006181277, 0.03280862, 1.000886, 0.3730043, -0.01473371, 0.02125509, -0.003383584, 0.03620559, 1.000871
 190373820, 0.3698164, 0.005316547, 0.05158269, -0.005777575, 0.0258943, 1.001179, 0.3613458, -0.00386702, 0.02071743, -0.006181277, 0.03280862, 1.000886
 190473780, 0.3563981, -0.01228872, 0.05122148, -0.008587532, 0.02308918, 1.001114, 0.3698164, 0.005316547, 0.05158269, -0.005777575, 0.0258943, 1.001179
 190573740, 0.3958383, -0.006432325, 0.02418137, -0.004277285, 0.02703255, 1.001367, 0.3563981, -0.01228872, 0.05122148, -0.008587532, 0.02308918, 1.001114
 190673700, 0.4117211, 0.008390333, 0.05502356, -0.001141671, 0.02750583, 1.001548, 0.3958383, -0.006432325, 0.02418137, -0.004277285, 0.02703255, 1.001367
 190773660, 0.3684884, 0.005821337, 0.02192201, -0.007290173, 0.01955638, 1.001293, 0.4117211, 0.008390333, 0.05502356, -0.001141671, 0.02750583, 1.001548
 190873620, 0.4408905, 0.009867927, 0.02597123, 0.005968239, 0.007117938, 1.002192, 0.3684884, 0.005821337, 0.02192201, -0.007290173, 0.01955638, 1.001293
 190973580, 0.4079991, -0.01102972, 0.02350276, 0.0008150376, -0.0004412085, 1.001866, 0.4408905, 0.009867927, 0.02597123, 0.005968239, 0.007117938, 1.002192
 191073540, 0.394213, -0.01091898, 0.05238133, -0.0001449399, 0.00190501, 1.001749, 0.4079991, -0.01102972, 0.02350276, 0.0008150376, -0.0004412085, 1.001866
 191173500, 0.4143325, -0.01227517, 0.05289264, 0.005004019, 0.007592626, 1.001912, 0.394213, -0.01091898, 0.05238133, -0.0001449399, 0.00190501, 1.001749
 191274293, 0.3720717, 0.007815601, 0.0207231, -3.566965E-05, 0.01453575, 0.953893, 0.4143325, -0.01227517, 0.05289264, 0.005004019, 0.007592626, 1.001912
 191374253, 0.3982717, 0.009092737, 0.02222423, 0.00140867, 0.01923725, 1.001597, 0.3720717, 0.007815601, 0.0207231, -3.566965E-05, 0.01453575, 0.953893
 191474213, 0.3728271, -0.01291396, -0.009215802, -0.002899382, 0.02108254, 1.001301, 0.3982717, 0.009092737, 0.02222423, 0.00140867, 0.01923725, 1.001597
 191574173, 0.4444261, -0.009411847, 0.02474505, 0.009863339, 0.01939968, 1.002039, 0.3728271, -0.01291396, -0.009215802, -0.002899382, 0.02108254, 1.001301
 191674133, 0.4269143, -0.003594519, 0.02354071, 0.007092133, 0.01661473, 1.00191, 0.4444261, -0.009411847, 0.02474505, 0.009863339, 0.01939968, 1.002039
 191774093, 0.3701872, 0.002432583, 0.02059006, -0.003006861, 0.0119221, 1.00145, 0.4269143, -0.003594519, 0.02354071, 0.007092133, 0.01661473, 1.00191
 191874053, 0.4388253, -0.02132774, 0.02421498, 0.008735664, 0.006380459, 1.002142, 0.3701872, 0.002432583, 0.02059006, -0.003006861, 0.0119221, 1.00145
 191974013, 0.4059261, -0.001938438, 0.02267803, 0.002573993, 0.006697318, 1.001823, 0.4388253, -0.02132774, 0.02421498, 0.008735664, 0.006380459, 1.002142
 192093965, 0.4032684, 0.001493809, 0.02237368, 0.002581052, 0.009962911, 1.001771, 0.4059261, -0.001938438, 0.02267803, 0.002573993, 0.006697318, 1.001823
 192193925, 0.3750955, -0.02092787, 0.02082551, -0.002370838, 0.0118912, 1.001482, 0.4032684, 0.001493809, 0.02237368, 0.002581052, 0.009962911, 1.001771
 192293885, 0.3661116, -0.001925557, 0.02024805, -0.003433954, 0.01334065, 1.001393, 0.3750955, -0.02092787, 0.02082551, -0.002370838, 0.0118912, 1.001482
 192393845, 0.3995255, -0.01764265, 0.02111842, 0.004309423, 0.01237442, 1.001691, 0.3661116, -0.001925557, 0.02024805, -0.003433954, 0.01334065, 1.001393
 192493805, 0.4360573, -0.01829858, 0.0227451, 0.01139404, 0.0117019, 1.002029, 0.3995255, -0.01764265, 0.02111842, 0.004309423, 0.01237442, 1.001691
 192593765, 0.4168551, -0.01775962, -0.003169119, 0.007408351, 0.01208108, 1.001834, 0.4360573, -0.01829858, 0.0227451, 0.01139404, 0.0117019, 1.002029
 192693725, 0.4018492, 0.007880679, 0.02138234, 0.004493728, 0.01375493, 1.001703, 0.4168551, -0.01775962, -0.003169119, 0.007408351, 0.01208108, 1.001834
 192793685, 0.4260485, -0.0172537, 0.02284764, 0.008162677, 0.01444743, 1.001908, 0.4018492, 0.007880679, 0.02138234, 0.004493728, 0.01375493, 1.001703
 192893645, 0.4248214, -0.01005944, 0.0226821, 0.008198854, 0.01510653, 1.001887, 0.4260485, -0.0172537, 0.02284764, 0.008162677, 0.01444743, 1.001908
 192993605, 0.3785166, 0.002789558, 0.01982026, 0.001350243, 0.01591777, 1.00146, 0.4248214, -0.01005944, 0.0226821, 0.008198854, 0.01510653, 1.001887
 193093565, 0.3893643, 0.005345473, 0.02018623, 0.003622156, 0.01551337, 1.001558, 0.3785166, 0.002789558, 0.01982026, 0.001350243, 0.01591777, 1.00146
 193193525, 0.4001519, -0.0182576, 0.02087252, 0.005101647, 0.01684264, 1.001619, 0.3893643, 0.005345473, 0.02018623, 0.003622156, 0.01551337, 1.001558
 193293485, 0.391879, 0.005346489, 0.02014512, 0.004373882, 0.02117321, 1.001473, 0.4001519, -0.0182576, 0.02087252, 0.005101647, 0.01684264, 1.001619
 193394278, 0.3984498, 0.008069448, 0.01988234, 0.006820589, 0.02547887, 1.001419, 0.391879, 0.005346489, 0.02014512, 0.004373882, 0.02117321, 1.001473
 193494238, 0.40391, -0.01944655, 0.02020932, 0.00817886, 0.02526278, 1.001453, 0.3984498, 0.008069448, 0.01988234, 0.006820589, 0.02547887, 1.001419
 193594198, 0.4289633, -0.02100491, 0.02124096, 0.01268287, 0.01836366, 1.001815, 0.40391, -0.01944655, 0.02020932, 0.00817886, 0.02526278, 1.001453
 193694158, 0.3896459, 0.003770221, 0.01984279, 0.004423603, 0.01487729, 1.00156, 0.4289633, -0.02100491, 0.02124096, 0.01268287, 0.01836366, 1.001815
 193794118, 0.4367005, -0.01796138, 0.02281426, 0.01114432, 0.0160061, 1.001957, 0.3896459, 0.003770221, 0.01984279, 0.004423603, 0.01487729, 1.00156
 193894078, 0.3912162, -0.003966593, 0.02072723, 0.002652913, 0.02371233, 1.001404, 0.4367005, -0.01796138, 0.02281426, 0.01114432, 0.0160061, 1.001957
 193994038, 0.3960731, -0.006031785, 0.02051484, 0.004689358, 0.0264643, 1.00137, 0.3912162, -0.003966593, 0.02072723, 0.002652913, 0.02371233, 1.001404
 194093998, 0.4103587, 0.006331407, 0.0201782, 0.009393413, 0.02196105, 1.001587, 0.3960731, -0.006031785, 0.02051484, 0.004689358, 0.0264643, 1.00137
 194213950, 0.4340443, -0.007270171, 0.02084517, 0.01473328, 0.01737746, 1.001853, 0.4103587, 0.006331407, 0.0201782, 0.009393413, 0.02196105, 1.001587
 194313910, 0.4335347, 0.002924515, 0.02134258, 0.01337355, 0.01916241, 1.001836, 0.4340443, -0.007270171, 0.02084517, 0.01473328, 0.01737746, 1.001853
 194413870, 0.3893058, -0.01772451, 0.01962476, 0.004765835, 0.01764259, 1.001493, 0.4335347, 0.002924515, 0.02134258, 0.01337355, 0.01916241, 1.001836
 194513830, 0.4271914, 0.007528118, 0.02142372, 0.01127389, 0.01505706, 1.001861, 0.3893058, -0.01772451, 0.01962476, 0.004765835, 0.01764259, 1.001493
 194613790, 0.3797899, -0.005129824, -0.01640042, 0.004052892, 0.01139605, 1.001492, 0.4271914, 0.007528118, 0.02142372, 0.01127389, 0.01505706, 1.001861
 194713750, 0.3885907, -0.000294243, 0.01900263, 0.005986657, 0.01410145, 1.00154, 0.3797899, -0.005129824, -0.01640042, 0.004052892, 0.01139605, 1.001492
 194813710, 0.4195581, -0.01762786, 0.02052738, 0.01118673, 0.01851866, 1.001709, 0.3885907, -0.000294243, 0.01900263, 0.005986657, 0.01410145, 1.00154
 194913670, 0.4211684, -0.01786683, 0.02050322, 0.01189793, 0.02302038, 1.001623, 0.4195581, -0.01762786, 0.02052738, 0.01118673, 0.01851866, 1.001709
 195013630, 0.4069336, 0.007702042, 0.01904445, 0.01084047, 0.02624835, 1.001423, 0.4211684, -0.01786683, 0.02050322, 0.01189793, 0.02302038, 1.001623
 195113590, 0.3631159, 0.0007232167, 0.01675024, 0.004728846, 0.02435091, 1.001139, 0.4069336, 0.007702042, 0.01904445, 0.01084047, 0.02624835, 1.001423
 195213550, 0.4213882, 0.00230385, 0.02011549, 0.01244063, 0.02132229, 1.00166, 0.3631159, 0.0007232167, 0.01675024, 0.004728846, 0.02435091, 1.001139
 195313510, 0.404254, -0.009499444, 0.02048253, 0.006663896, 0.01785461, 1.001608, 0.4213882, 0.00230385, 0.02011549, 0.01244063, 0.02132229, 1.00166
 195414303, 0.3843614, -0.01527997, 0.01963647, 0.003034972, 0.01648892, 1.001469, 0.404254, -0.009499444, 0.02048253, 0.006663896, 0.01785461, 1.001608
 195514263, 0.3655589, -0.0124077, 0.01803973, 0.001868322, 0.01783617, 1.001297, 0.3843614, -0.01527997, 0.01963647, 0.003034972, 0.01648892, 1.001469
 195614223, 0.3819773, -0.01516272, 0.01830631, 0.00582356, 0.0186351, 1.001397, 0.3655589, -0.0124077, 0.01803973, 0.001868322, 0.01783617, 1.001297
 195714183, 0.3699245, 0.01164678, 0.01821747, 0.002438255, 0.02105733, 1.001278, 0.3819773, -0.01516272, 0.01830631, 0.00582356, 0.0186351, 1.001397
 195814143, 0.358335, -0.005747958, 0.01857428, -0.001674768, 0.02307019, 1.001138, 0.3699245, 0.01164678, 0.01821747, 0.002438255, 0.02105733, 1.001278
 195914103, 0.3633485, -0.01882554, 0.01930602, -0.0017398, 0.02745301, 1.001059, 0.358335, -0.005747958, 0.01857428, -0.001674768, 0.02307019, 1.001138
 196014063, 0.4144558, 0.006407771, 0.02169322, 0.00629301, 0.03237405, 1.001345, 0.3633485, -0.01882554, 0.01930602, -0.0017398, 0.02745301, 1.001059
 196114023, 0.3730943, -0.02047551, 0.02013019, -0.0008158386, 0.03185131, 1.001005, 0.4144558, 0.006407771, 0.02169322, 0.00629301, 0.03237405, 1.001345
 196233975, 0.3503694, -0.01791624, 0.01908557, -0.005001571, 0.02794296, 1.00094, 0.3730943, -0.02047551, 0.02013019, -0.0008158386, 0.03185131, 1.001005
 196333935, 0.3911704, 0.001393779, -0.008718668, 0.0002062991, 0.02175469, 1.001418, 0.3503694, -0.01791624, 0.01908557, -0.005001571, 0.02794296, 1.00094
 196433895, 0.4079757, -0.009734978, 0.02237147, 0.002806447, 0.01351131, 1.001721, 0.3911704, 0.001393779, -0.008718668, 0.0002062991, 0.02175469, 1.001418
 196533855, 0.3524402, -0.01465009, 0.01958333, -0.006785978, 0.007988219, 1.001302, 0.4079757, -0.009734978, 0.02237147, 0.002806447, 0.01351131, 1.001721
 196633815, 0.361507, -0.0089725, 0.02015692, -0.005560469, 0.006171586, 1.001391, 0.3524402, -0.01465009, 0.01958333, -0.006785978, 0.007988219, 1.001302
 196733775, 0.3951325, -0.0006500646, 0.02213915, -0.000428278, 0.009829313, 1.001653, 0.361507, -0.0089725, 0.02015692, -0.005560469, 0.006171586, 1.001391
 196833735, 0.3718686, -0.01732713, 0.02127187, -0.005138587, 0.01782243, 1.001328, 0.3951325, -0.0006500646, 0.02213915, -0.000428278, 0.009829313, 1.001653
 196933695, 0.3700313, 0.009912224, 0.02123396, -0.005915303, 0.02724487, 1.00111, 0.3718686, -0.01732713, 0.02127187, -0.005138587, 0.01782243, 1.001328
 197033655, 0.4004957, -0.001287445, -0.001868406, -0.001599494, 0.03374588, 1.001164, 0.3700313, 0.009912224, 0.02123396, -0.005915303, 0.02724487, 1.00111
 197133615, 0.38836, -0.003569718, 0.02244182, -0.003075615, 0.03754609, 1.00093, 0.4004957, -0.001287445, -0.001868406, -0.001599494, 0.03374588, 1.001164
 197233575, 0.3759786, -0.009239352, 0.02207954, -0.005634379, 0.03694151, 1.000837, 0.38836, -0.003569718, 0.02244182, -0.003075615, 0.03754609, 1.00093
 197333535, 0.4168502, 0.002480935, 0.02409945, 0.001157906, 0.03327056, 1.001347, 0.3759786, -0.009239352, 0.02207954, -0.005634379, 0.03694151, 1.000837
 197433495, 0.4199627, 0.004764056, 0.02437774, 0.001437549, 0.02508125, 1.001617, 0.4168502, 0.002480935, 0.02409945, 0.001157906, 0.03327056, 1.001347
 197534288, 0.3972319, -0.002712713, 0.02350865, -0.003306746, 0.01719778, 1.001563, 0.4199627, 0.004764056, 0.02437774, 0.001437549, 0.02508125, 1.001617
 197634248, 0.4193135, -0.0165563, 0.02468768, 0.0003689453, 0.01040265, 1.001863, 0.3972319, -0.002712713, 0.02350865, -0.003306746, 0.01719778, 1.001563
 197734208, 0.4040318, -0.02074048, 0.0232181, -0.0009376779, 0.008454263, 1.001732, 0.4193135, -0.0165563, 0.02468768, 0.0003689453, 0.01040265, 1.001863
 197834168, 0.3878292, -0.02160925, 0.02238391, -0.003606692, 0.01110879, 1.001558, 0.4040318, -0.02074048, 0.0232181, -0.0009376779, 0.008454263, 1.001732
 197934128, 0.3553154, -0.006683186, 0.0206589, -0.008560397, 0.01948261, 1.001153, 0.3878292, -0.02160925, 0.02238391, -0.003606692, 0.01110879, 1.001558
 198034088, 0.3701642, 0.0009619296, 0.02154374, -0.006531395, 0.02666461, 1.001116, 0.3553154, -0.006683186, 0.0206589, -0.008560397, 0.01948261, 1.001153
 198134048, 0.3658744, -0.0004856838, 0.02080655, -0.005833961, 0.02890651, 1.001024, 0.3701642, 0.0009619296, 0.02154374, -0.006531395, 0.02666461, 1.001116
 198234008, 0.3920635, 0.003989605, 0.02218393, -0.001738403, 0.02668766, 1.001311, 0.3658744, -0.0004856838, 0.02080655, -0.005833961, 0.02890651, 1.001024
 198353960, 0.3519236, -0.003109636, 0.01992586, -0.007638704, 0.02244724, 1.001074, 0.3920635, 0.003989605, 0.02218393, -0.001738403, 0.02668766, 1.001311
 198453920, 0.352714, 0.002837214, -0.005238757, -0.007353682, 0.02004442, 1.001125, 0.3519236, -0.003109636, 0.01992586, -0.007638704, 0.02244724, 1.001074
 198553880, 0.4004448, -0.006140029, -0.006855849, -0.002037272, 0.01753669, 1.001562, 0.352714, 0.002837214, -0.005238757, -0.007353682, 0.02004442, 1.001125
 198653840, 0.3483126, -0.0005108067, 0.0206087, -0.0108133, 0.01589756, 1.001146, 0.4004448, -0.006140029, -0.006855849, -0.002037272, 0.01753669, 1.001562
 198753800, 0.3425741, 0.0006633471, 0.02061934, -0.01263985, 0.01472933, 1.001105, 0.3483126, -0.0005108067, 0.0206087, -0.0108133, 0.01589756, 1.001146
 198853760, 0.342659, 0.0008447221, 0.02040307, -0.01198644, 0.01506664, 1.001108, 0.3425741, 0.0006633471, 0.02061934, -0.01263985, 0.01472933, 1.001105
 198953720, 0.3636233, -0.001880001, 0.02090647, -0.006980699, 0.01889328, 1.001233, 0.342659, 0.0008447221, 0.02040307, -0.01198644, 0.01506664, 1.001108
 199053680, 0.3774083, -0.01871223, 0.02158407, -0.004185263, 0.02627037, 1.001178, 0.3636233, -0.001880001, 0.02090647, -0.006980699, 0.01889328, 1.001233
 199153640, 0.3824511, -0.01598309, -0.007480178, -0.005356029, 0.03320516, 1.000992, 0.3774083, -0.01871223, 0.02158407, -0.004185263, 0.02627037, 1.001178
 199253600, 0.3767211, 0.006978953, 0.02239107, -0.007419925, 0.03460304, 1.00091, 0.3824511, -0.01598309, -0.007480178, -0.005356029, 0.03320516, 1.000992
 199353560, 0.4079862, -0.02013067, 0.02521041, -0.004255932, 0.02667904, 1.001419, 0.3767211, 0.006978953, 0.02239107, -0.007419925, 0.03460304, 1.00091
 199453520, 0.3601536, -0.01555444, 0.02271066, -0.01321754, 0.01722858, 1.001166, 0.4079862, -0.02013067, 0.02521041, -0.004255932, 0.02667904, 1.001419
 199553480, 0.343987, -0.006955317, 0.02203097, -0.01659149, 0.009953379, 1.00111, 0.3601536, -0.01555444, 0.02271066, -0.01321754, 0.01722858, 1.001166
