TimeUS,CAN,CAE,CAD,CAe,NAN,NAE,NAD,NAe,m10,m00,Gye
 170560915, -1.207705E-06, 4.665454E-05, 1.310778E-06, 6.484905E-06, 0, 0, 0, 0, -0.9999977, -0.001446591, 1.85676
 170630887, -0.1440039, 3.157515, 0.1245038, 0.4427873, -0.09545714, 3.29186, -0.2786655, 0.4427808, -0.9999977, -0.0014474, 26.0053
 170830807, -0.09564765, 3.299181, -0.2787557, 0.4433069, -1.554126E-05, 0.004344281, -0.0002261532, 0.0005187925, -0.9999977, -0.00144437, 148.7758
 171030727, -0.0001495597, 0.01168144, -0.0005341407, 0.00104407, 8.220301E-06, 0.004389953, 5.61835E-05, 0.0005187925, -0.9999977, -0.001441103, 0.3503954
 171231480, 0.0003297507, 0.01173723, -0.0001840951, 0.001046232, 0.0002350645, 0.004456739, -0.0003330904, 0.0005209541, -0.9999977, -0.001435929, 0.3511209
 171431400, 8.346973E-05, 0.01184727, -0.000615849, 0.001046232, 0.0001343262, 0.004278389, 0.000129624, 0.0005187925, -0.9999977, -0.001433114, 0.3511209
 171631320, 0.0001257153, 0.01166438, -0.0003148107, 0.00104407, 0.0002631127, 0.004601788, -0.0002845162, 0.0005187925, -0.9999977, -0.00142888, 0.3503954
 171831240, 0.0001783625, 0.012121, -0.0005189799, 0.00104407, 0.000236787, 0.004338696, 0.0003336715, 0.0005187925, -0.9999977, -0.001421673, 0.3503954
 172031160, 0.0002512025, 0.01203532, 0.0001874375, 0.00104407, 9.755039E-05, 0.004763933, -0.0001234288, 0.0005187925, -0.9999977, -0.001415, 0.3503954
 172231080, 0.0002521929, 0.01209708, -0.0004094167, 0.00104407, -0.0002146447, 0.003953421, -0.0003430234, 0.0005187925, -0.9999977, -0.001407962, 0.3503954
 172431000, 1.623844E-05, 0.01124741, -0.0004543514, 0.00104407, 0.0002383654, 0.004077635, 5.673284E-06, 0.0005187925, -0.9999977, -0.001400471, 0.3503954
 172630920, 0.0004284679, 0.01146085, 1.922432E-05, 0.00104407, -0.0001514343, 0.004286809, 0.0003419783, 0.0005187925, -0.9999977, -0.001408582, 0.3503954
 172830840, 7.185199E-06, 0.0117937, 0.0005419123, 0.00104407, -3.433098E-05, 0.004370937, -4.941512E-05, 0.0005187925, -0.9999977, -0.001415977, 0.3503954
 173030760, -0.0003261898, 0.01167908, -0.0003325681, 0.00104407, -0.0005324561, 0.004033708, -0.0004046538, 0.0005187925, -0.9999977, -0.001422529, 0.3503954
 173230680, -0.0005298326, 0.01146473, -0.0007606742, 0.00104407, -0.0001023344, 0.004297228, -0.0002160876, 0.0005187925, -0.9999977, -0.001428359, 0.3503954
 173431433, -0.0002544713, 0.01193638, -0.0004777049, 0.001046232, 0.0001526911, 0.004525228, -0.0005879415, 0.0005209541, -0.9999977, -0.001433283, 0.3511209
 173631353, 0.0001209747, 0.01218248, -0.0009189143, 0.001046232, 0.0003043337, 0.004526871, 5.068539E-05, 0.0005187925, -0.9999976, -0.001437524, 0.3511209
 173831273, 0.0004316923, 0.01192607, -0.0001176888, 0.00104407, 0.0001458003, 0.003887083, 5.337962E-05, 0.0005187925, -0.9999976, -0.001441673, 0.3503954
 174031193, 0.0002154604, 0.01129951, -0.0001497802, 0.00104407, 0.0002475425, 0.004034181, -0.000439518, 0.0005187925, -0.9999976, -0.001445998, 0.3503954
 174231113, 1.548558E-05, 0.01123773, -0.000590665, 0.00104407, -4.54789E-05, 0.003833063, 0.000471134, 0.0005187925, -0.9999976, -0.001448976, 0.3503954
 174431033, -0.000192097, 0.01131411, 0.0007186958, 0.00104407, -0.0001322748, 0.004421133, -2.304347E-05, 0.0005187925, -0.9999976, -0.00145025, 0.3503954
 174630953, -0.0002095388, 0.0118213, -0.0001747171, 0.00104407, 0.0003034353, 0.004361977, -0.0002779087, 0.0005187925, -0.9999977, -0.001451332, 0.3503954
 174830873, 0.0002441149, 0.01189274, -0.0002824393, 0.00104407, 0.0001886544, 0.003623491, 7.253247E-05, 0.0005187925, -0.9999977, -0.00145133, 0.3503954
 175030793, 4.900888E-05, 0.01080355, -0.0001642976, 0.00104407, -0.0001302305, 0.00408317, -0.0004532872, 0.0005187925, -0.9999977, -0.001451481, 0.3503954
 175230713, -0.0004624352, 0.01130029, -0.0005167432, 0.00104407, -0.0002826148, 0.004374402, -0.0004428653, 0.0005187925, -0.9999977, -0.001451119, 0.3503954
 175431466, -0.0003848274, 0.01188929, -0.0004218978, 0.001046232, -0.0004329652, 0.003997077, 0.0002406099, 0.0005209541, -0.9999977, -0.001447718, 0.3511209
 175631386, -0.0005399057, 0.01171293, 0.0001043332, 0.001046232, -0.0002955397, 0.004354784, -0.0001698863, 0.0005187925, -0.9999977, -0.001445555, 0.3511209
 175831306, -0.0001258749, 0.01163925, -0.0003898289, 0.00104407, 0.0003666192, 0.004204957, 1.858326E-05, 0.0005187925, -0.9999977, -0.00144155, 0.3503954
 176031226, 0.0003272054, 0.01168304, -0.0003027694, 0.00104407, -0.0001069376, 0.004027565, 0.0002357636, 0.0005187925, -0.9999977, -0.00143671, 0.3503954
 176231146, -0.0001558098, 0.01123612, 0.0004005677, 0.00104407, 0.0002208213, 0.004157288, 0.0001393583, 0.0005187925, -0.9999977, -0.001432743, 0.3503954
 176431066, 0.0002577593, 0.01129135, -0.0002746854, 0.00104407, -0.0001199281, 0.004479276, -0.0001920301, 0.0005187925, -0.9999977, -0.001428879, 0.3503954
 176630986, -5.267671E-05, 0.01207592, -0.0003629829, 0.00104407, -5.946306E-05, 0.004379106, -0.0002753526, 0.0005187925, -0.9999977, -0.001423034, 0.3503954
 176830906, 0.0001027777, 0.01153341, -0.0003716616, 0.00104407, -0.0004208477, 0.00436212, -0.0004897804, 0.0005187925, -0.9999977, -0.001417963, 0.3503954
 177030826, -0.000352585, 0.01193044, -0.000575504, 0.00104407, -0.0002358456, 0.004411099, -0.0003768498, 0.0005187925, -0.9999977, -0.001413054, 0.3503954
 177230746, 8.242798E-05, 0.01191503, -0.0005841682, 0.00104407, 1.133746E-05, 0.004318904, -0.0003698347, 0.0005187925, -0.9999977, -0.001406078, 0.3503954
 177430666, 0.000218029, 0.01173788, -0.0006353423, 0.00104407, 0.0003514576, 0.004112067, -0.00055847, 0.0005187925, -0.9999977, -0.001398526, 0.3503954
 177631419, 0.0005330261, 0.01129579, -0.0004291018, 0.001046232, 7.710457E-05, 0.003768778, 0.0001921278, 0.0005209541, -0.9999977, -0.001389224, 0.3511209
 177831339, 0.0004823002, 0.01128299, 0.0001408312, 0.001046232, 0.0002050974, 0.004030755, 0.0002232814, 0.0005187925, -0.9999977, -0.001396539, 0.3511209
 178031259, 0.0002493816, 0.0112262, -0.0001190746, 0.00104407, 0.0001682122, 0.003920787, 0.0002220005, 0.0005187925, -0.9999978, -0.001401072, 0.3503954
 178231179, 0.0002460291, 0.01129368, 0.0002393553, 0.00104407, 0.0002537562, 0.004153936, -3.100704E-05, 0.0005187925, -0.9999977, -0.001405488, 0.3503954
 178431099, 0.0001022958, 0.01137425, -0.0002397293, 0.00104407, -0.0001086475, 0.004181796, 0.0002394183, 0.0005187925, -0.9999977, -0.001410625, 0.3503954
 178631019, -0.0003183846, 0.01153461, 0.0001089423, 0.00104407, -0.0001105707, 0.00397208, 0.0004149302, 0.0005187925, -0.9999978, -0.001415237, 0.3503954
 178830939, 0.0001102254, 0.01132274, 0.0003031627, 0.00104407, -4.512989E-05, 0.004315202, 0.0001691582, 0.0005187925, -0.9999978, -0.001417351, 0.3503954
 179030859, 0.0002674572, 0.0116692, -2.10802E-06, 0.00104407, 0.0001503377, 0.004254928, -1.009304E-06, 0.0005187925, -0.9999978, -0.001419125, 0.3503954
 179230779, 1.233241E-06, 0.01114185, -0.0004004581, 0.00104407, -3.519063E-06, 0.00391589, 4.24692E-05, 0.0005187925, -0.9999978, -0.001420056, 0.3503954
 179430699, -0.0002403983, 0.01083018, -0.0003058187, 0.00104407, -0.0003804689, 0.004160048, -0.0005465944, 0.0005187925, -0.9999977, -0.001419988, 0.3503954
 179631452, -0.0002176862, 0.01173426, -0.0007418435, 0.001046232, 7.385389E-05, 0.004624801, -0.0003928206, 0.0005209541, -0.9999978, -0.001419886, 0.3511209
 179831372, 9.024998E-05, 0.01196418, -0.0005578533, 0.001046232, 0.0001254163, 0.004363969, 0.0002432601, 0.0005187925, -0.9999977, -0.001420965, 0.3511209
 180031292, -8.483864E-05, 0.01156015, 0.000310758, 0.00104407, -0.0001953765, 0.004211339, -0.0003022356, 0.0005187925, -0.9999977, -0.001419329, 0.3503954
 180231212, -0.0002287942, 0.01161187, -0.0004426712, 0.00104407, -9.642773E-05, 0.004242974, -0.0002019408, 0.0005187925, -0.9999977, -0.001419343, 0.3503954
 180431132, -0.0002078364, 0.01161686, -0.0005828041, 0.00104407, 0.0002179858, 0.004304769, 0.0001937854, 0.0005187925, -0.9999977, -0.001419054, 0.3503954
 180631052, 0.0001189941, 0.01169219, 2.055664E-05, 0.00104407, -0.0001371242, 0.004341338, -0.0001574971, 0.0005187925, -0.9999977, -0.001416691, 0.3503954
 180830972, -0.000186009, 0.01130199, -0.0003552923, 0.00104407, 0.0002980826, 0.003881453, -0.0001938462, 0.0005187925, -0.9999977, -0.001414185, 0.3503954
 181030892, 0.0001274875, 0.01091007, -0.0003794415, 0.00104407, -0.0003821035, 0.004337073, -5.429241E-05, 0.0005187925, -0.9999977, -0.001413274, 0.3503954
 181230812, -0.0006545776, 0.01159564, -0.0002382397, 0.00104407, 0.0002716602, 0.004185636, -0.0001495192, 0.0005187925, -0.9999977, -0.001411428, 0.3503954
 181430732, -3.497581E-05, 0.011308, -0.0002259173, 0.00104407, 0.0001979648, 0.003898763, 0.0001009132, 0.0005187925, -0.9999977, -0.001408361, 0.3503954
 181631485, 0.0004727267, 0.0109803, 0.0001527946, 0.001046232, 0.0003024462, 0.004215475, 0.0004310274, 0.0005209541, -0.9999977, -0.001403994, 0.3511209
 181831405, 0.0004225219, 0.01170555, 0.0003340428, 0.001046232, -0.000236151, 0.004372103, -0.0001034227, 0.0005187925, -0.9999977, -0.001401574, 0.3511209
 182031325, 5.456011E-05, 0.01182109, -0.0002901823, 0.00104407, -7.466372E-05, 0.004498213, -0.0001276542, 0.0005187925, -0.9999977, -0.001398068, 0.3503954
 182231245, 0.000352771, 0.01184567, 2.8202E-05, 0.00104407, 0.0002070561, 0.004353762, 0.0001748673, 0.0005187925, -0.9999977, -0.001392878, 0.3503954
 182431165, -0.0002076208, 0.01162388, 0.0001848041, 0.00104407, -0.0005161793, 0.00389146, -4.819015E-05, 0.0005187925, -0.9999977, -0.001389085, 0.3503954
 182631085, -0.0002808949, 0.01130493, -0.0001201888, 0.00104407, 0.0002124518, 0.004432094, -2.901347E-05, 0.0005187925, -0.9999977, -0.001384357, 0.3503954
 182831005, 1.000229E-05, 0.01200215, 0.0002156253, 0.00104407, -6.232521E-06, 0.004469727, 6.976315E-05, 0.0005187925, -0.9999977, -0.001379974, 0.3503954
 183030925, 0.0001238113, 0.01196292, 0.0001112862, 0.00104407, 0.0003511359, 0.004500768, -0.0001158656, 0.0005187925, -0.9999977, -0.001390608, 0.3503954
 183230845, 0.0003857027, 0.01181371, -8.256947E-05, 0.00104407, 0.0001116379, 0.004333454, 4.872637E-05, 0.0005187925, -0.9999977, -0.001399706, 0.3503954
 183430765, -0.0001321463, 0.01150775, 0.0001039554, 0.00104407, 4.574223E-05, 0.004137548, 6.362515E-05, 0.0005187925, -0.9999977, -0.001409006, 0.3503954
 183630685, 5.169328E-05, 0.01163776, 4.689248E-05, 0.00104407, 6.183339E-05, 0.004465469, 0.0001967168, 0.0005187925, -0.9999977, -0.001416712, 0.3503954
 183831438, -0.0001898875, 0.01180525, 1.889875E-05, 0.001046232, 0.0001471293, 0.00412237, -0.0003530492, 0.0005209541, -0.9999977, -0.001424051, 0.3511209
 184031358, -4.820336E-05, 0.01134913, -0.0006810916, 0.001046232, -0.000238094, 0.004084217, 2.910642E-05, 0.0005187925, -0.9999976, -0.001429851, 0.3511209
 184231278, -0.0003268279, 0.01154665, -0.0002124639, 0.00104407, -6.535063E-06, 0.004608664, -6.368115E-05, 0.0005187925, -0.9999976, -0.001432867, 0.3503954
 184431198, 6.134227E-05, 0.01205752, -0.0003372499, 0.00104407, -9.484809E-05, 0.004571979, -3.144557E-05, 0.0005187925, -0.9999976, -0.001436383, 0.3503954
 184631118, -9.757323E-05, 0.01207442, -3.415222E-06, 0.00104407, 0.0001356641, 0.004171164, 7.832849E-05, 0.0005187925, -0.9999976, -0.001441014, 0.3503954
 184831038, 5.597176E-05, 0.0113204, -3.259105E-06, 0.00104407, -0.0003150073, 0.003879369, -0.0001412435, 0.0005187925, -0.9999976, -0.001445476, 0.3503954
 185030958, -0.0002035529, 0.01133674, 2.574488E-05, 0.00104407, -0.0002881035, 0.004843632, -0.000390669, 0.0005187925, -0.9999976, -0.001448089, 0.3503954
 185230878, -0.0004684348, 0.0124457, -0.0008659689, 0.00104407, -0.0003873871, 0.004569775, 0.0001437816, 0.0005187925, -0.9999976, -0.001450248, 0.3503954
 185430798, -0.0004022166, 0.01202403, 0.0002202058, 0.00104407, 0.0003738781, 0.00383677, 0.0001922804, 0.0005187925, -0.9999976, -0.001452409, 0.3503954
 185630718, 0.0003879787, 0.01103917, -2.600022E-06, 0.00104407, -0.000120227, 0.004170153, -0.000322524, 0.0005187925, -0.9999976, -0.00145246, 0.3503954
 185831471, -0.0002348126, 0.01165944, -0.0005097511, 0.001046232, -3.203953E-05, 0.004075803, 0.0001787968, 0.0005209541, -0.9999976, -0.001452524, 0.3511209
 186031391, 0.0001601355, 0.01138694, -0.0003217903, 0.001046232, 0.0001828003, 0.003899138, -0.0004764629, 0.0005187925, -0.9999976, -0.001453609, 0.3511209
 186231311, 0.0004451479, 0.01109067, -0.0005133769, 0.00104407, 0.0003795952, 0.004076325, 0.0001763687, 0.0005187925, -0.9999976, -0.001452556, 0.3503954
 186431231, 0.0001909233, 0.01172953, -3.932688E-05, 0.00104407, -0.0001009874, 0.004761232, 4.165652E-05, 0.0005187925, -0.9999976, -0.001450272, 0.3503954
 186631151, -0.0001304377, 0.01234592, -0.0004906491, 0.00104407, 0.0004176729, 0.004644472, -0.000349843, 0.0005187925, -0.9999976, -0.00144944, 0.3503954
 186831071, 0.0008005247, 0.0124714, -0.000213105, 0.00104407, -0.0003202404, 0.004802952, 0.0002520363, 0.0005187925, -0.9999976, -0.00144724, 0.3503954
 187030991, -0.0004137559, 0.01208571, -9.934862E-05, 0.00104407, -0.0002178103, 0.004173175, -0.0001941178, 0.0005187925, -0.9999976, -0.001444145, 0.3503954
 187230911, -9.7133E-05, 0.01167519, -0.0001066425, 0.00104407, 0.0002213947, 0.004238394, 0.0002587284, 0.0005187925, -0.9999976, -0.00143991, 0.3503954
 187430831, 0.0001745447, 0.0118796, 7.690687E-05, 0.00104407, -1.445501E-05, 0.004483706, -0.0001116377, 0.0005187925, -0.9999976, -0.00143596, 0.3503954
 187630751, -8.671306E-05, 0.01192962, -0.00040871, 0.00104407, -0.0001366346, 0.004212046, 0.0001570431, 0.0005187925, -0.9999976, -0.001430594, 0.3503954
 187830671, -0.0001256811, 0.01181516, 0.0001169499, 0.00104407, 0.0002714216, 0.004695587, -0.0001023193, 0.0005187925, -0.9999976, -0.001425554, 0.3503954
 188031424, 0.0004138891, 0.01201, -0.0001561287, 0.001046232, -0.0001269561, 0.003823659, 5.311429E-06, 0.0005209541, -0.9999977, -0.001420822, 0.3511209
 188231344, 0.0002172142, 0.01121868, -9.24523E-05, 0.001046232, 0.0002039261, 0.004000705, -2.844031E-05, 0.0005187925, -0.9999976, -0.001430614, 0.3511209
 188431264, 0.0002840435, 0.01143078, 6.816522E-05, 0.00104407, 0.0003784318, 0.004320815, -0.0002874309, 0.0005187925, -0.9999976, -0.001438598, 0.3503954
 188631184, 0.0002850848, 0.01152892, -0.0004938689, 0.00104407, 0.0001538556, 0.004095117, -0.0002020337, 0.0005187925, -0.9999976, -0.001446773, 0.3503954
 188831104, 6.350289E-05, 0.01166552, -6.017769E-05, 0.00104407, -0.0001555567, 0.004060788, 0.0001604964, 0.0005187925, -0.9999976, -0.001453912, 0.3503954
 189031024, -2.707243E-05, 0.01128779, -0.0001041675, 0.00104407, 1.752427E-05, 0.004311181, -1.506209E-06, 0.0005187925, -0.9999976, -0.001460166, 0.3503954
 189230944, 0.0002859826, 0.01147624, -2.58819E-05, 0.00104407, -0.0001363091, 0.00435232, -8.615385E-06, 0.0005187925, -0.9999976, -0.001465128, 0.3503954
 189430864, 7.709725E-05, 0.0115858, -0.0001389758, 0.00104407, -6.043435E-05, 0.0041389, -0.0005013867, 0.0005187925, -0.9999976, -0.001468425, 0.3503954
 189630784, -2.212445E-05, 0.01147762, -0.0007431645, 0.00104407, 0.0002698433, 0.004151896, -0.000444306, 0.0005187925, -0.9999976, -0.001470908, 0.3503954
 189830704, 0.0003496795, 0.01154229, -0.0009698025, 0.00104407, 0.0006104229, 0.004054416, -0.0006274155, 0.0005187925, -0.9999976, -0.001472174, 0.3503954
 190031457, 0.0005419973, 0.01118535, -0.0009612193, 0.001046232, -2.784937E-05, 0.004058561, -0.0002146172, 0.0005209541, -0.9999977, -0.001474089, 0.3511209
 190231377, 0.0001773158, 0.0112953, -0.0003177504, 0.001046232, -5.966749E-05, 0.004002579, 0.0001313828, 0.0005187925, -0.9999977, -0.001474437, 0.3511209
 190431297, -2.885893E-05, 0.01145286, -4.659378E-07, 0.00104407, 0.0003042794, 0.004225865, -0.0001634635, 0.0005187925, -0.9999977, -0.001473208, 0.3503954
 190631217, 0.0002690773, 0.01170157, -0.0002624761, 0.00104407, 0.000192474, 0.004788502, -0.0001280928, 0.0005187925, -0.9999976, -0.00147253, 0.3503954
 190831137, 0.0001233564, 0.01227567, -0.0003511551, 0.00104407, 0.0002316893, 0.004363301, 0.0001530667, 0.0005187925, -0.9999977, -0.001470972, 0.3503954
 191031057, 7.652439E-05, 0.01132959, -5.024923E-05, 0.00104407, -0.0003126881, 0.004185522, -0.0004759278, 0.0005187925, -0.9999977, -0.001470206, 0.3503954
 191230977, -0.0002286805, 0.0114052, -0.0005353251, 0.00104407, 0.0003231239, 0.004198825, -0.0003346451, 0.0005187925, -0.9999976, -0.001468646, 0.3503954
 191430897, 0.0003307667, 0.01137082, -0.0006442674, 0.00104407, -0.0003320494, 0.004123653, -0.0004219406, 0.0005187925, -0.9999976, -0.001466557, 0.3503954
 191630817, -0.0004139123, 0.01144796, -0.0007587887, 0.00104407, -0.0002029607, 0.004211029, -0.0002725679, 0.0005187925, -0.9999976, -0.001463158, 0.3503954
 191830737, -0.0001618901, 0.01155182, -0.0001307321, 0.00104407, -4.653216E-05, 0.003860706, -5.275284E-05, 0.0005187925, -0.9999977, -0.001459367, 0.3503954
 192030657, 0.000125173, 0.01117258, 5.335938E-05, 0.00104407, 0.000106758, 0.004317339, -0.0002654456, 0.0005187925, -0.9999976, -0.001456351, 0.3503954
 192231410, -9.444519E-05, 0.01164167, -0.0003443763, 0.001046232, 2.576493E-05, 0.003964682, -0.000136218, 0.0005209541, -0.9999977, -0.001453875, 0.3511209
 192431330, 0.0002506934, 0.01160574, -0.000181727, 0.001046232, 0.0001986042, 0.004156994, 0.0002225891, 0.0005187925, -0.9999977, -0.001448405, 0.3511209
 192631250, 0.0002332334, 0.01187102, 0.0003866902, 0.00104407, -0.0002037404, 0.004601033, 5.536963E-05, 0.0005187925, -0.9999977, -0.001441949, 0.3503954
 192831170, -0.0004073192, 0.01196128, -0.0002162438, 0.00104407, -2.282073E-05, 0.004128105, 9.94642E-05, 0.0005187925, -0.9999977, -0.001436855, 0.3503954
 193031090, 0.0001843614, 0.01178661, 0.000164045, 0.00104407, 9.251448E-05, 0.004373058, 6.217138E-05, 0.0005187925, -0.9999977, -0.001430527, 0.3503954
 193231010, -3.981273E-05, 0.01166094, -8.764098E-05, 0.00104407, 0.0003599834, 0.003709188, -0.0001132321, 0.0005187925, -0.9999977, -0.001423835, 0.3503954
 193430930, 0.0004056302, 0.01136458, -0.0005079134, 0.00104407, -0.0001049884, 0.004172208, 0.0001065198, 0.0005187925, -0.9999977, -0.001431547, 0.3503954
 193630850, -6.12185E-05, 0.01155448, -1.602724E-05, 0.00104407, -0.0001190196, 0.004515309, -0.0003330221, 0.0005187925, -0.9999977, -0.001438576, 0.3503954
 193830770, -6.932318E-05, 0.01181466, -0.0002867136, 0.00104407, 0.0001322647, 0.004478108, 0.0004076269, 0.0005187925, -0.9999977, -0.001444263, 0.3503954
 194030690, 0.0002169396, 0.01156756, -2.600695E-05, 0.00104407, -7.171929E-05, 0.003987739, -0.000380545, 0.0005187925, -0.9999977, -0.001449526, 0.3503954
 194231443, -6.572012E-05, 0.01125316, -0.0003860125, 0.001046232, 3.589369E-05, 0.003637191, 0.0001410659, 0.0005209541, -0.9999977, -0.001454154, 0.3511209
 194431363, 0.0002144138, 0.01099901, 0.0001300779, 0.001046232, -1.685143E-05, 0.004474231, 0.0002369791, 0.0005187925, -0.9999977, -0.001457642, 0.3511209
 194631283, 1.572622E-06, 0.01205801, 0.0001371848, 0.00104407, -8.117941E-05, 0.004311393, -0.0002516789, 0.0005187925, -0.9999977, -0.001458035, 0.3503954
 194831203, 6.191878E-05, 0.01158558, -0.0004735782, 0.00104407, 7.206257E-05, 0.004222133, 0.0002748665, 0.0005187925, -0.9999977, -0.001458486, 0.3503954
 195031123, -3.08821E-05, 0.01144552, 0.0001430606, 0.00104407, -0.0001608315, 0.003942185, 0.0003437086, 0.0005187925, -0.9999977, -0.00145762, 0.3503954
 195231043, -0.0004107166, 0.0111465, 7.644223E-06, 0.00104407, -0.000135239, 0.004123115, -0.0001710005, 0.0005187925, -0.9999977, -0.001457026, 0.3503954
 195430963, -8.484963E-05, 0.01142125, -0.0003942785, 0.00104407, 0.000118438, 0.004267158, 6.813661E-05, 0.0005187925, -0.9999977, -0.001456312, 0.3503954
 195630883, 0.000237367, 0.01160836, -0.0001160527, 0.00104407, -7.869577E-05, 0.004228182, -2.482375E-05, 0.0005187925, -0.9999978, -0.001453513, 0.3503954
 195830803, 0.0001223013, 0.01128248, -0.0001027948, 0.00104407, -6.700063E-05, 0.003996442, 0.000120389, 0.0005187925, -0.9999978, -0.001450653, 0.3503954
 196030723, 0.0003366917, 0.01134687, 0.0001135586, 0.00104407, 0.0003897238, 0.004172186, 0.0003321951, 0.0005187925, -0.9999978, -0.001446818, 0.3503954
 196231476, 7.894124E-05, 0.01134342, 0.0002938585, 0.001046232, -0.0001939225, 0.004117941, -3.478685E-05, 0.0005209541, -0.9999978, -0.001442874, 0.3511209
 196431396, -9.662648E-05, 0.01153473, -0.0002806625, 0.001046232, -3.711069E-05, 0.004176871, -0.0001874365, 0.0005187925, -0.9999978, -0.001438949, 0.3511209
 196631316, -0.0002082895, 0.01140185, -0.0003596084, 0.00104407, -0.0003879511, 0.0039563, 1.429343E-05, 0.0005187925, -0.9999978, -0.00143287, 0.3503954
 196831236, -0.0004030401, 0.01082711, -0.0001352138, 0.00104407, 0.0002032391, 0.004104687, -6.637302E-05, 0.0005187925, -0.9999978, -0.001425967, 0.3503954
 197031156, -0.0002495738, 0.01117201, -1.825918E-05, 0.00104407, -0.0005080064, 0.003926123, -0.0002402965, 0.0005187925, -0.9999978, -0.001420143, 0.3503954
 197231076, -0.0002109654, 0.01144027, -0.0004313222, 0.00104407, 0.0001275611, 0.004254722, -0.0001609325, 0.0005187925, -0.9999978, -0.001414099, 0.3503954
 197430996, 0.0001689171, 0.01155563, -0.0004611221, 0.00104407, 2.913862E-06, 0.003880878, -0.0004907016, 0.0005187925, -0.9999978, -0.001408981, 0.3503954
 197630916, -2.755634E-05, 0.01099023, -0.0008751228, 0.00104407, 6.23923E-05, 0.003989631, -0.0001947041, 0.0005187925, -0.9999978, -0.001403784, 0.3503954
 197830836, 0.0004626974, 0.01155405, -0.0004560697, 0.00104407, 0.0001768431, 0.004318925, -0.0003287156, 0.0005187925, -0.9999978, -0.001396895, 0.3503954
 198030756, 0.0004449171, 0.0117391, -0.0008499917, 0.00104407, -5.880219E-06, 0.004375129, -0.0003539743, 0.0005187925, -0.9999978, -0.001390379, 0.3503954
 198230676, 0.0001333809, 0.01190301, -0.0003355138, 0.00104407, 0.0003675781, 0.00403412, -0.0003200716, 0.0005187925, -0.9999978, -0.001383547, 0.3503954
 198431429, 0.0003049898, 0.01136584, -0.0004845893, 0.001046232, 0.0001142767, 0.004122983, -0.0001278846, 0.0005209541, -0.9999978, -0.001379105, 0.3511209
 198631349, 8.636986E-06, 0.01143499, -0.0001920782, 0.001046232, -0.0002167662, 0.004202747, -0.0001390628, 0.0005187925, -0.9999978, -0.001384923, 0.3511209
 198831269, 5.833666E-05, 0.01141115, -9.820108E-05, 0.00104407, 0.0002004379, 0.004120435, -0.0005020327, 0.0005187925, -0.9999978, -0.001389582, 0.3503954
 199031189, 0.0003284375, 0.01190425, -0.0006550686, 0.00104407, 0.0002481024, 0.004744267, -0.0002906221, 0.0005187925, -0.9999978, -0.001395147, 0.3503954
 199231109, 0.0001575826, 0.01189862, -0.0004061457, 0.00104407, -0.0001276474, 0.00425776, -2.133708E-05, 0.0005187925, -0.9999978, -0.001398999, 0.3503954
 199431029, -0.0001656159, 0.01143552, -2.573652E-05, 0.00104407, 8.251507E-05, 0.004127927, 3.532186E-05, 0.0005187925, -0.9999978, -0.00140176, 0.3503954
 199630949, 5.982571E-05, 0.01123429, 0.0001517654, 0.00104407, 0.0001655122, 0.003784228, 5.575333E-05, 0.0005187925, -0.9999978, -0.001403779, 0.3503954
 199830869, -4.197033E-05, 0.0114254, 3.116907E-05, 0.00104407, -0.000365958, 0.004597811, -0.0001547552, 0.0005187925, -0.9999978, -0.00140527, 0.3503954
 200030789, -0.0002738464, 0.01182881, -0.0003040909, 0.00104407, 0.0005466728, 0.003843577, -0.0002633745, 0.0005187925, -0.9999978, -0.001405813, 0.3503954
 200230709, 0.0007893998, 0.01100727, -3.706993E-05, 0.00104407, 0.0003178905, 0.00423982, 4.823543E-05, 0.0005187925, -0.9999978, -0.00140578, 0.3503954
 200431462, 0.000354039, 0.01138917, -0.0004541142, 0.001046232, 0.0001604939, 0.003890566, -0.0004001196, 0.0005209541, -0.9999978, -0.001407013, 0.3511209
 200631382, -3.321957E-07, 0.01143467, -0.0006525302, 0.001046232, -9.946002E-05, 0.004225051, -0.0002671091, 0.0005187925, -0.9999978, -0.00140613, 0.3511209
 200831302, 5.258343E-05, 0.01128081, -0.0002730065, 0.00104407, -1.679416E-05, 0.004232388, -3.314958E-05, 0.0005187925, -0.9999978, -0.001403764, 0.3503954
 201031222, 7.706305E-05, 0.01149649, 5.735246E-05, 0.00104407, 0.0003910946, 0.003981217, -0.0002425665, 0.0005187925, -0.9999979, -0.001398232, 0.3503954
 201231142, 0.0003093327, 0.01094747, -0.0003606462, 0.00104407, -9.079521E-05, 0.003894714, 0.0001485624, 0.0005187925, -0.9999979, -0.00139331, 0.3503954
 201431062, -0.0003950895, 0.01110998, 0.0001697303, 0.00104407, -0.0002204653, 0.003969495, 1.134776E-05, 0.0005187925, -0.9999979, -0.001388299, 0.3503954
 201630982, -1.758513E-05, 0.01092408, 5.653263E-05, 0.00104407, 0.0001141744, 0.003763153, 0.0003849039, 0.0005187925, -0.9999979, -0.001382786, 0.3503954
 201830902, -0.0001085207, 0.01094201, 0.0002184566, 0.00104407, -0.0006909784, 0.004346662, 6.718329E-06, 0.0005187925, -0.9999979, -0.001376563, 0.3503954
 202030822, -0.0005701967, 0.0117053, -0.0002029715, 0.00104407, 0.0002273149, 0.003950228, -0.0001703582, 0.0005187925, -0.9999979, -0.001370503, 0.3503954
 202230742, 0.0003376681, 0.01129962, -0.0003414874, 0.00104407, 0.0002886939, 0.004242958, 0.0002813346, 0.0005187925, -0.9999979, -0.001363581, 0.3503954
 202430662, 0.0005509753, 0.01144177, -2.065065E-05, 0.00104407, 0.000221076, 0.00409144, -0.0003594451, 0.0005187925, -0.9999979, -0.001357379, 0.3503954
 202631415, 0.0004498077, 0.01130024, -0.0005469168, 0.001046232, 0.0003159124, 0.003826296, -0.0001971398, 0.0005209541, -0.9999979, -0.001352824, 0.3511209
 202831335, 0.0005250562, 0.01107083, -0.0003825896, 0.001046232, -9.743339E-05, 0.003806192, 4.093916E-05, 0.0005187925, -0.9999979, -0.001346439, 0.3511209
 203031255, -6.574145E-05, 0.01126585, -1.419098E-05, 0.00104407, 0.0004607875, 0.004686774, 0.0002146149, 0.0005187925, -0.9999978, -0.001338956, 0.3503954
 203231175, 0.0003707701, 0.01197382, -0.0001404438, 0.00104407, 6.244409E-05, 0.004311865, -0.0005436307, 0.0005187925, -0.9999978, -0.001331763, 0.3503954
 203431095, 0.0001856261, 0.01139134, -0.000565087, 0.00104407, 0.0002792848, 0.004117034, 0.0001744276, 0.0005187925, -0.9999978, -0.001322836, 0.3503954
 203631015, 0.0004595383, 0.01160235, 0.0003331508, 0.00104407, 0.0004411635, 0.004203724, 3.037906E-05, 0.0005187925, -0.9999978, -0.001315597, 0.3503954
 203830935, 0.0004908652, 0.01175663, -3.508128E-06, 0.00104407, -0.0002015423, 0.004324473, -4.691511E-05, 0.0005187925, -0.9999978, -0.001322496, 0.3503954
 204030855, 0.0001230823, 0.01172617, -0.0002902789, 0.00104407, 0.0001692042, 0.004282039, -0.0003108986, 0.0005187925, -0.9999978, -0.001329283, 0.3503954
 204230775, 0.0002959315, 0.01159189, -0.0004975616, 0.00104407, 0.0004405371, 0.004094777, -0.0002525571, 0.0005187925, -0.9999978, -0.001334533, 0.3503954
 204430695, 0.0006202053, 0.01132352, -0.0005811118, 0.00104407, -0.0001289354, 0.004237072, -0.0002122709, 0.0005187925, -0.9999978, -0.001338868, 0.3503954
 204631448, -8.414233E-05, 0.0115198, -2.534168E-05, 0.001046232, 5.250972E-07, 0.004485526, -0.0003101105, 0.0005209541, -0.9999979, -0.001344857, 0.3511209
 204831368, 0.0001747291, 0.0114115, -0.0001576383, 0.001046232, -8.90246E-05, 0.003897309, 0.0001370692, 0.0005187925, -0.9999978, -0.001346593, 0.3511209
 205031288, -0.0001769144, 0.01127157, -0.0003010654, 0.00104407, 2.604096E-05, 0.004393707, -0.0002602596, 0.0005187925, -0.9999978, -0.001347742, 0.3503954
 205231208, -4.193013E-05, 0.0116384, -0.0003744713, 0.00104407, 0.0002288228, 0.004170172, -0.0002468445, 0.0005187925, -0.9999978, -0.001348836, 0.3503954
 205431128, 0.0003288176, 0.01129151, -0.0001919647, 0.00104407, -0.0001646195, 0.003589847, 0.000304048, 0.0005187925, -0.9999978, -0.001350239, 0.3503954
 205631048, 0.0001077643, 0.01104552, -1.142759E-05, 0.00104407, 2.977964E-05, 0.003886895, 0.0003038227, 0.0005187925, -0.9999978, -0.001350295, 0.3503954
 205830968, -3.766242E-05, 0.01120735, 0.0001861066, 0.00104407, -0.0001422807, 0.004419212, 0.0001744788, 0.0005187925, -0.9999978, -0.001348388, 0.3503954
 206030888, 3.567541E-05, 0.0115815, -0.0001315985, 0.00104407, -0.0001736234, 0.003970581, -0.0001983123, 0.0005187925, -0.9999978, -0.001346634, 0.3503954
 206230808, 9.6795E-05, 0.0110979, -0.0002019134, 0.00104407, 6.73456E-05, 0.004204371, 6.670311E-05, 0.0005187925, -0.9999978, -0.001344863, 0.3503954
 206430728, 0.00024493, 0.01133393, 0.0001695062, 0.00104407, 0.0003298128, 0.004103277, -0.0001372396, 0.0005187925, -0.9999979, -0.00134299, 0.3503954
 206631481, 0.0005199731, 0.01136356, -0.0001114224, 0.001046232, 1.006966E-05, 0.004365787, 1.225536E-05, 0.0005209541, -0.9999978, -0.001342186, 0.3511209
 206831401, -5.625728E-05, 0.0118619, 0.0001014168, 0.001046232, -4.733085E-05, 0.004153415, -7.63111E-06, 0.0005187925, -0.9999979, -0.001340664, 0.3511209
 207031321, -0.0001552473, 0.01118909, -0.0003239039, 0.00104407, -0.0001094913, 0.004470379, -0.000461265, 0.0005187925, -0.9999979, -0.001338081, 0.3503954
 207231241, 7.043139E-05, 0.01172712, -0.0004825829, 0.00104407, -8.177854E-05, 0.003835596, 1.031937E-06, 0.0005187925, -0.9999979, -0.001333343, 0.3503954
 207431161, -0.0001527799, 0.01088271, 4.432813E-05, 0.00104407, -0.0002704299, 0.004172828, 0.0001082416, 0.0005187925, -0.9999979, -0.001328447, 0.3503954
 207631081, -8.50736E-05, 0.01137412, -6.343928E-05, 0.00104407, 0.0002468712, 0.004455739, 0.0001385146, 0.0005187925, -0.9999979, -0.001323577, 0.3503954
 207831001, 0.0001607125, 0.01150008, 0.0001903463, 0.00104407, -3.491098E-06, 0.003705365, 0.0006105066, 0.0005187925, -0.9999979, -0.001318768, 0.3503954
 208030921, -0.0001559554, 0.0113475, 0.0004846636, 0.00104407, -0.000164227, 0.00434686, 0.0004461005, 0.0005187925, -0.9999979, -0.001313385, 0.3503954
 208230841, 1.868879E-05, 0.01162713, 0.0003469615, 0.00104407, 0.0002232749, 0.004011285, -0.0002610271, 0.0005187925, -0.9999979, -0.001307436, 0.3503954
 208430761, -2.56265E-06, 0.01127679, -0.0002984414, 0.00104407, -0.0002161559, 0.004464582, -0.0002200605, 0.0005187925, -0.9999979, -0.001302493, 0.3503954
 208630681, -0.0001319274, 0.01189, -0.0004362983, 0.00104407, -2.695412E-05, 0.004201622, -0.0001076304, 0.0005187925, -0.9999978, -0.001296298, 0.3503954
 208831434, 7.617864E-05, 0.01199143, -0.000101762, 0.001046232, 0.0002431974, 0.004450479, -3.96681E-05, 0.0005209541, -0.9999979, -0.001292282, 0.3511209
 209031354, 0.0005518659, 0.01182682, 8.863441E-05, 0.001046232, 0.0005889292, 0.004151207, 0.0007135468, 0.0005187925, -0.9999979, -0.001300963, 0.3511209
 209231274, 0.0006841062, 0.01144034, 0.0007790322, 0.00104407, 0.0001320941, 0.003980034, 0.0005142586, 0.0005187925, -0.9999979, -0.00130736, 0.3503954
 209431194, 9.558137E-05, 0.01138307, 0.0003454734, 0.00104407, -0.0003672202, 0.003716132, -0.0002987107, 0.0005187925, -0.9999979, -0.001313012, 0.3503954
 209631114, -0.0006006795, 0.01101533, -0.0002179978, 0.00104407, 2.568221E-05, 0.004250371, 3.089026E-05, 0.0005187925, -0.9999979, -0.001317868, 0.3503954
 209831034, -8.295709E-05, 0.01158082, 2.444839E-05, 0.00104407, 0.0001438418, 0.004789668, 2.477966E-05, 0.0005187925, -0.9999979, -0.001321343, 0.3503954
 210030954, 0.0002825099, 0.01211464, 0.0001646837, 0.00104407, 3.873583E-05, 0.004239874, -0.0002155002, 0.0005187925, -0.9999979, -0.00132509, 0.3503954
 210230874, -0.0001324323, 0.01157923, -7.369306E-05, 0.00104407, -0.0002937368, 0.004157404, 0.0002468266, 0.0005187925, -0.9999979, -0.001327733, 0.3503954
 210430794, -0.0001828084, 0.01148472, 0.0001388424, 0.00104407, 0.0001984779, 0.004373798, -4.465343E-05, 0.0005187925, -0.9999979, -0.001328918, 0.3503954
 210630714, 0.0001373444, 0.01113485, -5.607032E-05, 0.00104407, 0.0004117377, 0.003868388, -0.0001415961, 0.0005187925, -0.9999979, -0.001327298, 0.3503954
 210831467, 0.0003142309, 0.01134009, -1.145063E-05, 0.001046232, 0.0001234348, 0.003758095, 7.872253E-05, 0.0005209541, -0.9999979, -0.001327837, 0.3511209
 211031387, 0.0001796125, 0.01116234, 0.0001022819, 0.001046232, 1.453293E-05, 0.004256998, -0.0003928067, 0.0005187925, -0.9999979, -0.001327742, 0.3511209
 211231307, 8.817336E-05, 0.01124434, -0.0007001887, 0.00104407, -5.658676E-05, 0.003735675, 3.418756E-06, 0.0005187925, -0.9999979, -0.001326744, 0.3503954
 211431227, -0.0002609582, 0.01107552, -0.0002970698, 0.00104407, 0.0003362233, 0.004322634, 0.0001849972, 0.0005187925, -0.9999979, -0.001324061, 0.3503954
 211631147, 0.000267062, 0.01147276, -0.0001204796, 0.00104407, -0.000413681, 0.004050875, -0.0001916536, 0.0005187925, -0.9999979, -0.001322356, 0.3503954
 211831067, -0.0007939393, 0.01127653, -0.0001966571, 0.00104407, -9.06187E-05, 0.00430412, -0.0004176531, 0.0005187925, -0.9999979, -0.001319979, 0.3503954
 212030987, 4.478215E-05, 0.0117412, -0.0003990854, 0.00104407, 0.0002409175, 0.004437498, 6.2878E-05, 0.0005187925, -0.9999979, -0.00131637, 0.3503954
 212230907, 0.0002674498, 0.01151229, 0.0001884493, 0.00104407, 7.139055E-05, 0.004011524, 0.0002967684, 0.0005187925, -0.9999979, -0.001313097, 0.3503954
 212430827, 0.0002261632, 0.01108926, 0.0001630619, 0.00104407, 0.0003297344, 0.00404357, -0.0003066421, 0.0005187925, -0.9999979, -0.001308454, 0.3503954
 212630747, 0.0004068468, 0.01116293, -0.0002372365, 0.00104407, 0.0001253611, 0.003726189, 0.0001299767, 0.0005187925, -0.9999979, -0.001303985, 0.3503954
 212830667, -0.000168878, 0.01069745, -5.3444E-05, 0.00104407, -0.0003032971, 0.004175359, -0.0001591487, 0.0005187925, -0.9999979, -0.001299126, 0.3503954
 213031420, -0.0002559269, 0.01137283, -0.0006074467, 0.001046232, -0.0005059566, 0.00369581, -0.0001799571, 0.0005209541, -0.9999979, -0.001295708, 0.3511209
 213231340, -0.0004306227, 0.0112304, 5.292879E-05, 0.001046232, 0.0002393139, 0.004081255, 0.000488323, 0.0005187925, -0.9999979, -0.001290823, 0.3511209
 213431260, 0.0002820848, 0.01136679, 0.0005361208, 0.00104407, -0.0001737036, 0.004315303, -0.0001544966, 0.0005187925, -0.9999979, -0.001283487, 0.3503954
 213631180, -0.0001247927, 0.01143391, -0.0003518974, 0.00104407, -3.18433E-05, 0.003941238, -0.0005123139, 0.0005187925, -0.9999979, -0.00127802, 0.3503954
 213831100, -9.516427E-05, 0.01117518, -0.000715625, 0.00104407, -7.647291E-05, 0.003798663, -0.0003237764, 0.0005187925, -0.9999979, -0.001272241, 0.3503954
 214031020, 0.0002689979, 0.0113894, -0.0003892663, 0.00104407, 4.375049E-05, 0.004440696, 7.746457E-05, 0.0005187925, -0.9999979, -0.00126628, 0.3503954
 214230940, 0.0002342021, 0.01193644, 8.775183E-05, 0.00104407, -6.065487E-05, 0.003896918, 7.672808E-06, 0.0005187925, -0.9999979, -0.001275765, 0.3503954
 214430860, 0.0004214168, 0.01113512, 9.083667E-06, 0.00104407, -5.665171E-05, 0.004133633, 1.109037E-05, 0.0005187925, -0.9999979, -0.00128439, 0.3503954
 214630780, 0.0002073306, 0.01168016, -0.0002983318, 0.00104407, -7.283894E-05, 0.004242031, -0.0003302909, 0.0005187925, -0.9999979, -0.001291763, 0.3503954
 214830700, 7.092714E-05, 0.01189152, -0.0003793069, 0.00104407, 8.932674E-05, 0.004635124, -6.5154E-05, 0.0005187925, -0.9999979, -0.001298574, 0.3503954
 215031453, 0.0001452161, 0.01202704, -0.0006254741, 0.001046232, 0.0002029248, 0.004566287, -0.0003592405, 0.0005209541, -0.9999979, -0.001303929, 0.3511209
 215231373, 9.213357E-05, 0.0122, -0.0005431808, 0.001046232, 5.446982E-06, 0.004382112, 1.358442E-05, 0.0005187925, -0.9999979, -0.001307997, 0.3511209
 215431293, 0.0001751612, 0.01148656, 7.209992E-05, 0.00104407, 7.843354E-05, 0.003885909, 0.0003610084, 0.0005187925, -0.9999979, -0.001310147, 0.3503954
 215631213, 0.0001196712, 0.01115771, 0.0002833127, 0.00104407, -0.0001414563, 0.003711202, -0.0002340429, 0.0005187925, -0.9999979, -0.001311777, 0.3503954
 215831133, 0.0002610978, 0.01067389, -0.0001827164, 0.00104407, 0.0003413673, 0.004195931, -6.631344E-06, 0.0005187925, -0.9999979, -0.001313105, 0.3503954
 216031053, 0.0005331837, 0.011292, -7.307466E-05, 0.00104407, 0.0001725951, 0.004333692, -9.196893E-05, 0.0005187925, -0.9999979, -0.001313379, 0.3503954
 216230973, 0.0003682612, 0.01157897, -0.0002176618, 0.00104407, 0.0002549797, 0.003619911, 2.652656E-05, 0.0005187925, -0.9999979, -0.001313599, 0.3503954
 216430893, 0.0007445209, 0.01081626, -0.0002885308, 0.00104407, 0.0003155363, 0.004288108, -0.0002430409, 0.0005187925, -0.9999979, -0.001312963, 0.3503954
 216630813, 0.0001274258, 0.01142959, -0.0002772366, 0.00104407, 0.0002491726, 0.004280058, 0.0005000737, 0.0005187925, -0.9999979, -0.001312383, 0.3503954
 216830733, -1.944425E-05, 0.01147591, 5.722154E-05, 0.00104407, -0.0003219231, 0.003678487, -0.0003029648, 0.0005187925, -0.9999979, -0.001310057, 0.3503954
 217031486, -0.0001655553, 0.01077133, -0.0009111311, 0.001046232, -0.0001018444, 0.003808918, -0.0002761844, 0.0005187925, -0.9999979, -0.001306277, 0.3511209
 217231406, 0.0001511205, 0.01100091, -0.0001170473, 0.001046232, -5.509571E-05, 0.004159549, 0.0001175517, 0.0005209541, -0.9999979, -0.001304731, 0.3511209
 217431326, 1.69537E-05, 0.01128664, 2.778375E-05, 0.001046232, 0.0003353643, 0.004167348, -9.579284E-05, 0.0005187925, -0.9999979, -0.001301434, 0.3511209
 217631246, -9.687302E-05, 0.0112278, -0.0002955065, 0.00104407, -0.0003360877, 0.004230731, -0.0003398334, 0.0005187925, -0.9999979, -0.001296027, 0.3503954
 217831166, -0.0006576122, 0.01177822, -0.0003674563, 0.00104407, -0.0001844052, 0.00424579, 2.270863E-05, 0.0005187925, -0.9999979, -0.001293669, 0.3503954
 218031086, -8.378315E-05, 0.01153314, -0.0002974846, 0.00104407, -0.0001063358, 0.004098818, -0.0001532668, 0.0005187925, -0.9999979, -0.001290754, 0.3503954
 218231006, -0.000139741, 0.0112155, -0.0003587885, 0.00104407, -0.0001369478, 0.003990014, -9.952259E-05, 0.0005187925, -0.9999979, -0.001287271, 0.3503954
 218430926, 0.0001296763, 0.01140373, -0.000144978, 0.00104407, -4.299325E-05, 0.00439833, -0.0001262684, 0.0005187925, -0.9999979, -0.001284023, 0.3503954
 218630846, -6.218535E-05, 0.0116028, -0.0005060377, 0.00104407, 0.0001140149, 0.004272026, 0.0004065853, 0.0005187925, -0.9999978, -0.001280204, 0.3503954
 218830766, 0.0002003731, 0.01173115, 8.133481E-05, 0.00104407, -0.0002334394, 0.004362671, -0.0003869392, 0.0005187925, -0.9999978, -0.001276379, 0.3503954
 219030686, -0.0003754933, 0.0117924, -0.0003602279, 0.00104407, -4.091053E-05, 0.004244904, -0.000230517, 0.0005187925, -0.9999978, -0.001273209, 0.3503954
 219231439, 0.0002677992, 0.01196894, -0.0005382928, 0.001046232, 0.000170678, 0.004223425, -0.0002878257, 0.0005209541, -0.9999978, -0.001269673, 0.3511209
 219431359, 0.0004570193, 0.01144454, -0.0002761467, 0.001046232, 0.0005038794, 0.004488766, -9.560931E-05, 0.0005187925, -0.9999978, -0.00127954, 0.3511209
 219631279, 0.0005969684, 0.01158878, -0.000434151, 0.00104407, 4.782252E-05, 0.004065864, -0.0001947565, 0.0005187925, -0.9999978, -0.001287651, 0.3503954
 219831199, 0.000152256, 0.01146061, -0.0004039865, 0.00104407, 0.0001346105, 0.004230479, 5.762895E-05, 0.0005187925, -0.9999978, -0.001295848, 0.3503954
 220031119, 0.000187606, 0.01159751, -0.0001661494, 0.00104407, 3.960984E-07, 0.00449346, 9.894939E-05, 0.0005187925, -0.9999978, -0.001303726, 0.3503954
 220231039, 0.000103061, 0.01151248, -0.0002110638, 0.00104407, -0.0001063341, 0.003850601, 5.556267E-05, 0.0005187925, -0.9999978, -0.001311888, 0.3503954
 220430959, -0.0002159006, 0.01113209, 0.000134823, 0.00104407, -0.0001042238, 0.004236409, 4.335456E-05, 0.0005187925, -0.9999978, -0.001319206, 0.3503954
 220630879, -0.000297928, 0.01173104, -4.515511E-05, 0.00104407, -0.0002598284, 0.004201038, -8.02458E-05, 0.0005187925, -0.9999978, -0.001324233, 0.3503954
 220830799, -0.0003583895, 0.011679, 0.0001426734, 0.00104407, -0.0004671484, 0.004968761, 0.0001587399, 0.0005187925, -0.9999978, -0.001328945, 0.3503954
 221030719, -0.0003814415, 0.01239713, -0.0001158811, 0.00104407, 0.0004577335, 0.00402227, 0.0002156289, 0.0005187925, -0.9999978, -0.001333028, 0.3503954
 221231472, 0.0006759827, 0.01113395, -7.959796E-05, 0.001046232, 0.0002825288, 0.003787218, -6.413477E-05, 0.0005209541, -0.9999978, -0.001334052, 0.3511209
 221431392, 0.0001900478, 0.01124993, -0.0003558125, 0.001046232, 0.0001735496, 0.004443634, 0.0004622386, 0.0005187925, -0.9999978, -0.00133752, 0.3511209
 221631312, 0.0005564212, 0.01163855, 0.0004858622, 0.00104407, 0.0004542306, 0.004113072, -0.0001631418, 0.0005187925, -0.9999978, -0.001340443, 0.3503954
 221831232, 0.0002962424, 0.01136806, -0.0005886785, 0.00104407, -0.0004737811, 0.004316365, -0.0001529237, 0.0005187925, -0.9999978, -0.001340734, 0.3503954
 222031152, -0.0003281265, 0.01181765, -0.0002881637, 0.00104407, -0.0001121959, 0.004101099, 0.0001861578, 0.0005187925, -0.9999978, -0.001340922, 0.3503954
 222231072, -8.470635E-05, 0.01146757, -1.954228E-06, 0.00104407, 0.0002320673, 0.004165776, 0.0002243658, 0.0005187925, -0.9999978, -0.001340613, 0.3503954
 222430992, 4.889703E-05, 0.01156782, -0.0001112028, 0.00104407, -3.16027E-05, 0.00417213, -0.0003009581, 0.0005187925, -0.9999978, -0.001340316, 0.3503954
 222630912, -9.956669E-05, 0.01135852, -0.05029444, 0.00104407, 3.0411E-05, 0.004217909, -0.09752237, 0.0005187925, -0.9999978, -0.001341508, 0.3503954
 222830832, 0.0008083622, 0.01201036, -0.3695592, 0.00104407, -7.28654E-05, 0.004722524, -0.04913579, 0.0005187925, -0.9999978, -0.001341381, 0.3503954
 223030752, -0.0004307275, 0.01180716, 0.03894828, 0.00104407, -0.0002879295, 0.004117467, 0.06734525, 0.0005187925, -0.9999978, -0.001340412, 0.3503954
 223230672, -0.0005372759, 0.01121278, -0.2414225, 0.00104407, -1.096158E-05, 0.003883117, -0.616523, 0.0005187925, -0.9999991, -0.001370357, 0.3503954
 223431425, -0.006225053, 0.004392288, -1.897555, 0.001046232, -0.00601183, -0.001963752, -0.5535936, 0.0005209541, -0.9999906, -0.001508887, 0.3511209
 223631345, -0.02070968, -0.009981371, -0.8850405, 0.001046232, -0.009345996, -0.005112931, -0.06993827, 0.0005187925, -0.9999793, -0.001672767, 0.3511209
 223831265, -0.02532003, -0.01377445, -0.2098026, 0.00104407, -0.008672798, -0.004457537, -0.1097409, 0.0005187925, -0.9999775, -0.001838632, 0.3503954
 224031185, -0.02286651, -0.01070126, -0.3565171, 0.00104407, -0.007859093, -0.002956293, -0.1463149, 0.0005187925, -0.9999786, -0.00200731, 0.3503954
 224231105, -0.01975003, -0.006790141, -0.3687063, 0.00104407, -0.006512687, -0.00202381, -0.1161836, 0.0005187925, -0.9999806, -0.002166764, 0.3503954
 224431025, -0.01649347, -0.003630031, -0.2942073, 0.00104407, -0.00551194, -0.0002875015, -0.09648087, 0.0005187925, -0.9999823, -0.002318711, 0.3503954
 224630945, -0.01398717, -0.0001424834, -0.2540995, 0.00104407, -0.004331238, 0.0005281596, -0.08736754, 0.0005187925, -0.9999837, -0.002476411, 0.3503954
 224830865, -0.01105478, 0.002373799, -0.2274684, 0.00104407, -0.003590931, 0.001405032, -0.07684833, 0.0005187925, -0.9999847, -0.002639793, 0.3503954
 225030785, -0.008797215, 0.004606355, -0.199457, 0.00104407, -0.002817004, 0.002092905, -0.06701504, 0.0005187925, -0.9999853, -0.002789077, 0.3503954
 225230705, -0.006328292, 0.006157113, -0.1744363, 0.00104407, -0.001633978, 0.002702923, -0.05877585, 0.0005187925, -0.9999853, -0.002917047, 0.3503954
 225431458, -0.00398729, 0.007277152, -0.1536042, 0.001046232, -0.0008900462, 0.002721944, -0.05190386, 0.0005209541, -0.9999849, -0.003032516, 0.3511209
 225631378, -0.002520893, 0.007522441, -0.1348988, 0.001046232, -0.0009902414, 0.002707451, -0.04559462, 0.0005187925, -0.9999842, -0.003139275, 0.3511209
 225831298, -0.00202015, 0.007864935, -0.1183564, 0.00104407, -0.000761728, 0.003254128, -0.04004105, 0.0005187925, -0.9999833, -0.0032708, 0.3503954
 226031218, -0.002531863, 0.008056761, -0.1033266, 0.00104407, -0.001256222, 0.002908389, -0.03435862, 0.0005187925, -0.9999822, -0.003446608, 0.3503954
 226231138, -0.003347438, 0.007888256, -0.08986257, 0.00104407, -0.001237304, 0.003103449, -0.03061153, 0.0005187925, -0.9999806, -0.003845075, 0.3503954
 226431058, -0.003842307, 0.008224204, -0.0801703, 0.00104407, -0.001696091, 0.002853487, -0.02720694, 0.0005187925, -0.9999782, -0.004307481, 0.3503954
 226630978, -0.001980037, 0.01007303, 0.3237938, 0.00104407, 0.0007788005, 0.00457903, 0.3331895, 0.0005187925, -0.9999735, -0.004860441, 0.3503954
 226830898, 0.001580094, 0.01191408, 0.8655538, 0.00104407, 0.000509851, 0.004060089, 0.2911496, 0.0005187925, -0.9999674, -0.005611721, 0.3503954
 227030818, 0.00102845, 0.01068288, 0.7562953, 0.00104407, 0.0004864843, 0.003684318, 0.2546451, 0.0005187925, -0.9999617, -0.006213033, 0.3503954
 227230738, 0.001118411, 0.01014273, 0.6299686, 0.00104407, 0.0002829722, 0.003322016, 0.1866902, 0.0005187925, -0.9999607, -0.006567498, 0.3503954
 227430658, 0.009877159, 0.01408246, 0.4815708, 0.00104407, 0.01051036, 0.008486623, 0.1572569, 0.0005187925, -0.9999762, -0.006881416, 0.3503954
 227631411, 0.05162777, 0.03156476, 0.4003189, 0.001046232, 0.02876654, 0.01535203, 0.1317463, 0.0005209541, -0.9999569, -0.007147286, 0.3511209
 227831331, 0.07183877, 0.04258444, 0.3446454, 0.001046232, 0.01993613, 0.01485027, 0.119188, 0.0005187925, -0.999953, -0.007506594, 0.3511209
 228031251, 0.04929392, 0.03771802, 0.3264445, 0.00104407, 0.02000969, 0.01291737, 0.1198598, 0.0005187925, -0.9999499, -0.007918319, 0.3503954
 228231171, 0.09791818, 0.03837984, 0.334065, 0.00104407, 0.06060855, 0.0161175, 0.1255135, 0.0005187925, -0.9999047, -0.008168931, 0.3503954
 228431091, 0.2086927, 0.04830933, 0.3416162, 0.00104407, 0.09562583, 0.01994959, 0.1208356, 0.0005187925, -0.9998273, -0.008339004, 0.3503954
 228631011, 0.2748912, 0.05633987, 0.3125237, 0.00104407, 0.1044003, 0.02093516, 0.1048009, 0.0005187925, -0.9997668, -0.008864461, 0.3503954
 228830931, 0.2862184, 0.05774897, 0.2654037, 0.00104407, 0.103994, 0.02131659, 0.08593676, 0.0005187925, -0.9997255, -0.009618112, 0.3503954
 229030851, 0.2841903, 0.05634176, 0.2152018, 0.00104407, 0.1027675, 0.01966677, 0.06815745, 0.0005187925, -0.999705, -0.01039308, 0.3503954
 229230771, 0.2783245, 0.0516228, 0.1689966, 0.00104407, 0.09948143, 0.01771032, 0.05232204, 0.0005187925, -0.999696, -0.01099792, 0.3503954
 229430691, 0.2679646, 0.04688259, 0.1291553, 0.00104407, 0.09485254, 0.01631763, 0.03983367, 0.0005187925, -0.9996845, -0.01133405, 0.3503954
 229631444, 0.2581575, 0.04584101, 0.09979369, 0.001046232, 0.09327906, 0.01860298, 0.03173028, 0.0005209541, -0.9995849, -0.008589378, 0.3511209
 229831364, 0.2546983, 0.07793862, 0.08639731, 0.001046232, 0.09253658, 0.04542944, 0.03100476, 0.0005187925, -0.9978853, 0.0436508, 0.3511209
 230031284, 0.2552944, 0.1513516, 0.07096533, 0.00104407, 0.09352417, 0.06615367, 0.01838136, 0.0005187925, -0.9797777, 0.1964006, 0.3503954
 230231204, 0.2585569, 0.1694833, 0.04155081, 0.00104407, 0.09568807, 0.05214513, 0.01123022, 0.0005187925, -0.9070379, 0.4203513, 0.3503954
 230431124, 0.272876, 0.1076134, 0.02918407, 0.00104407, 0.1058961, 0.02020756, 0.01061275, 0.0005187925, -0.7464584, 0.6552733, 0.3503954
 230631044, 0.3049999, 0.02512068, 0.03128801, 0.00104407, 0.1182572, -0.005340484, 0.01251414, 0.0005187925, -0.5050279, 0.8397126, 0.3503954
 230830964, 0.3307222, -0.03419296, 0.03599505, 0.00104407, 0.1227826, -0.02185904, 0.01366935, 0.0005187925, -0.2339503, 0.9392756, 0.3503954
 231030884, 0.3342975, -0.06815169, 0.03702101, 0.00104407, 0.1199561, -0.02792116, 0.01335841, 0.0005187925, 0.0101602, 0.9627876, 0.3503954
 231230804, 0.323695, -0.07741193, 0.03695568, 0.00104407, 0.1157581, -0.03057872, 0.01502256, 0.0005187925, 0.1997105, 0.9409199, 0.3503954
 231430724, 0.3208306, -0.1054603, 0.04137779, 0.00104407, 0.1195167, -0.05014226, 0.01359562, 0.0005187925, 0.3022844, 0.9131936, 0.3503954
 231631477, 0.3294644, -0.1454069, 0.03061477, 0.001046232, 0.1202571, -0.05317839, 0.00788205, 0.0005209541, 0.3117093, 0.9080069, 0.3511209
 231831397, 0.3189038, -0.1103544, 0.0182909, 0.001046232, 0.1111509, -0.01820581, 0.00545102, 0.0005187925, 0.2549816, 0.9194602, 0.3511209
 232031317, 0.3026616, 0.007098163, 0.01845116, 0.00104407, 0.1105135, 0.03247405, 0.008755426, 0.0005187925, 0.1656291, 0.9309803, 0.3503954
 232231237, 0.3087813, 0.1348619, 0.02754716, 0.00104407, 0.11567, 0.070601, 0.01149983, 0.0005187925, 0.08074485, 0.9352004, 0.3503954
 232431157, 0.3188116, 0.2106127, 0.03138651, 0.00104407, 0.1166637, 0.08263823, 0.01073987, 0.0005187925, 0.031592, 0.9344671, 0.3503954
 232631077, 0.3164071, 0.2159737, 0.02690499, 0.00104407, 0.1132351, 0.07134157, 0.00870149, 0.0005187925, 0.02624318, 0.9316294, 0.3503954
 232830997, 0.3084869, 0.1682874, 0.02210796, 0.00104407, 0.1120194, 0.04651654, 0.007338881, 0.0005187925, 0.05333871, 0.9259159, 0.3503954
 233030917, 0.3106314, 0.09735908, 0.02227173, 0.00104407, 0.1155279, 0.0204544, 0.008846989, 0.0005187925, 0.0928897, 0.9168692, 0.3503954
 233230837, 0.3230846, 0.03539738, 0.0256632, 0.00104407, 0.1203487, 0.00306292, 0.0102171, 0.0005187925, 0.1261703, 0.9071122, 0.3503954
 233430757, 0.3323402, 0.001537176, 0.02690102, 0.00104407, 0.1218568, -0.001953878, 0.008948917, 0.0005187925, 0.1422597, 0.9000694, 0.3503954
 233630677, 0.3296472, -4.749431E-05, 0.02125206, 0.00104407, 0.1172848, 0.003427492, 0.005953974, 0.0005187925, 0.1397827, 0.8971023, 0.3503954
 233831430, 0.3131909, 0.02269066, 0.01473677, 0.001046232, 0.109303, 0.01534348, 0.004665839, 0.0005209541, 0.1245714, 0.8967012, 0.3511209
 234031350, 0.2902515, 0.05442112, 0.01192716, 0.001046232, 0.1016506, 0.02564266, 0.004009112, 0.0005187925, 0.1053816, 0.896489, 0.3511209
 234231270, 0.272083, 0.07636118, 0.01129076, 0.00104407, 0.09642398, 0.03056055, 0.003671515, 0.0005187925, 0.08981381, 0.8953533, 0.3503954
 234431190, 0.2598219, 0.08291919, 0.008458499, 0.00104407, 0.09265926, 0.02935443, 0.001523624, 0.0005187925, 0.08205716, 0.893603, 0.3503954
 234631110, 0.2475611, 0.0749564, 0.003802731, 0.00104407, 0.08686747, 0.02415256, 0.001356552, 0.0005187925, 0.08215503, 0.8915797, 0.3503954
 234831030, 0.2323686, 0.05923825, 0.00460881, 0.00104407, 0.08221436, 0.0180479, 0.001135111, 0.0005187925, 0.08730216, 0.8890032, 0.3503954
 235030950, 0.2214015, 0.04331543, 0.002921458, 0.00104407, 0.07898048, 0.01285055, 7.001459E-05, 0.0005187925, 0.09379614, 0.8861839, 0.3503954
 235230870, 0.2125936, 0.03065574, -0.0008898536, 0.00104407, 0.07555718, 0.009153915, -0.0008117944, 0.0005187925, 0.09859647, 0.8837423, 0.3503954
 235430790, 0.2009495, 0.023737, -0.001340484, 0.00104407, 0.06992226, 0.008216407, -0.0002518898, 0.0005187925, 0.1000204, 0.8819988, 0.3503954
 235630710, 0.1858181, 0.02379172, 0.0003662396, 0.00104407, 0.0648383, 0.009679002, 4.245848E-05, 0.0005187925, 0.09821194, 0.8807309, 0.3503954
 235831463, 0.1739827, 0.0297758, -0.0001711117, 0.001046232, 0.06204108, 0.01247382, -0.001268866, 0.0005209541, 0.09451318, 0.8795161, 0.3511209
 236031383, 0.1660749, 0.03662429, -0.00486648, 0.001046232, 0.05869895, 0.01419822, -0.003097198, 0.0005187925, 0.09052891, 0.8784459, 0.3511209
 236231303, 0.1564049, 0.040517, -0.00946774, 0.00104407, 0.0544984, 0.01519632, -0.003788779, 0.0005187925, 0.08758163, 0.8778031, 0.3503954
 236431223, 0.1439838, 0.03953795, -0.008958056, 0.00104407, 0.04971977, 0.01292299, -0.00282864, 0.0005187925, 0.08626446, 0.876945, 0.3503954
 236631143, 0.133718, 0.03159128, -0.006367543, 0.00104407, 0.04754133, 0.009520585, -0.00213456, 0.0005187925, 0.08630988, 0.8754879, 0.3503954
 236831063, 0.1274052, 0.02405347, -0.003866921, 0.00104407, 0.04571211, 0.007692243, -0.001461502, 0.0005187925, 0.08689062, 0.8738914, 0.3503954
 237030983, 0.1230543, 0.01984642, -0.003427326, 0.00104407, 0.04385324, 0.006669233, -0.0009872717, 0.0005187925, 0.08733306, 0.8723015, 0.3503954
 237230903, 0.1181858, 0.01732938, -0.003424732, 0.00104407, 0.04168721, 0.006297317, -0.001356457, 0.0005187925, 0.0872704, 0.8710889, 0.3503954
 237430823, 0.1123608, 0.01793479, -0.004888238, 0.00104407, 0.03927436, 0.007055886, -0.001681489, 0.0005187925, 0.08662689, 0.8701022, 0.3503954
 237630743, 0.1045295, 0.02010859, -0.002745269, 0.00104407, 0.03672479, 0.007924803, 4.272778E-05, 0.0005187925, 0.08542231, 0.8692014, 0.3503954
 237830663, 0.09826299, 0.02131756, -4.998711E-05, 0.00104407, 0.03486256, 0.007740005, -0.0001606835, 0.0005187925, 0.08398688, 0.8680565, 0.3503954
 238031416, 0.09374749, 0.01893276, 0.001283957, 0.001046232, 0.03302555, 0.005805996, 0.001809491, 0.0005209541, 0.08283177, 0.8668559, 0.3511209
 238231336, 0.09019054, 0.0146646, 0.004151421, 0.001046232, 0.03285089, 0.004929491, 0.001142371, 0.0005187925, 0.0818743, 0.8654674, 0.3511209
 238431256, 0.08975789, 0.01416709, 0.001824837, 0.00104407, 0.03184088, 0.005530559, 0.0007244954, 0.0005187925, 0.08108597, 0.8643631, 0.3503954
 238631176, 0.08962674, 0.01608887, -0.01268077, 0.00104407, 0.03151434, 0.006508863, -0.01159974, 0.0005187925, 0.08071525, 0.8664075, 0.3503954
 238831096, 0.06043134, 0.01567508, -0.03196156, 0.00104407, 0.007033406, 0.004658653, -0.01034377, 0.0005187925, 0.08099652, 0.8737525, 0.3503954
 239031016, -0.0001687347, 0.01167496, -0.02157072, 0.00104407, -0.007261038, 0.003650961, -0.004511323, 0.0005187925, 0.08075377, 0.8765013, 0.3503954
 239230936, -0.01622546, 0.01120893, -0.009700164, 0.00104407, -0.002830318, 0.004485319, -0.00238001, 0.0005187925, 0.08016839, 0.8744748, 0.3503954
 239430856, -0.003436764, 0.0134627, -0.004067366, 0.00104407, 0.0004668715, 0.005296102, -0.0002857674, 0.0005187925, 0.07960226, 0.8731549, 0.3503954
 239630776, 0.003204881, 0.01422717, -0.003166463, 0.00104407, 0.001882145, 0.005167917, -0.003186906, 0.0005187925, 0.07906304, 0.8732778, 0.3503954
 239830696, 0.00203983, 0.01392271, -0.01323573, 0.00104407, -0.001564396, 0.004948687, -0.007345884, 0.0005187925, 0.07874046, 0.8754332, 0.3503954
 240031449, -0.01262883, 0.01275426, -0.01975213, 0.001046232, -0.008570959, 0.004056841, -0.00721197, 0.0005209541, 0.0785015, 0.8778059, 0.3511209
 240231369, -0.02578052, 0.01122566, -0.02006498, 0.001046232, -0.00988022, 0.0039901, -0.007773709, 0.0005187925, 0.07826515, 0.878586, 0.3511209
 240431289, -0.02964296, 0.01173422, -0.01416786, 0.00104407, -0.01178927, 0.004583599, -0.001013566, 0.0005187925, 0.07800115, 0.8783498, 0.3503954
 240631209, -0.03000178, 0.01290483, 0.004495484, 0.00104407, -0.008648999, 0.005147522, 0.004884386, 0.0005187925, 0.07754195, 0.8761806, 0.3503954
 240831129, -0.01521813, 0.01504315, 0.0146841, 0.00104407, -0.001560078, 0.006055518, 0.006523953, 0.0005187925, 0.0770535, 0.8737356, 0.3503954
 241031049, -0.0006207905, 0.01667199, 0.01523814, 0.00104407, 0.001679199, 0.005439546, 0.003931183, 0.0005187925, 0.07675026, 0.8732449, 0.3503954
 241230969, 0.002076095, 0.01235519, 0.007727782, 0.00104407, -0.0006704974, 0.003054138, 0.001064714, 0.0005187925, 0.07639474, 0.8743657, 0.3503954
 241430889, -0.005652032, 0.007201494, 0.00329921, 0.00104407, -0.003677432, 0.001666143, 0.00102816, 0.0005187925, 0.07568821, 0.8753027, 0.3503954
 241630809, -0.01116133, 0.004748279, 0.003193954, 0.00104407, -0.00414285, 0.001411231, 0.002008101, 0.0005187925, 0.07481783, 0.875495, 0.3503954
 241830729, -0.01184503, 0.006166447, 0.007798361, 0.00104407, -0.003387694, 0.003436495, 0.003370043, 0.0005187925, 0.07399255, 0.8747396, 0.3503954
 242031482, -0.008597265, 0.009906406, 0.01022436, 0.001046232, -0.002982876, 0.003905505, 0.004716298, 0.0005209541, 0.07346768, 0.8737221, 0.3511209
 242231402, -0.004399361, 0.01093772, 0.0134358, 0.001046232, -0.0001309986, 0.00393631, 0.005337155, 0.0005187925, 0.07302216, 0.872767, 0.3511209
 242431322, 0.005088454, 0.01117116, 0.00976811, 0.00104407, 0.003286974, 0.003935316, 0.001316238, 0.0005187925, 0.07287274, 0.8726102, 0.3503954
 242631242, 0.004812446, 0.0101559, 0.0001358325, 0.00104407, 0.000193886, 0.003563416, -0.002766651, 0.0005187925, 0.07301893, 0.8741286, 0.3503954
 242831162, -0.006253285, 0.008606474, -0.007335514, 0.00104407, -0.005167723, 0.002421055, -0.00220956, 0.0005187925, 0.0730459, 0.8756165, 0.3503954
 243031082, -0.01450417, 0.006815396, -0.004754651, 0.00104407, -0.005182599, 0.002641986, -0.001368068, 0.0005187925, 0.07276798, 0.8757143, 0.3503954
 243231002, -0.01132466, 0.008386562, -0.007738736, 0.00104407, -0.002470965, 0.003822831, -0.005383329, 0.0005187925, 0.07240906, 0.8755162, 0.3503954
 243430922, -0.01183951, 0.0115281, -0.01765983, 0.00104407, -0.00667704, 0.004756202, -0.006421405, 0.0005187925, 0.07236462, 0.877155, 0.3503954
 243630842, -0.02276736, 0.01271365, -0.01597434, 0.00104407, -0.01088925, 0.004275425, -0.003515564, 0.0005187925, 0.07234713, 0.8782866, 0.3503954
 243830762, -0.02804324, 0.01194342, -0.005332749, 0.00104407, -0.01022176, 0.004559096, 0.0005889526, 0.0005187925, 0.07205477, 0.8773444, 0.3503954
 244030682, -0.0230709, 0.01233351, 0.005915681, 0.00104407, -0.00514114, 0.004533533, 0.002763457, 0.0005187925, 0.07169762, 0.8752632, 0.3503954
 244231435, 0.001235701, 0.01182441, -0.01030901, 0.001046232, 0.009921444, 0.003464486, -0.01755035, 0.0005209541, 0.07151594, 0.8743321, 0.3511209
 244431355, 0.02989079, -0.003611313, -0.06007413, 0.001046232, 0.0110113, -0.009364682, -0.02713897, 0.0005187925, 0.07049076, 0.876446, 0.3511209
 244631275, 0.02478215, -0.04109572, -0.07816674, 0.00104407, 0.006009934, -0.02180614, -0.02914081, 0.0005187925, 0.0669491, 0.8789192, 0.3503954
 244831195, 0.0150412, -0.06298801, -0.07866117, 0.00104407, 0.005171185, -0.02319656, -0.02768133, 0.0005187925, 0.06076628, 0.8793074, 0.3503954
 245031115, 0.01736457, -0.05799927, -0.0713518, 0.00104407, 0.008406293, -0.01808724, -0.0237851, 0.0005187925, 0.05290576, 0.8779013, 0.3503954
 245231035, 0.03001038, -0.0458468, -0.06186624, 0.00104407, 0.01415527, -0.01558868, -0.02081433, 0.0005187925, 0.04458904, 0.87593, 0.3503954
 245430955, 0.0410171, -0.04404321, -0.0508514, 0.00104407, 0.01577309, -0.01728523, -0.01619034, 0.0005187925, 0.03718514, 0.8747538, 0.3503954
 245630875, 0.04301399, -0.0502951, -0.03746739, 0.00104407, 0.01517248, -0.01966701, -0.01015695, 0.0005187925, 0.03105855, 0.8737339, 0.3503954
 245830795, 0.04257429, -0.05435641, -0.02451878, 0.00104407, 0.01597659, -0.01980844, -0.007820354, 0.0005187925, 0.02624857, 0.8727396, 0.3503954
 246030715, 0.04312924, -0.05317979, -0.01681961, 0.00104407, 0.01581265, -0.01872852, -0.004106308, 0.0005187925, 0.02256025, 0.8715575, 0.3503954
 246231468, 0.04285987, -0.05131728, -0.00719349, 0.001046232, 0.01590677, -0.0187249, -0.0009159488, 0.0005209541, 0.01931627, 0.8702784, 0.3511209
 246431388, 0.04466791, -0.05054454, -0.00179412, 0.001046232, 0.01725093, -0.01818444, -0.0005910594, 0.0005187925, 0.01608025, 0.8688583, 0.3511209
 246631308, 0.049512, -0.04809739, -0.001839081, 0.00104407, 0.01847569, -0.01649827, -0.0003951328, 0.0005187925, 0.01267616, 0.867497, 0.3503954
 246831228, 0.05159257, -0.04364881, 0.0001699101, 0.00104407, 0.01952269, -0.01484701, -1.932921E-05, 0.0005187925, 0.008988298, 0.8664296, 0.3503954
 247031148, 0.0518809, -0.03797534, 0.001281039, 0.00104407, 0.01795832, -0.01269906, 0.001263348, 0.0005187925, 0.00537545, 0.8656558, 0.3503954
 247231068, 0.04856296, -0.03340878, 0.004045834, 0.00104407, 0.01733865, -0.01187653, 0.002280881, 0.0005187925, 0.001991979, 0.8647233, 0.3503954
 247430988, 0.04897078, -0.03213032, 0.004136008, 0.00104407, 0.01842125, -0.01147133, 0.0009761648, 0.0005187925, -0.001147787, 0.8635903, 0.3503954
 247630908, 0.05048955, -0.03041854, 0.002326164, 0.00104407, 0.01777895, -0.01048426, 0.001418288, 0.0005187925, -0.003761977, 0.862736, 0.3503954
 247830828, 0.04834865, -0.02722787, 0.003725141, 0.00104407, 0.01734209, -0.009010188, 0.0009696049, 0.0005187925, -0.005963403, 0.861919, 0.3503954
 248030748, 0.04884943, -0.02315756, -0.0001415338, 0.00104407, 0.01864447, -0.007669973, -0.002008128, 0.0005187925, -0.007973022, 0.8612734, 0.3503954
 248230668, 0.04955001, -0.01933092, -0.004764115, 0.00104407, 0.01689281, -0.006268256, -0.001283024, 0.0005187925, -0.009888007, 0.8607125, 0.3503954
 248431421, 0.04628897, -0.01635408, -0.004915368, 0.001046232, 0.01624141, -0.005799085, -0.001719776, 0.0005209541, -0.01191057, 0.8602177, 0.3511209
