TimeUS,COFN,COFE,COFD,CNe,CEe,CDe,POFN,POFE,POFD,PNe,PEe,PDe
 196251468, 0, 0, 0, 0, 0, 0, 0, 0, 0, 0, 0, 0
 196431396, 0.007119944, -0.01409322, -0.002607995, 0.02651176, -0.02675841, 5.832568E-05, 0, 0, 0, 0, 0, 0
 196631316, -0.0007870499, 0.01771595, 2.625894E-05, 0.02558763, -0.0266886, 0.4000069, 0.007119944, -0.01409322, -0.002607995, 0.02651176, -0.02675841, 5.832568E-05
 196831236, 0.01382098, -0.009368199, 1.116175E-05, 0.02629271, -0.02763559, 0.400007, -0.0007870499, 0.01771595, 2.625894E-05, 0.02558763, -0.0266886, 0.4000069
 197031156, 0.02261154, -0.008065452, 2.984637E-05, 0.0265181, -0.02760574, 0.4000077, 0.01382098, -0.009368199, 1.116175E-05, 0.02629271, -0.02763559, 0.400007
 197231076, -0.01047011, -0.01144526, -3.77999E-05, 0.02573797, -0.02769067, 0.4000059, 0.02261154, -0.008065452, 2.984637E-05, 0.0265181, -0.02760574, 0.4000077
 197430996, -0.02214549, 0.01611476, -1.617454E-05, 0.02551581, -0.02709187, 0.4000063, -0.01047011, -0.01144526, -3.77999E-05, 0.02573797, -0.02769067, 0.4000059
 197630916, 0.004536417, -0.01086836, -8.814619E-06, 0.02606441, -0.02768255, 0.400006, -0.02214549, 0.01611476, -1.617454E-05, 0.02551581, -0.02709187, 0.4000063
 197830836, -0.006783534, -0.009343766, -2.774318E-05, 0.02581602, -0.02764895, 0.4000053, 0.004536417, -0.01086836, -8.814619E-06, 0.02606441, -0.02768255, 0.400006
 198030756, -0.01414913, -0.006630366, -3.731195E-05, 0.02566624, -0.0275861, 0.4000051, -0.006783534, -0.009343766, -2.774318E-05, 0.02581602, -0.02764895, 0.4000053
 198230676, -0.01404767, 0.007768594, -1.400697E-05, 0.02566558, -0.02726699, 0.4000057, -0.01414913, -0.006630366, -3.731195E-05, 0.02566624, -0.0275861, 0.4000051
 198431429, 0.006963531, -0.01598729, -1.271914E-05, 0.02611922, -0.027819, 0.4000055, -0.01404767, 0.007768594, -1.400697E-05, 0.02566558, -0.02726699, 0.4000057
 198631349, 0.02235784, 0.002317951, 4.58047E-05, 0.02651316, -0.02739068, 0.4000063, 0.006963531, -0.01598729, -1.271914E-05, 0.02611922, -0.027819, 0.4000055
 198831269, 0.00813893, 0.006985569, 2.662835E-05, 0.026155, -0.02729124, 0.4000055, 0.02235784, 0.002317951, 4.58047E-05, 0.02651316, -0.02739068, 0.4000063
 199031189, -0.01709113, 0.0220686, 3.978854E-06, 0.02561834, -0.02699552, 0.4000051, 0.00813893, 0.006985569, 2.662835E-05, 0.026155, -0.02729124, 0.4000055
 199231109, -0.0229924, 0.01516456, -1.828056E-05, 0.02551234, -0.02711931, 0.4000049, -0.01709113, 0.0220686, 3.978854E-06, 0.02561834, -0.02699552, 0.4000051
 199431029, -0.005174752, 0.0114972, 8.796749E-06, 0.0258576, -0.02718698, 0.4000057, -0.0229924, 0.01516456, -1.828056E-05, 0.02551234, -0.02711931, 0.4000049
 199630949, 0.0207851, -0.009656414, 2.322401E-05, 0.02647811, -0.02765403, 0.4000062, -0.005174752, 0.0114972, 8.796749E-06, 0.0258576, -0.02718698, 0.4000057
 199830869, -0.01522065, -0.003129302, -3.341179E-05, 0.02565145, -0.0274984, 0.4000052, 0.0207851, -0.009656414, 2.322401E-05, 0.02647811, -0.02765403, 0.4000062
 200030789, -0.0215705, 0.01333244, -1.910737E-05, 0.02553274, -0.02714692, 0.4000057, -0.01522065, -0.003129302, -3.341179E-05, 0.02565145, -0.0274984, 0.4000052
 200230709, -0.01722711, 0.01821385, -3.290561E-06, 0.02561305, -0.02705143, 0.4000061, -0.0215705, 0.01333244, -1.910737E-05, 0.02553274, -0.02714692, 0.4000057
 200431462, -0.024557, 0.007548514, -3.390482E-05, 0.02548142, -0.02725953, 0.4000056, -0.01722711, 0.01821385, -3.290561E-06, 0.02561305, -0.02705143, 0.4000061
 200631382, 0.007501849, -0.01375913, -7.855613E-06, 0.02614304, -0.02774966, 0.4000058, -0.024557, 0.007548514, -3.390482E-05, 0.02548142, -0.02725953, 0.4000056
 200831302, -0.02457494, -0.002228801, -4.923531E-05, 0.02548363, -0.02747054, 0.4000053, 0.007501849, -0.01375913, -7.855613E-06, 0.02614304, -0.02774966, 0.4000058
 201031222, -0.01915336, 0.003695329, -2.996283E-05, 0.0255777, -0.02733544, 0.4000061, -0.02457494, -0.002228801, -4.923531E-05, 0.02548363, -0.02747054, 0.4000053
 201231142, -0.005117023, 0.02446864, 2.855818E-05, 0.02585285, -0.02692845, 0.4000076, -0.01915336, 0.003695329, -2.996283E-05, 0.0255777, -0.02733544, 0.4000061
 201431062, 0.02157428, 0.02111195, 7.343449E-05, 0.02648932, -0.02698494, 0.4000092, -0.005117023, 0.02446864, 2.855818E-05, 0.02585285, -0.02692845, 0.4000076
 201630982, -0.0189506, -0.01954698, -6.617713E-05, 0.02557283, -0.02788622, 0.4000061, 0.02157428, 0.02111195, 7.343449E-05, 0.02648932, -0.02698494, 0.4000092
 201830902, -0.01361102, -0.0227309, -6.11834E-05, 0.02567266, -0.02797258, 0.4000062, -0.0189506, -0.01954698, -6.617713E-05, 0.02557283, -0.02788622, 0.4000061
 202030822, -0.01694254, -0.02314051, -6.823946E-05, 0.02560644, -0.02798365, 0.4000062, -0.01361102, -0.0227309, -6.11834E-05, 0.02567266, -0.02797258, 0.4000062
 202230742, -0.02545991, 0.02285239, -1.270974E-05, 0.02545302, -0.02695715, 0.4000075, -0.01694254, -0.02314051, -6.823946E-05, 0.02560644, -0.02798365, 0.4000062
 202430662, 0.01462277, 0.01022974, 4.393252E-05, 0.02630204, -0.02720077, 0.4000084, -0.02545991, 0.02285239, -1.270974E-05, 0.02545302, -0.02695715, 0.4000075
 202631415, 0.01396081, -0.00742842, 1.486451E-05, 0.02628329, -0.02759368, 0.4000077, 0.01462277, 0.01022974, 4.393252E-05, 0.02630204, -0.02720077, 0.4000084
 202831335, 0.01279259, 0.02126711, 5.814754E-05, 0.02625402, -0.02699463, 0.4000085, 0.01396081, -0.00742842, 1.486451E-05, 0.02628329, -0.02759368, 0.4000077
 203031255, -0.0176532, -0.01184829, -5.249833E-05, 0.02559107, -0.02770279, 0.4000059, 0.01279259, 0.02126711, 5.814754E-05, 0.02625402, -0.02699463, 0.4000085
 203231175, -0.02084349, 0.01434272, -1.669938E-05, 0.02553398, -0.02712957, 0.4000064, -0.0176532, -0.01184829, -5.249833E-05, 0.02559107, -0.02770279, 0.4000059
 203431095, 0.01525582, 0.0254518, 7.001047E-05, 0.02631853, -0.02693024, 0.400008, -0.02084349, 0.01434272, -1.669938E-05, 0.02553398, -0.02712957, 0.4000064
 203631015, -0.005919764, 0.02398226, 2.733679E-05, 0.02582424, -0.02695565, 0.4000071, 0.01525582, 0.0254518, 7.001047E-05, 0.02631853, -0.02693024, 0.400008
 203830935, -0.01975239, 0.02445061, 1.863751E-06, 0.02555135, -0.02695097, 0.4000064, -0.005919764, 0.02398226, 2.733679E-05, 0.02582424, -0.02695565, 0.4000071
 204030855, -0.02295566, -0.01509291, -6.843769E-05, 0.0254935, -0.02779796, 0.4000048, -0.01975239, 0.02445061, 1.863751E-06, 0.02555135, -0.02695097, 0.4000064
 204230775, 0.005156211, 0.00246995, 1.383769E-05, 0.02607069, -0.02738065, 0.4000066, -0.02295566, -0.01509291, -6.843769E-05, 0.0254935, -0.02779796, 0.4000048
 204430695, 0.000169515, 0.0209238, 3.401859E-05, 0.02596066, -0.02700976, 0.400007, 0.005156211, 0.00246995, 1.383769E-05, 0.02607069, -0.02738065, 0.4000066
 204631448, 0.01225947, 0.009804105, 3.88527E-05, 0.02624985, -0.02722001, 0.4000071, 0.000169515, 0.0209238, 3.401859E-05, 0.02596066, -0.02700976, 0.400007
 204831368, -0.01009648, -0.006029629, -2.860263E-05, 0.02574908, -0.02756431, 0.4000056, 0.01225947, 0.009804105, 3.88527E-05, 0.02624985, -0.02722001, 0.4000071
 205031288, -0.01600964, -0.00527176, -3.834186E-05, 0.0256371, -0.02754683, 0.4000052, -0.01009648, -0.006029629, -2.860263E-05, 0.02574908, -0.02756431, 0.4000056
 205231208, -0.01035637, 0.00230125, -1.558771E-05, 0.02575097, -0.02737807, 0.4000053, -0.01600964, -0.00527176, -3.834186E-05, 0.0256371, -0.02754683, 0.4000052
 205431128, 0.02518387, -0.02397074, 8.37231E-06, 0.02660019, -0.02802222, 0.4000057, -0.01035637, 0.00230125, -1.558771E-05, 0.02575097, -0.02737807, 0.4000053
 205631048, -0.02405318, 0.01326137, -2.341687E-05, 0.02549718, -0.02714817, 0.4000051, 0.02518387, -0.02397074, 8.37231E-06, 0.02660019, -0.02802222, 0.4000057
 205830968, -0.01938155, 0.0002974239, -3.540659E-05, 0.02558121, -0.02741809, 0.4000049, -0.02405318, 0.01326137, -2.341687E-05, 0.02549718, -0.02714817, 0.4000051
 206030888, -0.0148962, 0.005183797, -1.929184E-05, 0.02566605, -0.02731252, 0.4000051, -0.01938155, 0.0002974239, -3.540659E-05, 0.02558121, -0.02741809, 0.4000049
 206230808, 0.02203608, -0.01092454, 2.334619E-05, 0.02651747, -0.027681, 0.4000061, -0.0148962, 0.005183797, -1.929184E-05, 0.02566605, -0.02731252, 0.4000051
 206430728, 0.0105142, 0.01026918, 3.581111E-05, 0.02622197, -0.02720731, 0.4000063, 0.02203608, -0.01092454, 2.334619E-05, 0.02651747, -0.027681, 0.4000061
 206631481, -0.01497908, -0.01601725, -5.326082E-05, 0.02566661, -0.02781158, 0.400004, 0.0105142, 0.01026918, 3.581111E-05, 0.02622197, -0.02720731, 0.4000063
 206831401, 0.004918768, -0.0002864847, 8.639679E-06, 0.02608785, -0.02743519, 0.4000055, -0.01497908, -0.01601725, -5.326082E-05, 0.02566661, -0.02781158, 0.400004
 207031321, 0.01782282, 0.006706046, 4.384213E-05, 0.02640345, -0.02728421, 0.4000065, 0.004918768, -0.0002864847, 8.639679E-06, 0.02608785, -0.02743519, 0.4000055
 207231241, -0.00612315, -0.003909586, -1.763101E-05, 0.02584022, -0.02751673, 0.4000051, 0.01782282, 0.006706046, 4.384213E-05, 0.02640345, -0.02728421, 0.4000065
 207431161, 0.0206129, 0.01816908, 6.739239E-05, 0.02647615, -0.02705669, 0.4000071, -0.00612315, -0.003909586, -1.763101E-05, 0.02584022, -0.02751673, 0.4000051
 207631081, -0.0008397134, -0.001895247, -4.60598E-06, 0.02595327, -0.02747234, 0.4000054, 0.0206129, 0.01816908, 6.739239E-05, 0.02647615, -0.02705669, 0.4000071
 207831001, -0.01061719, 0.006538739, -9.254361E-06, 0.02574507, -0.02729042, 0.4000052, -0.0008397134, -0.001895247, -4.60598E-06, 0.02595327, -0.02747234, 0.4000054
 208030921, -0.007220561, -0.01155925, -3.215313E-05, 0.02581333, -0.02770454, 0.4000047, -0.01061719, 0.006538739, -9.254361E-06, 0.02574507, -0.02729042, 0.4000052
 208230841, 0.000931947, 0.002866072, 6.386471E-06, 0.02598848, -0.02737159, 0.4000055, -0.007220561, -0.01155925, -3.215313E-05, 0.02581333, -0.02770454, 0.4000047
 208430761, 0.01129255, -0.007625751, 8.750192E-06, 0.02623218, -0.02761343, 0.4000054, 0.000931947, 0.002866072, 6.386471E-06, 0.02598848, -0.02737159, 0.4000055
 208630681, 0.0230807, -0.01342776, 2.132469E-05, 0.02653738, -0.02775713, 0.4000056, 0.01129255, -0.007625751, 8.750192E-06, 0.02623218, -0.02761343, 0.4000054
 208831434, 0.01727319, -0.01116472, 1.414275E-05, 0.02638126, -0.02770443, 0.4000054, 0.0230807, -0.01342776, 2.132469E-05, 0.02653738, -0.02775713, 0.4000056
 209031354, -0.0123299, -0.003050586, -2.832204E-05, 0.02570174, -0.02751409, 0.4000045, 0.01727319, -0.01116472, 1.414275E-05, 0.02638126, -0.02770443, 0.4000054
 209231274, -0.01586467, 0.01564876, -4.332156E-06, 0.02563458, -0.02711638, 0.4000053, -0.0123299, -0.003050586, -2.832204E-05, 0.02570174, -0.02751409, 0.4000045
 209431194, 0.01029401, -0.002410519, 1.536608E-05, 0.02620816, -0.02748975, 0.4000057, -0.01586467, 0.01564876, -4.332156E-06, 0.02563458, -0.02711638, 0.4000053
 209631114, 0.0005303918, 0.01972247, 3.284022E-05, 0.02598345, -0.02703274, 0.4000059, 0.01029401, -0.002410519, 1.536608E-05, 0.02620816, -0.02748975, 0.4000057
 209831034, 0.01208038, 0.01990954, 5.429209E-05, 0.0262593, -0.02702448, 0.4000066, 0.0005303918, 0.01972247, 3.284022E-05, 0.02598345, -0.02703274, 0.4000059
 210030954, -0.0006652317, -0.02528312, -4.152137E-05, 0.02596193, -0.02805442, 0.4000044, 0.01208038, 0.01990954, 5.429209E-05, 0.0262593, -0.02702448, 0.4000066
 210230874, -0.01433979, 0.01855767, 3.037529E-06, 0.02567988, -0.02704385, 0.4000055, -0.0006652317, -0.02528312, -4.152137E-05, 0.02596193, -0.02805442, 0.4000044
 210430794, -0.01967863, -0.002168994, -3.959204E-05, 0.02558184, -0.02746842, 0.4000047, -0.01433979, 0.01855767, 3.037529E-06, 0.02567988, -0.02704385, 0.4000055
 210630714, -0.009478996, -0.01037841, -3.371699E-05, 0.02577899, -0.02765824, 0.400005, -0.01967863, -0.002168994, -3.959204E-05, 0.02558184, -0.02746842, 0.4000047
 210831467, -0.004186871, -0.01670438, -3.379441E-05, 0.02588954, -0.02781367, 0.4000052, -0.009478996, -0.01037841, -3.371699E-05, 0.02577899, -0.02765824, 0.400005
 211031387, -0.01156139, -0.02190185, -5.542418E-05, 0.02573882, -0.02795069, 0.4000046, -0.004186871, -0.01670438, -3.379441E-05, 0.02588954, -0.02781367, 0.4000052
 211231307, 0.001647323, 0.01830536, 3.169925E-05, 0.02602083, -0.02704006, 0.4000064, -0.01156139, -0.02190185, -5.542418E-05, 0.02573882, -0.02795069, 0.4000046
 211431227, 0.009682358, 0.007094111, 2.877937E-05, 0.02621118, -0.02725978, 0.4000064, 0.001647323, 0.01830536, 3.169925E-05, 0.02602083, -0.02704006, 0.4000064
 211631147, -0.004828714, 0.0122027, 1.027916E-05, 0.02588122, -0.02715577, 0.4000059, 0.009682358, 0.007094111, 2.877937E-05, 0.02621118, -0.02725978, 0.4000064
 211831067, 0.004012491, 0.01870215, 3.666728E-05, 0.02607791, -0.02703356, 0.4000063, -0.004828714, 0.0122027, 1.027916E-05, 0.02588122, -0.02715577, 0.4000059
 212030987, -0.01903916, 0.01600579, -9.514202E-06, 0.02559985, -0.02708563, 0.4000052, 0.004012491, 0.01870215, 3.666728E-05, 0.02607791, -0.02703356, 0.4000063
 212230907, -0.003884648, 0.01754449, 2.055689E-05, 0.02590135, -0.02705744, 0.4000058, -0.01903916, 0.01600579, -9.514202E-06, 0.02559985, -0.02708563, 0.4000052
 212430827, -0.006519428, -0.004849077, -1.95616E-05, 0.02584342, -0.02752705, 0.4000051, -0.003884648, 0.01754449, 2.055689E-05, 0.02590135, -0.02705744, 0.4000058
 212630747, 0.01481245, 0.001020051, 2.874235E-05, 0.02633684, -0.02739557, 0.4000062, -0.006519428, -0.004849077, -1.95616E-05, 0.02584342, -0.02752705, 0.4000051
 212830667, -0.02327263, -0.008603473, -5.644386E-05, 0.02551767, -0.02762105, 0.4000042, 0.01481245, 0.001020051, 2.874235E-05, 0.02633684, -0.02739557, 0.4000062
 213031420, -0.02145196, -0.006991421, -5.072621E-05, 0.0255469, -0.02758344, 0.4000045, -0.02327263, -0.008603473, -5.644386E-05, 0.02551767, -0.02762105, 0.4000042
 213231340, -0.01369649, -0.008804785, -3.942211E-05, 0.02568956, -0.02762895, 0.4000047, -0.02145196, -0.006991421, -5.072621E-05, 0.0255469, -0.02758344, 0.4000045
 213431260, 0.02500249, 0.0165769, 7.300127E-05, 0.02659591, -0.02708538, 0.4000072, -0.01369649, -0.008804785, -3.942211E-05, 0.02568956, -0.02762895, 0.4000047
 213631180, -0.01965389, 0.008319263, -2.319315E-05, 0.02557448, -0.02725008, 0.400005, 0.02500249, 0.0165769, 7.300127E-05, 0.02659591, -0.02708538, 0.4000072
 213831100, -0.01515293, 0.02108461, 5.839052E-06, 0.02565766, -0.02700759, 0.4000053, -0.01965389, 0.008319263, -2.319315E-05, 0.02557448, -0.02725008, 0.400005
 214031020, -0.004597358, 0.01119589, 9.620137E-06, 0.02587125, -0.02719879, 0.4000053, -0.01515293, 0.02108461, 5.839052E-06, 0.02565766, -0.02700759, 0.4000053
 214230940, 0.01407162, 0.02213319, 6.250668E-05, 0.02630302, -0.02699591, 0.4000063, -0.004597358, 0.01119589, 9.620137E-06, 0.02587125, -0.02719879, 0.4000053
 214430860, 0.001773921, -0.00999084, -1.301498E-05, 0.02600929, -0.02767265, 0.4000046, 0.01407162, 0.02213319, 6.250668E-05, 0.02630302, -0.02699591, 0.4000063
 214630780, -0.02533505, 0.02354939, -8.778403E-06, 0.02547562, -0.02696735, 0.4000047, 0.001773921, -0.00999084, -1.301498E-05, 0.02600929, -0.02767265, 0.4000046
 214830700, -0.005006961, -0.01366381, -3.143639E-05, 0.02586841, -0.02775945, 0.4000039, -0.02533505, 0.02354939, -8.778403E-06, 0.02547562, -0.02696735, 0.4000047
 215031453, 0.006841325, 0.01662541, 3.953015E-05, 0.02613705, -0.02709162, 0.4000055, -0.005006961, -0.01366381, -3.143639E-05, 0.02586841, -0.02775945, 0.4000039
 215231373, -0.01594686, -0.01312889, -5.044977E-05, 0.02564988, -0.02773879, 0.400004, 0.006841325, 0.01662541, 3.953015E-05, 0.02613705, -0.02709162, 0.4000055
 215431293, -0.0002712961, 0.01797887, 2.813642E-05, 0.02597395, -0.02705587, 0.4000059, -0.01594686, -0.01312889, -5.044977E-05, 0.02564988, -0.02773879, 0.400004
 215631213, 0.01366237, -0.006311108, 1.508041E-05, 0.02630617, -0.02756548, 0.4000058, -0.0002712961, 0.01797887, 2.813642E-05, 0.02597395, -0.02705587, 0.4000059
 215831133, 0.02482636, 0.007068348, 5.683456E-05, 0.02659778, -0.02726494, 0.4000072, 0.01366237, -0.006311108, 1.508041E-05, 0.02630617, -0.02756548, 0.4000058
 216031053, 0.002653921, -0.004405229, -2.033391E-06, 0.02603989, -0.02751525, 0.4000059, 0.02482636, 0.007068348, 5.683456E-05, 0.02659778, -0.02726494, 0.4000072
 216230973, -0.003844195, 0.02114972, 2.615574E-05, 0.02589921, -0.02698882, 0.4000063, 0.002653921, -0.004405229, -2.033391E-06, 0.02603989, -0.02751525, 0.4000059
 216430893, -0.02226491, -0.004239492, -4.725366E-05, 0.02554139, -0.02751132, 0.4000045, -0.003844195, 0.02114972, 2.615574E-05, 0.02589921, -0.02698882, 0.4000063
 216630813, 0.004541741, -0.001422449, 6.016118E-06, 0.02609305, -0.02744747, 0.4000054, -0.02226491, -0.004239492, -4.725366E-05, 0.02554139, -0.02751132, 0.4000045
 216830733, -0.02160504, 0.01596317, -1.411715E-05, 0.02555726, -0.02708474, 0.400005, 0.004541741, -0.001422449, 6.016118E-06, 0.02609305, -0.02744747, 0.4000054
 217031486, 0.01917071, -0.01834883, 6.116232E-06, 0.02645569, -0.02785629, 0.4000056, -0.02160504, 0.01596317, -1.411715E-05, 0.02555726, -0.02708474, 0.400005
 217231406, -0.0009060731, 0.01478306, 2.149578E-05, 0.02596816, -0.02710561, 0.400006, 0.01917071, -0.01834883, 6.116232E-06, 0.02645569, -0.02785629, 0.4000056
 217431326, -0.02062585, -0.01765672, -6.528279E-05, 0.02557204, -0.02784116, 0.400004, -0.0009060731, 0.01478306, 2.149578E-05, 0.02596816, -0.02710561, 0.400006
 217631246, 0.008002887, -0.01303728, -6.026968E-06, 0.02617201, -0.02772767, 0.400005, -0.02062585, -0.01765672, -6.528279E-05, 0.02557204, -0.02784116, 0.400004
 217831166, -0.01878558, -0.01089856, -5.194155E-05, 0.02559924, -0.02768164, 0.4000039, 0.008002887, -0.01303728, -6.026968E-06, 0.02617201, -0.02772767, 0.400005
 218031086, -0.005413876, 0.001380379, -7.769605E-06, 0.02586077, -0.02740013, 0.4000048, -0.01878558, -0.01089856, -5.194155E-05, 0.02559924, -0.02768164, 0.4000039
 218231006, -0.008715626, 0.01658162, 1.059076E-05, 0.02578919, -0.0270896, 0.4000053, -0.005413876, 0.001380379, -7.769605E-06, 0.02586077, -0.02740013, 0.4000048
 218430926, -0.004591193, -0.01273921, -2.921799E-05, 0.02587347, -0.0277365, 0.4000042, -0.008715626, 0.01658162, 1.059076E-05, 0.02578919, -0.0270896, 0.4000053
 218630846, -0.01340028, 0.01115941, -6.667289E-06, 0.02569194, -0.02720524, 0.4000045, -0.004591193, -0.01273921, -2.921799E-05, 0.02587347, -0.0277365, 0.4000042
 218830766, -0.0008409093, -0.00575125, -1.105024E-05, 0.02595157, -0.02757688, 0.4000042, -0.01340028, 0.01115941, -6.667289E-06, 0.02569194, -0.02720524, 0.4000045
 219030686, 0.003849036, 0.006366299, 1.77612E-05, 0.02605538, -0.02731084, 0.4000048, -0.0008409093, -0.00575125, -1.105024E-05, 0.02595157, -0.02757688, 0.4000042
 219231439, 0.01971717, -0.01730711, 8.267714E-06, 0.02644655, -0.02786705, 0.4000046, 0.003849036, 0.006366299, 1.77612E-05, 0.02605538, -0.02731084, 0.4000048
 219431359, 0.01536856, 0.004917035, 3.710519E-05, 0.02633182, -0.02734362, 0.4000053, 0.01971717, -0.01730711, 8.267714E-06, 0.02644655, -0.02786705, 0.4000046
 219631279, 0.02200919, 0.01317949, 6.322257E-05, 0.02650738, -0.02717453, 0.4000058, 0.01536856, 0.004917035, 3.710519E-05, 0.02633182, -0.02734362, 0.4000053
 219831199, 0.02472599, -0.006733887, 3.488511E-05, 0.02658704, -0.02760381, 0.400005, 0.02200919, 0.01317949, 6.322257E-05, 0.02650738, -0.02717453, 0.4000058
 220031119, 0.02465807, 0.01912657, 7.728879E-05, 0.02658897, -0.02705886, 0.4000057, 0.02472599, -0.006733887, 3.488511E-05, 0.02658704, -0.02760381, 0.400005
 220231039, 0.01996628, -0.01645676, 9.735619E-06, 0.02646556, -0.0278399, 0.4000042, 0.02465807, 0.01912657, 7.728879E-05, 0.02658897, -0.02705886, 0.4000057
 220430959, 0.01957426, -0.006647576, 2.506949E-05, 0.02645807, -0.02759437, 0.4000046, 0.01996628, -0.01645676, 9.735619E-06, 0.02646556, -0.0278399, 0.4000042
 220630879, 0.01835057, -0.01340561, 1.163216E-05, 0.02642913, -0.02775841, 0.4000041, 0.01957426, -0.006647576, 2.506949E-05, 0.02645807, -0.02759437, 0.4000046
 220830799, 0.007833966, 0.01246389, 3.463128E-05, 0.02616925, -0.02717879, 0.4000044, 0.01835057, -0.01340561, 1.163216E-05, 0.02642913, -0.02775841, 0.4000041
 221030719, -0.02026836, 0.0007345849, -3.555436E-05, 0.02558093, -0.02742224, 0.4000029, 0.007833966, 0.01246389, 3.463128E-05, 0.02616925, -0.02717879, 0.4000044
 221231472, -0.01323834, 0.02349929, 1.416064E-05, 0.02571585, -0.02696799, 0.4000039, -0.02026836, 0.0007345849, -3.555436E-05, 0.02558093, -0.02742224, 0.4000029
 221431392, 0.01667681, 0.003156311, 3.523165E-05, 0.02639416, -0.02736594, 0.4000045, -0.01323834, 0.02349929, 1.416064E-05, 0.02571585, -0.02696799, 0.4000039
 221631312, 0.01999833, 0.01365711, 5.824435E-05, 0.02648095, -0.02715057, 0.400005, 0.01667681, 0.003156311, 3.523165E-05, 0.02639416, -0.02736594, 0.4000045
 221831232, 0.02342103, 0.01415452, 6.516108E-05, 0.02657294, -0.02713965, 0.4000052, 0.01999833, 0.01365711, 5.824435E-05, 0.02648095, -0.02715057, 0.400005
 222031152, 0.01812724, 0.002668576, 3.69546E-05, 0.02643365, -0.02737516, 0.4000045, 0.02342103, 0.01415452, 6.516108E-05, 0.02657294, -0.02713965, 0.4000052
 222231072, -0.01066239, 0.02213831, 1.657682E-05, 0.02577051, -0.02698983, 0.4000039, 0.01812724, 0.002668576, 3.69546E-05, 0.02643365, -0.02737516, 0.4000045
 222430992, -0.002930865, 0.02205847, 3.05596E-05, 0.02593206, -0.02699518, 0.4000039, -0.01066239, 0.02213831, 1.657682E-05, 0.02577051, -0.02698983, 0.4000039
 222630912, 0.0003036262, -0.001180678, -1.382847E-06, 0.02600481, -0.02746698, 0.400003, -0.002930865, 0.02205847, 3.05596E-05, 0.02593206, -0.02699518, 0.4000039
 222830832, 0.0141542, 0.01758035, 5.41244E-05, 0.02633446, -0.02708109, 0.4000041, 0.0003036262, -0.001180678, -1.382847E-06, 0.02600481, -0.02746698, 0.400003
 223030752, 0.01483588, -0.01847389, -3.601464E-06, 0.02634892, -0.0278913, 0.4000029, 0.0141542, 0.01758035, 5.41244E-05, 0.02633446, -0.02708109, 0.4000041
 223230672, -0.02139232, 0.0146529, -1.451302E-05, 0.02556345, -0.02714079, 0.4000027, 0.01483588, -0.01847389, -3.601464E-06, 0.02634892, -0.0278913, 0.4000029
 223431425, 0.01193865, -0.01455554, -2.40368E-06, 0.02627249, -0.02779404, 0.4000029, -0.02139232, 0.0146529, -1.451302E-05, 0.02556345, -0.02714079, 0.4000027
 223631345, 0.004958796, 0.01723087, 3.754918E-05, 0.02609972, -0.02709556, 0.4000039, 0.01193865, -0.01455554, -2.40368E-06, 0.02627249, -0.02779404, 0.4000029
 223831265, 0.005768578, 0.0132944, 3.264192E-05, 0.0261149, -0.02717317, 0.4000039, 0.004958796, 0.01723087, 3.754918E-05, 0.02609972, -0.02709556, 0.4000039
 224031185, 0.01051839, 0.001078131, 2.114487E-05, 0.02622614, -0.02743119, 0.4000037, 0.005768578, 0.0132944, 3.264192E-05, 0.0261149, -0.02717317, 0.4000039
 224231105, -0.01710926, 0.01269723, -1.032981E-05, 0.02562416, -0.02719264, 0.400003, 0.01051839, 0.001078131, 2.114487E-05, 0.02622614, -0.02743119, 0.4000037
 224431025, 0.02072321, -0.01462393, 1.395444E-05, 0.02647782, -0.0278092, 0.4000037, -0.01710926, 0.01269723, -1.032981E-05, 0.02562416, -0.02719264, 0.400003
 224630945, 0.01786408, -0.02299603, -5.368125E-06, 0.02639979, -0.02802886, 0.4000034, 0.02072321, -0.01462393, 1.395444E-05, 0.02647782, -0.0278092, 0.4000037
 224830865, 0.004680165, 0.02238215, 4.644516E-05, 0.02607651, -0.02701356, 0.4000044, 0.01786408, -0.02299603, -5.368125E-06, 0.02639979, -0.02802886, 0.4000034
 225030785, 0.005884675, -0.0056159, 1.469989E-06, 0.02610926, -0.02758798, 0.4000033, 0.004680165, 0.02238215, 4.644516E-05, 0.02607651, -0.02701356, 0.4000044
 225230705, 0.009284824, 0.002084921, 2.060363E-05, 0.02619398, -0.02741108, 0.4000036, 0.005884675, -0.0056159, 1.469989E-06, 0.02610926, -0.02758798, 0.4000033
 225431458, -0.008590849, -0.02018563, -4.953026E-05, 0.0257953, -0.02794895, 0.4000019, 0.009284824, 0.002084921, 2.060363E-05, 0.02619398, -0.02741108, 0.4000036
 225631378, -0.02237083, 0.0103138, -2.373797E-05, 0.02553477, -0.02723749, 0.4000025, -0.008590849, -0.02018563, -4.953026E-05, 0.0257953, -0.02794895, 0.4000019
 225831298, -0.006888458, -0.02523148, -5.452995E-05, 0.02583678, -0.02808278, 0.4000016, -0.02237083, 0.0103138, -2.373797E-05, 0.02553477, -0.02723749, 0.4000025
 226031218, -0.007880701, -0.005296557, -2.312676E-05, 0.02581675, -0.02757294, 0.4000025, -0.006888458, -0.02523148, -5.452995E-05, 0.02583678, -0.02808278, 0.4000016
 226231138, 0.01397237, -0.0001805751, 2.514647E-05, 0.02631759, -0.0274564, 0.4000036, -0.007880701, -0.005296557, -2.312676E-05, 0.02581675, -0.02757294, 0.4000025
 226431058, 0.0145708, -0.01207974, 6.43981E-06, 0.02633425, -0.02773696, 0.400003, 0.01397237, -0.0001805751, 2.514647E-05, 0.02631759, -0.0274564, 0.4000036
 226630978, 0.01569648, -0.007918097, 1.536483E-05, 0.02636321, -0.0276359, 0.4000032, 0.0145708, -0.01207974, 6.43981E-06, 0.02633425, -0.02773696, 0.400003
 226830898, -0.01806245, 0.01985903, 2.139059E-07, 0.02561631, -0.02705349, 0.4000028, 0.01569648, -0.007918097, 1.536483E-05, 0.02636321, -0.0276359, 0.4000032
 227030818, -0.01661034, -0.01370711, -5.312492E-05, 0.02564236, -0.02778137, 0.4000016, -0.01806245, 0.01985903, 2.139059E-07, 0.02561631, -0.02705349, 0.4000028
 227230738, -0.01511992, 0.02383059, 1.201976E-05, 0.02567118, -0.02698038, 0.4000032, -0.01661034, -0.01370711, -5.312492E-05, 0.02564236, -0.02778137, 0.4000016
 227430658, -0.01418417, -0.00397013, -3.246415E-05, 0.02568853, -0.02754491, 0.4000022, -0.01511992, 0.02383059, 1.201976E-05, 0.02567118, -0.02698038, 0.4000032
 227631411, -0.01336056, 0.009702079, -8.270064E-06, 0.02570159, -0.02725033, 0.4000028, -0.01418417, -0.00397013, -3.246415E-05, 0.02568853, -0.02754491, 0.4000022
 227831331, 0.008085592, 0.01985758, 4.792388E-05, 0.02616735, -0.02705423, 0.4000041, -0.01336056, 0.009702079, -8.270064E-06, 0.02570159, -0.02725033, 0.4000028
 228031251, -0.009996098, 0.0190736, 1.344981E-05, 0.02576712, -0.02706817, 0.4000034, 0.008085592, 0.01985758, 4.792388E-05, 0.02616735, -0.02705423, 0.4000041
 228231171, 0.0214314, 0.02171049, 7.548102E-05, 0.02650534, -0.02702082, 0.4000048, -0.009996098, 0.0190736, 1.344981E-05, 0.02576712, -0.02706817, 0.4000034
 228431091, 0.006219153, 0.02324392, 5.011668E-05, 0.02612396, -0.02699339, 0.400004, 0.0214314, 0.02171049, 7.548102E-05, 0.02650534, -0.02702082, 0.4000048
 228631011, 0.008604448, 0.009568019, 3.168242E-05, 0.02618218, -0.02725296, 0.4000036, 0.006219153, 0.02324392, 5.011668E-05, 0.02612396, -0.02699339, 0.400004
 228830931, 0.003057832, 0.01079812, 2.362576E-05, 0.02605351, -0.02722946, 0.4000032, 0.008604448, 0.009568019, 3.168242E-05, 0.02618218, -0.02725296, 0.4000036
 229030851, 0.0006245321, -0.0008899217, -3.495536E-07, 0.02599596, -0.02748, 0.4000027, 0.003057832, 0.01079812, 2.362576E-05, 0.02605351, -0.02722946, 0.4000032
 229230771, 0.01119077, 0.01582444, 4.718118E-05, 0.02624268, -0.02713637, 0.4000036, 0.0006245321, -0.0008899217, -3.495536E-07, 0.02599596, -0.02748, 0.4000027
 229430691, -0.01575627, 0.008688003, -1.411478E-05, 0.02565475, -0.02728296, 0.4000019, 0.01119077, 0.01582444, 4.718118E-05, 0.02624268, -0.02713637, 0.4000036
 229631444, 0.01661806, 0.02219598, 6.850071E-05, 0.02637655, -0.02702843, 0.4000036, -0.01575627, 0.008688003, -1.411478E-05, 0.02565475, -0.02728296, 0.4000019
 229831364, -0.02236616, -0.01023314, -5.877207E-05, 0.02552834, -0.02771319, 0.4000009, 0.01661806, 0.02219598, 6.850071E-05, 0.02637655, -0.02702843, 0.4000036
 230031284, 0.02507639, -0.01327476, 2.329061E-05, 0.0266049, -0.02778685, 0.4000025, -0.02236616, -0.01023314, -5.877207E-05, 0.02552834, -0.02771319, 0.4000009
 230231204, -0.02183054, 0.007612192, -2.68599E-05, 0.02554673, -0.02730415, 0.4000015, 0.02507639, -0.01327476, 2.329061E-05, 0.0266049, -0.02778685, 0.4000025
 230431124, 0.01590501, -0.02155168, -7.33824E-06, 0.02636631, -0.02799198, 0.4000021, -0.02183054, 0.007612192, -2.68599E-05, 0.02554673, -0.02730415, 0.4000015
 230631044, 0.01995241, 0.02321541, 7.511675E-05, 0.02647135, -0.02699741, 0.4000042, 0.01590501, -0.02155168, -7.33824E-06, 0.02636631, -0.02799198, 0.4000021
 230830964, 0.01639407, -0.008906238, 1.496062E-05, 0.02637926, -0.02766319, 0.4000031, 0.01995241, 0.02321541, 7.511675E-05, 0.02647135, -0.02699741, 0.4000042
 231030884, -0.01775194, -0.005143902, -4.074895E-05, 0.02562288, -0.02757228, 0.400002, 0.01639407, -0.008906238, 1.496062E-05, 0.02637926, -0.02766319, 0.4000031
 231230804, 0.00286546, 0.02400189, 4.481552E-05, 0.0260526, -0.02697531, 0.4000039, -0.01775194, -0.005143902, -4.074895E-05, 0.02562288, -0.02757228, 0.400002
 231430724, 0.001073869, -0.01900878, -2.916721E-05, 0.02601228, -0.02790714, 0.4000025, 0.00286546, 0.02400189, 4.481552E-05, 0.0260526, -0.02697531, 0.4000039
 231631477, -0.01373693, -0.007107693, -3.649064E-05, 0.02570036, -0.0276085, 0.4000026, 0.001073869, -0.01900878, -2.916721E-05, 0.02601228, -0.02790714, 0.4000025
 231831397, 0.007828479, -0.01453936, -9.573868E-06, 0.02616878, -0.02779064, 0.4000031, -0.01373693, -0.007107693, -3.649064E-05, 0.02570036, -0.0276085, 0.4000026
 232031317, 0.01228053, 0.002278554, 2.586783E-05, 0.02627928, -0.02739194, 0.4000041, 0.007828479, -0.01453936, -9.573868E-06, 0.02616878, -0.02779064, 0.4000031
 232231237, -0.00768228, 0.02052705, 1.944538E-05, 0.02582345, -0.02702639, 0.400004, 0.01228053, 0.002278554, 2.586783E-05, 0.02627928, -0.02739194, 0.4000041
 232431157, 0.02177468, 0.01687599, 6.681535E-05, 0.02652124, -0.0270929, 0.4000054, -0.00768228, 0.02052705, 1.944538E-05, 0.02582345, -0.02702639, 0.400004
 232631077, -0.01096762, -5.679099E-05, -1.997099E-05, 0.02575434, -0.02744264, 0.4000033, 0.02177468, 0.01687599, 6.681535E-05, 0.02652124, -0.0270929, 0.4000054
 232830997, 0.01008501, -0.007098124, 6.698294E-06, 0.02622008, -0.02761046, 0.4000036, -0.01096762, -5.679099E-05, -1.997099E-05, 0.02575434, -0.02744264, 0.4000033
 233030917, -0.004226136, -0.02083291, -4.20524E-05, 0.02589116, -0.02796081, 0.4000022, 0.01008501, -0.007098124, 6.698294E-06, 0.02622008, -0.02761046, 0.4000036
 233230837, 0.006474614, 0.01339415, 3.382837E-05, 0.02613363, -0.02717016, 0.4000039, -0.004226136, -0.02083291, -4.20524E-05, 0.02589116, -0.02796081, 0.4000022
 233430757, 0.01079722, -0.02189751, -1.637785E-05, 0.02623709, -0.02798724, 0.4000029, 0.006474614, 0.01339415, 3.382837E-05, 0.02613363, -0.02717016, 0.4000039
 233630677, -0.004174228, -0.02095028, -4.215484E-05, 0.02588957, -0.02796333, 0.4000024, 0.01079722, -0.02189751, -1.637785E-05, 0.02623709, -0.02798724, 0.4000029
 233831430, -0.02173391, -0.01218791, -6.002894E-05, 0.02554149, -0.02773985, 0.4000022, -0.004174228, -0.02095028, -4.215484E-05, 0.02588957, -0.02796333, 0.4000024
 234031350, 0.01687593, 0.009393012, 4.66105E-05, 0.02638096, -0.0272523, 0.4000047, -0.02173391, -0.01218791, -6.002894E-05, 0.02554149, -0.02773985, 0.4000022
 234231270, -0.01734284, -0.002091248, -3.550117E-05, 0.0256172, -0.02750217, 0.4000029, 0.01687593, 0.009393012, 4.66105E-05, 0.02638096, -0.0272523, 0.4000047
 234431190, -0.02331263, -0.02191428, -7.979508E-05, 0.02550739, -0.02799888, 0.4000016, -0.01734284, -0.002091248, -3.550117E-05, 0.0256172, -0.02750217, 0.4000029
 234631110, 0.01948395, 0.02510876, 7.85652E-05, 0.02644202, -0.02697049, 0.4000049, -0.02331263, -0.02191428, -7.979508E-05, 0.02550739, -0.02799888, 0.4000016
 234831030, 0.01263118, -0.007397822, 1.107291E-05, 0.02626283, -0.02763934, 0.4000035, 0.01948395, 0.02510876, 7.85652E-05, 0.02644202, -0.02697049, 0.4000049
 235030950, 0.02154487, -0.01245973, 1.911767E-05, 0.02649148, -0.0277669, 0.4000036, 0.01263118, -0.007397822, 1.107291E-05, 0.02626283, -0.02763934, 0.4000035
 235230870, -0.0242295, 0.02417986, -4.12358E-06, 0.0254845, -0.02699262, 0.400003, 0.02154487, -0.01245973, 1.911767E-05, 0.02649148, -0.0277669, 0.4000036
 235430790, -0.00335295, 0.02460979, 3.540464E-05, 0.02589351, -0.02698144, 0.4000038, -0.0242295, 0.02417986, -4.12358E-06, 0.0254845, -0.02699262, 0.400003
 235630710, -0.02173637, 0.005415228, -3.133957E-05, 0.02553058, -0.02734858, 0.4000027, -0.00335295, 0.02460979, 3.540464E-05, 0.02589351, -0.02698144, 0.4000038
 235831463, -0.003340449, -0.01371778, -2.926729E-05, 0.0258939, -0.02778934, 0.4000027, -0.02173637, 0.005415228, -3.133957E-05, 0.02553058, -0.02734858, 0.4000027
 236031383, -0.002420397, -0.0222837, -4.180558E-05, 0.02591847, -0.02801041, 0.4000022, -0.003340449, -0.01371778, -2.926729E-05, 0.0258939, -0.02778934, 0.4000027
 236231303, -0.0210367, 0.00415968, -3.170924E-05, 0.02555229, -0.02736896, 0.4000025, -0.002420397, -0.0222837, -4.180558E-05, 0.02591847, -0.02801041, 0.4000022
 236431223, 0.02538345, 0.01766211, 7.608437E-05, 0.02660781, -0.02709659, 0.400005, -0.0210367, 0.00415968, -3.170924E-05, 0.02555229, -0.02736896, 0.4000025
 236631143, -0.009618296, -0.005958996, -2.759502E-05, 0.02577008, -0.02759409, 0.4000027, 0.02538345, 0.01766211, 7.608437E-05, 0.02660781, -0.02709659, 0.400005
 236831063, -0.0009630627, -0.0172228, -3.034414E-05, 0.02595601, -0.02787108, 0.4000025, -0.009618296, -0.005958996, -2.759502E-05, 0.02577008, -0.02759409, 0.4000027
 237030983, -0.01045638, 0.002919365, -1.430323E-05, 0.02575605, -0.02739215, 0.4000029, -0.0009630627, -0.0172228, -3.034414E-05, 0.02595601, -0.02787108, 0.4000025
 237230903, 0.0127614, -0.01194871, 3.383322E-06, 0.02628229, -0.02773991, 0.400003, -0.01045638, 0.002919365, -1.430323E-05, 0.02575605, -0.02739215, 0.4000029
 237430823, -0.02110032, 0.0125141, -1.751407E-05, 0.02555735, -0.02719772, 0.4000023, 0.0127614, -0.01194871, 3.383322E-06, 0.02628229, -0.02773991, 0.400003
 237630743, -0.01176295, 0.01421919, 2.417286E-06, 0.02573446, -0.02716642, 0.4000025, -0.02110032, 0.0125141, -1.751407E-05, 0.02555735, -0.02719772, 0.4000023
 237830663, -0.009848253, -0.01342603, -4.044109E-05, 0.0257723, -0.02778174, 0.4000015, -0.01176295, 0.01421919, 2.417286E-06, 0.02573446, -0.02716642, 0.4000025
 238031416, 0.007879552, 0.01920412, 4.656431E-05, 0.02616276, -0.02707309, 0.4000036, -0.009848253, -0.01342603, -4.044109E-05, 0.0257723, -0.02778174, 0.4000015
 238231336, -0.02124641, -0.02068803, -7.336859E-05, 0.02555402, -0.0279694, 0.4000008, 0.007879552, 0.01920412, 4.656431E-05, 0.02616276, -0.02707309, 0.4000036
 238431256, -0.0234834, 0.009311857, -2.713719E-05, 0.02551519, -0.0272641, 0.400002, -0.02124641, -0.02068803, -7.336859E-05, 0.02555402, -0.0279694, 0.4000008
 238631176, 0.01381792, -0.007148109, 1.320521E-05, 0.02630978, -0.02762664, 0.4000029, -0.0234834, 0.009311857, -2.713719E-05, 0.02551519, -0.0272641, 0.400002
 238831096, -0.005601105, 0.02432767, 3.058323E-05, 0.02585984, -0.02698172, 0.4000031, 0.01381792, -0.007148109, 1.320521E-05, 0.02630978, -0.02762664, 0.4000029
 239031016, -0.005158134, 0.003089035, -4.200287E-06, 0.02586938, -0.02739752, 0.4000023, -0.005601105, 0.02432767, 3.058323E-05, 0.02585984, -0.02698172, 0.4000031
 239230936, 0.007857176, -0.004959728, 5.978835E-06, 0.02616182, -0.02758041, 0.4000025, -0.005158134, 0.003089035, -4.200287E-06, 0.02586938, -0.02739752, 0.4000023
 239430856, 0.008794279, 0.01131431, 3.527675E-05, 0.0261824, -0.02723176, 0.400003, 0.007857176, -0.004959728, 5.978835E-06, 0.02616182, -0.02758041, 0.4000025
 239630776, 0.01707187, -0.02091688, -4.253558E-06, 0.02638761, -0.02798462, 0.4000021, 0.008794279, 0.01131431, 3.527675E-05, 0.0261824, -0.02723176, 0.400003
 239830696, -0.02479885, -0.02186524, -8.301811E-05, 0.02548482, -0.02801455, 0.4000002, 0.01707187, -0.02091688, -4.253558E-06, 0.02638761, -0.02798462, 0.4000021
 240031449, 0.01656976, -0.02341882, -9.760701E-06, 0.02637127, -0.02805992, 0.4000016, -0.02479885, -0.02186524, -8.301811E-05, 0.02548482, -0.02801455, 0.4000002
 240231369, 0.01384834, -0.02549507, -1.815262E-05, 0.02629786, -0.02811586, 0.4000017, 0.01656976, -0.02341882, -9.760701E-06, 0.02637127, -0.02805992, 0.4000016
 240431289, 0.009135776, 0.02242861, 5.51388E-05, 0.02618252, -0.02702609, 0.4000036, 0.01384834, -0.02549507, -1.815262E-05, 0.02629786, -0.02811586, 0.4000017
 240631209, 0.0251018, 0.007001835, 5.810675E-05, 0.02659796, -0.02731862, 0.400004, 0.009135776, 0.02242861, 5.51388E-05, 0.02618252, -0.02702609, 0.4000036
 240831129, 0.001617821, 0.01449136, 2.732613E-05, 0.02600965, -0.02716351, 0.4000035, 0.0251018, 0.007001835, 5.810675E-05, 0.02659796, -0.02731862, 0.400004
 241031049, 0.01954141, -0.02336709, -3.030858E-06, 0.02644894, -0.02803849, 0.4000031, 0.001617821, 0.01449136, 2.732613E-05, 0.02600965, -0.02716351, 0.4000035
 241230969, 0.0181015, -0.008198446, 1.957301E-05, 0.02641237, -0.02765093, 0.4000036, 0.01954141, -0.02336709, -3.030858E-06, 0.02644894, -0.02803849, 0.4000031
 241430889, -0.0146907, -0.00947812, -4.271767E-05, 0.02567293, -0.0276842, 0.4000018, 0.0181015, -0.008198446, 1.957301E-05, 0.02641237, -0.02765093, 0.4000036
 241630809, -0.01882067, 0.02091303, 6.189694E-07, 0.02559615, -0.0270409, 0.4000027, -0.0146907, -0.00947812, -4.271767E-05, 0.02567293, -0.0276842, 0.4000018
 241830729, 0.01296734, -0.01040852, 6.296004E-06, 0.02628508, -0.0277057, 0.4000029, -0.01882067, 0.02091303, 6.189694E-07, 0.02559615, -0.0270409, 0.4000027
 242031482, 0.02097765, 0.02438448, 7.898628E-05, 0.02649264, -0.02697939, 0.4000045, 0.01296734, -0.01040852, 6.296004E-06, 0.02628508, -0.0277057, 0.4000029
 242231402, -0.01142852, 0.01411444, 2.760104E-06, 0.02574031, -0.02716678, 0.4000027, 0.02097765, 0.02438448, 7.898628E-05, 0.02649264, -0.02697939, 0.4000045
 242431322, 0.02123975, 0.01637485, 6.569755E-05, 0.0265052, -0.02712247, 0.400004, -0.01142852, 0.01411444, 2.760104E-06, 0.02574031, -0.02716678, 0.4000027
 242631242, -0.009409899, -0.01022187, -3.40095E-05, 0.02578546, -0.02769875, 0.4000017, 0.02123975, 0.01637485, 6.569755E-05, 0.0265052, -0.02712247, 0.400004
 242831162, -0.01071857, 0.0176391, 1.003376E-05, 0.02575805, -0.02709996, 0.4000026, -0.009409899, -0.01022187, -3.40095E-05, 0.02578546, -0.02769875, 0.4000017
 243031082, -0.02440136, -0.01169214, -6.369418E-05, 0.02550167, -0.02773743, 0.400001, -0.01071857, 0.0176391, 1.003376E-05, 0.02575805, -0.02709996, 0.4000026
 243231002, 0.01895071, -0.0195815, 1.567067E-06, 0.02644478, -0.02793921, 0.4000024, -0.02440136, -0.01169214, -6.369418E-05, 0.02550167, -0.02773743, 0.400001
 243430922, 0.02098836, 0.01205868, 5.816073E-05, 0.02649909, -0.02721065, 0.4000036, 0.01895071, -0.0195815, 1.567067E-06, 0.02644478, -0.02793921, 0.4000024
 243630842, -0.006780265, 0.01918669, 1.993274E-05, 0.02583839, -0.0270755, 0.4000025, 0.02098836, 0.01205868, 5.816073E-05, 0.02649909, -0.02721065, 0.4000036
 243830762, 0.01443322, 0.02353861, 6.567177E-05, 0.02632786, -0.02699821, 0.4000036, -0.006780265, 0.01918669, 1.993274E-05, 0.02583839, -0.0270755, 0.4000025
 244030682, -0.0219516, -0.01795745, -6.983838E-05, 0.02554574, -0.0279002, 0.4000005, 0.01443322, 0.02353861, 6.567177E-05, 0.02632786, -0.02699821, 0.4000036
 244231435, 0.00241085, 0.01413145, 2.813952E-05, 0.02603904, -0.02717238, 0.4000026, -0.0219516, -0.01795745, -6.983838E-05, 0.02554574, -0.0279002, 0.4000005
 244431355, -0.007756629, -0.01575617, -4.061569E-05, 0.02581594, -0.02784483, 0.4000012, 0.00241085, 0.01413145, 2.813952E-05, 0.02603904, -0.02717238, 0.4000026
 244631275, 0.009425852, -0.00812043, 3.497952E-06, 0.02619965, -0.02765567, 0.4000024, -0.007756629, -0.01575617, -4.061569E-05, 0.02581594, -0.02784483, 0.4000012
 244831195, -0.01784748, 0.0002786017, -3.215301E-05, 0.02561271, -0.02746159, 0.4000018, 0.009425852, -0.00812043, 3.497952E-06, 0.02619965, -0.02765567, 0.4000024
 245031115, 0.01611143, -0.02315335, -9.644313E-06, 0.02636326, -0.02804175, 0.4000021, -0.01784748, 0.0002786017, -3.215301E-05, 0.02561271, -0.02746159, 0.4000018
 245231035, 0.0215378, -0.007675915, 2.650241E-05, 0.0265038, -0.02764963, 0.400003, 0.01611143, -0.02315335, -9.644313E-06, 0.02636326, -0.02804175, 0.4000021
 245430955, 0.003295207, 0.0008466323, 7.495871E-06, 0.02604912, -0.02745502, 0.4000024, 0.0215378, -0.007675915, 2.650241E-05, 0.0265038, -0.02764963, 0.400003
 245630875, -0.01356719, 0.02468259, 1.702066E-05, 0.02569372, -0.02698384, 0.4000025, 0.003295207, 0.0008466323, 7.495871E-06, 0.02604912, -0.02745502, 0.4000024
 245830795, 0.007657944, -0.01699577, -1.456786E-05, 0.02615673, -0.02787423, 0.4000021, -0.01356719, 0.02468259, 1.702066E-05, 0.02569372, -0.02698384, 0.4000025
 246030715, -0.002247721, 0.02132466, 3.135709E-05, 0.02593092, -0.02703007, 0.4000035, 0.007657944, -0.01699577, -1.456786E-05, 0.02615673, -0.02787423, 0.4000021
 246231468, 0.008884243, 0.01230446, 3.651333E-05, 0.02618775, -0.02719706, 0.4000038, -0.002247721, 0.02132466, 3.135709E-05, 0.02593092, -0.02703007, 0.4000035
 246431388, 0.02182833, -0.01037906, 2.245152E-05, 0.0265193, -0.02769795, 0.4000035, 0.008884243, 0.01230446, 3.651333E-05, 0.02618775, -0.02719706, 0.4000038
 246631308, 0.01449893, 0.02215308, 6.297617E-05, 0.02632833, -0.0270133, 0.4000042, 0.02182833, -0.01037906, 2.245152E-05, 0.0265193, -0.02769795, 0.4000035
 246831228, 0.01660763, -0.004987445, 2.183826E-05, 0.02638241, -0.02757153, 0.4000033, 0.01449893, 0.02215308, 6.297617E-05, 0.02632833, -0.0270133, 0.4000042
 247031148, 0.001151467, 0.0211357, 3.702733E-05, 0.026009, -0.02703029, 0.4000037, 0.01660763, -0.004987445, 2.183826E-05, 0.02638241, -0.02757153, 0.4000033
 247231068, 0.01346411, 0.02520691, 6.598065E-05, 0.02630166, -0.02695721, 0.4000045, 0.001151467, 0.0211357, 3.702733E-05, 0.026009, -0.02703029, 0.4000037
 247430988, -0.0008161262, 0.003107842, 3.644234E-06, 0.0259656, -0.02738565, 0.4000031, 0.01346411, 0.02520691, 6.598065E-05, 0.02630166, -0.02695721, 0.4000045
 247630908, 0.02309571, 0.01372805, 6.444348E-05, 0.02655467, -0.02716777, 0.4000045, -0.0008161262, 0.003107842, 3.644234E-06, 0.0259656, -0.02738565, 0.4000031
 247830828, 0.009267973, -0.02009329, -1.629729E-05, 0.02620012, -0.02794286, 0.4000026, 0.02309571, 0.01372805, 6.444348E-05, 0.02655467, -0.02716777, 0.4000045
 248030748, 0.0132995, -0.02417832, -1.562899E-05, 0.02629984, -0.02805087, 0.4000027, 0.009267973, -0.02009329, -1.629729E-05, 0.02620012, -0.02794286, 0.4000026
 248230668, 0.0234823, 0.01198055, 6.205589E-05, 0.02656735, -0.02719937, 0.4000044, 0.0132995, -0.02417832, -1.562899E-05, 0.02629984, -0.02805087, 0.4000027
 248431421, -0.0156296, 0.008917211, -0.06966417, 0.02647354, -0.02807558, 0.4000028, 0.0234823, 0.01198055, 6.205589E-05, 0.02656735, -0.02719937, 0.4000044
 248631341, -0.01869144, 0.01267714, -0.1266032, 0.02803933, -0.02883045, 0.4000054, -0.0156296, 0.008917211, -0.06966417, 0.02647354, -0.02807558, 0.4000028
 248831261, -0.02533456, 0.02493044, -0.4190134, 0.03262424, -0.02943411, 0.4000075, -0.01869144, 0.01267714, -0.1266032, 0.02803933, -0.02883045, 0.4000054
 249031181, -0.03418688, -0.03219837, -0.7660369, 0.0402042, -0.03591458, 0.4000181, -0.02533456, 0.02493044, -0.4190134, 0.03262424, -0.02943411, 0.4000075
 249231101, 0.01389619, -0.01286634, -1.179333, 0.05184571, -0.04596839, 0.4000066, -0.03418688, -0.03219837, -0.7660369, 0.0402042, -0.03591458, 0.4000181
 249431021, -0.01864908, -0.004201122, -1.494818, 0.06578847, -0.06033575, 0.3999974, 0.01389619, -0.01286634, -1.179333, 0.05184571, -0.04596839, 0.4000066
 249630941, -0.04868316, -0.09846296, -1.715615, 0.08241209, -0.07856975, 0.3999909, -0.01864908, -0.004201122, -1.494818, 0.06578847, -0.06033575, 0.3999974
 249830861, 0.0620655, -0.1125741, -2.037165, 0.1031575, -0.09863355, 0.3999652, -0.04868316, -0.09846296, -1.715615, 0.08241209, -0.07856975, 0.3999909
 250030781, -0.01864257, -0.021996, -2.292325, 0.1247495, -0.1203881, 0.3999364, 0.0620655, -0.1125741, -2.037165, 0.1031575, -0.09863355, 0.3999652
 250230701, -0.01576085, -0.05224848, -2.462872, 0.1493173, -0.1455869, 0.3999237, -0.01864257, -0.021996, -2.292325, 0.1247495, -0.1203881, 0.3999364
 250431454, 0.1256661, 0.01193184, -2.675425, 0.1772128, -0.1724539, 0.3999079, -0.01576085, -0.05224848, -2.462872, 0.1493173, -0.1455869, 0.3999237
 250631374, 0.06169069, -0.07276358, -2.889944, 0.2053115, -0.2021301, 0.3999066, 0.1256661, 0.01193184, -2.675425, 0.1772128, -0.1724539, 0.3999079
 250831294, -0.1714549, -0.1083574, -2.989631, 0.2342285, -0.2326626, 0.3999324, 0.06169069, -0.07276358, -2.889944, 0.2053115, -0.2021301, 0.3999066
 251031214, 0.2049925, -0.1787811, -3.149222, 0.269338, -0.2664063, 0.3999192, -0.1714549, -0.1083574, -2.989631, 0.2342285, -0.2326626, 0.3999324
 251231134, -0.09836875, -0.2754952, -3.252354, 0.3029756, -0.2975948, 0.9998409, 0.2049925, -0.1787811, -3.149222, 0.269338, -0.2664063, 0.3999192
 251431054, 0.3236538, -0.06478036, -3.404133, 0.3413754, -0.3304324, 0.9997511, -0.09836875, -0.2754952, -3.252354, 0.3029756, -0.2975948, 0.9998409
 251630974, 0.3969098, 0.2299959, -3.532571, 0.3773107, -0.3645596, 0.9997624, 0.3236538, -0.06478036, -3.404133, 0.3413754, -0.3304324, 0.9997511
 251830894, 0.06993423, -0.06665261, -3.534978, 0.4101904, -0.4023625, 0.999814, 0.3969098, 0.2299959, -3.532571, 0.3773107, -0.3645596, 0.9997624
 252030814, 0.3979278, 0.06543298, -3.611869, 0.4498743, -0.4389818, 0.9998509, 0.06993423, -0.06665261, -3.534978, 0.4101904, -0.4023625, 0.999814
 252230734, 0.3204047, 0.09026413, -3.652728, 0.4863234, -0.4768348, 0.9999368, 0.3979278, 0.06543298, -3.611869, 0.4498743, -0.4389818, 0.9998509
 252430654, 0.07020672, -0.2192744, -3.791373, 0.5224372, -0.5173542, 1.000092, 0.3204047, 0.09026413, -3.652728, 0.4863234, -0.4768348, 0.9999368
 252631407, 0.5281717, 0.3062032, -3.802121, 0.5644319, -0.5542687, 1.000249, 0.07020672, -0.2192744, -3.791373, 0.5224372, -0.5173542, 1.000092
 252831327, -0.3282153, -0.2863827, -3.902451, 0.5981747, -0.5968711, 1.000533, 0.5281717, 0.3062032, -3.802121, 0.5644319, -0.5542687, 1.000249
 253031247, 0.05266095, -0.3606853, -3.879036, 0.6388581, -0.6375914, 1.000774, -0.3282153, -0.2863827, -3.902451, 0.5981747, -0.5968711, 1.000533
 253231167, 0.3515874, 0.3516379, -3.97386, 0.6802765, -0.675115, 1.001058, 0.05266095, -0.3606853, -3.879036, 0.6388581, -0.6375914, 1.000774
 253431087, -0.2766929, -0.6020146, -3.922221, 0.7168009, -0.7210535, 1.00135, 0.3515874, 0.3516379, -3.97386, 0.6802765, -0.675115, 1.001058
 253631007, 0.3422637, -0.6664702, -3.989229, 0.7600783, -0.7632424, 1.001503, -0.2766929, -0.6020146, -3.922221, 0.7168009, -0.7210535, 1.00135
 253830927, -0.0584334, -0.7866834, -4.020558, 0.798162, -0.8061104, 1.001544, 0.3422637, -0.6664702, -3.989229, 0.7600783, -0.7632424, 1.001503
 254030847, 0.5615581, 0.1906557, -4.080525, 0.8425219, -0.8429626, 1.001297, -0.0584334, -0.7866834, -4.020558, 0.798162, -0.8061104, 1.001544
 254230767, -0.6089315, -0.8306994, -4.000144, 0.8780478, -0.8915548, 1.001152, 0.5615581, 0.1906557, -4.080525, 0.8425219, -0.8429626, 1.001297
 254430687, 0.1237327, -0.1366687, -4.036642, 0.9209536, -0.9297013, 1.000889, -0.6089315, -0.8306994, -4.000144, 0.8780478, -0.8915548, 1.001152
 254631440, -0.7211947, -1.048755, -4.050998, 0.9598116, -0.9793977, 1.000704, 0.1237327, -0.1366687, -4.036642, 0.9209536, -0.9297013, 1.000889
 254831360, 0.4799364, 0.4592087, -4.081599, 1.005123, -1.014423, 1.000406, -0.7211947, -1.048755, -4.050998, 0.9598116, -0.9793977, 1.000704
 255031280, 0.4674689, -0.6654494, -4.116829, 1.046492, -1.062816, 1.000145, 0.4799364, 0.4592087, -4.081599, 1.005123, -1.014423, 1.000406
 255231200, 0.4688257, -0.1806302, -4.114941, 1.087899, -1.103476, 0.999773, 0.4674689, -0.6654494, -4.116829, 1.046492, -1.062816, 1.000145
 255431120, 0.2187585, 0.3034914, -4.129355, 1.127908, -1.145217, 0.9993953, 0.4688257, -0.1806302, -4.114941, 1.087899, -1.103476, 0.999773
 255631040, -0.0826512, -1.233843, -4.121035, 1.167718, -1.197369, 0.9993768, 0.2187585, 0.3034914, -4.129355, 1.127908, -1.145217, 0.9993953
 255830960, -0.01783752, 0.02661026, -4.072502, 1.208741, -1.232427, 0.9992473, -0.0826512, -1.233843, -4.121035, 1.167718, -1.197369, 0.9993768
 256030880, -0.3100313, 0.2246671, -3.759872, 1.246747, -1.273068, 0.9991521, -0.01783752, 0.02661026, -4.072502, 1.208741, -1.232427, 0.9992473
 256230800, -1.099265, 0.7805511, -3.458186, 1.282044, -1.31046, 0.9991106, -0.3100313, 0.2246671, -3.759872, 1.246747, -1.273068, 0.9991521
 256430720, 1.127838, 0.01218488, -3.204435, 1.32287, -1.346913, 0.9992247, -1.099265, 0.7805511, -3.458186, 1.282044, -1.31046, 0.9991106
 256631473, 1.363934, -0.7450297, -2.824572, 1.351381, -1.383469, 1.000721, 1.127838, 0.01218488, -3.204435, 1.32287, -1.346913, 0.9992247
 256831393, -0.3821018, -0.4473446, -2.462922, 1.361042, -1.413035, 1.00443, 1.363934, -0.7450297, -2.824572, 1.351381, -1.383469, 1.000721
 257031313, 1.423816, -0.5535091, -2.204591, 1.390717, -1.439711, 1.006204, -0.3821018, -0.4473446, -2.462922, 1.361042, -1.413035, 1.00443
 257231233, 1.373774, -0.8731949, -1.93059, 1.411537, -1.464783, 1.002628, 1.423816, -0.5535091, -2.204591, 1.390717, -1.439711, 1.006204
 257431153, -0.9166284, 0.1845166, -1.670926, 1.419849, -1.482385, 0.9952077, 1.373774, -0.8731949, -1.93059, 1.411537, -1.464783, 1.002628
 257631073, 0.4823391, -0.508347, -1.474274, 1.437685, -1.505753, 0.9903683, -0.9166284, 0.1845166, -1.670926, 1.419849, -1.482385, 0.9952077
 257830993, 1.275549, -1.014316, -1.23907, 1.454627, -1.52533, 0.9884127, 0.4823391, -0.508347, -1.474274, 1.437685, -1.505753, 0.9903683
 258030913, -0.3933464, -1.297528, -1.005902, 1.45656, -1.540071, 0.9870335, 1.275549, -1.014316, -1.23907, 1.454627, -1.52533, 0.9884127
 258230833, 0.5474155, -0.1568153, -0.9001133, 1.46962, -1.542888, 0.9865887, -0.3933464, -1.297528, -1.005902, 1.45656, -1.540071, 0.9870335
 258430753, 1.182088, 1.478019, -0.7306291, 1.481611, -1.548872, 0.9865531, 0.5474155, -0.1568153, -0.9001133, 1.46962, -1.542888, 0.9865887
 258630673, 0.4469207, -1.077304, -0.5671622, 1.483821, -1.561859, 0.9867367, 1.182088, 1.478019, -0.7306291, 1.481611, -1.548872, 0.9865531
 258831426, 0.8142428, -0.6155509, -0.4965291, 1.491033, -1.56343, 0.9878682, 0.4469207, -1.077304, -0.5671622, 1.483821, -1.561859, 0.9867367
 259031346, 1.02512, 1.218595, -0.3515348, 1.496195, -1.562388, 0.9896887, 0.8142428, -0.6155509, -0.4965291, 1.491033, -1.56343, 0.9878682
 259231266, 0.5236039, 0.2336588, -0.2660705, 1.495628, -1.565828, 0.9915416, 1.02512, 1.218595, -0.3515348, 1.496195, -1.562388, 0.9896887
 259431186, -1.356027, -0.1560405, -0.2015465, 1.493912, -1.569174, 0.992265, 0.5236039, 0.2336588, -0.2660705, 1.495628, -1.565828, 0.9915416
 259631106, -1.380637, 1.292962, -0.1412644, 1.495453, -1.56827, 0.9930847, -1.356027, -0.1560405, -0.2015465, 1.493912, -1.569174, 0.992265
 259831026, -1.245626, 1.463218, -0.1034735, 1.496205, -1.569004, 0.9947337, -1.380637, 1.292962, -0.1412644, 1.495453, -1.56827, 0.9930847
 260030946, -0.3485565, 0.7385412, -0.07818659, 1.497055, -1.569428, 0.9962711, -1.245626, 1.463218, -0.1034735, 1.496205, -1.569004, 0.9947337
 260230866, -0.4390587, -0.6909747, -0.06179084, 1.496349, -1.575538, 0.9971926, -0.3485565, 0.7385412, -0.07818659, 1.497055, -1.569428, 0.9962711
 260430786, 0.6221934, -0.8780309, -0.04527843, 1.500158, -1.577438, 0.9979275, -0.4390587, -0.6909747, -0.06179084, 1.496349, -1.575538, 0.9971926
 260630706, 1.455901, 0.5403792, -0.0291689, 1.505745, -1.572387, 0.9985851, 0.6221934, -0.8780309, -0.04527843, 1.500158, -1.577438, 0.9979275
 260831459, -1.133577, 0.6418844, -0.0240417, 1.495131, -1.572847, 0.9985942, 1.455901, 0.5403792, -0.0291689, 1.505745, -1.572387, 0.9985851
 261031379, 0.3079701, -1.03744, -0.01965734, 1.497665, -1.580755, 0.9983293, -1.133577, 0.6418844, -0.0240417, 1.495131, -1.572847, 0.9985942
 261231299, -0.4778568, -0.2481862, -0.01432157, 1.494453, -1.576941, 0.9988259, 0.3079701, -1.03744, -0.01965734, 1.497665, -1.580755, 0.9983293
 261431219, 0.5333906, 0.7513103, -0.007076825, 1.4971, -1.574951, 0.9996251, -0.4778568, -0.2481862, -0.01432157, 1.494453, -1.576941, 0.9988259
 261631139, 1.384553, -0.8782685, -0.005808505, 1.502114, -1.58165, 1.000121, 0.5333906, 0.7513103, -0.007076825, 1.4971, -1.574951, 0.9996251
 261831059, -0.2397908, 0.848156, -0.003802995, 1.492277, -1.576562, 0.9999734, 1.384553, -0.8782685, -0.005808505, 1.502114, -1.58165, 1.000121
 262030979, 1.349761, -1.201309, -0.003385536, 1.500501, -1.585448, 0.9999928, -0.2397908, 0.848156, -0.003802995, 1.492277, -1.576562, 0.9999734
 262230899, 0.9906678, 0.8541332, 0.001060811, 1.497244, -1.577712, 0.9998505, 1.349761, -1.201309, -0.003385536, 1.500501, -1.585448, 0.9999928
 262430819, -0.737508, -0.7150372, -0.005201806, 1.490128, -1.583603, 0.9991188, 0.9906678, 0.8541332, 0.001060811, 1.497244, -1.577712, 0.9998505
 262630739, 0.9994507, 0.8684327, 0.002601451, 1.496149, -1.579268, 0.9992341, -0.737508, -0.7150372, -0.005201806, 1.490128, -1.583603, 0.9991188
 262830659, 0.569169, 0.1659958, 0.0007638241, 1.492468, -1.5811, 0.9997706, 0.9994507, 0.8684327, 0.002601451, 1.496149, -1.579268, 0.9992341
 263031412, 1.153211, 0.2834568, 0.003229776, 1.495365, -1.581495, 1.000075, 0.569169, 0.1659958, 0.0007638241, 1.492468, -1.5811, 0.9997706
 263231332, -1.030351, 0.05657558, -0.003245253, 1.486904, -1.582675, 0.9997913, 1.153211, 0.2834568, 0.003229776, 1.495365, -1.581495, 1.000075
 263431252, -0.3399649, -1.384598, -0.004919256, 1.487123, -1.591634, 0.999419, -1.030351, 0.05657558, -0.003245253, 1.486904, -1.582675, 0.9997913
 263631172, -0.9058648, -0.987015, 0.003235156, 1.486201, -1.580962, 1.01187, -0.3399649, -1.384598, -0.004919256, 1.487123, -1.591634, 0.999419
 263831092, -0.6028745, -0.025475, -0.0003917924, 1.487178, -1.550746, 1.049059, -0.9058648, -0.987015, 0.003235156, 1.486201, -1.580962, 1.01187
 264031012, 0.5785802, 0.6707441, 0.005199071, 1.49177, -1.525012, 1.082296, -0.6028745, -0.025475, -0.0003917924, 1.487178, -1.550746, 1.049059
 264230932, -1.009329, -1.303692, 0.1196401, 1.486761, -1.524705, 1.095552, 0.5785802, 0.6707441, 0.005199071, 1.49177, -1.525012, 1.082296
 264430852, 1.144704, -0.4861044, -0.02580139, 1.493987, -1.519668, 1.095526, -1.009329, -1.303692, 0.1196401, 1.486761, -1.524705, 1.095552
 264630772, -1.166928, -0.465563, -0.001160434, 1.485386, -1.519401, 1.097748, 1.144704, -0.4861044, -0.02580139, 1.493987, -1.519668, 1.095526
 264830692, 0.2346408, 0.9879491, -0.07472944, 1.487638, -1.509517, 1.106771, -1.166928, -0.465563, -0.001160434, 1.485386, -1.519401, 1.097748
 265031445, -0.1156464, -1.289417, 0.1190688, 1.485536, -1.509575, 1.120398, 0.2346408, 0.9879491, -0.07472944, 1.487638, -1.509517, 1.106771
 265231365, 0.5961579, -1.372533, 0.0818201, 1.488185, -1.502058, 1.132625, -0.1156464, -1.289417, 0.1190688, 1.485536, -1.509575, 1.120398
 265431285, 0.6466961, -0.05547065, 0.004393026, 1.487591, -1.487297, 1.142584, 0.5961579, -1.372533, 0.0818201, 1.488185, -1.502058, 1.132625
 265631205, -0.2707275, -1.039896, 0.04611256, 1.482803, -1.485814, 1.153642, 0.6466961, -0.05547065, 0.004393026, 1.487591, -1.487297, 1.142584
 265831125, -1.421116, -1.586211, 0.166391, 1.481359, -1.482703, 1.165403, -0.2707275, -1.039896, 0.04611256, 1.482803, -1.485814, 1.153642
 266031045, 1.253438, -0.4647288, 0.02378588, 1.48976, -1.465368, 1.177084, -1.421116, -1.586211, 0.166391, 1.481359, -1.482703, 1.165403
 266230965, -1.257775, 0.04573401, -0.07609437, 1.480596, -1.45416, 1.189146, 1.253438, -0.4647288, 0.02378588, 1.48976, -1.465368, 1.177084
 266430885, -0.6535117, 0.03651652, -0.004431201, 1.479608, -1.445361, 1.201816, -1.257775, 0.04573401, -0.07609437, 1.480596, -1.45416, 1.189146
 266630805, -1.288794, -0.6659771, 0.06510627, 1.478514, -1.440036, 1.215158, -0.6535117, 0.03651652, -0.004431201, 1.479608, -1.445361, 1.201816
 266830725, -1.119467, -1.072995, 0.1323113, 1.477553, -1.433012, 1.229029, -1.288794, -0.6659771, 0.06510627, 1.478514, -1.440036, 1.215158
 267031478, -1.087728, -0.7433713, 0.07496957, 1.476972, -1.421314, 1.241752, -1.119467, -1.072995, 0.1323113, 1.477553, -1.433012, 1.229029
 267231398, -1.397827, -2.124704, 0.3199829, 1.475425, -1.424121, 1.257105, -1.087728, -0.7433713, 0.07496957, 1.476972, -1.421314, 1.241752
 267431318, -1.136192, -1.248767, 0.1830744, 1.47415, -1.405799, 1.269781, -1.397827, -2.124704, 0.3199829, 1.475425, -1.424121, 1.257105
 267631238, -1.305732, -0.9620953, 0.0874486, 1.473093, -1.393418, 1.284092, -1.136192, -1.248767, 0.1830744, 1.47415, -1.405799, 1.269781
 267831158, -1.266881, -0.8561849, 0.0985878, 1.472212, -1.382026, 1.298148, -1.305732, -0.9620953, 0.0874486, 1.473093, -1.393418, 1.284092
 268031078, 0.8999511, -2.480742, 0.398286, 1.478336, -1.38591, 1.314739, -1.266881, -0.8561849, 0.0985878, 1.472212, -1.382026, 1.298148
 268230998, 0.4731165, -1.973336, 0.3576834, 1.474966, -1.369117, 1.328492, 0.8999511, -2.480742, 0.398286, 1.478336, -1.38591, 1.314739
 268430918, -0.8654762, -1.885955, 0.3323625, 1.469615, -1.357249, 1.343797, 0.4731165, -1.973336, 0.3576834, 1.474966, -1.369117, 1.328492
 268630838, 1.27158, -2.222372, 0.4039432, 1.47799, -1.348405, 1.36033, -0.8654762, -1.885955, 0.3323625, 1.469615, -1.357249, 1.343797
 268830758, 0.8059024, -4.282123, 0.9724048, 1.472612, -1.366977, 1.384073, 1.27158, -2.222372, 0.4039432, 1.47799, -1.348405, 1.36033
 269030678, 0.8932073, -2.06082, 0.4099758, 1.473287, -1.322623, 1.390965, 0.8059024, -4.282123, 0.9724048, 1.472612, -1.366977, 1.384073
 269231431, 0.1098323, -1.901529, 0.3999096, 1.468463, -1.309825, 1.405827, 0.8932073, -2.06082, 0.4099758, 1.473287, -1.322623, 1.390965
 269431351, 0.7708873, -3.644372, 0.8643934, 1.470573, -1.320329, 1.428318, 0.1098323, -1.901529, 0.3999096, 1.468463, -1.309825, 1.405827
 269631271, -0.2336867, -2.18503, 0.513106, 1.465036, -1.288309, 1.438863, 0.7708873, -3.644372, 0.8643934, 1.470573, -1.320329, 1.428318
 269831191, 1.022743, -4.291591, 1.17437, 1.470003, -1.305802, 1.464937, -0.2336867, -2.18503, 0.513106, 1.465036, -1.288309, 1.438863
 270031111, 0.6256068, -3.564609, 0.972084, 1.467195, -1.280413, 1.477366, 1.022743, -4.291591, 1.17437, 1.470003, -1.305802, 1.464937
 270231031, 0.3603251, -3.044242, 0.8354958, 1.465443, -1.259284, 1.491001, 0.6256068, -3.564609, 0.972084, 1.467195, -1.280413, 1.477366
 270430951, 0.6200739, -3.65731, 1.101253, 1.466183, -1.255121, 1.510632, 0.3603251, -3.044242, 0.8354958, 1.465443, -1.259284, 1.491001
 270630871, -1.611087, -2.677792, 0.7351118, 1.461042, -1.228605, 1.522771, 0.6200739, -3.65731, 1.101253, 1.466183, -1.255121, 1.510632
 270830791, -1.70395, -4.860953, 1.673616, 1.457419, -1.252895, 1.554332, -1.611087, -2.677792, 0.7351118, 1.461042, -1.228605, 1.522771
 271030711, -1.754084, -3.606212, 1.189266, 1.45893, -1.215812, 1.561426, -1.70395, -4.860953, 1.673616, 1.457419, -1.252895, 1.554332
 271231464, -1.44469, -4.511209, 1.616636, 1.456986, -1.21954, 1.584466, -1.754084, -3.606212, 1.189266, 1.45893, -1.215812, 1.561426
 271431384, 0.8764002, -4.766024, 1.748009, 1.465301, -1.209188, 1.601802, -1.44469, -4.511209, 1.616636, 1.456986, -1.21954, 1.584466
 271631304, -0.9769724, -4.590344, 1.793924, 1.456273, -1.194806, 1.618129, 0.8764002, -4.766024, 1.748009, 1.465301, -1.209188, 1.601802
 271831224, -0.07036049, -3.643782, 1.332851, 1.459553, -1.162585, 1.625798, -0.9769724, -4.590344, 1.793924, 1.456273, -1.194806, 1.618129
 272031144, -1.013501, -4.361004, 1.8068, 1.455196, -1.163925, 1.649316, -0.07036049, -3.643782, 1.332851, 1.459553, -1.162585, 1.625798
 272231064, -1.036248, -5.562789, 2.339395, 1.452796, -1.176438, 1.678523, -1.013501, -4.361004, 1.8068, 1.455196, -1.163925, 1.649316
 272430984, -0.4170608, -5.616448, 2.452274, 1.454166, -1.163732, 1.696114, -1.036248, -5.562789, 2.339395, 1.452796, -1.176438, 1.678523
 272630904, 0.6336331, -4.318715, 1.856008, 1.461572, -1.122015, 1.697732, -0.4170608, -5.616448, 2.452274, 1.454166, -1.163732, 1.696114
 272830824, 0.7830724, -4.38031, 1.881489, 1.462333, -1.110696, 1.714343, 0.6336331, -4.318715, 1.856008, 1.461572, -1.122015, 1.697732
 273030744, -2.443894, -6.239401, 3.122442, 1.44843, -1.148618, 1.758877, 0.7830724, -4.38031, 1.881489, 1.462333, -1.110696, 1.714343
