TimeUS,CAN,CAE,CAD,CAe
 196251468, 0, 0, 0, 0
 196336434, 0.1216395, 4.03463, -0.0865788, 0.509487
 196436394, 0.0001188597, 0.003524193, -0.0001208453, 0.0002593961
 196536354, 5.792271E-05, 0.003463247, -3.182449E-05, 0.0002593961
 196636314, -0.0002103764, 0.003520272, -6.590351E-05, 0.0002593961
 196736274, -4.030768E-05, 0.003442835, -0.0001116521, 0.0002593961
 196836234, 3.25631E-05, 0.003282947, -3.237383E-05, 0.0002593961
 196936194, -0.0001973917, 0.003513827, -2.197458E-05, 0.0002593961
 197036154, -0.0001362677, 0.003379087, 6.119306E-05, 0.0002593961
 197136114, 1.096177E-05, 0.003725022, -7.281727E-05, 0.0002593961
 197236074, 0.0002633142, 0.003549759, -6.709514E-05, 0.0002593961
 197336034, 0.0001037766, 0.003522238, -8.87039E-05, 0.0002593961
 197435994, -8.445088E-05, 0.003605766, -0.0001038517, 0.0002593961
 197535954, -6.788616E-05, 0.003355591, -0.0001714723, 0.0002593961
 197635914, -1.95943E-05, 0.003558074, -0.0001742, 0.0002593961
 197735874, 0.0002866906, 0.003622426, -0.0001164602, 0.0002593961
 197835834, 0.0001816719, 0.003664823, -0.0001506548, 0.0002593961
 197935794, 0.0001834966, 0.003656982, -0.0001533598, 0.0002593961
 198035754, 0.000153939, 0.003609384, -0.0002921258, 0.0002593961
 198135714, 3.411346E-05, 0.003751053, -4.31937E-05, 0.0002593961
 198235674, 0.0002200828, 0.003593171, 2.761453E-05, 0.0002593961
 198336467, -3.575958E-05, 0.00352054, -9.876908E-05, 0.0002615578
 198436427, -8.890015E-05, 0.003640839, -5.829028E-05, 0.0002593961
 198536387, -0.000133843, 0.003619468, 1.593196E-06, 0.0002593961
 198636347, 5.69469E-05, 0.003508697, -0.0001390568, 0.0002593961
 198736307, 0.0001122622, 0.003480592, 0.0002165488, 0.0002593961
 198836267, 0.0001394775, 0.003542269, -0.0001670383, 0.0002593961
 198936227, 0.0002175375, 0.003702823, -0.0001185992, 0.0002593961
 199036187, -9.555231E-05, 0.003862935, -2.739764E-05, 0.0002593961
 199136147, -8.370083E-05, 0.003381644, -0.0001248802, 0.0002593961
 199236107, -6.116559E-05, 0.003582638, 1.434349E-05, 0.0002593961
 199336067, -0.0001654728, 0.003424469, -1.194953E-05, 0.0002593961
 199436027, 0.0001907222, 0.003589436, -0.000162055, 0.0002593961
 199535987, -9.061603E-05, 0.003547806, 1.190306E-05, 0.0002593961
 199635947, 8.032042E-05, 0.003372359, 5.339627E-06, 0.0002593961
 199735907, -1.268905E-05, 0.003604339, 7.081768E-06, 0.0002593961
 199835867, -0.0002505379, 0.003869068, -0.0001305368, 0.0002593961
 199935827, -0.0001217725, 0.003520816, -5.459867E-05, 0.0002593961
 200035787, 0.0001927108, 0.003485339, 4.222492E-05, 0.0002593961
 200135747, -2.714828E-05, 0.003482155, 8.594651E-05, 0.0002593961
 200235707, 0.0002499357, 0.003436308, 0.0001029771, 0.0002593961
 200335667, -0.0001917001, 0.003498697, -0.0003657988, 0.0002593961
 200436460, 0.0001587194, 0.003542464, -0.0001855513, 0.0002615578
 200536420, -8.527227E-05, 0.003712028, -0.0001515116, 0.0002593961
 200636380, -0.0001917239, 0.003634638, -5.944139E-05, 0.0002593961
 200736340, 7.245586E-05, 0.003518179, 0.0001256273, 0.0002593961
 200836300, 8.764587E-05, 0.003430017, -8.010404E-05, 0.0002593961
 200936260, -6.782875E-05, 0.003528203, 8.422104E-05, 0.0002593961
 201036220, 0.0001658209, 0.003604363, 2.668981E-05, 0.0002593961
 201136180, -8.635215E-05, 0.003484196, -0.0001748125, 0.0002593961
 201236140, -6.911503E-05, 0.003368577, 1.266092E-05, 0.0002593961
 201336100, -0.0002277071, 0.003487437, 7.962498E-05, 0.0002593961
 201436060, -0.0001687358, 0.003557445, -8.600489E-05, 0.0002593961
 201536020, 4.584035E-05, 0.003476013, -9.086548E-05, 0.0002593961
 201635980, 5.329051E-05, 0.003373422, 0.0001597385, 0.0002593961
 201735940, -8.433107E-05, 0.003495414, -8.967504E-05, 0.0002593961
 201835900, -0.0001664951, 0.003576877, -3.06841E-06, 0.0002593961
 201935860, 7.055952E-06, 0.003590162, -8.267432E-05, 0.0002593961
 202035820, 0.0001518457, 0.003508037, -0.0001341545, 0.0002593961
 202135780, 5.705884E-05, 0.003683232, 9.156017E-05, 0.0002593961
 202235740, -1.004112E-05, 0.003527934, -0.0002730672, 0.0002593961
 202335700, 0.0001814402, 0.003611629, -7.961069E-05, 0.0002593961
 202435660, -2.224556E-05, 0.003412566, -0.0001928321, 0.0002593961
 202536453, 0.0002213783, 0.003549901, -5.287278E-05, 0.0002615578
 202636413, 9.025365E-05, 0.003435023, 9.789108E-06, 0.0002593961
 202736373, 5.461333E-05, 0.003645837, -7.446529E-05, 0.0002593961
 202836333, 9.744329E-05, 0.003482304, -7.857875E-05, 0.0002593961
 202936293, -4.797003E-05, 0.003518046, -0.0002295875, 0.0002593961
 203036253, 0.0001268207, 0.003723419, 7.248957E-05, 0.0002593961
 203136213, 7.116878E-05, 0.003553991, -8.893626E-05, 0.0002593961
 203236173, -0.0001797284, 0.003619942, -0.0002606112, 0.0002593961
 203336133, -7.478559E-05, 0.003595721, -0.0001428414, 0.0002593961
 203436093, 0.000165363, 0.003334245, 3.996919E-05, 0.0002593961
 203536053, -0.0001911797, 0.003748426, 0.00018818, 0.0002593961
 203636013, 0.0002408279, 0.003594562, 2.655397E-05, 0.0002593961
 203735973, 2.208235E-05, 0.00370379, -0.0001125791, 0.0002593961
 203835933, -1.365238E-06, 0.003710542, -2.15885E-05, 0.0002593961
 203935893, 0.0001381329, 0.003741216, -5.803172E-05, 0.0002593961
 204035853, 8.703559E-05, 0.003509309, -0.0001361791, 0.0002593961
 204135813, -2.569E-05, 0.003521192, 2.020386E-05, 0.0002593961
 204235773, 8.495488E-05, 0.003665186, -0.0001589223, 0.0002593961
 204335733, 7.511754E-05, 0.003675432, -0.0002391954, 0.0002593961
 204435693, 6.784322E-06, 0.003476887, -8.046507E-05, 0.0002593961
 204536486, 8.973161E-06, 0.003520959, 8.473227E-05, 0.0002593961
 204636446, 3.318021E-05, 0.003552636, 0.0001476528, 0.0002615578
 204736406, 0.0001233105, 0.003391524, 0.0001331571, 0.0002593961
 204836366, 5.193054E-05, 0.00337474, 3.265862E-05, 0.0002593961
 204936326, 2.733452E-05, 0.003531045, -0.0001161325, 0.0002593961
 205036286, -8.034874E-05, 0.003693776, -0.0002740586, 0.0002593961
 205136246, -4.320654E-05, 0.003573639, -1.508704E-05, 0.0002593961
 205236206, 1.311438E-05, 0.003556895, -0.0001638687, 0.0002593961
 205336166, -4.371458E-05, 0.003418149, 4.488697E-05, 0.0002593961
 205436126, 0.0001099316, 0.003440901, 1.925771E-05, 0.0002593961
 205536086, 0.0002189247, 0.00370227, -0.0001470919, 0.0002593961
 205636046, 5.336546E-05, 0.003573865, -0.000109892, 0.0002593961
 205736006, -4.8211E-05, 0.003430218, -9.901851E-05, 0.0002593961
 205835966, -0.0001087469, 0.003738987, -6.780298E-06, 0.0002593961
 205935926, 0.0001817433, 0.003523994, -0.0001299553, 0.0002593961
 206035886, -5.528939E-05, 0.003447851, -0.0002086961, 0.0002593961
 206135846, 0.0003001254, 0.003467553, -0.0001114054, 0.0002593961
 206235806, -8.33871E-05, 0.003481337, -3.197941E-05, 0.0002593961
 206335766, 0.0001151029, 0.003405423, 1.179104E-05, 0.0002593961
 206435726, 9.912547E-05, 0.003438181, 4.408742E-05, 0.0002593961
 206535686, 5.022296E-05, 0.003442507, -0.0001033215, 0.0002593961
 206636479, 1.868657E-05, 0.003702587, 4.92932E-05, 0.0002615578
 206736439, 0.00015543, 0.003593157, -8.469998E-06, 0.0002593961
 206836399, -0.0001425486, 0.003705936, 1.672671E-05, 0.0002593961
 206936359, -0.0001473137, 0.00327131, -5.565086E-05, 0.0002593961
 207036319, 9.064389E-05, 0.003668525, -0.0002568219, 0.0002593961
 207136279, 4.558384E-05, 0.003660926, -5.26444E-05, 0.0002593961
 207236239, 9.218585E-05, 0.003396795, 2.413736E-05, 0.0002593961
 207336199, 6.260885E-06, 0.003443957, -3.534928E-05, 0.0002593961
 207436159, -0.0001387573, 0.003455373, 8.556637E-05, 0.0002593961
 207536119, 0.0001604334, 0.003373892, -0.0002521936, 0.0002593961
 207636079, 3.488236E-05, 0.003659185, 5.29995E-05, 0.0002593961
 207736039, -4.921986E-05, 0.003437091, -9.967871E-06, 0.0002593961
 207835999, -2.738633E-06, 0.003397581, 5.494898E-05, 0.0002593961
 207935959, 4.847107E-05, 0.003713231, -0.0001772386, 0.0002593961
 208035919, -0.0001519227, 0.003738815, 0.0001064626, 0.0002593961
 208135879, 2.08958E-05, 0.00349656, 7.136826E-05, 0.0002593961
 208235839, 0.0002028372, 0.003630481, -0.0001287768, 0.0002593961
 208335799, -0.0001633064, 0.00359573, 0.0002465597, 0.0002593961
 208435759, 2.331451E-06, 0.003544532, -9.088217E-05, 0.0002593961
 208535719, 0.0001066396, 0.003640566, -0.000120495, 0.0002593961
 208635679, -3.055247E-05, 0.003667294, -0.0001411315, 0.0002593961
 208736472, -4.074781E-05, 0.003785317, 5.564452E-06, 0.0002615578
 208836432, 0.0001545043, 0.003658197, -5.227501E-05, 0.0002593961
 208936392, 9.766114E-05, 0.003651464, -0.0001255916, 0.0002593961
 209036352, 0.0002109487, 0.003455883, 0.0002500558, 0.0002593961
 209136312, 0.0001269644, 0.003567349, -1.732489E-05, 0.0002593961
 209236272, -8.999491E-06, 0.00355661, 3.007996E-05, 0.0002593961
 209336232, 8.453826E-05, 0.003765898, -2.258112E-05, 0.0002593961
 209436192, -5.34693E-05, 0.00339494, -0.0001050445, 0.0002593961
 209536152, -0.0002186741, 0.00349085, -4.381929E-05, 0.0002593961
 209636112, 1.641236E-05, 0.00358549, 0.0001267653, 0.0002593961
 209736072, -6.625151E-05, 0.003429496, -9.575347E-05, 0.0002593961
 209836032, -8.419169E-05, 0.003764642, 5.059364E-05, 0.0002593961
 209935992, 6.689147E-05, 0.003501722, 0.0001013922, 0.0002593961
 210035952, 7.733398E-05, 0.003641122, -3.612027E-05, 0.0002593961
 210135912, -0.0001573712, 0.003533966, 1.211397E-05, 0.0002593961
 210235872, -5.898963E-05, 0.003601, 0.0001907456, 0.0002593961
 210335832, 3.77771E-05, 0.003609174, -0.0001455547, 0.0002593961
 210435792, 5.615691E-06, 0.003521475, 6.323429E-05, 0.0002593961
 210535752, -0.000130201, 0.003222588, 1.406145E-07, 0.0002593961
 210635712, 6.849429E-05, 0.003412302, -4.244417E-05, 0.0002593961
 210735672, -0.0001194385, 0.003534164, 0.0001190448, 0.0002593961
 210836465, 2.340414E-05, 0.003715165, -8.651528E-06, 0.0002615578
 210936425, -7.512501E-05, 0.003643238, 2.072578E-05, 0.0002593961
 211036385, 0.0001806975, 0.003600522, -9.45786E-06, 0.0002593961
 211136345, -1.374021E-05, 0.003344614, -1.850461E-05, 0.0002593961
 211236305, -3.182225E-05, 0.003485906, -0.0002898535, 0.0002593961
 211336265, -0.0001786264, 0.003499487, -0.0002033016, 0.0002593961
 211436225, -0.0001050745, 0.003694583, 1.073526E-05, 0.0002593961
 211536185, -4.858466E-05, 0.003421899, -0.000398138, 0.0002593961
 211636145, -6.627431E-05, 0.00353699, -3.705449E-05, 0.0002593961
 211736105, -0.0001989021, 0.003507578, 4.055194E-05, 0.0002593961
 211836065, -0.0001843681, 0.003519454, -8.949039E-05, 0.0002593961
 211936025, 8.453615E-05, 0.003652366, 7.748008E-05, 0.0002593961
 212035985, 3.164406E-05, 0.003641307, -0.0001078722, 0.0002593961
 212135945, 7.871154E-05, 0.003370144, -6.55794E-05, 0.0002593961
 212235905, -7.990533E-06, 0.003591957, 0.0001714795, 0.0002593961
 212335865, -2.714608E-05, 0.003587546, 1.252984E-05, 0.0002593961
 212435825, 0.0001516595, 0.003324487, -0.0001424839, 0.0002593961
 212535785, -3.73486E-05, 0.003601149, 9.012314E-05, 0.0002593961
 212635745, 7.65728E-05, 0.0034355, -4.89635E-06, 0.0002593961
 212735705, -0.000126372, 0.003444537, -6.03053E-05, 0.0002593961
 212835665, -0.0002204323, 0.00345608, -7.067714E-05, 0.0002593961
 212936458, 9.836078E-05, 0.003477042, -0.0002112604, 0.0002615578
 213036418, -0.0001079735, 0.003482406, -0.0002535628, 0.0002593961
 213136378, 0.0001392178, 0.003632467, 7.991095E-05, 0.0002593961
 213236338, -2.240573E-05, 0.003659981, 0.0001257953, 0.0002593961
 213336298, 2.196119E-05, 0.003501032, -2.761332E-05, 0.0002593961
 213436258, 8.244981E-06, 0.003550155, -6.439492E-05, 0.0002593961
 213536218, -2.105461E-05, 0.003559458, -6.482987E-05, 0.0002593961
 213636178, 1.849564E-05, 0.003381854, -0.0001782431, 0.0002593961
 213736138, -0.0001030347, 0.003569877, -4.120966E-05, 0.0002593961
 213836098, 5.586714E-05, 0.003443121, -7.235017E-05, 0.0002593961
 213936058, 9.43218E-05, 0.00360825, -7.34119E-05, 0.0002593961
 214036018, 0.0002136873, 0.003728763, 6.38587E-05, 0.0002593961
 214135978, 1.107787E-05, 0.003716168, -2.675058E-05, 0.0002593961
 214235938, 3.612363E-05, 0.003530036, -1.809708E-05, 0.0002593961
 214335898, 0.0004429915, 0.003517122, 8.090835E-05, 0.0002593961
 214435858, 7.992448E-05, 0.00355532, -3.593435E-05, 0.0002593961
 214535818, 0.0001441064, 0.0036426, -0.0001822672, 0.0002593961
 214635778, 5.900942E-05, 0.003640763, -9.279234E-05, 0.0002593961
 214735738, 3.277043E-05, 0.003797946, -1.482251E-05, 0.0002593961
 214835698, 9.525276E-05, 0.003719952, -7.904467E-05, 0.0002593961
 214935658, -5.107655E-06, 0.003583852, -0.0003359869, 0.0002593961
 215036451, 6.336145E-05, 0.003573404, -0.0002034681, 0.0002615578
 215136411, -0.0001194496, 0.003721675, -2.678873E-05, 0.0002593961
 215236371, -1.726827E-05, 0.003719511, -8.896611E-06, 0.0002593961
 215336331, -6.275159E-05, 0.003524402, -5.539827E-06, 0.0002593961
 215436291, 0.0001011301, 0.003301435, 1.65301E-05, 0.0002593961
 215536251, -4.963472E-05, 0.003599378, -8.871343E-05, 0.0002593961
 215636211, 3.08658E-06, 0.003492485, 2.323056E-05, 0.0002593961
 215736171, 0.0002528061, 0.003426001, -0.0001293821, 0.0002593961
 215836131, 0.0001476056, 0.003413594, 0.00010927, 0.0002593961
 215936091, 0.0001086195, 0.003420517, -6.183653E-05, 0.0002593961
 216036051, -3.290586E-06, 0.003427597, -6.6635E-06, 0.0002593961
 216136011, -1.058003E-05, 0.003549399, -7.676271E-05, 0.0002593961
 216235971, 6.087684E-05, 0.003398858, 8.163523E-05, 0.0002593961
 216335931, 0.0002149583, 0.003289229, -0.0002092263, 0.0002593961
 216435891, 0.0001116486, 0.003727481, -0.0001124194, 0.0002593961
 216535851, -9.057579E-05, 0.003458313, -0.0001136265, 0.0002593961
 216635811, -0.0001089676, 0.003465006, 8.529825E-05, 0.0002593961
 216735771, -0.0002457522, 0.003501741, -0.0002032468, 0.0002593961
 216835731, 2.929469E-05, 0.003371111, -0.000259652, 0.0002593961
 216935691, -8.467739E-06, 0.003499993, -0.0002828372, 0.0002593961
 217036484, 5.748252E-05, 0.00347954, -0.0002488189, 0.0002615578
 217136444, 1.157705E-05, 0.003428745, -8.508258E-05, 0.0002593961
 217236404, 0.0001415326, 0.003543879, 0.0001632776, 0.0002593961
 217336364, 4.666877E-06, 0.003456177, 5.823545E-05, 0.0002593961
 217436324, 1.547349E-05, 0.00346404, -0.0002052118, 0.0002593961
 217536284, -0.0002082922, 0.003512873, 2.318886E-05, 0.0002593961
 217636244, -0.0001396069, 0.003458938, -0.000121888, 0.0002593961
 217736204, -0.0001200659, 0.003695349, 8.914837E-05, 0.0002593961
 217836164, -0.0001630037, 0.003656916, -3.256567E-05, 0.0002593961
 217936124, 8.365321E-05, 0.003528791, -0.0001958302, 0.0002593961
 218036084, -8.613907E-05, 0.003561011, -3.278016E-05, 0.0002593961
 218136044, -5.794601E-05, 0.003510537, -2.258351E-05, 0.0002593961
 218236004, 4.356829E-05, 0.003465608, -7.560327E-05, 0.0002593961
 218335964, 1.691799E-05, 0.003701458, 2.213903E-05, 0.0002593961
 218435924, 0.0001924136, 0.003561781, -0.0001569585, 0.0002593961
 218535884, 2.078772E-05, 0.003527184, -0.0003309928, 0.0002593961
 218635844, -7.10208E-05, 0.003549723, -8.570098E-06, 0.0002593961
 218735804, 4.871477E-05, 0.003578213, -8.731685E-05, 0.0002593961
 218835764, 6.362463E-05, 0.003618397, -0.0001951188, 0.0002593961
 218935724, -5.699742E-05, 0.003681813, 2.291716E-05, 0.0002593961
 219035684, -5.632003E-05, 0.003578807, -0.0001694573, 0.0002593961
 219136477, 0.0002001095, 0.003924163, -0.0001590764, 0.0002615578
 219236437, 6.173344E-05, 0.003616715, -7.460231E-05, 0.0002593961
 219336397, 4.435387E-05, 0.003487739, 0.0001172896, 0.0002593961
 219436357, 0.0002016953, 0.003601345, -0.0001575328, 0.0002593961
 219536317, 2.064259E-05, 0.0035056, -0.0003688135, 0.0002593961
 219636277, -7.973835E-05, 0.003442854, 4.908384E-05, 0.0002593961
 219736237, -2.358363E-05, 0.003699649, -0.0001503999, 0.0002593961
 219836197, 9.419292E-05, 0.003566238, -2.102368E-05, 0.0002593961
 219936157, -2.651777E-05, 0.00349802, -0.0002051105, 0.0002593961
 220036117, 4.391974E-05, 0.003680789, 7.296263E-06, 0.0002593961
 220136077, 0.0001029137, 0.003590841, -0.0001509075, 0.0002593961
 220236037, -3.678157E-06, 0.003244392, -4.699972E-05, 0.0002593961
 220335997, -8.430694E-05, 0.003526113, 2.806971E-05, 0.0002593961
 220435957, 3.799164E-05, 0.003632294, -1.947697E-05, 0.0002593961
 220535917, -3.686182E-05, 0.00351464, -4.256452E-05, 0.0002593961
 220635877, -8.305695E-05, 0.003788643, -8.215836E-05, 0.0002593961
 220735837, 5.146037E-05, 0.003533114, 0.0001173241, 0.0002593961
 220835797, -0.0001768853, 0.003778863, -2.818766E-05, 0.0002593961
 220935757, 4.806663E-05, 0.003635308, -0.0002552323, 0.0002593961
 221035717, 3.267281E-05, 0.003557991, 5.302095E-05, 0.0002593961
 221135677, 0.0002294218, 0.003539062, -2.266575E-05, 0.0002593961
 221236470, -2.400965E-05, 0.003516222, -0.0002915161, 0.0002615578
 221336430, -0.0001337706, 0.003623202, -0.0002956638, 0.0002593961
 221436390, 5.396854E-05, 0.00365752, 3.142411E-05, 0.0002593961
 221536350, 0.0001250137, 0.003561356, 0.0002116787, 0.0002593961
 221636310, 0.0002200564, 0.003453967, -0.0002417563, 0.0002593961
 221736270, -0.0001286739, 0.003432008, -0.0002048436, 0.0002593961
 221836230, -0.0001267044, 0.003621798, -0.0001435409, 0.0002593961
 221936190, 0.0001036936, 0.003712117, -6.396713E-05, 0.0002593961
 222036150, 9.798633E-05, 0.003638304, -9.557951E-06, 0.0002593961
 222136110, 3.54582E-05, 0.003576883, -5.29995E-05, 0.0002593961
 222236070, -1.085956E-05, 0.003660014, -0.0001278997, 0.0002593961
 222336030, -6.792282E-05, 0.003683756, -0.0002230967, 0.0002593961
 222435990, 2.328027E-05, 0.003594482, -0.000158622, 0.0002593961
 222535950, -0.0003292624, 0.003378025, -0.000218851, 0.0002593961
 222635910, -2.238816E-05, 0.003525805, -7.245025E-05, 0.0002593961
 222735870, 0.0001527417, 0.003544395, -9.975851E-05, 0.0002593961
 222835830, 0.0001665579, 0.003796095, 9.029472E-05, 0.0002593961
 222935790, -0.0001039454, 0.003467237, -0.0002081217, 0.0002593961
 223035750, 5.310845E-05, 0.003434491, -0.0002602072, 0.0002593961
 223135710, -0.0001253379, 0.003507278, -7.294953E-05, 0.0002593961
 223235670, -0.0001460418, 0.003427566, -2.601775E-05, 0.0002593961
 223336463, -3.874166E-06, 0.003467506, -2.018875E-05, 0.0002615578
 223436423, -7.803343E-05, 0.003618113, -0.0001621384, 0.0002593961
 223536383, 0.0001479677, 0.003622185, -0.0001681084, 0.0002593961
 223636343, -0.00023873, 0.003622826, -3.448778E-05, 0.0002593961
 223736303, -3.684119E-05, 0.003573461, -7.579513E-05, 0.0002593961
 223836263, -0.0002050964, 0.003637791, -2.335925E-05, 0.0002593961
 223936223, -0.0001288375, 0.00373827, 0.0001535612, 0.0002593961
 224036183, -0.0003106139, 0.003684167, -0.0001446789, 0.0002593961
 224136143, -7.380186E-05, 0.003689908, -7.843456E-05, 0.0002593961
 224236103, 1.758865E-05, 0.00356557, -0.0001245298, 0.0002593961
 224336063, 0.0001156131, 0.003415483, -0.0001894872, 0.0002593961
 224436023, 5.630097E-05, 0.003562127, -6.859061E-05, 0.0002593961
 224535983, -6.439243E-05, 0.003584706, -0.000111204, 0.0002593961
 224635943, -0.0001536104, 0.003598941, -0.000160382, 0.0002593961
 224735903, 0.0002306827, 0.003669668, -6.155293E-05, 0.0002593961
 224835863, 3.542397E-06, 0.003449484, -3.541125E-05, 0.0002593961
 224935823, -4.714177E-05, 0.003578061, 1.347837E-05, 0.0002593961
 225035783, -7.675913E-05, 0.003536942, -1.093069E-05, 0.0002593961
 225135743, 0.0001782226, 0.003463883, 5.842137E-05, 0.0002593961
 225235703, 0.0001221381, 0.003542378, -3.123701E-05, 0.0002593961
 225335663, -3.969638E-05, 0.003708368, -0.0002495935, 0.0002593961
 225436456, -1.1074E-05, 0.00348998, -6.446763E-05, 0.0002615578
 225536416, -0.0001908024, 0.003550903, -0.0001958183, 0.0002593961
 225636376, -0.0001602575, 0.00356831, -0.0001464949, 0.0002593961
 225736336, -2.84453E-05, 0.003763119, -3.88872E-05, 0.0002593961
 225836296, 0.0003218047, 0.003743567, 2.689469E-06, 0.0002593961
 225936256, 7.547007E-05, 0.003542158, 3.014431E-05, 0.0002593961
 226036216, -6.239945E-05, 0.003568837, -6.394212E-05, 0.0002593961
 226136176, 7.667057E-05, 0.003485744, -0.0001364627, 0.0002593961
 226236136, 8.902684E-05, 0.00351303, -5.730124E-05, 0.0002593961
 226336096, -0.0002048904, 0.003625303, -0.0003182008, 0.0002593961
 226436056, 9.041769E-05, 0.003571813, -0.0002358899, 0.0002593961
 226536016, 2.594377E-05, 0.003623911, 3.660526E-05, 0.0002593961
 226635976, -0.0001180733, 0.003770116, -0.000183385, 0.0002593961
 226735936, -2.834229E-05, 0.003564222, -0.0002489667, 0.0002593961
 226835896, -0.0001584246, 0.00355924, -6.379317E-05, 0.0002593961
 226935856, -0.0001460059, 0.003613646, -6.308654E-05, 0.0002593961
 227035816, 7.836256E-05, 0.003541328, -7.535899E-05, 0.0002593961
 227135776, 0.0001180751, 0.003871349, -4.243226E-05, 0.0002593961
 227235736, 5.547186E-06, 0.003546352, -0.0002325653, 0.0002593961
 227335696, 6.402611E-05, 0.003487112, -0.0001952428, 0.0002593961
 227435656, -4.610662E-05, 0.00372479, -2.585568E-05, 0.0002593961
 227536449, -8.447294E-05, 0.003770894, 5.713601E-05, 0.0002615578
 227636409, 1.487824E-05, 0.003705134, 0.0001023753, 0.0002593961
 227736369, 0.0002102218, 0.003861817, -0.000266456, 0.0002593961
 227836329, 3.306656E-05, 0.003614364, -0.0002499605, 0.0002593961
 227936289, 7.27666E-06, 0.003340264, -7.264092E-05, 0.0002593961
 228036249, 0.0001010322, 0.003606893, -0.0001633682, 0.0002593961
 228136209, -7.010753E-05, 0.003567566, 5.41375E-05, 0.0002593961
 228236169, 5.861795E-05, 0.00372836, -0.0001297277, 0.0002593961
 228336129, 3.668984E-05, 0.0036261, 0.0001757133, 0.0002593961
 228436089, 0.0003016418, 0.003460815, -0.0002317216, 0.0002593961
 228536049, 1.172014E-05, 0.003727084, 9.439148E-05, 0.0002593961
 228636009, 0.0002781251, 0.003455775, -7.165901E-05, 0.0002593961
 228735969, 4.748454E-05, 0.003712331, -3.454138E-05, 0.0002593961
 228835929, 9.991287E-05, 0.003694511, 7.599175E-05, 0.0002593961
 228935889, 0.0001739634, 0.003756691, 6.326647E-05, 0.0002593961
 229035849, -0.0002339943, 0.003587608, -8.695222E-05, 0.0002593961
 229135809, -0.0001068024, 0.003562349, -7.58118E-05, 0.0002593961
 229235769, -8.797985E-05, 0.00360734, -0.0002121875, 0.0002593961
 229335729, 0.0001544213, 0.003699817, -0.0001927391, 0.0002593961
 229435689, 0.0001163229, 0.003676895, 7.231442E-05, 0.0002593961
 229536482, 0.0001302747, 0.003648952, 0.0001036956, 0.0002615578
 229636442, 0.0001204438, 0.003477172, -6.783871E-06, 0.0002593961
 229736402, -0.0001045325, 0.00382525, 7.206178E-05, 0.0002593961
 229836362, 0.0002311798, 0.003767539, -0.0001236028, 0.0002593961
 229936322, -0.0001437962, 0.003543596, -0.000268508, 0.0002593961
 230036282, -0.0001411522, 0.003661351, -0.0002481326, 0.0002593961
 230136242, -0.0001067948, 0.003475179, -0.0001298969, 0.0002593961
 230236202, 8.982459E-05, 0.0037306, -3.13264E-05, 0.0002593961
 230336162, 4.49847E-05, 0.003661804, -4.814248E-05, 0.0002593961
 230436122, -0.0001036551, 0.003485086, 3.96117E-05, 0.0002593961
 230536082, 3.030011E-05, 0.003631727, 3.732261E-05, 0.0002593961
 230636042, 6.99165E-05, 0.003540121, -8.586904E-05, 0.0002593961
 230736002, 2.286244E-05, 0.00377387, 6.402078E-05, 0.0002593961
 230835962, 6.733911E-05, 0.003767099, -0.0001060717, 0.0002593961
 230935922, -0.0001253436, 0.00364641, -0.000103499, 0.0002593961
 231035882, 9.022904E-05, 0.003489192, -0.000128287, 0.0002593961
 231135842, -0.0001399145, 0.003788275, -0.0001508586, 0.0002593961
 231235802, -7.83883E-05, 0.003645915, -0.0001883587, 0.0002593961
 231335762, -0.0002833548, 0.003575516, -0.0001795122, 0.0002593961
 231435722, -1.113609E-05, 0.003590664, -5.226669E-05, 0.0002593961
 231535682, 0.0001893735, 0.003579793, -0.0003062751, 0.0002593961
 231636475, -0.0001858174, 0.003588275, -0.0001689434, 0.0002615578
 231736435, -0.0001775012, 0.003481727, -0.0001114614, 0.0002593961
 231836395, 3.211425E-05, 0.003707823, 9.379449E-05, 0.0002593961
 231936355, -9.488729E-05, 0.003531778, 1.029796E-05, 0.0002593961
 232036315, -6.044286E-05, 0.003455258, -0.000125414, 0.0002593961
 232136275, -0.0001903845, 0.003588023, -1.790046E-05, 0.0002593961
 232236235, -7.678627E-05, 0.003396142, -0.0001078246, 0.0002593961
 232336195, 0.0001894279, 0.00356654, -0.0001356858, 0.0002593961
 232436155, -8.086807E-06, 0.003467873, -1.129175E-05, 0.0002593961
 232536115, -0.0002139752, 0.003397311, -0.0002797628, 0.0002593961
 232636075, 0.000169102, 0.003591128, 0.0001387053, 0.0002593961
 232736035, 9.840848E-05, 0.003714708, 0.0001064614, 0.0002593961
 232835995, 3.13184E-05, 0.003528472, 1.388233E-05, 0.0002593961
 232935955, 7.567901E-06, 0.003705904, -0.0001593334, 0.0002593961
 233035915, 0.0001940692, 0.00384757, -3.217006E-05, 0.0002593961
 233135875, -0.0001387444, 0.003537605, -0.0002134935, 0.0002593961
 233235835, -0.0002316012, 0.003386631, -3.260856E-05, 0.0002593961
 233335795, -0.0001175192, 0.003490105, 1.190543E-05, 0.0002593961
 233435755, -0.0001680073, 0.003524044, -5.671139E-05, 0.0002593961
 233535715, -7.140866E-05, 0.003513556, -0.0001539354, 0.0002593961
 233635675, -0.0002419184, 0.003720777, 0.0001041318, 0.0002593961
 233736468, -0.0001551209, 0.003604044, -8.341554E-05, 0.0002615578
 233836428, -1.620038E-06, 0.003464666, -0.0002297031, 0.0002593961
 233936388, 0.0001878161, 0.003715214, 6.740853E-05, 0.0002593961
 234036348, 1.565153E-05, 0.003603342, -0.0002237903, 0.0002593961
 234136308, 0.0001037066, 0.003557901, -9.995155E-05, 0.0002593961
 234236268, 0.0001409565, 0.003671652, -0.0001505035, 0.0002593961
 234336228, 7.53932E-05, 0.0035327, 0.0001657991, 0.0002593961
 234436188, 7.672775E-05, 0.003551646, -0.0001043546, 0.0002593961
 234536148, -0.0001861923, 0.003762739, -5.970949E-05, 0.0002593961
 234636108, 5.530092E-05, 0.003800993, -0.0002150497, 0.0002593961
 234736068, -5.981941E-05, 0.003812945, -5.033862E-05, 0.0002593961
 234836028, 5.544246E-05, 0.003676256, -0.0001300184, 0.0002593961
 234935988, 0.000103981, 0.00351933, -8.768267E-05, 0.0002593961
 235035948, -0.0001814532, 0.003598864, -0.0001187291, 0.0002593961
 235135908, -4.800554E-05, 0.003583299, -0.000309595, 0.0002593961
 235235868, 0.0001475255, 0.003530466, -1.769431E-05, 0.0002593961
 235335828, 4.86479E-05, 0.003577507, -3.9253E-05, 0.0002593961
 235435788, -1.814114E-05, 0.003593576, -4.853809E-05, 0.0002593961
 235535748, 0.0001162527, 0.003563389, -0.0001179449, 0.0002593961
 235635708, -9.661152E-05, 0.003722103, -0.000106459, 0.0002593961
 235735668, -5.609471E-05, 0.003526214, -0.0001033787, 0.0002593961
 235836461, -0.0001627019, 0.003471971, 4.635148E-05, 0.0002615578
 235936421, -0.0001830909, 0.003497797, -0.0001945647, 0.0002593961
 236036381, -0.0003715143, 0.003604484, 1.102126E-05, 0.0002593961
 236136341, -9.397202E-05, 0.003467576, 0.0001972661, 0.0002593961
 236236301, 2.600593E-05, 0.003575736, -0.0001865368, 0.0002593961
 236336261, 8.097603E-05, 0.003461414, -3.350586E-05, 0.0002593961
 236436221, 0.0001297559, 0.003599654, -0.0001921898, 0.0002593961
 236536181, -3.550976E-05, 0.003371979, -0.0001149254, 0.0002593961
 236636141, 3.895349E-06, 0.00347735, -0.0002527918, 0.0002593961
 236736101, -2.232085E-05, 0.003454794, 2.120123E-05, 0.0002593961
 236836061, -9.56258E-05, 0.003570484, 3.77218E-05, 0.0002593961
 236936021, 6.847761E-05, 0.003607779, -5.431267E-05, 0.0002593961
 237035981, 0.0001545662, 0.003801855, 8.305805E-05, 0.0002593961
 237135941, -0.0002203906, 0.003697819, 9.672349E-05, 0.0002593961
 237235901, 5.760491E-05, 0.003710402, -0.000177608, 0.0002593961
 237335861, -0.0001530413, 0.003569769, -0.0002264642, 0.0002593961
 237435821, -0.0003050775, 0.003664436, 1.49524E-05, 0.0002593961
 237535781, 3.058073E-05, 0.003667456, -1.820194E-05, 0.0002593961
 237635741, -0.0001024709, 0.003294957, 3.121916E-05, 0.0002593961
 237735701, -4.028023E-05, 0.003376467, 9.205471E-05, 0.0002593961
 237835661, 2.234984E-06, 0.00369806, 5.824739E-05, 0.0002593961
 237936454, 5.960804E-05, 0.003717643, -0.0002690554, 0.0002615578
 238036414, -7.00033E-06, 0.003765026, -1.594144E-05, 0.0002593961
 238136374, -0.0001591007, 0.003604132, 5.621568E-05, 0.0002593961
 238236334, 7.667908E-06, 0.0035297, -0.0001113375, 0.0002593961
 238336294, -9.087639E-07, 0.003426787, -1.758586E-05, 0.0002593961
 238436254, 5.412698E-05, 0.003706707, -0.0001152448, 0.0002593961
 238536214, 1.301552E-05, 0.003704666, -3.291601E-05, 0.0002593961
 238636174, -5.044081E-05, 0.003626231, 5.114298E-05, 0.0002593961
 238736134, -0.0002943307, 0.003443079, -9.198442E-05, 0.0002593961
 238836094, 1.215589E-05, 0.003651042, -8.541624E-05, 0.0002593961
 238936054, 0.0001779451, 0.003484502, -1.864046E-05, 0.0002593961
 239036014, -1.50095E-05, 0.003460554, -6.110131E-05, 0.0002593961
 239135974, -8.678212E-05, 0.003590644, -0.0001540092, 0.0002593961
 239235934, -7.389355E-05, 0.003560248, -0.0001266593, 0.0002593961
 239335894, 0.0001409238, 0.003531954, -0.0001965451, 0.0002593961
 239435854, 1.729628E-05, 0.003652284, 3.518962E-05, 0.0002593961
 239535814, -6.119783E-05, 0.00367786, 6.157198E-05, 0.0002593961
 239635774, -0.0001451876, 0.003622548, -0.0002261401, 0.0002593961
 239735734, 2.759605E-05, 0.003865634, -6.546621E-05, 0.0002593961
 239835694, 0.0001887875, 0.003568123, 9.979546E-05, 0.0002593961
 239935654, 0.0001160974, 0.003683527, 0.0001545871, 0.0002593961
 240036447, 5.300973E-05, 0.003620669, 9.152564E-05, 0.0002615578
 240136407, -0.0001841846, 0.003689436, -1.279081E-05, 0.0002593961
 240236367, -0.0001708044, 0.003694535, -0.0001686542, 0.0002593961
 240336327, 5.673326E-05, 0.003677216, 1.656704E-05, 0.0002593961
 240436287, -4.836975E-05, 0.003488218, 0.0001534849, 0.0002593961
 240536247, -0.0003264637, 0.003615292, -0.000152111, 0.0002593961
 240636207, -4.707332E-05, 0.003623955, -9.83286E-05, 0.0002593961
 240736167, 0.0001172138, 0.003651863, -0.000133511, 0.0002593961
 240836127, -0.0001873966, 0.003516776, -0.0001686804, 0.0002593961
 240936087, 0.0001133565, 0.003325609, 4.07461E-05, 0.0002593961
 241036047, 4.036512E-05, 0.003356487, -0.0001300041, 0.0002593961
 241136007, -0.0002564944, 0.003672032, -4.23107E-05, 0.0002593961
 241235967, -0.0001813228, 0.003614935, 4.618703E-05, 0.0002593961
 241335927, -6.047246E-06, 0.003622117, 7.318667E-05, 0.0002593961
 241435887, -0.0001468458, 0.003500827, -0.0001120679, 0.0002593961
 241535847, 0.0001037163, 0.003535545, -1.976771E-05, 0.0002593961
 241635807, -0.0001558417, 0.003566793, -0.0001077448, 0.0002593961
 241735767, 9.496108E-05, 0.003572796, -9.989317E-05, 0.0002593961
 241835727, 1.190531E-05, 0.003409868, -0.000254534, 0.0002593961
 241935687, -8.939805E-06, 0.00369618, -8.569269E-05, 0.0002593961
 242036480, 1.988219E-05, 0.003705566, 0.0001141119, 0.0002615578
 242136440, 1.62104E-05, 0.003414855, -0.0001079092, 0.0002593961
 242236400, -1.589651E-05, 0.003610294, 6.608346E-05, 0.0002593961
 242336360, -4.3273E-05, 0.00352991, -0.0003050024, 0.0002593961
 242436320, -0.0001076912, 0.003518413, -4.008121E-05, 0.0002593961
 242536280, -2.902972E-05, 0.003736145, -9.152803E-05, 0.0002593961
 242636240, 6.526205E-05, 0.003462751, -0.0002027702, 0.0002593961
 242736200, -0.000166756, 0.003509129, -0.0003142697, 0.0002593961
 242836160, -0.0001006825, 0.003441222, -5.91256E-05, 0.0002593961
 242936120, -3.522951E-05, 0.003658456, -0.0001930739, 0.0002593961
 243036080, 5.39102E-05, 0.003712188, -1.713426E-05, 0.0002593961
 243136040, -0.0001477881, 0.003651927, 8.667218E-05, 0.0002593961
 243236000, -8.497923E-05, 0.003528817, -4.209979E-05, 0.0002593961
 243335960, -0.0001509523, 0.003593297, -0.0001409539, 0.0002593961
 243435920, 0.0002537895, 0.003493653, -8.232996E-05, 0.0002593961
 243535880, 0.0001953392, 0.003814301, -2.522651E-05, 0.0002593961
 243635840, -4.056333E-05, 0.003562871, 5.196041E-05, 0.0002593961
 243735800, -3.811275E-05, 0.003798265, -0.0001575114, 0.0002593961
 243835760, -8.10862E-05, 0.003656061, -4.854643E-05, 0.0002593961
 243935720, -0.0001043919, 0.003478817, 0.0001826009, 0.0002593961
 244035680, -3.720644E-05, 0.003604252, -0.0001812341, 0.0002593961
 244136473, -0.0003316739, 0.003722219, -9.92966E-05, 0.0002615578
 244236433, -0.0001340481, 0.003618375, -0.0001925485, 0.0002593961
 244336393, -4.95465E-05, 0.003584677, -6.319736E-05, 0.0002593961
 244436353, 0.0001213815, 0.003679537, -8.81534E-05, 0.0002593961
 244536313, -0.000183843, 0.003713429, -0.0001973137, 0.0002593961
 244636273, 9.150627E-05, 0.003618452, -0.0001114542, 0.0002593961
 244736233, -2.984038E-05, 0.003663241, -8.700228E-05, 0.0002593961
 244836193, -7.233248E-05, 0.003545723, -6.085107E-05, 0.0002593961
 244936153, 4.285503E-05, 0.003698645, -5.038987E-05, 0.0002593961
 245036113, 5.680716E-06, 0.003560746, -6.909943E-05, 0.0002593961
 245136073, 0.0001178429, 0.003731853, -0.0001596217, 0.0002593961
 245236033, 0.0001443411, 0.003725964, 9.139934E-05, 0.0002593961
 245335993, -6.486681E-05, 0.00357103, -8.72025E-06, 0.0002593961
 245435953, -6.551555E-05, 0.003645027, -0.0001442809, 0.0002593961
 245535913, -0.0002166083, 0.003686297, -0.0001255606, 0.0002593961
 245635873, -0.0001907909, 0.003498826, 8.792101E-05, 0.0002593961
 245735833, -0.0001432769, 0.003380694, -6.028742E-05, 0.0002593961
 245835793, 5.38443E-05, 0.003387586, -0.0001703439, 0.0002593961
 245935753, 0.0001560797, 0.003517089, -0.0001442451, 0.0002593961
 246035713, 0.0003077298, 0.003442356, 1.638352E-05, 0.0002593961
 246135673, 0.0001295197, 0.003451598, -0.0001558276, 0.0002593961
 246236466, -8.90379E-05, 0.00358082, -1.817096E-05, 0.0002615578
 246336426, -0.0001259225, 0.003756777, -0.0004172945, 0.0002593961
 246436386, -8.328025E-05, 0.003648877, -0.0002528407, 0.0002593961
 246536346, 8.600936E-05, 0.003645586, -4.992277E-05, 0.0002593961
 246636306, -3.76692E-05, 0.003712308, -0.0001288566, 0.0002593961
 246736266, 0.0001215092, 0.003350924, -4.188649E-05, 0.0002593961
 246836226, -8.677741E-05, 0.003399883, -4.454262E-05, 0.0002593961
 246936186, -5.776544E-06, 0.003706659, -1.250839E-05, 0.0002593961
 247036146, -6.024733E-05, 0.003729496, -8.539122E-06, 0.0002593961
 247136106, -0.0001113051, 0.003651038, -4.821398E-05, 0.0002593961
 247236066, -4.347554E-05, 0.003631854, 8.05592E-05, 0.0002593961
 247336026, -0.0001041005, 0.003605978, 0.0001161146, 0.0002593961
 247435986, 2.069814E-05, 0.003586114, -6.601415E-07, 0.0002593961
 247535946, -8.549319E-05, 0.003466275, 6.879796E-05, 0.0002593961
 247635906, -0.0001463839, 0.003763412, -6.423408E-05, 0.0002593961
 247735866, 5.722171E-05, 0.003617065, -0.01916197, 0.0002593961
 247835826, 0.0004402792, 0.003827495, -0.1914798, 0.0002593961
 247935786, 0.000154607, 0.003687806, -0.100372, 0.0002593961
 248035746, -9.992325E-05, 0.003509336, 0.01516365, 0.0002593961
 248135706, -0.0002397193, 0.003434327, 0.05679616, 0.0002593961
 248235666, -0.0001519032, 0.003489972, 0.04631988, 0.0002593961
 248336459, -3.094953E-05, 0.003540435, -0.2134068, 0.0002615578
 248436419, -0.001365932, 0.002019926, -0.7024914, 0.0002593961
 248536379, -0.004385561, -0.001096513, -0.5903614, 0.0002593961
 248636339, -0.006866873, -0.003850637, -0.2948027, 0.0002593961
 248736299, -0.008180179, -0.005144859, -0.09960707, 0.0002593961
 248836259, -0.008587375, -0.005481287, -0.04926642, 0.0002593961
 248936219, -0.008220939, -0.005216977, -0.07654843, 0.0002593961
 249036179, -0.007892764, -0.004685942, -0.1117056, 0.0002593961
 249136139, -0.007415028, -0.003819725, -0.124877, 0.0002593961
 249236099, -0.006821252, -0.003272931, -0.1181341, 0.0002593961
 249336059, -0.006316976, -0.002390463, -0.1043018, 0.0002593961
 249436019, -0.005980639, -0.0018339, -0.09215657, 0.0002593961
 249535979, -0.005395794, -0.001171169, -0.08449374, 0.0002593961
 249635939, -0.004919566, -0.000677099, -0.07949799, 0.0002593961
 249735899, -0.004535882, -0.0002054062, -0.07559746, 0.0002593961
 249835859, -0.004035402, 0.0001990263, -0.07153787, 0.0002593961
 249935819, -0.003586984, 0.0006877612, -0.06713253, 0.0002593961
 250035779, -0.003315861, 0.001104486, -0.06268024, 0.0002593961
 250135739, -0.002755048, 0.001593192, -0.05872106, 0.0002593961
 250235699, -0.002487068, 0.001720375, -0.0547687, 0.0002593961
 250335659, -0.002133378, 0.002145106, -0.0513241, 0.0002593961
 250436452, -0.001785977, 0.002309851, -0.04856222, 0.0002615578
 250536412, -0.001303529, 0.00261735, -0.04524845, 0.0002593961
 250636372, -0.001203426, 0.002820779, -0.04224337, 0.0002593961
 250736332, -0.001130357, 0.002799063, -0.03956293, 0.0002593961
 250836292, -0.001109031, 0.002957101, -0.03698681, 0.0002593961
 250936252, -0.001135717, 0.00288157, -0.0344918, 0.0002593961
 251036212, -0.001278653, 0.002983707, -0.03204655, 0.0002593961
 251136172, -0.001336956, 0.002743363, -0.03007381, 0.0002593961
 251236132, -0.001330482, 0.002772302, -0.02851336, 0.0002593961
 251336092, -0.001301452, 0.00276002, -0.026759, 0.0002593961
 251436052, -0.001465849, 0.002599813, -0.02525799, 0.0002593961
 251536012, -0.001346247, 0.002440608, -0.02363586, 0.0002593961
 251635972, -0.001398066, 0.002408733, -0.02213944, 0.0002593961
 251735932, -0.001183103, 0.002556572, -0.02066564, 0.0002593961
 251835892, -0.00118126, 0.002276023, -0.01945668, 0.0002593961
 251935852, -0.001254872, 0.002283554, -0.01809335, 0.0002593961
 252035812, -0.001310051, 0.00210433, -0.01701831, 0.0002593961
 252135772, -0.001067227, 0.002190435, -0.01602411, 0.0002593961
 252235732, -0.0008884624, 0.002053383, -0.01486494, 0.0002593961
 252335692, -0.001040332, 0.002199864, -0.01398089, 0.0002593961
 252436485, -0.0007352716, 0.002006812, -0.01323428, 0.0002615578
 252536445, -0.000635538, 0.00203509, -0.01225431, 0.0002593961
 252636405, -0.0003706581, 0.001898573, -0.01171149, 0.0002593961
 252736365, -0.0002668097, 0.001826459, -0.01103029, 0.0002593961
 252836325, -0.0002601828, 0.001868292, -0.01026777, 0.0002593961
 252936285, -0.0002194877, 0.001986843, -0.009487409, 0.0002593961
 253036245, 9.341312E-05, 0.001922103, -0.008587302, 0.0002593961
 253136205, 0.0001839831, 0.001962484, -0.008375214, 0.0002593961
 253236165, 0.0002631714, 0.002172113, -0.007806977, 0.0002593961
 253336125, 0.0002686541, 0.00225881, -0.007474344, 0.0002593961
 253436085, 0.0005428937, 0.002520333, -0.006672786, 0.0002593961
 253536045, 0.0004545478, 0.002638883, -0.005923421, 0.0002593961
 253636005, 0.0004841483, 0.00292504, -0.00570862, 0.0002593961
 253735965, 0.0005761295, 0.003233439, -0.005681233, 0.0002593961
 253835925, 0.0005501513, 0.003529744, -0.005414359, 0.0002593961
 253935885, 0.0005904559, 0.003736245, -0.00496611, 0.0002593961
 254035845, 0.0005369578, 0.003854095, -0.00478734, 0.0002593961
 254135805, 0.0003743026, 0.004028078, -0.004336938, 0.0002593961
 254235765, 0.0006929167, 0.00425738, -0.004091471, 0.0002593961
 254335725, 0.0004535731, 0.004309936, -0.003908682, 0.0002593961
 254435685, 0.0004867221, 0.004385794, -0.003510189, 0.0002593961
 254536478, 0.0005359394, 0.00460526, -0.003417019, 0.0002615578
 254636438, 0.0005365531, 0.004809537, -0.003347126, 0.0002593961
 254736398, 0.0004042343, 0.00478896, -0.003015495, 0.0002593961
 254836358, 0.0003369489, 0.005100393, -0.002694112, 0.0002593961
 254936318, 0.0003683956, 0.005016155, -0.002901701, 0.0002593961
 255036278, 0.0002918076, 0.0050908, -0.002611134, 0.0002593961
 255136238, 0.0002617532, 0.005119313, 0.02032614, 0.0002593961
 255236198, 0.000248093, 0.005020694, 0.0351043, 0.0002593961
 255336158, 0.0001181619, 0.004945069, 0.03303102, 0.0002593961
 255436118, 0.001159891, 0.005768968, 0.2407498, 0.0002593961
 255536078, 0.001360559, 0.005949462, 0.3160643, 0.0002593961
 255636038, 0.001313933, 0.005762823, 0.2950401, 0.0002593961
 255735998, 0.001128862, 0.005611054, 0.2759349, 0.0002593961
 255835958, 0.0008951257, 0.00555627, 0.258396, 0.0002593961
 255935918, 0.0009802346, 0.005384062, 0.2421037, 0.0002593961
 256035878, 0.0008701009, 0.005243706, 0.227044, 0.0002593961
 256135838, 0.0006882008, 0.005077886, 0.2111726, 0.0002593961
 256235798, 0.0005022745, 0.004626711, 0.1563036, 0.0002593961
 256335758, 0.001768956, 0.005248801, 0.1312438, 0.0002593961
 256435718, 0.004260167, 0.006851686, 0.1152944, 0.0002593961
 256535678, 0.007027882, 0.008230469, 0.1039487, 0.0002593961
 256636471, 0.009468692, 0.009471898, 0.09750115, 0.0002615578
 256736431, 0.01011734, 0.009907784, 0.0917142, 0.0002593961
 256836391, 0.009855032, 0.009855776, 0.08936598, 0.0002593961
 256936351, 0.008577646, 0.01004227, 0.08883924, 0.0002593961
 257036311, 0.007060654, 0.01090235, 0.08940683, 0.0002593961
 257136271, 0.005896741, 0.01214975, 0.09148052, 0.0002593961
 257236231, 0.005446195, 0.01348282, 0.09216076, 0.0002593961
 257336191, 0.005370297, 0.01454266, 0.08909272, 0.0002593961
 257436151, 0.00547062, 0.01515169, 0.08418503, 0.0002593961
 257536111, 0.005350397, 0.01532616, 0.07771212, 0.0002593961
 257636071, 0.00511073, 0.01499441, 0.0715405, 0.0002593961
 257736031, 0.004571166, 0.01437318, 0.06487969, 0.0002593961
 257835991, 0.0038198, 0.01375037, 0.05799909, 0.0002593961
 257935951, 0.003229243, 0.01275878, 0.05131241, 0.0002593961
 258035911, 0.002937335, 0.01202726, 0.04506925, 0.0002593961
 258135871, 0.002221622, 0.01108174, 0.03953417, 0.0002593961
 258235831, 0.001660509, 0.01020092, 0.03402669, 0.0002593961
 258335791, 0.001146892, 0.009276748, 0.02924507, 0.0002593961
 258435751, 0.0008086883, 0.00847608, 0.02505806, 0.0002593961
 258535711, 0.0005791356, 0.007684118, 0.02109086, 0.0002593961
 258635671, 0.0003718258, 0.006938288, 0.01759711, 0.0002593961
 258736464, -5.782929E-06, 0.005862221, 0.01569893, 0.0002615578
 258836424, 0.0001179815, 0.005216088, 0.01250196, 0.0002593961
 258936384, 0.0002837711, 0.004488852, 0.01037295, 0.0002593961
 259036344, 5.571395E-05, 0.003925289, 0.00877885, 0.0002593961
 259136304, -9.004764E-05, 0.003477374, 0.007263333, 0.0002593961
 259236264, -0.0005655317, 0.002949884, 0.006580076, 0.0002593961
 259336224, -0.0005605068, 0.002689235, 0.005533865, 0.0002593961
 259436184, -0.0007551608, 0.002133121, 0.004237967, 0.0002593961
 259536144, -0.0006811207, 0.001490885, 0.003670337, 0.0002593961
 259636104, -0.001024325, 0.00110727, 0.003361335, 0.0002593961
 259736064, -0.0008436333, 0.0007372226, 0.003043073, 0.0002593961
 259836024, -0.0006158599, 0.0007734215, 0.002566131, 0.0002593961
 259935984, -0.0003125379, 0.0007928137, 0.002261243, 0.0002593961
 260035944, -0.0001844767, 0.000997197, 0.00140488, 0.0002593961
 260135904, 4.537006E-05, 0.0009194577, 0.001918427, 0.0002593961
 260235864, -1.574518E-05, 0.0008829068, 0.001166806, 0.0002593961
 260335824, -7.962078E-05, 0.0008753947, 0.001364563, 0.0002593961
 260435784, 3.036302E-05, 0.001033756, 0.0009939793, 0.0002593961
 260535744, 3.026724E-05, 0.0009708373, 0.001042427, 0.0002593961
 260635704, -3.617234E-05, 0.001385797, 0.0007781016, 0.0002593961
 260735664, -0.0002458879, 0.001726913, 0.000583221, 0.0002593961
 260836457, -1.249814E-06, 0.001635129, 0.0005314862, 0.0002615578
 260936417, 5.481413E-05, 0.001637347, 0.0004138042, 0.0002593961
 261036377, 0.0002022239, 0.001875891, 0.0001076446, 0.0002593961
 261136337, 0.0006803471, 0.001908186, 0.0002973094, 0.0002593961
 261236297, 0.0006066312, 0.001985673, 0.0003258701, 0.0002593961
 261336257, 0.0008143972, 0.002088807, 0.0001876426, 0.0002593961
 261436217, 0.0009848288, 0.002332636, 3.743463E-05, 0.0002593961
 261536177, 0.0009427156, 0.002404207, -3.28457E-05, 0.0002593961
 261636137, 0.0006734065, 0.002595541, -0.0006876208, 0.0002593961
 261736097, 0.0006961956, 0.002449746, -1.297192E-05, 0.0002593961
 261836057, 0.0005332879, 0.002458681, -0.0007908529, 0.0002593961
 261936017, 0.0004548506, 0.002490504, -0.0004431644, 0.0002593961
 262035977, 0.0002876812, 0.002554743, -0.0009800862, 0.0002593961
 262135937, 0.0002398482, 0.002836536, -0.0002681399, 0.0002593961
 262235897, 0.0001856328, 0.002887885, -0.0007961235, 0.0002593961
 262335857, 2.891835E-05, 0.003045593, -0.0006045558, 0.0002593961
 262435817, 0.000148096, 0.003057716, -0.0008714539, 0.0002593961
 262535777, 0.0004060608, 0.003225594, -0.0003699897, 0.0002593961
 262635737, 0.0006576048, 0.003184628, -0.0008663395, 0.0002593961
 262735697, 0.001011537, 0.003331346, -0.0003550647, 0.0002593961
 262835657, 0.0009686357, 0.003534458, -0.0008703552, 0.0002593961
 262936450, 0.0005911325, 0.003533806, -0.0003539246, 0.0002615578
 263036410, 0.0005212153, 0.003207845, -0.0005582246, 0.0002593961
 263136370, 0.0002912349, 0.003215029, -0.0005070278, 0.0002593961
 263236330, 0.0001489256, 0.003151608, -0.000467844, 0.0002593961
 263336290, 0.0001189689, -0.0006661065, -0.0004372921, 0.0002593961
 263436250, -0.0002785203, -0.008798375, -0.0004924163, 0.0002593961
 263536210, -0.000546343, -0.01977979, -0.0004754167, 0.0002593961
 263636170, -0.0006150411, -0.03093418, -0.0002200379, 0.0002593961
 263736130, -0.0006725229, -0.0393146, 5.512177E-05, 0.0002593961
 263836090, -0.001062646, -0.04384452, 0.0004038089, 0.0002593961
 263936050, -0.001007127, -0.04489739, 0.0002198258, 0.0002593961
 264036010, -0.0009432964, -0.0427255, -0.0006302873, 0.0002593961
 264135970, -0.0004466561, -0.0396456, -0.0004564807, 0.0002593961
 264235930, -0.0005165588, -0.0365848, -0.0009044544, 0.0002593961
 264335890, -0.0003219935, -0.03449919, -0.0004372301, 0.0002593961
 264435850, -0.0005492348, -0.03359223, -0.000765898, 0.0002593961
 264535810, -0.0007457699, -0.03422667, -0.0002127952, 0.0002593961
 264635770, -0.0007541158, -0.03529419, -0.0002109327, 0.0002593961
 264735730, -0.0007837598, -0.03660138, -0.0002390143, 0.0002593961
 264835690, -0.0008509472, -0.03784094, -0.0002231968, 0.0002593961
 264936483, -0.0009917677, -0.03882562, -0.0005268211, 0.0002615578
 265036443, -0.0006938973, -0.03888651, -0.0005170576, 0.0002593961
 265136403, -0.0005730917, -0.03888815, -0.0003393091, 0.0002593961
 265236363, -0.000451935, -0.03869074, -0.0003149965, 0.0002593961
 265336323, -0.000472084, -0.03864116, -9.844894E-05, 0.0002593961
 265436283, -0.0004935024, -0.03882134, -0.000399077, 0.0002593961
 265536243, -0.0004460773, -0.03900062, -0.0001679952, 0.0002593961
 265636203, -0.000498565, -0.03936945, 0.0002439965, 0.0002593961
 265736163, -0.0004993755, -0.0399875, 0.000296685, 0.0002593961
 265836123, -0.0006064983, -0.04028817, -0.0004663675, 0.0002593961
 265936083, -0.0005753769, -0.04086029, -0.0003396558, 0.0002593961
 266036043, -0.0007668561, -0.04100526, -0.0001271561, 0.0002593961
 266136003, -0.0004736696, -0.04133533, -0.0001567178, 0.0002593961
 266235963, -0.0003838477, -0.04127084, -0.0002143765, 0.0002593961
 266335923, -0.000427158, -0.04136085, -6.742402E-05, 0.0002593961
 266435883, -0.0002651481, -0.04187004, -0.0007734852, 0.0002593961
 266535843, -0.0005534312, -0.04234911, -0.0001931955, 0.0002593961
 266635803, -0.000559645, -0.04259485, -0.0004629953, 0.0002593961
 266735763, -0.0007388551, -0.04293863, -0.000255778, 0.0002593961
 266835723, -0.0008360238, -0.04296866, -0.0005899263, 0.0002593961
 266935683, -0.0005632711, -0.04281494, -0.0005833377, 0.0002593961
 267036476, -0.0003835723, -0.04317984, -0.0009635332, 0.0002615578
 267136436, -6.468191E-05, -0.04287432, -0.0005883533, 0.0002593961
 267236396, 0.0001427345, -0.04288144, -0.0007382276, 0.0002593961
 267336356, 0.0003416171, -0.04327848, -0.000977392, 0.0002593961
 267436316, 0.0004069794, -0.04352798, -0.000870628, 0.0002593961
 267536276, 0.0004587831, -0.04370528, -0.0009505044, 0.0002593961
 267636236, 6.320434E-05, -0.04382005, -0.001028237, 0.0002593961
 267736196, -0.0002050959, -0.04369243, -0.001011014, 0.0002593961
 267836156, -0.0002162881, -0.04398616, -0.001075652, 0.0002593961
 267936116, -9.006251E-05, -0.0442304, -0.001402505, 0.0002593961
 268036076, -2.451628E-05, -0.04436317, -0.001196314, 0.0002593961
 268136036, 0.0001698556, -0.04450199, -0.001287191, 0.0002593961
 268235996, 0.0005991228, -0.04450104, -0.001414931, 0.0002593961
 268335956, 0.0007735162, -0.04510187, -0.001761922, 0.0002593961
 268435916, 0.001028371, -0.04511399, -0.00163902, 0.0002593961
 268535876, 0.001333507, -0.04528273, -0.001751017, 0.0002593961
 268635836, 0.001334205, -0.04533338, -0.001946842, 0.0002593961
 268735796, 0.001225218, -0.04551107, -0.001932731, 0.0002593961
 268835756, 0.001350928, -0.0456508, -0.001983084, 0.0002593961
 268935716, 0.00148031, -0.0457113, -0.002169302, 0.0002593961
 269035676, 0.001387029, -0.04546298, -0.002693338, 0.0002593961
 269136469, 0.001523094, -0.04586839, -0.002442294, 0.0002615578
 269236429, 0.001724108, -0.04581992, -0.002516825, 0.0002593961
 269336389, 0.002213152, -0.04564142, -0.002579737, 0.0002593961
 269436349, 0.002267464, -0.04608886, -0.002805983, 0.0002593961
 269536309, 0.002432961, -0.046071, -0.002584088, 0.0002593961
 269636269, 0.00267556, -0.04641667, -0.003063038, 0.0002593961
 269736229, 0.002770388, -0.0465495, -0.002931226, 0.0002593961
 269836189, 0.003038294, -0.04665009, -0.003177536, 0.0002593961
 269936149, 0.002956051, -0.04677892, -0.00322627, 0.0002593961
 270036109, 0.003056165, -0.04696864, -0.003642398, 0.0002593961
 270136069, 0.003068004, -0.0470956, -0.003479237, 0.0002593961
 270236029, 0.003266884, -0.04723521, -0.003750449, 0.0002593961
 270335989, 0.003463862, -0.04740636, -0.003762467, 0.0002593961
 270435949, 0.003652286, -0.04781973, -0.004066078, 0.0002593961
 270535909, 0.003906372, -0.04787332, -0.004342281, 0.0002593961
 270635869, 0.004046048, -0.04804731, -0.004269587, 0.0002593961
 270735829, 0.004337837, -0.04817704, -0.004213337, 0.0002593961
 270835789, 0.004216266, -0.04830152, -0.004720159, 0.0002593961
 270935749, 0.00443959, -0.0481705, -0.004689945, 0.0002593961
 271035709, 0.004310051, -0.04832167, -0.004932892, 0.0002593961
 271135669, 0.004461534, -0.0481142, -0.00480707, 0.0002593961
 271236462, 0.004484911, -0.04865794, -0.005235987, 0.0002615578
 271336422, 0.004495056, -0.04855133, -0.005159778, 0.0002593961
 271436382, 0.004561665, -0.04857934, -0.005553619, 0.0002593961
 271536342, 0.004794266, -0.04887421, -0.005294724, 0.0002593961
 271636302, 0.005147145, -0.04893931, -0.005961786, 0.0002593961
 271736262, 0.005307848, -0.04892701, -0.005666814, 0.0002593961
 271836222, 0.005470107, -0.0490106, -0.006147883, 0.0002593961
 271936182, 0.005657618, -0.04900392, -0.006005276, 0.0002593961
 272036142, 0.005883073, -0.04935389, -0.006327866, 0.0002593961
 272136102, 0.006009331, -0.04955799, -0.006354064, 0.0002593961
 272236062, 0.006351365, -0.04970774, -0.006735138, 0.0002593961
 272336022, 0.00653494, -0.04972295, -0.006680215, 0.0002593961
 272435982, 0.006785406, -0.04998124, -0.007191296, 0.0002593961
 272535942, 0.007180839, -0.04975468, -0.007169019, 0.0002593961
 272635902, 0.007304221, -0.04969536, -0.007686573, 0.0002593961
 272735862, 0.007635016, -0.04948688, -0.007325063, 0.0002593961
 272835822, 0.007591079, -0.04957788, -0.007949187, 0.0002593961
 272935782, 0.007993676, -0.04952399, -0.007535102, 0.0002593961
 273035742, 0.008302085, -0.05004697, -0.008071029, 0.0002593961
 273135702, 0.008322732, -0.04977946, -0.007913019, 0.0002593961
 273235662, 0.008612374, -0.05010112, -0.008377519, 0.0002593961
 273336455, 0.008932169, -0.05024533, -0.008227183, 0.0002615578
 273436415, 0.009086439, -0.05026011, -0.008589352, 0.0002593961
 273536375, 0.009235648, -0.05007382, -0.008468454, 0.0002593961
 273636335, 0.009532992, -0.05039357, -0.008789801, 0.0002593961
 273736295, 0.009523621, -0.05054195, -0.008743395, 0.0002593961
 273836255, 0.009728816, -0.05080366, -0.009267134, 0.0002593961
 273936215, 0.01025665, -0.05068111, -0.009225825, 0.0002593961
 274036175, 0.01048645, -0.05091174, -0.009602238, 0.0002593961
 274136135, 0.01081957, -0.05062837, -0.00962832, 0.0002593961
 274236095, 0.01098385, -0.05089246, -0.0102915, 0.0002593961
 274336055, 0.01116924, -0.05058956, -0.009972489, 0.0002593961
 274436015, 0.01132216, -0.05091903, -0.01033843, 0.0002593961
 274535975, 0.01180474, -0.05064735, -0.01025842, 0.0002593961
 274635935, 0.01199043, -0.05139615, -0.01062506, 0.0002593961
 274735895, 0.01246713, -0.05139085, -0.01052901, 0.0002593961
 274835855, 0.01266245, -0.05215548, -0.01123996, 0.0002593961
 274935815, 0.01288556, -0.05208929, -0.01126086, 0.0002593961
 275035775, 0.01296929, -0.05257838, -0.01174762, 0.0002593961
 275135735, 0.0131189, -0.05210617, -0.01185494, 0.0002593961
 275235695, 0.01354537, -0.05221157, -0.01261477, 0.0002593961
 275335655, 0.01392079, -0.05163197, -0.01236497, 0.0002593961
 275436448, 0.01431513, -0.05197974, -0.01272059, 0.0002615578
 275536408, 0.01448601, -0.05141876, -0.01256962, 0.0002593961
 275636368, 0.01468069, -0.05193317, -0.01273556, 0.0002593961
 275736328, 0.01501592, -0.0520129, -0.01281194, 0.0002593961
 275836288, 0.01537122, -0.05285812, -0.01333146, 0.0002593961
 275936248, 0.01554678, -0.0526888, -0.01332431, 0.0002593961
 276036208, 0.01589139, -0.05326886, -0.01393039, 0.0002593961
 276136168, 0.01616577, -0.05293481, -0.01381139, 0.0002593961
 276236128, 0.016359, -0.05334048, -0.01436361, 0.0002593961
 276336088, 0.01671009, -0.05305539, -0.01441209, 0.0002593961
 276436048, 0.01686626, -0.05336924, -0.01477782, 0.0002593961
 276536008, 0.01723864, -0.05309931, -0.01492637, 0.0002593961
 276635968, 0.01732403, -0.05319715, -0.01528421, 0.0002593961
 276735928, 0.01771777, -0.05298789, -0.01533942, 0.0002593961
 276835888, 0.01790942, -0.05338093, -0.01574644, 0.0002593961
 276935848, 0.01839256, -0.05304992, -0.01558176, 0.0002593961
 277035808, 0.01873215, -0.05372558, -0.01610871, 0.0002593961
 277135768, 0.01891406, -0.05358613, -0.01572071, 0.0002593961
 277235728, 0.01922298, -0.0537079, -0.01674802, 0.0002593961
 277335688, 0.01999064, -0.0484119, -0.01901509, 0.0002593961
 277436481, 0.02180009, -0.03704135, -0.02244887, 0.0002615578
 277536441, 0.02407594, -0.0185551, -0.02457761, 0.0002593961
 277636401, 0.02689859, 0.002824296, -0.02659191, 0.0002593961
 277736361, 0.02984454, 0.02518805, -0.02638198, 0.0002593961
 277836321, 0.0326327, 0.04502723, -0.02571464, 0.0002593961
 277936281, 0.03526358, 0.06306831, -0.02396196, 0.0002593961
 278036241, 0.03751346, 0.07695114, -0.02279427, 0.0002593961
 278136201, 0.03980849, 0.0881864, -0.02090151, 0.0002593961
 278236161, 0.041305, 0.09609373, -0.0201634, 0.0002593961
 278336121, 0.04291508, 0.1028112, -0.01892509, 0.0002593961
 278436081, 0.04414263, 0.1077262, -0.01855148, 0.0002593961
 278536041, 0.04519649, 0.111961, -0.01760891, 0.0002593961
 278636001, 0.04558109, 0.1157969, -0.01772503, 0.0002593961
 278735961, 0.04616769, 0.1197804, -0.01706355, 0.0002593961
 278835921, 0.04646841, 0.1232009, -0.01689684, 0.0002593961
 278935881, 0.04657654, 0.1271771, -0.01581578, 0.0002593961
 279035841, 0.04643558, 0.1304389, -0.01499911, 0.0002593961
 279135801, 0.04667182, 0.1336813, -0.01350214, 0.0002593961
 279235761, 0.04655509, 0.1363829, -0.01181758, 0.0002593961
 279335721, 0.04666234, 0.1386261, -0.009909366, 0.0002593961
 279435681, 0.04677653, 0.1402984, -0.007809767, 0.0002593961
 279536474, 0.04703955, 0.1425876, -0.005387759, 0.0002615578
 279636434, 0.04646005, 0.1420051, -0.003016358, 0.0002593961
 279736394, 0.04628097, 0.1418623, -0.0006513291, 0.0002593961
 279836354, 0.04598617, 0.1410221, 0.002087247, 0.0002593961
 279936314, 0.04571282, 0.1399591, 0.004699735, 0.0002593961
 280036274, 0.04531996, 0.138221, 0.007296659, 0.0002593961
 280136234, 0.04469583, 0.1360686, 0.009936214, 0.0002593961
 280236194, 0.04422559, 0.1333333, 0.01232725, 0.0002593961
 280336154, 0.04357181, 0.1301774, 0.01466763, 0.0002593961
 280436114, 0.04258188, 0.1270619, 0.01662023, 0.0002593961
 280536074, 0.04191662, 0.1233857, 0.01851957, 0.0002593961
 280636034, 0.04072426, 0.1196132, 0.01996884, 0.0002593961
 280735994, 0.03970553, 0.115798, 0.02154022, 0.0002593961
 280835954, 0.03893967, 0.1120131, 0.02279378, 0.0002593961
 280935914, 0.0377605, 0.1075202, 0.02331696, 0.0002593961
 281035874, 0.03672829, 0.1037025, 0.02469434, 0.0002593961
 281135834, 0.03543034, 0.09891365, 0.02468688, 0.0002593961
 281235794, 0.03429629, 0.09478509, 0.02460122, 0.0002593961
 281335754, 0.03328894, 0.09055394, 0.02401412, 0.0002593961
 281435714, 0.03234736, 0.08682354, 0.02308412, 0.0002593961
 281535674, 0.03127648, 0.08352624, 0.02300659, 0.0002593961
 281636467, 0.03062201, 0.0809917, 0.02239463, 0.0002615578
 281736427, 0.02931185, 0.07658719, 0.02107332, 0.0002593961
 281836387, 0.02834123, 0.07317068, 0.01981384, 0.0002593961
 281936347, 0.02745942, 0.07037366, 0.01861193, 0.0002593961
 282036307, 0.02654039, 0.06722825, 0.01712527, 0.0002593961
 282136267, 0.02579108, 0.0645851, 0.01554369, 0.0002593961
 282236227, 0.02509157, 0.06251637, 0.01414707, 0.0002593961
 282336187, 0.02435482, 0.06050744, 0.01236478, 0.0002593961
 282436147, 0.02373592, 0.05920643, 0.01130374, 0.0002593961
 282536107, 0.02313221, 0.05784118, 0.01004649, 0.0002593961
 282636067, 0.02261816, 0.0564576, 0.008720311, 0.0002593961
 282736027, 0.02193897, 0.05568052, 0.007615841, 0.0002593961
 282835987, 0.02128488, 0.05493322, 0.006059171, 0.0002593961
 282935947, 0.02144881, 0.05582283, 0.004494673, 0.0002593961
 283035907, 0.021511, 0.05815549, 0.003128773, 0.0002593961
 283135867, 0.02134267, 0.06142637, 0.00162036, 0.0002593961
 283235827, 0.02131842, 0.06521215, 0.0003887802, 0.0002593961
 283335787, 0.02126583, 0.06895638, -0.0001375339, 0.0002593961
 283435747, 0.02116507, 0.07224984, -0.000506376, 0.0002593961
 283535707, 0.02125632, 0.07471128, -0.0008055919, 0.0002593961
 283635667, 0.02129306, 0.07663684, -0.001025787, 0.0002593961
 283736460, 0.0217551, 0.07921743, -0.0009516638, 0.0002615578
 283836420, 0.02142471, 0.07916749, -0.001158795, 0.0002593961
 283936380, 0.02165425, 0.07988666, -0.001416387, 0.0002593961
 284036340, 0.02145426, 0.08055141, -0.001175974, 0.0002593961
 284136300, 0.02101704, 0.080955, -0.001136444, 0.0002593961
 284236260, 0.02075766, 0.08110689, -0.001306229, 0.0002593961
 284336220, 0.02033961, 0.08145296, -0.0008854005, 0.0002593961
 284436180, 0.01970466, 0.08164754, -0.0005896771, 0.0002593961
 284536140, 0.01902088, 0.08146649, -0.0008709818, 0.0002593961
 284636100, 0.01847142, 0.0814713, -0.0004063077, 0.0002593961
 284736060, 0.01782489, 0.08124942, -0.0002154692, 0.0002593961
 284836020, 0.01744074, 0.08092034, -9.959647E-05, 0.0002593961
 284935980, 0.01665404, 0.08074161, 0.0002796949, 0.0002593961
 285035940, 0.01630943, 0.08005024, 0.0003172093, 0.0002593961
 285135900, 0.01579535, 0.07967962, 0.0005968434, 0.0002593961
 285235860, 0.01526935, 0.07913566, 0.0006555675, 0.0002593961
 285335820, 0.01460503, 0.07876215, 0.0008979219, 0.0002593961
 285435780, 0.01424107, 0.07804609, 0.001289092, 0.0002593961
 285535740, 0.01362506, 0.07724041, 0.001140337, 0.0002593961
 285635700, 0.01294102, 0.07659364, 0.00132249, 0.0002593961
 285735660, 0.0124374, 0.07576396, 0.001465737, 0.0002593961
 285836453, 0.01214182, 0.07552618, 0.00161725, 0.0002615578
 285936413, 0.01140423, 0.07366408, 0.001647565, 0.0002593961
 286036373, 0.01081525, 0.07283915, 0.001492062, 0.0002593961
 286136333, 0.01025972, 0.07205791, 0.001771112, 0.0002593961
 286236293, 0.009609696, 0.07088322, 0.001703768, 0.0002593961
 286336253, 0.009015361, 0.06956363, 0.001639012, 0.0002593961
 286436213, 0.008091347, 0.0684418, 0.001563653, 0.0002593961
 286536173, 0.007510288, 0.067274, 0.001671319, 0.0002593961
 286636133, 0.006705338, 0.06600194, 0.001209992, 0.0002593961
 286736093, 0.006024819, 0.06506416, 0.001387528, 0.0002593961
 286836053, 0.005324, 0.06358993, 0.00141201, 0.0002593961
 286936013, 0.004454036, 0.06246606, 0.001246436, 0.0002593961
 287035973, 0.003725094, 0.06114808, 0.0009786038, 0.0002593961
 287135933, 0.002863711, 0.05984969, 0.0008804885, 0.0002593961
 287235893, 0.00232458, 0.05842732, 0.0008325595, 0.0002593961
 287335853, 0.001381318, 0.05714891, 0.0005874035, 0.0002593961
 287435813, 0.0006011647, 0.05604757, 0.0008768364, 0.0002593961
