TimeUS,COFN,COFE,COFD,CNe,CEe,CDe,POFN,POFE,POFD,PNe,PEe,PDe
 170863294, 0, 0, 0, 0, 0, 0, 0, 0, 0, 0, 0, 0
 171030727, -0.01714045, 0.02004333, -0.0029841, 0.0259971, -0.02601995, 6.343455E-05, 0, 0, 0, 0, 0, 0
 171231480, -0.01152526, -0.002566231, -2.546917E-05, 0.02536883, -0.02714283, 0.4000032, -0.01714045, 0.02004333, -0.0029841, 0.0259971, -0.02601995, 6.343455E-05
 171431400, 0.003355049, -0.003230861, 8.554566E-07, 0.02605078, -0.02752393, 0.4000039, -0.01152526, -0.002566231, -2.546917E-05, 0.02536883, -0.02714283, 0.4000032
 171631320, 0.01261543, 0.02307966, 6.152525E-05, 0.0262707, -0.02699181, 0.4000051, 0.003355049, -0.003230861, 8.554566E-07, 0.02605078, -0.02752393, 0.4000039
 171831240, 0.01036559, 0.006274783, 2.964058E-05, 0.02621318, -0.02731716, 0.4000046, 0.01261543, 0.02307966, 6.152525E-05, 0.0262707, -0.02699181, 0.4000051
 172031160, -0.01208286, -0.005347244, -3.142181E-05, 0.0257122, -0.02757514, 0.4000035, 0.01036559, 0.006274783, 2.964058E-05, 0.02621318, -0.02731716, 0.4000046
 172231080, -0.009510557, 0.006913644, -6.399706E-06, 0.0257603, -0.02730232, 0.4000044, -0.01208286, -0.005347244, -3.142181E-05, 0.0257122, -0.02757514, 0.4000035
 172431000, 0.009937458, -0.003183837, 1.342029E-05, 0.02619322, -0.02752385, 0.4000049, -0.009510557, 0.006913644, -6.399706E-06, 0.0257603, -0.02730232, 0.4000044
 172630920, 0.01729855, 0.01124145, 5.126615E-05, 0.02637698, -0.02721585, 0.4000058, 0.009937458, -0.003183837, 1.342029E-05, 0.02619322, -0.02752385, 0.4000049
 172830840, 0.008709343, -0.006054789, 6.284138E-06, 0.02616456, -0.0275938, 0.4000045, 0.01729855, 0.01124145, 5.126615E-05, 0.02637698, -0.02721585, 0.4000058
 173030760, -0.01929644, -0.01089408, -5.402962E-05, 0.02557537, -0.02770688, 0.4000031, 0.008709343, -0.006054789, 6.284138E-06, 0.02616456, -0.0275938, 0.4000045
 173230680, 0.01839069, -0.0230048, -4.019992E-06, 0.02641893, -0.02801868, 0.4000038, -0.01929644, -0.01089408, -5.402962E-05, 0.02557537, -0.02770688, 0.4000031
 173431433, 0.01981006, 0.003620026, 4.247081E-05, 0.02645914, -0.02737208, 0.4000047, 0.01839069, -0.0230048, -4.019992E-06, 0.02641893, -0.02801868, 0.4000038
 173631353, 0.01569874, 0.004119078, 3.572883E-05, 0.0263518, -0.02736023, 0.4000046, 0.01981006, 0.003620026, 4.247081E-05, 0.02645914, -0.02737208, 0.4000047
 173831273, -0.00451544, -0.02514407, -4.991093E-05, 0.02587786, -0.02807801, 0.4000024, 0.01569874, 0.004119078, 3.572883E-05, 0.0263518, -0.02736023, 0.4000046
 174031193, 0.004681354, -0.02168669, -2.743037E-05, 0.02608349, -0.02798728, 0.4000027, -0.00451544, -0.02514407, -4.991093E-05, 0.02587786, -0.02807801, 0.4000024
 174231113, -0.007317556, -0.008859671, -2.815869E-05, 0.02582049, -0.02766048, 0.4000027, 0.004681354, -0.02168669, -2.743037E-05, 0.02608349, -0.02798728, 0.4000027
 174431033, 0.005834628, -0.01632347, -1.634486E-05, 0.0261141, -0.0278442, 0.4000029, -0.007317556, -0.008859671, -2.815869E-05, 0.02582049, -0.02766048, 0.4000027
 174630953, 0.01952805, 0.02439625, 7.602228E-05, 0.02645569, -0.02696823, 0.4000051, 0.005834628, -0.01632347, -1.634486E-05, 0.0261141, -0.0278442, 0.4000029
 174830873, -0.003086755, 0.02512184, 3.575549E-05, 0.02591212, -0.02695423, 0.4000042, 0.01952805, 0.02439625, 7.602228E-05, 0.02645569, -0.02696823, 0.4000051
 175030793, 0.004640201, -0.003646369, 2.507072E-06, 0.02608566, -0.02753058, 0.4000037, -0.003086755, 0.02512184, 3.575549E-05, 0.02591212, -0.02695423, 0.4000042
 175230713, -0.006862064, -0.01280635, -3.355524E-05, 0.02583203, -0.02774866, 0.400003, 0.004640201, -0.003646369, 2.507072E-06, 0.02608566, -0.02753058, 0.4000037
 175431466, -0.01642654, -0.02118585, -6.471707E-05, 0.02564215, -0.02796406, 0.4000023, -0.006862064, -0.01280635, -3.355524E-05, 0.02583203, -0.02774866, 0.400003
 175631386, 0.02506423, -0.004389476, 3.875057E-05, 0.02660386, -0.02754417, 0.4000049, -0.01642654, -0.02118585, -6.471707E-05, 0.02564215, -0.02796406, 0.4000023
 175831306, -0.001209107, 0.02461973, 3.798042E-05, 0.02595204, -0.02695658, 0.4000048, 0.02506423, -0.004389476, 3.875057E-05, 0.02660386, -0.02754417, 0.4000049
 176031226, 0.02489269, 0.02360654, 8.408604E-05, 0.02659804, -0.0269721, 0.4000061, -0.001209107, 0.02461973, 3.798042E-05, 0.02595204, -0.02695658, 0.4000048
 176231146, 0.01836224, 0.01524298, 5.843373E-05, 0.02642379, -0.02712386, 0.4000056, 0.02489269, 0.02360654, 8.408604E-05, 0.02659804, -0.0269721, 0.4000061
 176431066, 0.002926276, -0.01400199, -1.741754E-05, 0.0260434, -0.02777388, 0.4000039, 0.01836224, 0.01524298, 5.843373E-05, 0.02642379, -0.02712386, 0.4000056
 176630986, -0.0117596, -0.01291934, -4.286072E-05, 0.02572484, -0.02774854, 0.4000035, 0.002926276, -0.01400199, -1.741754E-05, 0.0260434, -0.02777388, 0.4000039
 176830906, 0.0004235399, 0.01574152, 2.656163E-05, 0.02598064, -0.02711905, 0.400005, -0.0117596, -0.01291934, -4.286072E-05, 0.02572484, -0.02774854, 0.4000035
 177030826, 0.003596088, 0.006736206, 1.771372E-05, 0.0260526, -0.02729945, 0.4000048, 0.0004235399, 0.01574152, 2.656163E-05, 0.02598064, -0.02711905, 0.400005
 177230746, 0.01907465, -0.0213736, 3.601053E-07, 0.02643418, -0.02796935, 0.4000044, 0.003596088, 0.006736206, 1.771372E-05, 0.0260526, -0.02729945, 0.4000048
 177430666, -0.02405781, 0.01765206, -1.6042E-05, 0.02549016, -0.02708164, 0.4000045, 0.01907465, -0.0213736, 3.601053E-07, 0.02643418, -0.02796935, 0.4000044
 177631419, -0.02342718, -0.01573191, -6.973519E-05, 0.02549489, -0.02781769, 0.4000039, -0.02405781, 0.01765206, -1.6042E-05, 0.02549016, -0.02708164, 0.4000045
 177831339, 0.003786072, 0.01251104, 2.756815E-05, 0.02604563, -0.02717902, 0.400006, -0.02342718, -0.01573191, -6.973519E-05, 0.02549489, -0.02781769, 0.4000039
 178031259, 0.01382435, -0.002934903, 2.120602E-05, 0.0262903, -0.02750742, 0.4000058, 0.003786072, 0.01251104, 2.756815E-05, 0.02604563, -0.02717902, 0.400006
 178231179, 0.004981989, -0.005308343, 6.882492E-07, 0.02608109, -0.02755925, 0.4000052, 0.01382435, -0.002934903, 2.120602E-05, 0.0262903, -0.02750742, 0.4000058
 178431099, 0.02202844, -0.008757677, 2.671059E-05, 0.02651306, -0.02764001, 0.4000057, 0.004981989, -0.005308343, 6.882492E-07, 0.02608109, -0.02755925, 0.4000052
 178631019, 0.008543911, 0.02432848, 5.516492E-05, 0.02617183, -0.02695467, 0.400006, 0.02202844, -0.008757677, 2.671059E-05, 0.02651306, -0.02764001, 0.4000057
 178830939, 0.02051354, -0.00174808, 3.499701E-05, 0.02647748, -0.02747287, 0.4000058, 0.008543911, 0.02432848, 5.516492E-05, 0.02617183, -0.02695467, 0.400006
 179030859, -0.01814208, -0.01728909, -6.108422E-05, 0.02560664, -0.027847, 0.4000037, 0.02051354, -0.00174808, 3.499701E-05, 0.02647748, -0.02747287, 0.4000058
 179230779, -0.02041937, -0.01060148, -5.439814E-05, 0.02556676, -0.02767608, 0.4000039, -0.01814208, -0.01728909, -6.108422E-05, 0.02560664, -0.027847, 0.4000037
 179430699, 0.01784166, 0.00807956, 4.552563E-05, 0.02641271, -0.02725426, 0.400006, -0.02041937, -0.01060148, -5.439814E-05, 0.02556676, -0.02767608, 0.4000039
 179631452, 0.01045273, 0.007540499, 3.11522E-05, 0.02622772, -0.02726753, 0.4000054, 0.01784166, 0.00807956, 4.552563E-05, 0.02641271, -0.02725426, 0.400006
 179831372, 0.02269745, 0.0140113, 6.392396E-05, 0.0265427, -0.02713933, 0.4000061, 0.01045273, 0.007540499, 3.11522E-05, 0.02622772, -0.02726753, 0.4000054
 180031292, 0.01598609, 0.01202995, 4.846519E-05, 0.02636795, -0.02717971, 0.4000055, 0.02269745, 0.0140113, 6.392396E-05, 0.0265427, -0.02713933, 0.4000061
 180231212, -0.007519417, 0.02424382, 2.565324E-05, 0.02582427, -0.02695805, 0.4000044, 0.01598609, 0.01202995, 4.846519E-05, 0.02636795, -0.02717971, 0.4000055
 180431132, 0.008596704, -0.01194246, -3.8246E-06, 0.02618353, -0.02772381, 0.4000037, -0.007519417, 0.02424382, 2.565324E-05, 0.02582427, -0.02695805, 0.4000044
 180631052, -0.0252053, -0.0240261, -8.514938E-05, 0.02548623, -0.02803704, 0.4000021, 0.008596704, -0.01194246, -3.8246E-06, 0.02618353, -0.02772381, 0.4000037
 180830972, -0.0238372, -0.008263852, -5.690597E-05, 0.02551057, -0.02763075, 0.4000029, -0.0252053, -0.0240261, -8.514938E-05, 0.02548623, -0.02803704, 0.4000021
 181030892, -0.01870027, -0.007591435, -4.639362E-05, 0.02560427, -0.02761556, 0.4000029, -0.0238372, -0.008263852, -5.690597E-05, 0.02551057, -0.02763075, 0.4000029
 181230812, -0.01831342, 0.01183498, -1.394244E-05, 0.02561303, -0.02719313, 0.4000033, -0.01870027, -0.007591435, -4.639362E-05, 0.02560427, -0.02761556, 0.4000029
 181430732, 0.02134213, -0.007380986, 2.673556E-05, 0.02650909, -0.02761528, 0.4000041, -0.01831342, 0.01183498, -1.394244E-05, 0.02561303, -0.02719313, 0.4000033
 181631485, 0.003692245, 0.01250148, 2.725525E-05, 0.02606854, -0.02718327, 0.4000041, 0.02134213, -0.007380986, 2.673556E-05, 0.02650909, -0.02761528, 0.4000041
 181831405, -0.02000303, -0.001901437, -3.968862E-05, 0.02557784, -0.02749082, 0.4000027, 0.003692245, 0.01250148, 2.725525E-05, 0.02606854, -0.02718327, 0.4000041
 182031325, -0.02077282, 0.003029761, -3.309204E-05, 0.02556144, -0.02738324, 0.4000029, -0.02000303, -0.001901437, -3.968862E-05, 0.02557784, -0.02749082, 0.4000027
 182231245, 0.02051961, 0.02462107, 7.858747E-05, 0.02648033, -0.02696681, 0.4000051, -0.02077282, 0.003029761, -3.309204E-05, 0.02556144, -0.02738324, 0.4000029
 182431165, -0.004357126, -0.0102869, -2.520686E-05, 0.02588254, -0.02769755, 0.4000026, 0.02051961, 0.02462107, 7.858747E-05, 0.02648033, -0.02696681, 0.4000051
 182631085, -0.01266384, -0.01356304, -4.606788E-05, 0.02571028, -0.02777998, 0.4000022, -0.004357126, -0.0102869, -2.520686E-05, 0.02588254, -0.02769755, 0.4000026
 182831005, 0.02526908, -0.009944227, 3.013564E-05, 0.02660313, -0.02769155, 0.4000041, -0.01266384, -0.01356304, -4.606788E-05, 0.02571028, -0.02777998, 0.4000022
 183030925, -0.004869379, -0.01014069, -2.618238E-05, 0.02586631, -0.02770183, 0.4000024, 0.02526908, -0.009944227, 3.013564E-05, 0.02660313, -0.02769155, 0.4000041
 183230845, -0.01816734, -0.002830725, -3.844962E-05, 0.02560203, -0.02752938, 0.4000021, -0.004869379, -0.01014069, -2.618238E-05, 0.02586631, -0.02770183, 0.4000024
 183430765, 0.007357792, -0.02348815, -2.595176E-05, 0.02614589, -0.02804298, 0.4000023, -0.01816734, -0.002830725, -3.844962E-05, 0.02560203, -0.02752938, 0.4000021
 183630685, 0.01604983, 0.01683202, 5.769146E-05, 0.02636612, -0.02711564, 0.4000039, 0.007357792, -0.02348815, -2.595176E-05, 0.02614589, -0.02804298, 0.4000023
 183831438, 0.008768343, 0.008434479, 3.015614E-05, 0.02618711, -0.02727968, 0.4000033, 0.01604983, 0.01683202, 5.769146E-05, 0.02636612, -0.02711564, 0.4000039
 184031358, -0.01308968, -0.01281847, -4.523763E-05, 0.02571074, -0.02776039, 0.4000017, 0.008768343, 0.008434479, 3.015614E-05, 0.02618711, -0.02727968, 0.4000033
 184231278, -0.0186385, -0.01329896, -5.600597E-05, 0.02560705, -0.02777159, 0.4000014, -0.01308968, -0.01281847, -4.523763E-05, 0.02571074, -0.02776039, 0.4000017
 184431198, -0.02237403, -0.023418, -7.962253E-05, 0.02554031, -0.02803645, 0.4000007, -0.0186385, -0.01329896, -5.600597E-05, 0.02560705, -0.02777159, 0.4000014
 184631118, 0.005918441, 0.02213812, 4.777007E-05, 0.02612345, -0.02701587, 0.4000034, -0.02237403, -0.023418, -7.962253E-05, 0.02554031, -0.02803645, 0.4000007
 184831038, 0.0001461247, -0.02476751, -4.133054E-05, 0.02599209, -0.02807774, 0.4000011, 0.005918441, 0.02213812, 4.777007E-05, 0.02612345, -0.02701587, 0.4000034
 185030958, -0.005459669, -0.02110847, -4.529285E-05, 0.02587126, -0.02797846, 0.400001, 0.0001461247, -0.02476751, -4.133054E-05, 0.02599209, -0.02807774, 0.4000011
 185230878, -0.003674947, -0.01242918, -2.744802E-05, 0.02590746, -0.02775257, 0.4000017, -0.005459669, -0.02110847, -4.529285E-05, 0.02587126, -0.02797846, 0.400001
 185430798, -0.002503594, -0.00345557, -1.032322E-05, 0.02593189, -0.0275379, 0.4000022, -0.003674947, -0.01242918, -2.744802E-05, 0.02590746, -0.02775257, 0.4000017
 185630718, 0.01539119, -0.01331528, 5.64095E-06, 0.02635367, -0.0277764, 0.4000025, -0.002503594, -0.00345557, -1.032322E-05, 0.02593189, -0.0275379, 0.4000022
 185831471, 0.01519145, -0.005185855, 1.895689E-05, 0.02634673, -0.02758121, 0.4000028, 0.01539119, -0.01331528, 5.64095E-06, 0.02635367, -0.0277764, 0.4000025
 186031391, 0.0004844277, -0.01775136, -2.899739E-05, 0.02599511, -0.02789224, 0.4000016, 0.01519145, -0.005185855, 1.895689E-05, 0.02634673, -0.02758121, 0.4000028
 186231311, -0.01617299, 0.01801068, 8.774696E-07, 0.02565145, -0.02709472, 0.4000023, 0.0004844277, -0.01775136, -2.899739E-05, 0.02599511, -0.02789224, 0.4000016
 186431231, 0.0131225, -0.02019296, -1.010745E-05, 0.0262953, -0.02795618, 0.400002, -0.01617299, 0.01801068, 8.774696E-07, 0.02565145, -0.02709472, 0.4000023
 186631151, -0.01734921, -0.006422052, -4.253214E-05, 0.02562661, -0.02761493, 0.4000012, 0.0131225, -0.02019296, -1.010745E-05, 0.0262953, -0.02795618, 0.400002
 186831071, -0.02384116, 0.01277459, -2.195345E-05, 0.02550808, -0.02719979, 0.4000018, -0.01734921, -0.006422052, -4.253214E-05, 0.02562661, -0.02761493, 0.4000012
 187030991, -0.004388214, 0.01217177, 1.251258E-05, 0.02588473, -0.02720923, 0.4000027, -0.02384116, 0.01277459, -2.195345E-05, 0.02550808, -0.02719979, 0.4000018
 187230911, -0.005864386, 0.001927048, -7.490609E-06, 0.02585378, -0.02741979, 0.4000024, -0.004388214, 0.01217177, 1.251258E-05, 0.02588473, -0.02720923, 0.4000027
 187430831, -0.0129325, -0.0005519515, -2.47131E-05, 0.02570582, -0.0274708, 0.4000026, -0.005864386, 0.001927048, -7.490609E-06, 0.02585378, -0.02741979, 0.4000024
 187630751, -0.01613264, 0.007777858, -1.689146E-05, 0.02563969, -0.02728964, 0.4000032, -0.0129325, -0.0005519515, -2.47131E-05, 0.02570582, -0.0274708, 0.4000026
 187830671, 0.01356569, 0.01517819, 5.054634E-05, 0.02629136, -0.0271429, 0.4000048, -0.01613264, 0.007777858, -1.689146E-05, 0.02563969, -0.02728964, 0.4000032
 188031424, -0.01071975, -0.0003522181, -2.060476E-05, 0.02573922, -0.02746868, 0.4000033, 0.01356569, 0.01517819, 5.054634E-05, 0.02629136, -0.0271429, 0.4000048
 188231344, -0.007319469, -0.01944337, -4.637832E-05, 0.02580781, -0.02793512, 0.4000025, -0.01071975, -0.0003522181, -2.060476E-05, 0.02573922, -0.02746868, 0.4000033
 188431264, 0.01305593, 0.006592787, 3.547552E-05, 0.02627528, -0.02732055, 0.4000043, -0.007319469, -0.01944337, -4.637832E-05, 0.02580781, -0.02793512, 0.4000025
 188631184, -0.01371754, 0.01727788, 3.57273E-06, 0.02568266, -0.02710857, 0.4000034, 0.01305593, 0.006592787, 3.547552E-05, 0.02627528, -0.02732055, 0.4000043
 188831104, 0.011769, 0.01062116, 3.958793E-05, 0.026249, -0.02723515, 0.4000042, -0.01371754, 0.01727788, 3.57273E-06, 0.02568266, -0.02710857, 0.4000034
 189031024, 0.002759981, -0.01925951, -2.70074E-05, 0.02603807, -0.02792484, 0.4000026, 0.011769, 0.01062116, 3.958793E-05, 0.026249, -0.02723515, 0.4000042
 189230944, 0.02324424, -0.009722591, 2.654849E-05, 0.02655288, -0.02767985, 0.4000041, 0.002759981, -0.01925951, -2.70074E-05, 0.02603807, -0.02792484, 0.4000026
 189430864, 0.02515891, -0.004891766, 3.799463E-05, 0.02660683, -0.02756143, 0.4000045, 0.02324424, -0.009722591, 2.654849E-05, 0.02655288, -0.02767985, 0.4000041
 189630784, 0.01368832, 0.01133304, 4.360788E-05, 0.02630646, -0.02720824, 0.4000045, 0.02515891, -0.004891766, 3.799463E-05, 0.02660683, -0.02756143, 0.4000045
 189830704, 0.003841942, -0.02485697, -3.370756E-05, 0.026068, -0.02806468, 0.4000028, 0.01368832, 0.01133304, 4.360788E-05, 0.02630646, -0.02720824, 0.4000045
 190031457, 0.002440847, 0.02298789, 4.206218E-05, 0.02603252, -0.02698648, 0.4000049, 0.003841942, -0.02485697, -3.370756E-05, 0.026068, -0.02806468, 0.4000028
 190231377, -0.01032464, -0.01265136, -3.958819E-05, 0.02575703, -0.02774106, 0.4000034, 0.002440847, 0.02298789, 4.206218E-05, 0.02603252, -0.02698648, 0.4000049
 190431297, -0.02483172, -0.002405244, -4.946994E-05, 0.02548747, -0.02749389, 0.4000034, -0.01032464, -0.01265136, -3.958819E-05, 0.02575703, -0.02774106, 0.4000034
 190631217, 0.003322531, -0.01727386, -2.194206E-05, 0.02605396, -0.0278563, 0.4000037, -0.02483172, -0.002405244, -4.946994E-05, 0.02548747, -0.02749389, 0.4000034
 190831137, -0.02281459, 0.009089039, -2.70824E-05, 0.02552283, -0.02724726, 0.4000037, 0.003322531, -0.01727386, -2.194206E-05, 0.02605396, -0.0278563, 0.4000037
 191031057, -0.01506626, -0.001124367, -2.949683E-05, 0.02566482, -0.02746631, 0.4000037, -0.02281459, 0.009089039, -2.70824E-05, 0.02552283, -0.02724726, 0.4000037
 191230977, 0.01045095, 0.01073853, 3.66914E-05, 0.02622068, -0.0272139, 0.4000051, -0.01506626, -0.001124367, -2.949683E-05, 0.02566482, -0.02746631, 0.4000037
 191430897, 0.008742124, 0.007757507, 2.87965E-05, 0.02617817, -0.02727849, 0.4000048, 0.01045095, 0.01073853, 3.66914E-05, 0.02622068, -0.0272139, 0.4000051
 191630817, 0.01414456, -0.01079252, 8.306264E-06, 0.0263125, -0.02770028, 0.4000041, 0.008742124, 0.007757507, 2.87965E-05, 0.02617817, -0.02727849, 0.4000048
 191830737, 0.02000617, 0.01971428, 6.923763E-05, 0.02646175, -0.02704708, 0.4000057, 0.01414456, -0.01079252, 8.306264E-06, 0.0263125, -0.02770028, 0.4000041
 192030657, 0.01976479, -0.01368016, 1.420535E-05, 0.02645254, -0.02777061, 0.4000047, 0.02000617, 0.01971428, 6.923763E-05, 0.02646175, -0.02704708, 0.4000057
 192231410, -0.01733297, -0.007372313, -4.423691E-05, 0.0256153, -0.0276177, 0.4000033, 0.01976479, -0.01368016, 1.420535E-05, 0.02645254, -0.02777061, 0.4000047
 192431330, 0.01743955, -0.02263361, -4.88622E-06, 0.02639256, -0.02800519, 0.4000041, -0.01733297, -0.007372313, -4.423691E-05, 0.0256153, -0.0276177, 0.4000033
 192631250, 0.01639812, -0.01947998, -1.59955E-06, 0.02636442, -0.02792143, 0.4000042, 0.01743955, -0.02263361, -4.88622E-06, 0.02639256, -0.02800519, 0.4000041
 192831170, -0.01797343, -0.02360472, -7.221309E-05, 0.02560172, -0.02803237, 0.4000027, 0.01639812, -0.01947998, -1.59955E-06, 0.02636442, -0.02792143, 0.4000042
 193031090, -0.002765704, -0.01555599, -3.069837E-05, 0.02590806, -0.02781918, 0.4000037, -0.01797343, -0.02360472, -7.221309E-05, 0.02560172, -0.02803237, 0.4000027
 193231010, 0.01014378, -0.0176496, -1.005067E-05, 0.02620325, -0.02787277, 0.4000043, -0.002765704, -0.01555599, -3.069837E-05, 0.02590806, -0.02781918, 0.4000037
 193430930, -0.003800346, 0.0213832, 2.804685E-05, 0.02588049, -0.02701768, 0.4000053, 0.01014378, -0.0176496, -1.005067E-05, 0.02620325, -0.02787277, 0.4000043
 193630850, -0.01218714, 0.01864863, 7.803324E-06, 0.02570832, -0.02706606, 0.4000049, -0.003800346, 0.0213832, 2.804685E-05, 0.02588049, -0.02701768, 0.4000053
 193830770, 0.01173046, -0.004195802, 1.496285E-05, 0.02624501, -0.02753895, 0.400005, -0.01218714, 0.01864863, 7.803324E-06, 0.02570832, -0.02706606, 0.4000049
 194030690, 0.005166718, 0.01630681, 3.612221E-05, 0.02609024, -0.0271052, 0.4000054, 0.01173046, -0.004195802, 1.496285E-05, 0.02624501, -0.02753895, 0.400005
 194231443, -0.01448376, 0.01070753, -9.389732E-06, 0.02567232, -0.02721213, 0.4000045, 0.005166718, 0.01630681, 3.612221E-05, 0.02609024, -0.0271052, 0.4000054
 194431363, 0.001139227, 0.02051528, 3.517027E-05, 0.02600155, -0.02702098, 0.4000055, -0.01448376, 0.01070753, -9.389732E-06, 0.02567232, -0.02721213, 0.4000045
 194631283, -0.001213392, -0.01487497, -2.610675E-05, 0.0259522, -0.02778744, 0.4000041, 0.001139227, 0.02051528, 3.517027E-05, 0.02600155, -0.02702098, 0.4000055
 194831203, -0.01817663, -0.02488314, -7.301923E-05, 0.02560778, -0.02804824, 0.4000033, -0.001213392, -0.01487497, -2.610675E-05, 0.0259522, -0.02778744, 0.4000041
 195031123, -0.02276927, 0.02471656, -2.630532E-06, 0.02552251, -0.02693701, 0.4000053, -0.01817663, -0.02488314, -7.301923E-05, 0.02560778, -0.02804824, 0.4000033
 195231043, 0.01399134, -0.01837083, -3.216937E-06, 0.02630465, -0.02786897, 0.4000057, -0.02276927, 0.02471656, -2.630532E-06, 0.02552251, -0.02693701, 0.4000053
 195430963, 0.02306284, 0.02275198, 7.887588E-05, 0.02653843, -0.02696983, 0.4000078, 0.01399134, -0.01837083, -3.216937E-06, 0.02630465, -0.02786897, 0.4000057
 195630883, 0.02264709, 0.01347205, 6.337189E-05, 0.02652741, -0.02714115, 0.4000076, 0.02306284, 0.02275198, 7.887588E-05, 0.02653843, -0.02696983, 0.4000078
 195830803, -0.005712276, -0.02458271, -4.932229E-05, 0.02584229, -0.02803057, 0.4000053, 0.02264709, 0.01347205, 6.337189E-05, 0.02652741, -0.02714115, 0.4000076
 196030723, 0.005154307, -0.01094684, -7.452738E-06, 0.02608156, -0.02767188, 0.4000068, -0.005712276, -0.02458271, -4.932229E-05, 0.02584229, -0.02803057, 0.4000053
 196231476, 0.01303201, -0.01030706, 8.252664E-06, 0.02627393, -0.02765553, 0.4000071, 0.005154307, -0.01094684, -7.452738E-06, 0.02608156, -0.02767188, 0.4000068
 196431396, -0.005030675, -0.01208979, -2.826126E-05, 0.02585904, -0.02770043, 0.4000059, 0.01303201, -0.01030706, 8.252664E-06, 0.02627393, -0.02765553, 0.4000071
 196631316, -0.0007870499, 0.01771595, 2.625894E-05, 0.025952, -0.02705323, 0.400007, -0.005030675, -0.01208979, -2.826126E-05, 0.02585904, -0.02770043, 0.4000059
 196831236, 0.01382098, -0.009368199, 1.116175E-05, 0.02629271, -0.02763559, 0.400007, -0.0007870499, 0.01771595, 2.625894E-05, 0.025952, -0.02705323, 0.400007
 197031156, 0.02261154, -0.008065452, 2.984637E-05, 0.0265181, -0.02760574, 0.4000077, 0.01382098, -0.009368199, 1.116175E-05, 0.02629271, -0.02763559, 0.400007
 197231076, -0.01047011, -0.01144526, -3.77999E-05, 0.02573797, -0.02769067, 0.4000059, 0.02261154, -0.008065452, 2.984637E-05, 0.0265181, -0.02760574, 0.4000077
 197430996, -0.02214549, 0.01611476, -1.617454E-05, 0.02551581, -0.02709187, 0.4000063, -0.01047011, -0.01144526, -3.77999E-05, 0.02573797, -0.02769067, 0.4000059
 197630916, 0.004536417, -0.01086836, -8.814619E-06, 0.02606441, -0.02768255, 0.400006, -0.02214549, 0.01611476, -1.617454E-05, 0.02551581, -0.02709187, 0.4000063
 197830836, -0.006783534, -0.009343766, -2.774318E-05, 0.02581602, -0.02764895, 0.4000053, 0.004536417, -0.01086836, -8.814619E-06, 0.02606441, -0.02768255, 0.400006
 198030756, -0.01414913, -0.006630366, -3.731195E-05, 0.02566624, -0.0275861, 0.4000051, -0.006783534, -0.009343766, -2.774318E-05, 0.02581602, -0.02764895, 0.4000053
 198230676, -0.01404767, 0.007768594, -1.400697E-05, 0.02566558, -0.02726699, 0.4000057, -0.01414913, -0.006630366, -3.731195E-05, 0.02566624, -0.0275861, 0.4000051
 198431429, 0.006963531, -0.01598729, -1.271914E-05, 0.02611922, -0.027819, 0.4000055, -0.01404767, 0.007768594, -1.400697E-05, 0.02566558, -0.02726699, 0.4000057
 198631349, 0.02235784, 0.002317951, 4.58047E-05, 0.02651316, -0.02739068, 0.4000063, 0.006963531, -0.01598729, -1.271914E-05, 0.02611922, -0.027819, 0.4000055
 198831269, 0.00813893, 0.006985569, 2.662835E-05, 0.026155, -0.02729124, 0.4000055, 0.02235784, 0.002317951, 4.58047E-05, 0.02651316, -0.02739068, 0.4000063
 199031189, -0.01709113, 0.0220686, 3.978854E-06, 0.02561834, -0.02699552, 0.4000051, 0.00813893, 0.006985569, 2.662835E-05, 0.026155, -0.02729124, 0.4000055
 199231109, -0.0229924, 0.01516456, -1.828056E-05, 0.02551234, -0.02711931, 0.4000049, -0.01709113, 0.0220686, 3.978854E-06, 0.02561834, -0.02699552, 0.4000051
 199431029, -0.005174752, 0.0114972, 8.796749E-06, 0.0258576, -0.02718698, 0.4000057, -0.0229924, 0.01516456, -1.828056E-05, 0.02551234, -0.02711931, 0.4000049
 199630949, 0.0207851, -0.009656414, 2.322401E-05, 0.02647811, -0.02765403, 0.4000062, -0.005174752, 0.0114972, 8.796749E-06, 0.0258576, -0.02718698, 0.4000057
 199830869, -0.01522065, -0.003129302, -3.341179E-05, 0.02565145, -0.0274984, 0.4000052, 0.0207851, -0.009656414, 2.322401E-05, 0.02647811, -0.02765403, 0.4000062
 200030789, -0.0215705, 0.01333244, -1.910737E-05, 0.02553274, -0.02714692, 0.4000057, -0.01522065, -0.003129302, -3.341179E-05, 0.02565145, -0.0274984, 0.4000052
 200230709, -0.01722711, 0.01821385, -3.290561E-06, 0.02561305, -0.02705143, 0.4000061, -0.0215705, 0.01333244, -1.910737E-05, 0.02553274, -0.02714692, 0.4000057
 200431462, -0.024557, 0.007548514, -3.390482E-05, 0.02548142, -0.02725953, 0.4000056, -0.01722711, 0.01821385, -3.290561E-06, 0.02561305, -0.02705143, 0.4000061
 200631382, 0.007501849, -0.01375913, -7.855613E-06, 0.02614304, -0.02774966, 0.4000058, -0.024557, 0.007548514, -3.390482E-05, 0.02548142, -0.02725953, 0.4000056
 200831302, -0.02457494, -0.002228801, -4.923531E-05, 0.02548363, -0.02747054, 0.4000053, 0.007501849, -0.01375913, -7.855613E-06, 0.02614304, -0.02774966, 0.4000058
 201031222, -0.01915336, 0.003695329, -2.996283E-05, 0.0255777, -0.02733544, 0.4000061, -0.02457494, -0.002228801, -4.923531E-05, 0.02548363, -0.02747054, 0.4000053
 201231142, -0.005117023, 0.02446864, 2.855818E-05, 0.02585285, -0.02692845, 0.4000076, -0.01915336, 0.003695329, -2.996283E-05, 0.0255777, -0.02733544, 0.4000061
 201431062, 0.02157428, 0.02111195, 7.343449E-05, 0.02648932, -0.02698494, 0.4000092, -0.005117023, 0.02446864, 2.855818E-05, 0.02585285, -0.02692845, 0.4000076
 201630982, -0.0189506, -0.01954698, -6.617713E-05, 0.02557283, -0.02788622, 0.4000061, 0.02157428, 0.02111195, 7.343449E-05, 0.02648932, -0.02698494, 0.4000092
 201830902, -0.01361102, -0.0227309, -6.11834E-05, 0.02567266, -0.02797258, 0.4000062, -0.0189506, -0.01954698, -6.617713E-05, 0.02557283, -0.02788622, 0.4000061
 202030822, -0.01694254, -0.02314051, -6.823946E-05, 0.02560644, -0.02798365, 0.4000062, -0.01361102, -0.0227309, -6.11834E-05, 0.02567266, -0.02797258, 0.4000062
 202230742, -0.02545991, 0.02285239, -1.270974E-05, 0.02545302, -0.02695715, 0.4000075, -0.01694254, -0.02314051, -6.823946E-05, 0.02560644, -0.02798365, 0.4000062
 202430662, 0.01462277, 0.01022974, 4.393252E-05, 0.02630204, -0.02720077, 0.4000084, -0.02545991, 0.02285239, -1.270974E-05, 0.02545302, -0.02695715, 0.4000075
 202631415, 0.01396081, -0.00742842, 1.486451E-05, 0.02628329, -0.02759368, 0.4000077, 0.01462277, 0.01022974, 4.393252E-05, 0.02630204, -0.02720077, 0.4000084
 202831335, 0.01279259, 0.02126711, 5.814754E-05, 0.02625402, -0.02699463, 0.4000085, 0.01396081, -0.00742842, 1.486451E-05, 0.02628329, -0.02759368, 0.4000077
 203031255, -0.0176532, -0.01184829, -5.249833E-05, 0.02559107, -0.02770279, 0.4000059, 0.01279259, 0.02126711, 5.814754E-05, 0.02625402, -0.02699463, 0.4000085
 203231175, -0.02084349, 0.01434272, -1.669938E-05, 0.02553398, -0.02712957, 0.4000064, -0.0176532, -0.01184829, -5.249833E-05, 0.02559107, -0.02770279, 0.4000059
 203431095, 0.01525582, 0.0254518, 7.001047E-05, 0.02631853, -0.02693024, 0.400008, -0.02084349, 0.01434272, -1.669938E-05, 0.02553398, -0.02712957, 0.4000064
 203631015, -0.005919764, 0.02398226, 2.733679E-05, 0.02582424, -0.02695565, 0.4000071, 0.01525582, 0.0254518, 7.001047E-05, 0.02631853, -0.02693024, 0.400008
 203830935, -0.01975239, 0.02445061, 1.863751E-06, 0.02555135, -0.02695097, 0.4000064, -0.005919764, 0.02398226, 2.733679E-05, 0.02582424, -0.02695565, 0.4000071
 204030855, -0.02295566, -0.01509291, -6.843769E-05, 0.0254935, -0.02779796, 0.4000048, -0.01975239, 0.02445061, 1.863751E-06, 0.02555135, -0.02695097, 0.4000064
 204230775, 0.005156211, 0.00246995, 1.383769E-05, 0.02607069, -0.02738065, 0.4000066, -0.02295566, -0.01509291, -6.843769E-05, 0.0254935, -0.02779796, 0.4000048
 204430695, 0.000169515, 0.0209238, 3.401859E-05, 0.02596066, -0.02700976, 0.400007, 0.005156211, 0.00246995, 1.383769E-05, 0.02607069, -0.02738065, 0.4000066
 204631448, 0.01225947, 0.009804105, 3.88527E-05, 0.02624985, -0.02722001, 0.4000071, 0.000169515, 0.0209238, 3.401859E-05, 0.02596066, -0.02700976, 0.400007
 204831368, -0.01009648, -0.006029629, -2.860263E-05, 0.02574908, -0.02756431, 0.4000056, 0.01225947, 0.009804105, 3.88527E-05, 0.02624985, -0.02722001, 0.4000071
 205031288, -0.01600964, -0.00527176, -3.834186E-05, 0.0256371, -0.02754683, 0.4000052, -0.01009648, -0.006029629, -2.860263E-05, 0.02574908, -0.02756431, 0.4000056
 205231208, -0.01035637, 0.00230125, -1.558771E-05, 0.02575097, -0.02737807, 0.4000053, -0.01600964, -0.00527176, -3.834186E-05, 0.0256371, -0.02754683, 0.4000052
 205431128, 0.02518387, -0.02397074, 8.37231E-06, 0.02660019, -0.02802222, 0.4000057, -0.01035637, 0.00230125, -1.558771E-05, 0.02575097, -0.02737807, 0.4000053
 205631048, -0.02405318, 0.01326137, -2.341687E-05, 0.02549718, -0.02714817, 0.4000051, 0.02518387, -0.02397074, 8.37231E-06, 0.02660019, -0.02802222, 0.4000057
 205830968, -0.01938155, 0.0002974239, -3.540659E-05, 0.02558121, -0.02741809, 0.4000049, -0.02405318, 0.01326137, -2.341687E-05, 0.02549718, -0.02714817, 0.4000051
 206030888, -0.0148962, 0.005183797, -1.929184E-05, 0.02566605, -0.02731252, 0.4000051, -0.01938155, 0.0002974239, -3.540659E-05, 0.02558121, -0.02741809, 0.4000049
 206230808, 0.02203608, -0.01092454, 2.334619E-05, 0.02651747, -0.027681, 0.4000061, -0.0148962, 0.005183797, -1.929184E-05, 0.02566605, -0.02731252, 0.4000051
 206430728, 0.0105142, 0.01026918, 3.581111E-05, 0.02622197, -0.02720731, 0.4000063, 0.02203608, -0.01092454, 2.334619E-05, 0.02651747, -0.027681, 0.4000061
 206631481, -0.01497908, -0.01601725, -5.326082E-05, 0.02566661, -0.02781158, 0.400004, 0.0105142, 0.01026918, 3.581111E-05, 0.02622197, -0.02720731, 0.4000063
 206831401, 0.004918768, -0.0002864847, 8.639679E-06, 0.02608785, -0.02743519, 0.4000055, -0.01497908, -0.01601725, -5.326082E-05, 0.02566661, -0.02781158, 0.400004
 207031321, 0.01782282, 0.006706046, 4.384213E-05, 0.02640345, -0.02728421, 0.4000065, 0.004918768, -0.0002864847, 8.639679E-06, 0.02608785, -0.02743519, 0.4000055
 207231241, -0.00612315, -0.003909586, -1.763101E-05, 0.02584022, -0.02751673, 0.4000051, 0.01782282, 0.006706046, 4.384213E-05, 0.02640345, -0.02728421, 0.4000065
 207431161, 0.0206129, 0.01816908, 6.739239E-05, 0.02647615, -0.02705669, 0.4000071, -0.00612315, -0.003909586, -1.763101E-05, 0.02584022, -0.02751673, 0.4000051
 207631081, -0.0008397134, -0.001895247, -4.60598E-06, 0.02595327, -0.02747234, 0.4000054, 0.0206129, 0.01816908, 6.739239E-05, 0.02647615, -0.02705669, 0.4000071
 207831001, -0.01061719, 0.006538739, -9.254361E-06, 0.02574507, -0.02729042, 0.4000052, -0.0008397134, -0.001895247, -4.60598E-06, 0.02595327, -0.02747234, 0.4000054
 208030921, -0.007220561, -0.01155925, -3.215313E-05, 0.02581333, -0.02770454, 0.4000047, -0.01061719, 0.006538739, -9.254361E-06, 0.02574507, -0.02729042, 0.4000052
 208230841, 0.000931947, 0.002866072, 6.386471E-06, 0.02598848, -0.02737159, 0.4000055, -0.007220561, -0.01155925, -3.215313E-05, 0.02581333, -0.02770454, 0.4000047
 208430761, 0.01129255, -0.007625751, 8.750192E-06, 0.02623218, -0.02761343, 0.4000054, 0.000931947, 0.002866072, 6.386471E-06, 0.02598848, -0.02737159, 0.4000055
 208630681, 0.0230807, -0.01342776, 2.132469E-05, 0.02653738, -0.02775713, 0.4000056, 0.01129255, -0.007625751, 8.750192E-06, 0.02623218, -0.02761343, 0.4000054
 208831434, 0.01727319, -0.01116472, 1.414275E-05, 0.02638126, -0.02770443, 0.4000054, 0.0230807, -0.01342776, 2.132469E-05, 0.02653738, -0.02775713, 0.4000056
 209031354, -0.0123299, -0.003050586, -2.832204E-05, 0.02570174, -0.02751409, 0.4000045, 0.01727319, -0.01116472, 1.414275E-05, 0.02638126, -0.02770443, 0.4000054
 209231274, -0.01586467, 0.01564876, -4.332156E-06, 0.02563458, -0.02711638, 0.4000053, -0.0123299, -0.003050586, -2.832204E-05, 0.02570174, -0.02751409, 0.4000045
 209431194, 0.01029401, -0.002410519, 1.536608E-05, 0.02620816, -0.02748975, 0.4000057, -0.01586467, 0.01564876, -4.332156E-06, 0.02563458, -0.02711638, 0.4000053
 209631114, 0.0005303918, 0.01972247, 3.284022E-05, 0.02598345, -0.02703274, 0.4000059, 0.01029401, -0.002410519, 1.536608E-05, 0.02620816, -0.02748975, 0.4000057
 209831034, 0.01208038, 0.01990954, 5.429209E-05, 0.0262593, -0.02702448, 0.4000066, 0.0005303918, 0.01972247, 3.284022E-05, 0.02598345, -0.02703274, 0.4000059
 210030954, -0.0006652317, -0.02528312, -4.152137E-05, 0.02596193, -0.02805442, 0.4000044, 0.01208038, 0.01990954, 5.429209E-05, 0.0262593, -0.02702448, 0.4000066
 210230874, -0.01433979, 0.01855767, 3.037529E-06, 0.02567988, -0.02704385, 0.4000055, -0.0006652317, -0.02528312, -4.152137E-05, 0.02596193, -0.02805442, 0.4000044
 210430794, -0.01967863, -0.002168994, -3.959204E-05, 0.02558184, -0.02746842, 0.4000047, -0.01433979, 0.01855767, 3.037529E-06, 0.02567988, -0.02704385, 0.4000055
 210630714, -0.009478996, -0.01037841, -3.371699E-05, 0.02577899, -0.02765824, 0.400005, -0.01967863, -0.002168994, -3.959204E-05, 0.02558184, -0.02746842, 0.4000047
 210831467, -0.004186871, -0.01670438, -3.379441E-05, 0.02588954, -0.02781367, 0.4000052, -0.009478996, -0.01037841, -3.371699E-05, 0.02577899, -0.02765824, 0.400005
 211031387, -0.01156139, -0.02190185, -5.542418E-05, 0.02573882, -0.02795069, 0.4000046, -0.004186871, -0.01670438, -3.379441E-05, 0.02588954, -0.02781367, 0.4000052
 211231307, 0.001647323, 0.01830536, 3.169925E-05, 0.02602083, -0.02704006, 0.4000064, -0.01156139, -0.02190185, -5.542418E-05, 0.02573882, -0.02795069, 0.4000046
 211431227, 0.009682358, 0.007094111, 2.877937E-05, 0.02621118, -0.02725978, 0.4000064, 0.001647323, 0.01830536, 3.169925E-05, 0.02602083, -0.02704006, 0.4000064
 211631147, -0.004828714, 0.0122027, 1.027916E-05, 0.02588122, -0.02715577, 0.4000059, 0.009682358, 0.007094111, 2.877937E-05, 0.02621118, -0.02725978, 0.4000064
 211831067, 0.004012491, 0.01870215, 3.666728E-05, 0.02607791, -0.02703356, 0.4000063, -0.004828714, 0.0122027, 1.027916E-05, 0.02588122, -0.02715577, 0.4000059
 212030987, -0.01903916, 0.01600579, -9.514202E-06, 0.02559985, -0.02708563, 0.4000052, 0.004012491, 0.01870215, 3.666728E-05, 0.02607791, -0.02703356, 0.4000063
 212230907, -0.003884648, 0.01754449, 2.055689E-05, 0.02590135, -0.02705744, 0.4000058, -0.01903916, 0.01600579, -9.514202E-06, 0.02559985, -0.02708563, 0.4000052
 212430827, -0.006519428, -0.004849077, -1.95616E-05, 0.02584342, -0.02752705, 0.4000051, -0.003884648, 0.01754449, 2.055689E-05, 0.02590135, -0.02705744, 0.4000058
 212630747, 0.01481245, 0.001020051, 2.874235E-05, 0.02633684, -0.02739557, 0.4000062, -0.006519428, -0.004849077, -1.95616E-05, 0.02584342, -0.02752705, 0.4000051
 212830667, -0.02327263, -0.008603473, -5.644386E-05, 0.02551767, -0.02762105, 0.4000042, 0.01481245, 0.001020051, 2.874235E-05, 0.02633684, -0.02739557, 0.4000062
 213031420, -0.02145196, -0.006991421, -5.072621E-05, 0.0255469, -0.02758344, 0.4000045, -0.02327263, -0.008603473, -5.644386E-05, 0.02551767, -0.02762105, 0.4000042
 213231340, -0.01369649, -0.008804785, -3.942211E-05, 0.02568956, -0.02762895, 0.4000047, -0.02145196, -0.006991421, -5.072621E-05, 0.0255469, -0.02758344, 0.4000045
 213431260, 0.02500249, 0.0165769, 7.300127E-05, 0.02659591, -0.02708538, 0.4000072, -0.01369649, -0.008804785, -3.942211E-05, 0.02568956, -0.02762895, 0.4000047
 213631180, -0.01965389, 0.008319263, -2.319315E-05, 0.02557448, -0.02725008, 0.400005, 0.02500249, 0.0165769, 7.300127E-05, 0.02659591, -0.02708538, 0.4000072
 213831100, -0.01515293, 0.02108461, 5.839052E-06, 0.02565766, -0.02700759, 0.4000053, -0.01965389, 0.008319263, -2.319315E-05, 0.02557448, -0.02725008, 0.400005
 214031020, -0.004597358, 0.01119589, 9.620137E-06, 0.02587125, -0.02719879, 0.4000053, -0.01515293, 0.02108461, 5.839052E-06, 0.02565766, -0.02700759, 0.4000053
 214230940, 0.01407162, 0.02213319, 6.250668E-05, 0.02630302, -0.02699591, 0.4000063, -0.004597358, 0.01119589, 9.620137E-06, 0.02587125, -0.02719879, 0.4000053
 214430860, 0.001773921, -0.00999084, -1.301498E-05, 0.02600929, -0.02767265, 0.4000046, 0.01407162, 0.02213319, 6.250668E-05, 0.02630302, -0.02699591, 0.4000063
 214630780, -0.02533505, 0.02354939, -8.778403E-06, 0.02547562, -0.02696735, 0.4000047, 0.001773921, -0.00999084, -1.301498E-05, 0.02600929, -0.02767265, 0.4000046
 214830700, -0.005006961, -0.01366381, -3.143639E-05, 0.02586841, -0.02775945, 0.4000039, -0.02533505, 0.02354939, -8.778403E-06, 0.02547562, -0.02696735, 0.4000047
 215031453, 0.006841325, 0.01662541, 3.953015E-05, 0.02613705, -0.02709162, 0.4000055, -0.005006961, -0.01366381, -3.143639E-05, 0.02586841, -0.02775945, 0.4000039
 215231373, -0.01594686, -0.01312889, -5.044977E-05, 0.02564988, -0.02773879, 0.400004, 0.006841325, 0.01662541, 3.953015E-05, 0.02613705, -0.02709162, 0.4000055
 215431293, -0.0002712961, 0.01797887, 2.813642E-05, 0.02597395, -0.02705587, 0.4000059, -0.01594686, -0.01312889, -5.044977E-05, 0.02564988, -0.02773879, 0.400004
 215631213, 0.01366237, -0.006311108, 1.508041E-05, 0.02630617, -0.02756548, 0.4000058, -0.0002712961, 0.01797887, 2.813642E-05, 0.02597395, -0.02705587, 0.4000059
 215831133, 0.02482636, 0.007068348, 5.683456E-05, 0.02659778, -0.02726494, 0.4000072, 0.01366237, -0.006311108, 1.508041E-05, 0.02630617, -0.02756548, 0.4000058
 216031053, 0.002653921, -0.004405229, -2.033391E-06, 0.02603989, -0.02751525, 0.4000059, 0.02482636, 0.007068348, 5.683456E-05, 0.02659778, -0.02726494, 0.4000072
 216230973, -0.003844195, 0.02114972, 2.615574E-05, 0.02589921, -0.02698882, 0.4000063, 0.002653921, -0.004405229, -2.033391E-06, 0.02603989, -0.02751525, 0.4000059
 216430893, -0.02226491, -0.004239492, -4.725366E-05, 0.02554139, -0.02751132, 0.4000045, -0.003844195, 0.02114972, 2.615574E-05, 0.02589921, -0.02698882, 0.4000063
 216630813, 0.004541741, -0.001422449, 6.016118E-06, 0.02609305, -0.02744747, 0.4000054, -0.02226491, -0.004239492, -4.725366E-05, 0.02554139, -0.02751132, 0.4000045
 216830733, -0.02160504, 0.01596317, -1.411715E-05, 0.02555726, -0.02708474, 0.400005, 0.004541741, -0.001422449, 6.016118E-06, 0.02609305, -0.02744747, 0.4000054
 217031486, 0.01917071, -0.01834883, 6.116232E-06, 0.02645569, -0.02785629, 0.4000056, -0.02160504, 0.01596317, -1.411715E-05, 0.02555726, -0.02708474, 0.400005
 217231406, -0.0009060731, 0.01478306, 2.149578E-05, 0.02596816, -0.02710561, 0.400006, 0.01917071, -0.01834883, 6.116232E-06, 0.02645569, -0.02785629, 0.4000056
 217431326, -0.02062585, -0.01765672, -6.528279E-05, 0.02557204, -0.02784116, 0.400004, -0.0009060731, 0.01478306, 2.149578E-05, 0.02596816, -0.02710561, 0.400006
 217631246, 0.008002887, -0.01303728, -6.026968E-06, 0.02617201, -0.02772767, 0.400005, -0.02062585, -0.01765672, -6.528279E-05, 0.02557204, -0.02784116, 0.400004
 217831166, -0.01878558, -0.01089856, -5.194155E-05, 0.02559924, -0.02768164, 0.4000039, 0.008002887, -0.01303728, -6.026968E-06, 0.02617201, -0.02772767, 0.400005
 218031086, -0.005413876, 0.001380379, -7.769605E-06, 0.02586077, -0.02740013, 0.4000048, -0.01878558, -0.01089856, -5.194155E-05, 0.02559924, -0.02768164, 0.4000039
 218231006, -0.008715626, 0.01658162, 1.059076E-05, 0.02578919, -0.0270896, 0.4000053, -0.005413876, 0.001380379, -7.769605E-06, 0.02586077, -0.02740013, 0.4000048
 218430926, -0.004591193, -0.01273921, -2.921799E-05, 0.02587347, -0.0277365, 0.4000042, -0.008715626, 0.01658162, 1.059076E-05, 0.02578919, -0.0270896, 0.4000053
 218630846, -0.01340028, 0.01115941, -6.667289E-06, 0.02569194, -0.02720524, 0.4000045, -0.004591193, -0.01273921, -2.921799E-05, 0.02587347, -0.0277365, 0.4000042
 218830766, -0.0008409093, -0.00575125, -1.105024E-05, 0.02595157, -0.02757688, 0.4000042, -0.01340028, 0.01115941, -6.667289E-06, 0.02569194, -0.02720524, 0.4000045
 219030686, 0.003849036, 0.006366299, 1.77612E-05, 0.02605538, -0.02731084, 0.4000048, -0.0008409093, -0.00575125, -1.105024E-05, 0.02595157, -0.02757688, 0.4000042
 219231439, 0.01971717, -0.01730711, 8.267714E-06, 0.02644655, -0.02786705, 0.4000046, 0.003849036, 0.006366299, 1.77612E-05, 0.02605538, -0.02731084, 0.4000048
 219431359, 0.01536856, 0.004917035, 3.710519E-05, 0.02633182, -0.02734362, 0.4000053, 0.01971717, -0.01730711, 8.267714E-06, 0.02644655, -0.02786705, 0.4000046
 219631279, 0.02200919, 0.01317949, 6.322257E-05, 0.02650738, -0.02717453, 0.4000058, 0.01536856, 0.004917035, 3.710519E-05, 0.02633182, -0.02734362, 0.4000053
 219831199, 0.02472599, -0.006733887, 3.488511E-05, 0.02658704, -0.02760381, 0.400005, 0.02200919, 0.01317949, 6.322257E-05, 0.02650738, -0.02717453, 0.4000058
 220031119, 0.02465807, 0.01912657, 7.728879E-05, 0.02658897, -0.02705886, 0.4000057, 0.02472599, -0.006733887, 3.488511E-05, 0.02658704, -0.02760381, 0.400005
 220231039, 0.01996628, -0.01645676, 9.735619E-06, 0.02646556, -0.0278399, 0.4000042, 0.02465807, 0.01912657, 7.728879E-05, 0.02658897, -0.02705886, 0.4000057
 220430959, 0.01957426, -0.006647576, 2.506949E-05, 0.02645807, -0.02759437, 0.4000046, 0.01996628, -0.01645676, 9.735619E-06, 0.02646556, -0.0278399, 0.4000042
 220630879, 0.01835057, -0.01340561, 1.16902E-05, 0.02642891, -0.02775697, 0.4000042, 0.01957426, -0.006647576, 2.506949E-05, 0.02645807, -0.02759437, 0.4000046
 220830799, 0.007833963, 0.01246389, 3.457813E-05, 0.02616869, -0.02717672, 0.4000046, 0.01835057, -0.01340561, 1.16902E-05, 0.02642891, -0.02775697, 0.4000042
 221030719, -0.02026836, 0.0007345737, -3.555855E-05, 0.02558084, -0.02742263, 0.4000029, 0.007833963, 0.01246389, 3.457813E-05, 0.02616869, -0.02717672, 0.4000046
 221231472, -0.01323835, 0.02349929, 1.423283E-05, 0.0257158, -0.02696924, 0.4000039, -0.02026836, 0.0007345737, -3.555855E-05, 0.02558084, -0.02742263, 0.4000029
 221431392, 0.01667681, 0.003156317, 3.514465E-05, 0.02639599, -0.02736454, 0.4000045, -0.01323835, 0.02349929, 1.423283E-05, 0.0257158, -0.02696924, 0.4000039
 221631312, 0.01999833, 0.01365712, 5.805249E-05, 0.02648309, -0.02714805, 0.400005, 0.01667681, 0.003156317, 3.514465E-05, 0.02639599, -0.02736454, 0.4000045
 221831232, 0.02342102, 0.01415453, 6.511404E-05, 0.02657381, -0.02713972, 0.4000051, 0.01999833, 0.01365712, 5.805249E-05, 0.02648309, -0.02714805, 0.400005
 222031152, 0.01812724, 0.002668587, 3.700016E-05, 0.02643273, -0.02737559, 0.4000045, 0.02342102, 0.01415453, 6.511404E-05, 0.02657381, -0.02713972, 0.4000051
 222231072, -0.0106624, 0.0221383, 1.65722E-05, 0.02577027, -0.02698985, 0.4000039, 0.01812724, 0.002668587, 3.700016E-05, 0.02643273, -0.02737559, 0.4000045
 222430992, -0.002930878, 0.02205847, 3.034879E-05, 0.02593272, -0.02699125, 0.4000041, -0.0106624, 0.0221383, 1.65722E-05, 0.02577027, -0.02698985, 0.4000039
 222630912, 0.0003036277, -0.001180677, -1.371873E-06, 0.02600387, -0.02746348, 0.4000033, -0.002930878, 0.02205847, 3.034879E-05, 0.02593272, -0.02699125, 0.4000041
 222830832, 0.01415413, 0.01758042, 5.410527E-05, 0.02633451, -0.02708061, 0.4000042, 0.0003036277, -0.001180677, -1.371873E-06, 0.02600387, -0.02746348, 0.4000033
 223030752, 0.01483595, -0.01847388, -3.586223E-06, 0.02635196, -0.02788852, 0.4000028, 0.01415413, 0.01758042, 5.410527E-05, 0.02633451, -0.02708061, 0.4000042
 223230672, -0.02139233, 0.01465281, -1.442916E-05, 0.0255661, -0.02713927, 0.4000026, 0.01483595, -0.01847388, -3.586223E-06, 0.02635196, -0.02788852, 0.4000028
 223431425, 0.01235937, -0.014779, -0.07512324, 0.02690112, -0.02842295, 0.4000029, -0.02139233, 0.01465281, -1.442916E-05, 0.0255661, -0.02713927, 0.4000026
 223631345, 0.005437333, 0.01864687, -0.1306121, 0.0282297, -0.02874287, 0.4000055, 0.01235937, -0.014779, -0.07512324, 0.02690112, -0.02842295, 0.4000029
 223831265, 0.004490546, 0.01540028, -0.3401387, 0.0323411, -0.02947677, 0.4000018, 0.005437333, 0.01864687, -0.1306121, 0.0282297, -0.02874287, 0.4000055
 224031185, 0.01317072, -0.006117578, -0.789112, 0.0399233, -0.03511591, 0.4000015, 0.004490546, 0.01540028, -0.3401387, 0.0323411, -0.02947677, 0.4000018
 224231105, -0.02781289, 0.005141042, -1.12517, 0.0496502, -0.04483552, 0.4000006, 0.01317072, -0.006117578, -0.789112, 0.0399233, -0.03511591, 0.4000015
 224431025, 0.05580461, -0.06069332, -1.45592, 0.06463915, -0.05966859, 0.3999925, -0.02781289, 0.005141042, -1.12517, 0.0496502, -0.04483552, 0.4000006
 224630945, 0.06560605, -0.1030563, -1.774962, 0.08134039, -0.07715542, 0.3999802, 0.05580461, -0.06069332, -1.45592, 0.06463915, -0.05966859, 0.3999925
 224830865, 0.03567459, 0.04119394, -2.005152, 0.1004878, -0.09561992, 0.3999539, 0.06560605, -0.1030563, -1.774962, 0.08134039, -0.07715542, 0.3999802
 225030785, 0.04998713, -0.07397373, -2.268263, 0.12267, -0.1189233, 0.3999308, 0.03567459, 0.04119394, -2.005152, 0.1004878, -0.09561992, 0.3999539
 225230705, 0.08013116, -0.04215546, -2.440122, 0.1473919, -0.143563, 0.3999207, 0.04998713, -0.07397373, -2.268263, 0.12267, -0.1189233, 0.3999308
 225431458, -0.02213909, -0.1899887, -2.640806, 0.1731822, -0.1718653, 0.3999471, 0.08013116, -0.04215546, -2.440122, 0.1473919, -0.143563, 0.3999207
 225631378, -0.1320647, 0.01613847, -2.890435, 0.2014346, -0.1992442, 0.3999868, -0.02213909, -0.1899887, -2.640806, 0.1731822, -0.1718653, 0.3999471
 225831298, -0.0183935, -0.2875506, -2.993397, 0.2316283, -0.2317593, 0.4000674, -0.1320647, 0.01613847, -2.890435, 0.2014346, -0.1992442, 0.3999868
 226031218, -0.03375491, -0.1224619, -3.137562, 0.2639004, -0.2632224, 0.4001155, -0.0183935, -0.2875506, -2.993397, 0.2316283, -0.2317593, 0.4000674
 226231138, 0.2021796, -0.07494934, -3.246785, 0.3015325, -0.2932162, 1.000023, -0.03375491, -0.1224619, -3.137562, 0.2639004, -0.2632224, 0.4001155
 226431058, 0.2275324, -0.2278236, -3.395636, 0.3365781, -0.3294387, 0.9999048, 0.2021796, -0.07494934, -3.246785, 0.3015325, -0.2932162, 1.000023
 226630978, 0.2638284, -0.188572, -3.435904, 0.3719895, -0.3644384, 0.999818, 0.2275324, -0.2278236, -3.395636, 0.3365781, -0.3294387, 0.9999048
 226830898, -0.2283656, 0.2238118, -3.521782, 0.4048373, -0.3985111, 0.9998263, 0.2638284, -0.188572, -3.435904, 0.3719895, -0.3644384, 0.999818
 227030818, -0.2301878, -0.3116702, -3.612795, 0.4417241, -0.4388614, 0.9998747, -0.2283656, 0.2238118, -3.521782, 0.4048373, -0.3985111, 0.9998263
 227230738, -0.2214526, 0.3455019, -3.660344, 0.4789326, -0.4728918, 1.000203, -0.2301878, -0.3116702, -3.612795, 0.4417241, -0.4388614, 0.9998747
 227430658, -0.2225045, -0.1687362, -3.563797, 0.515314, -0.5120054, 1.000565, -0.2214526, 0.3455019, -3.660344, 0.4789326, -0.4728918, 1.000203
 227631411, -0.2085358, 0.1106974, -3.246964, 0.5474172, -0.547176, 1.000919, -0.2225045, -0.1687362, -3.563797, 0.515314, -0.5120054, 1.000565
 227831331, 0.2702318, 0.355194, -3.010493, 0.5760732, -0.5847585, 1.000577, -0.2085358, 0.1106974, -3.246964, 0.5474172, -0.547176, 1.000919
 228031251, -0.1381567, 0.3772944, -2.625201, 0.5983805, -0.6178503, 1.000219, 0.2702318, 0.355194, -3.010493, 0.5760732, -0.5847585, 1.000577
 228231171, 0.6600368, 0.4704331, -2.30004, 0.6040133, -0.6450845, 1.013479, -0.1381567, 0.3772944, -2.625201, 0.5983805, -0.6178503, 1.000219
 228431091, 0.3352466, 0.5472111, -1.951601, 0.571848, -0.6692845, 1.041445, 0.6600368, 0.4704331, -2.30004, 0.6040133, -0.6450845, 1.013479
 228631011, 0.3091115, 0.2337804, -1.653687, 0.5455875, -0.6908952, 1.064742, 0.3352466, 0.5472111, -1.951601, 0.571848, -0.6692845, 1.041445
 228830931, -0.02287504, 0.2961189, -1.436551, 0.5388267, -0.7086245, 1.07554, 0.3091115, 0.2337804, -1.653687, 0.5455875, -0.6908952, 1.064742
 229030851, -0.2971588, 0.01409424, -1.322609, 0.5414633, -0.7246922, 1.0812, -0.02287504, 0.2961189, -1.436551, 0.5388267, -0.7086245, 1.07554
 229230771, -0.2196118, 0.4870592, -1.125657, 0.54656, -0.7351525, 1.085879, -0.2971588, 0.01409424, -1.322609, 0.5414633, -0.7246922, 1.0812
 229430691, -1.152691, 0.3228642, -1.106816, 0.5520844, -0.7452831, 1.090946, -0.2196118, 0.4870592, -1.125657, 0.54656, -0.7351525, 1.085879
 229631444, -0.4310037, 0.7096909, -0.8899304, 0.5484385, -0.75524, 1.096451, -1.152691, 0.3228642, -1.106816, 0.5520844, -0.7452831, 1.090946
 229831364, -1.679075, -0.2238346, -1.099031, 0.5688672, -0.7700422, 1.091936, -0.4310037, 0.7096909, -0.8899304, 0.5484385, -0.75524, 1.096451
 230031284, -0.4655223, -0.4585283, -0.7801596, 0.6424031, -0.7133736, 1.096609, -1.679075, -0.2238346, -1.099031, 0.5688672, -0.7700422, 1.091936
 230231204, -1.824776, -0.7506809, -1.117321, 0.7631733, -0.5186451, 1.141267, -0.4655223, -0.4585283, -0.7801596, 0.6424031, -0.7133736, 1.096609
 230431124, 0.06491028, -1.705155, -0.700868, 0.837737, -0.2237105, 1.195327, -1.824776, -0.7506809, -1.117321, 0.7631733, -0.5186451, 1.141267
 230631044, 0.1781863, -0.9570739, -0.6660543, 0.8192406, 0.1423574, 1.223181, 0.06491028, -1.705155, -0.700868, 0.837737, -0.2237105, 1.195327
 230830964, 1.899122, -1.099174, -0.2050735, 0.7342017, 0.4737962, 1.214598, 0.1781863, -0.9570739, -0.6660543, 0.8192406, 0.1423574, 1.223181
 231030884, 2.353093, -1.08217, -0.151839, 0.5832379, 0.7411547, 1.175019, 1.899122, -1.099174, -0.2050735, 0.7342017, 0.4737962, 1.214598
 231230804, 1.684817, 0.4483652, -0.3185326, 0.4019217, 0.9257932, 1.121626, 2.353093, -1.08217, -0.151839, 0.5832379, 0.7411547, 1.175019
 231430724, 2.881738, 1.335129, -0.1442885, 0.3080171, 1.048325, 1.076718, 1.684817, 0.4483652, -0.3185326, 0.4019217, 0.9257932, 1.121626
 231631477, 2.666868, 1.084679, -0.19293, 0.2743853, 1.077558, 1.063727, 2.881738, 1.335129, -0.1442885, 0.3080171, 1.048325, 1.076718
 231831397, 2.923608, 1.753429, -0.1717166, 0.3233566, 1.043614, 1.109249, 2.666868, 1.084679, -0.19293, 0.2743853, 1.077558, 1.063727
 232031317, 2.7057, 1.464584, -0.1737625, 0.3832225, 0.9512947, 1.178967, 2.923608, 1.753429, -0.1717166, 0.3233566, 1.043614, 1.109249
 232231237, 2.4896, 0.3101838, -0.2644487, 0.4421959, 0.8459602, 1.240346, 2.7057, 1.464584, -0.1737625, 0.3832225, 0.9512947, 1.178967
 232431157, 2.752328, 0.8313506, -0.1746415, 0.4984456, 0.7867208, 1.27952, 2.4896, 0.3101838, -0.2644487, 0.4421959, 0.8459602, 1.240346
 232631077, 3.462209, -0.5069091, -0.1100596, 0.5395105, 0.7698081, 1.29617, 2.752328, 0.8313506, -0.1746415, 0.4984456, 0.7867208, 1.27952
 232830997, 3.845273, 0.1511652, -0.01019299, 0.542431, 0.8106053, 1.295238, 3.462209, -0.5069091, -0.1100596, 0.5395105, 0.7698081, 1.29617
 233030917, 4.425135, -0.1473254, 0.2222469, 0.5275008, 0.8756081, 1.288856, 3.845273, 0.1511652, -0.01019299, 0.542431, 0.8106053, 1.295238
 233230837, 3.375779, 0.4116649, -0.1619438, 0.4624786, 0.9438217, 1.264897, 4.425135, -0.1473254, 0.2222469, 0.5275008, 0.8756081, 1.288856
 233430757, 4.675971, 0.8953058, 0.2511357, 0.4701664, 0.9990833, 1.270741, 3.375779, 0.4116649, -0.1619438, 0.4624786, 0.9438217, 1.264897
 233630677, 4.825243, 0.5067082, 0.2727171, 0.4672686, 1.023564, 1.275736, 4.675971, 0.8953058, 0.2511357, 0.4701664, 0.9990833, 1.270741
 233831430, 4.773344, -0.1448771, 0.1389227, 0.4890271, 1.026467, 1.284647, 4.825243, 0.5067082, 0.2727171, 0.4672686, 1.023564, 1.275736
 234031350, 4.117512, 1.109484, -0.2627431, 0.5420966, 1.023037, 1.282463, 4.773344, -0.1448771, 0.1389227, 0.4890271, 1.026467, 1.284647
 234231270, 4.719071, -0.257643, -0.1076093, 0.6078761, 1.008162, 1.297445, 4.117512, 1.109484, -0.2627431, 0.5420966, 1.023037, 1.282463
 234431190, 5.493546, -0.5913605, 0.1350391, 0.6489054, 1.008609, 1.322488, 4.719071, -0.257643, -0.1076093, 0.6078761, 1.008162, 1.297445
 234631110, 3.61308, 0.8820281, -0.3810679, 0.6087742, 1.025048, 1.316732, 5.493546, -0.5913605, 0.1350391, 0.6489054, 1.008609, 1.322488
 234831030, 4.880885, 0.6794229, 0.1204243, 0.6516268, 1.048568, 1.328706, 3.61308, 0.8820281, -0.3810679, 0.6087742, 1.025048, 1.316732
 235030950, 5.08861, 1.101279, 0.2460594, 0.6699793, 1.080085, 1.327049, 4.880885, 0.6794229, 0.1204243, 0.6516268, 1.048568, 1.328706
 235230870, 3.765333, -0.7658318, -0.1891111, 0.642349, 1.099294, 1.311505, 5.08861, 1.101279, 0.2460594, 0.6699793, 1.080085, 1.327049
 235430790, 3.670563, 0.1106169, -0.1293026, 0.6482017, 1.121761, 1.312747, 3.765333, -0.7658318, -0.1891111, 0.642349, 1.099294, 1.311505
 235630710, 4.481452, -0.5815923, 0.2020675, 0.6755311, 1.137729, 1.322896, 3.670563, 0.1106169, -0.1293026, 0.6482017, 1.121761, 1.312747
 235831463, 5.252511, 0.2165341, 0.4118986, 0.7115259, 1.151766, 1.334596, 4.481452, -0.5815923, 0.2020675, 0.6755311, 1.137729, 1.322896
 236031383, 5.616254, 0.2365072, 0.5958341, 0.7406805, 1.161433, 1.343423, 5.252511, 0.2165341, 0.4118986, 0.7115259, 1.151766, 1.334596
 236231303, 4.558151, -0.6758724, 0.2211586, 0.7282147, 1.166264, 1.338135, 5.616254, 0.2365072, 0.5958341, 0.7406805, 1.161433, 1.343423
 236431223, 3.857309, 1.260684, 0.06032801, 0.7292488, 1.182147, 1.33956, 4.558151, -0.6758724, 0.2211586, 0.7282147, 1.166264, 1.338135
 236631143, 4.939308, -0.2214905, 0.4420418, 0.7659369, 1.186626, 1.352475, 3.857309, 1.260684, 0.06032801, 0.7292488, 1.182147, 1.33956
 236831063, 5.448287, 0.181313, 0.5282792, 0.790929, 1.201776, 1.360014, 4.939308, -0.2214905, 0.4420418, 0.7659369, 1.186626, 1.352475
 237030983, 4.578572, -0.2882178, 0.259949, 0.7791192, 1.214145, 1.354679, 5.448287, 0.181313, 0.5282792, 0.790929, 1.201776, 1.360014
 237230903, 5.174016, 0.8013249, 0.5130588, 0.8059425, 1.233058, 1.363731, 4.578572, -0.2882178, 0.259949, 0.7791192, 1.214145, 1.354679
 237430823, 4.161394, -0.7979085, 0.1563818, 0.7897351, 1.240921, 1.358327, 5.174016, 0.8013249, 0.5130588, 0.8059425, 1.233058, 1.363731
 237630743, 4.071744, -0.3795983, 0.0788945, 0.7990168, 1.253672, 1.362043, 4.161394, -0.7979085, 0.1563818, 0.7897351, 1.240921, 1.358327
 237830663, 5.313416, -0.229581, 0.5462637, 0.8399282, 1.267226, 1.377042, 4.071744, -0.3795983, 0.0788945, 0.7990168, 1.253672, 1.362043
 238031416, 3.763878, 0.5140455, 0.04728079, 0.8166096, 1.279423, 1.370086, 5.313416, -0.229581, 0.5462637, 0.8399282, 1.267226, 1.377042
 238231336, 5.711851, -0.7755992, 0.6283917, 0.8722857, 1.29096, 1.389549, 3.763878, 0.5140455, 0.04728079, 0.8166096, 1.279423, 1.370086
 238431256, 4.306014, -0.9743313, 0.1638966, 0.8501099, 1.301464, 1.38192, 5.711851, -0.7755992, 0.6283917, 0.8722857, 1.29096, 1.389549
 238631176, 4.966938, 0.863546, 0.4881351, 0.8771903, 1.318328, 1.393437, 4.306014, -0.9743313, 0.1638966, 0.8501099, 1.301464, 1.38192
 238831096, 3.52693, -0.1622563, -0.05007076, 0.8536791, 1.325141, 1.38948, 4.966938, 0.863546, 0.4881351, 0.8771903, 1.318328, 1.393437
 239031016, 4.530249, -0.09371877, 0.3263191, 0.8840431, 1.338734, 1.400431, 3.52693, -0.1622563, -0.05007076, 0.8536791, 1.325141, 1.38948
 239230936, 4.906489, 0.573566, 0.4399253, 0.906765, 1.354179, 1.405426, 4.530249, -0.09371877, 0.3263191, 0.8840431, 1.338734, 1.400431
 239430856, 4.108463, 0.5783946, 0.1737998, 0.9025472, 1.366793, 1.401617, 4.906489, 0.573566, 0.4399253, 0.906765, 1.354179, 1.405426
 239630776, 5.686487, 1.076102, 0.7180731, 0.9514969, 1.385257, 1.415593, 4.108463, 0.5783946, 0.1737998, 0.9025472, 1.366793, 1.401617
 239830696, 5.865785, -1.072818, 0.6979007, 0.965325, 1.393889, 1.418724, 5.686487, 1.076102, 0.7180731, 0.9514969, 1.385257, 1.415593
 240031449, 5.838146, 1.055025, 0.7541984, 0.9796365, 1.411048, 1.423217, 5.865785, -1.072818, 0.6979007, 0.965325, 1.393889, 1.418724
 240231369, 5.977162, 0.9183704, 0.7545209, 0.995706, 1.420523, 1.429452, 5.838146, 1.055025, 0.7541984, 0.9796365, 1.411048, 1.423217
 240431289, 3.52925, 0.554655, -0.06710625, 0.9558765, 1.42698, 1.416636, 5.977162, 0.9183704, 0.7545209, 0.995706, 1.420523, 1.429452
 240631209, 4.260015, 1.436816, 0.2386516, 0.9821761, 1.444261, 1.426349, 3.52925, 0.554655, -0.06710625, 0.9558765, 1.42698, 1.416636
 240831129, 3.948608, 0.1643726, 0.02689981, 0.9875355, 1.447978, 1.428503, 4.260015, 1.436816, 0.2386516, 0.9821761, 1.444261, 1.426349
 241031049, 5.887346, 1.218391, 0.7609617, 1.042491, 1.467376, 1.447848, 3.948608, 0.1643726, 0.02689981, 0.9875355, 1.447978, 1.428503
 241230969, 5.079983, 1.113623, 0.4997786, 1.034201, 1.478219, 1.445593, 5.887346, 1.218391, 0.7609617, 1.042491, 1.467376, 1.447848
 241430889, 5.244984, -0.6856818, 0.478598, 1.047192, 1.484373, 1.450908, 5.079983, 1.113623, 0.4997786, 1.034201, 1.478219, 1.445593
 241630809, 3.611431, -0.9920844, -0.05157626, 1.027063, 1.495268, 1.445013, 5.244984, -0.6856818, 0.478598, 1.047192, 1.484373, 1.450908
 241830729, 5.216583, 0.8513377, 0.5730269, 1.070426, 1.513102, 1.460576, 3.611431, -0.9920844, -0.05157626, 1.027063, 1.495268, 1.445013
 242031482, 3.330175, 1.233695, -0.159691, 1.046589, 1.52704, 1.45296, 5.216583, 0.8513377, 0.5730269, 1.070426, 1.513102, 1.460576
 242231402, 3.964582, -0.5866026, 0.03231525, 1.07153, 1.532341, 1.457628, 3.330175, 1.233695, -0.159691, 1.046589, 1.52704, 1.45296
 242431322, 3.813035, 1.286853, 9.417534E-05, 1.126181, 1.553363, 1.426491, 3.964582, -0.5866026, 0.03231525, 1.07153, 1.532341, 1.457628
 242631242, 5.4267, -0.4193755, 0.2768539, 1.210542, 1.559753, 1.401556, 3.813035, 1.286853, 9.417534E-05, 1.126181, 1.553363, 1.426491
 242831162, 3.708689, -0.574942, -0.07178283, 1.203988, 1.57069, 1.381124, 5.4267, -0.4193755, 0.2768539, 1.210542, 1.559753, 1.401556
 243031082, 5.321772, -1.3246, 0.415047, 1.252323, 1.584989, 1.379575, 3.708689, -0.574942, -0.07178283, 1.203988, 1.57069, 1.381124
 243231002, 5.575396, 1.241277, 0.5604129, 1.28737, 1.603977, 1.362134, 5.321772, -1.3246, 0.415047, 1.252323, 1.584989, 1.379575
 243430922, 3.540093, 1.262645, 0.1997389, 1.231775, 1.615252, 1.370716, 5.575396, 1.241277, 0.5604129, 1.28737, 1.603977, 1.362134
 243630842, 2.995458, -0.4418689, 0.3852361, 1.17641, 1.613717, 1.415652, 3.540093, 1.262645, 0.1997389, 1.231775, 1.615252, 1.370716
 243830762, 2.646316, 0.7826499, 0.4799356, 1.156008, 1.612769, 1.444517, 2.995458, -0.4418689, 0.3852361, 1.17641, 1.613717, 1.415652
 244030682, 5.072386, -1.410344, 1.491143, 1.207631, 1.593797, 1.473846, 2.646316, 0.7826499, 0.4799356, 1.156008, 1.612769, 1.444517
 244231435, 3.194332, -0.02972079, 1.034451, 1.182019, 1.577608, 1.478628, 5.072386, -1.410344, 1.491143, 1.207631, 1.593797, 1.473846
 244431355, 4.912208, -0.7008278, 1.807739, 1.206758, 1.561972, 1.511936, 3.194332, -0.02972079, 1.034451, 1.182019, 1.577608, 1.478628
 244631275, 4.466464, 0.3003008, 1.854332, 1.182242, 1.555569, 1.530274, 4.912208, -0.7008278, 1.807739, 1.206758, 1.561972, 1.511936
 244831195, 3.958703, -1.338775, 1.871682, 1.15547, 1.546475, 1.543748, 4.466464, 0.3003008, 1.854332, 1.182242, 1.555569, 1.530274
 245031115, 5.410337, 0.6728061, 2.534716, 1.179794, 1.546969, 1.560271, 3.958703, -1.338775, 1.871682, 1.15547, 1.546475, 1.543748
 245231035, 4.736278, 1.016953, 2.171271, 1.206053, 1.543518, 1.520271, 5.410337, 0.6728061, 2.534716, 1.179794, 1.546969, 1.560271
 245430955, 4.355956, -0.05851537, 1.930641, 1.231553, 1.531835, 1.487838, 4.736278, 1.016953, 2.171271, 1.206053, 1.543518, 1.520271
 245630875, 2.978743, -1.02777, 1.449526, 1.207939, 1.525147, 1.476784, 4.355956, -0.05851537, 1.930641, 1.231553, 1.531835, 1.487838
 245830795, 5.357953, 0.1790565, 2.327044, 1.239775, 1.520909, 1.502046, 2.978743, -1.02777, 1.449526, 1.207939, 1.525147, 1.476784
 246030715, 3.151868, -0.3597869, 1.568635, 1.190172, 1.512618, 1.491098, 5.357953, 0.1790565, 2.327044, 1.239775, 1.520909, 1.502046
 246231468, 3.685773, 0.2774187, 1.784187, 1.19904, 1.507623, 1.492676, 3.151868, -0.3597869, 1.568635, 1.190172, 1.512618, 1.491098
 246431388, 5.02845, 0.9952578, 2.183367, 1.224487, 1.505379, 1.500628, 3.685773, 0.2774187, 1.784187, 1.19904, 1.507623, 1.492676
 246631308, 3.187839, 0.6084213, 1.508427, 1.18533, 1.49807, 1.489121, 5.02845, 0.9952578, 2.183367, 1.224487, 1.505379, 1.500628
 246831228, 4.723702, 0.6806183, 2.061996, 1.209057, 1.492806, 1.500559, 3.187839, 0.6084213, 1.508427, 1.18533, 1.49807, 1.489121
 247031148, 3.219541, -0.1864702, 1.592024, 1.178159, 1.48416, 1.490508, 4.723702, 0.6806183, 2.061996, 1.209057, 1.492806, 1.500559
 247231068, 3.034584, 0.5329658, 1.491203, 1.171445, 1.48262, 1.488198, 3.219541, -0.1864702, 1.592024, 1.178159, 1.48416, 1.490508
 247430988, 4.236319, -0.3407595, 1.974647, 1.190168, 1.473789, 1.493772, 3.034584, 0.5329658, 1.491203, 1.171445, 1.48262, 1.488198
 247630908, 3.677385, 1.055889, 1.803931, 1.175942, 1.476348, 1.488551, 4.236319, -0.3407595, 1.974647, 1.190168, 1.473789, 1.493772
 247830828, 5.566124, 0.1894187, 2.439923, 1.213135, 1.464949, 1.501894, 3.677385, 1.055889, 1.803931, 1.175942, 1.476348, 1.488551
 248030748, 5.791689, 0.4061617, 2.559414, 1.215979, 1.460698, 1.502624, 5.566124, 0.1894187, 2.439923, 1.213135, 1.464949, 1.501894
