TimeUS,COFN,COFE,COFD,CNe,CEe,CDe,POFN,POFE,POFD,PNe,PEe,PDe
 139993980, 0, 0, 0, 0, 0, 0, 0, 0, 0, 0, 0, 0
 140093940, 0, 0, 0, 0, 0, 0, 0, 0, 0, 0, 0, 0
 140193900, 0, 0, 0, 0, 0, 0, 0, 0, 0, 0, 0, 0
 140293860, 0, 0, 0, 0, 0, 0, 0, 0, 0, 0, 0, 0
 140393820, 0, 0, 0, 0, 0, 0, 0, 0, 0, 0, 0, 0
 140493780, 0, 0, 0, 0, 0, 0, 0, 0, 0, 0, 0, 0
 140593740, 0, 0, 0, 0, 0, 0, 0, 0, 0, 0, 0, 0
 140693700, 0, 0, 0, 0, 0, 0, 0, 0, 0, 0, 0, 0
 140793660, 0, 0, 0, 0, 0, 0, 0, 0, 0, 0, 0, 0
 140893620, 0, 0, 0, 0, 0, 0, 0, 0, 0, 0, 0, 0
 140993580, 0, 0, 0, 0, 0, 0, 0, 0, 0, 0, 0, 0
 141093540, 0, 0, 0, 0, 0, 0, 0, 0, 0, 0, 0, 0
 141193500, 0, 0, 0, 0, 0, 0, 0, 0, 0, 0, 0, 0
 141294293, 0, 0, 0, 0, 0, 0, 0, 0, 0, 0, 0, 0
 141394253, 0, 0, 0, 0, 0, 0, 0, 0, 0, 0, 0, 0
 141494213, 0, 0, 0, 0, 0, 0, 0, 0, 0, 0, 0, 0
 141594173, 0, 0, 0, 0, 0, 0, 0, 0, 0, 0, 0, 0
 141694133, 0, 0, 0, 0, 0, 0, 0, 0, 0, 0, 0, 0
 141794093, 0, 0, 0, 0, 0, 0, 0, 0, 0, 0, 0, 0
 141894053, 0, 0, 0, 0, 0, 0, 0, 0, 0, 0, 0, 0
 141994013, 0, 0, 0, 0, 0, 0, 0, 0, 0, 0, 0, 0
 142113965, 0, 0, 0, 0, 0, 0, 0, 0, 0, 0, 0, 0
 142213925, 0, 0, 0, 0, 0, 0, 0, 0, 0, 0, 0, 0
 142313885, 0, 0, 0, 0, 0, 0, 0, 0, 0, 0, 0, 0
 142413845, 0, 0, 0, 0, 0, 0, 0, 0, 0, 0, 0, 0
 142513805, 0, 0, 0, 0, 0, 0, 0, 0, 0, 0, 0, 0
 142613765, 0, 0, 0, 0, 0, 0, 0, 0, 0, 0, 0, 0
 142713725, 0, 0, 0, 0, 0, 0, 0, 0, 0, 0, 0, 0
 142813685, 0, 0, 0, 0, 0, 0, 0, 0, 0, 0, 0, 0
 142913645, 0, 0, 0, 0, 0, 0, 0, 0, 0, 0, 0, 0
 143013605, 0, 0, 0, 0, 0, 0, 0, 0, 0, 0, 0, 0
 143113565, 0, 0, 0, 0, 0, 0, 0, 0, 0, 0, 0, 0
 143213525, 0, 0, 0, 0, 0, 0, 0, 0, 0, 0, 0, 0
 143313485, 0, 0, 0, 0, 0, 0, 0, 0, 0, 0, 0, 0
 143414278, -0.0715434, 0.009882943, 0.006351996, 0.007439192, 0.002403819, -0.0006032691, 0, 0, 0, 0, 0, 0
 143514238, -0.2494136, 0.02769558, -0.03099691, 0.1086025, -0.007884898, 0.994139, -0.0715434, 0.009882943, 0.006351996, 0.007439192, 0.002403819, -0.0006032691
 143614198, 0.5455862, -0.06078383, -0.1146122, 0.9923099, -0.1051712, 0.9061434, -0.2494136, 0.02769558, -0.03099691, 0.1086025, -0.007884898, 0.994139
 143714158, 0.1127846, -0.0106121, -0.07192703, 0.143379, -0.01001273, 0.9905099, 0.5455862, -0.06078383, -0.1146122, 0.9923099, -0.1051712, 0.9061434
 143814118, 0.06088932, -0.009410022, -0.06697692, 0.1267554, -0.007497442, 0.9921069, 0.1127846, -0.0106121, -0.07192703, 0.143379, -0.01001273, 0.9905099
 143914078, 0.04181086, -0.005405006, -0.06514163, 0.1259163, -0.00639404, 0.9921217, 0.06088932, -0.009410022, -0.06697692, 0.1267554, -0.007497442, 0.9921069
 144014038, 0.02503641, -0.005354486, -0.06336467, 0.1252463, -0.007207322, 0.9921539, 0.04181086, -0.005405006, -0.06514163, 0.1259163, -0.00639404, 0.9921217
 144113998, 0.01022681, 0.001727235, -0.06161951, 0.1253079, -0.008514933, 0.9921171, 0.02503641, -0.005354486, -0.06336467, 0.1252463, -0.007207322, 0.9921539
 144233950, -0.007692256, -0.002034326, -0.06457599, 0.1279236, -0.009257082, 0.9917623, 0.01022681, 0.001727235, -0.06161951, 0.1253079, -0.008514933, 0.9921171
 144333910, -0.02226542, -0.0007026825, -0.05766713, 0.1299348, -0.008204665, 0.9915056, -0.007692256, -0.002034326, -0.06457599, 0.1279236, -0.009257082, 0.9917623
 144433870, -0.04639342, 0.002121376, -0.05449973, 0.1302226, -0.006608764, 0.9914774, -0.02226542, -0.0007026825, -0.05766713, 0.1299348, -0.008204665, 0.9915056
 144533830, -0.05418275, 0.006321405, -0.0130835, 0.1309979, -0.003122005, 0.9913953, -0.04639342, 0.002121376, -0.05449973, 0.1302226, -0.006608764, 0.9914774
 144633790, -0.08499426, 0.006787299, -0.04936229, 0.1315626, -0.001869398, 0.9913238, -0.05418275, 0.006321405, -0.0130835, 0.1309979, -0.003122005, 0.9913953
 144733750, -0.1053121, 0.01488759, -0.04657713, 0.1325134, -0.002230566, 0.9912022, -0.08499426, 0.006787299, -0.04936229, 0.1315626, -0.001869398, 0.9913238
 144833710, -0.1328088, 0.01241558, -0.04307412, 0.1323376, -0.005776333, 0.9912118, -0.1053121, 0.01488759, -0.04657713, 0.1325134, -0.002230566, 0.9912022
 144933670, -0.1796232, 0.02103041, -0.03660139, 0.1360666, -0.007243042, 0.99071, -0.1328088, 0.01241558, -0.04307412, 0.1323376, -0.005776333, 0.9912118
 145033630, -0.2125689, 0.02929143, -0.03669482, 0.1408728, -0.007784314, 0.9900544, -0.1796232, 0.02103041, -0.03660139, 0.1360666, -0.007243042, 0.99071
 145133590, -0.3196755, 0.03578148, -0.01166457, 0.1543417, -0.006820885, 0.9882106, -0.2125689, 0.02929143, -0.03669482, 0.1408728, -0.007784314, 0.9900544
 145233550, -0.3969522, 0.04123333, -0.005292166, 0.1679387, -0.008314736, 0.9862772, -0.3196755, 0.03578148, -0.01166457, 0.1543417, -0.006820885, 0.9882106
 145333510, -0.4964162, 0.05609619, 0.008358262, 0.1858439, -0.01104233, 0.9838088, -0.3969522, 0.04123333, -0.005292166, 0.1679387, -0.008314736, 0.9862772
 145434303, -0.6203677, 0.06199037, 0.02514921, 0.212802, -0.01590121, 0.9800894, -0.4964162, 0.05609619, 0.008358262, 0.1858439, -0.01104233, 0.9838088
 145534263, -0.8284538, 0.09387836, 0.06046662, 0.273797, -0.02249733, 0.9714341, -0.6203677, 0.06199037, 0.02514921, 0.212802, -0.01590121, 0.9800894
 145634223, -1.868258, 0.2171524, 0.2017703, 0.745609, -0.07464267, 0.9051644, -0.8284538, 0.09387836, 0.06046662, 0.273797, -0.02249733, 0.9714341
 145734183, -4.256143, 0.4755683, 0.5404486, 2.391955, -0.2593982, 0.6721343, -1.868258, 0.2171524, 0.2017703, 0.745609, -0.07464267, 0.9051644
 145834143, 3.983195, -0.4557941, -0.6351694, 36.82761, -4.160376, -4.254841, -4.256143, 0.4755683, 0.5404486, 2.391955, -0.2593982, 0.6721343
 145934103, 7.130396, -0.8182907, -1.098716, 15.20411, -1.716593, -1.20273, 3.983195, -0.4557941, -0.6351694, 36.82761, -4.160376, -4.254841
 146034063, 2.330717, -0.2648973, -0.3986871, 4.26953, -0.4745013, 0.3822884, 7.130396, -0.8182907, -1.098716, 15.20411, -1.716593, -1.20273
 146134023, 1.640376, -0.1911195, -0.3241856, 1.512121, -0.161941, 0.7909184, 2.330717, -0.2648973, -0.3986871, 4.26953, -0.4745013, 0.3822884
 146253975, 0.9784938, -0.1115475, -0.2008076, 0.5357496, -0.05207981, 0.9334846, 1.640376, -0.1911195, -0.3241856, 1.512121, -0.161941, 0.7909184
 146353935, 1.067164, -0.1136215, -0.2143706, 0.5963261, -0.05881171, 0.9243855, 0.9784938, -0.1115475, -0.2008076, 0.5357496, -0.05207981, 0.9334846
 146453895, 0.6493613, -0.07259148, -0.1493457, 0.3094006, -0.02416563, 0.9657396, 1.067164, -0.1136215, -0.2143706, 0.5963261, -0.05881171, 0.9243855
 146553855, 0.6228961, -0.07630399, -0.1505041, 0.2936964, -0.02047733, 0.9680587, 0.6493613, -0.07259148, -0.1493457, 0.3094006, -0.02416563, 0.9657396
 146653815, 0.54535, -0.06345805, -0.1690925, 0.2602527, -0.01808298, 0.9729853, 0.6228961, -0.07630399, -0.1505041, 0.2936964, -0.02047733, 0.9680587
 146753775, 0.5116335, -0.05149937, -0.1342346, 0.2453292, -0.01741128, 0.9750435, 0.54535, -0.06345805, -0.1690925, 0.2602527, -0.01808298, 0.9729853
 146853735, 0.5475127, -0.06650686, -0.1446147, 0.2550392, -0.01918815, 0.9736486, 0.5116335, -0.05149937, -0.1342346, 0.2453292, -0.01741128, 0.9750435
 146953695, 0.5451606, -0.05724098, -0.1395382, 0.252344, -0.01673195, 0.9739609, 0.5475127, -0.06650686, -0.1446147, 0.2550392, -0.01918815, 0.9736486
 147053655, 0.5083471, -0.06267174, -0.134304, 0.2394939, -0.01164573, 0.9758416, 0.5451606, -0.05724098, -0.1395382, 0.252344, -0.01673195, 0.9739609
 147153615, 0.4458351, -0.05353789, -0.1542047, 0.2195557, -0.005003514, 0.9789506, 0.5083471, -0.06267174, -0.134304, 0.2394939, -0.01164573, 0.9758416
 147253575, 0.5013628, -0.06549968, -0.1315084, 0.2314087, -0.004603028, 0.977318, 0.4458351, -0.05353789, -0.1542047, 0.2195557, -0.005003514, 0.9789506
 147353535, 0.5049778, -0.05901979, -0.1266884, 0.2299854, -0.004252366, 0.977566, 0.5013628, -0.06549968, -0.1315084, 0.2314087, -0.004603028, 0.977318
 147453495, 0.4814404, -0.04235089, -0.1291305, 0.2239491, -0.003518607, 0.9782853, 0.5049778, -0.05901979, -0.1266884, 0.2299854, -0.004252366, 0.977566
 147554288, 0.4192123, -0.04325412, -0.1511542, 0.2107371, -0.002893354, 0.9800909, 0.4814404, -0.04235089, -0.1291305, 0.2239491, -0.003518607, 0.9782853
 147654248, 0.4123727, -0.04994384, -0.1506794, 0.2093542, -0.00462189, 0.9802323, 0.4192123, -0.04325412, -0.1511542, 0.2107371, -0.002893354, 0.9800909
 147754208, 0.38694, -0.03431552, -0.115903, 0.2010397, -0.003704171, 0.9815387, 0.4123727, -0.04994384, -0.1506794, 0.2093542, -0.00462189, 0.9802323
 147854168, 0.4066293, -0.03976435, -0.1127109, 0.201692, -0.004115425, 0.9815965, 0.38694, -0.03431552, -0.115903, 0.2010397, -0.003704171, 0.9815387
 147954128, 0.4062369, -0.04403199, -0.1479423, 0.2015915, -0.00487446, 0.9816331, 0.4066293, -0.03976435, -0.1127109, 0.201692, -0.004115425, 0.9815965
 148054088, 0.3568817, -0.03449309, -0.1106519, 0.1915412, -0.004024568, 0.9830529, 0.4062369, -0.04403199, -0.1479423, 0.2015915, -0.00487446, 0.9816331
 148154048, 0.4180652, -0.06347254, -0.1191004, 0.2012922, -0.004224667, 0.9817389, 0.3568817, -0.03449309, -0.1106519, 0.1915412, -0.004024568, 0.9830529
 148254008, 0.355808, -0.02796047, -0.1105198, 0.1912127, 8.560624E-05, 0.9830859, 0.4180652, -0.06347254, -0.1191004, 0.2012922, -0.004224667, 0.9817389
 148373960, 0.3529492, -0.0435636, -0.1107148, 0.1916772, -0.0005824417, 0.9829642, 0.355808, -0.02796047, -0.1105198, 0.1912127, 8.560624E-05, 0.9830859
 148473920, 0.3467632, -0.05828366, -0.1099077, 0.1902801, -0.001165884, 0.9831824, 0.3529492, -0.0435636, -0.1107148, 0.1916772, -0.0005824417, 0.9829642
 148573880, 0.3552944, -0.05529309, -0.1103055, 0.1892314, -0.0008932035, 0.9834408, 0.3467632, -0.05828366, -0.1099077, 0.1902801, -0.001165884, 0.9831824
 148673840, 0.3655804, -0.02989284, -0.1112467, 0.1897077, -0.0008989172, 0.9834129, 0.3552944, -0.05529309, -0.1103055, 0.1892314, -0.0008932035, 0.9834408
 148773800, 0.3605498, -0.0329253, -0.1056343, 0.188921, -0.001011404, 0.9835143, 0.3655804, -0.02989284, -0.1112467, 0.1897077, -0.0008989172, 0.9834129
 148873760, 0.3567033, -0.03424188, -0.1097209, 0.1870005, -0.001577126, 0.9838509, 0.3605498, -0.0329253, -0.1056343, 0.188921, -0.001011404, 0.9835143
 148973720, 0.3450412, -0.05253925, -0.1127993, 0.1835323, -0.003443966, 0.9844223, 0.3567033, -0.03424188, -0.1097209, 0.1870005, -0.001577126, 0.9838509
 149073680, 0.3340558, -0.02510307, -0.1058097, 0.1815, -0.003152186, 0.9847184, 0.3450412, -0.05253925, -0.1127993, 0.1835323, -0.003443966, 0.9844223
 149173640, 0.3596499, -0.05465527, -0.1100162, 0.1857001, -0.004396508, 0.9841058, 0.3340558, -0.02510307, -0.1058097, 0.1815, -0.003152186, 0.9847184
 149273600, 0.3709706, -0.06249612, -0.1119518, 0.1881139, -0.003292232, 0.9837345, 0.3596499, -0.05465527, -0.1100162, 0.1857001, -0.004396508, 0.9841058
 149373560, 0.3708937, -0.04209821, -0.08077489, 0.1858926, -0.002146597, 0.9841215, 0.3709706, -0.06249612, -0.1119518, 0.1881139, -0.003292232, 0.9837345
 149473520, 0.3337804, -0.05109395, -0.07573439, 0.1806548, -0.001900137, 0.9848579, 0.3708937, -0.04209821, -0.08077489, 0.1858926, -0.002146597, 0.9841215
 149573480, 0.2990416, -0.04331474, -0.07079293, 0.1758538, -0.001974175, 0.9855372, 0.3337804, -0.05109395, -0.07573439, 0.1806548, -0.001900137, 0.9848579
 149674273, 0.3370796, -0.0265433, -0.07480693, 0.1780068, -0.001766444, 0.9853556, 0.2990416, -0.04331474, -0.07079293, 0.1758538, -0.001974175, 0.9855372
 149774233, 0.3073473, -0.04456022, -0.07020833, 0.1714192, -0.002294442, 0.9863575, 0.3370796, -0.0265433, -0.07480693, 0.1780068, -0.001766444, 0.9853556
 149874193, 0.3126904, -0.03586446, -0.06978887, 0.1690251, -0.001880256, 0.9867974, 0.3073473, -0.04456022, -0.07020833, 0.1714192, -0.002294442, 0.9863575
 149974153, 0.3097403, -0.04099393, -0.06937708, 0.1682795, -0.0022879, 0.9869087, 0.3126904, -0.03586446, -0.06978887, 0.1690251, -0.001880256, 0.9867974
 150074113, 0.3008143, -0.02421943, -0.06848612, 0.1687486, -0.00175198, 0.9867854, 0.3097403, -0.04099393, -0.06937708, 0.1682795, -0.0022879, 0.9869087
 150174073, 0.3154004, -0.01773623, -0.07078779, 0.1721933, -0.0002894346, 0.986267, 0.3008143, -0.02421943, -0.06848612, 0.1687486, -0.00175198, 0.9867854
 150274033, 0.2931909, -0.03880519, -0.06853416, 0.170588, -0.001270944, 0.9864331, 0.3154004, -0.01773623, -0.07078779, 0.1721933, -0.0002894346, 0.986267
 150373993, 0.2772709, -0.01882069, -0.06607963, 0.1685352, 0.0007793941, 0.9867158, 0.2931909, -0.03880519, -0.06853416, 0.170588, -0.001270944, 0.9864331
 150493945, 0.2768716, -0.04284243, -0.06607631, 0.167841, 0.001899437, 0.9868286, 0.2772709, -0.01882069, -0.06607963, 0.1685352, 0.0007793941, 0.9867158
 150593905, 0.2528665, -0.03082553, -0.06280465, 0.1653837, 0.004689795, 0.9871371, 0.2768716, -0.04284243, -0.06607631, 0.167841, 0.001899437, 0.9868286
 150693865, 0.2545389, -0.04081907, -0.06329377, 0.1666451, 0.006924723, 0.9869176, 0.2528665, -0.03082553, -0.06280465, 0.1653837, 0.004689795, 0.9871371
 150793825, 0.2399454, -0.03004836, -0.0613143, 0.1650266, 0.006959444, 0.9871361, 0.2545389, -0.04081907, -0.06329377, 0.1666451, 0.006924723, 0.9869176
 150893785, 0.2687514, -0.01482552, -0.06416897, 0.1651597, 0.005615607, 0.9872348, 0.2399454, -0.03004836, -0.0613143, 0.1650266, 0.006959444, 0.9871361
 150993745, 0.2758866, -0.0174733, -0.06400017, 0.162065, 0.004798459, 0.9877804, 0.2687514, -0.01482552, -0.06416897, 0.1651597, 0.005615607, 0.9872348
 151093705, 0.2445348, -0.01036069, -0.05948465, 0.1564554, 0.005203819, 0.9885606, 0.2758866, -0.0174733, -0.06400017, 0.162065, 0.004798459, 0.9877804
 151193665, 0.2681461, -0.02028129, -0.06259003, 0.1594332, 0.003696718, 0.9881802, 0.2445348, -0.01036069, -0.05948465, 0.1564554, 0.005203819, 0.9885606
 151293625, 0.2306572, -0.04517556, -0.05885502, 0.1575798, 0.002099446, 0.9883397, 0.2681461, -0.02028129, -0.06259003, 0.1594332, 0.003696718, 0.9881802
 151393585, 0.2741628, -0.02549762, -0.06359915, 0.1606984, 0.001662871, 0.988005, 0.2306572, -0.04517556, -0.05885502, 0.1575798, 0.002099446, 0.9883397
 151493545, 0.2239765, -0.03166829, -0.05770409, 0.156297, 0.003286351, 0.9885193, 0.2741628, -0.02549762, -0.06359915, 0.1606984, 0.001662871, 0.988005
 151593505, 0.24924, -0.02377846, -0.06121644, 0.1608493, 0.003979534, 0.9878757, 0.2239765, -0.03166829, -0.05770409, 0.156297, 0.003286351, 0.9885193
 151694298, 0.260936, -0.04130043, -0.06328088, 0.1638167, 0.004461046, 0.9874294, 0.24924, -0.02377846, -0.06121644, 0.1608493, 0.003979534, 0.9878757
 151794258, 0.2474027, -0.01960897, -0.06124067, 0.1619467, 0.005365082, 0.9876844, 0.260936, -0.04130043, -0.06328088, 0.1638167, 0.004461046, 0.9874294
 151894218, 0.2224164, -0.03839223, -0.05806962, 0.1588008, 0.006161875, 0.9881013, 0.2474027, -0.01960897, -0.06124067, 0.1619467, 0.005365082, 0.9876844
 151994178, 0.2131244, -0.02184844, -0.05658924, 0.1570385, 0.006134255, 0.9883569, 0.2224164, -0.03839223, -0.05806962, 0.1588008, 0.006161875, 0.9881013
 152094138, 0.2262991, -0.01514751, -0.05779714, 0.1566967, 0.005819689, 0.9884559, 0.2131244, -0.02184844, -0.05658924, 0.1570385, 0.006134255, 0.9883569
 152194098, 0.2102215, -0.009552217, -0.05535147, 0.1532593, 0.005735544, 0.9889469, 0.2262991, -0.01514751, -0.05779714, 0.1566967, 0.005819689, 0.9884559
 152294058, 0.2228337, -0.04029577, -0.05746979, 0.1557635, 0.004756546, 0.9885933, 0.2102215, -0.009552217, -0.05535147, 0.1532593, 0.005735544, 0.9889469
 152394018, 0.2361837, -0.04073726, -0.05893338, 0.1565048, 0.005325566, 0.9885178, 0.2228337, -0.04029577, -0.05746979, 0.1557635, 0.004756546, 0.9885933
 152513970, 0.2215225, -0.03285694, -0.05614801, 0.1508396, 0.004753917, 0.9893524, 0.2361837, -0.04073726, -0.05893338, 0.1565048, 0.005325566, 0.9885178
 152613930, 0.2381515, -0.02742676, -0.0578659, 0.1515918, 0.003468997, 0.9892987, 0.2215225, -0.03285694, -0.05614801, 0.1508396, 0.004753917, 0.9893524
 152713890, 0.2034564, -0.04353738, -0.05420039, 0.148701, 0.001101476, 0.9896309, 0.2381515, -0.02742676, -0.0578659, 0.1515918, 0.003468997, 0.9892987
 152813850, 0.2123313, -0.02840822, -0.05535895, 0.1510772, 0.001637547, 0.9892991, 0.2034564, -0.04353738, -0.05420039, 0.148701, 0.001101476, 0.9896309
 152913810, 0.229694, -0.03924766, -0.05789893, 0.1542415, 0.001555269, 0.9888644, 0.2123313, -0.02840822, -0.05535895, 0.1510772, 0.001637547, 0.9892991
 153013770, 0.2302432, -0.01146965, -0.05762772, 0.1543308, 0.001756183, 0.9888573, 0.229694, -0.03924766, -0.05789893, 0.1542415, 0.001555269, 0.9888644
 153113730, 0.2295474, -0.02722574, -0.05755097, 0.1532487, -0.0002161507, 0.9890211, 0.2302432, -0.01146965, -0.05762772, 0.1543308, 0.001756183, 0.9888573
 153213690, 0.1907483, -0.008947622, -0.05229615, 0.1478128, 0.001500744, 0.9897367, 0.2295474, -0.02722574, -0.05755097, 0.1532487, -0.0002161507, 0.9890211
 153313650, 0.1766971, -0.03073441, -0.05082462, 0.1459207, 0.001907062, 0.9899748, 0.1907483, -0.008947622, -0.05229615, 0.1478128, 0.001500744, 0.9897367
 153413610, 0.1951389, -0.04418279, -0.05299921, 0.1467197, 0.0009036539, 0.9899033, 0.1766971, -0.03073441, -0.05082462, 0.1459207, 0.001907062, 0.9899748
 153513570, 0.2051119, -0.0319181, -0.05348371, 0.1452344, 0.0005698632, 0.9901522, 0.1951389, -0.04418279, -0.05299921, 0.1467197, 0.0009036539, 0.9899033
 153613530, 0.1787646, -0.01323169, -0.05015692, 0.1424944, 0.00223008, 0.9904827, 0.2051119, -0.0319181, -0.05348371, 0.1452344, 0.0005698632, 0.9901522
 153713490, 0.1966461, -0.04165104, -0.05239592, 0.1433815, 0.001725703, 0.9903953, 0.1787646, -0.01323169, -0.05015692, 0.1424944, 0.00223008, 0.9904827
 153814283, 0.190977, -0.02549725, -0.05194324, 0.1446683, 0.0006741155, 0.9901974, 0.1966461, -0.04165104, -0.05239592, 0.1433815, 0.001725703, 0.9903953
 153914243, 0.2003428, -0.0439606, -0.0532967, 0.1455061, -0.0003237538, 0.9900972, 0.190977, -0.02549725, -0.05194324, 0.1446683, 0.0006741155, 0.9901974
 154014203, 0.1738434, -0.04147837, -0.05007811, 0.1420817, -0.0004831161, 0.9905254, 0.2003428, -0.0439606, -0.0532967, 0.1455061, -0.0003237538, 0.9900972
 154114163, 0.1840415, -0.04192097, -0.0512358, 0.1428105, -0.00150338, 0.9904449, 0.1738434, -0.04147837, -0.05007811, 0.1420817, -0.0004831161, 0.9905254
 154214123, 0.211746, -0.01440816, -0.05360835, 0.1440119, -0.001084011, 0.9903536, 0.1840415, -0.04192097, -0.0512358, 0.1428105, -0.00150338, 0.9904449
 154314083, 0.1733026, -0.02251277, -0.04944529, 0.1406057, 0.0005835239, 0.9907387, 0.211746, -0.01440816, -0.05360835, 0.1440119, -0.001084011, 0.9903536
 154414043, 0.2022389, -0.01919227, -0.05263144, 0.1434014, 0.001956281, 0.990412, 0.1733026, -0.02251277, -0.04944529, 0.1406057, 0.0005835239, 0.9907387
 154514003, 0.2010939, -0.04298323, -0.05312845, 0.1447743, 0.001419101, 0.9902055, 0.2022389, -0.01919227, -0.05263144, 0.1434014, 0.001956281, 0.990412
 154633955, 0.1580789, -0.03772008, -0.04831365, 0.1412805, 0.0004658122, 0.9906045, 0.2010939, -0.04298323, -0.05312845, 0.1447743, 0.001419101, 0.9902055
 154733915, 0.1784243, -0.02881345, -0.05022705, 0.1415901, -5.072355E-05, 0.9906095, 0.1580789, -0.03772008, -0.04831365, 0.1412805, 0.0004658122, 0.9906045
 154833875, 0.1887778, -0.04231166, -0.05127655, 0.1412179, 0.0008962918, 0.9906858, 0.1784243, -0.02881345, -0.05022705, 0.1415901, -5.072355E-05, 0.9906095
 154933835, 0.1687231, -0.02817136, -0.04846262, 0.137392, 0.002745151, 0.9911734, 0.1887778, -0.04231166, -0.05127655, 0.1412179, 0.0008962918, 0.9906858
 155033795, 0.1537528, -0.03193256, -0.04676191, 0.1352833, 0.002723458, 0.9914294, 0.1687231, -0.02817136, -0.04846262, 0.137392, 0.002745151, 0.9911734
 155133755, 0.1741391, -0.01773535, -0.04875873, 0.1371388, 0.004343293, 0.9912184, 0.1537528, -0.03193256, -0.04676191, 0.1352833, 0.002723458, 0.9914294
 155233715, 0.1602257, -0.02422539, -0.04734927, 0.136061, 0.004731, 0.9913313, 0.1741391, -0.01773535, -0.04875873, 0.1371388, 0.004343293, 0.9912184
 155333675, 0.1696668, -0.04060367, -0.0482811, 0.1351178, 0.003158441, 0.9914842, 0.1602257, -0.02422539, -0.04734927, 0.136061, 0.004731, 0.9913313
 155433635, 0.1666491, -0.03389005, -0.04803793, 0.1356326, 0.002487511, 0.9914103, 0.1696668, -0.04060367, -0.0482811, 0.1351178, 0.003158441, 0.9914842
 155533595, 0.1678762, -0.02881846, -0.0483157, 0.1369351, 0.002460616, 0.9912354, 0.1666491, -0.03389005, -0.04803793, 0.1356326, 0.002487511, 0.9914103
 155633555, 0.1768676, -0.03005061, -0.04918897, 0.1370639, 0.002123481, 0.9912392, 0.1678762, -0.02881846, -0.0483157, 0.1369351, 0.002460616, 0.9912354
 155733515, 0.1648101, -0.03481634, -0.04800747, 0.1362195, 0.001715723, 0.9913271, 0.1768676, -0.03005061, -0.04918897, 0.1370639, 0.002123481, 0.9912392
 155833475, 0.1688425, -0.03014255, -0.0485394, 0.1372934, 0.0006929133, 0.9911905, 0.1648101, -0.03481634, -0.04800747, 0.1362195, 0.001715723, 0.9913271
 155934268, 0.1568015, -0.0009201251, -0.04674616, 0.1359614, 0.001003925, 0.9913569, 0.1688425, -0.03014255, -0.0485394, 0.1372934, 0.0006929133, 0.9911905
 156034228, 0.1559061, -0.02399916, -0.04693383, 0.1354646, 0.0008447971, 0.9914148, 0.1568015, -0.0009201251, -0.04674616, 0.1359614, 0.001003925, 0.9913569
 156134188, 0.1780106, -0.03867646, -0.04937521, 0.1365685, 0.0003252216, 0.991311, 0.1559061, -0.02399916, -0.04693383, 0.1354646, 0.0008447971, 0.9914148
 156234148, 0.1424475, -0.02149536, -0.04523803, 0.1330136, 0.001705335, 0.9917187, 0.1780106, -0.03867646, -0.04937521, 0.1365685, 0.0003252216, 0.991311
 156334108, 0.1638486, -0.01440796, -0.04759761, 0.1359021, 0.001395162, 0.9913746, 0.1424475, -0.02149536, -0.04523803, 0.1330136, 0.001705335, 0.9917187
 156434068, 0.1655452, -0.0284682, -0.04790838, 0.135501, 0.000572037, 0.9914299, 0.1638486, -0.01440796, -0.04759761, 0.1359021, 0.001395162, 0.9913746
 156534028, 0.1600358, -0.01702002, -0.04723497, 0.1356167, 0.001223866, 0.9914046, 0.1655452, -0.0284682, -0.04790838, 0.135501, 0.000572037, 0.9914299
 156653980, 0.1466063, -0.01535329, -0.04558704, 0.1332602, 0.001142921, 0.9916967, 0.1600358, -0.01702002, -0.04723497, 0.1356167, 0.001223866, 0.9914046
 156753940, 0.1621052, -0.01911006, -0.04703131, 0.1330129, 0.0005219243, 0.9917616, 0.1466063, -0.01535329, -0.04558704, 0.1332602, 0.001142921, 0.9916967
 156853900, 0.1522965, -0.0130258, -0.04572099, 0.1310808, 0.00214259, 0.9919977, 0.1621052, -0.01911006, -0.04703131, 0.1330129, 0.0005219243, 0.9917616
 156953860, 0.1678122, -0.009281608, -0.04713871, 0.1316969, 0.00292559, 0.991949, 0.1522965, -0.0130258, -0.04572099, 0.1310808, 0.00214259, 0.9919977
 157053820, 0.1356668, -0.01006648, -0.04395717, 0.1296956, 0.002574017, 0.9921471, 0.1678122, -0.009281608, -0.04713871, 0.1316969, 0.00292559, 0.991949
 157153780, 0.1538289, -0.03642822, -0.04627204, 0.1314014, 0.0007747058, 0.9919537, 0.1356668, -0.01006648, -0.04395717, 0.1296956, 0.002574017, 0.9921471
 157253740, 0.1289626, -0.0308611, -0.04369723, 0.1299408, 0.001301277, 0.9920983, 0.1538289, -0.03642822, -0.04627204, 0.1314014, 0.0007747058, 0.9919537
 157353700, 0.1310546, -0.02297878, -0.04387825, 0.1306001, 0.0007387381, 0.9920185, 0.1289626, -0.0308611, -0.04369723, 0.1299408, 0.001301277, 0.9920983
 157453660, 0.1643849, -0.03050787, -0.04749352, 0.1335544, 0.0007049665, 0.9916906, 0.1310546, -0.02297878, -0.04387825, 0.1306001, 0.0007387381, 0.9920185
 157553620, 0.1452859, -0.001603958, -0.04508406, 0.1321628, 0.002407566, 0.9918439, 0.1643849, -0.03050787, -0.04749352, 0.1335544, 0.0007049665, 0.9916906
 157653580, 0.1459894, -0.02510978, -0.04557702, 0.132809, 0.002040518, 0.9917514, 0.1452859, -0.001603958, -0.04508406, 0.1321628, 0.002407566, 0.9918439
 157753540, 0.1673573, -0.01499365, -0.04728741, 0.1322807, 0.002263904, 0.99187, 0.1459894, -0.02510978, -0.04557702, 0.132809, 0.002040518, 0.9917514
 157853500, 0.1613248, -0.006697692, -0.0463379, 0.1304916, 0.001796329, 0.9920974, 0.1673573, -0.01499365, -0.04728741, 0.1322807, 0.002263904, 0.99187
 157954293, 0.1546225, -0.022803, -0.04581197, 0.1294211, 0.001387838, 0.9922184, 0.1613248, -0.006697692, -0.0463379, 0.1304916, 0.001796329, 0.9920974
 158054253, 0.1254609, -0.02364329, -0.04296025, 0.1275859, 0.001065878, 0.9924001, 0.1546225, -0.022803, -0.04581197, 0.1294211, 0.001387838, 0.9922184
 158154213, 0.1393792, -0.001878193, -0.04395601, 0.1281489, 0.002865499, 0.9923575, 0.1254609, -0.02364329, -0.04296025, 0.1275859, 0.001065878, 0.9924001
 158254173, 0.129114, -0.03057269, -0.04353119, 0.1288583, 0.002067452, 0.9922387, 0.1393792, -0.001878193, -0.04395601, 0.1281489, 0.002865499, 0.9923575
 158354133, 0.1213943, 0.002655731, -0.04206687, 0.1266408, 0.003842347, 0.9925176, 0.129114, -0.03057269, -0.04353119, 0.1288583, 0.002067452, 0.9922387
 158454093, 0.1244533, -0.03096385, -0.04249484, 0.1244065, 0.003383771, 0.9927943, 0.1213943, 0.002655731, -0.04206687, 0.1266408, 0.003842347, 0.9925176
 158554053, 0.1343883, -0.02683501, -0.04324983, 0.1240698, 0.003781572, 0.9928539, 0.1244533, -0.03096385, -0.04249484, 0.1244065, 0.003383771, 0.9927943
 158654013, 0.1200979, -0.008016558, -0.04177447, 0.1241295, 0.004168878, 0.9928264, 0.1343883, -0.02683501, -0.04324983, 0.1240698, 0.003781572, 0.9928539
 158773965, 0.1503866, -0.03387925, -0.04494628, 0.125713, 0.003411217, 0.992678, 0.1200979, -0.008016558, -0.04177447, 0.1241295, 0.004168878, 0.9928264
 158873925, 0.1340091, -0.02988019, -0.04313522, 0.1231941, 0.003500696, 0.9929625, 0.1503866, -0.03387925, -0.04494628, 0.125713, 0.003411217, 0.992678
 158973885, 0.1486287, -0.01517743, -0.04418959, 0.1233173, 0.004310182, 0.9929767, 0.1340091, -0.02988019, -0.04313522, 0.1231941, 0.003500696, 0.9929625
 159073845, 0.1545012, -0.0254773, -0.04479663, 0.1233429, 0.004176125, 0.9929829, 0.1486287, -0.01517743, -0.04418959, 0.1233173, 0.004310182, 0.9929767
 159173805, 0.140294, -0.03105157, -0.04365387, 0.1227123, 0.002207413, 0.9930373, 0.1545012, -0.0254773, -0.04479663, 0.1233429, 0.004176125, 0.9929829
 159273765, 0.117961, -0.02507577, -0.04120884, 0.1189547, 0.002349991, 0.9934555, 0.140294, -0.03105157, -0.04365387, 0.1227123, 0.002207413, 0.9930373
 159373725, 0.1213506, -0.0219876, -0.04098762, 0.1152385, 0.002152083, 0.9939002, 0.117961, -0.02507577, -0.04120884, 0.1189547, 0.002349991, 0.9934555
 159473685, 0.1309217, -0.01190058, -0.04119309, 0.1123174, 0.002749528, 0.9942532, 0.1213506, -0.0219876, -0.04098762, 0.1152385, 0.002152083, 0.9939002
 159573645, 0.1202645, -0.003706477, -0.03958947, 0.1068629, 0.004365408, 0.9948331, 0.1309217, -0.01190058, -0.04119309, 0.1123174, 0.002749528, 0.9942532
 159673605, 0.1124572, -0.0299278, -0.03906596, 0.1050888, 0.006805439, 0.9949861, 0.1202645, -0.003706477, -0.03958947, 0.1068629, 0.004365408, 0.9948331
 159773565, 0.1208342, -0.02859083, -0.0393792, 0.1034617, 0.008745814, 0.9951554, 0.1124572, -0.0299278, -0.03906596, 0.1050888, 0.006805439, 0.9949861
 159873525, 0.1410661, -0.002315751, -0.04012346, 0.100834, 0.01173807, 0.9954399, 0.1208342, -0.02859083, -0.0393792, 0.1034617, 0.008745814, 0.9951554
 159973485, 0.1154595, -0.02323655, -0.03785557, 0.09495308, 0.01320937, 0.9959466, 0.1410661, -0.002315751, -0.04012346, 0.100834, 0.01173807, 0.9954399
 160074278, 0.1310668, -0.02735204, -0.03840964, 0.09217829, 0.0132116, 0.9962322, 0.1154595, -0.02323655, -0.03785557, 0.09495308, 0.01320937, 0.9959466
 160174238, 0.1086602, -0.01027207, -0.03646736, 0.08627968, 0.01092482, 0.9967565, 0.1310668, -0.02735204, -0.03840964, 0.09217829, 0.0132116, 0.9962322
 160274198, 0.1104771, -0.02631112, -0.03618195, 0.08113042, 0.00672267, 0.9972228, 0.1086602, -0.01027207, -0.03646736, 0.08627968, 0.01092482, 0.9967565
 160374158, 0.1076996, -0.01586646, -0.03551527, 0.07666633, 0.003652173, 0.9975908, 0.1104771, -0.02631112, -0.03618195, 0.08113042, 0.00672267, 0.9972228
 160474118, 0.1050847, -0.03054378, -0.03543691, 0.07499369, 0.002599401, 0.9977126, 0.1076996, -0.01586646, -0.03551527, 0.07666633, 0.003652173, 0.9975908
 160574078, 0.1261199, -0.02279412, -0.03612703, 0.07526971, 0.00571994, 0.9977149, 0.1050847, -0.03054378, -0.03543691, 0.07499369, 0.002599401, 0.9977126
 160674038, 0.1311442, -0.01950673, -0.03564581, 0.07096373, 0.009143423, 0.9980145, 0.1261199, -0.02279412, -0.03612703, 0.07526971, 0.00571994, 0.9977149
 160773998, 0.134096, -0.00579151, -0.0353656, 0.06906931, 0.01297271, 0.9981154, 0.1311442, -0.01950673, -0.03564581, 0.07096373, 0.009143423, 0.9980145
 160893950, 0.1098753, 0.004993428, -0.03420278, 0.06623685, 0.01213688, 0.9982826, 0.134096, -0.00579151, -0.0353656, 0.06906931, 0.01297271, 0.9981154
 160993910, 0.1370922, -0.01316153, -0.03523249, 0.06680927, 0.008551819, 0.9983191, 0.1098753, 0.004993428, -0.03420278, 0.06623685, 0.01213688, 0.9982826
 161093870, 0.1294782, -0.01096669, -0.03485061, 0.06553455, 0.006824262, 0.9984039, 0.1370922, -0.01316153, -0.03523249, 0.06680927, 0.008551819, 0.9983191
 161193830, 0.1190726, -0.007701046, -0.03430327, 0.06381563, 0.007123429, 0.9984971, 0.1294782, -0.01096669, -0.03485061, 0.06553455, 0.006824262, 0.9984039
 161293790, 0.1292406, -0.02815797, -0.0342431, 0.05799612, -0.001015365, 0.9988863, 0.1190726, -0.007701046, -0.03430327, 0.06381563, 0.007123429, 0.9984971
 161393750, 0.1087445, -0.01322665, -0.03306221, 0.03856315, -0.1047813, 0.994288, 0.1292406, -0.02815797, -0.0342431, 0.05799612, -0.001015365, 0.9988863
 161493710, 0.1212898, -0.003380324, -0.03069015, 0.01280196, -0.2901389, 0.9574803, 0.1087445, -0.01322665, -0.03306221, 0.03856315, -0.1047813, 0.994288
 161593670, 0.121943, -0.009573264, -0.03435227, -0.007305603, -0.4580824, 0.8895003, 0.1212898, -0.003380324, -0.03069015, 0.01280196, -0.2901389, 0.9574803
 161693630, 0.08057272, -0.004296994, -0.03527738, -0.01253704, -0.5414776, 0.8412097, 0.121943, -0.009573264, -0.03435227, -0.007305603, -0.4580824, 0.8895003
 161793590, 0.08342185, 0.01223569, -0.02554884, 0.003030602, -0.5333288, 0.8465019, 0.08057272, -0.004296994, -0.03527738, -0.01253704, -0.5414776, 0.8412097
 161893550, 0.09241899, 0.01535626, -0.02597515, 0.02837293, -0.4583554, 0.8889036, 0.08342185, 0.01223569, -0.02554884, 0.003030602, -0.5333288, 0.8465019
 161993510, 0.1160522, -0.002193762, -0.03582021, 0.04861897, -0.3564556, 0.9336349, 0.09241899, 0.01535626, -0.02597515, 0.02837293, -0.4583554, 0.8889036
 162094303, 0.09841546, 0.006743134, -0.03199009, 0.05250101, -0.2705166, 0.9618316, 0.1160522, -0.002193762, -0.03582021, 0.04861897, -0.3564556, 0.9336349
 162194263, 0.1180502, -0.005138778, -0.03489773, 0.04855848, -0.22902, 0.9727754, 0.09841546, 0.006743134, -0.03199009, 0.05250101, -0.2705166, 0.9618316
 162294223, 0.1302415, 0.004346075, -0.03142962, 0.03906321, -0.2333906, 0.9721875, 0.1180502, -0.005138778, -0.03489773, 0.04855848, -0.22902, 0.9727754
 162394183, 0.1330576, -0.006685721, -0.03382752, 0.03124694, -0.2669116, 0.9638063, 0.1302415, 0.004346075, -0.03142962, 0.03906321, -0.2333906, 0.9721875
 162494143, 0.09208471, -0.002001606, -0.03227836, 0.02419361, -0.3020425, 0.9535228, 0.1330576, -0.006685721, -0.03382752, 0.03124694, -0.2669116, 0.9638063
 162594103, 0.104693, -0.001417648, -0.03206843, 0.02264231, -0.3202946, 0.9476038, 0.09208471, -0.002001606, -0.03227836, 0.02419361, -0.3020425, 0.9535228
 162694063, 0.09602205, -0.01013362, -0.03510348, 0.0216001, -0.3170874, 0.948689, 0.104693, -0.001417648, -0.03206843, 0.02264231, -0.3202946, 0.9476038
 162794023, 0.1002797, -0.007493549, -0.03384643, 0.02289964, -0.2958174, 0.9555121, 0.09602205, -0.01013362, -0.03510348, 0.0216001, -0.3170874, 0.948689
 162913975, 0.1155778, 0.01819978, -0.02556817, 0.0230463, -0.2629322, 0.9651136, 0.1002797, -0.007493549, -0.03384643, 0.02289964, -0.2958174, 0.9555121
 163013935, 0.1165689, 0.01112785, -0.0274359, 0.02052338, -0.2417036, 0.9707011, 0.1155778, 0.01819978, -0.02556817, 0.0230463, -0.2629322, 0.9651136
 163113895, 0.09024449, 0.007250417, -0.02840661, 0.01651028, -0.2290427, 0.9738024, 0.1165689, 0.01112785, -0.0274359, 0.02052338, -0.2417036, 0.9707011
 163213855, 0.09969401, -0.01010436, -0.03242586, 0.01397721, -0.2248351, 0.9748242, 0.09024449, 0.007250417, -0.02840661, 0.01651028, -0.2290427, 0.9738024
 163313815, 0.1257688, -0.002144951, -0.02968873, 0.01164079, -0.2274311, 0.9742953, 0.09969401, -0.01010436, -0.03242586, 0.01397721, -0.2248351, 0.9748242
 163413775, 0.1078327, 0.00904684, -0.02692711, 0.009119837, -0.2314962, 0.9733428, 0.1257688, -0.002144951, -0.02968873, 0.01164079, -0.2274311, 0.9742953
 163513735, 0.1053104, -0.0002058763, -0.02931704, 0.008335132, -0.2309305, 0.9734746, 0.1078327, 0.00904684, -0.02692711, 0.009119837, -0.2314962, 0.9733428
 163613695, 0.1267523, 0.0186128, -0.02395078, 0.007945785, -0.2237477, 0.9751987, 0.1053104, -0.0002058763, -0.02931704, 0.008335132, -0.2309305, 0.9734746
 163713655, 0.119889, 0.02015694, -0.02349936, 0.004910292, -0.2152888, 0.9771108, 0.1267523, 0.0186128, -0.02395078, 0.007945785, -0.2237477, 0.9751987
 163813615, 0.1123928, -0.00262169, -0.02899471, 0.003251564, -0.2065601, 0.9789734, 0.119889, 0.02015694, -0.02349936, 0.004910292, -0.2152888, 0.9771108
 163913575, 0.09087868, -0.0003919192, -0.02878571, 0.0009297822, -0.1979383, 0.9807299, 0.1123928, -0.00262169, -0.02899471, 0.003251564, -0.2065601, 0.9789734
 164013535, 0.1160309, 0.000155617, -0.02790005, 0.0009124465, -0.1905602, 0.9822244, 0.09087868, -0.0003919192, -0.02878571, 0.0009297822, -0.1979383, 0.9807299
 164113495, 0.1089999, 0.02236544, -0.02315237, -0.00149972, -0.1830652, 0.9836531, 0.1160309, 0.000155617, -0.02790005, 0.0009124465, -0.1905602, 0.9822244
 164214288, 0.1041757, 0.008684872, -0.02583646, -0.005019721, -0.1790849, 0.9843569, 0.1089999, 0.02236544, -0.02315237, -0.00149972, -0.1830652, 0.9836531
 164314248, 0.1142753, 0.01941171, -0.02314727, -0.00682169, -0.1738611, 0.9853039, 0.1041757, 0.008684872, -0.02583646, -0.005019721, -0.1790849, 0.9843569
 164414208, 0.0928535, 0.02225223, -0.02334526, -0.008081743, -0.1684407, 0.9862084, 0.1142753, 0.01941171, -0.02314727, -0.00682169, -0.1738611, 0.9853039
 164514168, 0.1069625, 0.0235099, -0.02253562, -0.009424407, -0.1635009, 0.9870468, 0.0928535, 0.02225223, -0.02334526, -0.008081743, -0.1684407, 0.9862084
 164614128, 0.118785, 0.01006904, -0.02455878, -0.01028331, -0.1576801, 0.9879916, 0.1069625, 0.0235099, -0.02253562, -0.009424407, -0.1635009, 0.9870468
 164714088, 0.09598435, -0.003608968, -0.02759178, -0.01387779, -0.1517552, 0.9888346, 0.118785, 0.01006904, -0.02455878, -0.01028331, -0.1576801, 0.9879916
 164814048, 0.1055414, 0.007362545, -0.02495977, -0.01678703, -0.1463986, 0.989616, 0.09598435, -0.003608968, -0.02759178, -0.01387779, -0.1517552, 0.9888346
 164914008, 0.1178145, -0.001133314, -0.02572517, -0.01771367, -0.1423372, 0.9902034, 0.1055414, 0.007362545, -0.02495977, -0.01678703, -0.1463986, 0.989616
 165033960, 0.10553, 0.02489857, -0.02180704, -0.02018421, -0.1363093, 0.9910053, 0.1178145, -0.001133314, -0.02572517, -0.01771367, -0.1423372, 0.9902034
 165133920, 0.1032753, -0.0008165496, -0.02593686, -0.02155946, -0.1331648, 0.991382, 0.10553, 0.02489857, -0.02180704, -0.02018421, -0.1363093, 0.9910053
 165233880, 0.09305727, 0.01585323, -0.02352296, -0.02497024, -0.1304555, 0.9916605, 0.1032753, -0.0008165496, -0.02593686, -0.02155946, -0.1331648, 0.991382
 165333840, 0.104062, 0.005621319, -0.02437946, -0.0266768, -0.1266583, 0.9921145, 0.09305727, 0.01585323, -0.02352296, -0.02497024, -0.1304555, 0.9916605
 165433800, 0.110352, 0.02415844, -0.02123025, -0.02731252, -0.1220643, 0.9926953, 0.104062, 0.005621319, -0.02437946, -0.0266768, -0.1266583, 0.9921145
 165533760, 0.1114545, 0.01470535, -0.02254664, -0.02800998, -0.1178689, 0.9931767, 0.110352, 0.02415844, -0.02123025, -0.02731252, -0.1220643, 0.9926953
 165633720, 0.08727995, 0.02291484, -0.02253525, -0.03155068, -0.111719, 0.9937569, 0.1114545, 0.01470535, -0.02254664, -0.02800998, -0.1178689, 0.9931767
 165733680, 0.1202452, 0.01487824, -0.02177681, -0.03112373, -0.1076717, 0.9942537, 0.08727995, 0.02291484, -0.02253525, -0.03155068, -0.111719, 0.9937569
 165833640, 0.0894766, 0.0232719, -0.02240597, -0.03283104, -0.1043682, 0.994517, 0.1202452, 0.01487824, -0.02177681, -0.03112373, -0.1076717, 0.9942537
 165933600, 0.1215661, 0.03951525, -0.01850455, -0.03241066, -0.1006482, 0.9949706, 0.0894766, 0.0232719, -0.02240597, -0.03283104, -0.1043682, 0.994517
 166033560, 0.1250405, 0.00701917, -0.02218743, -0.03440432, -0.0981162, 0.9951347, 0.1215661, 0.03951525, -0.01850455, -0.03241066, -0.1006482, 0.9949706
 166133520, 0.0930721, -0.002980073, -0.02523396, -0.03642683, -0.09584136, 0.9952345, 0.1250405, 0.00701917, -0.02218743, -0.03440432, -0.0981162, 0.9951347
 166233480, 0.09765917, 0.02499839, -0.02169567, -0.03616707, -0.09073615, 0.9957485, 0.0930721, -0.002980073, -0.02523396, -0.03642683, -0.09584136, 0.9952345
 166334273, 0.09004023, 0.03174014, -0.02135751, -0.03754974, -0.08755676, 0.9959784, 0.09765917, 0.02499839, -0.02169567, -0.03616707, -0.09073615, 0.9957485
 166434233, 0.1075801, 0.02432402, -0.02103832, -0.03834651, -0.08526181, 0.9961627, 0.09004023, 0.03174014, -0.02135751, -0.03754974, -0.08755676, 0.9959784
 166534193, 0.09866606, 0.009981375, -0.02311115, -0.03970186, -0.08249989, 0.9963193, 0.1075801, 0.02432402, -0.02103832, -0.03834651, -0.08526181, 0.9961627
 166634153, 0.09683269, -0.001488575, -0.02438802, -0.04042982, -0.07907049, 0.9965578, 0.09866606, 0.009981375, -0.02311115, -0.03970186, -0.08249989, 0.9963193
 166734113, 0.1002074, 0.009925978, -0.02294602, -0.04108852, -0.0747769, 0.9968743, 0.09683269, -0.001488575, -0.02438802, -0.04042982, -0.07907049, 0.9965578
 166834073, 0.1024875, 0.03269616, -0.02046926, -0.04229338, -0.07172234, 0.9970695, 0.1002074, 0.009925978, -0.02294602, -0.04108852, -0.0747769, 0.9968743
 166934033, 0.1010255, 0.0253178, -0.02109048, -0.04477533, -0.07008551, 0.9970692, 0.1024875, 0.03269616, -0.02046926, -0.04229338, -0.07172234, 0.9970695
 167033993, 0.1098855, 0.006574932, -0.02208873, -0.04634781, -0.0688484, 0.9970801, 0.1010255, 0.0253178, -0.02109048, -0.04477533, -0.07008551, 0.9970692
 167153945, 0.1086533, 0.02050103, -0.02093897, -0.04583145, -0.06793842, 0.9971755, 0.1098855, 0.006574932, -0.02208873, -0.04634781, -0.0688484, 0.9970801
 167253905, 0.10352, 0.01163816, -0.0221013, -0.04642925, -0.06679419, 0.9972114, 0.1086533, 0.02050103, -0.02093897, -0.04583145, -0.06793842, 0.9971755
 167353865, 0.1145479, 0.002775478, -0.02213219, -0.04624036, -0.06470767, 0.9973656, 0.10352, 0.01163816, -0.0221013, -0.04642925, -0.06679419, 0.9972114
 167453825, 0.1182503, 0.02031385, -0.02029392, -0.04655497, -0.06137113, 0.9975804, 0.1145479, 0.002775478, -0.02213219, -0.04624036, -0.06470767, 0.9973656
 167553785, 0.1005454, 0.00423457, -0.02274985, -0.04929647, -0.0594006, 0.997532, 0.1182503, 0.02031385, -0.02029392, -0.04655497, -0.06137113, 0.9975804
 167653745, 0.1171907, 0.0335581, -0.01899641, -0.0497452, -0.05663045, 0.9977165, 0.1005454, 0.00423457, -0.02274985, -0.04929647, -0.0594006, 0.997532
 167753705, 0.1282732, 0.01409882, -0.01974899, -0.04985649, -0.05490509, 0.9978068, 0.1171907, 0.0335581, -0.01899641, -0.0497452, -0.05663045, 0.9977165
 167853665, 0.1131176, 0.0223245, -0.02014908, -0.05167403, -0.05152473, 0.9978796, 0.1282732, 0.01409882, -0.01974899, -0.04985649, -0.05490509, 0.9978068
 167953625, 0.09619719, 0.02952124, -0.02091707, -0.05278113, -0.04794354, 0.9979846, 0.1131176, 0.0223245, -0.02014908, -0.05167403, -0.05152473, 0.9978796
 168053585, 0.1316248, 0.01126545, -0.0196506, -0.05114814, -0.04536656, 0.9982232, 0.09619719, 0.02952124, -0.02091707, -0.05278113, -0.04794354, 0.9979846
 168153545, 0.1199757, 0.03256964, -0.01911348, -0.05142255, -0.04260364, 0.9983317, 0.1316248, 0.01126545, -0.0196506, -0.05114814, -0.04536656, 0.9982232
 168253505, 0.1166183, 0.03722669, -0.01906078, -0.05214027, -0.04017241, 0.9983948, 0.1199757, 0.03256964, -0.01911348, -0.05142255, -0.04260364, 0.9983317
 168354298, 0.117487, 0.02305546, -0.01982777, -0.05334811, -0.03925047, 0.998356, 0.1166183, 0.03722669, -0.01906078, -0.05214027, -0.04017241, 0.9983948
 168454258, 0.1097997, 0.03717484, -0.01939639, -0.05462458, -0.03883182, 0.9983056, 0.117487, 0.02305546, -0.01982777, -0.05334811, -0.03925047, 0.998356
 168554218, 0.1163558, 0.004674738, -0.02098786, -0.0545972, -0.03958611, 0.9982589, 0.1097997, 0.03717484, -0.01939639, -0.05462458, -0.03883182, 0.9983056
 168654178, 0.1271215, 0.03861662, -0.01804864, -0.05338912, -0.03792863, 0.9984329, 0.1163558, 0.004674738, -0.02098786, -0.0545972, -0.03958611, 0.9982589
 168754138, 0.09222297, 0.03842488, -0.02087005, -0.05449567, -0.03579977, 0.9984051, 0.1271215, 0.03861662, -0.01804864, -0.05338912, -0.03792863, 0.9984329
 168854098, 0.1119928, 0.01876995, -0.02071195, -0.05296293, -0.03375627, 0.998566, 0.09222297, 0.03842488, -0.02087005, -0.05449567, -0.03579977, 0.9984051
 168954058, 0.125401, 0.04461718, -0.01805391, -0.0535763, -0.03162324, 0.9986458, 0.1119928, 0.01876995, -0.02071195, -0.05296293, -0.03375627, 0.998566
 169054018, 0.09767671, 0.03059685, -0.02085904, -0.05678494, -0.03085098, 0.9984418, 0.125401, 0.04461718, -0.01805391, -0.0535763, -0.03162324, 0.9986458
 169173970, 0.1199255, 0.01546795, -0.01965659, -0.05870844, -0.02952103, 0.9983869, 0.09767671, 0.03059685, -0.02085904, -0.05678494, -0.03085098, 0.9984418
 169273930, 0.09654853, 0.03165311, -0.02051288, -0.06176713, -0.02777859, 0.9982357, 0.1199255, 0.01546795, -0.01965659, -0.05870844, -0.02952103, 0.9983869
 169373890, 0.09587871, 0.02468205, -0.02097149, -0.06168729, -0.02728706, 0.9982474, 0.09654853, 0.03165311, -0.02051288, -0.06176713, -0.02777859, 0.9982357
 169473850, 0.1004175, 0.02658097, -0.02060161, -0.06019571, -0.02812492, 0.9983221, 0.09587871, 0.02468205, -0.02097149, -0.06168729, -0.02728706, 0.9982474
 169573810, 0.1217071, 0.02011791, -0.01934022, -0.0579794, -0.02922014, 0.9984446, 0.1004175, 0.02658097, -0.02060161, -0.06019571, -0.02812492, 0.9983221
 169673770, 0.1228553, 0.03458899, -0.01855423, -0.0568995, -0.02922415, 0.9985211, 0.1217071, 0.02011791, -0.01934022, -0.0579794, -0.02922014, 0.9984446
 169773730, 0.09072352, 0.03971973, -0.02095324, -0.0571961, -0.02869956, 0.9984826, 0.1228553, 0.03458899, -0.01855423, -0.0568995, -0.02922415, 0.9985211
 169873690, 0.1138446, 0.02545393, -0.02000118, -0.05589328, -0.02737711, 0.9986093, 0.09072352, 0.03971973, -0.02095324, -0.0571961, -0.02869956, 0.9984826
 169973650, 0.1090061, 0.0217516, -0.02036041, -0.05834207, -0.02649593, 0.9984834, 0.1138446, 0.02545393, -0.02000118, -0.05589328, -0.02737711, 0.9986093
 170073610, 0.1292088, 0.03599995, -0.01788719, -0.05843595, -0.02480552, 0.9985626, 0.1090061, 0.0217516, -0.02036041, -0.05834207, -0.02649593, 0.9984834
 170173570, 0.1028287, 0.02801823, -0.02041256, -0.05994777, -0.02585445, 0.9984024, 0.1292088, 0.03599995, -0.01788719, -0.05843595, -0.02480552, 0.9985626
 170273530, 0.1118993, 0.02583245, -0.01977955, -0.05951964, -0.02626448, 0.998427, 0.1028287, 0.02801823, -0.02041256, -0.05994777, -0.02585445, 0.9984024
 170373490, 0.09660318, 0.02714785, -0.02080958, -0.06217516, -0.0247761, 0.9982851, 0.1118993, 0.02583245, -0.01977955, -0.05951964, -0.02626448, 0.998427
 170474283, 0.1236975, 0.009242041, -0.01930671, -0.06242208, -0.02214496, 0.9983521, 0.09660318, 0.02714785, -0.02080958, -0.06217516, -0.0247761, 0.9982851
 170574243, 0.1339167, 0.0177791, -0.01803433, -0.06201375, -0.02038077, 0.9984375, 0.1236975, 0.009242041, -0.01930671, -0.06242208, -0.02214496, 0.9983521
 170674203, 0.1122523, 0.0062514, -0.02038984, -0.0633968, -0.02038469, 0.9983101, 0.1339167, 0.0177791, -0.01803433, -0.06201375, -0.02038077, 0.9984375
 170774163, 0.1041312, 0.01292837, -0.02089553, -0.0627038, -0.01918079, 0.9983725, 0.1122523, 0.0062514, -0.02038984, -0.0633968, -0.02038469, 0.9983101
 170874123, 0.1172929, 0.02929945, -0.01936124, -0.05951273, -0.01813693, 0.9986185, 0.1041312, 0.01292837, -0.02089553, -0.0627038, -0.01918079, 0.9983725
 170974083, 0.1086976, 0.01579318, -0.02067195, -0.05968843, -0.02024487, 0.9985443, 0.1172929, 0.02929945, -0.01936124, -0.05951273, -0.01813693, 0.9986185
 171074043, 0.1294921, 0.01965786, -0.01873314, -0.05906407, -0.02073227, 0.9986036, 0.1086976, 0.01579318, -0.02067195, -0.05968843, -0.02024487, 0.9985443
 171174003, 0.1093243, 0.04312762, -0.0192707, -0.06003359, -0.02037795, 0.9985463, 0.1294921, 0.01965786, -0.01873314, -0.05906407, -0.02073227, 0.9986036
 171293955, 0.1321319, 0.02005806, -0.01860792, -0.05815952, -0.02029586, 0.99867, 0.1093243, 0.04312762, -0.0192707, -0.06003359, -0.02037795, 0.9985463
 171393915, 0.1010099, 0.03314288, -0.02051847, -0.0597977, -0.01976688, 0.9985527, 0.1321319, 0.02005806, -0.01860792, -0.05815952, -0.02029586, 0.99867
 171493875, 0.1055045, 0.005465031, -0.02127929, -0.06120281, -0.0191302, 0.9984623, 0.1010099, 0.03314288, -0.02051847, -0.0597977, -0.01976688, 0.9985527
 171593835, 0.1147558, 0.0221827, -0.01976219, -0.06071367, -0.01909357, 0.9985183, 0.1055045, 0.005465031, -0.02127929, -0.06120281, -0.0191302, 0.9984623
 171693795, 0.128873, 0.04840042, -0.01756259, -0.05829438, -0.01925622, 0.9987046, 0.1147558, 0.0221827, -0.01976219, -0.06071367, -0.01909357, 0.9985183
 171793755, 0.1038954, 0.00885972, -0.02140427, -0.05989196, -0.01973457, 0.9985304, 0.128873, 0.04840042, -0.01756259, -0.05829438, -0.01925622, 0.9987046
 171893715, 0.1158777, 0.03730911, -0.01917005, -0.05920854, -0.01801538, 0.9986439, 0.1038954, 0.00885972, -0.02140427, -0.05989196, -0.01973457, 0.9985304
 171993675, 0.1070146, 0.01734675, -0.02084544, -0.05939274, -0.0166952, 0.9986264, 0.1158777, 0.03730911, -0.01917005, -0.05920854, -0.01801538, 0.9986439
 172093635, 0.09603573, 0.03455601, -0.02101574, -0.05985105, -0.01569052, 0.998617, 0.1070146, 0.01734675, -0.02084544, -0.05939274, -0.0166952, 0.9986264
 172193595, 0.131494, 0.03605475, -0.01818857, -0.05716307, -0.01601549, 0.9988188, 0.09603573, 0.03455601, -0.02101574, -0.05985105, -0.01569052, 0.998617
 172293555, 0.1133673, 0.03811924, -0.01954657, -0.05768724, -0.01746528, 0.9987401, 0.131494, 0.03605475, -0.01818857, -0.05716307, -0.01601549, 0.9988188
 172393515, 0.1232801, 0.0317976, -0.01908985, -0.05651407, -0.01868991, 0.9987927, 0.1133673, 0.03811924, -0.01954657, -0.05768724, -0.01746528, 0.9987401
 172493475, 0.1076619, 0.008572736, -0.02142059, -0.05681712, -0.02017783, 0.9987056, 0.1232801, 0.0317976, -0.01908985, -0.05651407, -0.01868991, 0.9987927
 172594268, 0.1127941, 0.03766541, -0.01985121, -0.05565367, -0.01719616, 0.9988589, 0.1076619, 0.008572736, -0.02142059, -0.05681712, -0.02017783, 0.9987056
 172694228, 0.1253525, 0.01657165, -0.01992362, -0.05441237, -0.01579845, 0.9989489, 0.1127941, 0.03766541, -0.01985121, -0.05565367, -0.01719616, 0.9988589
 172794188, 0.1267384, 0.01957111, -0.01959802, -0.05521535, -0.01512601, 0.9989196, 0.1253525, 0.01657165, -0.01992362, -0.05441237, -0.01579845, 0.9989489
 172894148, 0.1140329, 0.0409596, -0.01958027, -0.05652262, -0.01541728, 0.9988439, 0.1267384, 0.01957111, -0.01959802, -0.05521535, -0.01512601, 0.9989196
 172994108, 0.1035515, 0.007491532, -0.02169207, -0.05827189, -0.01693831, 0.9986758, 0.1140329, 0.0409596, -0.01958027, -0.05652262, -0.01541728, 0.9988439
 173094068, 0.1019476, 0.02275515, -0.02119799, -0.05783142, -0.01728146, 0.998706, 0.1035515, 0.007491532, -0.02169207, -0.05827189, -0.01693831, 0.9986758
 173194028, 0.1054425, 0.00852494, -0.02148998, -0.05823272, -0.01773763, 0.9986672, 0.1019476, 0.02275515, -0.02119799, -0.05783142, -0.01728146, 0.998706
 173313980, 0.1158259, 0.02457442, -0.01994894, -0.05781823, -0.01727499, 0.9987263, 0.1054425, 0.00852494, -0.02148998, -0.05823272, -0.01773763, 0.9986672
 173413940, 0.1189424, 0.04150832, -0.01909128, -0.05673767, -0.01617197, 0.9988269, 0.1158259, 0.02457442, -0.01994894, -0.05781823, -0.01727499, 0.9987263
 173513900, 0.09637284, 0.01754934, -0.02198303, -0.0570294, -0.01671186, 0.9987507, 0.1189424, 0.04150832, -0.01909128, -0.05673767, -0.01617197, 0.9988269
 173613860, 0.1201571, 0.03562758, -0.01948707, -0.05460029, -0.01672963, 0.9989327, 0.09637284, 0.01754934, -0.02198303, -0.0570294, -0.01671186, 0.9987507
 173713820, 0.1252586, 0.00936134, -0.02034443, -0.05364938, -0.01658116, 0.998971, 0.1201571, 0.03562758, -0.01948707, -0.05460029, -0.01672963, 0.9989327
 173813780, 0.1026249, 0.04413248, -0.02074932, -0.05360686, -0.01413815, 0.9990118, 0.1252586, 0.00936134, -0.02034443, -0.05364938, -0.01658116, 0.998971
 173913740, 0.1005888, 0.02021428, -0.02188237, -0.05395621, -0.01399979, 0.9989702, 0.1026249, 0.04413248, -0.02074932, -0.05360686, -0.01413815, 0.9990118
 174013700, 0.1336206, 0.02864695, -0.01903553, -0.05253462, -0.01372946, 0.9991026, 0.1005888, 0.02021428, -0.02188237, -0.05395621, -0.01399979, 0.9989702
 174113660, 0.1108043, 0.01522777, -0.02115607, -0.05501958, -0.01421374, 0.9989178, 0.1336206, 0.02864695, -0.01903553, -0.05253462, -0.01372946, 0.9991026
 174213620, 0.115639, 0.02625579, -0.02045952, -0.05377444, -0.01375205, 0.9990078, 0.1108043, 0.01522777, -0.02115607, -0.05501958, -0.01421374, 0.9989178
 174313580, 0.1106335, 0.01457276, -0.02143041, -0.05286474, -0.01463259, 0.9990273, 0.115639, 0.02625579, -0.02045952, -0.05377444, -0.01375205, 0.9990078
 174413540, 0.1274371, 0.03520976, -0.01945502, -0.05087331, -0.01460904, 0.9991727, 0.1106335, 0.01457276, -0.02143041, -0.05286474, -0.01463259, 0.9990273
 174513500, 0.118784, 0.03790862, -0.01994084, -0.05160508, -0.01458072, 0.9991258, 0.1274371, 0.03520976, -0.01945502, -0.05087331, -0.01460904, 0.9991727
 174614293, 0.1286251, 0.02595033, -0.01967873, -0.05130828, -0.01548938, 0.9991302, 0.118784, 0.03790862, -0.01994084, -0.05160508, -0.01458072, 0.9991258
 174714253, 0.09337108, 0.02909188, -0.02199787, -0.05380218, -0.01786107, 0.998916, 0.1286251, 0.02595033, -0.01967873, -0.05130828, -0.01548938, 0.9991302
 174814213, 0.09927509, 0.006186882, -0.02263486, -0.05295471, -0.01978854, 0.9989128, 0.09337108, 0.02909188, -0.02199787, -0.05380218, -0.01786107, 0.998916
 174914173, 0.09494579, 0.02986968, -0.02180846, -0.05347016, -0.02011676, 0.9988933, 0.09927509, 0.006186882, -0.02263486, -0.05295471, -0.01978854, 0.9989128
 175014133, 0.1315484, 0.01240949, -0.01986621, -0.05215213, -0.02091084, 0.9989799, 0.09494579, 0.02986968, -0.02180846, -0.05347016, -0.02011676, 0.9988933
 175114093, 0.09847318, 0.01806343, -0.02201369, -0.05370061, -0.02368177, 0.9987965, 0.1315484, 0.01240949, -0.01986621, -0.05215213, -0.02091084, 0.9989799
 175214053, 0.12042, 0.03153241, -0.01985096, -0.05061995, -0.02646422, 0.9989276, 0.09847318, 0.01806343, -0.02201369, -0.05370061, -0.02368177, 0.9987965
 175314013, 0.1130774, 0.02061873, -0.02101996, -0.04996978, -0.03017662, 0.9988351, 0.12042, 0.03153241, -0.01985096, -0.05061995, -0.02646422, 0.9989276
 175433965, 0.1201686, 0.02723818, -0.02021689, -0.0485582, -0.03176014, 0.9988712, 0.1130774, 0.02061873, -0.02101996, -0.04996978, -0.03017662, 0.9988351
 175533925, 0.1089393, 0.04602884, -0.02001491, -0.04694668, -0.03388317, 0.9988815, 0.1201686, 0.02723818, -0.02021689, -0.0485582, -0.03176014, 0.9988712
 175633885, 0.1281573, 0.01220704, -0.02105776, -0.04354471, -0.03970936, 0.998816, 0.1089393, 0.04602884, -0.02001491, -0.04694668, -0.03388317, 0.9988815
 175733845, 0.1299357, 0.032925, -0.01963236, -0.04097397, -0.0469493, 0.9986316, 0.1281573, 0.01220704, -0.02105776, -0.04354471, -0.03970936, 0.998816
 175833805, 0.1251424, 0.04313862, -0.01902929, -0.03892364, -0.05708089, 0.9981885, 0.1299357, 0.032925, -0.01963236, -0.04097397, -0.0469493, 0.9986316
 175933765, 0.1009581, 0.01013533, -0.02347085, -0.03727757, -0.07291093, 0.9971578, 0.1251424, 0.04313862, -0.01902929, -0.03892364, -0.05708089, 0.9981885
 176033725, 0.09952009, 0.04635613, -0.01954265, -0.03094013, -0.09526541, 0.9955187, 0.1009581, 0.01013533, -0.02347085, -0.03727757, -0.07291093, 0.9971578
 176133685, 0.1296487, 0.024099, -0.02083745, -0.03024094, -0.08596821, 0.9964058, 0.09952009, 0.04635613, -0.01954265, -0.03094013, -0.09526541, 0.9955187
 176233645, 0.1201582, 0.03923604, -0.02112823, -0.06571117, 0.06393793, 0.9963602, 0.1296487, 0.024099, -0.02083745, -0.03024094, -0.08596821, 0.9964058
 176333605, 0.1052513, -0.007710774, -0.01397765, -0.118028, 0.2900388, 0.9502509, 0.1201582, 0.03923604, -0.02112823, -0.06571117, 0.06393793, 0.9963602
 176433565, 0.1050021, 0.01581349, -0.02067327, -0.1606355, 0.4761415, 0.8651919, 0.1052513, -0.007710774, -0.01397765, -0.118028, 0.2900388, 0.9502509
 176533525, 0.08503209, 0.005191909, -0.01954203, -0.1761721, 0.5562119, 0.8127736, 0.1050021, 0.01581349, -0.02067327, -0.1606355, 0.4761415, 0.8651919
 176633485, 0.08845272, 0.0151563, -0.02643235, -0.1567922, 0.5382069, 0.8287245, 0.08503209, 0.005191909, -0.01954203, -0.1761721, 0.5562119, 0.8127736
 176734278, 0.120545, 0.01719066, -0.02267968, -0.1203736, 0.4514724, 0.8847576, 0.08845272, 0.0151563, -0.02643235, -0.1567922, 0.5382069, 0.8287245
 176834238, 0.099558, 0.02402496, -0.02813074, -0.09170461, 0.3428815, 0.9354638, 0.120545, 0.01719066, -0.02267968, -0.1203736, 0.4514724, 0.8847576
 176934198, 0.1215767, 0.01150269, -0.02135729, -0.07774424, 0.2635625, 0.9620788, 0.099558, 0.02402496, -0.02813074, -0.09170461, 0.3428815, 0.9354638
 177034158, 0.1324565, 0.01868476, -0.02109246, -0.0786349, 0.2375744, 0.9687759, 0.1215767, 0.01150269, -0.02135729, -0.07774424, 0.2635625, 0.9620788
 177134118, 0.1067637, -0.009502914, -0.01624065, -0.0912, 0.2597679, 0.9618948, 0.1324565, 0.01868476, -0.02109246, -0.0786349, 0.2375744, 0.9687759
 177234078, 0.1111539, 0.005787621, -0.01857892, -0.1033956, 0.3090462, 0.9459776, 0.1067637, -0.009502914, -0.01624065, -0.0912, 0.2597679, 0.9618948
 177334038, 0.09988684, 0.007857759, -0.02034356, -0.1138277, 0.3527704, 0.9293255, 0.1111539, 0.005787621, -0.01857892, -0.1033956, 0.3090462, 0.9459776
 177433998, 0.1251521, -0.005699, -0.01141989, -0.1155996, 0.3737013, 0.9209143, 0.09988684, 0.007857759, -0.02034356, -0.1138277, 0.3527704, 0.9293255
 177553950, 0.1179683, 0.006300832, -0.01703741, -0.114987, 0.3645803, 0.9246379, 0.1251521, -0.005699, -0.01141989, -0.1155996, 0.3737013, 0.9209143
 177653910, 0.1061664, 0.0075673, -0.01915117, -0.1128808, 0.337977, 0.9349306, 0.1179683, 0.006300832, -0.01703741, -0.114987, 0.3645803, 0.9246379
 177753870, 0.1063723, -0.009849668, -0.01352773, -0.1121731, 0.3078206, 0.9453599, 0.1061664, 0.0075673, -0.01915117, -0.1128808, 0.337977, 0.9349306
 177853830, 0.1012312, 0.010738, -0.01985649, -0.1141402, 0.2857519, 0.9520375, 0.1063723, -0.009849668, -0.01352773, -0.1121731, 0.3078206, 0.9453599
 177953790, 0.09512798, 0.005408613, -0.01871955, -0.1188653, 0.2763326, 0.9542255, 0.1012312, 0.010738, -0.01985649, -0.1141402, 0.2857519, 0.9520375
 178053750, 0.1196796, 0.008855088, -0.0152014, -0.1240429, 0.2780085, 0.9531165, 0.09512798, 0.005408613, -0.01871955, -0.1188653, 0.2763326, 0.9542255
 178153710, 0.08882287, 0.01370317, -0.02069384, -0.1336004, 0.2843564, 0.949908, 0.1196796, 0.008855088, -0.0152014, -0.1240429, 0.2780085, 0.9531165
 178253670, 0.118716, -0.01486042, -0.007087231, -0.1382242, 0.2888484, 0.9479108, 0.08882287, 0.01370317, -0.02069384, -0.1336004, 0.2843564, 0.949908
 178353630, 0.1201137, 0.007329881, -0.01249106, -0.1429569, 0.291203, 0.9465048, 0.118716, -0.01486042, -0.007087231, -0.1382242, 0.2888484, 0.9479108
 178453590, 0.08970758, 0.01271214, -0.01895331, -0.1484676, 0.2872771, 0.9468175, 0.1201137, 0.007329881, -0.01249106, -0.1429569, 0.291203, 0.9465048
 178553550, 0.1071555, -0.0004539341, -0.01179424, -0.1502273, 0.2783313, 0.9492227, 0.08970758, 0.01271214, -0.01895331, -0.1484676, 0.2872771, 0.9468175
 178653510, 0.1099677, 0.003882437, -0.01211014, -0.1523034, 0.2683496, 0.9517699, 0.1071555, -0.0004539341, -0.01179424, -0.1502273, 0.2783313, 0.9492227
 178754303, 0.09145527, 0.01874606, -0.01888579, -0.1561815, 0.2597766, 0.9535044, 0.1099677, 0.003882437, -0.01211014, -0.1523034, 0.2683496, 0.9517699
 178854263, 0.1235482, -0.01065583, -0.005206799, -0.1573359, 0.2529667, 0.9551705, 0.09145527, 0.01874606, -0.01888579, -0.1561815, 0.2597766, 0.9535044
 178954223, 0.095658, 0.01818669, -0.01712097, -0.1619941, 0.2497082, 0.9552281, 0.1235482, -0.01065583, -0.005206799, -0.1573359, 0.2529667, 0.9551705
 179054183, 0.1280596, -0.0002505863, -0.006160969, -0.1620768, 0.244241, 0.9566621, 0.095658, 0.01818669, -0.01712097, -0.1619941, 0.2497082, 0.9552281
 179154143, 0.103327, 0.004253543, -0.01186566, -0.1649036, 0.2386573, 0.957553, 0.1280596, -0.0002505863, -0.006160969, -0.1620768, 0.244241, 0.9566621
 179254103, 0.1310104, 0.008918056, -0.007343531, -0.1635514, 0.2333899, 0.9591284, 0.103327, 0.004253543, -0.01186566, -0.1649036, 0.2386573, 0.957553
 179354063, 0.1233564, 0.01483151, -0.00980418, -0.166168, 0.2292473, 0.9596691, 0.1310104, 0.008918056, -0.007343531, -0.1635514, 0.2333899, 0.9591284
 179454023, 0.1051352, 0.008687466, -0.01184889, -0.1693209, 0.2257673, 0.9599112, 0.1233564, 0.01483151, -0.00980418, -0.166168, 0.2292473, 0.9596691
 179573975, 0.09875847, -0.01786714, -0.007489754, -0.1702845, 0.2199199, 0.9610734, 0.1051352, 0.008687466, -0.01184889, -0.1693209, 0.2257673, 0.9599112
 179673935, 0.1157516, -0.01174285, -0.005362403, -0.1693645, 0.2143261, 0.962527, 0.09875847, -0.01786714, -0.007489754, -0.1702845, 0.2199199, 0.9610734
 179773895, 0.119115, -0.004383157, -0.006141441, -0.1694585, 0.2073486, 0.9640471, 0.1157516, -0.01174285, -0.005362403, -0.1693645, 0.2143261, 0.962527
 179873855, 0.1367395, 0.0120986, -0.005594028, -0.1688063, 0.2001446, 0.9657226, 0.119115, -0.004383157, -0.006141441, -0.1694585, 0.2073486, 0.9640471
 179973815, 0.1042367, -0.01415094, -0.007317547, -0.1717306, 0.190668, 0.9670563, 0.1367395, 0.0120986, -0.005594028, -0.1688063, 0.2001446, 0.9657226
 180073775, 0.09591451, -0.0216023, -0.007656557, -0.1740331, 0.1834112, 0.9680328, 0.1042367, -0.01415094, -0.007317547, -0.1717306, 0.190668, 0.9670563
 180173735, 0.1209119, -0.002636822, -0.005641535, -0.1733163, 0.1785168, 0.9691226, 0.09591451, -0.0216023, -0.007656557, -0.1740331, 0.1834112, 0.9680328
 180273695, 0.1296657, -0.009007802, -0.002694201, -0.1737204, 0.1742117, 0.9698449, 0.1209119, -0.002636822, -0.005641535, -0.1733163, 0.1785168, 0.9691226
 180373655, 0.1092274, -0.02559077, -0.004341729, -0.1753731, 0.169286, 0.9703795, 0.1296657, -0.009007802, -0.002694201, -0.1737204, 0.1742117, 0.9698449
 180473615, 0.1122433, -0.02264676, -0.004250687, -0.1756304, 0.163382, 0.9713504, 0.1092274, -0.02559077, -0.004341729, -0.1753731, 0.169286, 0.9703795
 180573575, 0.1207776, 0.00985292, -0.007106876, -0.1760641, 0.1568846, 0.9723728, 0.1122433, -0.02264676, -0.004250687, -0.1756304, 0.163382, 0.9713504
 180673535, 0.1128455, 0.001922451, -0.007541627, -0.1771971, 0.1491773, 0.9733623, 0.1207776, 0.00985292, -0.007106876, -0.1760641, 0.1568846, 0.9723728
 180773495, 0.1311079, -0.01829062, -0.0009818468, -0.1771047, 0.1431806, 0.9742994, 0.1128455, 0.001922451, -0.007541627, -0.1771971, 0.1491773, 0.9733623
 180874288, 0.1306241, 0.008700828, -0.004302753, -0.1784593, 0.1391077, 0.9746553, 0.1311079, -0.01829062, -0.0009818468, -0.1771047, 0.1431806, 0.9742994
 180974248, 0.1316796, -0.004071767, -0.002382418, -0.1794965, 0.1326515, 0.9753594, 0.1306241, 0.008700828, -0.004302753, -0.1784593, 0.1391077, 0.9746553
 181074208, 0.1061797, 0.00022179, -0.008268462, -0.1812531, 0.1270086, 0.9757471, 0.1316796, -0.004071767, -0.002382418, -0.1794965, 0.1326515, 0.9753594
 181174168, 0.1172128, 0.004133136, -0.006300535, -0.1807863, 0.1206368, 0.9766608, 0.1061797, 0.00022179, -0.008268462, -0.1812531, 0.1270086, 0.9757471
 181274128, 0.1417703, 0.002989274, -0.0007782634, -0.18032, 0.114808, 0.977491, 0.1172128, 0.004133136, -0.006300535, -0.1807863, 0.1206368, 0.9766608
