TimeUS,COFN,COFE,COFD,CNe,CEe,CDe,POFN,POFE,POFD,PNe,PEe,PDe
 170358496, 0, 0, 0, 0, 0, 0, 0, 0, 0, 0, 0, 0
 170430967, 0.02360948, 0.01945295, -0.002919521, 0.02692961, -0.0260312, 6.46902E-05, 0, 0, 0, 0, 0, 0
 170630887, 0, 0, 0, 0.02692961, -0.0260312, 6.46902E-05, 0.02360948, 0.01945295, -0.002919521, 0.02692961, -0.0260312, 6.46902E-05
 170830807, -0.001398676, -0.005245598, -1.12218E-05, 0.02595437, -0.02757194, 0.4000028, 0, 0, 0, 0.02692961, -0.0260312, 6.46902E-05
 171030727, -0.008758701, 0.01632675, 1.096263E-05, 0.02579292, -0.027115, 0.4000036, -0.001398676, -0.005245598, -1.12218E-05, 0.02595437, -0.02757194, 0.4000028
 171231480, -0.01152526, -0.002566231, -2.546917E-05, 0.0257326, -0.0275085, 0.4000032, -0.008758701, 0.01632675, 1.096263E-05, 0.02579292, -0.027115, 0.4000036
 171431400, 0.003355049, -0.003230861, 8.554566E-07, 0.02605078, -0.02752393, 0.4000039, -0.01152526, -0.002566231, -2.546917E-05, 0.0257326, -0.0275085, 0.4000032
 171631320, 0.01261543, 0.02307966, 6.152525E-05, 0.0262707, -0.02699181, 0.4000051, 0.003355049, -0.003230861, 8.554566E-07, 0.02605078, -0.02752393, 0.4000039
 171831240, 0.01036559, 0.006274783, 2.964058E-05, 0.02621318, -0.02731716, 0.4000046, 0.01261543, 0.02307966, 6.152525E-05, 0.0262707, -0.02699181, 0.4000051
 172031160, -0.01208286, -0.005347244, -3.142181E-05, 0.0257122, -0.02757514, 0.4000035, 0.01036559, 0.006274783, 2.964058E-05, 0.02621318, -0.02731716, 0.4000046
 172231080, -0.009510557, 0.006913644, -6.399706E-06, 0.0257603, -0.02730232, 0.4000044, -0.01208286, -0.005347244, -3.142181E-05, 0.0257122, -0.02757514, 0.4000035
 172431000, 0.009937458, -0.003183837, 1.342029E-05, 0.02619322, -0.02752385, 0.4000049, -0.009510557, 0.006913644, -6.399706E-06, 0.0257603, -0.02730232, 0.4000044
 172630920, 0.01729855, 0.01124145, 5.126615E-05, 0.02637698, -0.02721585, 0.4000058, 0.009937458, -0.003183837, 1.342029E-05, 0.02619322, -0.02752385, 0.4000049
 172830840, 0.008709343, -0.006054789, 6.284138E-06, 0.02616456, -0.0275938, 0.4000045, 0.01729855, 0.01124145, 5.126615E-05, 0.02637698, -0.02721585, 0.4000058
 173030760, -0.01929644, -0.01089408, -5.402962E-05, 0.02557537, -0.02770688, 0.4000031, 0.008709343, -0.006054789, 6.284138E-06, 0.02616456, -0.0275938, 0.4000045
 173230680, 0.01839069, -0.0230048, -4.019992E-06, 0.02641893, -0.02801868, 0.4000038, -0.01929644, -0.01089408, -5.402962E-05, 0.02557537, -0.02770688, 0.4000031
 173431433, 0.01981006, 0.003620026, 4.247081E-05, 0.02645914, -0.02737208, 0.4000047, 0.01839069, -0.0230048, -4.019992E-06, 0.02641893, -0.02801868, 0.4000038
 173631353, 0.01569874, 0.004119078, 3.572883E-05, 0.0263518, -0.02736023, 0.4000046, 0.01981006, 0.003620026, 4.247081E-05, 0.02645914, -0.02737208, 0.4000047
 173831273, -0.00451544, -0.02514407, -4.991093E-05, 0.02587786, -0.02807801, 0.4000024, 0.01569874, 0.004119078, 3.572883E-05, 0.0263518, -0.02736023, 0.4000046
 174031193, 0.004681354, -0.02168669, -2.743037E-05, 0.02608349, -0.02798728, 0.4000027, -0.00451544, -0.02514407, -4.991093E-05, 0.02587786, -0.02807801, 0.4000024
 174231113, -0.007317556, -0.008859671, -2.815869E-05, 0.02582049, -0.02766048, 0.4000027, 0.004681354, -0.02168669, -2.743037E-05, 0.02608349, -0.02798728, 0.4000027
 174431033, 0.005834628, -0.01632347, -1.634486E-05, 0.0261141, -0.0278442, 0.4000029, -0.007317556, -0.008859671, -2.815869E-05, 0.02582049, -0.02766048, 0.4000027
 174630953, 0.01952805, 0.02439625, 7.602228E-05, 0.02645569, -0.02696823, 0.4000051, 0.005834628, -0.01632347, -1.634486E-05, 0.0261141, -0.0278442, 0.4000029
 174830873, -0.003086755, 0.02512184, 3.575549E-05, 0.02591212, -0.02695423, 0.4000042, 0.01952805, 0.02439625, 7.602228E-05, 0.02645569, -0.02696823, 0.4000051
 175030793, 0.004640201, -0.003646369, 2.507072E-06, 0.02608566, -0.02753058, 0.4000037, -0.003086755, 0.02512184, 3.575549E-05, 0.02591212, -0.02695423, 0.4000042
 175230713, -0.006862064, -0.01280635, -3.355524E-05, 0.02583203, -0.02774866, 0.400003, 0.004640201, -0.003646369, 2.507072E-06, 0.02608566, -0.02753058, 0.4000037
 175431466, -0.01642654, -0.02118585, -6.471707E-05, 0.02564215, -0.02796406, 0.4000023, -0.006862064, -0.01280635, -3.355524E-05, 0.02583203, -0.02774866, 0.400003
 175631386, 0.02506423, -0.004389476, 3.875057E-05, 0.02660386, -0.02754417, 0.4000049, -0.01642654, -0.02118585, -6.471707E-05, 0.02564215, -0.02796406, 0.4000023
 175831306, -0.001209107, 0.02461973, 3.798042E-05, 0.02595204, -0.02695658, 0.4000048, 0.02506423, -0.004389476, 3.875057E-05, 0.02660386, -0.02754417, 0.4000049
 176031226, 0.02489269, 0.02360654, 8.408604E-05, 0.02659804, -0.0269721, 0.4000061, -0.001209107, 0.02461973, 3.798042E-05, 0.02595204, -0.02695658, 0.4000048
 176231146, 0.01836224, 0.01524298, 5.843373E-05, 0.02642379, -0.02712386, 0.4000056, 0.02489269, 0.02360654, 8.408604E-05, 0.02659804, -0.0269721, 0.4000061
 176431066, 0.002926276, -0.01400199, -1.741754E-05, 0.0260434, -0.02777388, 0.4000039, 0.01836224, 0.01524298, 5.843373E-05, 0.02642379, -0.02712386, 0.4000056
 176630986, -0.0117596, -0.01291934, -4.286072E-05, 0.02572484, -0.02774854, 0.4000035, 0.002926276, -0.01400199, -1.741754E-05, 0.0260434, -0.02777388, 0.4000039
 176830906, 0.0004235399, 0.01574152, 2.656163E-05, 0.02598064, -0.02711905, 0.400005, -0.0117596, -0.01291934, -4.286072E-05, 0.02572484, -0.02774854, 0.4000035
 177030826, 0.003596088, 0.006736206, 1.771372E-05, 0.0260526, -0.02729945, 0.4000048, 0.0004235399, 0.01574152, 2.656163E-05, 0.02598064, -0.02711905, 0.400005
 177230746, 0.01907465, -0.0213736, 3.601053E-07, 0.02643418, -0.02796935, 0.4000044, 0.003596088, 0.006736206, 1.771372E-05, 0.0260526, -0.02729945, 0.4000048
 177430666, -0.02405781, 0.01765206, -1.6042E-05, 0.02549016, -0.02708164, 0.4000045, 0.01907465, -0.0213736, 3.601053E-07, 0.02643418, -0.02796935, 0.4000044
 177631419, -0.02342718, -0.01573191, -6.973519E-05, 0.02549489, -0.02781769, 0.4000039, -0.02405781, 0.01765206, -1.6042E-05, 0.02549016, -0.02708164, 0.4000045
 177831339, 0.003786072, 0.01251104, 2.756815E-05, 0.02604563, -0.02717902, 0.400006, -0.02342718, -0.01573191, -6.973519E-05, 0.02549489, -0.02781769, 0.4000039
 178031259, 0.01382435, -0.002934903, 2.120602E-05, 0.0262903, -0.02750742, 0.4000058, 0.003786072, 0.01251104, 2.756815E-05, 0.02604563, -0.02717902, 0.400006
 178231179, 0.004981989, -0.005308343, 6.882492E-07, 0.02608109, -0.02755925, 0.4000052, 0.01382435, -0.002934903, 2.120602E-05, 0.0262903, -0.02750742, 0.4000058
 178431099, 0.02202844, -0.008757677, 2.671059E-05, 0.02651306, -0.02764001, 0.4000057, 0.004981989, -0.005308343, 6.882492E-07, 0.02608109, -0.02755925, 0.4000052
 178631019, 0.008543911, 0.02432848, 5.516492E-05, 0.02617183, -0.02695467, 0.400006, 0.02202844, -0.008757677, 2.671059E-05, 0.02651306, -0.02764001, 0.4000057
 178830939, 0.02051354, -0.00174808, 3.499701E-05, 0.02647748, -0.02747287, 0.4000058, 0.008543911, 0.02432848, 5.516492E-05, 0.02617183, -0.02695467, 0.400006
 179030859, -0.01814208, -0.01728909, -6.108422E-05, 0.02560664, -0.027847, 0.4000037, 0.02051354, -0.00174808, 3.499701E-05, 0.02647748, -0.02747287, 0.4000058
 179230779, -0.02041937, -0.01060148, -5.439814E-05, 0.02556676, -0.02767608, 0.4000039, -0.01814208, -0.01728909, -6.108422E-05, 0.02560664, -0.027847, 0.4000037
 179430699, 0.01784166, 0.00807956, 4.552563E-05, 0.02641271, -0.02725426, 0.400006, -0.02041937, -0.01060148, -5.439814E-05, 0.02556676, -0.02767608, 0.4000039
 179631452, 0.01045273, 0.007540499, 3.11522E-05, 0.02622772, -0.02726753, 0.4000054, 0.01784166, 0.00807956, 4.552563E-05, 0.02641271, -0.02725426, 0.400006
 179831372, 0.02269745, 0.0140113, 6.392396E-05, 0.0265427, -0.02713933, 0.4000061, 0.01045273, 0.007540499, 3.11522E-05, 0.02622772, -0.02726753, 0.4000054
 180031292, 0.01598609, 0.01202995, 4.846519E-05, 0.02636795, -0.02717971, 0.4000055, 0.02269745, 0.0140113, 6.392396E-05, 0.0265427, -0.02713933, 0.4000061
 180231212, -0.007519417, 0.02424382, 2.565324E-05, 0.02582427, -0.02695805, 0.4000044, 0.01598609, 0.01202995, 4.846519E-05, 0.02636795, -0.02717971, 0.4000055
 180431132, 0.008596704, -0.01194246, -3.8246E-06, 0.02618353, -0.02772381, 0.4000037, -0.007519417, 0.02424382, 2.565324E-05, 0.02582427, -0.02695805, 0.4000044
 180631052, -0.0252053, -0.0240261, -8.514938E-05, 0.02548623, -0.02803704, 0.4000021, 0.008596704, -0.01194246, -3.8246E-06, 0.02618353, -0.02772381, 0.4000037
 180830972, -0.0238372, -0.008263852, -5.690597E-05, 0.02551057, -0.02763075, 0.4000029, -0.0252053, -0.0240261, -8.514938E-05, 0.02548623, -0.02803704, 0.4000021
 181030892, -0.01870027, -0.007591435, -4.639362E-05, 0.02560427, -0.02761556, 0.4000029, -0.0238372, -0.008263852, -5.690597E-05, 0.02551057, -0.02763075, 0.4000029
 181230812, -0.01831342, 0.01183498, -1.394244E-05, 0.02561303, -0.02719313, 0.4000033, -0.01870027, -0.007591435, -4.639362E-05, 0.02560427, -0.02761556, 0.4000029
 181430732, 0.02134213, -0.007380986, 2.673556E-05, 0.02650909, -0.02761528, 0.4000041, -0.01831342, 0.01183498, -1.394244E-05, 0.02561303, -0.02719313, 0.4000033
 181631485, 0.003692245, 0.01250148, 2.725525E-05, 0.02606854, -0.02718327, 0.4000041, 0.02134213, -0.007380986, 2.673556E-05, 0.02650909, -0.02761528, 0.4000041
 181831405, -0.02000303, -0.001901437, -3.968862E-05, 0.02557784, -0.02749082, 0.4000027, 0.003692245, 0.01250148, 2.725525E-05, 0.02606854, -0.02718327, 0.4000041
 182031325, -0.02077282, 0.003029761, -3.309204E-05, 0.02556144, -0.02738324, 0.4000029, -0.02000303, -0.001901437, -3.968862E-05, 0.02557784, -0.02749082, 0.4000027
 182231245, 0.02051961, 0.02462107, 7.858747E-05, 0.02648033, -0.02696681, 0.4000051, -0.02077282, 0.003029761, -3.309204E-05, 0.02556144, -0.02738324, 0.4000029
 182431165, -0.004357126, -0.0102869, -2.520686E-05, 0.02588254, -0.02769755, 0.4000026, 0.02051961, 0.02462107, 7.858747E-05, 0.02648033, -0.02696681, 0.4000051
 182631085, -0.01266384, -0.01356304, -4.606788E-05, 0.02571028, -0.02777998, 0.4000022, -0.004357126, -0.0102869, -2.520686E-05, 0.02588254, -0.02769755, 0.4000026
 182831005, 0.02526908, -0.009944227, 3.013564E-05, 0.02660313, -0.02769155, 0.4000041, -0.01266384, -0.01356304, -4.606788E-05, 0.02571028, -0.02777998, 0.4000022
 183030925, -0.004869379, -0.01014069, -2.618238E-05, 0.02586631, -0.02770183, 0.4000024, 0.02526908, -0.009944227, 3.013564E-05, 0.02660313, -0.02769155, 0.4000041
 183230845, -0.01816734, -0.002830725, -3.844962E-05, 0.02560203, -0.02752938, 0.4000021, -0.004869379, -0.01014069, -2.618238E-05, 0.02586631, -0.02770183, 0.4000024
 183430765, 0.007357792, -0.02348815, -2.595176E-05, 0.02614589, -0.02804298, 0.4000023, -0.01816734, -0.002830725, -3.844962E-05, 0.02560203, -0.02752938, 0.4000021
 183630685, 0.01604983, 0.01683202, 5.769146E-05, 0.02636612, -0.02711564, 0.4000039, 0.007357792, -0.02348815, -2.595176E-05, 0.02614589, -0.02804298, 0.4000023
 183831438, 0.008768343, 0.008434479, 3.015614E-05, 0.02618711, -0.02727968, 0.4000033, 0.01604983, 0.01683202, 5.769146E-05, 0.02636612, -0.02711564, 0.4000039
 184031358, -0.01308968, -0.01281847, -4.523763E-05, 0.02571074, -0.02776039, 0.4000017, 0.008768343, 0.008434479, 3.015614E-05, 0.02618711, -0.02727968, 0.4000033
 184231278, -0.0186385, -0.01329896, -5.600597E-05, 0.02560705, -0.02777159, 0.4000014, -0.01308968, -0.01281847, -4.523763E-05, 0.02571074, -0.02776039, 0.4000017
 184431198, -0.02237403, -0.023418, -7.962253E-05, 0.02554031, -0.02803645, 0.4000007, -0.0186385, -0.01329896, -5.600597E-05, 0.02560705, -0.02777159, 0.4000014
 184631118, 0.005918441, 0.02213812, 4.777007E-05, 0.02612345, -0.02701587, 0.4000034, -0.02237403, -0.023418, -7.962253E-05, 0.02554031, -0.02803645, 0.4000007
 184831038, 0.0001461247, -0.02476751, -4.133054E-05, 0.02599209, -0.02807774, 0.4000011, 0.005918441, 0.02213812, 4.777007E-05, 0.02612345, -0.02701587, 0.4000034
 185030958, -0.005459669, -0.02110847, -4.529285E-05, 0.02587126, -0.02797846, 0.400001, 0.0001461247, -0.02476751, -4.133054E-05, 0.02599209, -0.02807774, 0.4000011
 185230878, -0.003674947, -0.01242918, -2.744802E-05, 0.02590746, -0.02775257, 0.4000017, -0.005459669, -0.02110847, -4.529285E-05, 0.02587126, -0.02797846, 0.400001
 185430798, -0.002503594, -0.00345557, -1.032322E-05, 0.02593189, -0.0275379, 0.4000022, -0.003674947, -0.01242918, -2.744802E-05, 0.02590746, -0.02775257, 0.4000017
 185630718, 0.01539119, -0.01331528, 5.64095E-06, 0.02635367, -0.0277764, 0.4000025, -0.002503594, -0.00345557, -1.032322E-05, 0.02593189, -0.0275379, 0.4000022
 185831471, 0.01519145, -0.005185855, 1.895689E-05, 0.02634673, -0.02758121, 0.4000028, 0.01539119, -0.01331528, 5.64095E-06, 0.02635367, -0.0277764, 0.4000025
 186031391, 0.0004844277, -0.01775136, -2.899739E-05, 0.02599511, -0.02789224, 0.4000016, 0.01519145, -0.005185855, 1.895689E-05, 0.02634673, -0.02758121, 0.4000028
 186231311, -0.01617299, 0.01801068, 8.774696E-07, 0.02565145, -0.02709472, 0.4000023, 0.0004844277, -0.01775136, -2.899739E-05, 0.02599511, -0.02789224, 0.4000016
 186431231, 0.0131225, -0.02019296, -1.010745E-05, 0.0262953, -0.02795618, 0.400002, -0.01617299, 0.01801068, 8.774696E-07, 0.02565145, -0.02709472, 0.4000023
 186631151, -0.01734921, -0.006422052, -4.253214E-05, 0.02562661, -0.02761493, 0.4000012, 0.0131225, -0.02019296, -1.010745E-05, 0.0262953, -0.02795618, 0.400002
 186831071, -0.02384116, 0.01277459, -2.195345E-05, 0.02550808, -0.02719979, 0.4000018, -0.01734921, -0.006422052, -4.253214E-05, 0.02562661, -0.02761493, 0.4000012
 187030991, -0.004388214, 0.01217177, 1.251258E-05, 0.02588473, -0.02720923, 0.4000027, -0.02384116, 0.01277459, -2.195345E-05, 0.02550808, -0.02719979, 0.4000018
 187230911, -0.005864386, 0.001927048, -7.490609E-06, 0.02585378, -0.02741979, 0.4000024, -0.004388214, 0.01217177, 1.251258E-05, 0.02588473, -0.02720923, 0.4000027
 187430831, -0.0129325, -0.0005519515, -2.47131E-05, 0.02570582, -0.0274708, 0.4000026, -0.005864386, 0.001927048, -7.490609E-06, 0.02585378, -0.02741979, 0.4000024
 187630751, -0.01613264, 0.007777858, -1.689146E-05, 0.02563969, -0.02728964, 0.4000032, -0.0129325, -0.0005519515, -2.47131E-05, 0.02570582, -0.0274708, 0.4000026
 187830671, 0.01356569, 0.01517819, 5.054634E-05, 0.02629136, -0.0271429, 0.4000048, -0.01613264, 0.007777858, -1.689146E-05, 0.02563969, -0.02728964, 0.4000032
 188031424, -0.01071975, -0.0003522181, -2.060476E-05, 0.02573922, -0.02746868, 0.4000033, 0.01356569, 0.01517819, 5.054634E-05, 0.02629136, -0.0271429, 0.4000048
 188231344, -0.007319469, -0.01944337, -4.637832E-05, 0.02580781, -0.02793512, 0.4000025, -0.01071975, -0.0003522181, -2.060476E-05, 0.02573922, -0.02746868, 0.4000033
 188431264, 0.01305593, 0.006592787, 3.547552E-05, 0.02627528, -0.02732055, 0.4000043, -0.007319469, -0.01944337, -4.637832E-05, 0.02580781, -0.02793512, 0.4000025
 188631184, -0.01371754, 0.01727788, 3.57273E-06, 0.02568266, -0.02710857, 0.4000034, 0.01305593, 0.006592787, 3.547552E-05, 0.02627528, -0.02732055, 0.4000043
 188831104, 0.011769, 0.01062116, 3.958793E-05, 0.026249, -0.02723515, 0.4000042, -0.01371754, 0.01727788, 3.57273E-06, 0.02568266, -0.02710857, 0.4000034
 189031024, 0.002759981, -0.01925951, -2.70074E-05, 0.02603807, -0.02792484, 0.4000026, 0.011769, 0.01062116, 3.958793E-05, 0.026249, -0.02723515, 0.4000042
 189230944, 0.02324424, -0.009722591, 2.654849E-05, 0.02655288, -0.02767985, 0.4000041, 0.002759981, -0.01925951, -2.70074E-05, 0.02603807, -0.02792484, 0.4000026
 189430864, 0.02515891, -0.004891766, 3.799463E-05, 0.02660683, -0.02756143, 0.4000045, 0.02324424, -0.009722591, 2.654849E-05, 0.02655288, -0.02767985, 0.4000041
 189630784, 0.01368832, 0.01133304, 4.360788E-05, 0.02630646, -0.02720824, 0.4000045, 0.02515891, -0.004891766, 3.799463E-05, 0.02660683, -0.02756143, 0.4000045
 189830704, 0.003841942, -0.02485697, -3.370756E-05, 0.026068, -0.02806468, 0.4000028, 0.01368832, 0.01133304, 4.360788E-05, 0.02630646, -0.02720824, 0.4000045
 190031457, 0.002440847, 0.02298789, 4.206218E-05, 0.02603252, -0.02698648, 0.4000049, 0.003841942, -0.02485697, -3.370756E-05, 0.026068, -0.02806468, 0.4000028
 190231377, -0.01032464, -0.01265136, -3.958819E-05, 0.02575703, -0.02774106, 0.4000034, 0.002440847, 0.02298789, 4.206218E-05, 0.02603252, -0.02698648, 0.4000049
 190431297, -0.02483172, -0.002405244, -4.946994E-05, 0.02548747, -0.02749389, 0.4000034, -0.01032464, -0.01265136, -3.958819E-05, 0.02575703, -0.02774106, 0.4000034
 190631217, 0.003322531, -0.01727386, -2.194206E-05, 0.02605396, -0.0278563, 0.4000037, -0.02483172, -0.002405244, -4.946994E-05, 0.02548747, -0.02749389, 0.4000034
 190831137, -0.02281459, 0.009089039, -2.70824E-05, 0.02552283, -0.02724726, 0.4000037, 0.003322531, -0.01727386, -2.194206E-05, 0.02605396, -0.0278563, 0.4000037
 191031057, -0.01506626, -0.001124367, -2.949683E-05, 0.02566482, -0.02746631, 0.4000037, -0.02281459, 0.009089039, -2.70824E-05, 0.02552283, -0.02724726, 0.4000037
 191230977, 0.01045095, 0.01073853, 3.66914E-05, 0.02622068, -0.0272139, 0.4000051, -0.01506626, -0.001124367, -2.949683E-05, 0.02566482, -0.02746631, 0.4000037
 191430897, 0.008742124, 0.007757507, 2.87965E-05, 0.02617817, -0.02727849, 0.4000048, 0.01045095, 0.01073853, 3.66914E-05, 0.02622068, -0.0272139, 0.4000051
 191630817, 0.01414456, -0.01079252, 8.306264E-06, 0.0263125, -0.02770028, 0.4000041, 0.008742124, 0.007757507, 2.87965E-05, 0.02617817, -0.02727849, 0.4000048
 191830737, 0.02000617, 0.01971428, 6.923763E-05, 0.02646175, -0.02704708, 0.4000057, 0.01414456, -0.01079252, 8.306264E-06, 0.0263125, -0.02770028, 0.4000041
 192030657, 0.01976479, -0.01368016, 1.420535E-05, 0.02645254, -0.02777061, 0.4000047, 0.02000617, 0.01971428, 6.923763E-05, 0.02646175, -0.02704708, 0.4000057
 192231410, -0.01733297, -0.007372313, -4.423691E-05, 0.0256153, -0.0276177, 0.4000033, 0.01976479, -0.01368016, 1.420535E-05, 0.02645254, -0.02777061, 0.4000047
 192431330, 0.01743955, -0.02263361, -4.88622E-06, 0.02639256, -0.02800519, 0.4000041, -0.01733297, -0.007372313, -4.423691E-05, 0.0256153, -0.0276177, 0.4000033
 192631250, 0.01639812, -0.01947998, -1.59955E-06, 0.02636442, -0.02792143, 0.4000042, 0.01743955, -0.02263361, -4.88622E-06, 0.02639256, -0.02800519, 0.4000041
 192831170, -0.01797343, -0.02360472, -7.221309E-05, 0.02560172, -0.02803237, 0.4000027, 0.01639812, -0.01947998, -1.59955E-06, 0.02636442, -0.02792143, 0.4000042
 193031090, -0.002765704, -0.01555599, -3.069837E-05, 0.02590806, -0.02781918, 0.4000037, -0.01797343, -0.02360472, -7.221309E-05, 0.02560172, -0.02803237, 0.4000027
 193231010, 0.01014378, -0.0176496, -1.005067E-05, 0.02620325, -0.02787277, 0.4000043, -0.002765704, -0.01555599, -3.069837E-05, 0.02590806, -0.02781918, 0.4000037
 193430930, -0.003800346, 0.0213832, 2.804685E-05, 0.02588049, -0.02701768, 0.4000053, 0.01014378, -0.0176496, -1.005067E-05, 0.02620325, -0.02787277, 0.4000043
 193630850, -0.01218714, 0.01864863, 7.803324E-06, 0.02570832, -0.02706606, 0.4000049, -0.003800346, 0.0213832, 2.804685E-05, 0.02588049, -0.02701768, 0.4000053
 193830770, 0.01173046, -0.004195802, 1.496285E-05, 0.02624501, -0.02753895, 0.400005, -0.01218714, 0.01864863, 7.803324E-06, 0.02570832, -0.02706606, 0.4000049
 194030690, 0.005166718, 0.01630681, 3.612221E-05, 0.02609024, -0.0271052, 0.4000054, 0.01173046, -0.004195802, 1.496285E-05, 0.02624501, -0.02753895, 0.400005
 194231443, -0.01448376, 0.01070753, -9.389732E-06, 0.02567232, -0.02721213, 0.4000045, 0.005166718, 0.01630681, 3.612221E-05, 0.02609024, -0.0271052, 0.4000054
 194431363, 0.001139227, 0.02051528, 3.517027E-05, 0.02600155, -0.02702098, 0.4000055, -0.01448376, 0.01070753, -9.389732E-06, 0.02567232, -0.02721213, 0.4000045
 194631283, -0.001213392, -0.01487497, -2.610675E-05, 0.0259522, -0.02778744, 0.4000041, 0.001139227, 0.02051528, 3.517027E-05, 0.02600155, -0.02702098, 0.4000055
 194831203, -0.01817663, -0.02488314, -7.301923E-05, 0.02560778, -0.02804824, 0.4000033, -0.001213392, -0.01487497, -2.610675E-05, 0.0259522, -0.02778744, 0.4000041
 195031123, -0.02276927, 0.02471656, -2.630532E-06, 0.02552251, -0.02693701, 0.4000053, -0.01817663, -0.02488314, -7.301923E-05, 0.02560778, -0.02804824, 0.4000033
 195231043, 0.01399134, -0.01837083, -3.216937E-06, 0.02630465, -0.02786897, 0.4000057, -0.02276927, 0.02471656, -2.630532E-06, 0.02552251, -0.02693701, 0.4000053
 195430963, 0.02306284, 0.02275198, 7.887588E-05, 0.02653843, -0.02696983, 0.4000078, 0.01399134, -0.01837083, -3.216937E-06, 0.02630465, -0.02786897, 0.4000057
 195630883, 0.02264709, 0.01347205, 6.337189E-05, 0.02652741, -0.02714115, 0.4000076, 0.02306284, 0.02275198, 7.887588E-05, 0.02653843, -0.02696983, 0.4000078
 195830803, -0.005712276, -0.02458271, -4.932229E-05, 0.02584229, -0.02803057, 0.4000053, 0.02264709, 0.01347205, 6.337189E-05, 0.02652741, -0.02714115, 0.4000076
 196030723, 0.005154307, -0.01094684, -7.452738E-06, 0.02608156, -0.02767188, 0.4000068, -0.005712276, -0.02458271, -4.932229E-05, 0.02584229, -0.02803057, 0.4000053
 196231476, 0.01303201, -0.01030706, 8.252664E-06, 0.02627393, -0.02765553, 0.4000071, 0.005154307, -0.01094684, -7.452738E-06, 0.02608156, -0.02767188, 0.4000068
 196431396, -0.005030675, -0.01208979, -2.826126E-05, 0.02585904, -0.02770043, 0.4000059, 0.01303201, -0.01030706, 8.252664E-06, 0.02627393, -0.02765553, 0.4000071
 196631316, -0.0007870499, 0.01771595, 2.625894E-05, 0.025952, -0.02705323, 0.400007, -0.005030675, -0.01208979, -2.826126E-05, 0.02585904, -0.02770043, 0.4000059
 196831236, 0.01382098, -0.009368199, 1.116175E-05, 0.02629271, -0.02763559, 0.400007, -0.0007870499, 0.01771595, 2.625894E-05, 0.025952, -0.02705323, 0.400007
 197031156, 0.02261154, -0.008065452, 2.984637E-05, 0.0265181, -0.02760574, 0.4000077, 0.01382098, -0.009368199, 1.116175E-05, 0.02629271, -0.02763559, 0.400007
 197231076, -0.01047011, -0.01144526, -3.77999E-05, 0.02573797, -0.02769067, 0.4000059, 0.02261154, -0.008065452, 2.984637E-05, 0.0265181, -0.02760574, 0.4000077
 197430996, -0.02214549, 0.01611476, -1.617454E-05, 0.02551581, -0.02709187, 0.4000063, -0.01047011, -0.01144526, -3.77999E-05, 0.02573797, -0.02769067, 0.4000059
 197630916, 0.004536417, -0.01086836, -8.814619E-06, 0.02606441, -0.02768255, 0.400006, -0.02214549, 0.01611476, -1.617454E-05, 0.02551581, -0.02709187, 0.4000063
 197830836, -0.006783534, -0.009343766, -2.774318E-05, 0.02581602, -0.02764895, 0.4000053, 0.004536417, -0.01086836, -8.814619E-06, 0.02606441, -0.02768255, 0.400006
 198030756, -0.01414913, -0.006630366, -3.731195E-05, 0.02566624, -0.0275861, 0.4000051, -0.006783534, -0.009343766, -2.774318E-05, 0.02581602, -0.02764895, 0.4000053
 198230676, -0.01404767, 0.007768594, -1.400697E-05, 0.02566558, -0.02726699, 0.4000057, -0.01414913, -0.006630366, -3.731195E-05, 0.02566624, -0.0275861, 0.4000051
 198431429, 0.006963531, -0.01598729, -1.271914E-05, 0.02611922, -0.027819, 0.4000055, -0.01404767, 0.007768594, -1.400697E-05, 0.02566558, -0.02726699, 0.4000057
 198631349, 0.02235784, 0.002317951, 4.58047E-05, 0.02651316, -0.02739068, 0.4000063, 0.006963531, -0.01598729, -1.271914E-05, 0.02611922, -0.027819, 0.4000055
 198831269, 0.00813893, 0.006985569, 2.662835E-05, 0.026155, -0.02729124, 0.4000055, 0.02235784, 0.002317951, 4.58047E-05, 0.02651316, -0.02739068, 0.4000063
 199031189, -0.01709113, 0.0220686, 3.978854E-06, 0.02561834, -0.02699552, 0.4000051, 0.00813893, 0.006985569, 2.662835E-05, 0.026155, -0.02729124, 0.4000055
 199231109, -0.0229924, 0.01516456, -1.828056E-05, 0.02551234, -0.02711931, 0.4000049, -0.01709113, 0.0220686, 3.978854E-06, 0.02561834, -0.02699552, 0.4000051
 199431029, -0.005174752, 0.0114972, 8.796749E-06, 0.0258576, -0.02718698, 0.4000057, -0.0229924, 0.01516456, -1.828056E-05, 0.02551234, -0.02711931, 0.4000049
 199630949, 0.0207851, -0.009656414, 2.322401E-05, 0.02647811, -0.02765403, 0.4000062, -0.005174752, 0.0114972, 8.796749E-06, 0.0258576, -0.02718698, 0.4000057
 199830869, -0.01522065, -0.003129302, -3.341179E-05, 0.02565145, -0.0274984, 0.4000052, 0.0207851, -0.009656414, 2.322401E-05, 0.02647811, -0.02765403, 0.4000062
 200030789, -0.0215705, 0.01333244, -1.910737E-05, 0.02553274, -0.02714692, 0.4000057, -0.01522065, -0.003129302, -3.341179E-05, 0.02565145, -0.0274984, 0.4000052
 200230709, -0.01722711, 0.01821385, -3.290561E-06, 0.02561305, -0.02705143, 0.4000061, -0.0215705, 0.01333244, -1.910737E-05, 0.02553274, -0.02714692, 0.4000057
 200431462, -0.024557, 0.007548514, -3.390482E-05, 0.02548142, -0.02725953, 0.4000056, -0.01722711, 0.01821385, -3.290561E-06, 0.02561305, -0.02705143, 0.4000061
 200631382, 0.007501849, -0.01375913, -7.855613E-06, 0.02614304, -0.02774966, 0.4000058, -0.024557, 0.007548514, -3.390482E-05, 0.02548142, -0.02725953, 0.4000056
 200831302, -0.02457494, -0.002228801, -4.923531E-05, 0.02548363, -0.02747054, 0.4000053, 0.007501849, -0.01375913, -7.855613E-06, 0.02614304, -0.02774966, 0.4000058
 201031222, -0.01915336, 0.003695329, -2.996283E-05, 0.0255777, -0.02733544, 0.4000061, -0.02457494, -0.002228801, -4.923531E-05, 0.02548363, -0.02747054, 0.4000053
 201231142, -0.005117023, 0.02446864, 2.855818E-05, 0.02585285, -0.02692845, 0.4000076, -0.01915336, 0.003695329, -2.996283E-05, 0.0255777, -0.02733544, 0.4000061
 201431062, 0.02157428, 0.02111195, 7.343449E-05, 0.02648932, -0.02698494, 0.4000092, -0.005117023, 0.02446864, 2.855818E-05, 0.02585285, -0.02692845, 0.4000076
 201630982, -0.0189506, -0.01954698, -6.617713E-05, 0.02557283, -0.02788622, 0.4000061, 0.02157428, 0.02111195, 7.343449E-05, 0.02648932, -0.02698494, 0.4000092
 201830902, -0.01361102, -0.0227309, -6.11834E-05, 0.02567266, -0.02797258, 0.4000062, -0.0189506, -0.01954698, -6.617713E-05, 0.02557283, -0.02788622, 0.4000061
 202030822, -0.01694254, -0.02314051, -6.823946E-05, 0.02560644, -0.02798365, 0.4000062, -0.01361102, -0.0227309, -6.11834E-05, 0.02567266, -0.02797258, 0.4000062
 202230742, -0.02545991, 0.02285239, -1.270974E-05, 0.02545302, -0.02695715, 0.4000075, -0.01694254, -0.02314051, -6.823946E-05, 0.02560644, -0.02798365, 0.4000062
 202430662, 0.01462277, 0.01022974, 4.393252E-05, 0.02630204, -0.02720077, 0.4000084, -0.02545991, 0.02285239, -1.270974E-05, 0.02545302, -0.02695715, 0.4000075
 202631415, 0.01396081, -0.00742842, 1.486451E-05, 0.02628329, -0.02759368, 0.4000077, 0.01462277, 0.01022974, 4.393252E-05, 0.02630204, -0.02720077, 0.4000084
 202831335, 0.01279259, 0.02126711, 5.814754E-05, 0.02625402, -0.02699463, 0.4000085, 0.01396081, -0.00742842, 1.486451E-05, 0.02628329, -0.02759368, 0.4000077
 203031255, -0.0176532, -0.01184829, -5.249833E-05, 0.02559107, -0.02770279, 0.4000059, 0.01279259, 0.02126711, 5.814754E-05, 0.02625402, -0.02699463, 0.4000085
 203231175, -0.02084349, 0.01434272, -1.669938E-05, 0.02553398, -0.02712957, 0.4000064, -0.0176532, -0.01184829, -5.249833E-05, 0.02559107, -0.02770279, 0.4000059
 203431095, 0.01525582, 0.0254518, 7.001047E-05, 0.02631853, -0.02693024, 0.400008, -0.02084349, 0.01434272, -1.669938E-05, 0.02553398, -0.02712957, 0.4000064
 203631015, -0.005919764, 0.02398226, 2.733679E-05, 0.02582424, -0.02695565, 0.4000071, 0.01525582, 0.0254518, 7.001047E-05, 0.02631853, -0.02693024, 0.400008
 203830935, -0.01975239, 0.02445061, 1.863751E-06, 0.02555135, -0.02695097, 0.4000064, -0.005919764, 0.02398226, 2.733679E-05, 0.02582424, -0.02695565, 0.4000071
 204030855, -0.02295566, -0.01509291, -6.843769E-05, 0.0254935, -0.02779796, 0.4000048, -0.01975239, 0.02445061, 1.863751E-06, 0.02555135, -0.02695097, 0.4000064
 204230775, 0.005156211, 0.00246995, 1.383769E-05, 0.02607069, -0.02738065, 0.4000066, -0.02295566, -0.01509291, -6.843769E-05, 0.0254935, -0.02779796, 0.4000048
 204430695, 0.000169515, 0.0209238, 3.401859E-05, 0.02596066, -0.02700976, 0.400007, 0.005156211, 0.00246995, 1.383769E-05, 0.02607069, -0.02738065, 0.4000066
 204631448, 0.01225947, 0.009804105, 3.88527E-05, 0.02624985, -0.02722001, 0.4000071, 0.000169515, 0.0209238, 3.401859E-05, 0.02596066, -0.02700976, 0.400007
 204831368, -0.01009648, -0.006029629, -2.860263E-05, 0.02574908, -0.02756431, 0.4000056, 0.01225947, 0.009804105, 3.88527E-05, 0.02624985, -0.02722001, 0.4000071
 205031288, -0.01600964, -0.00527176, -3.834186E-05, 0.0256371, -0.02754683, 0.4000052, -0.01009648, -0.006029629, -2.860263E-05, 0.02574908, -0.02756431, 0.4000056
 205231208, -0.01035637, 0.00230125, -1.558771E-05, 0.02575097, -0.02737807, 0.4000053, -0.01600964, -0.00527176, -3.834186E-05, 0.0256371, -0.02754683, 0.4000052
 205431128, 0.02518387, -0.02397074, 8.37231E-06, 0.02660019, -0.02802222, 0.4000057, -0.01035637, 0.00230125, -1.558771E-05, 0.02575097, -0.02737807, 0.4000053
 205631048, -0.02405318, 0.01326137, -2.341687E-05, 0.02549718, -0.02714817, 0.4000051, 0.02518387, -0.02397074, 8.37231E-06, 0.02660019, -0.02802222, 0.4000057
 205830968, -0.01938155, 0.0002974239, -3.540659E-05, 0.02558121, -0.02741809, 0.4000049, -0.02405318, 0.01326137, -2.341687E-05, 0.02549718, -0.02714817, 0.4000051
 206030888, -0.0148962, 0.005183797, -1.929184E-05, 0.02566605, -0.02731252, 0.4000051, -0.01938155, 0.0002974239, -3.540659E-05, 0.02558121, -0.02741809, 0.4000049
 206230808, 0.02203608, -0.01092454, 2.334619E-05, 0.02651747, -0.027681, 0.4000061, -0.0148962, 0.005183797, -1.929184E-05, 0.02566605, -0.02731252, 0.4000051
 206430728, 0.0105142, 0.01026918, 3.581111E-05, 0.02622197, -0.02720731, 0.4000063, 0.02203608, -0.01092454, 2.334619E-05, 0.02651747, -0.027681, 0.4000061
 206631481, -0.01497908, -0.01601725, -5.326082E-05, 0.02566661, -0.02781158, 0.400004, 0.0105142, 0.01026918, 3.581111E-05, 0.02622197, -0.02720731, 0.4000063
 206831401, 0.004918768, -0.0002864847, 8.639679E-06, 0.02608785, -0.02743519, 0.4000055, -0.01497908, -0.01601725, -5.326082E-05, 0.02566661, -0.02781158, 0.400004
 207031321, 0.01782282, 0.006706046, 4.384213E-05, 0.02640345, -0.02728421, 0.4000065, 0.004918768, -0.0002864847, 8.639679E-06, 0.02608785, -0.02743519, 0.4000055
 207231241, -0.00612315, -0.003909586, -1.763101E-05, 0.02584022, -0.02751673, 0.4000051, 0.01782282, 0.006706046, 4.384213E-05, 0.02640345, -0.02728421, 0.4000065
 207431161, 0.0206129, 0.01816908, 6.739239E-05, 0.02647615, -0.02705669, 0.4000071, -0.00612315, -0.003909586, -1.763101E-05, 0.02584022, -0.02751673, 0.4000051
 207631081, -0.0008397134, -0.001895247, -4.60598E-06, 0.02595327, -0.02747234, 0.4000054, 0.0206129, 0.01816908, 6.739239E-05, 0.02647615, -0.02705669, 0.4000071
 207831001, -0.01061719, 0.006538739, -9.254361E-06, 0.02574507, -0.02729042, 0.4000052, -0.0008397134, -0.001895247, -4.60598E-06, 0.02595327, -0.02747234, 0.4000054
 208030921, -0.007220561, -0.01155925, -3.215313E-05, 0.02581333, -0.02770454, 0.4000047, -0.01061719, 0.006538739, -9.254361E-06, 0.02574507, -0.02729042, 0.4000052
 208230841, 0.000931947, 0.002866072, 6.386471E-06, 0.02598848, -0.02737159, 0.4000055, -0.007220561, -0.01155925, -3.215313E-05, 0.02581333, -0.02770454, 0.4000047
 208430761, 0.01129255, -0.007625751, 8.750192E-06, 0.02623218, -0.02761343, 0.4000054, 0.000931947, 0.002866072, 6.386471E-06, 0.02598848, -0.02737159, 0.4000055
 208630681, 0.0230807, -0.01342776, 2.132469E-05, 0.02653738, -0.02775713, 0.4000056, 0.01129255, -0.007625751, 8.750192E-06, 0.02623218, -0.02761343, 0.4000054
 208831434, 0.01727319, -0.01116472, 1.414275E-05, 0.02638126, -0.02770443, 0.4000054, 0.0230807, -0.01342776, 2.132469E-05, 0.02653738, -0.02775713, 0.4000056
 209031354, -0.0123299, -0.003050586, -2.832204E-05, 0.02570174, -0.02751409, 0.4000045, 0.01727319, -0.01116472, 1.414275E-05, 0.02638126, -0.02770443, 0.4000054
 209231274, -0.01586467, 0.01564876, -4.332156E-06, 0.02563458, -0.02711638, 0.4000053, -0.0123299, -0.003050586, -2.832204E-05, 0.02570174, -0.02751409, 0.4000045
 209431194, 0.01029401, -0.002410519, 1.536608E-05, 0.02620816, -0.02748975, 0.4000057, -0.01586467, 0.01564876, -4.332156E-06, 0.02563458, -0.02711638, 0.4000053
 209631114, 0.0005303918, 0.01972247, 3.284022E-05, 0.02598345, -0.02703274, 0.4000059, 0.01029401, -0.002410519, 1.536608E-05, 0.02620816, -0.02748975, 0.4000057
 209831034, 0.01208038, 0.01990954, 5.429209E-05, 0.0262593, -0.02702448, 0.4000066, 0.0005303918, 0.01972247, 3.284022E-05, 0.02598345, -0.02703274, 0.4000059
 210030954, -0.0006652317, -0.02528312, -4.152137E-05, 0.02596193, -0.02805442, 0.4000044, 0.01208038, 0.01990954, 5.429209E-05, 0.0262593, -0.02702448, 0.4000066
 210230874, -0.01433979, 0.01855767, 3.037529E-06, 0.02567988, -0.02704385, 0.4000055, -0.0006652317, -0.02528312, -4.152137E-05, 0.02596193, -0.02805442, 0.4000044
 210430794, -0.01967863, -0.002168994, -3.959204E-05, 0.02558184, -0.02746842, 0.4000047, -0.01433979, 0.01855767, 3.037529E-06, 0.02567988, -0.02704385, 0.4000055
 210630714, -0.009478996, -0.01037841, -3.371699E-05, 0.02577899, -0.02765824, 0.400005, -0.01967863, -0.002168994, -3.959204E-05, 0.02558184, -0.02746842, 0.4000047
 210831467, -0.004186871, -0.01670438, -3.379441E-05, 0.02588954, -0.02781367, 0.4000052, -0.009478996, -0.01037841, -3.371699E-05, 0.02577899, -0.02765824, 0.400005
 211031387, -0.01156139, -0.02190185, -5.542418E-05, 0.02573882, -0.02795069, 0.4000046, -0.004186871, -0.01670438, -3.379441E-05, 0.02588954, -0.02781367, 0.4000052
 211231307, 0.001647323, 0.01830536, 3.169925E-05, 0.02602083, -0.02704006, 0.4000064, -0.01156139, -0.02190185, -5.542418E-05, 0.02573882, -0.02795069, 0.4000046
 211431227, 0.009682358, 0.007094111, 2.877937E-05, 0.02621118, -0.02725978, 0.4000064, 0.001647323, 0.01830536, 3.169925E-05, 0.02602083, -0.02704006, 0.4000064
 211631147, -0.004828714, 0.0122027, 1.027916E-05, 0.02588122, -0.02715577, 0.4000059, 0.009682358, 0.007094111, 2.877937E-05, 0.02621118, -0.02725978, 0.4000064
 211831067, 0.004012491, 0.01870215, 3.666728E-05, 0.02607791, -0.02703356, 0.4000063, -0.004828714, 0.0122027, 1.027916E-05, 0.02588122, -0.02715577, 0.4000059
 212030987, -0.01903916, 0.01600579, -9.514202E-06, 0.02559985, -0.02708563, 0.4000052, 0.004012491, 0.01870215, 3.666728E-05, 0.02607791, -0.02703356, 0.4000063
 212230907, -0.003884648, 0.01754449, 2.055689E-05, 0.02590135, -0.02705744, 0.4000058, -0.01903916, 0.01600579, -9.514202E-06, 0.02559985, -0.02708563, 0.4000052
 212430827, -0.006519428, -0.004849077, -1.95616E-05, 0.02584342, -0.02752705, 0.4000051, -0.003884648, 0.01754449, 2.055689E-05, 0.02590135, -0.02705744, 0.4000058
 212630747, 0.01481245, 0.001020051, 2.874235E-05, 0.02633684, -0.02739557, 0.4000062, -0.006519428, -0.004849077, -1.95616E-05, 0.02584342, -0.02752705, 0.4000051
 212830667, -0.02327263, -0.008603473, -5.644386E-05, 0.02551767, -0.02762105, 0.4000042, 0.01481245, 0.001020051, 2.874235E-05, 0.02633684, -0.02739557, 0.4000062
 213031420, -0.02145196, -0.006991421, -5.072621E-05, 0.0255469, -0.02758344, 0.4000045, -0.02327263, -0.008603473, -5.644386E-05, 0.02551767, -0.02762105, 0.4000042
 213231340, -0.01369649, -0.008804785, -3.942211E-05, 0.02568956, -0.02762895, 0.4000047, -0.02145196, -0.006991421, -5.072621E-05, 0.0255469, -0.02758344, 0.4000045
 213431260, 0.02500249, 0.0165769, 7.300127E-05, 0.02659591, -0.02708538, 0.4000072, -0.01369649, -0.008804785, -3.942211E-05, 0.02568956, -0.02762895, 0.4000047
 213631180, -0.01965389, 0.008319263, -2.319315E-05, 0.02557448, -0.02725008, 0.400005, 0.02500249, 0.0165769, 7.300127E-05, 0.02659591, -0.02708538, 0.4000072
 213831100, -0.01515293, 0.02108461, 5.839052E-06, 0.02565766, -0.02700759, 0.4000053, -0.01965389, 0.008319263, -2.319315E-05, 0.02557448, -0.02725008, 0.400005
 214031020, -0.004597358, 0.01119589, 9.620137E-06, 0.02587125, -0.02719879, 0.4000053, -0.01515293, 0.02108461, 5.839052E-06, 0.02565766, -0.02700759, 0.4000053
 214230940, 0.01407162, 0.02213319, 6.250668E-05, 0.02630302, -0.02699591, 0.4000063, -0.004597358, 0.01119589, 9.620137E-06, 0.02587125, -0.02719879, 0.4000053
 214430860, 0.001773921, -0.00999084, -1.301498E-05, 0.02600929, -0.02767265, 0.4000046, 0.01407162, 0.02213319, 6.250668E-05, 0.02630302, -0.02699591, 0.4000063
 214630780, -0.02533505, 0.02354939, -8.778403E-06, 0.02547562, -0.02696735, 0.4000047, 0.001773921, -0.00999084, -1.301498E-05, 0.02600929, -0.02767265, 0.4000046
 214830700, -0.005006961, -0.01366381, -3.143639E-05, 0.02586841, -0.02775945, 0.4000039, -0.02533505, 0.02354939, -8.778403E-06, 0.02547562, -0.02696735, 0.4000047
 215031453, 0.006841325, 0.01662541, 3.953015E-05, 0.02613705, -0.02709162, 0.4000055, -0.005006961, -0.01366381, -3.143639E-05, 0.02586841, -0.02775945, 0.4000039
 215231373, -0.01594686, -0.01312889, -5.044977E-05, 0.02564988, -0.02773879, 0.400004, 0.006841325, 0.01662541, 3.953015E-05, 0.02613705, -0.02709162, 0.4000055
 215431293, -0.0002712961, 0.01797887, 2.813642E-05, 0.02597395, -0.02705587, 0.4000059, -0.01594686, -0.01312889, -5.044977E-05, 0.02564988, -0.02773879, 0.400004
 215631213, 0.01366237, -0.006311108, 1.508041E-05, 0.02630617, -0.02756548, 0.4000058, -0.0002712961, 0.01797887, 2.813642E-05, 0.02597395, -0.02705587, 0.4000059
 215831133, 0.02482636, 0.007068348, 5.683456E-05, 0.02659778, -0.02726494, 0.4000072, 0.01366237, -0.006311108, 1.508041E-05, 0.02630617, -0.02756548, 0.4000058
 216031053, 0.002653921, -0.004405229, -2.033391E-06, 0.02603989, -0.02751525, 0.4000059, 0.02482636, 0.007068348, 5.683456E-05, 0.02659778, -0.02726494, 0.4000072
 216230973, -0.003844195, 0.02114972, 2.615574E-05, 0.02589921, -0.02698882, 0.4000063, 0.002653921, -0.004405229, -2.033391E-06, 0.02603989, -0.02751525, 0.4000059
 216430893, -0.02226491, -0.004239492, -4.725366E-05, 0.02554139, -0.02751132, 0.4000045, -0.003844195, 0.02114972, 2.615574E-05, 0.02589921, -0.02698882, 0.4000063
 216630813, 0.004541741, -0.001422449, 6.016118E-06, 0.02609305, -0.02744747, 0.4000054, -0.02226491, -0.004239492, -4.725366E-05, 0.02554139, -0.02751132, 0.4000045
 216830733, -0.02160504, 0.01596317, -1.411715E-05, 0.02555726, -0.02708474, 0.400005, 0.004541741, -0.001422449, 6.016118E-06, 0.02609305, -0.02744747, 0.4000054
 217031486, 0.01917071, -0.01834883, 6.116232E-06, 0.02645569, -0.02785629, 0.4000056, -0.02160504, 0.01596317, -1.411715E-05, 0.02555726, -0.02708474, 0.400005
 217231406, -0.0009060731, 0.01478306, 2.149578E-05, 0.02596816, -0.02710561, 0.400006, 0.01917071, -0.01834883, 6.116232E-06, 0.02645569, -0.02785629, 0.4000056
 217431326, -0.02062585, -0.01765672, -6.528279E-05, 0.02557204, -0.02784116, 0.400004, -0.0009060731, 0.01478306, 2.149578E-05, 0.02596816, -0.02710561, 0.400006
 217631246, 0.008002887, -0.01303728, -6.026968E-06, 0.02617201, -0.02772767, 0.400005, -0.02062585, -0.01765672, -6.528279E-05, 0.02557204, -0.02784116, 0.400004
 217831166, -0.01878558, -0.01089856, -5.194155E-05, 0.02559924, -0.02768164, 0.4000039, 0.008002887, -0.01303728, -6.026968E-06, 0.02617201, -0.02772767, 0.400005
 218031086, -0.005413876, 0.001380379, -7.769605E-06, 0.02586077, -0.02740013, 0.4000048, -0.01878558, -0.01089856, -5.194155E-05, 0.02559924, -0.02768164, 0.4000039
 218231006, -0.008715626, 0.01658162, 1.059076E-05, 0.02578919, -0.0270896, 0.4000053, -0.005413876, 0.001380379, -7.769605E-06, 0.02586077, -0.02740013, 0.4000048
 218430926, -0.004591193, -0.01273921, -2.921799E-05, 0.02587347, -0.0277365, 0.4000042, -0.008715626, 0.01658162, 1.059076E-05, 0.02578919, -0.0270896, 0.4000053
 218630846, -0.01340028, 0.01115941, -6.667289E-06, 0.02569194, -0.02720524, 0.4000045, -0.004591193, -0.01273921, -2.921799E-05, 0.02587347, -0.0277365, 0.4000042
 218830766, -0.0008409093, -0.00575125, -1.105024E-05, 0.02595157, -0.02757688, 0.4000042, -0.01340028, 0.01115941, -6.667289E-06, 0.02569194, -0.02720524, 0.4000045
 219030686, 0.003849036, 0.006366299, 1.77612E-05, 0.02605538, -0.02731084, 0.4000048, -0.0008409093, -0.00575125, -1.105024E-05, 0.02595157, -0.02757688, 0.4000042
 219231439, 0.01971717, -0.01730711, 8.267714E-06, 0.02644655, -0.02786705, 0.4000046, 0.003849036, 0.006366299, 1.77612E-05, 0.02605538, -0.02731084, 0.4000048
 219431359, 0.01536856, 0.004917035, 3.710519E-05, 0.02633182, -0.02734362, 0.4000053, 0.01971717, -0.01730711, 8.267714E-06, 0.02644655, -0.02786705, 0.4000046
 219631279, 0.02200919, 0.01317949, 6.322284E-05, 0.02650608, -0.02717238, 0.4000061, 0.01536856, 0.004917035, 3.710519E-05, 0.02633182, -0.02734362, 0.4000053
 219831199, 0.024726, -0.006733878, 3.516981E-05, 0.02658338, -0.02760038, 0.4000055, 0.02200919, 0.01317949, 6.322284E-05, 0.02650608, -0.02717238, 0.4000061
 220031119, 0.02465805, 0.01912659, 7.732576E-05, 0.0265862, -0.027056, 0.4000061, 0.024726, -0.006733878, 3.516981E-05, 0.02658338, -0.02760038, 0.4000055
 220231039, 0.0199663, -0.01645673, 9.843441E-06, 0.02646453, -0.02783854, 0.4000044, 0.02465805, 0.01912659, 7.732576E-05, 0.0265862, -0.027056, 0.4000061
 220430959, 0.01957427, -0.006647549, 2.514024E-05, 0.02645692, -0.02759358, 0.4000047, 0.0199663, -0.01645673, 9.843441E-06, 0.02646453, -0.02783854, 0.4000044
 220630879, 0.01835059, -0.01340558, 1.179678E-05, 0.02642771, -0.02775546, 0.4000044, 0.01957427, -0.006647549, 2.514024E-05, 0.02645692, -0.02759358, 0.4000047
 220830799, 0.007833942, 0.0124639, 3.455615E-05, 0.02616751, -0.0271752, 0.4000047, 0.01835059, -0.01340558, 1.179678E-05, 0.02642771, -0.02775546, 0.4000044
 221030719, -0.02026836, 0.0007345362, -3.562166E-05, 0.0255797, -0.02742112, 0.4000031, 0.007833942, 0.0124639, 3.455615E-05, 0.02616751, -0.0271752, 0.4000047
 221231472, -0.0132384, 0.02349926, 1.410973E-05, 0.02571469, -0.02696775, 0.400004, -0.02026836, 0.0007345362, -3.562166E-05, 0.0255797, -0.02742112, 0.4000031
 221431392, 0.0166768, 0.003156353, 3.518091E-05, 0.02639491, -0.02736306, 0.4000047, -0.0132384, 0.02349926, 1.410973E-05, 0.02571469, -0.02696775, 0.400004
 221631312, 0.01999829, 0.01365717, 5.806729E-05, 0.026482, -0.02714672, 0.4000051, 0.0166768, 0.003156353, 3.518091E-05, 0.02639491, -0.02736306, 0.4000047
 221831232, 0.02342094, 0.01415464, 6.513509E-05, 0.0265729, -0.02713863, 0.4000053, 0.01999829, 0.01365717, 5.806729E-05, 0.026482, -0.02714672, 0.4000051
 222031152, 0.01812728, 0.002668594, 3.702185E-05, 0.02643227, -0.02737506, 0.4000046, 0.02342094, 0.01415464, 6.513509E-05, 0.0265729, -0.02713863, 0.4000053
 222231072, -0.01069264, 0.02263448, -0.08100356, 0.02620178, -0.02742289, 0.4000041, 0.01812728, 0.002668594, 3.702185E-05, 0.02643227, -0.02737506, 0.4000046
 222430992, -0.002817119, 0.02343145, -0.1472281, 0.02728051, -0.02834255, 0.4000044, -0.01069264, 0.02263448, -0.08100356, 0.02620178, -0.02742289, 0.4000041
 222630912, -0.0004912294, -0.0009353753, -0.1898476, 0.0301328, -0.02927403, 0.4000136, -0.002817119, 0.02343145, -0.1472281, 0.02728051, -0.02834255, 0.4000044
 222830832, 0.01578961, 0.01917703, -0.6006266, 0.03648743, -0.03192959, 0.4000118, -0.0004912294, -0.0009353753, -0.1898476, 0.0301328, -0.02927403, 0.4000136
 223030752, 0.02446663, -0.04344905, -1.000337, 0.04563186, -0.04095545, 0.4000159, 0.01578961, 0.01917703, -0.6006266, 0.03648743, -0.03192959, 0.4000118
 223230672, -0.03907994, 0.007567374, -1.287498, 0.05705579, -0.05237659, 0.4000106, 0.02446663, -0.04344905, -1.000337, 0.04563186, -0.04095545, 0.4000159
 223431425, 0.04180171, -0.07063746, -1.646316, 0.07344202, -0.06898747, 0.4000026, -0.03907994, 0.007567374, -1.287498, 0.05705579, -0.05237659, 0.4000106
 223631345, 0.03198599, 0.0186908, -1.918328, 0.09148726, -0.08659342, 0.3999873, 0.04180171, -0.07063746, -1.646316, 0.07344202, -0.06898747, 0.4000026
 223831265, 0.0447318, 0.009595906, -2.121306, 0.1125596, -0.1080122, 0.3999704, 0.03198599, 0.0186908, -1.918328, 0.09148726, -0.08659342, 0.3999873
 224031185, 0.07851311, -0.04681825, -2.419564, 0.1363574, -0.1322767, 0.3999483, 0.0447318, 0.009595906, -2.121306, 0.1125596, -0.1080122, 0.3999704
 224231105, -0.07398044, 0.01973867, -2.631393, 0.161121, -0.1580406, 0.3999195, 0.07851311, -0.04681825, -2.419564, 0.1363574, -0.1322767, 0.3999483
 224431025, 0.1819618, -0.1656268, -2.726578, 0.1906323, -0.1873497, 0.3998797, -0.07398044, 0.01973867, -2.631393, 0.161121, -0.1580406, 0.3999195
 224630945, 0.185141, -0.2551274, -2.940705, 0.2198631, -0.2177833, 0.3998688, 0.1819618, -0.1656268, -2.726578, 0.1906323, -0.1873497, 0.3998797
 224830865, 0.08584152, 0.1428065, -3.116, 0.2501288, -0.2468506, 0.3998562, 0.185141, -0.2551274, -2.940705, 0.2198631, -0.2177833, 0.3998688
 225030785, 0.1076772, -0.1313426, -3.215344, 0.2866663, -0.2794335, 0.9998617, 0.08584152, 0.1428065, -3.116, 0.2501288, -0.2468506, 0.3998562
 225230705, 0.1587606, -0.04878802, -3.302803, 0.320475, -0.3125773, 0.9998652, 0.1076772, -0.1313426, -3.215344, 0.2866663, -0.2794335, 0.9998617
 225431458, -0.06639418, -0.3448052, -3.443735, 0.3534779, -0.3502385, 0.9999146, 0.1587606, -0.04878802, -3.302803, 0.320475, -0.3125773, 0.9998652
 225631378, -0.2786912, 0.07284613, -3.558778, 0.3884032, -0.3826928, 0.9999605, -0.06639418, -0.3448052, -3.443735, 0.3534779, -0.3502385, 0.9999146
 225831298, -0.0622674, -0.4884401, -3.651956, 0.4260689, -0.4243155, 1.000043, -0.2786912, 0.07284613, -3.558778, 0.3884032, -0.3826928, 0.9999605
 226031218, -0.08625317, -0.178559, -3.701376, 0.4630619, -0.4588432, 1.000201, -0.0622674, -0.4884401, -3.651956, 0.4260689, -0.4243155, 1.000043
 226231138, 0.3199247, -0.09529056, -3.677947, 0.5030968, -0.4960316, 1.000541, -0.08625317, -0.178559, -3.701376, 0.4630619, -0.4588432, 1.000201
 226431058, 0.3537527, -0.3423881, -3.494109, 0.5389962, -0.5341076, 1.000897, 0.3199247, -0.09529056, -3.677947, 0.5030968, -0.4960316, 1.000541
 226630978, 0.4143839, -0.2664619, -3.190765, 0.569995, -0.5711561, 1.000938, 0.3537527, -0.3423881, -3.494109, 0.5389962, -0.5341076, 1.000897
 226830898, -0.3159259, 0.3779781, -2.905305, 0.5909319, -0.6066424, 1.000192, 0.4143839, -0.2664619, -3.190765, 0.569995, -0.5711561, 1.000938
 227030818, -0.2153075, -0.3604897, -2.52445, 0.5851815, -0.6550956, 1.009037, -0.3159259, 0.3779781, -2.905305, 0.5909319, -0.6066424, 1.000192
 227230738, -0.1027419, 0.6458261, -2.216569, 0.5423995, -0.7044854, 1.027652, -0.2153075, -0.3604897, -2.52445, 0.5851815, -0.6550956, 1.009037
 227430658, -0.2006252, 0.06106466, -2.026542, 0.5187583, -0.7456638, 1.038594, -0.1027419, 0.6458261, -2.216569, 0.5423995, -0.7044854, 1.027652
 227631411, -0.4219643, 0.5165234, -1.804584, 0.5273192, -0.7674183, 1.041987, -0.2006252, 0.06106466, -2.026542, 0.5187583, -0.7456638, 1.038594
 227831331, -0.1027655, 0.8704923, -1.518555, 0.5482001, -0.7820778, 1.042117, -0.4219643, 0.5165234, -1.804584, 0.5273192, -0.7674183, 1.041987
 228031251, -0.7698321, 0.9506902, -1.520248, 0.5601754, -0.7993559, 1.043906, -0.1027655, 0.8704923, -1.518555, 0.5482001, -0.7820778, 1.042117
 228231171, -0.06466918, 1.091416, -1.265403, 0.5651839, -0.8240184, 1.041694, -0.7698321, 0.9506902, -1.520248, 0.5601754, -0.7993559, 1.043906
 228431091, -0.7306578, 1.153841, -1.297209, 0.6219553, -0.8244315, 1.027472, -0.06466918, 1.091416, -1.265403, 0.5651839, -0.8240184, 1.041694
 228631011, -0.9284356, 0.5216677, -1.308183, 0.7399986, -0.7140828, 1.049833, -0.7306578, 1.153841, -1.297209, 0.6219553, -0.8244315, 1.027472
 228830931, -1.20577, -0.111346, -1.434793, 0.8534575, -0.4724269, 1.117297, -0.9284356, 0.5216677, -1.308183, 0.7399986, -0.7140828, 1.049833
 229030851, -0.6193527, -1.22844, -1.539891, 0.896547, -0.1414094, 1.192778, -1.20577, -0.111346, -1.434793, 0.8534575, -0.4724269, 1.117297
 229230771, 0.1171385, -1.137933, -1.426202, 0.840168, 0.2174099, 1.23805, -0.6193527, -1.22844, -1.539891, 0.896547, -0.1414094, 1.192778
 229430691, 1.154623, -1.855058, -1.295732, 0.7106816, 0.5451273, 1.243061, 0.1171385, -1.137933, -1.426202, 0.840168, 0.2174099, 1.23805
 229631444, 1.554322, -0.1480825, -1.126024, 0.5286079, 0.7919472, 1.217683, 1.154623, -1.855058, -1.295732, 0.7106816, 0.5451273, 1.243061
 229831364, 3.031212, -0.2804089, -0.8170605, 0.3601561, 0.9608523, 1.194111, 1.554322, -0.1480825, -1.126024, 0.5286079, 0.7919472, 1.217683
 230031284, 2.479455, 2.118659, -0.8776724, 0.1847561, 1.075162, 1.169526, 3.031212, -0.2804089, -0.8170605, 0.3601561, 0.9608523, 1.194111
 230231204, 2.420453, 0.9508536, -1.088955, 0.03956917, 1.145391, 1.127068, 2.479455, 2.118659, -0.8776724, 0.1847561, 1.075162, 1.169526
 230431124, 2.522814, 2.805025, -0.9729679, 0.007913709, 1.215404, 1.109172, 2.420453, 0.9508536, -1.088955, 0.03956917, 1.145391, 1.127068
 230631044, 1.305533, 2.184494, -1.404733, 0.03038982, 1.20549, 1.128494, 2.522814, 2.805025, -0.9729679, 0.007913709, 1.215404, 1.109172
 230830964, 2.613224, 2.610064, -1.117274, 0.1647476, 1.187555, 1.185801, 1.305533, 2.184494, -1.404733, 0.03038982, 1.20549, 1.128494
 231030884, 3.319516, 1.16328, -1.136724, 0.2904138, 1.14109, 1.230838, 2.613224, 2.610064, -1.117274, 0.1647476, 1.187555, 1.185801
 231230804, 2.23381, 1.156289, -1.450134, 0.3531669, 1.117139, 1.254004, 3.319516, 1.16328, -1.136724, 0.2904138, 1.14109, 1.230838
 231430724, 3.854057, 1.427164, -0.9669139, 0.4155518, 1.143659, 1.268954, 2.23381, 1.156289, -1.450134, 0.3531669, 1.117139, 1.254004
 231631477, 3.685042, 0.7370123, -1.116013, 0.3983127, 1.187157, 1.257426, 3.854057, 1.427164, -0.9669139, 0.4155518, 1.143659, 1.268954
 231831397, 3.640653, 1.76846, -0.9860264, 0.3703353, 1.252557, 1.243788, 3.685042, 0.7370123, -1.116013, 0.3983127, 1.187157, 1.257426
 232031317, 2.885522, 1.853959, -1.099411, 0.3176949, 1.304375, 1.227372, 3.640653, 1.76846, -0.9860264, 0.3703353, 1.252557, 1.243788
 232231237, 2.505116, 0.9374405, -1.234128, 0.2817818, 1.338504, 1.218611, 2.885522, 1.853959, -1.099411, 0.3176949, 1.304375, 1.227372
 232431157, 2.102812, 2.161072, -1.28889, 0.2783327, 1.375664, 1.220951, 2.505116, 0.9374405, -1.234128, 0.2817818, 1.338504, 1.218611
 232631077, 3.331245, 1.204703, -0.9898259, 0.3122224, 1.394151, 1.23078, 2.102812, 2.161072, -1.28889, 0.2783327, 1.375664, 1.220951
 232830997, 3.266475, 2.070587, -0.8915348, 0.3484427, 1.412794, 1.242927, 3.331245, 1.204703, -0.9898259, 0.3122224, 1.394151, 1.23078
 233030917, 4.128542, 1.662722, -0.7323622, 0.3962225, 1.425367, 1.258446, 3.266475, 2.070587, -0.8915348, 0.3484427, 1.412794, 1.242927
 233230837, 2.604973, 1.426293, -1.082769, 0.3960972, 1.429179, 1.260868, 4.128542, 1.662722, -0.7323622, 0.3962225, 1.425367, 1.258446
 233430757, 3.998457, 2.183122, -0.6836076, 0.4403187, 1.463242, 1.27243, 2.604973, 1.426293, -1.082769, 0.3960972, 1.429179, 1.260868
 233630677, 4.247212, 1.545933, -0.7064989, 0.4473607, 1.487265, 1.273062, 3.998457, 2.183122, -0.6836076, 0.4403187, 1.463242, 1.27243
 233831430, 4.200097, 0.6654212, -0.7856779, 0.4404235, 1.511712, 1.271803, 4.247212, 1.545933, -0.7064989, 0.4473607, 1.487265, 1.273062
 234031350, 2.551088, 1.961046, -1.004769, 0.4194999, 1.536454, 1.270924, 4.200097, 0.6654212, -0.7856779, 0.4404235, 1.511712, 1.271803
 234231270, 3.690592, 0.709872, -0.861981, 0.4316911, 1.560314, 1.276613, 2.551088, 1.961046, -1.004769, 0.4194999, 1.536454, 1.270924
 234431190, 4.704123, 0.8290962, -0.6506207, 0.4581594, 1.59414, 1.281791, 3.690592, 0.709872, -0.861981, 0.4316911, 1.560314, 1.276613
 234631110, 1.796521, 1.823825, -1.211819, 0.4341495, 1.608218, 1.274429, 4.704123, 0.8290962, -0.6506207, 0.4581594, 1.59414, 1.281791
 234831030, 3.388737, 2.143115, -0.840523, 0.4731038, 1.634851, 1.286632, 1.796521, 1.823825, -1.211819, 0.4341495, 1.608218, 1.274429
 235030950, 3.454322, 2.65178, -0.7689773, 0.4916305, 1.657243, 1.296073, 3.388737, 2.143115, -0.840523, 0.4731038, 1.634851, 1.286632
 235230870, 2.681016, -0.228545, -1.210829, 0.4816859, 1.658513, 1.295865, 3.454322, 2.65178, -0.7689773, 0.4916305, 1.657243, 1.296073
 235430790, 2.239053, 0.7349169, -1.23827, 0.4920622, 1.680876, 1.300657, 2.681016, -0.228545, -1.210829, 0.4816859, 1.658513, 1.295865
 235630710, 3.514961, 0.2216764, -0.9991105, 0.5124909, 1.708576, 1.307633, 2.239053, 0.7349169, -1.23827, 0.4920622, 1.680876, 1.300657
 235831463, 4.07144, 1.516508, -0.7845227, 0.5379581, 1.741598, 1.312415, 3.514961, 0.2216764, -0.9991105, 0.5124909, 1.708576, 1.307633
 236031383, 4.508056, 1.756801, -0.7454146, 0.5912743, 1.788621, 1.276276, 4.07144, 1.516508, -0.7845227, 0.5379581, 1.741598, 1.312415
 236231303, 3.569956, 0.1048881, -0.9980973, 0.5824508, 1.831605, 1.224606, 4.508056, 1.756801, -0.7454146, 0.5912743, 1.788621, 1.276276
 236431223, 1.918282, 2.000263, -1.046716, 0.5840713, 1.863414, 1.211173, 3.569956, 0.1048881, -0.9980973, 0.5824508, 1.831605, 1.224606
 236631143, 3.810391, 0.4328417, -0.4504287, 0.6725294, 1.844689, 1.241121, 1.918282, 2.000263, -1.046716, 0.5840713, 1.863414, 1.211173
 236831063, 4.327392, 0.7964858, -0.06963813, 0.7928916, 1.799412, 1.283887, 3.810391, 0.4328417, -0.4504287, 0.6725294, 1.844689, 1.241121
 237030983, 3.384113, -0.2836607, -0.07852334, 0.8845485, 1.733799, 1.317676, 4.327392, 0.7964858, -0.06963813, 0.7928916, 1.799412, 1.283887
 237230903, 4.048528, 0.9028541, 0.2778094, 0.9794312, 1.684786, 1.357212, 3.384113, -0.2836607, -0.07852334, 0.8845485, 1.733799, 1.317676
 237430823, 2.918036, -1.352614, 0.1704685, 1.010663, 1.639695, 1.380584, 4.048528, 0.9028541, 0.2778094, 0.9794312, 1.684786, 1.357212
 237630743, 2.802533, -0.8887694, 0.294781, 1.039094, 1.616006, 1.401269, 2.918036, -1.352614, 0.1704685, 1.010663, 1.639695, 1.380584
 237830663, 4.382488, -0.6931732, 0.9667995, 1.079809, 1.607761, 1.423251, 2.802533, -0.8887694, 0.294781, 1.039094, 1.616006, 1.401269
 238031416, 2.573112, 0.2575385, 0.5097175, 1.05787, 1.604015, 1.424853, 4.382488, -0.6931732, 0.9667995, 1.079809, 1.607761, 1.423251
 238231336, 4.923824, -1.3152, 1.474201, 1.098077, 1.597876, 1.45349, 2.573112, 0.2575385, 0.5097175, 1.05787, 1.604015, 1.424853
 238431256, 3.324211, -1.503838, 0.962651, 1.069003, 1.586375, 1.461383, 4.923824, -1.3152, 1.474201, 1.098077, 1.597876, 1.45349
 238631176, 4.268179, 0.686394, 1.390833, 1.085663, 1.575805, 1.490366, 3.324211, -1.503838, 0.962651, 1.069003, 1.586375, 1.461383
 238831096, 2.634027, -0.4959668, 0.7980443, 1.057994, 1.555678, 1.502317, 4.268179, 0.686394, 1.390833, 1.085663, 1.575805, 1.490366
 239031016, 3.874414, -0.4864218, 1.380648, 1.073521, 1.542661, 1.531339, 2.634027, -0.4959668, 0.7980443, 1.057994, 1.555678, 1.502317
 239230936, 4.392798, 0.2569676, 1.686887, 1.075595, 1.536022, 1.554531, 3.874414, -0.4864218, 1.380648, 1.073521, 1.542661, 1.531339
 239430856, 3.594145, 0.314449, 1.371308, 1.051058, 1.532157, 1.562778, 4.392798, 0.2569676, 1.686887, 1.075595, 1.536022, 1.554531
 239630776, 5.445666, 0.7891009, 2.306915, 1.080845, 1.533625, 1.590302, 3.594145, 0.314449, 1.371308, 1.051058, 1.532157, 1.562778
 239830696, 5.568446, -1.666129, 2.40973, 1.077318, 1.529072, 1.599368, 5.445666, 0.7891009, 2.306915, 1.080845, 1.533625, 1.590302
 240031449, 5.772413, 0.7830194, 2.533458, 1.075078, 1.535428, 1.60838, 5.568446, -1.666129, 2.40973, 1.077318, 1.529072, 1.599368
 240231369, 5.975742, 0.6265474, 2.652264, 1.074004, 1.53429, 1.618605, 5.772413, 0.7830194, 2.533458, 1.075078, 1.535428, 1.60838
 240431289, 3.401212, 0.3802813, 1.511572, 1.014712, 1.532308, 1.600325, 5.975742, 0.6265474, 2.652264, 1.074004, 1.53429, 1.618605
 240631209, 4.320415, 1.304716, 1.978881, 1.02607, 1.536203, 1.616461, 3.401212, 0.3802813, 1.511572, 1.014712, 1.532308, 1.600325
 240831129, 3.970484, -0.08926809, 1.812521, 1.015295, 1.52633, 1.620886, 4.320415, 1.304716, 1.978881, 1.02607, 1.536203, 1.616461
 241031049, 6.142061, 0.9209945, 2.881752, 1.061333, 1.529397, 1.651544, 3.970484, -0.08926809, 1.812521, 1.015295, 1.52633, 1.620886
 241230969, 5.354487, 0.8383464, 2.539192, 1.039314, 1.528217, 1.64693, 6.142061, 0.9209945, 2.881752, 1.061333, 1.529397, 1.651544
 241430889, 5.464701, -1.121806, 2.578447, 1.039644, 1.521384, 1.653593, 5.354487, 0.8383464, 2.539192, 1.039314, 1.528217, 1.64693
 241630809, 3.832045, -1.343162, 1.820003, 1.002136, 1.522669, 1.641027, 5.464701, -1.121806, 2.578447, 1.039644, 1.521384, 1.653593
 241830729, 5.625976, 0.5016622, 2.738005, 1.036349, 1.526874, 1.665625, 3.832045, -1.343162, 1.820003, 1.002136, 1.522669, 1.641027
 242031482, 3.771763, 1.014351, 1.830353, 0.9933342, 1.531545, 1.649549, 5.625976, 0.5016622, 2.738005, 1.036349, 1.526874, 1.665625
 242231402, 4.350584, -0.9363454, 2.103241, 1.001991, 1.524402, 1.659253, 3.771763, 1.014351, 1.830353, 0.9933342, 1.531545, 1.649549
 242431322, 4.286902, 1.006669, 2.123957, 0.9983093, 1.532884, 1.661936, 4.350584, -0.9363454, 2.103241, 1.001991, 1.524402, 1.659253
 242631242, 5.750327, -0.8664824, 2.879448, 1.028523, 1.524933, 1.684529, 4.286902, 1.006669, 2.123957, 0.9983093, 1.532884, 1.661936
 242831162, 4.287129, -0.9171442, 2.057173, 0.9925385, 1.526362, 1.670982, 5.750327, -0.8664824, 2.879448, 1.028523, 1.524933, 1.684529
 243031082, 5.897153, -1.789755, 2.956043, 1.029509, 1.526438, 1.69464, 4.287129, -0.9171442, 2.057173, 0.9925385, 1.526362, 1.670982
 243231002, 6.394261, 0.7846906, 3.294909, 1.040646, 1.53252, 1.705579, 5.897153, -1.789755, 2.956043, 1.029509, 1.526438, 1.69464
 243430922, 4.708353, 0.9451566, 2.34832, 0.9968762, 1.534956, 1.686466, 6.394261, 0.7846906, 3.294909, 1.040646, 1.53252, 1.705579
 243630842, 4.296813, -0.7197173, 2.173646, 0.9880663, 1.528858, 1.685761, 4.708353, 0.9451566, 2.34832, 0.9968762, 1.534956, 1.686466
 243830762, 4.139189, 0.5540408, 2.042532, 0.9828626, 1.5346, 1.686854, 4.296813, -0.7197173, 2.173646, 0.9880663, 1.528858, 1.685761
 244030682, 6.362486, -1.71104, 3.317878, 1.03523, 1.529573, 1.719951, 4.139189, 0.5540408, 2.042532, 0.9828626, 1.5346, 1.686854
 244231435, 4.646175, -0.199452, 2.407754, 0.9913191, 1.532746, 1.699366, 6.362486, -1.71104, 3.317878, 1.03523, 1.529573, 1.719951
 244431355, 6.319296, -0.8711375, 3.285268, 1.031169, 1.530321, 1.725798, 4.646175, -0.199452, 2.407754, 0.9913191, 1.532746, 1.699366
 244631275, 5.918147, 0.1702534, 3.125091, 1.019032, 1.534457, 1.723196, 6.319296, -0.8711375, 3.285268, 1.031169, 1.530321, 1.725798
 244831195, 5.45175, -1.471737, 2.831647, 1.006499, 1.532916, 1.720154, 5.918147, 0.1702534, 3.125091, 1.019032, 1.534457, 1.723196
 245031115, 6.799318, 0.5326722, 3.642194, 1.041254, 1.538331, 1.743042, 5.45175, -1.471737, 2.831647, 1.006499, 1.532916, 1.720154
 245231035, 5.952865, 0.8846736, 3.205247, 1.016896, 1.542236, 1.732836, 6.799318, 0.5326722, 3.642194, 1.041254, 1.538331, 1.743042
 245430955, 5.50758, -0.2109189, 2.883717, 1.005066, 1.537989, 1.729102, 5.952865, 0.8846736, 3.205247, 1.016896, 1.542236, 1.732836
 245630875, 4.189789, -1.197683, 2.170297, 0.9768654, 1.538554, 1.715685, 5.50758, -0.2109189, 2.883717, 1.005066, 1.537989, 1.729102
 245830795, 6.49745, 0.002990353, 3.55044, 1.031424, 1.540779, 1.749358, 4.189789, -1.197683, 2.170297, 0.9768654, 1.538554, 1.715685
 246030715, 4.382922, -0.535219, 2.367013, 0.9804503, 1.542434, 1.7216, 6.49745, 0.002990353, 3.55044, 1.031424, 1.540779, 1.749358
 246231468, 4.894464, 0.1165108, 2.688348, 0.9911205, 1.54536, 1.729563, 4.382922, -0.535219, 2.367013, 0.9804503, 1.542434, 1.7216
 246431388, 6.178486, 0.850584, 3.440541, 1.023597, 1.549647, 1.749125, 4.894464, 0.1165108, 2.688348, 0.9911205, 1.54536, 1.729563
 246631308, 4.399521, 0.463646, 2.4158, 0.9822889, 1.548007, 1.727729, 6.178486, 0.850584, 3.440541, 1.023597, 1.549647, 1.749125
 246831228, 5.902535, 0.5252828, 3.297112, 1.01808, 1.546204, 1.751245, 4.399521, 0.463646, 2.4158, 0.9822889, 1.548007, 1.727729
 247031148, 4.510287, -0.3731557, 2.426058, 0.9935911, 1.542216, 1.731321, 5.902535, 0.5252828, 3.297112, 1.01808, 1.546204, 1.751245
 247231068, 4.360307, 0.3799846, 2.288517, 0.9964305, 1.545009, 1.728477, 4.510287, -0.3731557, 2.426058, 0.9935911, 1.542216, 1.731321
 247430988, 5.528358, -0.5515718, 2.98166, 1.021546, 1.541001, 1.747323, 4.360307, 0.3799846, 2.288517, 0.9964305, 1.545009, 1.728477
 247630908, 4.944553, 0.9372885, 2.713792, 1.000966, 1.549714, 1.745208, 5.528358, -0.5515718, 2.98166, 1.021546, 1.541001, 1.747323
 247830828, 6.762711, 0.004518998, 3.832717, 1.044687, 1.54355, 1.778132, 4.944553, 0.9372885, 2.713792, 1.000966, 1.549714, 1.745208
