TimeUS,CGpN,CGpE,CGpD,CGpe,PGpN,PGpE,PGpD,PGpe
 196263963, 0, 0, 0, 2.5, 0, 0, 0, 0
 196431396, 0, 0, 0, 2.5, 0, 0, 0, 2.5
 196631316, 0, 0, 0, 2.5, 0, 0, 0, 2.5
 196831236, 0, 0, 0, 2.5, 0, 0, 0, 2.5
 197031156, 0, 0, 0, 2.5, 0, 0, 0, 2.5
 197231076, 0, 0, 0, 2.5, 0, 0, 0, 2.5
 197430996, 0, 0, 0, 2.5, 0, 0, 0, 2.5
 197630916, 0, 0, 0, 2.5, 0, 0, 0, 2.5
 197830836, 0, 0, 0, 2.5, 0, 0, 0, 2.5
 198030756, 0, 0, 0, 2.5, 0, 0, 0, 2.5
 198230676, 0, 0, 0, 2.5, 0, 0, 0, 2.5
 198431429, 0, 0, 0, 2.5, 0, 0, 0, 2.5
 198631349, 0, 0, 0, 2.5, 0, 0, 0, 2.5
 198831269, 0, 0, 0, 2.5, 0, 0, 0, 2.5
 199031189, 0, 0, 0, 2.5, 0, 0, 0, 2.5
 199231109, 0, 0, 0, 2.5, 0, 0, 0, 2.5
 199431029, 0, 0, 0, 2.5, 0, 0, 0, 2.5
 199630949, 0, 0, 0, 2.5, 0, 0, 0, 2.5
 199830869, 0, 0, 0, 2.5, 0, 0, 0, 2.5
 200030789, 0, 0, 0, 2.5, 0, 0, 0, 2.5
 200230709, 0, 0, 0, 2.5, 0, 0, 0, 2.5
 200431462, 0, 0, 0, 2.5, 0, 0, 0, 2.5
 200631382, 0, 0, 0, 2.5, 0, 0, 0, 2.5
 200831302, 0, 0, 0, 2.5, 0, 0, 0, 2.5
 201031222, 0, 0, 0, 2.5, 0, 0, 0, 2.5
 201231142, 0, 0, 0, 2.5, 0, 0, 0, 2.5
 201431062, 0, 0, 0, 2.5, 0, 0, 0, 2.5
 201630982, 0, 0, 0, 2.5, 0, 0, 0, 2.5
 201830902, 0, 0, 0, 2.5, 0, 0, 0, 2.5
 202030822, 0, 0, 0, 2.5, 0, 0, 0, 2.5
 202230742, 0, 0, 0, 2.5, 0, 0, 0, 2.5
 202430662, 0, 0, 0, 2.5, 0, 0, 0, 2.5
 202631415, 0, 0, 0, 2.5, 0, 0, 0, 2.5
 202831335, 0, 0, 0, 2.5, 0, 0, 0, 2.5
 203031255, 0, 0, 0, 2.5, 0, 0, 0, 2.5
 203231175, 0, 0, 0, 2.5, 0, 0, 0, 2.5
 203431095, 0, 0, 0, 2.5, 0, 0, 0, 2.5
 203631015, 0, 0, 0, 2.5, 0, 0, 0, 2.5
 203830935, 0, 0, 0, 2.5, 0, 0, 0, 2.5
 204030855, 0, 0, 0, 2.5, 0, 0, 0, 2.5
 204230775, 0, 0, 0, 2.5, 0, 0, 0, 2.5
 204430695, 0, 0, 0, 2.5, 0, 0, 0, 2.5
 204631448, 0, 0, 0, 2.5, 0, 0, 0, 2.5
 204831368, 0, 0, 0, 2.5, 0, 0, 0, 2.5
 205031288, 0, 0, 0, 2.5, 0, 0, 0, 2.5
 205231208, 0, 0, 0, 2.5, 0, 0, 0, 2.5
 205431128, 0, 0, 0, 2.5, 0, 0, 0, 2.5
 205631048, 0, 0, 0, 2.5, 0, 0, 0, 2.5
 205830968, 0, 0, 0, 2.5, 0, 0, 0, 2.5
 206030888, 0, 0, 0, 2.5, 0, 0, 0, 2.5
 206230808, 0, 0, 0, 2.5, 0, 0, 0, 2.5
 206430728, 0, 0, 0, 2.5, 0, 0, 0, 2.5
 206631481, 0, 0, 0, 2.5, 0, 0, 0, 2.5
 206831401, 0, 0, 0, 2.5, 0, 0, 0, 2.5
 207031321, 0, 0, 0, 2.5, 0, 0, 0, 2.5
 207231241, 0, 0, 0, 2.5, 0, 0, 0, 2.5
 207431161, 0, 0, 0, 2.5, 0, 0, 0, 2.5
 207631081, 0, 0, 0, 2.5, 0, 0, 0, 2.5
 207831001, 0, 0, 0, 2.5, 0, 0, 0, 2.5
 208030921, 0, 0, 0, 2.5, 0, 0, 0, 2.5
 208230841, 0, 0, 0, 2.5, 0, 0, 0, 2.5
 208430761, 0, 0, 0, 2.5, 0, 0, 0, 2.5
 208630681, 0, 0, 0, 2.5, 0, 0, 0, 2.5
 208831434, 0, 0, 0, 2.5, 0, 0, 0, 2.5
 209031354, 0, 0, 0, 2.5, 0, 0, 0, 2.5
 209231274, 0, 0, 0, 2.5, 0, 0, 0, 2.5
 209431194, 0, 0, 0, 2.5, 0, 0, 0, 2.5
 209631114, 0, 0, 0, 2.5, 0, 0, 0, 2.5
 209831034, 0, 0, 0, 2.5, 0, 0, 0, 2.5
 210030954, 0, 0, 0, 2.5, 0, 0, 0, 2.5
 210230874, 0, 0, 0, 2.5, 0, 0, 0, 2.5
 210430794, 0, 0, 0, 2.5, 0, 0, 0, 2.5
 210630714, 0, 0, 0, 2.5, 0, 0, 0, 2.5
 210831467, 0, 0, 0, 2.5, 0, 0, 0, 2.5
 211031387, 0, 0, 0, 2.5, 0, 0, 0, 2.5
 211231307, 0, 0, 0, 2.5, 0, 0, 0, 2.5
 211431227, 0, 0, 0, 2.5, 0, 0, 0, 2.5
 211631147, 0, 0, 0, 2.5, 0, 0, 0, 2.5
 211831067, 0, 0, 0, 2.5, 0, 0, 0, 2.5
 212030987, 0, 0, 0, 2.5, 0, 0, 0, 2.5
 212230907, 0, 0, 0, 2.5, 0, 0, 0, 2.5
 212430827, 0, 0, 0, 2.5, 0, 0, 0, 2.5
 212630747, 0, 0, 0, 2.5, 0, 0, 0, 2.5
 212830667, 0, 0, 0, 2.5, 0, 0, 0, 2.5
 213031420, 0, 0, 0, 2.5, 0, 0, 0, 2.5
 213231340, 0, 0, 0, 2.5, 0, 0, 0, 2.5
 213431260, 0, 0, 0, 2.5, 0, 0, 0, 2.5
 213631180, 0, 0, 0, 2.5, 0, 0, 0, 2.5
 213831100, 0, 0, 0, 2.5, 0, 0, 0, 2.5
 214031020, 0, 0, 0, 2.5, 0, 0, 0, 2.5
 214230940, 0, 0, 0, 2.5, 0, 0, 0, 2.5
 214430860, 0, 0, 0, 2.5, 0, 0, 0, 2.5
 214630780, 0, 0, 0, 2.5, 0, 0, 0, 2.5
 214830700, 0, 0, 0, 2.5, 0, 0, 0, 2.5
 215031453, 0, 0, 0, 2.5, 0, 0, 0, 2.5
 215231373, 0, 0, 0, 2.5, 0, 0, 0, 2.5
 215431293, 0, 0, 0, 2.5, 0, 0, 0, 2.5
 215631213, 0, 0, 0, 2.5, 0, 0, 0, 2.5
 215831133, 0, 0, 0, 2.5, 0, 0, 0, 2.5
 216031053, 0, 0, 0, 2.5, 0, 0, 0, 2.5
 216230973, 0, 0, 0, 2.5, 0, 0, 0, 2.5
 216430893, 0, 0, 0, 2.5, 0, 0, 0, 2.5
 216630813, 0, 0, 0, 2.5, 0, 0, 0, 2.5
 216830733, 0, 0, 0, 2.5, 0, 0, 0, 2.5
 217031486, 0, 0, 0, 2.5, 0, 0, 0, 2.5
 217231406, 0, 0, 0, 2.5, 0, 0, 0, 2.5
 217431326, 0, 0, 0, 2.5, 0, 0, 0, 2.5
 217631246, 0, 0, 0, 2.5, 0, 0, 0, 2.5
 217831166, 0, 0, 0, 2.5, 0, 0, 0, 2.5
 218031086, 0, 0, 0, 2.5, 0, 0, 0, 2.5
 218231006, 0, 0, 0, 2.5, 0, 0, 0, 2.5
 218430926, 0, 0, 0, 2.5, 0, 0, 0, 2.5
 218630846, 0, 0, 0, 2.5, 0, 0, 0, 2.5
 218830766, 0, 0, 0, 2.5, 0, 0, 0, 2.5
 219030686, 0, 0, 0, 2.5, 0, 0, 0, 2.5
 219231439, 0, 0, 0, 2.5, 0, 0, 0, 2.5
 219431359, 0, 0, 0, 2.5, 0, 0, 0, 2.5
 219631279, 0, 0, 0, 2.5, 0, 0, 0, 2.5
 219831199, 0, 0, 0, 2.5, 0, 0, 0, 2.5
 220031119, 0, 0, 0, 2.5, 0, 0, 0, 2.5
 220231039, 0, 0, 0, 2.5, 0, 0, 0, 2.5
 220430959, 0, 0, 0, 2.5, 0, 0, 0, 2.5
 220630879, 0, 0, 0, 2.5, 0, 0, 0, 2.5
 220830799, 0, 0, 0, 2.5, 0, 0, 0, 2.5
 221030719, 0, 0, 0, 2.5, 0, 0, 0, 2.5
 221231472, 0, 0, 0, 2.5, 0, 0, 0, 2.5
 221431392, 0, 0, 0, 2.5, 0, 0, 0, 2.5
 221631312, 0, 0, 0, 2.5, 0, 0, 0, 2.5
 221831232, 0, 0, 0, 2.5, 0, 0, 0, 2.5
 222031152, 0, 0, 0, 2.5, 0, 0, 0, 2.5
 222231072, 0, 0, 0, 2.5, 0, 0, 0, 2.5
 222430992, 0, 0, 0, 2.5, 0, 0, 0, 2.5
 222630912, 0, 0, 0, 2.5, 0, 0, 0, 2.5
 222830832, 0, 0, 0, 2.5, 0, 0, 0, 2.5
 223030752, 0, 0, 0, 2.5, 0, 0, 0, 2.5
 223230672, 0, 0, 0, 2.5, 0, 0, 0, 2.5
 223431425, 0, 0, 0, 2.5, 0, 0, 0, 2.5
 223631345, 0, 0, 0, 2.5, 0, 0, 0, 2.5
 223831265, 0, 0, 0, 2.5, 0, 0, 0, 2.5
 224031185, 0, 0, 0, 2.5, 0, 0, 0, 2.5
 224231105, 0, 0, 0, 2.5, 0, 0, 0, 2.5
 224431025, 0, 0, 0, 2.5, 0, 0, 0, 2.5
 224630945, 0, 0, 0, 2.5, 0, 0, 0, 2.5
 224830865, 0, 0, 0, 2.5, 0, 0, 0, 2.5
 225030785, 0, 0, 0, 2.5, 0, 0, 0, 2.5
 225230705, 0, 0, 0, 2.5, 0, 0, 0, 2.5
 225431458, 0, 0, 0, 2.5, 0, 0, 0, 2.5
 225631378, 0, 0, 0, 2.5, 0, 0, 0, 2.5
 225831298, 0, 0, 0, 2.5, 0, 0, 0, 2.5
 226031218, 0, 0, 0, 2.5, 0, 0, 0, 2.5
 226231138, 0, 0, 0, 2.5, 0, 0, 0, 2.5
 226431058, 0, 0, 0, 2.5, 0, 0, 0, 2.5
 226630978, 0, 0, 0, 2.5, 0, 0, 0, 2.5
 226830898, 0, 0, 0, 2.5, 0, 0, 0, 2.5
 227030818, 0, 0, 0, 2.5, 0, 0, 0, 2.5
 227230738, 0, 0, 0, 2.5, 0, 0, 0, 2.5
 227430658, 0, 0, 0, 2.5, 0, 0, 0, 2.5
 227631411, 0, 0, 0, 2.5, 0, 0, 0, 2.5
 227831331, 0, 0, 0, 2.5, 0, 0, 0, 2.5
 228031251, 0, 0, 0, 2.5, 0, 0, 0, 2.5
 228231171, 0, 0, 0, 2.5, 0, 0, 0, 2.5
 228431091, 0, 0, 0, 2.5, 0, 0, 0, 2.5
 228631011, 0, 0, 0, 2.5, 0, 0, 0, 2.5
 228830931, 0, 0, 0, 2.5, 0, 0, 0, 2.5
 229030851, 0, 0, 0, 2.5, 0, 0, 0, 2.5
 229230771, 0, 0, 0, 2.5, 0, 0, 0, 2.5
 229430691, 0, 0, 0, 2.5, 0, 0, 0, 2.5
 229631444, 0, 0, 0, 2.5, 0, 0, 0, 2.5
 229831364, 0, 0, 0, 2.5, 0, 0, 0, 2.5
 230031284, 0, 0, 0, 2.5, 0, 0, 0, 2.5
 230231204, 0, 0, 0, 2.5, 0, 0, 0, 2.5
 230431124, 0, 0, 0, 2.5, 0, 0, 0, 2.5
 230631044, 0, 0, 0, 2.5, 0, 0, 0, 2.5
 230830964, 0, 0, 0, 2.5, 0, 0, 0, 2.5
 231030884, 0, 0, 0, 2.5, 0, 0, 0, 2.5
 231230804, 0, 0, 0, 2.5, 0, 0, 0, 2.5
 231430724, 0, 0, 0, 2.5, 0, 0, 0, 2.5
 231631477, 0, 0, 0, 2.5, 0, 0, 0, 2.5
 231831397, 0, 0, 0, 2.5, 0, 0, 0, 2.5
 232031317, 0, 0, 0, 2.5, 0, 0, 0, 2.5
 232231237, 0, 0, 0, 2.5, 0, 0, 0, 2.5
 232431157, 0, 0, 0, 2.5, 0, 0, 0, 2.5
 232631077, 0, 0, 0, 2.5, 0, 0, 0, 2.5
 232830997, 0, 0, 0, 2.5, 0, 0, 0, 2.5
 233030917, 0, 0, 0, 2.5, 0, 0, 0, 2.5
 233230837, 0, 0, 0, 2.5, 0, 0, 0, 2.5
 233430757, 0, 0, 0, 2.5, 0, 0, 0, 2.5
 233630677, 0, 0, 0, 2.5, 0, 0, 0, 2.5
 233831430, 0, 0, 0, 2.5, 0, 0, 0, 2.5
 234031350, 0, 0, 0, 2.5, 0, 0, 0, 2.5
 234231270, 0, 0, 0, 2.5, 0, 0, 0, 2.5
 234431190, 0, 0, 0, 2.5, 0, 0, 0, 2.5
 234631110, 0, 0, 0, 2.5, 0, 0, 0, 2.5
 234831030, 0, 0, 0, 2.5, 0, 0, 0, 2.5
 235030950, 0, 0, 0, 2.5, 0, 0, 0, 2.5
 235230870, 0, 0, 0, 2.5, 0, 0, 0, 2.5
 235430790, 0, 0, 0, 2.5, 0, 0, 0, 2.5
 235630710, 0, 0, 0, 2.5, 0, 0, 0, 2.5
 235831463, 0, 0, 0, 2.5, 0, 0, 0, 2.5
 236031383, 0, 0, 0, 2.5, 0, 0, 0, 2.5
 236231303, 0, 0, 0, 2.5, 0, 0, 0, 2.5
 236431223, 0, 0, 0, 2.5, 0, 0, 0, 2.5
 236631143, 0, 0, 0, 2.5, 0, 0, 0, 2.5
 236831063, 0, 0, 0, 2.5, 0, 0, 0, 2.5
 237030983, 0, 0, 0, 2.5, 0, 0, 0, 2.5
 237230903, 0, 0, 0, 2.5, 0, 0, 0, 2.5
 237430823, 0, 0, 0, 2.5, 0, 0, 0, 2.5
 237630743, 0, 0, 0, 2.5, 0, 0, 0, 2.5
 237830663, 0, 0, 0, 2.5, 0, 0, 0, 2.5
 238031416, 0, 0, 0, 2.5, 0, 0, 0, 2.5
 238231336, 0, 0, 0, 2.5, 0, 0, 0, 2.5
 238431256, 0, 0, 0, 2.5, 0, 0, 0, 2.5
 238631176, 0, 0, 0, 2.5, 0, 0, 0, 2.5
 238831096, 0, 0, 0, 2.5, 0, 0, 0, 2.5
 239031016, 0, 0, 0, 2.5, 0, 0, 0, 2.5
 239230936, 0, 0, 0, 2.5, 0, 0, 0, 2.5
 239430856, 0, 0, 0, 2.5, 0, 0, 0, 2.5
 239630776, 0, 0, 0, 2.5, 0, 0, 0, 2.5
 239830696, 0, 0, 0, 2.5, 0, 0, 0, 2.5
 240031449, 0, 0, 0, 2.5, 0, 0, 0, 2.5
 240231369, 0, 0, 0, 2.5, 0, 0, 0, 2.5
 240431289, 0, 0, 0, 2.5, 0, 0, 0, 2.5
 240631209, 0, 0, 0, 2.5, 0, 0, 0, 2.5
 240831129, 0, 0, 0, 2.5, 0, 0, 0, 2.5
 241031049, 0, 0, 0, 2.5, 0, 0, 0, 2.5
 241230969, 0, 0, 0, 2.5, 0, 0, 0, 2.5
 241430889, 0, 0, 0, 2.5, 0, 0, 0, 2.5
 241630809, 0, 0, 0, 2.5, 0, 0, 0, 2.5
 241830729, 0, 0, 0, 2.5, 0, 0, 0, 2.5
 242031482, 0, 0, 0, 2.5, 0, 0, 0, 2.5
 242231402, 0, 0, 0, 2.5, 0, 0, 0, 2.5
 242431322, 0, 0, 0, 2.5, 0, 0, 0, 2.5
 242631242, 0, 0, 0, 2.5, 0, 0, 0, 2.5
 242831162, 0, 0, 0, 2.5, 0, 0, 0, 2.5
 243031082, 0, 0, 0, 2.5, 0, 0, 0, 2.5
 243231002, 0, 0, 0, 2.5, 0, 0, 0, 2.5
 243430922, 0, 0, 0, 2.5, 0, 0, 0, 2.5
 243630842, 0, 0, 0, 2.5, 0, 0, 0, 2.5
 243830762, 0, 0, 0, 2.5, 0, 0, 0, 2.5
 244030682, 0, 0, 0, 2.5, 0, 0, 0, 2.5
 244231435, 0, 0, 0, 2.5, 0, 0, 0, 2.5
 244431355, 0, 0, 0, 2.5, 0, 0, 0, 2.5
 244631275, 0, 0, 0, 2.5, 0, 0, 0, 2.5
 244831195, 0, 0, 0, 2.5, 0, 0, 0, 2.5
 245031115, 0, 0, 0, 2.5, 0, 0, 0, 2.5
 245231035, 0, 0, 0, 2.5, 0, 0, 0, 2.5
 245430955, 0, 0, 0, 2.5, 0, 0, 0, 2.5
 245630875, 0, 0, 0, 2.5, 0, 0, 0, 2.5
 245830795, 0, 0, 0, 2.5, 0, 0, 0, 2.5
 246030715, 0, 0, 0, 2.5, 0, 0, 0, 2.5
 246231468, 0, 0, 0, 2.5, 0, 0, 0, 2.5
 246431388, 0, 0, 0, 2.5, 0, 0, 0, 2.5
 246631308, 0, 0, 0, 2.5, 0, 0, 0, 2.5
 246831228, 0, 0, 0, 2.5, 0, 0, 0, 2.5
 247031148, 0, 0, 0, 2.5, 0, 0, 0, 2.5
 247231068, 0, 0, 0, 2.5, 0, 0, 0, 2.5
 247430988, 0, 0, 0, 2.5, 0, 0, 0, 2.5
 247630908, 0, 0, 0, 2.5, 0, 0, 0, 2.5
 247830828, 0, 0, 0, 2.5, 0, 0, 0, 2.5
 248030748, 0, 0, -0.1, 2.5, 0, 0, 0, 2.5
 248230668, 0, 0, -0.316, 2.5, 0, 0, -0.1, 2.5
 248431421, 0, 0, -0.216, 2.5, 0, 0, -0.316, 2.5
 248631341, 0, 0, -0.721, 2.5, 0, 0, -0.216, 2.5
 248831261, -0.01, -0.011, -1.888, 2.5, 0, 0, -0.721, 2.5
 249031181, -0.027, -0.028, -2.137, 2.5, -0.01, -0.011, -1.888, 2.5
 249231101, -0.045, -0.045, -2.291, 2.5, -0.027, -0.028, -2.137, 2.5
 249431021, -0.061, -0.06, -2.538, 2.5, -0.045, -0.045, -2.291, 2.5
 249630941, -0.074, -0.07300001, -2.75, 2.5, -0.061, -0.06, -2.538, 2.5
 249830861, -0.085, -0.08400001, -2.922, 2.5, -0.074, -0.07300001, -2.75, 2.5
 250030781, -0.094, -0.09200001, -3.075, 2.5, -0.085, -0.08400001, -2.922, 2.5
 250230701, -0.101, -0.09900001, -3.211, 2.5, -0.094, -0.09200001, -3.075, 2.5
 250431454, -0.107, -0.104, -3.329, 2.5, -0.101, -0.09900001, -3.211, 2.5
 250631374, -0.111, -0.107, -3.434, 2.5, -0.107, -0.104, -3.329, 2.5
 250831294, -0.114, -0.11, -3.525, 2.5, -0.111, -0.107, -3.434, 2.5
 251031214, -0.117, -0.112, -3.605, 2.5, -0.114, -0.11, -3.525, 2.5
 251231134, -0.121, -0.114, -3.674, 2.5, -0.117, -0.112, -3.605, 2.5
 251431054, -0.124, -0.116, -3.735, 2.5, -0.121, -0.114, -3.674, 2.5
 251630974, -0.128, -0.117, -3.79, 2.5, -0.124, -0.116, -3.735, 2.5
 251830894, -0.132, -0.12, -3.838, 2.5, -0.128, -0.117, -3.79, 2.5
 252030814, -0.135, -0.122, -3.88, 2.5, -0.132, -0.12, -3.838, 2.5
 252230734, -0.138, -0.125, -3.916, 2.5, -0.135, -0.122, -3.88, 2.5
 252430654, -0.14, -0.128, -3.949, 2.5, -0.138, -0.125, -3.916, 2.5
 252631407, -0.142, -0.132, -3.977, 2.5, -0.14, -0.128, -3.949, 2.5
 252831327, -0.143, -0.135, -4.002, 2.5, -0.142, -0.132, -3.977, 2.5
 253031247, -0.144, -0.139, -4.024, 2.5, -0.143, -0.135, -4.002, 2.5
 253231167, -0.145, -0.142, -4.043, 2.5, -0.144, -0.139, -4.024, 2.5
 253431087, -0.145, -0.144, -4.059, 2.5, -0.145, -0.142, -4.043, 2.5
 253631007, -0.145, -0.145, -4.074, 2.5, -0.145, -0.144, -4.059, 2.5
 253830927, -0.144, -0.146, -4.087, 2.5, -0.145, -0.145, -4.074, 2.5
 254030847, -0.143, -0.146, -4.099, 2.5, -0.144, -0.146, -4.087, 2.5
 254230767, -0.141, -0.145, -4.108, 2.5, -0.143, -0.146, -4.099, 2.5
 254430687, -0.139, -0.144, -4.116, 2.5, -0.141, -0.145, -4.108, 2.5
 254631440, -0.137, -0.143, -4.124, 2.5, -0.139, -0.144, -4.116, 2.5
 254831360, -0.134, -0.141, -4.131, 2.5, -0.137, -0.143, -4.124, 2.5
 255031280, -0.132, -0.138, -4.137, 2.5, -0.134, -0.141, -4.131, 2.5
 255231200, -0.129, -0.135, -4.142, 2.5, -0.132, -0.138, -4.137, 2.5
 255431120, -0.127, -0.132, -4.128, 2.5, -0.129, -0.135, -4.142, 2.5
 255631040, -0.125, -0.129, -4.058, 2.5, -0.127, -0.132, -4.128, 2.5
 255830960, -0.12, -0.122, -3.415, 2.5, -0.125, -0.129, -4.058, 2.5
 256030880, -0.116, -0.116, -2.845, 2.5, -0.12, -0.122, -3.415, 2.5
 256230800, -0.112, -0.111, -2.346, 2.5, -0.116, -0.116, -2.845, 2.5
 256430720, -0.109, -0.107, -1.942, 2.5, -0.112, -0.111, -2.346, 2.5
 256631473, -0.09200001, -0.114, -1.68, 2.5, -0.109, -0.107, -1.942, 2.5
 256831393, -0.038, -0.138, -1.473, 2.5, -0.09200001, -0.114, -1.68, 2.5
 257031313, 0.029, -0.136, -1.291, 2.5, -0.038, -0.138, -1.473, 2.5
 257231233, 0.071, -0.08400001, -1.115, 2.5, 0.029, -0.136, -1.291, 2.5
 257431153, 0.093, -0.015, -0.9350001, 2.5, 0.071, -0.08400001, -1.115, 2.5
 257631073, 0.137, 0.038, -0.749, 2.5, 0.093, -0.015, -0.9350001, 2.5
 257830993, 0.218, 0.08000001, -0.58, 2.5, 0.137, 0.038, -0.749, 2.5
 258030913, 0.299, 0.124, -0.436, 2.5, 0.218, 0.08000001, -0.58, 2.5
 258230833, 0.329, 0.126, -0.318, 2.5, 0.299, 0.124, -0.436, 2.5
 258430753, 0.292, 0.09, -0.226, 2.5, 0.329, 0.126, -0.318, 2.5
 258630673, 0.21, 0.049, -0.156, 2.5, 0.292, 0.09, -0.226, 2.5
 258831426, 0.129, 0.031, -0.105, 2.5, 0.21, 0.049, -0.156, 2.5
 259031346, 0.082, 0.031, -0.06900001, 2.5, 0.129, 0.031, -0.105, 2.5
 259231266, 0.066, 0.028, -0.044, 2.5, 0.082, 0.031, -0.06900001, 2.5
 259431186, 0.027, 0.019, -0.026, 2.5, 0.066, 0.028, -0.044, 2.5
 259631106, -0.045, 0.008, -0.014, 2.5, 0.027, 0.019, -0.026, 2.5
 259831026, -0.08800001, -0.015, -0.005, 2.5, -0.045, 0.008, -0.014, 2.5
 260030946, -0.097, -0.067, 0, 2.5, -0.08800001, -0.015, -0.005, 2.5
 260230866, -0.103, -0.112, 0.005, 2.5, -0.097, -0.067, 0, 2.5
 260430786, -0.111, -0.119, 0.007, 2.5, -0.103, -0.112, 0.005, 2.5
 260630706, -0.111, -0.104, 0.01, 2.5, -0.111, -0.119, 0.007, 2.5
 260831459, -0.113, -0.086, 0.011, 2.5, -0.111, -0.104, 0.01, 2.5
 261031379, -0.14, -0.051, 0.012, 2.5, -0.113, -0.086, 0.011, 2.5
 261231299, -0.159, -0.016, 0.013, 2.5, -0.14, -0.051, 0.012, 2.5
 261431219, -0.14, -0.015, 0.013, 2.5, -0.159, -0.016, 0.013, 2.5
 261631139, -0.103, -0.041, 0.013, 2.5, -0.14, -0.015, 0.013, 2.5
 261831059, -0.094, -0.068, 0.012, 2.5, -0.103, -0.041, 0.013, 2.5
 262030979, -0.109, -0.116, 0.012, 2.5, -0.094, -0.068, 0.012, 2.5
 262230899, -0.138, -0.174, 0.012, 2.5, -0.109, -0.116, 0.012, 2.5
 262430819, -0.201, -0.198, 0.012, 2.5, -0.138, -0.174, 0.012, 2.5
 262630739, -0.271, -0.185, 0.011, 2.5, -0.201, -0.198, 0.012, 2.5
 262830659, -0.273, -0.155, 0.009000001, 2.5, -0.271, -0.185, 0.011, 2.5
 263031412, 0, 5E-05, 0.007, 2.5, -0.273, -0.155, 0.009000001, 2.5
 263231332, 0, 5E-05, 0.006, 2.5, 0, 5E-05, 0.007, 2.5
 263431252, 0, 5E-05, 0.005, 2.5, 0, 5E-05, 0.006, 2.5
 263631172, 0, 5E-05, 0.003, 2.5, 0, 5E-05, 0.005, 2.5
 263831092, 0, 5E-05, 0.003, 2.5, 0, 5E-05, 0.003, 2.5
 264031012, 0, 5E-05, 0.004, 2.5, 0, 5E-05, 0.003, 2.5
 264230932, 0, 5E-05, 0.005, 2.5, 0, 5E-05, 0.004, 2.5
 264430852, 0, 5E-05, 0.005, 2.5, 0, 5E-05, 0.005, 2.5
 264630772, 0, 5E-05, 0.004, 2.5, 0, 5E-05, 0.005, 2.5
 264830692, 0, 5E-05, 0.005, 2.5, 0, 5E-05, 0.004, 2.5
 265031445, 0, 5E-05, 0.007, 2.5, 0, 5E-05, 0.005, 2.5
 265231365, 0, 5E-05, 0.009000001, 2.5, 0, 5E-05, 0.007, 2.5
 265431285, 0, 5E-05, 0.012, 2.5, 0, 5E-05, 0.009000001, 2.5
 265631205, 0, 5E-05, 0.014, 2.5, 0, 5E-05, 0.012, 2.5
 265831125, 0, 5E-05, 0.016, 2.5, 0, 5E-05, 0.014, 2.5
 266031045, 0, 5E-05, 0.019, 2.5, 0, 5E-05, 0.016, 2.5
 266230965, 0, 5E-05, 0.022, 2.5, 0, 5E-05, 0.019, 2.5
 266430885, 0, 5E-05, 0.027, 2.5, 0, 5E-05, 0.022, 2.5
 266630805, 0, 5E-05, 0.032, 2.5, 0, 5E-05, 0.027, 2.5
 266830725, 0, 5E-05, 0.038, 2.5, 0, 5E-05, 0.032, 2.5
 267031478, 0, 5E-05, 0.044, 2.5, 0, 5E-05, 0.038, 2.5
 267231398, 0, 5E-05, 0.05, 2.5, 0, 5E-05, 0.044, 2.5
 267431318, 0, 5E-05, 0.057, 2.5, 0, 5E-05, 0.05, 2.5
 267631238, 0, 5E-05, 0.06500001, 2.5, 0, 5E-05, 0.057, 2.5
 267831158, 0, 5E-05, 0.07300001, 2.5, 0, 5E-05, 0.06500001, 2.5
 268031078, 0, 5E-05, 0.082, 2.5, 0, 5E-05, 0.07300001, 2.5
 268230998, 0, 5E-05, 0.09100001, 2.5, 0, 5E-05, 0.082, 2.5
 268430918, 0, 5E-05, 0.1, 2.5, 0, 5E-05, 0.09100001, 2.5
 268630838, 0, 5E-05, 0.11, 2.5, 0, 5E-05, 0.1, 2.5
 268830758, 0, 5E-05, 0.119, 2.5, 0, 5E-05, 0.11, 2.5
 269030678, 0, 5E-05, 0.129, 2.5, 0, 5E-05, 0.119, 2.5
 269231431, 0, 5E-05, 0.139, 2.5, 0, 5E-05, 0.129, 2.5
 269431351, 0, 5E-05, 0.15, 2.5, 0, 5E-05, 0.139, 2.5
 269631271, 0, 5E-05, 0.161, 2.5, 0, 5E-05, 0.15, 2.5
 269831191, 0, 5E-05, 0.172, 2.5, 0, 5E-05, 0.161, 2.5
 270031111, 0, 5E-05, 0.184, 2.5, 0, 5E-05, 0.172, 2.5
 270231031, 0, 5E-05, 0.195, 2.5, 0, 5E-05, 0.184, 2.5
 270430951, 0, 5E-05, 0.207, 2.5, 0, 5E-05, 0.195, 2.5
 270630871, 0, 5E-05, 0.22, 2.5, 0, 5E-05, 0.207, 2.5
 270830791, 0, 5E-05, 0.233, 2.5, 0, 5E-05, 0.22, 2.5
 271030711, 0, 5E-05, 0.246, 2.5, 0, 5E-05, 0.233, 2.5
 271231464, 0, 5E-05, 0.259, 2.5, 0, 5E-05, 0.246, 2.5
 271431384, 0, 5E-05, 0.273, 2.5, 0, 5E-05, 0.259, 2.5
 271631304, 0, 5E-05, 0.287, 2.5, 0, 5E-05, 0.273, 2.5
 271831224, 0, 5E-05, 0.302, 2.5, 0, 5E-05, 0.287, 2.5
 272031144, 0, 5E-05, 0.317, 2.5, 0, 5E-05, 0.302, 2.5
 272231064, 0, 5E-05, 0.332, 2.5, 0, 5E-05, 0.317, 2.5
 272430984, 0, 5E-05, 0.348, 2.5, 0, 5E-05, 0.332, 2.5
 272630904, 0, 5E-05, 0.364, 2.5, 0, 5E-05, 0.348, 2.5
 272830824, 0, 5E-05, 0.381, 2.5, 0, 5E-05, 0.364, 2.5
 273030744, 0, 5E-05, 0.399, 2.5, 0, 5E-05, 0.381, 2.5
 273230664, 0, 5E-05, 0.417, 2.5, 0, 5E-05, 0.399, 2.5
 273431417, 0, 5E-05, 0.436, 2.5, 0, 5E-05, 0.417, 2.5
 273631337, 0, 5E-05, 0.441, 2.5, 0, 5E-05, 0.436, 2.5
 273831257, 0, 5E-05, 0.415, 2.5, 0, 5E-05, 0.441, 2.5
 274031177, 0, 5E-05, 0.363, 2.5, 0, 5E-05, 0.415, 2.5
 274231097, 0, 5E-05, 0.296, 2.5, 0, 5E-05, 0.363, 2.5
 274431017, 0, 5E-05, 0.221, 2.5, 0, 5E-05, 0.296, 2.5
 274630937, 0, 5E-05, 0.139, 2.5, 0, 5E-05, 0.221, 2.5
 274830857, 0, 5E-05, 0.048, 2.5, 0, 5E-05, 0.139, 2.5
 275030777, 0, 5E-05, -0.05, 2.5, 0, 5E-05, 0.048, 2.5
 275230697, 0, 5E-05, -0.155, 2.5, 0, 5E-05, -0.05, 2.5
 275431450, 0, 5E-05, -0.26, 2.5, 0, 5E-05, -0.155, 2.5
 275631370, 0, 5E-05, -0.359, 2.5, 0, 5E-05, -0.26, 2.5
 275831290, 0, 5E-05, -0.445, 2.5, 0, 5E-05, -0.359, 2.5
 276031210, 0, 5E-05, -0.513, 2.5, 0, 5E-05, -0.445, 2.5
 276231130, 0, 5E-05, -0.559, 2.5, 0, 5E-05, -0.513, 2.5
 276431050, 0, 5E-05, -0.58, 2.5, 0, 5E-05, -0.559, 2.5
 276630970, 0, 5E-05, -0.577, 2.5, 0, 5E-05, -0.58, 2.5
 276830890, 0, 5E-05, -0.55, 2.5, 0, 5E-05, -0.577, 2.5
 277030810, 0, 5E-05, -0.503, 2.5, 0, 5E-05, -0.55, 2.5
 277230730, 0, 5E-05, -0.44, 2.5, 0, 5E-05, -0.503, 2.5
 277431483, 0, 5E-05, -0.367, 2.5, 0, 5E-05, -0.44, 2.5
 277631403, 0, 5E-05, -0.289, 2.5, 0, 5E-05, -0.367, 2.5
 277831323, 0, 5E-05, -0.211, 2.5, 0, 5E-05, -0.289, 2.5
 278031243, 0, 5E-05, -0.138, 2.5, 0, 5E-05, -0.211, 2.5
 278231163, 0, 5E-05, -0.07300001, 2.5, 0, 5E-05, -0.138, 2.5
 278431083, 0, 5E-05, -0.02, 2.5, 0, 5E-05, -0.07300001, 2.5
 278631003, 0, 5E-05, 0.02, 2.5, 0, 5E-05, -0.02, 2.5
 278830923, 0, 5E-05, 0.049, 2.5, 0, 5E-05, 0.02, 2.5
 279030843, 0, 5E-05, 0.06500001, 2.5, 0, 5E-05, 0.049, 2.5
 279230763, 0, 5E-05, 0.072, 2.5, 0, 5E-05, 0.06500001, 2.5
 279430683, 0, 5E-05, 0.07, 2.5, 0, 5E-05, 0.072, 2.5
 279631436, 0, 5E-05, 0.063, 2.5, 0, 5E-05, 0.07, 2.5
 279831356, 0, 5E-05, 0.051, 2.5, 0, 5E-05, 0.063, 2.5
 280031276, 0, 5E-05, 0.035, 2.5, 0, 5E-05, 0.051, 2.5
 280231196, 0, 5E-05, 0.016, 2.5, 0, 5E-05, 0.035, 2.5
 280431116, 0, 5E-05, -0.002, 2.5, 0, 5E-05, 0.016, 2.5
 280631036, 0, 5E-05, -0.02, 2.5, 0, 5E-05, -0.002, 2.5
 280830956, 0, 5E-05, -0.037, 2.5, 0, 5E-05, -0.02, 2.5
 281030876, 0, 5E-05, -0.051, 2.5, 0, 5E-05, -0.037, 2.5
 281230796, 0, 5E-05, -0.063, 2.5, 0, 5E-05, -0.051, 2.5
 281430716, 0, 5E-05, -0.07300001, 2.5, 0, 5E-05, -0.063, 2.5
 281631469, 0, 5E-05, -0.08000001, 2.5, 0, 5E-05, -0.07300001, 2.5
 281831389, 0, 5E-05, -0.086, 2.5, 0, 5E-05, -0.08000001, 2.5
 282031309, 0, 5E-05, -0.089, 2.5, 0, 5E-05, -0.086, 2.5
 282231229, 0, 5E-05, -0.09, 2.5, 0, 5E-05, -0.089, 2.5
 282431149, 0, 5E-05, -0.09100001, 2.5, 0, 5E-05, -0.09, 2.5
 282631069, 0, 5E-05, -0.09, 2.5, 0, 5E-05, -0.09100001, 2.5
 282830989, 0, 5E-05, -0.087, 2.5, 0, 5E-05, -0.09, 2.5
 283030909, 0, 5E-05, -0.085, 2.5, 0, 5E-05, -0.087, 2.5
 283230829, 0, 5E-05, -0.081, 2.5, 0, 5E-05, -0.085, 2.5
 283430749, 0, 5E-05, -0.078, 2.5, 0, 5E-05, -0.081, 2.5
 283630669, 0, 5E-05, -0.074, 2.5, 0, 5E-05, -0.078, 2.5
 283831422, 0, 5E-05, -0.07, 2.5, 0, 5E-05, -0.074, 2.5
 284031342, 0, 5E-05, -0.066, 2.5, 0, 5E-05, -0.07, 2.5
 284231262, 0, 5E-05, -0.063, 2.5, 0, 5E-05, -0.066, 2.5
 284431182, 0, 5E-05, -0.06, 2.5, 0, 5E-05, -0.063, 2.5
 284631102, 0, 5E-05, -0.057, 2.5, 0, 5E-05, -0.06, 2.5
 284831022, 0, 5E-05, -0.054, 2.5, 0, 5E-05, -0.057, 2.5
 285030942, 0, 5E-05, -0.052, 2.5, 0, 5E-05, -0.054, 2.5
 285230862, 0, 5E-05, -0.049, 2.5, 0, 5E-05, -0.052, 2.5
 285430782, 0, 5E-05, -0.048, 2.5, 0, 5E-05, -0.049, 2.5
 285630702, 0, 5E-05, -0.046, 2.5, 0, 5E-05, -0.048, 2.5
 285831455, 0, 5E-05, -0.045, 2.5, 0, 5E-05, -0.046, 2.5
 286031375, 0, 5E-05, -0.043, 2.5, 0, 5E-05, -0.045, 2.5
 286231295, 0, 5E-05, -0.043, 2.5, 0, 5E-05, -0.043, 2.5
 286431215, 0, 5E-05, -0.043, 2.5, 0, 5E-05, -0.043, 2.5
 286631135, 0, 5E-05, -0.043, 2.5, 0, 5E-05, -0.043, 2.5
 286831055, 0, 5E-05, -0.043, 2.5, 0, 5E-05, -0.043, 2.5
 287030975, 0, 5E-05, -0.042, 2.5, 0, 5E-05, -0.043, 2.5
 287230895, 0, 5E-05, -0.043, 2.5, 0, 5E-05, -0.042, 2.5
 287430815, 0, 5E-05, -0.044, 2.5, 0, 5E-05, -0.043, 2.5
 287630735, 0, 5E-05, -0.044, 2.5, 0, 5E-05, -0.044, 2.5
 287830655, 0, 5E-05, -0.044, 2.5, 0, 5E-05, -0.044, 2.5
 288031408, 0, 5E-05, -0.044, 2.5, 0, 5E-05, -0.044, 2.5
 288231328, 0, 5E-05, -0.045, 2.5, 0, 5E-05, -0.044, 2.5
 288431248, 0, 5E-05, -0.045, 2.5, 0, 5E-05, -0.045, 2.5
 288631168, 0, 5E-05, -0.045, 2.5, 0, 5E-05, -0.045, 2.5
 288831088, 0, 5E-05, -0.045, 2.5, 0, 5E-05, -0.045, 2.5
 289031008, 0, 5E-05, -0.045, 2.5, 0, 5E-05, -0.045, 2.5
 289230928, 0, 5E-05, -0.045, 2.5, 0, 5E-05, -0.045, 2.5
 289430848, 0, 5E-05, -0.044, 2.5, 0, 5E-05, -0.045, 2.5
 289630768, 0, 5E-05, -0.044, 2.5, 0, 5E-05, -0.044, 2.5
 289830688, 0, 5E-05, -0.043, 2.5, 0, 5E-05, -0.044, 2.5
 290031441, 0, 5E-05, -0.042, 2.5, 0, 5E-05, -0.043, 2.5
 290231361, 0, 5E-05, -0.042, 2.5, 0, 5E-05, -0.042, 2.5
 290431281, 0, 5E-05, -0.041, 2.5, 0, 5E-05, -0.042, 2.5
 290631201, 0, 5E-05, -0.04, 2.5, 0, 5E-05, -0.041, 2.5
 290831121, 0, 5E-05, -0.039, 2.5, 0, 5E-05, -0.04, 2.5
 291031041, 0, 5E-05, -0.038, 2.5, 0, 5E-05, -0.039, 2.5
 291230961, 0, 5E-05, -0.037, 2.5, 0, 5E-05, -0.038, 2.5
 291430881, 0, 5E-05, -0.036, 2.5, 0, 5E-05, -0.037, 2.5
 291630801, 0, 5E-05, -0.035, 2.5, 0, 5E-05, -0.036, 2.5
 291830721, 0, 5E-05, -0.034, 2.5, 0, 5E-05, -0.035, 2.5
 292031474, 0, 5E-05, -0.032, 2.5, 0, 5E-05, -0.034, 2.5
 292231394, 0, 5E-05, -0.031, 2.5, 0, 5E-05, -0.032, 2.5
 292431314, 0, 5E-05, -0.03, 2.5, 0, 5E-05, -0.031, 2.5
 292631234, 0, 5E-05, -0.028, 2.5, 0, 5E-05, -0.03, 2.5
 292831154, 0, 5E-05, -0.027, 2.5, 0, 5E-05, -0.028, 2.5
 293031074, 0, 5E-05, -0.026, 2.5, 0, 5E-05, -0.027, 2.5
 293230994, 0, 5E-05, -0.025, 2.5, 0, 5E-05, -0.026, 2.5
 293430914, 0, 5E-05, -0.024, 2.5, 0, 5E-05, -0.025, 2.5
 293630834, 0, 5E-05, -0.024, 2.5, 0, 5E-05, -0.024, 2.5
 293830754, 0, 5E-05, -0.023, 2.5, 0, 5E-05, -0.024, 2.5
 294030674, 0, 5E-05, -0.021, 2.5, 0, 5E-05, -0.023, 2.5
 294231427, 0, 5E-05, -0.02, 2.5, 0, 5E-05, -0.021, 2.5
 294431347, 0, 5E-05, -0.02, 2.5, 0, 5E-05, -0.02, 2.5
 294631267, 0, 5E-05, -0.02, 2.5, 0, 5E-05, -0.02, 2.5
 294831187, 0, 5E-05, -0.02, 2.5, 0, 5E-05, -0.02, 2.5
 295031107, 0, 5E-05, -0.019, 2.5, 0, 5E-05, -0.02, 2.5
 295231027, 0, 5E-05, -0.019, 2.5, 0, 5E-05, -0.019, 2.5
 295430947, 0, 5E-05, -0.018, 2.5, 0, 5E-05, -0.019, 2.5
 295630867, 0, 5E-05, -0.017, 2.5, 0, 5E-05, -0.018, 2.5
 295830787, 0, 5E-05, -0.017, 2.5, 0, 5E-05, -0.017, 2.5
 296030707, 0, 5E-05, -0.016, 2.5, 0, 5E-05, -0.017, 2.5
 296231460, 0, 5E-05, -0.017, 2.5, 0, 5E-05, -0.016, 2.5
 296431380, 0, 5E-05, -0.016, 2.5, 0, 5E-05, -0.017, 2.5
 296631300, 0, 5E-05, -0.016, 2.5, 0, 5E-05, -0.016, 2.5
 296831220, 0, 5E-05, -0.017, 2.5, 0, 5E-05, -0.016, 2.5
 297031140, 0, 5E-05, -0.016, 2.5, 0, 5E-05, -0.017, 2.5
 297231060, 0, 5E-05, -0.016, 2.5, 0, 5E-05, -0.016, 2.5
 297430980, 0, 5E-05, -0.015, 2.5, 0, 5E-05, -0.016, 2.5
 297630900, 0, 5E-05, -0.015, 2.5, 0, 5E-05, -0.015, 2.5
 297830820, 0, 5E-05, -0.015, 2.5, 0, 5E-05, -0.015, 2.5
 298030740, 0, 5E-05, -0.015, 2.5, 0, 5E-05, -0.015, 2.5
 298230660, 0, 5E-05, -0.015, 2.5, 0, 5E-05, -0.015, 2.5
 298431413, 0, 5E-05, -0.015, 2.5, 0, 5E-05, -0.015, 2.5
 298631333, 0, 5E-05, -0.014, 2.5, 0, 5E-05, -0.015, 2.5
 298831253, 0, 5E-05, -0.014, 2.5, 0, 5E-05, -0.014, 2.5
 299031173, 0, 5E-05, -0.013, 2.5, 0, 5E-05, -0.014, 2.5
 299231093, 0, 5E-05, -0.013, 2.5, 0, 5E-05, -0.013, 2.5
 299431013, 0, 5E-05, -0.013, 2.5, 0, 5E-05, -0.013, 2.5
 299630933, 0, 5E-05, -0.013, 2.5, 0, 5E-05, -0.013, 2.5
 299830853, 0, 5E-05, -0.012, 2.5, 0, 5E-05, -0.013, 2.5
 300030773, 0, 5E-05, -0.012, 2.5, 0, 5E-05, -0.012, 2.5
 300230693, 0, 5E-05, -0.011, 2.5, 0, 5E-05, -0.012, 2.5
 300431446, 0, 5E-05, -0.009000001, 2.5, 0, 5E-05, -0.011, 2.5
 300631366, 0, 5E-05, -0.009000001, 2.5, 0, 5E-05, -0.009000001, 2.5
 300831286, 0, 5E-05, -0.008, 2.5, 0, 5E-05, -0.009000001, 2.5
 301031206, 0, 5E-05, -0.008, 2.5, 0, 5E-05, -0.008, 2.5
 301231126, 0, 5E-05, -0.008, 2.5, 0, 5E-05, -0.008, 2.5
 301431046, 0, 5E-05, -0.006, 2.5, 0, 5E-05, -0.008, 2.5
 301630966, 0, 5E-05, -0.006, 2.5, 0, 5E-05, -0.006, 2.5
 301830886, 0, 5E-05, -0.005, 2.5, 0, 5E-05, -0.006, 2.5
 302030806, 0, 5E-05, -0.004, 2.5, 0, 5E-05, -0.005, 2.5
 302230726, 0, 5E-05, -0.003, 2.5, 0, 5E-05, -0.004, 2.5
 302431479, 0, 5E-05, -0.003, 2.5, 0, 5E-05, -0.003, 2.5
 302631399, 0, 5E-05, -0.003, 2.5, 0, 5E-05, -0.003, 2.5
 302831319, 0, 5E-05, -0.001, 2.5, 0, 5E-05, -0.003, 2.5
 303031239, 0, 5E-05, 0, 2.5, 0, 5E-05, -0.001, 2.5
 303231159, 0, 5E-05, 0, 2.5, 0, 5E-05, 0, 2.5
 303431079, 0, 5E-05, 0, 2.5, 0, 5E-05, 0, 2.5
 303630999, 0, 5E-05, 0, 2.5, 0, 5E-05, 0, 2.5
 303830919, 0, 5E-05, 0, 2.5, 0, 5E-05, 0, 2.5
 304030839, 0, 5E-05, 0, 2.5, 0, 5E-05, 0, 2.5
 304230759, 0, 5E-05, 0.001, 2.5, 0, 5E-05, 0, 2.5
 304430679, 0, 5E-05, 0.001, 2.5, 0, 5E-05, 0.001, 2.5
 304631432, 0, 5E-05, 0.001, 2.5, 0, 5E-05, 0.001, 2.5
 304831352, 0, 5E-05, 0.001, 2.5, 0, 5E-05, 0.001, 2.5
 305031272, 0, 5E-05, 0.002, 2.5, 0, 5E-05, 0.001, 2.5
 305231192, 0, 5E-05, 0.002, 2.5, 0, 5E-05, 0.002, 2.5
 305431112, 0, 5E-05, 0.002, 2.5, 0, 5E-05, 0.002, 2.5
 305631032, 0, 5E-05, 0.003, 2.5, 0, 5E-05, 0.002, 2.5
 305830952, 0, 5E-05, 0.003, 2.5, 0, 5E-05, 0.003, 2.5
 306030872, 0, 5E-05, 0.003, 2.5, 0, 5E-05, 0.003, 2.5
 306230792, 0, 5E-05, 0.004, 2.5, 0, 5E-05, 0.003, 2.5
 306430712, 0, 5E-05, 0.004, 2.5, 0, 5E-05, 0.004, 2.5
 306631465, 0, 5E-05, 0.003, 2.5, 0, 5E-05, 0.004, 2.5
 306831385, 0, 5E-05, 0.004, 2.5, 0, 5E-05, 0.003, 2.5
 307031305, 0, 5E-05, 0.004, 2.5, 0, 5E-05, 0.004, 2.5
 307231225, 0, 5E-05, 0.003, 2.5, 0, 5E-05, 0.004, 2.5
 307431145, 0, 5E-05, 0.002, 2.5, 0, 5E-05, 0.003, 2.5
 307631065, 0, 5E-05, 0.003, 2.5, 0, 5E-05, 0.002, 2.5
 307830985, 0, 5E-05, 0.003, 2.5, 0, 5E-05, 0.003, 2.5
 308030905, 0, 5E-05, 0.002, 2.5, 0, 5E-05, 0.003, 2.5
 308230825, 0, 5E-05, 0.002, 2.5, 0, 5E-05, 0.002, 2.5
 308430745, 0, 5E-05, 0.002, 2.5, 0, 5E-05, 0.002, 2.5
 308630665, 0, 5E-05, 0.001, 2.5, 0, 5E-05, 0.002, 2.5
 308831418, 0, 5E-05, 0, 2.5, 0, 5E-05, 0.001, 2.5
 309031338, 0, 5E-05, 0, 2.5, 0, 5E-05, 0, 2.5
 309231258, 0, 5E-05, 0, 2.5, 0, 5E-05, 0, 2.5
 309431178, 0, 5E-05, 0, 2.5, 0, 5E-05, 0, 2.5
 309631098, 0, 5E-05, 0, 2.5, 0, 5E-05, 0, 2.5
 309831018, 0, 5E-05, 0.002, 2.5, 0, 5E-05, 0, 2.5
 310030938, 0, 5E-05, 0, 2.5, 0, 5E-05, 0.002, 2.5
 310230858, 0, 5E-05, 0.001, 2.5, 0, 5E-05, 0, 2.5
 310430778, 0, 5E-05, 0, 2.5, 0, 5E-05, 0.001, 2.5
 310630698, 0, 5E-05, 0, 2.5, 0, 5E-05, 0, 2.5
 310831451, 0, 5E-05, 0, 2.5, 0, 5E-05, 0, 2.5
 311031371, 0, 5E-05, 0, 2.5, 0, 5E-05, 0, 2.5
 311231291, 0, 5E-05, 0, 2.5, 0, 5E-05, 0, 2.5
 311431211, 0, 5E-05, 0, 2.5, 0, 5E-05, 0, 2.5
 311631131, 0, 5E-05, 0, 2.5, 0, 5E-05, 0, 2.5
 311831051, 0, 5E-05, 0, 2.5, 0, 5E-05, 0, 2.5
 312030971, 0, 5E-05, 0, 2.5, 0, 5E-05, 0, 2.5
 312230891, 0, 5E-05, 0, 2.5, 0, 5E-05, 0, 2.5
 312430811, 0, 5E-05, -0.001, 2.5, 0, 5E-05, 0, 2.5
 312630731, 0, 5E-05, -0.001, 2.5, 0, 5E-05, -0.001, 2.5
 312831484, 0, 5E-05, -0.001, 2.5, 0, 5E-05, -0.001, 2.5
 313031404, 0, 5E-05, -0.001, 2.5, 0, 5E-05, -0.001, 2.5
 313231324, 0, 5E-05, 0, 2.5, 0, 5E-05, -0.001, 2.5
 313431244, 0, 5E-05, -0.001, 2.5, 0, 5E-05, 0, 2.5
 313631164, 0, 5E-05, -0.001, 2.5, 0, 5E-05, -0.001, 2.5
 313831084, 0, 5E-05, -0.002, 2.5, 0, 5E-05, -0.001, 2.5
 314031004, 0, 5E-05, -0.002, 2.5, 0, 5E-05, -0.002, 2.5
 314230924, 0, 5E-05, -0.001, 2.5, 0, 5E-05, -0.002, 2.5
 314430844, 0, 5E-05, -0.001, 2.5, 0, 5E-05, -0.001, 2.5
 314630764, 0, 5E-05, -0.001, 2.5, 0, 5E-05, -0.001, 2.5
 314830684, 0, 5E-05, -0.001, 2.5, 0, 5E-05, -0.001, 2.5
 315031437, 0, 5E-05, -0.002, 2.5, 0, 5E-05, -0.001, 2.5
 315231357, 0, 5E-05, -0.002, 2.5, 0, 5E-05, -0.002, 2.5
 315431277, 0, 5E-05, -0.002, 2.5, 0, 5E-05, -0.002, 2.5
 315631197, 0, 5E-05, -0.002, 2.5, 0, 5E-05, -0.002, 2.5
 315831117, 0, 5E-05, -0.001, 2.5, 0, 5E-05, -0.002, 2.5
 316031037, 0, 5E-05, -0.001, 2.5, 0, 5E-05, -0.001, 2.5
 316230957, 0, 5E-05, -0.001, 2.5, 0, 5E-05, -0.001, 2.5
 316430877, 0, 5E-05, -0.001, 2.5, 0, 5E-05, -0.001, 2.5
 316630797, 0, 5E-05, -0.001, 2.5, 0, 5E-05, -0.001, 2.5
 316830717, 0, 5E-05, 0, 2.5, 0, 5E-05, -0.001, 2.5
 317031470, 0, 5E-05, 0, 2.5, 0, 5E-05, 0, 2.5
 317231390, 0, 5E-05, 0, 2.5, 0, 5E-05, 0, 2.5
 317431310, 0, 5E-05, 0, 2.5, 0, 5E-05, 0, 2.5
 317631230, 0, 5E-05, 0, 2.5, 0, 5E-05, 0, 2.5
 317831150, 0, 5E-05, -0.001, 2.5, 0, 5E-05, 0, 2.5
 318031070, 0, 5E-05, -0.001, 2.5, 0, 5E-05, -0.001, 2.5
 318230990, 0, 5E-05, -0.001, 2.5, 0, 5E-05, -0.001, 2.5
 318430910, 0, 5E-05, -0.001, 2.5, 0, 5E-05, -0.001, 2.5
 318630830, 0, 5E-05, -0.001, 2.5, 0, 5E-05, -0.001, 2.5
 318830750, 0, 5E-05, -0.001, 2.5, 0, 5E-05, -0.001, 2.5
 319030670, 0, 5E-05, -0.001, 2.5, 0, 5E-05, -0.001, 2.5
 319231423, 0, 5E-05, -0.001, 2.5, 0, 5E-05, -0.001, 2.5
 319431343, 0, 5E-05, -0.001, 2.5, 0, 5E-05, -0.001, 2.5
 319631263, 0, 5E-05, -0.001, 2.5, 0, 5E-05, -0.001, 2.5
 319831183, 0, 5E-05, -0.001, 2.5, 0, 5E-05, -0.001, 2.5
 320031103, 0, 5E-05, -0.001, 2.5, 0, 5E-05, -0.001, 2.5
 320231023, 0, 5E-05, -0.001, 2.5, 0, 5E-05, -0.001, 2.5
 320430943, 0, 5E-05, -0.001, 2.5, 0, 5E-05, -0.001, 2.5
 320630863, 0, 5E-05, -0.001, 2.5, 0, 5E-05, -0.001, 2.5
 320830783, 0, 5E-05, -0.001, 2.5, 0, 5E-05, -0.001, 2.5
 321030703, 0, 5E-05, -0.001, 2.5, 0, 5E-05, -0.001, 2.5
 321231456, 0, 5E-05, -0.002, 2.5, 0, 5E-05, -0.001, 2.5
 321431376, 0, 5E-05, -0.001, 2.5, 0, 5E-05, -0.002, 2.5
 321631296, 0, 5E-05, 0, 2.5, 0, 5E-05, -0.001, 2.5
 321831216, 0, 5E-05, 0, 2.5, 0, 5E-05, 0, 2.5
 322031136, 0, 5E-05, 0, 2.5, 0, 5E-05, 0, 2.5
 322231056, 0, 5E-05, 0, 2.5, 0, 5E-05, 0, 2.5
 322430976, 0, 5E-05, 0, 2.5, 0, 5E-05, 0, 2.5
 322630896, 0, 5E-05, 0, 2.5, 0, 5E-05, 0, 2.5
 322830816, 0, 5E-05, 0, 2.5, 0, 5E-05, 0, 2.5
 323030736, 0, 5E-05, 0, 2.5, 0, 5E-05, 0, 2.5
 323230656, 0, 5E-05, 0, 2.5, 0, 5E-05, 0, 2.5
 323431409, -5.218, -14.309, 0, 2.5, 0, 5E-05, 0, 2.5
 323631329, -5.204, -14.31, 0, 2.5, -5.218, -14.309, 0, 2.5
 323831249, -5.19, -14.31, 0, 2.5, -5.204, -14.31, 0, 2.5
 324031169, -5.18, -14.311, -0.001, 2.5, -5.19, -14.31, 0, 2.5
 324231089, -5.175, -14.31, -0.003, 2.5, -5.18, -14.311, -0.001, 2.5
 324431009, -5.175, -14.309, -0.003, 2.5, -5.175, -14.31, -0.003, 2.5
 324630929, -5.18, -14.274, 0.003, 2.5, -5.175, -14.309, -0.003, 2.5
 324830849, -5.153, -14.166, 0.027, 2.5, -5.18, -14.274, 0.003, 2.5
 325030769, -4.794, -13.41, -0.141, 2.5, -5.153, -14.166, 0.027, 2.5
 325230689, -4.199, -11.907, -0.314, 2.5, -4.794, -13.41, -0.141, 2.5
 325431442, -3.634, -10.339, -0.369, 2.5, -4.199, -11.907, -0.314, 2.5
 325631362, -3.17, -9, -0.345, 2.5, -3.634, -10.339, -0.369, 2.5
 325831282, -2.789, -7.889, -0.249, 2.5, -3.17, -9, -0.345, 2.5
 326031202, -2.484, -7.01, -0.09500001, 2.5, -2.789, -7.889, -0.249, 2.5
 326231122, -2.23, -6.286, 0.106, 2.5, -2.484, -7.01, -0.09500001, 2.5
 326431042, -2, -5.614, 0.342, 2.5, -2.23, -6.286, 0.106, 2.5
 326630962, -1.784, -4.973, 0.603, 2.5, -2, -5.614, 0.342, 2.5
 326830882, -1.586, -4.375, 0.872, 2.5, -1.784, -4.973, 0.603, 2.5
 327030802, -1.411, -3.841, 1.117, 2.5, -1.586, -4.375, 0.872, 2.5
 327230722, -1.259, -3.371, 1.321, 2.5, -1.411, -3.841, 1.117, 2.5
 327431475, -1.127, -2.962, 1.492, 2.5, -1.259, -3.371, 1.321, 2.5
 327631395, -1.013, -2.603, 1.636, 2.5, -1.127, -2.962, 1.492, 2.5
 327831315, -0.913, -2.289, 1.78, 2.5, -1.013, -2.603, 1.636, 2.5
 328031235, -0.825, -2.012, 1.924, 2.5, -0.913, -2.289, 1.78, 2.5
 328231155, -0.7460001, -1.765, 2.088, 2.5, -0.825, -2.012, 1.924, 2.5
 328431075, -0.677, -1.544, 2.277, 2.5, -0.7460001, -1.765, 2.088, 2.5
 328630995, -0.614, -1.344, 2.473, 2.5, -0.677, -1.544, 2.277, 2.5
 328830915, -0.559, -1.161, 2.647, 2.5, -0.614, -1.344, 2.473, 2.5
 329030835, -0.509, -0.993, 2.779, 2.5, -0.559, -1.161, 2.647, 2.5
 329230755, -0.465, -0.84, 2.874, 2.5, -0.509, -0.993, 2.779, 2.5
 329430675, -0.427, -0.701, 2.887, 2.5, -0.465, -0.84, 2.874, 2.5
 329631428, -0.395, -0.572, 2.777, 2.5, -0.427, -0.701, 2.887, 2.5
 329831348, -0.369, -0.454, 2.587, 2.5, -0.395, -0.572, 2.777, 2.5
 330031268, -0.347, -0.347, 2.349, 2.5, -0.369, -0.454, 2.587, 2.5
 330231188, -0.328, -0.248, 2.078, 2.5, -0.347, -0.347, 2.349, 2.5
 330431108, -0.312, -0.156, 1.784, 2.5, -0.328, -0.248, 2.078, 2.5
 330631028, -0.296, -0.066, 1.491, 2.5, -0.312, -0.156, 1.784, 2.5
 330830948, -0.281, 0.022, 1.21, 2.5, -0.296, -0.066, 1.491, 2.5
 331030868, -0.269, 0.111, 0.9440001, 2.5, -0.281, 0.022, 1.21, 2.5
 331230788, -0.255, 0.199, 0.7, 2.5, -0.269, 0.111, 0.9440001, 2.5
 331430708, -0.238, 0.287, 0.484, 2.5, -0.255, 0.199, 0.7, 2.5
 331631461, -0.213, 0.373, 0.3, 2.5, -0.238, 0.287, 0.484, 2.5
 331831381, -0.202, 0.455, 0.147, 2.5, -0.213, 0.373, 0.3, 2.5
 332031301, -0.187, 0.532, 0.025, 2.5, -0.202, 0.455, 0.147, 2.5
 332231221, -0.17, 0.604, -0.067, 2.5, -0.187, 0.532, 0.025, 2.5
 332431141, -0.151, 0.67, -0.132, 2.5, -0.17, 0.604, -0.067, 2.5
 332631061, -0.135, 0.729, -0.171, 2.5, -0.151, 0.67, -0.132, 2.5
 332830981, -0.126, 0.7820001, -0.187, 2.5, -0.135, 0.729, -0.171, 2.5
 333030901, -0.114, 0.8290001, -0.181, 2.5, -0.126, 0.7820001, -0.187, 2.5
 333230821, -0.101, 0.8700001, -0.158, 2.5, -0.114, 0.8290001, -0.181, 2.5
 333430741, -0.079, 0.905, -0.12, 2.5, -0.101, 0.8700001, -0.158, 2.5
 333630661, -0.063, 0.934, -0.072, 2.5, -0.079, 0.905, -0.12, 2.5
 333831414, -0.055, 0.9580001, -0.023, 2.5, -0.063, 0.934, -0.072, 2.5
 334031334, -0.054, 0.978, 0.019, 2.5, -0.055, 0.9580001, -0.023, 2.5
 334231254, -0.048, 0.993, 0.061, 2.5, -0.054, 0.978, 0.019, 2.5
 334431174, -0.04, 1.004, 0.104, 2.5, -0.048, 0.993, 0.061, 2.5
 334631094, -0.032, 1.009, 0.149, 2.5, -0.04, 1.004, 0.104, 2.5
 334831014, -0.025, 1.011, 0.195, 2.5, -0.032, 1.009, 0.149, 2.5
 335030934, -0.007, 1.008, 0.24, 2.5, -0.025, 1.011, 0.195, 2.5
 335230854, 0.003, 1.001, 0.284, 2.5, -0.007, 1.008, 0.24, 2.5
 335430774, 0.008, 0.9910001, 0.325, 2.5, 0.003, 1.001, 0.284, 2.5
 335630694, 0.013, 0.978, 0.362, 2.5, 0.008, 0.9910001, 0.325, 2.5
 335831447, 0.016, 0.961, 0.398, 2.5, 0.013, 0.978, 0.362, 2.5
 336031367, 0.017, 0.942, 0.43, 2.5, 0.016, 0.961, 0.398, 2.5
 336231287, 0.018, 0.92, 0.457, 2.5, 0.017, 0.942, 0.43, 2.5
 336431207, 0.018, 0.896, 0.477, 2.5, 0.018, 0.92, 0.457, 2.5
 336631127, 0.018, 0.869, 0.495, 2.5, 0.018, 0.896, 0.477, 2.5
 336831047, 0.018, 0.84, 0.5100001, 2.5, 0.018, 0.869, 0.495, 2.5
 337030967, 0.018, 0.808, 0.52, 2.5, 0.018, 0.84, 0.5100001, 2.5
 337230887, 0.02, 0.774, 0.528, 2.5, 0.018, 0.808, 0.52, 2.5
 337430807, 0.02, 0.74, 0.5330001, 2.5, 0.02, 0.774, 0.528, 2.5
 337630727, 0.02, 0.703, 0.536, 2.5, 0.02, 0.74, 0.5330001, 2.5
 337831480, 0.02, 0.66, 0.535, 2.5, 0.02, 0.703, 0.536, 2.5
 338031400, 0.019, 0.62, 0.5330001, 2.5, 0.02, 0.66, 0.535, 2.5
 338231320, 0.017, 0.589, 0.528, 2.5, 0.019, 0.62, 0.5330001, 2.5
 338431240, 0.013, 0.5420001, 0.524, 2.5, 0.017, 0.589, 0.528, 2.5
 338631160, 0.012, 0.484, 0.518, 2.5, 0.013, 0.5420001, 0.524, 2.5
 338831080, 0.01, 0.466, 0.511, 2.5, 0.012, 0.484, 0.518, 2.5
 339031000, 0.007, 0.429, 0.504, 2.5, 0.01, 0.466, 0.511, 2.5
 339230920, 0.005, 0.352, 0.501, 2.5, 0.007, 0.429, 0.504, 2.5
 339430840, 0.002, 0.326, 0.499, 2.5, 0.005, 0.352, 0.501, 2.5
 339630760, -0.001, 0.296, 0.498, 2.5, 0.002, 0.326, 0.499, 2.5
 339830680, -0.004, 0.221, 0.497, 2.5, -0.001, 0.296, 0.498, 2.5
 340031433, -0.007, 0.179, 0.496, 2.5, -0.004, 0.221, 0.497, 2.5
 340231353, -0.01, 0.154, 0.495, 2.5, -0.007, 0.179, 0.496, 2.5
 340431273, -0.013, 0.09, 0.495, 2.5, -0.01, 0.154, 0.495, 2.5
 340631193, -0.016, 0.031, 0.494, 2.5, -0.013, 0.09, 0.495, 2.5
 340831113, -0.017, 0.024, 0.494, 2.5, -0.016, 0.031, 0.494, 2.5
 341031033, -0.018, -0.011, 0.492, 2.5, -0.017, 0.024, 0.494, 2.5
 341230953, -0.023, -0.09100001, 0.488, 2.5, -0.018, -0.011, 0.492, 2.5
 341430873, -0.03, -0.107, 0.485, 2.5, -0.023, -0.09100001, 0.488, 2.5
 341630793, -0.037, -0.148, 0.483, 2.5, -0.03, -0.107, 0.485, 2.5
 341830713, -0.042, -0.185, 0.48, 2.5, -0.037, -0.148, 0.483, 2.5
 342031466, -0.047, -0.225, 0.478, 2.5, -0.042, -0.185, 0.48, 2.5
 342231386, -0.051, -0.258, 0.476, 2.5, -0.047, -0.225, 0.478, 2.5
 342431306, -0.06, -0.273, 0.474, 2.5, -0.051, -0.258, 0.476, 2.5
 342631226, -0.068, -0.302, 0.47, 2.5, -0.06, -0.273, 0.474, 2.5
 342831146, -0.072, -0.355, 0.467, 2.5, -0.068, -0.302, 0.47, 2.5
 343031066, -0.075, -0.395, 0.468, 2.5, -0.072, -0.355, 0.467, 2.5
 343230986, -0.079, -0.4, 0.454, 2.5, -0.075, -0.395, 0.468, 2.5
 343430906, -0.082, -0.427, 0.445, 2.5, -0.079, -0.4, 0.454, 2.5
 343630826, -0.086, -0.449, 0.442, 2.5, -0.082, -0.427, 0.445, 2.5
 343830746, -0.089, -0.467, 0.444, 2.5, -0.086, -0.449, 0.442, 2.5
 344030666, -0.09100001, -0.479, 0.448, 2.5, -0.089, -0.467, 0.444, 2.5
 344231419, -0.09100001, -0.498, 0.454, 2.5, -0.09100001, -0.479, 0.448, 2.5
 344431339, -0.09200001, -0.511, 0.461, 2.5, -0.09100001, -0.498, 0.454, 2.5
 344631259, -0.09500001, -0.522, 0.469, 2.5, -0.09200001, -0.511, 0.461, 2.5
 344831179, -0.09900001, -0.53, 0.476, 2.5, -0.09500001, -0.522, 0.469, 2.5
 345031099, -0.102, -0.537, 0.484, 2.5, -0.09900001, -0.53, 0.476, 2.5
 345231019, -0.106, -0.541, 0.492, 2.5, -0.102, -0.537, 0.484, 2.5
 345430939, -0.109, -0.543, 0.5, 2.5, -0.106, -0.541, 0.492, 2.5
 345630859, -0.112, -0.544, 0.509, 2.5, -0.109, -0.543, 0.5, 2.5
 345830779, -0.115, -0.5420001, 0.518, 2.5, -0.112, -0.544, 0.509, 2.5
 346030699, -0.117, -0.539, 0.525, 2.5, -0.115, -0.5420001, 0.518, 2.5
 346231452, 0.011, 0.047, -0.044, 2.5, -0.117, -0.539, 0.525, 2.5
 346431372, 0.019, 0.106, -0.103, 2.5, 0.011, 0.047, -0.044, 2.5
 346631292, -0.002, -0.018, 0.018, 2.5, 0.019, 0.106, -0.103, 2.5
 346831212, -0.005, -0.034, 0.011, 2.5, -0.002, -0.018, 0.018, 2.5
 347031132, -0.006, -0.031, -0.003, 2.5, -0.005, -0.034, 0.011, 2.5
 347231052, -0.006, -0.031, -0.001, 2.5, -0.006, -0.031, -0.003, 2.5
 347430972, -0.006, -0.031, 0, 2.5, -0.006, -0.031, -0.001, 2.5
 347630892, -0.006, -0.031, 0, 2.5, -0.006, -0.031, 0, 2.5
 347830812, -0.006, -0.031, 0, 2.5, -0.006, -0.031, 0, 2.5
 348030732, -0.006, -0.031, 0, 2.5, -0.006, -0.031, 0, 2.5
 348231485, -0.006, -0.031, 0, 2.5, -0.006, -0.031, 0, 2.5
 348431405, -0.006, -0.031, 0, 2.5, -0.006, -0.031, 0, 2.5
 348631325, -0.006, -0.031, 0, 2.5, -0.006, -0.031, 0, 2.5
 348831245, -0.006, -0.031, 0, 2.5, -0.006, -0.031, 0, 2.5
 349031165, -0.006, -0.031, 0, 2.5, -0.006, -0.031, 0, 2.5
 349231085, -0.006, -0.031, 0, 2.5, -0.006, -0.031, 0, 2.5
 349431005, -0.006, -0.031, 0, 2.5, -0.006, -0.031, 0, 2.5
 349630925, -0.006, -0.031, 0, 2.5, -0.006, -0.031, 0, 2.5
 349830845, -0.006, -0.031, 0, 2.5, -0.006, -0.031, 0, 2.5
 350030765, -0.006, -0.031, 0, 2.5, -0.006, -0.031, 0, 2.5
