TimeUS,CGpN,CGpE,CGpD,CGpe,PGpN,PGpE,PGpD,PGpe
 158034261, 0, 0, 0, 2.5, 0, 0, 0, 2.5
 158234181, 0, 0, 0, 2.5, 0, 0, 0, 2.5
 158434101, 0.009000001, 0, 0, 2.5, 0, 0, 0, 2.5
 158634021, 0.249, -0.026, 0, 2.5, 0.009000001, 0, 0, 2.5
 158833941, 0.934, -0.097, 0.012, 2.5, 0.249, -0.026, 0, 2.5
 159033861, 2.092, -0.218, 0.037, 2.5, 0.934, -0.097, 0.012, 2.5
 159233781, 3.697, -0.388, 0.074, 2.5, 2.092, -0.218, 0.037, 2.5
 159433701, 5.696, -0.596, 0.123, 2.5, 3.697, -0.388, 0.074, 2.5
 159633621, 7.819, -0.8200001, 0.181, 2.5, 5.696, -0.596, 0.123, 2.5
 159833541, 9.808001, -1.026, 0.239, 2.5, 7.819, -0.8200001, 0.181, 2.5
 160034294, 11.576, -1.217, 0.275, 2.5, 9.808001, -1.026, 0.239, 2.5
 160234214, 13.138, -1.38, 0.205, 2.5, 11.576, -1.217, 0.275, 2.5
 160434134, 14.699, -1.551, 0.161, 2.5, 13.138, -1.38, 0.205, 2.5
 160634054, 16.66, -1.739, -0.9630001, 2.5, 14.699, -1.551, 0.161, 2.5
 160833974, 18.329, -1.92, -1.909, 2.5, 16.66, -1.739, -0.9630001, 2.5
 161033894, 19.801, -2.107, -2.322, 2.5, 18.329, -1.92, -1.909, 2.5
 161233814, 21.095, -2.258, -2.793, 2.5, 19.801, -2.107, -2.322, 2.5
 161433734, 22.202, -2.356, -3.304, 2.5, 21.095, -2.258, -2.793, 2.5
 161633654, 23.167, -2.478, -3.685, 2.5, 22.202, -2.356, -3.304, 2.5
 161833574, 23.991, -2.564, -4.038, 2.5, 23.167, -2.478, -3.685, 2.5
 162033494, 24.678, -2.647, -4.402, 2.5, 23.991, -2.564, -4.038, 2.5
 162234247, 25.286, -2.743, -4.619, 2.5, 24.678, -2.647, -4.402, 2.5
 162434167, 25.796, -2.805, -4.857, 2.5, 25.286, -2.743, -4.619, 2.5
 162634087, 26.22, -2.838, -5.097, 2.5, 25.796, -2.805, -4.857, 2.5
 162834007, 26.571, -2.895, -5.337, 2.5, 26.22, -2.838, -5.097, 2.5
 163033927, 26.875, -2.968, -5.442, 2.5, 26.571, -2.895, -5.337, 2.5
 163233847, 27.138, -3, -5.525, 2.5, 26.875, -2.968, -5.442, 2.5
 163433767, 27.353, -3.048, -5.638, 2.5, 27.138, -3, -5.525, 2.5
 163633687, 27.533, -3.079, -5.705, 2.5, 27.353, -3.048, -5.638, 2.5
 163833607, 27.658, -3.106, -5.827, 2.5, 27.533, -3.079, -5.705, 2.5
 164033527, 27.772, -3.131, -5.846, 2.5, 27.658, -3.106, -5.827, 2.5
 164234280, 27.859, -3.132, -5.939, 2.5, 27.772, -3.131, -5.846, 2.5
 164434200, 27.944, -3.146, -5.938, 2.5, 27.859, -3.132, -5.939, 2.5
 164634120, 28.013, -3.172, -5.951, 2.5, 27.944, -3.146, -5.938, 2.5
 164834040, 28.073, -3.189, -5.945, 2.5, 28.013, -3.172, -5.951, 2.5
 165033960, 28.161, -3.205, -5.817, 2.5, 28.073, -3.189, -5.945, 2.5
 165233880, 28.255, -3.222, -5.625, 2.5, 28.161, -3.205, -5.817, 2.5
 165433800, 28.358, -3.261, -5.403, 2.5, 28.255, -3.222, -5.625, 2.5
 165633720, 28.475, -3.255, -5.154, 2.5, 28.358, -3.261, -5.403, 2.5
 165833640, 28.528, -3.29, -4.984, 2.5, 28.475, -3.255, -5.154, 2.5
 166033560, 28.524, -3.301, -4.791, 2.5, 28.528, -3.29, -4.984, 2.5
 166233480, 28.553, -3.306, -4.577, 2.5, 28.524, -3.301, -4.791, 2.5
 166434233, 28.609, -3.318, -4.392, 2.5, 28.553, -3.306, -4.577, 2.5
 166634153, 28.658, -3.339, -4.206, 2.5, 28.609, -3.318, -4.392, 2.5
 166834073, 28.685, -3.372, -4.035, 2.5, 28.658, -3.339, -4.206, 2.5
 167033993, 28.683, -3.343, -3.818, 2.5, 28.685, -3.372, -4.035, 2.5
 167233913, 28.669, -3.213, -3.497, 2.5, 28.683, -3.343, -3.818, 2.5
 167433833, 28.619, -3.142, -3.262, 2.5, 28.669, -3.213, -3.497, 2.5
 167633753, 28.557, -3.129, -3.037, 2.5, 28.619, -3.142, -3.262, 2.5
 167833673, 28.5, -3.094, -2.779, 2.5, 28.557, -3.129, -3.037, 2.5
 168033593, 28.449, -3.02, -2.516, 2.5, 28.5, -3.094, -2.779, 2.5
 168233513, 28.392, -2.965, -2.307, 2.5, 28.449, -3.02, -2.516, 2.5
 168434266, 28.327, -2.92, -2.118, 2.5, 28.392, -2.965, -2.307, 2.5
 168634186, 28.268, -2.918, -1.848, 2.5, 28.327, -2.92, -2.118, 2.5
 168834106, 28.216, -2.885, -1.604, 2.5, 28.268, -2.918, -1.848, 2.5
 169034026, 28.153, -2.838, -1.458, 2.5, 28.216, -2.885, -1.604, 2.5
 169233946, 28.098, -2.799, -1.24, 2.5, 28.153, -2.838, -1.458, 2.5
 169433866, 28.065, -2.769, -0.9350001, 2.5, 28.098, -2.799, -1.24, 2.5
 169633786, 28.042, -2.763, -0.7040001, 2.5, 28.065, -2.769, -0.9350001, 2.5
 169833706, 28.021, -2.729, -0.595, 2.5, 28.042, -2.763, -0.7040001, 2.5
 170033626, 28.004, -2.698, -0.527, 2.5, 28.021, -2.729, -0.595, 2.5
 170233546, 27.975, -2.7, -0.365, 2.5, 28.004, -2.698, -0.527, 2.5
 170434299, 27.956, -2.675, -0.197, 2.5, 27.975, -2.7, -0.365, 2.5
 170634219, 27.952, -2.657, -0.015, 2.5, 27.956, -2.675, -0.197, 2.5
 170834139, 27.95, -2.661, 0.136, 2.5, 27.952, -2.657, -0.015, 2.5
 171034059, 27.947, -2.669, 0.187, 2.5, 27.95, -2.661, 0.136, 2.5
 171233979, 27.936, -2.641, 0.206, 2.5, 27.947, -2.669, 0.187, 2.5
 171433899, 27.929, -2.623, 0.292, 2.5, 27.936, -2.641, 0.206, 2.5
 171633819, 27.924, -2.607, 0.355, 2.5, 27.929, -2.623, 0.292, 2.5
 171833739, 27.929, -2.587, 0.476, 2.5, 27.924, -2.607, 0.355, 2.5
 172033659, 27.927, -2.536, 0.516, 2.5, 27.929, -2.587, 0.476, 2.5
 172233579, 27.924, -2.523, 0.565, 2.5, 27.927, -2.536, 0.516, 2.5
 172433499, 27.934, -2.533, 0.609, 2.5, 27.924, -2.523, 0.565, 2.5
 172634252, 27.943, -2.523, 0.645, 2.5, 27.934, -2.533, 0.609, 2.5
 172834172, 27.948, -2.529, 0.651, 2.5, 27.943, -2.523, 0.645, 2.5
 173034092, 27.963, -2.508, 0.686, 2.5, 27.948, -2.529, 0.651, 2.5
 173234012, 27.982, -2.469, 0.7820001, 2.5, 27.963, -2.508, 0.686, 2.5
 173433932, 27.994, -2.447, 0.8190001, 2.5, 27.982, -2.469, 0.7820001, 2.5
 173633852, 28.011, -2.427, 0.841, 2.5, 27.994, -2.447, 0.8190001, 2.5
 173833772, 28.026, -2.383, 0.813, 2.5, 28.011, -2.427, 0.841, 2.5
 174033692, 28.04, -2.37, 0.7690001, 2.5, 28.026, -2.383, 0.813, 2.5
 174233612, 28.052, -2.34, 0.7820001, 2.5, 28.04, -2.37, 0.7690001, 2.5
 174433532, 28.068, -2.311, 0.8190001, 2.5, 28.052, -2.34, 0.7820001, 2.5
 174634285, 28.082, -2.278, 0.804, 2.5, 28.068, -2.311, 0.8190001, 2.5
 174834205, 28.087, -2.274, 0.845, 2.5, 28.082, -2.278, 0.804, 2.5
 175034125, 28.104, -2.281, 0.899, 2.5, 28.087, -2.274, 0.845, 2.5
 175234045, 28.141, -2.277, 0.9400001, 2.5, 28.104, -2.281, 0.899, 2.5
 175433965, 28.175, -2.273, 0.9620001, 2.5, 28.141, -2.277, 0.9400001, 2.5
 175633885, 28.215, -2.254, 0.9580001, 2.5, 28.175, -2.273, 0.9620001, 2.5
 175833805, 28.235, -2.24, 0.89, 2.5, 28.215, -2.254, 0.9580001, 2.5
 176033725, 28.248, -2.217, 0.867, 2.5, 28.235, -2.24, 0.89, 2.5
 176233645, 28.282, -2.214, 0.897, 2.5, 28.248, -2.217, 0.867, 2.5
 176433565, 28.315, -2.224, 0.8330001, 2.5, 28.282, -2.214, 0.897, 2.5
 176633485, 28.345, -2.237, 0.781, 2.5, 28.315, -2.224, 0.8330001, 2.5
 176834238, 28.366, -2.24, 0.789, 2.5, 28.345, -2.237, 0.781, 2.5
 177034158, 28.383, -2.215, 0.779, 2.5, 28.366, -2.24, 0.789, 2.5
 177234078, 28.402, -2.198, 0.821, 2.5, 28.383, -2.215, 0.779, 2.5
 177433998, 28.422, -2.187, 0.825, 2.5, 28.402, -2.198, 0.821, 2.5
 177633918, 28.436, -2.189, 0.849, 2.5, 28.422, -2.187, 0.825, 2.5
 177833838, 28.462, -2.202, 0.8240001, 2.5, 28.436, -2.189, 0.849, 2.5
 178033758, 28.489, -2.191, 0.742, 2.5, 28.462, -2.202, 0.8240001, 2.5
 178233678, 28.51, -2.203, 0.642, 2.5, 28.489, -2.191, 0.742, 2.5
 178433598, 28.524, -2.196, 0.675, 2.5, 28.51, -2.203, 0.642, 2.5
 178633518, 28.545, -2.194, 0.711, 2.5, 28.524, -2.196, 0.675, 2.5
 178834271, 28.56, -2.187, 0.728, 2.5, 28.545, -2.194, 0.711, 2.5
 179034191, 28.587, -2.153, 0.739, 2.5, 28.56, -2.187, 0.728, 2.5
 179234111, 28.622, -2.123, 0.756, 2.5, 28.587, -2.153, 0.739, 2.5
 179434031, 28.658, -2.071, 0.698, 2.5, 28.622, -2.123, 0.756, 2.5
 179633951, 28.687, -2.033, 0.669, 2.5, 28.658, -2.071, 0.698, 2.5
 179833871, 28.707, -1.987, 0.642, 2.5, 28.687, -2.033, 0.669, 2.5
 180033791, 28.718, -1.967, 0.575, 2.5, 28.707, -1.987, 0.642, 2.5
 180233711, 28.731, -1.922, 0.546, 2.5, 28.718, -1.967, 0.575, 2.5
 180433631, 28.756, -1.885, 0.5560001, 2.5, 28.731, -1.922, 0.546, 2.5
 180633551, 28.79, -1.829, 0.532, 2.5, 28.756, -1.885, 0.5560001, 2.5
 180834304, 28.803, -1.628, 0.498, 2.5, 28.79, -1.829, 0.532, 2.5
 181034224, 28.83, -1.079, 0.491, 2.5, 28.803, -1.628, 0.498, 2.5
 181234144, 28.87, -0.194, 0.49, 2.5, 28.83, -1.079, 0.491, 2.5
 181434064, 28.861, -0.629, 0.024, 2.5, 28.87, -0.194, 0.49, 2.5
 181633984, 28.861, -1.137, 0.36, 2.5, 28.861, -0.629, 0.024, 2.5
 181833904, 28.877, -0.8700001, 0.42, 2.5, 28.861, -1.137, 0.36, 2.5
 182033824, 28.894, -0.45, 0.499, 2.5, 28.877, -0.8700001, 0.42, 2.5
 182233744, 28.91, -0.448, 0.408, 2.5, 28.894, -0.45, 0.499, 2.5
 182433664, 28.93, -0.647, 0.42, 2.5, 28.91, -0.448, 0.408, 2.5
 182633584, 28.939, -0.654, 0.414, 2.5, 28.93, -0.647, 0.42, 2.5
 182833504, 28.945, -0.522, 0.395, 2.5, 28.939, -0.654, 0.414, 2.5
 183034257, 28.965, -0.441, 0.337, 2.5, 28.945, -0.522, 0.395, 2.5
 183234177, 28.977, -0.481, 0.354, 2.5, 28.965, -0.441, 0.337, 2.5
 183434097, 28.991, -0.503, 0.346, 2.5, 28.977, -0.481, 0.354, 2.5
 183634017, 29.011, -0.452, 0.298, 2.5, 28.991, -0.503, 0.346, 2.5
 183833937, 29.024, -0.403, 0.283, 2.5, 29.011, -0.452, 0.298, 2.5
 184033857, 0, 5E-05, 0.306, 2.5, 29.024, -0.403, 0.283, 2.5
 184233777, 0, 5E-05, 0.29, 2.5, 0, 5E-05, 0.306, 2.5
 184433697, 0, 5E-05, 0.227, 2.5, 0, 5E-05, 0.29, 2.5
 184633617, 0, 5E-05, 0.204, 2.5, 0, 5E-05, 0.227, 2.5
 184833537, 0, 5E-05, 0.269, 2.5, 0, 5E-05, 0.204, 2.5
 185034290, 0, 5E-05, 0.286, 2.5, 0, 5E-05, 0.269, 2.5
 185234210, 0, 5E-05, 0.273, 2.5, 0, 5E-05, 0.286, 2.5
 185434130, 0, 5E-05, 0.353, 2.5, 0, 5E-05, 0.273, 2.5
 185634050, 0, 5E-05, 0.345, 2.5, 0, 5E-05, 0.353, 2.5
 185833970, 0, 5E-05, 0.338, 2.5, 0, 5E-05, 0.345, 2.5
 186033890, 0, 5E-05, 0.292, 2.5, 0, 5E-05, 0.338, 2.5
 186233810, 0, 5E-05, 0.221, 2.5, 0, 5E-05, 0.292, 2.5
 186433730, 0, 5E-05, 0.2, 2.5, 0, 5E-05, 0.221, 2.5
 186633650, 0, 5E-05, 0.174, 2.5, 0, 5E-05, 0.2, 2.5
 186833570, 0, 5E-05, 0.112, 2.5, 0, 5E-05, 0.174, 2.5
 187033490, 0, 5E-05, 0.053, 2.5, 0, 5E-05, 0.112, 2.5
 187234243, 0, 5E-05, 0.07300001, 2.5, 0, 5E-05, 0.053, 2.5
 187434163, 0, 5E-05, 0.112, 2.5, 0, 5E-05, 0.07300001, 2.5
 187634083, 0, 5E-05, 0.08800001, 2.5, 0, 5E-05, 0.112, 2.5
 187834003, 0, 5E-05, 0.049, 2.5, 0, 5E-05, 0.08800001, 2.5
 188033923, 0, 5E-05, 0.131, 2.5, 0, 5E-05, 0.049, 2.5
 188233843, 0, 5E-05, 0.193, 2.5, 0, 5E-05, 0.131, 2.5
 188433763, 0, 5E-05, 0.101, 2.5, 0, 5E-05, 0.193, 2.5
 188633683, 0, 5E-05, 0.116, 2.5, 0, 5E-05, 0.101, 2.5
 188833603, 0, 5E-05, 0.09100001, 2.5, 0, 5E-05, 0.116, 2.5
 189033523, 0, 5E-05, 0.264, 2.5, 0, 5E-05, 0.09100001, 2.5
 189234276, 0, 5E-05, 0.466, 2.5, 0, 5E-05, 0.264, 2.5
 189434196, 0, 5E-05, 0.581, 2.5, 0, 5E-05, 0.466, 2.5
 189634116, 0, 5E-05, 0.562, 2.5, 0, 5E-05, 0.581, 2.5
 189834036, 0, 5E-05, 0.423, 2.5, 0, 5E-05, 0.562, 2.5
 190033956, 0, 5E-05, 0.331, 2.5, 0, 5E-05, 0.423, 2.5
 190233876, 0, 5E-05, 0.291, 2.5, 0, 5E-05, 0.331, 2.5
 190433796, 0, 5E-05, 0.232, 2.5, 0, 5E-05, 0.291, 2.5
 190633716, 0, 5E-05, 0.281, 2.5, 0, 5E-05, 0.232, 2.5
 190833636, 0, 5E-05, 0.345, 2.5, 0, 5E-05, 0.281, 2.5
 191033556, 0, 5E-05, 0.284, 2.5, 0, 5E-05, 0.345, 2.5
 191233476, 0, 5E-05, 0.229, 2.5, 0, 5E-05, 0.284, 2.5
 191434229, 0, 5E-05, 0.141, 2.5, 0, 5E-05, 0.229, 2.5
 191634149, 0, 5E-05, 0.161, 2.5, 0, 5E-05, 0.141, 2.5
 191834069, 0, 5E-05, 0.153, 2.5, 0, 5E-05, 0.161, 2.5
 192033989, 0, 5E-05, 0.131, 2.5, 0, 5E-05, 0.153, 2.5
 192233909, 0, 5E-05, 0.111, 2.5, 0, 5E-05, 0.131, 2.5
 192433829, 0, 5E-05, 0.085, 2.5, 0, 5E-05, 0.111, 2.5
 192633749, 0, 5E-05, 0.017, 2.5, 0, 5E-05, 0.085, 2.5
 192833669, 0, 5E-05, -0.007, 2.5, 0, 5E-05, 0.017, 2.5
 193033589, 0, 5E-05, 0.019, 2.5, 0, 5E-05, -0.007, 2.5
 193233509, 0, 5E-05, -0.02, 2.5, 0, 5E-05, 0.019, 2.5
 193434262, 0, 5E-05, -0.044, 2.5, 0, 5E-05, -0.02, 2.5
 193634182, 0, 5E-05, -0.106, 2.5, 0, 5E-05, -0.044, 2.5
 193834102, 0, 5E-05, -0.145, 2.5, 0, 5E-05, -0.106, 2.5
 194034022, 0, 5E-05, -0.09, 2.5, 0, 5E-05, -0.145, 2.5
 194233942, 0, 5E-05, -0.103, 2.5, 0, 5E-05, -0.09, 2.5
 194433862, 0, 5E-05, -0.233, 2.5, 0, 5E-05, -0.103, 2.5
 194633782, 0, 5E-05, -0.198, 2.5, 0, 5E-05, -0.233, 2.5
 194833702, 0, 5E-05, -0.231, 2.5, 0, 5E-05, -0.198, 2.5
 195033622, 0, 5E-05, -0.251, 2.5, 0, 5E-05, -0.231, 2.5
 195233542, 0, 5E-05, -0.316, 2.5, 0, 5E-05, -0.251, 2.5
 195434295, 0, 5E-05, -0.351, 2.5, 0, 5E-05, -0.316, 2.5
 195634215, 0, 5E-05, -0.253, 2.5, 0, 5E-05, -0.351, 2.5
 195834135, 0, 5E-05, -0.348, 2.5, 0, 5E-05, -0.253, 2.5
 196034055, 0, 5E-05, -0.285, 2.5, 0, 5E-05, -0.348, 2.5
 196233975, 0, 5E-05, -0.254, 2.5, 0, 5E-05, -0.285, 2.5
 196433895, 0, 5E-05, -0.24, 2.5, 0, 5E-05, -0.254, 2.5
 196633815, 0, 5E-05, -0.229, 2.5, 0, 5E-05, -0.24, 2.5
 196833735, 0, 5E-05, -0.209, 2.5, 0, 5E-05, -0.229, 2.5
 197033655, 0, 5E-05, -0.195, 2.5, 0, 5E-05, -0.209, 2.5
 197233575, 0, 5E-05, -0.152, 2.5, 0, 5E-05, -0.195, 2.5
 197433495, 0, 5E-05, -0.143, 2.5, 0, 5E-05, -0.152, 2.5
 197634248, 0, 5E-05, -0.15, 2.5, 0, 5E-05, -0.143, 2.5
 197834168, 0, 5E-05, -0.119, 2.5, 0, 5E-05, -0.15, 2.5
 198034088, 0, 5E-05, -0.172, 2.5, 0, 5E-05, -0.119, 2.5
 198234008, 0, 5E-05, -0.158, 2.5, 0, 5E-05, -0.172, 2.5
 198433928, 0, 5E-05, -0.202, 2.5, 0, 5E-05, -0.158, 2.5
 198633848, 0, 5E-05, -0.218, 2.5, 0, 5E-05, -0.202, 2.5
 198833768, 0, 5E-05, -0.166, 2.5, 0, 5E-05, -0.218, 2.5
 199033688, 0, 5E-05, -0.109, 2.5, 0, 5E-05, -0.166, 2.5
 199233608, 0, 5E-05, -0.221, 2.5, 0, 5E-05, -0.109, 2.5
 199433528, 0, 5E-05, -0.19, 2.5, 0, 5E-05, -0.221, 2.5
 199634281, 0, 5E-05, -0.115, 2.5, 0, 5E-05, -0.19, 2.5
 199834201, 0, 5E-05, -0.064, 2.5, 0, 5E-05, -0.115, 2.5
 200034121, 0, 5E-05, -0.086, 2.5, 0, 5E-05, -0.064, 2.5
 200234041, 0, 5E-05, -0.037, 2.5, 0, 5E-05, -0.086, 2.5
 200433961, 0, 5E-05, -0.027, 2.5, 0, 5E-05, -0.037, 2.5
 200633881, 0, 5E-05, -0.032, 2.5, 0, 5E-05, -0.027, 2.5
 200833801, 0, 5E-05, -0.111, 2.5, 0, 5E-05, -0.032, 2.5
 201033721, 0, 5E-05, -0.106, 2.5, 0, 5E-05, -0.111, 2.5
 201233641, 0, 5E-05, -0.096, 2.5, 0, 5E-05, -0.106, 2.5
 201433561, 0, 5E-05, -0.106, 2.5, 0, 5E-05, -0.096, 2.5
 201633481, 0, 5E-05, -0.028, 2.5, 0, 5E-05, -0.106, 2.5
 201834234, 0, 5E-05, -0.126, 2.5, 0, 5E-05, -0.028, 2.5
 202034154, 0, 5E-05, -0.086, 2.5, 0, 5E-05, -0.126, 2.5
 202234074, 0, 5E-05, -0.027, 2.5, 0, 5E-05, -0.086, 2.5
 202433994, 0, 5E-05, -0.039, 2.5, 0, 5E-05, -0.027, 2.5
 202633914, 0, 5E-05, -0.023, 2.5, 0, 5E-05, -0.039, 2.5
 202833834, 0, 5E-05, -0.015, 2.5, 0, 5E-05, -0.023, 2.5
 203033754, 0, 5E-05, -0.012, 2.5, 0, 5E-05, -0.015, 2.5
 203233674, 0, 5E-05, -0.012, 2.5, 0, 5E-05, -0.012, 2.5
 203433594, 0, 5E-05, 0.003, 2.5, 0, 5E-05, -0.012, 2.5
 203633514, 0, 5E-05, -0.019, 2.5, 0, 5E-05, 0.003, 2.5
 203834267, 0, 5E-05, 0, 2.5, 0, 5E-05, -0.019, 2.5
 204034187, 0, 5E-05, 0.063, 2.5, 0, 5E-05, 0, 2.5
 204234107, 0, 5E-05, 0.087, 2.5, 0, 5E-05, 0.063, 2.5
 204434027, 0, 5E-05, 0.086, 2.5, 0, 5E-05, 0.087, 2.5
 204633947, 0, 5E-05, 0.03, 2.5, 0, 5E-05, 0.086, 2.5
 204833867, 0, 5E-05, -0.006, 2.5, 0, 5E-05, 0.03, 2.5
 205033787, 0, 5E-05, -0.013, 2.5, 0, 5E-05, -0.006, 2.5
 205233707, 0, 5E-05, 0.009000001, 2.5, 0, 5E-05, -0.013, 2.5
 205433627, 0, 5E-05, -0.048, 2.5, 0, 5E-05, 0.009000001, 2.5
 205633547, 0, 5E-05, -0.017, 2.5, 0, 5E-05, -0.048, 2.5
 205834300, 0, 5E-05, 0.066, 2.5, 0, 5E-05, -0.017, 2.5
 206034220, 0, 5E-05, 0.116, 2.5, 0, 5E-05, 0.066, 2.5
 206234140, 0, 5E-05, 0.027, 2.5, 0, 5E-05, 0.116, 2.5
 206434060, 0, 5E-05, 0.019, 2.5, 0, 5E-05, 0.027, 2.5
 206633980, 0, 5E-05, 0.075, 2.5, 0, 5E-05, 0.019, 2.5
 206833900, 0, 5E-05, 0.071, 2.5, 0, 5E-05, 0.075, 2.5
 207033820, 0, 5E-05, 0.055, 2.5, 0, 5E-05, 0.071, 2.5
 207233740, 0, 5E-05, 0.041, 2.5, 0, 5E-05, 0.055, 2.5
 207433660, 0, 5E-05, 0.072, 2.5, 0, 5E-05, 0.041, 2.5
 207633580, 0, 5E-05, 0.134, 2.5, 0, 5E-05, 0.072, 2.5
 207833500, 0, 5E-05, 0.096, 2.5, 0, 5E-05, 0.134, 2.5
 208034253, 0, 5E-05, 0.028, 2.5, 0, 5E-05, 0.096, 2.5
 208234173, 0, 5E-05, 0.024, 2.5, 0, 5E-05, 0.028, 2.5
 208434093, 0, 5E-05, 0.016, 2.5, 0, 5E-05, 0.024, 2.5
 208634013, 0, 5E-05, 0.083, 2.5, 0, 5E-05, 0.016, 2.5
 208833933, 0, 5E-05, 0.089, 2.5, 0, 5E-05, 0.083, 2.5
 209033853, 0, 5E-05, 0.041, 2.5, 0, 5E-05, 0.089, 2.5
 209233773, 0, 5E-05, -0.039, 2.5, 0, 5E-05, 0.041, 2.5
 209433693, 0, 5E-05, -0.066, 2.5, 0, 5E-05, -0.039, 2.5
 209633613, 0, 5E-05, -0.002, 2.5, 0, 5E-05, -0.066, 2.5
 209833533, 0, 5E-05, 0.058, 2.5, 0, 5E-05, -0.002, 2.5
 210034286, 0, 5E-05, 0.038, 2.5, 0, 5E-05, 0.058, 2.5
 210234206, 0, 5E-05, 0.024, 2.5, 0, 5E-05, 0.038, 2.5
 210434126, 0, 5E-05, 0.036, 2.5, 0, 5E-05, 0.024, 2.5
 210634046, 0, 5E-05, 0.023, 2.5, 0, 5E-05, 0.036, 2.5
 210833966, 0, 5E-05, 0.032, 2.5, 0, 5E-05, 0.023, 2.5
 211033886, 0, 5E-05, -0.016, 2.5, 0, 5E-05, 0.032, 2.5
 211233806, 0, 5E-05, -0.06, 2.5, 0, 5E-05, -0.016, 2.5
 211433726, 0, 5E-05, -0.057, 2.5, 0, 5E-05, -0.06, 2.5
 211633646, 0, 5E-05, -0.051, 2.5, 0, 5E-05, -0.057, 2.5
 211833566, 0, 5E-05, 0.01, 2.5, 0, 5E-05, -0.051, 2.5
 212033486, 0, 5E-05, 0.013, 2.5, 0, 5E-05, 0.01, 2.5
 212234239, 0, 5E-05, -0.053, 2.5, 0, 5E-05, 0.013, 2.5
 212434159, 0, 5E-05, -0.07300001, 2.5, 0, 5E-05, -0.053, 2.5
 212634079, 0, 5E-05, -0.024, 2.5, 0, 5E-05, -0.07300001, 2.5
 212833999, 0, 5E-05, 0.013, 2.5, 0, 5E-05, -0.024, 2.5
 213033919, 0, 5E-05, 0.029, 2.5, 0, 5E-05, 0.013, 2.5
 213233839, 0, 5E-05, -0.044, 2.5, 0, 5E-05, 0.029, 2.5
 213433759, 0, 5E-05, -0.067, 2.5, 0, 5E-05, -0.044, 2.5
 213633679, 0, 5E-05, -0.081, 2.5, 0, 5E-05, -0.067, 2.5
 213833599, 0, 5E-05, -0.047, 2.5, 0, 5E-05, -0.081, 2.5
 214033519, 0, 5E-05, -0.004, 2.5, 0, 5E-05, -0.047, 2.5
 214234272, 0, 5E-05, 0.011, 2.5, 0, 5E-05, -0.004, 2.5
 214434192, 0, 5E-05, -0.027, 2.5, 0, 5E-05, 0.011, 2.5
 214634112, 0, 5E-05, 0.054, 2.5, 0, 5E-05, -0.027, 2.5
 214834032, 0, 5E-05, 0.007, 2.5, 0, 5E-05, 0.054, 2.5
 215033952, 0, 5E-05, -0.016, 2.5, 0, 5E-05, 0.007, 2.5
 215233872, 0, 5E-05, -0.047, 2.5, 0, 5E-05, -0.016, 2.5
 215433792, 0, 5E-05, -0.038, 2.5, 0, 5E-05, -0.047, 2.5
 215633712, 0, 5E-05, -0.014, 2.5, 0, 5E-05, -0.038, 2.5
 215833632, 0, 5E-05, -0.009000001, 2.5, 0, 5E-05, -0.014, 2.5
 216033552, 0, 5E-05, -0.05, 2.5, 0, 5E-05, -0.009000001, 2.5
 216234305, 0, 5E-05, -0.053, 2.5, 0, 5E-05, -0.05, 2.5
 216434225, 0, 5E-05, -0.023, 2.5, 0, 5E-05, -0.053, 2.5
 216634145, 0, 5E-05, -0.053, 2.5, 0, 5E-05, -0.023, 2.5
 216834065, 0, 5E-05, -0.048, 2.5, 0, 5E-05, -0.053, 2.5
 217033985, 0, 5E-05, -0.07300001, 2.5, 0, 5E-05, -0.048, 2.5
 217233905, 0, 5E-05, -0.02, 2.5, 0, 5E-05, -0.07300001, 2.5
 217433825, 0, 5E-05, -0.035, 2.5, 0, 5E-05, -0.02, 2.5
 217633745, 0, 5E-05, -0.045, 2.5, 0, 5E-05, -0.035, 2.5
 217833665, 0, 5E-05, 0.012, 2.5, 0, 5E-05, -0.045, 2.5
 218033585, 0, 5E-05, 0.017, 2.5, 0, 5E-05, 0.012, 2.5
 218233505, 0, 5E-05, 0.001, 2.5, 0, 5E-05, 0.017, 2.5
 218434258, 0, 5E-05, 0.017, 2.5, 0, 5E-05, 0.001, 2.5
 218634178, 0, 5E-05, 0.036, 2.5, 0, 5E-05, 0.017, 2.5
 218834098, 0, 5E-05, 0.005, 2.5, 0, 5E-05, 0.036, 2.5
 219034018, 0, 5E-05, 0.025, 2.5, 0, 5E-05, 0.005, 2.5
 219233938, 0, 5E-05, -0.006, 2.5, 0, 5E-05, 0.025, 2.5
 219433858, 0, 5E-05, -0.029, 2.5, 0, 5E-05, -0.006, 2.5
 219633778, 0, 5E-05, 0.044, 2.5, 0, 5E-05, -0.029, 2.5
 219833698, 0, 5E-05, -0.03, 2.5, 0, 5E-05, 0.044, 2.5
 220033618, 0, 5E-05, 0.006, 2.5, 0, 5E-05, -0.03, 2.5
 220233538, 0, 5E-05, 0, 2.5, 0, 5E-05, 0.006, 2.5
 220434291, 0, 5E-05, -0.035, 2.5, 0, 5E-05, 0, 2.5
 220634211, 0, 5E-05, -0.001, 2.5, 0, 5E-05, -0.035, 2.5
 220834131, 0, 5E-05, -0.022, 2.5, 0, 5E-05, -0.001, 2.5
 221034051, 0, 5E-05, -0.031, 2.5, 0, 5E-05, -0.022, 2.5
 221233971, 0, 5E-05, -0.021, 2.5, 0, 5E-05, -0.031, 2.5
 221433891, 0, 5E-05, -0.09200001, 2.5, 0, 5E-05, -0.021, 2.5
 221633811, 0, 5E-05, -0.009000001, 2.5, 0, 5E-05, -0.09200001, 2.5
 221833731, 0, 5E-05, 0.039, 2.5, 0, 5E-05, -0.009000001, 2.5
 222033651, 0, 5E-05, 0.017, 2.5, 0, 5E-05, 0.039, 2.5
 222233571, 0, 5E-05, 0.005, 2.5, 0, 5E-05, 0.017, 2.5
 222433491, 0, 5E-05, -0.015, 2.5, 0, 5E-05, 0.005, 2.5
 222634244, 0, 5E-05, -0.044, 2.5, 0, 5E-05, -0.015, 2.5
 222834164, 0, 5E-05, -0.005, 2.5, 0, 5E-05, -0.044, 2.5
 223034084, 0, 5E-05, 0.026, 2.5, 0, 5E-05, -0.005, 2.5
 223234004, 0, 5E-05, 0.022, 2.5, 0, 5E-05, 0.026, 2.5
 223433924, 0, 5E-05, -0.005, 2.5, 0, 5E-05, 0.022, 2.5
 223633844, 0, 5E-05, -0.033, 2.5, 0, 5E-05, -0.005, 2.5
 223833764, 0, 5E-05, -0.002, 2.5, 0, 5E-05, -0.033, 2.5
 224033684, 0, 5E-05, 0.008, 2.5, 0, 5E-05, -0.002, 2.5
 224233604, 0, 5E-05, 0.003, 2.5, 0, 5E-05, 0.008, 2.5
 224433524, 0, 5E-05, 0.068, 2.5, 0, 5E-05, 0.003, 2.5
 224634277, 0, 5E-05, 0.031, 2.5, 0, 5E-05, 0.068, 2.5
 224834197, 0, 5E-05, 0.025, 2.5, 0, 5E-05, 0.031, 2.5
 225034117, 0, 5E-05, -0.057, 2.5, 0, 5E-05, 0.025, 2.5
 225234037, 0, 5E-05, -0.061, 2.5, 0, 5E-05, -0.057, 2.5
 225433957, 0, 5E-05, 0.006, 2.5, 0, 5E-05, -0.061, 2.5
 225633877, 0, 5E-05, 0.007, 2.5, 0, 5E-05, 0.006, 2.5
 225833797, 0, 5E-05, 0.027, 2.5, 0, 5E-05, 0.007, 2.5
 226033717, 0, 5E-05, 0.002, 2.5, 0, 5E-05, 0.027, 2.5
 226233637, 0, 5E-05, 0.006, 2.5, 0, 5E-05, 0.002, 2.5
 226433557, 0, 5E-05, -0.033, 2.5, 0, 5E-05, 0.006, 2.5
 226633477, 0, 5E-05, -0.012, 2.5, 0, 5E-05, -0.033, 2.5
 226834230, 0, 5E-05, 0.009000001, 2.5, 0, 5E-05, -0.012, 2.5
 227034150, 0, 5E-05, -0.023, 2.5, 0, 5E-05, 0.009000001, 2.5
 227234070, 0, 5E-05, -0.007, 2.5, 0, 5E-05, -0.023, 2.5
 227433990, 0, 5E-05, 0.006, 2.5, 0, 5E-05, -0.007, 2.5
 227633910, 0, 5E-05, -0.051, 2.5, 0, 5E-05, 0.006, 2.5
 227833830, 0, 5E-05, -0.034, 2.5, 0, 5E-05, -0.051, 2.5
 228033750, 0, 5E-05, -0.035, 2.5, 0, 5E-05, -0.034, 2.5
 228233670, 0, 5E-05, -0.01, 2.5, 0, 5E-05, -0.035, 2.5
 228433590, 0, 5E-05, -0.007, 2.5, 0, 5E-05, -0.01, 2.5
 228633510, 0, 5E-05, -0.027, 2.5, 0, 5E-05, -0.007, 2.5
 228834263, 0, 5E-05, -0.071, 2.5, 0, 5E-05, -0.027, 2.5
 229034183, 0, 5E-05, -0.019, 2.5, 0, 5E-05, -0.071, 2.5
 229234103, 0, 5E-05, -0.059, 2.5, 0, 5E-05, -0.019, 2.5
 229434023, 0, 5E-05, -0.001, 2.5, 0, 5E-05, -0.059, 2.5
 229633943, 0, 5E-05, 0.005, 2.5, 0, 5E-05, -0.001, 2.5
 229833863, 0, 5E-05, 0.021, 2.5, 0, 5E-05, 0.005, 2.5
 230033783, 0, 5E-05, -0.051, 2.5, 0, 5E-05, 0.021, 2.5
 230233703, 0, 5E-05, -0.058, 2.5, 0, 5E-05, -0.051, 2.5
 230433623, 0, 5E-05, -0.002, 2.5, 0, 5E-05, -0.058, 2.5
 230633543, 0, 5E-05, -0.001, 2.5, 0, 5E-05, -0.002, 2.5
 230834296, 0, 5E-05, 0.031, 2.5, 0, 5E-05, -0.001, 2.5
 231034216, 0, 5E-05, 0.019, 2.5, 0, 5E-05, 0.031, 2.5
 231234136, 0, 5E-05, -0.017, 2.5, 0, 5E-05, 0.019, 2.5
 231434056, 0, 5E-05, -0.035, 2.5, 0, 5E-05, -0.017, 2.5
 231633976, 0, 5E-05, -0.046, 2.5, 0, 5E-05, -0.035, 2.5
 231833896, 0, 5E-05, -0.02, 2.5, 0, 5E-05, -0.046, 2.5
 232033816, 0, 5E-05, -0.012, 2.5, 0, 5E-05, -0.02, 2.5
 232233736, 0, 5E-05, 0.026, 2.5, 0, 5E-05, -0.012, 2.5
 232433656, 0, 5E-05, 0.031, 2.5, 0, 5E-05, 0.026, 2.5
 232633576, 0, 5E-05, 0.08000001, 2.5, 0, 5E-05, 0.031, 2.5
 232833496, 0, 5E-05, -0.018, 2.5, 0, 5E-05, 0.08000001, 2.5
 233034249, 0, 5E-05, -0.1, 2.5, 0, 5E-05, -0.018, 2.5
 233234169, 0, 5E-05, -0.102, 2.5, 0, 5E-05, -0.1, 2.5
 233434089, 0, 5E-05, -0.068, 2.5, 0, 5E-05, -0.102, 2.5
 233634009, 0, 5E-05, 0.029, 2.5, 0, 5E-05, -0.068, 2.5
 233833929, 0, 5E-05, -0.002, 2.5, 0, 5E-05, 0.029, 2.5
 234033849, 0, 5E-05, 0.06900001, 2.5, 0, 5E-05, -0.002, 2.5
 234233769, 0, 5E-05, 0.051, 2.5, 0, 5E-05, 0.06900001, 2.5
 234433689, 0, 5E-05, 0.038, 2.5, 0, 5E-05, 0.051, 2.5
 234633609, 0, 5E-05, 0.037, 2.5, 0, 5E-05, 0.038, 2.5
 234833529, 0, 5E-05, -0.002, 2.5, 0, 5E-05, 0.037, 2.5
 235034282, 0, 5E-05, 0.03, 2.5, 0, 5E-05, -0.002, 2.5
 235234202, 0, 5E-05, -0.007, 2.5, 0, 5E-05, 0.03, 2.5
 235434122, 0, 5E-05, 0.004, 2.5, 0, 5E-05, -0.007, 2.5
 235634042, 0, 5E-05, -0.036, 2.5, 0, 5E-05, 0.004, 2.5
 235833962, 0, 5E-05, 0.042, 2.5, 0, 5E-05, -0.036, 2.5
 236033882, 0, 5E-05, 0.054, 2.5, 0, 5E-05, 0.042, 2.5
 236233802, 0, 5E-05, 0.042, 2.5, 0, 5E-05, 0.054, 2.5
 236433722, 0, 5E-05, -0.027, 2.5, 0, 5E-05, 0.042, 2.5
 236633642, 0, 5E-05, -0.094, 2.5, 0, 5E-05, -0.027, 2.5
 236833562, 0, 5E-05, -0.022, 2.5, 0, 5E-05, -0.094, 2.5
 237033482, 0, 5E-05, -0.01, 2.5, 0, 5E-05, -0.022, 2.5
 237234235, 0, 5E-05, 0.024, 2.5, 0, 5E-05, -0.01, 2.5
 237434155, 0, 5E-05, -0.057, 2.5, 0, 5E-05, 0.024, 2.5
 237634075, 0, 5E-05, -0.02, 2.5, 0, 5E-05, -0.057, 2.5
 237833995, 0, 5E-05, -0.011, 2.5, 0, 5E-05, -0.02, 2.5
 238033915, 0, 5E-05, -0.04, 2.5, 0, 5E-05, -0.011, 2.5
 238233835, 0, 5E-05, -0.02, 2.5, 0, 5E-05, -0.04, 2.5
 238433755, 0, 5E-05, -0.026, 2.5, 0, 5E-05, -0.02, 2.5
 238633675, 0, 5E-05, -0.024, 2.5, 0, 5E-05, -0.026, 2.5
 238833595, 0, 5E-05, -0.06900001, 2.5, 0, 5E-05, -0.024, 2.5
 239033515, 0, 5E-05, -0.006, 2.5, 0, 5E-05, -0.06900001, 2.5
 239234268, 0, 5E-05, -0.05, 2.5, 0, 5E-05, -0.006, 2.5
 239434188, 0, 5E-05, -0.009000001, 2.5, 0, 5E-05, -0.05, 2.5
 239634108, 0, 5E-05, 0.087, 2.5, 0, 5E-05, -0.009000001, 2.5
 239834028, 0, 5E-05, 0.078, 2.5, 0, 5E-05, 0.087, 2.5
 240033948, 0, 5E-05, -0.057, 2.5, 0, 5E-05, 0.078, 2.5
 240233868, 0, 5E-05, -0.058, 2.5, 0, 5E-05, -0.057, 2.5
 240433788, 0, 5E-05, -0.025, 2.5, 0, 5E-05, -0.058, 2.5
 240633708, 0, 5E-05, -0.063, 2.5, 0, 5E-05, -0.025, 2.5
 240833628, 0, 5E-05, 0, 2.5, 0, 5E-05, -0.063, 2.5
 241033548, 0, 5E-05, 0.016, 2.5, 0, 5E-05, 0, 2.5
 241234301, 0, 5E-05, 0.004, 2.5, 0, 5E-05, 0.016, 2.5
 241434221, 0, 5E-05, 0.038, 2.5, 0, 5E-05, 0.004, 2.5
 241634141, 0, 5E-05, 0.018, 2.5, 0, 5E-05, 0.038, 2.5
 241834061, 0, 5E-05, -0.032, 2.5, 0, 5E-05, 0.018, 2.5
 242033981, 0, 5E-05, 0.106, 2.5, 0, 5E-05, -0.032, 2.5
 242233901, 0, 5E-05, 0.054, 2.5, 0, 5E-05, 0.106, 2.5
 242433821, 0, 5E-05, 0.02, 2.5, 0, 5E-05, 0.054, 2.5
 242633741, 0, 5E-05, -0.016, 2.5, 0, 5E-05, 0.02, 2.5
 242833661, 0, 5E-05, -0.032, 2.5, 0, 5E-05, -0.016, 2.5
 243033581, 0, 5E-05, 0.011, 2.5, 0, 5E-05, -0.032, 2.5
 243233501, 0, 5E-05, 0.046, 2.5, 0, 5E-05, 0.011, 2.5
 243434254, 0, 5E-05, 0.045, 2.5, 0, 5E-05, 0.046, 2.5
 243634174, 0, 5E-05, 0.033, 2.5, 0, 5E-05, 0.045, 2.5
 243834094, 0, 5E-05, -0.016, 2.5, 0, 5E-05, 0.033, 2.5
 244034014, 0, 5E-05, -0.074, 2.5, 0, 5E-05, -0.016, 2.5
 244233934, 0, 5E-05, 0.01, 2.5, 0, 5E-05, -0.074, 2.5
 244433854, 29.034, -2.366, 0.07, 2.5, 0, 5E-05, 0.01, 2.5
 244633774, 29.034, -2.385, 0.027, 2.5, 29.034, -2.366, 0.07, 2.5
 244833694, 29.037, -2.354, -0.018, 2.5, 29.034, -2.385, 0.027, 2.5
 245033614, 29.041, -2.242, -0.11, 2.5, 29.037, -2.354, -0.018, 2.5
 245233534, 27.766, -4.566, -0.07300001, 2.5, 29.041, -2.242, -0.11, 2.5
 245434287, 25.18, -7.865, 1.265, 2.5, 27.766, -4.566, -0.07300001, 2.5
 245634207, 20.619, -13.371, 0.169, 2.5, 25.18, -7.865, 1.265, 2.5
 245834127, 16.243, -15.904, -1.711, 2.5, 20.619, -13.371, 0.169, 2.5
 246034047, 13.945, -15.962, -1.653, 2.5, 16.243, -15.904, -1.711, 2.5
 246233967, 12.357, -15.66, -0.788, 2.5, 13.945, -15.962, -1.653, 2.5
 246433887, 10.676, -15.541, -0.161, 2.5, 12.357, -15.66, -0.788, 2.5
 246633807, 8.887, -15.509, 0.087, 2.5, 10.676, -15.541, -0.161, 2.5
 246833727, 7.246, -15.381, 0.243, 2.5, 8.887, -15.509, 0.087, 2.5
 247033647, 5.792, -15.161, 0.477, 2.5, 7.246, -15.381, 0.243, 2.5
 247233567, 4.409, -14.912, 0.723, 2.5, 5.792, -15.161, 0.477, 2.5
 247433487, 3.026, -14.64, 0.882, 2.5, 4.409, -14.912, 0.723, 2.5
 247634240, 1.67, -14.311, 0.956, 2.5, 3.026, -14.64, 0.882, 2.5
 247834160, 0.41, -13.913, 1.01, 2.5, 1.67, -14.311, 0.956, 2.5
 248034080, -0.7460001, -13.457, 1.082, 2.5, 0.41, -13.913, 1.01, 2.5
 248234000, -1.826, -12.951, 1.16, 2.5, -0.7460001, -13.457, 1.082, 2.5
 248433920, -2.847, -12.4, 1.221, 2.5, -1.826, -12.951, 1.16, 2.5
 248633840, -3.807, -11.8, 1.256, 2.5, -2.847, -12.4, 1.221, 2.5
 248833760, -4.694, -11.158, 1.274, 2.5, -3.807, -11.8, 1.256, 2.5
 249033680, -5.485, -10.487, 1.298, 2.5, -4.694, -11.158, 1.274, 2.5
 249233600, -6.178, -9.806001, 1.335, 2.5, -5.485, -10.487, 1.298, 2.5
 249433520, -6.785, -9.123, 1.373, 2.5, -6.178, -9.806001, 1.335, 2.5
 249634273, -7.313, -8.446, 1.407, 2.5, -6.785, -9.123, 1.373, 2.5
 249834193, -7.773, -7.777, 1.436, 2.5, -7.313, -8.446, 1.407, 2.5
 250034113, -8.166, -7.13, 1.463, 2.5, -7.773, -7.777, 1.436, 2.5
 250234033, -8.496, -6.507, 1.488, 2.5, -8.166, -7.13, 1.463, 2.5
 250433953, -8.771001, -5.916, 1.511, 2.5, -8.496, -6.507, 1.488, 2.5
 250633873, -8.997001, -5.36, 1.529, 2.5, -8.771001, -5.916, 1.511, 2.5
 250833793, -9.18, -4.84, 1.548, 2.5, -8.997001, -5.36, 1.529, 2.5
 251033713, -9.328, -4.357, 1.57, 2.5, -9.18, -4.84, 1.548, 2.5
 251233633, -9.449, -3.907, 1.589, 2.5, -9.328, -4.357, 1.57, 2.5
 251433553, -9.546, -3.487, 1.6, 2.5, -9.449, -3.907, 1.589, 2.5
 251633473, -9.623, -3.096, 1.6, 2.5, -9.546, -3.487, 1.6, 2.5
 251834226, -9.682, -2.737, 1.594, 2.5, -9.623, -3.096, 1.6, 2.5
 252034146, -9.722, -2.412, 1.585, 2.5, -9.682, -2.737, 1.594, 2.5
 252234066, -9.749001, -2.115, 1.577, 2.5, -9.722, -2.412, 1.585, 2.5
 252433986, -9.765, -1.84, 1.571, 2.5, -9.749001, -2.115, 1.577, 2.5
 252633906, -9.772, -1.587, 1.562, 2.5, -9.765, -1.84, 1.571, 2.5
 252833826, -9.772, -1.356, 1.557, 2.5, -9.772, -1.587, 1.562, 2.5
 253033746, -9.766001, -1.145, 1.559, 2.5, -9.772, -1.356, 1.557, 2.5
 253233666, -9.757001, -0.95, 1.563, 2.5, -9.766001, -1.145, 1.559, 2.5
 253433586, -9.747001, -0.77, 1.557, 2.5, -9.757001, -0.95, 1.563, 2.5
 253633506, -9.733001, -0.6070001, 1.539, 2.5, -9.747001, -0.77, 1.557, 2.5
 253834259, -9.714001, -0.46, 1.519, 2.5, -9.733001, -0.6070001, 1.539, 2.5
 254034179, -9.691, -0.325, 1.507, 2.5, -9.714001, -0.46, 1.519, 2.5
 254234099, -9.666, -0.201, 1.5, 2.5, -9.691, -0.325, 1.507, 2.5
 254434019, -9.64, -0.089, 1.494, 2.5, -9.666, -0.201, 1.5, 2.5
 254633939, -9.614, 0.009000001, 1.483, 2.5, -9.64, -0.089, 1.494, 2.5
 254833859, -9.587001, 0.097, 1.469, 2.5, -9.614, 0.009000001, 1.483, 2.5
 255033779, -9.558001, 0.175, 1.458, 2.5, -9.587001, 0.097, 1.469, 2.5
 255233699, -9.529, 0.246, 1.449, 2.5, -9.558001, 0.175, 1.458, 2.5
 255433619, -9.498, 0.312, 1.442, 2.5, -9.529, 0.246, 1.449, 2.5
 255633539, -9.467, 0.37, 1.436, 2.5, -9.498, 0.312, 1.442, 2.5
 255834292, -9.439, 0.421, 1.43, 2.5, -9.467, 0.37, 1.436, 2.5
 256034212, -9.411, 0.466, 1.425, 2.5, -9.439, 0.421, 1.43, 2.5
 256234132, -9.384001, 0.508, 1.419, 2.5, -9.411, 0.466, 1.425, 2.5
 256434052, -9.358001, 0.546, 1.412, 2.5, -9.384001, 0.508, 1.419, 2.5
 256633972, -9.332001, 0.5790001, 1.406, 2.5, -9.358001, 0.546, 1.412, 2.5
 256833892, -9.307, 0.608, 1.399, 2.5, -9.332001, 0.5790001, 1.406, 2.5
 257033812, -9.282001, 0.634, 1.391, 2.5, -9.307, 0.608, 1.399, 2.5
 257233732, -9.257, 0.6580001, 1.382, 2.5, -9.282001, 0.634, 1.391, 2.5
 257433652, -9.232, 0.68, 1.375, 2.5, -9.257, 0.6580001, 1.382, 2.5
 257633572, -9.196, 0.701, 1.37, 2.5, -9.232, 0.68, 1.375, 2.5
 257833492, -9.165, 0.72, 1.365, 2.5, -9.196, 0.701, 1.37, 2.5
 258034245, -9.14, 0.737, 1.358, 2.5, -9.165, 0.72, 1.365, 2.5
 258234165, -9.116, 0.754, 1.351, 2.5, -9.14, 0.737, 1.358, 2.5
 258434085, -9.092, 0.771, 1.344, 2.5, -9.116, 0.754, 1.351, 2.5
