TimeUS,CAN,CAE,CAD,CAe,NAN,NAE,NAD,NAe,m10,m00,Gye
 170358496, -4.072902E-06, 5.348203E-05, -1.987616E-06, 6.484905E-06, 0, 0, 0, 0, -0.9999977, -0.001449278, 1.854556
 170430967, -0.3025461, 3.670489, -0.1938639, 0.4422685, -0.2259416, 2.834943, 0.1693808, 0.442262, -0.9999977, -0.00144966, 27.83018
 170630887, -0.2260046, 2.842483, 0.1691289, 0.4427881, -0.0001654832, 0.004424527, -0.0003299763, 0.0005187925, -0.9999977, -0.0014474, 148.6017
 170830807, -0.0003553916, 0.01174414, -0.0004247467, 0.00104407, -1.52036E-05, 0.004344316, -0.0002288129, 0.0005187925, -0.9999977, -0.00144437, 0.3503954
 171030727, -0.0001486338, 0.01168154, -0.0005414334, 0.00104407, 8.557957E-06, 0.004389989, 5.352382E-05, 0.0005187925, -0.9999977, -0.001441103, 0.3503954
 171231480, 0.0003306789, 0.01173734, -0.0001914069, 0.001046232, 0.0002354045, 0.004456775, -0.0003357692, 0.0005209541, -0.9999977, -0.001435929, 0.3511209
 171431400, 8.439796E-05, 0.01184737, -0.000623161, 0.001046232, 0.0001346638, 0.004278424, 0.0001269643, 0.0005187925, -0.9999977, -0.001433114, 0.3511209
 171631320, 0.0001266411, 0.01166447, -0.0003221034, 0.00104407, 0.0002634504, 0.004601824, -0.0002871759, 0.0005187925, -0.9999977, -0.00142888, 0.3503954
 171831240, 0.0001792884, 0.01212109, -0.0005262724, 0.00104407, 0.0002371247, 0.004338731, 0.0003310119, 0.0005187925, -0.9999977, -0.001421673, 0.3503954
 172031160, 0.0002521283, 0.01203542, 0.0001801451, 0.00104407, 9.788805E-05, 0.004763969, -0.0001260885, 0.0005187925, -0.9999977, -0.001415, 0.3503954
 172231080, 0.0002531187, 0.01209719, -0.0004167092, 0.00104407, -0.0002143071, 0.003953455, -0.0003456831, 0.0005187925, -0.9999977, -0.001407962, 0.3503954
 172431000, 1.716427E-05, 0.01124751, -0.0004616439, 0.00104407, 0.0002387031, 0.004077672, 3.013597E-06, 0.0005187925, -0.9999977, -0.001400471, 0.3503954
 172630920, 0.0004293938, 0.01146095, 1.193157E-05, 0.00104407, -0.0001510966, 0.004286844, 0.0003393186, 0.0005187925, -0.9999977, -0.001408582, 0.3503954
 172830840, 8.111037E-06, 0.0117938, 0.0005346197, 0.00104407, -3.399332E-05, 0.004370972, -5.20748E-05, 0.0005187925, -0.9999977, -0.001415977, 0.3503954
 173030760, -0.000325264, 0.01167918, -0.0003398607, 0.00104407, -0.0005321185, 0.004033744, -0.0004073135, 0.0005187925, -0.9999977, -0.001422529, 0.3503954
 173230680, -0.0005289069, 0.01146483, -0.0007679669, 0.00104407, -0.0001019967, 0.004297264, -0.0002187474, 0.0005187925, -0.9999977, -0.001428359, 0.3503954
 173431433, -0.0002535431, 0.01193648, -0.0004850168, 0.001046232, 0.00015303, 0.004525263, -0.0005906104, 0.0005209541, -0.9999977, -0.001433283, 0.3511209
 173631353, 0.0001219018, 0.01218258, -0.0009262157, 0.001046232, 0.0003046714, 0.004526908, 4.80257E-05, 0.0005187925, -0.9999976, -0.001437524, 0.3511209
 173831273, 0.0004326183, 0.01192616, -0.0001249815, 0.00104407, 0.000146138, 0.003887119, 5.071994E-05, 0.0005187925, -0.9999976, -0.001441673, 0.3503954
 174031193, 0.0002163862, 0.01129961, -0.0001570729, 0.00104407, 0.0002478801, 0.004034216, -0.0004421777, 0.0005187925, -0.9999976, -0.001445998, 0.3503954
 174231113, 1.641145E-05, 0.01123782, -0.0005979578, 0.00104407, -4.514125E-05, 0.003833098, 0.0004684743, 0.0005187925, -0.9999976, -0.001448976, 0.3503954
 174431033, -0.0001911712, 0.01131421, 0.0007114033, 0.00104407, -0.0001319372, 0.004421168, -2.570316E-05, 0.0005187925, -0.9999976, -0.00145025, 0.3503954
 174630953, -0.0002086129, 0.01182139, -0.0001820098, 0.00104407, 0.0003037729, 0.004362012, -0.0002805684, 0.0005187925, -0.9999977, -0.001451332, 0.3503954
 174830873, 0.0002450407, 0.01189284, -0.0002897321, 0.00104407, 0.0001889921, 0.003623527, 6.987279E-05, 0.0005187925, -0.9999977, -0.00145133, 0.3503954
 175030793, 4.99347E-05, 0.01080364, -0.0001715903, 0.00104407, -0.0001298928, 0.004083205, -0.0004559469, 0.0005187925, -0.9999977, -0.001451481, 0.3503954
 175230713, -0.0004615094, 0.01130039, -0.0005240358, 0.00104407, -0.0002822772, 0.004374437, -0.000445525, 0.0005187925, -0.9999977, -0.001451119, 0.3503954
 175431466, -0.0003838991, 0.01188939, -0.0004292094, 0.001046232, -0.0004326264, 0.003997113, 0.0002379407, 0.0005209541, -0.9999977, -0.001447718, 0.3511209
 175631386, -0.0005389788, 0.01171303, 9.703093E-05, 0.001046232, -0.000295202, 0.004354819, -0.000172546, 0.0005187925, -0.9999977, -0.001445555, 0.3511209
 175831306, -0.000124949, 0.01163935, -0.0003971216, 0.00104407, 0.0003669568, 0.004204992, 1.592356E-05, 0.0005187925, -0.9999977, -0.00144155, 0.3503954
 176031226, 0.0003281313, 0.01168314, -0.0003100621, 0.00104407, -0.0001065999, 0.0040276, 0.0002331039, 0.0005187925, -0.9999977, -0.00143671, 0.3503954
 176231146, -0.000154884, 0.01123621, 0.000393275, 0.00104407, 0.0002211589, 0.004157325, 0.0001366986, 0.0005187925, -0.9999977, -0.001432743, 0.3503954
 176431066, 0.0002586852, 0.01129145, -0.000281978, 0.00104407, -0.0001195904, 0.00447931, -0.0001946898, 0.0005187925, -0.9999977, -0.001428879, 0.3503954
 176630986, -5.175089E-05, 0.01207602, -0.0003702756, 0.00104407, -5.912541E-05, 0.004379141, -0.0002780124, 0.0005187925, -0.9999977, -0.001423034, 0.3503954
 176830906, 0.0001037036, 0.01153351, -0.000378954, 0.00104407, -0.0004205101, 0.004362156, -0.0004924401, 0.0005187925, -0.9999977, -0.001417963, 0.3503954
 177030826, -0.0003516593, 0.01193054, -0.0005827968, 0.00104407, -0.0002355079, 0.004411134, -0.0003795095, 0.0005187925, -0.9999977, -0.001413054, 0.3503954
 177230746, 8.335379E-05, 0.01191513, -0.0005914613, 0.00104407, 1.167513E-05, 0.00431894, -0.0003724945, 0.0005187925, -0.9999977, -0.001406078, 0.3503954
 177430666, 0.0002189548, 0.01173798, -0.000642635, 0.00104407, 0.0003517952, 0.004112102, -0.0005611296, 0.0005187925, -0.9999977, -0.001398526, 0.3503954
 177631419, 0.0005339544, 0.01129588, -0.0004364136, 0.001046232, 7.744344E-05, 0.003768813, 0.0001894586, 0.0005209541, -0.9999977, -0.001389224, 0.3511209
 177831339, 0.0004832273, 0.01128309, 0.0001335289, 0.001046232, 0.0002054351, 0.004030791, 0.0002206218, 0.0005187925, -0.9999977, -0.001396539, 0.3511209
 178031259, 0.0002503074, 0.0112263, -0.0001263673, 0.00104407, 0.0001685497, 0.003920822, 0.0002193408, 0.0005187925, -0.9999978, -0.001401072, 0.3503954
 178231179, 0.0002469548, 0.01129378, 0.0002320625, 0.00104407, 0.0002540939, 0.004153972, -3.366673E-05, 0.0005187925, -0.9999977, -0.001405488, 0.3503954
 178431099, 0.0001032217, 0.01137435, -0.000247022, 0.00104407, -0.0001083099, 0.004181832, 0.0002367586, 0.0005187925, -0.9999977, -0.001410625, 0.3503954
 178631019, -0.0003174588, 0.01153471, 0.0001016496, 0.00104407, -0.0001102331, 0.003972115, 0.0004122705, 0.0005187925, -0.9999978, -0.001415237, 0.3503954
 178830939, 0.0001111512, 0.01132284, 0.0002958699, 0.00104407, -4.479222E-05, 0.004315237, 0.0001664986, 0.0005187925, -0.9999978, -0.001417351, 0.3503954
 179030859, 0.0002683831, 0.0116693, -9.400617E-06, 0.00104407, 0.0001506753, 0.004254964, -3.668983E-06, 0.0005187925, -0.9999978, -0.001419125, 0.3503954
 179230779, 2.159048E-06, 0.01114195, -0.0004077508, 0.00104407, -3.181409E-06, 0.003915926, 3.980951E-05, 0.0005187925, -0.9999978, -0.001420056, 0.3503954
 179430699, -0.0002394725, 0.01083028, -0.0003131114, 0.00104407, -0.0003801312, 0.004160083, -0.0005492539, 0.0005187925, -0.9999977, -0.001419988, 0.3503954
 179631452, -0.000216758, 0.01173436, -0.0007491551, 0.001046232, 7.419276E-05, 0.004624837, -0.0003954899, 0.0005209541, -0.9999978, -0.001419886, 0.3511209
 179831372, 9.117703E-05, 0.01196428, -0.0005651557, 0.001046232, 0.000125754, 0.004364005, 0.0002406004, 0.0005187925, -0.9999977, -0.001420965, 0.3511209
 180031292, -8.39128E-05, 0.01156025, 0.0003034653, 0.00104407, -0.0001950389, 0.004211375, -0.0003048952, 0.0005187925, -0.9999977, -0.001419329, 0.3503954
 180231212, -0.0002278684, 0.01161197, -0.0004499637, 0.00104407, -9.609007E-05, 0.00424301, -0.0002046005, 0.0005187925, -0.9999977, -0.001419343, 0.3503954
 180431132, -0.0002069106, 0.01161696, -0.0005900966, 0.00104407, 0.0002183234, 0.004304805, 0.0001911257, 0.0005187925, -0.9999977, -0.001419054, 0.3503954
 180631052, 0.0001199198, 0.01169229, 1.326383E-05, 0.00104407, -0.0001367865, 0.004341373, -0.0001601567, 0.0005187925, -0.9999977, -0.001416691, 0.3503954
 180830972, -0.0001850832, 0.01130209, -0.0003625849, 0.00104407, 0.0002984203, 0.003881488, -0.0001965058, 0.0005187925, -0.9999977, -0.001414185, 0.3503954
 181030892, 0.0001284132, 0.01091016, -0.0003867342, 0.00104407, -0.0003817659, 0.004337108, -5.69521E-05, 0.0005187925, -0.9999977, -0.001413274, 0.3503954
 181230812, -0.000653652, 0.01159574, -0.0002455325, 0.00104407, 0.0002719979, 0.004185671, -0.0001521789, 0.0005187925, -0.9999977, -0.001411428, 0.3503954
 181430732, -3.405E-05, 0.01130811, -0.00023321, 0.00104407, 0.0001983025, 0.003898798, 9.82535E-05, 0.0005187925, -0.9999977, -0.001408361, 0.3503954
 181631485, 0.0004736548, 0.01098039, 0.0001454828, 0.001046232, 0.0003027862, 0.00421551, 0.0004283486, 0.0005209541, -0.9999977, -0.001403994, 0.3511209
 181831405, 0.0004234501, 0.01170564, 0.0003267312, 0.001046232, -0.0002358133, 0.004372139, -0.0001060824, 0.0005187925, -0.9999977, -0.001401574, 0.3511209
 182031325, 5.548601E-05, 0.01182119, -0.0002974749, 0.00104407, -7.432608E-05, 0.004498248, -0.0001303139, 0.0005187925, -0.9999977, -0.001398068, 0.3503954
 182231245, 0.0003536968, 0.01184577, 2.090927E-05, 0.00104407, 0.0002073937, 0.004353797, 0.0001722076, 0.0005187925, -0.9999977, -0.001392878, 0.3503954
 182431165, -0.0002066949, 0.01162398, 0.0001775115, 0.00104407, -0.0005158417, 0.003891495, -5.084983E-05, 0.0005187925, -0.9999977, -0.001389085, 0.3503954
 182631085, -0.0002799693, 0.01130503, -0.0001274815, 0.00104407, 0.0002127894, 0.00443213, -3.167316E-05, 0.0005187925, -0.9999977, -0.001384357, 0.3503954
 182831005, 1.092811E-05, 0.01200225, 0.0002083326, 0.00104407, -5.894873E-06, 0.004469761, 6.710348E-05, 0.0005187925, -0.9999977, -0.001379974, 0.3503954
 183030925, 0.0001247372, 0.01196302, 0.0001039935, 0.00104407, 0.0003514734, 0.004500804, -0.0001185253, 0.0005187925, -0.9999977, -0.001390608, 0.3503954
 183230845, 0.0003866285, 0.01181381, -8.986212E-05, 0.00104407, 0.0001119756, 0.00433349, 4.606669E-05, 0.0005187925, -0.9999977, -0.001399706, 0.3503954
 183430765, -0.0001312204, 0.01150784, 9.66627E-05, 0.00104407, 4.607989E-05, 0.004137583, 6.096545E-05, 0.0005187925, -0.9999977, -0.001409006, 0.3503954
 183630685, 5.261912E-05, 0.01163786, 3.959978E-05, 0.00104407, 6.217105E-05, 0.004465505, 0.0001940571, 0.0005187925, -0.9999977, -0.001416712, 0.3503954
 183831438, -0.0001889592, 0.01180535, 1.15869E-05, 0.001046232, 0.0001474681, 0.004122406, -0.0003557184, 0.0005209541, -0.9999977, -0.001424051, 0.3511209
 184031358, -4.72763E-05, 0.01134922, -0.0006883939, 0.001046232, -0.0002377564, 0.004084253, 2.644672E-05, 0.0005187925, -0.9999976, -0.001429851, 0.3511209
 184231278, -0.0003259022, 0.01154675, -0.0002197567, 0.00104407, -6.197407E-06, 0.0046087, -6.634084E-05, 0.0005187925, -0.9999976, -0.001432867, 0.3503954
 184431198, 6.226809E-05, 0.01205762, -0.0003445428, 0.00104407, -9.451043E-05, 0.004572015, -3.410525E-05, 0.0005187925, -0.9999976, -0.001436383, 0.3503954
 184631118, -9.66474E-05, 0.01207452, -1.070782E-05, 0.00104407, 0.0001360018, 0.004171198, 7.566881E-05, 0.0005187925, -0.9999976, -0.001441014, 0.3503954
 184831038, 5.689758E-05, 0.01132049, -1.055176E-05, 0.00104407, -0.0003146695, 0.003879404, -0.0001439031, 0.0005187925, -0.9999976, -0.001445476, 0.3503954
 185030958, -0.000202627, 0.01133684, 1.845219E-05, 0.00104407, -0.0002877658, 0.004843668, -0.0003933286, 0.0005187925, -0.9999976, -0.001448089, 0.3503954
 185230878, -0.0004675092, 0.0124458, -0.0008732617, 0.00104407, -0.0003870495, 0.00456981, 0.0001411219, 0.0005187925, -0.9999976, -0.001450248, 0.3503954
 185430798, -0.0004012906, 0.01202413, 0.0002129132, 0.00104407, 0.0003742158, 0.003836805, 0.0001896207, 0.0005187925, -0.9999976, -0.001452409, 0.3503954
 185630718, 0.0003889046, 0.01103926, -9.892795E-06, 0.00104407, -0.0001198894, 0.004170188, -0.0003251837, 0.0005187925, -0.9999976, -0.00145246, 0.3503954
 185831471, -0.0002338844, 0.01165954, -0.0005170628, 0.001046232, -3.170065E-05, 0.004075838, 0.0001761276, 0.0005209541, -0.9999976, -0.001452524, 0.3511209
 186031391, 0.0001610626, 0.01138703, -0.0003290927, 0.001046232, 0.0001831379, 0.003899174, -0.0004791225, 0.0005187925, -0.9999976, -0.001453609, 0.3511209
 186231311, 0.0004460737, 0.01109076, -0.0005206694, 0.00104407, 0.0003799328, 0.004076361, 0.000173709, 0.0005187925, -0.9999976, -0.001452556, 0.3503954
 186431231, 0.000191849, 0.01172962, -4.66196E-05, 0.00104407, -0.0001006498, 0.004761267, 3.899682E-05, 0.0005187925, -0.9999976, -0.001450272, 0.3503954
 186631151, -0.0001295119, 0.01234602, -0.0004979419, 0.00104407, 0.0004180106, 0.004644508, -0.0003525027, 0.0005187925, -0.9999976, -0.00144944, 0.3503954
 186831071, 0.0008014507, 0.01247151, -0.0002203979, 0.00104407, -0.0003199028, 0.004802987, 0.0002493766, 0.0005187925, -0.9999976, -0.00144724, 0.3503954
 187030991, -0.0004128301, 0.0120858, -0.0001066413, 0.00104407, -0.0002174727, 0.004173211, -0.0001967775, 0.0005187925, -0.9999976, -0.001444145, 0.3503954
 187230911, -9.620719E-05, 0.01167529, -0.0001139351, 0.00104407, 0.0002217324, 0.004238429, 0.0002560687, 0.0005187925, -0.9999976, -0.00143991, 0.3503954
 187430831, 0.0001754705, 0.01187969, 6.961418E-05, 0.00104407, -1.411735E-05, 0.004483741, -0.0001142974, 0.0005187925, -0.9999976, -0.00143596, 0.3503954
 187630751, -8.578722E-05, 0.01192972, -0.0004160026, 0.00104407, -0.000136297, 0.004212081, 0.0001543833, 0.0005187925, -0.9999976, -0.001430594, 0.3503954
 187830671, -0.0001247552, 0.01181526, 0.0001096572, 0.00104407, 0.0002717593, 0.004695623, -0.000104979, 0.0005187925, -0.9999976, -0.001425554, 0.3503954
 188031424, 0.0004148174, 0.0120101, -0.0001634404, 0.001046232, -0.0001266172, 0.003823695, 2.64221E-06, 0.0005209541, -0.9999977, -0.001420822, 0.3511209
 188231344, 0.0002181412, 0.01121878, -9.975454E-05, 0.001046232, 0.0002042637, 0.00400074, -3.109999E-05, 0.0005187925, -0.9999976, -0.001430614, 0.3511209
 188431264, 0.0002849694, 0.01143088, 6.08725E-05, 0.00104407, 0.0003787694, 0.004320851, -0.0002900905, 0.0005187925, -0.9999976, -0.001438598, 0.3503954
 188631184, 0.0002860106, 0.01152901, -0.0005011616, 0.00104407, 0.0001541932, 0.004095153, -0.0002046934, 0.0005187925, -0.9999976, -0.001446773, 0.3503954
 188831104, 6.442874E-05, 0.01166562, -6.747053E-05, 0.00104407, -0.000155219, 0.004060823, 0.0001578367, 0.0005187925, -0.9999976, -0.001453912, 0.3503954
 189031024, -2.61466E-05, 0.01128788, -0.0001114602, 0.00104407, 1.786192E-05, 0.004311216, -4.16589E-06, 0.0005187925, -0.9999976, -0.001460166, 0.3503954
 189230944, 0.0002869084, 0.01147634, -3.317461E-05, 0.00104407, -0.0001359715, 0.004352355, -1.127507E-05, 0.0005187925, -0.9999976, -0.001465128, 0.3503954
 189430864, 7.802308E-05, 0.0115859, -0.0001462685, 0.00104407, -6.009669E-05, 0.004138935, -0.0005040464, 0.0005187925, -0.9999976, -0.001468425, 0.3503954
 189630784, -2.119863E-05, 0.01147772, -0.0007504571, 0.00104407, 0.0002701809, 0.004151932, -0.0004469656, 0.0005187925, -0.9999976, -0.001470908, 0.3503954
 189830704, 0.0003506053, 0.01154239, -0.0009770954, 0.00104407, 0.0006107607, 0.004054452, -0.0006300755, 0.0005187925, -0.9999976, -0.001472174, 0.3503954
 190031457, 0.000542926, 0.01118545, -0.0009685313, 0.001046232, -2.75105E-05, 0.004058596, -0.0002172864, 0.0005209541, -0.9999977, -0.001474089, 0.3511209
 190231377, 0.0001782429, 0.01129539, -0.0003250527, 0.001046232, -5.932983E-05, 0.004002614, 0.0001287231, 0.0005187925, -0.9999977, -0.001474437, 0.3511209
 190431297, -2.793311E-05, 0.01145295, -7.758619E-06, 0.00104407, 0.000304617, 0.004225901, -0.0001661232, 0.0005187925, -0.9999977, -0.001473208, 0.3503954
 190631217, 0.0002700031, 0.01170167, -0.0002697688, 0.00104407, 0.0001928117, 0.004788538, -0.0001307525, 0.0005187925, -0.9999976, -0.00147253, 0.3503954
 190831137, 0.0001242821, 0.01227576, -0.0003584476, 0.00104407, 0.000232027, 0.004363336, 0.000150407, 0.0005187925, -0.9999977, -0.001470972, 0.3503954
 191031057, 7.745024E-05, 0.01132968, -5.754198E-05, 0.00104407, -0.0003123505, 0.004185557, -0.0004785876, 0.0005187925, -0.9999977, -0.001470206, 0.3503954
 191230977, -0.0002277549, 0.01140529, -0.000542618, 0.00104407, 0.0003234616, 0.004198861, -0.0003373048, 0.0005187925, -0.9999976, -0.001468646, 0.3503954
 191430897, 0.0003316927, 0.01137091, -0.0006515603, 0.00104407, -0.0003317117, 0.004123689, -0.0004246002, 0.0005187925, -0.9999976, -0.001466557, 0.3503954
 191630817, -0.0004129865, 0.01144806, -0.0007660817, 0.00104407, -0.000202623, 0.004211064, -0.0002752276, 0.0005187925, -0.9999976, -0.001463158, 0.3503954
 191830737, -0.0001609642, 0.01155192, -0.000138025, 0.00104407, -4.619451E-05, 0.003860742, -5.541254E-05, 0.0005187925, -0.9999977, -0.001459367, 0.3503954
 192030657, 0.0001260988, 0.01117268, 4.606668E-05, 0.00104407, 0.0001070957, 0.004317375, -0.0002681053, 0.0005187925, -0.9999976, -0.001456351, 0.3503954
 192231410, -9.351694E-05, 0.01164177, -0.0003516881, 0.001046232, 2.61038E-05, 0.003964717, -0.0001388872, 0.0005209541, -0.9999977, -0.001453875, 0.3511209
 192431330, 0.0002516205, 0.01160583, -0.0001890293, 0.001046232, 0.0001989419, 0.00415703, 0.0002199295, 0.0005187925, -0.9999977, -0.001448405, 0.3511209
 192631250, 0.0002341593, 0.01187112, 0.0003793975, 0.00104407, -0.0002034028, 0.004601069, 5.270994E-05, 0.0005187925, -0.9999977, -0.001441949, 0.3503954
 192831170, -0.0004063932, 0.01196138, -0.0002235364, 0.00104407, -2.248307E-05, 0.004128139, 9.68045E-05, 0.0005187925, -0.9999977, -0.001436855, 0.3503954
 193031090, 0.0001852872, 0.0117867, 0.0001567523, 0.00104407, 9.285213E-05, 0.004373093, 5.951169E-05, 0.0005187925, -0.9999977, -0.001430527, 0.3503954
 193231010, -3.888687E-05, 0.01166103, -9.493368E-05, 0.00104407, 0.000360321, 0.003709224, -0.0001158918, 0.0005187925, -0.9999977, -0.001423835, 0.3503954
 193430930, 0.0004065559, 0.01136467, -0.0005152059, 0.00104407, -0.0001046507, 0.004172244, 0.0001038601, 0.0005187925, -0.9999977, -0.001431547, 0.3503954
 193630850, -6.029266E-05, 0.01155458, -2.331996E-05, 0.00104407, -0.0001186819, 0.004515345, -0.0003356819, 0.0005187925, -0.9999977, -0.001438576, 0.3503954
 193830770, -6.839736E-05, 0.01181476, -0.0002940062, 0.00104407, 0.0001326024, 0.004478144, 0.0004049671, 0.0005187925, -0.9999977, -0.001444263, 0.3503954
 194030690, 0.0002178654, 0.01156765, -3.329972E-05, 0.00104407, -7.138164E-05, 0.003987775, -0.0003832046, 0.0005187925, -0.9999977, -0.001449526, 0.3503954
 194231443, -6.479184E-05, 0.01125326, -0.0003933243, 0.001046232, 3.623256E-05, 0.003637226, 0.0001383967, 0.0005209541, -0.9999977, -0.001454154, 0.3511209
 194431363, 0.0002153408, 0.01099911, 0.0001227758, 0.001046232, -1.651378E-05, 0.004474266, 0.0002343194, 0.0005187925, -0.9999977, -0.001457642, 0.3511209
 194631283, 2.498458E-06, 0.01205811, 0.0001298921, 0.00104407, -8.084175E-05, 0.004311428, -0.0002543385, 0.0005187925, -0.9999977, -0.001458035, 0.3503954
 194831203, 6.284461E-05, 0.01158568, -0.0004808707, 0.00104407, 7.240022E-05, 0.004222169, 0.0002722068, 0.0005187925, -0.9999977, -0.001458486, 0.3503954
 195031123, -2.99563E-05, 0.01144562, 0.000135768, 0.00104407, -0.0001604939, 0.00394222, 0.0003410488, 0.0005187925, -0.9999977, -0.00145762, 0.3503954
 195231043, -0.0004097908, 0.01114659, 3.515233E-07, 0.00104407, -0.0001349014, 0.00412315, -0.0001736602, 0.0005187925, -0.9999977, -0.001457026, 0.3503954
 195430963, -8.392378E-05, 0.01142135, -0.0004015711, 0.00104407, 0.0001187757, 0.004267193, 6.547692E-05, 0.0005187925, -0.9999977, -0.001456312, 0.3503954
 195630883, 0.0002382928, 0.01160846, -0.0001233454, 0.00104407, -7.83581E-05, 0.004228218, -2.748343E-05, 0.0005187925, -0.9999978, -0.001453513, 0.3503954
 195830803, 0.0001232272, 0.01128258, -0.0001100874, 0.00104407, -6.666297E-05, 0.003996478, 0.0001177293, 0.0005187925, -0.9999978, -0.001450653, 0.3503954
 196030723, 0.0003376175, 0.01134697, 0.000106266, 0.00104407, 0.0003900614, 0.004172222, 0.0003295355, 0.0005187925, -0.9999978, -0.001446818, 0.3503954
 196231476, 7.986937E-05, 0.01134352, 0.0002865467, 0.001046232, -0.0001935824, 0.004117977, -3.74656E-05, 0.0005209541, -0.9999978, -0.001442874, 0.3511209
 196431396, -9.569827E-05, 0.01153483, -0.0002879743, 0.001046232, -3.677304E-05, 0.004176907, -0.0001900962, 0.0005187925, -0.9999978, -0.001438949, 0.3511209
 196631316, -0.0002073637, 0.01140194, -0.000366901, 0.00104407, -0.0003876134, 0.003956335, 1.163375E-05, 0.0005187925, -0.9999978, -0.00143287, 0.3503954
 196831236, -0.0004021142, 0.01082721, -0.0001425066, 0.00104407, 0.0002035768, 0.004104723, -6.903271E-05, 0.0005187925, -0.9999978, -0.001425967, 0.3503954
 197031156, -0.0002486479, 0.01117211, -2.555181E-05, 0.00104407, -0.0005076688, 0.003926158, -0.0002429562, 0.0005187925, -0.9999978, -0.001420143, 0.3503954
 197231076, -0.0002100395, 0.01144036, -0.0004386147, 0.00104407, 0.0001278987, 0.004254757, -0.0001635922, 0.0005187925, -0.9999978, -0.001414099, 0.3503954
 197430996, 0.000169843, 0.01155573, -0.0004684148, 0.00104407, 3.251518E-06, 0.003880914, -0.0004933613, 0.0005187925, -0.9999978, -0.001408981, 0.3503954
 197630916, -2.663052E-05, 0.01099033, -0.0008824155, 0.00104407, 6.272995E-05, 0.003989667, -0.0001973638, 0.0005187925, -0.9999978, -0.001403784, 0.3503954
 197830836, 0.0004636232, 0.01155415, -0.0004633623, 0.00104407, 0.0001771808, 0.00431896, -0.0003313753, 0.0005187925, -0.9999978, -0.001396895, 0.3503954
 198030756, 0.0004458431, 0.0117392, -0.0008572844, 0.00104407, -5.542557E-06, 0.004375164, -0.000356634, 0.0005187925, -0.9999978, -0.001390379, 0.3503954
 198230676, 0.0001343067, 0.0119031, -0.0003428065, 0.00104407, 0.0003679158, 0.004034156, -0.0003227314, 0.0005187925, -0.9999978, -0.001383547, 0.3503954
 198431429, 0.000305918, 0.01136594, -0.0004919011, 0.001046232, 0.0001146156, 0.004123018, -0.0001305538, 0.0005209541, -0.9999978, -0.001379105, 0.3511209
 198631349, 9.564045E-06, 0.01143509, -0.0001993804, 0.001046232, -0.0002164286, 0.004202782, -0.0001417225, 0.0005187925, -0.9999978, -0.001384923, 0.3511209
 198831269, 5.926243E-05, 0.01141124, -0.0001054938, 0.00104407, 0.0002007756, 0.004120471, -0.0005046922, 0.0005187925, -0.9999978, -0.001389582, 0.3503954
 199031189, 0.0003293633, 0.01190435, -0.0006623607, 0.00104407, 0.0002484401, 0.004744302, -0.0002932817, 0.0005187925, -0.9999978, -0.001395147, 0.3503954
 199231109, 0.0001585085, 0.01189872, -0.0004134382, 0.00104407, -0.0001273097, 0.004257795, -2.399676E-05, 0.0005187925, -0.9999978, -0.001398999, 0.3503954
 199431029, -0.0001646901, 0.01143562, -3.302922E-05, 0.00104407, 8.285273E-05, 0.004127962, 3.266217E-05, 0.0005187925, -0.9999978, -0.00140176, 0.3503954
 199630949, 6.075155E-05, 0.01123439, 0.0001444727, 0.00104407, 0.0001658499, 0.003784264, 5.309364E-05, 0.0005187925, -0.9999978, -0.001403779, 0.3503954
 199830869, -4.104448E-05, 0.0114255, 2.387643E-05, 0.00104407, -0.0003656204, 0.004597845, -0.0001574148, 0.0005187925, -0.9999978, -0.00140527, 0.3503954
 200030789, -0.0002729205, 0.0118289, -0.0003113836, 0.00104407, 0.0005470105, 0.003843612, -0.0002660342, 0.0005187925, -0.9999978, -0.001405813, 0.3503954
 200230709, 0.0007903258, 0.01100737, -4.436266E-05, 0.00104407, 0.0003182283, 0.004239857, 4.557574E-05, 0.0005187925, -0.9999978, -0.00140578, 0.3503954
 200431462, 0.0003549674, 0.01138927, -0.0004614259, 0.001046232, 0.0001608327, 0.003890601, -0.000402789, 0.0005209541, -0.9999978, -0.001407013, 0.3511209
 200631382, 5.947668E-07, 0.01143477, -0.0006598324, 0.001046232, -9.912237E-05, 0.004225086, -0.0002697688, 0.0005187925, -0.9999978, -0.00140613, 0.3511209
 200831302, 5.350924E-05, 0.0112809, -0.0002802991, 0.00104407, -1.645651E-05, 0.004232423, -3.580926E-05, 0.0005187925, -0.9999978, -0.001403764, 0.3503954
 201031222, 7.798888E-05, 0.01149659, 5.005979E-05, 0.00104407, 0.0003914323, 0.003981253, -0.0002452262, 0.0005187925, -0.9999979, -0.001398232, 0.3503954
 201231142, 0.0003102587, 0.01094756, -0.0003679389, 0.00104407, -9.045754E-05, 0.00389475, 0.0001459027, 0.0005187925, -0.9999979, -0.00139331, 0.3503954
 201431062, -0.0003941637, 0.01111007, 0.0001624375, 0.00104407, -0.0002201277, 0.003969531, 8.688069E-06, 0.0005187925, -0.9999979, -0.001388299, 0.3503954
 201630982, -1.665927E-05, 0.01092418, 4.923996E-05, 0.00104407, 0.000114512, 0.003763188, 0.0003822442, 0.0005187925, -0.9999979, -0.001382786, 0.3503954
 201830902, -0.0001075949, 0.0109421, 0.0002111638, 0.00104407, -0.0006906407, 0.004346697, 4.058643E-06, 0.0005187925, -0.9999979, -0.001376563, 0.3503954
 202030822, -0.0005692712, 0.01170539, -0.0002102642, 0.00104407, 0.0002276526, 0.003950263, -0.0001730179, 0.0005187925, -0.9999979, -0.001370503, 0.3503954
 202230742, 0.0003385941, 0.01129972, -0.0003487801, 0.00104407, 0.0002890314, 0.004242992, 0.0002786749, 0.0005187925, -0.9999979, -0.001363581, 0.3503954
 202430662, 0.000551901, 0.01144187, -2.794341E-05, 0.00104407, 0.0002214136, 0.004091476, -0.0003621048, 0.0005187925, -0.9999979, -0.001357379, 0.3503954
 202631415, 0.0004507356, 0.01130033, -0.0005542287, 0.001046232, 0.0003162513, 0.003826331, -0.000199809, 0.0005209541, -0.9999979, -0.001352824, 0.3511209
 202831335, 0.0005259831, 0.01107093, -0.0003898921, 0.001046232, -9.709573E-05, 0.003806227, 3.827947E-05, 0.0005187925, -0.9999979, -0.001346439, 0.3511209
 203031255, -6.48156E-05, 0.01126595, -2.148366E-05, 0.00104407, 0.0004611251, 0.004686808, 0.0002119551, 0.0005187925, -0.9999978, -0.001338956, 0.3503954
 203231175, 0.0003716958, 0.01197391, -0.0001477366, 0.00104407, 6.278175E-05, 0.004311901, -0.0005462905, 0.0005187925, -0.9999978, -0.001331763, 0.3503954
 203431095, 0.0001865519, 0.01139144, -0.0005723798, 0.00104407, 0.0002796225, 0.004117071, 0.0001717679, 0.0005187925, -0.9999978, -0.001322836, 0.3503954
 203631015, 0.0004604642, 0.01160245, 0.000325858, 0.00104407, 0.0004415011, 0.00420376, 2.771937E-05, 0.0005187925, -0.9999978, -0.001315597, 0.3503954
 203830935, 0.0004917909, 0.01175672, -1.08008E-05, 0.00104407, -0.0002012046, 0.004324509, -4.95748E-05, 0.0005187925, -0.9999978, -0.001322496, 0.3503954
 204030855, 0.0001240081, 0.01172627, -0.0002975716, 0.00104407, 0.0001695419, 0.004282074, -0.0003135583, 0.0005187925, -0.9999978, -0.001329283, 0.3503954
 204230775, 0.0002968574, 0.01159199, -0.0005048545, 0.00104407, 0.0004408747, 0.004094813, -0.0002552167, 0.0005187925, -0.9999978, -0.001334533, 0.3503954
 204430695, 0.0006211312, 0.01132362, -0.0005884046, 0.00104407, -0.0001285978, 0.004237107, -0.0002149306, 0.0005187925, -0.9999978, -0.001338868, 0.3503954
 204631448, -8.321406E-05, 0.01151991, -3.265344E-05, 0.001046232, 8.639634E-07, 0.004485562, -0.0003127798, 0.0005209541, -0.9999979, -0.001344857, 0.3511209
 204831368, 0.0001756561, 0.0114116, -0.0001649408, 0.001046232, -8.868695E-05, 0.003897344, 0.0001344095, 0.0005187925, -0.9999978, -0.001346593, 0.3511209
 205031288, -0.0001759885, 0.01127166, -0.0003083581, 0.00104407, 2.637862E-05, 0.004393742, -0.0002629194, 0.0005187925, -0.9999978, -0.001347742, 0.3503954
 205231208, -4.100429E-05, 0.0116385, -0.000381764, 0.00104407, 0.0002291604, 0.004170208, -0.0002495041, 0.0005187925, -0.9999978, -0.001348836, 0.3503954
 205431128, 0.0003297434, 0.01129161, -0.0001992573, 0.00104407, -0.0001642819, 0.003589883, 0.0003013883, 0.0005187925, -0.9999978, -0.001350239, 0.3503954
 205631048, 0.0001086901, 0.01104561, -1.872024E-05, 0.00104407, 3.01173E-05, 0.003886931, 0.0003011631, 0.0005187925, -0.9999978, -0.001350295, 0.3503954
 205830968, -3.673658E-05, 0.01120745, 0.0001788139, 0.00104407, -0.000141943, 0.004419247, 0.0001718191, 0.0005187925, -0.9999978, -0.001348388, 0.3503954
 206030888, 3.660125E-05, 0.0115816, -0.0001388912, 0.00104407, -0.0001732857, 0.003970616, -0.000200972, 0.0005187925, -0.9999978, -0.001346634, 0.3503954
 206230808, 9.772085E-05, 0.011098, -0.0002092062, 0.00104407, 6.768326E-05, 0.004204406, 6.404342E-05, 0.0005187925, -0.9999978, -0.001344863, 0.3503954
 206430728, 0.0002458558, 0.01133403, 0.0001622135, 0.00104407, 0.0003301504, 0.004103311, -0.0001398993, 0.0005187925, -0.9999979, -0.00134299, 0.3503954
 206631481, 0.0005209012, 0.01136366, -0.0001187342, 0.001046232, 1.040974E-05, 0.004365822, 9.576626E-06, 0.0005209541, -0.9999978, -0.001342186, 0.3511209
 206831401, -5.532904E-05, 0.011862, 9.410511E-05, 0.001046232, -4.699319E-05, 0.00415345, -1.02908E-05, 0.0005187925, -0.9999979, -0.001340664, 0.3511209
 207031321, -0.0001543214, 0.01118919, -0.0003311966, 0.00104407, -0.0001091536, 0.004470414, -0.0004639247, 0.0005187925, -0.9999979, -0.001338081, 0.3503954
 207231241, 7.135719E-05, 0.01172721, -0.0004898757, 0.00104407, -8.144088E-05, 0.003835631, -1.627749E-06, 0.0005187925, -0.9999979, -0.001333343, 0.3503954
 207431161, -0.0001518541, 0.0108828, 3.703541E-05, 0.00104407, -0.0002700922, 0.004172864, 0.0001055819, 0.0005187925, -0.9999979, -0.001328447, 0.3503954
 207631081, -8.414777E-05, 0.01137421, -7.073193E-05, 0.00104407, 0.0002472088, 0.004455774, 0.0001358549, 0.0005187925, -0.9999979, -0.001323577, 0.3503954
 207831001, 0.0001616383, 0.01150018, 0.0001830536, 0.00104407, -3.15345E-06, 0.0037054, 0.0006078469, 0.0005187925, -0.9999979, -0.001318768, 0.3503954
 208030921, -0.0001550296, 0.01134759, 0.000477371, 0.00104407, -0.0001638894, 0.004346895, 0.0004434409, 0.0005187925, -0.9999979, -0.001313385, 0.3503954
 208230841, 1.96146E-05, 0.01162723, 0.000339669, 0.00104407, 0.0002236125, 0.00401132, -0.0002636868, 0.0005187925, -0.9999979, -0.001307436, 0.3503954
 208430761, -1.636807E-06, 0.01127689, -0.0003057341, 0.00104407, -0.0002158182, 0.004464618, -0.0002227202, 0.0005187925, -0.9999979, -0.001302493, 0.3503954
 208630681, -0.0001310016, 0.0118901, -0.000443591, 0.00104407, -2.661646E-05, 0.004201657, -0.00011029, 0.0005187925, -0.9999978, -0.001296298, 0.3503954
 208831434, 7.710687E-05, 0.01199153, -0.0001090738, 0.001046232, 0.0002435363, 0.004450515, -4.233733E-05, 0.0005209541, -0.9999979, -0.001292282, 0.3511209
 209031354, 0.0005527929, 0.01182691, 8.133215E-05, 0.001046232, 0.0005892668, 0.004151243, 0.0007108873, 0.0005187925, -0.9999979, -0.001300963, 0.3511209
 209231274, 0.0006850319, 0.01144043, 0.0007717395, 0.00104407, 0.0001324318, 0.003980069, 0.000511599, 0.0005187925, -0.9999979, -0.00130736, 0.3503954
 209431194, 9.650731E-05, 0.01138317, 0.0003381807, 0.00104407, -0.0003668826, 0.003716168, -0.0003013704, 0.0005187925, -0.9999979, -0.001313012, 0.3503954
 209631114, -0.0005997535, 0.01101543, -0.0002252906, 0.00104407, 2.601986E-05, 0.004250406, 2.823058E-05, 0.0005187925, -0.9999979, -0.001317868, 0.3503954
 209831034, -8.203126E-05, 0.01158092, 1.71557E-05, 0.00104407, 0.0001441795, 0.004789704, 2.211996E-05, 0.0005187925, -0.9999979, -0.001321343, 0.3503954
 210030954, 0.0002834357, 0.01211473, 0.000157391, 0.00104407, 3.907349E-05, 0.004239909, -0.0002181599, 0.0005187925, -0.9999979, -0.00132509, 0.3503954
 210230874, -0.0001315065, 0.01157933, -8.098584E-05, 0.00104407, -0.0002933991, 0.004157439, 0.0002441669, 0.0005187925, -0.9999979, -0.001327733, 0.3503954
 210430794, -0.0001818825, 0.01148481, 0.0001315496, 0.00104407, 0.0001988155, 0.004373833, -4.731312E-05, 0.0005187925, -0.9999979, -0.001328918, 0.3503954
 210630714, 0.0001382702, 0.01113494, -6.336298E-05, 0.00104407, 0.0004120754, 0.003868424, -0.0001442558, 0.0005187925, -0.9999979, -0.001327298, 0.3503954
 210831467, 0.0003151592, 0.01134019, -1.876234E-05, 0.001046232, 0.0001237737, 0.003758131, 7.605331E-05, 0.0005209541, -0.9999979, -0.001327837, 0.3511209
 211031387, 0.0001805395, 0.01116243, 9.497976E-05, 0.001046232, 1.487059E-05, 0.004257034, -0.0003954664, 0.0005187925, -0.9999979, -0.001327742, 0.3511209
 211231307, 8.909918E-05, 0.01124444, -0.0007074815, 0.00104407, -5.624911E-05, 0.00373571, 7.590525E-07, 0.0005187925, -0.9999979, -0.001326744, 0.3503954
 211431227, -0.0002600325, 0.01107562, -0.0003043626, 0.00104407, 0.0003365609, 0.004322669, 0.0001823375, 0.0005187925, -0.9999979, -0.001324061, 0.3503954
 211631147, 0.0002679878, 0.01147285, -0.0001277722, 0.00104407, -0.0004133433, 0.004050911, -0.0001943133, 0.0005187925, -0.9999979, -0.001322356, 0.3503954
 211831067, -0.0007930134, 0.01127663, -0.0002039499, 0.00104407, -9.028104E-05, 0.004304156, -0.0004203128, 0.0005187925, -0.9999979, -0.001319979, 0.3503954
 212030987, 4.570798E-05, 0.0117413, -0.0004063781, 0.00104407, 0.0002412552, 0.004437534, 6.021832E-05, 0.0005187925, -0.9999979, -0.00131637, 0.3503954
 212230907, 0.0002683754, 0.01151239, 0.0001811566, 0.00104407, 7.172822E-05, 0.004011559, 0.0002941087, 0.0005187925, -0.9999979, -0.001313097, 0.3503954
 212430827, 0.000227089, 0.01108936, 0.0001557692, 0.00104407, 0.0003300721, 0.004043605, -0.0003093018, 0.0005187925, -0.9999979, -0.001308454, 0.3503954
 212630747, 0.0004077725, 0.01116303, -0.0002445292, 0.00104407, 0.0001256987, 0.003726224, 0.000127317, 0.0005187925, -0.9999979, -0.001303985, 0.3503954
 212830667, -0.0001679521, 0.01069755, -6.073669E-05, 0.00104407, -0.0003029594, 0.004175394, -0.0001618083, 0.0005187925, -0.9999979, -0.001299126, 0.3503954
 213031420, -0.0002549987, 0.01137293, -0.0006147583, 0.001046232, -0.0005056179, 0.003695844, -0.0001826263, 0.0005209541, -0.9999979, -0.001295708, 0.3511209
 213231340, -0.0004296959, 0.0112305, 4.562659E-05, 0.001046232, 0.0002396515, 0.00408129, 0.0004856634, 0.0005187925, -0.9999979, -0.001290823, 0.3511209
 213431260, 0.0002830105, 0.01136689, 0.0005288285, 0.00104407, -0.000173366, 0.004315338, -0.0001571563, 0.0005187925, -0.9999979, -0.001283487, 0.3503954
 213631180, -0.0001238669, 0.01143401, -0.0003591899, 0.00104407, -3.150564E-05, 0.003941274, -0.0005149735, 0.0005187925, -0.9999979, -0.00127802, 0.3503954
 213831100, -9.423841E-05, 0.01117527, -0.0007229178, 0.00104407, -7.613526E-05, 0.003798699, -0.0003264361, 0.0005187925, -0.9999979, -0.001272241, 0.3503954
 214031020, 0.0002699237, 0.0113895, -0.0003965592, 0.00104407, 4.408815E-05, 0.004440731, 7.480489E-05, 0.0005187925, -0.9999979, -0.00126628, 0.3503954
 214230940, 0.000235128, 0.01193654, 8.04591E-05, 0.00104407, -6.031722E-05, 0.003896954, 5.013128E-06, 0.0005187925, -0.9999979, -0.001275765, 0.3503954
 214430860, 0.0004223427, 0.01113522, 1.791019E-06, 0.00104407, -5.631406E-05, 0.004133668, 8.430685E-06, 0.0005187925, -0.9999979, -0.00128439, 0.3503954
 214630780, 0.0002082565, 0.01168025, -0.0003056245, 0.00104407, -7.250127E-05, 0.004242066, -0.0003329506, 0.0005187925, -0.9999979, -0.001291763, 0.3503954
 214830700, 7.185299E-05, 0.01189162, -0.0003865996, 0.00104407, 8.96644E-05, 0.004635158, -6.781368E-05, 0.0005187925, -0.9999979, -0.001298574, 0.3503954
 215031453, 0.0001461443, 0.01202714, -0.0006327858, 0.001046232, 0.0002032637, 0.004566324, -0.0003619097, 0.0005209541, -0.9999979, -0.001303929, 0.3511209
 215231373, 9.306061E-05, 0.0122001, -0.0005504829, 0.001046232, 5.784637E-06, 0.004382147, 1.092473E-05, 0.0005187925, -0.9999979, -0.001307997, 0.3511209
 215431293, 0.000176087, 0.01148665, 6.480722E-05, 0.00104407, 7.877121E-05, 0.003885945, 0.0003583487, 0.0005187925, -0.9999979, -0.001310147, 0.3503954
 215631213, 0.000120597, 0.01115781, 0.0002760199, 0.00104407, -0.0001411187, 0.003711237, -0.0002367026, 0.0005187925, -0.9999979, -0.001311777, 0.3503954
 215831133, 0.0002620236, 0.01067399, -0.0001900092, 0.00104407, 0.000341705, 0.004195966, -9.291029E-06, 0.0005187925, -0.9999979, -0.001313105, 0.3503954
 216031053, 0.0005341097, 0.0112921, -8.036734E-05, 0.00104407, 0.0001729327, 0.004333727, -9.462862E-05, 0.0005187925, -0.9999979, -0.001313379, 0.3503954
 216230973, 0.000369187, 0.01157907, -0.0002249545, 0.00104407, 0.0002553173, 0.003619947, 2.386688E-05, 0.0005187925, -0.9999979, -0.001313599, 0.3503954
 216430893, 0.0007454467, 0.01081636, -0.0002958235, 0.00104407, 0.000315874, 0.004288143, -0.0002457005, 0.0005187925, -0.9999979, -0.001312963, 0.3503954
 216630813, 0.0001283517, 0.01142969, -0.0002845293, 0.00104407, 0.0002495103, 0.004280093, 0.0004974139, 0.0005187925, -0.9999979, -0.001312383, 0.3503954
 216830733, -1.851839E-05, 0.01147601, 4.992869E-05, 0.00104407, -0.0003215855, 0.003678522, -0.0003056244, 0.0005187925, -0.9999979, -0.001310057, 0.3503954
 217031486, -0.0001646271, 0.01077143, -0.0009184429, 0.001046232, -0.0001015068, 0.003808953, -0.0002788441, 0.0005187925, -0.9999979, -0.001306277, 0.3511209
 217231406, 0.0001520488, 0.011001, -0.0001243591, 0.001046232, -5.475686E-05, 0.004159585, 0.0001148825, 0.0005209541, -0.9999979, -0.001304731, 0.3511209
 217431326, 1.788072E-05, 0.01128674, 2.048153E-05, 0.001046232, 0.0003357019, 0.004167384, -9.845251E-05, 0.0005187925, -0.9999979, -0.001301434, 0.3511209
 217631246, -9.594725E-05, 0.0112279, -0.0003027992, 0.00104407, -0.0003357501, 0.004230766, -0.0003424931, 0.0005187925, -0.9999979, -0.001296027, 0.3503954
 217831166, -0.0006566865, 0.01177832, -0.000374749, 0.00104407, -0.0001840675, 0.004245824, 2.004894E-05, 0.0005187925, -0.9999979, -0.001293669, 0.3503954
 218031086, -8.285731E-05, 0.01153324, -0.0003047773, 0.00104407, -0.0001059981, 0.004098854, -0.0001559266, 0.0005187925, -0.9999979, -0.001290754, 0.3503954
 218231006, -0.0001388152, 0.0112156, -0.0003660812, 0.00104407, -0.0001366101, 0.003990049, -0.0001021823, 0.0005187925, -0.9999979, -0.001287271, 0.3503954
 218430926, 0.0001306021, 0.01140382, -0.0001522707, 0.00104407, -4.265559E-05, 0.004398366, -0.0001289281, 0.0005187925, -0.9999979, -0.001284023, 0.3503954
 218630846, -6.125952E-05, 0.01160289, -0.0005133302, 0.00104407, 0.0001143526, 0.004272062, 0.0004039257, 0.0005187925, -0.9999978, -0.001280204, 0.3503954
 218830766, 0.0002012989, 0.01173125, 7.404217E-05, 0.00104407, -0.0002331017, 0.004362705, -0.0003895989, 0.0005187925, -0.9999978, -0.001276379, 0.3503954
 219030686, -0.0003745674, 0.0117925, -0.0003675207, 0.00104407, -4.057288E-05, 0.00424494, -0.0002331766, 0.0005187925, -0.9999978, -0.001273209, 0.3503954
 219231439, 0.0002687275, 0.01196904, -0.0005456044, 0.001046232, 0.0001710168, 0.00422346, -0.0002904949, 0.0005209541, -0.9999978, -0.001269673, 0.3511209
 219431359, 0.0004639987, 0.01143457, -0.0002834823, 0.001046232, 0.0005101811, 0.00447888, -9.84549E-05, 0.0005187925, -0.9999979, -0.001279469, 0.3511209
 219631279, 0.0006217438, 0.01156172, -0.0004416463, 0.00104407, 6.074524E-05, 0.004057302, -0.0001974186, 0.0005187925, -0.9999978, -0.001286962, 0.3503954
 219831199, 0.0001802282, 0.01143806, -0.0004112839, 0.00104407, 0.0001394689, 0.004222427, 5.496925E-05, 0.0005187925, -0.9999978, -0.001294744, 0.3503954
 220031119, 0.0001983391, 0.01158249, -0.0001734445, 0.00104407, 3.86622E-06, 0.004492372, 9.628972E-05, 0.0005187925, -0.9999978, -0.001302396, 0.3503954
 220231039, 0.0001129953, 0.01150792, -0.0002183565, 0.00104407, -0.0001024824, 0.00384706, 5.290299E-05, 0.0005187925, -0.9999978, -0.001310481, 0.3503954
 220430959, -0.0002052864, 0.01112127, 0.000127528, 0.00104407, -0.0001003629, 0.00423225, 4.069486E-05, 0.0005187925, -0.9999978, -0.001317626, 0.3503954
 220630879, -0.0002874218, 0.01171964, -5.255506E-05, 0.00104407, -0.0002560396, 0.004196872, -8.295912E-05, 0.0005187925, -0.9999978, -0.001322477, 0.3503954
 220830799, -0.0003480922, 0.01166763, 0.0001351555, 0.00104407, -0.0004634423, 0.004964649, 0.0001560779, 0.0005187925, -0.9999978, -0.001327018, 0.3503954
 221030719, -0.000371364, 0.01238593, -0.0001231809, 0.00104407, 0.0004613627, 0.004018228, 0.0002129692, 0.0005187925, -0.9999978, -0.001330937, 0.3503954
 221231472, 0.0006858753, 0.01112291, -8.690735E-05, 0.001046232, 0.0002860963, 0.003783226, -6.680637E-05, 0.0005209541, -0.9999978, -0.001331805, 0.3511209
 221431392, 0.0002241861, 0.01113121, -0.0005142891, 0.001046232, 0.0004324799, 0.004432458, 2.371793E-05, 0.0005187925, -0.9999978, -0.001335049, 0.3511209
 221631312, 0.0008007431, 0.01171755, -0.01282517, 0.00104407, 0.0002315893, 0.004161294, -0.00654424, 0.0005187925, -0.9999978, -0.001337494, 0.3503954
 221831232, 0.0007128487, 0.01189457, -0.3092264, 0.00104407, 3.704206E-05, 0.004626157, -0.1052865, 0.0005187925, -0.9999978, -0.00133758, 0.3503954
 222031152, -5.819289E-05, 0.01192134, -0.04698228, 0.00104407, -0.0002473925, 0.003977305, 0.06896569, 0.0005187925, -0.9999978, -0.001337641, 0.3503954
 222231072, -0.0002962384, 0.01116831, -0.01027228, 0.00104407, 0.0003128279, 0.00423748, -0.2859341, 0.0005187925, -0.9999986, -0.00135245, 0.3503954
 222430992, -0.003924876, 0.006732217, -1.616599, 0.00104407, -0.004620574, -0.0008831918, -0.6817091, 0.0005187925, -0.9999931, -0.001474823, 0.3503954
 222630912, -0.01797326, -0.008196954, -1.151341, 0.00104407, -0.008788497, -0.005349086, -0.1033933, 0.0005187925, -0.9999799, -0.001637768, 0.3503954
 222830832, -0.02391913, -0.0144912, -0.227699, 0.00104407, -0.008862519, -0.004548599, -0.09320781, 0.0005187925, -0.9999766, -0.001789157, 0.3503954
 223030752, -0.02303959, -0.01173205, -0.3307191, 0.00104407, -0.007799441, -0.003524441, -0.1478828, 0.0005187925, -0.9999777, -0.001939947, 0.3503954
 223230672, -0.02005035, -0.008147496, -0.3797837, 0.00104407, -0.006591899, -0.002300284, -0.1218443, 0.0005187925, -0.9999797, -0.002088155, 0.3503954
 223431425, -0.01690031, -0.004658228, -0.306145, 0.001046232, -0.005596322, -0.0008509183, -0.09939598, 0.0005209541, -0.9999815, -0.002231312, 0.3511209
 223631345, -0.01414686, -0.001159345, -0.259859, 0.001046232, -0.004721546, 0.0004517986, -0.08874627, 0.0005187925, -0.9999831, -0.002365595, 0.3511209
 223831265, -0.01192894, 0.002079509, -0.2321969, 0.00104407, -0.003659295, 0.001380494, -0.07853886, 0.0005187925, -0.9999846, -0.002490859, 0.3503954
 224031185, -0.009705666, 0.004591933, -0.2040224, 0.00104407, -0.003380457, 0.00223314, -0.06864035, 0.0005187925, -0.9999858, -0.002609388, 0.3503954
 224231105, -0.008075696, 0.006563926, -0.1785812, 0.00104407, -0.002579586, 0.002371708, -0.06034113, 0.0005187925, -0.9999865, -0.002714924, 0.3503954
 224431025, -0.006291248, 0.007426748, -0.1569902, 0.00104407, -0.002088451, 0.003220827, -0.05272291, 0.0005187925, -0.9999867, -0.002802387, 0.3503954
 224630945, -0.005133371, 0.008587415, -0.1376519, 0.00104407, -0.001372301, 0.003263681, -0.04655332, 0.0005187925, -0.9999867, -0.002900268, 0.3503954
 224830865, -0.00344976, 0.009099738, -0.1205467, 0.00104407, -0.001133479, 0.003463314, -0.04017161, 0.0005187925, -0.9999867, -0.003011456, 0.3503954
 225030785, -0.002864515, 0.009600094, -0.1042671, 0.00104407, -0.00110402, 0.003578748, -0.03503317, 0.0005187925, -0.9999853, -0.0033541, 0.3503954
 225230705, -0.002609601, 0.009429633, -0.09209472, 0.00104407, -0.0008008603, 0.003456575, -0.031421, 0.0005187925, -0.999982, -0.003873979, 0.3503954
 225431458, -0.001251613, 0.009829161, 0.1945798, 0.001046232, 0.0009555691, 0.004450352, 0.3400688, 0.0005209541, -0.9999763, -0.004423423, 0.3511209
 225631378, 0.001644549, 0.011028, 0.8812798, 0.001046232, 0.0001302273, 0.003426799, 0.2953525, 0.0005187925, -0.9999682, -0.005155472, 0.3511209
 225831298, 0.001094123, 0.009262172, 0.7679101, 0.00104407, 0.000499623, 0.003527271, 0.2586842, 0.0005187925, -0.9999622, -0.005785926, 0.3503954
 226031218, 0.001357297, 0.008854792, 0.6742249, 0.00104407, 0.0003595452, 0.003277979, 0.2279637, 0.0005187925, -0.9999603, -0.006173344, 0.3503954
 226231138, 0.001164534, 0.00899253, 0.5611486, 0.00104407, 0.0004128861, 0.003405815, 0.1588187, 0.0005187925, -0.99996, -0.006491645, 0.3503954
 226431058, 0.004252142, 0.01292436, 0.3985352, 0.00104407, 0.003579875, 0.007236004, 0.1251727, 0.0005187925, -0.9999756, -0.00684505, 0.3503954
 226630978, 0.03347248, 0.03489554, 0.299427, 0.00104407, 0.02955889, 0.02235396, 0.08887535, 0.0005187925, -0.9998615, -0.007090208, 0.3503954
 226830898, 0.1426896, 0.0897473, 0.2156455, 0.00104407, 0.08554303, 0.04764843, 0.06476612, 0.0005187925, -0.9991669, -0.006595385, 0.3503954
 227030818, 0.2877091, 0.1519554, 0.1567931, 0.00104407, 0.1296851, 0.064937, 0.04709496, 0.0005187925, -0.9982452, -0.006338595, 0.3503954
 227230738, 0.3715555, 0.1831562, 0.1125702, 0.00104407, 0.1402936, 0.06770495, 0.03226801, 0.0005187925, -0.9977612, -0.007639317, 0.3503954
 227430658, 0.371952, 0.1793465, 0.07240035, 0.00104407, 0.1272556, 0.06141666, 0.01755364, 0.0005187925, -0.99774, -0.009881275, 0.3503954
 227631411, 0.3322321, 0.1605639, 0.02922266, 0.001046232, 0.1133214, 0.05489403, 0.0007485503, 0.0005209541, -0.9977108, -0.01139457, 0.3511209
 227831331, 0.3078459, 0.1508984, -0.01719341, 0.001046232, 0.1118897, 0.05704556, -0.01593072, 0.0005187925, -0.9971202, -0.008962959, 0.3511209
 228031251, 0.302081, 0.1872221, -0.0536968, 0.00104407, 0.1063237, 0.08772638, -0.02507607, 0.0005187925, -0.9941145, 0.04038904, 0.3503954
 228231171, 0.281184, 0.2716625, -0.08996642, 0.00104407, 0.09735156, 0.1113816, -0.04438962, 0.0005187925, -0.9779166, 0.1850179, 0.3503954
 228431091, 0.2657672, 0.2879069, -0.1369664, 0.00104407, 0.0984221, 0.09207464, -0.05718248, 0.0005187925, -0.9148471, 0.4018005, 0.3503954
 228631011, 0.2895303, 0.2108569, -0.1623458, 0.00104407, 0.1175479, 0.05544103, -0.06140839, 0.0005187925, -0.7692505, 0.6369694, 0.3503954
 228830931, 0.3470386, 0.1243037, -0.1706836, 0.00104407, 0.1379857, 0.0326659, -0.0635104, 0.0005187925, -0.5385246, 0.8309496, 0.3503954
 229030851, 0.386422, 0.07349787, -0.1748793, 0.00104407, 0.1427134, 0.0189315, -0.06418131, 0.0005187925, -0.2625714, 0.9431397, 0.3503954
 229230771, 0.3818924, 0.03881144, -0.1702143, 0.00104407, 0.1329959, 0.007907273, -0.05845907, 0.0005187925, 0.001315452, 0.9717956, 0.3503954
 229430691, 0.345894, 0.01790515, -0.1521351, 0.00104407, 0.1156113, 0.005777537, -0.05095138, 0.0005187925, 0.2184251, 0.9449826, 0.3503954
 229631444, 0.2964785, 0.0266476, -0.1302387, 0.001046232, 0.09751595, 0.01594063, -0.04216298, 0.0005209541, 0.3867598, 0.8894075, 0.3511209
 229831364, 0.2626535, 0.03729799, -0.1034858, 0.001046232, 0.09588024, 0.006779478, -0.03186435, 0.0005187925, 0.5000125, 0.8308958, 0.3511209
 230031284, 0.2707114, -0.004148954, -0.081911, 0.00104407, 0.1012407, -0.0124373, -0.0279636, 0.0005187925, 0.5431409, 0.8039014, 0.3503954
 230231204, 0.2552897, -0.03063762, -0.0541839, 0.00104407, 0.076193, -0.006403912, -1.185178E-05, 0.0005187925, 0.5263472, 0.8152754, 0.3503954
 230431124, 0.1564521, 0.01231292, 0.01927461, 0.00104407, 0.02857662, 0.02149848, 0.01625775, 0.0005187925, 0.4708778, 0.8508433, 0.3503954
 230631044, 0.03519294, 0.09514046, 0.05647799, 0.00104407, -0.006636269, 0.05268688, 0.02685798, 0.0005187925, 0.4011392, 0.8871164, 0.3503954
 230830964, -0.0267629, 0.1635847, 0.07933921, 0.00104407, -0.01177369, 0.06675051, 0.03134736, 0.0005187925, 0.3447845, 0.9099326, 0.3503954
 231030884, -0.02595162, 0.1774451, 0.08319382, 0.00104407, -0.006069793, 0.0595528, 0.02839283, 0.0005187925, 0.3210865, 0.9181438, 0.3503954
 231230804, -0.01238942, 0.142, 0.07206133, 0.00104407, -0.002480182, 0.03979349, 0.02346079, 0.0005187925, 0.3310975, 0.9149233, 0.3503954
 231430724, -0.003407331, 0.08635293, 0.05796169, 0.00104407, 0.0006258914, 0.02014481, 0.01810346, 0.0005187925, 0.3616368, 0.9036325, 0.3503954
 231631477, 0.00647225, 0.03878693, 0.04468445, 0.001046232, 0.005206685, 0.006601425, 0.01406121, 0.0005209541, 0.395791, 0.8892122, 0.3511209
 231831397, 0.01653551, 0.01118703, 0.03371882, 0.001046232, 0.006776959, 0.001401915, 0.01004588, 0.0005187925, 0.4203126, 0.8778973, 0.3511209
 232031317, 0.01782602, 0.003766663, 0.02353909, 0.00104407, 0.005637066, 0.001747769, 0.007099763, 0.0005187925, 0.4299187, 0.8734076, 0.3503954
 232231237, 0.01228448, 0.007623951, 0.01534832, 0.00104407, 0.002655407, 0.004222765, 0.003927227, 0.0005187925, 0.4255431, 0.8758012, 0.3503954
 232431157, 0.003802369, 0.01395222, 0.009042782, 0.00104407, -0.0001282073, 0.006297331, 0.002400946, 0.0005187925, 0.4122774, 0.8823103, 0.3503954
 232631077, -0.002285202, 0.02000319, 0.004961267, 0.00104407, -0.001961817, 0.009034277, 0.001327021, 0.0005187925, 0.3967409, 0.8894326, 0.3503954
 232830997, -0.006849125, 0.0270241, 0.002601906, 0.00104407, -0.00321058, 0.01109384, -6.065686E-05, 0.0005187925, 0.3846399, 0.8947459, 0.3503954
 233030917, -0.008814045, 0.02920968, 0.0003411919, 0.00104407, -0.003297659, 0.009594112, 0.0006191565, 0.0005187925, 0.378995, 0.8971664, 0.3503954
 233230837, -0.007200703, 0.02292705, 0.0005449175, 0.00104407, -0.001976246, 0.006062217, -1.190902E-05, 0.0005187925, 0.3793207, 0.8970404, 0.3503954
 233430757, -0.003955103, 0.01342835, 4.250137E-05, 0.00104407, -0.0007446204, 0.003150885, 0.0003813946, 0.0005187925, 0.3832603, 0.8953481, 0.3503954
 233630677, -0.001496977, 0.007089863, 0.0003311359, 0.00104407, -0.0002830281, 0.001718677, -6.234058E-05, 0.0005187925, 0.3879804, 0.8932724, 0.3503954
 233831430, -0.004697667, 0.004199691, 0.01628892, 0.001046232, -0.008934, -0.0009928182, 0.03855703, 0.0005209541, 0.3913002, 0.8917817, 0.3511209
 234031350, -0.01445565, 0.001818779, 0.06200797, 0.001046232, -0.0008771681, 0.002096934, 0.006749248, 0.0005187925, 0.3920433, 0.8911561, 0.3511209
 234231270, 0.00170238, 0.005600904, 0.006861377, 0.00104407, 0.002490681, 0.002072502, -0.003004343, 0.0005187925, 0.3902982, 0.8917247, 0.3503954
 234431190, 0.006673428, 0.004993854, -0.01308544, 0.00104407, 0.002094186, 0.001745416, -0.007155719, 0.0005187925, 0.3869938, 0.8933932, 0.3503954
 234631110, 0.0023491, 0.005965682, -0.02139491, 0.00104407, -0.0008692848, 0.002953025, -0.008876477, 0.0005187925, 0.3834559, 0.8953147, 0.3503954
 234831030, -0.004664806, 0.009898491, -0.02197376, 0.00104407, -0.00264316, 0.004571814, -0.007212798, 0.0005187925, 0.3806717, 0.8965778, 0.3503954
 235030950, -0.0074278, 0.0131591, -0.01804739, 0.00104407, -0.002722694, 0.005027613, -0.006178449, 0.0005187925, 0.3791231, 0.8971961, 0.3503954
 235230870, -0.007096199, 0.01291922, -0.01433114, 0.00104407, -0.002014688, 0.004310579, -0.00398999, 0.0005187925, 0.37869, 0.8972374, 0.3503954
 235430790, -0.005640205, 0.01098698, -0.00853873, 0.00104407, -0.002303451, 0.003698418, -0.001993738, 0.0005187925, 0.3792079, 0.8969311, 0.3503954
 235630710, -0.0080284, 0.0108191, 0.001109486, 0.00104407, -0.004665449, 0.003992255, 0.006855643, 0.0005187925, 0.3803589, 0.8964705, 0.3503954
 235831463, -0.05234217, -0.005475626, 0.1255902, 0.001046232, -0.04166749, -0.01161498, 0.08632755, 0.0005209541, 0.3836697, 0.9007592, 0.3511209
 236031383, -0.1617357, -0.05917167, 0.2736222, 0.001046232, -0.07797007, -0.03755242, 0.1188527, 0.0005187925, 0.3854817, 0.9061272, 0.3511209
 236231303, -0.1777276, -0.1372644, 0.3569433, 0.00104407, -0.03969983, -0.0674671, 0.1453087, 0.0005187925, 0.37138, 0.9067591, 0.3503954
 236431223, -0.05060115, -0.202853, 0.4091417, 0.00104407, 0.009710399, -0.08107386, 0.1504067, 0.0005187925, 0.3350221, 0.9121638, 0.3503954
 236631143, 0.05407709, -0.2203646, 0.3911561, 0.00104407, 0.03049526, -0.07824979, 0.1303138, 0.0005187925, 0.278616, 0.9262477, 0.3503954
 236831063, 0.08764275, -0.2034252, 0.3294691, 0.00104407, 0.0337701, -0.0681577, 0.1056258, 0.0005187925, 0.2126082, 0.9413629, 0.3503954
 237030983, 0.09949892, -0.1751839, 0.2612041, 0.00104407, 0.04102018, -0.05795375, 0.08090341, 0.0005187925, 0.150199, 0.9500524, 0.3503954
 237230903, 0.1281748, -0.1516717, 0.1967999, 0.00104407, 0.05534666, -0.05156219, 0.05892129, 0.0005187925, 0.1010188, 0.9518405, 0.3503954
 237430823, 0.1680387, -0.1373885, 0.1405798, 0.00104407, 0.0690937, -0.04813839, 0.04053901, 0.0005187925, 0.06840745, 0.9501167, 0.3503954
 237630743, 0.2001782, -0.1304255, 0.09461442, 0.00104407, 0.07843095, -0.04678296, 0.02582227, 0.0005187925, 0.05007378, 0.9475308, 0.3503954
 237830663, 0.2195192, -0.1282162, 0.05953484, 0.00104407, 0.08271176, -0.04643442, 0.01535869, 0.0005187925, 0.04061252, 0.9446068, 0.3503954
 238031416, 0.2316253, -0.1268946, 0.0355405, 0.001046232, 0.08699708, -0.04555372, 0.009486741, 0.0005209541, 0.03438848, 0.9411628, 0.3511209
 238231336, 0.2426193, -0.1204252, 0.0216172, 0.001046232, 0.0908572, -0.04123931, 0.005522301, 0.0005187925, 0.02760428, 0.9372894, 0.3511209
 238431256, 0.2532777, -0.1057528, 0.01234781, 0.00104407, 0.09440003, -0.03449896, 0.002890458, 0.0005187925, 0.01892057, 0.9332258, 0.3503954
 238631176, 0.2613889, -0.08646185, 0.006926354, 0.00104407, 0.09672087, -0.0269004, 0.00190199, 0.0005187925, 0.009105521, 0.9291213, 0.3503954
 238831096, 0.2675855, -0.06644553, 0.004666768, 0.00104407, 0.09851526, -0.0202928, 0.001795213, 0.0005187925, -0.0002612807, 0.9248654, 0.3503954
 239031016, 0.2723899, -0.04913049, 0.00457163, 0.00104407, 0.1007946, -0.01497065, 0.001314189, 0.0005187925, -0.00763818, 0.92037, 0.3503954
 239230936, 0.2777669, -0.03621064, 0.004170664, 0.00104407, 0.1026586, -0.01125029, 0.0008324202, 0.0005187925, -0.01219229, 0.9157827, 0.3503954
 239430856, 0.2813752, -0.02730082, 0.003111087, 0.00104407, 0.1023894, -0.008331683, 0.001034666, 0.0005187925, -0.01413238, 0.911781, 0.3503954
 239630776, 0.2771066, -0.02135465, 0.00210913, 0.00104407, 0.09861498, -0.006878325, 0.0003384201, 0.0005187925, -0.01437446, 0.9089232, 0.3503954
 239830696, 0.2649336, -0.01686436, -0.0002640383, 0.00104407, 0.09318323, -0.00511512, -0.0002726501, 0.0005187925, -0.01395032, 0.9068149, 0.3503954
 240031449, 0.2504309, -0.01271885, -0.00172324, 0.001046232, 0.08817969, -0.00413844, -0.0003838172, 0.0005209541, -0.01375257, 0.9046789, 0.3511209
 240231369, 0.2367294, -0.009691845, -0.002482755, 0.001046232, 0.08389599, -0.002960401, -0.00150108, 0.0005187925, -0.01421762, 0.9024579, 0.3511209
 240431289, 0.2251817, -0.005821982, -0.003025931, 0.00104407, 0.07980922, -0.0009124427, -0.0003505044, 0.0005187925, -0.0153581, 0.9002081, 0.3503954
 240631209, 0.2137588, -0.0001021877, -0.001382898, 0.00104407, 0.07556438, 0.00135421, -0.001032243, 0.0005187925, -0.01688145, 0.8983051, 0.3503954
 240831129, 0.2017493, 0.005362837, -0.00150011, 0.00104407, 0.07134203, 0.002808057, -0.0004179152, 0.0005187925, -0.01841193, 0.8964342, 0.3503954
 241031049, 0.1906792, 0.008879941, -0.0004914523, 0.00104407, 0.06762391, 0.003522072, -0.0001137588, 0.0005187925, -0.0197223, 0.8945939, 0.3503954
 241230969, 0.1807053, 0.01038231, -0.0006217983, 0.00104407, 0.06351825, 0.003953549, -0.0005237295, 0.0005187925, -0.02058692, 0.8929627, 0.3503954
 241430889, 0.1699032, 0.01146282, -0.001261237, 0.00104407, 0.05953728, 0.004081061, -5.452239E-05, 0.0005187925, -0.0210943, 0.8915076, 0.3503954
 241630809, 0.1596411, 0.01157125, -0.001018904, 0.00104407, 0.05593357, 0.003889, 7.713092E-05, 0.0005187925, -0.02147656, 0.8899821, 0.3503954
 241830729, 0.1506353, 0.0115164, -0.0003658905, 0.00104407, 0.05345489, 0.004508561, -1.464258E-05, 0.0005187925, -0.02190898, 0.8885033, 0.3503954
 242031482, 0.1429767, 0.0119835, -0.0001406119, 0.001046232, 0.05067984, 0.004297674, -0.000132068, 0.0005209541, -0.02242395, 0.8870904, 0.3511209
 242231402, 0.1350254, 0.01148758, 0.0001024087, 0.001046232, 0.0477944, 0.003961633, -0.000684189, 0.0005187925, -0.02294104, 0.8857186, 0.3511209
 242431322, 0.1279441, 0.01107575, -0.0007763142, 0.00104407, 0.04566986, 0.004017831, -0.001044443, 0.0005187925, -0.02347819, 0.8843555, 0.3503954
 242631242, 0.1218769, 0.01124229, -0.001534982, 0.00104407, 0.04334386, 0.004375574, -0.001052564, 0.0005187925, -0.0240287, 0.8831882, 0.3503954
 242831162, 0.1148447, 0.0118368, -0.001866568, 0.00104407, 0.03999244, 0.004083316, -0.0003363861, 0.0005187925, -0.02462092, 0.8821917, 0.3503954
 243031082, 0.1068913, 0.01154455, -0.001365911, 0.00104407, 0.03750723, 0.004271508, -0.0002736534, 0.0005187925, -0.0253645, 0.8811407, 0.3503954
 243231002, 0.1012802, 0.01127669, -0.001409303, 0.00104407, 0.0362986, 0.004023492, -0.0008052596, 0.0005187925, -0.02608637, 0.8798283, 0.3503954
 243430922, 0.09834715, 0.01112195, -0.002651373, 0.00104407, 0.03498342, 0.004285746, -0.0007070132, 0.0005187925, -0.02669077, 0.8786395, 0.3503954
 243630842, 0.09449367, 0.01147806, -0.002592511, 0.00104407, 0.03386765, 0.003920675, -0.001229006, 0.0005187925, -0.027232, 0.8774604, 0.3503954
 243830762, 0.09050903, 0.01065538, -0.001851022, 0.00104407, 0.03188508, 0.003866871, -0.0001980704, 0.0005187925, -0.027736, 0.8763408, 0.3503954
 244030682, 0.08545511, 0.01035853, -0.0007029521, 0.00104407, 0.02999688, 0.003710262, -0.0007571051, 0.0005187925, -0.02831584, 0.8754696, 0.3503954
 244231435, 0.08049109, 0.009943592, -0.0005215036, 0.001046232, 0.0280955, 0.003410001, 0.0007865993, 0.0005209541, -0.02888747, 0.8745007, 0.3511209
 244431355, 0.07680602, 0.009656552, 0.0008565257, 0.001046232, 0.0276999, 0.003647603, 0.0003629866, 0.0005187925, -0.02942218, 0.8733038, 0.3511209
 244631275, 0.07547233, 0.00968066, 0.0002844936, 0.00104407, 0.02730531, 0.003579795, -0.0002387486, 0.0005187925, -0.02992728, 0.872187, 0.3503954
 244831195, 0.0736862, 0.009206661, -0.0007650843, 0.00104407, 0.02658926, 0.00338626, -0.001217845, 0.0005187925, -0.03040613, 0.8712377, 0.3503954
 245031115, 0.07064012, 0.00973178, -0.001995353, 0.00104407, 0.02445624, 0.003804819, -9.98336E-05, 0.0005187925, -0.03087112, 0.8704304, 0.3503954
 245231035, 0.06661151, 0.01011959, -0.002121231, 0.00104407, 0.02333326, 0.003122415, -0.00106221, 0.0005187925, -0.03132432, 0.8697333, 0.3503954
 245430955, 0.06285474, 0.008336262, -0.00230217, 0.00104407, 0.02284783, 0.002606862, -0.001803646, 0.0005187925, -0.0318065, 0.8687894, 0.3503954
 245630875, 0.06204759, 0.005404733, -0.002708957, 0.00104407, 0.02212647, 0.00121054, -0.0001102114, 0.0005187925, -0.0324227, 0.8676437, 0.3503954
 245830795, 0.06074037, 0.002181873, -0.0004318238, 0.00104407, 0.02218439, 0.0002630911, -0.0009545512, 0.0005187925, -0.03314468, 0.8667305, 0.3503954
 246030715, 0.05912553, 0.0003288629, -0.00124919, 0.00104407, 0.02112242, -6.768649E-05, -0.0004257442, 0.0005187925, -0.03393954, 0.8659587, 0.3503954
 246231468, 0.05567212, -0.0009907533, -0.0008036653, 0.001046232, 0.01963311, -0.000773521, -0.0003506008, 0.0005209541, -0.03504247, 0.8653072, 0.3511209
 246431388, 0.05258448, -0.001129657, -0.0007801224, 0.001046232, 0.018606, -1.887225E-05, 6.852508E-05, 0.0005187925, -0.03628007, 0.8644311, 0.3511209
 246631308, 0.05087673, 0.0008107706, 0.0002592921, 0.00104407, 0.01845606, 0.0008390341, -0.0004198993, 0.0005187925, -0.03730828, 0.8634569, 0.3503954
 246831228, 0.04970371, 0.002422005, -2.496916E-05, 0.00104407, 0.01733075, 0.0009864831, -3.043864E-05, 0.0005187925, -0.03809854, 0.8633318, 0.3503954
 247031148, 0.03932066, 0.003558584, -0.001810458, 0.00104407, 0.009609086, 0.001537667, -0.001019667, 0.0005187925, -0.03893526, 0.8652484, 0.3503954
 247231068, 0.01947287, 0.005060908, -0.001560325, 0.00104407, 0.004123777, 0.002109544, 0.0002689, 0.0005187925, -0.03965435, 0.8660573, 0.3503954
 247430988, 0.0133016, 0.006197297, 0.0005743183, 0.00104407, 0.006662596, 0.002385232, -0.0003129863, 0.0005187925, -0.04037346, 0.8643246, 0.3503954
 247630908, 0.02427497, 0.006475039, 0.001981212, 0.00104407, 0.01210937, 0.002446727, 0.001377551, 0.0005187925, -0.04096101, 0.8617451, 0.3503954
 247830828, 0.03780895, 0.007240437, 0.003231669, 0.00104407, 0.01586406, 0.00302038, -0.0001329295, 0.0005187925, -0.04140847, 0.8601606, 0.3503954
 248030748, 0.04312089, 0.008261311, -0.0005706304, 0.00104407, 0.015575, 0.002948191, -0.0006236358, 0.0005187925, -0.04175977, 0.8597977, 0.3503954
 248230668, 0.04006668, 0.008434478, -0.002360713, 0.00104407, 0.01300868, 0.003267497, -0.0008841506, 0.0005187925, -0.04215758, 0.8596929, 0.3503954
