TimeUS,CAN,CAE,CAD,CAe
 138873595, -0.002788669, 0.003587954, 0.0001344429, 0.0002593962
 138973555, -0.002753504, 0.003505732, 9.19451E-05, 0.0002593962
 139073515, -0.002696088, 0.003631922, -0.0001929751, 0.0002593962
 139173475, -0.00260933, 0.003436541, -0.000214672, 0.0002593962
 139274268, 0.01984625, 0.001027257, -8.026687E-05, 0.0002615578
 139374228, 0.09006356, -0.00677894, -0.000161545, 0.0002593962
 139474188, 0.1851576, -0.01758442, 0.001017592, 0.0002593962
 139574148, 0.2900131, -0.02866337, 0.004116128, 0.0002593962
 139674108, 0.3986238, -0.03961917, 0.007545608, 0.0002593962
 139774068, 0.5063758, -0.05147394, 0.01012037, 0.0002593962
 139874028, 0.6091318, -0.06506485, 0.01209674, 0.0002593962
 139993980, 0.8790183, -0.09293031, 0.01788176, 0.0003112754
 140093940, 0.821611, -0.0857049, 0.01692713, 0.0002593962
 140193900, 0.9062008, -0.09744233, 0.01909407, 0.0002593962
 140293860, 0.9585725, -0.1040206, 0.02095529, 0.0002593962
 140393820, 0.9487029, -0.09412536, 0.02258047, 0.0002593962
 140493780, 0.9254586, -0.09742814, 0.02254568, 0.0002593962
 140593740, 0.8852492, -0.09542155, 0.02222528, 0.0002593962
 140693700, 0.8371325, -0.09007836, 0.02089393, 0.0002593962
 140793660, 0.7911627, -0.08304526, 0.01835177, 0.0002593962
 140893620, 0.7378917, -0.07425026, -0.02960455, 0.0002593962
 140993580, 0.6875781, -0.07204794, -0.03919412, 0.0002593962
 141093540, 0.6423447, -0.07177897, 0.002567942, 0.0002593962
 141193500, 0.5984461, -0.05819503, 0.02660002, 0.0002593962
 141294293, 0.8942332, -0.09851145, -0.188708, 0.0002615578
 141394253, 0.8800806, -0.08916813, -0.5546623, 0.0002593962
 141494213, 0.8165632, -0.09041715, -0.5721173, 0.0002593962
 141594173, 0.7511535, -0.0857132, -0.4409785, 0.0002593962
 141694133, 0.6980451, -0.0661106, -0.3019903, 0.0002593962
 141794093, 0.6595057, -0.06361081, -0.2108178, 0.0002593962
 141894053, 0.6284094, -0.06941903, -0.1623001, 0.0002593962
 141994013, 0.581253, -0.07344435, -0.186264, 0.0002593962
 142113965, 0.6517922, -0.07872295, -0.2699946, 0.0003112754
 142213925, 0.4899077, -0.05260346, -0.1959525, 0.0002593962
 142313885, 0.4506629, -0.04958547, -0.2337411, 0.0002593962
 142413845, 0.4153347, -0.04180218, -0.2034945, 0.0002593962
 142513805, 0.3893603, -0.04520087, -0.1689212, 0.0002593962
 142613765, 0.361441, -0.03923534, -0.1407309, 0.0002593962
 142713725, 0.3379162, -0.03244253, -0.1272926, 0.0002593962
 142813685, 0.3163095, -0.02159362, -0.1242371, 0.0002593962
 142913645, 0.2822219, -0.02310609, -0.1576601, 0.0002593962
 143013605, 0.2611807, -0.02679872, -0.1289954, 0.0002593962
 143113565, 0.2409858, -0.03155, -0.1257087, 0.0002593962
 143213525, 0.2168495, -0.029868, -0.1433973, 0.0002593962
 143313485, 0.2005364, -0.02417435, -0.1142127, 0.0002593962
 143414278, 0.1873134, -0.02044116, -0.1006561, 0.0002615578
 143514238, 0.1691595, -0.02587076, -0.08320839, 0.0002593962
 143614198, 0.162211, -0.02400886, -0.07246049, 0.0002593962
 143714158, 0.1460074, -0.0152435, -0.05385727, 0.0002593962
 143814118, 0.1297201, -0.02116753, -0.08634304, 0.0002593962
 143914078, 0.1060606, -0.02373587, -0.1021389, 0.0002593962
 144014038, 0.09804737, -0.01741825, -0.09263983, 0.0002593962
 144113998, 0.1050635, 0.0003563485, -0.05087699, 0.0002593962
 144233950, 0.09823961, 0.007471004, -0.09597753, 0.0003112754
 144333910, 0.07560366, 0.01042461, -0.06480544, 0.0002593962
 144433870, 0.07303887, 0.007022307, -0.05411232, 0.0002593962
 144533830, 0.06384603, -0.01919159, -0.01277179, 0.0002593962
 144633790, 0.05393207, -0.0190642, -0.004801603, 0.0002593962
 144733750, 0.04886059, -0.01109514, -0.0100217, 0.0002593962
 144833710, 0.05297136, 0.001341311, 0.02240521, 0.0002593962
 144933670, 0.05007818, 0.002289966, 0.005793265, 0.0002593962
 145033630, 0.03899756, 0.0008940356, -0.01923418, 0.0002593962
 145133590, 0.02472179, -0.006922832, -0.04324006, 0.0002593962
 145233550, 0.02442989, -3.817034E-05, -0.03073178, 0.0002593962
 145333510, 0.03137312, 0.002161896, -0.004722307, 0.0002593962
 145434303, 0.04432458, 0.004187762, 0.02949861, 0.0002593962
 145534263, 0.0301121, 0.005183654, 0.004658334, 0.0002615578
 145634223, 0.0211322, -0.008051786, -0.0006544639, 0.0002593962
 145734183, 0.02840855, -0.01150799, 0.03525852, 0.0002593962
 145834143, 0.03563001, -0.004267744, 0.04426496, 0.0002593962
 145934103, 0.02274757, -0.01114772, 0.02726128, 0.0002593962
 146034063, 0.02292148, -0.01202188, 0.03497387, 0.0002593962
 146134023, 0.04707517, -0.01060247, 0.1006767, 0.0002593962
 146253975, 0.06819943, -0.01161923, 0.1889264, 0.0003112754
 146353935, 0.05268383, -0.0001264984, 0.1134237, 0.0002593962
 146453895, 0.04367507, -0.009976335, 0.07598378, 0.0002593962
 146553855, 0.05172522, -0.01100728, 0.09804013, 0.0002593962
 146653815, 0.0390112, -0.0003339954, 0.1060596, 0.0002593962
 146753775, 0.01480609, 0.01631998, 0.1090441, 0.0002593962
 146853735, -0.005540531, 0.02740055, 0.08048234, 0.0002593962
 146953695, -0.0005000418, 0.0178399, 0.09082185, 0.0002593962
 147053655, 0.001991655, 0.004782218, 0.06714533, 0.0002593962
 147153615, 0.01690401, -0.006294518, 0.1310209, 0.0002593962
 147253575, 0.0250419, -0.002574201, 0.1395388, 0.0002593962
 147353535, 0.01976533, -0.007831, 0.1058315, 0.0002593962
 147453495, 0.01577096, -0.006825675, 0.07926937, 0.0002593962
 147554288, -0.003649393, -0.01145506, 0.04955913, 0.0002615578
 147654248, -0.01028867, -0.04326444, 0.06561646, 0.0002593962
 147754208, -0.005017531, 0.02815175, 0.1087013, 0.0002593962
 147854168, 0.01501878, 0.1767594, 0.1615287, 0.0002593962
 147954128, 0.01897055, 0.2634358, 0.1781369, 0.0002593962
 148054088, 0.005183251, 0.2483037, 0.1313615, 0.0002593962
 148154048, -0.01328469, 0.1440083, 0.09555305, 0.0002593962
 148254008, -0.02992569, 0.03250546, 0.03249565, 0.0002593962
 148373960, -0.04806663, -0.02437372, 0.02860872, 0.0003112754
 148473920, -0.03287848, -0.0195864, 0.09501583, 0.0002593962
 148573880, -0.02569302, 0.01310178, 0.1530197, 0.0002593962
 148673840, -0.0161403, 0.06696438, 0.1617958, 0.0002593962
 148773800, -0.02338969, 0.1041505, 0.1241441, 0.0002593962
 148873760, -0.02241839, 0.107113, 0.1122904, 0.0002593962
 148973720, -0.01793063, 0.0976175, 0.1419357, 0.0002593962
 149073680, -0.02013207, 0.07041438, 0.1142942, 0.0002593962
 149173640, -0.02635956, 0.05566249, 0.0781459, 0.0002593962
 149273600, -0.03198591, 0.0291453, 0.06221073, 0.0002593962
 149373560, -0.03058195, 0.0282504, 0.09604117, 0.0002593962
 149473520, -0.02620083, 0.03750291, 0.1220207, 0.0002593962
 149573480, -0.02892026, 0.05442651, 0.1079613, 0.0002593962
 149674273, -0.02789651, 0.06345497, 0.1148138, 0.0002615578
 149774233, -0.02635487, 0.05670402, 0.1347954, 0.0002593962
 149874193, -0.02460386, 0.05542422, 0.1592882, 0.0002593962
 149974153, -0.01670714, 0.05795949, 0.1207915, 0.0002593962
 150074113, -0.01383958, 0.04811136, 0.065236, 0.0002593962
 150174073, -0.01410138, 0.0554896, 0.04359299, 0.0002593962
 150274033, -0.01292445, 0.05584571, 0.04532523, 0.0002593962
 150373993, -0.01872098, 0.04806799, 0.0637446, 0.0002593962
 150493945, -0.01805117, 0.06004462, 0.1016062, 0.0003112754
 150593905, -0.01363477, 0.04428623, 0.07419279, 0.0002593962
 150693865, -0.01107789, 0.02843225, 0.05855156, 0.0002593962
 150793825, -0.009821856, 0.03230339, 0.05968165, 0.0002593962
 150893785, -0.0113935, 0.03743653, 0.08046657, 0.0002593962
 150993745, -0.008751024, 0.03239066, 0.1189387, 0.0002593962
 151093705, -0.003886001, 0.02144356, 0.1222653, 0.0002593962
 151193665, -0.003960975, 0.02755454, 0.08104406, 0.0002593962
 151293625, -0.009432384, 0.03095799, 0.01075602, 0.0002593962
 151393585, -0.01207094, 0.03771351, 0.02512302, 0.0002593962
 151493545, -0.01539045, 0.0342796, 0.05109994, 0.0002593962
 151593505, -0.008474149, 0.03842517, 0.01152831, 0.0002593962
 151694298, -0.01157945, 0.0332756, -0.003459585, 0.0002593962
 151794258, -0.009522058, 0.02910317, 0.009940172, 0.0002615578
 151894218, -0.004674804, 0.01957402, 0.05510832, 0.0002593962
 151994178, -0.005633913, 0.01615839, 0.05791274, 0.0002593962
 152094138, -0.005446104, 0.02447798, 0.05526577, 0.0002593962
 152194098, -0.006290983, 0.02231253, 0.06872119, 0.0002593962
 152294058, -0.008640196, 0.01573447, 0.04239901, 0.0002593962
 152394018, -0.007118437, 0.01234174, 0.007868841, 0.0002593962
 152513970, -0.01245975, 0.02150031, 0.07850163, 0.0003112754
 152613930, 0.0005883649, 0.01938239, 0.08401795, 0.0002593962
 152713890, 0.007733784, 0.02827772, 0.02106418, 0.0002593962
 152813850, 0.007730884, 0.017849, 0.00823135, 0.0002593962
 152913810, 0.001475585, 0.01321398, -0.01111716, 0.0002593962
 153013770, -0.003388749, 0.02567507, 0.001317699, 0.0002593962
 153113730, 0.003852039, 0.020642, 0.01799326, 0.0002593962
 153213690, -0.003060958, 0.01630443, 0.04950156, 0.0002593962
 153313650, 0.004835009, 0.01226218, 0.04918519, 0.0002593962
 153413610, 0.0007724772, 0.01419964, 0.02891144, 0.0002593962
 153513570, -0.000601148, 0.01533533, 0.04067574, 0.0002593962
 153613530, -0.004793349, 0.01714066, 0.03710353, 0.0002593962
 153713490, 0.000998118, 0.0155747, 0.0161052, 0.0002593962
 153814283, 0.001892369, 0.01351904, 0.0003826544, 0.0002615578
 153914243, -0.0007365816, 0.01287934, -0.03435594, 0.0002593962
 154014203, 0.006493209, 0.01603461, 0.01321293, 0.0002593962
 154114163, 0.003728, 0.01191906, 0.02196037, 0.0002593962
 154214123, 0.000639875, 0.009895291, 0.01359743, 0.0002593962
 154314083, 0.00558449, 0.01219785, 0.02288422, 0.0002593962
 154414043, 0.004891567, 0.01429474, 0.005903581, 0.0002593962
 154514003, 0.01664563, 0.0195339, -0.01465803, 0.0002593962
 154633955, 0.01200236, 0.02156836, -0.01789283, 0.0003112754
 154733915, -0.005968108, 0.01676666, -0.001632247, 0.0002593962
 154833875, -0.005580726, 0.01245861, 0.01802332, 0.0002593962
 154933835, 0.005429373, 0.006808193, 0.03561737, 0.0002593962
 155033795, 0.001937078, 0.004910096, 0.04212165, 0.0002593962
 155133755, -0.004962765, 0.009357768, 0.01317186, 0.0002593962
 155233715, 0.01470918, 0.003273587, 0.01235028, 0.0002593962
 155333675, 0.006239547, 0.01075455, 0.01810133, 0.0002593962
 155433635, 0.004875241, -0.001450162, 0.02103178, 0.0002593962
 155533595, 0.005968076, -0.003114209, -0.03557839, 0.0002593962
 155633555, 0.00615097, 0.004696443, -0.009066406, 0.0002593962
 155733515, 0.004581937, 0.002729679, -0.01043077, 0.0002593962
 155833475, 0.006579847, 0.004911133, -0.01570455, 0.0002593962
 155934268, 0.006624804, 0.01397311, -0.02052897, 0.0002615578
 156034228, 0.009074265, 0.00820997, 0.001967901, 0.0002593962
 156134188, 0.01006165, 0.009600128, 0.006442659, 0.0002593962
 156234148, 0.01130782, 0.007225331, 0.01925585, 0.0002593962
 156334108, 0.01130506, 0.009241457, -0.009304729, 0.0002593962
 156434068, 0.00679242, 0.01488187, -0.019772, 0.0002593962
 156534028, 0.00778788, 0.01550878, -0.002340353, 0.0002593962
 156653980, 0.006724158, 0.004768093, 6.672111E-05, 0.0003112754
 156753940, 0.006016255, 0.01046025, 0.02574985, 0.0002593962
 156853900, 0.005294669, 0.004741336, 0.01253473, 0.0002593962
 156953860, 0.005538202, 0.00539467, 0.01876019, 0.0002593962
 157053820, 0.0003689097, -0.0009806006, -0.009312413, 0.0002593962
 157153780, 0.009019434, 0.00846353, -0.01169595, 0.0002593962
 157253740, 0.01036232, 0.01078308, -0.02038541, 0.0002593962
 157353700, 0.01189158, 0.01579221, -0.006252095, 0.0002593962
 157453660, 0.01185788, 0.01153271, -0.03134536, 0.0002593962
 157553620, 0.0100089, 0.01207798, -0.006237424, 0.0002593962
 157653580, 0.008487204, 0.0008263947, -0.01262734, 0.0002593962
 157753540, 0.005149269, 0.0001696621, 0.01042922, 0.0002593962
 157853500, 0.009994496, 0.008661135, 0.02354825, 0.0002593962
 157954293, 0.008685345, 0.00333973, 0.02330533, 0.0002615578
 158054253, 0.007269432, 0.009049442, -0.01775586, 0.0002593962
 158154213, 0.005424156, 0.002939494, -0.008190931, 0.0002593962
 158254173, 0.004910374, 0.00812613, -0.02035189, 0.0002593962
 158354133, 0.009035617, 0.003283041, -0.007721338, 0.0002593962
 158454093, 0.01167382, 0.007867819, 0.03316022, 0.0002593962
 158554053, 0.01550313, 0.009596147, 0.03380353, 0.0002593962
 158654013, 0.01374329, 0.009587162, -0.02080236, 0.0002593962
 158773965, 0.01443295, 0.005007043, -0.03179289, 0.0003112754
 158873925, 0.009259976, 0.003362059, 0.004701783, 0.0002593962
 158973885, 0.007384782, 0.001302257, 0.008419424, 0.0002593962
 159073845, 0.009515734, 0.007407112, -0.01767267, 0.0002593962
 159173805, 0.002394105, 0.0102127, -0.05167072, 0.0002593962
 159273765, 0.004689362, 0.01408976, -0.05740098, 0.0002593962
 159373725, 0.001927754, 0.01685992, -0.009765103, 0.0002593962
 159473685, 0.006551919, 0.01965065, -0.01706885, 0.0002593962
 159573645, 0.0007047298, 0.01487401, 0.008359959, 0.0002593962
 159673605, 0.0003304859, 0.01125752, -0.008156078, 0.0002593962
 159773565, 3.308489E-05, -0.002711926, -0.05347875, 0.0002593962
 159873525, -0.003118672, 0.0006809554, -0.01222932, 0.0002593962
 159973485, 0.007587056, -0.01578008, 0.004486444, 0.0002593962
 160074278, 0.01316937, -0.01996418, 0.02325855, 0.0002615578
 160174238, 0.007958319, -0.01330832, -0.007538325, 0.0002593962
 160274198, 0.01014269, -0.004674235, 0.02439469, 0.0002593962
 160374158, 0.009292424, 0.01893037, 0.02275827, 0.0002593962
 160474118, 0.006617742, 0.02810501, -0.01360663, 0.0002593962
 160574078, 0.006029101, 0.01373923, -0.05035818, 0.0002593962
 160674038, 0.003819164, 0.003811491, 0.0111456, 0.0002593962
 160773998, 0.004410058, -0.004309192, 0.03088089, 0.0002593962
 160893950, 0.006743648, -0.006051411, -0.02806978, 0.0003112754
 160993910, 0.004703607, 0.0003874091, -0.03168759, 0.0002593962
 161093870, 8.269434E-05, 0.01462431, -0.06011713, 0.0002593962
 161193830, -0.0006660808, 0.01536118, -0.03248761, 0.0002593962
 161293790, 0.001409288, 0.001763256, -0.0096217, 0.0002593962
 161393750, 0.002848155, 0.002965725, 0.01072707, 0.0002593962
 161493710, 0.0007924744, 0.01137009, -0.003499557, 0.0002593962
 161593670, 0.002416606, 0.01543446, 0.01519036, 0.0002593962
 161693630, 0.003578598, 0.007178388, -0.02910139, 0.0002593962
 161793590, 0.003628826, 0.01341459, -0.01761249, 0.0002593962
 161893550, 0.00500488, 0.006180163, 0.02255076, 0.0002593962
 161993510, 0.008435421, 0.001214407, 0.01927572, 0.0002593962
 162094303, 0.001004564, 0.0005388352, 0.006972041, 0.0002593962
 162194263, -0.002407186, 0.01082282, -0.00822654, 0.0002615578
 162294223, 0.00198621, 0.009124463, -0.004230228, 0.0002593962
 162394183, 0.005851024, 0.01258689, -0.02295292, 0.0002593962
 162494143, 0.006003401, 0.01662167, -0.03798629, 0.0002593962
 162594103, 0.004327217, 0.007363569, -0.03581034, 0.0002593962
 162694063, 0.0001227556, -0.009697512, 0.02027068, 0.0002593962
 162794023, 1.951063E-05, -0.004666454, 0.01671026, 0.0002593962
 162913975, 0.002576923, 0.001875833, 0.01701513, 0.0003112754
 163013935, 0.0009540629, 0.003146966, 0.01609237, 0.0002593962
 163113895, 0.006108899, -0.004431619, 0.008872668, 0.0002593962
 163213855, 0.003216542, 0.001658109, -0.01352571, 0.0002593962
 163313815, 0.0006516653, -0.001045092, 0.0005419087, 0.0002593962
 163413775, 0.005257652, 0.00763701, 0.007258734, 0.0002593962
 163513735, 0.01111174, 0.006074989, -0.04005196, 0.0002593962
 163613695, 0.01139608, -0.00130239, -0.01582907, 0.0002593962
 163713655, 0.0002071282, 0.0001426695, 0.008669369, 0.0002593962
 163813615, 0.0006233356, 0.005666158, 0.006800257, 0.0002593962
 163913575, 0.01231587, 0.004772278, -0.03902781, 0.0002593962
 164013535, 0.00919571, 0.01480281, -0.02849405, 0.0002593962
 164113495, 0.008568473, 0.01145583, -0.01604304, 0.0002593962
 164214288, 0.00176273, -0.0002652034, 0.005192918, 0.0002615578
 164314248, -0.0002503868, 0.001795301, 0.03999458, 0.0002593962
 164414208, 0.000322209, -0.003750026, -0.04183386, 0.0002593962
 164514168, 0.000375143, -0.001803295, -0.0188134, 0.0002593962
 164614128, -0.004112883, 0.0006868584, 0.005158163, 0.0002593962
 164714088, -0.003816002, 0.001274682, -0.02132246, 0.0002593962
 164814048, -0.002250355, 0.003694182, 0.0273761, 0.0002593962
 164914008, 0.005389567, 0.006463527, 0.01649139, 0.0002593962
 165033960, 0.004993369, 0.003046892, -0.01540251, 0.0003112754
 165133920, 0.0003215156, -0.007193498, -0.02391709, 0.0002593962
 165233880, -0.004045902, 0.003092885, 0.002870222, 0.0002593962
 165333840, -0.002468339, 0.01217058, 0.01444786, 0.0002593962
 165433800, 0.0001660067, 0.01508083, -8.019083E-05, 0.0002593962
 165533760, 0.0004229209, -0.001839827, -0.02707686, 0.0002593962
 165633720, 0.002693354, -0.002959679, -0.003256391, 0.0002593962
 165733680, 0.007259879, 0.003354759, 0.005882904, 0.0002593962
 165833640, 0.0008929943, 0.0004798195, -0.0221086, 0.0002593962
 165933600, 0.0002388323, -0.0004120235, -0.01976143, 0.0002593962
 166033560, -0.002421706, 0.006098929, 0.01033824, 0.0002593962
 166133520, 0.002415176, 0.004454241, 0.003312102, 0.0002593962
 166233480, 0.003419653, 0.002030442, -0.02979261, 0.0002593962
 166334273, -0.006265347, 0.0004880584, -0.02709531, 0.0002615578
 166434233, -0.005826025, 0.002829467, 0.007092775, 0.0002593962
 166534193, 0.004024749, -0.001389401, -0.00676019, 0.0002593962
 166634153, -0.003515275, -0.00217394, -0.02635842, 0.0002593962
 166734113, 0.00109735, 0.0002691709, -0.01783107, 0.0002593962
 166834073, -5.878511E-05, 0.001040596, -0.007764341, 0.0002593962
 166934033, -0.001918328, 0.002261481, 0.013053, 0.0002593962
 167033993, 0.0007444524, 0.006172874, 0.0502835, 0.0002593962
 167153945, 0.00195796, 0.006244608, 0.00328234, 0.0003112754
 167253905, -0.001014958, 0.005575327, -0.01402911, 0.0002593962
 167353865, 0.00164366, 0.0104457, -0.02757071, 0.0002593962
 167453825, -0.001868854, 0.01589603, -0.009829793, 0.0002593962
 167553785, -0.0006166026, 0.009641856, -0.02021251, 0.0002593962
 167653745, -0.004037401, 0.02057445, 0.00906082, 0.0002593962
 167753705, 0.003630728, 0.01782699, -0.002854483, 0.0002593962
 167853665, -0.005412666, 0.006706366, -0.01154346, 0.0002593962
 167953625, -0.0005253177, 0.001601001, -0.01561794, 0.0002593962
 168053585, -0.0004220088, 0.00589571, -0.02930611, 0.0002593962
 168153545, -0.005936954, 0.005845335, -0.0150017, 0.0002593962
 168253505, -0.00551956, 0.007094905, -0.02262187, 0.0002593962
 168354298, -0.01102763, -0.01393677, 0.02836391, 0.0002593962
 168454258, -0.001057185, -0.005987486, 0.02288403, 0.0002615578
 168554218, -0.00326223, 0.001731919, 0.02716361, 0.0002593962
 168654178, -0.00211041, 0.01031202, -0.004593203, 0.0002593962
 168754138, -0.002650918, 0.01146955, -0.01772473, 0.0002593962
 168854098, -0.006026708, 0.005536843, -0.04398646, 0.0002593962
 168954058, -0.00417458, 0.003001998, 0.00340072, 0.0002593962
 169054018, -0.004307203, 0.00721945, 0.02667801, 0.0002593962
 169173970, -0.006562237, 0.01437121, 0.05375515, 0.0003112754
 169273930, 0.0005579125, -0.00320442, 0.05838879, 0.0002593962
 169373890, -0.0005598216, -0.002735933, 0.002408751, 0.0002593962
 169473850, -0.001195086, -0.006135331, -0.01077672, 0.0002593962
 169573810, 0.00157412, 0.01197883, -0.04646149, 0.0002593962
 169673770, 0.004192699, 0.01648566, -0.0357838, 0.0002593962
 169773730, 7.839492E-05, 0.008749276, -0.04659461, 0.0002593962
 169873690, 0.01239308, 0.002265714, -0.03891731, 0.0002593962
 169973650, 0.01005646, -0.002814119, 0.01021844, 0.0002593962
 170073610, -0.0002421695, -0.002764496, 0.03631577, 0.0002593962
 170173570, -0.005354722, 0.0124258, 0.01335336, 0.0002593962
 170273530, 0.0002276145, 0.01757164, -0.00194284, 0.0002593962
 170373490, -0.0004614168, 0.01448789, 0.02568122, 0.0002593962
 170474283, 0.004963791, -0.003853158, 0.04362229, 0.0002615578
 170574243, 0.007203762, 0.003172464, 0.02125509, 0.0002593962
 170674203, 0.004921084, -0.002218889, 0.004988781, 0.0002593962
 170774163, 0.007494573, -0.003644882, -0.01335904, 0.0002593962
 170874123, -0.01200838, -0.0009439365, -0.05292084, 0.0002593962
 170974083, 0.01193251, 0.01189698, -0.04130674, 0.0002593962
 171074043, 0.01256261, 0.01265846, 0.01112095, 0.0002593962
 171174003, 0.004700441, 0.003476413, -8.175441E-05, 0.0002593962
 171293955, -0.006632911, -0.0003332255, -0.01895577, 0.0003112754
 171393915, -0.009775697, 0.005174428, -0.02193144, 0.0002593962
 171493875, -0.006789799, 0.002799632, 0.0154246, 0.0002593962
 171593835, 4.589226E-05, 0.002118819, 0.02603793, 0.0002593962
 171693795, -0.006538569, 0.0209669, -0.0005394968, 0.0002593962
 171793755, -0.03090679, 0.01818805, -0.02217011, 0.0002593962
 171893715, -0.0217659, 0.01456873, 0.009162898, 0.0002593962
 171993675, -0.009145528, -0.001920843, 0.004242763, 0.0002593962
 172093635, -0.002128791, -0.007298281, -0.002691193, 0.0002593962
 172193595, 0.002374073, 0.00147953, 0.008503867, 0.0002593962
 172293555, 0.03034874, 0.007095198, -0.01021836, 0.0002593962
 172393515, 0.01843099, 0.00828699, -0.006584384, 0.0002593962
 172493475, -0.01412701, 0.005742843, -0.03135622, 0.0002593962
 172594268, -0.04644385, -0.005769633, -0.02356796, 0.0002615578
 172694228, -0.01859969, -0.006481289, -0.04349375, 0.0002593962
 172794188, -0.009603117, 0.01144233, -0.004488017, 0.0002593962
 172894148, -0.007467786, 0.01640874, 0.03792665, 0.0002593962
 172994108, 0.001755399, 0.01569098, 0.02871361, 0.0002593962
 173094068, -0.002166943, 0.002440253, 0.03394587, 0.0002593962
 173194028, 0.001406648, 0.003070077, -0.003561531, 0.0002593962
 173313980, 0.01473383, 0.001931036, 0.01320513, 0.0003112754
 173413940, 0.02888408, 0.003092402, -0.01306542, 0.0002593962
 173513900, -0.02151704, 0.01367883, -0.03193069, 0.0002593962
 173613860, -0.02544534, 0.01442304, -0.03159765, 0.0002593962
 173713820, -0.01539044, 0.00546159, -0.02437189, 0.0002593962
 173813780, -0.009873987, -0.000824278, -0.03294804, 0.0002593962
 173913740, -0.003834928, 0.01120943, -0.0110476, 0.0002593962
 174013700, -0.001920651, 0.01199809, 0.0274859, 0.0002593962
 174113660, 0.003181564, 0.006531637, 0.03638594, 0.0002593962
 174213620, 0.0001815727, 0.01590897, 0.009943807, 0.0002593962
 174313580, -0.00337851, 0.01286575, -0.0177354, 0.0002593962
 174413540, -0.003423751, 0.01349809, -0.02504574, 0.0002593962
 174513500, -0.006432755, 0.003976005, 0.005452196, 0.0002593962
 174614293, -0.007812767, -0.003305622, 0.01116317, 0.0002615578
 174714253, -0.006210135, -0.002503124, 0.0239125, 0.0002593962
 174814213, -0.0007102684, -0.001675504, 0.02360971, 0.0002593962
 174914173, 0.001418466, 0.007502481, 0.0002753111, 0.0002593962
 175014133, 0.0006748677, 0.009136115, 0.02047765, 0.0002593962
 175114093, 0.002828798, 0.008534809, 0.01982696, 0.0002593962
 175214053, 0.01093716, 0.004121479, 0.007771349, 0.0002593962
 175314013, 0.03023688, 0.01013445, -0.02202187, 0.0002593962
 175433965, 0.008918146, 0.006684592, 0.01259402, 0.0003112754
 175533925, -0.01028693, 0.003122095, -0.03106477, 0.0002593962
 175633885, -0.03806955, 0.003211367, -0.04115606, 0.0002593962
 175733845, -0.02449975, 0.008259595, -0.01728395, 0.0002593962
 175833805, -0.005940387, 0.01017957, 0.01674972, 0.0002593962
 175933765, 0.01206517, -0.004472831, 0.03556641, 0.0002593962
 176033725, 0.03927881, -0.0002318422, 0.02323349, 0.0002593962
 176133685, 0.01100553, -0.008251289, -0.02012594, 0.0002593962
 176233645, -0.003975904, -0.004784191, -0.04848939, 0.0002593962
 176333605, -0.007719613, -0.00459994, -0.0424948, 0.0002593962
 176433565, -0.01120737, -0.01203503, -0.02421389, 0.0002593962
 176533525, -0.01463749, -0.00722452, 0.014842, 0.0002593962
 176633485, -0.03812723, 0.004851645, -0.005595601, 0.0002593962
 176734278, -0.02072626, 0.01514267, -0.01947954, 0.0002615578
 176834238, -0.0007851366, 0.01867151, 0.03429748, 0.0002593962
 176934198, 0.04022674, 0.01438392, 0.04256484, 0.0002593962
 177034158, 0.03222065, 0.003977416, 0.04234061, 0.0002593962
 177134118, 0.01288649, 0.003490722, 0.01038244, 0.0002593962
 177234078, -0.005031414, 0.01336889, 0.006636024, 0.0002593962
 177334038, -0.007679393, 0.004917046, 0.02017149, 0.0002593962
 177433998, -0.01241004, -0.003287028, -0.003820044, 0.0002593962
 177553950, -0.00339506, -0.0005594091, -0.006917588, 0.0003112754
 177653910, -0.003227375, -0.0007678514, -0.02085143, 0.0002593962
 177753870, -0.006856327, 0.01343715, -0.02046405, 0.0002593962
 177853830, -0.002356984, 0.007643467, -0.03724647, 0.0002593962
 177953790, -0.003844725, 0.002690943, -0.04187637, 0.0002593962
 178053750, -0.009325295, -0.0003808676, -0.02631062, 0.0002593962
 178153710, -0.004614629, 0.007890275, 0.02169637, 0.0002593962
 178253670, -0.004206195, 0.006647847, 0.02822244, 0.0002593962
 178353630, -0.00102327, 0.00538879, 0.01856095, 0.0002593962
 178453590, 0.003441712, 0.006316154, 0.01521203, 0.0002593962
 178553550, 0.002011458, 0.005214859, 0.01891299, 0.0002593962
 178653510, -0.004006277, 0.01346303, 0.0003373037, 0.0002593962
 178754303, -0.004229965, 0.01836704, -0.004685711, 0.0002593962
 178854263, -0.001813786, 0.02404058, 0.01735369, 0.0002615578
 178954223, -0.003055807, 0.01678038, 0.01168368, 0.0002593962
 179054183, 0.002792394, 0.014223, 0.01280593, 0.0002593962
 179154143, -0.003004184, 0.02509586, -0.01913361, 0.0002593962
 179254103, -0.0007824118, 0.01627943, -0.03330476, 0.0002593962
 179354063, -0.002167016, -0.1276547, -0.03261437, 0.0002593962
 179454023, -0.004544323, 0.1417813, -0.1023973, 0.0002593962
 179573975, -0.1014012, 1.368985, -0.07203719, 0.0003112754
 179673935, -0.1670514, 1.53259, 0.6214324, 0.0002593962
 179773895, -0.2201969, 1.707433, 0.706727, 0.0002593962
 179873855, -0.6361789, 2.787258, 0.04808595, 0.0002593962
 179973815, -1.377939, 3.586737, -0.9331063, 0.0002593962
 180073775, -1.780355, 3.080833, -1.532633, 0.0002593962
 180173735, -1.536925, 1.979131, -1.314379, 0.0002593962
 180273695, -1.000916, 1.144486, -0.6262987, 0.0002593962
 180373655, -0.6125813, 0.7169377, -0.04577017, 0.0002593962
 180473615, -0.4944625, 0.5402401, 0.253061, 0.0002593962
 180573575, -0.5050537, 0.5115475, 0.3304987, 0.0002593962
 180673535, -0.6286329, 0.6066341, 0.2387651, 0.0002593962
 180773495, -0.722117, 0.6844326, 0.115261, 0.0002593962
 180874288, -0.7987403, 0.7021062, 0.01008363, 0.0002615578
 180974248, -0.8255782, 0.6551462, -0.02457943, 0.0002593962
 181074208, -0.8435483, 0.58148, -0.001521303, 0.0002593962
 181174168, -0.8464453, 0.5028785, 0.04955964, 0.0002593962
 181274128, -0.8600039, 0.4494655, 0.08232383, 0.0002593962
 181374088, -0.8268073, 0.3874794, 0.1123028, 0.0002593962
 181474048, -0.8689551, 0.3789612, 0.1031021, 0.0002593962
 181574008, -0.9178141, 0.3702337, 0.07374229, 0.0002593962
 181693960, -1.133238, 0.4113558, 0.0876874, 0.0003112754
 181793920, -0.9519517, 0.3041104, 0.05475831, 0.0002593962
 181893880, -0.9711541, 0.2690716, 0.04545104, 0.0002593962
 181993840, -0.9834138, 0.2320231, 0.04228203, 0.0002593962
 182093800, -0.9756068, 0.1920696, 0.06050278, 0.0002593962
 182193760, -0.9596809, 0.1462343, 0.07722259, 0.0002593962
 182293720, -0.9992571, 0.1172959, 0.06649238, 0.0002593962
 182393680, -1.005574, 0.0763153, 0.06522399, 0.0002593962
 182493640, -1.018626, 0.04136587, 0.04768533, 0.0002593962
 182593600, -1.018111, 0.0007795452, 0.0518514, 0.0002593962
 182693560, -1.042728, -0.03348986, 0.04167283, 0.0002593962
 182793520, -1.051157, -0.08104009, 0.03636731, 0.0002593962
 182893480, -1.018778, -0.1207468, 0.04555308, 0.0002593962
 182994273, -1.01922, -0.1645507, 0.04396416, 0.0002615578
 183094233, -0.9872139, -0.1975228, 0.06142338, 0.0002593962
 183194193, -1.002849, -0.2394682, 0.05417646, 0.0002593962
 183294153, -1.026368, -0.2827321, 0.03412163, 0.0002593962
 183394113, -0.9899678, -0.3183212, 0.05461591, 0.0002593962
 183494073, -0.9811916, -0.3539909, 0.04493969, 0.0002593962
 183594033, -0.9654577, -0.3942362, 0.03201158, 0.0002593962
 183693993, -0.8985737, -0.4181667, 0.05700486, 0.0002593962
 183813945, -1.0686, -0.5596292, 0.06925013, 0.0003112754
 183913905, -0.818215, -0.4843118, 0.06350299, 0.0002593962
 184013865, -0.7893947, -0.5078404, 0.0588659, 0.0002593962
 184113825, -0.7676753, -0.5352485, 0.05462305, 0.0002593962
 184213785, -0.7118247, -0.5425975, 0.07658995, 0.0002593962
 184313745, -0.6722535, -0.5614479, 0.08115244, 0.0002593962
 184413705, -0.6338508, -0.5645829, 0.08973823, 0.0002593962
 184513665, -0.5862564, -0.5602433, 0.10628, 0.0002593962
 184613625, -0.5409617, -0.5560426, 0.1085861, 0.0002593962
 184713585, -0.5048389, -0.5562275, 0.1129885, 0.0002593962
 184813545, -0.4827005, -0.5727968, 0.1068432, 0.0002593962
 184913505, -0.4427513, -0.5620021, 0.1244546, 0.0002593962
 185014298, -0.4244191, -0.5706497, 0.1009345, 0.0002593962
 185114258, -0.3905938, -0.5537764, 0.1105543, 0.0002615578
 185214218, -0.3386754, -0.5149704, 0.1428431, 0.0002593962
 185314178, -0.3122868, -0.5045707, 0.1516749, 0.0002593962
 185414138, -0.3177161, -0.5327948, 0.1200202, 0.0002593962
 185514098, -0.2923564, -0.5230133, 0.1265993, 0.0002593962
 185614058, -0.2666905, -0.4971313, 0.1383362, 0.0002593962
 185714018, -0.2572532, -0.4958862, 0.1180362, 0.0002593962
 185833970, -0.3010377, -0.6118743, 0.1374563, 0.0003112754
 185933930, -0.2347675, -0.4882623, 0.1111691, 0.0002593962
 186033890, -0.223305, -0.496675, 0.09415226, 0.0002593962
 186133850, -0.2080816, -0.4839308, 0.09885426, 0.0002593962
 186233810, -0.1905685, -0.4633841, 0.1116769, 0.0002593962
 186333770, -0.1903421, -0.4694867, 0.1064125, 0.0002593962
 186433730, -0.1825983, -0.4746648, 0.08157167, 0.0002593962
 186533690, -0.1760793, -0.467106, 0.06689939, 0.0002593962
 186633650, -0.1708778, -0.4627854, 0.05159462, 0.0002593962
 186733610, -0.1601688, -0.4567947, 0.04900214, 0.0002593962
 186833570, -0.1444456, -0.4337755, 0.04627687, 0.0002593962
 186933530, -0.1340974, -0.4261528, 0.0475315, 0.0002593962
 187033490, -0.120451, -0.4055752, 0.06669355, 0.0002593962
 187134283, -0.1141711, -0.3983895, 0.05157692, 0.0002615578
 187234243, -0.1020532, -0.3784815, 0.04076545, 0.0002593962
 187334203, -0.1005139, -0.3749702, 0.02449418, 0.0002593962
 187434163, -0.09692149, -0.3708886, 0.02199619, 0.0002593962
 187534123, -0.09371808, -0.3656598, 0.02260152, 0.0002593962
 187634083, -0.09095369, -0.3685952, 0.011537, 0.0002593962
 187734043, -0.08231461, -0.3320646, 0.0275345, 0.0002593962
 187834003, -0.07632796, -0.3073805, 0.03178713, 0.0002593962
 187953955, -0.08593413, -0.3554802, 0.04223055, 0.0003112754
 188053915, -0.07614868, -0.3030101, -0.01055314, 0.0002593962
 188153875, -0.06930108, -0.3166672, -0.03033001, 0.0002593962
 188253835, -0.06687669, -0.3095347, -0.04049858, 0.0002593962
 188353795, -0.06293009, -0.2851632, -0.01999572, 0.0002593962
 188453755, -0.05573609, -0.2658377, -0.01559767, 0.0002593962
 188553715, -0.05780116, -0.2616237, -0.03339881, 0.0002593962
 188653675, -0.05437333, -0.2600586, -0.06441335, 0.0002593962
 188753635, -0.05301785, -0.2471298, -0.05208584, 0.0002593962
 188853595, -0.04808315, -0.2313119, -0.03133819, 0.0002593962
 188953555, -0.0443759, -0.2211716, -0.04864784, 0.0002593962
 189053515, -0.0435977, -0.2075399, -0.04123813, 0.0002593962
 189153475, -0.04371241, -0.2023414, -0.04161053, 0.0002593962
 189254268, -0.03782519, -0.1884194, -0.006798684, 0.0002615578
 189354228, -0.03592553, -0.1914694, -0.0227272, 0.0002593962
 189454188, -0.03826948, -0.198348, -0.06120386, 0.0002593962
 189554148, -0.03317071, -0.1866645, -0.06232804, 0.0002593962
 189654108, -0.0368704, -0.1708727, -0.1059786, 0.0002593962
 189754068, -0.03586053, -0.1532981, -0.06729417, 0.0002593962
 189854028, -0.03285373, -0.1598841, -0.04514311, 0.0002593962
 189973980, -0.03387657, -0.1862678, -0.04862512, 0.0003112754
 190073940, -0.0244629, -0.1416027, -0.04398086, 0.0002593962
 190173900, -0.02264292, -0.1342177, -0.06724713, 0.0002593962
 190273860, -0.01528195, -0.1177823, -0.03545837, 0.0002593962
 190373820, -0.01051967, -0.1181602, -0.01566572, 0.0002593962
 190473780, -0.008873534, -0.1100146, -0.0113788, 0.0002593962
 190573740, 0.0032167, -0.1005531, -0.005566535, 0.0002593962
 190673700, -0.00100894, -0.08662498, -0.002067883, 0.0002593962
 190773660, -0.003760161, -0.08897357, -0.05767025, 0.0002593962
 190873620, -0.002538844, -0.0865427, -0.07028384, 0.0002593962
 190973580, -0.0005079165, -0.07811864, -0.0483257, 0.0002593962
 191073540, -0.004655103, -0.07994509, -0.04150514, 0.0002593962
 191173500, 0.0001534351, -0.07908704, -0.05577064, 0.0002593962
 191274293, 0.00375272, -0.08486103, -0.04899169, 0.0002615578
 191374253, 0.007779298, -0.0600382, -0.01490548, 0.0002593962
 191474213, -0.000392484, -0.05535467, 0.007275054, 0.0002593962
 191574173, 0.0005001681, -0.05189529, -0.03164163, 0.0002593962
 191674133, -0.0044997, -0.04655047, -0.02008548, 0.0002593962
 191774093, -0.004415298, -0.06257998, -0.04325158, 0.0002593962
 191874053, 0.002545136, -0.06835975, -0.02792523, 0.0002593962
 191974013, -0.0004789174, -0.06302965, -0.03087386, 0.0002593962
 192093965, -0.002014149, -0.06190623, -0.05676308, 0.0003112754
 192193925, 0.0004534021, -0.03458349, -0.02959106, 0.0002593962
 192293885, 0.003463308, -0.03156521, -0.01249486, 0.0002593962
 192393845, 0.003458514, -0.04212857, -0.03696703, 0.0002593962
 192493805, -0.000508526, -0.04316134, -0.03372068, 0.0002593962
 192593765, -0.002554019, -0.03660932, -0.01720941, 0.0002593962
 192693725, -0.00402324, -0.02536167, -0.01334512, 0.0002593962
 192793685, 0.0004383927, -0.01932778, 0.0009674111, 0.0002593962
 192893645, 0.001467906, -0.021539, -0.02853251, 0.0002593962
 192993605, 0.002825917, -0.02238292, -0.05388403, 0.0002593962
 193093565, 0.009649828, -0.0375464, -0.04284055, 0.0002593962
 193193525, 0.003632563, -0.03900133, -0.02767907, 0.0002593962
 193293485, 0.01096999, -0.03528563, -0.01519697, 0.0002593962
 193394278, 0.003210427, -0.02752027, -0.04633067, 0.0002615578
 193494238, -0.0006340175, -0.01948634, -0.06154843, 0.0002593962
 193594198, 0.0002512113, -0.02236002, -0.02858689, 0.0002593962
 193694158, 0.00588141, -0.01050188, -0.01174471, 0.0002593962
 193794118, 0.004160448, -0.02027561, 0.006315165, 0.0002593962
 193894078, -0.001402597, -0.02649566, 0.01438694, 0.0002593962
 193994038, -0.0100162, -0.02227218, -0.009898383, 0.0002593962
 194093998, 0.001413461, -0.01778543, -0.0693766, 0.0002593962
 194213950, 0.0003154259, -0.01722477, -0.078104, 0.0003112754
 194313910, -0.004149853, -0.008537602, -0.008421084, 0.0002593962
 194413870, 0.002155515, -0.008446283, -0.007079753, 0.0002593962
 194513830, 0.004085951, -0.003500235, 0.002761613, 0.0002593962
 194613790, -0.005777889, -0.0158813, -0.04965844, 0.0002593962
 194713750, -0.00133776, -0.01388048, -0.02800501, 0.0002593962
 194813710, -0.004945837, -0.008236536, -0.02563753, 0.0002593962
 194913670, 0.001269158, -0.0144017, -0.007168047, 0.0002593962
 195013630, -0.001471619, -0.01380258, -0.01047716, 0.0002593962
 195113590, 0.0031321, -0.009744815, -0.02129466, 0.0002593962
 195213550, 0.008487666, -0.005175945, 0.01560308, 0.0002593962
 195313510, -0.02003153, -0.007768636, 0.0420939, 0.0002593962
 195414303, -0.01759, -0.01063195, 0.03536466, 0.0002593962
 195514263, -0.01286107, -0.01086007, -0.03844703, 0.0002615578
 195614223, 0.001604715, -0.01419322, -0.0882869, 0.0002593962
 195714183, -0.003758613, -0.01878994, -0.03715416, 0.0002593962
 195814143, -0.004504702, -0.005141225, -0.003321873, 0.0002593962
 195914103, -0.002999004, -0.004934466, 0.009977325, 0.0002593962
 196014063, -0.005700994, -0.005013649, -0.03471112, 0.0002593962
 196114023, 0.004836367, -0.006812217, -0.03714297, 0.0002593962
 196233975, 0.003154699, -0.00148371, -0.01318669, 0.0003112754
 196333935, -0.006444723, 0.001803192, -0.01788508, 0.0002593962
 196433895, 0.0054559, -0.005337245, -0.01072163, 0.0002593962
 196533855, -0.01567915, -0.00653021, -0.004030322, 0.0002593962
 196633815, -0.01320113, -0.01776689, -0.01153485, 0.0002593962
 196733775, -0.008498632, -0.01529609, -0.01829052, 0.0002593962
 196833735, -0.005082665, -0.02059325, -0.01400953, 0.0002593962
 196933695, -0.009107158, -0.01206493, 0.0008879065, 0.0002593962
 197033655, -0.003966271, -0.00965262, -0.01260491, 0.0002593962
 197133615, -0.003580192, -0.01111015, -0.02222224, 0.0002593962
 197233575, -0.00290199, -0.002123045, -0.02020721, 0.0002593962
 197333535, 0.003760837, -0.003616321, -0.01491301, 0.0002593962
 197433495, -0.0002197892, 0.003231765, -0.02771201, 0.0002593962
 197534288, -0.00181577, 0.001075101, -0.00621179, 0.0002615578
 197634248, -0.0003951766, -0.003369823, 0.00367625, 0.0002593962
 197734208, -0.01245839, -0.009389922, -0.03415974, 0.0002593962
 197834168, -0.005557656, -0.008523989, -0.03326563, 0.0002593962
 197934128, -0.01540702, -0.002955586, -0.008047631, 0.0002593962
 198034088, -0.006204312, -0.0009358337, -0.003636602, 0.0002593962
 198134048, -0.004756069, -0.0001779539, -0.0328127, 0.0002593962
 198234008, 0.001357382, 0.0009014591, -0.03883919, 0.0002593962
 198353960, 0.000532609, -0.008127647, -0.002842586, 0.0003112754
 198453920, -0.006517505, -0.002368844, -0.02979765, 0.0002593962
 198553880, -0.0008145025, -0.001923382, 0.004179179, 0.0002593962
 198653840, -0.004674069, -0.004953546, 0.0158077, 0.0002593962
 198753800, -0.002186684, -0.01160346, 0.008752219, 0.0002593962
 198853760, -0.003206168, -0.0124891, -0.004900669, 0.0002593962
 198953720, -0.0001499652, -0.01095843, -0.06941055, 0.0002593962
 199053680, 0.00387645, -4.204537E-05, -0.06664615, 0.0002593962
 199153640, 0.001816106, 0.004650625, -0.005626314, 0.0002593962
 199253600, -0.001805325, 0.003463647, 0.03056964, 0.0002593962
 199353560, -0.004416517, -0.006086966, 0.0236906, 0.0002593962
 199453520, 0.003974001, -0.02187943, 0.03434776, 0.0002593962
 199553480, -0.003647279, -0.01012993, 0.02057074, 0.0002593962
 199654273, -0.02291608, -0.003454846, -0.005121193, 0.0002615578
 199754233, -0.003843033, 0.006790996, -0.02957166, 0.0002593962
 199854193, 0.003497243, -0.009249914, -0.02313334, 0.0002593962
 199954153, 0.01106783, -0.01134316, 0.0001927179, 0.0002593962
 200054113, 0.01521289, -0.005861426, 0.0158942, 0.0002593962
 200154073, -0.004744045, 0.0009197284, 0.009869945, 0.0002593962
 200254033, -0.01468931, 0.009707878, -0.02567799, 0.0002593962
 200353993, -0.01936955, 0.003240103, -0.007546476, 0.0002593962
 200473945, -0.006898542, -0.01240725, 0.01693412, 0.0003112754
 200573905, -0.02215612, -0.01574259, -0.03503346, 0.0002593962
 200673865, -0.02019348, 0.002004597, -0.065405, 0.0002593962
 200773825, -0.008832498, 0.003508888, -0.002293499, 0.0002593962
 200873785, -0.005966365, 0.002931429, 0.009177112, 0.0002593962
 200973745, -0.004170184, -0.004653352, 0.004611611, 0.0002593962
 201073705, 0.004405648, -0.000420865, -0.04953851, 0.0002593962
 201173665, 0.001194692, 0.002198205, -0.02551408, 0.0002593962
 201273625, -0.006404368, 0.004530753, 0.03504072, 0.0002593962
 201373585, -0.008853808, -0.006230453, 0.04434564, 0.0002593962
 201473545, -0.00586983, -0.0018235, -0.01620103, 0.0002593962
 201573505, 0.006222641, -0.00443949, -0.07039425, 0.0002593962
 201674298, -0.003184099, -0.004726307, 0.003562493, 0.0002593962
 201774258, 0.001053459, -0.004567823, 0.01298949, 0.0002615578
 201874218, -0.0003219305, -0.01116494, 0.02486191, 0.0002593962
 201974178, -0.01493954, -0.008114604, 0.03189732, 0.0002593962
 202074138, -0.007421413, -0.009634994, 0.00480555, 0.0002593962
 202174098, -0.004123866, -0.001075382, -0.02005406, 0.0002593962
 202274058, -0.002205063, -0.01120178, -0.02426797, 0.0002593962
 202374018, -0.002259514, -0.01075833, -0.001366288, 0.0002593962
 202493970, -0.003587898, 0.002468117, -0.01258822, 0.0003112754
 202593930, -0.00759403, 0.01367503, 0.008585918, 0.0002593962
 202693890, -0.006017864, 0.01270519, -0.001144857, 0.0002593962
 202793850, -0.001305325, 0.01447731, 0.005760196, 0.0002593962
 202893810, -0.004693044, 0.009668743, -0.01997772, 0.0002593962
 202993770, 0.005982774, -0.00429226, -0.01053178, 0.0002593962
 203093730, 0.005944127, -0.02204514, 0.01708125, 0.0002593962
 203193690, 0.003362179, -0.007782988, -0.00414792, 0.0002593962
 203293650, -0.01908603, 0.0005308186, -0.01709631, 0.0002593962
 203393610, -0.01711263, 0.001529812, 0.001256402, 0.0002593962
 203493570, -0.002979707, -0.00779367, -0.03035408, 0.0002593962
 203593530, -0.003455298, 0.002708224, 0.001845708, 0.0002593962
 203693490, -0.01059303, 0.001855534, 0.04403982, 0.0002593962
 203794283, -0.01143745, 0.008285426, 0.02098885, 0.0002615578
 203894243, -0.001438067, 0.0122587, -0.0004280666, 0.0002593962
 203994203, 0.001754174, 0.01422618, 0.01748019, 0.0002593962
 204094163, -0.009045826, 0.007382741, 0.02316269, 0.0002593962
 204194123, -0.01058674, -0.003373644, 0.00979597, 0.0002593962
 204294083, -0.009296512, -0.001005203, -0.02766944, 0.0002593962
 204394043, -0.004369681, -0.00371763, -0.02144305, 0.0002593962
 204494003, -0.006051687, -0.007370941, -0.01366691, 0.0002593962
 204613955, -0.00761915, -0.0008506254, -0.0147649, 0.0003112754
 204713915, 0.0002861349, 0.009199161, -0.01436769, 0.0002593962
 204813875, -0.00583516, 0.01790332, -0.002581946, 0.0002593962
 204913835, -0.008975615, 0.009157839, -0.007039315, 0.0002593962
 205013795, -0.00500801, -0.003363983, 0.01760027, 0.0002593962
 205113755, 0.0008892539, -0.01463247, 0.00928656, 0.0002593962
 205213715, 0.006660663, -0.0118738, -0.03916503, 0.0002593962
 205313675, 0.0002256709, -0.002767958, -0.03416407, 0.0002593962
 205413635, -0.001593825, 0.005942392, 0.04102918, 0.0002593962
 205513595, -0.008627982, 0.01310712, 0.03882288, 0.0002593962
 205613555, -0.006486097, 0.002623241, 0.04086607, 0.0002593962
 205713515, -0.001183505, -0.002601285, 0.04000774, 0.0002593962
 205813475, -0.00336855, 0.01227784, 0.01562891, 0.0002593962
 205914268, 0.003746034, 0.003978954, -0.02335633, 0.0002615578
 206014228, 0.009933757, 0.004921911, -0.05473338, 0.0002593962
 206114188, -0.001857473, 0.01724993, -0.01141751, 0.0002593962
 206214148, -0.003908503, 0.01478171, 0.003064474, 0.0002593962
 206314108, -0.002226026, 0.00194215, 0.042457, 0.0002593962
 206414068, 0.0002078047, -0.007820923, 0.03316677, 0.0002593962
 206514028, 0.006723124, -0.00785348, 0.01987485, 0.0002593962
 206633980, 0.006409055, 0.001446073, -0.008268386, 0.0003112754
 206733940, 0.00717223, 0.006985511, 0.01185964, 0.0002593962
 206833900, 0.01950658, 0.001507038, -0.01947225, 0.0002593962
 206933860, 0.01488982, 0.005424247, -0.01492616, 0.0002593962
 207033820, 0.008664512, 0.0007359619, 0.007105187, 0.0002593962
 207133780, 0.008148942, -0.008162192, 0.01770554, 0.0002593962
 207233740, 0.002320797, -0.0124649, 0.02844109, 0.0002593962
 207333700, 0.00337497, -0.0090276, 0.02756916, 0.0002593962
 207433660, 0.0003513039, 7.068703E-05, 0.05512063, 0.0002593962
 207533620, 0.002789876, 0.004496814, 0.003763276, 0.0002593962
 207633580, 0.01307792, 5.551768E-05, -0.01296851, 0.0002593962
 207733540, 0.01643153, -0.003822904, -0.02851675, 0.0002593962
 207833500, 0.008153241, 0.002324657, -0.003607413, 0.0002593962
 207934293, 0.01159221, 0.008885018, 0.01424342, 0.0002615578
 208034253, 0.007101834, 0.006825055, 0.008562114, 0.0002593962
 208134213, 0.006952506, 0.000618745, -0.01416256, 0.0002593962
 208234173, 0.009712737, 0.001943148, 0.02364234, 0.0002593962
 208334133, 0.005948289, -0.006234824, 0.03584793, 0.0002593962
 208434093, 0.007383839, 0.0009448411, 0.0433755, 0.0002593962
 208534053, 0.002913554, 0.003561221, 0.03298171, 0.0002593962
 208634013, 0.004885847, -0.007536593, -0.008813489, 0.0002593962
 208753965, 0.01027044, -0.01404361, -0.01971113, 0.0003112754
 208853925, 0.004858105, -0.008485587, -0.006935262, 0.0002593962
 208953885, 0.007030185, -0.004899383, -0.02485275, 0.0002593962
 209053845, 0.01203708, -0.005319727, -0.02509163, 0.0002593962
 209153805, 0.01431905, -0.01274955, -0.01502586, 0.0002593962
 209253765, 0.009493497, 0.006654907, 0.02025124, 0.0002593962
 209353725, -0.006247556, 0.0551908, 0.05413042, 0.0002593962
 209453685, -0.0159031, 0.1077241, 0.02616228, 0.0002593962
 209553645, -0.02034721, 0.1704242, 0.05274276, 0.0002593962
 209653605, -0.0279726, 0.2303184, 0.03965181, 0.0002593962
 209753565, -0.03491315, 0.2695006, 0.01464943, 0.0002593962
 209853525, -0.03667282, 0.2856236, -0.005368678, 0.0002593962
 209953485, -0.04066734, 0.299527, -0.004172048, 0.0002593962
 210054278, -0.04020659, 0.3322099, -0.0400252, 0.0002615578
 210154238, -0.03311394, 0.3477179, -0.04302372, 0.0002593962
 210254198, -0.03986127, 0.3721781, 0.01417599, 0.0002593962
 210354158, -0.03856039, 0.4388283, -0.02448413, 0.0002593962
 210454118, -0.03318233, 0.4705158, -0.03464229, 0.0002593962
 210554078, -0.02557437, 0.4997167, -0.0247918, 0.0002593962
 210654038, -0.01876063, 0.550319, -0.05194107, 0.0002593962
 210753998, -0.009441504, 0.583922, -0.06679929, 0.0002593962
 210873950, 0.01447804, 0.7671986, -0.1027014, 0.0003112754
 210973910, 0.03043718, 0.656527, -0.06767145, 0.0002593962
 211073870, 0.04834597, 0.682006, -0.06306836, 0.0002593962
 211173830, 0.06498308, 0.6990806, -0.06788192, 0.0002593962
 211273790, 0.08818869, 0.7081736, -0.06636912, 0.0002593962
 211373750, 0.110475, 0.7192935, -0.06718531, 0.0002593962
 211473710, 0.1406941, 0.727124, -0.05361685, 0.0002593962
 211573670, 0.1554181, 0.7155094, -0.03293867, 0.0002593962
 211673630, 0.1839098, 0.7314271, -0.04097502, 0.0002593962
 211773590, 0.2019901, 0.7371548, -0.04569175, 0.0002593962
 211873550, 0.2359717, 0.7290601, -0.04347586, 0.0002593962
 211973510, 0.2809388, 0.7549832, -0.05631035, 0.0002593962
 212074303, 0.3129396, 0.7637539, -0.06109685, 0.0002593962
 212174263, 0.3253774, 0.7266913, -0.03078092, 0.0002615578
 212274223, 0.3289105, 0.685247, 0.0007726533, 0.0002593962
 212374183, 0.3456947, 0.6732457, 0.01472291, 0.0002593962
 212474143, 0.3621821, 0.6518096, 0.005558946, 0.0002593962
 212574103, 0.3761398, 0.6054372, 0.02337658, 0.0002593962
 212674063, 0.3880627, 0.5980656, 0.004274393, 0.0002593962
 212774023, 0.38989, 0.5516044, 0.03954375, 0.0002593962
 212893975, 0.5021455, 0.6564693, 0.03771776, 0.0003112754
 212993935, 0.4291986, 0.523942, 0.01900191, 0.0002593962
 213093895, 0.4271433, 0.4868467, 0.03518437, 0.0002593962
 213193855, 0.4244143, 0.4547447, 0.05146137, 0.0002593962
 213293815, 0.4097169, 0.414641, 0.07768829, 0.0002593962
 213393775, 0.4248374, 0.4109328, 0.06075802, 0.0002593962
 213493735, 0.4147489, 0.3782382, 0.07108134, 0.0002593962
 213593695, 0.3897268, 0.3430715, 0.09917849, 0.0002593962
 213693655, 0.3842067, 0.3133574, 0.100317, 0.0002593962
 213793615, 0.3666111, 0.2939927, 0.102764, 0.0002593962
 213893575, 0.3581489, 0.2729812, 0.1121196, 0.0002593962
 213993535, 0.3555994, 0.2599536, 0.1071399, 0.0002593962
 214093495, 0.3679717, 0.2549921, 0.0959477, 0.0002593962
 214194288, 0.3712654, 0.246366, 0.08999521, 0.0002615578
 214294248, 0.3439427, 0.2259235, 0.09563233, 0.0002593962
 214394208, 0.3064612, 0.1997856, 0.1425387, 0.0002593962
 214494168, 0.3170472, 0.1964044, 0.1241916, 0.0002593962
 214594128, 0.3286319, 0.1956872, 0.07156271, 0.0002593962
 214694088, 0.3344318, 0.1923861, 0.04989977, 0.0002593962
 214794048, 0.309119, 0.1661496, 0.07537322, 0.0002593962
 214894008, 0.2787275, 0.1486681, 0.1054575, 0.0002593962
 215013960, 0.3545768, 0.1918534, 0.06407344, 0.0003112754
 215113920, 0.2688537, 0.1353837, 0.05045815, 0.0002593962
 215213880, 0.2424197, 0.1174731, 0.0844273, 0.0002593962
 215313840, 0.2199653, 0.1079426, 0.09222133, 0.0002593962
 215413800, 0.218344, 0.104437, 0.06310262, 0.0002593962
 215513760, 0.1963153, 0.08868869, 0.05872385, 0.0002593962
 215613720, 0.1826685, 0.08519964, 0.06622767, 0.0002593962
 215713680, 0.1866518, 0.08644214, 0.03558789, 0.0002593962
 215813640, 0.168753, 0.07612208, 0.03240547, 0.0002593962
 215913600, 0.1586525, 0.07335005, 0.01820092, 0.0002593962
 216013560, 0.1398205, 0.06445622, 0.03187511, 0.0002593962
 216113520, 0.1243962, 0.05457881, 0.01489463, 0.0002593962
 216213480, 0.1020916, 0.03920813, 0.03178298, 0.0002593962
 216314273, 0.09842822, 0.05397475, 0.0001871085, 0.0002615578
 216414233, 0.08559104, 0.0421444, 0.009722957, 0.0002593962
 216514193, 0.07560424, 0.04056403, -0.009683101, 0.0002593962
 216614153, 0.05654252, 0.03227561, 0.008835213, 0.0002593962
 216714113, 0.03605676, 0.02412544, -0.001269948, 0.0002593962
 216814073, 0.03137104, 0.02020653, -0.04087792, 0.0002593962
 216914033, 0.01243973, 0.00886814, -0.01160272, 0.0002593962
 217013993, -0.005445954, 0.005097094, 0.004004993, 0.0002593962
 217133945, -0.03617666, -0.001323968, -0.001725241, 0.0003112754
 217233905, -0.04233167, -0.008475324, -0.05476218, 0.0002593962
 217333865, -0.04349514, -0.01122027, -0.0542663, 0.0002593962
 217433825, -0.05422067, -0.01210167, -0.01477254, 0.0002593962
 217533785, -0.07002032, -0.02227673, -0.004737275, 0.0002593962
 217633745, -0.08323648, -0.02614555, -0.007929184, 0.0002593962
 217733705, -0.08999489, -0.03306473, -0.04078816, 0.0002593962
 217833665, -0.1068191, -0.03740415, -0.0313916, 0.0002593962
 217933625, -0.1135758, -0.04006092, -0.01978568, 0.0002593962
 218033585, -0.122596, -0.04899525, -0.06962758, 0.0002593962
 218133545, -0.1258385, -0.05383404, -0.05371512, 0.0002593962
 218233505, -0.1344749, -0.05966389, -0.01498148, 0.0002593962
 218334298, -0.1483735, -0.05902568, -0.02069425, 0.0002593962
 218434258, -0.155979, -0.06857176, -0.05240695, 0.0002615578
 218534218, -0.1652638, -0.0760939, -0.05512344, 0.0002593962
 218634178, -0.1739697, -0.08765191, -0.07380997, 0.0002593962
 218734138, -0.1738493, -0.09229952, -0.05494697, 0.0002593962
 218834098, -0.1739192, -0.09591295, -0.03699917, 0.0002593962
 218934058, -0.1775799, -0.1031728, -0.05068206, 0.0002593962
 219034018, -0.1932231, -0.1129221, -0.06823811, 0.0002593962
 219153970, -0.2488683, -0.1440341, -0.04422207, 0.0003112754
 219253930, -0.2147239, -0.1337375, -0.05216289, 0.0002593962
 219353890, -0.2042678, -0.1274378, -0.00982455, 0.0002593962
 219453850, -0.204771, -0.1293799, -0.001316536, 0.0002593962
 219553810, -0.2270467, -0.1465423, -0.06794602, 0.0002593962
 219653770, -0.2341927, -0.1642506, -0.07720228, 0.0002593962
 219753730, -0.2150715, -0.1569228, -0.02466403, 0.0002593962
 219853690, -0.2201474, -0.1563, -0.008827168, 0.0002593962
 219953650, -0.2228855, -0.1571012, -0.0302212, 0.0002593962
 220053610, -0.2189291, -0.1555994, -0.04345829, 0.0002593962
 220153570, -0.2181679, -0.1664204, -0.04557204, 0.0002593962
 220253530, -0.2239566, -0.1784216, -0.04082312, 0.0002593962
 220353490, -0.2278704, -0.180624, -0.004284928, 0.0002593962
 220454283, -0.2257987, -0.1883461, 0.005636699, 0.0002615578
 220554243, -0.2295961, -0.2004095, -0.0444464, 0.0002593962
 220654203, -0.2324998, -0.2138497, -0.03638055, 0.0002593962
 220754163, -0.227102, -0.215494, -0.01543606, 0.0002593962
 220854123, -0.2346611, -0.2211476, -0.0474082, 0.0002593962
 220954083, -0.2213064, -0.217367, -0.02709066, 0.0002593962
 221054043, -0.2179303, -0.2123561, -0.02340813, 0.0002593962
 221154003, -0.2199522, -0.2239924, -0.06645447, 0.0002593962
 221273955, -0.2518297, -0.2627128, -0.05054465, 0.0003112754
 221373915, -0.1993307, -0.2139069, 0.02293426, 0.0002593962
 221473875, -0.2028979, -0.2127817, 0.05335891, 0.0002593962
 221573835, -0.2033256, -0.2327037, 0.01540637, 0.0002593962
 221673795, -0.2058693, -0.251044, -0.01426863, 0.0002593962
 221773755, -0.2106076, -0.2529446, -0.02371877, 0.0002593962
 221873715, -0.197595, -0.2420037, 0.005480281, 0.0002593962
 221973675, -0.1950434, -0.2360407, -0.007086941, 0.0002593962
 222073635, -0.197592, -0.2422, -0.02443636, 0.0002593962
 222173595, -0.1876227, -0.245393, -0.0006780677, 0.0002593962
 222273555, -0.1903452, -0.2505667, -0.02772876, 0.0002593962
 222373515, -0.1825765, -0.2450307, -0.01975742, 0.0002593962
 222473475, -0.172728, -0.2496119, -0.002012077, 0.0002593962
 222574268, -0.1829889, -0.271812, 0.02131007, 0.0002615578
 222674228, -0.1661979, -0.2569553, 0.03396231, 0.0002593962
 222774188, -0.1724935, -0.2651761, 0.0144607, 0.0002593962
 222874148, -0.16931, -0.2621552, 0.0008972298, 0.0002593962
 222974108, -0.1612533, -0.2633641, -0.002432069, 0.0002593962
 223074068, -0.1583291, -0.2621921, -0.01823301, 0.0002593962
 223174028, -0.1526745, -0.2652835, -0.01497485, 0.0002593962
 223293980, -0.1799511, -0.3152925, -0.003718214, 0.0003112754
 223393940, -0.1500491, -0.2750466, -0.01004664, 0.0002593962
 223493900, -0.1493988, -0.2832352, 0.002889392, 0.0002593962
 223593860, -0.1436499, -0.275393, 0.02174246, 0.0002593962
 223693820, -0.1431031, -0.2780839, 0.02472427, 0.0002593962
 223793780, -0.1425498, -0.2864358, -0.003358441, 0.0002593962
 223893740, -0.13875, -0.2760463, -0.001624211, 0.0002593962
 223993700, -0.1310296, -0.2759463, -0.009762777, 0.0002593962
 224093660, -0.1165716, -0.2539707, 0.02711659, 0.0002593962
 224193620, -0.1151568, -0.2541783, 0.03114441, 0.0002593962
 224293580, -0.1183025, -0.273441, 0.03154944, 0.0002593962
 224393540, -0.1174683, -0.2904584, -0.01204663, 0.0002593962
 224493500, -0.1087994, -0.2796068, 0.0003555401, 0.0002593962
 224594293, -0.09984005, -0.2742591, 0.01057852, 0.0002615578
 224694253, -0.1067855, -0.2713284, 0.0001242046, 0.0002593962
 224794213, -0.104168, -0.2848083, -0.02697307, 0.0002593962
 224894173, -0.09876689, -0.2748936, -0.02591004, 0.0002593962
 224994133, -0.08855358, -0.2662809, -0.001629072, 0.0002593962
 225094093, -0.08431808, -0.2511503, 0.04096229, 0.0002593962
 225194053, -0.07883072, -0.2472115, 0.03043909, 0.0002593962
 225294013, -0.07339835, -0.2571208, 0.004536072, 0.0002593962
 225413965, -0.09552672, -0.3213298, 0.001063551, 0.0003112754
 225513925, -0.07000335, -0.246174, 0.05000862, 0.0002593962
 225613885, -0.07146674, -0.2588024, -0.001505183, 0.0002593962
 225713845, -0.07273076, -0.2710028, -0.01465589, 0.0002593962
 225813805, -0.06653049, -0.270372, 0.01106591, 0.0002593962
 225913765, -0.05995772, -0.2760459, -0.01092925, 0.0002593962
 226013725, -0.05819017, -0.2454224, 0.004507368, 0.0002593962
 226113685, -0.05253272, -0.2396564, 0.003532999, 0.0002593962
 226213645, -0.05258326, -0.2552846, -0.01694102, 0.0002593962
 226313605, -0.05590327, -0.2594739, 0.01420345, 0.0002593962
 226413565, -0.04777704, -0.2485735, 0.03569146, 0.0002593962
 226513525, -0.04800931, -0.2420553, 0.01575592, 0.0002593962
 226613485, -0.04739566, -0.248249, 0.01795754, 0.0002593962
 226714278, -0.04983013, -0.2679974, -0.02360189, 0.0002615578
 226814238, -0.03943852, -0.2418867, -0.006489521, 0.0002593962
 226914198, -0.03607722, -0.2247385, 0.005763427, 0.0002593962
 227014158, -0.03209661, -0.2264812, 0.006492125, 0.0002593962
 227114118, -0.03262946, -0.2250433, 0.02475257, 0.0002593962
 227214078, -0.03430384, -0.235232, 0.02001944, 0.0002593962
 227314038, -0.03466924, -0.254106, -0.02582791, 0.0002593962
 227413998, -0.02219637, -0.2492153, -0.009958173, 0.0002593962
 227533950, -0.02179842, -0.298729, 0.01251694, 0.0003112754
 227633910, -0.01980777, -0.2425896, 0.007555294, 0.0002593962
 227733870, -0.01788571, -0.2591072, -0.01059321, 0.0002593962
 227833830, -0.02198172, -0.2423396, 0.01108693, 0.0002593962
 227933790, -0.01405045, -0.2382716, 0.02400178, 0.0002593962
 228033750, -0.01486643, -0.2359645, 0.0005143681, 0.0002593962
 228133710, -0.01231782, -0.2337618, 0.006214935, 0.0002593962
 228233670, -0.001247885, -0.2239592, 0.006458607, 0.0002593962
 228333630, -0.0002787337, -0.2226225, 0.01562677, 0.0002593962
 228433590, 0.001851541, -0.2413926, -0.01150666, 0.0002593962
 228533550, 0.005329895, -0.2383195, -0.01725041, 0.0002593962
 228633510, 0.002954582, -0.2223595, -0.0179212, 0.0002593962
 228734303, -0.0006901593, -0.2047784, 0.02137688, 0.0002593962
 228834263, -0.001033769, -0.2134522, 0.02979549, 0.0002615578
 228934223, 0.01028437, -0.2315594, -0.0006017946, 0.0002593962
 229034183, 0.01440811, -0.2256259, -0.01908587, 0.0002593962
 229134143, 0.0161631, -0.2180942, 0.006433097, 0.0002593962
 229234103, 0.01199765, -0.1997487, 0.03499331, 0.0002593962
 229334063, 0.01690133, -0.2010274, 0.01459348, 0.0002593962
 229434023, 0.01995812, -0.2140369, -0.008431322, 0.0002593962
 229553975, 0.0244175, -0.2538631, 0.01644789, 0.0003112754
 229653935, 0.01901471, -0.208612, 0.007294311, 0.0002593962
 229753895, 0.02346052, -0.228898, -0.02439737, 0.0002593962
 229853855, 0.02675942, -0.2294191, -0.03528226, 0.0002593962
 229953815, 0.01825229, -0.2200729, -0.01424269, 0.0002593962
 230053775, 0.01813899, -0.2017628, 0.008313439, 0.0002593962
 230153735, 0.02257635, -0.186395, 0.01642358, 0.0002593962
 230253695, 0.02586904, -0.1883299, 0.02366101, 0.0002593962
 230353655, 0.03212092, -0.2014287, 0.01388655, 0.0002593962
 230453615, 0.03004408, -0.2138506, -0.005126228, 0.0002593962
 230553575, 0.02759269, -0.2003389, 0.01462236, 0.0002593962
 230653535, 0.02529834, -0.1890221, 0.02452841, 0.0002593962
 230753495, 0.02394378, -0.1944995, -0.008497948, 0.0002593962
 230854288, 0.03919087, -0.2068838, -0.00921903, 0.0002615578
 230954248, 0.03972722, -0.2210703, -0.01609171, 0.0002593962
 231054208, 0.03957396, -0.224187, -0.009867754, 0.0002593962
 231154168, 0.04146553, -0.2143265, -0.006311742, 0.0002593962
 231254128, 0.03534198, -0.1882978, 0.009636456, 0.0002593962
 231354088, 0.03841267, -0.1946901, 0.01319367, 0.0002593962
 231454048, 0.04168662, -0.2016643, -0.01913062, 0.0002593962
 231554008, 0.04926047, -0.1939465, -0.0009965436, 0.0002593962
 231673960, 0.06513129, -0.2410155, 0.008171398, 0.0003112754
 231773920, 0.05648461, -0.1959974, -0.00350133, 0.0002593962
 231873880, 0.06141419, -0.1981641, -0.01522237, 0.0002593962
 231973840, 0.05716842, -0.189615, 0.02594476, 0.0002593962
 232073800, 0.05151709, -0.1902768, 0.00510229, 0.0002593962
 232173760, 0.04948821, -0.1927704, 0.005298173, 0.0002593962
 232273720, 0.05677417, -0.1908993, 0.005913533, 0.0002593962
 232373680, 0.05657763, -0.1814904, 0.03819109, 0.0002593962
 232473640, 0.05357859, -0.1904528, 0.01567143, 0.0002593962
 232573600, 0.06012778, -0.2054762, -0.03841597, 0.0002593962
 232673560, 0.06364032, -0.2034324, -0.03390601, 0.0002593962
 232773520, 0.07062587, -0.2125382, -0.04233942, 0.0002593962
 232873480, 0.06975319, -0.19273, -0.007910375, 0.0002593962
 232974273, 0.07008843, -0.2033665, -0.002914095, 0.0002615578
 233074233, 0.0706289, -0.1971688, 0.0109291, 0.0002593962
 233174193, 0.07071204, -0.1911324, 0.009558086, 0.0002593962
 233274153, 0.07841665, -0.1898098, 0.002740068, 0.0002593962
 233374113, 0.07986639, -0.1703338, 0.04108514, 0.0002593962
 233474073, 0.07640848, -0.1780652, 0.02650532, 0.0002593962
 233574033, 0.07818659, -0.1975044, -0.02416405, 0.0002593962
 233673993, 0.08665653, -0.203945, -0.03452057, 0.0002593962
 233793945, 0.1002575, -0.2172155, 0.02474841, 0.0003112754
 233893905, 0.08695883, -0.180275, 0.03741889, 0.0002593962
 233993865, 0.09029466, -0.2032231, -0.0201772, 0.0002593962
 234093825, 0.08556387, -0.196371, -0.02354179, 0.0002593962
 234193785, 0.08930035, -0.1802668, -0.004030722, 0.0002593962
 234293745, 0.08926602, -0.1724219, 0.01984805, 0.0002593962
 234393705, 0.09115282, -0.1802982, 0.01005255, 0.0002593962
 234493665, 0.101155, -0.1937976, -0.02657583, 0.0002593962
 234593625, 0.09436888, -0.1875001, -0.01258957, 0.0002593962
 234693585, 0.09166485, -0.172481, 0.001880284, 0.0002593962
 234793545, 0.08235863, -0.1642182, 0.01922021, 0.0002593962
 234893505, 0.09745484, -0.1745655, 0.007568191, 0.0002593962
 234994298, 0.109853, -0.1855476, -0.01344502, 0.0002593962
 235094258, 0.1015803, -0.1800945, -0.003274387, 0.0002615578
 235194218, 0.09575942, -0.1716634, 0.01098352, 0.0002593962
 235294178, 0.09706586, -0.1666474, -0.0004275136, 0.0002593962
 235394138, 0.1049788, -0.1759431, -0.01744737, 0.0002593962
 235494098, 0.1035607, -0.1757573, -0.01006582, 0.0002593962
