TimeUS,CAN,CAE,CAD,CAe,NAN,NAE,NAD,NAe,m10,m00,Gye
 8425795, 0.01136754, 0.0003521068, -0.05493043, 1.567772, 0.002113248, -0.002368913, -0.07791271, 1.566978, -0.9757831, -0.2187405, 11.72367
 8606556, 0.002298437, -0.002135129, -0.07989433, 1.60108, -0.0001053945, 9.190226E-05, -0.001018357, 0.03363385, -0.9814997, -0.1914634, 28371.7
 8806476, 0.0001526288, 1.658939E-05, -0.003313043, 0.07129171, 8.807565E-05, 8.436442E-05, -0.001067009, 0.03718013, -0.9869645, -0.160938, 43.18072
 9006396, 5.226103E-05, 0.0002111727, -0.00309779, 0.07482506, 0.000116906, 5.071903E-05, -0.001133804, 0.03718013, -0.990826, -0.1351437, 44.76286
 9206316, 0.0005031109, 0.0001864772, -0.003193448, 0.07482506, 0.0003678887, 8.2218E-05, -0.0008983558, 0.03718013, -0.9935443, -0.1134446, 44.76286
 9406236, 0.0005420728, 0.0003032014, -0.003284474, 0.07482506, -3.343616E-05, 0.0005853602, -0.001335766, 0.03718013, -0.9954585, -0.09519687, 44.76286
 9606156, 0.0001312213, 0.0008702832, -0.003551504, 0.07482506, -0.0001152051, 0.0004466574, -0.0010094, 0.03718013, -0.9968081, -0.07983479, 44.76286
 9806076, 5.263524E-05, 0.000377942, -0.003474504, 0.07483085, -0.0001722829, 0.0001099787, -0.001350016, 0.03719873, -0.9977587, -0.06691508, 44.76818
 10005996, -0.0001037189, 0.0002400373, -0.003611882, 0.07486238, 3.640034E-05, -0.000185404, -0.0009554735, 0.03719873, -0.9984273, -0.0560624, 44.78527
 10205916, 8.293641E-05, -2.691506E-05, -0.003034302, 0.07486238, 0.0002475821, 0.0002614036, -0.0009464041, 0.03719873, -0.9988958, -0.04697924, 44.78527
 10405836, 0.0004009313, 0.0004642816, -0.003147727, 0.07486238, 0.0004971712, 1.742695E-07, -0.001453383, 0.03719873, -0.999225, -0.03936258, 44.78527
 10606589, 0.0007124525, 0.0002679877, -0.003627812, 0.07501738, 4.992101E-05, -0.000181214, -0.001026505, 0.03735372, -0.9994572, -0.0329418, 43.19506
 10806509, 0.0002143866, 8.024039E-05, -0.003433048, 0.07501159, 0.0002959419, 0.0001425361, -0.00127683, 0.03718014, -0.9996195, -0.02758489, 44.8735
 11006429, 0.000402274, 0.0004013733, -0.003603744, 0.07482506, -0.000110588, 0.0001023422, -0.001170498, 0.03718014, -0.9997336, -0.02308024, 44.76286
 11206349, 0.0001281963, 0.0001565158, -0.003352269, 0.07482506, 0.0002471704, 0.0001468803, -0.001289152, 0.03718014, -0.9998137, -0.01930197, 44.76286
 11406269, 0.0006466609, 0.0002571243, -0.003499218, 0.07482506, 0.0007056731, -0.0001980052, -0.001373446, 0.03718014, -0.9998698, -0.01613139, 44.76286
 11606189, 0.0008814077, -0.0001023157, -0.003605867, 0.07482506, 0.0002685707, 2.200547E-05, -0.001246641, 0.03718014, -0.9999092, -0.01347738, 44.76286
 11806109, 0.0007648391, 0.0004360591, -0.003483331, 0.07482506, 0.0002325424, 0.0004736943, -0.001172951, 0.03718014, -0.9999366, -0.01125279, 44.76286
 12006029, 0.0006231914, 0.0008420207, -0.00330473, 0.07482506, 8.441087E-05, 0.0001814903, -0.001405026, 0.03718014, -0.9999559, -0.009397981, 44.76286
 12205949, 0.0004669423, 0.0005310419, -0.003733362, 0.07482506, 0.0002268599, 3.172009E-05, -0.0009188384, 0.03718014, -0.9999693, -0.007837355, 44.76286
 12405869, 0.0005707584, 0.00026182, -0.003047529, 0.07482506, -0.0001682003, 0.000236069, -0.001125913, 0.03718014, -0.9999789, -0.006499079, 44.76286
 12605789, 0.0001451683, 0.0005954994, -0.003379921, 0.07482506, 0.0003876385, 7.538E-05, -0.0008679469, 0.03718014, -0.9999863, -0.005251723, 44.76286
 12806542, 0.0008105272, 0.0001631803, -0.003020172, 0.07498554, 0.0002294454, -1.453093E-05, -0.001121595, 0.03735372, -0.9999912, -0.004203362, 44.85975
 13006462, 0.0005984776, -1.904193E-05, -0.003290223, 0.07501738, 0.0003140419, -0.0001349918, -0.001639623, 0.03719873, -0.9999945, -0.003337318, 44.87799
 13206382, 0.000625449, 0.000264302, -0.003655956, 0.07486238, 3.809598E-05, 0.0001331003, -0.001090912, 0.03719873, -0.9999965, -0.002628197, 44.78527
 13406302, 3.576167E-05, 0.0003033827, -0.003271178, 0.07486238, -0.0001554833, 0.0002642378, -0.00119937, 0.03719873, -0.9999979, -0.002042319, 44.78527
 13606222, -3.620963E-05, 0.0007375128, -0.003216675, 0.07486238, -9.250687E-05, 0.0002738802, -0.001055044, 0.03719873, -0.9999988, -0.001544292, 44.78527
 13806142, 0.0002866502, 0.0006540554, -0.003267542, 0.07485683, 0.0005481223, 0.0002013227, -0.001206357, 0.03718014, -0.9999994, -0.001115899, 44.78107
 14006062, 0.0009291701, 0.0004710962, -0.00325474, 0.07482506, 2.546396E-05, 0.0001844161, -0.001150745, 0.03718014, -0.9999998, -0.0007448239, 44.76286
 14205982, 0.0003315968, 0.0002959724, -0.003409654, 0.07482506, 2.933769E-05, -0.0001078892, -0.00127615, 0.03718014, -0.9999999, -0.0004276571, 44.76286
 14405902, 0.0004143098, 0.0001984321, -0.003377521, 0.07482506, -4.842255E-05, 0.000205967, -0.001191329, 0.03718014, -1, -0.000162959, 44.76286
 14605822, -4.227813E-05, 0.0003002167, -0.003419831, 0.07482506, 7.952865E-05, -1.534786E-05, -0.001146852, 0.03718014, -1, 5.774075E-05, 44.76286
 14806575, 0.0002899414, 0.0001966047, -0.003301312, 0.07498562, 0.0002453736, -3.794531E-05, -0.001226106, 0.03735372, -1, 0.0002462029, 44.85975
 15006495, 0.0005315608, 7.423061E-05, -0.003490733, 0.07501738, 0.0002984325, -3.197269E-05, -0.001049418, 0.03719873, -0.9999999, 0.0003988513, 44.87799
 15206415, 0.0003147924, 0.0002240375, -0.003445995, 0.07486238, 0.0001085602, 0.0003893249, -0.001273013, 0.03719873, -0.9999999, 0.0005139707, 44.78527
 15406335, 0.0003454663, 0.000799865, -0.003354484, 0.07486238, 0.000333152, -1.129607E-05, -0.0009245176, 0.03719873, -0.9999999, 0.0005968719, 44.78527
 15606255, 0.0004353459, 0.0004031418, -0.002988982, 0.07486238, 0.0002408119, 0.0001085836, -0.0008051654, 0.03719873, -0.9999998, 0.0006542532, 44.78527
 15806175, 0.0005083146, 0.0005019779, -0.002940749, 0.07485683, 0.0002137036, 0.0001671457, -0.001402499, 0.03718014, -0.9999998, 0.0007011264, 44.78107
 16006095, 0.0004759173, 0.0005343875, -0.003274767, 0.07482506, 0.0001123353, 0.0002637647, -0.001076699, 0.03718014, -0.9999998, 0.0007479471, 44.76286
 16206015, 0.0003844604, 0.0005046764, -0.003657165, 0.07482506, 0.0001212451, 5.81687E-05, -0.001575886, 0.03718014, -0.9999996, 0.0007880292, 44.76286
 16405935, 0.0003692169, 0.0004024758, -0.003746707, 0.07482506, 0.0002670289, 1.45131E-05, -0.001301402, 0.03718014, -0.9999996, 0.0008229357, 44.76286
 16605855, 0.0004012337, 0.0002281388, -0.003484115, 0.07482506, -8.266417E-05, 0.000124061, -0.001250935, 0.03718014, -0.9999996, 0.0008573325, 44.76286
 16805775, 0.0002981247, 0.0007869707, -0.003245867, 0.07482506, 0.0002832909, 0.0004537048, -0.0009446537, 0.03718014, -0.9999996, 0.0008903495, 44.76286
 17006528, 0.000661766, 0.0008448507, -0.003079935, 0.07497998, 0.0005163376, 0.0003682422, -0.001423629, 0.03733505, -0.9999996, 0.0009195436, 44.85553
 17206448, 0.0008105674, 0.0006191021, -0.003518992, 0.07497998, 6.107269E-05, -0.0001027306, -0.0008103084, 0.03718014, -0.9999995, 0.0009556332, 44.85553
 17406368, 0.0006698247, 1.082214E-05, -0.003182785, 0.07482506, 0.0004045739, -6.638966E-05, -0.001400893, 0.03718014, -0.9999995, 0.0009926322, 44.76286
 17606288, 0.0008508277, 0.0002412355, -0.003732138, 0.07482506, 0.0006103707, 0.0002420132, -0.001308211, 0.03718014, -0.9999995, 0.00102251, 44.76286
 17806208, 0.0007191725, 0.000659028, -0.003416051, 0.07483039, 0.000113127, 0.0002914048, -0.001087771, 0.03719873, -0.9999995, 0.001042175, 44.76678
 18006128, 0.0002559898, 0.0005315491, -0.003405297, 0.07486238, 0.0001798129, -0.0001556013, -0.001437612, 0.03719873, -0.9999995, 0.001058535, 44.78527
 18206048, 0.0004556709, 0.0002725318, -0.003480032, 0.07486238, 0.000147494, 0.0003445468, -0.001194018, 0.03719873, -0.9999994, 0.00106099, 44.78527
 18405968, 0.0006767873, 0.0009734423, -0.003347478, 0.07486238, 6.093727E-05, 0.0006086956, -0.000921609, 0.03719873, -0.9999994, 0.00104129, 44.78527
 18605888, 0.000409278, 0.001406714, -0.002959919, 0.07486238, 0.000195562, 0.0001901164, -0.00138291, 0.03719873, -0.9999995, 0.001004742, 44.78527
 18805808, 0.0005926372, 0.0009181021, -0.003505065, 0.07485706, 0.0003465708, 0.0003181109, -0.001252823, 0.03718014, -0.9999995, 0.0009889487, 44.78135
 19006561, 0.0008966654, 0.000683351, -0.003241016, 0.07497998, 0.0006665385, 9.056439E-05, -0.001212298, 0.03733505, -0.9999995, 0.001003108, 44.85553
 19206481, 0.001051981, 0.0005073251, -0.003385386, 0.07497998, 6.902724E-05, 0.0005595773, -0.0009688482, 0.03718014, -0.9999995, 0.001020817, 44.85553
 19406401, 0.0003800043, 0.0007295155, -0.003281909, 0.07482506, 0.0001836462, 0.0002933033, -0.001303809, 0.03718014, -0.9999995, 0.0010334, 44.76286
 19606321, 0.0004297792, 0.0006982348, -0.003472204, 0.07482506, -0.0001948605, 0.0006199525, -0.001340219, 0.03718014, -0.9999995, 0.001040635, 44.76286
 19806241, 0.0001825838, 0.0008155527, -0.00376965, 0.07483039, 0.000250736, 0.0002260647, -0.001036544, 0.03719873, -0.9999994, 0.001038826, 44.76678
 20006161, 0.0005870929, 0.0004627644, -0.003198085, 0.07486238, -0.0001312332, 0.0004106775, -0.001340061, 0.03719873, -0.9999994, 0.001039519, 44.78527
 20206081, 0.0003109698, 0.001010516, -0.003443941, 0.07486238, 1.044778E-05, 0.0003886699, -0.0008396711, 0.03719873, -0.9999994, 0.001035334, 44.78527
 20406001, 0.0002349678, 0.0009160521, -0.003066175, 0.07486238, 0.0002608317, 0.0002949278, -0.001157495, 0.03719873, -0.9999994, 0.001022566, 44.78527
 20605921, 0.0005885873, 0.0008888828, -0.003187925, 0.07486238, 0.0001197546, 0.0002241219, -0.001147432, 0.03719873, -0.9999995, 0.001008189, 44.78527
 20805841, 0.0003579087, 0.0006235765, -0.003222814, 0.07485729, -0.0002329477, 0.0003565222, -0.001367497, 0.03718014, -0.9999995, 0.001009426, 44.78163
 21005761, 0.0002116845, 0.0006122376, -0.003482174, 0.07482506, 0.0002591765, -5.231618E-05, -0.001048676, 0.03718014, -0.9999995, 0.00102511, 44.76286
 21206514, 0.0007542126, 0.0001703298, -0.003019683, 0.07497998, 0.0004874153, 0.0003142946, -0.001131755, 0.03733505, -0.9999995, 0.001040431, 44.85553
 21406434, 0.001010424, 0.0009614163, -0.003340373, 0.07497998, 0.0005835527, 0.0002944592, -0.0009297584, 0.03718014, -0.9999994, 0.001034823, 44.85553
 21606354, 0.001091442, 0.0007957506, -0.003055856, 0.07482506, 0.0002730738, 0.0002554067, -0.0009953855, 0.03718014, -0.9999994, 0.001030316, 44.76286
 21806274, 0.0006393003, 0.0008982531, -0.003160861, 0.07482506, 0.0004184576, 0.0001344703, -0.001268048, 0.03718014, -0.9999994, 0.001043113, 44.76286
 22006194, 0.0009081842, 0.0004150371, -0.003289777, 0.07482506, 0.0001188373, 0.0001109267, -0.0009940723, 0.03718014, -0.9999994, 0.001064567, 44.76286
 22206114, 0.0006846374, 0.0006393504, -0.003430417, 0.07482506, 0.0003962349, 0.0002952365, -0.001245226, 0.03718014, -0.9999994, 0.001084416, 44.76286
 22406034, 0.0008464984, 0.0006822122, -0.003395627, 0.07482506, 0.000398567, 0.0006236103, -0.001374392, 0.03718014, -0.9999993, 0.001234876, 44.76286
 22605954, 0.0008969046, 0.001167585, -0.003616513, 0.07482506, 0.0003107574, 0.0004331303, -0.001035013, 0.03718014, -0.999999, 0.001411744, 44.76286
 22805874, 0.00113277, 0.0009406514, -0.003263367, 0.07483016, 0.0006161331, -2.714242E-05, -0.001226807, 0.03719873, -0.9999987, 0.001578239, 44.7665
 23005794, 0.001259226, 0.0008158197, -0.003750171, 0.07486238, 0.0002972364, 0.0002877461, -0.001267468, 0.03719873, -0.9999985, 0.001739922, 44.78527
 23206547, 0.001231001, 0.001136617, -0.003460628, 0.07501738, 0.0005485329, 0.0004268111, -0.001047561, 0.03735372, -0.9999982, 0.001898242, 44.87799
 23406467, 0.001353205, 0.00118778, -0.003133287, 0.07501738, 0.0004140198, 0.0004026853, -0.001265858, 0.03719873, -0.9999979, 0.002051129, 44.87799
 23606387, 0.001211423, 0.001188901, -0.003424931, 0.07486238, 0.0003739243, 0.0002337308, -0.001211801, 0.03719873, -0.9999975, 0.002200424, 44.78527
 23806307, 0.001348806, 0.001165401, -0.003293114, 0.07485729, 0.0005449326, 0.0005789797, -0.0009987805, 0.03718014, -0.9999971, 0.00234453, 44.78163
 24006227, 0.001749014, 0.00176583, -0.003176724, 0.07482506, 0.0007314585, 0.0006929276, -0.001421694, 0.03718014, -0.9999968, 0.0024856, 44.76286
 24206147, 0.001910332, 0.00162104, -0.0034547, 0.07482506, 0.000628954, 0.0006976874, -0.001102341, 0.03718014, -0.9999964, 0.00262208, 44.76286
 24406067, 0.001941173, 0.001951155, -0.003325575, 0.07482506, 0.0007505413, 0.000531201, -0.001112853, 0.03718014, -0.9999961, 0.002755019, 44.76286
 24605987, 0.001890208, 0.001879004, -0.003366481, 0.07482506, 0.0006227911, 0.0006891292, -0.00133198, 0.03718014, -0.9999957, 0.002885084, 44.76286
 24805907, 0.00210806, 0.002114644, -0.003491405, 0.07482993, 0.00095971, 0.001093612, -0.001195607, 0.03719873, -0.9999954, 0.003010433, 44.76622
 25005827, 0.002311019, 0.002825289, -0.003422588, 0.07486238, 0.000487603, 0.0009938388, -0.001085533, 0.03719873, -0.9999949, 0.003132051, 44.78527
 25206580, 0.00229338, 0.002682155, -0.003267018, 0.07501738, 0.0009539665, 0.0008324851, -0.001070267, 0.03735372, -0.9999945, 0.003251815, 44.87799
 25406500, 0.002841892, 0.002416638, -0.003098007, 0.07501738, 0.0009967816, 0.0008925172, -0.001035539, 0.03719873, -0.999994, 0.003367682, 44.87799
 25606420, 0.002726467, 0.002699098, -0.003322542, 0.07486238, 0.0008354341, 0.001151515, -0.001359096, 0.03719873, -0.9999937, 0.00348062, 44.78527
 25806340, 0.00245925, 0.003151918, -0.003575476, 0.07485752, 0.0006899321, 0.0009993237, -0.001041915, 0.03718014, -0.9999932, 0.003591739, 44.78191
 26006260, 0.002560616, 0.002759136, -0.003344081, 0.07482506, 0.001023843, 0.001027491, -0.001014755, 0.03718014, -0.9999928, 0.003699449, 44.76286
 26206180, 0.002962223, 0.00301118, -0.003262154, 0.07482506, 0.001356252, 0.001003051, -0.001298562, 0.03718014, -0.9999924, 0.003805609, 44.76286
 26406100, 0.003405347, 0.002933331, -0.003414768, 0.07482506, 0.001079948, 0.001544031, -0.0009293748, 0.03718014, -0.999992, 0.003907031, 44.76286
 26606020, 0.003208686, 0.003593907, -0.003147992, 0.07482506, 0.001023283, 0.001140958, -0.0009425778, 0.03718014, -0.9999915, 0.004005427, 44.76286
 26805940, 0.003301403, 0.003178864, -0.00316228, 0.07482506, 0.00130286, 0.001286117, -0.001116092, 0.03718014, -0.9999911, 0.004102241, 44.76286
 27005860, 0.003648689, 0.003317129, -0.003298784, 0.07482506, 0.001198897, 0.001238128, -0.001256579, 0.03718014, -0.9999907, 0.004195524, 44.76286
 27205780, 0.003316596, 0.003376144, -0.003577087, 0.07482506, 0.0009917096, 0.0007429227, -0.001435207, 0.03718014, -0.9999903, 0.004287119, 44.76286
 27406533, 0.003214094, 0.003031349, -0.003601428, 0.07497998, 0.001364323, 0.001161871, -0.001028894, 0.03733505, -0.9999899, 0.004377414, 44.85553
 27606453, 0.003640375, 0.00365066, -0.003077052, 0.07497998, 0.001508218, 0.001782124, -0.000938761, 0.03718014, -0.9999895, 0.004451449, 44.85553
 27806373, 0.003904354, 0.00426848, -0.003100917, 0.07482993, 0.00114629, 0.001358045, -0.001262257, 0.03719873, -0.9999893, 0.004496224, 44.76622
 28006293, 0.003512416, 0.003790342, -0.00345896, 0.07486238, 0.001262052, 0.001324168, -0.001172957, 0.03719873, -0.999989, 0.004540402, 44.78527
 28206213, 0.00370764, 0.003847867, -0.003293814, 0.07486238, 0.001357333, 0.001214295, -0.001236925, 0.03719873, -0.9999889, 0.004582881, 44.78527
 28406133, 0.003840295, 0.003515485, -0.003650244, 0.07486238, 0.001277993, 0.001269234, -0.001019542, 0.03719873, -0.9999887, 0.004624933, 44.78527
 28606053, 0.004021712, 0.003717057, -0.003300327, 0.07486238, 0.001189507, 0.001488251, -0.001224028, 0.03719873, -0.9999884, 0.004665749, 44.78527
 28805973, 0.003687998, 0.004164292, -0.003452282, 0.07485775, 0.001086251, 0.001371127, -0.001282616, 0.03718014, -0.9999882, 0.004705607, 44.78219
 29005893, 0.003786523, 0.004111934, -0.003503426, 0.07482506, 0.001411496, 0.001433748, -0.0009694012, 0.03718014, -0.9999881, 0.004744184, 44.76286
 29205813, 0.003964526, 0.00417268, -0.003150454, 0.07482506, 0.001269278, 0.001168906, -0.001196673, 0.03718014, -0.9999878, 0.004782421, 44.76286
 29406566, 0.003950536, 0.004090013, -0.003479297, 0.07497998, 0.001767588, 0.001303087, -0.001224681, 0.03733505, -0.9999876, 0.004820853, 44.85553
 29606486, 0.0045065, 0.0039969, -0.003316448, 0.07497998, 0.001398316, 0.001628339, -0.0009627459, 0.03718014, -0.9999875, 0.00485821, 44.85553
 29806406, 0.003996258, 0.004493108, -0.003037589, 0.0748297, 0.001654394, 0.001535408, -0.001073501, 0.03719873, -0.9999872, 0.004894508, 44.76594
 30006326, 0.004405144, 0.004284069, -0.003057382, 0.07486238, 0.001522643, 0.001619855, -0.001329099, 0.03719873, -0.999987, 0.004929573, 44.78527
 30206246, 0.004292539, 0.004338573, -0.003614763, 0.07486238, 0.001552017, 0.001738226, -0.001110432, 0.03719873, -0.9999868, 0.004964238, 44.78527
 30406166, 0.004405674, 0.004692636, -0.003327725, 0.07486238, 0.001587222, 0.001454732, -0.001561946, 0.03719873, -0.9999866, 0.004997752, 44.78527
 30606086, 0.004657156, 0.004487249, -0.003774582, 0.07486238, 0.001776609, 0.001612222, -0.001038642, 0.03719873, -0.9999864, 0.005031563, 44.78527
 30806006, 0.004366802, 0.004472852, -0.003144989, 0.07486238, 0.001357292, 0.001759054, -0.0009893237, 0.03719873, -0.9999863, 0.005063409, 44.78527
 31005926, 0.004125135, 0.004401491, -0.003465316, 0.07486238, 0.001552161, 0.001365494, -0.001412889, 0.03719873, -0.9999861, 0.005094532, 44.78527
 31205846, 0.004551229, 0.004367311, -0.003694602, 0.07486238, 0.001614921, 0.001737587, -0.001119876, 0.03719873, -0.9999859, 0.005124879, 44.78527
 31405766, 0.004684448, 0.0049183, -0.003481864, 0.07486238, 0.00178267, 0.001424719, -0.001554398, 0.03719873, -0.9999857, 0.005154415, 44.78527
 31606519, 0.004996324, 0.004453631, -0.003802278, 0.07501738, 0.001572462, 0.001672673, -0.001385235, 0.03735372, -0.9999855, 0.005183309, 44.87799
 31806439, 0.004783502, 0.004650986, -0.003537596, 0.07501738, 0.001691149, 0.001744577, -0.001229628, 0.03719873, -0.9999853, 0.005212603, 44.87799
 32006359, 0.004707009, 0.004997982, -0.00325503, 0.07486238, 0.001761263, 0.001644485, -0.001062498, 0.03719873, -0.9999852, 0.005241489, 44.78527
 32206279, 0.004830976, 0.004692158, -0.003257508, 0.07486238, 0.001616583, 0.001475616, -0.001583149, 0.03719873, -0.999985, 0.005269045, 44.78527
 32406199, 0.00492879, 0.004643495, -0.003982359, 0.07486238, 0.00160974, 0.0020333, -0.001327686, 0.03719873, -0.9999849, 0.005296445, 44.78527
 32606119, 0.004857378, 0.005394419, -0.003627018, 0.07486238, 0.001931155, 0.001815194, -0.0009198, 0.03719873, -0.9999847, 0.005322096, 44.78527
 32806039, 0.005296142, 0.005007105, -0.003170318, 0.07486238, 0.001929573, 0.001762273, -0.001463481, 0.03719873, -0.9999849, 0.005277697, 44.78527
 33005959, 0.005287717, 0.004958045, -0.00341501, 0.07486238, 0.001845207, 0.001580064, -0.0007972936, 0.03719873, -0.9999851, 0.005234006, 44.78527
 33205879, 0.005063602, 0.00491869, -0.002821246, 0.07486238, 0.00183856, 0.001769082, -0.001183674, 0.03719873, -0.9999853, 0.005191488, 44.78527
 33405799, 0.005054162, 0.005252012, -0.002991384, 0.07486238, 0.001780248, 0.002057219, -0.0008620009, 0.03719873, -0.9999856, 0.005149389, 44.78527
 33606552, 0.004898524, 0.005669317, -0.003262918, 0.07501738, 0.001531936, 0.001628786, -0.001281012, 0.03735372, -0.9999857, 0.005109171, 44.87799
 33806472, 0.004845862, 0.005097017, -0.003678082, 0.07501738, 0.001987397, 0.001829422, -0.001376328, 0.03719873, -0.9999859, 0.005070532, 44.87799
 34006392, 0.005247287, 0.005110423, -0.003532663, 0.07486238, 0.001570316, 0.001686848, -0.001066357, 0.03719873, -0.9999862, 0.005032675, 44.78527
 34206312, 0.004972299, 0.00517715, -0.003228449, 0.07486238, 0.001708328, 0.00192283, -0.00121722, 0.03719873, -0.9999863, 0.004996319, 44.78527
 34406232, 0.004832663, 0.005254977, -0.003476714, 0.07486238, 0.001904949, 0.001848355, -0.00124432, 0.03719873, -0.9999864, 0.004960863, 44.78527
 34606152, 0.00517008, 0.00542637, -0.003433374, 0.07486238, 0.001714217, 0.001936728, -0.001528932, 0.03719873, -0.9999865, 0.00492609, 44.78527
 34806072, 0.004854308, 0.005356348, -0.003541687, 0.07486238, 0.001601722, 0.002066075, -0.001251715, 0.03719873, -0.9999868, 0.004891564, 44.78527
 35005992, 0.004837785, 0.005362305, -0.003682246, 0.07486238, 0.001899135, 0.00177844, -0.00152582, 0.03719873, -0.9999869, 0.004858976, 44.78527
 35205912, 0.005143307, 0.005337016, -0.003974258, 0.07486238, 0.001793918, 0.001845874, -0.00147353, 0.03719873, -0.999987, 0.00482712, 44.78527
 35405832, 0.005401935, 0.005313269, -0.003599825, 0.07486238, 0.001996069, 0.00177988, -0.0008675359, 0.03719873, -0.9999871, 0.004795655, 44.78527
 35606585, 0.005268024, 0.005383687, -0.002895364, 0.07501738, 0.002149032, 0.002110294, -0.0008353845, 0.03735372, -0.9999874, 0.004765858, 44.87799
 35806505, 0.005452667, 0.005541282, -0.003280144, 0.07501738, 0.001947428, 0.002029216, -0.001229627, 0.03719873, -0.9999874, 0.004737705, 44.87799
 36006425, 0.005305834, 0.005515628, -0.003427805, 0.07486238, 0.001795375, 0.001620748, -0.001197804, 0.03719873, -0.9999875, 0.004710549, 44.78527
 36206345, 0.005057015, 0.005178645, -0.003274597, 0.07486238, 0.001649407, 0.001831581, -0.001173537, 0.03719873, -0.9999876, 0.004683944, 44.78527
 36406265, 0.005096413, 0.005419862, -0.003473194, 0.07486238, 0.002058672, 0.001959972, -0.001048181, 0.03719873, -0.9999877, 0.004657712, 44.78527
 36606185, 0.005696879, 0.005405219, -0.003152096, 0.07486238, 0.001935289, 0.002016523, -0.001179061, 0.03719873, -0.9999878, 0.004632576, 44.78527
 36806105, 0.005333437, 0.00552619, -0.003304282, 0.07486238, 0.002178532, 0.00190533, -0.001069582, 0.03719873, -0.999988, 0.004607844, 44.78527
 37006025, 0.005698191, 0.005540949, -0.003323754, 0.07486238, 0.001772767, 0.001970181, -0.001354918, 0.03719873, -0.9999881, 0.004584684, 44.78527
 37205945, 0.005093893, 0.005705282, -0.003584607, 0.07486238, 0.001518371, 0.002274352, -0.0009132509, 0.03719873, -0.9999881, 0.004561408, 44.78527
 37405865, 0.005240791, 0.005760777, -0.003228501, 0.07486238, 0.001828805, 0.001928985, -0.001259458, 0.03719873, -0.9999882, 0.004539065, 44.78527
 37605785, 0.005562044, 0.005559888, -0.003579822, 0.07486238, 0.002013711, 0.001949698, -0.001526641, 0.03719873, -0.9999883, 0.00451549, 44.78527
 37806538, 0.005616437, 0.005729298, -0.003682823, 0.07501738, 0.002007999, 0.001831186, -0.0009965942, 0.03735372, -0.9999887, 0.004438743, 44.87799
 38006458, 0.005520661, 0.005558122, -0.002971386, 0.07501738, 0.001956905, 0.001733344, -0.0007776546, 0.03719873, -0.999989, 0.004345523, 44.87799
 38206378, 0.005622642, 0.005310741, -0.00327206, 0.07486238, 0.001810777, 0.001378837, -0.001768134, 0.03719873, -0.9999895, 0.004255631, 44.78527
 38406298, 0.005270561, 0.005021372, -0.00393424, 0.07486238, 0.00187301, 0.001909674, -0.001337976, 0.03719873, -0.9999899, 0.00416726, 44.78527
 38606218, 0.005481398, 0.005526865, -0.00347734, 0.07486238, 0.002138376, 0.002218993, -0.00107288, 0.03719873, -0.9999902, 0.004080795, 44.78527
 38806138, 0.005636603, 0.005946212, -0.003213352, 0.07486238, 0.002067724, 0.001993507, -0.0007000566, 0.03719873, -0.9999905, 0.00399702, 44.78527
 39006058, 0.005815659, 0.005634934, -0.002779993, 0.07486238, 0.00223711, 0.001861284, -0.001303966, 0.03719873, -0.9999908, 0.003915661, 44.78527
 39205978, 0.005972599, 0.005563149, -0.003538231, 0.07486238, 0.00203471, 0.001872212, -0.001346496, 0.03719873, -0.9999912, 0.003837107, 44.78527
 39405898, 0.005686329, 0.005395003, -0.003611893, 0.07486238, 0.002075561, 0.001976935, -0.001019615, 0.03719873, -0.9999914, 0.003760391, 44.78527
 39605818, 0.005651972, 0.005386281, -0.003110902, 0.07486238, 0.001846835, 0.001666485, -0.001047134, 0.03719873, -0.9999917, 0.003685569, 44.78527
 39806571, 0.005431452, 0.005392849, -0.003215808, 0.07501738, 0.001904547, 0.002078255, -0.00115471, 0.03735372, -0.9999919, 0.003611946, 44.87799
 40006491, 0.00551331, 0.005985688, -0.003223594, 0.07501738, 0.001723151, 0.002245537, -0.001124506, 0.03719873, -0.9999923, 0.003540606, 44.87799
 40206411, 0.005250175, 0.005651474, -0.003197062, 0.07486238, 0.001974113, 0.001801478, -0.0008889289, 0.03719873, -0.9999925, 0.003471543, 44.78527
 40406331, 0.005396612, 0.005445369, -0.003117498, 0.07486238, 0.001907827, 0.00223014, -0.000881318, 0.03719873, -0.9999926, 0.003404745, 44.78527
 40606251, 0.005390641, 0.006047096, -0.003030287, 0.07486238, 0.001947546, 0.002181546, -0.00123199, 0.03719873, -0.9999928, 0.003340068, 44.78527
 40806171, 0.005438085, 0.006010172, -0.003447507, 0.07486238, 0.001631526, 0.002381988, -0.00113651, 0.03719873, -0.9999931, 0.003276616, 44.78527
 41006091, 0.005167217, 0.006238367, -0.003152698, 0.07486238, 0.001906655, 0.002157094, -0.001145461, 0.03719873, -0.9999932, 0.003214351, 44.78527
 41206011, 0.005524925, 0.0060131, -0.003123923, 0.07486238, 0.001872718, 0.001948104, -0.001250146, 0.03719873, -0.9999934, 0.003154733, 44.78527
 41405931, 0.0056383, 0.005619785, -0.003518243, 0.07486238, 0.002036934, 0.001929943, -0.001173674, 0.03719873, -0.9999936, 0.003095295, 44.78527
 41605851, 0.005722167, 0.005876226, -0.003323246, 0.07486238, 0.002246165, 0.002407731, -0.001001313, 0.03719873, -0.9999938, 0.003037595, 44.78527
 41805771, 0.005926964, 0.006392526, -0.00335492, 0.07486238, 0.002173533, 0.002073298, -0.00121433, 0.03719873, -0.9999939, 0.002981633, 44.78527
 42006524, 0.005762902, 0.005853411, -0.003230344, 0.07501738, 0.00218752, 0.002166697, -0.001148803, 0.03735372, -0.9999942, 0.002926313, 44.87799
 42206444, 0.006016833, 0.006256111, -0.003085724, 0.07501738, 0.00210631, 0.002019377, -0.001034926, 0.03719873, -0.9999942, 0.002873438, 44.87799
 42406364, 0.005750872, 0.005839155, -0.003204047, 0.07486238, 0.001672551, 0.002048676, -0.001323365, 0.03719873, -0.9999944, 0.002822091, 44.78527
 42606284, 0.005444202, 0.005851952, -0.003455979, 0.07486238, 0.001991541, 0.002081226, -0.001257582, 0.03719873, -0.9999945, 0.00277226, 44.78527
 42806204, 0.00560759, 0.005938114, -0.00347273, 0.07486238, 0.001482436, 0.002194893, -0.001126849, 0.03719873, -0.9999946, 0.002694489, 44.78527
 43006124, 0.004973025, 0.006307377, -0.003440469, 0.07486238, 0.001845042, 0.002555975, -0.001047265, 0.03719873, -0.999995, 0.00258242, 44.78527
 43206044, 0.005547905, 0.00640273, -0.003328218, 0.07486238, 0.001821572, 0.002183409, -0.001110898, 0.03719873, -0.9999952, 0.002474172, 44.78527
 43405964, 0.005545198, 0.006122841, -0.003337828, 0.07486238, 0.00175588, 0.002307557, -0.001142767, 0.03719873, -0.9999956, 0.002369525, 44.78527
 43605884, 0.005435176, 0.0062946, -0.003150747, 0.07486238, 0.001607315, 0.002123653, -0.0009926008, 0.03719873, -0.9999958, 0.00226761, 44.78527
 43805804, 0.005146625, 0.00583781, -0.003056342, 0.07486238, 0.002014445, 0.002020815, -0.001187849, 0.03719873, -0.9999961, 0.002168958, 44.78527
 44006557, 0.005556055, 0.006057549, -0.003309756, 0.07501738, 0.002091679, 0.001986479, -0.001229051, 0.03735372, -0.9999962, 0.002072575, 44.87799
 44206477, 0.005797395, 0.005847746, -0.003437595, 0.07501738, 0.002134552, 0.002103863, -0.0009686968, 0.03719873, -0.9999964, 0.001979703, 44.87799
 44406397, 0.005929574, 0.005650811, -0.003047789, 0.07486238, 0.00230184, 0.001809957, -0.0007556157, 0.03719873, -0.9999967, 0.001890126, 44.78527
 44606317, 0.005930386, 0.005377252, -0.003018196, 0.07486238, 0.00219803, 0.002199237, -0.001527139, 0.03719873, -0.9999968, 0.001802263, 44.78527
 44806237, 0.005743218, 0.005689367, -0.003570104, 0.07486238, 0.001822016, 0.001918135, -0.001142897, 0.03719873, -0.9999969, 0.001717173, 44.78527
 45006157, 0.005204124, 0.005618558, -0.003314437, 0.07486238, 0.001680572, 0.002136318, -0.001309586, 0.03719873, -0.999997, 0.00163435, 44.78527
 45206077, 0.005299447, 0.005718119, -0.003253928, 0.07486238, 0.002149878, 0.00209766, -0.000806649, 0.03719873, -0.9999973, 0.001553725, 44.78527
 45405997, 0.005894709, 0.005870846, -0.00301606, 0.07486238, 0.001997611, 0.002044513, -0.001050881, 0.03719873, -0.9999974, 0.001475292, 44.78527
 45605917, 0.005275979, 0.005934556, -0.003146164, 0.07486238, 0.001740211, 0.002222315, -0.001525148, 0.03719873, -0.9999974, 0.001399071, 44.78527
 45805837, 0.005389022, 0.005884876, -0.003694024, 0.07486238, 0.002226473, 0.001898546, -0.0012069, 0.03719873, -0.9999975, 0.001324235, 44.78527
 46006590, 0.005936929, 0.005630109, -0.003412875, 0.07501738, 0.002001224, 0.002190081, -0.001220971, 0.03735372, -0.9999976, 0.001251108, 44.87799
 46206510, 0.005657122, 0.0060686, -0.003466414, 0.07501738, 0.001877934, 0.001813585, -0.001252001, 0.03719873, -0.9999976, 0.00118102, 44.87799
 46406430, 0.00546359, 0.005528719, -0.02797439, 0.07486238, 0.001897891, 0.002118277, -0.0521994, 0.03719873, -0.9999977, 0.001112873, 44.78527
 46606350, 0.007021355, 0.007164689, -0.7058432, 0.07486238, 0.002286098, 0.002393316, -0.2168873, 0.03719873, -0.9999979, 0.001046003, 44.78527
 46806270, 0.006562223, 0.006123137, -1.139054, 0.07486238, 0.002043552, 0.001539112, -0.9090894, 0.03719873, -0.9999996, 0.0009061535, 44.78527
 47006190, 0.002969778, 0.001073354, -2.407981, 0.07486238, -0.0004913692, -0.001101704, -0.6431909, 0.03719873, -0.9999992, 0.0006964181, 44.78527
 47206110, -0.002497904, -0.004550059, -1.47, 0.07486238, -0.001188241, -0.002488238, -0.3748932, 0.03719873, -0.9999986, 0.0004886054, 44.78527
 47406030, -0.002683551, -0.006242128, -1.050677, 0.07486238, -0.0007755178, -0.001869885, -0.3699198, 0.03719873, -0.9999985, 0.0002719082, 44.78527
 47605950, -0.001432788, -0.005468871, -1.023403, 0.07486238, -0.0001761691, -0.002006604, -0.3370111, 0.03719873, -0.9999985, 5.250377E-05, 44.78527
 47805870, -0.0001987363, -0.005022366, -0.8924029, 0.07486238, 0.0001217958, -0.00124346, -0.2780948, 0.03719873, -0.9999989, 0.0001014841, 44.78527
 48005790, 0.0008561024, -0.002568436, -0.7362846, 0.07486238, 0.0005269234, -0.0005827167, -0.2309592, 0.03719873, -0.9999992, 0.0007266182, 44.78527
 48206543, 0.001851603, 0.0006341968, -0.6151244, 0.07501738, 0.0005240035, 0.001407511, -0.1939815, 0.03735372, -0.9999987, 0.001589012, 44.87799
 48406463, 0.001335303, 0.004291534, -0.5137062, 0.07501738, 0.0004222736, 0.001446472, -0.1606321, 0.03719873, -0.9999979, 0.0020308, 44.87799
 48606383, 0.001240098, 0.004832768, -0.4235546, 0.07486238, 0.0005968356, 0.001779656, -0.1319288, 0.03719873, -0.9999986, 0.001673335, 44.78527
 48806303, 0.001150128, 0.005319509, -0.34742, 0.07486238, 0.0001775633, 0.002046406, -0.1074498, 0.03719873, -0.9999998, 0.0006148175, 44.78527
 49006223, 0.001038134, 0.005038979, -0.281853, 0.07486238, 0.0005647073, 0.00152707, -0.08687866, 0.03719873, -0.9999998, -0.000724864, 44.78527
 49206143, 0.001540369, 0.003989292, -0.2284068, 0.07486238, 0.000456187, 0.001336902, -0.06955536, 0.03719873, -0.999998, -0.001998184, 44.78527
 49406063, 0.002264048, 0.004235385, -0.1813677, 0.07486238, 0.001525097, 0.001221305, -0.05485186, 0.03719873, -0.999997, -0.002434961, 44.78527
 49605983, 0.005242184, 0.003826864, -0.1429429, 0.07486238, 0.002099699, 0.00162942, -0.04354842, 0.03719873, -0.9999977, -0.002135782, 44.78527
 49805903, 0.007038127, 0.003694558, -0.1140598, 0.07486238, 0.002675867, 0.0007922656, -0.03520527, 0.03719873, -0.9999983, -0.001791929, 44.78527
 50005823, 0.008175264, 0.002927892, -0.09230629, 0.07486238, 0.003037981, 0.001127445, -0.02857816, 0.03719873, -0.9999986, -0.001480807, 44.78527
 50206576, 0.007598151, 0.003008872, -0.07329293, 0.07501738, 0.002347237, 0.001345157, -0.02192102, 0.03735372, -0.9999985, -0.001511435, 44.87799
 50406496, 0.006204674, 0.003996916, -0.05665595, 0.07501738, 0.002164301, 0.002053015, -0.01692433, 0.03719873, -0.9999974, -0.002242125, 44.87799
 50606416, 0.005497246, 0.005289331, 0.4293487, 0.07486238, 0.001812328, 0.001580692, 0.3855283, 0.03719873, -0.9999954, -0.003062158, 44.78527
 50806336, 0.004891698, 0.005416414, 1.015118, 0.07486238, 0.001640529, 0.002375425, 0.3145733, 0.03719873, -0.9999925, -0.003850507, 44.78527
 51006256, 0.004500618, 0.006389109, 0.8345197, 0.07486238, 0.00136495, 0.001991242, 0.2625, 0.03719873, -0.9999917, -0.00407303, 44.78527
 51206176, 0.00992351, 0.01628303, 0.6207808, 0.07486238, 0.007440884, 0.01566558, 0.1797377, 0.03719873, -0.9998851, -0.003859188, 44.78527
 51406096, 0.02019149, 0.05149466, 0.5985141, 0.07486238, 0.009104012, 0.01896689, 0.26491, 0.03719873, -0.9998279, -0.0039418, 44.78527
 51606016, 0.03712637, 0.04701493, 0.87264, 0.07486238, 0.0166759, 0.01252568, 0.3769868, 0.03719873, -0.9998894, -0.004176599, 44.78527
 51805936, 0.04257953, 0.03072882, 1.154964, 0.07486238, 0.01186434, 0.007885984, 0.4300567, 0.03719873, -0.9999508, -0.004615312, 44.78527
 52005856, 0.02722389, 0.0149929, 1.197407, 0.07486238, 0.006252597, 0.001565478, 0.4037638, 0.03719873, -0.9999862, -0.00509182, 44.78527
 52205776, 0.01405859, 0.0005881634, 1.094666, 0.07486238, 0.0036867, -0.001650276, 0.3545114, 0.03719873, -0.9999802, -0.00547778, 44.78527
 52406529, 0.01119389, -0.007430305, 0.9475285, 0.07501738, 0.004715365, -0.003140778, 0.29861, 0.03735372, -0.9999766, -0.005718113, 44.87799
 52606449, 0.01551444, -0.006527852, 0.7744738, 0.07501738, 0.00716754, -0.001907927, 0.2237186, 0.03719873, -0.9999776, -0.005946863, 44.87799
 52806369, 0.0259991, -0.01082164, 0.5189252, 0.07486238, 0.01034166, -0.008118105, 0.1277682, 0.03719873, -0.9999262, -0.006146944, 44.78527
 53006289, 0.02202358, -0.03424014, 0.3205639, 0.07486238, 0.002629213, -0.0161384, 0.09235221, 0.03719873, -0.9998279, -0.006244203, 44.78527
 53206209, -0.003179607, -0.04413713, 0.2421915, 0.07486238, -0.006660913, -0.01395703, 0.07632259, 0.03719873, -0.9998569, -0.006313149, 44.78527
 53406129, -0.02408099, -0.03657288, 0.2092247, 0.07486238, -0.009537078, -0.01066456, 0.07080086, 0.03719873, -0.999901, -0.006495839, 44.78527
 53606049, -0.02314004, -0.02281654, 0.2025756, 0.07486238, -0.007765768, -0.003357037, 0.07310828, 0.03719873, -0.9999613, -0.006848335, 44.78527
 53805969, -0.02930793, 0.00234589, 0.2126678, 0.07486238, -0.01380411, 0.007893263, 0.07756662, 0.03719873, -0.9999577, -0.007299732, 44.78527
 54005889, -0.04068823, 0.0346312, 0.228299, 0.07486238, -0.01311002, 0.01765498, 0.08372989, 0.03719873, -0.9998614, -0.007711813, 44.78527
 54205809, -0.02789769, 0.0529168, 0.2457482, 0.07486238, -0.003593221, 0.02121662, 0.09015515, 0.03719873, -0.9997666, -0.007720111, 44.78527
 54406562, 0.003198818, 0.06844705, 0.2627615, 0.07501738, 0.00509674, 0.02643394, 0.09557211, 0.03735372, -0.9996547, -0.007618369, 44.87799
 54606482, 0.004838533, 0.06856497, 0.274711, 0.07501738, -0.001723104, 0.01915387, 0.09907216, 0.03719873, -0.9997998, -0.00769694, 44.87799
 54806402, -0.001728406, 0.043868, 0.2710868, 0.07486238, 0.0002329078, 0.0100036, 0.07908877, 0.03719873, -0.9999269, -0.008034072, 44.78527
 55006322, 0.0007643357, 0.01910811, 0.1685352, 0.07486238, 0.002353719, 0.002506367, 0.03127162, 0.03719873, -0.9999592, -0.008618077, 44.78527
 55206242, 0.01797573, 0.002017376, 0.05365951, 0.07486238, 0.01117408, -0.003408074, 0.001646366, 0.03719873, -0.9999486, -0.009480667, 44.78527
 55406162, 0.03550496, -0.02135398, -0.01348104, 0.07486238, 0.01521266, -0.01249402, -0.01333405, 0.03719873, -0.9998777, -0.01058668, 44.78527
 55606082, 0.04855174, -0.03805325, -0.04569671, 0.07486238, 0.01696683, -0.0154081, -0.01984053, 0.03719873, -0.9998207, -0.01175079, 44.78527
 55806002, 0.03607302, -0.04903515, -0.05734544, 0.07486238, 0.008932623, -0.01804199, -0.01995058, 0.03719873, -0.999774, -0.01268488, 44.78527
 56005922, 0.03396954, -0.04372807, -0.05541207, 0.07486238, 0.01701923, -0.01036227, -0.01868149, 0.03719873, -0.9998602, -0.01339808, 44.78527
 56205842, 0.05287268, -0.01761315, -0.04887734, 0.07486238, 0.01907706, 0.00078425, -0.01490189, 0.03719873, -0.9999017, -0.01401705, 44.78527
 56405762, 0.04571498, 0.01826283, -0.03862714, 0.07486238, 0.008536072, 0.01563299, -0.01119503, 0.03719873, -0.9997957, -0.01450655, 44.78527
 56606515, 0.005429709, 0.05808473, -0.02853099, 0.07501738, -0.005842196, 0.02624024, -0.007694022, 0.03735372, -0.99962, -0.0149884, 44.87799
 56806435, -0.01808498, 0.07398041, -0.02033092, 0.07501738, -0.008930782, 0.0249669, -0.005929958, 0.03719873, -0.9996237, -0.0149514, 44.87799
 57006355, -0.0361964, 0.06551788, -0.01478397, 0.07486238, -0.01574691, 0.01786996, -0.004456208, 0.03719873, -0.9997736, -0.01436743, 44.78527
 57206275, -0.03521457, 0.03284642, -0.01069263, 0.07486238, -0.006970643, 0.002341466, -0.002746257, 0.03719873, -0.9999087, -0.01327997, 44.78527
 57406195, -0.01462459, -0.003209261, -0.007708917, 0.07486238, -0.002573633, -0.0049416, -0.002456593, 0.03719873, -0.9999182, -0.01228594, 44.78527
 57606115, -0.002353322, -0.0157931, -0.006782233, 0.07486238, 0.002117794, -0.005697143, -0.002477116, 0.03719873, -0.9999253, -0.01170308, 44.78527
 57806035, 0.01248187, -0.01252966, -0.006862403, 0.07486238, 0.008399505, -0.002946208, -0.002179034, 0.03719873, -0.9999307, -0.01161809, 44.78527
 58005955, 0.02803155, -0.01019395, -0.00597606, 0.07486238, 0.01030327, -0.004595839, -0.002061502, 0.03719873, -0.9999226, -0.01198737, 44.78527
 58205875, 0.02103534, -0.01361776, -0.006204872, 0.07486238, 0.001857184, -0.0046418, -0.001968515, 0.03719873, -0.9999154, -0.01253795, 44.78527
 58405795, -0.003580106, -0.01176388, -0.006289529, 0.07486238, -0.004360515, -0.003846937, -0.002309351, 0.03719873, -0.9999052, -0.01329668, 44.78527
 58606548, -0.01128173, -0.0139639, -0.006032056, 0.07501738, -0.003349904, -0.006007814, -0.002291699, 0.03735372, -0.9998879, -0.01412327, 44.87799
 58806468, -0.008995492, -0.01413691, -0.005001869, 0.07501738, -0.003552153, -0.002909075, -0.001664963, 0.03719873, -0.9998873, -0.01480372, 44.87799
 59006388, -0.01175164, -0.00638463, -0.003308404, 0.07486238, -0.004446038, -0.002457468, -0.001017199, 0.03719873, -0.9998816, -0.01502463, 44.78527
 59206308, -0.009793204, -0.01328597, -0.00391097, 0.07486238, -0.001682491, -0.006976564, -0.001405511, 0.03719873, -0.9998623, -0.01508726, 44.78527
 59406228, -0.00316473, -0.01839578, -0.004339579, 0.07486238, 0.0001180312, -0.004596513, -0.001978521, 0.03719873, -0.9998747, -0.01514665, 44.78527
 59606148, 0.003379329, -0.007327211, -0.005680753, 0.07486238, 0.002899223, 0.0004583263, -0.002060838, 0.03719873, -0.9998822, -0.01534955, 44.78527
 59806068, 0.0107697, 0.006140656, -0.006493292, 0.07486238, 0.004241357, 0.004598141, -0.002730654, 0.03719873, -0.9998696, -0.01559965, 44.78527
 60005988, 0.009546537, 0.01921146, -0.007083805, 0.07486238, 0.002386116, 0.01099366, -0.002610016, 0.03719873, -0.99982, -0.01594568, 44.78527
 60205908, 0.006882563, 0.03704195, -0.006715933, 0.07486238, 0.0028801, 0.01367521, -0.001896586, 0.03719873, -0.9997947, -0.01643873, 44.78527
 60405828, 0.006538433, 0.03147002, -0.005825535, 0.07486238, -0.002732875, 0.00886165, -0.001615181, 0.03719873, -0.9998182, -0.01664835, 44.78527
 60606581, -0.02519189, 0.03115661, -0.005300454, 0.07501738, -0.01594456, 0.01257353, -0.001658234, 0.03735372, -0.9997866, -0.01676033, 44.87799
 60806501, -0.04342313, 0.03093751, -0.005009288, 0.07501738, -0.01141414, 0.005914019, -0.001672441, 0.03719873, -0.9998488, -0.01663874, 44.87799
 61006421, -0.01970135, 0.003281025, -0.004637684, 0.07486238, -0.002370666, -0.004316209, -0.001027691, 0.03719873, -0.9998596, -0.01650603, 44.78527
 61206341, -0.003830173, -0.01202942, -0.003742888, 0.07486238, 0.0006868749, -0.004306364, -0.001800682, 0.03719873, -0.9998548, -0.01674471, 44.78527
 61406261, 0.007884198, -0.01068581, -0.004294781, 0.07486238, 0.006021609, -0.0005379327, -0.001841198, 0.03719873, -0.9998495, -0.01724857, 44.78527
 61606181, 0.01944145, 0.01111675, -0.003861394, 0.07486238, 0.006889195, 0.008091588, -0.0005894543, 0.03719873, -0.9998028, -0.01806276, 44.78527
 61806101, 0.01463961, 0.01796675, -0.002783077, 0.07486238, 0.003124085, 0.003993417, -0.0008828875, 0.03719873, -0.999815, -0.01876356, 44.78527
 62006021, 0.006438019, 0.006557272, -0.002988945, 0.07486238, -4.861902E-06, -0.000480226, -0.0008117515, 0.03719873, -0.999812, -0.0193885, 44.78527
 62205941, -0.007984136, -0.007519269, -0.002213449, 0.07486238, -0.004952315, -0.003992464, -4.338317E-05, 0.03719873, -0.9997994, -0.01984543, 44.78527
 62405861, -0.007889022, -0.008285685, -0.0020791, 0.07486238, -0.0003007064, -0.0009193973, -0.001237322, 0.03719873, -0.9997953, -0.02021149, 44.78527
 62605781, -0.0002588336, 0.001740154, -0.00285094, 0.07486238, -0.0002377063, 0.001770895, -0.0004143976, 0.03719873, -0.9997916, -0.02028674, 44.78527
 62806534, -0.001389316, 0.001362022, -0.00197823, 0.07501738, -0.0007407161, -0.002041443, -0.001744095, 0.03735372, -0.9997966, -0.02003508, 44.87799
 63006454, 0.0002421738, -0.01368068, -0.00321951, 0.07501738, 0.003255283, -0.007243392, -0.001134623, 0.03719873, -0.9997859, -0.01985524, 44.87799
 63206374, 0.01690289, -0.01925516, -0.002585342, 0.07486238, 0.007361999, -0.007277622, -0.0003259642, 0.03719873, -0.9997737, -0.02014394, 44.78527
 63406294, 0.01290538, -0.02683083, -0.002555632, 0.07486238, -0.0004364776, -0.01281312, -0.001438421, 0.03719873, -0.9997097, -0.02051839, 44.78527
 63606214, -0.006375184, -0.03859143, -0.002821746, 0.07486238, -0.004293775, -0.01222794, -0.0004096407, 0.03719873, -0.9997196, -0.02070383, 44.78527
 63806134, -0.01207278, -0.02525283, -0.0025435, 0.07486238, -0.00339293, -0.004357261, -0.001352663, 0.03719873, -0.9997683, -0.0209035, 44.78527
 64006054, -0.004234602, -0.009111003, -0.00307023, 0.07486238, 0.002304193, -0.0009775605, -0.001324402, 0.03719873, -0.9997832, -0.02074665, 44.78527
 64205974, 0.01338328, 0.001829286, -0.003420748, 0.07486238, 0.007577981, 0.001199651, -0.0009994811, 0.03719873, -0.9997901, -0.02046818, 44.78527
 64405894, 0.02150614, -0.00250613, -0.002916871, 0.07486238, 0.004776763, -0.003194039, -3.043864E-05, 0.03719873, -0.9997901, -0.01997185, 44.78527
 64605814, 0.002423647, -0.006815316, -0.001360707, 0.07486238, -0.003424789, -0.0006038728, -0.0009855557, 0.03719873, -0.999808, -0.01948829, 44.78527
 64806567, -0.005980747, 0.002638969, -0.002750005, 0.07501738, -2.936594E-05, 0.002284442, -0.001143256, 0.03735372, -0.9998181, -0.01907109, 44.87799
 65006487, 0.005156466, 0.006671302, -0.002167865, 0.07501738, 0.005455435, 0.002756917, -0.0009508536, 0.03719873, -0.9998331, -0.01826068, 44.87799
 65206407, 0.0249629, 0.00879785, -0.002074491, 0.07486238, 0.01487413, 0.002983286, -0.0009466257, 0.03719873, -0.9998469, -0.01748739, 44.78527
 65406327, 0.05053172, 0.006529904, -0.002803915, 0.07486238, 0.02068484, 0.002264345, -0.001397254, 0.03719873, -0.9998557, -0.01698641, 44.78527
 65606247, 0.0541317, 0.008191734, -0.00296905, 0.07486238, 0.01556515, 0.003127035, -0.0006172666, 0.03719873, -0.9998586, -0.01679609, 44.78527
 65806167, 0.03644532, 0.007513013, -0.002009419, 0.07486238, 0.009925947, 0.002687501, -0.0007046932, 0.03719873, -0.999859, -0.01677049, 44.78527
 66006087, 0.02564427, 0.0112181, -0.002313429, 0.07486238, 0.006734047, 0.006652316, -0.00101747, 0.03719873, -0.9998528, -0.01654704, 44.78527
 66206007, 0.008299794, 0.02312259, -0.002562222, 0.07486238, -0.004513367, 0.009755634, -0.001423639, 0.03719873, -0.9998442, -0.01612312, 44.78527
 66405927, -0.02690019, 0.02742823, -0.00275756, 0.07486238, -0.01568382, 0.009304699, -0.0006846989, 0.03719873, -0.9998555, -0.01555416, 44.78527
 66605847, -0.04587429, 0.0232751, -0.002548187, 0.07486238, -0.01491818, 0.004198893, -0.001389767, 0.03719873, -0.9998873, -0.01496734, 44.78527
 66805767, -0.0363962, 0.001927821, -0.003240763, 0.07486238, -0.01149867, -0.001899426, -0.0008923452, 0.03719873, -0.9998959, -0.0141331, 44.78527
 67006520, -0.03824795, 0.001704372, -0.002508359, 0.07501738, -0.01358423, 0.003668973, -0.0006042978, 0.03735372, -0.9999064, -0.01346723, 44.87799
 67206440, -0.02806828, 0.01324476, -0.002458998, 0.07501738, -0.005155839, 0.006152345, -0.001057171, 0.03719873, -0.9999071, -0.01292127, 44.87799
 67406360, -0.01122594, 0.01891981, -0.00236788, 0.07486238, -0.00187778, 0.006360901, -0.001512244, 0.03719873, -0.9999067, -0.01285865, 44.78527
 67606280, 0.0007514833, 0.01496832, -0.002952293, 0.07486238, 0.002835033, 0.003663452, -0.0005524904, 0.03719873, -0.999911, -0.01314668, 44.78527
 67806200, 0.008115325, 0.009362151, -0.00177044, 0.07486238, 0.002263179, 0.002378689, -0.0007215867, 0.03719873, -0.9999056, -0.01367342, 44.78527
 68006120, 0.003755512, 0.005727099, -0.001938727, 0.07486238, -0.0002103834, 0.001187836, -0.0004368071, 0.03719873, -0.9998989, -0.01422434, 44.78527
 68206040, -0.002571992, 0.002402785, -0.001940804, 0.07486238, -0.0005589892, 0.0003072958, -0.000406925, 0.03719873, -0.9998915, -0.01470249, 44.78527
 68405960, -0.0002201844, -0.0008870063, -0.001777494, 0.07486238, -0.0008229702, -0.001833476, -0.0007452975, 0.03719873, -0.9998783, -0.01523315, 44.78527
 68605880, -0.008693964, -0.009368091, -0.002379976, 0.07486238, -0.003188763, -0.004850788, -0.0009385429, 0.03719873, -0.9998581, -0.01591917, 44.78527
 68805800, 0.004840815, -0.01083026, -0.002263296, 0.07486238, 0.009107744, -0.002184959, -0.0002401178, 0.03719873, -0.999859, -0.01652395, 44.78527
 69006553, 0.02977272, -0.001513271, -0.001555403, 0.07501738, 0.009688133, 0.003187698, -0.0004653038, 0.03735372, -0.9998531, -0.01696282, 44.87799
 69206473, 0.01548283, 0.01884447, -0.002015471, 0.07501738, 0.0006689242, 0.01025941, -0.0008248284, 0.03719873, -0.9998152, -0.01747898, 44.87799
 69406393, 0.001957228, 0.02734233, -0.002344883, 0.07486238, 0.001063173, 0.008582829, -0.0007207275, 0.03719873, -0.9998198, -0.01776207, 44.78527
 69606313, 0.003054322, 0.023174, -0.002436683, 0.07486238, 0.00159326, 0.007241148, -0.0008647832, 0.03719873, -0.9998264, -0.01772434, 44.78527
 69806233, 0.008181001, 0.01966718, -0.002431756, 0.07486238, 0.005974546, 0.00805258, -0.0008259173, 0.03719873, -0.9998161, -0.01760844, 44.78527
 70006153, 0.02429541, 0.0294292, -0.002575692, 0.07486238, 0.01083579, 0.01263537, -0.0009870157, 0.03719873, -0.9997756, -0.01770022, 44.78527
 70206073, 0.02745952, 0.03447312, -0.002747918, 0.07486238, 0.006875383, 0.01167182, -0.0016978, 0.03719873, -0.9997752, -0.01788538, 44.78527
 70405993, 0.01338431, 0.03370122, -0.003168483, 0.07486238, 0.003227504, 0.01092761, -0.0009004959, 0.03719873, -0.9997805, -0.01822604, 44.78527
 70605913, 0.01457551, 0.0226714, -0.002855162, 0.07486238, 0.00745123, 0.002175005, -0.0006113264, 0.03719873, -0.9998258, -0.01859899, 44.78527
 70805833, 0.02370873, -0.006422165, -0.002608775, 0.07486238, 0.01091917, -0.006472395, -0.000850989, 0.03719873, -0.9998111, -0.01890737, 44.78527
 71006586, 0.03974159, -0.01243308, -0.003135174, 0.07501738, 0.01769959, -0.0002300965, -0.001300045, 0.03735372, -0.9998142, -0.01920095, 44.87799
 71206506, 0.04891745, 0.004165247, -0.003295032, 0.07501738, 0.01676522, 0.0004823318, -0.001699493, 0.03719873, -0.9998056, -0.01971766, 44.87799
 71406426, 0.04631829, -0.0113388, -0.003133072, 0.07486238, 0.01345245, -0.00801942, -0.0006232617, 0.03719873, -0.9997839, -0.02004, 44.78527
 71606346, 0.02505505, -0.01191918, -0.00225107, 0.07486238, 0.001016771, 0.001660847, -0.001651527, 0.03719873, -0.9997923, -0.02023872, 44.78527
 71806266, -0.008952213, 0.009245938, -0.003207996, 0.07486238, -0.00914668, 0.00462993, -0.0008657175, 0.03719873, -0.9997811, -0.02039886, 44.78527
 72006186, -0.03248699, 0.01337531, -0.002462655, 0.07486238, -0.01426565, 0.00625923, -0.0006663089, 0.03719873, -0.9997624, -0.020613, 44.78527
 72206106, -0.03992706, 0.02460929, -0.002476417, 0.07486238, -0.01241921, 0.01085451, -0.0007236279, 0.03719873, -0.9997218, -0.02091058, 44.78527
 72406026, -0.02820228, 0.02976455, -0.002786821, 0.07486238, -0.007525694, 0.011683, -0.000684612, 0.03719873, -0.9996946, -0.02108053, 44.78527
 72605946, -0.02204739, 0.03926428, -0.002518722, 0.07486238, -0.006729827, 0.0145104, -0.00063891, 0.03719873, -0.9996693, -0.02119039, 44.78527
 72805866, -0.009450864, 0.02962481, -0.002858323, 0.07486238, 0.002328161, 0.00420385, -0.0006461347, 0.03719873, -0.9997641, -0.02093559, 44.78527
 73005786, 0.01308071, 0.00359914, -0.002548606, 0.07486238, 0.006494978, -0.003952643, -0.001371572, 0.03719873, -0.9997824, -0.0207156, 44.78527
 73206539, 0.01468409, -0.01978351, -0.002969914, 0.07501738, 0.004579097, -0.007305757, -0.001292003, 0.03735372, -0.9997805, -0.02073595, 44.87799
 73406459, 0.01593743, -0.006347282, -0.003108336, 0.07501738, 0.006252993, 0.004045665, -0.0008863336, 0.03719873, -0.9997644, -0.02089768, 44.87799
 73606379, 0.01251438, 0.008988546, -0.002979659, 0.07486238, 0.001820794, 0.001225617, -0.0009459525, 0.03719873, -0.9997736, -0.0210441, 44.78527
 73806299, 0.002347379, -0.0003141855, -0.00285842, 0.07486238, -0.0003871279, -0.001205963, -0.001219377, 0.03719873, -0.9997745, -0.02122944, 44.78527
 74006219, -0.003718872, -0.006513837, -0.003518008, 0.07486238, -0.002992302, -0.005199889, -0.001371013, 0.03719873, -0.9997701, -0.02119745, 44.78527
 74206139, -0.009190325, -0.02201941, -0.003412278, 0.07486238, -0.002405862, -0.01088068, -0.002064486, 0.03719873, -0.9997458, -0.0208034, 44.78527
 74406059, -0.003933421, -0.03195876, -0.004094963, 0.07486238, -0.002284409, -0.01125373, -0.0004581538, 0.03719873, -0.9997534, -0.02043515, 44.78527
 74605979, -0.01641794, -0.02821867, -0.002848983, 0.07486238, -0.01151751, -0.008266531, -0.001815376, 0.03719873, -0.9997747, -0.020207, 44.78527
 74805899, -0.04179381, -0.01919303, -0.003965275, 0.07486238, -0.0190874, -0.004493022, -0.001169595, 0.03719873, -0.9997886, -0.02025507, 44.78527
 75005819, -0.05788872, -0.00818252, -0.003607097, 0.07486238, -0.02221083, -0.0001761756, -0.001178173, 0.03719873, -0.9997883, -0.02057502, 44.78527
 75206572, -0.06441947, 0.002813064, -0.003160495, 0.07501738, -0.02336613, 0.001629133, -0.001671848, 0.03735372, -0.9997815, -0.02086611, 44.87799
 75406492, -0.06714405, 0.001419953, -0.004055664, 0.07501738, -0.02456542, -0.002570386, -0.002015339, 0.03719873, -0.99977, -0.02120588, 44.87799
 75606412, -0.07049228, -0.01329572, -0.004352751, 0.07486238, -0.02542106, -0.006612265, -0.001241945, 0.03719873, -0.9997405, -0.02177926, 44.78527
 75806332, -0.07333447, -0.01804277, -0.00374513, 0.07486238, -0.02687578, -0.007962001, -0.001693207, 0.03719873, -0.9996932, -0.02292969, 44.78527
 76006252, -0.07710809, -0.03121671, -0.004404305, 0.07486238, -0.0275127, -0.01504166, -0.001260638, 0.03719873, -0.9995592, -0.0246915, 44.78527
 76206172, -0.08001347, -0.04594208, -0.003555276, 0.07486238, -0.02918352, -0.01738139, -0.000783043, 0.03719873, -0.9994373, -0.02757047, 44.78527
 76406092, -0.08420943, -0.04388824, -0.002844829, 0.07486238, -0.03016568, -0.007375223, -0.001132586, 0.03719873, -0.9994619, -0.03171949, 44.78527
 76606012, -0.08623371, 0.00333258, -0.002681416, 0.07486238, -0.03091517, 0.009267339, -0.0006611658, 0.03719873, -0.9993449, -0.03602687, 44.78527
 76805932, -0.08976227, 0.01534225, -0.002451408, 0.07486238, -0.03307539, -0.001680599, -0.001099909, 0.03719873, -0.999223, -0.03873727, 44.78527
 77005852, -0.09485986, -0.01415153, -0.002850489, 0.07486238, -0.03416732, -0.008648797, -0.001088149, 0.03719873, -0.9990501, -0.04146079, 44.78527
 77205772, -0.09731381, -0.023388, -0.003059515, 0.07486238, -0.03493239, -0.006993235, -0.001423369, 0.03719873, -0.9989334, -0.04434511, 44.78527
 77406525, -0.09980902, -0.01799291, -0.0038301, 0.07501738, -0.03587222, -0.004356968, -0.0007118747, 0.03735372, -0.9988337, -0.04711955, 44.87799
 77606445, -0.1021828, -0.005922425, -0.002953853, 0.07501738, -0.03649957, 0.001683321, -0.001379252, 0.03719873, -0.9987518, -0.04968083, 44.87799
 77806365, -0.1042871, 0.01078144, -0.004187561, 0.07486238, -0.03733834, 0.006725181, -0.001280622, 0.03719873, -0.9986667, -0.05158893, 44.78527
 78006285, -0.106953, 0.02208931, -0.003940829, 0.07486238, -0.03835995, 0.01153308, -0.0009509596, 0.03719873, -0.9985502, -0.0536585, 44.78527
 78206205, -0.1085581, 0.04528953, -0.003665278, 0.07486238, -0.03861133, 0.02070513, -0.001409585, 0.03719873, -0.9983886, -0.05564873, 44.78527
 78406125, -0.1107316, 0.05531131, -0.003761434, 0.07486238, -0.03974714, 0.01736487, -0.001164834, 0.03719873, -0.9983778, -0.05638022, 44.78527
 78606045, -0.1135615, 0.04291482, -0.003836149, 0.07486238, -0.04092108, 0.01090621, -0.002406028, 0.03719873, -0.9984117, -0.05630877, 44.78527
 78805965, -0.1167559, 0.02358785, -0.005134653, 0.07486238, -0.0416951, 0.006840642, -0.001304257, 0.03719873, -0.9984272, -0.0560615, 44.78527
 79005885, -0.1185456, 0.02607974, -0.004353106, 0.07486238, -0.04197561, 0.01331864, -0.001699764, 0.03719873, -0.9984192, -0.05593284, 44.78527
 79205805, -0.1201783, 0.03960733, -0.004788586, 0.07486238, -0.04330626, 0.01236785, -0.001783435, 0.03719873, -0.9985251, -0.05416853, 44.78527
 79406558, -0.1240532, 0.0235654, -0.004847758, 0.07501738, -0.04479631, 0.002503387, -0.001588666, 0.03735372, -0.9986653, -0.05140117, 44.87799
 79606478, -0.1271947, 0.001116059, -0.005030832, 0.07501738, -0.04522365, -0.00177786, -0.002699262, 0.03719873, -0.9987398, -0.0494553, 44.87799
 79806398, -0.1292232, -0.003993248, -0.006052511, 0.07486238, -0.0462122, 0.000179273, -0.002087447, 0.03719873, -0.9988063, -0.04850297, 44.78527
 80006318, -0.130915, 0.006585317, -0.005856033, 0.07486238, -0.04666681, 0.003114834, -0.002042626, 0.03719873, -0.9988876, -0.04693719, 44.78527
 80206238, -0.1332017, 0.004811164, -0.005877322, 0.07486238, -0.04737058, 0.001547611, -0.001867224, 0.03719873, -0.998983, -0.04481219, 44.78527
 80406158, -0.1343955, 0.01085604, -0.00629257, 0.07486238, -0.04766062, 0.006372066, -0.002180987, 0.03719873, -0.9990581, -0.04338206, 44.78527
 80606078, -0.1360993, 0.01908278, -0.007012594, 0.07486238, -0.04844777, 0.007659492, -0.0021793, 0.03719873, -0.9991273, -0.04175949, 44.78527
 80805998, -0.1378458, 0.02621925, -0.007633789, 0.07486238, -0.04900975, 0.01142019, -0.002718006, 0.03719873, -0.9991666, -0.04059173, 44.78527
 81005918, -0.1399401, 0.03325667, -0.008156636, 0.07486238, -0.05026695, 0.01081975, -0.003322271, 0.03719873, -0.9992377, -0.0389155, 44.78527
 81205838, -0.1425109, 0.024949, -0.009575639, 0.07486238, -0.05040123, 0.006991311, -0.003127398, 0.03719873, -0.9993019, -0.03734801, 44.78527
 81406591, -0.1418767, 0.02259438, -0.009659335, 0.07501738, -0.04878216, 0.009652011, -0.00337356, 0.03735372, -0.9993145, -0.03682864, 44.87799
 81606511, -0.1387007, 0.03225012, -0.01032079, 0.07501738, -0.04896953, 0.01476176, -0.004310601, 0.03719873, -0.9992992, -0.036342, 44.87799
 81806431, -0.1416638, 0.04777205, -0.0118061, 0.07486238, -0.05058337, 0.01758026, -0.004384092, 0.03719873, -0.9993451, -0.03453641, 44.78527
 82006351, -0.1460466, 0.03996829, -0.01199829, 0.07486238, -0.05221115, 0.008516015, -0.004088661, 0.03719873, -0.9995214, -0.03076987, 44.78527
 82206271, -0.1495393, 0.01604261, -0.01223779, 0.07486238, -0.05280943, 0.002155322, -0.00430588, 0.03719873, -0.9996045, -0.02807355, 44.78527
 82406191, -0.1518043, 0.006214961, -0.01317448, 0.07486238, -0.05345884, 0.003590428, -0.004864631, 0.03719873, -0.9996264, -0.02731365, 44.78527
 82606111, -0.1529922, 0.01949552, -0.01430899, 0.07486238, -0.05392087, 0.01127731, -0.005007579, 0.03719873, -0.9996067, -0.02698901, 44.78527
 82806031, -0.1541851, 0.03665922, -0.01509139, 0.07486238, -0.05428215, 0.01566523, -0.005261772, 0.03719873, -0.9995906, -0.02561869, 44.78527
 83005951, -0.1552325, 0.05027523, -0.01594392, 0.07486238, -0.05487535, 0.01857482, -0.006086242, 0.03719873, -0.9996238, -0.02306129, 44.78527
 83205871, -0.1580271, 0.04467831, -0.01736174, 0.07486238, -0.05580557, 0.01197404, -0.005664004, 0.03719873, -0.9997576, -0.01926592, 44.78527
 83405791, -0.1595093, 0.03328562, -0.01782285, 0.07486238, -0.05618334, 0.01094201, -0.00663102, 0.03719873, -0.9997986, -0.0172626, 44.78527
 83606544, -0.1610135, 0.02897715, -0.01953482, 0.07501738, -0.05680882, 0.009991047, -0.00707154, 0.03735372, -0.999825, -0.01554103, 44.87799
 83806464, -0.1619467, 0.03114565, -0.0207466, 0.07501738, -0.05722922, 0.01172869, -0.007079748, 0.03719873, -0.999835, -0.01353719, 44.87799
 84006384, -0.163446, 0.03141142, -0.021674, 0.07486238, -0.05759852, 0.01158812, -0.007314281, 0.03719873, -0.9998416, -0.01073132, 44.78527
 84206304, -0.1646752, 0.04052867, -0.02279746, 0.07486238, -0.05786067, 0.01735232, -0.008548707, 0.03719873, -0.9997662, -0.008083658, 44.78527
 84406224, -0.1658544, 0.05172511, -0.02458312, 0.07486238, -0.05872888, 0.02018121, -0.008490338, 0.03719873, -0.9996818, -0.004456103, 44.78527
 84606144, -0.1682892, 0.06518182, -0.02583449, 0.07486238, -0.05915569, 0.02677456, -0.009427, 0.03719873, -0.9994808, -0.001652735, 44.78527
 84806064, -0.1698522, 0.07789576, -0.02812277, 0.07486238, -0.06003239, 0.02590288, -0.01008519, 0.03719873, -0.9994562, 0.003861542, 44.78527
 85005984, -0.1720974, 0.06247373, -0.02974567, 0.07486238, -0.06097652, 0.01633256, -0.01067672, 0.03719873, -0.9995775, 0.01110931, 44.78527
 85205904, -0.1749484, 0.03818871, -0.03148046, 0.07486238, -0.06232673, 0.008756935, -0.01105, 0.03719873, -0.9995955, 0.01708411, 44.78527
 85405824, -0.1773971, 0.01476908, -0.03328104, 0.07486238, -0.06183791, -0.0002267202, -0.01202131, 0.03719873, -0.9995454, 0.02465395, 44.78527
 85606577, -0.1770152, -0.0102869, -0.03543749, 0.07501738, -0.06158115, -0.01042908, -0.01207222, 0.03735372, -0.9993315, 0.03493933, 44.87799
 85806497, -0.1755754, -0.04507637, -0.03674419, 0.07501738, -0.06125244, -0.02288518, -0.01338485, 0.03719873, -0.9988891, 0.04697035, 44.87799
 86006417, -0.1750002, -0.07055949, -0.0392938, 0.07486238, -0.06098159, -0.02804773, -0.01396447, 0.03719873, -0.9983487, 0.05741391, 44.78527
 86206337, -0.173814, -0.08524911, -0.04086859, 0.07486238, -0.06088227, -0.03047937, -0.01421642, 0.03719873, -0.9978168, 0.06594563, 44.78527
 86406257, -0.1740698, -0.07418243, -0.04280065, 0.07486238, -0.05977825, -0.01731244, -0.01606754, 0.03719873, -0.9975668, 0.06777788, 44.78527
 86606177, -0.1585023, -0.02943225, -0.04874198, 0.07486238, -0.04748864, -0.002169517, -0.01894317, 0.03719873, -0.9971774, 0.06976115, 44.78527
 86806097, -0.1158191, -0.004649254, -0.05576171, 0.07486238, -0.02973945, -0.001183536, -0.02116376, 0.03719873, -0.9968264, 0.0740587, 44.78527
 87006017, -0.06447182, -0.002276846, -0.06009193, 0.07486238, -0.01145334, -0.0006568956, -0.02069757, 0.03719873, -0.9969081, 0.07331315, 44.78527
 87205937, -0.01648982, -0.001519935, -0.06120818, 0.07486238, 0.003496625, 0.001515345, -0.02249308, 0.03719873, -0.9974379, 0.0659378, 44.78527
 87405857, 0.0239643, 0.01124226, -0.06368248, 0.07486238, 0.01579293, 0.00502267, -0.02299736, 0.03719873, -0.9980685, 0.05686342, 44.78527
 87605777, 0.05735181, 0.002331441, -0.06555846, 0.07486238, 0.02705824, -0.005114789, -0.02293078, 0.03719873, -0.9985651, 0.05157524, 44.78527
 87806530, 0.08743083, -0.01874062, -0.06591431, 0.07501738, 0.03667464, -0.007676608, -0.02248987, 0.03735372, -0.9989954, 0.04383282, 44.87799
 88006450, 0.1125823, -0.01916063, -0.06389146, 0.07501738, 0.04434399, -0.004422246, -0.02208564, 0.03719873, -0.9992872, 0.03655779, 44.87799
 88206370, 0.1333141, -0.005901685, -0.06138413, 0.07486238, 0.05080876, 0.0008110547, -0.02082492, 0.03719873, -0.9993961, 0.03269704, 44.78527
 88406290, 0.1521226, 0.003641754, -0.05721153, 0.07486238, 0.05782872, 0.001744686, -0.01833908, 0.03719873, -0.9993576, 0.03387674, 44.78527
 88606210, 0.1704675, 0.002546004, -0.05068193, 0.07486238, 0.06386757, -0.001104631, -0.01644506, 0.03719873, -0.9992672, 0.03703423, 44.78527
 88806130, 0.1882447, -0.006974597, -0.04437831, 0.07486238, 0.0702468, -0.004420961, -0.01361754, 0.03719873, -0.9992064, 0.03925088, 44.78527
 89006050, 0.2061252, -0.01328638, -0.03664352, 0.07486238, 0.07661609, -0.00466734, -0.01092465, 0.03719873, -0.9992381, 0.03863282, 44.78527
