TimeUS,COFN,COFE,CNe,CEe,POFN,POFE,PNe,PEe
 8425795, 0.001468834, 0.01468042, 0.01976104, -0.03124137, 0, 0, 0, 0
 8606556, -0.001022073, 0.002944859, 0.01981312, -0.03116922, 0.001468834, 0.01468042, 0.01976104, -0.03124137
 8806476, 0.0004596444, 0.00526663, 0.02013501, -0.03096571, -0.001022073, 0.002944859, 0.01981312, -0.03116922
 9006396, 0.0006394697, 0.005311148, 0.02068199, -0.03060322, 0.0004596444, 0.00526663, 0.02013501, -0.03096571
 9206316, -0.0007397359, 0.002987267, 0.02130869, -0.03016648, 0.0006394697, 0.005311148, 0.02068199, -0.03060322
 9406236, -0.004326323, 0.0008389795, 0.02192088, -0.02972656, -0.0007397359, 0.002987267, 0.02130869, -0.03016648
 9606156, -0.002543308, 0.000213005, 0.02247328, -0.02930859, -0.004326323, 0.0008389795, 0.02192088, -0.02972656
 9806076, -0.002156785, 0.001110284, 0.02297377, -0.02891782, -0.002543308, 0.000213005, 0.02247328, -0.02930859
 10005996, -0.002656176, 0.003653374, 0.02343054, -0.02855197, -0.002156785, 0.001110284, 0.02297377, -0.02891782
 10205916, -0.001890064, 0.003867594, 0.02385144, -0.02820092, -0.002656176, 0.003653374, 0.02343054, -0.02855197
 10405836, -0.002881273, 0.003341964, 0.02424171, -0.02786635, -0.001890064, 0.003867594, 0.02385144, -0.02820092
 10606589, -0.0009328577, 0.00546439, 0.02459672, -0.02755591, -0.002881273, 0.003341964, 0.02424171, -0.02786635
 10806509, -0.003490184, 0.01220049, 0.02492661, -0.02728592, -0.0009328577, 0.00546439, 0.02459672, -0.02755591
 11006429, 0.01944314, 0.001906276, 0.02531617, -0.02697295, -0.003490184, 0.01220049, 0.02492661, -0.02728592
 11206349, -0.0188413, -0.000875524, 0.02558569, -0.02671173, 0.01944314, 0.001906276, 0.02531617, -0.02697295
 11406269, -0.02145405, 0.01361336, 0.02586035, -0.0265102, -0.0188413, -0.000875524, 0.02558569, -0.02671173
 11606189, -0.004721944, -0.01591489, 0.02598705, -0.02630353, -0.02145405, 0.01361336, 0.02586035, -0.0265102
 11806109, 0.01934591, 0.001264693, 0.02627122, -0.02604233, -0.004721944, -0.01591489, 0.02598705, -0.02630353
 12006029, -0.009939783, -0.014195, 0.02639611, -0.02589862, 0.01934591, 0.001264693, 0.02627122, -0.02604233
 12205949, 0.01188045, -0.006682509, 0.02657219, -0.02569176, -0.009939783, -0.014195, 0.02639611, -0.02589862
 12405869, -0.01110299, 0.004114074, 0.02671868, -0.0255289, 0.01188045, -0.006682509, 0.02657219, -0.02569176
 12605789, 0.006079161, -0.02119434, 0.026836, -0.02548538, -0.01110299, 0.004114074, 0.02671868, -0.0255289
 12806542, 0.002612765, -0.02189537, 0.02695236, -0.02536231, 0.006079161, -0.02119434, 0.026836, -0.02548538
 13006462, 0.01505062, -0.01165028, 0.02710784, -0.02516715, 0.002612765, -0.02189537, 0.02695236, -0.02536231
 13206382, -0.009355704, -0.0216096, 0.02718205, -0.02513194, 0.01505062, -0.01165028, 0.02710784, -0.02516715
 13406302, 0.008553432, -0.006383772, 0.0272556, -0.02494866, -0.009355704, -0.0216096, 0.02718205, -0.02513194
 13606222, 0.01792241, -0.01782447, 0.02738466, -0.02493091, 0.008553432, -0.006383772, 0.0272556, -0.02494866
 13806142, -0.01127585, 0.01435237, 0.02741032, -0.02483048, 0.01792241, -0.01782447, 0.02738466, -0.02493091
 14006062, 0.004819213, -0.006230018, 0.02744669, -0.02472597, -0.01127585, 0.01435237, 0.02741032, -0.02483048
 14205982, -0.01546247, 0.0008794436, 0.02754714, -0.02465639, 0.004819213, -0.006230018, 0.02744669, -0.02472597
 14405902, -0.003903215, -0.005968321, 0.0275443, -0.02461451, -0.01546247, 0.0008794436, 0.02754714, -0.02465639
 14605822, 0.01836992, 0.01174175, 0.02766233, -0.0245834, -0.003903215, -0.005968321, 0.0275443, -0.02461451
 14806575, -0.001645173, 0.01417034, 0.02761829, -0.02456798, 0.01836992, 0.01174175, 0.02766233, -0.0245834
 15006495, -0.009868128, -0.01809484, 0.02767794, -0.02455375, -0.001645173, 0.01417034, 0.02761829, -0.02456798
 15206415, -0.009474901, -0.01413011, 0.02769879, -0.0244978, -0.009868128, -0.01809484, 0.02767794, -0.02455375
 15406335, -0.01177677, -0.01146675, 0.02773047, -0.0244573, -0.009474901, -0.01413011, 0.02769879, -0.0244978
 15606255, -0.0105567, -0.01336243, 0.02774369, -0.02444708, -0.01177677, -0.01146675, 0.02773047, -0.0244573
 15806175, -0.01017893, -0.01364825, 0.02775741, -0.02443146, -0.0105567, -0.01336243, 0.02774369, -0.02444708
 16006095, -0.009489801, -0.01513699, 0.0277674, -0.02442715, -0.01017893, -0.01364825, 0.02775741, -0.02443146
 16206015, -0.007628161, -0.01400673, 0.02776901, -0.02440974, -0.009489801, -0.01513699, 0.0277674, -0.02442715
 16405935, -0.01048475, -0.01025168, 0.02778704, -0.02437973, -0.007628161, -0.01400673, 0.02776901, -0.02440974
 16605855, -0.009250808, -0.01328816, 0.02778972, -0.02438803, -0.01048475, -0.01025168, 0.02778704, -0.02437973
 16805775, -0.008659119, -0.01748162, 0.02779674, -0.02440855, -0.009250808, -0.01328816, 0.02778972, -0.02438803
 17006528, -0.007333452, -0.0161743, 0.02779492, -0.02439492, -0.008659119, -0.01748162, 0.02779674, -0.02440855
 17206448, -0.01099819, -0.01763767, 0.02781386, -0.02440143, -0.007333452, -0.0161743, 0.02779492, -0.02439492
 17406368, -0.01163912, -0.01322078, 0.02781346, -0.02437255, -0.01099819, -0.01763767, 0.02781386, -0.02440143
 17606288, -0.00773882, -0.00984857, 0.02779141, -0.02436074, -0.01163912, -0.01322078, 0.02781346, -0.02437255
 17806208, -0.009559105, -0.01153374, 0.02779716, -0.02437046, -0.00773882, -0.00984857, 0.02779141, -0.02436074
 18006128, -0.008962334, -0.0164196, 0.02779421, -0.02440405, -0.009559105, -0.01153374, 0.02779716, -0.02437046
 18206048, -0.01056614, -0.01518358, 0.02779621, -0.02439991, -0.008962334, -0.0164196, 0.02779421, -0.02440405
 18405968, -0.01073528, -0.01425857, 0.02779131, -0.0243998, -0.01056614, -0.01518358, 0.02779621, -0.02439991
 18605888, -0.01150014, -0.01399245, 0.02778923, -0.02440445, -0.01073528, -0.01425857, 0.02779131, -0.0243998
 18805808, -0.01350208, -0.01357272, 0.0277939, -0.0244084, -0.01150014, -0.01399245, 0.02778923, -0.02440445
 19006561, -0.01172788, -0.009409831, 0.02777363, -0.02439768, -0.01350208, -0.01357272, 0.0277939, -0.0244084
 19206481, -0.01153416, -0.01311828, 0.02776828, -0.02442278, -0.01172788, -0.009409831, 0.02777363, -0.02439768
 19406401, -0.009222912, -0.01490215, 0.02774983, -0.02444422, -0.01153416, -0.01311828, 0.02776828, -0.02442278
 19606321, -0.009523619, -0.01528061, 0.02774277, -0.02445633, -0.009222912, -0.01490215, 0.02774983, -0.02444422
 19806241, -0.01009315, -0.01285324, 0.02773492, -0.02445152, -0.009523619, -0.01528061, 0.02774277, -0.02445633
 20006161, -0.01081663, -0.0132795, 0.02772973, -0.0244637, -0.01009315, -0.01285324, 0.02773492, -0.02445152
 20206081, -0.00999904, -0.01183833, 0.02771515, -0.02446745, -0.01081663, -0.0132795, 0.02772973, -0.0244637
 20406001, -0.01164013, -0.01471091, 0.02771612, -0.02449318, -0.00999904, -0.01183833, 0.02771515, -0.02446745
 20605921, -0.01072682, -0.01245129, 0.02770019, -0.02449159, -0.01164013, -0.01471091, 0.02771612, -0.02449318
 20805841, -0.01023564, -0.01191169, 0.02768745, -0.02450036, -0.01072682, -0.01245129, 0.02770019, -0.02449159
 21005761, -0.01041039, -0.01313438, 0.02767915, -0.02451794, -0.01023564, -0.01191169, 0.02768745, -0.02450036
 21206514, -0.01094164, -0.01408552, 0.02767286, -0.02453395, -0.01041039, -0.01313438, 0.02767915, -0.02451794
 21406434, -0.01114563, -0.01458429, 0.02766407, -0.02454837, -0.01094164, -0.01408552, 0.02767286, -0.02453395
 21606354, -0.009588086, -0.01449963, 0.02764566, -0.02456079, -0.01114563, -0.01458429, 0.02766407, -0.02454837
 21806274, -0.01280574, -0.01308588, 0.02765147, -0.02456215, -0.009588086, -0.01449963, 0.02764566, -0.02456079
 22006194, -0.01075269, -0.01236217, 0.02762917, -0.02457127, -0.01280574, -0.01308588, 0.02765147, -0.02456215
 22206114, -0.01071312, -0.01160679, 0.02761817, -0.02457911, -0.01075269, -0.01236217, 0.02762917, -0.02457127
 22406034, -0.01093425, -0.01502554, 0.0276109, -0.02461015, -0.01071312, -0.01160679, 0.02761817, -0.02457911
 22605954, -0.009950429, -0.01242996, 0.02759401, -0.02460719, -0.01093425, -0.01502554, 0.0276109, -0.02461015
 22805874, -0.01257137, -0.01348178, 0.02759814, -0.02462315, -0.009950429, -0.01242996, 0.02759401, -0.02460719
 23005794, -0.01082594, -0.01169822, 0.02757683, -0.02462657, -0.01257137, -0.01348178, 0.02759814, -0.02462315
 23206547, -0.01098778, -0.01238872, 0.02756814, -0.0246411, -0.01082594, -0.01169822, 0.02757683, -0.02462657
 23406467, -0.008455841, -0.01343309, 0.02754709, -0.02465933, -0.01098778, -0.01238872, 0.02756814, -0.0246411
 23606387, -0.009015866, -0.01147786, 0.02753795, -0.02466027, -0.008455841, -0.01343309, 0.02754709, -0.02465933
 23806307, -0.009144927, -0.01340597, 0.02752923, -0.02468198, -0.009015866, -0.01147786, 0.02753795, -0.02466027
 24006227, -0.008110662, -0.0126488, 0.02751437, -0.02468962, -0.009144927, -0.01340597, 0.02752923, -0.02468198
 24206147, -0.01172052, -0.01764954, 0.02752463, -0.02473121, -0.008110662, -0.0126488, 0.02751437, -0.02468962
 24406067, -0.01237064, -0.01259039, 0.02751486, -0.02470946, -0.01172052, -0.01764954, 0.02752463, -0.02473121
 24605987, -0.01260082, -0.01197688, 0.02750597, -0.02471715, -0.01237064, -0.01259039, 0.02751486, -0.02470946
 24805907, -0.01387003, -0.01592251, 0.02750665, -0.02475052, -0.01260082, -0.01197688, 0.02750597, -0.02471715
 25005827, -0.01141043, -0.01146127, 0.02747903, -0.02473745, -0.01387003, -0.01592251, 0.02750665, -0.02475052
 25206580, -0.01039377, -0.01217668, 0.02746454, -0.02475229, -0.01141043, -0.01146127, 0.02747903, -0.02473745
 25406500, -0.01043956, -0.01109257, 0.02745506, -0.02475706, -0.01039377, -0.01217668, 0.02746454, -0.02475229
 25606420, -0.009977384, -0.01275577, 0.02744413, -0.02477634, -0.01043956, -0.01109257, 0.02745506, -0.02475706
 25806340, -0.008831128, -0.01513293, 0.02743066, -0.02480184, -0.009977384, -0.01275577, 0.02744413, -0.02477634
 26006260, -0.008109957, -0.01355631, 0.02741748, -0.02480282, -0.008831128, -0.01513293, 0.02743066, -0.02480184
 26206180, -0.009610256, -0.01438242, 0.02741505, -0.02481727, -0.008109957, -0.01355631, 0.02741748, -0.02480282
 26406100, -0.010353, -0.01465795, 0.02740943, -0.02482888, -0.009610256, -0.01438242, 0.02741505, -0.02481727
 26606020, -0.01056295, -0.01227114, 0.02740014, -0.02482496, -0.010353, -0.01465795, 0.02740943, -0.02482888
 26805940, -0.009247312, -0.01241228, 0.02738506, -0.02483626, -0.01056295, -0.01227114, 0.02740014, -0.02482496
 27005860, -0.01087376, -0.01297606, 0.02738394, -0.02484862, -0.009247312, -0.01241228, 0.02738506, -0.02483626
 27205780, -0.008079939, -0.01246789, 0.02736222, -0.02485698, -0.01087376, -0.01297606, 0.02738394, -0.02484862
 27406533, -0.008737319, -0.01171498, 0.02735613, -0.02486199, -0.008079939, -0.01246789, 0.02736222, -0.02485698
 27606453, -0.008522343, -0.01526676, 0.02734824, -0.02489242, -0.008737319, -0.01171498, 0.02735613, -0.02486199
 27806373, -0.006095763, -0.01709737, 0.02733179, -0.02491609, -0.008522343, -0.01526676, 0.02734824, -0.02489242
 28006293, -0.009357642, -0.01502873, 0.02733459, -0.02490924, -0.006095763, -0.01709737, 0.02733179, -0.02491609
 28206213, -0.01395528, -0.01168602, 0.0273497, -0.02489687, -0.009357642, -0.01502873, 0.02733459, -0.02490924
 28406133, -0.01217192, -0.01194146, 0.02733076, -0.02490809, -0.01395528, -0.01168602, 0.0273497, -0.02489687
 28606053, -0.0106836, -0.01305287, 0.02731508, -0.02492382, -0.01217192, -0.01194146, 0.02733076, -0.02490809
 28805973, -0.008909504, -0.01398899, 0.02729925, -0.02493894, -0.0106836, -0.01305287, 0.02731508, -0.02492382
 29005893, -0.007947051, -0.01229118, 0.0272867, -0.02493835, -0.008909504, -0.01398899, 0.02729925, -0.02493894
 29205813, -0.007356319, -0.01593675, 0.02727826, -0.02496967, -0.007947051, -0.01229118, 0.0272867, -0.02493835
 29406566, -0.009766825, -0.01308765, 0.02727909, -0.02495901, -0.007356319, -0.01593675, 0.02727826, -0.02496967
 29606486, -0.009944975, -0.01648912, 0.0272742, -0.02498884, -0.009766825, -0.01308765, 0.02727909, -0.02495901
 29806406, -0.007943354, -0.01690736, 0.02725778, -0.02500162, -0.009944975, -0.01648912, 0.0272742, -0.02498884
 30006326, -0.008477653, -0.01273953, 0.02725036, -0.02498275, -0.007943354, -0.01690736, 0.02725778, -0.02500162
 30206246, -0.00799787, -0.01386595, 0.0272415, -0.0249976, -0.008477653, -0.01273953, 0.02725036, -0.02498275
 30406166, -0.008811367, -0.01270046, 0.02723692, -0.02499853, -0.00799787, -0.01386595, 0.0272415, -0.0249976
 30606086, -0.0091241, -0.0135019, 0.02723125, -0.02501095, -0.008811367, -0.01270046, 0.02723692, -0.02499853
 30806006, -0.009846242, -0.01620659, 0.02722866, -0.02503585, -0.0091241, -0.0135019, 0.02723125, -0.02501095
 31005926, -0.008873578, -0.01688952, 0.0272175, -0.02504902, -0.009846242, -0.01620659, 0.02722866, -0.02503585
 31205846, -0.009952656, -0.01477658, 0.02721449, -0.02504136, -0.008873578, -0.01688952, 0.0272175, -0.02504902
 31405766, -0.00962517, -0.01647758, 0.02720775, -0.02505964, -0.009952656, -0.01477658, 0.02721449, -0.02504136
 31606519, -0.01059039, -0.01178189, 0.02720426, -0.0250369, -0.00962517, -0.01647758, 0.02720775, -0.02505964
 31806439, -0.01340929, -0.01461386, 0.02721469, -0.02505896, -0.01059039, -0.01178189, 0.02720426, -0.0250369
 32006359, -0.009503777, -0.01313977, 0.02718619, -0.02505935, -0.01340929, -0.01461386, 0.02721469, -0.02505896
 32206279, -0.008257264, -0.01487621, 0.02717488, -0.02507781, -0.009503777, -0.01313977, 0.02718619, -0.02505935
 32406199, -0.0112356, -0.01560134, 0.02718236, -0.02508848, -0.008257264, -0.01487621, 0.02717488, -0.02507781
 32606119, -0.0104575, -0.01350946, 0.02717086, -0.02508273, -0.0112356, -0.01560134, 0.02718236, -0.02508848
 32806039, -0.0114368, -0.01317433, 0.02716921, -0.02508744, -0.0104575, -0.01350946, 0.02717086, -0.02508273
 33005959, -0.009225865, -0.01648659, 0.02715354, -0.02511669, -0.0114368, -0.01317433, 0.02716921, -0.02508744
 33205879, -0.01073155, -0.01470539, 0.02715337, -0.0251109, -0.009225865, -0.01648659, 0.02715354, -0.02511669
 33405799, -0.01189126, -0.01487331, 0.0271533, -0.02511829, -0.01073155, -0.01470539, 0.02715337, -0.0251109
 33606552, -0.009622582, -0.0146461, 0.02713571, -0.02512431, -0.01189126, -0.01487331, 0.0271533, -0.02511829
 33806472, -0.009951286, -0.01511419, 0.02713133, -0.0251338, -0.009622582, -0.0146461, 0.02713571, -0.02512431
 34006392, -0.01008128, -0.01368797, 0.02712527, -0.02513135, -0.009951286, -0.01511419, 0.02713133, -0.0251338
 34206312, -0.01168797, -0.01066114, 0.02712625, -0.02512124, -0.01008128, -0.01368797, 0.02712527, -0.02513135
 34406232, -0.011723, -0.01533301, 0.02712254, -0.02515382, -0.01168797, -0.01066114, 0.02712625, -0.02512124
 34606152, -0.01068055, -0.01465492, 0.02711095, -0.02515611, -0.011723, -0.01533301, 0.02712254, -0.02515382
 34806072, -0.009615794, -0.01291488, 0.02709934, -0.02515238, -0.01068055, -0.01465492, 0.02711095, -0.02515611
 35005992, -0.008891344, -0.01488893, 0.0270913, -0.02517072, -0.009615794, -0.01291488, 0.02709934, -0.02515238
 35205912, -0.01053153, -0.01416029, 0.02709288, -0.0251715, -0.008891344, -0.01488893, 0.0270913, -0.02517072
 35405832, -0.01082201, -0.01178994, 0.02708768, -0.0251642, -0.01053153, -0.01416029, 0.02709288, -0.0251715
 35606585, -0.00925353, -0.01344832, 0.02707548, -0.02517975, -0.01082201, -0.01178994, 0.02708768, -0.0251642
 35806505, -0.006858235, -0.01435178, 0.02706143, -0.02519171, -0.00925353, -0.01344832, 0.02707548, -0.02517975
 36006425, -0.009913578, -0.01264076, 0.02706746, -0.02518641, -0.006858235, -0.01435178, 0.02706143, -0.02519171
 36206345, -0.01342929, -0.01165849, 0.02708078, -0.02518566, -0.009913578, -0.01264076, 0.02706746, -0.02518641
 36406265, -0.01091004, -0.01039969, 0.02706087, -0.02518629, -0.01342929, -0.01165849, 0.02708078, -0.02518566
 36606185, -0.008251234, -0.01354092, 0.02704485, -0.02520914, -0.01091004, -0.01039969, 0.02706087, -0.02518629
 36806105, -0.008531857, -0.01451792, 0.02704114, -0.0252206, -0.008251234, -0.01354092, 0.02704485, -0.02520914
 37006025, -0.0106088, -0.01345931, 0.02704504, -0.02521878, -0.008531857, -0.01451792, 0.02704114, -0.0252206
 37205945, -0.01176963, -0.01481984, 0.02704673, -0.02523199, -0.0106088, -0.01345931, 0.02704504, -0.02521878
 37405865, -0.009410394, -0.01528328, 0.02703019, -0.02524132, -0.01176963, -0.01481984, 0.02704673, -0.02523199
 37605785, -0.0105371, -0.0133155, 0.02702983, -0.02523384, -0.009410394, -0.01528328, 0.02703019, -0.02524132
 37806538, -0.01127041, -0.011203, 0.02702809, -0.02522737, -0.0105371, -0.0133155, 0.02702983, -0.02523384
 38006458, -0.01096746, -0.01280061, 0.02702222, -0.02524102, -0.01127041, -0.011203, 0.02702809, -0.02522737
 38206378, -0.01313677, -0.01355968, 0.02702985, -0.02524967, -0.01096746, -0.01280061, 0.02702222, -0.02524102
 38406298, -0.009193847, -0.0129584, 0.02700442, -0.02525268, -0.01313677, -0.01355968, 0.02702985, -0.02524967
 38606218, -0.01226232, -0.01275258, 0.02701506, -0.02525539, -0.009193847, -0.0129584, 0.02700442, -0.02525268
 38806138, -0.01138538, -0.01508999, 0.02700658, -0.02527476, -0.01226232, -0.01275258, 0.02701506, -0.02525539
 39006058, -0.01043754, -0.01393245, 0.02699671, -0.02527268, -0.01138538, -0.01508999, 0.02700658, -0.02527476
 39205978, -0.01095112, -0.01509749, 0.02699528, -0.02528462, -0.01043754, -0.01393245, 0.02699671, -0.02527268
 39405898, -0.008794221, -0.01727481, 0.02698152, -0.02530578, -0.01095112, -0.01509749, 0.02699528, -0.02528462
 39605818, -0.01027604, -0.01568596, 0.02698313, -0.02529847, -0.008794221, -0.01727481, 0.02698152, -0.02530578
 39806571, -0.01250889, -0.014006, 0.02699016, -0.02529119, -0.01027604, -0.01568596, 0.02698313, -0.02529847
 40006491, -0.01218166, -0.01508979, 0.02698459, -0.02530259, -0.01250889, -0.014006, 0.02699016, -0.02529119
 40206411, -0.008092416, -0.01433823, 0.0269605, -0.02530389, -0.01218166, -0.01508979, 0.02698459, -0.02530259
 40406331, -0.01048822, -0.0150066, 0.02696699, -0.02531186, -0.008092416, -0.01433823, 0.0269605, -0.02530389
 40606251, -0.009488229, -0.01596827, 0.0269585, -0.02532317, -0.01048822, -0.0150066, 0.02696699, -0.02531186
 40806171, -0.009196625, -0.01383514, 0.02695238, -0.02531368, -0.009488229, -0.01596827, 0.0269585, -0.02532317
 41006091, -0.01214022, -0.01436396, 0.0269631, -0.02532029, -0.009196625, -0.01383514, 0.02695238, -0.02531368
 41206011, -0.008550256, -0.01544176, 0.0269421, -0.02533286, -0.01214022, -0.01436396, 0.0269631, -0.02532029
 41405931, -0.01201858, -0.01743872, 0.02695564, -0.02535021, -0.008550256, -0.01544176, 0.0269421, -0.02533286
 41605851, -0.008424755, -0.01355277, 0.02693291, -0.02532944, -0.01201858, -0.01743872, 0.02695564, -0.02535021
 41805771, -0.008601416, -0.01361691, 0.02692977, -0.02533389, -0.008424755, -0.01355277, 0.02693291, -0.02532944
 42006524, -0.007612317, -0.01593272, 0.026923, -0.02535321, -0.008601416, -0.01361691, 0.02692977, -0.02533389
 42206444, -0.009753374, -0.01256044, 0.02692675, -0.02533558, -0.007612317, -0.01593272, 0.026923, -0.02535321
 42406364, -0.009933683, -0.01118369, 0.02692324, -0.02533253, -0.009753374, -0.01256044, 0.02692675, -0.02533558
 42606284, -0.007544517, -0.01192011, 0.02690985, -0.02534103, -0.009933683, -0.01118369, 0.02692324, -0.02533253
 42806204, -0.01028055, -0.01268089, 0.02691759, -0.02534843, -0.007544517, -0.01192011, 0.02690985, -0.02534103
 43006124, -0.01081394, -0.01391053, 0.02691676, -0.02535949, -0.01028055, -0.01268089, 0.02691759, -0.02534843
 43206044, -0.01241595, -0.01043429, 0.0269204, -0.02534465, -0.01081394, -0.01391053, 0.02691676, -0.02535949
 43405964, -0.009829569, -0.01346233, 0.02690426, -0.0253652, -0.01241595, -0.01043429, 0.0269204, -0.02534465
 43605884, -0.01365134, -0.01189172, 0.02692063, -0.02535938, -0.009829569, -0.01346233, 0.02690426, -0.0253652
 43805804, -0.0139147, -0.01344106, 0.02691954, -0.0253713, -0.01365134, -0.01189172, 0.02692063, -0.02535938
 44006557, -0.01363083, -0.01531932, 0.02691526, -0.02538654, -0.0139147, -0.01344106, 0.02691954, -0.0253713
 44206477, -0.01063313, -0.01166349, 0.02689375, -0.02536968, -0.01363083, -0.01531932, 0.02691526, -0.02538654
 44406397, -0.01090297, -0.0133296, 0.026892, -0.02538252, -0.01063313, -0.01166349, 0.02689375, -0.02536968
 44606317, -0.01193709, -0.01501471, 0.02689438, -0.02539651, -0.01090297, -0.0133296, 0.026892, -0.02538252
 44806237, -0.01090701, -0.01448057, 0.02688512, -0.02539722, -0.01193709, -0.01501471, 0.02689438, -0.02539651
 45006157, -0.008361111, -0.01224783, 0.02686946, -0.02538865, -0.01090701, -0.01448057, 0.02688512, -0.02539722
 45206077, -0.008740073, -0.01062866, 0.02686699, -0.0253842, -0.008361111, -0.01224783, 0.02686946, -0.02538865
 45405997, -0.006535472, -0.01588152, 0.02685693, -0.02541923, -0.008740073, -0.01062866, 0.02686699, -0.0253842
 45605917, -0.008649145, -0.01519711, 0.02686078, -0.02541766, -0.006535472, -0.01588152, 0.02685693, -0.02541923
 45805837, -0.01096075, -0.01587048, 0.026868, -0.02542532, -0.008649145, -0.01519711, 0.02686078, -0.02541766
 46006590, -0.01337486, -0.0128518, 0.026877, -0.02540934, -0.01096075, -0.01587048, 0.026868, -0.02542532
 46206510, -0.01204634, -0.01162805, 0.02686536, -0.02540692, -0.01337486, -0.0128518, 0.026877, -0.02540934
 46406430, -0.01219579, -0.01187794, 0.02686254, -0.02541208, -0.01204634, -0.01162805, 0.02686536, -0.02540692
 46606350, -0.0144951, -0.01240888, 0.0272913, -0.0258145, -0.01219579, -0.01187794, 0.02686254, -0.02541208
 46806270, -0.01403996, -0.0147287, 0.03075568, -0.02911778, -0.0144951, -0.01240888, 0.0272913, -0.0258145
 47006190, -0.01726796, -0.02003665, 0.0403281, -0.03819836, -0.01403996, -0.0147287, 0.03075568, -0.02911778
 47206110, -0.02297961, -0.03139665, 0.0590172, -0.055925, -0.01726796, -0.02003665, 0.0403281, -0.03819836
 47406030, -0.03515887, -0.05205296, 0.08754072, -0.08298489, -0.02297961, -0.03139665, 0.0590172, -0.055925
 47605950, -0.04865081, -0.07448681, 0.1242598, -0.1178284, -0.03515887, -0.05205296, 0.08754072, -0.08298489
 47805870, -0.05236998, -0.09093039, 0.1636352, -0.1646995, -0.04865081, -0.07448681, 0.1242598, -0.1178284
 48005790, -0.07281388, -0.1050206, 0.2122, -0.2135402, -0.05236998, -0.09093039, 0.1636352, -0.1646995
 48206543, -0.08399128, -0.1662103, 0.2673622, -0.2690044, -0.07281388, -0.1050206, 0.2122, -0.2135402
 48406463, -0.0947069, -0.1967036, 0.3269958, -0.3288248, -0.08399128, -0.1662103, 0.2673622, -0.2690044
 48606383, 0.09792293, -0.3283087, 0.3909679, -0.3931135, -0.0947069, -0.1967036, 0.3269958, -0.3288248
 48806303, -0.2067269, 0.03331479, 0.4583595, -0.4600853, 0.09792293, -0.3283087, 0.3909679, -0.3931135
 49006223, -0.1438909, -0.1465911, 0.525379, -0.527168, -0.2067269, 0.03331479, 0.4583595, -0.4600853
 49206143, 0.154828, -0.1791398, 0.5899607, -0.5923065, -0.1438909, -0.1465911, 0.525379, -0.527168
 49406063, -0.1572208, -0.279821, 0.6500545, -0.6530504, 0.154828, -0.1791398, 0.5899607, -0.5923065
 49605983, 0.2491916, 0.3549705, 0.7065504, -0.7101442, -0.1572208, -0.279821, 0.6500545, -0.6530504
 49805903, -0.03663813, -0.1665966, 0.7583309, -0.7624738, 0.2491916, 0.3549705, 0.7065504, -0.7101442
 50005823, 0.4147305, 0.2026068, 0.8067102, -0.8112039, -0.03663813, -0.1665966, 0.7583309, -0.7624738
 50206576, -0.1141154, 0.390545, 0.8510621, -0.856271, 0.4147305, 0.2026068, 0.8067102, -0.8112039
 50406496, 0.3532344, 0.4789353, 0.8908715, -0.8954416, -0.1141154, 0.390545, 0.8510621, -0.856271
 50606416, 0.3944801, 0.02914655, 0.9240552, -0.9279757, 0.3532344, 0.4789353, 0.8908715, -0.8954416
 50806336, 0.04905768, 0.3148879, 0.9498493, -0.9546007, 0.3944801, 0.02914655, 0.9240552, -0.9279757
 51006256, -0.6398909, 0.4897589, 0.9709585, -0.9763485, 0.04905768, 0.3148879, 0.9498493, -0.9546007
 51206176, -0.2880107, -0.4119054, 0.9857364, -0.9922882, -0.6398909, 0.4897589, 0.9709585, -0.9763485
 51406096, 0.6321943, 0.4297681, 0.9963886, -1.004687, -0.2880107, -0.4119054, 0.9857364, -0.9922882
 51606016, 0.6318403, -0.5038481, 1.001269, -1.014754, 0.6321943, 0.4297681, 0.9963886, -1.004687
 51805936, 1.067869, -0.3539864, 0.9554976, -1.069057, 0.6318403, -0.5038481, 1.001269, -1.014754
 52005856, 0.7044083, 1.225351, 0.7607632, -1.223395, 1.067869, -0.3539864, 0.9554976, -1.069057
 52205776, 0.8238246, -0.4072012, 0.4088927, -1.383776, 0.7044083, 1.225351, 0.7607632, -1.223395
 52406529, 1.997583, -0.793941, -0.03652716, -1.448668, 0.8238246, -0.4072012, 0.4088927, -1.383776
 52606449, 0.1454139, -0.9250618, -0.4734378, -1.368087, 1.997583, -0.793941, -0.03652716, -1.448668
 52806369, 0.1195753, -2.273695, -0.7934564, -1.215079, 0.1454139, -0.9250618, -0.4734378, -1.368087
 53006289, -1.377829, -1.691963, -1.014882, -1.038033, 0.1195753, -2.273695, -0.7934564, -1.215079
 53206209, -2.17007, -1.647481, -1.174134, -0.8649504, -1.377829, -1.691963, -1.014882, -1.038033
 53406129, -1.747637, -0.6841836, -1.297855, -0.6649708, -2.17007, -1.647481, -1.174134, -0.8649504
 53606049, -3.289439, 0.7916249, -1.40723, -0.4092181, -1.747637, -0.6841836, -1.297855, -0.6649708
 53805969, -2.563003, 1.506596, -1.461232, -0.09805262, -3.289439, 0.7916249, -1.40723, -0.4092181
 54005889, -2.25192, 3.082605, -1.450276, 0.2223567, -2.563003, 1.506596, -1.461232, -0.09805262
 54205809, -2.008179, 3.662016, -1.406414, 0.39318, -2.25192, 3.082605, -1.450276, 0.2223567
 54406562, -0.9850545, 4.357951, -1.397764, 0.3832207, -2.008179, 3.662016, -1.406414, 0.39318
 54606482, -1.670963, 3.915668, -1.41017, 0.2549831, -0.9850545, 4.357951, -1.397764, 0.3832207
 54806402, -3.696022, 4.374917, -1.422883, 0.1112757, -1.670963, 3.915668, -1.41017, 0.2549831
 55006322, -4.294942, 3.231243, -1.407205, -0.003764391, -3.696022, 4.374917, -1.422883, 0.1112757
 55206242, -4.882911, 3.788961, -1.393453, -0.02452958, -4.294942, 3.231243, -1.407205, -0.003764391
 55406162, -5.131896, 3.606575, -1.373495, 0.01548004, -4.882911, 3.788961, -1.393453, -0.02452958
 55606082, -4.597935, 3.557961, -1.346029, 0.07868582, -5.131896, 3.606575, -1.373495, 0.01548004
 55806002, -4.046885, 5.379786, -1.329243, 0.1466554, -4.597935, 3.557961, -1.346029, 0.07868582
 56005922, -4.028787, 5.77475, -1.307565, 0.1729333, -4.046885, 5.379786, -1.329243, 0.1466554
 56205842, -4.536413, 5.762971, -1.291672, 0.1652159, -4.028787, 5.77475, -1.307565, 0.1729333
 56405762, -3.696557, 5.495069, -1.269566, 0.1238609, -4.536413, 5.762971, -1.291672, 0.1652159
 56606515, -4.805071, 5.305387, -1.258183, 0.1028517, -3.696557, 5.495069, -1.269566, 0.1238609
 56806435, -4.501446, 4.832776, -1.229578, 0.08180618, -4.805071, 5.305387, -1.258183, 0.1028517
 57006355, -4.52133, 4.815151, -1.208049, 0.08469921, -4.501446, 4.832776, -1.229578, 0.08180618
 57206275, -4.464087, 4.772772, -1.18339, 0.09708995, -4.52133, 4.815151, -1.208049, 0.08469921
 57406195, -4.274389, 4.816545, -1.161187, 0.1100009, -4.464087, 4.772772, -1.18339, 0.09708995
 57606115, -4.096122, 4.774559, -1.139914, 0.116028, -4.274389, 4.816545, -1.161187, 0.1100009
 57806035, -4.16765, 4.717398, -1.121917, 0.1156249, -4.096122, 4.774559, -1.139914, 0.116028
 58005955, -4.085262, 4.686587, -1.10423, 0.1079091, -4.16765, 4.717398, -1.121917, 0.1156249
 58205875, -4.047518, 4.538552, -1.086823, 0.09834084, -4.085262, 4.686587, -1.10423, 0.1079091
 58405795, -4.040751, 4.487974, -1.071526, 0.09345016, -4.047518, 4.538552, -1.086823, 0.09834084
 58606548, -3.982735, 4.433989, -1.050436, 0.09267816, -4.040751, 4.487974, -1.071526, 0.09345016
 58806468, -3.931669, 4.265661, -1.037579, 0.09177536, -3.982735, 4.433989, -1.050436, 0.09267816
 59006388, -3.88661, 4.29182, -1.015573, 0.09460878, -3.931669, 4.265661, -1.037579, 0.09177536
 59206308, -3.860213, 4.264668, -0.9913604, 0.09663859, -3.88661, 4.29182, -1.015573, 0.09460878
 59406228, -3.662691, 4.200481, -0.9664489, 0.09547618, -3.860213, 4.264668, -0.9913604, 0.09663859
 59606148, -3.679879, 4.046291, -0.9435909, 0.09378377, -3.662691, 4.200481, -0.9664489, 0.09547618
 59806068, -3.582011, 3.942408, -0.9206499, 0.09047124, -3.679879, 4.046291, -0.9435909, 0.09378377
 60005988, -3.427621, 3.857, -0.8986331, 0.0865216, -3.582011, 3.942408, -0.9206499, 0.09047124
 60205908, -3.413442, 3.740494, -0.8783516, 0.08398002, -3.427621, 3.857, -0.8986331, 0.0865216
 60405828, -3.329494, 3.756783, -0.8594916, 0.0831317, -3.413442, 3.740494, -0.8783516, 0.08398002
 60606581, -3.204351, 3.650306, -0.8402135, 0.08107859, -3.329494, 3.756783, -0.8594916, 0.0831317
 60806501, -3.096718, 3.559163, -0.8230394, 0.08113822, -3.204351, 3.650306, -0.8402135, 0.08107859
 61006421, -2.930067, 3.425157, -0.8053926, 0.08462277, -3.096718, 3.559163, -0.8230394, 0.08113822
 61206341, -2.759995, 3.323122, -0.7938416, 0.09515223, -2.930067, 3.425157, -0.8053926, 0.08462277
 61406261, -2.595836, 3.224978, -0.7822677, 0.1164975, -2.759995, 3.323122, -0.7938416, 0.09515223
 61606181, -2.349777, 3.229503, -0.7691179, 0.1533405, -2.595836, 3.224978, -0.7822677, 0.1164975
 61806101, -2.047344, 3.304119, -0.7488256, 0.2146015, -2.349777, 3.229503, -0.7691179, 0.1533405
 62006021, -1.563765, 3.400808, -0.7102425, 0.3080774, -2.047344, 3.304119, -0.7488256, 0.2146015
 62205941, -0.7662947, 3.537796, -0.6292909, 0.4413706, -1.563765, 3.400808, -0.7102425, 0.3080774
 62405861, 0.1062625, 3.517564, -0.494749, 0.5814142, -0.7662947, 3.537796, -0.6292909, 0.4413706
 62605781, 0.9269296, 3.381171, -0.3253602, 0.687179, 0.1062625, 3.517564, -0.494749, 0.5814142
 62806534, 1.705451, 3.105518, -0.1483431, 0.7436676, 0.9269296, 3.381171, -0.3253602, 0.687179
 63006454, 2.326657, 2.763264, 0.01595289, 0.7578351, 1.705451, 3.105518, -0.1483431, 0.7436676
 63206374, 2.86071, 2.323403, 0.1543908, 0.7412653, 2.326657, 2.763264, 0.01595289, 0.7578351
 63406294, 3.323345, 1.826438, 0.2845384, 0.6985255, 2.86071, 2.323403, 0.1543908, 0.7412653
 63606214, 3.703152, 1.141401, 0.4095172, 0.6305829, 3.323345, 1.826438, 0.2845384, 0.6985255
 63806134, 3.98602, 0.2023054, 0.5296919, 0.5344525, 3.703152, 1.141401, 0.4095172, 0.6305829
 64006054, 4.08667, -0.5378299, 0.6134474, 0.4401006, 3.98602, 0.2023054, 0.5296919, 0.5344525
 64205974, 4.033481, -0.9146117, 0.6426529, 0.399279, 4.08667, -0.5378299, 0.6134474, 0.4401006
 64405894, 4.158787, -0.7678634, 0.6323848, 0.41884, 4.033481, -0.9146117, 0.6426529, 0.399279
 64605814, 4.328699, -0.3478916, 0.5955128, 0.4726925, 4.158787, -0.7678634, 0.6323848, 0.41884
 64806567, 4.460794, 0.1155614, 0.5518706, 0.5295053, 4.328699, -0.3478916, 0.5955128, 0.4726925
 65006487, 4.443849, 0.535013, 0.5198818, 0.5628338, 4.460794, 0.1155614, 0.5518706, 0.5295053
 65206407, 4.483357, 0.5447398, 0.5165825, 0.5683687, 4.443849, 0.535013, 0.5198818, 0.5628338
 65406327, 4.561056, 0.4076025, 0.5366763, 0.5533755, 4.483357, 0.5447398, 0.5165825, 0.5683687
 65606247, 4.586707, 0.1541989, 0.5618483, 0.5279469, 4.561056, 0.4076025, 0.5366763, 0.5533755
 65806167, 4.650433, -0.0952858, 0.580848, 0.506314, 4.586707, 0.1541989, 0.5618483, 0.5279469
 66006087, 4.69048, -0.1516544, 0.587858, 0.4988094, 4.650433, -0.0952858, 0.580848, 0.506314
 66206007, 4.721375, -0.1171866, 0.5841587, 0.5043911, 4.69048, -0.1516544, 0.587858, 0.4988094
 66405927, 4.74103, -0.06671168, 0.574149, 0.5161146, 4.721375, -0.1171866, 0.5841587, 0.5043911
 66605847, 4.744355, 0.0933715, 0.5652353, 0.5286309, 4.74103, -0.06671168, 0.574149, 0.5161146
 66805767, 4.820742, 0.1598001, 0.5627977, 0.537603, 4.744355, 0.0933715, 0.5652353, 0.5286309
 67006520, 4.840439, 0.2123978, 0.5637227, 0.5391672, 4.820742, 0.1598001, 0.5627977, 0.537603
 67206440, 4.823125, 0.1287121, 0.5703943, 0.5380513, 4.840439, 0.2123978, 0.5637227, 0.5391672
 67406360, 4.834808, 0.08456863, 0.578385, 0.5342656, 4.823125, 0.1287121, 0.5703943, 0.5380513
 67606280, 4.963993, -0.02108189, 0.5890082, 0.5341862, 4.834808, 0.08456863, 0.578385, 0.5342656
 67806200, 4.952606, -0.03202675, 0.5938785, 0.5371047, 4.963993, -0.02108189, 0.5890082, 0.5341862
 68006120, 4.993852, -0.031929, 0.5964302, 0.5421223, 4.952606, -0.03202675, 0.5938785, 0.5371047
 68206040, 5.003852, 0.02796156, 0.5967138, 0.5485534, 4.993852, -0.031929, 0.5964302, 0.5421223
 68405960, 4.994589, 0.1127735, 0.5969996, 0.5551881, 5.003852, 0.02796156, 0.5967138, 0.5485534
 68605880, 5.019561, 0.1682553, 0.5976288, 0.558784, 4.994589, 0.1127735, 0.5969996, 0.5551881
 68805800, 5.083173, 0.03897105, 0.603134, 0.5648522, 5.019561, 0.1682553, 0.5976288, 0.558784
 69006553, 5.092349, 0.06508288, 0.6082814, 0.568121, 5.083173, 0.03897105, 0.603134, 0.5648522
 69206473, 5.222512, 0.07009145, 0.6140315, 0.5670267, 5.092349, 0.06508288, 0.6082814, 0.568121
 69406393, 5.262746, -0.003259817, 0.6202724, 0.5681841, 5.222512, 0.07009145, 0.6140315, 0.5670267
 69606313, 5.220724, 0.07080419, 0.6239235, 0.5710572, 5.262746, -0.003259817, 0.6202724, 0.5681841
 69806233, 5.232637, 0.04766689, 0.6274373, 0.5751167, 5.220724, 0.07080419, 0.6239235, 0.5710572
 70006153, 5.232647, -0.02000778, 0.6312639, 0.5811734, 5.232637, 0.04766689, 0.6274373, 0.5751167
 70206073, 5.230743, 0.0004757885, 0.6335365, 0.584808, 5.232647, -0.02000778, 0.6312639, 0.5811734
 70405993, 5.317282, 0.03247556, 0.6366537, 0.5870007, 5.230743, 0.0004757885, 0.6335365, 0.584808
 70605913, 5.362082, -0.01855469, 0.6410193, 0.5915704, 5.317282, 0.03247556, 0.6366537, 0.5870007
 70805833, 5.283655, -0.01342881, 0.6419216, 0.5954999, 5.362082, -0.01855469, 0.6410193, 0.5915704
 71006586, 5.353173, 0.05145196, 0.6464479, 0.601638, 5.283655, -0.01342881, 0.6419216, 0.5954999
 71206506, 5.406181, 0.05128901, 0.6483492, 0.6035029, 5.353173, 0.05145196, 0.6464479, 0.601638
 71406426, 5.438207, 0.04625397, 0.6482458, 0.6019265, 5.406181, 0.05128901, 0.6483492, 0.6035029
 71606346, 5.38822, 0.03335878, 0.6449553, 0.5986121, 5.438207, 0.04625397, 0.6482458, 0.6019265
 71806266, 5.410149, 0.04507928, 0.6436275, 0.5947831, 5.38822, 0.03335878, 0.6449553, 0.5986121
 72006186, 5.406639, 0.05793316, 0.6424994, 0.5907133, 5.410149, 0.04507928, 0.6436275, 0.5947831
 72206106, 5.35408, -0.01254249, 0.6410301, 0.5874121, 5.406639, 0.05793316, 0.6424994, 0.5907133
 72406026, 5.433054, -0.01136305, 0.6425057, 0.5849496, 5.35408, -0.01254249, 0.6410301, 0.5874121
 72605946, 5.289299, 0.05329076, 0.6382533, 0.5817288, 5.433054, -0.01136305, 0.6425057, 0.5849496
 72805866, 5.194541, 0.02127913, 0.6350503, 0.5792221, 5.289299, 0.05329076, 0.6382533, 0.5817288
 73005786, 5.179595, 0.01179715, 0.6323623, 0.5769138, 5.194541, 0.02127913, 0.6350503, 0.5792221
 73206539, 5.105655, 0.03594309, 0.628119, 0.5749381, 5.179595, 0.01179715, 0.6323623, 0.5769138
 73406459, 5.018127, 0.0278473, 0.624507, 0.5741934, 5.105655, 0.03594309, 0.628119, 0.5749381
 73606379, 4.988795, 0.02512544, 0.6227363, 0.5730106, 5.018127, 0.0278473, 0.624507, 0.5741934
 73806299, 4.9134, 0.07488122, 0.6210693, 0.5745122, 4.988795, 0.02512544, 0.6227363, 0.5730106
 74006219, 4.815285, 0.09284757, 0.6155949, 0.5805529, 4.9134, 0.07488122, 0.6210693, 0.5745122
 74206139, 4.668687, 0.1704951, 0.6032463, 0.5945402, 4.815285, 0.09284757, 0.6155949, 0.5805529
 74406059, 4.549251, 0.3194774, 0.5820399, 0.6177023, 4.668687, 0.1704951, 0.6032463, 0.5945402
 74605979, 4.448636, 0.5017685, 0.5474488, 0.6524377, 4.549251, 0.3194774, 0.5820399, 0.6177023
 74805899, 4.358802, 0.8736755, 0.4967211, 0.6975626, 4.448636, 0.5017685, 0.5474488, 0.6524377
 75005819, 4.153263, 1.345178, 0.4224403, 0.7496266, 4.358802, 0.8736755, 0.4967211, 0.6975626
 75206572, 3.909023, 1.891225, 0.3172493, 0.8057113, 4.153263, 1.345178, 0.4224403, 0.7496266
 75406492, 3.469643, 2.383125, 0.1729572, 0.8512777, 3.909023, 1.891225, 0.3172493, 0.8057113
 75606412, 2.880633, 3.151984, -0.007817715, 0.8733639, 3.469643, 2.383125, 0.1729572, 0.8512777
 75806332, 2.142021, 3.792006, -0.2015272, 0.8559762, 2.880633, 3.151984, -0.007817715, 0.8733639
 76006252, 1.327063, 4.079744, -0.3818269, 0.7967442, 2.142021, 3.792006, -0.2015272, 0.8559762
 76206172, 0.5542608, 4.336597, -0.5133206, 0.7240838, 1.327063, 4.079744, -0.3818269, 0.7967442
 76406092, 0.07702059, 4.490765, -0.586695, 0.6730645, 0.5542608, 4.336597, -0.5133206, 0.7240838
 76606012, -0.1081789, 4.637204, -0.6172287, 0.6595547, 0.07702059, 4.490765, -0.586695, 0.6730645
 76805932, -0.0565003, 4.720934, -0.6162344, 0.6637716, -0.1081789, 4.637204, -0.6172287, 0.6595547
 77005852, 0.09324482, 4.846262, -0.6057437, 0.6785886, -0.0565003, 4.720934, -0.6162344, 0.6637716
 77205772, 0.2716774, 4.870669, -0.6009412, 0.6894385, 0.09324482, 4.846262, -0.6057437, 0.6785886
 77406525, 0.2501872, 4.977519, -0.6078405, 0.6923266, 0.2716774, 4.870669, -0.6009412, 0.6894385
 77606445, 0.1623137, 5.043809, -0.6258894, 0.6870699, 0.2501872, 4.977519, -0.6078405, 0.6923266
 77806365, 0.0279263, 5.149793, -0.6426153, 0.675912, 0.1623137, 5.043809, -0.6258894, 0.6870699
 78006285, -0.0871045, 5.157621, -0.6505529, 0.6648868, 0.0279263, 5.149793, -0.6426153, 0.675912
 78206205, -0.07143348, 5.269034, -0.6489486, 0.664162, -0.0871045, 5.157621, -0.6505529, 0.6648868
 78406125, -0.04759743, 5.321451, -0.6416725, 0.6689779, -0.07143348, 5.269034, -0.6489486, 0.664162
 78606045, -0.02508193, 5.341525, -0.6326895, 0.6743295, -0.04759743, 5.321451, -0.6416725, 0.6689779
 78805965, 0.0587614, 5.307871, -0.6254765, 0.6770402, -0.02508193, 5.341525, -0.6326895, 0.6743295
 79005885, 0.1045358, 5.393754, -0.6218037, 0.6789901, 0.0587614, 5.307871, -0.6254765, 0.6770402
 79205805, 0.05690158, 5.45383, -0.6209576, 0.6782739, 0.1045358, 5.393754, -0.6218037, 0.6789901
 79406558, 0.001427434, 5.373603, -0.6199107, 0.6724342, 0.05690158, 5.45383, -0.6209576, 0.6782739
 79606478, -0.02472925, 5.456965, -0.6180152, 0.6691394, 0.001427434, 5.373603, -0.6199107, 0.6724342
 79806398, 0.01763643, 5.462375, -0.6158658, 0.6673467, -0.02472925, 5.456965, -0.6180152, 0.6691394
 80006318, 0.08808945, 5.501999, -0.6139441, 0.6670363, 0.01763643, 5.462375, -0.6158658, 0.6673467
 80206238, 0.05031181, 5.480621, -0.6114199, 0.6642679, 0.08808945, 5.501999, -0.6139441, 0.6670363
 80406158, 0.01745708, 5.513494, -0.6127097, 0.6656337, 0.05031181, 5.480621, -0.6114199, 0.6642679
 80606078, 0.05578759, 5.477652, -0.6131476, 0.666606, 0.01745708, 5.513494, -0.6127097, 0.6656337
 80805998, 0.01866143, 5.509547, -0.6126011, 0.669655, 0.05578759, 5.477652, -0.6131476, 0.666606
 81005918, 0.01984718, 5.480577, -0.6118101, 0.6701441, 0.01866143, 5.509547, -0.6126011, 0.669655
 81205838, 0.06933691, 5.532413, -0.6131184, 0.6704922, 0.01984718, 5.480577, -0.6118101, 0.6701441
 81406591, 0.03580486, 5.469201, -0.6158911, 0.6684071, 0.06933691, 5.532413, -0.6131184, 0.6704922
 81606511, 0.004251015, 5.452488, -0.6177928, 0.6677605, 0.03580486, 5.469201, -0.6158911, 0.6684071
 81806431, 0.03438538, 5.449754, -0.618552, 0.6681324, 0.004251015, 5.452488, -0.6177928, 0.6677605
 82006351, 0.07187268, 5.446825, -0.6168878, 0.6679905, 0.03438538, 5.449754, -0.618552, 0.6681324
 82206271, 0.04440863, 5.3989, -0.6150358, 0.6667164, 0.07187268, 5.446825, -0.6168878, 0.6679905
 82406191, -0.0002246797, 5.4805, -0.6148671, 0.6682054, 0.04440863, 5.3989, -0.6150358, 0.6667164
 82606111, 0.06321539, 5.470488, -0.6166251, 0.669242, -0.0002246797, 5.4805, -0.6148671, 0.6682054
 82806031, 0.1086068, 5.444889, -0.6180681, 0.6690645, 0.06321539, 5.470488, -0.6166251, 0.669242
 83005951, 0.1200726, 5.543983, -0.6203029, 0.6701019, 0.1086068, 5.444889, -0.6180681, 0.6690645
 83205871, 0.06651998, 5.525109, -0.6207292, 0.6664602, 0.1200726, 5.543983, -0.6203029, 0.6701019
 83405791, -0.0101414, 5.504281, -0.622381, 0.6644713, 0.06651998, 5.525109, -0.6207292, 0.6664602
 83606544, -0.0427433, 5.551111, -0.6223486, 0.6648355, -0.0101414, 5.504281, -0.622381, 0.6644713
 83806464, 0.01225764, 5.56742, -0.6215345, 0.6669987, -0.0427433, 5.551111, -0.6223486, 0.6648355
 84006384, 0.005789431, 5.515105, -0.6180888, 0.6676027, 0.01225764, 5.56742, -0.6215345, 0.6669987
 84206304, 0.01015101, 5.623668, -0.618839, 0.6729294, 0.005789431, 5.515105, -0.6180888, 0.6676027
 84406224, 0.07721663, 5.535182, -0.6202968, 0.6715245, 0.01015101, 5.623668, -0.618839, 0.6729294
 84606144, 0.05053119, 5.591588, -0.6228756, 0.6718611, 0.07721663, 5.535182, -0.6202968, 0.6715245
 84806064, 0.02330538, 5.633409, -0.6249302, 0.6724983, 0.05053119, 5.591588, -0.6228756, 0.6718611
 85005984, -0.04535978, 5.633718, -0.6229055, 0.6710401, 0.02330538, 5.633409, -0.6249302, 0.6724983
 85205904, -0.001569188, 5.658847, -0.6217731, 0.6718165, -0.04535978, 5.633718, -0.6229055, 0.6710401
 85405824, 0.04467745, 5.572412, -0.6197201, 0.6701262, -0.001569188, 5.658847, -0.6217731, 0.6718165
 85606577, 0.02910993, 5.534113, -0.6178762, 0.6691416, 0.04467745, 5.572412, -0.6197201, 0.6701262
 85806497, 0.06730699, 5.582708, -0.6151133, 0.6674712, 0.02910993, 5.534113, -0.6178762, 0.6691416
 86006417, 0.02956007, 5.530873, -0.6151391, 0.6646786, 0.06730699, 5.582708, -0.6151133, 0.6674712
 86206337, 0.02103399, 5.532458, -0.6151882, 0.6623431, 0.02956007, 5.530873, -0.6151391, 0.6646786
 86406257, 0.03979247, 5.527191, -0.6185735, 0.662694, 0.02103399, 5.532458, -0.6151882, 0.6623431
 86606177, 0.02828822, 5.569651, -0.6217934, 0.6641433, 0.03979247, 5.527191, -0.6185735, 0.662694
 86806097, -0.04507781, 5.599955, -0.6207241, 0.6636599, 0.02828822, 5.569651, -0.6217934, 0.6641433
 87006017, -0.03919177, 5.527364, -0.6193392, 0.663025, -0.04507781, 5.599955, -0.6207241, 0.6636599
 87205937, -0.06488529, 5.536177, -0.6170474, 0.6632822, -0.03919177, 5.527364, -0.6193392, 0.663025
 87405857, -0.02330854, 5.566426, -0.6161528, 0.6648121, -0.06488529, 5.536177, -0.6170474, 0.6632822
 87605777, 0.006594747, 5.556671, -0.6122995, 0.6631464, -0.02330854, 5.566426, -0.6161528, 0.6648121
 87806530, 0.04374791, 5.60391, -0.6110355, 0.6638385, 0.006594747, 5.556671, -0.6122995, 0.6631464
 88006450, -0.02777766, 5.55916, -0.6119928, 0.6631417, 0.04374791, 5.60391, -0.6110355, 0.6638385
 88206370, -0.006639929, 5.506999, -0.6144123, 0.6626074, -0.02777766, 5.55916, -0.6119928, 0.6631417
 88406290, 0.00690351, 5.53259, -0.61448, 0.6626824, -0.006639929, 5.506999, -0.6144123, 0.6626074
 88606210, -0.01283782, 5.578861, -0.6123662, 0.6629496, 0.00690351, 5.53259, -0.61448, 0.6626824
 88806130, -0.04723813, 5.550317, -0.6095009, 0.6628271, -0.01283782, 5.578861, -0.6123662, 0.6629496
 89006050, 0.02270645, 5.58152, -0.6084933, 0.6655813, -0.04723813, 5.550317, -0.6095009, 0.6628271
 89205970, 0.03441442, 5.50389, -0.6088234, 0.6656438, 0.02270645, 5.58152, -0.6084933, 0.6655813
 89405890, 0.1076574, 5.537442, -0.6096749, 0.6660642, 0.03441442, 5.50389, -0.6088234, 0.6656438
 89605810, 0.04377416, 5.48526, -0.6089095, 0.6629052, 0.1076574, 5.537442, -0.6096749, 0.6660642
 89806563, 0.04147583, 5.462997, -0.6084144, 0.6607853, 0.04377416, 5.48526, -0.6089095, 0.6629052
 90006483, -0.00171718, 5.515071, -0.610037, 0.6622068, 0.04147583, 5.462997, -0.6084144, 0.6607853
 90206403, -0.1079258, 8.648302, -0.6119847, 0.7247172, -0.00171718, 5.515071, -0.610037, 0.6622068
 90406323, 0.5778186, 9.085945, -0.6153997, 0.7350792, -0.1079258, 8.648302, -0.6119847, 0.7247172
 90606243, -0.1798839, 8.556619, -0.6176485, 0.7231625, 0.5778186, 9.085945, -0.6153997, 0.7350792
 90806163, 0.2971613, 9.115243, -0.6218839, 0.7375994, -0.1798839, 8.556619, -0.6176485, 0.7231625
 91006083, 0.7919226, 8.206596, -0.6272212, 0.7191834, 0.2971613, 9.115243, -0.6218839, 0.7375994
 91206003, 0.7804046, 8.1221, -0.6277876, 0.719105, 0.7919226, 8.206596, -0.6272212, 0.7191834
 91405923, 0.5494496, 8.445745, -0.6260678, 0.7284211, 0.7804046, 8.1221, -0.6277876, 0.719105
 91605843, -0.1022692, 9.201727, -0.6251092, 0.7496053, 0.5494496, 8.445745, -0.6260678, 0.7284211
 91805763, 0.4922537, 8.365706, -0.6252663, 0.7335349, -0.1022692, 9.201727, -0.6251092, 0.7496053
 92006516, 0.2423681, 9.276285, -0.6259649, 0.7582028, 0.4922537, 8.365706, -0.6252663, 0.7335349
 92206436, -0.16317, 8.832139, -0.628611, 0.7505965, 0.2423681, 9.276285, -0.6259649, 0.7582028
 92406356, 0.4253865, 8.352429, -0.6345048, 0.7432657, -0.16317, 8.832139, -0.628611, 0.7505965
 92606276, 0.4651929, 8.660429, -0.6388905, 0.7510135, 0.4253865, 8.352429, -0.6345048, 0.7432657
 92806196, 0.4488338, 9.109771, -0.6414266, 0.7598723, 0.4651929, 8.660429, -0.6388905, 0.7510135
 93006116, 0.8708266, 8.22227, -0.6492496, 0.739938, 0.4488338, 9.109771, -0.6414266, 0.7598723
 93206036, 0.2146558, 8.418156, -0.6519324, 0.7446659, 0.8708266, 8.22227, -0.6492496, 0.739938
 93405956, 0.7965731, 8.733147, -0.6575759, 0.7542884, 0.2146558, 8.418156, -0.6519324, 0.7446659
 93605876, -0.07947716, 8.44633, -0.6561784, 0.7510062, 0.7965731, 8.733147, -0.6575759, 0.7542884
 93805796, 0.1413655, 8.394662, -0.6537329, 0.7522668, -0.07947716, 8.44633, -0.6561784, 0.7510062
 94006549, 0.6629339, 9.003783, -0.6551891, 0.7688995, 0.1413655, 8.394662, -0.6537329, 0.7522668
 94206469, 0.1958311, 8.322104, -0.657091, 0.7556217, 0.6629339, 9.003783, -0.6551891, 0.7688995
 94406389, 0.4693562, 8.605125, -0.6616736, 0.7626839, 0.1958311, 8.322104, -0.657091, 0.7556217
 94606309, 0.6250436, 8.242852, -0.666751, 0.7559698, 0.4693562, 8.605125, -0.6616736, 0.7626839
 94806229, -0.02779571, 9.014456, -0.6691703, 0.7741028, 0.6250436, 8.242852, -0.666751, 0.7559698
 95006149, 0.03387, 8.205263, -0.6656545, 0.7545377, -0.02779571, 9.014456, -0.6691703, 0.7741028
 95206069, 0.05626617, 9.000199, -0.6608133, 0.7723204, 0.03387, 8.205263, -0.6656545, 0.7545377
 95405989, 0.4749154, 9.257962, -0.6539485, 0.7790803, 0.05626617, 9.000199, -0.6608133, 0.7723204
 95605909, 0.0625599, 9.182528, -0.6469628, 0.7767431, 0.4749154, 9.257962, -0.6539485, 0.7790803
 95805829, 0.4504864, 9.075569, -0.6447467, 0.7741033, 0.0625599, 9.182528, -0.6469628, 0.7767431
 96006582, 0.610957, 8.341397, -0.6428939, 0.7556952, 0.4504864, 9.075569, -0.6447467, 0.7741033
 96206502, 0.628801, 8.179275, -0.6385385, 0.7494389, 0.610957, 8.341397, -0.6428939, 0.7556952
 96406422, -0.2325101, 8.456059, -0.6324408, 0.7535582, 0.628801, 8.179275, -0.6385385, 0.7494389
 96606342, 0.7360949, 8.451752, -0.6279099, 0.7514917, -0.2325101, 8.456059, -0.6324408, 0.7535582
 96806262, 0.1696749, 7.767331, -0.6216466, 0.7313539, 0.7360949, 8.451752, -0.6279099, 0.7514917
 97006182, 0.2965375, 7.18949, -0.6178898, 0.7142586, 0.1696749, 7.767331, -0.6216466, 0.7313539
 97206102, -0.180713, 7.119115, -0.6156002, 0.7101219, 0.2965375, 7.18949, -0.6178898, 0.7142586
 97406022, 0.3739349, 6.997331, -0.6176481, 0.7056887, -0.180713, 7.119115, -0.6156002, 0.7101219
 97605942, -0.3313603, 6.736319, -0.6229122, 0.6956921, 0.3739349, 6.997331, -0.6176481, 0.7056887
 97805862, 0.4905367, 5.917421, -0.6350424, 0.6667347, -0.3313603, 6.736319, -0.6229122, 0.6956921
 98005782, 0.0005669892, 5.519115, -0.6557752, 0.6389529, 0.4905367, 5.917421, -0.6350424, 0.6667347
 98206535, -0.09030578, 4.601561, -0.6882571, 0.5895291, 0.0005669892, 5.519115, -0.6557752, 0.6389529
 98406455, -1.06176, 4.714621, -0.7352312, 0.5437621, -0.09030578, 4.601561, -0.6882571, 0.5895291
 98606375, -1.460619, 4.485371, -0.7916204, 0.4682518, -1.06176, 4.714621, -0.7352312, 0.5437621
 98806295, -1.967805, 4.299619, -0.8524956, 0.3600188, -1.460619, 4.485371, -0.7916204, 0.4682518
 99006215, -2.604531, 3.827177, -0.9057124, 0.2122424, -1.967805, 4.299619, -0.8524956, 0.3600188
 99206135, -3.342057, 3.177131, -0.934792, 0.02876532, -2.604531, 3.827177, -0.9057124, 0.2122424
 99406055, -4.059934, 2.314234, -0.9222468, -0.1792812, -3.342057, 3.177131, -0.934792, 0.02876532
 99605975, -4.552203, 1.408688, -0.8701522, -0.3746468, -4.059934, 2.314234, -0.9222468, -0.1792812
 99805895, -4.764824, 0.651487, -0.7965583, -0.5278673, -4.552203, 1.408688, -0.8701522, -0.3746468
 100005815, -4.899535, 0.02776758, -0.7330552, -0.6211941, -4.764824, 0.651487, -0.7965583, -0.5278673
 100206568, -5.059149, -0.2475195, -0.7055342, -0.6589468, -4.899535, 0.02776758, -0.7330552, -0.6211941
 100406488, -5.103617, -0.2299417, -0.7050728, -0.6631207, -5.059149, -0.2475195, -0.7055342, -0.6589468
 100606408, -5.139699, -0.1505279, -0.7189115, -0.6547285, -5.103617, -0.2299417, -0.7050728, -0.6631207
 100806328, -5.282112, 0.09785361, -0.7397752, -0.6438483, -5.139699, -0.1505279, -0.7189115, -0.6547285
 101006248, -5.300119, 0.2360666, -0.7502697, -0.6442695, -5.282112, 0.09785361, -0.7397752, -0.6438483
 101206168, -5.454706, 0.155363, -0.7492693, -0.6578112, -5.300119, 0.2360666, -0.7502697, -0.6442695
 101406088, -5.517455, -0.01463923, -0.7388813, -0.6792796, -5.454706, 0.155363, -0.7492693, -0.6578112
 101606008, -5.619793, -0.2191644, -0.7277244, -0.6969868, -5.517455, -0.01463923, -0.7388813, -0.6792796
 101805928, -5.745706, -0.2399538, -0.7224485, -0.7049676, -5.619793, -0.2191644, -0.7277244, -0.6969868
 102005848, -5.699501, -0.1903746, -0.7220005, -0.7035284, -5.745706, -0.2399538, -0.7224485, -0.7049676
 102205768, -5.801614, -0.1920936, -0.7290626, -0.6954897, -5.699501, -0.1903746, -0.7220005, -0.7035284
 102406521, -5.864342, -0.1030219, -0.7373962, -0.6857957, -5.801614, -0.1920936, -0.7290626, -0.6954897
 102606441, -5.82117, -0.1179259, -0.7440317, -0.6803197, -5.864342, -0.1030219, -0.7373962, -0.6857957
 102806361, -5.852764, -0.02625066, -0.7477069, -0.678691, -5.82117, -0.1179259, -0.7440317, -0.6803197
 103006281, -5.839211, -0.06024875, -0.7464843, -0.6808045, -5.852764, -0.02625066, -0.7477069, -0.678691
 103206201, -5.944097, 0.02640968, -0.7438563, -0.6831355, -5.839211, -0.06024875, -0.7464843, -0.6808045
 103406121, -5.925453, -0.05618644, -0.7398092, -0.6848186, -5.944097, 0.02640968, -0.7438563, -0.6831355
 103606041, -5.931145, -0.1324282, -0.7381846, -0.6854326, -5.925453, -0.05618644, -0.7398092, -0.6848186
 103805961, -5.977683, -0.06170073, -0.7378947, -0.6826137, -5.931145, -0.1324282, -0.7381846, -0.6854326
 104005881, -6.01187, -0.07732705, -0.7417574, -0.682499, -5.977683, -0.06170073, -0.7378947, -0.6826137
 104205801, -6.026615, -0.01281494, -0.7459636, -0.683581, -6.01187, -0.07732705, -0.7417574, -0.682499
 104406554, -6.000874, -0.01106224, -0.7503294, -0.6869267, -6.026615, -0.01281494, -0.7459636, -0.683581
 104606474, -6.077381, 0.07428566, -0.7545325, -0.6908771, -6.000874, -0.01106224, -0.7503294, -0.6869267
 104806394, -6.177421, -0.02201396, -0.7559939, -0.6941252, -6.077381, 0.07428566, -0.7545325, -0.6908771
 105006314, -6.152691, -0.08274599, -0.7562782, -0.6987498, -6.177421, -0.02201396, -0.7559939, -0.6941252
 105206234, -6.133933, -0.1344496, -0.7576189, -0.7038159, -6.152691, -0.08274599, -0.7562782, -0.6987498
 105406154, -6.131464, -0.1503454, -0.7581854, -0.7059395, -6.133933, -0.1344496, -0.7576189, -0.7038159
 105606074, -6.245605, -0.2120974, -0.7608134, -0.7070276, -6.131464, -0.1503454, -0.7581854, -0.7059395
 105805994, -6.188179, -0.2043826, -0.7622701, -0.7101232, -6.245605, -0.2120974, -0.7608134, -0.7070276
 106005914, -6.192935, -0.2246266, -0.7634079, -0.7106244, -6.188179, -0.2043826, -0.7622701, -0.7101232
 106205834, -6.190333, -0.2197222, -0.7649783, -0.7104467, -6.192935, -0.2246266, -0.7634079, -0.7106244
 106406587, -6.291688, -0.1835658, -0.7707772, -0.7132293, -6.190333, -0.2197222, -0.7649783, -0.7104467
 106606507, -6.301835, -0.1565576, -0.7719637, -0.7152042, -6.291688, -0.1835658, -0.7707772, -0.7132293
 106806427, -6.36298, -0.03331846, -0.7745573, -0.7186453, -6.301835, -0.1565576, -0.7719637, -0.7152042
 107006347, -6.356352, -0.07619596, -0.7747276, -0.7199039, -6.36298, -0.03331846, -0.7745573, -0.7186453
 107206267, -6.329426, -0.1242636, -0.7738315, -0.7223043, -6.356352, -0.07619596, -0.7747276, -0.7199039
 107406187, -6.290677, -0.07593236, -0.7733952, -0.7260786, -6.329426, -0.1242636, -0.7738315, -0.7223043
 107606107, -6.32173, -0.1149734, -0.7738524, -0.7261905, -6.290677, -0.07593236, -0.7733952, -0.7260786
 107806027, -6.342797, -0.1325123, -0.7724857, -0.7200148, -6.32173, -0.1149734, -0.7738524, -0.7261905
 108005947, -6.284943, -0.1306112, -0.770152, -0.7127551, -6.342797, -0.1325123, -0.7724857, -0.7200148
 108205867, -6.216834, -0.1683639, -0.766508, -0.7055833, -6.284943, -0.1306112, -0.770152, -0.7127551
 108405787, -6.232201, -0.1774841, -0.7642467, -0.7009837, -6.216834, -0.1683639, -0.766508, -0.7055833
 108606540, -6.172499, -0.08673346, -0.7578113, -0.694862, -6.232201, -0.1774841, -0.7642467, -0.7009837
 108806460, -6.189776, -0.003660826, -0.7544845, -0.6903244, -6.172499, -0.08673346, -0.7578113, -0.694862
 109006380, -6.143477, -0.01715364, -0.7464202, -0.6816733, -6.189776, -0.003660826, -0.7544845, -0.6903244
 109206300, -5.995915, -0.02927324, -0.7376447, -0.6738812, -6.143477, -0.01715364, -0.7464202, -0.6816733
 109406220, -5.872742, -0.1254105, -0.7313209, -0.6678039, -5.995915, -0.02927324, -0.7376447, -0.6738812
 109606140, -5.845063, -0.06970534, -0.7262782, -0.6620502, -5.872742, -0.1254105, -0.7313209, -0.6678039
 109806060, -5.743538, -0.06903814, -0.7190965, -0.656812, -5.845063, -0.06970534, -0.7262782, -0.6620502
 110005980, -5.641098, -0.09433983, -0.7125104, -0.6528442, -5.743538, -0.06903814, -0.7190965, -0.656812
 110205900, -5.539881, -0.1134623, -0.7063862, -0.6516266, -5.641098, -0.09433983, -0.7125104, -0.6528442
 110405820, -5.343772, -0.1681969, -0.69666, -0.6553181, -5.539881, -0.1134623, -0.7063862, -0.6516266
 110606573, -5.216825, -0.1986633, -0.6823904, -0.6663567, -5.343772, -0.1681969, -0.69666, -0.6553181
 110806493, -5.10097, -0.3464048, -0.6586694, -0.6870664, -5.216825, -0.1986633, -0.6823904, -0.6663567
 111006413, -4.981213, -0.626864, -0.6218361, -0.7214746, -5.10097, -0.3464048, -0.6586694, -0.6870664
 111206333, -4.840006, -0.8941315, -0.5664872, -0.767032, -4.981213, -0.626864, -0.6218361, -0.7214746
 111406253, -4.645939, -1.381851, -0.4866052, -0.8227737, -4.840006, -0.8941315, -0.5664872, -0.767032
 111606173, -4.313036, -2.003141, -0.3739538, -0.8820288, -4.645939, -1.381851, -0.4866052, -0.8227737
 111806093, -3.925829, -2.646681, -0.2253664, -0.9360635, -4.313036, -2.003141, -0.3739538, -0.8820288
 112006013, -3.3362, -3.412194, -0.03659198, -0.967653, -3.925829, -2.646681, -0.2253664, -0.9360635
 112205933, -2.570339, -4.077154, 0.1761822, -0.9546285, -3.3362, -3.412194, -0.03659198, -0.967653
 112405853, -1.567794, -4.597675, 0.3787736, -0.8982786, -2.570339, -4.077154, 0.1761822, -0.9546285
 112605773, -0.6273477, -4.807585, 0.5369868, -0.8184304, -1.567794, -4.597675, 0.3787736, -0.8982786
 112806526, -0.127189, -4.915653, 0.6339286, -0.7514768, -0.6273477, -4.807585, 0.5369868, -0.8184304
 113006446, 0.08362027, -5.104027, 0.6762541, -0.722587, -0.127189, -4.915653, 0.6339286, -0.7514768
 113206366, 0.1382598, -5.138267, 0.6798933, -0.7230383, 0.08362027, -5.104027, 0.6762541, -0.722587
 113406286, 0.03108288, -5.316211, 0.6690311, -0.7418494, 0.1382598, -5.138267, 0.6798933, -0.7230383
 113606206, -0.179831, -5.442203, 0.6617752, -0.7566288, 0.03108288, -5.316211, 0.6690311, -0.7418494
 113806126, -0.1086367, -5.498598, 0.669724, -0.7596529, -0.179831, -5.442203, 0.6617752, -0.7566288
 114006046, 0.01206569, -5.541031, 0.6860968, -0.7489139, -0.1086367, -5.498598, 0.669724, -0.7596529
 114205966, 0.1994754, -5.575243, 0.6986987, -0.7309637, 0.01206569, -5.541031, 0.6860968, -0.7489139
 114405886, 0.3245485, -5.679686, 0.7034029, -0.7201295, 0.1994754, -5.575243, 0.6986987, -0.7309637
 114605806, 0.2911132, -5.70165, 0.700816, -0.7204511, 0.3245485, -5.679686, 0.7034029, -0.7201295
 114806559, 0.1540523, -5.730226, 0.6915711, -0.7272539, 0.2911132, -5.70165, 0.700816, -0.7204511
 115006479, 0.1119674, -5.716543, 0.679423, -0.7335035, 0.1540523, -5.730226, 0.6915711, -0.7272539
 115206399, 0.09187108, -5.782551, 0.669857, -0.7388087, 0.1119674, -5.716543, 0.679423, -0.7335035
 115406319, -0.05813102, -5.810019, 0.6666527, -0.7386977, 0.09187108, -5.782551, 0.669857, -0.7388087
 115606239, -0.01002466, -5.918136, 0.6679024, -0.7347333, -0.05813102, -5.810019, 0.6666527, -0.7386977
 115806159, -0.02209457, -5.838235, 0.6717586, -0.7264138, -0.01002466, -5.918136, 0.6679024, -0.7347333
 116006079, 0.02457573, -5.843348, 0.673078, -0.7194831, -0.02209457, -5.838235, 0.6717586, -0.7264138
 116205999, 0.05830035, -5.918182, 0.6701123, -0.7160574, 0.02457573, -5.843348, 0.673078, -0.7194831
 116405919, 0.1198661, -5.866286, 0.6639225, -0.7135558, 0.05830035, -5.918182, 0.6701123, -0.7160574
 116605839, 0.1296076, -5.78157, 0.6568312, -0.7134222, 0.1198661, -5.866286, 0.6639225, -0.7135558
 116806592, 0.09936097, -5.732321, 0.6504031, -0.7137132, 0.1296076, -5.78157, 0.6568312, -0.7134222
 117006512, 0.05836517, -5.752279, 0.6474776, -0.7143074, 0.09936097, -5.732321, 0.6504031, -0.7137132
 117206432, -0.03998032, -5.83013, 0.647581, -0.713821, 0.05836517, -5.752279, 0.6474776, -0.7143074
 117406352, 0.06922092, -5.765154, 0.649219, -0.7092697, -0.03998032, -5.83013, 0.647581, -0.713821
 117606272, 0.1178434, -5.76532, 0.6480969, -0.7037593, 0.06922092, -5.765154, 0.649219, -0.7092697
 117806192, 0.1097196, -5.721367, 0.6468496, -0.6995441, 0.1178434, -5.76532, 0.6480969, -0.7037593
 118006112, 0.03313077, -5.743335, 0.6457812, -0.6978862, 0.1097196, -5.721367, 0.6468496, -0.6995441
 118206032, 0.09865075, -5.786754, 0.6459503, -0.6989165, 0.03313077, -5.743335, 0.6457812, -0.6978862
 118405952, 0.04380379, -5.803754, 0.6438579, -0.699223, 0.09865075, -5.786754, 0.6459503, -0.6989165
 118605872, 0.07345589, -5.840038, 0.6396418, -0.6982181, 0.04380379, -5.803754, 0.6438579, -0.699223
 118805792, 0.009233264, -5.768611, 0.635699, -0.6938487, 0.07345589, -5.840038, 0.6396418, -0.6982181
 119006545, 0.0825673, -5.809637, 0.6355379, -0.6924187, 0.009233264, -5.768611, 0.635699, -0.6938487
 119206465, 0.08150025, -5.77578, 0.6379457, -0.6901038, 0.0825673, -5.809637, 0.6355379, -0.6924187
 119406385, 0.04510441, -5.691502, 0.6386246, -0.6849432, 0.08150025, -5.77578, 0.6379457, -0.6901038
 119606305, 0.1373044, -5.734188, 0.6397663, -0.6839257, 0.04510441, -5.691502, 0.6386246, -0.6849432
 119806225, 0.1396319, -5.715193, 0.6352669, -0.6807764, 0.1373044, -5.734188, 0.6397663, -0.6839257
 120006145, 0.08680839, -5.659473, 0.6305035, -0.6790019, 0.1396319, -5.715193, 0.6352669, -0.6807764
 120206065, 0.05726677, -5.652047, 0.626578, -0.6797534, 0.08680839, -5.659473, 0.6305035, -0.6790019
 120405985, -0.02588227, -5.684565, 0.6221172, -0.6801167, 0.05726677, -5.652047, 0.626578, -0.6797534
 120605905, 0.02994197, -5.687259, 0.6180543, -0.678661, -0.02588227, -5.684565, 0.6221172, -0.6801167
 120805825, 0.07934363, -5.6431, 0.6142278, -0.6754157, 0.02994197, -5.687259, 0.6180543, -0.678661
 121006578, 0.03982747, -5.642803, 0.6111657, -0.6725383, 0.07934363, -5.6431, 0.6142278, -0.6754157
 121206498, 0.02969297, -5.651001, 0.6087363, -0.6688261, 0.03982747, -5.642803, 0.6111657, -0.6725383
 121406418, 0.06518184, -5.630717, 0.6088811, -0.6654705, 0.02969297, -5.651001, 0.6087363, -0.6688261
 121606338, 0.07620385, -5.661779, 0.6076515, -0.6621155, 0.06518184, -5.630717, 0.6088811, -0.6654705
 121806258, 0.05971832, -5.619268, 0.6076908, -0.6603113, 0.07620385, -5.661779, 0.6076515, -0.6621155
 122006178, 0.07205042, -5.598729, 0.6060787, -0.6583616, 0.05971832, -5.619268, 0.6076908, -0.6603113
 122206098, 0.03309152, -5.615856, 0.607685, -0.6596721, 0.07205042, -5.598729, 0.6060787, -0.6583616
 122406018, 0.1112768, -5.632902, 0.6095428, -0.6612665, 0.03309152, -5.615856, 0.607685, -0.6596721
 122605938, 0.1529049, -5.611583, 0.6095639, -0.6603388, 0.1112768, -5.632902, 0.6095428, -0.6612665
 122805858, 0.0592554, -5.524489, 0.6099199, -0.6589545, 0.1529049, -5.611583, 0.6095639, -0.6603388
 123005778, 0.03173478, -5.602202, 0.6110031, -0.6606982, 0.0592554, -5.524489, 0.6099199, -0.6589545
 123206531, 0.0739527, -5.627177, 0.6119179, -0.6610824, 0.03173478, -5.602202, 0.6110031, -0.6606982
 123406451, 0.1055656, -5.571506, 0.6133327, -0.6604111, 0.0739527, -5.627177, 0.6119179, -0.6610824
