TimeUS,COFN,COFE,CNe,CEe,POFN,POFE,PNe,PEe
 8425795, 0.001468834, 0.01468042, 0.01976104, -0.03124137, 0, 0, 0, 0
 8606556, -0.001022073, 0.002944859, 0.01981312, -0.03116922, 0.001468834, 0.01468042, 0.01976104, -0.03124137
 8806476, 0.0004596444, 0.00526663, 0.02013501, -0.03096571, -0.001022073, 0.002944859, 0.01981312, -0.03116922
 9006396, 0.0006394697, 0.005311148, 0.02068199, -0.03060322, 0.0004596444, 0.00526663, 0.02013501, -0.03096571
 9206316, -0.0007397359, 0.002987267, 0.02130869, -0.03016648, 0.0006394697, 0.005311148, 0.02068199, -0.03060322
 9406236, -0.004326323, 0.0008389795, 0.02192088, -0.02972656, -0.0007397359, 0.002987267, 0.02130869, -0.03016648
 9606156, -0.002543308, 0.000213005, 0.02247328, -0.02930859, -0.004326323, 0.0008389795, 0.02192088, -0.02972656
 9806076, -0.002156785, 0.001110284, 0.02297377, -0.02891782, -0.002543308, 0.000213005, 0.02247328, -0.02930859
 10005996, -0.002656176, 0.003653374, 0.02343054, -0.02855197, -0.002156785, 0.001110284, 0.02297377, -0.02891782
 10205916, -0.001890064, 0.003867594, 0.02385144, -0.02820092, -0.002656176, 0.003653374, 0.02343054, -0.02855197
 10405836, -0.002881273, 0.003341964, 0.02424171, -0.02786635, -0.001890064, 0.003867594, 0.02385144, -0.02820092
 10606589, -0.0009328577, 0.00546439, 0.02459672, -0.02755591, -0.002881273, 0.003341964, 0.02424171, -0.02786635
 10806509, -0.003490184, 0.01220049, 0.02492661, -0.02728592, -0.0009328577, 0.00546439, 0.02459672, -0.02755591
 11006429, 0.01944314, 0.001906276, 0.02531617, -0.02697295, -0.003490184, 0.01220049, 0.02492661, -0.02728592
 11206349, -0.0188413, -0.000875524, 0.02558569, -0.02671173, 0.01944314, 0.001906276, 0.02531617, -0.02697295
 11406269, -0.02145405, 0.01361336, 0.02586035, -0.0265102, -0.0188413, -0.000875524, 0.02558569, -0.02671173
 11606189, -0.004721944, -0.01591489, 0.02598705, -0.02630353, -0.02145405, 0.01361336, 0.02586035, -0.0265102
 11806109, 0.01934591, 0.001264693, 0.02627122, -0.02604233, -0.004721944, -0.01591489, 0.02598705, -0.02630353
 12006029, -0.009939783, -0.014195, 0.02639611, -0.02589862, 0.01934591, 0.001264693, 0.02627122, -0.02604233
 12205949, 0.01188045, -0.006682509, 0.02657219, -0.02569176, -0.009939783, -0.014195, 0.02639611, -0.02589862
 12405869, -0.01110299, 0.004114074, 0.02671868, -0.0255289, 0.01188045, -0.006682509, 0.02657219, -0.02569176
 12605789, 0.006079161, -0.02119434, 0.026836, -0.02548538, -0.01110299, 0.004114074, 0.02671868, -0.0255289
 12806542, 0.002612765, -0.02189537, 0.02695236, -0.02536231, 0.006079161, -0.02119434, 0.026836, -0.02548538
 13006462, 0.01505062, -0.01165028, 0.02710784, -0.02516715, 0.002612765, -0.02189537, 0.02695236, -0.02536231
 13206382, -0.009355704, -0.0216096, 0.02718205, -0.02513194, 0.01505062, -0.01165028, 0.02710784, -0.02516715
 13406302, 0.008553432, -0.006383772, 0.0272556, -0.02494866, -0.009355704, -0.0216096, 0.02718205, -0.02513194
 13606222, 0.01792241, -0.01782447, 0.02738466, -0.02493091, 0.008553432, -0.006383772, 0.0272556, -0.02494866
 13806142, -0.01127585, 0.01435237, 0.02741032, -0.02483048, 0.01792241, -0.01782447, 0.02738466, -0.02493091
 14006062, 0.004819213, -0.006230018, 0.02744669, -0.02472597, -0.01127585, 0.01435237, 0.02741032, -0.02483048
 14205982, -0.01546247, 0.0008794436, 0.02754714, -0.02465639, 0.004819213, -0.006230018, 0.02744669, -0.02472597
 14405902, -0.003903215, -0.005968321, 0.0275443, -0.02461451, -0.01546247, 0.0008794436, 0.02754714, -0.02465639
 14605822, 0.01836992, 0.01174175, 0.02766233, -0.0245834, -0.003903215, -0.005968321, 0.0275443, -0.02461451
 14806575, -0.001645173, 0.01417034, 0.02761829, -0.02456798, 0.01836992, 0.01174175, 0.02766233, -0.0245834
 15006495, -0.009868128, -0.01809484, 0.02767794, -0.02455375, -0.001645173, 0.01417034, 0.02761829, -0.02456798
 15206415, -0.009474901, -0.01413011, 0.02769879, -0.0244978, -0.009868128, -0.01809484, 0.02767794, -0.02455375
 15406335, -0.01177677, -0.01146675, 0.02773047, -0.0244573, -0.009474901, -0.01413011, 0.02769879, -0.0244978
 15606255, -0.0105567, -0.01336243, 0.02774369, -0.02444708, -0.01177677, -0.01146675, 0.02773047, -0.0244573
 15806175, -0.01017893, -0.01364825, 0.02775741, -0.02443146, -0.0105567, -0.01336243, 0.02774369, -0.02444708
 16006095, -0.009489801, -0.01513699, 0.0277674, -0.02442715, -0.01017893, -0.01364825, 0.02775741, -0.02443146
 16206015, -0.007628161, -0.01400673, 0.02776901, -0.02440974, -0.009489801, -0.01513699, 0.0277674, -0.02442715
 16405935, -0.01048475, -0.01025168, 0.02778704, -0.02437973, -0.007628161, -0.01400673, 0.02776901, -0.02440974
 16605855, -0.009250808, -0.01328816, 0.02778972, -0.02438803, -0.01048475, -0.01025168, 0.02778704, -0.02437973
 16805775, -0.008659119, -0.01748162, 0.02779674, -0.02440855, -0.009250808, -0.01328816, 0.02778972, -0.02438803
 17006528, -0.007333452, -0.0161743, 0.02779492, -0.02439492, -0.008659119, -0.01748162, 0.02779674, -0.02440855
 17206448, -0.01099819, -0.01763767, 0.02781386, -0.02440143, -0.007333452, -0.0161743, 0.02779492, -0.02439492
 17406368, -0.01163912, -0.01322078, 0.02781346, -0.02437255, -0.01099819, -0.01763767, 0.02781386, -0.02440143
 17606288, -0.00773882, -0.00984857, 0.02779141, -0.02436074, -0.01163912, -0.01322078, 0.02781346, -0.02437255
 17806208, -0.009559105, -0.01153374, 0.02779716, -0.02437046, -0.00773882, -0.00984857, 0.02779141, -0.02436074
 18006128, -0.008962334, -0.0164196, 0.02779421, -0.02440405, -0.009559105, -0.01153374, 0.02779716, -0.02437046
 18206048, -0.01056614, -0.01518358, 0.02779621, -0.02439991, -0.008962334, -0.0164196, 0.02779421, -0.02440405
 18405968, -0.01073528, -0.01425857, 0.02779131, -0.0243998, -0.01056614, -0.01518358, 0.02779621, -0.02439991
 18605888, -0.01150014, -0.01399245, 0.02778923, -0.02440445, -0.01073528, -0.01425857, 0.02779131, -0.0243998
 18805808, -0.01350208, -0.01357272, 0.0277939, -0.0244084, -0.01150014, -0.01399245, 0.02778923, -0.02440445
 19006561, -0.01172788, -0.009409831, 0.02777363, -0.02439768, -0.01350208, -0.01357272, 0.0277939, -0.0244084
 19206481, -0.01153416, -0.01311828, 0.02776828, -0.02442278, -0.01172788, -0.009409831, 0.02777363, -0.02439768
 19406401, -0.009222912, -0.01490215, 0.02774983, -0.02444422, -0.01153416, -0.01311828, 0.02776828, -0.02442278
 19606321, -0.009523619, -0.01528061, 0.02774277, -0.02445633, -0.009222912, -0.01490215, 0.02774983, -0.02444422
 19806241, -0.01009315, -0.01285324, 0.02773492, -0.02445152, -0.009523619, -0.01528061, 0.02774277, -0.02445633
 20006161, -0.01081663, -0.0132795, 0.02772973, -0.0244637, -0.01009315, -0.01285324, 0.02773492, -0.02445152
 20206081, -0.00999904, -0.01183833, 0.02771515, -0.02446745, -0.01081663, -0.0132795, 0.02772973, -0.0244637
 20406001, -0.01164013, -0.01471091, 0.02771612, -0.02449318, -0.00999904, -0.01183833, 0.02771515, -0.02446745
 20605921, -0.01072682, -0.01245129, 0.02770019, -0.02449159, -0.01164013, -0.01471091, 0.02771612, -0.02449318
 20805841, -0.01023564, -0.01191169, 0.02768745, -0.02450036, -0.01072682, -0.01245129, 0.02770019, -0.02449159
 21005761, -0.01041039, -0.01313438, 0.02767915, -0.02451794, -0.01023564, -0.01191169, 0.02768745, -0.02450036
 21206514, -0.01094164, -0.01408552, 0.02767286, -0.02453395, -0.01041039, -0.01313438, 0.02767915, -0.02451794
 21406434, -0.01114563, -0.01458429, 0.02766407, -0.02454837, -0.01094164, -0.01408552, 0.02767286, -0.02453395
 21606354, -0.009588086, -0.01449963, 0.02764566, -0.02456079, -0.01114563, -0.01458429, 0.02766407, -0.02454837
 21806274, -0.01280574, -0.01308588, 0.02765147, -0.02456215, -0.009588086, -0.01449963, 0.02764566, -0.02456079
 22006194, -0.01075269, -0.01236217, 0.02762917, -0.02457127, -0.01280574, -0.01308588, 0.02765147, -0.02456215
 22206114, -0.01071312, -0.01160679, 0.02761817, -0.02457911, -0.01075269, -0.01236217, 0.02762917, -0.02457127
 22406034, -0.01093425, -0.01502554, 0.0276109, -0.02461015, -0.01071312, -0.01160679, 0.02761817, -0.02457911
 22605954, -0.009950429, -0.01242996, 0.02759401, -0.02460719, -0.01093425, -0.01502554, 0.0276109, -0.02461015
 22805874, -0.01257137, -0.01348178, 0.02759814, -0.02462315, -0.009950429, -0.01242996, 0.02759401, -0.02460719
 23005794, -0.01082594, -0.01169822, 0.02757683, -0.02462657, -0.01257137, -0.01348178, 0.02759814, -0.02462315
 23206547, -0.01098778, -0.01238872, 0.02756814, -0.0246411, -0.01082594, -0.01169822, 0.02757683, -0.02462657
 23406467, -0.008455841, -0.01343309, 0.02754709, -0.02465933, -0.01098778, -0.01238872, 0.02756814, -0.0246411
 23606387, -0.009015866, -0.01147786, 0.02753795, -0.02466027, -0.008455841, -0.01343309, 0.02754709, -0.02465933
 23806307, -0.009144927, -0.01340597, 0.02752923, -0.02468198, -0.009015866, -0.01147786, 0.02753795, -0.02466027
 24006227, -0.008110662, -0.0126488, 0.02751437, -0.02468962, -0.009144927, -0.01340597, 0.02752923, -0.02468198
 24206147, -0.01172052, -0.01764954, 0.02752463, -0.02473121, -0.008110662, -0.0126488, 0.02751437, -0.02468962
 24406067, -0.01237064, -0.01259039, 0.02751486, -0.02470946, -0.01172052, -0.01764954, 0.02752463, -0.02473121
 24605987, -0.01260082, -0.01197688, 0.02750597, -0.02471715, -0.01237064, -0.01259039, 0.02751486, -0.02470946
 24805907, -0.01387003, -0.01592251, 0.02750665, -0.02475052, -0.01260082, -0.01197688, 0.02750597, -0.02471715
 25005827, -0.01141043, -0.01146127, 0.02747903, -0.02473745, -0.01387003, -0.01592251, 0.02750665, -0.02475052
 25206580, -0.01039377, -0.01217668, 0.02746454, -0.02475229, -0.01141043, -0.01146127, 0.02747903, -0.02473745
 25406500, -0.01043956, -0.01109257, 0.02745506, -0.02475706, -0.01039377, -0.01217668, 0.02746454, -0.02475229
 25606420, -0.009977384, -0.01275577, 0.02744413, -0.02477634, -0.01043956, -0.01109257, 0.02745506, -0.02475706
 25806340, -0.008831128, -0.01513293, 0.02743066, -0.02480184, -0.009977384, -0.01275577, 0.02744413, -0.02477634
 26006260, -0.008109957, -0.01355631, 0.02741748, -0.02480282, -0.008831128, -0.01513293, 0.02743066, -0.02480184
 26206180, -0.009610256, -0.01438242, 0.02741505, -0.02481727, -0.008109957, -0.01355631, 0.02741748, -0.02480282
 26406100, -0.010353, -0.01465795, 0.02740943, -0.02482888, -0.009610256, -0.01438242, 0.02741505, -0.02481727
 26606020, -0.01056295, -0.01227114, 0.02740014, -0.02482496, -0.010353, -0.01465795, 0.02740943, -0.02482888
 26805940, -0.009247312, -0.01241228, 0.02738506, -0.02483626, -0.01056295, -0.01227114, 0.02740014, -0.02482496
 27005860, -0.01087376, -0.01297606, 0.02738394, -0.02484862, -0.009247312, -0.01241228, 0.02738506, -0.02483626
 27205780, -0.008079939, -0.01246789, 0.02736222, -0.02485698, -0.01087376, -0.01297606, 0.02738394, -0.02484862
 27406533, -0.008737319, -0.01171498, 0.02735613, -0.02486199, -0.008079939, -0.01246789, 0.02736222, -0.02485698
 27606453, -0.008522343, -0.01526676, 0.02734824, -0.02489242, -0.008737319, -0.01171498, 0.02735613, -0.02486199
 27806373, -0.006095763, -0.01709737, 0.02733179, -0.02491609, -0.008522343, -0.01526676, 0.02734824, -0.02489242
 28006293, -0.009357642, -0.01502873, 0.02733459, -0.02490924, -0.006095763, -0.01709737, 0.02733179, -0.02491609
 28206213, -0.01395528, -0.01168602, 0.0273497, -0.02489687, -0.009357642, -0.01502873, 0.02733459, -0.02490924
 28406133, -0.01217192, -0.01194146, 0.02733076, -0.02490809, -0.01395528, -0.01168602, 0.0273497, -0.02489687
 28606053, -0.0106836, -0.01305287, 0.02731508, -0.02492382, -0.01217192, -0.01194146, 0.02733076, -0.02490809
 28805973, -0.008909504, -0.01398899, 0.02729925, -0.02493894, -0.0106836, -0.01305287, 0.02731508, -0.02492382
 29005893, -0.007947051, -0.01229118, 0.0272867, -0.02493835, -0.008909504, -0.01398899, 0.02729925, -0.02493894
 29205813, -0.007356319, -0.01593675, 0.02727826, -0.02496967, -0.007947051, -0.01229118, 0.0272867, -0.02493835
 29406566, -0.009766825, -0.01308765, 0.02727909, -0.02495901, -0.007356319, -0.01593675, 0.02727826, -0.02496967
 29606486, -0.009944975, -0.01648912, 0.0272742, -0.02498884, -0.009766825, -0.01308765, 0.02727909, -0.02495901
 29806406, -0.007943354, -0.01690736, 0.02725778, -0.02500162, -0.009944975, -0.01648912, 0.0272742, -0.02498884
 30006326, -0.008477653, -0.01273953, 0.02725036, -0.02498275, -0.007943354, -0.01690736, 0.02725778, -0.02500162
 30206246, -0.00799787, -0.01386595, 0.0272415, -0.0249976, -0.008477653, -0.01273953, 0.02725036, -0.02498275
 30406166, -0.008811367, -0.01270046, 0.02723692, -0.02499853, -0.00799787, -0.01386595, 0.0272415, -0.0249976
 30606086, -0.0091241, -0.0135019, 0.02723125, -0.02501095, -0.008811367, -0.01270046, 0.02723692, -0.02499853
 30806006, -0.009846242, -0.01620659, 0.02722866, -0.02503585, -0.0091241, -0.0135019, 0.02723125, -0.02501095
 31005926, -0.008873578, -0.01688952, 0.0272175, -0.02504902, -0.009846242, -0.01620659, 0.02722866, -0.02503585
 31205846, -0.009952656, -0.01477658, 0.02721449, -0.02504136, -0.008873578, -0.01688952, 0.0272175, -0.02504902
 31405766, -0.00962517, -0.01647758, 0.02720775, -0.02505964, -0.009952656, -0.01477658, 0.02721449, -0.02504136
 31606519, -0.01059039, -0.01178189, 0.02720426, -0.0250369, -0.00962517, -0.01647758, 0.02720775, -0.02505964
 31806439, -0.01340929, -0.01461386, 0.02721469, -0.02505896, -0.01059039, -0.01178189, 0.02720426, -0.0250369
 32006359, -0.009503777, -0.01313977, 0.02718619, -0.02505935, -0.01340929, -0.01461386, 0.02721469, -0.02505896
 32206279, -0.008257264, -0.01487621, 0.02717488, -0.02507781, -0.009503777, -0.01313977, 0.02718619, -0.02505935
 32406199, -0.0112356, -0.01560134, 0.02718236, -0.02508848, -0.008257264, -0.01487621, 0.02717488, -0.02507781
 32606119, -0.0104575, -0.01350946, 0.02717086, -0.02508273, -0.0112356, -0.01560134, 0.02718236, -0.02508848
 32806039, -0.0114368, -0.01317433, 0.02716921, -0.02508744, -0.0104575, -0.01350946, 0.02717086, -0.02508273
 33005959, -0.009225865, -0.01648659, 0.02715354, -0.02511669, -0.0114368, -0.01317433, 0.02716921, -0.02508744
 33205879, -0.01073155, -0.01470539, 0.02715337, -0.0251109, -0.009225865, -0.01648659, 0.02715354, -0.02511669
 33405799, -0.01189126, -0.01487331, 0.0271533, -0.02511829, -0.01073155, -0.01470539, 0.02715337, -0.0251109
 33606552, -0.009622582, -0.0146461, 0.02713571, -0.02512431, -0.01189126, -0.01487331, 0.0271533, -0.02511829
 33806472, -0.009951286, -0.01511419, 0.02713133, -0.0251338, -0.009622582, -0.0146461, 0.02713571, -0.02512431
 34006392, -0.01008128, -0.01368797, 0.02712527, -0.02513135, -0.009951286, -0.01511419, 0.02713133, -0.0251338
 34206312, -0.01168797, -0.01066114, 0.02712625, -0.02512124, -0.01008128, -0.01368797, 0.02712527, -0.02513135
 34406232, -0.011723, -0.01533301, 0.02712254, -0.02515382, -0.01168797, -0.01066114, 0.02712625, -0.02512124
 34606152, -0.01068055, -0.01465492, 0.02711095, -0.02515611, -0.011723, -0.01533301, 0.02712254, -0.02515382
 34806072, -0.009615794, -0.01291488, 0.02709934, -0.02515238, -0.01068055, -0.01465492, 0.02711095, -0.02515611
 35005992, -0.008891344, -0.01488893, 0.0270913, -0.02517072, -0.009615794, -0.01291488, 0.02709934, -0.02515238
 35205912, -0.01053153, -0.01416029, 0.02709288, -0.0251715, -0.008891344, -0.01488893, 0.0270913, -0.02517072
 35405832, -0.01082201, -0.01178994, 0.02708768, -0.0251642, -0.01053153, -0.01416029, 0.02709288, -0.0251715
 35606585, -0.00925353, -0.01344832, 0.02707548, -0.02517975, -0.01082201, -0.01178994, 0.02708768, -0.0251642
 35806505, -0.006858235, -0.01435178, 0.02706143, -0.02519171, -0.00925353, -0.01344832, 0.02707548, -0.02517975
 36006425, -0.009913578, -0.01264076, 0.02706746, -0.02518641, -0.006858235, -0.01435178, 0.02706143, -0.02519171
 36206345, -0.01342929, -0.01165849, 0.02708078, -0.02518566, -0.009913578, -0.01264076, 0.02706746, -0.02518641
 36406265, -0.01091004, -0.01039969, 0.02706087, -0.02518629, -0.01342929, -0.01165849, 0.02708078, -0.02518566
 36606185, -0.008251234, -0.01354092, 0.02704485, -0.02520914, -0.01091004, -0.01039969, 0.02706087, -0.02518629
 36806105, -0.008531857, -0.01451792, 0.02704114, -0.0252206, -0.008251234, -0.01354092, 0.02704485, -0.02520914
 37006025, -0.0106088, -0.01345931, 0.02704504, -0.02521878, -0.008531857, -0.01451792, 0.02704114, -0.0252206
 37205945, -0.01176963, -0.01481984, 0.02704673, -0.02523199, -0.0106088, -0.01345931, 0.02704504, -0.02521878
 37405865, -0.009410394, -0.01528328, 0.02703019, -0.02524132, -0.01176963, -0.01481984, 0.02704673, -0.02523199
 37605785, -0.0105371, -0.0133155, 0.02702983, -0.02523384, -0.009410394, -0.01528328, 0.02703019, -0.02524132
 37806538, -0.01127041, -0.011203, 0.02702809, -0.02522737, -0.0105371, -0.0133155, 0.02702983, -0.02523384
 38006458, -0.01096746, -0.01280061, 0.02702222, -0.02524102, -0.01127041, -0.011203, 0.02702809, -0.02522737
 38206378, -0.01313677, -0.01355968, 0.02702985, -0.02524967, -0.01096746, -0.01280061, 0.02702222, -0.02524102
 38406298, -0.009193847, -0.0129584, 0.02700442, -0.02525268, -0.01313677, -0.01355968, 0.02702985, -0.02524967
 38606218, -0.01226232, -0.01275258, 0.02701506, -0.02525539, -0.009193847, -0.0129584, 0.02700442, -0.02525268
 38806138, -0.01138538, -0.01508999, 0.02700658, -0.02527476, -0.01226232, -0.01275258, 0.02701506, -0.02525539
 39006058, -0.01043754, -0.01393245, 0.02699671, -0.02527268, -0.01138538, -0.01508999, 0.02700658, -0.02527476
 39205978, -0.01095112, -0.01509749, 0.02699528, -0.02528462, -0.01043754, -0.01393245, 0.02699671, -0.02527268
 39405898, -0.008794221, -0.01727481, 0.02698152, -0.02530578, -0.01095112, -0.01509749, 0.02699528, -0.02528462
 39605818, -0.01027604, -0.01568596, 0.02698313, -0.02529847, -0.008794221, -0.01727481, 0.02698152, -0.02530578
 39806571, -0.01250889, -0.014006, 0.02699016, -0.02529119, -0.01027604, -0.01568596, 0.02698313, -0.02529847
 40006491, -0.01218166, -0.01508979, 0.02698459, -0.02530259, -0.01250889, -0.014006, 0.02699016, -0.02529119
 40206411, -0.008092416, -0.01433823, 0.0269605, -0.02530389, -0.01218166, -0.01508979, 0.02698459, -0.02530259
 40406331, -0.01048822, -0.0150066, 0.02696699, -0.02531186, -0.008092416, -0.01433823, 0.0269605, -0.02530389
 40606251, -0.009488229, -0.01596827, 0.0269585, -0.02532317, -0.01048822, -0.0150066, 0.02696699, -0.02531186
 40806171, -0.009196625, -0.01383514, 0.02695238, -0.02531368, -0.009488229, -0.01596827, 0.0269585, -0.02532317
 41006091, -0.01214022, -0.01436396, 0.0269631, -0.02532029, -0.009196625, -0.01383514, 0.02695238, -0.02531368
 41206011, -0.008550256, -0.01544176, 0.0269421, -0.02533286, -0.01214022, -0.01436396, 0.0269631, -0.02532029
 41405931, -0.01201858, -0.01743872, 0.02695564, -0.02535021, -0.008550256, -0.01544176, 0.0269421, -0.02533286
 41605851, -0.008424755, -0.01355277, 0.02693291, -0.02532944, -0.01201858, -0.01743872, 0.02695564, -0.02535021
 41805771, -0.008601416, -0.01361691, 0.02692977, -0.02533389, -0.008424755, -0.01355277, 0.02693291, -0.02532944
 42006524, -0.007612317, -0.01593272, 0.026923, -0.02535321, -0.008601416, -0.01361691, 0.02692977, -0.02533389
 42206444, -0.009753374, -0.01256044, 0.02692675, -0.02533558, -0.007612317, -0.01593272, 0.026923, -0.02535321
 42406364, -0.009933683, -0.01118369, 0.02692324, -0.02533253, -0.009753374, -0.01256044, 0.02692675, -0.02533558
 42606284, -0.007544517, -0.01192011, 0.02690985, -0.02534103, -0.009933683, -0.01118369, 0.02692324, -0.02533253
 42806204, -0.01028055, -0.01268089, 0.02691759, -0.02534843, -0.007544517, -0.01192011, 0.02690985, -0.02534103
 43006124, -0.01081394, -0.01391053, 0.02691676, -0.02535949, -0.01028055, -0.01268089, 0.02691759, -0.02534843
 43206044, -0.01241595, -0.01043429, 0.0269204, -0.02534465, -0.01081394, -0.01391053, 0.02691676, -0.02535949
 43405964, -0.009829569, -0.01346233, 0.02690426, -0.0253652, -0.01241595, -0.01043429, 0.0269204, -0.02534465
 43605884, -0.01365134, -0.01189172, 0.02692063, -0.02535938, -0.009829569, -0.01346233, 0.02690426, -0.0253652
 43805804, -0.0139147, -0.01344106, 0.02691954, -0.0253713, -0.01365134, -0.01189172, 0.02692063, -0.02535938
 44006557, -0.01363083, -0.01531932, 0.02691526, -0.02538654, -0.0139147, -0.01344106, 0.02691954, -0.0253713
 44206477, -0.01063313, -0.01166349, 0.02689375, -0.02536968, -0.01363083, -0.01531932, 0.02691526, -0.02538654
 44406397, -0.01090297, -0.0133296, 0.026892, -0.02538252, -0.01063313, -0.01166349, 0.02689375, -0.02536968
 44606317, -0.01193709, -0.01501471, 0.02689438, -0.02539651, -0.01090297, -0.0133296, 0.026892, -0.02538252
 44806237, -0.01090701, -0.01448057, 0.02688512, -0.02539722, -0.01193709, -0.01501471, 0.02689438, -0.02539651
 45006157, -0.008361111, -0.01224783, 0.02686946, -0.02538865, -0.01090701, -0.01448057, 0.02688512, -0.02539722
 45206077, -0.008740073, -0.01062866, 0.02686699, -0.0253842, -0.008361111, -0.01224783, 0.02686946, -0.02538865
 45405997, -0.006535472, -0.01588152, 0.02685693, -0.02541923, -0.008740073, -0.01062866, 0.02686699, -0.0253842
 45605917, -0.008649145, -0.01519711, 0.02686078, -0.02541766, -0.006535472, -0.01588152, 0.02685693, -0.02541923
 45805837, -0.01096075, -0.01587048, 0.026868, -0.02542532, -0.008649145, -0.01519711, 0.02686078, -0.02541766
 46006590, -0.01337486, -0.0128518, 0.026877, -0.02540934, -0.01096075, -0.01587048, 0.026868, -0.02542532
 46206510, -0.01204634, -0.01162805, 0.02686536, -0.02540692, -0.01337486, -0.0128518, 0.026877, -0.02540934
 46406430, -0.01219579, -0.01187794, 0.02686254, -0.02541208, -0.01204634, -0.01162805, 0.02686536, -0.02540692
 46606350, -0.0144951, -0.01240888, 0.0272913, -0.0258145, -0.01219579, -0.01187794, 0.02686254, -0.02541208
 46806270, -0.01403996, -0.0147287, 0.03075568, -0.02911778, -0.0144951, -0.01240888, 0.0272913, -0.0258145
 47006190, -0.01726796, -0.02003665, 0.0403281, -0.03819836, -0.01403996, -0.0147287, 0.03075568, -0.02911778
 47206110, -0.02297961, -0.03139665, 0.0590172, -0.055925, -0.01726796, -0.02003665, 0.0403281, -0.03819836
 47406030, -0.03515887, -0.05205296, 0.08754072, -0.08298489, -0.02297961, -0.03139665, 0.0590172, -0.055925
 47605950, -0.04865081, -0.07448681, 0.1242598, -0.1178284, -0.03515887, -0.05205296, 0.08754072, -0.08298489
 47805870, -0.05236998, -0.09093039, 0.1636352, -0.1646995, -0.04865081, -0.07448681, 0.1242598, -0.1178284
 48005790, -0.07281388, -0.1050206, 0.2122, -0.2135402, -0.05236998, -0.09093039, 0.1636352, -0.1646995
 48206543, -0.08399128, -0.1662103, 0.2673622, -0.2690044, -0.07281388, -0.1050206, 0.2122, -0.2135402
 48406463, -0.0947069, -0.1967036, 0.3269958, -0.3288248, -0.08399128, -0.1662103, 0.2673622, -0.2690044
 48606383, 0.09792293, -0.3283087, 0.3909679, -0.3931135, -0.0947069, -0.1967036, 0.3269958, -0.3288248
 48806303, -0.2067466, 0.03341834, 0.4583258, -0.4601189, 0.09792293, -0.3283087, 0.3909679, -0.3931135
 49006223, -0.1451554, -0.1460667, 0.5280837, -0.5300413, -0.2067466, 0.03341834, 0.4583258, -0.4601189
 49206143, 0.1553643, -0.1800063, 0.6002973, -0.6022907, -0.1451554, -0.1460667, 0.5280837, -0.5300413
 49406063, -0.1666754, -0.2880495, 0.6742178, -0.6767285, 0.1553643, -0.1800063, 0.6002973, -0.6022907
 49605983, 0.2608859, 0.3805315, 0.7497984, -0.7532186, -0.1666754, -0.2880495, 0.6742178, -0.6767285
 49805903, -0.04560447, -0.1723815, 0.826131, -0.8304662, 0.2608859, 0.3805315, 0.7497984, -0.7532186
 50005823, 0.4561182, 0.2402494, 0.9039235, -0.9090454, -0.04560447, -0.1723815, 0.826131, -0.8304662
 50206576, -0.144293, 0.4664142, 0.9823865, -0.988099, 0.4561182, 0.2402494, 0.9039235, -0.9090454
 50406496, 0.3986752, 0.5961353, 1.062579, -1.067176, -0.144293, 0.4664142, 0.9823865, -0.988099
 50606416, 0.4838204, 0.08769985, 1.14298, -1.146173, 0.3986752, 0.5961353, 1.062579, -1.067176
 50806336, 0.06334965, 0.4493769, 1.220549, -1.224252, 0.4838204, 0.08769985, 1.14298, -1.146173
 51006256, -0.9105043, 0.6233903, 1.295154, -1.29983, 0.06334965, 0.4493769, 1.220549, -1.224252
 51206176, -0.5360816, -0.741648, 1.363993, -1.370903, -0.9105043, 0.6233903, 1.295154, -1.29983
 51406096, 0.6759126, 0.1983652, 1.430562, -1.437603, -0.5360816, -0.741648, 1.363993, -1.370903
 51606016, 0.5578676, -1.351281, 1.492295, -1.500757, 0.6759126, 0.1983652, 1.430562, -1.437603
 51805936, 1.128701, -1.232844, 1.549878, -1.556389, 0.5578676, -1.351281, 1.492295, -1.500757
 52005856, -0.1675199, 1.199029, 1.599985, -1.606759, 1.128701, -1.232844, 1.549878, -1.556389
 52205776, 0.2027797, -0.8599553, 1.64413, -1.650153, -0.1675199, 1.199029, 1.599985, -1.606759
 52406529, 1.359977, 0.8621185, 1.682623, -1.687732, 0.2027797, -0.8599553, 1.64413, -1.650153
 52606449, -0.8802593, -0.4610083, 1.712301, -1.718742, 1.359977, 0.8621185, 1.682623, -1.687732
 52806369, 1.10296, 0.2653021, 1.737438, -1.744725, -0.8802593, -0.4610083, 1.712301, -1.718742
 53006289, 0.005812306, -0.643033, 1.75682, -1.766115, 1.10296, 0.2653021, 1.737438, -1.744725
 53206209, 0.5010551, -0.6425391, 1.774635, -1.783622, 0.005812306, -0.643033, 1.75682, -1.766115
 53406129, -0.6693839, 1.014218, 1.790064, -1.799049, 0.5010551, -0.6425391, 1.774635, -1.783622
 53606049, -0.8397251, -1.21765, 1.803002, -1.812065, -0.6693839, 1.014218, 1.790064, -1.799049
 53805969, -0.6932722, 0.3662482, 1.813754, -1.82249, -0.8397251, -1.21765, 1.803002, -1.812065
 54005889, -0.537455, -0.3356269, 1.823072, -1.832651, -0.6932722, 0.3662482, 1.813754, -1.82249
 54205809, 0.7863441, -0.3270666, 1.831701, -1.840281, -0.537455, -0.3356269, 1.823072, -1.832651
 54406562, -0.5523745, 0.1103375, 1.839357, -1.845969, 0.7863441, -0.3270666, 1.831701, -1.840281
 54606482, 0.2864971, 1.043895, 1.844428, -1.849841, -0.5523745, 0.1103375, 1.839357, -1.845969
 54806402, 0.994103, -1.040705, 1.847917, -1.851701, 0.2864971, 1.043895, 1.844428, -1.849841
 55006322, 1.517359, 0.3793294, 1.850491, -1.852348, 0.994103, -1.040705, 1.847917, -1.851701
 55206242, 0.5218374, -0.6865019, 1.849149, -1.85267, 1.517359, 0.3793294, 1.850491, -1.852348
 55406162, 1.194518, -0.2805897, 1.849389, -1.852809, 0.5218374, -0.6865019, 1.849149, -1.85267
 55606082, 1.364914, 1.059648, 1.847497, -1.852741, 1.194518, -0.2805897, 1.849389, -1.852809
 55806002, -0.8134121, -0.5610089, 1.845295, -1.851783, 1.364914, 1.059648, 1.847497, -1.852741
 56005922, -0.5997268, -0.9206905, 1.843242, -1.850921, -0.8134121, -0.5610089, 1.845295, -1.851783
 56205842, 0.349627, -1.319519, 1.841309, -1.850826, -0.5997268, -0.9206905, 1.843242, -1.850921
 56405762, -1.095213, 0.5209349, 1.840634, -1.84974, 0.349627, -1.319519, 1.841309, -1.850826
 56606515, 0.2277597, -0.5506378, 1.83869, -1.850676, -1.095213, 0.5209349, 1.840634, -1.84974
 56806435, -0.07460716, 0.8471243, 1.837599, -1.851564, 0.2277597, -0.5506378, 1.83869, -1.850676
 57006355, -0.003928951, 0.673983, 1.837138, -1.851205, -0.07460716, 0.8471243, 1.837599, -1.851564
 57206275, 0.1523722, 0.6274611, 1.837835, -1.85004, -0.003928951, 0.673983, 1.837138, -1.851205
 57406195, -0.01182063, 0.658797, 1.839334, -1.848808, 0.1523722, 0.6274611, 1.837835, -1.85004
 57606115, -0.1099399, 0.8180112, 1.840966, -1.847522, -0.01182063, 0.658797, 1.839334, -1.848808
 57806035, 0.1277584, 0.6194645, 1.842093, -1.846356, -0.1099399, 0.8180112, 1.840966, -1.847522
 58005955, -0.06677201, 0.6243703, 1.842088, -1.846306, 0.1277584, 0.6194645, 1.842093, -1.846356
 58205875, -0.0229758, 0.7796717, 1.841782, -1.846581, -0.06677201, 0.6243703, 1.842088, -1.846306
 58405795, -0.02804158, 0.7196681, 1.841404, -1.847006, -0.0229758, 0.7796717, 1.841782, -1.846581
 58606548, -0.04273796, 0.6912537, 1.84062, -1.847849, -0.02804158, 0.7196681, 1.841404, -1.847006
 58806468, 0.1707472, 0.7479552, 1.840169, -1.848378, -0.04273796, 0.6912537, 1.84062, -1.847849
 59006388, 0.1027588, 0.7607158, 1.839617, -1.848938, 0.1707472, 0.7479552, 1.840169, -1.848378
 59206308, 0.1559392, 0.5633559, 1.83976, -1.848708, 0.1027588, 0.7607158, 1.839617, -1.848938
 59406228, -0.09706472, 0.7459125, 1.840102, -1.848521, 0.1559392, 0.5633559, 1.83976, -1.848708
 59606148, 0.2361478, 0.7061945, 1.840375, -1.848171, -0.09706472, 0.7459125, 1.840102, -1.848521
 59806068, 0.2051423, 0.760554, 1.840476, -1.848132, 0.2361478, 0.7061945, 1.840375, -1.848171
 60005988, -0.00736411, 0.8833992, 1.840391, -1.848306, 0.2051423, 0.760554, 1.840476, -1.848132
 60205908, 0.1591644, 0.7807763, 1.840209, -1.848575, -0.00736411, 0.8833992, 1.840391, -1.848306
 60405828, -0.0975373, 0.4932754, 1.83967, -1.848535, 0.1591644, 0.7807763, 1.840209, -1.848575
 60606581, -0.1784713, 0.5554889, 1.84117, -1.850078, -0.0975373, 0.4932754, 1.83967, -1.848535
 60806501, -0.2085535, 0.5397144, 1.842114, -1.85061, -0.1784713, 0.5554889, 1.84117, -1.850078
 61006421, -0.2129098, 0.699991, 1.842962, -1.850449, -0.2085535, 0.5397144, 1.842114, -1.85061
 61206341, -0.1931815, 0.817398, 1.843808, -1.850247, -0.2129098, 0.699991, 1.842962, -1.850449
 61406261, 0.004322186, 0.8841748, 1.844291, -1.850137, -0.1931815, 0.817398, 1.843808, -1.850247
 61606181, -0.009287411, 0.8495936, 1.844434, -1.850186, 0.004322186, 0.8841748, 1.844291, -1.850137
 61806101, 0.0658486, 0.709064, 1.84382, -1.850536, -0.009287411, 0.8495936, 1.844434, -1.850186
 62006021, 0.1142124, 0.7402297, 1.843183, -1.851228, 0.0658486, 0.709064, 1.84382, -1.850536
 62205941, -0.1366618, 0.7488636, 1.84278, -1.851759, 0.1142124, 0.7402297, 1.843183, -1.851228
 62405861, -0.09995234, 0.8079994, 1.84316, -1.852261, -0.1366618, 0.7488636, 1.84278, -1.851759
 62605781, 0.05181472, 0.7620688, 1.84463, -1.853066, -0.09995234, 0.8079994, 1.84316, -1.852261
 62806534, 0.007261082, 0.7335346, 1.845918, -1.853035, 0.05181472, 0.7620688, 1.84463, -1.853066
 63006454, 0.1352363, 0.7746947, 1.846893, -1.852912, 0.007261082, 0.7335346, 1.845918, -1.853035
 63206374, 0.0187228, 0.8573839, 1.847177, -1.853166, 0.1352363, 0.7746947, 1.846893, -1.852912
 63406294, 0.07913911, 0.8259115, 1.846633, -1.853888, 0.0187228, 0.8573839, 1.847177, -1.853166
 63606214, 0.04915956, 0.8910605, 1.846231, -1.854623, 0.07913911, 0.8259115, 1.846633, -1.853888
 63806134, -0.2298432, 0.8303185, 1.845568, -1.855043, 0.04915956, 0.8910605, 1.846231, -1.854623
 64006054, 0.00821643, 0.6809305, 1.844897, -1.855542, -0.2298432, 0.8303185, 1.845568, -1.855043
 64205974, -0.01736045, 0.892279, 1.84452, -1.856217, 0.00821643, 0.6809305, 1.844897, -1.855542
 64405894, 0.2030869, 0.7915225, 1.845147, -1.856841, -0.01736045, 0.892279, 1.84452, -1.856217
 64605814, 0.2424351, 0.6208203, 1.846063, -1.857351, 0.2030869, 0.7915225, 1.845147, -1.856841
 64806567, 0.08904519, 0.4469654, 1.846341, -1.857846, 0.2424351, 0.6208203, 1.846063, -1.857351
 65006487, 0.3239888, 0.5960757, 1.846633, -1.858268, 0.08904519, 0.4469654, 1.846341, -1.857846
 65206407, 0.06212189, 0.6384711, 1.847071, -1.858228, 0.3239888, 0.5960757, 1.846633, -1.858268
 65406327, 0.1087659, 0.6101462, 1.847466, -1.858237, 0.06212189, 0.6384711, 1.847071, -1.858228
 65606247, 0.1210163, 0.7237912, 1.847391, -1.858221, 0.1087659, 0.6101462, 1.847466, -1.858237
 65806167, 0.02064938, 0.633516, 1.847187, -1.858044, 0.1210163, 0.7237912, 1.847391, -1.858221
 66006087, 0.1669543, 0.6232989, 1.847246, -1.858057, 0.02064938, 0.633516, 1.847187, -1.858044
 66206007, 0.165344, 0.6332369, 1.84716, -1.858169, 0.1669543, 0.6232989, 1.847246, -1.858057
 66405927, -0.05084692, 0.6829628, 1.846887, -1.858757, 0.165344, 0.6332369, 1.84716, -1.858169
 66605847, 0.1078784, 0.8110081, 1.846275, -1.859599, -0.05084692, 0.6829628, 1.846887, -1.858757
 66805767, 0.09234404, 0.65825, 1.847806, -1.860378, 0.1078784, 0.8110081, 1.846275, -1.859599
 67006520, 0.2294089, 0.66655, 1.849764, -1.860155, 0.09234404, 0.65825, 1.847806, -1.860378
 67206440, 0.07065275, 0.882128, 1.851352, -1.859324, 0.2294089, 0.66655, 1.849764, -1.860155
 67406360, 0.1380564, 0.9361216, 1.852315, -1.858949, 0.07065275, 0.882128, 1.851352, -1.859324
 67606280, -0.03602904, 0.6269993, 1.852729, -1.858438, 0.1380564, 0.9361216, 1.852315, -1.858949
 67806200, 0.006078531, 0.7640225, 1.852896, -1.858576, -0.03602904, 0.6269993, 1.852729, -1.858438
 68006120, -0.02741093, 0.7184282, 1.852955, -1.858566, 0.006078531, 0.7640225, 1.852896, -1.858576
 68206040, 0.07677053, 0.7772257, 1.85292, -1.858731, -0.02741093, 0.7184282, 1.852955, -1.858566
 68405960, 0.2586759, 0.897611, 1.852928, -1.858925, 0.07677053, 0.7772257, 1.85292, -1.858731
 68605880, 0.3802555, 0.8668432, 1.852801, -1.859186, 0.2586759, 0.897611, 1.852928, -1.858925
 68805800, -0.07553542, 0.8023036, 1.852374, -1.859362, 0.3802555, 0.8668432, 1.852801, -1.859186
 69006553, 0.03922256, 0.8542082, 1.852202, -1.859687, -0.07553542, 0.8023036, 1.852374, -1.859362
 69206473, 0.1172543, 0.4718072, 1.852043, -1.859443, 0.03922256, 0.8542082, 1.852202, -1.859687
 69406393, -0.03382908, 0.458595, 1.85178, -1.859669, 0.1172543, 0.4718072, 1.852043, -1.859443
 69606313, 0.2643455, 0.6926574, 1.851804, -1.859859, -0.03382908, 0.458595, 1.85178, -1.859669
 69806233, 0.1998362, 0.7464948, 1.851933, -1.859755, 0.2643455, 0.6926574, 1.851804, -1.859859
 70006153, -0.04099292, 0.864221, 1.852478, -1.859565, 0.1998362, 0.7464948, 1.851933, -1.859755
 70206073, 0.009766378, 0.9369513, 1.852675, -1.859282, -0.04099292, 0.864221, 1.852478, -1.859565
 70405993, 0.1137271, 0.7239015, 1.85275, -1.858915, 0.009766378, 0.9369513, 1.852675, -1.859282
 70605913, -0.03502196, 0.6955252, 1.852592, -1.858916, 0.1137271, 0.7239015, 1.85275, -1.858915
 70805833, -0.0110393, 1.008302, 1.85234, -1.859619, -0.03502196, 0.6955252, 1.852592, -1.858916
 71006586, 0.1599759, 0.8939562, 1.852553, -1.859509, -0.0110393, 1.008302, 1.85234, -1.859619
 71206506, 0.1213558, 0.7599653, 1.852812, -1.859026, 0.1599759, 0.8939562, 1.852553, -1.859509
 71406426, 0.1098104, 0.6710833, 1.852299, -1.859427, 0.1213558, 0.7599653, 1.852812, -1.859026
 71606346, 0.05909115, 0.8074993, 1.851954, -1.859488, 0.1098104, 0.6710833, 1.852299, -1.859427
 71806266, 0.08768938, 0.7169109, 1.851857, -1.859668, 0.05909115, 0.8074993, 1.851954, -1.859488
 72006186, 0.1570851, 0.6785966, 1.853016, -1.860841, 0.08768938, 0.7169109, 1.851857, -1.859668
 72206106, -0.02914213, 0.7807492, 1.853672, -1.862114, 0.1570851, 0.6785966, 1.853016, -1.860841
 72406026, 0.01458354, 0.4510066, 1.85397, -1.862228, -0.02914213, 0.7807492, 1.853672, -1.862114
 72605946, 0.2449101, 0.7793833, 1.854597, -1.862742, 0.01458354, 0.4510066, 1.85397, -1.862228
 72805866, 0.1696021, 0.9415485, 1.854987, -1.862408, 0.2449101, 0.7793833, 1.854597, -1.862742
 73005786, 0.147298, 0.7980644, 1.854446, -1.862774, 0.1696021, 0.9415485, 1.854987, -1.862408
 73206539, 0.2028499, 0.8160156, 1.852891, -1.861859, 0.147298, 0.7980644, 1.854446, -1.862774
 73406459, 0.09847186, 0.7992623, 1.852613, -1.860789, 0.2028499, 0.8160156, 1.852891, -1.861859
 73606379, 0.08625336, 0.7835978, 1.852315, -1.861186, 0.09847186, 0.7992623, 1.852613, -1.860789
 73806299, 0.08638079, 0.7839932, 1.853074, -1.862343, 0.08625336, 0.7835978, 1.852315, -1.861186
 74006219, 0.08614133, 0.7842462, 1.854231, -1.86225, 0.08638079, 0.7839932, 1.853074, -1.862343
 74206139, 0.08615243, 0.784368, 1.854523, -1.862534, 0.08614133, 0.7842462, 1.854231, -1.86225
 74406059, 0.0862539, 0.7844237, 1.854456, -1.862913, 0.08615243, 0.784368, 1.854523, -1.862534
 74605979, 0.08635457, 0.7844479, 1.854308, -1.863225, 0.0862539, 0.7844237, 1.854456, -1.862913
 74805899, 0.08639058, 0.7844626, 1.854271, -1.863349, 0.08635457, 0.7844479, 1.854308, -1.863225
 75005819, 0.08638324, 0.784474, 1.854316, -1.863354, 0.08639058, 0.7844626, 1.854271, -1.863349
 75206572, 0.08633573, 0.7844852, 1.854444, -1.863254, 0.08638324, 0.784474, 1.854316, -1.863354
 75406492, 0.08630027, 0.7844931, 1.854539, -1.863178, 0.08633573, 0.7844852, 1.854444, -1.863254
 75606412, 0.0862972, 0.7844962, 1.854553, -1.863177, 0.08630027, 0.7844931, 1.854539, -1.863178
 75806332, 0.08630771, 0.784497, 1.854533, -1.863206, 0.0862972, 0.7844962, 1.854553, -1.863177
 76006252, 0.0863139, 0.7844977, 1.854522, -1.863223, 0.08630771, 0.784497, 1.854533, -1.863206
 76206172, 0.0863076, 0.7844992, 1.85454, -1.86321, 0.0863139, 0.7844977, 1.854522, -1.863223
 76406092, 0.08629854, 0.7845007, 1.854562, -1.86319, 0.0863076, 0.7844992, 1.85454, -1.86321
 76606012, 0.08629627, 0.784501, 1.854568, -1.863185, 0.08629854, 0.7845007, 1.854562, -1.86319
 76805932, 0.08627392, 0.7845032, 1.85462, -1.863132, 0.08629627, 0.784501, 1.854568, -1.863185
 77005852, 0.08627045, 0.7845037, 1.854628, -1.863123, 0.08627392, 0.7845032, 1.85462, -1.863132
 77205772, 0.08625927, 0.7845047, 1.854655, -1.863096, 0.08627045, 0.7845037, 1.854628, -1.863123
 77406525, 0.08625494, 0.7845047, 1.854664, -1.863085, 0.08625927, 0.7845047, 1.854655, -1.863096
 77606445, 0.08625133, 0.7845052, 1.854673, -1.863077, 0.08625494, 0.7845047, 1.854664, -1.863085
 77806365, 0.08626665, 0.784503, 1.854635, -1.863112, 0.08625133, 0.7845052, 1.854673, -1.863077
 78006285, 0.08630785, 0.7844981, 1.854536, -1.863209, 0.08626665, 0.784503, 1.854635, -1.863112
 78206205, 0.08633399, 0.7844949, 1.854473, -1.86327, 0.08630785, 0.7844981, 1.854536, -1.863209
 78406125, 0.08634834, 0.7844931, 1.854439, -1.863303, 0.08633399, 0.7844949, 1.854473, -1.86327
 78606045, 0.08634426, 0.7844936, 1.854448, -1.863294, 0.08634834, 0.7844931, 1.854439, -1.863303
 78805965, 0.08626856, 0.7845018, 1.854628, -1.863114, 0.08634426, 0.7844936, 1.854448, -1.863294
 79005885, 0.08619307, 0.7845103, 1.854807, -1.862936, 0.08626856, 0.7845018, 1.854628, -1.863114
 79205805, 0.08617961, 0.7845116, 1.854839, -1.862904, 0.08619307, 0.7845103, 1.854807, -1.862936
 79406558, 0.08616838, 0.7845131, 1.854866, -1.862878, 0.08617961, 0.7845116, 1.854839, -1.862904
 79606478, 0.08620716, 0.7845088, 1.854774, -1.86297, 0.08616838, 0.7845131, 1.854866, -1.862878
 79806398, 0.08624949, 0.7845041, 1.854674, -1.86307, 0.08620716, 0.7845088, 1.854774, -1.86297
 80006318, 0.08624215, 0.7841794, 1.853847, -1.862372, 0.08624949, 0.7845041, 1.854674, -1.86307
 80206238, 0.08619716, 0.7837593, 1.852851, -1.861378, 0.08624215, 0.7841794, 1.853847, -1.862372
 80406158, 0.0861465, 0.7835276, 1.852356, -1.860762, 0.08619716, 0.7837593, 1.852851, -1.861378
 80606078, 0.08608238, 0.7834025, 1.852165, -1.860334, 0.0861465, 0.7835276, 1.852356, -1.860762
 80805998, 0.08607934, 0.7833287, 1.85198, -1.860172, 0.08608238, 0.7834025, 1.852165, -1.860334
 81005918, 0.08611656, 0.7832834, 1.851785, -1.860174, 0.08607934, 0.7833287, 1.85198, -1.860172
 81205838, 0.08626544, 0.7832436, 1.851371, -1.860477, 0.08611656, 0.7832834, 1.851785, -1.860174
 81406591, 0.08628926, 0.7832283, 1.851281, -1.860507, 0.08626544, 0.7832436, 1.851371, -1.860477
 81606511, 0.08606111, 0.7832463, 1.851804, -1.859953, 0.08628926, 0.7832283, 1.851281, -1.860507
 81806431, 0.08593152, 0.7832554, 1.852099, -1.859636, 0.08606111, 0.7832463, 1.851804, -1.859953
 82006351, 0.08599447, 0.7832463, 1.851944, -1.85978, 0.08593152, 0.7832554, 1.852099, -1.859636
 82206271, 0.08608356, 0.7832354, 1.85173, -1.859989, 0.08599447, 0.7832463, 1.851944, -1.85978
 82406191, 0.08615171, 0.7832274, 1.851566, -1.860148, 0.08608356, 0.7832354, 1.85173, -1.859989
 82606111, 0.08610991, 0.7832313, 1.851664, -1.860048, 0.08615171, 0.7832274, 1.851566, -1.860148
 82806031, 0.08602735, 0.78324, 1.851859, -1.859852, 0.08610991, 0.7832313, 1.851664, -1.860048
 83005951, 0.08616634, 0.783224, 1.851527, -1.860179, 0.08602735, 0.78324, 1.851859, -1.859852
 83205871, 0.08625768, 0.7832137, 1.851309, -1.860395, 0.08616634, 0.783224, 1.851527, -1.860179
 83405791, 0.08613026, 0.7832276, 1.851611, -1.860093, 0.08625768, 0.7832137, 1.851309, -1.860395
 83606544, 0.0860156, 0.7832398, 1.851883, -1.859821, 0.08613026, 0.7832276, 1.851611, -1.860093
 83806464, 0.08601119, 0.7832399, 1.851892, -1.85981, 0.0860156, 0.7832398, 1.851883, -1.859821
 84006384, 0.08606497, 0.7832338, 1.851764, -1.859937, 0.08601119, 0.7832399, 1.851892, -1.85981
 84206304, 0.08612849, 0.7832266, 1.851613, -1.860086, 0.08606497, 0.7832338, 1.851764, -1.859937
 84406224, 0.08621731, 0.7832163, 1.8514, -1.860295, 0.08612849, 0.7832266, 1.851613, -1.860086
 84606144, 0.08612758, 0.7832259, 1.851613, -1.860083, 0.08621731, 0.7832163, 1.8514, -1.860295
 84806064, 0.08602545, 0.7832366, 1.851854, -1.85984, 0.08612758, 0.7832259, 1.851613, -1.860083
 85005984, 0.08600372, 0.7832388, 1.851905, -1.859788, 0.08602545, 0.7832366, 1.851854, -1.85984
 85205904, 0.08602695, 0.7832357, 1.851848, -1.859842, 0.08600372, 0.7832388, 1.851905, -1.859788
 85405824, 0.0860549, 0.7832316, 1.851779, -1.859906, 0.08602695, 0.7832357, 1.851848, -1.859842
 85606577, 0.08610152, 0.783226, 1.851668, -1.860015, 0.0860549, 0.7832316, 1.851779, -1.859906
 85806497, 0.08605989, 0.7832306, 1.851766, -1.859917, 0.08610152, 0.783226, 1.851668, -1.860015
 86006417, 0.08600779, 0.7832355, 1.851888, -1.859792, 0.08605989, 0.7832306, 1.851766, -1.859917
 86206337, 0.08598213, 0.7832376, 1.851947, -1.85973, 0.08600779, 0.7832355, 1.851888, -1.859792
 86406257, 0.08598669, 0.7832363, 1.851934, -1.859739, 0.08598213, 0.7832376, 1.851947, -1.85973
 86606177, 0.08601816, 0.783232, 1.851857, -1.859811, 0.08598669, 0.7832363, 1.851934, -1.859739
 86806097, 0.08603019, 0.7832296, 1.851826, -1.859838, 0.08601816, 0.783232, 1.851857, -1.859811
 87006017, 0.08596795, 0.7832357, 1.851972, -1.859689, 0.08603019, 0.7832296, 1.851826, -1.859838
 87205937, 0.0859454, 0.783237, 1.852022, -1.859633, 0.08596795, 0.7832357, 1.851972, -1.859689
 87405857, 0.08597116, 0.7832332, 1.851959, -1.859692, 0.0859454, 0.783237, 1.852022, -1.859633
 87605777, 0.08599289, 0.7832296, 1.851904, -1.859741, 0.08597116, 0.7832332, 1.851959, -1.859692
 87806530, 0.08604216, 0.7832229, 1.851783, -1.859855, 0.08599289, 0.7832296, 1.851904, -1.859741
 88006450, 0.08603017, 0.7832233, 1.85181, -1.859825, 0.08604216, 0.7832229, 1.851783, -1.859855
 88206370, 0.08597899, 0.7832277, 1.851928, -1.859701, 0.08603017, 0.7832233, 1.85181, -1.859825
 88406290, 0.08601736, 0.783222, 1.851833, -1.859789, 0.08597899, 0.7832277, 1.851928, -1.859701
 88606210, 0.08607929, 0.7832135, 1.851681, -1.859931, 0.08601736, 0.783222, 1.851833, -1.859789
 88806130, 0.0860699, 0.7832129, 1.8517, -1.859906, 0.08607929, 0.7832135, 1.851681, -1.859931
 89006050, 0.08605298, 0.783213, 1.851735, -1.859862, 0.0860699, 0.7832129, 1.8517, -1.859906
 89205970, 0.08601979, 0.7832147, 1.851809, -1.85978, 0.08605298, 0.783213, 1.851735, -1.859862
 89405890, 0.08593799, 0.7832215, 1.851997, -1.859581, 0.08601979, 0.7832147, 1.851809, -1.85978
 89605810, 0.0859581, 0.7832168, 1.851943, -1.859624, 0.08593799, 0.7832215, 1.851997, -1.859581
 89806563, 0.08598141, 0.7832125, 1.851883, -1.859675, 0.0859581, 0.7832168, 1.851943, -1.859624
 90006483, 0.08590076, 0.7832192, 1.852069, -1.85948, 0.08598141, 0.7832125, 1.851883, -1.859675
 90206403, 0.1289858, -0.0002376597, 1.852154, -1.858981, 0.08590076, 0.7832192, 1.852069, -1.85948
 90406323, 0.1289854, -0.000277738, 1.851572, -1.859551, 0.1289858, -0.0002376597, 1.852154, -1.858981
 90606243, 0.1289849, -0.0002851674, 1.851458, -1.859651, 0.1289854, -0.000277738, 1.851572, -1.859551
 90806163, 0.1289844, -0.0002584817, 1.851835, -1.85926, 0.1289849, -0.0002851674, 1.851458, -1.859651
 91006083, 0.1289841, -0.0002463733, 1.852004, -1.859082, 0.1289844, -0.0002584817, 1.851835, -1.85926
 91206003, 0.1289834, -0.0002696367, 1.851659, -1.859406, 0.1289841, -0.0002463733, 1.852004, -1.859082
 91405923, 0.1289829, -0.0002932445, 1.851313, -1.859738, 0.1289834, -0.0002696367, 1.851659, -1.859406
 91605843, 0.1289819, -0.0002838978, 1.851433, -1.85959, 0.1289829, -0.0002932445, 1.851313, -1.859738
 91805763, 0.1289813, -0.0002713474, 1.851605, -1.859401, 0.1289819, -0.0002838978, 1.851433, -1.85959
 92006516, 0.1289806, -0.0002524638, 1.851866, -1.859119, 0.1289813, -0.0002713474, 1.851605, -1.859401
 92206436, 0.12898, -0.0002340638, 1.852121, -1.858845, 0.1289806, -0.0002524638, 1.851866, -1.859119
 92406356, 0.1289785, -0.0002282736, 1.852184, -1.858741, 0.12898, -0.0002340638, 1.852121, -1.858845
 92606276, 0.1289782, -0.000242907, 1.851969, -1.858947, 0.1289785, -0.0002282736, 1.852184, -1.858741
 92806196, 0.1289777, -0.0002549342, 1.851789, -1.859113, 0.1289782, -0.000242907, 1.851969, -1.858947
 93006116, 0.1289768, -0.0002581875, 1.851729, -1.859146, 0.1289777, -0.0002549342, 1.851789, -1.859113
 93206036, 0.1289756, -0.0002408, 1.851962, -1.858879, 0.1289768, -0.0002581875, 1.851729, -1.859146
 93405956, 0.1289743, -0.0002231744, 1.852196, -1.858606, 0.1289756, -0.0002408, 1.851962, -1.858879
 93605876, 0.128973, -0.0002194004, 1.852233, -1.858535, 0.1289743, -0.0002231744, 1.852196, -1.858606
 93805796, 0.1289709, -0.0002500073, 1.851761, -1.858943, 0.128973, -0.0002194004, 1.852233, -1.858535
 94006549, 0.1289691, -0.0002883989, 1.851183, -1.859469, 0.1289709, -0.0002500073, 1.851761, -1.858943
 94206469, 0.1289678, -0.0003179516, 1.85074, -1.859877, 0.1289691, -0.0002883989, 1.851183, -1.859469
 94406389, 0.1289659, -0.0003296849, 1.850544, -1.860019, 0.1289678, -0.0003179516, 1.85074, -1.859877
 94606309, 0.1289644, -0.0003169507, 1.850705, -1.859813, 0.1289659, -0.0003296849, 1.850544, -1.860019
 94806229, 0.1289625, -0.0002968716, 1.850967, -1.859498, 0.1289644, -0.0003169507, 1.850705, -1.859813
 95006149, 0.128961, -0.0002826742, 1.851149, -1.859271, 0.1289625, -0.0002968716, 1.850967, -1.859498
 95206069, 0.1289596, -0.0002702032, 1.85131, -1.859072, 0.128961, -0.0002826742, 1.851149, -1.859271
 95405989, 0.1289576, -0.0002628074, 1.851386, -1.858936, 0.1289596, -0.0002702032, 1.85131, -1.859072
 95605909, 0.1289546, -0.0002543749, 1.851465, -1.858772, 0.1289576, -0.0002628074, 1.851386, -1.858936
 95805829, 0.129045, -0.0002625269, 1.852648, -1.86019, 0.1289546, -0.0002543749, 1.851465, -1.858772
 96006582, 0.1290942, -0.0002550975, 1.853464, -1.860792, 0.129045, -0.0002625269, 1.852648, -1.86019
 96206502, 0.1291201, -0.0002486318, 1.853928, -1.86107, 0.1290942, -0.0002550975, 1.853464, -1.860792
 96406422, 0.1291336, -0.0002378507, 1.854277, -1.86111, 0.1291201, -0.0002486318, 1.853928, -1.86107
 96606342, 0.1291342, -0.0002287788, 1.854418, -1.860988, 0.1291336, -0.0002378507, 1.854277, -1.86111
 96806262, 0.1291389, -0.0002176719, 1.854645, -1.860896, 0.1291342, -0.0002287788, 1.854418, -1.860988
 97006182, 0.1291406, -0.0002132348, 1.854733, -1.860857, 0.1291389, -0.0002176719, 1.854645, -1.860896
 97206102, 0.1291389, -0.0002139826, 1.854697, -1.860843, 0.1291406, -0.0002132348, 1.854733, -1.860857
 97406022, 0.1291641, -0.0002149474, 1.855046, -1.861219, 0.1291389, -0.0002139826, 1.854697, -1.860843
 97605942, 0.1292425, -0.0002106222, 1.856236, -1.862285, 0.1291641, -0.0002149474, 1.855046, -1.861219
 97805862, 0.1292792, -0.0002070734, 1.856815, -1.862762, 0.1292425, -0.0002106222, 1.856236, -1.862285
 98005782, 0.1292976, -0.0001990472, 1.857194, -1.86291, 0.1292792, -0.0002070734, 1.856815, -1.862762
 98206535, 0.1293078, -0.0001815482, 1.857594, -1.862806, 0.1292976, -0.0001990472, 1.857194, -1.86291
 98406455, 0.129311, -0.0001583462, 1.857972, -1.862517, 0.1293078, -0.0001815482, 1.857594, -1.862806
 98606375, 0.1293384, -0.0001438168, 1.858576, -1.862703, 0.129311, -0.0001583462, 1.857972, -1.862517
 98806295, 0.129416, -0.0001412271, 1.85973, -1.863782, 0.1293384, -0.0001438168, 1.858576, -1.862703
 99006215, 0.1294554, -0.0001354859, 1.860379, -1.864266, 0.129416, -0.0001412271, 1.85973, -1.863782
 99206135, 0.1294751, -0.0001191554, 1.860898, -1.864314, 0.1294554, -0.0001354859, 1.860379, -1.864266
 99406055, 0.1295104, -9.729656E-05, 1.861721, -1.864509, 0.1294751, -0.0001191554, 1.860898, -1.864314
 99605975, 0.1295906, -9.339004E-05, 1.86293, -1.865606, 0.1295104, -9.729656E-05, 1.861721, -1.864509
 99805895, 0.1296353, -9.833703E-05, 1.863502, -1.86632, 0.1295906, -9.339004E-05, 1.86293, -1.865606
 100005815, 0.1296499, -0.0001110953, 1.863528, -1.866713, 0.1296353, -9.833703E-05, 1.863502, -1.86632
 100206568, 0.1297325, -0.0001265464, 1.864494, -1.868123, 0.1296499, -0.0001110953, 1.863528, -1.866713
 100406488, 0.129767, -0.0001295538, 1.864947, -1.868663, 0.1297325, -0.0001265464, 1.864494, -1.868123
 100606408, 0.1298112, -0.00011655, 1.86577, -1.869112, 0.129767, -0.0001295538, 1.864947, -1.868663
 100806328, 0.1298806, -0.0001063138, 1.866916, -1.869964, 0.1298112, -0.00011655, 1.86577, -1.869112
 101006248, 0.1299542, -0.0001066125, 1.867971, -1.871027, 0.1298806, -0.0001063138, 1.866916, -1.869964
 101206168, 0.1300246, -9.583344E-05, 1.869138, -1.871884, 0.1299542, -0.0001066125, 1.867971, -1.871027
 101406088, 0.130119, -7.258484E-05, 1.870831, -1.872908, 0.1300246, -9.583344E-05, 1.869138, -1.871884
 101606008, 0.1301639, -3.361369E-05, 1.872038, -1.872993, 0.130119, -7.258484E-05, 1.870831, -1.872908
 101805928, 0.1302542, -2.756828E-06, 1.873781, -1.873849, 0.1301639, -3.361369E-05, 1.872038, -1.872993
 102005848, 0.1303522, 2.446354E-05, 1.875582, -1.874867, 0.1302542, -2.756828E-06, 1.873781, -1.873849
 102205768, 0.1304262, 3.647481E-05, 1.87682, -1.875759, 0.1303522, 2.446354E-05, 1.875582, -1.874867
 102406521, 0.1305384, 4.514737E-05, 1.878558, -1.877248, 0.1304262, 3.647481E-05, 1.87682, -1.875759
 102606441, 0.1306629, 4.886231E-05, 1.880402, -1.878985, 0.1305384, 4.514737E-05, 1.878558, -1.877248
 102806361, 0.1307564, 5.225471E-05, 1.881796, -1.880281, 0.1306629, 4.886231E-05, 1.880402, -1.878985
 103006281, 0.1308954, 7.127495E-05, 1.884069, -1.882007, 0.1307564, 5.225471E-05, 1.881796, -1.880281
 103206201, 0.1310368, 9.063535E-05, 1.886383, -1.883764, 0.1308954, 7.127495E-05, 1.884069, -1.882007
 103406121, 0.1312061, 0.0001117633, 1.889121, -1.885894, 0.1310368, 9.063535E-05, 1.886383, -1.883764
 103606041, 0.1313849, 0.0001474387, 1.892208, -1.887954, 0.1312061, 0.0001117633, 1.889121, -1.885894
 103805961, 0.1315719, 0.0001871507, 1.895469, -1.890073, 0.1313849, 0.0001474387, 1.892208, -1.887954
 104005881, 0.131716, 0.0002272866, 1.898118, -1.891567, 0.1315719, 0.0001871507, 1.895469, -1.890073
 104205801, 0.1318871, 0.0002568881, 1.901006, -1.893603, 0.131716, 0.0002272866, 1.898118, -1.891567
 104406554, 0.1320807, 0.0002831678, 1.90417, -1.896011, 0.1318871, 0.0002568881, 1.901006, -1.893603
 104606474, 0.132286, 0.0002893059, 1.907212, -1.898876, 0.1320807, 0.0002831678, 1.90417, -1.896011
 104806394, 0.1324988, 0.000315049, 1.910642, -1.901566, 0.132286, 0.0002893059, 1.907212, -1.898876
 105006314, 0.132636, 0.0003178293, 1.912657, -1.903501, 0.1324988, 0.000315049, 1.910642, -1.901566
 105206234, 0.1328383, 0.0003629278, 1.916215, -1.905761, 0.132636, 0.0003178293, 1.912657, -1.903501
 105406154, 0.1331092, 0.0004217704, 1.920959, -1.908812, 0.1328383, 0.0003629278, 1.916215, -1.905761
 105606074, 0.1333874, 0.0004674594, 1.925619, -1.912158, 0.1331092, 0.0004217704, 1.920959, -1.908812
 105805994, 0.1336704, 0.0004938582, 1.93007, -1.915849, 0.1333874, 0.0004674594, 1.925619, -1.912158
 106005914, 0.1339521, 0.0005212391, 1.934517, -1.919508, 0.1336704, 0.0004938582, 1.93007, -1.915849
 106205834, 0.1342318, 0.0005505118, 1.938961, -1.923109, 0.1339521, 0.0005212391, 1.934517, -1.919508
 106406587, 0.1345185, 0.0005682579, 1.943341, -1.92698, 0.1342318, 0.0005505118, 1.938961, -1.923109
 106606507, 0.1347648, 0.0006038027, 1.947396, -1.930011, 0.1345185, 0.0005682579, 1.943341, -1.92698
 106806427, 0.1350804, 0.000655365, 1.952677, -1.933809, 0.1347648, 0.0006038027, 1.947396, -1.930011
 107006347, 0.1354086, 0.0007044987, 1.958107, -1.937824, 0.1350804, 0.000655365, 1.952677, -1.933809
 107206267, 0.1357709, 0.0007399881, 1.963828, -1.942525, 0.1354086, 0.0007044987, 1.958107, -1.937824
 107406187, 0.1361098, 0.0007735656, 1.969188, -1.946918, 0.1357709, 0.0007399881, 1.963828, -1.942525
 107606107, 0.1365112, 0.0008091022, 1.975473, -1.952181, 0.1361098, 0.0007735656, 1.969188, -1.946918
 107806027, 0.1369235, 0.0008595173, 1.982129, -1.957386, 0.1365112, 0.0008091022, 1.975473, -1.952181
 108005947, 0.1373241, 0.0009133469, 1.988667, -1.962375, 0.1369235, 0.0008595173, 1.982129, -1.957386
 108205867, 0.1377994, 0.0009647806, 1.996245, -1.968473, 0.1373241, 0.0009133469, 1.988667, -1.962375
 108405787, 0.1380131, 0.0009604547, 1.999257, -1.97161, 0.1377994, 0.0009647806, 1.996245, -1.968473
 108606540, 0.138418, 0.0009905576, 2.005514, -1.977001, 0.1380131, 0.0009604547, 1.999257, -1.97161
 108806460, 0.1389101, 0.001036081, 2.013249, -1.983426, 0.138418, 0.0009905576, 2.005514, -1.977001
 109006380, 0.1393976, 0.001091397, 2.021058, -1.989643, 0.1389101, 0.001036081, 2.013249, -1.983426
 109206300, 0.1398736, 0.00115416, 2.028808, -1.995587, 0.1393976, 0.001091397, 2.021058, -1.989643
 109406220, 0.1403777, 0.001213278, 2.036911, -2.001989, 0.1398736, 0.00115416, 2.028808, -1.995587
 109606140, 0.1408849, 0.00125285, 2.044777, -2.008717, 0.1403777, 0.001213278, 2.036911, -2.001989
 109806060, 0.1414362, 0.001286312, 2.053189, -2.016166, 0.1408849, 0.00125285, 2.044777, -2.008717
 110005980, 0.1419337, 0.001299987, 2.060543, -2.023126, 0.1414362, 0.001286312, 2.053189, -2.016166
 110205900, 0.1425341, 0.001353812, 2.069954, -2.030989, 0.1419337, 0.001299987, 2.060543, -2.023126
 110405820, 0.1430434, 0.00140105, 2.07796, -2.037636, 0.1425341, 0.001353812, 2.069954, -2.030989
 110606573, 0.1435811, 0.001465204, 2.086619, -2.044448, 0.1430434, 0.00140105, 2.07796, -2.037636
 110806493, 0.1441626, 0.001534694, 2.095984, -2.051814, 0.1435811, 0.001465204, 2.086619, -2.044448
 111006413, 0.1447787, 0.001586758, 2.105596, -2.059928, 0.1441626, 0.001534694, 2.095984, -2.051814
 111206333, 0.1451872, 0.001594162, 2.11158, -2.065699, 0.1447787, 0.001586758, 2.105596, -2.059928
 111406253, 0.1457609, 0.001625953, 2.12029, -2.073494, 0.1451872, 0.001594162, 2.11158, -2.065699
 111606173, 0.1464777, 0.001680524, 2.131388, -2.083021, 0.1457609, 0.001625953, 2.12029, -2.073494
 111806093, 0.1472035, 0.001737775, 2.142651, -2.092638, 0.1464777, 0.001680524, 2.131388, -2.083021
 112006013, 0.1478565, 0.001784548, 2.152719, -2.101359, 0.1472035, 0.001737775, 2.142651, -2.092638
 112205933, 0.1485582, 0.001814357, 2.163242, -2.111025, 0.1478565, 0.001784548, 2.152719, -2.101359
 112405853, 0.149195, 0.0018769, 2.173303, -2.119285, 0.1485582, 0.001814357, 2.163242, -2.111025
 112605773, 0.1498841, 0.001908376, 2.183669, -2.128746, 0.149195, 0.0018769, 2.173303, -2.119285
 112806526, 0.1505597, 0.001976595, 2.19437, -2.137484, 0.1498841, 0.001908376, 2.183669, -2.128746
 113006446, 0.1512756, 0.002004643, 2.205073, -2.14738, 0.1505597, 0.001976595, 2.19437, -2.137484
 113206366, 0.1519746, 0.002062729, 2.215964, -2.156599, 0.1512756, 0.002004643, 2.205073, -2.14738
 113406286, 0.1527437, 0.002107838, 2.227677, -2.167015, 0.1519746, 0.002062729, 2.215964, -2.156599
 113606206, 0.1535476, 0.002130716, 2.239572, -2.178251, 0.1527437, 0.002107838, 2.227677, -2.167015
 113806126, 0.154265, 0.002192812, 2.250786, -2.187678, 0.1535476, 0.002130716, 2.239572, -2.178251
 114006046, -0.4293706, 0.2690584, 2.259176, -2.194437, 0.154265, 0.002192812, 2.250786, -2.187678
 114205966, -1.362237, 0.4637609, 2.207982, -2.169617, -0.4293706, 0.2690584, 2.259176, -2.194437
 114405886, -1.446453, 0.26172, 1.990919, -1.976362, -1.362237, 0.4637609, 2.207982, -2.169617
 114605806, -1.642954, 0.313909, 1.996322, -1.93574, -1.446453, 0.26172, 1.990919, -1.976362
 114806559, -1.696928, 0.2958738, 2.008283, -1.913251, -1.642954, 0.313909, 1.996322, -1.93574
 115006479, -1.420093, 0.3892016, 2.009556, -1.907273, -1.696928, 0.2958738, 2.008283, -1.913251
 115206399, -1.129093, 0.2737718, 2.002484, -1.913825, -1.420093, 0.3892016, 2.009556, -1.907273
 115406319, -1.369141, 0.2569566, 1.99412, -1.925753, -1.129093, 0.2737718, 2.002484, -1.913825
 115606239, -1.204556, -0.01131639, 1.988404, -1.935672, -1.369141, 0.2569566, 1.99412, -1.925753
 115806159, -1.312328, 0.2588925, 1.988407, -1.940174, -1.204556, -0.01131639, 1.988404, -1.935672
 116006079, -1.243566, 0.2439853, 1.992751, -1.940358, -1.312328, 0.2588925, 1.988407, -1.940174
 116205999, -1.132973, 7.28853E-05, 1.998794, -1.93971, -1.243566, 0.2439853, 1.992751, -1.940358
 116405919, -0.8495107, 0.1277479, 2.004386, -1.938706, -1.132973, 7.28853E-05, 1.998794, -1.93971
 116605839, -0.6469716, 0.374267, 2.008101, -1.939022, -0.8495107, 0.1277479, 2.004386, -1.938706
 116806592, -0.5511764, 0.5052922, 2.009653, -1.942108, -0.6469716, 0.374267, 2.008101, -1.939022
 117006512, -0.5424361, 0.4380907, 2.007686, -1.947353, -0.5511764, 0.5052922, 2.009653, -1.942108
 117206432, -0.7888792, 0.1871177, 2.004388, -1.953787, -0.5424361, 0.4380907, 2.007686, -1.947353
 117406352, -0.4799595, 0.3715824, 2.004236, -1.957684, -0.7888792, 0.1871177, 2.004388, -1.953787
 117606272, -0.3668747, 0.3069779, 2.006345, -1.95766, -0.4799595, 0.3715824, 2.004236, -1.957684
 117806192, -0.3872001, 0.4116352, 2.008622, -1.956528, -0.3668747, 0.3069779, 2.006345, -1.95766
 118006112, -0.5910389, 0.3155128, 2.010251, -1.955582, -0.3872001, 0.4116352, 2.008622, -1.956528
 118206032, -0.3514497, 0.1868769, 2.011588, -1.95584, -0.5910389, 0.3155128, 2.010251, -1.955582
 118405952, -0.4626304, 0.1026659, 2.013005, -1.956481, -0.3514497, 0.1868769, 2.011588, -1.95584
 118605872, -0.2947113, -0.05466322, 2.013643, -1.954609, -0.4626304, 0.1026659, 2.013005, -1.956481
 118805792, -0.4513971, 0.1145019, 2.013515, -1.951021, -0.2947113, -0.05466322, 2.013643, -1.954609
 119006545, -0.2181952, -0.01275235, 2.01119, -1.946156, -0.4513971, 0.1145019, 2.013515, -1.951021
 119206465, -0.2570763, 0.09770241, 2.005373, -1.941188, -0.2181952, -0.01275235, 2.01119, -1.946156
 119406385, -0.4277136, 0.3155986, 1.996011, -1.935559, -0.2570763, 0.09770241, 2.005373, -1.941188
 119606305, -0.1970283, 0.1875535, 1.983462, -1.92881, -0.4277136, 0.3155986, 1.996011, -1.935559
 119806225, -0.1834173, 0.1752173, 1.968973, -1.92063, -0.1970283, 0.1875535, 1.983462, -1.92881
 120006145, -0.2912384, 0.3133638, 1.955447, -1.908702, -0.1834173, 0.1752173, 1.968973, -1.92063
 120206065, -0.2989087, 0.3140266, 1.942334, -1.893667, -0.2912384, 0.3133638, 1.955447, -1.908702
 120405985, -0.4655679, 0.163704, 1.928339, -1.87779, -0.2989087, 0.3140266, 1.942334, -1.893667
 120605905, -0.2417863, 0.1144004, 1.914591, -1.861012, -0.4655679, 0.163704, 1.928339, -1.87779
 120805825, -0.06052862, 0.2024832, 1.900297, -1.844226, -0.2417863, 0.1144004, 1.914591, -1.861012
 121006578, -0.1449341, 0.147196, 1.885386, -1.828544, -0.06052862, 0.2024832, 1.900297, -1.844226
 121206498, -0.1557065, 0.05548723, 1.868472, -1.816211, -0.1449341, 0.147196, 1.885386, -1.828544
 121406418, -0.06510686, 0.08405299, 1.851993, -1.802521, -0.1557065, 0.05548723, 1.868472, -1.816211
 121606338, -0.06345717, -0.06684805, 1.837492, -1.78708, -0.06510686, 0.08405299, 1.851993, -1.802521
 121806258, -0.1219295, 0.03993186, 1.824866, -1.770197, -0.06345717, -0.06684805, 1.837492, -1.78708
 122006178, -0.06471039, 0.0550328, 1.812848, -1.753152, -0.1219295, 0.03993186, 1.824866, -1.770197
 122206098, -0.1674061, 0.0275221, 1.798508, -1.738739, -0.06471039, 0.0550328, 1.812848, -1.753152
 122406018, 0.06928686, -0.008252079, 1.782046, -1.72668, -0.1674061, 0.0275221, 1.798508, -1.738739
 122605938, 0.1844698, 0.03811337, 1.764498, -1.715051, 0.06928686, -0.008252079, 1.782046, -1.72668
 122805858, -0.09385854, 0.2925946, 1.748749, -1.70185, 0.1844698, 0.03811337, 1.764498, -1.715051
 123005778, -0.1647818, 0.08910966, 1.732856, -1.68848, -0.09385854, 0.2925946, 1.748749, -1.70185
 123206531, -0.05408503, 0.0278032, 1.717585, -1.674714, -0.1647818, 0.08910966, 1.732856, -1.68848
 123406451, 0.01659952, 0.197192, 1.701397, -1.655686, -0.05408503, 0.0278032, 1.717585, -1.674714
 123606371, 0.06978942, 0.1561285, 1.688569, -1.639766, 0.01659952, 0.197192, 1.701397, -1.655686
 123806291, 0.1269164, 0.2191678, 1.673586, -1.625838, 0.06978942, 0.1561285, 1.688569, -1.639766
 124006211, 0.1763588, 0.04999824, 1.657259, -1.613337, 0.1269164, 0.2191678, 1.673586, -1.625838
 124206131, -0.03717903, -0.03249207, 1.641864, -1.600138, 0.1763588, 0.04999824, 1.657259, -1.613337
