TimeUS,CAN,CAE,CAD,CAe,NAN,NAE,NAD,NAe,m10,m00,Gye
 8425795, 0.01136754, 0.0003521068, -0.05493043, 1.567772, 0.003447278, -0.0009871441, -0.07803199, 1.566978, -0.9757831, -0.2187405, 11.72367
 8606556, 0.003632467, -0.0007533598, -0.08001361, 1.60108, -0.0001053945, 9.190226E-05, -0.001018357, 0.03363385, -0.9814997, -0.1914634, 28347.75
 8806476, 0.0001526288, 1.658939E-05, -0.003313043, 0.07129171, 8.807565E-05, 8.436442E-05, -0.001067009, 0.03718013, -0.9869645, -0.160938, 43.18072
 9006396, 5.226103E-05, 0.0002111727, -0.00309779, 0.07482506, 0.000116906, 5.071903E-05, -0.001133804, 0.03718013, -0.990826, -0.1351437, 44.76286
 9206316, 0.0005031109, 0.0001864772, -0.003193448, 0.07482506, 0.0003678887, 8.2218E-05, -0.0008983558, 0.03718013, -0.9935443, -0.1134446, 44.76286
 9406236, 0.0005420728, 0.0003032014, -0.003284474, 0.07482506, -3.343616E-05, 0.0005853602, -0.001335766, 0.03718013, -0.9954585, -0.09519687, 44.76286
 9606156, 0.0001312213, 0.0008702832, -0.003551504, 0.07482506, -0.0001152051, 0.0004466574, -0.0010094, 0.03718013, -0.9968081, -0.07983479, 44.76286
 9806076, 5.263524E-05, 0.000377942, -0.003474504, 0.07483085, -0.0001722829, 0.0001099787, -0.001350016, 0.03719873, -0.9977587, -0.06691508, 44.76818
 10005996, -0.0001037189, 0.0002400373, -0.003611882, 0.07486238, 3.640034E-05, -0.000185404, -0.0009554735, 0.03719873, -0.9984273, -0.0560624, 44.78527
 10205916, 8.293641E-05, -2.691506E-05, -0.003034302, 0.07486238, 0.0002475821, 0.0002614036, -0.0009464041, 0.03719873, -0.9988958, -0.04697924, 44.78527
 10405836, 0.0004009313, 0.0004642816, -0.003147727, 0.07486238, 0.0004971712, 1.742695E-07, -0.001453383, 0.03719873, -0.999225, -0.03936258, 44.78527
 10606589, 0.0007124525, 0.0002679877, -0.003627812, 0.07501738, 4.992101E-05, -0.000181214, -0.001026505, 0.03735372, -0.9994572, -0.0329418, 43.19506
 10806509, 0.0002143866, 8.024039E-05, -0.003433048, 0.07501159, 0.0002959419, 0.0001425361, -0.00127683, 0.03718014, -0.9996195, -0.02758489, 44.8735
 11006429, 0.000402274, 0.0004013733, -0.003603744, 0.07482506, -0.000110588, 0.0001023422, -0.001170498, 0.03718014, -0.9997336, -0.02308024, 44.76286
 11206349, 0.0001281963, 0.0001565158, -0.003352269, 0.07482506, 0.0002471704, 0.0001468803, -0.001289152, 0.03718014, -0.9998137, -0.01930197, 44.76286
 11406269, 0.0006466609, 0.0002571243, -0.003499218, 0.07482506, 0.0007056731, -0.0001980052, -0.001373446, 0.03718014, -0.9998698, -0.01613139, 44.76286
 11606189, 0.0008814077, -0.0001023157, -0.003605867, 0.07482506, 0.0002685707, 2.200547E-05, -0.001246641, 0.03718014, -0.9999092, -0.01347738, 44.76286
 11806109, 0.0007648391, 0.0004360591, -0.003483331, 0.07482506, 0.0002325424, 0.0004736943, -0.001172951, 0.03718014, -0.9999366, -0.01125279, 44.76286
 12006029, 0.0006231914, 0.0008420207, -0.00330473, 0.07482506, 8.441087E-05, 0.0001814903, -0.001405026, 0.03718014, -0.9999559, -0.009397981, 44.76286
 12205949, 0.0004669423, 0.0005310419, -0.003733362, 0.07482506, 0.0002268599, 3.172009E-05, -0.0009188384, 0.03718014, -0.9999693, -0.007837355, 44.76286
 12405869, 0.0005707584, 0.00026182, -0.003047529, 0.07482506, -0.0001682003, 0.000236069, -0.001125913, 0.03718014, -0.9999789, -0.006499079, 44.76286
 12605789, 0.0001451683, 0.0005954994, -0.003379921, 0.07482506, 0.0003876385, 7.538E-05, -0.0008679469, 0.03718014, -0.9999863, -0.005251723, 44.76286
 12806542, 0.0008105272, 0.0001631803, -0.003020172, 0.07498554, 0.0002294454, -1.453093E-05, -0.001121595, 0.03735372, -0.9999912, -0.004203362, 44.85975
 13006462, 0.0005984776, -1.904193E-05, -0.003290223, 0.07501738, 0.0003140419, -0.0001349918, -0.001639623, 0.03719873, -0.9999945, -0.003337318, 44.87799
 13206382, 0.000625449, 0.000264302, -0.003655956, 0.07486238, 3.809598E-05, 0.0001331003, -0.001090912, 0.03719873, -0.9999965, -0.002628197, 44.78527
 13406302, 3.576167E-05, 0.0003033827, -0.003271178, 0.07486238, -0.0001554833, 0.0002642378, -0.00119937, 0.03719873, -0.9999979, -0.002042319, 44.78527
 13606222, -3.620963E-05, 0.0007375128, -0.003216675, 0.07486238, -9.250687E-05, 0.0002738802, -0.001055044, 0.03719873, -0.9999988, -0.001544292, 44.78527
 13806142, 0.0002866502, 0.0006540554, -0.003267542, 0.07485683, 0.0005481223, 0.0002013227, -0.001206357, 0.03718014, -0.9999994, -0.001115899, 44.78107
 14006062, 0.0009291701, 0.0004710962, -0.00325474, 0.07482506, 2.546396E-05, 0.0001844161, -0.001150745, 0.03718014, -0.9999998, -0.0007448239, 44.76286
 14205982, 0.0003315968, 0.0002959724, -0.003409654, 0.07482506, 2.933769E-05, -0.0001078892, -0.00127615, 0.03718014, -0.9999999, -0.0004276571, 44.76286
 14405902, 0.0004143098, 0.0001984321, -0.003377521, 0.07482506, -4.842255E-05, 0.000205967, -0.001191329, 0.03718014, -1, -0.000162959, 44.76286
 14605822, -4.227813E-05, 0.0003002167, -0.003419831, 0.07482506, 7.952865E-05, -1.534786E-05, -0.001146852, 0.03718014, -1, 5.774075E-05, 44.76286
 14806575, 0.0002899414, 0.0001966047, -0.003301312, 0.07498562, 0.0002453736, -3.794531E-05, -0.001226106, 0.03735372, -1, 0.0002462029, 44.85975
 15006495, 0.0005315608, 7.423061E-05, -0.003490733, 0.07501738, 0.0002984325, -3.197269E-05, -0.001049418, 0.03719873, -0.9999999, 0.0003988513, 44.87799
 15206415, 0.0003147924, 0.0002240375, -0.003445995, 0.07486238, 0.0001085602, 0.0003893249, -0.001273013, 0.03719873, -0.9999999, 0.0005139707, 44.78527
 15406335, 0.0003454663, 0.000799865, -0.003354484, 0.07486238, 0.000333152, -1.129607E-05, -0.0009245176, 0.03719873, -0.9999999, 0.0005968719, 44.78527
 15606255, 0.0004353459, 0.0004031418, -0.002988982, 0.07486238, 0.0002408119, 0.0001085836, -0.0008051654, 0.03719873, -0.9999998, 0.0006542532, 44.78527
 15806175, 0.0005083146, 0.0005019779, -0.002940749, 0.07485683, 0.0002137036, 0.0001671457, -0.001402499, 0.03718014, -0.9999998, 0.0007011264, 44.78107
 16006095, 0.0004759173, 0.0005343875, -0.003274767, 0.07482506, 0.0001123353, 0.0002637647, -0.001076699, 0.03718014, -0.9999998, 0.0007479471, 44.76286
 16206015, 0.0003844604, 0.0005046764, -0.003657165, 0.07482506, 0.0001212451, 5.81687E-05, -0.001575886, 0.03718014, -0.9999996, 0.0007880292, 44.76286
 16405935, 0.0003692169, 0.0004024758, -0.003746707, 0.07482506, 0.0002670289, 1.45131E-05, -0.001301402, 0.03718014, -0.9999996, 0.0008229357, 44.76286
 16605855, 0.0004012337, 0.0002281388, -0.003484115, 0.07482506, -8.266417E-05, 0.000124061, -0.001250935, 0.03718014, -0.9999996, 0.0008573325, 44.76286
 16805775, 0.0002981247, 0.0007869707, -0.003245867, 0.07482506, 0.0002832909, 0.0004537048, -0.0009446537, 0.03718014, -0.9999996, 0.0008903495, 44.76286
 17006528, 0.000661766, 0.0008448507, -0.003079935, 0.07497998, 0.0005163376, 0.0003682422, -0.001423629, 0.03733505, -0.9999996, 0.0009195436, 44.85553
 17206448, 0.0008105674, 0.0006191021, -0.003518992, 0.07497998, 6.107269E-05, -0.0001027306, -0.0008103084, 0.03718014, -0.9999995, 0.0009556332, 44.85553
 17406368, 0.0006698247, 1.082214E-05, -0.003182785, 0.07482506, 0.0004045739, -6.638966E-05, -0.001400893, 0.03718014, -0.9999995, 0.0009926322, 44.76286
 17606288, 0.0008508277, 0.0002412355, -0.003732138, 0.07482506, 0.0006103707, 0.0002420132, -0.001308211, 0.03718014, -0.9999995, 0.00102251, 44.76286
 17806208, 0.0007191725, 0.000659028, -0.003416051, 0.07483039, 0.000113127, 0.0002914048, -0.001087771, 0.03719873, -0.9999995, 0.001042175, 44.76678
 18006128, 0.0002559898, 0.0005315491, -0.003405297, 0.07486238, 0.0001798129, -0.0001556013, -0.001437612, 0.03719873, -0.9999995, 0.001058535, 44.78527
 18206048, 0.0004556709, 0.0002725318, -0.003480032, 0.07486238, 0.000147494, 0.0003445468, -0.001194018, 0.03719873, -0.9999994, 0.00106099, 44.78527
 18405968, 0.0006767873, 0.0009734423, -0.003347478, 0.07486238, 6.093727E-05, 0.0006086956, -0.000921609, 0.03719873, -0.9999994, 0.00104129, 44.78527
 18605888, 0.000409278, 0.001406714, -0.002959919, 0.07486238, 0.000195562, 0.0001901164, -0.00138291, 0.03719873, -0.9999995, 0.001004742, 44.78527
 18805808, 0.0005926372, 0.0009181021, -0.003505065, 0.07485706, 0.0003465708, 0.0003181109, -0.001252823, 0.03718014, -0.9999995, 0.0009889487, 44.78135
 19006561, 0.0008966654, 0.000683351, -0.003241016, 0.07497998, 0.0006665385, 9.056439E-05, -0.001212298, 0.03733505, -0.9999995, 0.001003108, 44.85553
 19206481, 0.001051981, 0.0005073251, -0.003385386, 0.07497998, 6.902724E-05, 0.0005595773, -0.0009688482, 0.03718014, -0.9999995, 0.001020817, 44.85553
 19406401, 0.0003800043, 0.0007295155, -0.003281909, 0.07482506, 0.0001836462, 0.0002933033, -0.001303809, 0.03718014, -0.9999995, 0.0010334, 44.76286
 19606321, 0.0004297792, 0.0006982348, -0.003472204, 0.07482506, -0.0001948605, 0.0006199525, -0.001340219, 0.03718014, -0.9999995, 0.001040635, 44.76286
 19806241, 0.0001825838, 0.0008155527, -0.00376965, 0.07483039, 0.000250736, 0.0002260647, -0.001036544, 0.03719873, -0.9999994, 0.001038826, 44.76678
 20006161, 0.0005870929, 0.0004627644, -0.003198085, 0.07486238, -0.0001312332, 0.0004106775, -0.001340061, 0.03719873, -0.9999994, 0.001039519, 44.78527
 20206081, 0.0003109698, 0.001010516, -0.003443941, 0.07486238, 1.044778E-05, 0.0003886699, -0.0008396711, 0.03719873, -0.9999994, 0.001035334, 44.78527
 20406001, 0.0002349678, 0.0009160521, -0.003066175, 0.07486238, 0.0002608317, 0.0002949278, -0.001157495, 0.03719873, -0.9999994, 0.001022566, 44.78527
 20605921, 0.0005885873, 0.0008888828, -0.003187925, 0.07486238, 0.0001197546, 0.0002241219, -0.001147432, 0.03719873, -0.9999995, 0.001008189, 44.78527
 20805841, 0.0003579087, 0.0006235765, -0.003222814, 0.07485729, -0.0002329477, 0.0003565222, -0.001367497, 0.03718014, -0.9999995, 0.001009426, 44.78163
 21005761, 0.0002116845, 0.0006122376, -0.003482174, 0.07482506, 0.0002591765, -5.231618E-05, -0.001048676, 0.03718014, -0.9999995, 0.00102511, 44.76286
 21206514, 0.0007542126, 0.0001703298, -0.003019683, 0.07497998, 0.0004874153, 0.0003142946, -0.001131755, 0.03733505, -0.9999995, 0.001040431, 44.85553
 21406434, 0.001010424, 0.0009614163, -0.003340373, 0.07497998, 0.0005835527, 0.0002944592, -0.0009297584, 0.03718014, -0.9999994, 0.001034823, 44.85553
 21606354, 0.001091442, 0.0007957506, -0.003055856, 0.07482506, 0.0002730738, 0.0002554067, -0.0009953855, 0.03718014, -0.9999994, 0.001030316, 44.76286
 21806274, 0.0006393003, 0.0008982531, -0.003160861, 0.07482506, 0.0004184576, 0.0001344703, -0.001268048, 0.03718014, -0.9999994, 0.001043113, 44.76286
 22006194, 0.0009081842, 0.0004150371, -0.003289777, 0.07482506, 0.0001188373, 0.0001109267, -0.0009940723, 0.03718014, -0.9999994, 0.001064567, 44.76286
 22206114, 0.0006846374, 0.0006393504, -0.003430417, 0.07482506, 0.0003962349, 0.0002952365, -0.001245226, 0.03718014, -0.9999994, 0.001084416, 44.76286
 22406034, 0.0008464984, 0.0006822122, -0.003395627, 0.07482506, 0.000398567, 0.0006236103, -0.001374392, 0.03718014, -0.9999993, 0.001234876, 44.76286
 22605954, 0.0008969046, 0.001167585, -0.003616513, 0.07482506, 0.0003107574, 0.0004331303, -0.001035013, 0.03718014, -0.999999, 0.001411744, 44.76286
 22805874, 0.00113277, 0.0009406514, -0.003263367, 0.07483016, 0.0006161331, -2.714242E-05, -0.001226807, 0.03719873, -0.9999987, 0.001578239, 44.7665
 23005794, 0.001259226, 0.0008158197, -0.003750171, 0.07486238, 0.0002972364, 0.0002877461, -0.001267468, 0.03719873, -0.9999985, 0.001739922, 44.78527
 23206547, 0.001231001, 0.001136617, -0.003460628, 0.07501738, 0.0005485329, 0.0004268111, -0.001047561, 0.03735372, -0.9999982, 0.001898242, 44.87799
 23406467, 0.001353205, 0.00118778, -0.003133287, 0.07501738, 0.0004140198, 0.0004026853, -0.001265858, 0.03719873, -0.9999979, 0.002051129, 44.87799
 23606387, 0.001211423, 0.001188901, -0.003424931, 0.07486238, 0.0003739243, 0.0002337308, -0.001211801, 0.03719873, -0.9999975, 0.002200424, 44.78527
 23806307, 0.001348806, 0.001165401, -0.003293114, 0.07485729, 0.0005449326, 0.0005789797, -0.0009987805, 0.03718014, -0.9999971, 0.00234453, 44.78163
 24006227, 0.001749014, 0.00176583, -0.003176724, 0.07482506, 0.0007314585, 0.0006929276, -0.001421694, 0.03718014, -0.9999968, 0.0024856, 44.76286
 24206147, 0.001910332, 0.00162104, -0.0034547, 0.07482506, 0.000628954, 0.0006976874, -0.001102341, 0.03718014, -0.9999964, 0.00262208, 44.76286
 24406067, 0.001941173, 0.001951155, -0.003325575, 0.07482506, 0.0007505413, 0.000531201, -0.001112853, 0.03718014, -0.9999961, 0.002755019, 44.76286
 24605987, 0.001890208, 0.001879004, -0.003366481, 0.07482506, 0.0006227911, 0.0006891292, -0.00133198, 0.03718014, -0.9999957, 0.002885084, 44.76286
 24805907, 0.00210806, 0.002114644, -0.003491405, 0.07482993, 0.00095971, 0.001093612, -0.001195607, 0.03719873, -0.9999954, 0.003010433, 44.76622
 25005827, 0.002311019, 0.002825289, -0.003422588, 0.07486238, 0.000487603, 0.0009938388, -0.001085533, 0.03719873, -0.9999949, 0.003132051, 44.78527
 25206580, 0.00229338, 0.002682155, -0.003267018, 0.07501738, 0.0009539665, 0.0008324851, -0.001070267, 0.03735372, -0.9999945, 0.003251815, 44.87799
 25406500, 0.002841892, 0.002416638, -0.003098007, 0.07501738, 0.0009967816, 0.0008925172, -0.001035539, 0.03719873, -0.999994, 0.003367682, 44.87799
 25606420, 0.002726467, 0.002699098, -0.003322542, 0.07486238, 0.0008354341, 0.001151515, -0.001359096, 0.03719873, -0.9999937, 0.00348062, 44.78527
 25806340, 0.00245925, 0.003151918, -0.003575476, 0.07485752, 0.0006899321, 0.0009993237, -0.001041915, 0.03718014, -0.9999932, 0.003591739, 44.78191
 26006260, 0.002560616, 0.002759136, -0.003344081, 0.07482506, 0.001023843, 0.001027491, -0.001014755, 0.03718014, -0.9999928, 0.003699449, 44.76286
 26206180, 0.002962223, 0.00301118, -0.003262154, 0.07482506, 0.001356252, 0.001003051, -0.001298562, 0.03718014, -0.9999924, 0.003805609, 44.76286
 26406100, 0.003405347, 0.002933331, -0.003414768, 0.07482506, 0.001079948, 0.001544031, -0.0009293748, 0.03718014, -0.999992, 0.003907031, 44.76286
 26606020, 0.003208686, 0.003593907, -0.003147992, 0.07482506, 0.001023283, 0.001140958, -0.0009425778, 0.03718014, -0.9999915, 0.004005427, 44.76286
 26805940, 0.003301403, 0.003178864, -0.00316228, 0.07482506, 0.00130286, 0.001286117, -0.001116092, 0.03718014, -0.9999911, 0.004102241, 44.76286
 27005860, 0.003648689, 0.003317129, -0.003298784, 0.07482506, 0.001198897, 0.001238128, -0.001256579, 0.03718014, -0.9999907, 0.004195524, 44.76286
 27205780, 0.003316596, 0.003376144, -0.003577087, 0.07482506, 0.0009917096, 0.0007429227, -0.001435207, 0.03718014, -0.9999903, 0.004287119, 44.76286
 27406533, 0.003214094, 0.003031349, -0.003601428, 0.07497998, 0.001364323, 0.001161871, -0.001028894, 0.03733505, -0.9999899, 0.004377414, 44.85553
 27606453, 0.003640375, 0.00365066, -0.003077052, 0.07497998, 0.001508218, 0.001782124, -0.000938761, 0.03718014, -0.9999895, 0.004451449, 44.85553
 27806373, 0.003904354, 0.00426848, -0.003100917, 0.07482993, 0.00114629, 0.001358045, -0.001262257, 0.03719873, -0.9999893, 0.004496224, 44.76622
 28006293, 0.003512416, 0.003790342, -0.00345896, 0.07486238, 0.001262052, 0.001324168, -0.001172957, 0.03719873, -0.999989, 0.004540402, 44.78527
 28206213, 0.00370764, 0.003847867, -0.003293814, 0.07486238, 0.001357333, 0.001214295, -0.001236925, 0.03719873, -0.9999889, 0.004582881, 44.78527
 28406133, 0.003840295, 0.003515485, -0.003650244, 0.07486238, 0.001277993, 0.001269234, -0.001019542, 0.03719873, -0.9999887, 0.004624933, 44.78527
 28606053, 0.004021712, 0.003717057, -0.003300327, 0.07486238, 0.001189507, 0.001488251, -0.001224028, 0.03719873, -0.9999884, 0.004665749, 44.78527
 28805973, 0.003687998, 0.004164292, -0.003452282, 0.07485775, 0.001086251, 0.001371127, -0.001282616, 0.03718014, -0.9999882, 0.004705607, 44.78219
 29005893, 0.003786523, 0.004111934, -0.003503426, 0.07482506, 0.001411496, 0.001433748, -0.0009694012, 0.03718014, -0.9999881, 0.004744184, 44.76286
 29205813, 0.003964526, 0.00417268, -0.003150454, 0.07482506, 0.001269278, 0.001168906, -0.001196673, 0.03718014, -0.9999878, 0.004782421, 44.76286
 29406566, 0.003950536, 0.004090013, -0.003479297, 0.07497998, 0.001767588, 0.001303087, -0.001224681, 0.03733505, -0.9999876, 0.004820853, 44.85553
 29606486, 0.0045065, 0.0039969, -0.003316448, 0.07497998, 0.001398316, 0.001628339, -0.0009627459, 0.03718014, -0.9999875, 0.00485821, 44.85553
 29806406, 0.003996258, 0.004493108, -0.003037589, 0.0748297, 0.001654394, 0.001535408, -0.001073501, 0.03719873, -0.9999872, 0.004894508, 44.76594
 30006326, 0.004405144, 0.004284069, -0.003057382, 0.07486238, 0.001522643, 0.001619855, -0.001329099, 0.03719873, -0.999987, 0.004929573, 44.78527
 30206246, 0.004292539, 0.004338573, -0.003614763, 0.07486238, 0.001552017, 0.001738226, -0.001110432, 0.03719873, -0.9999868, 0.004964238, 44.78527
 30406166, 0.004405674, 0.004692636, -0.003327725, 0.07486238, 0.001587222, 0.001454732, -0.001561946, 0.03719873, -0.9999866, 0.004997752, 44.78527
 30606086, 0.004657156, 0.004487249, -0.003774582, 0.07486238, 0.001776609, 0.001612222, -0.001038642, 0.03719873, -0.9999864, 0.005031563, 44.78527
 30806006, 0.004366802, 0.004472852, -0.003144989, 0.07486238, 0.001357292, 0.001759054, -0.0009893237, 0.03719873, -0.9999863, 0.005063409, 44.78527
 31005926, 0.004125135, 0.004401491, -0.003465316, 0.07486238, 0.001552161, 0.001365494, -0.001412889, 0.03719873, -0.9999861, 0.005094532, 44.78527
 31205846, 0.004551229, 0.004367311, -0.003694602, 0.07486238, 0.001614921, 0.001737587, -0.001119876, 0.03719873, -0.9999859, 0.005124879, 44.78527
 31405766, 0.004684448, 0.0049183, -0.003481864, 0.07486238, 0.00178267, 0.001424719, -0.001554398, 0.03719873, -0.9999857, 0.005154415, 44.78527
 31606519, 0.004996324, 0.004453631, -0.003802278, 0.07501738, 0.001572462, 0.001672673, -0.001385235, 0.03735372, -0.9999855, 0.005183309, 44.87799
 31806439, 0.004783502, 0.004650986, -0.003537596, 0.07501738, 0.001691149, 0.001744577, -0.001229628, 0.03719873, -0.9999853, 0.005212603, 44.87799
 32006359, 0.004707009, 0.004997982, -0.00325503, 0.07486238, 0.001761263, 0.001644485, -0.001062498, 0.03719873, -0.9999852, 0.005241489, 44.78527
 32206279, 0.004830976, 0.004692158, -0.003257508, 0.07486238, 0.001616583, 0.001475616, -0.001583149, 0.03719873, -0.999985, 0.005269045, 44.78527
 32406199, 0.00492879, 0.004643495, -0.003982359, 0.07486238, 0.00160974, 0.0020333, -0.001327686, 0.03719873, -0.9999849, 0.005296445, 44.78527
 32606119, 0.004857378, 0.005394419, -0.003627018, 0.07486238, 0.001931155, 0.001815194, -0.0009198, 0.03719873, -0.9999847, 0.005322096, 44.78527
 32806039, 0.005296142, 0.005007105, -0.003170318, 0.07486238, 0.001929573, 0.001762273, -0.001463481, 0.03719873, -0.9999849, 0.005277697, 44.78527
 33005959, 0.005287717, 0.004958045, -0.00341501, 0.07486238, 0.001845207, 0.001580064, -0.0007972936, 0.03719873, -0.9999851, 0.005234006, 44.78527
 33205879, 0.005063602, 0.00491869, -0.002821246, 0.07486238, 0.00183856, 0.001769082, -0.001183674, 0.03719873, -0.9999853, 0.005191488, 44.78527
 33405799, 0.005054162, 0.005252012, -0.002991384, 0.07486238, 0.001780248, 0.002057219, -0.0008620009, 0.03719873, -0.9999856, 0.005149389, 44.78527
 33606552, 0.004898524, 0.005669317, -0.003262918, 0.07501738, 0.001531936, 0.001628786, -0.001281012, 0.03735372, -0.9999857, 0.005109171, 44.87799
 33806472, 0.004845862, 0.005097017, -0.003678082, 0.07501738, 0.001987397, 0.001829422, -0.001376328, 0.03719873, -0.9999859, 0.005070532, 44.87799
 34006392, 0.005247287, 0.005110423, -0.003532663, 0.07486238, 0.001570316, 0.001686848, -0.001066357, 0.03719873, -0.9999862, 0.005032675, 44.78527
 34206312, 0.004972299, 0.00517715, -0.003228449, 0.07486238, 0.001708328, 0.00192283, -0.00121722, 0.03719873, -0.9999863, 0.004996319, 44.78527
 34406232, 0.004832663, 0.005254977, -0.003476714, 0.07486238, 0.001904949, 0.001848355, -0.00124432, 0.03719873, -0.9999864, 0.004960863, 44.78527
 34606152, 0.00517008, 0.00542637, -0.003433374, 0.07486238, 0.001714217, 0.001936728, -0.001528932, 0.03719873, -0.9999865, 0.00492609, 44.78527
 34806072, 0.004854308, 0.005356348, -0.003541687, 0.07486238, 0.001601722, 0.002066075, -0.001251715, 0.03719873, -0.9999868, 0.004891564, 44.78527
 35005992, 0.004837785, 0.005362305, -0.003682246, 0.07486238, 0.001899135, 0.00177844, -0.00152582, 0.03719873, -0.9999869, 0.004858976, 44.78527
 35205912, 0.005143307, 0.005337016, -0.003974258, 0.07486238, 0.001793918, 0.001845874, -0.00147353, 0.03719873, -0.999987, 0.00482712, 44.78527
 35405832, 0.005401935, 0.005313269, -0.003599825, 0.07486238, 0.001996069, 0.00177988, -0.0008675359, 0.03719873, -0.9999871, 0.004795655, 44.78527
 35606585, 0.005268024, 0.005383687, -0.002895364, 0.07501738, 0.002149032, 0.002110294, -0.0008353845, 0.03735372, -0.9999874, 0.004765858, 44.87799
 35806505, 0.005452667, 0.005541282, -0.003280144, 0.07501738, 0.001947428, 0.002029216, -0.001229627, 0.03719873, -0.9999874, 0.004737705, 44.87799
 36006425, 0.005305834, 0.005515628, -0.003427805, 0.07486238, 0.001795375, 0.001620748, -0.001197804, 0.03719873, -0.9999875, 0.004710549, 44.78527
 36206345, 0.005057015, 0.005178645, -0.003274597, 0.07486238, 0.001649407, 0.001831581, -0.001173537, 0.03719873, -0.9999876, 0.004683944, 44.78527
 36406265, 0.005096413, 0.005419862, -0.003473194, 0.07486238, 0.002058672, 0.001959972, -0.001048181, 0.03719873, -0.9999877, 0.004657712, 44.78527
 36606185, 0.005696879, 0.005405219, -0.003152096, 0.07486238, 0.001935289, 0.002016523, -0.001179061, 0.03719873, -0.9999878, 0.004632576, 44.78527
 36806105, 0.005333437, 0.00552619, -0.003304282, 0.07486238, 0.002178532, 0.00190533, -0.001069582, 0.03719873, -0.999988, 0.004607844, 44.78527
 37006025, 0.005698191, 0.005540949, -0.003323754, 0.07486238, 0.001772767, 0.001970181, -0.001354918, 0.03719873, -0.9999881, 0.004584684, 44.78527
 37205945, 0.005093893, 0.005705282, -0.003584607, 0.07486238, 0.001518371, 0.002274352, -0.0009132509, 0.03719873, -0.9999881, 0.004561408, 44.78527
 37405865, 0.005240791, 0.005760777, -0.003228501, 0.07486238, 0.001828805, 0.001928985, -0.001259458, 0.03719873, -0.9999882, 0.004539065, 44.78527
 37605785, 0.005562044, 0.005559888, -0.003579822, 0.07486238, 0.002013711, 0.001949698, -0.001526641, 0.03719873, -0.9999883, 0.00451549, 44.78527
 37806538, 0.005616437, 0.005729298, -0.003682823, 0.07501738, 0.002007999, 0.001831186, -0.0009965942, 0.03735372, -0.9999887, 0.004438743, 44.87799
 38006458, 0.005520661, 0.005558122, -0.002971386, 0.07501738, 0.001956905, 0.001733344, -0.0007776546, 0.03719873, -0.999989, 0.004345523, 44.87799
 38206378, 0.005622642, 0.005310741, -0.00327206, 0.07486238, 0.001810777, 0.001378837, -0.001768134, 0.03719873, -0.9999895, 0.004255631, 44.78527
 38406298, 0.005270561, 0.005021372, -0.00393424, 0.07486238, 0.00187301, 0.001909674, -0.001337976, 0.03719873, -0.9999899, 0.00416726, 44.78527
 38606218, 0.005481398, 0.005526865, -0.00347734, 0.07486238, 0.002138376, 0.002218993, -0.00107288, 0.03719873, -0.9999902, 0.004080795, 44.78527
 38806138, 0.005636603, 0.005946212, -0.003213352, 0.07486238, 0.002067724, 0.001993507, -0.0007000566, 0.03719873, -0.9999905, 0.00399702, 44.78527
 39006058, 0.005815659, 0.005634934, -0.002779993, 0.07486238, 0.00223711, 0.001861284, -0.001303966, 0.03719873, -0.9999908, 0.003915661, 44.78527
 39205978, 0.005972599, 0.005563149, -0.003538231, 0.07486238, 0.00203471, 0.001872212, -0.001346496, 0.03719873, -0.9999912, 0.003837107, 44.78527
 39405898, 0.005686329, 0.005395003, -0.003611893, 0.07486238, 0.002075561, 0.001976935, -0.001019615, 0.03719873, -0.9999914, 0.003760391, 44.78527
 39605818, 0.005651972, 0.005386281, -0.003110902, 0.07486238, 0.001846835, 0.001666485, -0.001047134, 0.03719873, -0.9999917, 0.003685569, 44.78527
 39806571, 0.005431452, 0.005392849, -0.003215808, 0.07501738, 0.001904547, 0.002078255, -0.00115471, 0.03735372, -0.9999919, 0.003611946, 44.87799
 40006491, 0.00551331, 0.005985688, -0.003223594, 0.07501738, 0.001723151, 0.002245537, -0.001124506, 0.03719873, -0.9999923, 0.003540606, 44.87799
 40206411, 0.005250175, 0.005651474, -0.003197062, 0.07486238, 0.001974113, 0.001801478, -0.0008889289, 0.03719873, -0.9999925, 0.003471543, 44.78527
 40406331, 0.005396612, 0.005445369, -0.003117498, 0.07486238, 0.001907827, 0.00223014, -0.000881318, 0.03719873, -0.9999926, 0.003404745, 44.78527
 40606251, 0.005390641, 0.006047096, -0.003030287, 0.07486238, 0.001947546, 0.002181546, -0.00123199, 0.03719873, -0.9999928, 0.003340068, 44.78527
 40806171, 0.005438085, 0.006010172, -0.003447507, 0.07486238, 0.001631526, 0.002381988, -0.00113651, 0.03719873, -0.9999931, 0.003276616, 44.78527
 41006091, 0.005167217, 0.006238367, -0.003152698, 0.07486238, 0.001906655, 0.002157094, -0.001145461, 0.03719873, -0.9999932, 0.003214351, 44.78527
 41206011, 0.005524925, 0.0060131, -0.003123923, 0.07486238, 0.001872718, 0.001948104, -0.001250146, 0.03719873, -0.9999934, 0.003154733, 44.78527
 41405931, 0.0056383, 0.005619785, -0.003518243, 0.07486238, 0.002036934, 0.001929943, -0.001173674, 0.03719873, -0.9999936, 0.003095295, 44.78527
 41605851, 0.005722167, 0.005876226, -0.003323246, 0.07486238, 0.002246165, 0.002407731, -0.001001313, 0.03719873, -0.9999938, 0.003037595, 44.78527
 41805771, 0.005926964, 0.006392526, -0.00335492, 0.07486238, 0.002173533, 0.002073298, -0.00121433, 0.03719873, -0.9999939, 0.002981633, 44.78527
 42006524, 0.005762902, 0.005853411, -0.003230344, 0.07501738, 0.00218752, 0.002166697, -0.001148803, 0.03735372, -0.9999942, 0.002926313, 44.87799
 42206444, 0.006016833, 0.006256111, -0.003085724, 0.07501738, 0.00210631, 0.002019377, -0.001034926, 0.03719873, -0.9999942, 0.002873438, 44.87799
 42406364, 0.005750872, 0.005839155, -0.003204047, 0.07486238, 0.001672551, 0.002048676, -0.001323365, 0.03719873, -0.9999944, 0.002822091, 44.78527
 42606284, 0.005444202, 0.005851952, -0.003455979, 0.07486238, 0.001991541, 0.002081226, -0.001257582, 0.03719873, -0.9999945, 0.00277226, 44.78527
 42806204, 0.00560759, 0.005938114, -0.00347273, 0.07486238, 0.001482436, 0.002194893, -0.001126849, 0.03719873, -0.9999946, 0.002694489, 44.78527
 43006124, 0.004973025, 0.006307377, -0.003440469, 0.07486238, 0.001845042, 0.002555975, -0.001047265, 0.03719873, -0.999995, 0.00258242, 44.78527
 43206044, 0.005547905, 0.00640273, -0.003328218, 0.07486238, 0.001821572, 0.002183409, -0.001110898, 0.03719873, -0.9999952, 0.002474172, 44.78527
 43405964, 0.005545198, 0.006122841, -0.003337828, 0.07486238, 0.00175588, 0.002307557, -0.001142767, 0.03719873, -0.9999956, 0.002369525, 44.78527
 43605884, 0.005435176, 0.0062946, -0.003150747, 0.07486238, 0.001607315, 0.002123653, -0.0009926008, 0.03719873, -0.9999958, 0.00226761, 44.78527
 43805804, 0.005146625, 0.00583781, -0.003056342, 0.07486238, 0.002014445, 0.002020815, -0.001187849, 0.03719873, -0.9999961, 0.002168958, 44.78527
 44006557, 0.005556055, 0.006057549, -0.003309756, 0.07501738, 0.002091679, 0.001986479, -0.001229051, 0.03735372, -0.9999962, 0.002072575, 44.87799
 44206477, 0.005797395, 0.005847746, -0.003437595, 0.07501738, 0.002134552, 0.002103863, -0.0009686968, 0.03719873, -0.9999964, 0.001979703, 44.87799
 44406397, 0.005929574, 0.005650811, -0.003047789, 0.07486238, 0.00230184, 0.001809957, -0.0007556157, 0.03719873, -0.9999967, 0.001890126, 44.78527
 44606317, 0.005930386, 0.005377252, -0.003018196, 0.07486238, 0.00219803, 0.002199237, -0.001527139, 0.03719873, -0.9999968, 0.001802263, 44.78527
 44806237, 0.005743218, 0.005689367, -0.003570104, 0.07486238, 0.001822016, 0.001918135, -0.001142897, 0.03719873, -0.9999969, 0.001717173, 44.78527
 45006157, 0.005204124, 0.005618558, -0.003314437, 0.07486238, 0.001680572, 0.002136318, -0.001309586, 0.03719873, -0.999997, 0.00163435, 44.78527
 45206077, 0.005299447, 0.005718119, -0.003253928, 0.07486238, 0.002149878, 0.00209766, -0.000806649, 0.03719873, -0.9999973, 0.001553725, 44.78527
 45405997, 0.005894709, 0.005870846, -0.00301606, 0.07486238, 0.001997611, 0.002044513, -0.001050881, 0.03719873, -0.9999974, 0.001475292, 44.78527
 45605917, 0.005275979, 0.005934556, -0.003146164, 0.07486238, 0.001740211, 0.002222315, -0.001525148, 0.03719873, -0.9999974, 0.001399071, 44.78527
 45805837, 0.005389022, 0.005884876, -0.003694024, 0.07486238, 0.002226473, 0.001898546, -0.0012069, 0.03719873, -0.9999975, 0.001324235, 44.78527
 46006590, 0.005936929, 0.005630109, -0.003412875, 0.07501738, 0.002001224, 0.002190081, -0.001220971, 0.03735372, -0.9999976, 0.001251108, 44.87799
 46206510, 0.005657054, 0.006068598, -0.003466411, 0.07501738, 0.001877916, 0.00181361, -0.001252001, 0.03719873, -0.9999976, 0.001180956, 44.87799
 46406430, 0.005470993, 0.005535636, -0.0317725, 0.07486238, 0.001923328, 0.002141702, -0.06509347, 0.03719873, -0.9999977, 0.001112811, 44.78527
 46606350, 0.007045684, 0.007187179, -0.7182353, 0.07486238, 0.002269613, 0.002378204, -0.2085894, 0.03719873, -0.9999979, 0.001045944, 44.78527
 46806270, 0.006529465, 0.006145856, -1.148192, 0.07486238, 0.002018967, 0.001625516, -0.9137572, 0.03719873, -0.9999995, 0.0009797383, 44.78527
 47006190, 0.002814046, 0.001357345, -2.404801, 0.07486238, -0.0005757711, -0.00103015, -0.6373079, 0.03719873, -0.9999992, 0.0009178465, 44.78527
 47206110, -0.002941443, -0.004302866, -1.458974, 0.07486238, -0.001395701, -0.002297978, -0.3741156, 0.03719873, -0.9999986, 0.0008484571, 44.78527
 47406030, -0.003608073, -0.005590203, -1.049923, 0.07486238, -0.001225339, -0.001630841, -0.3699296, 0.03719873, -0.9999986, 0.0007710759, 44.78527
 47605950, -0.002649256, -0.004754164, -1.022586, 0.07486238, -0.0005706733, -0.001666879, -0.3362955, 0.03719873, -0.9999987, 0.0006917386, 44.78527
 47805870, -0.001108035, -0.004002966, -0.8888808, 0.07486238, -7.863626E-06, -0.0009989381, -0.2764866, 0.03719873, -0.999999, 0.0006027376, 44.78527
 48005790, 0.0007355447, -0.002357413, -0.7325213, 0.07486238, 0.0006412306, -0.0008516017, -0.2300134, 0.03719873, -0.9999993, 0.000475599, 44.78527
 48206543, 0.002782933, -0.001252745, -0.6136514, 0.07501738, 0.001237032, 0.0001391404, -0.193688, 0.03735372, -0.9999994, 0.0003456529, 44.87799
 48406463, 0.00399036, 0.000601521, -0.5113326, 0.07501738, 0.001643186, 0.0001272316, -0.1594556, 0.03719873, -0.9999998, 0.0002108922, 44.87799
 48606383, 0.004554479, 0.001584892, -0.4205825, 0.07486238, 0.001679915, 0.0009051884, -0.1310613, 0.03719873, -1, 8.868571E-05, 44.78527
 48806303, 0.003682958, 0.003246075, 0.2455431, 0.07486238, 0.0008095027, 0.00158859, 0.3889637, 0.03719873, -1, 6.493411E-05, 44.78527
 49006223, 0.002764768, 0.004639413, 1.030272, 0.07486238, 0.001090232, 0.001899128, 0.3240291, 0.03719873, -0.9999999, -3.752079E-05, 44.78527
 49206143, 0.002814514, 0.005373977, 0.8664274, 0.07486238, 0.0008043939, 0.001795126, 0.276512, 0.03719873, -0.9999998, -0.0006433094, 44.78527
 49406063, 0.002663464, 0.005111814, 0.7430276, 0.07486238, 0.001111122, 0.001372101, 0.2383704, 0.03719873, -0.9999994, -0.001167966, 44.78527
 49605983, 0.002965096, 0.0041017, 0.6408148, 0.07486238, 0.0007456195, 0.001638234, 0.205943, 0.03719873, -0.9999986, -0.001666811, 44.78527
 49805903, 0.002314125, 0.00356046, 0.5553788, 0.07486238, 0.000532348, 0.0006555569, 0.1793275, 0.03719873, -0.9999974, -0.002159253, 44.78527
 50005823, 0.001912241, 0.002763371, 0.4846649, 0.07486238, 0.0009449967, 0.001283232, 0.1570674, 0.03719873, -0.9999964, -0.002623888, 44.78527
 50206576, 0.003240708, 0.003998977, 1.011299, 0.07501738, 0.002244971, 0.002154385, 0.6075707, 0.03735372, -0.9999951, -0.002906088, 44.87799
 50406496, 0.004943062, 0.01206242, 1.511482, 0.07501738, -0.001098635, 0.01033816, 0.4193411, 0.03719873, -0.9998935, -0.002847316, 44.87799
 50606416, -0.01939687, 0.04964929, 1.045447, 0.07486238, -0.0152835, 0.02823297, 0.294683, 0.03719873, -0.9993884, -0.003224357, 44.78527
 50806336, -0.05264923, 0.09576243, 0.752485, 0.07486238, -0.02234018, 0.04386256, 0.2229624, 0.03719873, -0.9986329, -0.003916641, 44.78527
 51006256, -0.06706886, 0.1432217, 0.5867965, 0.07486238, -0.02754692, 0.0577992, 0.1825374, 0.03719873, -0.997834, -0.004672068, 44.78527
 51206176, -0.09242364, 0.1635605, 0.4781025, 0.07486238, -0.04122636, 0.05742062, 0.1459462, 0.03719873, -0.9977935, -0.005253396, 44.78527
 51406096, -0.1277166, 0.1668075, 0.3762228, 0.07486238, -0.04627222, 0.06125132, 0.1116913, 0.03719873, -0.9974308, -0.00644804, 44.78527
 51606016, -0.1178259, 0.1792505, 0.2849123, 0.07486238, -0.0365527, 0.06562064, 0.08297791, 0.03719873, -0.9969485, -0.009276346, 44.78527
 51805936, -0.1116204, 0.189338, 0.2124937, 0.07486238, -0.04519902, 0.06711269, 0.06204495, 0.03719873, -0.9949629, -0.06412717, 44.78527
 52005856, -0.1423086, 0.187366, 0.1598448, 0.07486238, -0.05748115, 0.06494395, 0.04750666, 0.03719873, -0.9689484, -0.2391028, 44.78527
 52205776, -0.1720804, 0.1866628, 0.1245244, 0.07486238, -0.06424409, 0.06701832, 0.03881004, 0.03719873, -0.8697789, -0.4921212, 44.78527
 52406529, -0.1866652, 0.1929884, 0.1044839, 0.07501738, -0.06761295, 0.06991304, 0.03415478, 0.03735372, -0.6765469, -0.7363988, 44.87799
 52606449, -0.1969196, 0.2070037, 0.0956711, 0.07501738, -0.07181505, 0.07716911, 0.03299005, 0.03719873, -0.4326276, -0.9006146, 44.87799
 52806369, -0.2059271, 0.2211506, 0.09697565, 0.07486238, -0.07539023, 0.07816, 0.03630112, 0.03719873, -0.2016106, -0.9758522, 44.78527
 53006289, -0.2288594, 0.2222504, 0.1050623, 0.07486238, -0.08952028, 0.08055528, 0.03817938, 0.03719873, -0.01243771, -0.9913304, 44.78527
 53206209, -0.2728306, 0.2423191, 0.1098565, 0.07486238, -0.1056203, 0.0933144, 0.03938343, 0.03719873, 0.1457748, -0.9731885, 44.78527
 53406129, -0.3116963, 0.2787242, 0.110873, 0.07486238, -0.1140999, 0.1056439, 0.03872615, 0.03719873, 0.2981994, -0.9288819, 44.78527
 53606049, -0.3210886, 0.309111, 0.1067628, 0.07486238, -0.1119257, 0.1125961, 0.03647812, 0.03719873, 0.4602196, -0.8502949, 44.78527
 53805969, -0.3217173, 0.3198998, 0.1000199, 0.07486238, -0.1152404, 0.1124529, 0.03308584, 0.03719873, 0.6251279, -0.7254804, 44.78527
 54005889, -0.3312964, 0.3196044, 0.09049118, 0.07486238, -0.1173919, 0.1114836, 0.0293391, 0.03719873, 0.7565631, -0.5781399, 44.78527
 54205809, -0.3188519, 0.3126254, 0.07994962, 0.07486238, -0.10037, 0.1082271, 0.02604908, 0.03719873, 0.8149089, -0.4911328, 44.78527
 54406562, -0.2537156, 0.3030366, 0.07066365, 0.07501738, -0.07432713, 0.1008623, 0.02311205, 0.03735372, 0.8096462, -0.4980829, 44.87799
 54606482, -0.1956581, 0.2649263, 0.06115717, 0.07501738, -0.05932031, 0.08113653, 0.01926858, 0.03719873, 0.7632293, -0.5654256, 44.87799
 54806402, -0.1418157, 0.2087309, 0.05191299, 0.07486238, -0.03546951, 0.06214096, 0.01695734, 0.03719873, 0.6996704, -0.6440743, 44.78527
 55006322, -0.08456755, 0.1608711, 0.04613338, 0.07486238, -0.01986452, 0.04802968, 0.01494175, 0.03719873, 0.6497134, -0.6956654, 44.78527
 55206242, -0.03502594, 0.1192509, 0.03901604, 0.07486238, -0.001809779, 0.030577, 0.01226922, 0.03719873, 0.6367567, -0.7105786, 44.78527
 55406162, 0.004913568, 0.05744998, 0.03292245, 0.07486238, 0.007752383, 0.004859803, 0.01059243, 0.03719873, 0.6562378, -0.6952839, 44.78527
 55606082, 0.03362923, -0.006261274, 0.02856722, 0.07486238, 0.01501318, -0.01377435, 0.009051964, 0.03719873, 0.6877978, -0.6652981, 44.78527
 55806002, 0.03948029, -0.06077968, 0.02299685, 0.07486238, 0.01516135, -0.03152871, 0.006372742, 0.03719873, 0.713198, -0.6390007, 44.78527
 56005922, 0.06312484, -0.09515765, 0.01609607, 0.07486238, 0.03390394, -0.03564816, 0.004501469, 0.03719873, 0.7235619, -0.629673, 44.78527
 56205842, 0.1147144, -0.1002258, 0.01130956, 0.07486238, 0.04892409, -0.03332705, 0.003424709, 0.03719873, 0.7166889, -0.6371713, 44.78527
 56405762, 0.1465033, -0.08854077, 0.005966844, 0.07486238, 0.05378614, -0.02792154, 0.0005410271, 0.03719873, 0.6992062, -0.6530418, 44.78527
 56606515, 0.1499988, -0.07736104, -0.003963057, 0.07501738, 0.05385324, -0.02833899, -0.003806863, 0.03735372, 0.682893, -0.6686769, 44.87799
 56806435, 0.1624464, -0.08985903, -0.01268458, 0.07501738, 0.06086668, -0.03798996, -0.003967219, 0.03719873, 0.6754689, -0.678378, 44.87799
 57006355, 0.1669973, -0.1178645, -0.01262534, 0.07486238, 0.0567464, -0.04787958, -0.004761512, 0.03719873, 0.6755955, -0.678455, 44.78527
 57206275, 0.1641207, -0.1506703, -0.01066979, 0.07486238, 0.05899763, -0.06047329, -0.002334098, 0.03719873, 0.6825268, -0.6738208, 44.78527
 57406195, 0.1689324, -0.1780196, -0.003493956, 0.07486238, 0.0599179, -0.06463988, -0.0004101566, 0.03719873, 0.6891595, -0.667252, 44.78527
 57606115, 0.1711307, -0.1808325, 0.000720662, 0.07486238, 0.06101422, -0.06097458, 0.0006121642, 0.03719873, 0.6920004, -0.6631532, 44.78527
 57806035, 0.1775031, -0.166834, 0.003276488, 0.07486238, 0.06507415, -0.05608563, 0.001885801, 0.03719873, 0.6905288, -0.6639544, 44.78527
 58005955, 0.1891034, -0.155972, 0.006841753, 0.07486238, 0.06686385, -0.05315164, 0.003066139, 0.03719873, 0.6855635, -0.6683293, 44.78527
 58205875, 0.1824643, -0.1480794, 0.009250241, 0.07486238, 0.05903142, -0.04981505, 0.003686907, 0.03719873, 0.6785702, -0.6719497, 44.78527
 58405795, 0.1566353, -0.1375626, 0.008992305, 0.07486238, 0.0506124, -0.04743198, 0.002295436, 0.03719873, 0.6737672, -0.6738756, 44.78527
 58606548, 0.1460687, -0.1387985, 0.006303947, 0.07501738, 0.0537265, -0.05159103, 0.001558913, 0.03735372, 0.6740019, -0.6755526, 44.87799
 58806468, 0.1623441, -0.1554476, 0.002778415, 0.07501738, 0.06293335, -0.06005988, -0.0003737706, 0.03719873, 0.677226, -0.6772355, 44.87799
 59006388, 0.1909287, -0.1836723, -0.002685232, 0.07486238, 0.07482116, -0.07321536, -0.002465935, 0.03719873, 0.6819253, -0.6801279, 44.78527
 59206308, 0.2273281, -0.2253425, -0.008640749, 0.07486238, 0.08820925, -0.08846337, -0.003779258, 0.03719873, 0.6867078, -0.6839828, 44.78527
 59406228, 0.2647868, -0.2609944, -0.0155275, 0.07486238, 0.101116, -0.09677415, -0.008867986, 0.03719873, 0.6900545, -0.6880826, 44.78527
 59606148, 0.3024409, -0.2807475, -0.02834352, 0.07486238, 0.1150202, -0.1021123, -0.01225563, 0.03719873, 0.6923712, -0.6929968, 44.78527
 59806068, 0.3407478, -0.2965487, -0.0400387, 0.07486238, 0.1266484, -0.1078884, -0.0166484, 0.03719873, 0.6939396, -0.6981112, 44.78527
 60005988, 0.3706267, -0.3139515, -0.05320046, 0.07486238, 0.1369541, -0.1140499, -0.02197465, 0.03719873, 0.6953231, -0.7027892, 44.78527
 60205908, 0.4032913, -0.3293048, -0.06772842, 0.07486238, 0.1502904, -0.121877, -0.02669803, 0.03719873, 0.6974252, -0.706996, 44.78527
 60405828, 0.437544, -0.3657461, -0.08113638, 0.07486238, 0.156703, -0.1375743, -0.03148554, 0.03719873, 0.6993497, -0.7098536, 44.78527
 60606581, 0.4481603, -0.4029745, -0.09715062, 0.07501738, 0.1634178, -0.148452, -0.0373745, 0.03735372, 0.701283, -0.7112396, 44.87799
 60806501, 0.5022062, -0.4371097, -0.1109154, 0.07501738, 0.2014547, -0.1645337, -0.04096557, 0.03719873, 0.7047665, -0.7092739, 44.87799
 61006421, 0.6243133, -0.4904534, -0.1238069, 0.07486238, 0.2467893, -0.1827969, -0.04717422, 0.03719873, 0.7099507, -0.699342, 44.78527
 61206341, 0.735472, -0.5273493, -0.1427265, 0.07486238, 0.277817, -0.189001, -0.05492706, 0.03719873, 0.7206136, -0.6802205, 44.78527
 61406261, 0.8164353, -0.5316543, -0.1608517, 0.07486238, 0.3010361, -0.1804373, -0.05977469, 0.03719873, 0.7416505, -0.6498843, 44.78527
 61606181, 0.8727244, -0.4908442, -0.1724267, 0.07486238, 0.3153653, -0.1641657, -0.06213917, 0.03719873, 0.777707, -0.6012518, 44.78527
 61806101, 0.9032991, -0.4613934, -0.1784734, 0.07486238, 0.321438, -0.1586104, -0.06311471, 0.03719873, 0.8322126, -0.5207946, 44.78527
 62006021, 0.9112954, -0.4308048, -0.1792032, 0.07486238, 0.3172938, -0.1414861, -0.06294161, 0.03719873, 0.9079516, -0.3847548, 44.78527
 62205941, 0.8891536, -0.3816591, -0.1748279, 0.07486238, 0.3072352, -0.1216091, -0.05951662, 0.03719873, 0.9795288, -0.1699103, 44.78527
 62405861, 0.8653498, -0.3120213, -0.1700753, 0.07486238, 0.3000729, -0.09082235, -0.06054008, 0.03719873, 0.9954218, 0.09413914, 44.78527
 62605781, 0.8372378, -0.2270621, -0.1716369, 0.07486238, 0.2856591, -0.06378451, -0.05986626, 0.03719873, 0.9323871, 0.3527104, 44.78527
 62806534, 0.7941681, -0.157587, -0.1711235, 0.07501738, 0.2690036, -0.04384335, -0.0601616, 0.03735372, 0.8106276, 0.5639646, 44.87799
 63006454, 0.74588, -0.1052468, -0.1671508, 0.07501738, 0.2531471, -0.02486914, -0.05691575, 0.03719873, 0.6664013, 0.7123518, 44.87799
 63206374, 0.6911684, -0.04494975, -0.1605643, 0.07486238, 0.2231098, -0.003503176, -0.05533343, 0.03719873, 0.5160794, 0.8169044, 44.78527
 63406294, 0.5781535, 0.004362416, -0.1501253, 0.07486238, 0.1722776, 0.009611947, -0.04823457, 0.03719873, 0.3562451, 0.8951091, 44.78527
 63606214, 0.4394952, 0.04979523, -0.1265601, 0.07486238, 0.1284931, 0.03311194, -0.03854584, 0.03719873, 0.1758935, 0.9455748, 44.78527
 63806134, 0.3297283, 0.1326442, -0.1002821, 0.07486238, 0.09794964, 0.06736353, -0.03013118, 0.03719873, -0.01206107, 0.962436, 44.78527
 64006054, 0.2581671, 0.2183945, -0.07717717, 0.07486238, 0.08107235, 0.09097823, -0.02293086, 0.03719873, -0.1364566, 0.9539, 44.78527
 64205974, 0.2144392, 0.2742237, -0.05991598, 0.07486238, 0.06591566, 0.102436, -0.01842717, 0.03719873, -0.1637522, 0.9486156, 44.78527
 64405894, 0.1668845, 0.2889372, -0.04939955, 0.07486238, 0.04619705, 0.09972097, -0.01548371, 0.03719873, -0.1157704, 0.9525579, 44.78527
 64605814, 0.1151211, 0.2739171, -0.04187105, 0.07486238, 0.03490932, 0.09048174, -0.01399628, 0.03719873, -0.03431812, 0.9527084, 44.78527
 64806567, 0.09579587, 0.2493591, -0.04065547, 0.07501738, 0.03048215, 0.08315565, -0.01497655, 0.03735372, 0.0364266, 0.9467403, 44.87799
 65006487, 0.07147162, 0.2327744, -0.04197243, 0.07501738, 0.01779301, 0.0808544, -0.01427755, 0.03719873, 0.06646366, 0.9417518, 44.87799
 65206407, 0.04050766, 0.2328635, -0.03752051, 0.07486238, 0.008890579, 0.08402498, -0.01168179, 0.03719873, 0.05242111, 0.939041, 44.78527
 65406327, 0.01701153, 0.2427225, -0.03276352, 0.07486238, -0.0003342757, 0.08847096, -0.01146307, 0.03719873, 0.01164813, 0.9378979, 44.78527
 65606247, -0.01990351, 0.2570736, -0.02955045, 0.07486238, -0.01867936, 0.0926862, -0.008279867, 0.03719873, -0.03206811, 0.937658, 44.78527
 65806167, -0.07393265, 0.2612026, -0.0200455, 0.07486238, -0.03672609, 0.09109833, -0.004384716, 0.03719873, -0.06066443, 0.9362836, 44.78527
 66006087, -0.1181541, 0.2564654, -0.01016363, 0.07486238, -0.04983142, 0.08925799, -0.002575137, 0.03719873, -0.06779732, 0.934761, 44.78527
 66206007, -0.1627119, 0.2496886, -0.00560562, 0.07486238, -0.07088566, 0.0852024, -0.001225682, 0.03719873, -0.05811261, 0.9366483, 44.78527
 66405927, -0.2293487, 0.2349346, 0.00197782, 0.07486238, -0.09493785, 0.07867603, 0.003586036, 0.03719873, -0.0422148, 0.9392593, 44.78527
 66605847, -0.2818515, 0.2150743, 0.01401699, 0.07486238, -0.1038621, 0.06971583, 0.006762885, 0.03719873, -0.03038648, 0.9385702, 44.78527
 66805767, -0.3001984, 0.186891, 0.01815997, 0.07486238, -0.1110713, 0.06249954, 0.006433005, 0.03719873, -0.0264354, 0.93863, 44.78527
 67006520, -0.3346788, 0.1855333, 0.01999801, 0.07501738, -0.1256168, 0.0697875, 0.009686265, 0.03735372, -0.03125328, 0.9399416, 44.87799
 67206440, -0.3570353, 0.2023668, 0.02835214, 0.07501738, -0.127519, 0.07363492, 0.01031901, 0.03719873, -0.04202908, 0.9392512, 44.87799
 67406360, -0.3684502, 0.212697, 0.0297561, 0.07486238, -0.1306965, 0.07555708, 0.01177819, 0.03719873, -0.05324274, 0.9383731, 44.78527
 67606280, -0.3594053, 0.211275, 0.03265282, 0.07486238, -0.1194658, 0.07258452, 0.01086413, 0.03719873, -0.06097369, 0.9342969, 44.78527
 67806200, -0.3308111, 0.2038367, 0.0274365, 0.07486238, -0.1123296, 0.07024709, 0.007625966, 0.03719873, -0.06341737, 0.9317467, 44.78527
 68006120, -0.317831, 0.1958365, 0.02117981, 0.07486238, -0.1108066, 0.06678203, 0.006817025, 0.03719873, -0.06199978, 0.9302849, 44.78527
 68206040, -0.3111907, 0.1852471, 0.01944002, 0.07486238, -0.1071749, 0.06341299, 0.006786275, 0.03719873, -0.05901965, 0.9283649, 44.78527
 68405960, -0.2990486, 0.1762557, 0.01798808, 0.07486238, -0.1038389, 0.05992052, 0.005231748, 0.03719873, -0.05690111, 0.9271176, 44.78527
 68605880, -0.3007719, 0.1659774, 0.01544641, 0.07486238, -0.1051157, 0.05709308, 0.006925593, 0.03719873, -0.05670306, 0.9259298, 44.78527
 68805800, -0.2804264, 0.1641518, 0.01968477, 0.07486238, -0.08912326, 0.05928106, 0.006429383, 0.03719873, -0.05909046, 0.9207707, 44.78527
 69006553, -0.2472172, 0.1723208, 0.01513543, 0.07501738, -0.08689289, 0.06394606, 0.003610771, 0.03735372, -0.06308157, 0.9197124, 44.87799
 69206473, -0.2565014, 0.1895275, 0.01118705, 0.07501738, -0.09378189, 0.06988315, 0.005372955, 0.03719873, -0.067881, 0.9201486, 44.87799
 69406393, -0.2633338, 0.1953277, 0.01550654, 0.07486238, -0.09052187, 0.06705261, 0.005522358, 0.03719873, -0.07177129, 0.9183218, 44.78527
 69606313, -0.2518101, 0.186674, 0.01564528, 0.07486238, -0.08531777, 0.0637541, 0.005115198, 0.03719873, -0.07355557, 0.9161296, 44.78527
 69806233, -0.2358034, 0.1790123, 0.01449462, 0.07486238, -0.07841928, 0.06293381, 0.004968332, 0.03719873, -0.07374606, 0.9132056, 44.78527
 70006153, -0.2119817, 0.1829558, 0.01327144, 0.07486238, -0.06991756, 0.06567255, 0.003569275, 0.03719873, -0.07371907, 0.9104692, 44.78527
 70206073, -0.1985484, 0.1835171, 0.008954464, 0.07486238, -0.07041267, 0.06311283, 0.002586658, 0.03719873, -0.07395227, 0.9099088, 44.78527
 70405993, -0.2043262, 0.1772892, 0.007606764, 0.07486238, -0.07262078, 0.06011801, 0.002876768, 0.03719873, -0.07437639, 0.9093544, 44.78527
 70605913, -0.1987, 0.1606335, 0.008565225, 0.07486238, -0.06642716, 0.04972795, 0.002389992, 0.03719873, -0.07443395, 0.9067603, 44.78527
 70805833, -0.1832206, 0.1286455, 0.006608427, 0.07486238, -0.06024207, 0.04029341, 0.002533907, 0.03719873, -0.07359875, 0.9037645, 44.78527
 71006586, -0.1602164, 0.1165883, 0.006077615, 0.07501738, -0.05227517, 0.043424, 0.001145008, 0.03735372, -0.07274855, 0.9010294, 44.87799
 71206506, -0.1590502, 0.1261558, -1.187671E-05, 0.07501738, -0.06436468, 0.04348424, -0.001190734, 0.03719873, -0.07280281, 0.9047363, 44.87799
 71406426, -0.2078668, 0.1121228, -0.001691597, 0.07486238, -0.08878507, 0.03608719, -0.0002699868, 0.03719873, -0.07267395, 0.9122778, 44.78527
 71606346, -0.2856835, 0.1119647, 0.002184992, 0.07486238, -0.1187767, 0.04462732, 0.00278331, 0.03719873, -0.07265028, 0.9219222, 44.78527
 71806266, -0.3651228, 0.1332078, 0.01109007, 0.07486238, -0.1430891, 0.04952873, 0.005466926, 0.03719873, -0.07340757, 0.9310433, 44.78527
 72006186, -0.4286163, 0.1424295, 0.01860774, 0.07486238, -0.1621841, 0.05187082, 0.007723163, 0.03719873, -0.07438301, 0.9394143, 44.78527
 72206106, -0.4753632, 0.1538834, 0.02399117, 0.07486238, -0.1738604, 0.05631262, 0.009967231, 0.03719873, -0.07530986, 0.9463352, 44.78527
 72406026, -0.5022711, 0.1583107, 0.02624797, 0.07486238, -0.1833593, 0.05631705, 0.008049897, 0.03719873, -0.07559493, 0.9537105, 44.78527
 72605946, -0.5386572, 0.1673033, 0.02357141, 0.07486238, -0.1983246, 0.05998472, 0.008666607, 0.03719873, -0.07514313, 0.9621809, 44.78527
 72805866, -0.5721418, 0.1586473, 0.02335749, 0.07486238, -0.2059204, 0.04939331, 0.008150725, 0.03719873, -0.07389278, 0.9689381, 44.78527
 73005786, -0.5952036, 0.1315155, 0.02007246, 0.07486238, -0.2175968, 0.04097611, 0.005828655, 0.03719873, -0.071459, 0.9766693, 44.78527
 73206539, -0.6406537, 0.1081483, 0.01483643, 0.07501738, -0.2360875, 0.03748531, 0.00371202, 0.03735372, -0.06842148, 0.984506, 44.87799
 73406459, -0.6812318, 0.1191519, 0.01023967, 0.07501738, -0.2477866, 0.04790174, 0.003182294, 0.03719873, -0.06580576, 0.9906341, 44.87799
 73606379, -0.7209913, 0.1424581, 0.005508597, 0.07486238, -0.2611603, 0.05491688, 0.0006441781, 0.03719873, -0.06382915, 0.9950968, 44.78527
 73806299, -0.7368133, 0.1737107, -0.003105726, 0.07486238, -0.255433, 0.07255375, -0.003642553, 0.03719873, -0.05994234, 0.9970614, 44.78527
 74006219, -0.714902, 0.2281939, -0.01475938, 0.07486238, -0.2464541, 0.09088213, -0.007612057, 0.03719873, -0.04823877, 0.9985932, 44.78527
 74206139, -0.6933401, 0.2720389, -0.02593275, 0.07486238, -0.2391787, 0.1041095, -0.01213022, 0.03719873, -0.02424737, 0.9997059, 44.78527
 74406059, -0.6678619, 0.3146595, -0.03532176, 0.07486238, -0.2309497, 0.1219065, -0.0130366, 0.03719873, 0.01644151, 0.9996819, 44.78527
 74605979, -0.6581875, 0.3698267, -0.04048052, 0.07486238, -0.2308535, 0.1433547, -0.01633764, 0.03719873, 0.07765009, 0.9963124, 44.78527
 74805899, -0.6455642, 0.4293645, -0.04884841, 0.07486238, -0.2191872, 0.1634751, -0.01818353, 0.03719873, 0.1603683, 0.9864997, 44.78527
 75005819, -0.602544, 0.4876712, -0.05363629, 0.07486238, -0.2022282, 0.1845036, -0.01953072, 0.03719873, 0.269185, 0.9630082, 44.78527
 75206572, -0.5580442, 0.5477048, -0.05751464, 0.07501738, -0.1849803, 0.2039714, -0.02126912, 0.03735372, 0.4073413, 0.9128501, 44.87799
 75406492, -0.4910152, 0.5912872, -0.06183821, 0.07501738, -0.1517255, 0.2139569, -0.02280971, 0.03719873, 0.5654934, 0.8192671, 44.87799
 75606412, -0.3881564, 0.6151004, -0.06207088, 0.07486238, -0.113179, 0.2210515, -0.02064478, 0.03719873, 0.7226754, 0.6689847, 44.78527
 75806332, -0.2823394, 0.6411206, -0.05970654, 0.07486238, -0.07806093, 0.2310791, -0.02173098, 0.03719873, 0.8456703, 0.4738748, 44.78527
 76006252, -0.1875003, 0.6578399, -0.06108607, 0.07486238, -0.04963095, 0.2320795, -0.02126659, 0.03719873, 0.9155145, 0.2762175, 44.78527
 76206172, -0.1180161, 0.653807, -0.06141945, 0.07486238, -0.02785204, 0.2258573, -0.02191662, 0.03719873, 0.9407027, 0.1243823, 44.78527
 76406092, -0.0473725, 0.6331079, -0.05998902, 0.07486238, 0.002555431, 0.2224537, -0.01881661, 0.03719873, 0.9404982, 0.03994443, 44.78527
 76606012, 0.04564744, 0.6437501, -0.05339364, 0.07486238, 0.03502706, 0.2277994, -0.01984933, 0.03719873, 0.9334484, 0.01189478, 44.78527
 76805932, 0.1219902, 0.6230793, -0.05620454, 0.07486238, 0.05489641, 0.2047945, -0.01930316, 0.03719873, 0.9317719, 0.01747801, 44.78527
 77005852, 0.1760255, 0.5594436, -0.05108609, 0.07486238, 0.07326769, 0.1869501, -0.01591292, 0.03719873, 0.9272964, 0.0306867, 44.78527
 77205772, 0.2289269, 0.5210873, -0.04416878, 0.07486238, 0.09250659, 0.1777942, -0.01531725, 0.03719873, 0.92099, 0.0342356, 44.78527
 77406525, 0.2872379, 0.4964585, -0.04132784, 0.07501738, 0.1163663, 0.1697606, -0.01333308, 0.03735372, 0.9148224, 0.0233079, 44.87799
 77606445, 0.362086, 0.4710768, -0.03594561, 0.07501738, 0.1455834, 0.1578398, -0.01168708, 0.03719873, 0.9103879, 0.003020417, 44.87799
 77806365, 0.4321516, 0.4196224, -0.03234753, 0.07486238, 0.1558656, 0.1306017, -0.01117121, 0.03719873, 0.9103383, -0.01692704, 44.78527
 78006285, 0.4244736, 0.3386477, -0.03099666, 0.07486238, 0.1389233, 0.1007121, -0.009811539, 0.03719873, 0.9112194, -0.02789163, 44.78527
 78206205, 0.3826964, 0.2517136, -0.02740566, 0.07486238, 0.1316103, 0.06923388, -0.008083737, 0.03719873, 0.9125983, -0.02711281, 44.78527
 78406125, 0.3783676, 0.1650891, -0.02000584, 0.07486238, 0.1333141, 0.04099524, -0.005605541, 0.03719873, 0.9135664, -0.02022207, 44.78527
 78606045, 0.3678053, 0.08966727, -0.01439525, 0.07486238, 0.1237416, 0.01616017, -0.004817622, 0.03719873, 0.9147189, -0.01252983, 44.78527
 78805965, 0.34196, 0.02089372, -0.01043985, 0.07486238, 0.1146181, -0.004696604, -0.001818405, 0.03719873, 0.914846, -0.008057604, 44.78527
 79005885, 0.3146071, -0.02903194, -0.005335671, 0.07486238, 0.1049489, -0.01915093, -0.001871012, 0.03719873, 0.9144432, -0.007995221, 44.78527
 79205805, 0.2924235, -0.07016297, -0.004632848, 0.07486238, 0.1007114, -0.03546303, -0.00151768, 0.03719873, 0.9156184, -0.01086862, 44.78527
 79406558, 0.2827158, -0.1277217, -0.002678635, 0.07501738, 0.09585083, -0.05963551, -0.0006884502, 0.03735372, 0.9191889, -0.01496046, 44.87799
 79606478, 0.257157, -0.191191, 0.002719857, 0.07501738, 0.0834769, -0.07754371, 0.002204323, 0.03719873, 0.9214472, -0.01832166, 44.87799
 79806398, 0.2343783, -0.2350145, 0.009253875, 0.07486238, 0.08418927, -0.08966825, 0.004959744, 0.03719873, 0.9230148, -0.01958235, 44.78527
 80006318, 0.2499698, -0.2649827, 0.01534339, 0.07486238, 0.09204914, -0.1000909, 0.00543074, 0.03719873, 0.92519, -0.02040163, 44.78527
 80206238, 0.2570445, -0.2999113, 0.01829769, 0.07486238, 0.08773009, -0.1104349, 0.008312985, 0.03719873, 0.9264976, -0.0214872, 44.78527
 80406158, 0.2422587, -0.3009354, 0.02450122, 0.07486238, 0.07949806, -0.09848277, 0.007908667, 0.03719873, 0.9229869, -0.02294175, 44.78527
 80606078, 0.2100856, -0.2697446, 0.01971753, 0.07486238, 0.06687356, -0.08831052, 0.005324389, 0.03719873, 0.9196673, -0.0229454, 44.78527
 80805998, 0.1874871, -0.2400339, 0.01393599, 0.07486238, 0.06636979, -0.07876382, 0.004076397, 0.03719873, 0.9164013, -0.02216057, 44.78527
 81005918, 0.1961661, -0.2203763, 0.01062301, 0.07486238, 0.07484448, -0.07759595, 0.002885561, 0.03719873, 0.91566, -0.02258353, 44.78527
 81205838, 0.2232345, -0.2220487, 0.009739571, 0.07486238, 0.08072095, -0.07735502, 0.003981339, 0.03719873, 0.9145937, -0.02576241, 44.78527
 81406591, 0.2198424, -0.2144508, 0.0123769, 0.07501738, 0.07335551, -0.07199692, 0.004517826, 0.03735372, 0.9120187, -0.02948679, 44.87799
 81606511, 0.2049299, -0.1968478, 0.0115033, 0.07501738, 0.07057526, -0.06520936, 0.003796907, 0.03719873, 0.9091752, -0.03206402, 44.87799
 81806431, 0.1972022, -0.1757996, 0.009289585, 0.07486238, 0.0680191, -0.05917571, 0.001266427, 0.03719873, 0.9073165, -0.03309097, 44.78527
 82006351, 0.1936201, -0.1759813, 0.004244633, 0.07486238, 0.06869493, -0.06621195, 0.001455205, 0.03719873, 0.9085993, -0.03282003, 44.78527
 82206271, 0.1949549, -0.1945103, 0.006273463, 0.07486238, 0.06841733, -0.07074321, 0.003113349, 0.03719873, 0.9091426, -0.03276725, 44.78527
 82406191, 0.1934504, -0.1987522, 0.009946941, 0.07486238, 0.06744157, -0.06706597, 0.004330208, 0.03719873, 0.907448, -0.03344842, 44.78527
 82606111, 0.1908536, -0.1809452, 0.01186379, 0.07486238, 0.06702182, -0.05835255, 0.003612975, 0.03719873, 0.9044343, -0.03457022, 44.78527
 82806031, 0.1916394, -0.1585314, 0.009796762, 0.07486238, 0.06999047, -0.05215169, 0.003652662, 0.03719873, 0.9020311, -0.03608318, 44.78527
 83005951, 0.2092391, -0.1422756, 0.009111549, 0.07486238, 0.07839828, -0.04837548, 0.002125829, 0.03719873, 0.9008678, -0.0386521, 44.78527
 83205871, 0.2224933, -0.1445192, 0.005954384, 0.07486238, 0.07774378, -0.05338307, 0.002543846, 0.03719873, 0.9013979, -0.04147999, 44.78527
 83405791, 0.218238, -0.1497232, 0.007671264, 0.07486238, 0.07432652, -0.05169921, 0.00204685, 0.03719873, 0.9005685, -0.04345433, 44.78527
 83606544, 0.2016272, -0.1482142, 0.006540856, 0.07501738, 0.06573569, -0.05229306, 0.00251417, 0.03735372, 0.8999678, -0.0432301, 44.87799
 83806464, 0.1765682, -0.1423716, 0.006594041, 0.07501738, 0.0562524, -0.04773611, 0.00174102, 0.03719873, 0.8985493, -0.04112463, 44.87799
 84006384, 0.1482221, -0.1365076, 0.003972034, 0.07486238, 0.0496769, -0.04686712, 0.002309912, 0.03719873, 0.8975785, -0.03792826, 44.78527
 84206304, 0.1525656, -0.1216374, 0.005630322, 0.07486238, 0.05878171, -0.03719426, 0.001683826, 0.03719873, 0.8945563, -0.03672574, 44.78527
 84406224, 0.1670342, -0.1008974, 0.00403647, 0.07486238, 0.05754062, -0.03213919, 0.001521445, 0.03719873, 0.8920583, -0.0381397, 44.78527
 84606144, 0.1560682, -0.08135853, 0.003378782, 0.07486238, 0.05066975, -0.02324514, 0.0003233891, 0.03719873, 0.8883804, -0.04018787, 44.78527
 84806064, 0.1358997, -0.05949529, 0.0001541558, 0.07486238, 0.04361289, -0.01934362, -0.001525876, 0.03719873, 0.8867878, -0.04112648, 44.78527
 85005984, 0.1188224, -0.06545581, -0.00487957, 0.07486238, 0.04019123, -0.02781343, -0.001395218, 0.03719873, 0.8878801, -0.04058602, 44.78527
 85205904, 0.1139156, -0.07924572, -0.002963192, 0.07486238, 0.03990875, -0.02903953, -0.0006290863, 0.03719873, 0.8877881, -0.03951076, 44.78527
 85405824, 0.1100312, -0.08615083, -0.00116661, 0.07486238, 0.03718088, -0.03228672, -0.0002402846, 0.03719873, 0.8881726, -0.03834029, 44.78527
 85606577, 0.1065744, -0.09565075, -0.001313933, 0.07501738, 0.03855406, -0.03729325, -0.001307608, 0.03735372, 0.8901268, -0.03740021, 44.87799
 85806497, 0.1144724, -0.1199011, -0.002568203, 0.07501738, 0.0420328, -0.04757746, -0.0001318368, 0.03719873, 0.8927039, -0.03775684, 44.87799
 86006417, 0.1195721, -0.1340445, 0.001461615, 0.07486238, 0.04221356, -0.04784567, 6.585228E-05, 0.03719873, 0.8935767, -0.03910013, 44.78527
 86206337, 0.1216892, -0.1397249, 0.001552498, 0.07486238, 0.04378131, -0.04846872, 0.002003788, 0.03719873, 0.8934039, -0.04084682, 44.78527
 86406257, 0.1256402, -0.1224561, 0.006349487, 0.07486238, 0.04530905, -0.03328701, 0.002900328, 0.03719873, 0.8884686, -0.04235546, 44.78527
 86606177, 0.130169, -0.07581463, 0.005569952, 0.07486238, 0.04430937, -0.01916258, -0.0002633746, 0.03719873, 0.8847913, -0.04312506, 44.78527
 86806097, 0.1165008, -0.0575844, -0.002392484, 0.07486238, 0.03625973, -0.02199926, -0.0007903537, 0.03719873, 0.885269, -0.04234924, 44.78527
 87006017, 0.09955857, -0.064337, -0.002867421, 0.07486238, 0.03345931, -0.02447213, -0.000943555, 0.03719873, 0.8860254, -0.04036482, 44.78527
 87205937, 0.09241471, -0.07196721, -0.003296255, 0.07486238, 0.02920018, -0.02508259, -0.0003071998, 0.03719873, 0.8854899, -0.03835662, 44.78527
 87405857, 0.07305358, -0.06194258, -0.0006466091, 0.07486238, 0.02174235, -0.01984179, -0.001873029, 0.03719873, 0.8847031, -0.03634367, 44.78527
 87605777, 0.06182373, -0.07004995, -0.006376209, 0.07486238, 0.0209622, -0.03130227, -0.002025697, 0.03719873, 0.888263, -0.03504851, 44.78527
 87806530, 0.05557848, -0.09403688, -0.003865374, 0.07501738, 0.0196637, -0.03409315, -0.000230391, 0.03735372, 0.8889114, -0.03433374, 44.87799
 88006450, 0.06489886, -0.08676593, 0.000970877, 0.07501738, 0.02553438, -0.02385134, 0.0009343986, 0.03719873, 0.885772, -0.03490317, 44.87799
 88206370, 0.06499638, -0.0555511, 0.00205761, 0.07486238, 0.01918885, -0.01304521, -0.0001107643, 0.03719873, 0.8824177, -0.03590578, 44.78527
 88406290, 0.05148311, -0.03201233, -0.0009644702, 0.07486238, 0.01649698, -0.009582102, -0.001013129, 0.03719873, 0.8811076, -0.03610189, 44.78527
 88606210, 0.04294778, -0.0267813, -0.003076759, 0.07486238, 0.01222846, -0.009616423, -0.000791997, 0.03719873, 0.8809971, -0.03513038, 44.78527
 88806130, 0.02952228, -0.02942178, -0.003446117, 0.07486238, 0.008363805, -0.01076607, -0.0004318083, 0.03719873, 0.8807125, -0.03308124, 44.78527
 89006050, 0.02609347, -0.02313358, -0.0009230652, 0.07486238, 0.01197386, -0.00382225, 0.0001194416, 0.03719873, 0.8779023, -0.03126929, 44.78527
 89205970, 0.04225001, -0.001955385, -8.173179E-05, 0.07486238, 0.01703332, 0.004835486, 0.0003446726, 0.03719873, 0.874119, -0.03124031, 44.78527
 89405890, 0.04337208, 0.02369078, -0.0009195308, 0.07486238, 0.01407205, 0.01176422, -0.001774392, 0.03719873, 0.8715225, -0.03215141, 44.78527
 89605810, 0.04407593, 0.02950675, -0.005478021, 0.07486238, 0.01640008, 0.007815316, -0.001816855, 0.03719873, 0.8716471, -0.03308779, 44.78527
 89806563, 0.04026898, 0.01955163, -0.00457161, 0.07501738, 0.01219393, 0.006767069, -0.0008738597, 0.03735372, 0.8704471, -0.03319019, 44.87799
 90006483, 0.03763552, 0.02353474, -0.002842976, 0.07501738, 0.01525313, 0.01039365, -0.001355999, 0.03719873, 0.8685713, -0.03272692, 44.87799
 90206403, 0.04670602, 0.02821036, -0.004540613, 0.07486238, 0.01803674, 0.008956388, -0.001580946, 0.03719873, 0.8680683, -0.03233583, 44.78527
 90406323, 0.05280375, 0.02224747, -0.005038991, 0.07486238, 0.01959215, 0.006360312, -0.00149796, 0.03719873, 0.867916, -0.032293, 44.78527
 90606243, 0.0561564, 0.01497874, -0.004968128, 0.07486238, 0.01966202, 0.003403082, -0.00140183, 0.03719873, 0.8677531, -0.0323354, 44.78527
 90806163, 0.05357426, 0.007955691, -0.004035725, 0.07486238, 0.01779399, 0.001989286, -0.001460134, 0.03719873, 0.8674753, -0.03164054, 44.78527
