TimeUS,CAN,CAE,CAD,CAe,NAN,NAE,NAD,NAe,m10,m00,Gye
 8040949, -0.01083339, -0.003921081, -0.05424276, 1.495416, -0.01529053, -0.008586386, -0.07605818, 1.491887, -0.3201157, 0.9473785, 11.1826
 8220877, -0.01541763, -0.008620534, -0.07823353, 1.529077, 9.41327E-05, -0.0001234065, -0.001013341, 0.03347886, -0.3201112, 0.94738, 3601.934
 8420797, 0.0002229193, -0.0002085789, -0.003370386, 0.07439747, 0.0001911634, 0.0002294642, -0.0008661619, 0.03719873, -0.3201211, 0.9473766, 5.563381
 8620717, 6.204499E-05, 0.0006384594, -0.003089012, 0.07811734, 0.0001918166, 6.073991E-05, -0.0009713101, 0.03719873, -0.3201395, 0.9473704, 5.84155
 8820637, -3.944215E-05, 0.0004507747, -0.003304561, 0.07811734, 0.000253286, -0.0001112646, -0.0009816056, 0.03719873, -0.3201652, 0.9473618, 5.84155
 9020557, 7.318091E-05, 0.0003944707, -0.003252587, 0.07811734, -0.0002426329, 0.0002112303, -0.001037373, 0.03719873, -0.3202031, 0.9473489, 5.84155
 9220477, -0.0003416819, 0.000679074, -0.003257039, 0.07810804, -0.0001124374, 0.0005058524, -0.001390187, 0.03718013, -0.320234, 0.9473385, 5.840384
 9420397, -0.000292153, 0.001073542, -0.003784763, 0.07807828, -0.0002733419, 0.000208635, -0.001004961, 0.03718013, -0.3202462, 0.9473344, 5.838631
 9620317, -0.0006220869, 0.0006688899, -0.003370281, 0.07807828, 7.043013E-05, 0.0003686706, -0.001078746, 0.03718013, -0.320246, 0.9473345, 5.838631
 9820237, -4.209649E-05, 0.0007192793, -0.003612655, 0.07807828, -0.0003315001, 0.0002051226, -0.001099242, 0.03718013, -0.3202395, 0.9473367, 5.838631
 10020157, -0.0004077002, 0.0006589745, -0.003259232, 0.07807828, 1.718848E-06, -2.521446E-05, -0.001062635, 0.03718013, -0.3202352, 0.9473382, 5.838631
 10220910, -0.0002748821, 0.0001708553, -0.003398313, 0.0782332, 0.0001351466, 2.713715E-06, -0.0008829811, 0.03733505, -0.3202523, 0.9473324, 5.850215
 10420830, -9.195467E-05, 0.0004613046, -0.003118024, 0.0782332, -8.335261E-07, 0.0001242394, -0.00120582, 0.03718013, -0.3202608, 0.9473295, 5.850215
 10620750, -3.578064E-05, 0.0005852109, -0.003629167, 0.07807828, -2.729441E-05, 0.0001003143, -0.0009977163, 0.03718013, -0.3202598, 0.9473298, 5.838631
 10820670, -0.0003002178, 0.0005648995, -0.003302292, 0.07807828, 0.0004141476, 0.0002549682, -0.001217355, 0.03718013, -0.3202408, 0.9473362, 5.838631
 11020590, 0.0005894823, 0.0006272485, -0.00347051, 0.07807828, -6.823145E-05, -0.0001756043, -0.00112193, 0.03718013, -0.3202166, 0.9473444, 5.838631
 11220510, -0.0003563079, 8.31965E-05, -0.003533409, 0.07808758, 0.0001048953, 0.0002570527, -0.001192093, 0.03719873, -0.3202035, 0.9473488, 5.839798
 11420430, -9.849323E-05, 0.0005774089, -0.003564534, 0.07811734, 4.613742E-06, -4.071999E-06, -0.0009230735, 0.03719873, -0.3202013, 0.9473496, 5.84155
 11620350, -0.000128379, 0.000167555, -0.003367821, 0.07811734, -0.0003606882, 5.770528E-05, -0.001546908, 0.03719873, -0.3202021, 0.9473493, 5.84155
 11820270, -0.0004828383, 0.0002016678, -0.003952228, 0.07811734, -0.0001295785, 0.0003700661, -0.001161206, 0.03719873, -0.3202079, 0.9473474, 5.84155
 12020190, -0.0003173315, 0.0008860752, -0.003569481, 0.07811734, 0.0002659035, -0.0002101757, -0.0009317484, 0.03719873, -0.3202232, 0.9473422, 5.84155
 12220943, 0.0002083919, 0.0002003941, -0.003307045, 0.07826295, 0.000155185, 6.133191E-05, -0.0009889504, 0.03733505, -0.3202263, 0.9473411, 5.851971
 12420863, 4.09513E-05, 0.0006513346, -0.003331439, 0.0782332, -3.87101E-05, 0.0003151562, -0.001046716, 0.03718013, -0.3202156, 0.9473447, 5.850215
 12620783, -0.0001316852, 0.0005808903, -0.003327002, 0.07807828, -2.54511E-05, 7.222876E-05, -0.001168832, 0.03718013, -0.3202007, 0.9473497, 5.838631
 12820703, -0.0001137363, 0.0002384707, -0.003706279, 0.07807828, 8.942356E-05, 0.0001717182, -0.001209443, 0.03718013, -0.3201753, 0.9473583, 5.838631
 13020623, -9.967729E-05, 0.0003608268, -0.003408069, 0.07807828, -0.000322181, 2.538856E-05, -0.001245763, 0.03718013, -0.3201615, 0.9473631, 5.838631
 13220543, -0.0006073989, 0.0004100588, -0.003530043, 0.07808758, -0.0002156948, 0.0001148979, -0.001115734, 0.03719873, -0.3201579, 0.9473643, 5.839798
 13420463, -0.0004123671, 0.0004506539, -0.003414246, 0.07811734, -0.000353237, 0.0001640579, -0.0008231684, 0.03719873, -0.3201765, 0.947358, 5.84155
 13620383, -0.000586203, 0.0007209759, -0.003061805, 0.07811734, -0.0001184155, 0.0002603415, -0.0008620627, 0.03719873, -0.3201922, 0.9473526, 5.84155
 13820303, -0.0002334015, 0.0006414068, -0.003365009, 0.07811734, -0.000233163, 8.597221E-05, -0.001035371, 0.03719873, -0.3201909, 0.9473531, 5.84155
 14020223, -0.0006892707, 0.0001839618, -0.003437555, 0.07811734, 1.462069E-06, 0.0002213462, -0.001047955, 0.03719873, -0.3201864, 0.9473546, 5.84155
 14220976, -0.0003340013, 0.0008637551, -0.003208924, 0.07826295, -0.0003278471, -0.0001075497, -0.0008582496, 0.03718013, -0.320195, 0.9473516, 5.851971
 14420896, -0.000672347, 0.000379954, -0.0030892, 0.0782332, 5.717516E-05, 0.0003338819, -0.001121723, 0.03733505, -0.3202212, 0.9473429, 5.850215
 14620816, -6.796289E-05, 0.001088822, -0.003512448, 0.0782332, -0.000193707, 0.0005463581, -0.001250148, 0.03718013, -0.3202637, 0.9473285, 5.850215
 14820736, -0.0001793257, 0.0008525135, -0.003708481, 0.07807828, -0.0001446461, 0.000187003, -0.000893426, 0.03718013, -0.3202786, 0.9473234, 5.838631
 15020656, -0.0004796063, 0.0004898596, -0.003423217, 0.07807828, -0.0002067986, 8.653163E-05, -0.001305058, 0.03718013, -0.3202701, 0.9473263, 5.838631
 15220576, -0.0004083085, 0.0006075814, -0.003915393, 0.07807828, -0.0001373697, -3.301579E-05, -0.001247193, 0.03718013, -0.320269, 0.9473267, 5.838631
 15420496, -0.0002546615, 0.0005294732, -0.003752895, 0.07807828, -0.000268059, 0.0001273236, -0.001236516, 0.03718013, -0.3202755, 0.9473245, 5.838631
 15620416, -0.0003239441, 0.0004327761, -0.003547832, 0.07807828, -0.0005332723, 0.0004229413, -0.0009659716, 0.03718013, -0.3202686, 0.9473267, 5.838631
 15820336, -0.0006305591, 0.0008896456, -0.003271225, 0.07807828, 0.0001412206, 0.000160889, -0.001081701, 0.03718013, -0.3202624, 0.9473288, 5.838631
 16020256, 8.354165E-06, 0.0006282555, -0.003636612, 0.07807828, 0.0001177146, 0.0001187694, -0.001063494, 0.03718013, -0.3202575, 0.9473306, 5.838631
 16220176, -0.0001510403, 0.0005407372, -0.003378451, 0.07808758, -0.000180377, 3.630933E-05, -0.0009961911, 0.03719873, -0.3202491, 0.9473334, 5.839798
 16420929, -2.25463E-05, 0.0005398608, -0.003401214, 0.07827234, 3.028406E-05, 0.0002978384, -0.0006781265, 0.03735373, -0.3202382, 0.947337, 5.853141
 16620849, -0.0002658791, 0.0006965769, -0.002881835, 0.07827234, -0.0002746227, 2.618034E-05, -0.001183322, 0.03719873, -0.3202187, 0.9473436, 5.853141
 16820769, -0.0005626527, 0.0004445223, -0.003530225, 0.07811734, -0.000394682, 0.0004227797, -0.001103151, 0.03719873, -0.3202011, 0.9473495, 5.84155
 17020689, -0.0009428627, 0.001046048, -0.003449166, 0.07811734, -8.33766E-05, -8.560946E-06, -0.001199338, 0.03719873, -0.3202085, 0.9473471, 5.84155
 17220609, -0.0005801116, 0.0005570503, -0.003430472, 0.07810804, -0.0001022353, 0.0005830342, -0.00123337, 0.03718013, -0.3202173, 0.9473441, 5.840384
 17420529, -0.0004461193, 0.001031271, -0.003617308, 0.07807828, -0.0002991076, 0.0002828715, -0.001250148, 0.03718013, -0.3202438, 0.9473351, 5.838631
 17620449, -0.0005846081, 0.0007998568, -0.003725506, 0.07807828, -0.0002277581, 0.0002752992, -0.001314019, 0.03718013, -0.3202509, 0.9473328, 5.838631
 17820369, -0.0004943779, 0.0008885937, -0.003604067, 0.07807828, -0.0002312219, 0.0002012503, -0.0008072484, 0.03718013, -0.3202438, 0.9473352, 5.838631
 18020289, -0.0006795362, 0.0006205125, -0.003034341, 0.07807828, 4.950682E-05, 0.0002199584, -0.0009924732, 0.03718013, -0.3202331, 0.9473388, 5.838631
 18220209, -0.0001366972, 0.0007779432, -0.003141663, 0.07808758, -0.0002145842, 0.000258937, -0.001059871, 0.03719873, -0.3202333, 0.9473386, 5.839798
 18420962, -0.000804662, 0.0006851834, -0.003612467, 0.07827234, 0.0002023027, 0.0004470283, -0.0009894291, 0.03735373, -0.3202462, 0.9473343, 5.853141
 18620882, -6.327078E-05, 0.001202649, -0.003522109, 0.07827234, -0.0004345865, 0.0002577727, -0.001190377, 0.03719873, -0.3202646, 0.9473281, 5.853141
 18820802, -0.001001468, 0.0006449014, -0.003648852, 0.07811734, 1.847416E-05, 0.0001649482, -0.00101316, 0.03719873, -0.3202722, 0.9473256, 5.84155
 19020722, -0.0002900207, 0.0005586238, -0.003452645, 0.07811734, -0.0005453397, 0.0003486777, -0.001018212, 0.03719873, -0.3202677, 0.947327, 5.84155
 19220642, -0.001169309, 0.0008113442, -0.003603457, 0.07810804, -7.574882E-05, 0.0002030892, -0.001199052, 0.03718013, -0.3202646, 0.9473281, 5.840384
 19420562, -0.000674472, 0.0005717904, -0.003499567, 0.07807828, -0.0004386254, 0.0002810566, -0.000791233, 0.03718013, -0.3202718, 0.9473257, 5.838631
 19620482, -0.0008271704, 0.0008327663, -0.003261834, 0.07807828, -0.0001510867, 0.0001667212, -0.0009194509, 0.03718013, -0.2920759, 0.9563951, 5.838631
 19820402, -0.0008761457, 0.0009515387, -0.003317583, 0.07807828, -0.0002918878, 0.0002382027, -0.001167974, 0.03718013, -0.2458723, 0.9693022, 5.838631
 20020322, -0.0006340547, 0.0009531282, -0.003421768, 0.07807828, -9.204341E-05, 0.0005538045, -0.0007529107, 0.03718013, -0.2108377, 0.9775211, 5.838631
 20220242, -0.0003107278, 0.001325424, -0.003182663, 0.07807828, 0.0001673602, 0.0004148216, -0.001198575, 0.03718013, -0.19513, 0.9807774, 5.838631
 20420162, -0.000236359, 0.001343005, -0.004092744, 0.07807828, -0.0003853195, 0.0001491492, -0.0008837978, 0.03718013, -0.1921, 0.9813754, 5.838631
 20620915, 0.01295285, -0.001648334, -0.003288409, 0.0782332, 0.02514755, -0.00423674, -0.0008717811, 0.03733505, -0.1891599, 0.9819463, 5.850215
 20820835, 0.2885409, -0.05361804, -0.002194018, 0.0782332, 0.2092009, -0.03943557, 0.0001460445, 0.03718013, -0.1867455, 0.9824075, 5.850215
 21020755, 0.9494367, -0.1770413, 0.008594326, 0.07807828, 0.4409934, -0.08712562, 0.005366943, 0.03718013, -0.1856372, 0.9825982, 5.838631
 21220675, 1.678489, -0.3217745, 0.0155737, 0.07808758, 0.6560083, -0.1243139, 0.003446154, 0.03719873, -0.1852725, 0.9824995, 5.839798
 21420595, 2.344207, -0.4425629, -0.007402062, 0.07811734, 0.8620626, -0.1522599, -0.01299472, 0.03719873, -0.1848683, 0.9819794, 5.84155
 21620515, 2.931808, -0.5374178, -0.07040584, 0.07811734, 0.9929868, -0.182688, -0.03803981, 0.03719873, -0.1844014, 0.9807422, 5.84155
 21820435, 3.134116, -0.5819919, -0.1492316, 0.07811734, 0.9400399, -0.1803198, -0.06022189, 0.03719873, -0.1837393, 0.9786475, 5.84155
 22020355, 2.864982, -0.5413307, -0.2147909, 0.07811734, 0.8130518, -0.1477115, -0.07651976, 0.03719873, -0.1830325, 0.975762, 5.84155
 22220275, 2.443998, -0.4498296, -0.2823273, 0.07810804, 0.6726162, -0.1295941, -0.1267363, 0.03718013, -0.1823543, 0.9723351, 5.840384
 22420195, 2.001568, -0.3753716, -0.4424582, 0.07807828, 0.5354967, -0.09535288, -0.1121748, 0.03718013, -0.1817975, 0.9687207, 5.838631
 22620948, 1.611095, -0.2990306, -0.2730997, 0.0782332, 0.4408188, -0.08907687, -0.05055775, 0.03733505, -0.1814381, 0.9651247, 5.850215
 22820868, 1.725697, -0.324459, -1.119627, 0.0782332, 0.5600567, -0.100033, -0.977235, 0.03718013, -0.1793555, 0.9558808, 5.850215
 23020788, 1.492245, -0.2826393, -3.155743, 0.07807828, 0.3748593, -0.0796413, -0.8178301, 0.03718013, -0.1767929, 0.9378777, 5.838631
 23220708, 1.148908, -0.2427304, -1.915546, 0.07808758, 0.3257189, -0.05859302, -0.2837962, 0.03719873, -0.1759612, 0.9308742, 5.839798
 23420628, 0.8386695, -0.1627156, -0.5270309, 0.07811734, 0.1339846, -0.0334345, -0.02144423, 0.03719873, -0.1799173, 0.9306726, 5.84155
 23620548, 0.1058784, -0.04639203, -0.03559607, 0.07811734, -0.1228141, 0.01979572, -0.02210953, 0.03719873, -0.185891, 0.9278497, 5.84155
 23820468, -0.5402495, 0.0878002, -0.1650411, 0.07811734, -0.2302289, 0.03404597, -0.07219639, 0.03719873, -0.1925353, 0.9236588, 5.84155
 24020388, -0.7568868, 0.1229585, -0.2315747, 0.07811734, -0.2444755, 0.03608954, -0.05938929, 0.03719873, -0.2004327, 0.9216427, 5.84155
 24220308, -0.7928733, -0.02129519, -0.13619, 0.07810804, -0.2613557, -0.06282119, -0.02283918, 0.03718013, -0.2086034, 0.9212755, 5.840384
 24420228, -0.8419216, -0.2039648, -0.07960293, 0.07807828, -0.265172, -0.05249692, -0.01528367, 0.03718013, -0.2092095, 0.9222742, 5.838631
 24620148, -0.8063596, -0.1370971, 0.02351333, 0.07807828, -0.2361568, -0.02657389, 0.03589052, 0.03718013, -0.214968, 0.9241371, 5.838631
 24820901, -0.7548166, -0.05831319, 0.09385184, 0.0782332, -0.2439449, -0.003666844, 0.02228532, 0.03733505, -0.2244047, 0.9246249, 5.850215
 25020821, -0.7495256, -0.03583352, 0.1015937, 0.0782332, -0.2221307, -0.03004299, 0.05998509, 0.03718013, -0.234635, 0.9255954, 5.850215
 25220741, -0.7229743, -0.1252328, 0.1669543, 0.07807828, -0.2284117, -0.05408335, 0.03756946, 0.03718013, -0.2429529, 0.9263413, 5.838631
 25420661, -0.7295389, -0.1671897, 0.1057406, 0.07807828, -0.2215482, -0.04875477, 0.02856599, 0.03718013, -0.251618, 0.9265214, 5.838631
 25620581, -0.7074359, -0.1490679, 0.07051904, 0.07807828, -0.2130847, -0.03694094, 0.0164076, 0.03718013, -0.2613974, 0.9260377, 5.838631
 25820501, -0.7774378, -0.07913642, 0.08165435, 0.07807828, -0.3100672, 0.003230289, 0.04038854, 0.03718013, -0.2715276, 0.9250349, 5.838631
 26020421, -1.189936, 0.09397757, 0.2547125, 0.07807828, -0.4788088, 0.07466688, 0.143411, 0.03718013, -0.2814659, 0.925032, 5.838631
 26220341, -1.592435, 0.2671938, 0.5369055, 0.07808758, -0.4866275, 0.08918133, 0.2134854, 0.03719873, -0.2907999, 0.9281896, 5.839798
 26420261, -1.114738, 0.3442855, 1.400976, 0.07811734, -0.1107551, 0.1085055, 0.8683118, 0.03719873, -0.3089568, 0.9420323, 5.84155
 26620181, -0.1702963, 0.1813756, 3.17097, 0.07811734, 0.004122735, -0.02414028, 1.069131, 0.03719873, -0.3054715, 0.9519782, 5.84155
 26820934, -0.008648412, -0.4523955, 2.921346, 0.07827234, -0.02487238, -0.4063574, 0.6042103, 0.03735373, -0.2906446, 0.9536638, 5.853141
 27020854, -0.2751173, -2.092402, 1.129742, 0.07827234, -0.2013597, -1.062636, -0.0846831, 0.03719873, -0.356871, 0.9336765, 5.853141
 27220774, -1.104186, -3.970122, -1.135551, 0.07810804, -0.5797199, -1.439379, -0.7421013, 0.03718013, -0.4854113, 0.8722712, 5.840384
 27420694, -2.115321, -4.303983, -2.49126, 0.07807828, -0.76066, -1.152583, -0.7604436, 0.03718013, -0.6021761, 0.7880005, 5.838631
 27620614, -2.420016, -3.233404, -2.105586, 0.07807828, -0.7148523, -0.7920894, -0.4595119, 0.03718013, -0.6828667, 0.7109575, 5.838631
 27820534, -2.142525, -2.200488, -1.143356, 0.07807828, -0.6072208, -0.5470878, -0.2265342, 0.03718013, -0.7364113, 0.6502675, 5.838631
 28020454, -1.958083, -1.61211, -0.6746323, 0.07807828, -0.6058031, -0.4254955, -0.1724287, 0.03718013, -0.7793027, 0.5932992, 5.838631
 28220374, -2.0242, -1.233379, -0.6010641, 0.07808758, -0.6781631, -0.3148482, -0.209785, 0.03719873, -0.817027, 0.5339174, 5.839798
 28420294, -2.22581, -0.8160298, -0.6426855, 0.07811734, -0.716516, -0.1580267, -0.1750207, 0.03719873, -0.8495643, 0.4735523, 5.84155
 28620214, -2.240135, -0.3149415, -0.4707833, 0.07811734, -0.6584089, -0.006281699, -0.07826915, 0.03719873, -0.8764236, 0.4179855, 5.84155
 28820967, -2.006604, 0.1067873, -0.1307538, 0.07827234, -0.5666384, 0.08673673, 0.02044565, 0.03735373, -0.8991774, 0.3691991, 5.853141
 29020887, -1.706535, 0.3581196, 0.1454509, 0.07827234, -0.4886118, 0.1490656, 0.08299845, 0.03719873, -0.9195149, 0.3243313, 5.853141
 29220807, -1.500061, 0.5338243, 0.2829141, 0.07810804, -0.4195983, 0.1977393, 0.09552709, 0.03718013, -0.9378083, 0.279648, 5.840384
 29420727, -1.418288, 0.6045376, 0.3837359, 0.07807828, -0.5150139, 0.1559258, 0.1710154, 0.03718013, -0.9573291, 0.2245036, 5.838631
 29620647, -1.825499, 0.4462075, 0.5339735, 0.07807828, -0.6661249, 0.1099449, 0.1324132, 0.03718013, -0.9702818, 0.1687291, 5.838631
 29820567, -2.305692, 0.3619312, 0.15399, 0.07807828, -0.8151058, 0.1309928, -0.1056899, 0.03718013, -0.9779319, 0.09557294, 5.838631
 30020487, -2.693387, 0.5538849, -0.5853414, 0.07807828, -0.8451606, 0.2463331, -0.2598608, 0.03718013, -0.9781246, 0.007279963, 5.838631
 30220407, -2.564238, 0.9294226, -0.8003556, 0.07807828, -0.7212305, 0.3668136, -0.2114084, 0.03718013, -0.9715365, -0.07864474, 5.838631
 30420327, -2.100962, 1.246453, -0.515372, 0.07807828, -0.5507146, 0.4170105, -0.06917684, 0.03718013, -0.9615088, -0.1520201, 5.838631
 30620247, -1.649057, 1.368336, -0.1209407, 0.07807828, -0.4536331, 0.4367561, 0.01438176, 0.03718013, -0.9494315, -0.2182663, 5.838631
 30820167, -1.383686, 1.42171, 0.0719796, 0.07807828, -0.3941109, 0.4519582, 0.03949073, 0.03718013, -0.9345524, -0.2800034, 5.838631
 31020920, -1.21084, 1.47256, 0.1073768, 0.0782332, -0.3570136, 0.4748916, 0.02385494, 0.03733505, -0.9156439, -0.3406429, 5.850215
 31220840, -1.103036, 1.558408, 0.03120136, 0.0782332, -0.3269863, 0.5109954, -0.02073374, 0.03718013, -0.891274, -0.4018034, 5.850215
 31420760, -1.003645, 1.667074, -0.0706789, 0.07807828, -0.2881342, 0.5369233, -0.02146205, 0.03718013, -0.8619806, -0.4620425, 5.838631
 31620680, -0.8578715, 1.724867, -0.06737958, 0.07807828, -0.2354356, 0.5382464, -0.0103949, 0.03718013, -0.829622, -0.5188419, 5.838631
 31820600, -0.6917777, 1.730257, -0.02804284, 0.07807828, -0.1914626, 0.5411426, -0.02064642, 0.03718013, -0.7941496, -0.5724565, 5.838631
 32020520, -0.5501051, 1.766114, -0.08716246, 0.07807828, -0.1382621, 0.5607299, -0.03650301, 0.03718013, -0.75459, -0.6237683, 5.838631
 32220440, -0.396323, 1.788524, -0.1069724, 0.07807828, -0.09997173, 0.5527707, -0.03701169, 0.03718013, -0.7122332, -0.6719536, 5.838631
 32420360, -0.2574053, 1.780817, -0.1245604, 0.07807828, -0.04954923, 0.5539111, -0.03652332, 0.03718013, -0.667302, -0.7165949, 5.838631
 32620280, -0.1008807, 1.747603, -0.09265246, 0.07807828, -0.004781932, 0.5317298, -0.02271411, 0.03718013, -0.6217752, -0.7568081, 5.838631
 32820200, 0.03660019, 1.706959, -0.09053534, 0.07807828, 0.03573079, 0.5401797, -0.0406343, 0.03718013, -0.573605, -0.794022, 5.838631
 33020953, 0.1660553, 1.711182, -0.1292343, 0.0782332, 0.07547464, 0.5265257, -0.04725385, 0.03733505, -0.5228985, -0.8282633, 5.850215
 33220873, 0.2960833, 1.669003, -0.1518715, 0.0782332, 0.1223195, 0.5137036, -0.04962385, 0.03718013, -0.4718594, -0.8581476, 5.850215
 33420793, 0.4372742, 1.60513, -0.1493204, 0.07807828, 0.1552659, 0.4821871, -0.0406874, 0.03718013, -0.4207138, -0.884339, 5.838631
 33620713, 0.5434301, 1.499891, -0.1198284, 0.07807828, 0.1943637, 0.4485334, -0.03286601, 0.03718013, -0.3707491, -0.9066073, 5.838631
 33820633, 0.6604968, 1.406614, -0.1102038, 0.07807828, 0.2274588, 0.4248799, -0.03871179, 0.03718013, -0.3199362, -0.9260406, 5.838631
 34020553, 0.7496659, 1.311559, -0.1181378, 0.07807828, 0.2481833, 0.3793901, -0.0280495, 0.03718013, -0.2707358, -0.9419653, 5.838631
 34220473, 0.8036304, 1.174481, -0.05745858, 0.07807828, 0.259228, 0.3472626, -0.008284305, 0.03718013, -0.2227222, -0.955424, 5.838631
 34420393, 0.8427611, 1.060472, -0.01962009, 0.07807828, 0.2745747, 0.3069092, -0.006759228, 0.03718013, -0.1776655, -0.9657486, 5.838631
 34620313, 0.8839349, 0.9365622, -0.03305541, 0.07807828, 0.2848682, 0.2717615, -0.01558538, 0.03718013, -0.1330456, -0.9736856, 5.838631
 34820233, 0.9310377, 0.8290808, -0.05600394, 0.07807828, 0.2969407, 0.2379808, -0.02583919, 0.03718013, -0.0912264, -0.9791448, 5.838631
 35020153, 0.9639623, 0.7016708, -0.0594634, 0.07807828, 0.302865, 0.1907031, -0.01348271, 0.03718013, -0.0517469, -0.9827985, 5.838631
 35220906, 0.9748769, 0.5787257, -0.04003411, 0.0782332, 0.3057944, 0.1578223, -0.003174673, 0.03733505, -0.01387385, -0.9849615, 5.850215
 35420826, 0.9717882, 0.4652246, -0.02213202, 0.0782332, 0.2983757, 0.1225085, -0.01360644, 0.03718013, 0.01903666, -0.985643, 5.850215
 35620746, 0.9292595, 0.3301512, -0.0241832, 0.07807828, 0.2804618, 0.07172985, 0.005711845, 0.03718013, 0.04754203, -0.9856868, 5.838631
 35820666, 0.9045183, 0.1939162, -0.002437904, 0.07807828, 0.2836422, 0.03797858, -0.002822319, 0.03718013, 0.0748268, -0.9848391, 5.838631
 36020586, 0.8932812, 0.08892455, 0.01390655, 0.07807828, 0.2761086, 0.007075006, 0.008266288, 0.03718013, 0.09895343, -0.9837123, 5.838631
 36220506, 0.8813155, -0.004249685, -0.01691581, 0.07807828, 0.2721776, -0.01520512, -0.02634987, 0.03718013, 0.1202166, -0.9818811, 5.838631
 36420426, 0.8438505, -0.0850008, -0.05223081, 0.07807828, 0.2494821, -0.04450107, 0.0002609162, 0.03718013, 0.1377447, -0.9803631, 5.838631
 36620346, 0.77183, -0.1822123, 0.02143554, 0.07807828, 0.2283333, -0.07337959, 0.02018207, 0.03718013, 0.1506904, -0.9795245, 5.838631
 36820266, 0.7161586, -0.2677945, 0.04605412, 0.07807828, 0.2131517, -0.09874317, 0.009026063, 0.03718013, 0.1624327, -0.9785193, 5.838631
 37020186, 0.6590875, -0.3365042, 0.03251244, 0.07807828, 0.1968469, -0.1194569, 0.009500707, 0.03718013, 0.1713992, -0.9778258, 5.838631
 37220939, 0.6218364, -0.3948326, 0.01657557, 0.0782332, 0.1879407, -0.1299113, 0.001762516, 0.03733505, 0.1788837, -0.9771591, 5.850215
 37420859, 0.5903162, -0.4273754, 0.005045485, 0.0782332, 0.177041, -0.1399517, -0.004481525, 0.03718013, 0.1837465, -0.9768499, 5.850215
 37620779, 0.5522112, -0.4713578, -0.007435417, 0.07807828, 0.1625155, -0.1615245, 0.002707066, 0.03718013, 0.1846225, -0.9772828, 5.838631
 37820699, 0.5003956, -0.5372918, 0.01712351, 0.07807828, 0.1506661, -0.1838247, 0.01031615, 0.03718013, 0.1839905, -0.9780278, 5.838631
 38020619, 0.4651082, -0.5965497, 0.02099623, 0.07807828, 0.1359682, -0.1890709, 0.002547484, 0.03718013, 0.1834783, -0.9786286, 5.838631
 38220539, 0.4204985, -0.6070629, 0.02382111, 0.07807828, 0.1280383, -0.1894403, 0.02336311, 0.03718013, 0.1812676, -0.9796489, 5.838631
 38420459, 0.3944248, -0.617861, 0.05948542, 0.07807828, 0.1168211, -0.1981748, 0.003080852, 0.03718013, 0.1758218, -0.9811215, 5.838631
 38620379, 0.3707505, -0.6562868, -0.02704315, 0.07807828, 0.1118326, -0.210602, -0.02922024, 0.03718013, 0.1700726, -0.9822905, 5.838631
 38820299, 0.3564286, -0.671959, -0.08479881, 0.07807828, 0.1103035, -0.2061843, -0.009626828, 0.03718013, 0.1631548, -0.9836889, 5.838631
 39020219, 0.3381645, -0.6493875, 0.01526844, 0.07807828, 0.09939801, -0.1982421, 0.01259862, 0.03718013, 0.1564371, -0.9852313, 5.838631
 39220972, 0.3066856, -0.6446863, 0.02239762, 0.0782332, 0.09210069, -0.2093515, -0.006928056, 0.03718013, 0.1468742, -0.9869853, 5.850215
 39420892, 0.2953587, -0.6794251, -0.04178463, 0.0782332, 0.09448558, -0.2164498, -0.01958918, 0.03733505, 0.1372112, -0.9885193, 5.850215
 39620812, 0.2948003, -0.6867079, -0.02825367, 0.0782332, 0.08762112, -0.2183218, -0.004259217, 0.03718013, 0.1265141, -0.9901785, 5.850215
 39820732, 0.2891611, -0.6887139, -0.00974679, 0.07807828, 0.08810662, -0.212379, -0.007671434, 0.03718013, 0.116677, -0.9915785, 5.838631
 40020652, 0.2825554, -0.737606, -0.03633965, 0.07807828, 0.1022668, -0.2033355, -0.02878039, 0.03718013, 0.1234491, -0.9907075, 5.838631
 40220572, 0.3847511, -0.1312449, -0.2066548, 0.07807828, 0.1530581, 0.2267653, -0.08916063, 0.03718013, 0.1469283, -0.9878257, 5.838631
 40420492, 0.4952791, 1.06119, -0.07128432, 0.07807828, 0.1485289, 0.4544784, 0.08451341, 0.03718013, 0.1484311, -0.987943, 5.838631
 40620412, 0.4471704, 1.412002, 0.150569, 0.07807828, 0.1400773, 0.4106291, -0.06620562, 0.03718013, 0.1557013, -0.9857047, 5.838631
 40820332, 0.4744032, 1.151525, -0.4961114, 0.07807828, 0.1616206, 0.2608194, -0.2503869, 0.03718013, 0.1858812, -0.9785118, 5.838631
 41020252, 0.4925719, 0.6310672, -0.6492317, 0.07807828, 0.1362295, 0.1035369, -0.09641261, 0.03718013, 0.2228472, -0.9704823, 5.838631
 41220172, 0.4188064, 0.2807347, -0.0694317, 0.07807828, 0.1227107, 0.07123319, 0.08513696, 0.03718013, 0.2542681, -0.9638836, 5.838631
 41420925, 0.4202648, 0.27057, 0.2556565, 0.0782332, 0.1421339, 0.1025327, 0.06208466, 0.03733505, 0.2785477, -0.9578831, 5.850215
 41620845, 0.4745236, 0.3556095, 0.1172244, 0.0782332, 0.1629146, 0.1204911, -0.01342684, 0.03718013, 0.2996497, -0.9515473, 5.850215
 41820765, 0.5472865, 0.3923455, -0.1501091, 0.07807828, 0.1756242, 0.1273472, -0.08540227, 0.03718013, 0.3223568, -0.9435585, 5.838631
 42020685, 0.5601721, 0.3689107, -0.2715406, 0.07807828, 0.1695812, 0.09225494, -0.08291598, 0.03718013, 0.3439178, -0.9354059, 5.838631
 42220605, 0.5268956, 0.2429163, -0.2071006, 0.07807828, 0.1521079, 0.04859817, -0.02038331, 0.03718013, 0.3640219, -0.927746, 5.838631
 42420525, 0.4595551, 0.1256941, -0.006297377, 0.07807828, 0.1365987, 0.02394664, 0.01262341, 0.03718013, 0.3821766, -0.9208102, 5.838631
 42620445, 0.446702, 0.06362, 0.02823791, 0.07807828, 0.1421544, 0.01894832, 0.004313841, 0.03718013, 0.3993442, -0.9137894, 5.838631
 42820365, 0.4481094, 0.04094355, -0.006331962, 0.07807828, 0.1342926, 0.003563552, -0.01000729, 0.03718013, 0.4142519, -0.9072739, 5.838631
 43020285, 0.4241105, -0.005431935, -0.05153429, 0.07807828, 0.1332436, -0.01131229, -0.03106495, 0.03718013, 0.4276082, -0.9010718, 5.838631
 43220205, 0.4179158, -0.0400162, -0.08351843, 0.07807828, 0.1269888, -0.01719046, -0.005734342, 0.03718013, 0.4408984, -0.8947651, 5.838631
 43420958, 0.3958946, -0.06788103, -0.01118811, 0.0782332, 0.1188233, -0.02630094, -0.01740537, 0.03733505, 0.4520427, -0.8893654, 5.850215
 43620878, 0.3578841, -0.1129256, -0.0187002, 0.0782332, 0.1027499, -0.04896862, 0.01150272, 0.03718013, 0.4617649, -0.8846609, 5.850215
 43820798, 0.3092878, -0.1726021, 0.04425572, 0.07807828, 0.08647306, -0.05437977, 0.006635967, 0.03718013, 0.4713256, -0.879912, 5.838631
 44020718, 0.273925, -0.1956929, 0.01410659, 0.07807828, 0.08299059, -0.0589827, 0.004106404, 0.03718013, 0.4803969, -0.8752239, 5.838631
 44220638, 0.2625557, -0.2069263, 0.005948272, 0.07807828, 0.07565019, -0.07447751, -0.004858076, 0.03718013, 0.4870364, -0.8717083, 5.838631
 44420558, 0.2242424, -0.2498252, -0.01207496, 0.07807828, 0.06265178, -0.08508239, -0.003871704, 0.03718013, 0.4922912, -0.8689185, 5.838631
 44620478, 0.1959515, -0.2843731, -0.004087443, 0.07807828, 0.06169895, -0.08849993, 0.005678193, 0.03718013, 0.4982097, -0.8657252, 5.838631
 44820398, 0.1801116, -0.2887501, 0.02520797, 0.07807828, 0.05026902, -0.09616312, 0.001668644, 0.03718013, 0.5036256, -0.862766, 5.838631
 45020318, 0.1582142, -0.3178273, -0.01081669, 0.07807828, 0.0502351, -0.1035554, -0.008581732, 0.03718013, 0.5074703, -0.8606086, 5.838631
 45220238, 0.1449477, -0.3375079, -0.01588044, 0.07807828, 0.03919113, -0.1100696, -0.006635585, 0.03718013, 0.5116309, -0.8582591, 5.838631
 45420158, 0.1196818, -0.3591736, -0.02714348, 0.07807828, 0.03526207, -0.1172649, -0.002527275, 0.03718013, 0.5146968, -0.8565233, 5.838631
 45620911, 0.07826887, -0.4100661, 0.01710128, 0.0782332, -0.01161237, -0.1710233, 0.01606118, 0.03733505, 0.5198219, -0.8535888, 5.850215
 45820831, 0.1085825, -0.3297933, -0.001376727, 0.0782332, 0.1465033, 0.07215263, -0.03368174, 0.03718013, 0.5511318, -0.8338949, 5.850215
 46020751, 0.7158388, 0.6349375, -0.01684624, 0.07807828, 0.3321979, 0.3790632, 0.06451105, 0.03718013, 0.5717847, -0.8201538, 5.838631
 46220671, 1.109413, 1.312729, 0.179664, 0.07807828, 0.3535862, 0.4522655, -0.02051257, 0.03718013, 0.5871469, -0.8083915, 5.838631
 46420591, 1.148631, 1.363943, -0.4086672, 0.07807828, 0.3608786, 0.3753662, -0.3045756, 0.03718013, 0.6209126, -0.779807, 5.838631
 46620511, 1.104293, 0.9791939, -1.019313, 0.07807828, 0.3000487, 0.1934703, -0.2809941, 0.03718013, 0.6632626, -0.741394, 5.838631
 46820431, 0.8779942, 0.454226, -0.6274971, 0.07807828, 0.2403929, 0.07364607, -0.05909567, 0.03718013, 0.6988204, -0.7078651, 5.838631
 47020351, 0.7257578, 0.1858978, -0.01361996, 0.07807828, 0.2068384, 0.03488788, 0.07508592, 0.03718013, 0.725399, -0.6819488, 5.838631
 47220271, 0.6842166, 0.1040853, 0.218785, 0.07807828, 0.2255962, 0.02772267, 0.03084122, 0.03718013, 0.7479888, -0.6579441, 5.838631
 47420191, 0.7610109, 0.08736692, 0.02007819, 0.07807828, 0.2578455, 0.01972433, -0.04086375, 0.03718013, 0.7696171, -0.6322162, 5.838631
 47620944, 0.8425372, 0.06038055, -0.1890689, 0.0782332, 0.2593371, 0.009235404, -0.07525413, 0.03733505, 0.7911166, -0.6042238, 5.850215
 47820864, 0.8093824, -0.007517219, -0.2560546, 0.0782332, 0.2416232, -0.02084685, -0.07960129, 0.03718013, 0.8100218, -0.57763, 5.850215
 48020784, 0.7267261, -0.1031135, -0.1896492, 0.07807828, 0.2053557, -0.05151962, -0.03040594, 0.03718013, 0.8269046, -0.552975, 5.838631
 48220704, 0.615227, -0.197952, -0.06725056, 0.07807828, 0.1754819, -0.07607844, -0.00526456, 0.03718013, 0.8425129, -0.5292984, 5.838631
 48420624, 0.5291059, -0.2556913, -0.02451532, 0.07807828, 0.1547326, -0.08833306, -0.0003425181, 0.03718013, 0.8564501, -0.5070115, 5.838631
 48620544, 0.4716005, -0.2957319, 0.01475983, 0.07807828, 0.1371874, -0.1000623, -0.0006305079, 0.03718013, 0.8695442, -0.4849955, 5.838631
 48820464, 0.4282317, -0.3350845, -0.0184077, 0.07807828, 0.1190517, -0.1096613, -0.01788549, 0.03718013, 0.8806841, -0.4647577, 5.838631
 49020384, 0.3742495, -0.3669449, -0.07373292, 0.07807828, 0.1062513, -0.1174604, -0.01290558, 0.03718013, 0.8905712, -0.4457588, 5.838631
 49220304, 0.3036759, -0.3859318, 0.0002601352, 0.07807828, 0.08295605, -0.1245912, 0.007688974, 0.03718013, 0.8999459, -0.4274435, 5.838631
 49420224, 0.241357, -0.4028232, -0.002850546, 0.07807828, 0.06440475, -0.1331027, -0.01699063, 0.03718013, 0.9082836, -0.4098441, 5.838631
 49620977, 0.1885935, -0.4233285, -0.04592631, 0.0782332, 0.05278295, -0.1341813, -0.007618907, 0.03718013, 0.9160759, -0.3926491, 5.850215
 49820897, 0.1360979, -0.4283985, -0.01592736, 0.0782332, 0.02683915, -0.1320589, 0.01452803, 0.03733505, 0.923112, -0.3766205, 5.850215
 50020817, 0.07078654, -0.4254236, 0.03926795, 0.0782332, 0.01143871, -0.1363475, 0.008420818, 0.03718013, 0.9296647, -0.3610098, 5.850215
 50220737, 0.00706702, -0.426995, 0.05945314, 0.07807828, -0.009680495, -0.1331458, 0.03488594, 0.03718013, 0.9356293, -0.3465362, 5.838631
 50420657, -0.04798163, -0.4268143, 0.0561192, 0.07807828, -0.02382692, -0.1373719, -0.004343107, 0.03718013, 0.9405995, -0.333403, 5.838631
 50620577, -0.1329496, -0.4521394, -0.01459236, 0.07807828, -0.09378146, -0.153431, 0.001402675, 0.03718013, 0.946946, -0.3153592, 5.838631
 50820497, -0.007979162, -0.3948984, -0.02507267, 0.07807828, 0.2138918, -0.05747246, -0.02766094, 0.03718013, 0.9613497, -0.2696788, 5.838631
 51020417, 1.117849, -0.03925464, -0.03562315, 0.07807828, 0.5547518, 0.05516132, 0.03205209, 0.03718013, 0.9711738, -0.2333888, 5.838631
 51220337, 2.075403, 0.2700033, 0.1149493, 0.07807828, 0.7983462, 0.1261945, 0.0068149, 0.03718013, 0.9797683, -0.1868357, 5.838631
 51420257, 2.88792, 0.4065012, -0.4607925, 0.07807828, 1.088316, 0.1116313, -0.4243562, 0.03718013, 0.9869797, -0.09324718, 5.838631
 51620177, 3.574854, 0.1010924, -1.756273, 0.07807828, 1.125627, -0.1337514, -0.6918761, 0.03718013, 0.9804667, 0.02818438, 5.838631
 51820930, 3.398345, -0.7430119, -2.139792, 0.0782332, 0.9232532, -0.3841679, -0.5602943, 0.03733505, 0.9596689, 0.1407084, 5.850215
 52020850, 2.664437, -1.372879, -1.430818, 0.0782332, 0.6990937, -0.4792618, -0.2671518, 0.03718013, 0.9352742, 0.2302321, 5.850215
 52220770, 2.066074, -1.585351, -0.6925362, 0.07807828, 0.5652757, -0.5129041, -0.1401144, 0.03718013, 0.9094293, 0.3043272, 5.838631
 52420690, 1.719849, -1.686019, -0.4038816, 0.07807828, 0.4935704, -0.5441684, -0.1036463, 0.03718013, 0.8804295, 0.3747015, 5.838631
 52620610, 1.522765, -1.827082, -0.3332179, 0.07807828, 0.4473809, -0.6185709, -0.1251206, 0.03718013, 0.8452377, 0.4435113, 5.838631
 52820530, 1.342233, -2.046311, -0.3995473, 0.07807828, 0.3704751, -0.6719415, -0.1143648, 0.03718013, 0.8044954, 0.5087931, 5.838631
 53020450, 1.080702, -2.190245, -0.3534014, 0.07807828, 0.2967992, -0.7118341, -0.1098171, 0.03718013, 0.759605, 0.5702435, 5.838631
 53220370, 0.8363409, -2.289599, -0.3293112, 0.07807828, 0.2078294, -0.7215417, -0.08421389, 0.03718013, 0.7107728, 0.6279491, 5.838631
 53420290, 0.5555598, -2.311414, -0.2441062, 0.07807828, 0.1157038, -0.7107982, -0.05328173, 0.03718013, 0.661002, 0.6790395, 5.838631
 53620210, 0.2798362, -2.247471, -0.1439957, 0.07807828, 0.04428559, -0.6807296, -0.02092926, 0.03718013, 0.6099465, 0.7262194, 5.838631
 53820963, 0.06430674, -2.167444, -0.05543786, 0.0782332, -0.02451034, -0.6734034, -0.0183949, 0.03733505, 0.5575976, 0.7685605, 5.850215
 54020883, -0.1465434, -2.08597, -0.01753838, 0.0782332, -0.08104341, -0.6116366, 0.02514815, 0.03718013, 0.5055655, 0.8064638, 5.850215
 54220803, -0.3198048, -1.934228, 0.06006133, 0.07807828, -0.1330937, -0.5796288, 0.02636808, 0.03718013, 0.4536949, 0.8394044, 5.838631
 54420723, -0.4804715, -1.7929, 0.08538752, 0.07807828, -0.1788882, -0.5271672, 0.03640006, 0.03718013, 0.4028961, 0.8680568, 5.838631
 54620643, -0.628329, -1.65619, 0.09208712, 0.07807828, -0.222394, -0.4944954, 0.0205733, 0.03718013, 0.3515629, 0.8929064, 5.838631
 54820563, -0.7462769, -1.526013, 0.09234682, 0.07807828, -0.2491031, -0.4521851, 0.03692447, 0.03718013, 0.299363, 0.9151363, 5.838631
 55020483, -0.8256201, -1.393161, 0.1022528, 0.07807828, -0.2708268, -0.399853, 0.03043797, 0.03718013, 0.2492973, 0.9330491, 5.838631
 55220403, -0.9003497, -1.208739, 0.1002523, 0.07807828, -0.2980679, -0.3402421, 0.03385553, 0.03718013, 0.20102, 0.9476329, 5.838631
 55420323, -0.9754866, -1.037201, 0.09741002, 0.07807828, -0.3101143, -0.2914953, 0.03585601, 0.03718013, 0.1542691, 0.9593286, 5.838631
 55620243, -0.9996417, -0.8426747, 0.1355921, 0.07807828, -0.3110942, -0.2243917, 0.04515462, 0.03718013, 0.1118427, 0.968369, 5.838631
 55820163, -1.000135, -0.6566097, 0.1272487, 0.07807828, -0.3089235, -0.1718151, 0.0330132, 0.03718013, 0.0690252, 0.9752926, 5.838631
 56020916, -0.9769967, -0.4875258, 0.1195507, 0.0782332, -0.2992928, -0.1178842, 0.05387736, 0.03733505, 0.02682198, 0.9805343, 5.850215
 56220836, -0.9413862, -0.3000939, 0.1842882, 0.0782332, -0.2805724, -0.05643206, 0.07042203, 0.03718013, -0.01323538, 0.9840418, 5.850215
 56420756, -0.8812303, -0.122322, 0.2057258, 0.07807828, -0.2645493, -0.007894779, 0.05237753, 0.03718013, -0.05194953, 0.985482, 5.838631
 56620676, -0.8454139, 0.03366513, 0.1410918, 0.07807828, -0.2609638, 0.04084115, 0.03083178, 0.03718013, -0.08735999, 0.9849498, 5.838631
 56820596, -0.8100395, 0.1777714, 0.1047027, 0.07807828, -0.2342296, 0.07686252, 0.04310981, 0.03718013, -0.1213398, 0.9830976, 5.838631
 57020516, -0.7294771, 0.2913524, 0.0992901, 0.07807828, -0.2127905, 0.1115207, 0.01249796, 0.03718013, -0.151333, 0.9801061, 5.838631
 57220436, -0.6623374, 0.4018108, 0.05145591, 0.07807828, -0.1947804, 0.1402497, 0.02561536, 0.03718013, -0.177322, 0.9768381, 5.838631
 57420356, -0.5960805, 0.4894871, 0.1071472, 0.07807828, -0.1706483, 0.1716586, 0.04495815, 0.03718013, -0.2008153, 0.9733723, 5.838631
 57620276, -0.5156022, 0.5754254, 0.1452105, 0.07807828, -0.1482033, 0.1939845, 0.04958667, 0.03718013, -0.2189383, 0.9704566, 5.838631
 57820196, -0.4449967, 0.6559522, 0.1501532, 0.07807828, -0.1267686, 0.2191612, 0.03517736, 0.03718013, -0.2329395, 0.96793, 5.838631
 58020949, -0.3753171, 0.7377788, 0.1105581, 0.0782332, -0.1008208, 0.2535385, 0.03897896, 0.03733505, -0.2419247, 0.9663146, 5.850215
 58220869, -0.2975106, 0.8436391, 0.1290237, 0.0782332, -0.08832689, 0.2822804, 0.03566716, 0.03718013, -0.2473463, 0.9653952, 5.850215
 58420789, -0.2705989, 0.9226109, 0.07126097, 0.07807828, -0.08447719, 0.298056, -0.001322885, 0.03718013, -0.2490367, 0.9650374, 5.838631
 58620709, -0.2737173, 0.9514581, -0.01867451, 0.07807828, -0.08355357, 0.2916682, -0.00605484, 0.03718013, -0.2459226, 0.9658805, 5.838631
 58820629, -0.257287, 0.9274209, 0.02737614, 0.07807828, -0.07195517, 0.2903962, 0.02646694, 0.03718013, -0.2392616, 0.9679528, 5.838631
 59020549, -0.2202346, 0.9384428, 0.08635365, 0.07807828, -0.06638008, 0.2906465, 0.03700254, 0.03718013, -0.2319209, 0.9701396, 5.838631
 59220469, -0.2081287, 0.931928, 0.1066092, 0.07807828, -0.06898937, 0.2952149, 0.01725136, 0.03718013, -0.2240419, 0.9722899, 5.838631
 59420389, -0.213289, 0.9456523, 0.04978473, 0.07807828, -0.06494109, 0.2932627, 0.01748301, 0.03718013, -0.2145616, 0.9746203, 5.838631
 59620309, -0.1997581, 0.938794, 0.02208371, 0.07807828, -0.05823901, 0.2957034, 0.003027849, 0.03718013, -0.20252, 0.9773402, 5.838631
 59820229, -0.1879241, 0.9310888, 0.0258334, 0.07807828, -0.0611103, 0.2838229, 0.003493818, 0.03718013, -0.1907103, 0.979875, 5.838631
 60020149, -0.2063164, 0.8975835, -0.01400861, 0.07807828, -0.06933523, 0.2763844, -0.02110552, 0.03718013, -0.179081, 0.9820768, 5.838631
 60220902, -0.2227135, 0.8852006, -0.04332032, 0.0782332, -0.0640242, 0.2690502, 0.004203446, 0.03733505, -0.164149, 0.9848416, 5.850215
 60420822, -0.2055112, 0.8478366, 0.03879623, 0.0782332, -0.0570864, 0.256588, 0.02008969, 0.03718013, -0.1511059, 0.987152, 5.850215
 60620742, -0.2011958, 0.7597946, 0.023593, 0.07807828, -0.06018005, 0.2602727, 0.01140739, 0.03718013, -0.123404, 0.9913943, 5.838631
 60820662, -0.1375735, 1.305998, 0.148344, 0.07807828, -0.00990247, 0.6487623, 0.1202551, 0.03718013, -0.07936135, 0.9964858, 5.838631
 61020582, -0.001245544, 2.40931, 0.5529118, 0.07807828, 0.008477119, 0.900634, 0.2252391, 0.03718013, -0.03391103, 0.9989184, 5.838631
 61220502, 0.004074626, 3.214483, 0.3503414, 0.07807828, -0.02306808, 1.18926, -0.1266859, 0.03718013, 0.05168806, 0.9960522, 5.838631
 61420422, -0.2679016, 3.887855, -0.8053256, 0.07807828, -0.1850199, 1.189784, -0.39996, 0.03718013, 0.1638944, 0.9799923, 5.838631
 61620342, -0.8074697, 3.512239, -1.238389, 0.07807828, -0.3398572, 0.9212266, -0.3200629, 0.03718013, 0.2650634, 0.954807, 5.838631
 61820262, -1.160711, 2.626709, -0.748991, 0.07807828, -0.3883903, 0.6731721, -0.09232803, 0.03718013, 0.3431348, 0.9290262, 5.838631
 62020182, -1.263772, 1.96656, -0.1328716, 0.07807828, -0.4031982, 0.5373055, 0.02936933, 0.03718013, 0.405598, 0.904141, 5.838631
 62220935, -1.347532, 1.681103, 0.05866009, 0.0782332, -0.4472533, 0.5122265, -0.00308201, 0.03733505, 0.4653429, 0.8751712, 5.850215
 62420855, -1.500824, 1.596556, -0.08100315, 0.0782332, -0.4992181, 0.4757963, -0.05299021, 0.03718013, 0.5256997, 0.8401489, 5.850215
 62620775, -1.627374, 1.445495, -0.1582805, 0.07807828, -0.5227647, 0.4104331, -0.05360251, 0.03718013, 0.5835346, 0.8010573, 5.838631
 62820695, -1.709735, 1.252521, -0.2024141, 0.07807828, -0.5555346, 0.3538317, -0.07955763, 0.03718013, 0.6375047, 0.7581107, 5.838631
 63020615, -1.787194, 1.056512, -0.2599798, 0.07807828, -0.5675168, 0.2877885, -0.07950529, 0.03718013, 0.6886817, 0.711404, 5.838631
 63220535, -1.819281, 0.845161, -0.2476961, 0.07807828, -0.5679439, 0.2252721, -0.06977217, 0.03718013, 0.7354645, 0.662458, 5.838631
 63420455, -1.795318, 0.6503406, -0.2102893, 0.07807828, -0.551057, 0.1696416, -0.06496176, 0.03718013, 0.7775586, 0.6123196, 5.838631
 63620375, -1.739591, 0.4671948, -0.1821173, 0.07807828, -0.5312898, 0.1090334, -0.04890278, 0.03718013, 0.8149823, 0.5615952, 5.838631
 63820295, -1.671624, 0.2876419, -0.1433534, 0.07807828, -0.5037266, 0.06078468, -0.03722503, 0.03718013, 0.848624, 0.509841, 5.838631
 64020215, -1.590971, 0.1522814, -0.1091072, 0.07807828, -0.4860556, 0.02555054, -0.0294129, 0.03718013, 0.8781791, 0.457742, 5.838631
 64220968, -1.540416, 0.02070605, -0.1224783, 0.0782332, -0.4772636, -0.02272579, -0.05152363, 0.03733505, 0.9038134, 0.4047518, 5.850215
 64420888, -1.514052, -0.118798, -0.1958989, 0.0782332, -0.4693883, -0.05790505, -0.07006425, 0.03718013, 0.9262491, 0.3496768, 5.850215
 64620808, -1.46191, -0.2412753, -0.215865, 0.07807828, -0.4381433, -0.1029755, -0.06417996, 0.03718013, 0.9451107, 0.2945758, 5.838631
 64820728, -1.361362, -0.3685089, -0.1945878, 0.07807828, -0.404707, -0.1385001, -0.05436172, 0.03718013, 0.9599051, 0.2416343, 5.838631
 65020648, -1.24641, -0.4700406, -0.1689826, 0.07807828, -0.3595434, -0.1648164, -0.04319465, 0.03718013, 0.9717105, 0.1893603, 5.838631
 65220568, -1.104362, -0.537986, -0.1278169, 0.07807828, -0.3160852, -0.1833409, -0.04101228, 0.03718013, 0.9804822, 0.1390435, 5.838631
 65420488, -0.9721844, -0.6064844, -0.1172571, 0.07807828, -0.2829104, -0.1978946, -0.02941566, 0.03718013, 0.9866834, 0.08959982, 5.838631
 65620408, -0.8566705, -0.6458908, -0.08771338, 0.07807828, -0.2475229, -0.2132542, -0.02559191, 0.03718013, 0.9902896, 0.04203239, 5.838631
 65820328, -0.7452783, -0.6956242, -0.09855455, 0.07807828, -0.2090693, -0.2242133, -0.02510659, 0.03718013, 0.9915623, -0.004071228, 5.838631
 66020248, -0.6274445, -0.7225187, -0.09925838, 0.07807828, -0.1713593, -0.2203124, -0.03088669, 0.03718013, 0.9907438, -0.04790483, 5.838631
 66220168, -0.5051283, -0.7099062, -0.07317449, 0.07807828, -0.1378678, -0.2175834, -0.01004942, 0.03718013, 0.9884713, -0.09013402, 5.838631
 66420921, -0.3915251, -0.6916991, -0.03191284, 0.0782332, -0.1008817, -0.213259, -0.0116436, 0.03733505, 0.984666, -0.1298439, 5.850215
 66620841, -0.2714573, -0.6771204, -0.04274587, 0.0782332, -0.0583404, -0.2089437, -0.01159795, 0.03718013, 0.9797438, -0.1660645, 5.850215
 66820761, -0.1428355, -0.6632027, -0.03428868, 0.07807828, -0.02449056, -0.2040191, -0.006915853, 0.03718013, 0.9740055, -0.1997997, 5.838631
 67020681, -0.04802633, -0.6378267, -0.02052563, 0.07807828, -0.0004913391, -0.1950009, -0.004946637, 0.03718013, 0.9674348, -0.2317456, 5.838631
 67220601, 0.02669298, -0.610184, -0.04048166, 0.07807828, 0.02489493, -0.1810177, -0.0166749, 0.03718013, 0.9603924, -0.2607895, 5.838631
 67420521, 0.1128243, -0.5694956, -0.06351226, 0.07807828, 0.05242141, -0.1729244, -0.01631475, 0.03718013, 0.9532068, -0.2869032, 5.838631
 67620441, 0.2062021, -0.531552, -0.05145961, 0.07807828, 0.08324675, -0.1559783, 0.003585716, 0.03718013, 0.9464557, -0.3097493, 5.838631
 67820361, 0.2951856, -0.4661043, 0.03986335, 0.07807828, 0.1091926, -0.1310337, 0.02209494, 0.03718013, 0.9403239, -0.3297349, 5.838631
 68020281, 0.374318, -0.4029621, 0.05260576, 0.07807828, 0.1325105, -0.1158438, 0.009503662, 0.03718013, 0.9345843, -0.3469796, 5.838631
 68220201, 0.4329312, -0.3537619, 0.03692164, 0.07807828, 0.1426546, -0.1045807, 0.006824242, 0.03718013, 0.9291647, -0.3623313, 5.838631
 68420954, 0.4700217, -0.3285698, -0.01131422, 0.0782332, 0.1464864, -0.09943084, -0.00911565, 0.03733505, 0.9239911, -0.3758224, 5.850215
 68620874, 0.4863117, -0.2902281, 0.01278616, 0.0782332, 0.1612987, -0.07831623, 0.01568653, 0.03718013, 0.9202445, -0.3858786, 5.850215
 68820794, 0.5222399, -0.2277374, 0.04193068, 0.07807828, 0.1679571, -0.06051463, 0.0102641, 0.03718013, 0.9170204, -0.3942292, 5.838631
 69020714, 0.5549951, -0.1776375, 0.03315333, 0.07807828, 0.1794439, -0.04442877, 0.02165433, 0.03718013, 0.9147034, -0.4003479, 5.838631
 69220634, 0.5871937, -0.1310642, 0.08789805, 0.07807828, 0.1923523, -0.03020831, 0.02907829, 0.03718013, 0.9134414, -0.4040241, 5.838631
 69420554, 0.6156236, -0.09469475, 0.09194435, 0.07807828, 0.198198, -0.02936262, 0.02012201, 0.03718013, 0.9123415, -0.4070941, 5.838631
 69620474, 0.6243896, -0.08386558, 0.04306877, 0.07807828, 0.1893145, -0.02691364, 0.01322208, 0.03718013, 0.9113199, -0.4097715, 5.838631
 69820394, 0.6049674, -0.07722963, 0.04904187, 0.07807828, 0.1855598, -0.01492625, 0.02207941, 0.03718013, 0.9115832, -0.4096397, 5.838631
 70020314, 0.6116154, -0.04680065, 0.05506868, 0.07807828, 0.1983339, -0.01223301, 0.0004172563, 0.03718013, 0.9130933, -0.406568, 5.838631
 70220234, 0.6387194, -0.01797079, 0.006096241, 0.07807828, 0.1990376, -2.175295E-05, 0.01014866, 0.03718013, 0.9144649, -0.403719, 5.838631
 70420154, 0.6302073, 0.002775249, 0.02375985, 0.07807828, 0.1989048, 0.007402614, 0.01288518, 0.03718013, 0.9162216, -0.3999468, 5.838631
 70620907, 0.6352211, 0.01748804, 0.03145219, 0.0782332, 0.1971061, 0.005806117, 0.01988574, 0.03733505, 0.918336, -0.3952722, 5.850215
 70820827, 0.6285757, 0.01906856, 0.04417187, 0.0782332, 0.1964621, 0.005559961, 0.01217164, 0.03718013, 0.9206437, -0.3900298, 5.850215
 71020747, 0.6842995, 0.04695768, 0.05456002, 0.07807828, 0.1872418, 0.004024195, 0.01001787, 0.03718013, 0.9167275, -0.3992471, 5.838631
 71220667, 0.1408754, -0.1841394, -0.07818989, 0.07807828, -0.1931878, -0.1658972, -0.06654871, 0.03718013, 0.9066301, -0.4218668, 5.838631
 71420587, -0.953492, -0.6597812, -0.0777394, 0.07807828, -0.4567334, -0.2659265, 0.06456233, 0.03718013, 0.9008054, -0.434223, 5.838631
 71620507, -1.595857, -0.8961146, 0.2168566, 0.07807828, -0.5594006, -0.3015196, 0.02238827, 0.03718013, 0.8896672, -0.4562083, 5.838631
 71820427, -1.8101, -1.013484, -0.2919371, 0.07807828, -0.5571607, -0.3434525, -0.2821369, 0.03718013, 0.8619869, -0.5034388, 5.838631
 72020347, -1.607364, -1.112245, -1.033545, 0.07807828, -0.3910953, -0.3401779, -0.329818, 0.03718013, 0.8238516, -0.55979, 5.838631
 72220267, -1.05563, -1.029197, -0.8030649, 0.07807828, -0.2386567, -0.29208, -0.1193723, 0.03718013, 0.7871463, -0.6095244, 5.838631
 72420187, -0.6862161, -0.9158645, -0.1885107, 0.07807828, -0.1864005, -0.285939, 0.01088155, 0.03718013, 0.754582, -0.6501552, 5.838631
 72620940, -0.5856079, -0.9545609, 0.05306069, 0.0782332, -0.1807503, -0.3217138, 0.00936722, 0.03733505, 0.7223273, -0.6861942, 5.850215
 72820860, -0.5781342, -1.098115, -0.07194894, 0.0782332, -0.1741499, -0.373673, -0.0685183, 0.03718013, 0.6859856, -0.7218055, 5.850215
 73020780, -0.5312855, -1.234021, -0.2893275, 0.07807828, -0.1532938, -0.4113601, -0.1278041, 0.03718013, 0.6452513, -0.7571085, 5.838631
 73220700, -0.4299845, -1.314621, -0.4239024, 0.07807828, -0.1026156, -0.4029999, -0.1292198, 0.03718013, 0.6026251, -0.7899784, 5.838631
 73420620, -0.2736524, -1.269332, -0.3843738, 0.07807828, -0.05868382, -0.3779556, -0.09483539, 0.03718013, 0.5590459, -0.8204617, 5.838631
 73620540, -0.1259314, -1.193862, -0.2786992, 0.07807828, -0.01013539, -0.3568034, -0.06517062, 0.03718013, 0.5179612, -0.8464343, 5.838631
 73820460, 0.004466671, -1.098463, -0.1646462, 0.07807828, 0.01929964, -0.3243074, -0.03616031, 0.03718013, 0.4782685, -0.8694838, 5.838631
 74020380, 0.096381, -1.032263, -0.1114031, 0.07807828, 0.04459117, -0.3183905, -0.02923959, 0.03718013, 0.4375511, -0.8907239, 5.838631
 74220300, 0.1648071, -1.030845, -0.1479329, 0.07807828, 0.06461821, -0.3262023, -0.06677025, 0.03718013, 0.3965569, -0.9092219, 5.838631
 74420220, 0.2358171, -1.002529, -0.1984677, 0.07807828, 0.08735806, -0.2893086, -0.04246977, 0.03718013, 0.3563316, -0.9254981, 5.838631
 74620973, 0.2965987, -0.9167539, -0.1253318, 0.0782332, 0.1003063, -0.2783422, -0.03510224, 0.03718013, 0.3160247, -0.9400297, 5.850215
 74820893, 0.3602604, -0.8668061, -0.1197546, 0.0782332, 0.1274584, -0.2589962, -0.04575142, 0.03733505, 0.2776752, -0.9519263, 5.850215
 75020813, 0.4314187, -0.8036373, -0.1595267, 0.0782332, 0.1464771, -0.23176, -0.03961284, 0.03718013, 0.2395926, -0.9620222, 5.850215
 75220733, 0.4847905, -0.7281184, -0.1422755, 0.07807828, 0.1605183, -0.21828, -0.04634271, 0.03718013, 0.2025736, -0.9703571, 5.838631
 75420653, 0.530839, -0.6573066, -0.1233583, 0.07807828, 0.1735357, -0.1871374, -0.02110428, 0.03718013, 0.1685089, -0.9769693, 5.838631
 75620573, 0.5628721, -0.5018625, -0.04363121, 0.07807828, 0.1682094, -0.1670356, 0.003067887, 0.03718013, 0.1213189, -0.9849843, 5.838631
 75820493, 0.4681621, -0.9397024, 0.1165891, 0.07807828, 0.1105315, -0.4942392, 0.07617544, 0.03718013, 0.06462815, -0.9913875, 5.838631
 76020413, 0.3589832, -1.866667, 0.07195557, 0.07807828, 0.1221643, -0.7114478, -0.08996511, 0.03718013, 0.008178569, -0.9904931, 5.838631
 76220333, 0.5012466, -2.433379, -0.7202698, 0.07807828, 0.232373, -0.8141888, -0.4262501, 0.03718013, -0.07429557, -0.9796232, 5.838631
 76420253, 0.9263085, -2.498077, -1.487896, 0.07807828, 0.3750784, -0.6994051, -0.4799258, 0.03718013, -0.1640112, -0.9591017, 5.838631
 76620173, 1.293483, -1.987844, -1.276321, 0.07807828, 0.4438764, -0.5054443, -0.2644525, 0.03718013, -0.2430905, -0.9366541, 5.838631
 76820926, 1.413573, -1.442638, -0.5972769, 0.0782332, 0.4384432, -0.3646069, -0.07171915, 0.03733505, -0.3066354, -0.9163537, 5.850215
 77020846, 1.415617, -1.110994, -0.1597999, 0.0782332, 0.4579751, -0.3175621, -0.0270086, 0.03718013, -0.365016, -0.8946922, 5.850215
 77220766, 1.510345, -0.9996456, -0.116946, 0.07807828, 0.4981576, -0.3018774, -0.06267662, 0.03718013, -0.4213637, -0.8687618, 5.838631
 77420686, 1.653131, -0.9256024, -0.2343342, 0.07807828, 0.5402051, -0.2639208, -0.08074591, 0.03718013, -0.4763816, -0.8379864, 5.838631
 77620606, 1.77287, -0.7935912, -0.2895668, 0.07807828, 0.5785788, -0.2209348, -0.1100911, 0.03718013, -0.5305442, -0.8024845, 5.838631
 77820526, 1.856645, -0.6539808, -0.3242717, 0.07807828, 0.5837044, -0.1720441, -0.08407966, 0.03718013, -0.5812141, -0.7647949, 5.838631
 78020446, 1.862834, -0.4741715, -0.2409073, 0.07807828, 0.5800555, -0.1115277, -0.05882742, 0.03718013, -0.6285518, -0.7254806, 5.838631
 78220366, 1.830127, -0.2829702, -0.1520267, 0.07807828, 0.5560477, -0.05407956, -0.03725478, 0.03718013, -0.6716894, -0.6860077, 5.838631
 78420286, 1.778173, -0.1178756, -0.1011104, 0.07807828, 0.5605046, -0.01264977, -0.03164446, 0.03718013, -0.7117549, -0.6449645, 5.838631
 78620206, 1.771947, 0.01271006, -0.0937007, 0.07807828, 0.535867, 0.02770431, -0.02525835, 0.03718013, -0.7483782, -0.6028954, 5.838631
 78820959, 1.725548, 0.1358558, -0.08261717, 0.0782332, 0.5316008, 0.06743936, -0.01512976, 0.03733505, -0.7824383, -0.5592526, 5.850215
 79020879, 1.635285, 0.2589934, -0.003067454, 0.0782332, 0.4951009, 0.09814484, 0.003077039, 0.03718013, -0.8126118, -0.5173597, 5.850215
 79220799, 1.582751, 0.3576072, -0.03243092, 0.07807828, 0.4959822, 0.1312834, -0.02623205, 0.03718013, -0.8406014, -0.4721983, 5.838631
 79420719, 1.55142, 0.4644617, -0.07005069, 0.07807828, 0.4694193, 0.164346, -0.02130448, 0.03718013, -0.8650737, -0.4276633, 5.838631
 79620639, 1.464467, 0.5570642, -0.05193254, 0.07807828, 0.4365698, 0.1916871, -0.007181155, 0.03718013, -0.8868755, -0.3834511, 5.838631
 79820559, 1.356999, 0.6307836, -0.01351146, 0.07807828, 0.4004998, 0.2086946, -0.002791337, 0.03718013, -0.9059623, -0.3400792, 5.838631
 80020479, 1.253333, 0.7048753, -0.0212734, 0.07807828, 0.3770848, 0.2402005, -0.02340486, 0.03718013, -0.9216303, -0.2982365, 5.838631
 80220399, 1.162091, 0.7848186, -0.05320882, 0.07807828, 0.344323, 0.2566341, -0.007055606, 0.03718013, -0.9354638, -0.2563777, 5.838631
 80420319, 1.064694, 0.8420336, -0.02143385, 0.07807828, 0.3151688, 0.2744692, -0.007005749, 0.03718013, -0.9474867, -0.2144475, 5.838631
 80620239, 0.9471136, 0.8788727, 0.004569839, 0.07807828, 0.2653419, 0.2759212, 0.01041873, 0.03718013, -0.957132, -0.1764235, 5.838631
 80820159, 0.8113611, 0.8905222, 0.01937134, 0.07807828, 0.2350743, 0.2891023, -0.007034634, 0.03718013, -0.9645194, -0.1404642, 5.838631
 81020912, 0.7065497, 0.9183144, -0.00395765, 0.0782332, 0.1946285, 0.2878343, 0.00876491, 0.03733505, -0.9704481, -0.1070343, 5.850215
 81220832, 0.5969426, 0.9289722, 0.01331289, 0.0782332, 0.1762872, 0.2974726, -0.009677447, 0.03718013, -0.9745871, -0.075783, 5.850215
 81420752, 0.5074512, 0.9433419, -0.009206712, 0.07807828, 0.1353706, 0.2883017, 0.01107745, 0.03718013, -0.9778597, -0.04746565, 5.838631
 81620672, 0.3901394, 0.9039337, 0.06462249, 0.07807828, 0.1016182, 0.2717151, 0.03674286, 0.03718013, -0.980646, -0.02314591, 5.838631
 81820592, 0.2805251, 0.8664714, 0.1017986, 0.07807828, 0.06587337, 0.2691443, 0.02042478, 0.03718013, -0.9825824, -0.002410468, 5.838631
 82020512, 0.1755649, 0.8494712, 0.07106999, 0.07807828, 0.03762114, 0.2574629, 0.02448742, 0.03718013, -0.984055, 0.01571592, 5.838631
 82220432, 0.09017076, 0.8197736, 0.0493765, 0.07807828, 0.016972, 0.2515403, -0.003343389, 0.03718013, -0.9847817, 0.03190369, 5.838631
 82420352, 0.01670633, 0.7987582, 0.02020476, 0.07807828, -0.00882409, 0.2450945, 0.01966138, 0.03718013, -0.9856321, 0.04503424, 5.838631
 82620272, -0.06095915, 0.7636914, 0.05237797, 0.07807828, -0.03413121, 0.2292763, 0.01498929, 0.03718013, -0.9863049, 0.05578205, 5.838631
 82820192, -0.1312774, 0.7287549, 0.03268436, 0.07807828, -0.05573025, 0.2265418, -0.006847503, 0.03718013, -0.9866996, 0.06556194, 5.838631
 83020945, -0.1965604, 0.7147204, -0.004107199, 0.0782332, -0.074559, 0.2184187, 0.001624, 0.03733505, -0.9872483, 0.07177102, 5.850215
 83220865, -0.2567705, 0.6685819, 0.01528175, 0.07823878, -0.08721913, 0.1927019, 0.0103682, 0.03719873, -0.9879916, 0.07629263, 5.8508
 83420785, -0.3111711, 0.5965799, 0.0701, 0.07811734, -0.1145982, 0.1733992, 0.02788544, 0.03719873, -0.9891479, 0.07814211, 5.84155
 83620705, -0.3845218, 0.5496153, 0.08739407, 0.07811734, -0.131275, 0.1724079, 0.02441078, 0.03719873, -0.9901848, 0.07873878, 5.84155
 83820625, -0.4262229, 0.5320714, 0.09265105, 0.07811734, -0.1366559, 0.1578624, 0.03095275, 0.03719873, -0.991228, 0.0786617, 5.84155
 84020545, -0.4572662, 0.5001295, 0.05209933, 0.07811734, -0.1474023, 0.1564128, -0.00781519, 0.03719873, -0.9919944, 0.07660789, 5.84155
 84220465, -0.4890189, 0.4924185, -0.02629159, 0.07811176, -0.1645149, 0.1546747, -0.01836652, 0.03718013, -0.9927504, 0.07289918, 5.840967
 84420385, -0.5224211, 0.4807043, -0.004930327, 0.07807828, -0.1672176, 0.143164, 0.01831209, 0.03718013, -0.9937251, 0.0686857, 5.838631
 84620305, -0.5311846, 0.4485781, 0.05494386, 0.07807828, -0.1603018, 0.1363459, 0.01955957, 0.03718013, -0.9946058, 0.06491764, 5.838631
 84820225, -0.524564, 0.4226948, 0.07113792, 0.07807828, -0.163239, 0.1221723, 0.02831461, 0.03718013, -0.9955912, 0.05945199, 5.838631
 85020145, -0.5240245, 0.3741238, 0.08252681, 0.07807828, -0.158963, 0.109279, 0.01745746, 0.03718013, -0.9963753, 0.05451515, 5.838631
 85220898, -0.5281151, 0.353626, 0.01132159, 0.0782332, -0.1702735, 0.1075912, -0.002102537, 0.03733505, -0.997057, 0.04679523, 5.850215
 85420818, -0.5497743, 0.3398288, 0.007753415, 0.0782332, -0.1745186, 0.09854697, 0.01784707, 0.03718013, -0.9977409, 0.03885425, 5.850215
 85620738, -0.5441878, 0.3121666, 0.07356013, 0.07807828, -0.1616935, 0.08851937, 0.02899116, 0.03718013, -0.998349, 0.03270286, 5.838631
 85820658, -0.515334, 0.2722574, 0.09516805, 0.07807828, -0.158892, 0.07958199, 0.03037668, 0.03718013, -0.9988775, 0.0257271, 5.838631
 86020578, -0.5272821, 0.2561643, 0.04357165, 0.07807828, -0.1645906, 0.08297598, -0.006490494, 0.03718013, -0.9991886, 0.0174387, 5.838631
 86220498, -0.5431454, 0.2614408, -0.02614366, 0.07807828, -0.1726015, 0.08287279, -0.007421385, 0.03718013, -0.9994054, 0.008108186, 5.838631
 86420418, -0.5509044, 0.2676113, -0.02190804, 0.07807828, -0.1711656, 0.08115699, 0.001549196, 0.03718013, -0.9995418, -0.0004497906, 5.838631
 86620338, -0.4885289, 0.4890362, 0.0273323, 0.07807828, -0.08878864, 0.3646774, 0.02516817, 0.03718013, -0.9996175, -0.01186011, 5.838631
 86820258, -0.4825451, 1.376288, 0.1590633, 0.07807828, -0.3138583, 0.5051216, 0.09421403, 0.03718013, -0.9987934, -0.04903416, 5.838631
 87020178, -1.326953, 1.623392, 0.4707862, 0.07807828, -0.5552635, 0.5016363, 0.241771, 0.03718013, -0.9964663, -0.07524401, 5.838631
 87220931, -1.903212, 1.584944, 0.8729693, 0.0782332, -0.6446912, 0.4870912, 0.279855, 0.03733505, -0.9929593, -0.1042331, 5.850215
