TimeUS,COFN,COFE,CNe,CEe,POFN,POFE,PNe,PEe
 8425795, 0.005051716, 0.00860869, 0.01976848, -0.03121446, 0, 0, 0, 0
 8606556, -0.0009805874, 0.002874773, 0.01981309, -0.03116914, 0.005051716, 0.00860869, 0.01976848, -0.03121446
 8806476, 0.0004987827, 0.005202051, 0.02013502, -0.03096558, -0.0009805874, 0.002874773, 0.01981309, -0.03116914
 9006396, 0.0006797496, 0.005247275, 0.02068201, -0.03060308, 0.0004987827, 0.005202051, 0.02013502, -0.03096558
 9206316, -0.0006981497, 0.002924237, 0.02130867, -0.0301664, 0.0006797496, 0.005247275, 0.02068201, -0.03060308
 9406236, -0.004283465, 0.0007768062, 0.02192078, -0.02972655, -0.0006981497, 0.002924237, 0.02130867, -0.0301664
 9606156, -0.002499289, 0.0001516489, 0.02247323, -0.02930858, -0.004283465, 0.0007768062, 0.02192078, -0.02972655
 9806076, -0.002111717, 0.001049694, 0.02297372, -0.0289178, -0.002499289, 0.0001516489, 0.02247323, -0.02930858
 10005996, -0.002610152, 0.003593507, 0.02343048, -0.02855188, -0.002111717, 0.001049694, 0.02297372, -0.0289178
 10205916, -0.001843156, 0.003808418, 0.0238514, -0.02820083, -0.002610152, 0.003593507, 0.02343048, -0.02855188
 10405836, -0.002833548, 0.003283444, 0.02424165, -0.02786627, -0.001843156, 0.003808418, 0.0238514, -0.02820083
 10606589, -0.0008843819, 0.005406491, 0.02459669, -0.02755577, -0.002833548, 0.003283444, 0.02424165, -0.02786627
 10806509, -0.003490184, 0.01220049, 0.02492661, -0.02728592, -0.0008843819, 0.005406491, 0.02459669, -0.02755577
 11006429, 0.01944314, 0.001906276, 0.02531617, -0.02697295, -0.003490184, 0.01220049, 0.02492661, -0.02728592
 11206349, -0.0188413, -0.000875524, 0.02558569, -0.02671173, 0.01944314, 0.001906276, 0.02531617, -0.02697295
 11406269, -0.02145405, 0.01361336, 0.02586035, -0.0265102, -0.0188413, -0.000875524, 0.02558569, -0.02671173
 11606189, -0.004721944, -0.01591489, 0.02598705, -0.02630353, -0.02145405, 0.01361336, 0.02586035, -0.0265102
 11806109, 0.01934591, 0.001264693, 0.02627122, -0.02604233, -0.004721944, -0.01591489, 0.02598705, -0.02630353
 12006029, -0.009939783, -0.014195, 0.02639611, -0.02589862, 0.01934591, 0.001264693, 0.02627122, -0.02604233
 12205949, 0.01188045, -0.006682509, 0.02657219, -0.02569176, -0.009939783, -0.014195, 0.02639611, -0.02589862
 12405869, -0.01110299, 0.004114074, 0.02671868, -0.0255289, 0.01188045, -0.006682509, 0.02657219, -0.02569176
 12605789, 0.006079161, -0.02119434, 0.026836, -0.02548538, -0.01110299, 0.004114074, 0.02671868, -0.0255289
 12806542, 0.002612765, -0.02189537, 0.02695236, -0.02536231, 0.006079161, -0.02119434, 0.026836, -0.02548538
 13006462, 0.01505062, -0.01165028, 0.02710784, -0.02516715, 0.002612765, -0.02189537, 0.02695236, -0.02536231
 13206382, -0.009355704, -0.0216096, 0.02718205, -0.02513194, 0.01505062, -0.01165028, 0.02710784, -0.02516715
 13406302, 0.008553432, -0.006383772, 0.0272556, -0.02494866, -0.009355704, -0.0216096, 0.02718205, -0.02513194
 13606222, 0.01792241, -0.01782447, 0.02738466, -0.02493091, 0.008553432, -0.006383772, 0.0272556, -0.02494866
 13806142, -0.01127585, 0.01435237, 0.02741032, -0.02483048, 0.01792241, -0.01782447, 0.02738466, -0.02493091
 14006062, 0.004819213, -0.006230018, 0.02744669, -0.02472597, -0.01127585, 0.01435237, 0.02741032, -0.02483048
 14205982, -0.01546247, 0.0008794436, 0.02754714, -0.02465639, 0.004819213, -0.006230018, 0.02744669, -0.02472597
 14405902, -0.003903215, -0.005968321, 0.0275443, -0.02461451, -0.01546247, 0.0008794436, 0.02754714, -0.02465639
 14605822, 0.01836992, 0.01174175, 0.02766233, -0.0245834, -0.003903215, -0.005968321, 0.0275443, -0.02461451
 14806575, -0.001645173, 0.01417034, 0.02761829, -0.02456798, 0.01836992, 0.01174175, 0.02766233, -0.0245834
 15006495, -0.009868128, -0.01809484, 0.02767794, -0.02455375, -0.001645173, 0.01417034, 0.02761829, -0.02456798
 15206415, -0.009474901, -0.01413011, 0.02769879, -0.0244978, -0.009868128, -0.01809484, 0.02767794, -0.02455375
 15406335, -0.01177677, -0.01146675, 0.02773047, -0.0244573, -0.009474901, -0.01413011, 0.02769879, -0.0244978
 15606255, -0.0105567, -0.01336243, 0.02774369, -0.02444708, -0.01177677, -0.01146675, 0.02773047, -0.0244573
 15806175, -0.01017893, -0.01364825, 0.02775741, -0.02443146, -0.0105567, -0.01336243, 0.02774369, -0.02444708
 16006095, -0.009489801, -0.01513699, 0.0277674, -0.02442715, -0.01017893, -0.01364825, 0.02775741, -0.02443146
 16206015, -0.007628161, -0.01400673, 0.02776901, -0.02440974, -0.009489801, -0.01513699, 0.0277674, -0.02442715
 16405935, -0.01048475, -0.01025168, 0.02778704, -0.02437973, -0.007628161, -0.01400673, 0.02776901, -0.02440974
 16605855, -0.009250808, -0.01328816, 0.02778972, -0.02438803, -0.01048475, -0.01025168, 0.02778704, -0.02437973
 16805775, -0.008659119, -0.01748162, 0.02779674, -0.02440855, -0.009250808, -0.01328816, 0.02778972, -0.02438803
 17006528, -0.007333452, -0.0161743, 0.02779492, -0.02439492, -0.008659119, -0.01748162, 0.02779674, -0.02440855
 17206448, -0.01099819, -0.01763767, 0.02781386, -0.02440143, -0.007333452, -0.0161743, 0.02779492, -0.02439492
 17406368, -0.01163912, -0.01322078, 0.02781346, -0.02437255, -0.01099819, -0.01763767, 0.02781386, -0.02440143
 17606288, -0.00773882, -0.00984857, 0.02779141, -0.02436074, -0.01163912, -0.01322078, 0.02781346, -0.02437255
 17806208, -0.009559105, -0.01153374, 0.02779716, -0.02437046, -0.00773882, -0.00984857, 0.02779141, -0.02436074
 18006128, -0.008962334, -0.0164196, 0.02779421, -0.02440405, -0.009559105, -0.01153374, 0.02779716, -0.02437046
 18206048, -0.01056614, -0.01518358, 0.02779621, -0.02439991, -0.008962334, -0.0164196, 0.02779421, -0.02440405
 18405968, -0.01073528, -0.01425857, 0.02779131, -0.0243998, -0.01056614, -0.01518358, 0.02779621, -0.02439991
 18605888, -0.01150014, -0.01399245, 0.02778923, -0.02440445, -0.01073528, -0.01425857, 0.02779131, -0.0243998
 18805808, -0.01350208, -0.01357272, 0.0277939, -0.0244084, -0.01150014, -0.01399245, 0.02778923, -0.02440445
 19006561, -0.01172788, -0.009409831, 0.02777363, -0.02439768, -0.01350208, -0.01357272, 0.0277939, -0.0244084
 19206481, -0.01153416, -0.01311828, 0.02776828, -0.02442278, -0.01172788, -0.009409831, 0.02777363, -0.02439768
 19406401, -0.009222912, -0.01490215, 0.02774983, -0.02444422, -0.01153416, -0.01311828, 0.02776828, -0.02442278
 19606321, -0.009523619, -0.01528061, 0.02774277, -0.02445633, -0.009222912, -0.01490215, 0.02774983, -0.02444422
 19806241, -0.01009315, -0.01285324, 0.02773492, -0.02445152, -0.009523619, -0.01528061, 0.02774277, -0.02445633
 20006161, -0.01081663, -0.0132795, 0.02772973, -0.0244637, -0.01009315, -0.01285324, 0.02773492, -0.02445152
 20206081, -0.00999904, -0.01183833, 0.02771515, -0.02446745, -0.01081663, -0.0132795, 0.02772973, -0.0244637
 20406001, -0.01164013, -0.01471091, 0.02771612, -0.02449318, -0.00999904, -0.01183833, 0.02771515, -0.02446745
 20605921, -0.01072682, -0.01245129, 0.02770019, -0.02449159, -0.01164013, -0.01471091, 0.02771612, -0.02449318
 20805841, -0.01023564, -0.01191169, 0.02768745, -0.02450036, -0.01072682, -0.01245129, 0.02770019, -0.02449159
 21005761, -0.01041039, -0.01313438, 0.02767915, -0.02451794, -0.01023564, -0.01191169, 0.02768745, -0.02450036
 21206514, -0.01094164, -0.01408552, 0.02767286, -0.02453395, -0.01041039, -0.01313438, 0.02767915, -0.02451794
 21406434, -0.01114563, -0.01458429, 0.02766407, -0.02454837, -0.01094164, -0.01408552, 0.02767286, -0.02453395
 21606354, -0.009588086, -0.01449963, 0.02764566, -0.02456079, -0.01114563, -0.01458429, 0.02766407, -0.02454837
 21806274, -0.01280574, -0.01308588, 0.02765147, -0.02456215, -0.009588086, -0.01449963, 0.02764566, -0.02456079
 22006194, -0.01075269, -0.01236217, 0.02762917, -0.02457127, -0.01280574, -0.01308588, 0.02765147, -0.02456215
 22206114, -0.01071312, -0.01160679, 0.02761817, -0.02457911, -0.01075269, -0.01236217, 0.02762917, -0.02457127
 22406034, -0.01093425, -0.01502554, 0.0276109, -0.02461015, -0.01071312, -0.01160679, 0.02761817, -0.02457911
 22605954, -0.009950429, -0.01242996, 0.02759401, -0.02460719, -0.01093425, -0.01502554, 0.0276109, -0.02461015
 22805874, -0.01257137, -0.01348178, 0.02759814, -0.02462315, -0.009950429, -0.01242996, 0.02759401, -0.02460719
 23005794, -0.01082594, -0.01169822, 0.02757683, -0.02462657, -0.01257137, -0.01348178, 0.02759814, -0.02462315
 23206547, -0.01098778, -0.01238872, 0.02756814, -0.0246411, -0.01082594, -0.01169822, 0.02757683, -0.02462657
 23406467, -0.008455841, -0.01343309, 0.02754709, -0.02465933, -0.01098778, -0.01238872, 0.02756814, -0.0246411
 23606387, -0.009015866, -0.01147786, 0.02753795, -0.02466027, -0.008455841, -0.01343309, 0.02754709, -0.02465933
 23806307, -0.009144927, -0.01340597, 0.02752923, -0.02468198, -0.009015866, -0.01147786, 0.02753795, -0.02466027
 24006227, -0.008110662, -0.0126488, 0.02751437, -0.02468962, -0.009144927, -0.01340597, 0.02752923, -0.02468198
 24206147, -0.01172052, -0.01764954, 0.02752463, -0.02473121, -0.008110662, -0.0126488, 0.02751437, -0.02468962
 24406067, -0.01237064, -0.01259039, 0.02751486, -0.02470946, -0.01172052, -0.01764954, 0.02752463, -0.02473121
 24605987, -0.01260082, -0.01197688, 0.02750597, -0.02471715, -0.01237064, -0.01259039, 0.02751486, -0.02470946
 24805907, -0.01387003, -0.01592251, 0.02750665, -0.02475052, -0.01260082, -0.01197688, 0.02750597, -0.02471715
 25005827, -0.01141043, -0.01146127, 0.02747903, -0.02473745, -0.01387003, -0.01592251, 0.02750665, -0.02475052
 25206580, -0.01039377, -0.01217668, 0.02746454, -0.02475229, -0.01141043, -0.01146127, 0.02747903, -0.02473745
 25406500, -0.01043956, -0.01109257, 0.02745506, -0.02475706, -0.01039377, -0.01217668, 0.02746454, -0.02475229
 25606420, -0.009977384, -0.01275577, 0.02744413, -0.02477634, -0.01043956, -0.01109257, 0.02745506, -0.02475706
 25806340, -0.008831128, -0.01513293, 0.02743066, -0.02480184, -0.009977384, -0.01275577, 0.02744413, -0.02477634
 26006260, -0.008109957, -0.01355631, 0.02741748, -0.02480282, -0.008831128, -0.01513293, 0.02743066, -0.02480184
 26206180, -0.009610256, -0.01438242, 0.02741505, -0.02481727, -0.008109957, -0.01355631, 0.02741748, -0.02480282
 26406100, -0.010353, -0.01465795, 0.02740943, -0.02482888, -0.009610256, -0.01438242, 0.02741505, -0.02481727
 26606020, -0.01056295, -0.01227114, 0.02740014, -0.02482496, -0.010353, -0.01465795, 0.02740943, -0.02482888
 26805940, -0.009247312, -0.01241228, 0.02738506, -0.02483626, -0.01056295, -0.01227114, 0.02740014, -0.02482496
 27005860, -0.01087376, -0.01297606, 0.02738394, -0.02484862, -0.009247312, -0.01241228, 0.02738506, -0.02483626
 27205780, -0.008079939, -0.01246789, 0.02736222, -0.02485698, -0.01087376, -0.01297606, 0.02738394, -0.02484862
 27406533, -0.008737319, -0.01171498, 0.02735613, -0.02486199, -0.008079939, -0.01246789, 0.02736222, -0.02485698
 27606453, -0.008522343, -0.01526676, 0.02734824, -0.02489242, -0.008737319, -0.01171498, 0.02735613, -0.02486199
 27806373, -0.006095763, -0.01709737, 0.02733179, -0.02491609, -0.008522343, -0.01526676, 0.02734824, -0.02489242
 28006293, -0.009357642, -0.01502873, 0.02733459, -0.02490924, -0.006095763, -0.01709737, 0.02733179, -0.02491609
 28206213, -0.01395528, -0.01168602, 0.0273497, -0.02489687, -0.009357642, -0.01502873, 0.02733459, -0.02490924
 28406133, -0.01217192, -0.01194146, 0.02733076, -0.02490809, -0.01395528, -0.01168602, 0.0273497, -0.02489687
 28606053, -0.0106836, -0.01305287, 0.02731508, -0.02492382, -0.01217192, -0.01194146, 0.02733076, -0.02490809
 28805973, -0.008909504, -0.01398899, 0.02729925, -0.02493894, -0.0106836, -0.01305287, 0.02731508, -0.02492382
 29005893, -0.007947051, -0.01229118, 0.0272867, -0.02493835, -0.008909504, -0.01398899, 0.02729925, -0.02493894
 29205813, -0.007356319, -0.01593675, 0.02727826, -0.02496967, -0.007947051, -0.01229118, 0.0272867, -0.02493835
 29406566, -0.009766825, -0.01308765, 0.02727909, -0.02495901, -0.007356319, -0.01593675, 0.02727826, -0.02496967
 29606486, -0.009944975, -0.01648912, 0.0272742, -0.02498884, -0.009766825, -0.01308765, 0.02727909, -0.02495901
 29806406, -0.007943354, -0.01690736, 0.02725778, -0.02500162, -0.009944975, -0.01648912, 0.0272742, -0.02498884
 30006326, -0.008477653, -0.01273953, 0.02725036, -0.02498275, -0.007943354, -0.01690736, 0.02725778, -0.02500162
 30206246, -0.00799787, -0.01386595, 0.0272415, -0.0249976, -0.008477653, -0.01273953, 0.02725036, -0.02498275
 30406166, -0.008811367, -0.01270046, 0.02723692, -0.02499853, -0.00799787, -0.01386595, 0.0272415, -0.0249976
 30606086, -0.0091241, -0.0135019, 0.02723125, -0.02501095, -0.008811367, -0.01270046, 0.02723692, -0.02499853
 30806006, -0.009846242, -0.01620659, 0.02722866, -0.02503585, -0.0091241, -0.0135019, 0.02723125, -0.02501095
 31005926, -0.008873578, -0.01688952, 0.0272175, -0.02504902, -0.009846242, -0.01620659, 0.02722866, -0.02503585
 31205846, -0.009952656, -0.01477658, 0.02721449, -0.02504136, -0.008873578, -0.01688952, 0.0272175, -0.02504902
 31405766, -0.00962517, -0.01647758, 0.02720775, -0.02505964, -0.009952656, -0.01477658, 0.02721449, -0.02504136
 31606519, -0.01059039, -0.01178189, 0.02720426, -0.0250369, -0.00962517, -0.01647758, 0.02720775, -0.02505964
 31806439, -0.01340929, -0.01461386, 0.02721469, -0.02505896, -0.01059039, -0.01178189, 0.02720426, -0.0250369
 32006359, -0.009503777, -0.01313977, 0.02718619, -0.02505935, -0.01340929, -0.01461386, 0.02721469, -0.02505896
 32206279, -0.008257264, -0.01487621, 0.02717488, -0.02507781, -0.009503777, -0.01313977, 0.02718619, -0.02505935
 32406199, -0.0112356, -0.01560134, 0.02718236, -0.02508848, -0.008257264, -0.01487621, 0.02717488, -0.02507781
 32606119, -0.0104575, -0.01350946, 0.02717086, -0.02508273, -0.0112356, -0.01560134, 0.02718236, -0.02508848
 32806039, -0.0114368, -0.01317433, 0.02716921, -0.02508744, -0.0104575, -0.01350946, 0.02717086, -0.02508273
 33005959, -0.009225865, -0.01648659, 0.02715354, -0.02511669, -0.0114368, -0.01317433, 0.02716921, -0.02508744
 33205879, -0.01073155, -0.01470539, 0.02715337, -0.0251109, -0.009225865, -0.01648659, 0.02715354, -0.02511669
 33405799, -0.01189126, -0.01487331, 0.0271533, -0.02511829, -0.01073155, -0.01470539, 0.02715337, -0.0251109
 33606552, -0.009622582, -0.0146461, 0.02713571, -0.02512431, -0.01189126, -0.01487331, 0.0271533, -0.02511829
 33806472, -0.009951286, -0.01511419, 0.02713133, -0.0251338, -0.009622582, -0.0146461, 0.02713571, -0.02512431
 34006392, -0.01008128, -0.01368797, 0.02712527, -0.02513135, -0.009951286, -0.01511419, 0.02713133, -0.0251338
 34206312, -0.01168797, -0.01066114, 0.02712625, -0.02512124, -0.01008128, -0.01368797, 0.02712527, -0.02513135
 34406232, -0.011723, -0.01533301, 0.02712254, -0.02515382, -0.01168797, -0.01066114, 0.02712625, -0.02512124
 34606152, -0.01068055, -0.01465492, 0.02711095, -0.02515611, -0.011723, -0.01533301, 0.02712254, -0.02515382
 34806072, -0.009615794, -0.01291488, 0.02709934, -0.02515238, -0.01068055, -0.01465492, 0.02711095, -0.02515611
 35005992, -0.008891344, -0.01488893, 0.0270913, -0.02517072, -0.009615794, -0.01291488, 0.02709934, -0.02515238
 35205912, -0.01053153, -0.01416029, 0.02709288, -0.0251715, -0.008891344, -0.01488893, 0.0270913, -0.02517072
 35405832, -0.01082201, -0.01178994, 0.02708768, -0.0251642, -0.01053153, -0.01416029, 0.02709288, -0.0251715
 35606585, -0.00925353, -0.01344832, 0.02707548, -0.02517975, -0.01082201, -0.01178994, 0.02708768, -0.0251642
 35806505, -0.006858235, -0.01435178, 0.02706143, -0.02519171, -0.00925353, -0.01344832, 0.02707548, -0.02517975
 36006425, -0.009913578, -0.01264076, 0.02706746, -0.02518641, -0.006858235, -0.01435178, 0.02706143, -0.02519171
 36206345, -0.01342929, -0.01165849, 0.02708078, -0.02518566, -0.009913578, -0.01264076, 0.02706746, -0.02518641
 36406265, -0.01091004, -0.01039969, 0.02706087, -0.02518629, -0.01342929, -0.01165849, 0.02708078, -0.02518566
 36606185, -0.008251234, -0.01354092, 0.02704485, -0.02520914, -0.01091004, -0.01039969, 0.02706087, -0.02518629
 36806105, -0.008531857, -0.01451792, 0.02704114, -0.0252206, -0.008251234, -0.01354092, 0.02704485, -0.02520914
 37006025, -0.0106088, -0.01345931, 0.02704504, -0.02521878, -0.008531857, -0.01451792, 0.02704114, -0.0252206
 37205945, -0.01176963, -0.01481984, 0.02704673, -0.02523199, -0.0106088, -0.01345931, 0.02704504, -0.02521878
 37405865, -0.009410394, -0.01528328, 0.02703019, -0.02524132, -0.01176963, -0.01481984, 0.02704673, -0.02523199
 37605785, -0.0105371, -0.0133155, 0.02702983, -0.02523384, -0.009410394, -0.01528328, 0.02703019, -0.02524132
 37806538, -0.01127041, -0.011203, 0.02702809, -0.02522737, -0.0105371, -0.0133155, 0.02702983, -0.02523384
 38006458, -0.01096746, -0.01280061, 0.02702222, -0.02524102, -0.01127041, -0.011203, 0.02702809, -0.02522737
 38206378, -0.01313677, -0.01355968, 0.02702985, -0.02524967, -0.01096746, -0.01280061, 0.02702222, -0.02524102
 38406298, -0.009193847, -0.0129584, 0.02700442, -0.02525268, -0.01313677, -0.01355968, 0.02702985, -0.02524967
 38606218, -0.01226232, -0.01275258, 0.02701506, -0.02525539, -0.009193847, -0.0129584, 0.02700442, -0.02525268
 38806138, -0.01138538, -0.01508999, 0.02700658, -0.02527476, -0.01226232, -0.01275258, 0.02701506, -0.02525539
 39006058, -0.01043754, -0.01393245, 0.02699671, -0.02527268, -0.01138538, -0.01508999, 0.02700658, -0.02527476
 39205978, -0.01095112, -0.01509749, 0.02699528, -0.02528462, -0.01043754, -0.01393245, 0.02699671, -0.02527268
 39405898, -0.008794221, -0.01727481, 0.02698152, -0.02530578, -0.01095112, -0.01509749, 0.02699528, -0.02528462
 39605818, -0.01027604, -0.01568596, 0.02698313, -0.02529847, -0.008794221, -0.01727481, 0.02698152, -0.02530578
 39806571, -0.01250889, -0.014006, 0.02699016, -0.02529119, -0.01027604, -0.01568596, 0.02698313, -0.02529847
 40006491, -0.01218166, -0.01508979, 0.02698459, -0.02530259, -0.01250889, -0.014006, 0.02699016, -0.02529119
 40206411, -0.008092416, -0.01433823, 0.0269605, -0.02530389, -0.01218166, -0.01508979, 0.02698459, -0.02530259
 40406331, -0.01048822, -0.0150066, 0.02696699, -0.02531186, -0.008092416, -0.01433823, 0.0269605, -0.02530389
 40606251, -0.009488229, -0.01596827, 0.0269585, -0.02532317, -0.01048822, -0.0150066, 0.02696699, -0.02531186
 40806171, -0.009196625, -0.01383514, 0.02695238, -0.02531368, -0.009488229, -0.01596827, 0.0269585, -0.02532317
 41006091, -0.01214022, -0.01436396, 0.0269631, -0.02532029, -0.009196625, -0.01383514, 0.02695238, -0.02531368
 41206011, -0.008550256, -0.01544176, 0.0269421, -0.02533286, -0.01214022, -0.01436396, 0.0269631, -0.02532029
 41405931, -0.01201858, -0.01743872, 0.02695564, -0.02535021, -0.008550256, -0.01544176, 0.0269421, -0.02533286
 41605851, -0.008424755, -0.01355277, 0.02693291, -0.02532944, -0.01201858, -0.01743872, 0.02695564, -0.02535021
 41805771, -0.008601416, -0.01361691, 0.02692977, -0.02533389, -0.008424755, -0.01355277, 0.02693291, -0.02532944
 42006524, -0.007612317, -0.01593272, 0.026923, -0.02535321, -0.008601416, -0.01361691, 0.02692977, -0.02533389
 42206444, -0.009753374, -0.01256044, 0.02692675, -0.02533558, -0.007612317, -0.01593272, 0.026923, -0.02535321
 42406364, -0.009933683, -0.01118369, 0.02692324, -0.02533253, -0.009753374, -0.01256044, 0.02692675, -0.02533558
 42606284, -0.007544517, -0.01192011, 0.02690985, -0.02534103, -0.009933683, -0.01118369, 0.02692324, -0.02533253
 42806204, -0.01028055, -0.01268089, 0.02691759, -0.02534843, -0.007544517, -0.01192011, 0.02690985, -0.02534103
 43006124, -0.01081394, -0.01391053, 0.02691676, -0.02535949, -0.01028055, -0.01268089, 0.02691759, -0.02534843
 43206044, -0.01241595, -0.01043429, 0.0269204, -0.02534465, -0.01081394, -0.01391053, 0.02691676, -0.02535949
 43405964, -0.009829569, -0.01346233, 0.02690426, -0.0253652, -0.01241595, -0.01043429, 0.0269204, -0.02534465
 43605884, -0.01365134, -0.01189172, 0.02692063, -0.02535938, -0.009829569, -0.01346233, 0.02690426, -0.0253652
 43805804, -0.0139147, -0.01344106, 0.02691954, -0.0253713, -0.01365134, -0.01189172, 0.02692063, -0.02535938
 44006557, -0.01363083, -0.01531932, 0.02691526, -0.02538654, -0.0139147, -0.01344106, 0.02691954, -0.0253713
 44206477, -0.01063313, -0.01166349, 0.02689375, -0.02536968, -0.01363083, -0.01531932, 0.02691526, -0.02538654
 44406397, -0.01090297, -0.0133296, 0.026892, -0.02538252, -0.01063313, -0.01166349, 0.02689375, -0.02536968
 44606317, -0.01193709, -0.01501471, 0.02689438, -0.02539651, -0.01090297, -0.0133296, 0.026892, -0.02538252
 44806237, -0.01090701, -0.01448057, 0.02688512, -0.02539722, -0.01193709, -0.01501471, 0.02689438, -0.02539651
 45006157, -0.008361111, -0.01224783, 0.02686946, -0.02538865, -0.01090701, -0.01448057, 0.02688512, -0.02539722
 45206077, -0.008740073, -0.01062866, 0.02686699, -0.0253842, -0.008361111, -0.01224783, 0.02686946, -0.02538865
 45405997, -0.006535472, -0.01588152, 0.02685693, -0.02541923, -0.008740073, -0.01062866, 0.02686699, -0.0253842
 45605917, -0.008649145, -0.01519711, 0.02686078, -0.02541766, -0.006535472, -0.01588152, 0.02685693, -0.02541923
 45805837, -0.01096075, -0.01587048, 0.026868, -0.02542532, -0.008649145, -0.01519711, 0.02686078, -0.02541766
 46006590, -0.01337486, -0.0128518, 0.026877, -0.02540934, -0.01096075, -0.01587048, 0.026868, -0.02542532
 46206510, -0.01204634, -0.01162805, 0.02686536, -0.02540692, -0.01337486, -0.0128518, 0.026877, -0.02540934
 46406430, -0.01219579, -0.01187794, 0.02686254, -0.02541208, -0.01204634, -0.01162805, 0.02686536, -0.02540692
 46606350, -0.0144951, -0.01240888, 0.0272913, -0.0258145, -0.01219579, -0.01187794, 0.02686254, -0.02541208
 46806270, -0.01403996, -0.0147287, 0.03075568, -0.02911778, -0.0144951, -0.01240888, 0.0272913, -0.0258145
 47006190, -0.01726796, -0.02003665, 0.0403281, -0.03819836, -0.01403996, -0.0147287, 0.03075568, -0.02911778
 47206110, -0.02297961, -0.03139665, 0.0590172, -0.055925, -0.01726796, -0.02003665, 0.0403281, -0.03819836
 47406030, -0.03515887, -0.05205296, 0.08754072, -0.08298489, -0.02297961, -0.03139665, 0.0590172, -0.055925
 47605950, -0.04865081, -0.07448681, 0.1242598, -0.1178284, -0.03515887, -0.05205296, 0.08754072, -0.08298489
 47805870, -0.05236998, -0.09093039, 0.1636352, -0.1646995, -0.04865081, -0.07448681, 0.1242598, -0.1178284
 48005790, -0.07281388, -0.1050206, 0.2122, -0.2135402, -0.05236998, -0.09093039, 0.1636352, -0.1646995
 48206543, -0.08399128, -0.1662103, 0.2673622, -0.2690044, -0.07281388, -0.1050206, 0.2122, -0.2135402
 48406463, -0.0947069, -0.1967036, 0.3269958, -0.3288248, -0.08399128, -0.1662103, 0.2673622, -0.2690044
 48606383, 0.09792293, -0.3283087, 0.3909679, -0.3931135, -0.0947069, -0.1967036, 0.3269958, -0.3288248
 48806303, -0.2067269, 0.03331479, 0.4583595, -0.4600853, 0.09792293, -0.3283087, 0.3909679, -0.3931135
 49006223, -0.1438909, -0.1465911, 0.525379, -0.527168, -0.2067269, 0.03331479, 0.4583595, -0.4600853
 49206143, 0.154828, -0.1791398, 0.5899607, -0.5923065, -0.1438909, -0.1465911, 0.525379, -0.527168
 49406063, -0.1572208, -0.279821, 0.6500545, -0.6530504, 0.154828, -0.1791398, 0.5899607, -0.5923065
 49605983, 0.2491916, 0.3549705, 0.7065504, -0.7101442, -0.1572208, -0.279821, 0.6500545, -0.6530504
 49805903, -0.03663813, -0.1665966, 0.7583309, -0.7624738, 0.2491916, 0.3549705, 0.7065504, -0.7101442
 50005823, 0.4147305, 0.2026068, 0.8067102, -0.8112039, -0.03663813, -0.1665966, 0.7583309, -0.7624738
 50206576, -0.1141299, 0.3905832, 0.8510545, -0.8562783, 0.4147305, 0.2026068, 0.8067102, -0.8112039
 50406496, 0.3532107, 0.4791942, 0.8908407, -0.8954698, -0.1141299, 0.3905832, 0.8510545, -0.8562783
 50606416, 0.3946234, 0.02913738, 0.9240198, -0.9279986, 0.3532107, 0.4791942, 0.8908407, -0.8954698
 50806336, 0.04887539, 0.314491, 0.9498709, -0.9545749, 0.3946234, 0.02913738, 0.9240198, -0.9279986
 51006256, -0.6405035, 0.48879, 0.9710448, -0.9762609, 0.04887539, 0.314491, 0.9498709, -0.9545749
 51206176, -0.2887939, -0.4130976, 0.9858437, -0.9921769, -0.6405035, 0.48879, 0.9710448, -0.9762609
 51406096, 0.6310331, 0.4283652, 0.9964362, -1.004641, -0.2887939, -0.4130976, 0.9858437, -0.9921769
 51606016, 0.6308437, -0.5056143, 1.001684, -1.015058, 0.6310331, 0.4283652, 0.9964362, -1.004641
 51805936, 1.067636, -0.3548084, 0.9577354, -1.068868, 0.6308437, -0.5056143, 1.001684, -1.015058
 52005856, 0.698447, 1.227343, 0.7646664, -1.22184, 1.067636, -0.3548084, 0.9577354, -1.068868
 52205776, 0.8224524, -0.4019103, 0.4144543, -1.383157, 0.698447, 1.227343, 0.7646664, -1.22184
 52406529, 2.000852, -0.7808333, -0.03080142, -1.449737, 0.8224524, -0.4019103, 0.4144543, -1.383157
 52606449, 0.1517526, -0.9187559, -0.4688386, -1.370206, 2.000852, -0.7808333, -0.03080142, -1.449737
 52806369, 0.1317602, -2.269832, -0.7903308, -1.217477, 0.1517526, -0.9187559, -0.4688386, -1.370206
 53006289, -1.367995, -1.693865, -1.013193, -1.040709, 0.1317602, -2.269832, -0.7903308, -1.217477
 53206209, -2.160845, -1.652767, -1.173097, -0.8677122, -1.367995, -1.693865, -1.013193, -1.040709
 53406129, -1.73944, -0.6908234, -1.296847, -0.6679624, -2.160845, -1.652767, -1.173097, -0.8677122
 53606049, -3.286845, 0.7774844, -1.40682, -0.4130324, -1.73944, -0.6908234, -1.296847, -0.6679624
 53805969, -2.565131, 1.489856, -1.461311, -0.1022697, -3.286845, 0.7774844, -1.40682, -0.4130324
 54005889, -2.262098, 3.068217, -1.451346, 0.2194026, -2.565131, 1.489856, -1.461311, -0.1022697
 54205809, -2.014587, 3.652741, -1.406936, 0.3925152, -2.262098, 3.068217, -1.451346, 0.2194026
 54406562, -0.9817772, 4.35393, -1.398098, 0.3844631, -2.014587, 3.652741, -1.406936, 0.3925152
 54606482, -1.661275, 3.9173, -1.411215, 0.257136, -0.9817772, 4.35393, -1.398098, 0.3844631
 54806402, -3.683457, 4.380512, -1.423511, 0.1130977, -1.661275, 3.9173, -1.411215, 0.257136
 55006322, -4.285335, 3.234776, -1.40766, -0.002890825, -3.683457, 4.380512, -1.423511, 0.1130977
 55206242, -4.879985, 3.789876, -1.394553, -0.02467132, -4.285335, 3.234776, -1.40766, -0.002890825
 55406162, -5.131603, 3.600552, -1.374148, 0.01466095, -4.879985, 3.789876, -1.394553, -0.02467132
 55606082, -4.60014, 3.549078, -1.346805, 0.07773829, -5.131603, 3.600552, -1.374148, 0.01466095
 55806002, -4.050043, 5.372461, -1.330068, 0.1460046, -4.60014, 3.549078, -1.346805, 0.07773829
 56005922, -4.028909, 5.768502, -1.308056, 0.1726964, -4.050043, 5.372461, -1.330068, 0.1460046
 56205842, -4.534817, 5.760098, -1.292496, 0.1653468, -4.028909, 5.768502, -1.308056, 0.1726964
 56405762, -3.690992, 5.491858, -1.270002, 0.1241299, -4.534817, 5.760098, -1.292496, 0.1653468
 56606515, -4.799435, 5.30393, -1.258776, 0.1032118, -3.690992, 5.491858, -1.270002, 0.1241299
 56806435, -4.496261, 4.831953, -1.230421, 0.08200377, -4.799435, 5.30393, -1.258776, 0.1032118
 57006355, -4.517287, 4.814014, -1.208966, 0.08474439, -4.496261, 4.831953, -1.230421, 0.08200377
 57206275, -4.462107, 4.773375, -1.184741, 0.09716725, -4.517287, 4.814014, -1.208966, 0.08474439
 57406195, -4.270574, 4.81443, -1.161935, 0.1099508, -4.462107, 4.773375, -1.184741, 0.09716725
 57606115, -4.094272, 4.7736, -1.141054, 0.1159037, -4.270574, 4.81443, -1.161935, 0.1099508
 57806035, -4.166577, 4.71659, -1.123137, 0.1154648, -4.094272, 4.7736, -1.141054, 0.1159037
 58005955, -4.082277, 4.683989, -1.104967, 0.1077388, -4.166577, 4.71659, -1.123137, 0.1154648
 58205875, -4.047897, 4.540636, -1.088608, 0.09833977, -4.082277, 4.683989, -1.104967, 0.1077388
 58405795, -4.037969, 4.486724, -1.072453, 0.09341115, -4.047897, 4.540636, -1.088608, 0.09833977
 58606548, -3.980478, 4.433726, -1.051513, 0.09271047, -4.037969, 4.486724, -1.072453, 0.09341115
 58806468, -3.930645, 4.266919, -1.038999, 0.09185955, -3.980478, 4.433726, -1.051513, 0.09271047
 59006388, -3.883076, 4.290216, -1.016294, 0.09464464, -3.930645, 4.266919, -1.038999, 0.09185955
 59206308, -3.8576, 4.263238, -0.9921279, 0.09662023, -3.883076, 4.290216, -1.016294, 0.09464464
 59406228, -3.662322, 4.201056, -0.9676666, 0.09546548, -3.8576, 4.263238, -0.9921279, 0.09662023
 59606148, -3.679228, 4.045807, -0.9445602, 0.09371704, -3.662322, 4.201056, -0.9676666, 0.09546548
 59806068, -3.582029, 3.942246, -0.9216794, 0.09037587, -3.679228, 4.045807, -0.9445602, 0.09371704
 60005988, -3.428212, 3.857453, -0.8997599, 0.08641589, -3.582029, 3.942246, -0.9216794, 0.09037587
 60205908, -3.415989, 3.743525, -0.879876, 0.08396682, -3.428212, 3.857453, -0.8997599, 0.08641589
 60405828, -3.328746, 3.757405, -0.8602648, 0.08313513, -3.415989, 3.743525, -0.879876, 0.08396682
 60606581, -3.206655, 3.654095, -0.8415822, 0.08108681, -3.328746, 3.757405, -0.8602648, 0.08313513
 60806501, -3.102074, 3.565654, -0.8250042, 0.08109999, -3.206655, 3.654095, -0.8415822, 0.08108681
 61006421, -2.932627, 3.426811, -0.8062681, 0.08426547, -3.102074, 3.565654, -0.8250042, 0.08109999
 61206341, -2.762891, 3.323051, -0.7943758, 0.09448352, -2.932627, 3.426811, -0.8062681, 0.08426547
 61406261, -2.601567, 3.224412, -0.7831202, 0.1153798, -2.762891, 3.323051, -0.7943758, 0.09448352
 61606181, -2.357135, 3.225824, -0.7698788, 0.1515406, -2.601567, 3.224412, -0.7831202, 0.1153798
 61806101, -2.058379, 3.297723, -0.7498735, 0.2118791, -2.357135, 3.225824, -0.7698788, 0.1515406
 62006021, -1.582619, 3.393957, -0.7126125, 0.3041553, -2.058379, 3.297723, -0.7498735, 0.2118791
 62205941, -0.7934368, 3.531705, -0.6332695, 0.4363583, -1.582619, 3.393957, -0.7126125, 0.3041553
 62405861, 0.07615664, 3.516305, -0.5003604, 0.5770039, -0.7934368, 3.531705, -0.6332695, 0.4363583
 62605781, 0.8980556, 3.384548, -0.3316507, 0.6843987, 0.07615664, 3.516305, -0.5003604, 0.5770039
 62806534, 1.67881, 3.110619, -0.1542412, 0.7421564, 0.8980556, 3.384548, -0.3316507, 0.6843987
 63006454, 2.301295, 2.770211, 0.010575, 0.7573012, 1.67881, 3.110619, -0.1542412, 0.7421564
 63206374, 2.837925, 2.335558, 0.1493722, 0.7419972, 2.301295, 2.770211, 0.010575, 0.7573012
 63406294, 3.302382, 1.844353, 0.2797778, 0.7002268, 2.837925, 2.335558, 0.1493722, 0.7419972
 63606214, 3.685673, 1.166792, 0.4049324, 0.6333548, 3.302382, 1.844353, 0.2797778, 0.7002268
 63806134, 3.97579, 0.2332118, 0.5257798, 0.5380867, 3.685673, 1.166792, 0.4049324, 0.6333548
 64006054, 4.079265, -0.5163132, 0.6110955, 0.4423094, 3.97579, 0.2332118, 0.5257798, 0.5380867
 64205974, 4.02276, -0.9102694, 0.6417463, 0.3989868, 4.079265, -0.5163132, 0.6110955, 0.4423094
 64405894, 4.147101, -0.779352, 0.6330374, 0.4169056, 4.02276, -0.9102694, 0.6417463, 0.3989868
 64605814, 4.318819, -0.367747, 0.597001, 0.4702689, 4.147101, -0.779352, 0.6330374, 0.4169056
 64806567, 4.454322, 0.09722419, 0.5533135, 0.5277521, 4.318819, -0.367747, 0.597001, 0.4702689
 65006487, 4.438339, 0.5255111, 0.5204522, 0.5621682, 4.454322, 0.09722419, 0.5533135, 0.5277521
 65206407, 4.476613, 0.5457877, 0.5160574, 0.5686785, 4.438339, 0.5255111, 0.5204522, 0.5621682
 65406327, 4.554329, 0.4147625, 0.5357059, 0.5542005, 4.476613, 0.5457877, 0.5160574, 0.5686785
 65606247, 4.580724, 0.1619177, 0.5609916, 0.5287956, 4.554329, 0.4147625, 0.5357059, 0.5542005
 65806167, 4.644929, -0.09099974, 0.5804017, 0.5068039, 4.580724, 0.1619177, 0.5609916, 0.5287956
 66006087, 4.684289, -0.1520045, 0.5877837, 0.4987775, 4.644929, -0.09099974, 0.5804017, 0.5068039
 66206007, 4.716237, -0.1204636, 0.5843527, 0.5041408, 4.684289, -0.1520045, 0.5877837, 0.4987775
 66405927, 4.735554, -0.07102276, 0.574384, 0.5157994, 4.716237, -0.1204636, 0.5843527, 0.5041408
 66605847, 4.738787, 0.08975261, 0.5653591, 0.5284014, 4.735554, -0.07102276, 0.574384, 0.5157994
 66805767, 4.81495, 0.1573755, 0.562757, 0.5374434, 4.738787, 0.08975261, 0.5653591, 0.5284014
 67006520, 4.834801, 0.2117958, 0.5635006, 0.5391629, 4.81495, 0.1573755, 0.562757, 0.5374434
 67206440, 4.817517, 0.1291873, 0.5701006, 0.5381684, 4.834801, 0.2117958, 0.5635006, 0.5391629
 67406360, 4.82876, 0.08477125, 0.5780677, 0.5342827, 4.817517, 0.1291873, 0.5701006, 0.5381684
 67606280, 4.958189, -0.02108203, 0.5886825, 0.5341039, 4.82876, 0.08477125, 0.5780677, 0.5342827
 67806200, 4.94775, -0.03271224, 0.593697, 0.5370208, 4.958189, -0.02108203, 0.5886825, 0.5341039
 68006120, 4.985515, -0.03319467, 0.5958968, 0.5416363, 4.94775, -0.03271224, 0.593697, 0.5370208
 68206040, 4.996982, 0.02643544, 0.5963757, 0.5481955, 4.985515, -0.03319467, 0.5958968, 0.5416363
 68405960, 4.989204, 0.1120705, 0.5967799, 0.5550722, 4.996982, 0.02643544, 0.5963757, 0.5481955
 68605880, 5.014125, 0.1676557, 0.5974023, 0.5586922, 4.989204, 0.1120705, 0.5967799, 0.5550722
 68805800, 5.075595, 0.03784514, 0.6026908, 0.5644713, 5.014125, 0.1676557, 0.5974023, 0.5586922
 69006553, 5.086141, 0.06357078, 0.6080633, 0.5678789, 5.075595, 0.03784514, 0.6026908, 0.5644713
 69206473, 5.220124, 0.06922036, 0.6142808, 0.567344, 5.086141, 0.06357078, 0.6080633, 0.5678789
 69406393, 5.259106, -0.002956849, 0.6202765, 0.5684811, 5.220124, 0.06922036, 0.6142808, 0.567344
 69606313, 5.217016, 0.07173292, 0.6238382, 0.5713454, 5.259106, -0.002956849, 0.6202765, 0.5684811
 69806233, 5.228558, 0.04933374, 0.6272601, 0.5755178, 5.217016, 0.07173292, 0.6238382, 0.5713454
 70006153, 5.227216, -0.01793557, 0.6308813, 0.5814479, 5.228558, 0.04933374, 0.6272601, 0.5755178
 70206073, 5.226075, 0.001501451, 0.6333212, 0.5849897, 5.227216, -0.01793557, 0.6308813, 0.5814479
 70405993, 5.312371, 0.03190659, 0.6365753, 0.5870149, 5.226075, 0.001501451, 0.6333212, 0.5849897
 70605913, 5.351439, -0.02037464, 0.6403528, 0.590818, 5.312371, 0.03190659, 0.6365753, 0.5870149
 70805833, 5.27787, -0.01574681, 0.6420057, 0.5953959, 5.351439, -0.02037464, 0.6403528, 0.590818
 71006586, 5.347532, 0.04993206, 0.6464461, 0.6016355, 5.27787, -0.01574681, 0.6420057, 0.5953959
 71206506, 5.401774, 0.05014838, 0.6483992, 0.6036263, 5.347532, 0.04993206, 0.6464461, 0.6016355
 71406426, 5.432952, 0.04545046, 0.6481869, 0.6020437, 5.401774, 0.05014838, 0.6483992, 0.6036263
 71606346, 5.38248, 0.03248763, 0.6448328, 0.5986515, 5.432952, 0.04545046, 0.6481869, 0.6020437
 71806266, 5.404209, 0.04429804, 0.6434267, 0.5947845, 5.38248, 0.03248763, 0.6448328, 0.5986515
 72006186, 5.400582, 0.05732702, 0.6422858, 0.5907409, 5.404209, 0.04429804, 0.6434267, 0.5947845
 72206106, 5.351021, -0.01326257, 0.6411186, 0.5876697, 5.400582, 0.05732702, 0.6422858, 0.5907409
 72406026, 5.429335, -0.01251288, 0.6425322, 0.5850753, 5.351021, -0.01326257, 0.6411186, 0.5876697
 72605946, 5.284924, 0.05182984, 0.6382138, 0.5817327, 5.429335, -0.01251288, 0.6425322, 0.5850753
 72805866, 5.192712, 0.02003458, 0.6352527, 0.5794703, 5.284924, 0.05182984, 0.6382138, 0.5817327
 73005786, 5.179684, 0.01076368, 0.6327138, 0.5773312, 5.192712, 0.02003458, 0.6352527, 0.5794703
 73206539, 5.104308, 0.03501126, 0.6282403, 0.5751517, 5.179684, 0.01076368, 0.6327138, 0.5773312
 73406459, 5.016237, 0.02705771, 0.6245056, 0.5742972, 5.104308, 0.03501126, 0.6282403, 0.5751517
 73606379, 4.986701, 0.02430538, 0.6226579, 0.5730017, 5.016237, 0.02705771, 0.6245056, 0.5742972
 73806299, 4.911556, 0.07360563, 0.6210347, 0.574393, 4.986701, 0.02430538, 0.6226579, 0.5730017
 74006219, 4.81376, 0.08986578, 0.6157874, 0.5802085, 4.911556, 0.07360563, 0.6210347, 0.574393
 74206139, 4.667455, 0.1648996, 0.6037858, 0.5938689, 4.81376, 0.08986578, 0.6157874, 0.5802085
 74406059, 4.548535, 0.3110818, 0.5830016, 0.616706, 4.667455, 0.1648996, 0.6037858, 0.5938689
 74605979, 4.448441, 0.4905379, 0.5488994, 0.651117, 4.548535, 0.3110818, 0.5830016, 0.616706
 74805899, 4.360343, 0.8586054, 0.4989481, 0.6959208, 4.448441, 0.4905379, 0.5488994, 0.651117
 75005819, 4.157817, 1.325489, 0.425768, 0.7477089, 4.360343, 0.8586054, 0.4989481, 0.6959208
 75206572, 3.918261, 1.867323, 0.3218665, 0.8038912, 4.157817, 1.325489, 0.425768, 0.7477089
 75406492, 3.484689, 2.355799, 0.1790575, 0.850032, 3.918261, 1.867323, 0.3218665, 0.8038912
 75606412, 2.905039, 3.123894, -0.0005035996, 0.8734263, 3.484689, 2.355799, 0.1790575, 0.850032
 75806332, 2.17329, 3.767701, -0.1941521, 0.8576504, 2.905039, 3.123894, -0.0005035996, 0.8734263
 76006252, 1.357101, 4.060338, -0.3755791, 0.7991211, 2.17329, 3.767701, -0.1941521, 0.8576504
 76206172, 0.5782659, 4.324898, -0.5093212, 0.7265964, 1.357101, 4.060338, -0.3755791, 0.7991211
 76406092, 0.08993767, 4.481591, -0.584784, 0.6744131, 0.5782659, 4.324898, -0.5093212, 0.7265964
 76606012, -0.1056431, 4.625688, -0.6164662, 0.6592876, 0.08993767, 4.481591, -0.584784, 0.6744131
 76805932, -0.06020661, 4.710887, -0.616438, 0.6630235, -0.1056431, 4.625688, -0.6164662, 0.6592876
 77005852, 0.08855444, 4.835227, -0.6058773, 0.6776251, -0.06020661, 4.710887, -0.616438, 0.6630235
 77205772, 0.2699427, 4.860871, -0.6008387, 0.6889663, 0.08855444, 4.835227, -0.6058773, 0.6776251
 77406525, 0.2529597, 4.96858, -0.6073651, 0.6924339, 0.2699427, 4.860871, -0.6008387, 0.6889663
 77606445, 0.167705, 5.033715, -0.6250805, 0.6872268, 0.2529597, 4.96858, -0.6073651, 0.6924339
 77806365, 0.03293266, 5.141296, -0.6421697, 0.6761214, 0.167705, 5.033715, -0.6250805, 0.6872268
 78006285, -0.08475208, 5.150178, -0.6504908, 0.6648453, 0.03293266, 5.141296, -0.6421697, 0.6761214
 78206205, -0.07165074, 5.261918, -0.649178, 0.6638789, -0.08475208, 5.150178, -0.6504908, 0.6648453
 78406125, -0.04882621, 5.314364, -0.6420102, 0.6686248, -0.07165074, 5.261918, -0.649178, 0.6638789
 78606045, -0.02638966, 5.334351, -0.6329862, 0.6739827, -0.04882621, 5.314364, -0.6420102, 0.6686248
 78805965, 0.05930297, 5.299978, -0.6253944, 0.676811, -0.02638966, 5.334351, -0.6329862, 0.6739827
 79005885, 0.1074406, 5.386646, -0.6215372, 0.6789925, 0.05930297, 5.299978, -0.6253944, 0.676811
 79205805, 0.06102028, 5.44747, -0.6207125, 0.6784189, 0.1074406, 5.386646, -0.6215372, 0.6789925
 79406558, 0.004646262, 5.3671, -0.6197475, 0.6724473, 0.06102028, 5.44747, -0.6207125, 0.6784189
 79606478, -0.02350288, 5.450757, -0.6180536, 0.6689792, 0.004646262, 5.3671, -0.6197475, 0.6724473
 79806398, 0.01719594, 5.456437, -0.6161023, 0.6670834, -0.02350288, 5.450757, -0.6180536, 0.6689792
 80006318, 0.08675788, 5.499043, -0.6145188, 0.667034, 0.01719594, 5.456437, -0.6161023, 0.6670834
 80206238, 0.0497175, 5.478947, -0.6120631, 0.6645772, 0.08675788, 5.499043, -0.6145188, 0.667034
 80406158, 0.01822745, 5.50946, -0.6128618, 0.6657312, 0.0497175, 5.478947, -0.6120631, 0.6645772
 80606078, 0.05816807, 5.473194, -0.613056, 0.6667662, 0.01822745, 5.50946, -0.6128618, 0.6657312
 80805998, 0.02225006, 5.505392, -0.6124155, 0.6699357, 0.05816807, 5.473194, -0.613056, 0.6667662
 81005918, 0.02439849, 5.475069, -0.611499, 0.6704246, 0.02225006, 5.505392, -0.6124155, 0.6699357
 81205838, 0.07356548, 5.526275, -0.6127745, 0.6706397, 0.02439849, 5.475069, -0.611499, 0.6704246
 81406591, 0.03885976, 5.463257, -0.6156875, 0.6684488, 0.07356548, 5.526275, -0.6127745, 0.6706397
 81606511, 0.00569434, 5.446953, -0.6179014, 0.6677583, 0.03885976, 5.463257, -0.6156875, 0.6684488
 81806431, 0.03401748, 5.44255, -0.6186367, 0.667799, 0.00569434, 5.446953, -0.6179014, 0.6677583
 82006351, 0.07123345, 5.439834, -0.616951, 0.6676122, 0.03401748, 5.44255, -0.6186367, 0.667799
 82206271, 0.04453439, 5.39205, -0.6149926, 0.666381, 0.07123345, 5.439834, -0.616951, 0.6676122
 82406191, 0.0002488568, 5.476515, -0.6150515, 0.6682376, 0.04453439, 5.39205, -0.6149926, 0.666381
 82606111, 0.06377433, 5.46585, -0.6166989, 0.6691678, 0.0002488568, 5.476515, -0.6150515, 0.6682376
 82806031, 0.1089732, 5.439905, -0.6181478, 0.6689369, 0.06377433, 5.46585, -0.6166989, 0.6691678
 83005951, 0.1199179, 5.538351, -0.6203443, 0.6698703, 0.1089732, 5.439905, -0.6181478, 0.6689369
 83205871, 0.06674335, 5.519486, -0.6207156, 0.6662638, 0.1199179, 5.538351, -0.6203443, 0.6698703
 83405791, -0.008978041, 5.497912, -0.6222509, 0.6643201, 0.06674335, 5.519486, -0.6207156, 0.6662638
 83606544, -0.040443, 5.545592, -0.6221258, 0.664799, -0.008978041, 5.497912, -0.6222509, 0.6643201
 83806464, 0.01527256, 5.562165, -0.621341, 0.6670778, -0.040443, 5.545592, -0.6221258, 0.664799
 84006384, 0.009032561, 5.509467, -0.6178522, 0.6676672, 0.01527256, 5.562165, -0.621341, 0.6670778
 84206304, 0.01291883, 5.61772, -0.6186127, 0.6729035, 0.009032561, 5.509467, -0.6178522, 0.6676672
 84406224, 0.07902964, 5.52955, -0.6201978, 0.6714283, 0.01291883, 5.61772, -0.6186127, 0.6729035
 84606144, 0.0509238, 5.586286, -0.6229667, 0.6716734, 0.07902964, 5.52955, -0.6201978, 0.6714283
 84806064, 0.02291478, 5.627991, -0.6250927, 0.6722893, 0.0509238, 5.586286, -0.6229667, 0.6716734
 85005984, -0.04514188, 5.628137, -0.6229869, 0.6709012, 0.02291478, 5.627991, -0.6250927, 0.6722893
 85205904, -0.0002514473, 5.653691, -0.6219023, 0.6718599, -0.04514188, 5.628137, -0.6229869, 0.6709012
 85405824, 0.04656374, 5.568499, -0.6199636, 0.6703845, -0.0002514473, 5.653691, -0.6219023, 0.6718599
 85606577, 0.03185895, 5.529186, -0.6178693, 0.6692914, 0.04656374, 5.568499, -0.6199636, 0.6703845
 85806497, 0.06978022, 5.577065, -0.6149861, 0.6674864, 0.03185895, 5.529186, -0.6178693, 0.6692914
 86006417, 0.03134383, 5.524918, -0.6149647, 0.6645738, 0.06978022, 5.577065, -0.6149861, 0.6674864
 86206337, 0.0224045, 5.527164, -0.6150934, 0.6622404, 0.03134383, 5.524918, -0.6149647, 0.6645738
 86406257, 0.04009869, 5.522216, -0.618643, 0.6625252, 0.0224045, 5.527164, -0.6150934, 0.6622404
 86606177, 0.02830604, 5.564507, -0.6218825, 0.6639301, 0.04009869, 5.522216, -0.618643, 0.6625252
 86806097, -0.0445855, 5.595155, -0.6208012, 0.6635328, 0.02830604, 5.564507, -0.6218825, 0.6639301
 87006017, -0.03749809, 5.522213, -0.6192464, 0.6629921, -0.0445855, 5.595155, -0.6208012, 0.6635328
 87205937, -0.06229171, 5.531504, -0.6169199, 0.663368, -0.03749809, 5.522213, -0.6192464, 0.6629921
 87405857, -0.01974472, 5.561769, -0.6160165, 0.6650247, -0.06229171, 5.531504, -0.6169199, 0.663368
 87605777, 0.009717217, 5.551221, -0.6121161, 0.6632279, -0.01974472, 5.561769, -0.6160165, 0.6650247
 87806530, 0.0455071, 5.59517, -0.6105924, 0.6633648, 0.009717217, 5.551221, -0.6121161, 0.6632279
 88006450, -0.02706312, 5.557432, -0.6126186, 0.663408, 0.0455071, 5.59517, -0.6105924, 0.6633648
 88206370, -0.008335707, 5.504547, -0.6155232, 0.6626824, -0.02706312, 5.557432, -0.6126186, 0.663408
 88406290, 0.001768703, 5.530172, -0.6162708, 0.6625522, -0.008335707, 5.504547, -0.6155232, 0.6626824
 88606210, -0.02249624, 5.582721, -0.6155379, 0.663323, 0.001768703, 5.530172, -0.6162708, 0.6625522
 88806130, -0.06219204, 5.562054, -0.6141772, 0.6640145, -0.02249624, 5.582721, -0.6155379, 0.663323
 89006050, 5.422533E-05, 5.597304, -0.6143124, 0.6667635, -0.06219204, 5.562054, -0.6141772, 0.6640145
 89205970, 0.001272365, 5.525171, -0.6161551, 0.6668862, 5.422533E-05, 5.597304, -0.6143124, 0.6667635
 89405890, 0.06268562, 5.570327, -0.6189479, 0.6678234, 0.001272365, 5.525171, -0.6161551, 0.6668862
 89605810, -0.01031919, 5.528676, -0.6195107, 0.6655896, 0.06268562, 5.570327, -0.6189479, 0.6678234
 89806563, -0.01874697, 5.519563, -0.6204309, 0.6650182, -0.01031919, 5.528676, -0.6195107, 0.6655896
 90006483, -0.06734287, 5.571191, -0.621413, 0.6662517, -0.01874697, 5.519563, -0.6204309, 0.6650182
 90206403, -0.3447247, 8.721661, -0.6220803, 0.7277688, -0.06734287, 5.571191, -0.621413, 0.6662517
 90406323, 0.3381323, 9.205289, -0.6238778, 0.7395863, -0.3447247, 8.721661, -0.6220803, 0.7277688
 90606243, -0.4307323, 8.682551, -0.6267241, 0.7286703, 0.3381323, 9.205289, -0.6238778, 0.7395863
 90806163, 0.05306661, 9.235295, -0.628682, 0.7431412, -0.4307323, 8.682551, -0.6267241, 0.7286703
 91006083, 0.561093, 8.334624, -0.6319035, 0.7251309, 0.05306661, 9.235295, -0.628682, 0.7431412
 91206003, 0.55121, 8.283552, -0.6342865, 0.7264776, 0.561093, 8.334624, -0.6319035, 0.7251309
 91405923, 0.3082377, 8.601675, -0.6360262, 0.7364772, 0.55121, 8.283552, -0.6342865, 0.7264776
 91605843, -0.3758224, 9.348944, -0.6384118, 0.7568179, 0.3082377, 8.601675, -0.6360262, 0.7364772
 91805763, 0.20201, 8.502702, -0.6402246, 0.7408355, -0.3758224, 9.348944, -0.6384118, 0.7568179
 92006516, -0.08322838, 9.426234, -0.6422676, 0.7652566, 0.20201, 8.502702, -0.6402246, 0.7408355
 92206436, -0.5054289, 8.993521, -0.6450971, 0.7589257, -0.08322838, 9.426234, -0.6422676, 0.7652566
 92406356, 0.08876163, 8.517347, -0.6476767, 0.751219, -0.5054289, 8.993521, -0.6450971, 0.7589257
 92606276, 0.1195787, 8.897038, -0.651922, 0.7611464, 0.08876163, 8.517347, -0.6476767, 0.751219
 92806196, 0.09246448, 9.383798, -0.6568077, 0.7730191, 0.1195787, 8.897038, -0.651922, 0.7611464
 93006116, 0.5178062, 8.421141, -0.6626609, 0.7524657, 0.09246448, 9.383798, -0.6568077, 0.7730191
 93206036, -0.1423416, 8.642513, -0.6656004, 0.7585326, 0.5178062, 8.421141, -0.6626609, 0.7524657
 93405956, 0.4702421, 8.963665, -0.6687835, 0.7683354, -0.1423416, 8.642513, -0.6656004, 0.7585326
 93605876, -0.4108353, 8.707482, -0.6700912, 0.7668083, 0.4702421, 8.963665, -0.6687835, 0.7683354
 93805796, -0.1747725, 8.677103, -0.6707959, 0.770265, -0.4108353, 8.707482, -0.6700912, 0.7668083
 94006549, 0.3644687, 9.26734, -0.6730666, 0.786612, -0.1747725, 8.677103, -0.6707959, 0.770265
 94206469, -0.1085222, 8.565686, -0.6763385, 0.7734342, 0.3644687, 9.26734, -0.6730666, 0.786612
 94406389, 0.1819522, 8.872869, -0.6811733, 0.7810393, -0.1085222, 8.565686, -0.6763385, 0.7734342
 94606309, 0.3506209, 8.515846, -0.6863276, 0.774706, 0.1819522, 8.872869, -0.6811733, 0.7810393
 94806229, -0.3188665, 9.349238, -0.6904256, 0.7937058, 0.3506209, 8.515846, -0.6863276, 0.774706
 95006149, -0.2546535, 8.588973, -0.6938766, 0.779395, -0.3188665, 9.349238, -0.6904256, 0.7937058
 95206069, -0.2290947, 9.367187, -0.6955827, 0.7990608, -0.2546535, 8.588973, -0.6938766, 0.779395
 95405989, 0.2060163, 9.595533, -0.6925071, 0.8063166, -0.2290947, 9.367187, -0.6955827, 0.7990608
 95605909, -0.2344653, 9.471279, -0.681979, 0.8004308, 0.2060163, 9.595533, -0.6925071, 0.8063166
 95805829, 0.1579697, 9.519454, -0.6764564, 0.7996614, -0.2344653, 9.471279, -0.681979, 0.8004308
 96006582, 0.2996547, 8.87006, -0.6722026, 0.7826925, 0.1579697, 9.519454, -0.6764564, 0.7996614
 96206502, 0.2954522, 8.785048, -0.6647856, 0.7771333, 0.2996547, 8.87006, -0.6722026, 0.7826925
 96406422, -0.6181121, 9.151041, -0.656707, 0.7826385, 0.2954522, 8.785048, -0.6647856, 0.7771333
 96606342, 0.3621936, 9.225006, -0.6472942, 0.781947, -0.6181121, 9.151041, -0.656707, 0.7826385
 96806262, -0.230285, 8.59833, -0.6393955, 0.7626864, 0.3621936, 9.225006, -0.6472942, 0.781947
 97006182, -0.1102074, 8.079193, -0.6339921, 0.7463629, -0.230285, 8.59833, -0.6393955, 0.7626864
 97206102, -0.6083414, 8.069791, -0.6309446, 0.7432681, -0.1102074, 8.079193, -0.6339921, 0.7463629
 97406022, -0.04942466, 7.998244, -0.6293371, 0.7391467, -0.6083414, 8.069791, -0.6309446, 0.7432681
 97605942, -0.77414, 7.781377, -0.6337367, 0.7310596, -0.04942466, 7.998244, -0.6293371, 0.7391467
 97805862, 0.06754154, 6.957311, -0.6415656, 0.7023374, -0.77414, 7.781377, -0.6337367, 0.7310596
 98005782, -0.4340567, 6.545198, -0.659501, 0.6751778, 0.06754154, 6.957311, -0.6415656, 0.7023374
 98206535, -0.567529, 5.595203, -0.6897365, 0.6248183, -0.4340567, 6.545198, -0.659501, 0.6751778
 98406455, -1.612807, 5.687643, -0.7389386, 0.5831158, -0.567529, 5.595203, -0.6897365, 0.6248183
 98606375, -2.091023, 5.422321, -0.7990781, 0.5123849, -1.612807, 5.687643, -0.7389386, 0.5831158
 98806295, -2.691447, 5.184315, -0.8671191, 0.4111944, -2.091023, 5.422321, -0.7990781, 0.5123849
 99006215, -3.443016, 4.656262, -0.934612, 0.273503, -2.691447, 5.184315, -0.8671191, 0.4111944
 99206135, -4.332208, 3.945639, -0.9892492, 0.0992856, -3.443016, 4.656262, -0.934612, 0.273503
 99406055, -5.261557, 2.960133, -1.011966, -0.113596, -4.332208, 3.945639, -0.9892492, 0.0992856
 99605975, -5.954039, 1.733665, -0.9794469, -0.3448777, -5.261557, 2.960133, -1.011966, -0.113596
 99805895, -6.241072, 0.4719083, -0.8901033, -0.5536164, -5.954039, 1.733665, -0.9794469, -0.3448777
 100005815, -6.35209, -0.6005916, -0.7981309, -0.6900312, -6.241072, 0.4719083, -0.8901033, -0.5536164
 100206568, -6.485246, -1.153575, -0.7495369, -0.7522203, -6.35209, -0.6005916, -0.7981309, -0.6900312
 100406488, -6.5671, -1.168751, -0.7448339, -0.7607144, -6.485246, -1.153575, -0.7495369, -0.7522203
 100606408, -6.592006, -1.060738, -0.762902, -0.7442738, -6.5671, -1.168751, -0.7448339, -0.7607144
 100806328, -6.766002, -0.6004775, -0.7993098, -0.7065881, -6.592006, -1.060738, -0.762902, -0.7442738
 101006248, -6.74869, -0.2307523, -0.8217221, -0.6741527, -6.766002, -0.6004775, -0.7993098, -0.7065881
 101206168, -6.860108, -0.1738672, -0.82709, -0.6654614, -6.74869, -0.2307523, -0.8217221, -0.6741527
 101406088, -6.857824, -0.3354418, -0.8124559, -0.6781599, -6.860108, -0.1738672, -0.82709, -0.6654614
 101606008, -6.911516, -0.6265349, -0.7910572, -0.7006778, -6.857824, -0.3354418, -0.8124559, -0.6781599
 101805928, -6.985351, -0.7628925, -0.7724512, -0.7182028, -6.911516, -0.6265349, -0.7910572, -0.7006778
 102005848, -6.895958, -0.7926455, -0.7621555, -0.7234535, -6.985351, -0.7628925, -0.7724512, -0.7182028
 102205768, -6.986301, -0.7939537, -0.7681615, -0.7162207, -6.895958, -0.7926455, -0.7621555, -0.7234535
 102406521, -7.049882, -0.6220819, -0.7820331, -0.7008616, -6.986301, -0.7939537, -0.7681615, -0.7162207
 102606441, -6.985306, -0.5184834, -0.7937461, -0.6839811, -7.049882, -0.6220819, -0.7820331, -0.7008616
 102806361, -7.003602, -0.3174658, -0.8026543, -0.6733564, -6.985306, -0.5184834, -0.7937461, -0.6839811
 103006281, -6.981996, -0.289008, -0.8043957, -0.6719149, -7.003602, -0.3174658, -0.8026543, -0.6733564
 103206201, -7.090545, -0.1768799, -0.8035672, -0.676826, -6.981996, -0.289008, -0.8043957, -0.6719149
 103406121, -7.080465, -0.2780611, -0.7987589, -0.6852341, -7.090545, -0.1768799, -0.8035672, -0.676826
 103606041, -7.090682, -0.382721, -0.7944558, -0.6920197, -7.080465, -0.2780611, -0.7987589, -0.6852341
 103805961, -7.15648, -0.3246758, -0.7939996, -0.6956304, -7.090682, -0.382721, -0.7944558, -0.6920197
 104005881, -7.184165, -0.3376152, -0.7953658, -0.6958804, -7.15648, -0.3246758, -0.7939996, -0.6956304
 104205801, -7.205541, -0.2412617, -0.7991294, -0.6941878, -7.184165, -0.3376152, -0.7953658, -0.6958804
 104406554, -7.167266, -0.2007679, -0.8012843, -0.6915621, -7.205541, -0.2412617, -0.7991294, -0.6941878
 104606474, -7.237166, -0.07509838, -0.8039742, -0.6903773, -7.167266, -0.2007679, -0.8012843, -0.6915621
 104806394, -6.191045, -3.916477, -0.3288947, -1.005831, -7.237166, -0.07509838, -0.8039742, -0.6903773
 105006314, -6.304508, -3.746811, -0.3447913, -1.002923, -6.191045, -3.916477, -0.3288947, -1.005831
 105206234, -6.715019, -2.814289, -0.4609642, -0.9546888, -6.304508, -3.746811, -0.3447913, -1.002923
 105406154, -7.084589, -0.8785003, -0.6692312, -0.8142246, -6.715019, -2.814289, -0.4609642, -0.9546888
 105606074, -6.963338, 1.111543, -0.8428584, -0.6245815, -7.084589, -0.8785003, -0.6692312, -0.8142246
 105805994, -6.409341, 2.298519, -0.9203795, -0.4916458, -6.963338, 1.111543, -0.8428584, -0.6245815
 106005914, -6.281106, 2.519851, -0.9342353, -0.4653614, -6.409341, 2.298519, -0.9203795, -0.4916458
 106205834, -6.528324, 2.094321, -0.9106168, -0.5243062, -6.281106, 2.519851, -0.9342353, -0.4653614
 106406587, -7.000865, 1.27709, -0.8607742, -0.6261646, -6.528324, 2.094321, -0.9106168, -0.5243062
 106606507, -7.320553, 0.3157693, -0.7984231, -0.7285627, -7.000865, 1.27709, -0.8607742, -0.6261646
 106806427, -7.540608, -0.2758506, -0.7558717, -0.7965384, -7.320553, 0.3157693, -0.7984231, -0.7285627
 107006347, -7.627386, -0.5281827, -0.7552922, -0.816468, -7.540608, -0.2758506, -0.7558717, -0.7965384
 107206267, -7.661709, -0.3354935, -0.7888957, -0.7979963, -7.627386, -0.5281827, -0.7552922, -0.816468
 107406187, -7.652388, 0.1744866, -0.835413, -0.7614703, -7.661709, -0.3354935, -0.7888957, -0.7979963
 107606107, -7.701323, 0.5374784, -0.8750445, -0.7277914, -7.652388, 0.1744866, -0.835413, -0.7614703
 107806027, -7.762393, 0.7015048, -0.8958519, -0.7118458, -7.701323, 0.5374784, -0.8750445, -0.7277914
 108005947, -7.763303, 0.6426653, -0.8973548, -0.7171571, -7.762393, 0.7015048, -0.8958519, -0.7118458
 108205867, -7.786188, 0.390459, -0.8872604, -0.7367436, -7.763303, 0.6426653, -0.8973548, -0.7171571
 108405787, -7.883559, 0.1452113, -0.8743771, -0.7580854, -7.786188, 0.390459, -0.8872604, -0.7367436
 108606540, -7.902845, 0.08281439, -0.864114, -0.7725232, -7.883559, 0.1452113, -0.8743771, -0.7580854
 108806460, -7.982477, 0.1213123, -0.863559, -0.7762493, -7.902845, 0.08281439, -0.864114, -0.7725232
 109006380, -8.028358, 0.1546079, -0.8703742, -0.7706757, -7.982477, 0.1213123, -0.863559, -0.7762493
 109206300, -7.942312, 0.2406138, -0.8786716, -0.7608054, -8.028358, 0.1546079, -0.8703742, -0.7706757
 109406220, -7.898121, 0.2165431, -0.887935, -0.7526674, -7.942312, 0.2406138, -0.8786716, -0.7608054
 109606140, -7.970182, 0.3362909, -0.8943784, -0.7478988, -7.898121, 0.2165431, -0.887935, -0.7526674
 109806060, -7.969645, 0.3493005, -0.894835, -0.7477486, -7.970182, 0.3362909, -0.8943784, -0.7478988
 110005980, -7.978934, 0.2983444, -0.8926386, -0.7508823, -7.969645, 0.3493005, -0.894835, -0.7477486
 110205900, -7.989673, 0.2506624, -0.88933, -0.7548048, -7.978934, 0.2983444, -0.8926386, -0.7508823
 110405820, -7.887865, 0.1942551, -0.8853588, -0.7578586, -7.989673, 0.2506624, -0.88933, -0.7548048
 110606573, -7.869024, 0.2572593, -0.8850023, -0.7588388, -7.887865, 0.1942551, -0.8853588, -0.7578586
 110806493, -7.859137, 0.2915051, -0.8853869, -0.7567714, -7.869024, 0.2572593, -0.8850023, -0.7588388
 111006413, -7.853202, 0.2948082, -0.8865015, -0.7536248, -7.859137, 0.2915051, -0.8853869, -0.7567714
 111206333, -7.830838, 0.4309733, -0.8875395, -0.750868, -7.853202, 0.2948082, -0.8865015, -0.7536248
 111406253, -7.829216, 0.4254717, -0.8881593, -0.749018, -7.830838, 0.4309733, -0.8875395, -0.750868
 111606173, -7.786674, 0.3589573, -0.8860089, -0.7471237, -7.829216, 0.4254717, -0.8881593, -0.749018
 111806093, -7.791512, 0.3953128, -0.884007, -0.7461678, -7.786674, 0.3589573, -0.8860089, -0.7471237
 112006013, -7.829821, 0.37186, -0.8821959, -0.7450861, -7.791512, 0.3953128, -0.884007, -0.7461678
 112205933, -7.856796, 0.4398961, -0.8806365, -0.7437906, -7.829821, 0.37186, -0.8821959, -0.7450861
 112405853, -7.818312, 0.3759825, -0.8776585, -0.7414834, -7.856796, 0.4398961, -0.8806365, -0.7437906
 112605773, -7.694251, 0.3195345, -0.8734987, -0.738803, -7.818312, 0.3759825, -0.8776585, -0.7414834
 112806526, -7.647596, 0.4509439, -0.870795, -0.7358388, -7.694251, 0.3195345, -0.8734987, -0.738803
 113006446, -7.714931, 0.5261498, -0.8694099, -0.7324006, -7.647596, 0.4509439, -0.870795, -0.7358388
 113206366, -7.622826, 0.4584169, -0.8652782, -0.7291523, -7.714931, 0.5261498, -0.8694099, -0.7324006
 113406286, -7.68129, 0.4225001, -0.8636828, -0.7263787, -7.622826, 0.4584169, -0.8652782, -0.7291523
 113606206, -7.678433, 0.5164758, -0.8604393, -0.7232484, -7.68129, 0.4225001, -0.8636828, -0.7263787
 113806126, -7.588277, 0.4239601, -0.8552817, -0.719898, -7.678433, 0.5164758, -0.8604393, -0.7232484
 114006046, -7.512537, 0.4055839, -0.8506826, -0.7167462, -7.588277, 0.4239601, -0.8552817, -0.719898
 114205966, -7.474179, 0.3603704, -0.8469457, -0.7137566, -7.512537, 0.4055839, -0.8506826, -0.7167462
 114405886, -7.523682, 0.3439309, -0.8451209, -0.7108678, -7.474179, 0.3603704, -0.8469457, -0.7137566
 114605806, -7.459771, 0.3875107, -0.8409895, -0.7078914, -7.523682, 0.3439309, -0.8451209, -0.7108678
 114806559, -7.40916, 0.4619354, -0.8369932, -0.7048572, -7.459771, 0.3875107, -0.8409895, -0.7078914
 115006479, -7.33509, 0.4127466, -0.8328009, -0.7019364, -7.40916, 0.4619354, -0.8369932, -0.7048572
 115206399, -7.349188, 0.3575234, -0.830294, -0.6992769, -7.33509, 0.4127466, -0.8328009, -0.7019364
 115406319, -7.317676, 0.4900789, -0.8271281, -0.6967526, -7.349188, 0.3575234, -0.830294, -0.6992769
 115606239, -7.387063, 0.4711351, -0.8256671, -0.6939176, -7.317676, 0.4900789, -0.8271281, -0.6967526
 115806159, -7.256327, 0.5366266, -0.821389, -0.691991, -7.387063, 0.4711351, -0.8256671, -0.6939176
 116006079, -7.226817, 0.5370522, -0.818241, -0.6893893, -7.256327, 0.5366266, -0.821389, -0.691991
 116205999, -7.284048, 0.5212646, -0.8166009, -0.6871152, -7.226817, 0.5370522, -0.818241, -0.6893893
 116405919, -7.214282, 0.4337037, -0.8132933, -0.685241, -7.284048, 0.5212646, -0.8166009, -0.6871152
 116605839, -7.099464, 0.3721564, -0.8092556, -0.6832216, -7.214282, 0.4337037, -0.8132933, -0.685241
 116806592, -7.027782, 0.35022, -0.8061839, -0.681371, -7.099464, 0.3721564, -0.8092556, -0.6832216
 117006512, -7.025674, 0.3612341, -0.8040642, -0.67946, -7.027782, 0.35022, -0.8061839, -0.681371
 117206432, -7.090478, 0.4649482, -0.803714, -0.678252, -7.025674, 0.3612341, -0.8040642, -0.67946
 117406352, -7.014365, 0.3584696, -0.8011858, -0.6776363, -7.090478, 0.4649482, -0.803714, -0.678252
 117606272, -7.019001, 0.3259928, -0.7997973, -0.6765023, -7.014365, 0.3584696, -0.8011858, -0.6776363
 117806192, -6.95983, 0.3391266, -0.7974328, -0.6751032, -7.019001, 0.3259928, -0.7997973, -0.6765023
 118006112, -6.974777, 0.4212408, -0.7970101, -0.6742666, -6.95983, 0.3391266, -0.7974328, -0.6751032
 118206032, -7.013105, 0.3459637, -0.7972847, -0.6736253, -6.974777, 0.4212408, -0.7970101, -0.6742666
 118405952, -7.031238, 0.3952379, -0.7975694, -0.6730884, -7.013105, 0.3459637, -0.7972847, -0.6736253
 118605872, -7.082306, 0.3456237, -0.7983783, -0.6727588, -7.031238, 0.3952379, -0.7975694, -0.6730884
 118805792, -7.003154, 0.399001, -0.795693, -0.6722245, -7.082306, 0.3456237, -0.7983783, -0.6727588
 119006545, -7.038822, 0.3196286, -0.7951159, -0.6716539, -7.003154, 0.399001, -0.795693, -0.6722245
 119206465, -6.989033, 0.3351615, -0.793772, -0.6712494, -7.038822, 0.3196286, -0.7951159, -0.6716539
 119406385, -6.900421, 0.3960195, -0.7919735, -0.6710904, -6.989033, 0.3351615, -0.793772, -0.6712494
 119606305, -6.945299, 0.3221785, -0.7927541, -0.6708285, -6.900421, 0.3960195, -0.7919735, -0.6710904
 119806225, -6.945069, 0.323316, -0.7928308, -0.6706825, -6.945299, 0.3221785, -0.7927541, -0.6708285
 120006145, -6.888434, 0.3650734, -0.7919405, -0.6706699, -6.945069, 0.323316, -0.7928308, -0.6706825
 120206065, -6.883907, 0.3727306, -0.7919462, -0.6707266, -6.888434, 0.3650734, -0.7919405, -0.6706699
 120405985, -6.936656, 0.4420516, -0.7933617, -0.6712294, -6.883907, 0.3727306, -0.7919462, -0.6707266
 120605905, -6.959698, 0.3655108, -0.7941292, -0.6716177, -6.936656, 0.4420516, -0.7933617, -0.6712294
 120805825, -6.939764, 0.3041493, -0.7952709, -0.6726412, -6.959698, 0.3655108, -0.7941292, -0.6716177
 121006578, -6.962089, 0.3472481, -0.7968296, -0.6728747, -6.939764, 0.3041493, -0.7952709, -0.6726412
 121206498, -6.998114, 0.3610158, -0.7980585, -0.6731142, -6.962089, 0.3472481, -0.7968296, -0.6728747
 121406418, -6.990882, 0.329111, -0.7981175, -0.6737489, -6.998114, 0.3610158, -0.7980585, -0.6731142
 121606338, -7.050619, 0.3338967, -0.7992423, -0.6743304, -6.990882, 0.329111, -0.7981175, -0.6737489
 121806258, -7.007578, 0.3568933, -0.7984321, -0.6748104, -7.050619, 0.3338967, -0.7992423, -0.6743304
 122006178, -7.004101, 0.3412205, -0.798857, -0.6748706, -7.007578, 0.3568933, -0.7984321, -0.6748104
 122206098, -7.014279, 0.3924581, -0.7997089, -0.6747553, -7.004101, 0.3412205, -0.798857, -0.6748706
 122406018, -7.036049, 0.3073148, -0.8006774, -0.6747519, -7.014279, 0.3924581, -0.7997089, -0.6747553
 122605938, -7.021986, 0.2673892, -0.8009325, -0.6748682, -7.036049, 0.3073148, -0.8006774, -0.6747519
 122805858, -6.913598, 0.3804273, -0.7993622, -0.6752506, -7.021986, 0.2673892, -0.8009325, -0.6748682
 123005778, -6.997492, 0.4175403, -0.8008422, -0.6757442, -6.913598, 0.3804273, -0.7993622, -0.6752506
 123206531, -7.041192, 0.3767817, -0.802889, -0.6775655, -6.997492, 0.4175403, -0.8008422, -0.6757442
 123406451, -6.98401, 0.3508892, -0.8032959, -0.6787141, -7.041192, 0.3767817, -0.802889, -0.6775655
 123606371, -7.007777, 0.3417284, -0.8048725, -0.6787469, -6.98401, 0.3508892, -0.8032959, -0.6787141
