TimeUS,COFN,COFE,CNe,CEe,POFN,POFE,PNe,PEe
 1900906, 0.03954164, 0.02363638, 0.0972841, 0.04849187, 0, 0, 0, 0
 1940890, -0.06015115, 0.01034272, 0.09733649, 0.04844565, 0.03954164, 0.02363638, 0.0972841, 0.04849187
 2040850, -0.0466357, 0.05738559, 0.09735626, 0.04847008, -0.06015115, 0.01034272, 0.09733649, 0.04844565
 2140810, 0.0693895, 0.05694862, 0.09735733, 0.04856318, -0.0466357, 0.05738559, 0.09735626, 0.04847008
 2240770, 0.02455873, 0.02850538, 0.09728568, 0.04846266, 0.0693895, 0.05694862, 0.09735733, 0.04856318
 2340730, -0.01388769, 0.01671005, 0.09728968, 0.04841987, 0.02455873, 0.02850538, 0.09728568, 0.04846266
 2440690, -0.0007730946, -0.0295585, 0.09729813, 0.04841769, -0.01388769, 0.01671005, 0.09728968, 0.04841987
 2540650, -0.06298292, 0.03242078, 0.09740889, 0.04834762, -0.0007730946, -0.0295585, 0.09729813, 0.04841769
 2640610, 0.03975889, -0.01237896, 0.09734762, 0.04834986, -0.06298292, 0.03242078, 0.09740889, 0.04834762
 2740570, 0.05591579, 0.02258874, 0.09737596, 0.04836298, 0.03975889, -0.01237896, 0.09734762, 0.04834986
 2840530, -0.04535958, -0.01094157, 0.09736561, 0.04832997, 0.05591579, 0.02258874, 0.09737596, 0.04836298
 2940490, 0.04126953, 0.0430842, 0.09737013, 0.04837189, -0.04535958, -0.01094157, 0.09736561, 0.04832997
 3040450, 0.0114157, -0.06232406, 0.09738462, 0.0483595, 0.04126953, 0.0430842, 0.09737013, 0.04837189
 3140410, 0.04402137, -0.02086678, 0.0973987, 0.0482705, 0.0114157, -0.06232406, 0.09738462, 0.0483595
 3240370, 0.01468283, -0.06398147, 0.09740126, 0.04833684, 0.04402137, -0.02086678, 0.0973987, 0.0482705
 3340330, 0.0407072, -0.001881741, 0.09739147, 0.04825874, 0.01468283, -0.06398147, 0.09740126, 0.04833684
 3440290, -0.06596764, 0.008326983, 0.09745565, 0.04823121, 0.0407072, -0.001881741, 0.09739147, 0.04825874
 3540250, 0.03580651, -0.02839672, 0.09740717, 0.04824289, -0.06596764, 0.008326983, 0.09745565, 0.04823121
 3640210, -0.04361824, 0.02494833, 0.09742211, 0.04822885, 0.03580651, -0.02839672, 0.09740717, 0.04824289
 3740170, 0.04987118, 0.05193241, 0.09742263, 0.04832607, -0.04361824, 0.02494833, 0.09742211, 0.04822885
 3840963, 0.06246472, 0.03381601, 0.09744398, 0.04827788, 0.04987118, 0.05193241, 0.09742263, 0.04832607
 3940923, 0.07634085, 0.05262671, 0.09748279, 0.04833075, 0.06246472, 0.03381601, 0.09744398, 0.04827788
 4040883, 0.05179339, 0.02598514, 0.09742476, 0.04825429, 0.07634085, 0.05262671, 0.09748279, 0.04833075
 4140843, -0.05210128, 0.06452478, 0.09749932, 0.04823382, 0.05179339, 0.02598514, 0.09742476, 0.04825429
 4240803, -0.03877478, 0.06994446, 0.09747653, 0.04826207, -0.05210128, 0.06452478, 0.09749932, 0.04823382
 4340763, 0.04948512, 0.02873357, 0.09742427, 0.0482522, -0.03877478, 0.06994446, 0.09747653, 0.04826207
 4440723, -0.03973648, 0.03899751, 0.09743994, 0.04821411, 0.04948512, 0.02873357, 0.09742427, 0.0482522
 4540683, 0.02227764, -0.02403282, 0.09740134, 0.0482171, -0.03973648, 0.03899751, 0.09743994, 0.04821411
 4640643, 0.08124856, 0.02952707, 0.09750402, 0.04824636, 0.02227764, -0.02403282, 0.09740134, 0.0482171
 4740603, 0.01047713, -0.04690319, 0.09740904, 0.04824728, 0.08124856, 0.02952707, 0.09750402, 0.04824636
 4840563, 0.0339134, -0.02952351, 0.09742352, 0.04820739, 0.01047713, -0.04690319, 0.09740904, 0.04824728
 4940523, -0.03830919, 0.07454967, 0.09748846, 0.04826121, 0.0339134, -0.02952351, 0.09742352, 0.04820739
 5040483, -0.01644444, -0.03043321, 0.09739324, 0.04823804, -0.03830919, 0.07454967, 0.09748846, 0.04826121
 5140443, -0.009602817, 0.0445398, 0.09740739, 0.048242, -0.01644444, -0.03043321, 0.09739324, 0.04823804
 5240403, 0.04172175, -0.05194729, 0.09746295, 0.04821713, -0.009602817, 0.0445398, 0.09740739, 0.048242
 5340363, 0.06223864, 0.00497886, 0.097461, 0.04820107, 0.04172175, -0.05194729, 0.09746295, 0.04821713
 5440323, 0.03855089, -0.06400883, 0.09747318, 0.0482388, 0.06223864, 0.00497886, 0.097461, 0.04820107
 5540283, -0.03125719, 0.02846594, 0.09742012, 0.04820558, 0.03855089, -0.06400883, 0.09747318, 0.0482388
 5640243, -0.02621726, 0.005652735, 0.09740156, 0.04820356, -0.03125719, 0.02846594, 0.09742012, 0.04820558
 5740203, 0.022492, 0.009633901, 0.09739608, 0.04821018, -0.02621726, 0.005652735, 0.09740156, 0.04820356
 5840163, -0.05454539, 0.01977127, 0.09746162, 0.04818011, 0.022492, 0.009633901, 0.09739608, 0.04821018
 5940956, 0.03884806, -0.03864961, 0.09744574, 0.04819877, -0.05454539, 0.01977127, 0.09746162, 0.04818011
 6040916, 0.02091915, -0.01022931, 0.09740041, 0.04819932, 0.03884806, -0.03864961, 0.09744574, 0.04819877
 6140876, 0.01599568, 0.02641968, 0.09739661, 0.04822222, 0.02091915, -0.01022931, 0.09740041, 0.04819932
 6240836, 0.02261427, 0.01572479, 0.09739866, 0.04821087, 0.01599568, 0.02641968, 0.09739661, 0.04822222
 6340796, -0.05329059, 0.05753476, 0.0975043, 0.04819683, 0.02261427, 0.01572479, 0.09739866, 0.04821087
 6440756, -0.02606918, -0.03781867, 0.09740802, 0.04824195, -0.05329059, 0.05753476, 0.0975043, 0.04819683
 6540716, -0.04209223, 0.03161923, 0.0974475, 0.04818667, -0.02606918, -0.03781867, 0.09740802, 0.04824195
 6640676, 0.03330881, 0.06391171, 0.09743135, 0.04830888, -0.04209223, 0.03161923, 0.0974475, 0.04818667
 6740636, -0.01182086, -0.07022172, 0.0974309, 0.04830519, 0.03330881, 0.06391171, 0.09743135, 0.04830888
 6840596, -0.07909179, -0.02802662, 0.09750742, 0.04822349, -0.01182086, -0.07022172, 0.0974309, 0.04830519
 6940556, -0.01872794, 0.02206923, 0.09740742, 0.04819607, -0.07909179, -0.02802662, 0.09750742, 0.04822349
 7040516, -0.07039333, -0.05083001, 0.09748572, 0.04828575, -0.01872794, 0.02206923, 0.09740742, 0.04819607
 7140476, 0.01652784, 0.04460325, 0.09740995, 0.04824369, -0.07039333, -0.05083001, 0.09748572, 0.04828575
 7240436, -0.05379092, -0.007703066, 0.09744954, 0.04818925, 0.01652784, 0.04460325, 0.09740995, 0.04824369
 7340396, 0.06820735, 0.05757042, 0.09748368, 0.04830565, -0.05379092, -0.007703066, 0.09744954, 0.04818925
 7440356, 0.06965271, 0.01607579, 0.09748521, 0.04819693, 0.06820735, 0.05757042, 0.09748368, 0.04830565
 7540316, -0.03489351, -0.05983734, 0.09743159, 0.04829373, 0.06965271, 0.01607579, 0.09748521, 0.04819693
 7640276, -0.03978672, 0.05930138, 0.09747749, 0.04821218, -0.03489351, -0.05983734, 0.09743159, 0.04829373
 7740236, -0.07551123, 0.008955814, 0.09751597, 0.04815957, -0.03978672, 0.05930138, 0.09747749, 0.04821218
 7840196, 3.176928E-05, -0.04935532, 0.09741388, 0.04824218, -0.07551123, 0.008955814, 0.09751597, 0.04815957
 7940156, -0.01807427, 0.04507902, 0.09742378, 0.04821932, 3.176928E-05, -0.04935532, 0.09741388, 0.04824218
 8040949, 0.003025366, 0.0204889, 0.09739479, 0.0482065, -0.01807427, 0.04507902, 0.09742378, 0.04821932
 8140909, 0.03769813, 0.002086398, 0.09741971, 0.04819301, 0.003025366, 0.0204889, 0.09739479, 0.0482065
 8240869, 0.03712897, 0.003965658, 0.09741831, 0.04819469, 0.03769813, 0.002086398, 0.09741971, 0.04819301
 8340829, -0.05627161, -0.05932753, 0.09745823, 0.04830974, 0.03712897, 0.003965658, 0.09741831, 0.04819469
 8440789, 0.05345029, -0.02227978, 0.09746525, 0.04817228, -0.05627161, -0.05932753, 0.09745823, 0.04830974
 8540749, 0.001941545, 0.06306195, 0.09742667, 0.04827344, 0.05345029, -0.02227978, 0.09746525, 0.04817228
 8640709, 0.003543037, -0.04803053, 0.09741509, 0.04823542, 0.001941545, 0.06306195, 0.09742667, 0.04827344
 8740669, -0.04130318, 0.05801275, 0.09747953, 0.04820703, 0.003543037, -0.04803053, 0.09741509, 0.04823542
 8840629, -0.05007657, -0.0003964575, 0.09744534, 0.04818126, -0.04130318, 0.05801275, 0.09747953, 0.04820703
 8940589, -0.04850523, 0.03336865, 0.09746745, 0.04817202, -0.05007657, -0.0003964575, 0.09744534, 0.04818126
 9040549, 0.02624585, -0.03455228, 0.09742884, 0.04819148, -0.04850523, 0.03336865, 0.09746745, 0.04817202
 9140509, -0.01134006, -0.04156853, 0.09741081, 0.04822694, 0.02624585, -0.03455228, 0.09742884, 0.04819148
 9240469, -0.02278749, -0.004849879, 0.09740739, 0.04818524, -0.01134006, -0.04156853, 0.09741081, 0.04822694
 9340429, 0.04234484, -0.09239623, 0.09754531, 0.04826852, -0.02278749, -0.004849879, 0.09740739, 0.04818524
 9440389, -0.02644728, 0.009150544, 0.09741529, 0.0481782, 0.04234484, -0.09239623, 0.09754531, 0.04826852
 9540349, -0.08941477, -0.03352976, 0.09754545, 0.04822347, -0.02644728, 0.009150544, 0.09741529, 0.0481782
 9640309, 0.01732413, 0.07418074, 0.0974419, 0.04831006, -0.08941477, -0.03352976, 0.09754545, 0.04822347
 9740269, 0.02358089, -0.05228766, 0.09744456, 0.04821178, 0.01732413, 0.07418074, 0.0974419, 0.04831006
 9840229, -0.03261517, 0.02782891, 0.09743438, 0.04817864, 0.02358089, -0.05228766, 0.09744456, 0.04821178
 9940189, 0.04817346, -0.02265761, 0.09745923, 0.04816524, -0.03261517, 0.02782891, 0.09743438, 0.04817864
 10040149, 0.03485405, -0.02889221, 0.09743881, 0.04817749, 0.04817346, -0.02265761, 0.09745923, 0.04816524
 10140942, 0.05841638, -0.01278195, 0.09747599, 0.0481588, 0.03485405, -0.02889221, 0.09743881, 0.04817749
 10240902, 0.06459924, 0.01909476, 0.0974763, 0.04819378, 0.05841638, -0.01278195, 0.09747599, 0.0481588
 10340862, -0.004130198, 0.07980905, 0.09745879, 0.04829754, 0.06459924, 0.01909476, 0.0974763, 0.04819378
 10440822, -0.0005899295, 0.04057133, 0.09741373, 0.04821331, -0.004130198, 0.07980905, 0.09745879, 0.04829754
 10540782, -0.04551199, 0.03125011, 0.09746253, 0.04816649, -0.0005899295, 0.04057133, 0.09741373, 0.04821331
 10640742, 0.006009545, 0.01059545, 0.09739984, 0.04818589, -0.04551199, 0.03125011, 0.09746253, 0.04816649
 10740702, 0.07657542, 0.03774521, 0.09750561, 0.04823633, 0.006009545, 0.01059545, 0.09739984, 0.04818589
 10840662, 0.03249033, -0.07677894, 0.09749392, 0.04824746, 0.07657542, 0.03774521, 0.09750561, 0.04823633
 10940622, 0.02809043, -0.06932156, 0.09747329, 0.04823898, 0.03249033, -0.07677894, 0.09749392, 0.04824746
 11040582, -0.005170672, 0.01475827, 0.09739962, 0.04818988, 0.02809043, -0.06932156, 0.09747329, 0.04823898
 11140542, 0.02742452, -0.006350845, 0.09741341, 0.04818232, -0.005170672, 0.01475827, 0.09739962, 0.04818988
 11240502, -0.0363911, 0.04918033, 0.09746038, 0.04819656, 0.02742452, -0.006350845, 0.09741341, 0.04818232
 11340462, -0.06554186, -0.01511761, 0.09747709, 0.0481917, -0.0363911, 0.04918033, 0.09746038, 0.04819656
 11440422, -0.04026156, -0.02966502, 0.0974263, 0.04821947, -0.06554186, -0.01511761, 0.09747709, 0.0481917
 11540382, -0.02718763, -0.02687947, 0.09741097, 0.04821203, -0.04026156, -0.02966502, 0.0974263, 0.04821947
 11640342, -0.02622543, -0.01744643, 0.09740858, 0.04819948, -0.02718763, -0.02687947, 0.09741097, 0.04821203
 11740302, 0.06040991, -0.001555288, 0.09747152, 0.04817065, -0.02622543, -0.01744643, 0.09740858, 0.04819948
 11840262, 0.008019947, 0.0186676, 0.09739929, 0.04819676, 0.06040991, -0.001555288, 0.09747152, 0.04817065
 11940222, 0.006381917, 0.03274353, 0.0974052, 0.04821078, 0.008019947, 0.0186676, 0.09739929, 0.04819676
 12040182, 0.03776342, -0.03384798, 0.09744765, 0.04817893, 0.006381917, 0.03274353, 0.0974052, 0.04821078
 12140975, -0.007157471, 0.02177584, 0.09740373, 0.04819199, 0.03776342, -0.03384798, 0.09744765, 0.04817893
 12240935, 0.04109458, 0.0063359, 0.09742966, 0.04818413, -0.007157471, 0.02177584, 0.09740373, 0.04819199
 12340895, 0.07101662, 0.03884717, 0.09748922, 0.04824222, 0.04109458, 0.0063359, 0.09742966, 0.04818413
 12440855, -0.0246932, 0.04180344, 0.09743363, 0.04819936, 0.07101662, 0.03884717, 0.09748922, 0.04824222
 12540815, 0.06611815, 0.02938798, 0.09747621, 0.04821978, -0.0246932, 0.04180344, 0.09743363, 0.04819936
 12640775, -0.01866643, 0.01556673, 0.09740748, 0.04818684, 0.06611815, 0.02938798, 0.09747621, 0.04821978
 12740735, -0.03961759, -0.05753253, 0.09743652, 0.0482868, -0.01866643, 0.01556673, 0.09740748, 0.04818684
 12840695, -0.07099721, -0.02108961, 0.09748839, 0.04820443, -0.03961759, -0.05753253, 0.09743652, 0.0482868
 12940655, -0.01161921, 0.008801519, 0.0973983, 0.04819139, -0.07099721, -0.02108961, 0.09748839, 0.04820443
 13040615, -0.0001577511, -0.063959, 0.09743011, 0.04827058, -0.01161921, 0.008801519, 0.0973983, 0.04819139
 13140575, 0.0843077, 0.02479725, 0.09752624, 0.04821065, -0.0001577511, -0.063959, 0.09743011, 0.04827058
 13240535, 0.006065285, 0.07389905, 0.09743914, 0.04830433, 0.0843077, 0.02479725, 0.09752624, 0.04821065
 13340495, -0.01483594, -0.007040865, 0.09739807, 0.04819399, 0.006065285, 0.07389905, 0.09743914, 0.04830433
 13440455, -0.01602776, -0.01865866, 0.09740034, 0.04820179, -0.01483594, -0.007040865, 0.09739807, 0.04819399
 13540415, 0.03403001, -0.03361683, 0.09743899, 0.04818596, -0.01602776, -0.01865866, 0.09740034, 0.04820179
 13640375, -0.04786285, -0.05737276, 0.09744737, 0.04829087, 0.03403001, -0.03361683, 0.09743899, 0.04818596
 13740335, -0.06633944, 0.01796848, 0.09749892, 0.0481549, -0.04786285, -0.05737276, 0.09744737, 0.04829087
 13840295, -0.04907598, 0.06753384, 0.0975145, 0.04820655, -0.06633944, 0.01796848, 0.09749892, 0.0481549
 13940255, -0.006164731, -0.02592652, 0.0974004, 0.04820555, -0.04907598, 0.06753384, 0.0975145, 0.04820655
 14040215, -0.0105014, -0.01004681, 0.09739725, 0.04819346, -0.006164731, -0.02592652, 0.0974004, 0.04820555
 14140175, 0.006267603, -0.01306556, 0.09739825, 0.04819139, -0.0105014, -0.01004681, 0.09739725, 0.04819346
 14240968, -0.04471406, -0.004031061, 0.09743509, 0.04818376, 0.006267603, -0.01306556, 0.09739825, 0.04819139
 14340928, -0.04842081, 0.0826943, 0.09754049, 0.04823587, -0.04471406, -0.004031061, 0.09743509, 0.04818376
 14440888, -0.05511289, 0.02714618, 0.09747909, 0.04815993, -0.04842081, 0.0826943, 0.09754049, 0.04823587
 14540848, 0.04130852, 0.02334298, 0.09742951, 0.04820375, -0.05511289, 0.02714618, 0.09747909, 0.04815993
 14640808, -0.05386423, -0.06031089, 0.09746228, 0.0482961, 0.04130852, 0.02334298, 0.09742951, 0.04820375
 14740768, 0.03191762, 0.06644784, 0.09744109, 0.04829806, -0.05386423, -0.06031089, 0.09746228, 0.0482961
 14840728, 0.04307428, -0.09257258, 0.09754933, 0.04826389, 0.03191762, 0.06644784, 0.09744109, 0.04829806
 14940688, -0.004374625, 0.07427716, 0.09745198, 0.04827985, 0.04307428, -0.09257258, 0.09754933, 0.04826389
 15040648, 0.08739755, 0.04997918, 0.09753946, 0.04827318, -0.004374625, 0.07427716, 0.09745198, 0.04827985
 15140608, -0.04094107, 0.02363756, 0.09744706, 0.04816768, 0.08739755, 0.04997918, 0.09753946, 0.04827318
 15240568, -0.02471269, -0.001127196, 0.09741153, 0.04817945, -0.04094107, 0.02363756, 0.09744706, 0.04816768
 15340528, 0.05702408, 0.00869439, 0.09746232, 0.04817726, -0.02471269, -0.001127196, 0.09741153, 0.04817945
 15440488, -0.06422028, 0.006718556, 0.09748824, 0.04815599, 0.05702408, 0.00869439, 0.09746232, 0.04817726
 15540448, -0.04120501, 0.01106187, 0.09743933, 0.04816796, -0.06422028, 0.006718556, 0.09748824, 0.04815599
 15640408, -0.03671926, 0.07952303, 0.09750898, 0.04824367, -0.04120501, 0.01106187, 0.09743933, 0.04816796
 15740368, 0.01495104, 0.01253576, 0.09740327, 0.04818757, -0.03671926, 0.07952303, 0.09750898, 0.04824367
 15840328, -0.01660527, -0.05039381, 0.09741979, 0.04824428, 0.01495104, 0.01253576, 0.09740327, 0.04818757
 15940288, -0.01972011, -0.03451812, 0.09741134, 0.04821565, -0.01660527, -0.05039381, 0.09741979, 0.04824428
 16040248, 0.02007055, -0.07351395, 0.09746809, 0.04825734, -0.01972011, -0.03451812, 0.09741134, 0.04821565
 16140208, -0.03956147, 0.07140595, 0.09750088, 0.04822277, 0.02007055, -0.07351395, 0.09746809, 0.04825734
 16240168, -0.06412221, -0.04034257, 0.0974741, 0.04824271, -0.03956147, 0.07140595, 0.09750088, 0.04822277
 16340961, -0.03689005, -0.04954146, 0.09743154, 0.0482575, -0.06412221, -0.04034257, 0.0974741, 0.04824271
 16440921, -0.03533805, 0.09013468, 0.09752375, 0.0482767, -0.03689005, -0.04954146, 0.09743154, 0.0482575
 16540881, 0.009824188, 0.03326771, 0.09740608, 0.04821233, -0.03533805, 0.09013468, 0.09752375, 0.0482767
 16640841, 0.05110769, -0.0419549, 0.09748468, 0.04817073, 0.009824188, 0.03326771, 0.09740608, 0.04821233
 16740801, -0.05883677, -0.04799162, 0.09746248, 0.04826711, 0.05110769, -0.0419549, 0.09748468, 0.04817073
 16840761, -0.02782074, 0.008499421, 0.0974144, 0.0481823, -0.05883677, -0.04799162, 0.09746248, 0.04826711
 16940721, 0.03090364, -0.004231186, 0.09741689, 0.04818195, -0.02782074, 0.008499421, 0.0974144, 0.0481823
 17040681, -0.02747001, 0.07708227, 0.09748335, 0.04825939, 0.03090364, -0.004231186, 0.09741689, 0.04818195
 17140641, 0.0128838, -0.03177249, 0.09741239, 0.04819857, -0.02747001, 0.07708227, 0.09748335, 0.04825939
 17240601, -0.02992231, -0.04303681, 0.09742023, 0.04824089, 0.0128838, -0.03177249, 0.09741239, 0.04819857
 17340561, -0.01058384, 0.02753326, 0.09740902, 0.04819405, -0.02992231, -0.04303681, 0.09742023, 0.04824089
 17440521, -0.006258504, -0.007519184, 0.0973989, 0.04818583, -0.01058384, 0.02753326, 0.09740902, 0.04819405
 17540481, -0.0560555, 0.0270424, 0.09748253, 0.04815656, -0.006258504, -0.007519184, 0.0973989, 0.04818583
 17640441, 0.063588, -0.01608607, 0.09749247, 0.04815235, -0.0560555, 0.0270424, 0.09748253, 0.04815656
 17740401, -0.01597475, -0.01023412, 0.09740286, 0.04818762, 0.063588, -0.01608607, 0.09749247, 0.04815235
 17840361, -0.03346531, 0.05404403, 0.09746286, 0.04820257, -0.01597475, -0.01023412, 0.09740286, 0.04818762
 17940321, 0.05398738, -0.06985969, 0.09753415, 0.04819734, -0.03346531, 0.05404403, 0.09746286, 0.04820257
 18040281, -0.04578888, 0.02966772, 0.0974602, 0.04816859, 0.05398738, -0.06985969, 0.09753415, 0.04819734
 18140241, -0.05458399, -0.02724267, 0.09745189, 0.04821298, -0.04578888, 0.02966772, 0.0974602, 0.04816859
 18240201, -0.07556283, -0.0467682, 0.09750277, 0.04826456, -0.05458399, -0.02724267, 0.09745189, 0.04821298
 18340161, -0.01247657, -0.03007693, 0.09740569, 0.04820783, -0.07556283, -0.0467682, 0.09750277, 0.04826456
 18440954, 0.08125889, 0.04052597, 0.09751903, 0.04824456, -0.01247657, -0.03007693, 0.09740569, 0.04820783
 18540914, -0.03042075, 0.05493542, 0.0974593, 0.04820618, 0.08125889, 0.04052597, 0.09751903, 0.04824456
 18640874, 0.06282295, 0.05602501, 0.09747685, 0.04828689, -0.03042075, 0.05493542, 0.0974593, 0.04820618
 18740834, 0.02179881, -0.03379644, 0.09742578, 0.04818784, 0.06282295, 0.05602501, 0.09747685, 0.04828689
 18840794, -0.03788212, 0.04756542, 0.09746488, 0.04818581, 0.02179881, -0.03379644, 0.09742578, 0.04818784
 18940754, -0.004152641, 0.06496673, 0.09743964, 0.04825678, -0.03788212, 0.04756542, 0.09746488, 0.04818581
 19040714, 0.009329047, 0.01560011, 0.09740181, 0.04818867, -0.004152641, 0.06496673, 0.09743964, 0.04825678
 19140674, 0.004978975, -0.058172, 0.09743234, 0.04824088, 0.009329047, 0.01560011, 0.09740181, 0.04818867
 19240634, 0.03161545, -0.07780677, 0.09749525, 0.04824859, 0.004978975, -0.058172, 0.09743234, 0.04824088
 19340594, 0.01181183, -0.05860441, 0.0974387, 0.04823416, 0.03161545, -0.07780677, 0.09749525, 0.04824859
 19440554, 0.0777507, 0.02790029, 0.09739204, 0.04844813, 0.01181183, -0.05860441, 0.0974387, 0.04823416
 19540514, 0.05057649, -0.00792749, 0.09719519, 0.04868808, 0.0777507, 0.02790029, 0.09739204, 0.04844813
 19640474, -0.02166084, 0.03301463, 0.09695947, 0.04911727, 0.05057649, -0.00792749, 0.09719519, 0.04868808
 19740434, 0.05923494, 0.02466232, 0.09673355, 0.04965273, -0.02166084, 0.03301463, 0.09695947, 0.04911727
 19840394, -0.003364877, -0.03779807, 0.09636129, 0.05027647, 0.05923494, 0.02466232, 0.09673355, 0.04965273
 19940354, 0.02008295, 0.06441102, 0.09601963, 0.05103485, -0.003364877, -0.03779807, 0.09636129, 0.05027647
 20040314, -0.03921508, -0.05700655, 0.09563201, 0.05176566, 0.02008295, 0.06441102, 0.09601963, 0.05103485
 20140274, -0.007909479, 0.04884936, 0.09519628, 0.05248323, -0.03921508, -0.05700655, 0.09563201, 0.05176566
 20240234, 0.05194516, 0.02015566, 0.09478936, 0.0532366, -0.007909479, 0.04884936, 0.09519628, 0.05248323
 20340194, -0.01731801, -0.0005016122, 0.09430086, 0.05400467, 0.05194516, 0.02015566, 0.09478936, 0.0532366
 20440154, 0.05574952, 0.06209095, 0.09391447, 0.05489081, -0.01731801, -0.0005016122, 0.09430086, 0.05400467
 20540947, 0.07243466, 0.01865103, 0.093511, 0.05553143, 0.05574952, 0.06209095, 0.09391447, 0.05489081
 20640907, -0.008296523, 0.04735775, 0.09299114, 0.05629369, 0.07243466, 0.01865103, 0.093511, 0.05553143
 20740867, 0.04378376, -0.0834986, 0.0926604, 0.05704252, -0.008296523, 0.04735775, 0.09299114, 0.05629369
 20840827, 0.3392579, -0.03013036, 0.09467622, 0.0570826, 0.04378376, -0.0834986, 0.0926604, 0.05704252
 20940787, 0.6096464, -0.1951822, 0.1004526, 0.05638701, 0.3392579, -0.03013036, 0.09467622, 0.0570826
 21040747, 0.9880143, -0.1925157, 0.1115987, 0.05449332, 0.6096464, -0.1951822, 0.1004526, 0.05638701
 21140707, 1.500789, -0.3397488, 0.1330106, 0.05065125, 0.9880143, -0.1925157, 0.1115987, 0.05449332
 21240667, 2.150982, -0.3889008, 0.1637452, 0.04520122, 1.500789, -0.3397488, 0.1330106, 0.05065125
 21340627, 2.997447, -0.5406127, 0.2085817, 0.03728944, 2.150982, -0.3889008, 0.1637452, 0.04520122
 21440587, 3.693847, -0.7345852, 0.2478305, 0.03090937, 2.997447, -0.5406127, 0.2085817, 0.03728944
 21540547, 4.728426, -0.8940392, 0.3063288, 0.02143536, 3.693847, -0.7345852, 0.2478305, 0.03090937
 21640507, 5.667853, -1.039962, 0.3602598, 0.01345459, 4.728426, -0.8940392, 0.3063288, 0.02143536
 21740467, 6.757704, -1.195827, 0.4232405, 0.004706845, 5.667853, -1.039962, 0.3602598, 0.01345459
 21840427, 7.811454, -1.309934, 0.4840759, -0.002913125, 6.757704, -1.195827, 0.4232405, 0.004706845
 21940387, 8.730293, -1.400325, 0.5371322, -0.008057542, 7.811454, -1.309934, 0.4840759, -0.002913125
 22040347, 9.644149, -1.469066, 0.589757, -0.01236334, 8.730293, -1.400325, 0.5371322, -0.008057542
 22140307, 10.60641, -1.590872, 0.6456707, -0.01590368, 9.644149, -1.469066, 0.589757, -0.01236334
 22240267, 11.31704, -1.598278, 0.6860723, -0.01664005, 10.60641, -1.590872, 0.6456707, -0.01590368
 22340227, 12.16641, -1.511659, 0.7329286, -0.01678592, 11.31704, -1.598278, 0.6860723, -0.01664005
 22440187, 12.99038, -1.667236, 0.7778845, -0.01566628, 12.16641, -1.511659, 0.7329286, -0.01678592
 22540147, 13.68283, -1.569092, 0.8146902, -0.01363251, 12.99038, -1.667236, 0.7778845, -0.01566628
 22640940, 14.19594, -1.557086, 0.8424969, -0.0107453, 13.68283, -1.569092, 0.8146902, -0.01363251
 22740900, 15.09845, -1.581463, 0.8911694, -0.009250358, 14.19594, -1.557086, 0.8424969, -0.0107453
 22840860, 15.88344, -1.551113, 0.9254357, -0.004474342, 15.09845, -1.581463, 0.8911694, -0.009250358
 22940820, 16.29266, -1.494809, 0.9302205, 0.004964694, 15.88344, -1.551113, 0.9254357, -0.004474342
 23040780, 16.56692, -1.442854, 0.9221422, 0.01838785, 16.29266, -1.494809, 0.9302205, 0.004964694
 23140740, 16.98314, -1.334323, 0.920285, 0.03415397, 16.56692, -1.442854, 0.9221422, 0.01838785
 23240700, 17.57499, -1.215209, 0.9307262, 0.05299394, 16.98314, -1.334323, 0.920285, 0.03415397
 23340660, 18.04271, -1.234371, 0.9407112, 0.07078878, 17.57499, -1.215209, 0.9307262, 0.05299394
 23440620, 18.51843, -1.348085, 0.9557121, 0.08900102, 18.04271, -1.234371, 0.9407112, 0.07078878
 23540580, 19.05344, -1.434289, 0.9756919, 0.1092275, 18.51843, -1.348085, 0.9557121, 0.08900102
 23640540, 19.50306, -1.407624, 0.9929618, 0.1279749, 19.05344, -1.434289, 0.9756919, 0.1092275
 23740500, 19.85363, -1.192228, 1.006564, 0.146808, 19.50306, -1.407624, 0.9929618, 0.1279749
 23840460, 19.86624, -1.139118, 1.006422, 0.1668268, 19.85363, -1.192228, 1.006564, 0.146808
 23940420, 20.02866, -1.273028, 1.015948, 0.1856188, 19.86624, -1.139118, 1.006422, 0.1668268
 24040380, 20.06242, -1.184429, 1.020465, 0.2033351, 20.02866, -1.273028, 1.015948, 0.1856188
 24140340, 20.21337, -1.58646, 1.032814, 0.2206111, 20.06242, -1.184429, 1.020465, 0.2033351
 24240300, 20.67612, -1.746683, 1.058456, 0.2407614, 20.21337, -1.58646, 1.032814, 0.2206111
 24340260, 20.3054, -1.577581, 1.045867, 0.2652226, 20.67612, -1.746683, 1.058456, 0.2407614
 24440220, 20.75829, -0.972237, 1.070867, 0.2870699, 20.3054, -1.577581, 1.045867, 0.2652226
 24540180, 20.94345, -1.296301, 1.08891, 0.3063283, 20.75829, -0.972237, 1.070867, 0.2870699
 24640973, 20.54816, -1.51035, 1.082003, 0.3275717, 20.94345, -1.296301, 1.08891, 0.3063283
 24740933, 20.36466, -1.241253, 1.083843, 0.3473212, 20.54816, -1.51035, 1.082003, 0.3275717
 24840893, 20.80203, -1.146312, 1.113776, 0.3636933, 20.36466, -1.241253, 1.083843, 0.3473212
 24940853, 20.26594, -1.617585, 1.103203, 0.3836258, 20.80203, -1.146312, 1.113776, 0.3636933
 25040813, 20.18315, -1.546642, 1.110692, 0.4027682, 20.26594, -1.617585, 1.103203, 0.3836258
 25140773, 20.73173, -1.408541, 1.144696, 0.4208316, 20.18315, -1.546642, 1.110692, 0.4027682
 25240733, 20.22851, -1.135225, 1.134104, 0.4426324, 20.73173, -1.408541, 1.144696, 0.4208316
 25340693, 20.51245, -1.932812, 1.160516, 0.460876, 20.22851, -1.135225, 1.134104, 0.4426324
 25440653, 20.45406, -1.366403, 1.16926, 0.4788288, 20.51245, -1.932812, 1.160516, 0.460876
 25540613, 20.13966, -1.296725, 1.169779, 0.497579, 20.45406, -1.366403, 1.16926, 0.4788288
 25640573, 20.76925, -1.200498, 1.209161, 0.5130029, 20.13966, -1.296725, 1.169779, 0.497579
 25740533, 20.66573, -1.037424, 1.218662, 0.5298938, 20.76925, -1.200498, 1.209161, 0.5130029
 25840493, 20.03501, -1.929384, 1.210805, 0.5474887, 20.66573, -1.037424, 1.218662, 0.5298938
 25940453, 19.98017, -2.038812, 1.22451, 0.5627848, 20.03501, -1.929384, 1.210805, 0.5474887
 26040413, 20.31924, -1.550644, 1.251872, 0.5764897, 19.98017, -2.038812, 1.22451, 0.5627848
 26140373, 19.264, -1.883775, 1.228096, 0.5940528, 20.31924, -1.550644, 1.251872, 0.5764897
 26240333, 19.37408, -1.484989, 1.246101, 0.6066352, 19.264, -1.883775, 1.228096, 0.5940528
 26340293, 19.10012, -1.944427, 1.25303, 0.6144014, 19.37408, -1.484989, 1.246101, 0.6066352
 26440253, 17.45748, -2.392321, 1.209032, 0.6266552, 19.10012, -1.944427, 1.25303, 0.6144014
 26540213, 18.44365, -1.995701, 1.250436, 0.6498847, 17.45748, -2.392321, 1.209032, 0.6266552
 26640173, 17.98235, -3.210541, 1.240201, 0.71825, 18.44365, -1.995701, 1.250436, 0.6498847
 26740966, 18.75048, -2.545751, 1.272499, 0.8025315, 17.98235, -3.210541, 1.240201, 0.71825
 26840926, 17.79501, -2.337405, 1.297001, 0.892189, 18.75048, -2.545751, 1.272499, 0.8025315
 26940886, 18.59544, -1.28315, 1.406853, 0.9519721, 17.79501, -2.337405, 1.297001, 0.892189
 27040846, 19.48452, -1.782517, 1.540484, 0.9475561, 18.59544, -1.28315, 1.406853, 0.9519721
 27140806, 19.35307, -3.877032, 1.630158, 0.8460952, 19.48452, -1.782517, 1.540484, 0.9475561
 27240766, 19.36183, -6.228078, 1.673638, 0.691049, 19.35307, -3.877032, 1.630158, 0.8460952
 27340726, 21.00108, -8.095563, 1.712712, 0.514093, 19.36183, -6.228078, 1.673638, 0.691049
 27440686, 19.66219, -8.004189, 1.680789, 0.3844198, 21.00108, -8.095563, 1.712712, 0.514093
 27540646, 18.38087, -10.73437, 1.670052, 0.2550844, 19.66219, -8.004189, 1.680789, 0.3844198
 27640606, 18.97893, -11.46637, 1.6822, 0.1476835, 18.38087, -10.73437, 1.670052, 0.2550844
 27740566, 18.39659, -11.83412, 1.676358, 0.06950283, 18.97893, -11.46637, 1.6822, 0.1476835
 27840526, 17.33004, -11.93318, 1.664021, 0.004792094, 18.39659, -11.83412, 1.676358, 0.06950283
 27940486, 17.03135, -13.36095, 1.675112, -0.08009422, 17.33004, -11.93318, 1.664021, 0.004792094
 28040446, 14.41056, -14.22496, 1.650237, -0.134201, 17.03135, -13.36095, 1.675112, -0.08009422
 28140406, 15.72664, -14.32036, 1.664756, -0.2193965, 14.41056, -14.22496, 1.650237, -0.134201
 28240366, 15.01898, -15.52252, 1.661166, -0.2996435, 15.72664, -14.32036, 1.664756, -0.2193965
 28340326, 14.21802, -15.50157, 1.642095, -0.3603614, 15.01898, -15.52252, 1.661166, -0.2996435
 28440286, 13.62343, -17.24551, 1.638518, -0.448486, 14.21802, -15.50157, 1.642095, -0.3603614
 28540246, 13.14697, -17.09371, 1.615361, -0.5038354, 13.62343, -17.24551, 1.638518, -0.448486
 28640206, 11.92329, -17.66823, 1.589739, -0.558926, 13.14697, -17.09371, 1.615361, -0.5038354
 28740166, 11.34662, -16.75223, 1.558172, -0.5895811, 11.92329, -17.66823, 1.589739, -0.558926
 28840959, 10.53426, -16.33821, 1.531857, -0.6225216, 11.34662, -16.75223, 1.558172, -0.5895811
 28940919, 10.32983, -17.64952, 1.526247, -0.6915804, 10.53426, -16.33821, 1.531857, -0.6225216
 29040879, 9.130113, -18.83592, 1.514104, -0.7480884, 10.32983, -17.64952, 1.526247, -0.6915804
 29140839, 8.656365, -18.4152, 1.491222, -0.7765906, 9.130113, -18.83592, 1.514104, -0.7480884
 29240799, 7.397473, -18.27995, 1.472664, -0.8029741, 8.656365, -18.4152, 1.491222, -0.7765906
 29340759, 7.107071, -18.2188, 1.475546, -0.8431947, 7.397473, -18.27995, 1.472664, -0.8029741
 29440719, 5.58775, -18.05064, 1.518915, -0.8832512, 7.107071, -18.2188, 1.475546, -0.8431947
 29540679, 5.131538, -18.47242, 1.612325, -0.9680705, 5.58775, -18.05064, 1.518915, -0.8832512
 29640639, 5.419501, -19.22701, 1.71246, -1.083472, 5.131538, -18.47242, 1.612325, -0.9680705
 29740599, 6.316997, -18.99794, 1.777796, -1.195607, 5.419501, -19.22701, 1.71246, -1.083472
 29840559, 3.629741, -20.40721, 1.777892, -1.317613, 6.316997, -18.99794, 1.777796, -1.195607
 29940519, 3.542185, -21.45796, 1.722537, -1.425949, 3.629741, -20.40721, 1.777892, -1.317613
 30040479, 3.092275, -22.18328, 1.632204, -1.507149, 3.542185, -21.45796, 1.722537, -1.425949
 30140439, 1.922414, -21.63474, 1.524651, -1.550626, 3.092275, -22.18328, 1.632204, -1.507149
 30240399, 1.429137, -21.93894, 1.424136, -1.598478, 1.922414, -21.63474, 1.524651, -1.550626
 30340359, 0.7264789, -20.45955, 1.334436, -1.607287, 1.429137, -21.93894, 1.424136, -1.598478
 30440319, -0.7869223, -19.64975, 1.255915, -1.62797, 0.7264789, -20.45955, 1.334436, -1.607287
 30540279, -1.147362, -20.34126, 1.185677, -1.677098, -0.7869223, -19.64975, 1.255915, -1.62797
 30640239, -1.031673, -20.07215, 1.125139, -1.705175, -1.147362, -20.34126, 1.185677, -1.677098
 30740199, -3.469153, -18.08983, 1.062751, -1.7071, -1.031673, -20.07215, 1.125139, -1.705175
 30840159, -2.842953, -20.08372, 0.9962303, -1.770101, -3.469153, -18.08983, 1.062751, -1.7071
 30940952, -4.417451, -18.55503, 0.9326582, -1.771798, -2.842953, -20.08372, 0.9962303, -1.770101
 31040912, -3.671252, -18.59837, 0.8690646, -1.790781, -4.417451, -18.55503, 0.9326582, -1.771798
 31140872, -4.134809, -18.44542, 0.8002528, -1.808252, -3.671252, -18.59837, 0.8690646, -1.790781
 31240832, -5.541872, -19.19486, 0.719013, -1.844309, -4.134809, -18.44542, 0.8002528, -1.808252
 31340792, -5.1071, -17.07747, 0.6629947, -1.816915, -5.541872, -19.19486, 0.719013, -1.844309
 31440752, -8.165726, -18.02855, 0.5727659, -1.862266, -5.1071, -17.07747, 0.6629947, -1.816915
 31540712, -6.733133, -18.13452, 0.509249, -1.859699, -8.165726, -18.02855, 0.5727659, -1.862266
 31640672, -8.930884, -17.24288, 0.4339898, -1.863228, -6.733133, -18.13452, 0.509249, -1.859699
 31740632, -8.391423, -15.72017, 0.3805209, -1.832393, -8.930884, -17.24288, 0.4339898, -1.863228
 31840592, -9.506357, -15.38349, 0.3088216, -1.833751, -8.391423, -15.72017, 0.3805209, -1.832393
 31940552, -8.042447, -15.06164, 0.2544987, -1.810154, -9.506357, -15.38349, 0.3088216, -1.833751
 32040512, -9.144167, -14.07468, 0.1875531, -1.794402, -8.042447, -15.06164, 0.2544987, -1.810154
 32140472, -10.90234, -14.16391, 0.1071277, -1.799588, -9.144167, -14.07468, 0.1875531, -1.794402
 32240432, -10.10945, -14.0586, 0.05071682, -1.774973, -10.90234, -14.16391, 0.1071277, -1.799588
 32340392, -10.63473, -13.08279, -0.008029521, -1.749057, -10.10945, -14.0586, 0.05071682, -1.774973
 32440352, -10.90631, -14.22076, -0.08142835, -1.747955, -10.63473, -13.08279, -0.008029521, -1.749057
 32540312, -11.47981, -13.84738, -0.1424729, -1.726193, -10.90631, -14.22076, -0.08142835, -1.747955
 32640272, -11.09259, -11.83484, -0.1734502, -1.671998, -11.47981, -13.84738, -0.1424729, -1.726193
 32740232, -11.65664, -12.0274, -0.2374367, -1.655165, -11.09259, -11.83484, -0.1734502, -1.671998
 32840192, -13.50729, -11.93313, -0.3172023, -1.645712, -11.65664, -12.0274, -0.2374367, -1.655165
 32940152, -12.39464, -11.51352, -0.3476551, -1.599273, -13.50729, -11.93313, -0.3172023, -1.645712
 33040945, -14.17041, -10.07407, -0.4122471, -1.572871, -12.39464, -11.51352, -0.3476551, -1.599273
 33140905, -14.24363, -10.05476, -0.4633867, -1.544588, -14.17041, -10.07407, -0.4122471, -1.572871
 33240865, -14.98687, -9.605893, -0.5200213, -1.52178, -14.24363, -10.05476, -0.4633867, -1.544588
 33340825, -14.89103, -8.96416, -0.5578948, -1.486698, -14.98687, -9.605893, -0.5200213, -1.52178
 33440785, -15.47508, -8.199685, -0.6053338, -1.459311, -14.89103, -8.96416, -0.5578948, -1.486698
 33540745, -14.88507, -9.105767, -0.644058, -1.430095, -15.47508, -8.199685, -0.6053338, -1.459311
 33640705, -15.3108, -7.110476, -0.6732856, -1.390635, -14.88507, -9.105767, -0.644058, -1.430095
 33740665, -15.04285, -7.309199, -0.7090194, -1.358154, -15.3108, -7.110476, -0.6732856, -1.390635
 33840625, -15.91747, -6.680797, -0.7604676, -1.330938, -15.04285, -7.309199, -0.7090194, -1.358154
 33940585, -16.67917, -6.291438, -0.8117079, -1.3039, -15.91747, -6.680797, -0.7604676, -1.330938
 34040545, -16.85766, -6.606199, -0.8524536, -1.272727, -16.67917, -6.291438, -0.8117079, -1.3039
 34140505, -17.10125, -5.341321, -0.8796341, -1.234451, -16.85766, -6.606199, -0.8524536, -1.272727
 34240465, -15.95954, -5.336277, -0.8775102, -1.190003, -17.10125, -5.341321, -0.8796341, -1.234451
 34340425, -16.14419, -4.622468, -0.9032554, -1.153379, -15.95954, -5.336277, -0.8775102, -1.190003
 34440385, -17.11429, -4.463346, -0.9537972, -1.12383, -16.14419, -4.622468, -0.9032554, -1.153379
 34540345, -17.81397, -4.263746, -0.9971929, -1.091164, -17.11429, -4.463346, -0.9537972, -1.12383
 34640305, -16.80753, -3.610521, -0.9848262, -1.047041, -17.81397, -4.263746, -0.9971929, -1.091164
 34740265, -17.9544, -4.152428, -1.043315, -1.019704, -16.80753, -3.610521, -0.9848262, -1.047041
 34840225, -18.07992, -2.285344, -1.056831, -0.9802931, -17.9544, -4.152428, -1.043315, -1.019704
 34940185, -17.75835, -3.019667, -1.06602, -0.9450853, -18.07992, -2.285344, -1.056831, -0.9802931
 35040145, -17.25454, -1.646446, -1.060372, -0.9055339, -17.75835, -3.019667, -1.06602, -0.9450853
 35140938, -18.18245, -2.519525, -1.109079, -0.8755047, -17.25454, -1.646446, -1.060372, -0.9055339
 35240898, -18.31878, -1.106884, -1.12337, -0.8397748, -18.18245, -2.519525, -1.109079, -0.8755047
 35340858, -17.35965, -0.8833821, -1.100741, -0.8061456, -18.31878, -1.106884, -1.12337, -0.8397748
 35440818, -18.15578, -1.348978, -1.139161, -0.7779336, -17.35965, -0.8833821, -1.100741, -0.8061456
 35540778, -17.40066, -0.5022466, -1.119284, -0.745702, -18.15578, -1.348978, -1.139161, -0.7779336
 35640738, -17.8362, 0.08756667, -1.142713, -0.7161419, -17.40066, -0.5022466, -1.119284, -0.745702
 35740698, -18.59725, 0.4163873, -1.17907, -0.6860772, -17.8362, 0.08756667, -1.142713, -0.7161419
 35840658, -17.97783, 0.8107507, -1.162306, -0.6582596, -18.59725, 0.4163873, -1.17907, -0.6860772
 35940618, -19.00244, 0.5501121, -1.206495, -0.6298284, -17.97783, 0.8107507, -1.162306, -0.6582596
 36040578, -18.95405, 1.582534, -1.211615, -0.6030659, -19.00244, 0.5501121, -1.206495, -0.6298284
 36140538, -19.1678, 1.469036, -1.22388, -0.5771751, -18.95405, 1.582534, -1.211615, -0.6030659
 36240498, -18.75371, 2.170642, -1.213038, -0.5539699, -19.1678, 1.469036, -1.22388, -0.5771751
 36340458, -18.46032, 1.357932, -1.199944, -0.5339749, -18.75371, 2.170642, -1.213038, -0.5539699
 36440418, -18.5327, 2.175966, -1.207336, -0.5112787, -18.46032, 1.357932, -1.199944, -0.5339749
 36540378, -18.68242, 2.628801, -1.21593, -0.4915594, -18.5327, 2.175966, -1.207336, -0.5112787
 36640338, -18.62105, 1.699332, -1.2082, -0.4760904, -18.68242, 2.628801, -1.21593, -0.4915594
 36740298, -18.17985, 2.573897, -1.195003, -0.458581, -18.62105, 1.699332, -1.2082, -0.4760904
 36840258, -18.59372, 2.317707, -1.208925, -0.4406841, -18.17985, 2.573897, -1.195003, -0.458581
 36940218, -18.96202, 2.529346, -1.223136, -0.422295, -18.59372, 2.317707, -1.208925, -0.4406841
 37040178, -18.78864, 3.23504, -1.218772, -0.4066926, -18.96202, 2.529346, -1.223136, -0.422295
 37140971, -18.94042, 2.908373, -1.220648, -0.3925902, -18.78864, 3.23504, -1.218772, -0.4066926
 37240931, -18.7923, 3.171131, -1.213786, -0.3794644, -18.94042, 2.908373, -1.220648, -0.3925902
 37340891, -18.62754, 3.194192, -1.204281, -0.3683823, -18.7923, 3.171131, -1.213786, -0.3794644
 37440851, -19.45584, 3.962712, -1.241105, -0.3495269, -18.62754, 3.194192, -1.204281, -0.3683823
 37540811, -18.96761, 4.135469, -1.218594, -0.3437397, -19.45584, 3.962712, -1.241105, -0.3495269
 37640771, -18.78034, 3.197359, -1.199329, -0.3398811, -18.96761, 4.135469, -1.218594, -0.3437397
 37740731, -19.46908, 3.78417, -1.227945, -0.3245279, -18.78034, 3.197359, -1.199329, -0.3398811
 37840691, -19.75226, 3.894654, -1.236507, -0.3149784, -19.46908, 3.78417, -1.227945, -0.3245279
 37940651, -19.84308, 3.569728, -1.233421, -0.3086001, -19.75226, 3.894654, -1.236507, -0.3149784
 38040611, -19.20522, 4.05759, -1.207009, -0.3056581, -19.84308, 3.569728, -1.233421, -0.3086001
 38140571, -19.63776, 4.573476, -1.225095, -0.2950948, -19.20522, 4.05759, -1.207009, -0.3056581
 38240531, -19.06, 4.559196, -1.196648, -0.2945909, -19.63776, 4.573476, -1.225095, -0.2950948
 38340491, -19.72878, 4.273707, -1.217285, -0.2850013, -19.06, 4.559196, -1.196648, -0.2945909
 38440451, -19.52678, 4.52652, -1.20643, -0.2837149, -19.72878, 4.273707, -1.217285, -0.2850013
 38540411, -19.8428, 3.880911, -1.209171, -0.2784861, -19.52678, 4.52652, -1.20643, -0.2837149
 38640371, -19.45458, 3.936561, -1.188947, -0.2776813, -19.8428, 3.880911, -1.209171, -0.2784861
 38740331, -19.32813, 4.536469, -1.184529, -0.2754973, -19.45458, 3.936561, -1.188947, -0.2776813
 38840291, -19.26455, 3.894325, -1.171608, -0.2740156, -19.32813, 4.536469, -1.184529, -0.2754973
 38940251, -19.86079, 4.323845, -1.196445, -0.2659738, -19.26455, 3.894325, -1.171608, -0.2740156
 39040211, -19.61795, 3.860685, -1.178054, -0.2668696, -19.86079, 4.323845, -1.196445, -0.2659738
 39140171, -19.72755, 3.976132, -1.179302, -0.2650663, -19.61795, 3.860685, -1.178054, -0.2668696
 39240964, -19.68261, 3.654236, -1.170486, -0.2663074, -19.72755, 3.976132, -1.179302, -0.2650663
 39340924, -19.72552, 3.765317, -1.169302, -0.2660238, -19.68261, 3.654236, -1.170486, -0.2663074
 39440884, -19.67051, 3.955477, -1.164847, -0.2670003, -19.72552, 3.765317, -1.169302, -0.2660238
 39540844, -19.99554, 4.195187, -1.177283, -0.2664109, -19.67051, 3.955477, -1.164847, -0.2670003
 39640804, -19.39905, 3.655322, -1.144033, -0.2734129, -19.99554, 4.195187, -1.177283, -0.2664109
 39740764, -19.31054, 3.899053, -1.139083, -0.2753317, -19.39905, 3.655322, -1.144033, -0.2734129
 39840724, -19.64172, 3.596189, -1.147876, -0.2747506, -19.31054, 3.899053, -1.139083, -0.2753317
 39940684, -19.76638, 3.291301, -1.152722, -0.2681343, -19.64172, 3.596189, -1.147876, -0.2747506
 40040644, -18.83373, 4.39376, -1.131336, -0.2511079, -19.76638, 3.291301, -1.152722, -0.2681343
 40140604, -19.1772, 5.22762, -1.16004, -0.2265312, -18.83373, 4.39376, -1.131336, -0.2511079
 40240564, -18.54698, 5.171434, -1.123069, -0.2270307, -19.1772, 5.22762, -1.16004, -0.2265312
 40340524, -17.8789, 4.835108, -1.072342, -0.2465712, -18.54698, 5.171434, -1.123069, -0.2270307
 40440484, -17.657, 4.604307, -1.043716, -0.266008, -17.8789, 4.835108, -1.072342, -0.2465712
 40540444, -18.30511, 3.841671, -1.053895, -0.2655875, -17.657, 4.604307, -1.043716, -0.266008
 40640404, -17.85466, 3.89226, -1.040396, -0.2553342, -18.30511, 3.841671, -1.053895, -0.2655875
 40740364, -17.88667, 3.368632, -1.046418, -0.2309819, -17.85466, 3.89226, -1.040396, -0.2553342
 40840324, -17.90685, 3.954614, -1.063494, -0.1944973, -17.88667, 3.368632, -1.046418, -0.2309819
 40940284, -17.93106, 4.581027, -1.080217, -0.1576498, -17.90685, 3.954614, -1.063494, -0.1944973
 41040244, -18.37826, 5.44065, -1.115254, -0.1185581, -17.93106, 4.581027, -1.080217, -0.1576498
 41140204, -18.33375, 5.291984, -1.116964, -0.09653589, -18.37826, 5.44065, -1.115254, -0.1185581
 41240164, -17.84002, 6.30583, -1.113291, -0.07557639, -18.33375, 5.291984, -1.116964, -0.09653589
 41340957, -17.82929, 6.085571, -1.111211, -0.05991915, -17.84002, 6.30583, -1.113291, -0.07557639
 41440917, -17.99573, 7.024615, -1.130918, -0.03675705, -17.82929, 6.085571, -1.111211, -0.05991915
 41540877, -17.93642, 7.139156, -1.129774, -0.0221152, -17.99573, 7.024615, -1.130918, -0.03675705
 41640837, -17.63876, 7.077432, -1.116935, -0.01140738, -17.93642, 7.139156, -1.129774, -0.0221152
 41740797, -17.41167, 7.498373, -1.114692, 0.005138636, -17.63876, 7.077432, -1.116935, -0.01140738
 41840757, -17.17513, 7.515577, -1.106418, 0.01835299, -17.41167, 7.498373, -1.114692, 0.005138636
 41940717, -17.38565, 7.861365, -1.119213, 0.04254377, -17.17513, 7.515577, -1.106418, 0.01835299
 42040677, -17.51252, 8.125217, -1.128435, 0.06468213, -17.38565, 7.861365, -1.119213, 0.04254377
 42140637, -16.90699, 8.331695, -1.11032, 0.07346633, -17.51252, 8.125217, -1.128435, 0.06468213
 42240597, -17.38809, 8.437491, -1.129375, 0.09895712, -16.90699, 8.331695, -1.11032, 0.07346633
 42340557, -17.15189, 8.739947, -1.126498, 0.1133697, -17.38809, 8.437491, -1.129375, 0.09895712
 42440517, -17.00955, 8.61496, -1.118882, 0.1241308, -17.15189, 8.739947, -1.126498, 0.1133697
 42540477, -16.53733, 9.103994, -1.110622, 0.13664, -17.00955, 8.61496, -1.118882, 0.1241308
 42640437, -16.49356, 9.147781, -1.109055, 0.1497703, -16.53733, 9.103994, -1.110622, 0.13664
 42740397, -16.35374, 9.246441, -1.104899, 0.1614257, -16.49356, 9.147781, -1.109055, 0.1497703
 42840357, -16.47079, 9.543712, -1.113404, 0.180303, -16.35374, 9.246441, -1.104899, 0.1614257
 42940317, -16.0572, 10.12961, -1.109225, 0.1931721, -16.47079, 9.543712, -1.113404, 0.180303
 43040277, -16.00562, 10.20162, -1.107184, 0.2057659, -16.0572, 10.12961, -1.109225, 0.1931721
 43140237, -16.16385, 10.71558, -1.12113, 0.2285212, -16.00562, 10.20162, -1.107184, 0.2057659
 43240197, -16.32496, 10.3587, -1.117358, 0.237686, -16.16385, 10.71558, -1.12113, 0.2285212
 43340157, -15.98103, 10.86955, -1.114602, 0.2499783, -16.32496, 10.3587, -1.117358, 0.237686
 43440950, -15.84857, 11.32732, -1.118309, 0.2652808, -15.98103, 10.86955, -1.114602, 0.2499783
 43540910, -15.80379, 11.05026, -1.109647, 0.2698119, -15.84857, 11.32732, -1.118309, 0.2652808
 43640870, -15.9456, 11.66953, -1.125138, 0.2925877, -15.80379, 11.05026, -1.109647, 0.2698119
 43740830, -15.52253, 11.18311, -1.09991, 0.2850333, -15.9456, 11.66953, -1.125138, 0.2925877
 43840790, -15.28033, 11.45243, -1.096746, 0.2937459, -15.52253, 11.18311, -1.09991, 0.2850333
 43940750, -15.69322, 11.82368, -1.114652, 0.3180438, -15.28033, 11.45243, -1.096746, 0.2937459
 44040710, -15.25775, 11.46119, -1.091356, 0.3114608, -15.69322, 11.82368, -1.114652, 0.3180438
 44140670, -15.4304, 12.26661, -1.111726, 0.3380498, -15.25775, 11.46119, -1.091356, 0.3114608
 44240630, -15.34195, 11.71431, -1.095886, 0.3314236, -15.4304, 12.26661, -1.111726, 0.3380498
 44340590, -15.72693, 12.2318, -1.11623, 0.3561921, -15.34195, 11.71431, -1.095886, 0.3314236
 44440550, -15.6404, 12.33575, -1.113465, 0.3626586, -15.72693, 12.2318, -1.11623, 0.3561921
 44540510, -15.45885, 12.61614, -1.112375, 0.3705753, -15.6404, 12.33575, -1.113465, 0.3626586
 44640470, -14.93922, 12.54656, -1.094634, 0.3641011, -15.45885, 12.61614, -1.112375, 0.3705753
 44740430, -14.99848, 12.10181, -1.08496, 0.3619833, -14.93922, 12.54656, -1.094634, 0.3641011
 44840390, -14.72959, 12.82941, -1.092383, 0.3757007, -14.99848, 12.10181, -1.08496, 0.3619833
 44940350, -14.9608, 12.90007, -1.098577, 0.3868885, -14.72959, 12.82941, -1.092383, 0.3757007
 45040310, -14.92429, 12.44394, -1.085254, 0.3812652, -14.9608, 12.90007, -1.098577, 0.3868885
 45140270, -14.36431, 12.95076, -1.079836, 0.3838438, -14.92429, 12.44394, -1.085254, 0.3812652
 45240230, -14.51763, 12.90344, -1.08105, 0.3905558, -14.36431, 12.95076, -1.079836, 0.3838438
 45340190, -15.02488, 13.40602, -1.10421, 0.4160665, -14.51763, 12.90344, -1.08105, 0.3905558
 45440150, -15.04221, 13.55084, -1.106218, 0.4226985, -15.02488, 13.40602, -1.10421, 0.4160665
 45540943, -14.68233, 13.25361, -1.088394, 0.4109871, -15.04221, 13.55084, -1.106218, 0.4226985
 45640903, -14.97398, 13.38183, -1.095069, 0.4304205, -14.68233, 13.25361, -1.088394, 0.4109871
 45740863, -13.40182, 13.79698, -1.057618, 0.4236298, -14.97398, 13.38183, -1.095069, 0.4304205
 45840823, -13.33079, 14.11579, -1.049917, 0.4400412, -13.40182, 13.79698, -1.057618, 0.4236298
 45940783, -12.36448, 13.87335, -1.011287, 0.3990406, -13.33079, 14.11579, -1.049917, 0.4400412
 46040743, -12.45153, 13.42896, -0.9942131, 0.3648647, -12.36448, 13.87335, -1.011287, 0.3990406
 46140703, -12.80798, 13.22081, -0.9929869, 0.3498332, -12.45153, 13.42896, -0.9942131, 0.3648647
 46240663, -12.32882, 13.32533, -0.9812466, 0.3481532, -12.80798, 13.22081, -0.9929869, 0.3498332
 46340623, -12.26348, 13.21914, -0.9694256, 0.3705868, -12.32882, 13.32533, -0.9812466, 0.3481532
 46440583, -12.19405, 13.38916, -0.9574924, 0.4134116, -12.26348, 13.21914, -0.9694256, 0.3705868
 46540543, -11.90988, 13.82802, -0.9452248, 0.4626146, -12.19405, 13.38916, -0.9574924, 0.4134116
 46640503, -11.15109, 14.75089, -0.9330031, 0.514518, -11.90988, 13.82802, -0.9452248, 0.4626146
 46740463, -10.67395, 14.99972, -0.9161631, 0.5468603, -11.15109, 14.75089, -0.9330031, 0.514518
 46840423, -10.42058, 14.80103, -0.8982649, 0.5627521, -10.67395, 14.99972, -0.9161631, 0.5468603
 46940383, -10.21687, 15.11389, -0.8925369, 0.58981, -10.42058, 14.80103, -0.8982649, 0.5627521
 47040343, -9.89334, 15.74863, -0.8923544, 0.6211707, -10.21687, 15.11389, -0.8925369, 0.58981
 47140303, -9.804867, 15.94997, -0.8874105, 0.6424544, -9.89334, 15.74863, -0.8923544, 0.6211707
 47240263, -9.16835, 16.04847, -0.8743432, 0.6501523, -9.804867, 15.94997, -0.8874105, 0.6424544
 47340223, -8.720941, 16.04279, -0.8609346, 0.6584893, -9.16835, 16.04847, -0.8743432, 0.6501523
 47440183, -8.417024, 16.43331, -0.8532684, 0.6844389, -8.720941, 16.04279, -0.8609346, 0.6584893
 47540976, -8.132411, 16.63865, -0.8430634, 0.7052081, -8.417024, 16.43331, -0.8532684, 0.6844389
 47640936, -8.280948, 17.06455, -0.8402693, 0.740222, -8.132411, 16.63865, -0.8430634, 0.7052081
 47740896, -7.759946, 16.76237, -0.8201541, 0.73943, -8.280948, 17.06455, -0.8402693, 0.740222
 47840856, -6.769473, 16.8394, -0.8021808, 0.7454845, -7.759946, 16.76237, -0.8201541, 0.73943
 47940816, -6.775404, 17.25947, -0.7973768, 0.7779348, -6.769473, 16.8394, -0.8021808, 0.7454845
 48040776, -6.668752, 17.65754, -0.7919774, 0.8081766, -6.775404, 17.25947, -0.7973768, 0.7779348
 48140736, -6.180085, 18.04639, -0.7835164, 0.8334116, -6.668752, 17.65754, -0.7919774, 0.8081766
 48240696, -6.140376, 17.25685, -0.7631828, 0.8173683, -6.180085, 18.04639, -0.7835164, 0.8334116
 48340656, -5.402527, 17.84816, -0.7559737, 0.8462369, -6.140376, 17.25685, -0.7631828, 0.8173683
 48440616, -5.235713, 18.34757, -0.749724, 0.878835, -5.402527, 17.84816, -0.7559737, 0.8462369
 48540576, -5.426132, 18.44398, -0.7403797, 0.8984485, -5.235713, 18.34757, -0.749724, 0.878835
 48640536, -5.426598, 18.37422, -0.7304502, 0.9082942, -5.426132, 18.44398, -0.7403797, 0.8984485
 48740496, -4.809518, 18.55411, -0.7189289, 0.9218849, -5.426598, 18.37422, -0.7304502, 0.9082942
 48840456, -4.7052, 18.54461, -0.7083499, 0.9317026, -4.809518, 18.55411, -0.7189289, 0.9218849
 48940416, -4.551741, 18.25524, -0.6969094, 0.9289088, -4.7052, 18.54461, -0.7083499, 0.9317026
 49040376, -3.842239, 18.49047, -0.686677, 0.9433913, -4.551741, 18.25524, -0.6969094, 0.9289088
 49140336, -3.959363, 18.63968, -0.6791598, 0.960597, -3.842239, 18.49047, -0.686677, 0.9433913
 49240296, -4.046384, 18.97742, -0.6741576, 0.9851637, -3.959363, 18.63968, -0.6791598, 0.960597
 49340256, -3.408154, 18.79902, -0.6617601, 0.9823347, -4.046384, 18.97742, -0.6741576, 0.9851637
 49440216, -3.053428, 18.5306, -0.6498644, 0.9773993, -3.408154, 18.79902, -0.6617601, 0.9823347
 49540176, -3.335251, 19.13214, -0.64654, 1.013803, -3.053428, 18.5306, -0.6498644, 0.9773993
 49640969, -2.712489, 18.68812, -0.6344562, 0.9989695, -3.335251, 19.13214, -0.64654, 1.013803
 49740929, -2.899584, 19.32057, -0.6307596, 1.034775, -2.712489, 18.68812, -0.6344562, 0.9989695
 49840889, -2.581007, 18.83052, -0.6206778, 1.019174, -2.899584, 19.32057, -0.6307596, 1.034775
 49940849, -2.230496, 19.10463, -0.6134883, 1.036499, -2.581007, 18.83052, -0.6206778, 1.019174
 50040809, -2.415293, 19.24304, -0.6091567, 1.049681, -2.230496, 19.10463, -0.6134883, 1.036499
 50140769, -2.245873, 18.74446, -0.6015006, 1.032924, -2.415293, 19.24304, -0.6091567, 1.049681
 50240729, -1.882092, 19.32056, -0.5968055, 1.062746, -2.245873, 18.74446, -0.6015006, 1.032924
 50340689, -1.605407, 18.92637, -0.5905561, 1.049842, -1.882092, 19.32056, -0.5968055, 1.062746
 50440649, -1.187672, 19.92199, -0.5872855, 1.097353, -1.605407, 18.92637, -0.5905561, 1.049842
 50540609, -1.685463, 19.89992, -0.5826575, 1.102721, -1.187672, 19.92199, -0.5872855, 1.097353
 50640569, -1.128843, 19.1856, -0.5676523, 1.078443, -1.685463, 19.89992, -0.5826575, 1.102721
 50740529, 0.6082991, 19.38425, -0.5473856, 1.095922, -1.128843, 19.1856, -0.5676523, 1.078443
 50840489, 0.8364022, 18.36012, -0.5344017, 1.052867, 0.6082991, 19.38425, -0.5473856, 1.095922
 50940449, 1.594841, 17.86985, -0.5437407, 1.024251, 0.8364022, 18.36012, -0.5344017, 1.052867
 51040409, 1.812761, 17.26196, -0.5696493, 0.9932002, 1.594841, 17.86985, -0.5437407, 1.024251
 51140369, 1.402585, 16.3759, -0.6103584, 0.9866406, 1.812761, 17.26196, -0.5696493, 0.9932002
 51240329, 0.9972353, 16.7735, -0.6704401, 1.07421, 1.402585, 16.3759, -0.6103584, 0.9866406
 51340289, 2.490518, 19.12708, -0.6865717, 1.233319, 0.9972353, 16.7735, -0.6704401, 1.07421
 51440249, 4.21032, 18.67468, -0.6459731, 1.315371, 2.490518, 19.12708, -0.6865717, 1.233319
 51540209, 4.899215, 20.09837, -0.5470765, 1.397583, 4.21032, 18.67468, -0.6459731, 1.315371
 51640169, 6.869299, 20.00408, -0.4262559, 1.427339, 4.899215, 20.09837, -0.5470765, 1.397583
 51740962, 7.479939, 19.23987, -0.3222963, 1.42222, 6.869299, 20.00408, -0.4262559, 1.427339
 51840922, 8.24449, 18.97569, -0.2322615, 1.429063, 7.479939, 19.23987, -0.3222963, 1.42222
 51940882, 9.601415, 18.97849, -0.1482394, 1.450128, 8.24449, 18.97569, -0.2322615, 1.429063
 52040842, 11.12854, 16.58235, -0.09769207, 1.436785, 9.601415, 18.97849, -0.1482394, 1.450128
 52140802, 11.37012, 17.55456, -0.02938014, 1.47746, 11.12854, 16.58235, -0.09769207, 1.436785
 52240762, 12.62696, 16.04197, 0.02113765, 1.488271, 11.37012, 17.55456, -0.02938014, 1.47746
 52340722, 12.54514, 15.99778, 0.07646209, 1.506306, 12.62696, 16.04197, 0.02113765, 1.488271
 52440682, 13.86393, 16.03012, 0.151081, 1.535833, 12.54514, 15.99778, 0.07646209, 1.506306
 52540642, 14.01115, 14.75573, 0.2014474, 1.531954, 13.86393, 16.03012, 0.151081, 1.535833
 52640602, 14.37979, 14.01689, 0.263148, 1.532373, 14.01115, 14.75573, 0.2014474, 1.531954
 52740562, 15.62068, 14.16572, 0.3468205, 1.545173, 14.37979, 14.01689, 0.263148, 1.532373
 52840522, 16.38259, 12.6845, 0.4089081, 1.531592, 15.62068, 14.16572, 0.3468205, 1.545173
 52940482, 16.53368, 11.73855, 0.4669374, 1.514959, 16.38259, 12.6845, 0.4089081, 1.531592
 53040442, 16.97692, 10.95707, 0.5314199, 1.498925, 16.53368, 11.73855, 0.4669374, 1.514959
 53140402, 17.20322, 9.655534, 0.5872108, 1.475006, 16.97692, 10.95707, 0.5314199, 1.498925
 53240362, 18.7087, 10.09306, 0.6805344, 1.469296, 17.20322, 9.655534, 0.5872108, 1.475006
 53340322, 17.48293, 8.727932, 0.7049001, 1.426813, 18.7087, 10.09306, 0.6805344, 1.469296
 53440282, 18.89441, 7.656232, 0.7792329, 1.40379, 17.48293, 8.727932, 0.7049001, 1.426813
 53540242, 19.04516, 7.100402, 0.8313648, 1.367043, 18.89441, 7.656232, 0.7792329, 1.40379
 53640202, 18.83999, 7.57463, 0.8793972, 1.330041, 19.04516, 7.100402, 0.8313648, 1.367043
 53740162, 19.86394, 5.692095, 0.9363009, 1.285244, 18.83999, 7.57463, 0.8793972, 1.330041
 53840955, 18.53229, 6.209291, 0.9515293, 1.236707, 19.86394, 5.692095, 0.9363009, 1.285244
 53940915, 19.34466, 4.878718, 1.001925, 1.187222, 18.53229, 6.209291, 0.9515293, 1.236707
 54040875, 19.57208, 3.954366, 1.038623, 1.137839, 19.34466, 4.878718, 1.001925, 1.187222
 54140835, 19.3416, 4.207703, 1.064954, 1.090803, 19.57208, 3.954366, 1.038623, 1.137839
 54240795, 17.96125, 3.184056, 1.054823, 1.034035, 19.3416, 4.207703, 1.064954, 1.090803
 54340755, 17.56043, 2.847074, 1.066997, 0.9841721, 17.96125, 3.184056, 1.054823, 1.034035
 54440715, 17.77445, 1.523609, 1.090588, 0.92977, 17.56043, 2.847074, 1.066997, 0.9841721
 54540675, 17.82386, 1.536544, 1.110236, 0.8815173, 17.77445, 1.523609, 1.090588, 0.92977
 54640635, 18.05986, 0.1042521, 1.136728, 0.832919, 17.82386, 1.536544, 1.110236, 0.8815173
 54740595, 17.47667, 0.03781176, 1.141306, 0.7906499, 18.05986, 0.1042521, 1.136728, 0.832919
 54840555, 18.0067, -0.8274227, 1.176912, 0.746538, 17.47667, 0.03781176, 1.141306, 0.7906499
 54940515, 17.60224, -0.8562146, 1.18276, 0.7069477, 18.0067, -0.8274227, 1.176912, 0.746538
 55040475, 17.67303, -1.346876, 1.201754, 0.6655145, 17.60224, -0.8562146, 1.18276, 0.7069477
 55140435, 18.23985, -2.877027, 1.23926, 0.6205848, 17.67303, -1.346876, 1.201754, 0.6655145
 55240395, 18.28603, -2.376037, 1.251758, 0.5819547, 18.23985, -2.877027, 1.23926, 0.6205848
 55340355, 17.82705, -2.605371, 1.250566, 0.5453746, 18.28603, -2.376037, 1.251758, 0.5819547
 55440315, 17.27821, -3.872934, 1.25021, 0.5071564, 17.82705, -2.605371, 1.250566, 0.5453746
 55540275, 18.40094, -4.551181, 1.298379, 0.4606253, 17.27821, -3.872934, 1.25021, 0.5071564
 55640235, 18.16018, -4.544014, 1.297608, 0.4261757, 18.40094, -4.551181, 1.298379, 0.4606253
 55740195, 18.11116, -4.191004, 1.29877, 0.3940984, 18.16018, -4.544014, 1.297608, 0.4261757
 55840155, 17.37132, -5.435622, 1.291004, 0.3605417, 18.11116, -4.191004, 1.29877, 0.3940984
 55940948, 18.26497, -4.764945, 1.317438, 0.3229487, 17.37132, -5.435622, 1.291004, 0.3605417
 56040908, 17.33758, -6.186773, 1.304107, 0.2936251, 18.26497, -4.764945, 1.317438, 0.3229487
 56140868, 17.76981, -5.527865, 1.312185, 0.2629337, 17.33758, -6.186773, 1.304107, 0.2936251
 56240828, 17.49132, -5.664713, 1.304136, 0.2380083, 17.76981, -5.527865, 1.312185, 0.2629337
 56340788, 17.52404, -6.319057, 1.312846, 0.2069519, 17.49132, -5.664713, 1.304136, 0.2380083
 56440748, 16.85558, -6.865775, 1.296432, 0.1876402, 17.52404, -6.319057, 1.312846, 0.2069519
 56540708, 16.93635, -7.419717, 1.304713, 0.1606156, 16.85558, -6.865775, 1.296432, 0.1876402
 56640668, 17.00558, -7.274889, 1.302605, 0.1400033, 16.93635, -7.419717, 1.304713, 0.1606156
 56740628, 17.86096, -7.5984, 1.333126, 0.1048915, 17.00558, -7.274889, 1.302605, 0.1400033
 56840588, 17.28776, -7.474103, 1.308682, 0.09630904, 17.86096, -7.5984, 1.333126, 0.1048915
 56940548, 17.65694, -7.921496, 1.324039, 0.07042402, 17.28776, -7.474103, 1.308682, 0.09630904
 57040508, 17.5199, -8.544288, 1.324943, 0.05245799, 17.65694, -7.921496, 1.324039, 0.07042402
 57140468, 17.12823, -7.87326, 1.297063, 0.05348176, 17.5199, -8.544288, 1.324943, 0.05245799
 57240428, 16.89539, -8.294087, 1.291529, 0.04175955, 17.12823, -7.87326, 1.297063, 0.05348176
 57340388, 17.90928, -8.720927, 1.327271, 0.01062971, 16.89539, -8.294087, 1.291529, 0.04175955
 57440348, 17.81012, -8.480997, 1.315398, 0.007362604, 17.90928, -8.720927, 1.327271, 0.01062971
 57540308, 17.41499, -9.679297, 1.317725, -0.004371226, 17.81012, -8.480997, 1.315398, 0.007362604
 57640268, 17.23962, -8.478433, 1.286445, 0.006528139, 17.41499, -9.679297, 1.317725, -0.004371226
 57740228, 17.34509, -9.081887, 1.294428, -0.005272269, 17.23962, -8.478433, 1.286445, 0.006528139
 57840188, 17.17152, -9.155324, 1.284776, -0.004822195, 17.34509, -9.081887, 1.294428, -0.005272269
 57940148, 17.56476, -9.759729, 1.302469, -0.01643878, 17.17152, -9.155324, 1.284776, -0.004822195
 58040941, 17.21495, -9.314097, 1.277664, -0.004545629, 17.56476, -9.759729, 1.302469, -0.01643878
 58140901, 17.66432, -9.873035, 1.29621, -0.01452017, 17.21495, -9.314097, 1.277664, -0.004545629
 58240861, 17.61188, -9.741523, 1.286701, -0.009124041, 17.66432, -9.873035, 1.29621, -0.01452017
 58340821, 17.30224, -9.402613, 1.265342, 0.001963794, 17.61188, -9.741523, 1.286701, -0.009124041
 58440781, 17.41652, -9.190979, 1.260149, 0.00474292, 17.30224, -9.402613, 1.265342, 0.001963794
 58540741, 18.14575, -9.204742, 1.279002, -0.003635049, 17.41652, -9.190979, 1.260149, 0.00474292
 58640701, 17.89858, -9.149457, 1.264998, 0.006225467, 18.14575, -9.204742, 1.279002, -0.003635049
 58740661, 17.98486, -8.654724, 1.255185, 0.01568091, 17.89858, -9.149457, 1.264998, 0.006225467
 58840621, 18.61611, -8.753114, 1.274158, 0.01282811, 17.98486, -8.654724, 1.255185, 0.01568091
 58940581, 17.97198, -8.660871, 1.248878, 0.03278008, 18.61611, -8.753114, 1.274158, 0.01282811
 59040541, 18.22484, -8.707713, 1.256174, 0.0371438, 17.97198, -8.660871, 1.248878, 0.03278008
 59140501, 17.56838, -8.801059, 1.23435, 0.05671805, 18.22484, -8.707713, 1.256174, 0.0371438
 59240461, 18.34008, -8.535853, 1.25424, 0.05559057, 17.56838, -8.801059, 1.23435, 0.05671805
 59340421, 18.13322, -7.781994, 1.234282, 0.07427299, 18.34008, -8.535853, 1.25424, 0.05559057
 59440381, 18.60824, -8.256832, 1.256118, 0.07354793, 18.13322, -7.781994, 1.234282, 0.07427299
 59540341, 18.0234, -7.973655, 1.23036, 0.09545392, 18.60824, -8.256832, 1.256118, 0.07354793
 59640301, 18.3976, -7.288325, 1.232407, 0.1056457, 18.0234, -7.973655, 1.23036, 0.09545392
 59740261, 18.53251, -7.405784, 1.238199, 0.1140387, 18.3976, -7.288325, 1.232407, 0.1056457
 59840221, 18.49182, -7.904731, 1.24319, 0.1231035, 18.53251, -7.405784, 1.238199, 0.1140387
 59940181, 18.8777, -7.385468, 1.248367, 0.1300244, 18.49182, -7.904731, 1.24319, 0.1231035
 60040974, 18.26665, -7.660589, 1.229354, 0.1493471, 18.8777, -7.385468, 1.248367, 0.1300244
 60140934, 19.0317, -6.879734, 1.244246, 0.1543216, 18.26665, -7.660589, 1.229354, 0.1493471
 60240894, 18.673, -7.335072, 1.236134, 0.1702459, 19.0317, -6.879734, 1.244246, 0.1543216
 60340854, 19.36658, -6.223401, 1.246536, 0.1772679, 18.673, -7.335072, 1.236134, 0.1702459
 60440814, 18.75941, -6.117547, 1.22162, 0.1964868, 19.36658, -6.223401, 1.246536, 0.1772679
 60540774, 18.93933, -6.617853, 1.229458, 0.2152138, 18.75941, -6.117547, 1.22162, 0.1964868
 60640734, 19.81191, -5.067723, 1.228916, 0.2628523, 18.93933, -6.617853, 1.229458, 0.2152138
 60740694, 19.29547, -4.045644, 1.179861, 0.3460503, 19.81191, -5.067723, 1.228916, 0.2628523
 60840654, 20.26432, -4.34503, 1.194153, 0.4306211, 19.29547, -4.045644, 1.179861, 0.3460503
 60940614, 20.55651, -4.450788, 1.202968, 0.5392438, 20.26432, -4.34503, 1.194153, 0.4306211
 61040574, 19.97706, -2.717427, 1.225863, 0.6716403, 20.55651, -4.450788, 1.202968, 0.5392438
 61140534, 21.80749, -3.356129, 1.306491, 0.7992507, 19.97706, -2.717427, 1.225863, 0.6716403
 61240494, 23.3039, -2.69622, 1.325516, 0.9040035, 21.80749, -3.356129, 1.306491, 0.7992507
 61340454, 22.60241, -1.215502, 1.252766, 0.9588363, 23.3039, -2.69622, 1.325516, 0.9040035
 61440414, 22.72498, -0.9536749, 1.175425, 0.9865248, 22.60241, -1.215502, 1.252766, 0.9588363
 61540374, 21.77993, 1.148021, 1.081513, 0.9871843, 22.72498, -0.9536749, 1.175425, 0.9865248
 61640334, 21.19167, 2.224874, 1.006461, 0.9934528, 21.77993, 1.148021, 1.081513, 0.9871843
 61740294, 20.53442, 3.626616, 0.945286, 1.00708, 21.19167, 2.224874, 1.006461, 0.9934528
 61840254, 19.92066, 4.212402, 0.8925696, 1.028358, 20.53442, 3.626616, 0.945286, 1.00708
 61940214, 20.61593, 4.705514, 0.8758723, 1.062717, 19.92066, 4.212402, 0.8925696, 1.028358
 62040174, 19.92661, 5.305795, 0.8310006, 1.091624, 20.61593, 4.705514, 0.8758723, 1.062717
