TimeUS,CAN,CAE,CAD,CAe
 46157207, -0.01907629, 0.0009668198, -0.001075206, 0.009584783
 46302483, -0.03134295, 0.002205211, 0.0003518604, 0.01576957
 46376359, -0.02125981, 0.001872395, -0.0008801009, 0.01047914
 46431333, -0.0203814, 0.001696086, -0.001067555, 0.01022881
 46486999, -0.02026802, 0.001847743, -0.000417247, 0.01022826
 46536991, -0.01850901, 0.001160102, -0.0008985386, 0.009299496
 46591344, -0.02009564, 0.0008826021, -0.0008877302, 0.01022807
 46646349, -0.02024345, 0.00148713, -0.001139756, 0.01022863
 46701221, -0.02026144, 0.0005744404, -0.000645346, 0.01022881
 46756259, -0.02060301, 0.001659044, -0.0001821028, 0.01023086
 46811801, -0.01975756, 0.001475337, -0.0007645219, 0.01022603
 46866252, -0.02063399, 0.000561832, -0.0005879757, 0.0102303
 46921237, -0.02047395, 0.001548166, -0.0006150532, 0.01022826
 46971254, -0.01842386, 0.0009822582, -0.0007821144, 0.009297452
 47026327, -0.02015177, 0.001764854, -0.0006689573, 0.01022863
 47081248, -0.02001853, 0.001444987, -0.0006208115, 0.01022937
 47136885, -0.02009793, 0.001051851, -4.209776E-05, 0.01022807
 47191239, -0.02047057, 0.001647962, -0.0004440843, 0.01022863
 47246239, -0.0200084, 0.001445243, -0.0008383139, 0.01022844
 47301258, -0.02082236, 0.001124523, -0.001629919, 0.01022863
 47356329, -0.02016989, 0.001206501, -0.001188063, 0.01022919
 47406260, -0.01834546, 0.001424686, -0.0008108751, 0.009298195
 47461813, -0.0204507, 0.001065056, -0.0005746452, 0.01022863
 47516223, -0.02044836, 0.0015386, -0.0005434884, 0.01022937
 47571335, -0.02082595, 0.001145599, -0.00119808, 0.01022844
 47626342, -0.02028171, 0.002076188, -0.0008367426, 0.01022807
 47681231, -0.02007752, 0.001530566, -0.0001456999, 0.01022993
 47736900, -0.01952377, 0.001765798, -0.0006409906, 0.01022751
 47791237, -0.01984915, 0.00144078, -0.000164808, 0.01022863
 47841334, -0.01816556, 0.001325702, -0.0002758806, 0.009298753
 47896243, -0.02063153, 0.001197866, -0.0006281582, 0.01022919
 47951332, -0.02004781, 0.001131304, -0.0004706343, 0.01022788
 48006249, -0.02032932, 0.0007341459, -0.0007191339, 0.01023067
 48061900, -0.02040001, 0.001741509, -0.0005002831, 0.01022658
 48116360, -0.02029992, 0.001179999, -0.001558833, 0.01022881
 48171237, -0.02002504, 0.00179798, -0.0001669458, 0.01022844
 48226337, -0.01969661, 0.0008246411, -0.000806376, 0.01022863
 48276364, -0.01798311, 0.001006579, -0.0004033988, 0.009298939
 48331258, -0.02058515, 0.001606158, -0.0001119116, 0.010229
 48386992, -0.02039234, 0.001032442, -0.0009647781, 0.01022881
 48441237, -0.02042049, 0.001396164, -0.0005232871, 0.010229
 48496335, -0.02002799, 0.0008664462, -0.0008347202, 0.01023086
 48551332, -0.02046423, 0.0009481417, -0.0007908076, 0.01022528
 48606355, -0.02018552, 0.0005801707, -0.0006162266, 0.01022881
 48661825, -0.02031999, 0.001279406, -0.001572394, 0.01022863
 48711862, -0.01799458, 0.00125329, -0.0006464407, 0.009298567
 48766269, -0.01988207, 0.001717697, -0.0005115145, 0.01023216
 48821233, -0.0201738, 0.001605124, -0.0008699457, 0.0102251
 48876392, -0.02018763, 0.001240145, -0.001190665, 0.01022974
 48931335, -0.02002339, 0.0009684304, -0.0002611204, 0.01022807
 48986992, -0.02003934, 0.002084071, -0.001165796, 0.01022807
 49041223, -0.02001411, 0.001236522, -0.0004257873, 0.01022881
 49096261, -0.02045217, 0.001370123, -0.0009903843, 0.01022863
 49146261, -0.01866154, 0.0006160368, -0.0007434919, 0.009298567
 49201241, -0.01977307, 0.001338961, -0.0009411896, 0.01022863
 49256233, -0.02027763, 0.001888559, -0.0006219082, 0.01022881
 49311913, -0.02025354, 0.001473647, 0.0001487748, 0.01022844
 49366342, -0.02026809, 0.0007167818, -0.0009568364, 0.01023179
 49421340, -0.0202376, 0.001779383, -0.0007480293, 0.01022602
 49476383, -0.02076535, 0.001437663, -0.0003439381, 0.01022974
 49531481, -0.0204886, 0.001130968, -0.0008182214, 0.01022695
 49581259, -0.01837717, 0.0007940403, -0.0009131751, 0.009298754
 49637043, -0.02032777, 0.0006835856, -0.0002496178, 0.01022919
 49691489, -0.02039611, 0.001092575, -0.0001391076, 0.01022807
 49746327, -0.02045447, 0.001455382, -0.001037377, 0.01023067
 49801371, -0.020527, 0.0009063802, -0.001215569, 0.01023049
 49856260, -0.02033428, 0.0003080147, -0.0009379538, 0.01022491
 49912044, -0.02031339, 0.001081489, -0.0009864684, 0.01022919
 49966356, -0.02033977, 0.0008026985, -0.0009248574, 0.01023253
 50016342, -0.01853424, 0.001024127, -5.994352E-05, 0.009298009
 50071357, -0.020326, 0.001236193, -0.001520753, 0.01022658
 50126393, -0.02027162, 0.0006200249, -0.0007556524, 0.01022826
 50181388, -0.0205186, 0.001064128, -0.001149232, 0.01022714
 50236914, -0.02006126, 0.001085465, -0.00100545, 0.01022993
 50291348, -0.02006442, 0.00181819, -0.000931766, 0.01022733
 50346333, -0.02091612, 0.001790198, 0.0001691462, 0.01022863
 50396351, -0.01831077, 0.0008091785, -0.0006326672, 0.009298752
 50451613, -0.01965503, 0.001128966, -0.0001697711, 0.01023012
 50506340, -0.02085333, 0.001700532, -0.0006546018, 0.0102277
 50561840, -0.02027749, 0.0008802773, -0.001091563, 0.01022826
 50616353, -0.02005206, 0.00172974, -0.001162081, 0.01023216
 50671342, -0.0206617, 0.001131479, -0.00169949, 0.0102251
 50726364, -0.02057661, 0.001168167, -0.001264804, 0.01022844
 50781342, -0.02114928, 0.001409387, -0.001392185, 0.01022863
 50836892, -0.02010044, 0.001071132, -0.0008995022, 0.01022863
 50886994, -0.01865747, 0.001208352, -0.0006801353, 0.009298753
 50941367, -0.01977534, 0.001059305, -0.0006099948, 0.01022919
 50996344, -0.01952692, 0.001467954, -0.001329799, 0.01022881
 51051376, -0.02000035, 0.001293967, -0.0005312228, 0.01023495
 51106469, -0.02083649, 0.001082681, -0.001113763, 0.01022156
 51161919, -0.01986163, 0.0008910493, -0.0006858651, 0.01022863
 51216391, -0.02009584, 0.001062411, -0.0002571121, 0.01023179
 51271364, -0.01999377, 0.00141243, -0.001395249, 0.01022547
 51321341, -0.01816608, 0.0008733202, -0.0008338411, 0.009299125
 51376341, -0.01983394, 0.00110055, -0.0009169374, 0.01023012
 51431390, -0.0202889, 0.001233328, -0.0004004881, 0.01022937
 51487075, -0.02023386, 0.0007496542, -0.0005986033, 0.01022602
 51541358, -0.02018688, 0.001042536, -0.00114645, 0.01022863
 51596249, -0.02007229, 0.0004912449, -0.0009876175, 0.01022881
 51651394, -0.02001, 0.0008563463, -0.001189926, 0.01022844
 51706328, -0.02060898, 0.000916378, -0.0005683111, 0.01022863
 51756401, -0.01926154, 0.0006662299, -0.0005706595, 0.00929931
 51811808, -0.02040223, 0.001144754, -0.0005242467, 0.01022993
 51866349, -0.02007252, 0.0007166527, -0.001334189, 0.01022751
 51921346, -0.02038673, 0.0008124688, -0.0008211671, 0.01022937
 51976396, -0.02042099, 0.000802954, -0.0002471261, 0.0102277
 52031359, -0.0202782, 0.0004011271, -0.001139765, 0.01022807
 52086920, -0.0203988, 0.001182431, -0.0001315228, 0.01022863
 52141340, -0.02083817, 0.0008118959, -0.0005815555, 0.0102303
 52196367, -0.02045895, 0.001160061, -0.000612093, 0.0102277
 52246342, -0.01866794, 0.001010519, -0.001013356, 0.009300054
 52301356, -0.0200038, 0.001447321, -0.0006369, 0.01022863
 52356338, -0.02059388, 0.001018291, -0.000409486, 0.01022714
 52411859, -0.01985593, 0.0007312392, -0.0005918152, 0.01022807
 52466361, -0.01984047, 0.001000622, 5.596492E-05, 0.01022937
 52521387, -0.02283264, 0.000709546, -0.0001897059, 0.01022863
 52576589, -0.01576574, 0.001382797, -0.0008199312, 0.01022993
 52626383, -0.02188761, 0.001512607, -0.002018974, 0.009297824
 52681456, -0.01865931, 0.0004138163, -0.000396272, 0.01022751
 52737004, -0.01967512, 0.00131092, -0.0008589299, 0.01022882
 52791379, -0.01987144, 0.001256952, -0.0002738991, 0.01022863
 52846340, -0.02106179, 0.0005549607, -0.001037687, 0.01022844
 52901405, -0.01983325, 0.0008843397, -0.0005083731, 0.01023012
 52956401, -0.02021461, 0.002011244, 0.0001735937, 0.01022974
 53006375, -0.01903562, -0.0005946418, -0.001413034, 0.009297637
 53061973, -0.01935715, -0.0007858951, -0.00387424, 0.01022882
 53116348, -0.01890627, 0.003251032, -0.002831219, 0.01022844
 53171342, -0.01893876, -0.0005176147, 0.008922231, 0.01022863
 53226398, -0.02494239, -0.001111299, -0.006460184, 0.01022863
 53281336, -0.01999082, 0.00310646, -0.001174129, 0.01023086
 53336944, -0.01890467, 0.002781461, -0.000702447, 0.01022714
 53391383, -0.02176277, 0.001122949, 0.0005480944, 0.01022714
 53446380, -0.02138086, 2.139228E-05, 0.0006847671, 0.01022937
 53496344, -0.01779603, 0.001210859, -0.001895946, 0.009298938
 53551393, -0.01952608, 0.0004224064, -0.001058043, 0.010229
 53606326, -0.01966448, 0.001437168, 0.001054895, 0.01022789
 53661848, -0.02207783, 2.2922E-05, -0.001597611, 0.01022733
 53716366, -0.0206722, 0.001735181, -0.001153667, 0.01023365
 53771355, -0.01944764, 0.000451674, -0.0007821328, 0.01022509
 53826428, -0.01975584, 0.0008750584, -0.0006368679, 0.01022863
 53876379, -0.01935956, 0.0009624565, -0.0007276109, 0.009301357
 53931375, -0.02007463, 0.001069876, -0.001007277, 0.01023049
 53988031, -0.02141156, -0.0002840491, -0.002105663, 0.01022435
 54041345, -0.0187525, 0.001067494, -0.001855897, 0.01022844
 54096402, -0.02019939, 0.001375825, -3.796069E-05, 0.010229
 54151579, -0.02068917, -0.0001950671, -0.001443996, 0.01022881
 54206587, -0.02066898, 0.001037794, -0.001157962, 0.01022807
 54256578, -0.01810169, 0.00111749, -0.0003884384, 0.009300055
 54312014, -0.01998428, 0.001268367, -0.001696741, 0.01022733
 54366391, -0.02040201, 0.0001926943, 0.000917574, 0.01022863
 54421370, -0.02017348, 0.0006116538, -0.002154199, 0.0102316
 54476389, -0.02021855, 0.001618894, -0.001214307, 0.01022565
 54531385, -0.02115343, 0.001643002, 0.0003966545, 0.01022919
 54587969, -0.02049786, 0.001471427, -0.00143793, 0.01022807
 54641356, -0.01991634, -0.00029698, -0.0005644684, 0.01022937
 54691374, -0.01855127, 0.001036278, -0.0002966357, 0.009300054
 54746333, -0.02146165, 0.001390701, -0.002071971, 0.01022658
 54801397, -0.01936052, 0.0008631664, -0.001064841, 0.01022863
 54856257, -0.02014373, 0.0001349623, -0.0006940045, 0.01022751
 54911960, -0.02018123, -0.0007650432, -0.001032232, 0.01023086
 54966370, -0.02066326, 0.001552548, 0.0007601537, 0.01023346
 55021351, -0.02084832, 0.001565791, -0.002428153, 0.01022268
 55071389, -0.01829147, 0.000896516, -0.0004825205, 0.009298753
 55126385, -0.01983728, 0.001104865, -0.001783659, 0.01022863
 55181357, -0.0208768, 8.00933E-05, 0.0007619266, 0.01022937
 55236902, -0.02049168, 0.001176975, 0.0002033058, 0.01022844
 55291384, -0.02090931, 0.0007566616, -0.001302806, 0.01022807
 55346348, -0.02041371, 0.001669945, -0.001831155, 0.01022863
 55401593, -0.02005387, 0.001072514, 0.0004490991, 0.01022844
 55456384, -0.02081648, -5.266158E-05, -0.0006500151, 0.01022733
 55506387, -0.01902945, 0.001337589, -0.0005881122, 0.009300239
 55561827, -0.02028843, 0.001474993, -0.001819789, 0.01023049
 55616343, -0.02042827, 0.000541756, -2.044221E-05, 0.01022695
 55671396, -0.02012611, 0.001056239, -0.0004913547, 0.01022844
 55726487, -0.02119489, 0.0004871374, -0.0009149079, 0.01022881
 55781468, -0.01971943, 0.0004794109, -0.001518754, 0.01022844
 55836903, -0.019789, 0.000509952, -0.001326849, 0.01022882
 55891374, -0.01925007, 0.0005614153, 0.000415321, 0.01022751
 55941414, -0.0193186, 0.001675542, -0.001729419, 0.009298938
 55996366, -0.02081778, 0.0008072102, -0.0004218438, 0.01022788
 56051387, -0.0197796, 0.0005725389, -0.001033133, 0.01022863
 56106332, -0.0210556, 0.001215741, 0.0001943183, 0.01022863
 56161839, -0.02039654, 0.001279992, -0.000990067, 0.01023179
 56216341, -0.02066189, 0.001486571, -0.001198042, 0.01022695
 56271356, -0.02019831, 0.0002516714, -0.0005583784, 0.01022863
 56326379, -0.02123073, 0.001443962, -0.0006352239, 0.01022863
 56376412, -0.01744755, 0.001416165, -0.0006013397, 0.009298939
 56431402, -0.02060939, 0.001093234, 0.0004378411, 0.01023067
 56486973, -0.02047765, 0.0009598719, -0.001299336, 0.01023346
 56541360, -0.02085519, -4.417641E-06, -0.0006245461, 0.01022156
 56596359, -0.02062176, 0.002162013, 0.0003791834, 0.01022863
 56649780, -0.01876786, 0.001779628, -0.002048414, 0.009832501
 56704252, -0.01973406, 0.0009165987, -0.0001793119, 0.0102277
 56759349, -0.01981113, -0.0001044015, -0.0007676343, 0.010229
 56814284, -0.02145862, 0.0005505275, -0.001331753, 0.01022807
 56869336, -0.02072486, 0.001823564, -0.0006113717, 0.01022863
 56924820, -0.0208455, 0.002097974, -0.002592264, 0.01022863
 56974837, -0.01753358, 0.0006676, -0.0007068921, 0.009298753
 57029772, -0.02079265, 8.954667E-06, 0.0003369346, 0.0103179
 57085163, -0.02023674, 0.0002728773, -0.001017438, 0.01022677
 57139762, -0.02036679, 0.0007752392, -0.0007370199, 0.01022677
 57194770, -0.02117968, 0.001038599, -0.0005133147, 0.0102303
 57247914, -0.01882342, 0.001479865, -0.0004024999, 0.009857608
 57302907, -0.01992724, 0.001141178, -0.0006245004, 0.01022584
 57358255, -0.01968114, -8.138444E-05, -0.002119174, 0.01022993
 57410860, -0.02072985, 0.001104969, 0.0002091043, 0.009843846
 57465707, -0.02064827, 0.001115262, -0.0002049347, 0.01022863
 57520758, -0.01993471, 0.0008907758, -0.001577026, 0.01022956
 57575759, -0.01914892, -0.001259871, -0.0004174009, 0.01022695
 57628168, -0.01991934, 0.001568861, -0.00152031, 0.009763691
 57683196, -0.02063229, 0.001381416, -0.001631948, 0.01022919
 57738183, -0.02073582, 0.0008441786, -0.001489493, 0.01022807
 57794728, -0.01976607, 0.001172264, -0.001414474, 0.01023012
 57848145, -0.02049315, 0.000979642, -0.00109064, 0.01022695
 57898165, -0.01852075, 0.0002074035, -0.0006827986, 0.009299497
 57953153, -0.02011445, 0.000894737, -6.98911E-06, 0.01022807
 58008182, -0.01819062, 0.001791149, -0.001958902, 0.0102303
 58063158, -0.02307752, -0.0004308497, 0.0003649546, 0.01022695
 58118710, -0.02080123, 0.000120952, -0.001294003, 0.01023012
 58173149, -0.0197073, 0.002509639, -0.0001918141, 0.01022751
 58228119, -0.01750141, 0.002540391, -0.000797069, 0.01022844
 58278177, -0.01762867, 0.001080446, -0.003884631, 0.009298566
 58333204, -0.02445885, -0.003517636, 0.0003719829, 0.01022863
 58388159, -0.01704754, 0.004748831, 0.001163797, 0.01023198
 58443743, -0.02466727, -0.002007173, 0.0003714885, 0.01022788
 58498180, -0.01615736, 0.001036134, -0.0004456867, 0.0102264
 58553173, -0.02036896, 0.002186588, -0.006044518, 0.01022826
 58608186, -0.02156834, -0.002080603, -0.005139519, 0.01022919
 58663193, -0.01614157, 0.004341661, -0.006205279, 0.01022881
 58713228, -0.0252961, -0.004277715, -0.01268399, 0.009298569
 58768683, -0.018247, -0.01121823, 0.02623299, 0.01022658
 58823223, -0.003971867, 0.007667992, -0.03830461, 0.01022863
 58878357, -0.02777645, -0.02040537, 0.009945182, 0.0102316
 58933390, -0.02557437, -0.02559943, -0.01604449, 0.01022733
 58988176, -0.009687105, -0.001905408, -0.03066611, 0.01022956
 59038365, -0.05098631, -0.03718861, 0.02998807, 0.009297637
 59093864, -0.01974739, -0.02098616, -0.02173914, 0.01023123
 59148127, -0.05635806, 0.004226652, -0.04814378, 0.01022602
 59203153, -0.05318283, -0.03563755, 0.01357273, 0.01022937
 59258181, -0.02877588, -0.02618937, -0.05914124, 0.01022788
 59313345, -0.06704382, 0.001525717, -0.05238282, 0.01022937
 59363211, -0.04429081, -0.05409507, 0.01169624, 0.00929838
 59418688, -0.0592937, -0.005904807, -0.03760678, 0.0102329
 59473152, -0.06698859, -0.0003345226, 0.01602659, 0.01022398
 59528134, -0.03450944, -0.05566815, 0.06704532, 0.01022937
 59583177, -0.04146871, 0.02780426, -0.02497753, 0.01022789
 59638185, -0.03994575, -0.01086357, -0.006716125, 0.01022919
 59693668, -0.01587616, -0.03328757, -0.003727943, 0.01022807
 59743679, -0.02880914, 0.03827556, -0.060991, 0.009300054
 59803146, -0.01334796, -0.05354384, 0.008819547, 0.0111572
 59853160, 0.00708539, 0.01168588, -0.04264294, 0.0093021
 59908191, -0.01997066, -0.01466722, 0.0119647, 0.01022528
 59963189, 0.0223977, -0.05138586, 0.02354854, 0.01023049
 60018687, -0.001861714, 0.008819774, -0.05659792, 0.01022677
 60073155, 0.006298113, -0.06617626, 0.01514732, 0.01022863
 60128207, 0.02704474, -0.02494965, -0.01937385, 0.01022919
 60178159, -0.008171499, -0.03052867, 0.003012255, 0.009299682
 60233202, 0.04017364, -0.0589336, 0.04360536, 0.01022714
 60288170, 0.0129618, -0.02319418, -0.007110438, 0.01023012
 60343739, 0.008788575, -0.04411321, 0.02525326, 0.01022844
 60398240, 0.04920943, -0.05687964, 0.03007419, 0.0102264
 60453381, 0.01155397, -0.004639209, -0.02909284, 0.01022956
 60508371, 0.0347698, -0.06188232, 0.03264538, 0.010229
 60558393, 0.03317599, -0.01650318, -0.02152511, 0.009298381
 60613359, 0.01055333, -0.01210149, -0.0002927459, 0.01022863
 60668874, 0.03700146, -0.0452987, 0.0306838, 0.01022919
 60723174, 0.01504037, 0.0212098, -0.01211379, 0.01022807
 60778134, 0.007453276, -0.00126138, 0.01897287, 0.01022919
 60833204, 0.01780697, -0.01466172, 0.01957721, 0.01022807
 60888156, -0.006552697, 0.04481405, -0.01675765, 0.01022863
 60938242, -0.001174663, -0.001410294, 0.02306595, 0.009298938
 60994752, -0.00492755, 0.01665118, -0.0004505327, 0.01022844
 61048142, -0.02222689, 0.05478277, -0.01877844, 0.01022863
 61103173, -0.009775229, -0.0004614876, 0.03493956, 0.01022863
 61158191, -0.02030659, 0.03424201, -0.0004661917, 0.01022863
 61213181, -0.03483279, 0.05264015, -0.01525092, 0.01023086
 61268704, -0.01183361, -0.006254793, 0.03470029, 0.0102264
 61318723, -0.03761132, 0.04531629, -0.02788098, 0.009300613
 61373164, -0.02817426, 0.02064186, 0.01219432, 0.01022714
 61428182, -0.02637696, -0.00180555, 0.02225123, 0.01023067
 61483205, -0.04493302, 0.05757189, -0.02707954, 0.01022621
 61538182, -0.02066483, -0.001328052, 0.02252181, 0.01022863
 61594713, -0.03785195, 0.008435551, -0.005146094, 0.01022863
 61648154, -0.04426232, 0.04362971, -0.02728217, 0.01022863
 61698177, -0.01672199, -0.01885404, 0.02842524, 0.009299497
 61753153, -0.04511196, 0.02086066, -0.008409271, 0.01022789
 61808194, -0.03798471, 0.02369772, 0.002526152, 0.01022993
 61863148, -0.02121508, -0.02527931, 0.03838544, 0.01022733
 61918728, -0.0474643, 0.01173003, -0.007979236, 0.01022937
 61973198, -0.03697919, 0.003549828, -0.002734899, 0.01022919
 62028178, -0.02079869, -0.0404901, 0.02380877, 0.01022733
 62078152, -0.04445523, 0.007218564, -0.02094688, 0.009298939
 62133335, -0.02366836, -0.02159102, 0.004393722, 0.01022956
 62188349, -0.02435164, -0.04500223, 0.02128864, 0.01022751
 62243831, -0.04569466, -0.005383412, -0.01340654, 0.01022863
 62298146, -0.02032703, -0.03412415, 0.009326594, 0.01023012
 62348127, -0.02704949, -0.04527065, 0.01462545, 0.009297266
 62403193, -0.0412068, -0.01354984, -0.02338806, 0.01022993
 62458201, -0.0165074, -0.04143137, 0.00748062, 0.01023049
 62513482, -0.02295567, -0.04905925, 0.004138721, 0.01022788
 62568684, -0.0423732, -0.007531847, -0.02357272, 0.01022658
 62623139, -0.01010062, -0.03295246, 0.006897469, 0.01022826
 62678145, -0.02375715, -0.03368393, 0.00288324, 0.0102303
 62728114, -0.03192542, 0.01338243, -0.0364572, 0.009297265
 62783228, -0.003072558, -0.02751646, 0.01810624, 0.01022844
 62838171, -0.02553804, -0.007416699, 0.001332737, 0.01023179
 62893735, -0.02658617, 0.02057708, -0.01856898, 0.01022695
 62948159, -0.001344703, -0.01182575, 0.01159148, 0.0102277
 63003166, -0.01916039, 0.006460974, -0.003613046, 0.01022807
 63058168, -0.02525689, 0.03653118, -0.02465107, 0.01022863
 63108185, 0.002535476, 0.006817954, 0.01579585, 0.009298939
 63163170, -0.01839664, 0.0212503, 0.002744194, 0.01022974
 63218702, -0.02047721, 0.04899, -0.01162017, 0.01022788
 63273184, 0.00702884, 0.02637063, 0.01088954, 0.01022863
 63328143, -0.01023663, 0.03154286, 0.008149048, 0.01022807
 63383183, -0.02022788, 0.05928878, -0.0177826, 0.01022956
 63438220, -0.001034143, 0.0479263, 5.696737E-05, 0.01022826
 63488146, -0.004499197, 0.03120815, 0.01431772, 0.009299126
 63543697, -0.02253489, 0.07185308, -0.01574763, 0.01022881
 63603343, 0.0006691979, 0.05593644, 0.0106638, 0.01115739
 63653166, 0.001398626, 0.03323724, 0.003774312, 0.009298753
 63708386, -0.02208854, 0.08221385, -0.02110096, 0.01022863
 63763356, 0.009178359, 0.04730916, 0.005714393, 0.01022863
 63818854, -0.01005785, 0.04476266, 0.00616739, 0.01022863
 63868840, -0.01999703, 0.07968989, -0.01864334, 0.009299497
 63923208, 0.01026651, 0.04095734, 0.01360658, 0.01022789
 63978151, -0.02188154, 0.05880494, -0.004032243, 0.01022919
 64033186, -0.02665458, 0.08134288, -0.0106231, 0.01022807
 64088205, -0.007167767, 0.03826858, 0.0199801, 0.01022863
 64143733, -0.03582259, 0.05909387, 0.001002857, 0.01022863
 64198171, -0.04013378, 0.07100748, -0.006689358, 0.01022881
 64248147, -0.01465679, 0.01494572, 0.0219029, 0.009300055
 64303187, -0.05273827, 0.05497023, -0.01798783, 0.01022993
 64358230, -0.04071811, 0.04015404, -0.001945902, 0.0102277
 64413164, -0.02647836, 0.001859128, 0.0156189, 0.01023049
 64468712, -0.0549956, 0.03646561, -0.02253165, 0.01022491
 64523152, -0.03876199, 0.01941318, -0.009710558, 0.01023012
 64578118, -0.03349196, -0.01514346, 0.008363396, 0.0102277
 64628225, -0.04882652, 0.03238618, -0.03110609, 0.00929838
 64683176, -0.02736009, -0.003111046, 0.01404891, 0.01022919
 64738187, -0.03288655, -0.01556683, 0.008854167, 0.01022863
 64794705, -0.04790651, 0.02553628, -0.03090201, 0.01022826
 64848211, -0.02164544, -0.01173571, 0.0071394, 0.01022974
 64903160, -0.02735941, -0.01970031, 0.003373742, 0.01022714
 64958193, -0.03722869, 0.0250364, -0.03543748, 0.01022863
 65008187, -0.009519141, -0.01555158, 0.01117739, 0.009298753
 65063177, -0.02536388, -0.01291489, 0.006259405, 0.01022919
 65118702, -0.03147479, 0.01985069, -0.02451677, 0.01022863
 65173138, -0.01707116, -0.01298749, 0.002792824, 0.01023012
 65228175, -0.02832833, -0.01618887, -0.0005514901, 0.01022658
 65283352, -0.03983085, 0.01984598, -0.03169911, 0.01022863
 65338213, -0.02281317, -0.004296509, 0.0003202304, 0.01022863
 65388371, -0.02991338, -0.01646312, 0.009300529, 0.009298753
 65443849, -0.04008927, 0.02694414, -0.0268517, 0.01022863
 65498181, -0.02512179, -0.007936605, 0.007288742, 0.01023068
 65553158, -0.03552856, -0.01005546, 0.006097407, 0.01022937
 65608168, -0.03769584, 0.02338573, -0.03015207, 0.01022807
 65663194, -0.02626223, -0.001821299, 0.001725986, 0.0102264
 65718714, -0.02880606, -0.01814126, 0.01109628, 0.01022863
 65768683, -0.03497543, 0.02566015, -0.03189756, 0.009298753
 65823146, -0.02307696, -0.0082216, 0.01162003, 0.01023012
 65878177, -0.02641627, -0.01780113, 0.01741715, 0.01022714
 65933234, -0.03634327, 0.01954662, -0.0212593, 0.01023012
 65988177, -0.02528748, -0.01011984, 0.01378184, 0.01022863
 66043709, -0.02843123, -0.02748299, 0.01874376, 0.0102277
 66098140, -0.0430028, 0.0118777, -0.02960885, 0.01022807
 66148116, -0.02688834, -0.01165368, 0.005292641, 0.009300984
 66203200, -0.03342576, -0.02581117, 0.009605801, 0.0102264
 66258164, -0.04637123, 0.018073, -0.02768596, 0.01023198
 66313354, -0.03182867, -0.009386556, 0.005825091, 0.01022528
 66368733, -0.02735703, -0.02207073, 0.01926213, 0.01022863
 66423179, -0.04215805, 0.01160234, -0.02538178, 0.01022863
 66478157, -0.02991969, 0.00181981, -0.008159792, 0.01022919
 66533340, -0.01668801, -0.02029545, 0.01205534, 0.01022807
 66583184, -0.03310956, 0.01254794, -0.0188185, 0.009298753
 66638159, -0.01831755, -0.0006597263, -0.005845738, 0.01023291
 66693711, -0.01727892, -0.01453316, 0.01525019, 0.01022658
 66748126, -0.0311843, 0.006098661, -0.009486977, 0.0102264
 66803180, -0.02689526, 0.007772997, -0.01187479, 0.01022937
 66858357, -0.02194826, -0.01186065, 0.005155913, 0.01022788
 66913482, -0.02354686, -0.0009307154, -0.005929461, 0.01022863
 66963359, -0.02190326, 0.01740407, -0.005888444, 0.009299125
 67018848, -0.01236991, -0.006913546, 0.01682893, 0.01022826
 67073146, -0.02051811, 0.006729677, -0.0007258017, 0.01022881
 67128158, -0.01900131, 0.02238491, -0.01503807, 0.01023067
 67183183, -0.01044443, -0.002376482, 0.01326065, 0.0102264
 67238232, -0.01334848, 0.003143569, 0.009825845, 0.01022863
 67293715, -0.02155696, 0.02832851, -0.01097536, 0.01022863
 67343696, -0.003009835, -0.0004303262, 0.01892544, 0.009300614
 67403180, -0.005407419, 0.001792063, 0.006571281, 0.01115664
 67453147, -0.01295925, 0.03188348, -0.02110302, 0.009300612
 67508228, -9.121269E-05, 0.001216204, 0.02328853, 0.01022677
 67563144, -0.006809008, 0.002045883, 0.01265494, 0.01022863
 67618693, -0.01686959, 0.04626607, -0.02376184, 0.01022974
 67673158, -0.004514475, 0.007865205, 0.01881447, 0.01022751
 67728147, -0.009459064, 0.01082098, 0.01213581, 0.01022919
 67778217, -0.02116155, 0.05205607, -0.0198443, 0.00929894
 67833185, -0.005201621, 0.004117162, 0.03329982, 0.01023049
 67888184, -0.02431696, 0.02649772, 0.001757923, 0.01022919
 67943718, -0.02616644, 0.05394893, -0.01408683, 0.01022565
 67998204, -0.008792788, 0.007986348, 0.03050789, 0.0102277
 68053145, -0.0291503, 0.02874168, 0.009482073, 0.01023086
 68108178, -0.02447488, 0.05547277, -0.01293156, 0.0102277
 68158181, -0.0089605, 0.004450209, 0.02812633, 0.009298195
 68213200, -0.03278926, 0.03491384, -0.0007183377, 0.01022937
 68268722, -0.02624028, 0.04916796, -0.01547457, 0.01022788
 68323145, -0.017845, 0.005540116, 0.02764514, 0.01022863
 68378184, -0.03839051, 0.02955173, -0.003536944, 0.01023086
 68433376, -0.04060438, 0.04689361, -0.02086414, 0.0102264
 68488363, -0.02177421, 0.004855216, 0.02336562, 0.01022863
 68538354, -0.04272122, 0.0220454, -0.01019294, 0.009299125
 68594839, -0.03258058, 0.03366304, -0.02128433, 0.01022826
 68648160, -0.01486142, -0.01331163, 0.02354691, 0.01022863
 68703129, -0.03476868, 0.008111063, -0.01324503, 0.01023049
 68758175, -0.02093121, 0.01035029, -0.01901234, 0.01022677
 68813184, -0.01022625, -0.03293058, 0.01871271, 0.01022937
 68868862, -0.02672834, -0.01453484, -0.01304001, 0.01022788
 68918845, -0.01655803, 0.002607922, -0.0245136, 0.009302844
 68973360, -0.0332749, -0.03978505, 0.008023463, 0.01022454
 69028233, -0.05508618, 0.02298197, -0.01006989, 0.01022919
 69083457, -0.02074676, -0.003869419, 0.007445314, 0.010229
 69138352, -0.08661199, -0.003296041, -0.0004795084, 0.01023105
 69194813, -0.05335065, 0.03454734, -0.03317691, 0.01022714
 69248248, -0.03599357, -0.005670278, 0.007737626, 0.01022677
 69303241, -0.08397745, 0.01340889, -0.004936721, 0.01023011
 69353450, -0.005802547, 0.03984533, -0.02929365, 0.009297266
 69408244, -0.05367253, -0.0168254, 0.02662324, 0.01023291
 69463353, -0.03008283, 0.05556117, -0.04062986, 0.01022491
 69518817, 0.00157367, 0.007435585, 0.02839975, 0.01023105
 69573249, -0.03746899, 0.02437115, 0.009559334, 0.01022565
 69628354, 0.01035455, 0.04919557, 0.0004825131, 0.01023198
 69683331, 0.006463298, 0.006466951, 0.03343333, 0.01022714
 69733285, -0.02073254, 0.0329142, 0.02723682, 0.009297079
 69788338, 0.02902191, 0.02136104, 0.02937878, 0.01022974
 69843791, -0.03224811, -0.01244824, 0.03381373, 0.01022751
 69898347, -0.01237678, 0.02946409, -0.01620558, 0.01022919
 69953345, 0.005934701, -0.0234549, 0.03646817, 0.01022919
 70008478, -0.05077298, -0.01993111, 0.0251531, 0.01022733
 70063443, -0.01166659, -0.006811232, -0.02537568, 0.01022863
 70113634, -0.02971904, -0.06880187, 0.03975017, 0.009298939
 70168914, -0.04791332, -0.02921627, -0.02908645, 0.01022844
 70223243, -0.006679988, -0.05627421, -0.005605234, 0.01022863
 70278287, -0.04681392, -0.09053485, 0.02653513, 0.01022993
 70333258, -0.03767135, -0.04101474, -0.04868384, 0.01022733
 70388447, -0.01018461, -0.07457611, -0.005795609, 0.01022919
 70443830, -0.04676969, -0.09288282, 0.02250678, 0.01023086
 70498329, -0.01995278, -0.03752277, -0.04562699, 0.01022584
 70548341, -0.01018228, -0.08434591, 0.03212259, 0.009298752
 70603341, -0.03723577, -0.06014852, -0.01272427, 0.01023086
 70658602, -0.0001271721, -0.027419, -0.0450127, 0.01022881
 70713446, -0.0260143, -0.0849261, 0.04196342, 0.01022472
 70768787, -0.02175249, -0.01099005, -0.02122146, 0.01023012
 70823266, -0.01926473, -0.02191804, -0.005935273, 0.01022863
 70878360, -0.02942557, -0.06352524, 0.05065068, 0.01022863
 70928469, -0.01839803, 0.0144684, -0.04327574, 0.009300242
 70983370, -0.03647649, -0.04347384, 0.01383907, 0.01022733
 71038339, -0.02199684, -0.04797335, 0.007281566, 0.01022975
 71093797, -0.03055914, 0.006691046, -0.05511535, 0.01022733
 71148347, -0.03111592, -0.05299609, 0.01209409, 0.01022919
 71203332, -0.001214721, -0.0424004, -0.01462486, 0.01023067
 71258334, -0.01913512, -0.005626577, -0.06234798, 0.01022602
 71308289, -0.02881669, -0.05031457, -0.005267688, 0.009298753
 71363339, -0.01212072, -0.04456472, -0.02452092, 0.01023346
 71420831, -0.05218957, -0.02962248, -0.05506236, 0.01068873
 71470842, -0.005426848, -0.06724662, 0.006612882, 0.009300054
 71525844, -0.0252882, -0.02625178, -0.03693638, 0.01022807
 71580964, -0.0265766, -0.03722524, 0.013904, 0.01022863
 71635941, 0.0007627362, -0.06990764, 0.05549822, 0.01022789
 71691371, -0.02097305, -0.02409678, -0.0009307833, 0.01023049
 71745830, -0.005432577, -0.05934253, 0.04912885, 0.01022751
 71800802, 0.009651308, -0.09418605, 0.03660422, 0.01022788
 71855827, -0.007679908, -0.05245791, -0.03558306, 0.01022993
 71905865, 0.02227383, -0.09662547, 0.05566252, 0.009298196
 71960885, 0.005513423, -0.09673634, -0.009918949, 0.01022844
 72016345, -0.001273179, -0.07609999, -0.05018201, 0.01022863
 72070800, 0.03747423, -0.1252313, 0.04326765, 0.01022807
 72125844, 0.005155168, -0.08073325, -0.008578101, 0.01022919
 72180833, 0.02316919, -0.06216225, 0.008455534, 0.01022993
 72235846, 0.02351475, -0.09507082, 0.06484354, 0.01022695
 72285833, -0.01433449, -0.05204458, -0.006047877, 0.009301171
 72341228, 0.006153485, -0.06865319, 0.0003577622, 0.01022602
 72400828, -0.01128983, -0.08967441, 0.03202569, 0.01115888
 72450903, -0.02509504, -0.04904146, -0.02081098, 0.009298754
 72505901, -0.01772171, -0.06252748, -0.002697228, 0.01022844
 72560817, -0.02745036, -0.09430313, 0.01578458, 0.01022863
 72616418, -0.02648358, -0.04561421, -0.02632378, 0.01022863
 72666207, -0.02994027, -0.06401693, 0.008601531, 0.009302287
 72720815, -0.02259036, -0.07829784, 0.037667, 0.01022491
 72775844, -0.0436243, -0.03584821, -0.005164732, 0.01022881
 72830839, -0.02756685, -0.06033271, 0.05955302, 0.01022881
 72885957, -6.924581E-05, -0.081044, 0.04559884, 0.010229
 72938362, -0.01877789, -0.02596812, -0.05433669, 0.009763504
 72995877, 0.006462726, -0.07427664, -0.003966036, 0.01069319
 73048224, 0.003243402, -0.07083075, -0.03325735, 0.009763504
 73104788, -0.02167001, -0.03426647, -0.08469438, 0.01022974
 73158477, 0.01753777, -0.06789824, -0.01885437, 0.01022751
 73213427, -0.004723853, -0.05231455, -0.04535954, 0.01022863
 73263450, -0.00694409, -0.007364547, -0.05245541, 0.009298939
 73318450, 0.01532807, -0.04101749, 0.01136146, 0.01022844
 73373359, -0.02089435, -0.01449402, -0.01536501, 0.01022881
 73428841, -0.01797886, 0.007419741, -0.02417158, 0.01022919
 73483354, 0.00108518, -0.02588647, 0.03451784, 0.01022788
 73538468, -0.05519516, 0.0006673648, -0.008250974, 0.01022937
 73588261, -0.01523804, 0.01039015, -0.002801957, 0.009298939
 73643338, -0.03294158, -0.02223116, 0.05418574, 0.0102277
 73698250, -0.0654975, 0.009662165, -0.003025921, 0.01022863
 73753779, -0.0462916, -0.006621614, -0.001480149, 0.01022863
 73808455, -0.0495734, -0.04461727, 0.04926374, 0.01022733
 73863295, -0.0827516, 0.007839386, 0.02086307, 0.01022993
 73918352, -0.04064085, -0.01836185, 0.03679121, 0.01023179
 73968356, -0.05494584, -0.03754029, 0.04035707, 0.009297824
 74023253, -0.07445085, 0.02199735, -0.0396059, 0.0102264
 74078925, -0.03622305, -0.01735079, 0.01691015, 0.010229
 74133344, -0.0852886, -0.009410403, 0.0186053, 0.01022826
 74188262, -0.04545629, 0.01607046, 0.002121671, 0.01022863
 74243326, -0.04709416, -0.02696203, 0.02805261, 0.01022919
 74293343, -0.06796601, 0.0009124144, -0.02726679, 0.009298381
 74348454, -0.02032829, 0.009908834, -0.02432961, 0.01022844
 74408345, -0.04367532, -0.02180076, -0.006582809, 0.01116241
 74458242, -0.0329511, 0.004083567, -0.04464824, 0.009295033
 74513341, -0.02786789, 0.007490899, -0.04706818, 0.01022844
 74568332, -0.01188117, -0.02097632, 8.865946E-05, 0.01022863
 74623340, -0.01907564, 0.02247473, -0.02824771, 0.01022937
 74673340, 0.004813031, 0.0201812, 0.03865409, 0.009298939
 74728722, -0.005161212, -0.01170801, 0.0220187, 0.01023049
 74783255, -0.009095155, 0.05156907, -0.06064377, 0.01022603
 74838441, 0.001612033, -0.028915, 0.03529858, 0.01022844
 74893472, -0.02138478, 0.02377721, -0.01975697, 0.0102316
 74948357, -0.02378079, 0.02639732, -0.009149781, 0.01022714
 75000971, -0.01202959, -0.03202545, 0.06235754, 0.009763505
 75053787, -0.03552517, 0.03946695, -0.0227186, 0.009763133
 75113465, -0.01889661, -0.001959922, 0.02103136, 0.01115795
 75163330, -0.01661677, -0.02327642, -0.0009477342, 0.009300056
 75218333, -0.02296623, 0.04341961, -0.06122817, 0.01022733
 75273331, -0.008276123, -0.03321772, 0.03429782, 0.01022844
 75328329, -0.008730674, 0.02491393, -0.03579876, 0.01023086
 75383477, -0.02682925, 0.02127175, -0.0168973, 0.01022788
 75435849, 0.004661818, -0.02693685, 0.01940779, 0.009762202
 75490845, -0.02568117, 0.06451844, -0.07657, 0.01022714
 75545843, -0.01791854, 0.001814849, 0.02852692, 0.01023235
 75598248, -0.01438007, 0.06585182, -0.02462524, 0.009762017
 75653461, -0.03824463, 0.07032898, -0.04695623, 0.01022807
 75708233, -0.01138822, 0.04944155, 0.006378302, 0.01023067
 75763751, -0.03876531, 0.1152754, -0.02244431, 0.01022658
 75815844, -0.02011255, 0.05175831, 0.0243642, 0.009764435
 75870857, -0.01198364, 0.09668272, 0.002053726, 0.01022937
 75926234, -0.03457874, 0.08213688, 0.04087762, 0.01022807
 75976194, 0.01377205, 0.05058614, 0.07627765, 0.009297823
 76030876, -0.04147585, 0.08225831, 0.008053738, 0.01022863
 76085838, 0.02149276, 0.03371602, 0.05383828, 0.01022937
 76140812, -0.009509202, 0.06931781, 0.006475897, 0.01022788
 76198253, 0.002570472, 0.02562066, 0.02671703, 0.0106971
 76251170, 0.01758626, 0.02910129, 0.02611863, 0.009760343
 76305948, -0.01108117, 0.03429878, 0.02638734, 0.01022733
 76360947, 0.03470621, -0.006808801, 0.07825806, 0.01023067
 76410842, -0.01462828, 0.02481981, -0.01398781, 0.00929838
 76465961, 0.03015045, -0.02446485, 0.05870029, 0.01023012
 76520937, 0.003545058, 0.01121149, 0.003722995, 0.01022826
 76576341, 0.001408867, -0.01888759, 0.04303792, 0.01022863
 76630804, 0.0308818, -0.01435504, 0.01540861, 0.0102277
 76685850, -0.01491541, 0.008488035, 0.01196704, 0.010229
 76740844, 0.03739673, -0.02822792, 0.05830635, 0.01022751
 76793342, -0.01306462, 0.02295012, -0.004146565, 0.009762761
 76845967, 0.02634903, -0.0223217, 0.03642235, 0.009768898
 76902327, 0.006793503, 0.01670781, -0.004432269, 0.01022435
 76955842, -0.005501754, 0.02277604, -0.009864207, 0.01022863
 77010870, 0.01126223, -0.01089626, 0.0137448, 0.01023216
 77065846, -0.0286654, 0.0751238, -0.08021124, 0.01022509
 77116094, -0.0001781699, -0.01186554, 0.01940608, 0.009298753
 77170842, -0.03053075, 0.09303322, -0.05807053, 0.01023012
 77226165, -0.02724345, 0.05878517, -0.026527, 0.0102277
 77280793, -0.02486281, 0.06226253, -0.02549368, 0.01022826
 77335838, -0.04406333, 0.1331939, -0.06374191, 0.01022882
 77393373, -0.03120675, 0.05627275, -0.01958927, 0.01069282
 77440861, -0.03912563, 0.1360818, -0.08046934, 0.008834187
 77495837, -0.04299155, 0.08931303, -0.03507453, 0.01023012
 77551166, -0.03106641, 0.1138969, -0.04314676, 0.01022714
 77611008, -0.0635311, 0.1678225, -0.07532193, 0.0111585
 77660847, -0.02714931, 0.06984554, 0.01995919, 0.009300986
 77715951, -0.04976968, 0.155535, -0.04333642, 0.01022714
 77770846, -0.05799642, 0.0909775, -0.0006570159, 0.01022788
 77826160, -0.03052058, 0.09056554, 0.007728189, 0.01022881
 77876242, -0.06207361, 0.09435759, 0.02755573, 0.009299125
 77930857, -0.02618292, 0.05073188, 0.05456873, 0.01022937
 77985868, -0.03432386, 0.08780144, -0.002825935, 0.01022807
 78040953, -0.04275068, 0.03555545, 0.01135089, 0.01022788
 78095979, -0.01764416, 0.03567778, -0.006946035, 0.01022863
 78151411, -0.05176319, 0.05624511, 0.02548104, 0.01023105
 78205842, -0.01495666, -0.002368155, 0.0889167, 0.01026117
 78255842, -0.03886625, 0.03715246, 0.01641063, 0.009264533
 78310822, -0.03251581, -0.02291605, 0.0793832, 0.01022844
 78365853, -0.04474219, 0.009509944, 0.01715575, 0.01022807
 78420972, -0.06211165, -0.01700543, 0.05648722, 0.01023049
 78476216, -0.01807689, -0.03820479, 0.06690175, 0.01022733
 78530813, -0.0731089, 0.006699435, -0.02418679, 0.01022807
 78580824, -0.03485232, -0.07199168, 0.04230237, 0.009298753
 78635866, -0.06187337, -0.006017458, -0.06539354, 0.01022974
 78691013, -0.03597965, -0.03683213, 0.01483651, 0.0102277
 78745834, -0.02419185, -0.04118983, 0.01219863, 0.01022844
 78798336, -0.04744536, 0.007634723, -0.05676886, 0.00976741
 78855806, -0.04167718, -0.07302651, 0.006942205, 0.01068985
 78910869, -0.03581985, 0.007165004, -0.1017107, 0.01022919
 78960996, -0.04637672, -0.03630636, -0.05414002, 0.009298195
 79015867, -0.02399249, -0.03013294, -0.09622716, 0.01022919
 79070843, -0.04754856, 0.03364833, -0.1419494, 0.01022826
 79126236, -0.0348558, -0.03148807, -0.04040976, 0.010229
 79180905, -0.02329999, 0.07132938, -0.07635687, 0.01022807
 79235824, -0.04736248, 0.03569115, -0.007158468, 0.01023142
 79290835, -0.01027909, 0.04443126, -0.0143402, 0.01022584
 79340850, -0.05002135, 0.08021078, -0.03620632, 0.009298753
 79398349, -0.01238269, 0.02084528, 0.008758957, 0.01069394
 79451216, -0.03767324, 0.0853766, -0.03587363, 0.009764064
 79511031, -0.04601495, 0.03657875, 0.04031194, 0.0111598
 79560917, -0.002887486, 0.03124405, 0.03783199, 0.009299311
 79616024, -0.06179709, 0.0501973, 0.005815674, 0.01022602
 79670944, -0.006188266, -0.01561224, 0.06287821, 0.01022863
 79720947, -0.06273016, 0.03508967, -0.01638317, 0.009299124
 79776355, -0.02589775, -0.04467519, 0.09590404, 0.01022937
 79830824, -0.05975385, 0.01545313, 0.00583013, 0.01022844
 79885860, -0.06812988, -0.03478129, 0.01916394, 0.01023067
 79940858, -0.04871104, -0.02844607, 0.0155653, 0.01022565
 79998357, -0.08629308, 0.0109509, -0.0247499, 0.01069505
 80051160, -0.04647472, -0.06386843, 0.05885275, 0.009766481
 80102177, -0.06174698, 0.03602619, -0.04323129, 0.009295406
 80155848, -0.04688079, -0.06264106, 0.05916839, 0.0102277
 80210895, -0.04319155, 0.0194012, -0.05125993, 0.01022863
 80266007, -0.04388395, -0.01655816, -0.003281805, 0.01022937
 80320857, -0.02896491, -0.02654916, 0.002119101, 0.01023105
 80376254, -0.02399147, 0.03909652, -0.04506857, 0.0102264
 80430840, -0.02308323, -0.05095605, 0.05779129, 0.0102277
 80480837, -0.02236655, 0.05054632, -0.05615757, 0.009299126
 80535991, -0.01808435, -0.02443932, 0.02519593, 0.01022826
 80593395, -0.009040281, 0.01536889, -0.00676468, 0.01069431
 80645861, -0.01648019, 0.03647893, 0.01280849, 0.009763133
 80702185, -0.003271484, -0.03528237, 0.04469965, 0.01023532
 80755860, -0.01554648, 0.05296891, -0.05726279, 0.01022231
 80810889, -0.01735688, -0.03022628, 0.04713593, 0.01023012
 80860845, -0.009201083, 0.03849383, -0.03629285, 0.009296708
 80915966, -0.02273671, -0.01119311, 0.02946023, 0.01022937
 80970849, 0.0006160964, -0.005414117, 0.00104914, 0.01022826
 81026202, -0.02470698, 0.01668988, -0.0380731, 0.01022844
 81080822, -0.0003597336, -0.03849768, 0.03786733, 0.01022974
 81135861, -0.01254729, 0.01406481, -0.03345261, 0.01022733
 81185847, -0.02145035, -0.04405312, 0.0257353, 0.009298753
 81240858, -0.00288879, 0.002708773, -0.03727701, 0.01022863
 81295999, -0.05445677, -0.01547661, 0.001671884, 0.01022993
 81351346, -0.00221675, -0.03255827, -0.001211117, 0.01022881
 81405910, -0.06232582, 0.01055362, -0.02650721, 0.01027252
 81460861, -0.03208834, -0.04580386, 0.02315991, 0.01018399
 81515967, -0.05056627, 0.0230147, -0.02236806, 0.01022788
 81565851, -0.04045629, -0.02778291, 0.0667179, 0.009300055
 81620883, -0.04624024, 0.003949573, 0.01041797, 0.01022807
 81676195, -0.09081091, 0.009070676, 0.04850183, 0.01022993
 81730821, -0.06530169, -0.0151979, 0.02886877, 0.01022658
 81785806, -0.1082357, 0.0553962, -0.02247781, 0.01022919
 81841002, -0.0958692, 0.00873948, -0.002365507, 0.01022807
 81890910, -0.0793604, 0.07566287, -0.04892072, 0.009302845
 81945891, -0.09721067, 0.06271926, -0.0148054, 0.01022454
 82005882, -0.08642599, 0.08318365, -0.01583963, 0.01116241
 82055845, -0.05809404, 0.1173626, -0.01442911, 0.009294848
 82110972, -0.09476203, 0.07718228, 0.01581629, 0.01022863
 82165870, -0.03188951, 0.1483628, -0.03260316, 0.01022919
 82215855, -0.07853352, 0.103423, 0.01822486, 0.009298195
 82270840, -0.024846, 0.1505169, -0.03204323, 0.01022863
 82326250, -0.03683617, 0.1597242, -0.01397476, 0.01022863
 82381022, -0.05396292, 0.1304403, 0.007521654, 0.01022863
 82435868, 0.01010299, 0.1555587, -0.04262013, 0.01022974
 82490875, -0.02678906, 0.1274128, -0.00656717, 0.01022751
 82540849, 0.01115841, 0.09796581, -0.008922143, 0.009298753
 82598291, 0.02211109, 0.1177545, 0.01608121, 0.01069598
 82651366, -0.02550505, 0.08286548, 0.05744334, 0.009762017
 82710825, 0.03849173, 0.08885279, 0.009234254, 0.01115888
 82760824, -0.02508019, 0.06878471, 0.02864373, 0.009297637
 82815854, -0.02690661, 0.05163066, -0.003260585, 0.01022863
 82871003, 0.00231592, 0.06321991, -0.03137151, 0.01022863
 82921012, -0.05341329, 0.03709271, 0.04513137, 0.009299311
 82980850, -0.009357437, 0.02414519, -0.01578689, 0.01115925
 83030924, -0.02992552, 0.03551651, 0.02765536, 0.009299311
 83085833, -0.05583514, 0.00683786, 0.03803846, 0.01022863
 83140829, -0.01672483, 0.009467515, -0.04012834, 0.01022677
 83198246, -0.07230666, 0.01957281, 0.02279538, 0.01069357
 83251173, -0.01541316, -0.01559254, -0.03281047, 0.009766108
 83302168, -0.03646055, 0.030418, 0.005760958, 0.009296335
 83355792, -0.02969671, -0.0175309, 0.001324986, 0.01022863
 83410915, 0.005017696, 0.03652642, -0.0162116, 0.01022863
 83465859, -0.04130679, 0.01064887, 0.02098358, 0.01023198
 83520853, 0.01568316, 0.004037561, -0.03997723, 0.01022677
 83576216, -0.0184196, 0.03548469, 0.01575857, 0.01022882
 83630824, -0.01225444, -0.01669081, 0.01080805, 0.01022751
 83680817, 0.01523365, 0.01947475, -0.01295934, 0.009298195
 83735835, -0.0249131, -0.005357314, 0.01279634, 0.01022993
 83793339, 0.01639643, -0.009577636, -0.03176069, 0.01069338
 83845926, -0.01542006, 0.0224918, -0.003087654, 0.009762575
 83902287, 0.005467727, -0.0287262, -0.04791481, 0.01023253
 83955966, 0.01898922, 0.0164885, -0.01434782, 0.01022472
 84010826, -0.01743299, -0.0237217, 0.01861515, 0.01023179
 84060810, 0.04144575, -0.03118425, -0.03637844, 0.009295592
 84115948, -0.01841857, -0.006566068, 0.0257128, 0.01023123
 84170822, 0.04206531, -0.07295229, -0.02739692, 0.01022789
 84226411, 0.02081502, -0.005877506, 0.002181156, 0.01022826
 84280837, 0.00153964, -0.06701817, -0.0282001, 0.01022733
 84335840, 0.04121178, -0.04899786, -0.08806416, 0.01022956
 84385897, -0.002023934, -0.02699137, -0.01145738, 0.009300241
 84440867, 0.06163987, -0.06605191, -0.05531161, 0.01022658
 84495975, 0.03689667, -0.01017945, -0.02802455, 0.01022863
 84551446, 0.04202296, -0.04891658, -0.009114497, 0.01023272
 84605996, 0.08625914, -0.02217157, -0.02735819, 0.01022305
 84660851, 0.04578754, -0.004807841, 0.01400468, 0.01023086
 84715945, 0.09117313, -0.05215963, -0.02380014, 0.01022807
 84765972, 0.05700737, 0.003742236, -0.01869615, 0.009299683
 84820824, 0.07947918, -0.03722998, -0.02129484, 0.01023012
 84876237, 0.09829546, 0.008927049, -0.01132076, 0.01022696
 84930842, 0.06168205, 0.005804845, -0.04597069, 0.01022714
 84985824, 0.1134065, -0.02468811, -0.06295749, 0.01022863
 85040886, 0.07466133, 0.0378184, -0.007394476, 0.01022937
 85090848, 0.08412053, -0.002808947, 0.006163317, 0.009298196
 85145836, 0.08837723, 0.03776044, 0.05519532, 0.01023105
 85205857, 0.06935468, 0.03284086, 0.08309173, 0.01115553
 85255823, 0.09363195, 0.009110615, 0.0546879, 0.009299125
 85310837, 0.04176051, 0.06286313, 0.09238325, 0.01023142
 85365861, 0.09366104, 0.0007900047, 0.02742899, 0.01022733
 85420867, 0.05101141, 0.06194305, 0.05980282, 0.0102277
 85470867, 0.062597, 0.004340544, 0.00877144, 0.00929894
 85526207, 0.07266702, 0.04903965, 0.06586543, 0.01023012
 85580845, 0.06358595, 0.03997794, 0.03127092, 0.01022714
 85635892, 0.08024608, 0.04565815, 0.02579639, 0.01023123
 85690890, 0.04556913, 0.0818762, 0.01399477, 0.01022547
 85745853, 0.07758094, 0.01191675, 0.01177054, 0.01022844
 85798337, 0.05256788, 0.08416753, 0.0713998, 0.009764249
 85851209, 0.0727473, 0.03203386, -0.0254961, 0.009764621
 85910866, 0.09009556, 0.07428286, -0.001193556, 0.01115702
 85960888, 0.07736894, 0.0836793, 0.003290244, 0.009299498
 86015891, 0.1012384, 0.04343775, -0.01629998, 0.01022789
 86070983, 0.09103787, 0.09407895, 0.05797746, 0.01022863
 86126427, 0.1059381, 0.04997101, 0.008308487, 0.01022937
 86176344, 0.1077226, 0.07414453, 0.008218343, 0.009299496
 86230948, 0.1197676, 0.08953848, -0.05126704, 0.0102277
 86285955, 0.1373601, 0.06109377, -0.1448055, 0.01022807
 86340973, 0.1290958, 0.07771996, -0.06590876, 0.01022937
 86398341, 0.133403, 0.0832377, -0.03967951, 0.01069747
 86451244, 0.1507105, 0.02199509, -0.04224696, 0.009759598
 86505882, 0.1364973, 0.07898007, 0.03207222, 0.01022807
 86555834, 0.1331406, 0.03822972, -0.001162382, 0.009298754
 86610934, 0.1660235, 0.03311156, -0.002251976, 0.01022956
 86665879, 0.1295848, 0.09413385, 0.04382784, 0.01023105
 86720891, 0.1595962, 0.01877548, -0.02789917, 0.010229
 86776164, 0.1365251, 0.06900848, -0.009697986, 0.01022491
 86830837, 0.1160403, 0.08424836, -0.008723106, 0.01022863
 86885867, 0.1326301, 0.018373, -0.04023222, 0.0102316
 86935829, 0.0703674, 0.07904986, 0.04827691, 0.009295776
 86993467, 0.09275961, 0.01309198, 0.01317695, 0.0106997
 87045839, 0.05629664, 0.01111825, 0.02221511, 0.009760157
 87102199, 0.04974172, 0.0502359, 0.06278456, 0.01022881
 87155794, 0.03547184, -0.03583339, -0.01125931, 0.01022509
 87210814, -7.630629E-05, 0.01955794, 0.03744873, 0.01022788
 87260857, 0.002677018, 0.006990082, 0.01294796, 0.00930024
 87315941, -0.02381416, -0.01741328, -0.001263805, 0.01023123
 87370859, -0.0398121, 0.03908858, 0.004583743, 0.01022603
 87426223, -0.05428192, -0.05134239, -0.05453289, 0.0102316
 87480836, -0.07895191, 0.008670224, 0.02359975, 0.01022565
 87535838, -0.06601024, -0.01872837, 0.02175366, 0.01022919
 87593264, -0.1019033, -0.06985559, 0.01127757, 0.01069617
 87640856, -0.06387582, 0.01135408, 0.06416847, 0.008830841
 87695842, -0.1102085, -0.1040377, -0.01505658, 0.010229
 87751194, -0.1040498, -0.0593509, 0.02594529, 0.01023105
 87806031, -0.1031961, -0.06589457, 0.01024602, 0.01022435
 87861020, -0.127044, -0.1542007, -0.0263371, 0.01023049
 87916154, -0.09230467, -0.04861034, 0.04198347, 0.0102316
 87965990, -0.1121724, -0.1630438, -0.04982401, 0.009296893
 88020841, -0.08924103, -0.115076, 0.01045955, 0.01022695
 88076189, -0.08138354, -0.1102364, 0.005289942, 0.01022937
 88130941, -0.0866404, -0.1865483, -0.04952821, 0.0102303
 88187608, -0.0455561, -0.07452341, 0.02822188, 0.01022621
 88238233, -0.06932438, -0.1558598, -0.04625767, 0.009763691
 88293394, -0.01318684, -0.1089853, -0.001001694, 0.01023049
 88348800, -0.04311634, -0.09407724, -0.0245741, 0.01022919
 88403370, 0.003183151, -0.1548513, -0.02866431, 0.01022491
 88456562, -0.006186188, -0.05631865, 0.01771335, 0.009841056
 88508775, 0.01664333, -0.1611891, -0.05058761, 0.009765551
 88563767, 0.02486589, -0.07857237, 0.006365254, 0.01022751
 88621380, 0.01852846, -0.13576, -0.04872593, 0.0106958
 88671381, 0.05944174, -0.09631293, -0.002668424, 0.009295777
 88728776, 0.02035394, -0.07636949, -0.01302394, 0.01069394
 88783730, 0.05901254, -0.1591575, -0.03420888, 0.01022826
 88836856, 0.03200028, -0.04882424, 0.03498811, 0.009764248
 88891367, 0.04572808, -0.1443038, -0.02166473, 0.01022863
 88943761, 0.04598564, -0.08031548, 0.02384539, 0.009765549
 89000164, 0.02691261, -0.08685858, 0.003407021, 0.01022714
 89051343, 0.04522231, -0.1230672, -0.005139104, 0.009763504
 89106352, 0.004640751, -0.03524602, 0.03328879, 0.01022788
 89161816, 0.02790369, -0.1278472, -0.04500062, 0.01023123
 89216348, 0.007299632, -0.03871806, 0.03189049, 0.01027233
 89271351, -0.00451332, -0.0838014, -0.02488704, 0.01018251
 89326373, 0.01825948, -0.07461133, 0.004213463, 0.01022919
 89376363, -0.03035763, -0.01850631, 0.03608152, 0.009298939
 89431606, 0.009559659, -0.1012188, -0.01227774, 0.01029019
 89486813, -0.04152377, -0.02182798, 0.03887284, 0.01023067
 89541710, -0.02809049, -0.08263139, 0.0004674315, 0.01022881
 89598024, -0.03077131, -0.07322039, 0.002637736, 0.01022696
 89649219, -0.06197564, -0.02143534, 0.03620747, 0.009764619
 89706621, -0.04463018, -0.1149291, -0.05146633, 0.01069059
 89756625, -0.06093955, -0.02466694, 0.03077148, 0.009301543
 89814094, -0.07419933, -0.08864483, -0.0220997, 0.01073894
 89864114, -0.03202742, -0.06816078, -0.01625592, 0.009252074
 89921987, -0.09018729, -0.05462912, 0.01659507, 0.01069561
 89976644, -0.04136801, -0.09703054, -0.03905253, 0.01022714
 90029493, -0.06278455, -0.04633485, -0.001370548, 0.009841987
 90084476, -0.06633312, -0.07679178, -0.02139227, 0.01022788
 90139483, -0.02585796, -0.0700408, -0.04852908, 0.01022919
 90189650, -0.05876959, -0.03537827, 0.01269825, 0.009298195
 90247102, -0.03577646, -0.06998601, -0.04093159, 0.01069357
 90302146, -0.01015629, -0.04560367, -0.03899388, 0.01023198
 90351975, -0.041225, -0.02792913, 0.0118586, 0.009296335
 90409488, 0.00213904, -0.04334081, -0.0401099, 0.01069301
 90464909, 0.01081422, -0.01875495, -0.02776407, 0.01023086
 90517086, -0.01631279, -0.02345616, -0.003205709, 0.009763692
 90572128, 0.03115193, -0.02013772, -0.03920047, 0.01022844
 90624924, 0.01987518, -0.006981337, -0.006327827, 0.009762947
 90679460, 0.008739707, -0.00645738, 0.008011287, 0.01022695
 90734476, 0.04867726, 0.006413534, -0.02205648, 0.01022993
 90791976, 0.02624694, 0.009121965, 0.002968199, 0.01071756
 90844464, 0.01237158, 0.01545602, 0.005246182, 0.009739886
 90894599, 0.04213542, 0.01828579, -0.03457472, 0.009298008
 90949494, 0.008502956, 0.02486173, 0.01238933, 0.01022788
 91007117, 0.006274398, 0.03844671, 0.01745399, 0.01069766
 91060240, 0.022296, 0.02578201, -0.01039611, 0.009834176
 91112596, -0.006441657, 0.03915741, 0.03056574, 0.009762762
 91167596, -0.006810177, 0.0453218, 0.01643898, 0.01022863
 91219992, 0.002529708, 0.04555047, 0.004473737, 0.00976369
 91275028, -0.01721321, 0.06207629, 0.01190554, 0.01022863
 91332398, -0.0182016, 0.05954933, -0.003193297, 0.01069357
 91387599, -0.01620264, 0.06073224, -0.000347112, 0.01023049
 91439936, -0.01853589, 0.07191861, 0.008160616, 0.009761832
 91495055, -0.01330276, 0.07488092, 0.005215605, 0.01023086
 91547950, -0.01788806, 0.06974046, 0.01693392, 0.00976146
 91602418, -0.01804818, 0.08518491, 0.02335656, 0.01023886
 91654927, -0.02103593, 0.06949568, 0.01933454, 0.009754578
 91712417, -0.02306977, 0.081067, 0.006175348, 0.01069245
 91762416, -0.01997829, 0.07339714, 0.001700327, 0.009300239
 91820345, -0.01665063, 0.08156591, 0.02186188, 0.01075289
 91875362, -0.01108295, 0.07826741, 0.03397689, 0.01022695
 91927782, -0.007392192, 0.07842265, 0.02264656, 0.00976834
 91982742, -0.01251385, 0.07817304, 0.01472755, 0.01022528
 92035769, -0.0142661, 0.08007944, -0.004237687, 0.009838824
 92090640, -0.01090668, 0.0774852, -0.0155878, 0.01022788
 92145988, -0.01569275, 0.07695776, 0.005226159, 0.01022993
 92200636, -0.002847579, 0.07210207, -0.008181954, 0.01026694
 92253177, -0.0005876713, 0.06655075, -0.007884054, 0.009724265
 92309675, 0.000566544, 0.05783607, -0.004087377, 0.01023067
 92363192, 0.01688426, 0.05543382, -0.002161214, 0.01022658
 92418407, 0.01776013, 0.04369656, 0.006395453, 0.01023272
 92468195, 0.008207166, 0.02948176, 0.01872324, 0.009294475
 92523655, 0.03577155, 0.03273379, 0.01119794, 0.01029521
 92578458, 0.03180352, 0.02990691, 0.02146042, 0.0102277
 92633958, 0.02290286, 0.01747701, 0.03999201, 0.01022807
 92688659, 0.06445955, 0.03260535, 0.002607212, 0.01022863
 92738472, 0.02785096, 0.004432345, 0.04757001, 0.009298753
 92793465, 0.04686679, 0.01061777, 0.01451068, 0.01023272
 92848685, 0.06967811, 0.01759415, 0.00410967, 0.01022881
 92903795, 0.02316999, -0.01362346, 0.02854728, 0.01022435
 92959045, 0.09740397, 0.01325686, -0.03762705, 0.01023198
 93013601, 0.02699958, -0.002316097, 0.03031696, 0.01025541
 93068476, 0.0789142, -0.0025133, -0.01680744, 0.0101985
 93118465, 0.04362548, 0.02678955, -0.00227098, 0.009298939
 93173500, 0.0597465, -0.009172183, 0.03387882, 0.01023198
 93228685, 0.07148326, 0.04048024, -0.005762001, 0.01022919
 93283886, 0.03008108, -0.01633858, 0.05250083, 0.01022509
 93338483, 0.08290514, 0.01412459, -0.01550346, 0.01022807
 93393590, 0.02647513, -0.004271412, 0.01027366, 0.01022863
 93443495, 0.07271267, -0.0283894, -0.007281857, 0.009298752
 93498694, 0.03250778, 0.006061807, -0.02157322, 0.01023012
 93556416, 0.04484769, -0.06160353, 0.0231644, 0.01069208
 93611081, 0.05322378, -0.006241274, -0.03116172, 0.01025504
 93660942, 0.001694449, -0.05519846, 0.02681333, 0.009273833
 93715969, 0.04729187, -0.04281612, -0.02559185, 0.01022714
 93770982, -0.004074852, -0.03900607, -0.01169412, 0.01022863
 93826036, 0.01689526, -0.08882838, 0.0351106, 0.01022937
 93881614, -0.005818395, -0.02545611, -0.0508198, 0.01022788
 93935983, -0.02001708, -0.08505022, 0.04180424, 0.010229
 93985987, 0.007085668, -0.0401167, -0.02965205, 0.009301729
 94040988, -0.04450754, -0.06987714, 0.01935901, 0.01022528
 94095957, -0.000127651, -0.07403479, 0.0006956742, 0.01022863
 94151097, -0.03985607, -0.03512342, -0.01341336, 0.01022863
 94203445, -0.01740804, -0.08298779, 0.04297701, 0.00976369
 94260939, -0.01103005, -0.04265479, -0.03045007, 0.01069357
 94315967, -0.04512912, -0.06881755, 0.002197373, 0.01022863
 94365982, 0.008968223, -0.06555934, -0.02115632, 0.009300612
 94421128, -0.04753742, -0.04003683, -0.0340435, 0.01022696
 94476130, -0.01198217, -0.0858927, 0.02223927, 0.010229
 94531588, -0.02663387, -0.01501223, -0.05535221, 0.01022826
 94585957, -0.04455419, -0.0490068, 0.01330152, 0.01022863
 94641001, -0.01541021, -0.03927721, 0.0004790206, 0.01022881
 94691093, -0.053658, 0.008711151, -0.034334, 0.009299683
 94745969, -0.03274429, -0.0494769, 0.03190622, 0.01022733
 94803654, -0.05688419, 0.03150347, -0.04371981, 0.01069357
 94856382, -0.05392511, -0.01082373, 0.03260055, 0.009763692
 94910979, -0.05010119, 0.004440046, -0.007641313, 0.01025653
 94965948, -0.06810391, 0.04737469, -0.03123454, 0.01020166
 95016259, -0.02855892, -0.01379236, 0.01375009, 0.009359567
 95071238, -0.07373462, 0.06408282, -0.04052708, 0.01022807
 95126337, -0.05544655, 0.01001974, 0.002184579, 0.01023012
 95181750, -0.04335541, 0.04328372, -0.03449231, 0.01022844
 95236243, -0.07103868, 0.04638989, -0.01269466, 0.01022751
 95291242, -0.03686467, 0.001183803, -0.0005713823, 0.01022974
 95346254, -0.05810272, 0.07058054, -0.02637471, 0.01022919
 95398826, -0.04615648, 0.01211197, 0.03348202, 0.00976834
 95451351, -0.02995901, 0.03802026, -0.002417963, 0.009758668
 95507902, -0.06044448, 0.05542769, -0.00449622, 0.01022844
 95561222, -0.02906885, -0.01191326, 0.05137504, 0.01022751
 95616231, -0.04365026, 0.04949396, -0.03213575, 0.01023049
 95671250, -0.06050763, 0.01222477, 0.02493804, 0.01022677
 95721244, -0.01588088, 0.005859512, 0.01307568, 0.00929931
 95776236, -0.07146067, 0.04204553, -0.02061252, 0.01022956
 95831733, -0.02052228, -0.01583448, 0.03229238, 0.01022695
 95886258, -0.04384752, 0.05036094, -0.0363935, 0.01022863
 95941337, -0.04392708, 0.01215739, 0.01255746, 0.01023123
 95998975, -0.01954475, 0.0147989, -0.008663393, 0.01074341
 96051395, -0.05395856, 0.04799511, -0.02648433, 0.00971236
 96101222, -0.02617572, -0.001669156, -0.002939741, 0.009300241
 96156936, -0.05257611, 0.05280294, -0.03001723, 0.01022658
 96216229, -0.06348006, 0.03847067, 0.01209512, 0.01115906
 96266429, -0.01280334, 0.01634362, 0.02189942, 0.009301356
 96321331, -0.08031812, 0.08038435, -0.01923616, 0.01022788
 96376335, -0.03554082, 0.01852157, 0.04512451, 0.01022621
 96431766, -0.07094963, 0.08823486, -0.002609603, 0.01022937
 96481737, -0.06889365, 0.05243121, 0.03664064, 0.009296522
 96536486, -0.06456836, 0.07299281, 0.01853632, 0.01022993
 96591235, -0.09247687, 0.1275924, -0.003499363, 0.01022826
 96646249, -0.06706229, 0.05140398, 0.04778032, 0.0102303
 96701332, -0.07732205, 0.128513, -0.0207955, 0.01022733
 96756802, -0.07400544, 0.1124106, 0.00650933, 0.01022825
 96811248, -0.06367834, 0.07359459, 0.0220349, 0.01026601
 96861210, -0.06551315, 0.1469541, -0.02327313, 0.009261373
 96916230, -0.04835226, 0.08351204, 0.0309527, 0.01022974
 96971333, -0.0540268, 0.1118998, 0.01371746, 0.01022993
 97026257, -0.04191716, 0.1393021, -0.008085281, 0.01022695
 97081719, -0.04833514, 0.0624696, 0.03723498, 0.01022881
 97136326, -0.04039343, 0.1400302, -0.01758946, 0.01022807
 97186251, -0.02760192, 0.07953896, 0.0211408, 0.009298381
 97241259, -0.05048572, 0.1060807, -0.007040624, 0.01023049
 97296248, -0.03854947, 0.1321037, -0.01612462, 0.01022695
 97351245, -0.04020637, 0.07290302, 0.01415266, 0.01023477
 97403852, -0.05060235, 0.1266625, -0.008446176, 0.009757368
 97461339, -0.0360226, 0.09820937, -0.002671592, 0.01069357
 97516345, -0.05472015, 0.09258844, 0.0004458132, 0.01024332
 97566230, -0.04215795, 0.1071936, -0.005867749, 0.009299868
 97621341, -0.04660409, 0.06641139, 0.02442159, 0.01021338
 97676224, -0.05867794, 0.1009838, 0.01596382, 0.01022974
 97731908, -0.05193138, 0.07256902, 0.01615774, 0.01022863
 97786438, -0.06100235, 0.0466073, 0.02292364, 0.01022714
 97841453, -0.0660337, 0.08929431, -0.01401713, 0.01022844
 97891455, -0.06370439, 0.01916156, 0.01730114, 0.009299497
 97946330, -0.07035806, 0.06449775, -0.008749818, 0.01022825
 98003808, -0.06980992, 0.0520609, -0.006359741, 0.01069561
 98056835, -0.07555454, 0.01601417, 0.008172834, 0.009761645
 98111416, -0.06090054, 0.06356889, -0.01769914, 0.01023737
 98166243, -0.06979847, 0.02184322, -0.0004382757, 0.01021952
 98221252, -0.06937025, 0.03524121, 0.001751309, 0.01023235
 98271247, -0.04218086, 0.04855263, -0.007494196, 0.009297265
 98326209, -0.06997798, 0.01255112, 0.03669575, 0.01022658
 98381931, -0.04673051, 0.03631023, -0.008017649, 0.01022881
 98436329, -0.04333188, 0.008452519, 0.000885079, 0.01022882
 98491231, -0.06394587, -0.005461928, 0.0280236, 0.01023012
 98546236, -0.02579066, 0.0306521, -0.01511949, 0.01022863
 98598816, -0.05750093, -0.01391429, 0.007617918, 0.009763319
 98651414, -0.03754553, 0.01790632, -0.01280975, 0.009762389
 98707841, -0.01920911, 0.01479363, -0.01071049, 0.01022826
 98761237, -0.05584413, -0.002377942, 0.03012478, 0.01022863
 98816247, -0.001054561, 0.03007458, -0.01463691, 0.01022956
 98871286, -0.02917607, -0.003197639, 0.01564213, 0.01022826
 98926244, -0.03164541, 0.02260935, -0.01260543, 0.01022807
 98976245, 0.001158472, 0.01611784, -0.05304651, 0.009301916
 99031749, -0.04342392, -0.001903012, -0.003996837, 0.01022547
 99086226, -0.002804436, 0.03311072, -0.03661719, 0.01022919
 99141326, -0.001582015, 0.001523623, -0.01674725, 0.01022919
 99198822, -0.02772109, 0.01850291, 0.02152878, 0.01069394
 99251248, 0.03030947, 0.02629892, -0.02200348, 0.009762202
 99307968, -0.006311985, -0.005826175, 0.02922745, 0.01022863
 99356834, 0.005638701, 0.02285485, -0.007146291, 0.009299312
 99416448, 0.03421606, -0.006904403, -0.02970332, 0.01115925
 99466419, -0.01479181, -0.00410542, 0.008165146, 0.009298009
 99521285, 0.04039981, 0.01201051, -0.0392427, 0.01022881
 99576235, 0.0244498, -0.02615369, -0.02280969, 0.01022788
 99631770, 0.004116515, 0.005245402, 0.016698, 0.01022863
 99681778, 0.05510547, -0.006974418, -0.03202347, 0.009300614
 99736256, 0.006095659, -0.01456566, 0.01058928, 0.0102277
 99791254, 0.02789713, 0.02186776, -0.01722456, 0.0102277
 99846253, 0.05863626, -0.01912427, -0.04527071, 0.01022863
 99901233, 0.003986182, 0.008241548, 0.01844004, 0.01022974
