TimeUS,CAN,CAE,CAD,CAe,NAN,NAE,NAD,NAe,m10,m00,Gye
 77970817, -0.09434858, -0.06347731, -0.009688165, 0.07582594, -0.03315748, -0.02286447, -0.005135719, 0.03693056, -0.831572, 0.5543402, 70.59255
 78173267, -0.09431577, -0.06345867, -0.01080413, 0.07505713, -0.03344353, -0.02257966, -0.005597632, 0.03765977, -0.8315108, 0.5544321, 127.0487
 78373270, -0.09401231, -0.06179391, -0.01240978, 0.07532049, -0.03366056, -0.02201345, -0.004289142, 0.03719519, -0.8314106, 0.5545825, 127.4944
 78573221, -0.09404494, -0.06275884, -0.01013073, 0.07485685, -0.03361889, -0.0222096, -0.003507331, 0.03719482, -0.8314062, 0.5545917, 126.7096
 78773244, -0.09371704, -0.06283452, -0.007130277, 0.07485478, -0.03308053, -0.02285182, -0.001924116, 0.03719502, -0.8313366, 0.5546958, 126.7061
 78973280, -0.09414916, -0.06313325, -0.007971215, 0.07485517, -0.03301782, -0.02220116, -0.003976179, 0.03719501, -0.8312848, 0.5547731, 126.7068
 79173248, -0.09346383, -0.0620323, -0.009882823, 0.07485854, -0.03285578, -0.023914, -0.003687388, 0.03719539, -0.8312297, 0.554858, 126.7124
 79373256, -0.09426971, -0.06443436, -0.008720489, 0.07485888, -0.03319755, -0.02225133, -0.001493048, 0.03719576, -0.8311933, 0.5549172, 126.7131
 79573205, -0.0930067, -0.06352624, -0.00719397, 0.07485592, -0.03338971, -0.02148642, -0.003540842, 0.0371939, -0.8311512, 0.5549823, 126.708
 79773256, -0.09408718, -0.06148674, -0.01024443, 0.07485683, -0.03296757, -0.02249867, -0.00267737, 0.03719576, -0.8310728, 0.5550981, 126.7096
 79976726, -0.09419563, -0.06440582, -0.009527278, 0.07532382, -0.03431639, -0.02475465, -0.0009550087, 0.03765976, -0.8310547, 0.5551245, 127.5001
 80176767, -0.09457362, -0.06431403, -0.005445011, 0.07532216, -0.03486146, -0.02243586, -0.003588725, 0.03719464, -0.8308436, 0.5554489, 127.4972
 80376901, -0.09515248, -0.06116134, -0.01193554, 0.07485591, -0.02531271, -0.01377235, -0.008645728, 0.03719632, -0.83089, 0.5553759, 126.708
 80576835, -0.0866449, -0.05423537, -0.01561203, 0.07485983, -0.03011539, -0.02104197, -0.005823993, 0.03719371, -0.8308265, 0.5554675, 126.7146
 80776803, -0.08896501, -0.06083867, -0.02269991, 0.07485703, -0.0137417, -0.004856867, 0.04047168, 0.03719632, -0.8309307, 0.5553622, 126.7099
 80976890, -0.07536794, -0.0487077, 0.0304276, 0.07485706, -0.05049464, -0.05464821, -0.007970107, 0.03719501, -0.8306258, 0.5558046, 126.7099
 81176752, -0.1134016, -0.09293044, -0.0195575, 0.0748572, -0.03820426, -0.01169875, -0.02119119, 0.03719501, -0.8306753, 0.5557029, 126.7103
 81376744, -0.09764919, -0.0554908, -0.02116842, 0.07485498, -0.02727684, -0.03467485, 0.005035189, 0.03719521, -0.83078, 0.5555688, 126.7065
 81576776, -0.08768735, -0.07612112, 7.84127E-06, 0.07485498, -0.03252622, -0.004106838, 0.00356168, 0.03719501, -0.8307344, 0.5556207, 126.7065
 81776790, -0.09331328, -0.04117291, -0.006169684, 0.07485535, -0.03556892, -0.01129477, 0.0006844262, 0.03719817, -0.8305851, 0.5558499, 126.7071
 81976698, -0.09522256, -0.05626153, -0.004427018, 0.0748548, -0.02635305, -0.02380361, 0.003410235, 0.03719223, -0.8306854, 0.5557154, 126.7061
 82176745, -0.09106186, -0.06521776, -0.00486163, 0.07485463, -0.03714158, -0.02092657, -0.007742805, 0.03719501, -0.8305981, 0.5558294, 126.7058
 82376822, -0.09897248, -0.06387537, -0.01504311, 0.07485518, -0.0405446, -0.03562227, -0.01161079, 0.0371952, -0.8306646, 0.5557415, 126.7068
 82576727, -0.09844369, -0.07283373, -0.01857434, 0.07485442, -0.02847013, -0.01398608, -0.004761567, 0.03719427, -0.8306578, 0.555754, 126.7055
 82776939, -0.08836791, -0.05822111, -0.01407677, 0.07485516, -0.03476235, -0.02878234, -0.004079066, 0.03719502, -0.830587, 0.5558776, 126.7068
 82976798, -0.09588484, -0.07103403, -0.01184986, 0.07485928, -0.02985179, -0.01244662, 0.002104668, 0.03719502, -0.8306514, 0.5558029, 126.7137
 83176774, -0.08850207, -0.05223783, -0.006814645, 0.07485555, -0.004114923, -0.03048203, 0.01499546, 0.03719502, -0.8302886, 0.5563391, 126.7074
 83376779, -0.05258582, -0.06637568, 0.01028465, 0.07485722, -0.007536078, -0.04270616, -0.0006258468, 0.03719502, -0.8307282, 0.5556868, 126.7103
 83576765, -0.06113969, -0.06217998, -0.0163507, 0.07485943, -0.06894007, 0.05287613, -0.02446494, 0.03719501, -0.8289512, 0.5578015, 126.714
 83776839, -0.1590235, 0.0801349, -0.1940996, 0.07485499, 0.02332662, -0.07947549, 0.05953196, 0.03719501, -0.8225647, 0.5652307, 126.7065
 83976709, -0.173096, -0.01917186, -0.1059102, 0.07485662, -0.2447729, 0.01995199, -0.1162574, 0.03719502, -0.8304039, 0.5518329, 126.7093
 84176755, -0.4333277, 0.006923676, -0.2375228, 0.07485553, -0.228323, 0.1112025, -0.3329894, 0.03719501, -0.8358638, 0.5482599, 126.7074
 84376839, -0.2593375, -0.002336409, -0.4510379, 0.07485498, -0.008855734, -0.02879038, -0.1584202, 0.0371965, -0.8377455, 0.5439574, 126.7065
 84576984, 0.1201337, -0.2001375, -0.2530538, 0.07485946, 0.1861324, -0.1599797, 0.1293662, 0.03719372, -0.8347019, 0.537581, 126.714
 84776969, 0.4041297, -0.3693669, 0.06292681, 0.07485572, 0.2208311, -0.2092197, 0.270793, 0.03719539, -0.8305753, 0.5317838, 126.7077
 84976768, 0.4716359, -0.4258688, 0.1720934, 0.07485815, 0.1431891, -0.1643533, 0.1638869, 0.03719446, -0.8300232, 0.5329983, 126.7118
 85176767, 0.3801079, -0.3078328, 0.1662811, 0.07485516, 0.01556411, -0.04145592, -0.1142372, 0.03719502, -0.8277735, 0.549405, 126.7068
 85376785, 0.1403936, -0.07104652, -0.08466974, 0.07485555, -0.02606629, 0.1409815, -0.1561152, 0.03719501, -0.8247865, 0.5653511, 126.7074
 85576739, -0.08232601, 0.2491751, -0.07298376, 0.07485498, -0.0236527, 0.1133567, 0.08288266, 0.03719502, -0.8196736, 0.5629352, 126.7065
 85776856, -0.2030504, 0.3629167, 0.1601934, 0.07485498, 0.03857543, 0.05639566, 0.2094724, 0.03719501, -0.8164118, 0.5585897, 126.7065
 85976741, -0.1479893, 0.3522404, 0.2909711, 0.07485554, -0.1110999, 0.03973915, 0.1072553, 0.03719538, -0.8178155, 0.5548869, 126.7074
 86176766, -0.2534725, 0.3016004, 0.1393157, 0.07485498, -0.2040026, 0.211907, -0.1293671, 0.03719558, -0.8260942, 0.551238, 126.7065
 86376890, -0.2648827, 0.3428274, -0.1849571, 0.07485463, -0.07631173, 0.157348, -0.253511, 0.03719408, -0.8355536, 0.5486076, 126.7058
 86576744, -0.1380796, 0.1293234, -0.2453386, 0.07485905, 0.04381057, 0.03339017, -0.04773181, 0.03719502, -0.8414053, 0.5400692, 126.7134
 86776763, -0.0588107, -0.09282134, -0.05815466, 0.07485553, 0.08979524, -0.1193765, 0.1266386, 0.03719557, -0.8395918, 0.5411372, 126.7074
 86976719, -0.0336345, -0.278661, 0.1266338, 0.07485703, -0.06118648, -0.1860412, 0.1060228, 0.0371965, -0.8386186, 0.5423561, 126.7099
 87176831, -0.1728173, -0.3407902, 0.08689269, 0.07485498, -0.1732791, -0.1483368, -0.01886792, 0.03719353, -0.8363375, 0.5460423, 126.7065
 87376765, -0.2452321, -0.3052707, -0.06912257, 0.07485481, -0.1700732, -0.03107092, -0.1974038, 0.03719445, -0.8352329, 0.5473976, 126.7061
 87576743, -0.1983839, -0.1993585, -0.2179555, 0.07485758, -0.07289874, 0.01883217, -0.1260516, 0.03719502, -0.8364843, 0.5447178, 126.7109
 87776778, -0.1024086, -0.1511134, -0.1054612, 0.07485536, 0.03521776, -0.1173746, 0.04597615, 0.0371952, -0.8362584, 0.5451356, 126.7071
 87977036, -0.06219148, -0.2470123, 0.03760631, 0.074855, 0.08338558, -0.1606819, 0.1652433, 0.03719483, -0.8364475, 0.5470163, 126.7065
 88177391, -0.05430623, -0.2128076, 0.2010963, 0.07485572, -0.03819961, -0.1257075, 0.1847949, 0.03719501, -0.8349965, 0.550252, 126.7077
 88377236, -0.1655384, -0.1153339, 0.1590138, 0.07485553, -0.1808668, 0.1212978, -0.149123, 0.03719557, -0.8359013, 0.548358, 126.7074
 88577221, -0.3212179, 0.1077545, -0.1188264, 0.07485499, -0.1619963, 0.09322327, -0.07664867, 0.03719465, -0.8376781, 0.5453482, 126.7065
 88777469, -0.3398282, 0.01689246, -0.04750928, 0.07485499, -0.001948313, -0.1385004, 0.1313575, 0.03719483, -0.8382667, 0.5448001, 126.7065
 88977399, -0.1597741, -0.2687329, 0.1282855, 0.07485887, -0.04864404, -0.1734836, 0.1543204, 0.03719502, -0.8379693, 0.5426115, 126.7131
 89177209, -0.1331016, -0.2796552, 0.1333416, 0.07485963, -0.1406433, -0.0140476, -0.1171311, 0.03719557, -0.8340147, 0.5508449, 126.7143
 89377261, -0.2143983, -0.1044772, -0.04877748, 0.07485499, -0.06137739, 0.04645003, -0.04178038, 0.03719502, -0.835728, 0.5491259, 126.7065
 89577191, -0.212939, -0.06076566, -0.01993327, 0.07485906, 0.06171994, -0.1649253, 0.222558, 0.03719557, -0.8339615, 0.5517783, 126.7134
 89777262, -0.1376135, -0.2622224, 0.2125687, 0.0748544, -0.158057, -0.08500442, -0.04289241, 0.03719409, -0.832784, 0.5534133, 126.7055
 89977424, -0.3600079, -0.1925125, -0.05224591, 0.07485405, -0.2429341, 0.06903744, -0.1095261, 0.03719501, -0.8327301, 0.5535675, 126.7049
 90177218, -0.4442298, -0.07323489, -0.06263913, 0.07485536, 0.01218623, -0.1045274, 0.06486412, 0.03719632, -0.8293227, 0.5587205, 126.7071
 90377247, -0.1931989, -0.2915114, 0.05239134, 0.07485592, -0.1165265, -0.1870991, 0.06585122, 0.03719353, -0.8304147, 0.556335, 126.708
 90577191, -0.2123627, -0.3663999, 0.08545658, 0.0748548, -0.1273978, 0.02456241, -0.1815949, 0.0371952, -0.8325154, 0.552547, 126.7061
 90777267, -0.09149064, -0.1223769, -0.2074088, 0.07485552, 0.08697342, -0.0220928, 0.009254036, 0.03719614, -0.8393165, 0.5409517, 126.7074
 90977205, 0.1637886, -0.1041185, 0.006375236, 0.0748576, 0.1815194, -0.1099988, 0.1323446, 0.03719371, -0.8398843, 0.5406527, 126.707
 91177214, 0.2802895, -0.08215077, 0.0877984, 0.07485425, 0.03691689, 0.03140244, 0.0004720034, 0.03719502, -0.840049, 0.5424892, 126.6973
 91377235, 0.1438731, 0.1018582, 0.07154343, 0.07485499, -0.04006261, 0.1265198, -0.1596205, 0.03719539, -0.8413481, 0.5404232, 126.6986
 91577196, 0.02862705, 0.172525, -0.05587325, 0.07485496, 0.09524588, -0.08980043, 0.1017173, 0.03719464, -0.8430267, 0.5378659, 126.6986
 91777471, 0.07075673, -0.0575397, 0.210875, 0.07485703, 0.04160958, 0.008128565, 0.1211961, 0.0371952, -0.8423919, 0.5386159, 126.702
 91977185, -0.02912375, -0.001054353, 0.1596366, 0.07485776, -0.1046192, 0.06176597, -0.0219877, 0.03719556, -0.8434387, 0.5365788, 126.7071
 92177227, -0.2065816, 0.06553603, 0.03098344, 0.07485739, 0.01628495, -0.04084242, 0.03056458, 0.03719427, -0.8411968, 0.5400496, 126.7106
 92377235, -0.10553, -0.02314121, 0.009172352, 0.07485425, -0.02820257, 0.01306585, 0.02578871, 0.03719688, -0.8374258, 0.5445316, 126.7052
 92577209, -0.04884394, 0.05509282, 0.03437749, 0.0748589, -0.0908784, 0.09877674, -0.1336553, 0.0371939, -0.8391011, 0.542681, 126.7131
 92777271, -0.02168041, 0.1878739, -0.1287213, 0.07485369, 0.1052836, -0.005286257, 0.04918893, 0.03719595, -0.8371885, 0.5468559, 126.7043
 92977380, 0.1987511, 0.06031826, 0.006414274, 0.07485721, 0.06570096, 0.0605014, 0.004340811, 0.03719334, -0.8372575, 0.5468083, 126.7103
 93177419, 0.1459849, 0.09595215, -0.04259563, 0.07485518, -0.02007793, 0.05272289, -0.1078527, 0.03719576, -0.8343139, 0.5512599, 126.7068
 93377239, -0.001039567, 0.09906565, -0.1245096, 0.07485497, 0.06250252, -0.05189794, 0.08032639, 0.03719427, -0.8270765, 0.5616685, 126.7065
 93577293, -0.01943413, -0.02486297, 0.03234164, 0.07485721, -0.07958601, 0.07771122, -0.1186634, 0.03719502, -0.8167619, 0.5758139, 126.7103
 93777272, -0.2012876, 0.05437057, -0.1425533, 0.07485499, -0.08472188, -0.03124466, -0.097679, 0.03719501, -0.8132483, 0.580849, 126.7065
 93978293, -0.245642, -0.06691306, -0.1437663, 0.07532066, -0.09962795, -0.05169054, -0.05544534, 0.03765866, -0.8133038, 0.5810289, 127.4947
 94178405, -0.2737823, -0.1086692, -0.06436231, 0.07532234, -0.1635194, 0.02382479, -0.1126316, 0.03720078, -0.8237184, 0.5659249, 127.4976
 94358402, -0.3193335, -0.02840677, -0.09326008, 0.07113808, -0.01586615, -0.07614569, 0.1023816, 0.03347161, -0.8487146, 0.5281336, 120.4149
 94578303, -0.2393178, -0.1333177, 0.115771, 0.07485053, -0.1226308, -0.01375727, -0.03432093, 0.04091247, -0.8797253, 0.4749847, 126.6989
 94778449, -0.3220031, -0.08620293, -0.07579958, 0.07857578, -0.2078719, 0.07544582, -0.09757834, 0.03719501, -0.9056854, 0.4229958, 133.0046
 94978396, -0.3687162, 0.03347761, -0.08570273, 0.07485964, -0.04984428, -0.09032114, 0.1678785, 0.03719594, -0.932333, 0.3614151, 126.7105
 95178391, -0.2098293, -0.1243721, 0.153656, 0.07486111, -0.03232814, -0.07162195, 0.0746491, 0.03719948, -0.9548088, 0.2972108, 126.7089
 95378409, -0.1812738, -0.1079121, 0.08958886, 0.07485572, -0.1368022, 0.05768663, -0.07327778, 0.0371898, -0.9747252, 0.2232862, 126.6998
 95578422, -0.2422918, 0.05065759, -0.07068768, 0.07485721, -0.04512803, -0.08783071, 0.05099165, 0.03719482, -0.989004, 0.1478667, 126.7023
 95778405, -0.1215507, 0.01589818, 0.02419868, 0.07486039, 0.004167312, 0.09636545, 0.02721395, 0.03719538, -0.9968552, 0.07579038, 126.7077
 95978394, -0.0260927, 0.2576583, -0.01424487, 0.07486092, -0.04182753, 0.2530648, -0.1475573, 0.03719464, -0.9983754, 0.0003819801, 126.7124
 96178526, -0.01826089, 0.4836541, -0.1599863, 0.07485889, -0.002710207, 0.04454373, 0.09103125, 0.0371952, -0.9926836, -0.08597215, 126.7131
 96378511, 0.03326615, 0.3786204, 0.06158684, 0.07485666, 0.05170076, 0.163358, 0.05954109, 0.03719501, -0.979225, -0.166549, 126.7093
 96578393, 0.06628314, 0.5016611, 0.1018244, 0.07486577, -0.02891529, 0.2975876, -0.02503649, 0.03719501, -0.9630308, -0.2437017, 126.7247
 96778417, -0.03754438, 0.6324355, 0.0001647025, 0.07485869, -0.00686914, 0.03916642, 0.1899857, 0.03719502, -0.9604058, -0.267362, 126.7128
 96978386, -0.09331629, 0.3016386, 0.1781172, 0.07485815, -0.04457194, 0.1882367, -0.1009917, 0.03719483, -0.9731985, -0.2273313, 129.8796
 97178404, -0.2001273, 0.3155333, -0.10517, 0.0748563, -0.04807228, 0.05835688, -0.01470493, 0.03719781, -0.9791897, -0.2024618, 126.7087
 97378626, -0.2178696, 0.08402216, -0.02885367, 0.07485777, -0.09367359, -0.04210009, 0.06253105, 0.0371924, -0.9757849, -0.2078617, 126.7112
 97558914, -0.2348847, -0.06421359, 0.04881903, 0.07113806, -0.08964483, 0.04629197, -0.07443515, 0.03347681, -0.9732806, -0.2090569, 120.4149
 97778394, -0.2513409, -0.04484903, -0.08156558, 0.07485759, -0.136307, -0.1212104, -0.008965218, 0.04091712, -0.9671358, -0.2263497, 125.127
 97978385, -0.2932146, -0.2289363, -0.03541895, 0.07857522, -0.05575558, -0.08496606, 0.02070428, 0.0371926, -0.9609854, -0.2335072, 132.9996
 98178336, -0.2711384, -0.2399148, -0.09437428, 0.07485553, -0.1642935, 0.01575501, -0.1815058, 0.03719892, -0.9597207, -0.2353426, 126.6995
 98378408, -0.3616429, -0.1724224, -0.2396307, 0.07485534, -0.07022154, -0.1969582, 0.1092956, 0.0371926, -0.9577295, -0.2453046, 126.6992
 98578391, -0.2583672, -0.3068506, 0.1141525, 0.07485145, -0.06819194, -0.05350201, 0.02936666, 0.03719334, -0.9583708, -0.2540601, 126.6926
 98778401, -0.2906528, -0.1657154, 0.08875041, 0.07485329, -0.1386423, 0.03664529, -0.04444711, 0.03719706, -0.9569294, -0.2516222, 126.6957
 98978400, -0.4056337, -0.1467585, -0.009689648, 0.07485425, -0.1327384, -0.2117882, 0.1718115, 0.03719538, -0.9486804, -0.2500218, 126.6973
 99178519, -0.4207079, -0.3782216, 0.1863392, 0.0748546, -0.04574509, -0.178166, 0.1915468, 0.03719315, -0.9500358, -0.2661326, 126.6979
 99378415, -0.2817299, -0.2658858, 0.1940272, 0.07485273, -0.1110675, 0.07783824, -0.1815557, 0.03719464, -0.9521131, -0.2714748, 126.6948
 99578387, -0.2575839, -0.001763394, -0.1495412, 0.0748546, -0.1003755, -0.1364065, 0.1083162, 0.03719558, -0.9525256, -0.2739068, 126.6979
 99778375, -0.1114769, -0.1850581, 0.05822212, 0.07485609, 0.02849985, -0.005653609, -0.001200394, 0.03719465, -0.9542808, -0.2767757, 126.7004
 99978399, 0.1473873, -0.07422409, -0.001129286, 0.07485425, 0.05891988, 0.05681423, -0.103158, 0.03719519, -0.9564379, -0.2760146, 126.7011
 100178405, 0.2515073, 0.004964627, -0.0704115, 0.0748546, 0.1240718, -0.1359784, 0.1046206, 0.03719576, -0.955772, -0.2766431, 126.7058
 100378527, 0.3103606, -0.1869957, 0.1069443, 0.07485498, 0.06975054, 0.007567138, -0.0625487, 0.03719446, -0.9575258, -0.2686646, 126.7065
 100578518, 0.2086222, -0.06823956, -0.05656062, 0.07485554, 0.01320714, -0.03660935, -0.0006784382, 0.03719427, -0.9548317, -0.2687029, 126.7074
 100778403, 0.06051324, -0.1589567, -0.000111341, 0.07485478, 0.01249041, -0.09531612, -0.004598107, 0.03719577, -0.9463051, -0.2636073, 126.7061
 100978513, -0.07966626, -0.2944728, -0.03158932, 0.07485778, -0.07308861, -0.1176175, -0.1631216, 0.03719446, -0.9381387, -0.2508703, 126.7112
 101178370, -0.2687734, -0.4126188, -0.2005393, 0.07485703, -0.1004822, -0.226847, 0.09527592, 0.0371952, -0.9290117, -0.2425673, 126.7099
 101360981, -0.3021898, -0.4993721, 0.09029616, 0.07160024, -0.1352537, -0.1021355, -0.03730067, 0.03394008, -0.9301389, -0.2341841, 121.1972
 101560844, -0.3022251, -0.380744, -0.1110388, 0.07160061, -0.07629, -0.1223246, -0.1467042, 0.03719836, -0.9362932, -0.2339017, 121.1978
 101782194, -0.1540452, -0.3706656, -0.116611, 0.07857708, 0.01431757, -0.2191874, 0.139971, 0.04091414, -0.9387927, -0.2423217, 133.0069
 101982225, -0.005221454, -0.4018942, 0.0682171, 0.07857521, 0.002986337, -0.01541985, -0.0762073, 0.03719204, -0.9508505, -0.2395234, 132.9998
 102182227, -0.0001964649, -0.11845, -0.1138965, 0.07485406, 0.0001399931, 0.01190642, -0.07543315, 0.03719558, -0.9574131, -0.2401483, 126.697
 102382266, -0.003584046, -0.01527122, -0.06409919, 0.07485499, 0.07355028, -0.111896, 0.07336572, 0.03719501, -0.9605989, -0.2339916, 126.6986
 102582189, 0.02116702, -0.03955896, 0.05948805, 0.07485758, -0.06503215, 0.07773631, -0.03613827, 0.03719446, -0.9654915, -0.2331603, 126.7029
 102782195, -0.1210494, 0.1606345, -0.0353319, 0.0748544, -0.07201893, 0.1431515, -0.08076697, 0.03719502, -0.9647343, -0.2375541, 126.6976
 102982378, -0.1558601, 0.2242159, -0.05689458, 0.07485685, -0.02276086, -0.0645152, 0.1248932, 0.0371952, -0.9634314, -0.2389844, 126.7017
 103182198, -0.1025799, 0.07321769, 0.1336688, 0.07485964, -0.05801162, 0.02621942, 0.05939441, 0.03719651, -0.9664013, -0.2324471, 126.7064
 103382233, -0.1156887, 0.2152486, 0.01026444, 0.07485981, -0.06532253, 0.1827073, -0.1044315, 0.03719334, -0.9713411, -0.2339734, 126.7067
 103582381, -0.1119958, 0.4075634, -0.1146086, 0.07485331, 0.04078723, 0.03839077, 0.01116837, 0.03719501, -0.9716825, -0.2340779, 126.6957
 103782425, -0.01914511, 0.3117865, 0.04556753, 0.07485498, -0.02573639, 0.09822876, 0.1298299, 0.03719613, -0.9713444, -0.2322657, 126.6986
 103982192, -0.1341177, 0.3296961, 0.1846791, 0.07485905, -0.08773807, 0.2328837, -0.1024752, 0.03719408, -0.9693187, -0.224297, 126.7092
 104182234, -0.3062865, 0.4502037, -0.09669863, 0.07485461, -0.1668181, 0.3015387, -0.06225653, 0.03719501, -0.9684665, -0.2379339, 126.7058
 104382235, -0.4378605, 0.6040908, -0.04416351, 0.07485481, -0.1501122, 0.2151713, -0.07267517, 0.03719669, -0.9689144, -0.2445113, 126.7061
 104582210, -0.4205333, 0.533846, -0.04939162, 0.0748548, -0.08693031, 0.05077245, 0.1473545, 0.03719316, -0.969516, -0.2392106, 126.7061
 104780972, -0.2539739, 0.3248197, 0.06351218, 0.07485313, -0.07607828, 0.258164, -0.1705607, 0.03719353, -0.9709783, -0.2347348, 126.7033
 104980835, -0.06116167, 0.4353417, -0.2041737, 0.07485647, 0.04649045, 0.1088278, -0.1617826, 0.0371952, -0.9697796, -0.2392525, 126.7053
 105180871, 0.2349171, 0.2425763, -0.1904357, 0.07485926, 0.2060547, -0.009201033, 0.1046346, 0.03719502, -0.9680095, -0.2449589, 126.7058
 105380871, 0.4652109, 0.07988578, 0.1121401, 0.07485627, 0.2088811, -0.001130278, -0.004970896, 0.03719483, -0.9687976, -0.2409844, 126.7008
 105580857, 0.4853544, 0.02752164, -0.0192791, 0.07485758, 0.06989112, 0.07897185, -0.09681485, 0.03719446, -0.9694, -0.236412, 126.7029
 105780829, 0.3536062, 0.08842987, -0.06897072, 0.07485667, 0.1619498, -0.1080579, 0.09988592, 0.03719613, -0.9696295, -0.2327205, 126.7014
 105980856, 0.4275526, -0.1087619, 0.03695812, 0.07485757, 0.146099, 0.01519938, -0.02512821, 0.03719464, -0.9717419, -0.2207372, 126.7029
 106180855, 0.3657885, -0.02830546, -0.02309291, 0.07485797, 0.1366613, -0.02125383, -0.03009998, 0.03719651, -0.9708281, -0.2136074, 126.7036
 106380868, 0.2645946, -0.06293687, 0.002716935, 0.07485665, -0.0006247493, -0.06280904, 0.04906854, 0.03719371, -0.9711972, -0.1999388, 126.7014
 106580963, 0.020331, -0.1029914, 0.03606055, 0.07485907, -0.06338876, 0.04345995, -0.1150279, 0.03719483, -0.9751009, -0.1869503, 126.7055
 106780838, -0.1295769, 0.01326737, -0.1288872, 0.07485907, -0.04004083, -0.03350587, -0.089936, 0.03719502, -0.9750176, -0.1845143, 126.7055
 106980863, -0.1379604, -0.02486626, -0.1126355, 0.07485759, 0.01244266, -0.004319189, -0.01594312, 0.03719688, -0.9769831, -0.1842137, 126.7029
 107180847, -0.108104, 0.0248876, -0.03673525, 0.07486094, -0.09131872, 0.08372594, -0.1020411, 0.03719315, -0.9773088, -0.1875791, 126.7086
 107380850, -0.2328659, 0.09968536, -0.05858309, 0.07485554, -0.02346398, -0.05985794, 0.1016719, 0.03719502, -0.9769638, -0.1788863, 126.6995
 107580865, -0.2143637, -0.03858542, 0.07707805, 0.07485907, -0.1361514, 0.08819602, -0.1504939, 0.0371952, -0.9790362, -0.1737866, 126.7055
 107780937, -0.3358343, 0.104762, -0.1562766, 0.07485684, -0.1135814, -0.01170722, 0.03259105, 0.03719483, -0.9801123, -0.1735299, 126.7017
 107980953, -0.3006496, 0.04432013, 0.01611613, 0.07485853, -0.09707419, 0.06539378, -0.001736732, 0.03719408, -0.9809157, -0.1770962, 126.7082
 108180861, -0.2329291, 0.1017324, -0.02883559, 0.07485667, -0.07978779, -0.02162053, -0.02618576, 0.03719595, -0.9804667, -0.1780637, 126.7093
 108381013, -0.1676621, -0.003063558, -0.03210773, 0.07485834, -0.02159156, 0.02670336, -0.08354764, 0.03719502, -0.9789386, -0.1839325, 126.7121
 108580840, -0.03061813, -0.01180197, -0.01103504, 0.07485887, 0.009998285, -0.06777207, 0.07622517, 0.03719557, -0.9777673, -0.1856423, 126.7131
 108780865, 0.01071929, -0.08790176, 0.09234702, 0.07485815, -0.003186824, -0.008444165, 0.04752196, 0.03719483, -0.978129, -0.1878923, 126.7118
 108980856, -0.01503973, -0.02830908, 0.03939712, 0.0748561, -0.04438956, 0.02738848, -0.01429908, 0.03719464, -0.9776513, -0.1950214, 126.7048
 109180858, -0.1431855, 0.03389273, 0.0830886, 0.07485907, -0.01936932, -0.08632964, 0.08983234, 0.03719483, -0.9757426, -0.2011337, 126.7055
 109380842, -0.2250269, -0.05589503, 0.07857515, 0.07485664, -0.211825, 0.09332252, -0.04739809, 0.0371952, -0.9800799, -0.1886635, 126.7014
 109580844, -0.4871973, 0.1465963, -0.03751279, 0.07485703, -0.1390444, 0.07213502, -0.01834133, 0.03719539, -0.98182, -0.1853381, 126.702
 109780873, -0.4082454, 0.1402669, -0.05334357, 0.07485647, -0.08905173, -0.07103857, 0.1495669, 0.03724132, -0.9826493, -0.1791785, 126.7011
 109980835, -0.3443355, 0.005692987, 0.1603501, 0.07485644, -0.1437151, 0.09583665, -0.03910062, 0.03714982, -0.980989, -0.1857322, 126.7011
 110181004, -0.3805834, 0.1241883, -0.1081354, 0.07481296, -0.1226916, -0.01240709, 0.05002984, 0.03719484, -0.9817085, -0.1808611, 126.6274
 110380871, -0.2828694, 0.02428584, 0.08751173, 0.07485537, -0.0498279, 0.006337967, 0.05562201, 0.03719465, -0.9796722, -0.1903795, 126.6992
 110580838, -0.1781298, 0.06505352, 0.06105751, 0.07485741, -0.1182064, 0.1401746, -0.04920387, 0.03719409, -0.9801717, -0.1930841, 126.7026
 110780871, -0.2116069, 0.1919896, -0.002713839, 0.07485534, -0.0842571, -0.1092776, 0.1300729, 0.03719557, -0.9809076, -0.190741, 126.6992
 110980882, -0.1623649, -0.1121326, 0.08006389, 0.07485779, -0.05044198, 0.06600446, -0.1223192, 0.03719446, -0.9791154, -0.1946975, 126.7033
 111180884, -0.1179814, -0.01315776, -0.08270316, 0.07485628, -0.00754655, -0.101817, 0.04648943, 0.03719576, -0.9769971, -0.1933582, 126.7008
 111380867, -0.05402875, -0.1248751, -0.0006013047, 0.07485628, -0.01104579, 0.04648938, -0.07099287, 0.03719427, -0.9786581, -0.197184, 126.7008
 111580881, -0.006979992, 0.08044454, -0.06447069, 0.07485703, 0.01810119, -0.02196227, 0.1227552, 0.03719427, -0.9799945, -0.1979741, 126.702
 111780859, 0.06919302, 0.03022727, 0.1602789, 0.07485795, 0.04239841, 0.003745876, 0.04065632, 0.03719576, -0.9797356, -0.1995453, 126.7036
 111981003, 0.06440271, 0.1044465, 0.1553366, 0.07485889, -0.01949158, 0.1173769, -0.01423585, 0.03719502, -0.9788457, -0.2045605, 126.7087
 112180962, -0.009884392, 0.2736818, 0.05582977, 0.07485705, 0.03010596, 0.05450265, 0.1106224, 0.03719558, -0.9803734, -0.1956008, 126.7099
 112380860, 0.05250605, 0.2400575, 0.06873766, 0.07485683, -0.02652215, 0.1766405, -0.07608393, 0.03719539, -0.9789501, -0.1980585, 126.7096
 112580809, 0.0136668, 0.4150545, -0.1131433, 0.07485666, 0.05366218, 0.06688683, 0.1087117, 0.03719427, -0.975657, -0.206214, 126.7093
 112780842, 0.1115961, 0.3588788, 0.09760159, 0.07485758, 0.02792193, 0.2730356, -0.07027204, 0.03719632, -0.9755362, -0.2044877, 126.7109
 112980851, 0.07707298, 0.5393835, -0.09059973, 0.0748561, -0.01585216, 0.147617, -0.02171316, 0.03719353, -0.9764907, -0.2087763, 126.7048
 113180860, -0.02941182, 0.3387387, -0.1058269, 0.07485518, -0.02632269, 0.03343184, 0.0217802, 0.03719502, -0.9777398, -0.2096051, 126.6989
 113380872, -0.1047217, 0.06871323, -0.06338177, 0.07485758, -0.0963793, 0.04329839, -0.03579511, 0.03719966, -0.9742487, -0.2061964, 126.7029
 113580845, -0.2447528, -0.113105, -0.06278728, 0.07485685, -0.07358819, -0.1954105, 0.02033889, 0.03719205, -0.9636669, -0.2003858, 126.7017
 113780981, -0.237867, -0.4659831, -0.0214822, 0.07485313, -0.1092869, -0.1273126, -0.05851194, 0.0371939, -0.9556581, -0.196147, 126.6954
 113980892, -0.2968455, -0.4410131, -0.0548621, 0.07485703, -0.1700813, -0.1322651, -0.09000529, 0.03719558, -0.953233, -0.1905065, 126.702
 114180848, -0.3658736, -0.4339647, -0.1119718, 0.07485647, -0.04797127, -0.2352989, 0.07121088, 0.03722551, -0.9560456, -0.1924195, 126.7011
 114401197, -0.246021, -0.4864151, 0.04065369, 0.07857709, -0.1430385, -0.07154127, -0.0794554, 0.04088439, -0.9665416, -0.1943408, 132.9985
 114580859, -0.3159108, -0.171012, -0.0797267, 0.07482596, -0.1250366, -0.01110868, 0.03686762, 0.03347402, -0.971164, -0.1981528, 126.6494
 114780828, -0.3417227, -0.07598038, 0.03932056, 0.07113586, -0.09097291, -0.1062147, 0.07916364, 0.0371952, -0.9733238, -0.1963209, 120.4036
 114980853, -0.2520559, -0.1479922, 0.07929463, 0.07485629, -0.09258004, 0.02835457, -0.1138383, 0.03719483, -0.9757494, -0.1945965, 126.7008
 115180856, -0.174707, -0.002988981, -0.09905292, 0.07485685, -0.03514615, -0.07574908, 0.06053507, 0.03719707, -0.9752175, -0.1993495, 126.7017
 115380888, -0.07544897, -0.04389562, 0.09046778, 0.0748563, -0.01845975, 0.1128674, 0.01209716, 0.03719427, -0.9765825, -0.2059216, 126.7008
 115581101, -0.05579872, 0.1598645, 0.03726454, 0.07485666, -0.04277628, -0.0002245829, -0.004178182, 0.03722477, -0.9748969, -0.216702, 126.7014
 115780957, -0.1671095, -0.04249595, 0.05414446, 0.07485498, -0.09213878, -0.1881068, 0.1523667, 0.03716451, -0.9634203, -0.2078433, 126.6986
 115980966, -0.3024697, -0.338195, 0.1553174, 0.07482521, -0.2411317, -0.03103839, -0.06557367, 0.03719594, -0.9574187, -0.2060879, 126.6516
 116181057, -0.4891406, -0.1630045, -0.1263341, 0.07485571, -0.1451909, 0.01474446, -0.1169274, 0.03719353, -0.9645354, -0.2190166, 126.7077
 116381087, -0.322232, 0.01823554, -0.08204275, 0.07485612, -0.06771091, -0.07739717, 0.1254249, 0.03719557, -0.9689493, -0.2291315, 126.7084
 116580960, -0.1913956, 0.01348057, 0.08831684, 0.07485851, -0.01305202, 0.06195641, -0.03555665, 0.03719446, -0.9707607, -0.2303989, 126.7124
 116780941, -0.09051108, 0.1277295, -0.05673023, 0.0748563, -0.08936256, 0.1526259, -0.1057434, 0.03719576, -0.9706514, -0.2295975, 126.7087
 116980937, -0.1363508, 0.196514, -0.1213848, 0.07485629, -0.1167109, -0.03469961, 0.04347182, 0.03722794, -0.9704213, -0.2268192, 126.7052
 117180971, -0.1759945, -0.02022367, 0.02519783, 0.07485555, 0.008295487, -0.0722769, 0.1453923, 0.03716098, -0.96902, -0.2207531, 126.6995
 117381103, -0.02863379, -0.09058826, 0.1948716, 0.07482299, 0.04266704, 0.1321739, -0.1731205, 0.03719687, -0.9688021, -0.2282355, 126.6444
 117580925, 0.07130764, 0.1063413, -0.1898892, 0.07485702, 0.0404462, -0.02664757, -0.10348, 0.03719353, -0.968717, -0.2279342, 126.702
 117780951, 0.07481846, -0.0758779, -0.1258226, 0.07485479, 0.009560952, -0.1689786, 0.1660541, 0.03719519, -0.961437, -0.2313399, 126.6982
 117980949, 0.002396272, -0.254152, 0.1581042, 0.07486352, -0.0389956, 0.06507482, -0.1223359, 0.03719483, -0.9628779, -0.230576, 126.713
 118180952, -0.06618991, -0.05168383, -0.1515933, 0.07485664, -0.04551354, 0.0003988543, -0.06909508, 0.03722366, -0.9622017, -0.2319233, 126.7014
 118380977, -0.08493979, -0.07650296, -0.03963178, 0.07485703, 0.01203708, -0.1308709, 0.1452073, 0.03721138, -0.9592769, -0.2261975, 126.702
 118580945, -0.06135131, -0.2091156, 0.1386912, 0.07482912, -0.01671583, 0.0089828, -0.07535631, 0.03715001, -0.9594741, -0.2260487, 126.6548
 118780946, -0.1222829, -0.06147194, -0.07229587, 0.07481145, -0.1001522, 0.07608244, -0.06969265, 0.0372257, -0.96378, -0.2237633, 126.6249
 118960936, -0.1948307, 0.03962229, -0.07550748, 0.07113679, -0.0300468, -0.07940356, 0.09917765, 0.03344743, -0.9650331, -0.2241633, 120.4085
 119181077, -0.1235142, -0.09864849, 0.06698251, 0.0748267, -0.01960375, -0.001794015, 0.04248254, 0.04091247, -0.9660618, -0.222768, 126.6586
 119380952, -0.1028975, 0.02917341, -0.01294769, 0.07857468, -0.1068594, 0.1239939, -0.1651878, 0.03719594, -0.9699024, -0.2298608, 133.0027
 119580927, -0.1853699, 0.2231508, -0.1765065, 0.07485817, -0.04967276, 0.05418088, 0.006636535, 0.03719353, -0.968168, -0.2366092, 126.7118
 119780959, -0.1346053, 0.1385969, 0.007668369, 0.0748548, 0.01025921, -0.008415673, 0.009119984, 0.03721827, -0.9665202, -0.2361831, 126.7061
 119980932, -0.02736978, 0.01904755, 0.07098709, 0.07485627, -0.06898358, 0.09792501, -0.1244405, 0.03717177, -0.9648218, -0.23616, 126.7087
 120180946, -0.07608993, 0.07700858, -0.115486, 0.07483451, -0.04339923, -0.0773257, 0.06235101, 0.03719502, -0.9644724, -0.2260499, 126.6718
 120381071, -0.05907708, -0.1035368, -0.03236262, 0.07485665, 0.01012664, -0.07462323, 0.04557895, 0.03719502, -0.9682721, -0.2191791, 126.7093
 120581065, 0.002915737, -0.04463311, 0.04274791, 0.07485628, -0.06258557, 0.1533251, -0.07408324, 0.0371993, -0.9728896, -0.2223576, 126.7087
 120780947, -0.1110492, 0.2842552, -0.1141364, 0.0748563, -0.1295821, 0.1415446, -0.09134283, 0.03719073, -0.9709343, -0.2377969, 126.7087
 120981061, -0.2630099, 0.3564493, -0.05638627, 0.07485349, -0.09811177, -0.01215766, 0.1348949, 0.03719649, -0.9709542, -0.2383998, 126.7006
 121180938, -0.3062854, 0.164464, 0.1455116, 0.07485739, -0.150452, 0.06481311, 0.02557179, 0.03719799, -0.971703, -0.2247768, 126.7026
 121380949, -0.3520333, 0.1207476, 0.1227232, 0.07485496, -0.138799, 0.1596512, -0.117305, 0.03719185, -0.9687648, -0.2134429, 126.6986
 121580947, -0.3366296, 0.1401559, -0.05139572, 0.07485238, -0.08336956, 0.06389599, -0.1431158, 0.03719502, -0.967446, -0.2150851, 126.6941
 121780962, -0.2103742, 0.03744326, -0.1721119, 0.07485554, -0.02995652, -0.1481413, 0.0836989, 0.03719557, -0.970744, -0.2019286, 126.6995
 121980950, -0.009325347, -0.1634191, 0.03724524, 0.07485498, -0.03167056, -0.07329715, 0.08315933, 0.03719557, -0.9738259, -0.2050177, 126.6986
 122180946, 0.07123781, -0.1336668, 0.05323095, 0.07485479, 0.08663864, 0.04034606, -0.1956334, 0.03719446, -0.9739926, -0.1978101, 126.6982
 122380953, 0.1858168, -0.0841205, -0.2437331, 0.07485386, 0.09735996, -0.1477528, 0.08544939, 0.03719668, -0.9694928, -0.1973862, 126.6967
 122580939, 0.1506231, -0.2753692, 0.04046018, 0.07485441, -0.009036241, -0.1550653, 0.0710895, 0.03719353, -0.9687626, -0.1932207, 126.6976
 122781093, -0.04782632, -0.268662, 0.02113159, 0.07485405, -0.05364336, 0.06972811, -0.08302315, 0.03719427, -0.9741995, -0.1968611, 126.697
 122980924, -0.1636579, 0.0381384, -0.05776734, 0.07485423, -0.07127807, -0.01864071, -0.005331852, 0.03719502, -0.9754922, -0.2042651, 126.7006
 123184871, -0.2523676, 0.05887019, -0.02065998, 0.0753199, -0.08882582, -0.07157101, 0.1490694, 0.03765995, -0.9771014, -0.2033529, 127.4935
 123384957, -0.2381618, 0.02902375, 0.134167, 0.07531992, -0.06623138, 0.1771364, -0.1017142, 0.03719557, -0.9776684, -0.2066569, 127.4935
 123584965, -0.1776712, 0.308116, -0.09824697, 0.0748585, -0.07939885, 0.1484808, 0.003699462, 0.03719446, -0.9766756, -0.211852, 126.7124
 123784996, -0.1650369, 0.2883126, -0.004399785, 0.07485627, 0.0119875, -0.06011143, 0.1387303, 0.03719502, -0.9752033, -0.215557, 126.7087
 123984884, -0.0890964, 0.03991662, 0.1297418, 0.07485499, -0.06660621, 0.1295125, -0.06258997, 0.03719557, -0.975872, -0.2099289, 126.7065
 124184871, -0.1971841, 0.1733469, -0.03457059, 0.07485498, -0.1106559, -0.003458105, 0.04213855, 0.03719446, -0.976665, -0.1980713, 126.7065
 124384952, -0.2631513, 0.01142903, 0.02450294, 0.07485593, -0.01452489, -0.08942338, 0.0900126, 0.03719557, -0.9771035, -0.1995448, 126.708
 124584874, -0.113152, -0.07701225, 0.08173634, 0.07485496, -0.05930813, 0.07198383, -0.05384388, 0.03719446, -0.9769157, -0.1999177, 126.7065
 124785047, -0.09199426, 0.0464044, -0.05432518, 0.07485443, -0.04239855, -0.06375373, 0.03917652, 0.03719557, -0.9750989, -0.2007125, 126.7055
 124984858, -0.05659436, -0.08595482, 0.01055559, 0.07485795, 0.03280042, -0.01141649, 0.003077737, 0.03719613, -0.9754258, -0.2025888, 126.7115
 125184874, -0.01214446, -0.04559683, -0.003361591, 0.07485629, -0.08790425, 0.06320835, -0.09425292, 0.03719409, -0.9755096, -0.2060039, 126.7087
 125384942, -0.1156984, 0.04471834, -0.1100413, 0.07485331, -0.0007864753, -0.1122784, 0.07723648, 0.03719762, -0.9760833, -0.2027294, 126.7036
 125584905, -0.000451694, -0.08404171, 0.05814618, 0.07485443, 0.05069395, 0.04564895, 0.05798356, 0.03719259, -0.9768754, -0.2085311, 126.7055
 125784910, 0.04474664, 0.1309188, 0.08996737, 0.07485405, -0.06258212, 0.1075175, -0.04018424, 0.03719724, -0.9778358, -0.2082201, 126.7049
 125984864, -0.1105414, 0.1721237, -0.02963479, 0.07485404, -0.1002581, -0.06799819, 0.1182377, 0.0371924, -0.97664, -0.2067783, 126.7017
 126184910, -0.1636546, -0.02360934, 0.144997, 0.07485329, 0.005256264, 0.02608238, -0.005940433, 0.03719893, -0.9761474, -0.202271, 126.6957
 126384935, -0.1275439, -0.05305541, 0.05112805, 0.07485443, -0.06291132, 0.05648562, -0.1751679, 0.03719148, -0.9757106, -0.1833183, 126.6976
 126584981, -0.2210703, -0.06379345, -0.1413054, 0.07485292, -0.1142745, -0.1039751, 0.06948495, 0.03719427, -0.9736091, -0.1884964, 126.6951
 126784901, -0.1967268, -0.1163361, 0.02698074, 0.07485533, -0.1252545, -0.0897989, 0.0910205, 0.03719483, -0.9786639, -0.1955593, 126.6992
 126984874, -0.1655103, -0.01719497, 0.08144318, 0.0748548, 0.002301782, 0.179339, -0.1630437, 0.0371952, -0.9785643, -0.2052861, 126.7014
 127184905, -0.05990537, 0.2802758, -0.1484712, 0.07485703, 0.02960607, 0.07311398, -0.04636294, 0.03719483, -0.9773037, -0.2107692, 126.7099
 127384917, -0.02801978, 0.1706484, -0.07186256, 0.07485684, -0.1067332, -0.0893885, 0.08987767, 0.0371965, -0.9764065, -0.2111046, 126.7096
 127584880, -0.157643, -0.04064067, 0.08286104, 0.07485534, -0.05343146, 0.1102054, -0.04910462, 0.03719352, -0.9765903, -0.2082571, 126.7071
 127784989, -0.1050175, 0.09750299, -0.01823888, 0.07485348, 0.002427263, 0.07569094, -0.003887003, 0.03719502, -0.9755476, -0.2048314, 126.7039
 127985019, -0.08163826, 0.01681283, -0.02660987, 0.07485498, -0.08239769, -0.1839801, 0.11593, 0.03719911, -0.9722874, -0.2019056, 126.7065
 128184876, -0.2134636, -0.2737461, 0.04831025, 0.07485497, -0.1245283, -0.008876412, -0.03172152, 0.03719092, -0.9726117, -0.1988396, 126.7065
 128385046, -0.2552261, -0.1236231, -0.09491213, 0.07485331, -0.04080645, -0.03358663, -0.1064616, 0.03719557, -0.9713417, -0.2005419, 126.7036
 128584878, -0.158596, -0.1112386, -0.1029067, 0.07485497, -0.07540686, -0.06220201, 0.05875447, 0.03719446, -0.9713032, -0.2052038, 126.7065
 128784927, -0.178378, -0.1037423, 0.06258586, 0.07485462, -0.05236426, 0.04198286, -0.01618361, 0.03719501, -0.973453, -0.2114464, 126.7058
 128984894, -0.1335038, 0.04618786, 0.04023251, 0.07485516, -0.01443051, -0.009743772, 0.04095445, 0.03719557, -0.9751172, -0.2126967, 126.7068
 129184877, -0.06417733, 0.03119958, 0.08256231, 0.07485499, -0.05397172, 0.04753112, -0.005749235, 0.03719446, -0.9763083, -0.2139604, 126.7065
 129384976, -0.09846052, 0.1068583, -0.006023592, 0.0748546, -0.09929252, 0.07700001, -0.05726807, 0.03719576, -0.97671, -0.2134572, 126.7058
 129584866, -0.1251551, 0.1614085, -0.04344474, 0.07485498, -0.03581486, -0.0245003, 0.03222461, 0.03719483, -0.9757077, -0.2164926, 126.7065
 129785934, -0.07453121, 0.03333695, 0.0405627, 0.07532381, -0.0242425, 0.08600236, -0.02220983, 0.03765809, -0.9751719, -0.2181207, 127.5001
 129985938, -0.08847623, 0.1018984, -0.01771311, 0.0753212, -0.0391735, 0.08905473, -0.2278126, 0.03721956, -0.9741316, -0.2208675, 127.4925
 130185988, -0.1457993, 0.1645745, -0.2496637, 0.0748587, -0.1142359, -0.07708653, 0.1384375, 0.03717102, -0.9746373, -0.2227161, 126.7048
 130386081, -0.2107339, 0.0718661, 0.118757, 0.07483229, -0.02005965, -0.02824072, 0.06178701, 0.03719446, -0.9767449, -0.2138679, 126.6601
 130585917, -0.1149715, 0.03766681, 0.04578546, 0.07485628, 0.009940941, 0.1524062, -0.08185385, 0.03719501, -0.9767116, -0.2061578, 126.7008
 130785919, -0.08454157, 0.03966366, -0.04682152, 0.07485943, -0.01218555, -0.007493543, -0.07501409, 0.03719482, -0.9662688, -0.2046441, 126.7061
 130986051, -0.0568425, -0.2078346, -0.1554338, 0.07485627, -0.06081113, -0.2654807, 0.07839456, 0.03719557, -0.9642362, -0.1981055, 126.7038
 131186053, -0.06329376, -0.4564159, 0.04228444, 0.07485832, 0.04530942, -0.01453976, -0.1274678, 0.03719464, -0.973215, -0.1924031, 126.7121
 131385966, 0.07087699, -0.1563776, -0.1661847, 0.07485647, 0.06664032, 0.02419172, -0.1155862, 0.0371952, -0.976274, -0.1938432, 126.709
 131585934, 0.07606872, -0.01156466, -0.1704423, 0.0748585, 0.0006706788, -0.162407, 0.1374115, 0.03719464, -0.9783511, -0.1955386, 126.7124
 131785945, -0.03038637, -0.1224365, 0.1126661, 0.07485834, 0.02810793, 0.09426816, -0.02756311, 0.03719613, -0.9788795, -0.2029167, 126.7121
 131985954, -0.03861637, 0.1744636, -0.03236307, 0.07485684, -0.1029784, 0.04385372, -0.06819574, 0.03719408, -0.9785036, -0.2049505, 126.7096
 132186098, -0.2103139, 0.1532401, -0.05903652, 0.07485574, -0.0903351, 0.01079257, 0.1163067, 0.03719501, -0.9782366, -0.2074926, 126.7077
 132385961, -0.2135996, 0.1471565, 0.1480059, 0.07485683, -0.016821, 0.2103246, -0.08537307, 0.03719594, -0.9774173, -0.2102852, 126.7096
 132586235, -0.1302338, 0.353202, -0.1018333, 0.07492324, -0.02997839, 0.002799012, -0.03193416, 0.03726011, -0.9783713, -0.2063618, 126.822
 132766271, -0.06786728, 0.1445902, -0.05484881, 0.0712028, -0.0430766, -0.01882044, 0.08541279, 0.03347905, -0.9776315, -0.2089347, 120.5244
 132966251, -0.02053494, 0.1143296, 0.03921612, 0.07113772, -0.1089508, 0.07325395, 0.02402926, 0.03719297, -0.9771252, -0.2119925, 120.4143
 133166293, -0.01460573, 0.1448069, -0.03572084, 0.0748537, -0.05799973, 0.0649801, -0.03616465, 0.03719501, -0.976648, -0.2135072, 126.7043
 133366277, 0.05251305, 0.0491683, 0.03479566, 0.07485572, 0.03850957, 0.06705506, -0.03822235, 0.03719539, -0.9729888, -0.2166293, 126.7077
 133566253, 0.07563939, -0.09082223, -0.04277937, 0.07485498, 0.02630487, -0.1054776, -0.05660665, 0.03719464, -0.9680447, -0.2154927, 126.7065
 133766243, -0.008648507, -0.2996548, -0.02110986, 0.07485462, 0.01222833, -0.1706647, 0.1445354, 0.03719632, -0.9693804, -0.2130878, 126.7058
 133966267, -0.04893903, -0.300659, 0.1712405, 0.07485574, -0.04192601, -0.1128518, 0.138853, 0.03719371, -0.9725419, -0.2190026, 126.7077
 134166468, -0.05675078, -0.1291015, 0.1227966, 0.07485368, -0.0427887, 0.04852089, -0.08458114, 0.03719501, -0.9748497, -0.2206688, 126.7043
 134386255, -0.01792515, 0.08320428, -0.0723355, 0.07857561, 0.02576692, 0.2129636, -0.2300852, 0.0409162, -0.9754719, -0.219889, 133.0043
 134566265, 0.06547862, 0.2840657, -0.2398264, 0.07485498, 0.08240715, 0.1788915, -0.1503662, 0.03347403, -0.9738919, -0.2233079, 126.7065
 134766433, 0.1519517, 0.2918923, -0.1125651, 0.07113381, 0.01511527, -0.001147316, 0.06302151, 0.03719873, -0.9726419, -0.2216353, 120.4077
 134966445, 0.06722647, 0.1175126, 0.0723137, 0.07485478, 0.004738057, -0.08883733, 0.1309367, 0.03719111, -0.9709073, -0.234187, 126.7031
 135166275, 0.003909335, 0.0130331, 0.1087133, 0.07485106, -0.08440766, -0.1128708, 0.1188956, 0.03719538, -0.9683287, -0.2495086, 126.6919
 135386478, -0.1409492, -0.009987991, 0.1091352, 0.07857522, -0.03637762, 0.04493096, 0.07049747, 0.04093441, -0.9666349, -0.2561578, 132.9954
 135586273, -0.1035284, 0.07594685, 0.04557278, 0.07857522, 0.01271143, 0.1576194, -0.1072247, 0.03717344, -0.9666854, -0.255903, 132.9954
 135786437, -0.05307093, 0.1528298, -0.05996747, 0.07483469, 0.0003701728, 0.2102455, -0.152406, 0.03719744, -0.9669335, -0.2550193, 126.6642
 135966447, -0.01748016, 0.2180342, -0.1464518, 0.07113754, -0.003376538, 0.2003735, -0.2472271, 0.03347291, -0.9681711, -0.2502869, 120.4093
 136166274, -0.003085926, 0.2095547, -0.2444767, 0.07113438, 0.0471041, 0.1473184, -0.2389548, 0.0371965, -0.9714873, -0.2370916, 120.4086
 136386263, 0.07186276, 0.08228828, -0.2583153, 0.07857597, -0.07226061, -0.1212203, -0.09436723, 0.04091267, -0.9709681, -0.2345782, 133.005
 136586254, -0.03108227, -0.1926081, -0.1490775, 0.07857504, -0.05930111, -0.2310754, 0.1984716, 0.03719502, -0.9691371, -0.2346404, 133.0034
 136786388, -0.03739306, -0.2899247, 0.1624816, 0.07485683, -0.07343261, -0.1982886, 0.2224388, 0.03719575, -0.9694011, -0.2399934, 126.7096
 136967001, -0.05564955, -0.242336, 0.255921, 0.07119389, 0.02504843, -0.004415277, 0.02413799, 0.03353316, -0.9691521, -0.2426947, 123.5221
 137166988, 0.04392224, 0.01172779, 0.007593501, 0.07119462, 0.02031735, 0.1533901, -0.1376484, 0.03719706, -0.9689216, -0.2471192, 120.5106
 137366972, 0.02840131, 0.2177533, -0.1787305, 0.07485647, 0.02955178, 0.2147681, -0.1730502, 0.03719557, -0.9702414, -0.240678, 126.709
 137586745, 0.01861453, 0.3009526, -0.1482253, 0.0785739, -0.03395063, 0.05413978, -0.03611796, 0.04091358, -0.9714831, -0.2331035, 133.0015
 137786519, -0.00431659, 0.1751216, -0.06463077, 0.07857337, -0.02136214, -0.1381944, 0.2359643, 0.03719501, -0.9721306, -0.2315928, 133.0005
 137986529, 0.04518387, -0.02236583, 0.2002222, 0.07485628, 0.01977628, -0.09184545, 0.1530223, 0.03719873, -0.9731084, -0.2290779, 126.7087
 138186505, 0.08722988, -0.02471858, 0.1272913, 0.0748548, 0.07052573, 0.130937, -0.1363116, 0.03719111, -0.9736118, -0.2279437, 126.7061
 138386650, 0.07992189, 0.1257394, -0.1187019, 0.07485256, 0.05080999, 0.158496, -0.1596384, 0.03719725, -0.9754981, -0.2199981, 126.7024
 138566954, 0.04489858, 0.134798, -0.1665087, 0.07113548, 0.00554162, -0.02214198, -0.134308, 0.03347347, -0.9760349, -0.2174166, 120.4105
 138766531, -0.0237447, -0.1152415, -0.1283991, 0.07113325, -0.03724516, -0.1983248, 0.1317402, 0.03719483, -0.9754826, -0.215065, 120.4067
 138986529, -0.05958197, -0.298635, 0.1532068, 0.07857428, -0.09633324, -0.1392314, 0.07663955, 0.04091452, -0.9733755, -0.224391, 132.9988
 139186625, -0.08439387, -0.192254, 0.04234039, 0.07857449, -0.01025901, 0.05429838, -0.02325016, 0.0371952, -0.974577, -0.223246, 132.9941
 139386814, 0.006088435, 0.06782405, 0.002026201, 0.07485497, 0.05867264, 0.1986503, -0.1308856, 0.03719947, -0.975862, -0.2153175, 126.6986
 139586732, 0.1052388, 0.2991666, -0.1206688, 0.07485478, 0.1028083, 0.2136859, -0.244818, 0.03719037, -0.9761288, -0.2069705, 126.6982
 139766523, 0.1640576, 0.3624741, -0.2604262, 0.07113085, 0.0227413, 0.04821027, 0.02316334, 0.03347551, -0.9764643, -0.2030841, 120.3951
 139986533, 0.07543822, 0.1960582, 0.02643946, 0.07485533, -0.02543839, -0.06154148, 0.0991758, 0.04091452, -0.9775407, -0.206689, 126.7024
 140166642, -0.03485691, 0.04235764, 0.02624798, 0.07485496, -0.09737783, -0.0754937, 0.09981426, 0.03347551, -0.9769543, -0.2133163, 126.7065
 140366662, -0.2047623, 0.02214072, 0.03819423, 0.07113547, -0.07625362, 0.1443073, -0.05466771, 0.03719501, -0.974714, -0.2230467, 120.4105
 140566525, -0.245888, 0.2366503, -0.1002299, 0.07485498, -0.07165495, 0.1837859, -0.2504657, 0.03719408, -0.972191, -0.2337326, 126.7065
 140786520, -0.2996978, 0.1744883, -0.2100938, 0.07857447, -0.1249137, 0.005086381, 0.03548629, 0.04091545, -0.9673543, -0.2485888, 133.0025
 140966416, -0.3542856, -0.03961526, 0.06551839, 0.07485589, -0.1861517, -0.09802756, 0.1398968, 0.03347588, -0.9678118, -0.2479774, 126.708
 141166446, -0.4914459, -0.09445812, 0.2102514, 0.07113548, -0.1916045, 0.0499243, 0.008026477, 0.03719502, -0.9677122, -0.2479168, 120.4105
 141366656, -0.4897516, 0.01818489, 0.02801248, 0.07485462, -0.1195181, -0.004171881, -0.01282177, 0.03719464, -0.9674553, -0.2461636, 126.7058
 141566410, -0.3791929, -0.07102738, 0.0704188, 0.07485498, -0.09580263, -0.06876408, 0.008464258, 0.03719613, -0.9666678, -0.2473342, 126.7065
 141766438, -0.3001489, -0.1385934, 0.07094176, 0.07485499, -0.07032098, -0.04745593, 0.08932644, 0.03719389, -0.9667271, -0.2485636, 126.7065
 141966419, -0.2242287, -0.1014015, 0.1085405, 0.0748544, -0.09572779, -0.005079641, -0.003620125, 0.03719502, -0.9679969, -0.2479059, 126.7055
 142186415, -0.2204967, -0.02555826, -0.01018146, 0.07857448, -0.0442961, -0.02662332, 0.0159242, 0.04091452, -0.9683324, -0.2488037, 133.0025
 142366438, -0.124519, -0.0006619296, -0.02084998, 0.07485537, -0.009375682, 0.03459714, -0.01853085, 0.03347551, -0.9685268, -0.2488973, 126.7071
 142566419, -0.06880283, 0.1102141, -0.05888053, 0.07113548, 0.002193139, 0.04845841, -0.08573087, 0.03719519, -0.968201, -0.249491, 120.4105
 142766424, -0.04347312, 0.1404071, -0.1170234, 0.07485496, -0.02057954, 0.05563993, -0.006911278, 0.03719483, -0.9676085, -0.2512187, 126.7065
 142986438, -0.06481115, 0.1639374, -0.02542101, 0.07857653, -0.02589029, 0.05212006, -0.08610458, 0.04091452, -0.9744725, -0.2225114, 133.0059
 143186417, -0.1090071, 0.1410822, -0.08312967, 0.07857449, -0.07015574, 0.03883967, -0.01929218, 0.03719502, -0.9725776, -0.2317561, 133.0025
 143386423, -0.1763223, 0.106363, -0.02675857, 0.07485999, -0.03542904, 0.05186868, -0.06127094, 0.03719501, -0.9728079, -0.2315919, 126.715
 143566429, -0.1475588, 0.1152863, -0.06546517, 0.07113566, -0.03198995, 0.04539257, -0.05874436, 0.03347551, -0.9728501, -0.2313352, 120.4108
 143766416, -0.1753823, 0.1305173, -0.0730128, 0.07113548, -0.05243767, 0.0003425215, -0.03810259, 0.03719501, -0.9725982, -0.2322915, 120.4105
 143966442, -0.2131261, 0.09787437, -0.06657207, 0.07485497, -0.04168956, 0.04309858, -0.07895143, 0.03719501, -0.9727535, -0.2316055, 126.7065
 144166392, -0.1978332, 0.1398668, -0.1030182, 0.07485498, -0.04546573, 0.06090144, -0.09361739, 0.0371965, -0.9721164, -0.2342301, 126.7065
 144366428, -0.1970791, 0.1199879, -0.1236653, 0.07485553, -0.1079557, -0.01362808, -0.05784537, 0.03719353, -0.9716358, -0.2364687, 126.7074
 144566444, -0.2726904, 0.0009183236, -0.06717474, 0.07485351, -0.120098, -0.01547559, -0.04580402, 0.03719501, -0.97208, -0.2333879, 126.7039
 144766403, -0.3010841, -0.0164584, -0.09703402, 0.07485499, -0.08357454, 0.006387776, -0.08074946, 0.03719501, -0.9733985, -0.2266431, 126.7065
 144966458, -0.2775957, 0.005769667, -0.1014925, 0.07485499, -0.07308064, -0.02559829, 0.04658459, 0.03719557, -0.9723471, -0.2310991, 126.7065
 145166432, -0.2490747, -0.01302255, 0.1700544, 0.07485498, -0.1006263, -0.004229242, 0.09589261, 0.03719557, -0.9714683, -0.2356566, 126.7065
 145386422, -0.2679516, -0.004259905, 0.5596867, 0.07857767, -0.09140666, -0.03381613, 0.5583906, 0.0409134, -0.9716642, -0.2337059, 133.0078
 145586423, -0.1536303, 0.002909634, 2.400249, 0.07857486, -0.03312923, 0.02323679, 1.082677, 0.03719502, -0.9754407, -0.2183675, 133.0031
 145786392, -0.09802142, 0.05396586, 2.945992, 0.07485518, -0.04188607, 0.02145923, 1.031058, 0.03719427, -0.979286, -0.2005236, 126.7068
 145986384, -0.1517608, 0.05552244, 2.764653, 0.07485349, -0.07568071, 0.02222521, 0.9542469, 0.03719502, -0.9830383, -0.1790521, 126.7039
 146166398, -0.2439489, 0.04519359, 2.388847, 0.07113475, -0.1033958, -0.0009902342, 0.7322864, 0.03347477, -0.9862495, -0.1545662, 120.4092
