TimeUS,COFN,COFE,CNe,CEe,POFN,POFE,PNe,PEe
 46157207, 0.0008699871, 0.01472595, 0.009794614, -0.01097923, 0.0004353033, 0.005948415, 0.009457631, -0.01055829
 46302483, 0.0004257134, 0.006285383, 0.009781062, -0.01092127, 0.0003315772, 0.006246455, 0.009886884, -0.01103946
 46376359, 0.0004068457, 0.005819369, 0.009223165, -0.01030041, 0.0003783895, 0.006113505, 0.009610252, -0.01073009
 46431333, 0.0004418586, 0.005734364, 0.009044969, -0.01010236, 0.0004068457, 0.005819369, 0.009223165, -0.01030041
 46486999, 0.0003547646, 0.005583421, 0.008858669, -0.009894853, 0.0004418586, 0.005734364, 0.009044969, -0.01010236
 46536991, -5.23264E-05, -0.002257897, 0.009217943, -0.01028817, 0.0003547646, 0.005583421, 0.008858669, -0.009894853
 46591344, 0.0004058762, 0.005990141, 0.009520528, -0.01063294, -5.23264E-05, -0.002257897, 0.009217943, -0.01028817
 46646349, 0.0003784398, 0.006134182, 0.009579794, -0.01069983, 0.0004058762, 0.005990141, 0.009520528, -0.01063294
 46701221, 0.0004412026, 0.005844144, 0.009204517, -0.01028003, 0.0003784398, 0.006134182, 0.009579794, -0.01069983
 46756259, 0.000437471, 0.005818991, 0.009202284, -0.01027606, 0.0004412026, 0.005844144, 0.009204517, -0.01028003
 46811801, 0.0002902629, 0.005900429, 0.009270305, -0.01035036, 0.000437471, 0.005818991, 0.009202284, -0.01027606
 46866252, 0.0003683214, 0.005817902, 0.009101516, -0.01016105, 0.0002902629, 0.005900429, 0.009270305, -0.01035036
 46921237, 0.0003536478, 0.005576014, 0.008896989, -0.009930974, 0.0003683214, 0.005817902, 0.009101516, -0.01016105
 46971254, 0.0003852348, 0.00556421, 0.008803244, -0.009824782, 0.0003536478, 0.005576014, 0.008896989, -0.009930974
 47026327, 0.0003735143, 0.005464499, 0.008705242, -0.009713354, 0.0003852348, 0.00556421, 0.008803244, -0.009824782
 47081248, 0.0003502883, 0.005583856, 0.008810438, -0.009828299, 0.0003735143, 0.005464499, 0.008705242, -0.009713354
 47136885, 0.0004177287, 0.005738926, 0.008943414, -0.009973614, 0.0003502883, 0.005583856, 0.008810438, -0.009828299
 47191239, 0.0004605209, 0.005744757, 0.009079507, -0.01012194, 0.0004177287, 0.005738926, 0.008943414, -0.009973614
 47246239, 0.0003012436, 0.005781078, 0.009157446, -0.01020573, 0.0004605209, 0.005744757, 0.009079507, -0.01012194
 47301258, 0.0004344623, 0.005726094, 0.009104461, -0.01014409, 0.0003012436, 0.005781078, 0.009157446, -0.01020573
 47356329, 0.0003875917, 0.005794772, 0.008942152, -0.009961059, 0.0004344623, 0.005726094, 0.009104461, -0.01014409
 47406260, 0.0003428675, 0.005527835, 0.008719924, -0.009710751, 0.0003875917, 0.005794772, 0.008942152, -0.009961059
 47461813, 0.0003789371, 0.00549909, 0.008680733, -0.009663953, 0.0003428675, 0.005527835, 0.008719924, -0.009710751
 47516223, 0.000808867, 0.01354056, 0.00896489, -0.01002157, 0.0003789371, 0.00549909, 0.008680733, -0.009663953
 47571335, 0.0004075052, 0.005694199, 0.009099601, -0.01012408, 0.000808867, 0.01354056, 0.00896489, -0.01002157
 47626342, 0.0004508673, 0.005820462, 0.009238224, -0.0102758, 0.0004075052, 0.005694199, 0.009099601, -0.01012408
 47681231, 0.0004369997, 0.005766903, 0.009208049, -0.01023976, 0.0004508673, 0.005820462, 0.009238224, -0.0102758
 47736900, 0.0003739839, 0.00579313, 0.009141127, -0.01016271, 0.0004369997, 0.005766903, 0.009208049, -0.01023976
 47791237, 0.00044966, 0.005708143, 0.008990805, -0.009993195, 0.0003739839, 0.00579313, 0.009141127, -0.01016271
 47841334, 0.0004641855, 0.005540834, 0.008833163, -0.009815954, 0.00044966, 0.005708143, 0.008990805, -0.009993195
 47896243, -5.565267E-05, -0.00191819, 0.008227152, -0.009133387, 0.0004641855, 0.005540834, 0.008833163, -0.009815954
 47951332, 0.0003088666, 0.005081335, 0.007947896, -0.008829905, -5.565267E-05, -0.00191819, 0.008227152, -0.009133387
 48006249, 0.0007990768, 0.01277525, 0.008495499, -0.009479708, 0.0003088666, 0.005081335, 0.007947896, -0.008829905
 48061900, 0.0004145839, 0.005595564, 0.00885304, -0.009829637, 0.0007990768, 0.01277525, 0.008495499, -0.009479708
 48116360, 0.0003845083, 0.005545763, 0.008745999, -0.009709041, 0.0004145839, 0.005595564, 0.00885304, -0.009829637
 48171237, 0.0003662878, 0.005447028, 0.008697282, -0.009652671, 0.0003845083, 0.005545763, 0.008745999, -0.009709041
 48226337, 0.0003359614, 0.005693097, 0.008982817, -0.009967768, 0.0003662878, 0.005447028, 0.008697282, -0.009652671
 48276364, 0.0004243755, 0.005711907, 0.008973755, -0.009956555, 0.0003359614, 0.005693097, 0.008982817, -0.009967768
 48331258, 0.000319349, 0.00558515, 0.008747587, -0.009704142, 0.0004243755, 0.005711907, 0.008973755, -0.009956555
 48386992, 0.0003593015, 0.005556974, 0.008704462, -0.009654545, 0.000319349, 0.00558515, 0.008747587, -0.009704142
 48441237, 0.0003440867, 0.005708298, 0.00898884, -0.009967574, 0.0003593015, 0.005556974, 0.008704462, -0.009654545
 48496335, 0.0004945287, 0.005828311, 0.009172861, -0.01016935, 0.0003440867, 0.005708298, 0.00898884, -0.009967574
 48551332, 0.0004554619, 0.005855003, 0.009258173, -0.01026178, 0.0004945287, 0.005828311, 0.009172861, -0.01016935
 48606355, 0.0004412496, 0.005650759, 0.008986331, -0.009958977, 0.0004554619, 0.005855003, 0.009258173, -0.01026178
 48661825, 0.0004342716, 0.005445038, 0.008666635, -0.009603091, 0.0004412496, 0.005650759, 0.008986331, -0.009958977
 48711862, 0.0003875697, 0.005508128, 0.008639989, -0.009572199, 0.0004342716, 0.005445038, 0.008666635, -0.009603091
 48766269, 0.0004681605, 0.005502108, 0.008612131, -0.009539678, 0.0003875697, 0.005508128, 0.008639989, -0.009572199
 48821233, 0.0003763968, 0.005263157, 0.008425679, -0.009331612, 0.0004681605, 0.005502108, 0.008612131, -0.009539678
 48876392, 0.000340529, 0.005277523, 0.008305835, -0.009197399, 0.0003763968, 0.005263157, 0.008425679, -0.009331612
 48931335, 8.3466E-06, -0.002081679, 0.008612379, -0.009526778, 0.000340529, 0.005277523, 0.008305835, -0.009197399
 48986992, 0.0004118507, 0.005650151, 0.00893301, -0.009886738, 8.3466E-06, -0.002081679, 0.008612379, -0.009526778
 49041223, 0.0007766522, 0.01335784, 0.008969318, -0.009968869, 0.0004118507, 0.005650151, 0.00893301, -0.009886738
 49096261, 0.0004292397, 0.005725444, 0.009061169, -0.01002531, 0.0007766522, 0.01335784, 0.008969318, -0.009968869
 49146261, 0.000509506, 0.005880647, 0.009177575, -0.01015202, 0.0004292397, 0.005725444, 0.009061169, -0.01002531
 49201241, 0.0004582895, 0.005716051, 0.009234307, -0.01021271, 0.000509506, 0.005880647, 0.009177575, -0.01015202
 49256233, 0.0003447022, 0.005836118, 0.00916712, -0.01013744, 0.0004582895, 0.005716051, 0.009234307, -0.01021271
 49311913, 0.0003764881, 0.005819655, 0.009136642, -0.01010213, 0.0003447022, 0.005836118, 0.00916712, -0.01013744
 49366342, 0.0004328066, 0.005727091, 0.00910484, -0.01006488, 0.0003764881, 0.005819655, 0.009136642, -0.01010213
 49421340, 0.0005066429, 0.005851109, 0.009205139, -0.01017393, 0.0004328066, 0.005727091, 0.00910484, -0.01006488
 49476383, 0.0001035167, -0.00220076, 0.009318946, -0.01028923, 0.0005066429, 0.005851109, 0.009205139, -0.01017393
 49531481, 0.000405192, 0.005855368, 0.00913015, -0.01008769, 0.0001035167, -0.00220076, 0.009318946, -0.01028923
 49581259, 0.0003927646, 0.005631022, 0.0089334, -0.00986779, 0.000405192, 0.005855368, 0.00913015, -0.01008769
 49637043, 0.0004018769, 0.005809577, 0.009048152, -0.009991774, 0.0003927646, 0.005631022, 0.0089334, -0.00986779
 49691489, 0.0005226477, 0.005743952, 0.009170589, -0.01012393, 0.0004018769, 0.005809577, 0.009048152, -0.009991774
 49746327, 0.0003535519, 0.005856128, 0.009298749, -0.01026261, 0.0005226477, 0.005743952, 0.009170589, -0.01012393
 49801371, 0.0005270948, 0.005928813, 0.009381632, -0.01035205, 0.0003535519, 0.005856128, 0.009298749, -0.01026261
 49856260, 0.0003937654, 0.006019822, 0.009435387, -0.01040963, 0.0005270948, 0.005928813, 0.009381632, -0.01035205
 49912044, 0.00038235, 0.006008814, 0.009460884, -0.01043538, 0.0003937654, 0.006019822, 0.009435387, -0.01040963
 49966356, 0.0004819861, 0.005988379, 0.009487455, -0.01046241, 0.00038235, 0.006008814, 0.009460884, -0.01043538
 50016342, 0.0003777914, 0.006012382, 0.009440382, -0.01040832, 0.0004819861, 0.005988379, 0.009487455, -0.01046241
 50071357, 0.0003653773, 0.005935763, 0.009344678, -0.01030087, 0.0003777914, 0.006012382, 0.009440382, -0.01040832
 50126393, 0.0003773613, 0.005800393, 0.009244366, -0.01018848, 0.0003653773, 0.005935763, 0.009344678, -0.01030087
 50181388, 0.0004358747, 0.00587438, 0.009179438, -0.01011657, 0.0003773613, 0.005800393, 0.009244366, -0.01018848
 50236914, 0.000415137, 0.0058295, 0.00925907, -0.01020175, 0.0004358747, 0.00587438, 0.009179438, -0.01011657
 50291348, 0.0004324324, 0.005967065, 0.009330835, -0.01027895, 0.000415137, 0.0058295, 0.00925907, -0.01020175
 50346333, 0.0004839495, 0.005798792, 0.009164544, -0.01009347, 0.0004324324, 0.005967065, 0.009330835, -0.01027895
 50396351, 0.0004947963, 0.005624542, 0.00896091, -0.009866863, 0.0004839495, 0.005798792, 0.009164544, -0.01009347
 50451613, 0.0003686231, 0.005641286, 0.008932522, -0.009833193, 0.0004947963, 0.005624542, 0.00896091, -0.009866863
 50506340, 0.0005030354, 0.005642802, 0.008981125, -0.009884173, 0.0003686231, 0.005641286, 0.008932522, -0.009833193
 50561840, 0.0004336947, 0.005667869, 0.009012845, -0.009916803, 0.0005030354, 0.005642802, 0.008981125, -0.009884173
 50616353, 0.000518035, 0.005633419, 0.009033668, -0.009937433, 0.0004336947, 0.005667869, 0.009012845, -0.009916803
 50671342, 0.0005928472, 0.005712735, 0.009044096, -0.009946488, 0.000518035, 0.005633419, 0.009033668, -0.009937433
 50726364, 0.000455607, 0.005727452, 0.009054518, -0.009956147, 0.0005928472, 0.005712735, 0.009044096, -0.009946488
 50781342, 0.0003519555, 0.005909143, 0.009231216, -0.01014787, 0.000455607, 0.005727452, 0.009054518, -0.009956147
 50836892, 0.0004762984, 0.005917898, 0.009345382, -0.01027125, 0.0003519555, 0.005909143, 0.009231216, -0.01014787
 50886994, 0.000455669, 0.006033313, 0.00939831, -0.01032814, 0.0004762984, 0.005917898, 0.009345382, -0.01027125
 50941367, 0.0008566027, 0.01409718, 0.009387089, -0.01035796, 0.000455669, 0.006033313, 0.00939831, -0.01032814
 50996344, 0.0005419631, 0.005874764, 0.009278816, -0.0101931, 0.0008566027, 0.01409718, 0.009387089, -0.01035796
 51051376, 0.0001135163, -0.002251858, 0.009163953, -0.01005715, 0.0005419631, 0.005874764, 0.009278816, -0.0101931
 51106469, 0.0004856543, 0.005627633, 0.008964829, -0.00984435, 0.0001135163, -0.002251858, 0.009163953, -0.01005715
 51161919, 0.0004423057, 0.005652371, 0.008957437, -0.009834796, 0.0004856543, 0.005627633, 0.008964829, -0.00984435
 51216391, 0.0004239255, 0.005630979, 0.009001639, -0.009881096, 0.0004423057, 0.005652371, 0.008957437, -0.009834796
 51271364, 0.0004835034, 0.005603259, 0.008892627, -0.009760012, 0.0004239255, 0.005630979, 0.009001639, -0.009881096
 51321341, 0.0004548121, 0.005479211, 0.008621478, -0.009461115, 0.0004835034, 0.005603259, 0.008892627, -0.009760012
 51376341, 0.0007463268, 0.01272332, 0.008444857, -0.009310544, 0.0004548121, 0.005479211, 0.008621478, -0.009461115
 51431390, 0.0001086155, -0.001992592, 0.008367086, -0.009170225, 0.0007463268, 0.01272332, 0.008444857, -0.009310544
 51487075, 0.000404187, 0.005443965, 0.008646168, -0.009482032, 0.0001086155, -0.001992592, 0.008367086, -0.009170225
 51541358, 0.0008964298, 0.01348768, 0.008970873, -0.009879511, 0.000404187, 0.005443965, 0.008646168, -0.009482032
 51596249, 0.0005382192, 0.006251577, 0.009862082, -0.01080859, 0.0008964298, 0.01348768, 0.008970873, -0.009879511
 51651394, 0.0004724891, 0.006534521, 0.01027271, -0.01125571, 0.0005382192, 0.006251577, 0.009862082, -0.01080859
 51706328, 0.0005420758, 0.006596389, 0.01036304, -0.01135227, 0.0004724891, 0.006534521, 0.01027271, -0.01125571
 51756401, 0.000536551, 0.006478066, 0.01029202, -0.01127168, 0.0005420758, 0.006596389, 0.01036304, -0.01135227
 51811808, 0.0005275017, 0.006351559, 0.01011022, -0.01107072, 0.000536551, 0.006478066, 0.01029202, -0.01127168
 51866349, 0.0004760806, 0.006163697, 0.009790176, -0.01071831, 0.0005275017, 0.006351559, 0.01011022, -0.01107072
 51921346, 0.0005276905, 0.005909322, 0.009374548, -0.01026155, 0.0004760806, 0.006163697, 0.009790176, -0.01071831
 51976396, 0.0005005786, 0.005788501, 0.009106508, -0.009966596, 0.0005276905, 0.005909322, 0.009374548, -0.01026155
 52031359, 0.0004701336, 0.005591258, 0.00898322, -0.00983001, 0.0005005786, 0.005788501, 0.009106508, -0.009966596
 52086920, 0.0004691824, 0.005622837, 0.00898398, -0.009829928, 0.0004701336, 0.005591258, 0.00898322, -0.00983001
 52141340, 0.0005605091, 0.005831515, 0.009194377, -0.01005858, 0.0004691824, 0.005622837, 0.00898398, -0.009829928
 52196367, 0.0001867057, -0.00223374, 0.009209711, -0.01006533, 0.0005605091, 0.005831515, 0.009194377, -0.01005858
 52246342, 0.0004840081, 0.005812798, 0.009182087, -0.01004166, 0.0001867057, -0.00223374, 0.009209711, -0.01006533
 52301356, 0.000483645, 0.005712768, 0.009153713, -0.01000827, 0.0004840081, 0.005812798, 0.009182087, -0.01004166
 52356338, 0.0004834854, 0.005811837, 0.009135535, -0.009987093, 0.000483645, 0.005712768, 0.009153713, -0.01000827
 52411859, 0.0004671102, 0.005757606, 0.009249148, -0.0101085, 0.0004834854, 0.005811837, 0.009135535, -0.009987093
 52466361, 0.0004934347, 0.005954879, 0.009367696, -0.01023658, 0.0004671102, 0.005757606, 0.009249148, -0.0101085
 52521387, 0.000541856, 0.00593855, 0.00910846, -0.009945093, 0.0004934347, 0.005954879, 0.009367696, -0.01023658
 52576589, 0.007994679, 0.004988943, 0.009016654, -0.009832697, 0.000541856, 0.00593855, 0.00910846, -0.009945093
 52626383, 0.0003431383, 0.005754667, 0.009025923, -0.009861954, 0.007994679, 0.004988943, 0.009016654, -0.009832697
 52681456, 0.0001712286, -0.002333717, 0.008924573, -0.009741498, 0.0003431383, 0.005754667, 0.009025923, -0.009861954
 52737004, 0.0004030597, 0.00545279, 0.008651828, -0.009444984, 0.0001712286, -0.002333717, 0.008924573, -0.009741498
 52791379, 0.0004620479, 0.005518343, 0.008524758, -0.009306734, 0.0004030597, 0.00545279, 0.008651828, -0.009444984
 52846340, 0.0005250996, 0.005550431, 0.00889862, -0.009719624, 0.0004620479, 0.005518343, 0.008524758, -0.009306734
 52901405, 0.0005612748, 0.005834844, 0.009148244, -0.009979425, 0.0005250996, 0.005550431, 0.00889862, -0.009719624
 52956401, 0.000396197, 0.005805591, 0.009301279, -0.01015386, 0.0005612748, 0.005834844, 0.009148244, -0.009979425
 53006375, 0.000548498, 0.006084845, 0.009577751, -0.01043792, 0.000396197, 0.005805591, 0.009301279, -0.01015386
 53061973, 0.06853209, -0.03307815, 0.01113462, -0.01123944, 0.000548498, 0.006084845, 0.009577751, -0.01043792
 53116348, -0.01537733, -0.002700171, 0.009872784, -0.01070153, 0.06853209, -0.03307815, 0.01113462, -0.01123944
 53171342, -0.08409461, 0.03698483, 0.01122329, -0.01071238, -0.01537733, -0.002700171, 0.009872784, -0.01070153
 53226398, 0.03543936, 0.003598147, 0.01022195, -0.01083646, -0.08409461, 0.03698483, 0.01122329, -0.01071238
 53281336, -0.001700753, 0.0005031539, 0.01049668, -0.0114286, 0.03543936, 0.003598147, 0.01022195, -0.01083646
 53336944, -0.00104306, 0.004599751, 0.01051935, -0.01145416, -0.001700753, 0.0005031539, 0.01049668, -0.0114286
 53391383, 0.001299099, 0.00610108, 0.01052827, -0.01146891, -0.00104306, 0.004599751, 0.01051935, -0.01145416
 53446380, 0.001241755, 0.006492883, 0.01019758, -0.01111182, 0.001299099, 0.00610108, 0.01052827, -0.01146891
 53496344, 0.00019486, 0.005489537, 0.009985214, -0.01087662, 0.001241755, 0.006492883, 0.01019758, -0.01111182
 53551393, 0.0002873207, 0.006161563, 0.01013253, -0.01103331, 0.00019486, 0.005489537, 0.009985214, -0.01087662
 53606326, 0.0004507026, 0.007675208, 0.01028432, -0.01120194, 0.0002873207, 0.006161563, 0.01013253, -0.01103331
 53661848, 0.0002837259, 0.005740962, 0.01004473, -0.01093021, 0.0004507026, 0.007675208, 0.01028432, -0.01120194
 53716366, 0.0005979798, 0.006654623, 0.009889456, -0.01076156, 0.0002837259, 0.005740962, 0.01004473, -0.01093021
 53771355, 0.0006710546, 0.005284806, 0.009817305, -0.01067945, 0.0005979798, 0.006654623, 0.009889456, -0.01076156
 53826428, 0.0003412778, 0.006478959, 0.009870176, -0.01074398, 0.0006710546, 0.005284806, 0.009817305, -0.01067945
 53876379, 0.0003526904, 0.006799751, 0.0101186, -0.01100863, 0.0003412778, 0.006478959, 0.009870176, -0.01074398
 53931375, 0.0006614606, 0.006422862, 0.01003731, -0.01091709, 0.0003526904, 0.006799751, 0.0101186, -0.01100863
 53988031, 0.0006207614, 0.005686042, 0.00971573, -0.01056316, 0.0006614606, 0.006422862, 0.01003731, -0.01091709
 54041345, 0.0003242805, 0.006246185, 0.009993289, -0.01086607, 0.0006207614, 0.005686042, 0.00971573, -0.01056316
 54096402, 0.0006981992, 0.006793033, 0.01037049, -0.01127067, 0.0003242805, 0.006246185, 0.009993289, -0.01086607
 54151579, 0.0005426744, 0.007151695, 0.01042114, -0.011327, 0.0006981992, 0.006793033, 0.01037049, -0.01127067
 54206587, 0.0001690064, 0.005550535, 0.01047622, -0.01137878, 0.0005426744, 0.007151695, 0.01042114, -0.011327
 54256578, 0.0007697766, 0.006736714, 0.009999065, -0.01086562, 0.0001690064, 0.005550535, 0.01047622, -0.01137878
 54312014, 0.0005683051, 0.005576679, 0.009781918, -0.01062184, 0.0007697766, 0.006736714, 0.009999065, -0.01086562
 54366391, 0.0004778788, 0.007458876, 0.01006363, -0.01093168, 0.0005683051, 0.005576679, 0.009781918, -0.01062184
 54421370, 0.0002533493, 0.006039361, 0.01024647, -0.01112308, 0.0004778788, 0.007458876, 0.01006363, -0.01093168
 54476389, 0.0004746082, 0.006286178, 0.009852566, -0.01069684, 0.0002533493, 0.006039361, 0.01024647, -0.01112308
 54531385, 0.0008658145, 0.005624243, 0.00967539, -0.01049435, 0.0004746082, 0.006286178, 0.009852566, -0.01069684
 54587969, 0.0001355667, 0.006734147, 0.009311708, -0.01011033, 0.0008658145, 0.005624243, 0.00967539, -0.01049435
 54641356, 0.0002280057, 0.00477259, 0.008887745, -0.009636252, 0.0001355667, 0.006734147, 0.009311708, -0.01011033
 54691374, 0.0003902456, 0.006178233, 0.008461895, -0.009186145, 0.0002280057, 0.00477259, 0.008887745, -0.009636252
 54746333, 0.0003960212, 0.004625881, 0.008286242, -0.008979667, 0.0003902456, 0.006178233, 0.008461895, -0.009186145
 54801397, 0.0009227378, 0.006291227, 0.008588198, -0.00931596, 0.0003960212, 0.004625881, 0.008286242, -0.008979667
 54856257, 0.0002373172, 0.005131389, 0.008663494, -0.00939139, 0.0009227378, 0.006291227, 0.008588198, -0.00931596
 54911960, 0.008213019, 0.005136079, 0.008684487, -0.00939105, 0.0002373172, 0.005131389, 0.008663494, -0.00939139
 54966370, -0.006761662, 0.005313214, 0.00831563, -0.008993682, 0.008213019, 0.005136079, 0.008684487, -0.00939105
 55021351, 0.0005505261, 0.005173934, 0.007916325, -0.008580415, -0.006761662, 0.005313214, 0.00831563, -0.008993682
 55071389, -0.0007498838, 0.005936262, 0.008716627, -0.009443194, 0.0005505261, 0.005173934, 0.007916325, -0.008580415
 55126385, 0.001256477, 0.005900232, 0.009548073, -0.01034876, -0.0007498838, 0.005936262, 0.008716627, -0.009443194
 55181357, -0.0003854646, 0.006478249, 0.009601555, -0.01040448, 0.001256477, 0.005900232, 0.009548073, -0.01034876
 55236902, 0.0001216993, 0.006354695, 0.009440964, -0.0102282, -0.0003854646, 0.006478249, 0.009601555, -0.01040448
 55291384, 0.001025039, 0.005267896, 0.009368025, -0.01014314, 0.0001216993, 0.006354695, 0.009440964, -0.0102282
 55346348, 0.0007517163, 0.005251514, 0.009292562, -0.01005625, 0.001025039, 0.005267896, 0.009368025, -0.01014314
 55401593, 0.0005940282, 0.006298924, 0.009070594, -0.009821517, 0.0007517163, 0.005251514, 0.009292562, -0.01005625
 55456384, 0.0005542106, 0.004908775, 0.00899573, -0.009731441, 0.0005940282, 0.006298924, 0.009070594, -0.009821517
 55506387, 0.0004044209, 0.006076167, 0.009035493, -0.009777432, 0.0005542106, 0.004908775, 0.00899573, -0.009731441
 55561827, 0.0008948584, 0.005701111, 0.00907666, -0.009821245, 0.0004044209, 0.006076167, 0.009035493, -0.009777432
 55616343, -8.841045E-05, 0.006315024, 0.00910471, -0.009850631, 0.0008948584, 0.005701111, 0.00907666, -0.009821245
 55671396, 5.951457E-05, 0.005963551, 0.009181996, -0.009933685, -8.841045E-05, 0.006315024, 0.00910471, -0.009850631
 55726487, 0.0004828808, 0.005647292, 0.009343439, -0.01010504, 5.951457E-05, 0.005963551, 0.009181996, -0.009933685
 55781468, 0.0007611992, 0.005402151, 0.009205557, -0.009950882, 0.0004828808, 0.005647292, 0.009343439, -0.01010504
 55836903, 0.00112311, 0.005291192, 0.009015994, -0.009748836, 0.0007611992, 0.005402151, 0.009205557, -0.009950882
 55891374, 0.000194646, 0.00586183, 0.009061914, -0.009796009, 0.00112311, 0.005291192, 0.009015994, -0.009748836
 55941414, 0.000642343, 0.006102885, 0.009268164, -0.01001566, 0.000194646, 0.00586183, 0.009061914, -0.009796009
 55996366, 0.008077744, 0.005266891, 0.009173698, -0.009893599, 0.000642343, 0.006102885, 0.009268164, -0.01001566
 56051387, 0.0009002939, 0.005856725, 0.009034402, -0.009763957, 0.008077744, 0.005266891, 0.009173698, -0.009893599
 56106332, 0.0002603934, 0.005236758, 0.008910055, -0.009622535, 0.0009002939, 0.005856725, 0.009034402, -0.009763957
 56161839, 0.001005288, 0.006246545, 0.008827766, -0.009538087, 0.0002603934, 0.005236758, 0.008910055, -0.009622535
 56216341, -0.0001294906, 0.005415514, 0.008776368, -0.009476609, 0.001005288, 0.006246545, 0.008827766, -0.009538087
 56271356, 0.0008257721, 0.005649155, 0.008750784, -0.009452405, -0.0001294906, 0.005415514, 0.008776368, -0.009476609
 56326379, -4.618482E-05, 0.005672242, 0.009409193, -0.0101609, 0.0008257721, 0.005649155, 0.008750784, -0.009452405
 56376412, -0.007038602, 0.005872417, 0.009391475, -0.01012369, -4.618482E-05, 0.005672242, 0.009409193, -0.0101609
 56431402, 0.0006368987, 0.005732947, 0.008835424, -0.009539237, -0.007038602, 0.005872417, 0.009391475, -0.01012369
 56486973, 8.417203E-05, 0.005700637, 0.00872515, -0.009422296, 0.0006368987, 0.005732947, 0.008835424, -0.009539237
 56541360, -1.500627E-05, 0.00576274, 0.009398291, -0.01013655, 8.417203E-05, 0.005700637, 0.00872515, -0.009422296
 56596359, 0.001060604, 0.006045692, 0.009581377, -0.01034261, -1.500627E-05, 0.00576274, 0.009398291, -0.01013655
 56649780, 0.0003106098, 0.005615419, 0.009600201, -0.01035646, 0.001060604, 0.006045692, 0.009581377, -0.01034261
 56704252, 0.0007926484, 0.006156492, 0.00955432, -0.01030376, 0.0003106098, 0.005615419, 0.009600201, -0.01035646
 56759349, 0.0005063563, 0.005843111, 0.009416089, -0.01015698, 0.0007926484, 0.006156492, 0.00955432, -0.01030376
 56814284, 0.0002028722, 0.006258245, 0.009696498, -0.01045512, 0.0005063563, 0.005843111, 0.009416089, -0.01015698
 56869336, 8.14049E-05, -0.002451154, 0.009927494, -0.01069995, 0.0002028722, 0.006258245, 0.009696498, -0.01045512
 56924820, 0.009224058, 0.006259077, 0.009828192, -0.01057372, 8.14049E-05, -0.002451154, 0.009927494, -0.01069995
 56974837, -0.007445259, 0.006665313, 0.009593938, -0.0103334, 0.009224058, 0.006259077, 0.009828192, -0.01057372
 57029772, -0.0007021709, 0.005925209, 0.009970679, -0.01073827, -0.007445259, 0.006665313, 0.009593938, -0.0103334
 57085163, 0.001463323, 0.006334945, 0.01037009, -0.01117482, -0.0007021709, 0.005925209, 0.009970679, -0.01073827
 57139762, 0.0003023733, 0.006006734, 0.01011881, -0.01089853, 0.001463323, 0.006334945, 0.01037009, -0.01117482
 57194770, 0.0009092629, 0.006551537, 0.01008612, -0.01086503, 0.0003023733, 0.006006734, 0.01011881, -0.01089853
 57247914, 0.0006702861, 0.006734916, 0.01022449, -0.01100886, 0.0009092629, 0.006551537, 0.01008612, -0.01086503
 57302907, 8.711364E-05, 0.006834744, 0.01003495, -0.01081306, 0.0006702861, 0.006734916, 0.01022449, -0.01100886
 57358255, 0.0004658951, 0.00528451, 0.009393285, -0.01010663, 8.711364E-05, 0.006834744, 0.01003495, -0.01081306
 57410860, 0.0008247502, 0.00604591, 0.009288142, -0.01000236, 0.0004658951, 0.00528451, 0.009393285, -0.01010663
 57465707, 0.000692326, 0.006040866, 0.009422416, -0.0101407, 0.0008247502, 0.00604591, 0.009288142, -0.01000236
 57520758, 0.0005308041, 0.005712354, 0.009507509, -0.01023052, 0.000692326, 0.006040866, 0.009422416, -0.0101407
 57575759, 0.0009460988, 0.006119589, 0.009563381, -0.01028961, 0.0005308041, 0.005712354, 0.009507509, -0.01023052
 57628168, 0.0002269191, 0.006057021, 0.009520452, -0.01024831, 0.0009460988, 0.006119589, 0.009563381, -0.01028961
 57683196, 0.0004854751, 0.006103728, 0.009399617, -0.01011731, 0.0002269191, 0.006057021, 0.009520452, -0.01024831
 57738183, 0.0003453823, 0.006646909, 0.009690914, -0.01042556, 0.0004854751, 0.006103728, 0.009399617, -0.01011731
 57794728, 0.0007355468, 0.01477893, 0.009928188, -0.01072101, 0.0003453823, 0.006646909, 0.009690914, -0.01042556
 57848145, 0.0006254691, 0.006125816, 0.009936243, -0.01068082, 0.0007355468, 0.01477893, 0.009928188, -0.01072101
 57898165, 0.0002676452, 0.006230716, 0.009841516, -0.0105784, 0.0006254691, 0.006125816, 0.009936243, -0.01068082
 57953153, -2.288977E-05, 0.005848449, 0.009676398, -0.01039801, 0.0002676452, 0.006230716, 0.009841516, -0.0105784
 58008182, 0.0003673397, 0.005281326, 0.009502549, -0.01020983, -2.288977E-05, 0.005848449, 0.009676398, -0.01039801
 58063158, 0.001194534, 0.007482179, 0.009901761, -0.01064991, 0.0003673397, 0.005281326, 0.009502549, -0.01020983
 58118710, -0.0004113755, 0.005655346, 0.009967717, -0.01070794, 0.001194534, 0.007482179, 0.009901761, -0.01064991
 58173149, 0.0005147858, 0.006681678, 0.009765064, -0.0105037, -0.0004113755, 0.005655346, 0.009967717, -0.01070794
 58228119, -0.00757654, 0.005059767, 0.009773322, -0.01048515, 0.0005147858, 0.006681678, 0.009765064, -0.0105037
 58278177, -0.0004918817, 0.006426941, 0.01007623, -0.01081595, -0.00757654, 0.005059767, 0.009773322, -0.01048515
 58333204, 0.002147885, -0.006293131, 0.01021863, -0.01097064, -0.0004918817, 0.006426941, 0.01007623, -0.01081595
 58388159, -0.008176629, -0.003763122, 0.01038311, -0.0111248, 0.002147885, -0.006293131, 0.01021863, -0.01097064
 58443743, 0.001921386, -0.03312592, 0.01032682, -0.01132095, -0.008176629, -0.003763122, 0.01038311, -0.0111248
 58498180, -0.05384837, 0.0001426038, 0.01073987, -0.01085902, 0.001921386, -0.03312592, 0.01032682, -0.01132095
 58553173, -0.00213126, -0.03707067, 0.009982214, -0.01103305, -0.05384837, 0.0001426038, 0.01073987, -0.01085902
 58608186, -0.04484601, -0.02844068, 0.01031824, -0.01082691, -0.00213126, -0.03707067, 0.009982214, -0.01103305
 58663193, -0.05762362, -0.1057544, 0.01028751, -0.01297513, -0.04484601, -0.02844068, 0.01031824, -0.01082691
 58713228, -0.1524032, -0.05650149, 0.01420548, -0.01133777, -0.05762362, -0.1057544, 0.01028751, -0.01297513
 58768683, -0.05583432, -0.2829019, 0.009529882, -0.0229703, -0.1524032, -0.05650149, 0.01420548, -0.01133777
 58823223, -0.4499593, -0.2521695, 0.03232335, -0.02286772, -0.05583432, -0.2829019, 0.009529882, -0.0229703
 58878357, -0.5113108, -0.4987943, 0.0347059, -0.03903089, -0.4499593, -0.2521695, 0.03232335, -0.02286772
 58933390, -0.164682, -0.905951, 0.01150208, -0.06470013, -0.5113108, -0.4987943, 0.0347059, -0.03903089
 58988176, -0.5964782, -0.7074066, 0.03845164, -0.05244277, -0.164682, -0.905951, 0.01150208, -0.06470013
 59038365, -0.4133285, -0.9580417, 0.0250723, -0.0682991, -0.5964782, -0.7074066, 0.03845164, -0.05244277
 59093864, -0.3526996, -1.250563, 0.01824586, -0.08878782, -0.4133285, -0.9580417, 0.0250723, -0.0682991
 59148127, -0.1998303, -1.097417, 0.008908145, -0.07841723, -0.3526996, -1.250563, 0.01824586, -0.08878782
 59203153, 0.06058287, -1.101457, 0.008828597, -0.07694978, -0.1998303, -1.097417, 0.008908145, -0.07841723
 59258181, 0.102313, -1.061785, 0.01080494, -0.07424211, 0.06058287, -1.101457, 0.008828597, -0.07694978
 59313345, 0.2105584, -1.026382, 0.01713598, -0.0722177, 0.102313, -1.061785, 0.01080494, -0.07424211
 59363211, 0.3137507, -1.046739, 0.02370003, -0.07344154, 0.2105584, -1.026382, 0.01713598, -0.0722177
 59418688, 0.3730641, -1.051725, 0.02730991, -0.07270906, 0.3137507, -1.046739, 0.02370003, -0.07344154
 59473152, 0.5160137, -1.085886, 0.03598312, -0.07341699, 0.3730641, -1.051725, 0.02730991, -0.07270906
 59528134, 0.6454456, -1.1287, 0.04301545, -0.07364863, 0.5160137, -1.085886, 0.03598312, -0.07341699
 59583177, 0.756224, -1.139994, 0.04895796, -0.07277203, 0.6454456, -1.1287, 0.04301545, -0.07364863
 59638185, 0.8399372, -1.084651, 0.05340996, -0.06846674, 0.756224, -1.139994, 0.04895796, -0.07277203
 59693668, 0.8309873, -1.162573, 0.05238628, -0.07239924, 0.8399372, -1.084651, 0.05340996, -0.06846674
 59743679, 0.7353865, -0.9912493, 0.04645426, -0.06167845, 0.8309873, -1.162573, 0.05238628, -0.07239924
 59803146, 0.7205745, -0.9131384, 0.04536197, -0.0567322, 0.7353865, -0.9912493, 0.04645426, -0.06167845
 59853160, 0.6067897, -0.885291, 0.03897794, -0.0549814, 0.7205745, -0.9131384, 0.04536197, -0.0567322
 59908191, 0.6056772, -0.8511128, 0.03880471, -0.05266777, 0.6067897, -0.885291, 0.03897794, -0.0549814
 59963189, 0.4758184, -0.9163929, 0.03205112, -0.05600531, 0.6056772, -0.8511128, 0.03880471, -0.05266777
 60018687, 0.4616556, -0.9299439, 0.03163868, -0.05631801, 0.4758184, -0.9163929, 0.03205112, -0.05600531
 60073155, 0.3937044, -0.8800305, 0.02870617, -0.05359661, 0.4616556, -0.9299439, 0.03163868, -0.05631801
 60128207, 0.2390476, -1.005222, 0.02307711, -0.06012161, 0.3937044, -0.8800305, 0.02870617, -0.05359661
 60178159, 0.2066439, -1.0383, 0.02263089, -0.06178561, 0.2390476, -1.005222, 0.02307711, -0.06012161
 60233202, 0.1503334, -1.098915, 0.02146648, -0.06493565, 0.2066439, -1.0383, 0.02263089, -0.06178561
 60288170, 0.1318131, -1.075726, 0.02175335, -0.0637092, 0.1503334, -1.098915, 0.02146648, -0.06493565
 60343739, -0.01419615, -1.222626, 0.01998146, -0.07149925, 0.1318131, -1.075726, 0.02175335, -0.0637092
 60398240, -0.09638885, -1.272745, 0.02051132, -0.07425666, -0.01419615, -1.222626, 0.01998146, -0.07149925
 60453381, -0.09773167, -1.261859, 0.02121959, -0.07363797, -0.09638885, -1.272745, 0.02051132, -0.07425666
 60508371, -0.2160766, -1.374754, 0.02324769, -0.07963967, -0.09773167, -1.261859, 0.02121959, -0.07363797
 60558393, -0.309631, -1.426555, 0.02624818, -0.08237015, -0.2160766, -1.374754, 0.02324769, -0.07963967
 60613359, -0.3751778, -1.52335, 0.02852895, -0.08738541, -0.309631, -1.426555, 0.02624818, -0.08237015
 60668874, -0.4618937, -1.564875, 0.03147426, -0.08980239, -0.3751778, -1.52335, 0.02852895, -0.08738541
 60723174, -0.5725815, -1.62165, 0.03581297, -0.09290412, -0.4618937, -1.564875, 0.03147426, -0.08980239
 60778134, -0.6033817, -1.720146, 0.03677996, -0.09800587, -0.5725815, -1.62165, 0.03581297, -0.09290412
 60833204, -0.7260126, -1.634019, 0.04194377, -0.09414829, -0.6033817, -1.720146, 0.03677996, -0.09800587
 60888156, -0.7582496, -1.641025, 0.04375314, -0.09449567, -0.7260126, -1.634019, 0.04194377, -0.09414829
 60938242, -0.8078034, -1.630125, 0.04620297, -0.09408237, -0.7582496, -1.641025, 0.04375314, -0.09449567
 60994752, -0.7745345, -1.579125, 0.04473218, -0.09163183, -0.8078034, -1.630125, 0.04620297, -0.09408237
 61048142, -0.8449675, -1.519132, 0.04820691, -0.08888604, -0.7745345, -1.579125, 0.04473218, -0.09163183
 61103173, -0.8729399, -1.544349, 0.04931422, -0.09037407, -0.8449675, -1.519132, 0.04820691, -0.08888604
 61158191, -0.8505334, -1.505412, 0.04833646, -0.08867466, -0.8729399, -1.544349, 0.04931422, -0.09037407
 61213181, -0.8722657, -1.48254, 0.04906731, -0.08788537, -0.8505334, -1.505412, 0.04833646, -0.08867466
 61268704, -0.8623035, -1.41857, 0.04850766, -0.08508087, -0.8722657, -1.48254, 0.04906731, -0.08788537
 61318723, -0.8495967, -1.429471, 0.04797754, -0.08579354, -0.8623035, -1.41857, 0.04850766, -0.08508087
 61373164, -0.8799547, -1.424682, 0.04921916, -0.08589051, -0.8495967, -1.429471, 0.04797754, -0.08579354
 61428182, -0.9420435, -1.420564, 0.0515384, -0.08626876, -0.8799547, -1.424682, 0.04921916, -0.08589051
 61483205, -0.8903316, -1.270929, 0.05044964, -0.07875736, -0.9420435, -1.420564, 0.0515384, -0.08626876
 61538182, -0.8863984, -1.335236, 0.05017794, -0.08184832, -0.8903316, -1.270929, 0.05044964, -0.07875736
 61594713, -0.8421009, -1.367649, 0.04820108, -0.0833367, -0.8863984, -1.335236, 0.05017794, -0.08184832
 61648154, -0.8720712, -1.301161, 0.04992153, -0.08026299, -0.8421009, -1.367649, 0.04820108, -0.0833367
 61698177, -0.8188266, -1.317661, 0.04766523, -0.08084287, -0.8720712, -1.301161, 0.04992153, -0.08026299
 61753153, -0.7715751, -1.271776, 0.04617668, -0.07857462, -0.8188266, -1.317661, 0.04766523, -0.08084287
 61808194, -0.8121992, -1.255603, 0.04804904, -0.07803275, -0.7715751, -1.271776, 0.04617668, -0.07857462
 61863148, -0.8065202, -1.250787, 0.04814724, -0.07796414, -0.8121992, -1.255603, 0.04804904, -0.07803275
 61918728, -0.7203865, -1.3083, 0.04507294, -0.08027356, -0.8065202, -1.250787, 0.04814724, -0.07796414
 61973198, -0.7690555, -1.272745, 0.04726501, -0.07877018, -0.7203865, -1.3083, 0.04507294, -0.08027356
 62028178, -0.6741298, -1.30717, 0.0437203, -0.08008014, -0.7690555, -1.272745, 0.04726501, -0.07877018
 62078152, -0.6811817, -1.382583, 0.04384576, -0.08357567, -0.6741298, -1.30717, 0.0437203, -0.08008014
 62133335, -0.6927767, -1.458635, 0.04419725, -0.08712882, -0.6811817, -1.382583, 0.04384576, -0.08357567
 62188349, -0.7001325, -1.447677, 0.04457521, -0.0867136, -0.6927767, -1.458635, 0.04419725, -0.08712882
 62243831, -0.7010561, -1.514002, 0.04448837, -0.08983862, -0.7001325, -1.447677, 0.04457521, -0.0867136
 62298146, -0.7620785, -1.633715, 0.04648832, -0.09566185, -0.7010561, -1.514002, 0.04448837, -0.08983862
 62348127, -0.7113115, -1.606427, 0.04478775, -0.09420836, -0.7620785, -1.633715, 0.04648832, -0.09566185
 62403193, -0.7063434, -1.692328, 0.04458114, -0.09826151, -0.7113115, -1.606427, 0.04478775, -0.09420836
 62458201, -0.7174345, -1.845951, 0.04439055, -0.1057191, -0.7063434, -1.692328, 0.04458114, -0.09826151
 62513482, -0.66624, -1.899102, 0.04242081, -0.1081137, -0.7174345, -1.845951, 0.04439055, -0.1057191
 62568684, -0.6764722, -2.009691, 0.04241559, -0.1134722, -0.66624, -1.899102, 0.04242081, -0.1081137
 62623139, -0.665244, -2.073072, 0.04166731, -0.1165484, -0.6764722, -2.009691, 0.04241559, -0.1134722
 62678145, -0.6883785, -2.099031, 0.04230198, -0.1179694, -0.665244, -2.073072, 0.04166731, -0.1165484
 62728114, -0.6547869, -2.129657, 0.04139878, -0.1192692, -0.6883785, -2.099031, 0.04230198, -0.1179694
 62783228, -0.811002, -2.259079, 0.04594584, -0.1262691, -0.6547869, -2.129657, 0.04139878, -0.1192692
 62838171, -0.7144705, -2.22213, 0.04224163, -0.1240915, -0.811002, -2.259079, 0.04594584, -0.1262691
 62893735, -0.7416519, -2.265786, 0.04314007, -0.1262662, -0.7144705, -2.22213, 0.04224163, -0.1240915
 62948159, -0.8357159, -2.412601, 0.04593583, -0.1340161, -0.7416519, -2.265786, 0.04314007, -0.1262662
 63003166, -0.8595777, -2.336165, 0.04742023, -0.1303052, -0.8357159, -2.412601, 0.04593583, -0.1340161
 63058168, -0.8309587, -2.331929, 0.04663144, -0.129899, -0.8595777, -2.336165, 0.04742023, -0.1303052
 63108185, -0.8365825, -2.251296, 0.04694518, -0.1259679, -0.8309587, -2.331929, 0.04663144, -0.129899
 63163170, -0.7991962, -2.328092, 0.04509571, -0.1296639, -0.8365825, -2.251296, 0.04694518, -0.1259679
 63218702, -0.7988756, -2.319767, 0.0450176, -0.1292426, -0.7991962, -2.328092, 0.04509571, -0.1296639
 63273184, -0.9522529, -2.356481, 0.05058998, -0.1317366, -0.7988756, -2.319767, 0.0450176, -0.1292426
 63328143, -0.9176299, -2.298739, 0.04874544, -0.1289197, -0.9522529, -2.356481, 0.05058998, -0.1317366
 63383183, -0.9082999, -2.232726, 0.0487157, -0.125493, -0.9176299, -2.298739, 0.04874544, -0.1289197
 63438220, -0.9335762, -2.149838, 0.05031215, -0.1213086, -0.9082999, -2.232726, 0.0487157, -0.125493
 63488146, -0.9326665, -2.066322, 0.05065559, -0.1171384, -0.9335762, -2.149838, 0.05031215, -0.1213086
 63543697, -0.9736416, -1.957147, 0.05314651, -0.1117297, -0.9326665, -2.066322, 0.05065559, -0.1171384
 63603343, -1.015249, -1.998399, 0.05466874, -0.1139683, -0.9736416, -1.957147, 0.05314651, -0.1117297
 63653166, -1.063753, -1.942883, 0.05692809, -0.1114304, -1.015249, -1.998399, 0.05466874, -0.1139683
 63708386, -0.9946573, -1.742018, 0.05484739, -0.1011817, -1.063753, -1.942883, 0.05692809, -0.1114304
 63763356, -1.096664, -1.772846, 0.05901011, -0.103126, -0.9946573, -1.742018, 0.05484739, -0.1011817
 63818854, -1.090192, -1.577518, 0.05916134, -0.0938415, -1.096664, -1.772846, 0.05901011, -0.103126
 63868840, -1.137481, -1.622283, 0.06092186, -0.09630008, -1.090192, -1.577518, 0.05916134, -0.0938415
 63923208, -1.17972, -1.488758, 0.06320648, -0.09016949, -1.137481, -1.622283, 0.06092186, -0.09630008
 63978151, -1.16943, -1.355534, 0.06303191, -0.08398128, -1.17972, -1.488758, 0.06320648, -0.09016949
 64033186, -1.151429, -1.296558, 0.06249591, -0.08106706, -1.16943, -1.355534, 0.06303191, -0.08398128
 64088205, -1.231792, -1.269628, 0.06593931, -0.08040698, -1.151429, -1.296558, 0.06249591, -0.08106706
 64143733, -1.238481, -1.093613, 0.06681316, -0.07271281, -1.231792, -1.269628, 0.06593931, -0.08040698
 64198171, -1.226761, -0.9679933, 0.06687618, -0.06718098, -1.238481, -1.093613, 0.06681316, -0.07271281
 64248147, -1.171097, -0.9088414, 0.06453157, -0.06454167, -1.226761, -0.9679933, 0.06687618, -0.06718098
 64303187, -1.10672, -0.8517562, 0.06192898, -0.06190702, -1.171097, -0.9088414, 0.06453157, -0.06454167
 64358230, -1.093124, -0.8519373, 0.06155558, -0.06167255, -1.10672, -0.8517562, 0.06192898, -0.06190702
 64413164, -1.131105, -0.7470326, 0.06392319, -0.05729453, -1.093124, -0.8519373, 0.06155558, -0.06167255
 64468712, -0.9886287, -0.6249333, 0.05829799, -0.05195372, -1.131105, -0.7470326, 0.06392319, -0.05729453
 64523152, -1.0622, -0.6854451, 0.06141806, -0.05451496, -0.9886287, -0.6249333, 0.05829799, -0.05195372
 64578118, -0.9845521, -0.6458493, 0.05818215, -0.05315213, -1.0622, -0.6854451, 0.06141806, -0.05451496
 64628225, -1.034849, -0.640873, 0.06043983, -0.05349838, -0.9845521, -0.6458493, 0.05818215, -0.05315213
 64683176, -0.9800398, -0.68922, 0.05809291, -0.0552121, -1.034849, -0.640873, 0.06043983, -0.05349838
 64738187, -0.9372395, -0.6622394, 0.05646157, -0.05393273, -0.9800398, -0.68922, 0.05809291, -0.0552121
 64794705, -0.9842594, -0.6505862, 0.05856971, -0.05352982, -0.9372395, -0.6622394, 0.05646157, -0.05393273
 64848211, -0.9031824, -0.666398, 0.05556692, -0.05422272, -0.9842594, -0.6505862, 0.05856971, -0.05352982
 64903160, -0.8561615, -0.6827663, 0.05399086, -0.05485216, -0.9031824, -0.666398, 0.05556692, -0.05422272
 64958193, -0.8935338, -0.666084, 0.05578623, -0.0544561, -0.8561615, -0.6827663, 0.05399086, -0.05485216
 65008187, -0.8650134, -0.6396512, 0.05473095, -0.05350777, -0.8935338, -0.666084, 0.05578623, -0.0544561
 65063177, -0.9125761, -0.6517091, 0.05658375, -0.05406808, -0.8650134, -0.6396512, 0.05473095, -0.05350777
 65118702, -0.9189711, -0.6919911, 0.05694979, -0.05575368, -0.9125761, -0.6517091, 0.05658375, -0.05406808
 65173138, -0.9336902, -0.6503933, 0.05805547, -0.05424765, -0.9189711, -0.6919911, 0.05694979, -0.05575368
 65228175, -0.9430182, -0.7740937, 0.05850898, -0.05902451, -0.9336902, -0.6503933, 0.05805547, -0.05424765
 65283352, -0.8629624, -0.6571593, 0.05610462, -0.05468916, -0.9430182, -0.7740937, 0.05850898, -0.05902451
 65338213, -0.8317072, -0.7036008, 0.05522954, -0.05642834, -0.8629624, -0.6571593, 0.05610462, -0.05468916
 65388371, -0.8567578, -0.7460407, 0.05624397, -0.05813468, -0.8317072, -0.7036008, 0.05522954, -0.05642834
 65443849, -0.7890251, -0.6463075, 0.05437358, -0.05484411, -0.8567578, -0.7460407, 0.05624397, -0.05813468
 65498181, -0.798461, -0.7219801, 0.05470407, -0.05773774, -0.7890251, -0.6463075, 0.05437358, -0.05484411
 65553158, -0.8107266, -0.6562271, 0.05531004, -0.05557742, -0.798461, -0.7219801, 0.05470407, -0.05773774
 65608168, -0.7663921, -0.628139, 0.05391102, -0.05479368, -0.8107266, -0.6562271, 0.05531004, -0.05557742
 65663194, -0.7216344, -0.638725, 0.05266588, -0.05543546, -0.7663921, -0.628139, 0.05391102, -0.05479368
 65718714, -0.7823544, -0.5865474, 0.055018, -0.05446181, -0.7216344, -0.638725, 0.05266588, -0.05543546
 65768683, -0.7533142, -0.6567265, 0.05407814, -0.05692963, -0.7823544, -0.5865474, 0.055018, -0.05446181
 65823146, -0.7323834, -0.6603498, 0.0537872, -0.05743346, -0.7533142, -0.6567265, 0.05407814, -0.05692963
 65878177, -0.7425547, -0.5922124, 0.05487576, -0.05578902, -0.7323834, -0.6603498, 0.0537872, -0.05743346
 65933234, -0.6482511, -0.6704467, 0.05212433, -0.05820232, -0.7425547, -0.5922124, 0.05487576, -0.05578902
 65988177, -0.6938825, -0.5871436, 0.05418739, -0.05599999, -0.6482511, -0.6704467, 0.05212433, -0.05820232
 66043709, -0.7016546, -0.5759758, 0.05488914, -0.05612939, -0.6938825, -0.5871436, 0.05418739, -0.05599999
 66098140, -0.6671576, -0.6540537, 0.05393753, -0.05883586, -0.7016546, -0.5759758, 0.05488914, -0.05612939
 66148116, -0.6522452, -0.6333102, 0.05343909, -0.05817863, -0.6671576, -0.6540537, 0.05393753, -0.05883586
 66203200, -0.7161331, -0.678988, 0.05513841, -0.05982177, -0.6522452, -0.6333102, 0.05343909, -0.05817863
 66258164, -0.6253055, -0.6322381, 0.05288028, -0.05857281, -0.7161331, -0.678988, 0.05513841, -0.05982177
 66313354, -0.6135113, -0.7249077, 0.0525718, -0.06161105, -0.6253055, -0.6322381, 0.05288028, -0.05857281
 66368733, -0.5413249, -0.7074749, 0.05128257, -0.06150379, -0.6135113, -0.7249077, 0.0525718, -0.06161105
 66423179, -0.5960943, -0.6970204, 0.05331838, -0.06182097, -0.5413249, -0.7074749, 0.05128257, -0.06150379
 66478157, -0.5129151, -0.657146, 0.05171138, -0.06077054, -0.5960943, -0.6970204, 0.05331838, -0.06182097
 66533340, -0.546741, -0.6742, 0.05255209, -0.06162855, -0.5129151, -0.657146, 0.05171138, -0.06077054
 66583184, -0.4987042, -0.5923809, 0.05206674, -0.05964246, -0.546741, -0.6742, 0.05255209, -0.06162855
 66638159, -0.4896895, -0.7128024, 0.05215551, -0.06349909, -0.4987042, -0.5923809, 0.05206674, -0.05964246
 66693711, -0.4954458, -0.6298525, 0.05269616, -0.06145198, -0.4896895, -0.7128024, 0.05215551, -0.06349909
 66748126, -0.4274913, -0.6688537, 0.05176005, -0.0629569, -0.4954458, -0.6298525, 0.05269616, -0.06145198
 66803180, -0.5143223, -0.6055505, 0.05445025, -0.06185148, -0.4274913, -0.6688537, 0.05176005, -0.0629569
 66858357, -0.4444132, -0.6970074, 0.05326622, -0.06468147, -0.5143223, -0.6055505, 0.05445025, -0.06185148
 66913482, -0.4929311, -0.6112931, 0.05472989, -0.06243069, -0.4444132, -0.6970074, 0.05326622, -0.06468147
 66963359, -0.4581398, -0.6773442, 0.05439768, -0.06455941, -0.4929311, -0.6112931, 0.05472989, -0.06243069
 67018848, -0.3920318, -0.7592687, 0.0533538, -0.06727728, -0.4581398, -0.6773442, 0.05439768, -0.06455941
 67073146, -0.4620101, -0.6240902, 0.05545927, -0.06435472, -0.3920318, -0.7592687, 0.0533538, -0.06727728
 67128158, -0.4886009, -0.6270274, 0.05673799, -0.06525812, -0.4620101, -0.6240902, 0.05545927, -0.06435472
 67183183, -0.4289359, -0.6243192, 0.0561973, -0.06551348, -0.4886009, -0.6270274, 0.05673799, -0.06525812
 67238232, -0.4623369, -0.5865214, 0.0571679, -0.06497327, -0.4289359, -0.6243192, 0.0561973, -0.06551348
 67293715, -0.437421, -0.5932941, 0.05732982, -0.06568908, -0.4623369, -0.5865214, 0.0571679, -0.06497327
 67343696, -0.5172598, -0.6534453, 0.05932061, -0.0680517, -0.437421, -0.5932941, 0.05732982, -0.06568908
 67403180, -0.5059075, -0.5970232, 0.05967505, -0.06723453, -0.5172598, -0.6534453, 0.05932061, -0.0680517
 67453147, -0.5791218, -0.5072662, 0.06158848, -0.06560584, -0.5059075, -0.5970232, 0.05967505, -0.06723453
 67508228, -0.477696, -0.6143684, 0.05982195, -0.06888153, -0.5791218, -0.5072662, 0.06158848, -0.06560584
 67563144, -0.5619541, -0.4897641, 0.06215921, -0.06700345, -0.477696, -0.6143684, 0.05982195, -0.06888153
 67618693, -0.4952722, -0.480646, 0.06136763, -0.06737083, -0.5619541, -0.4897641, 0.06215921, -0.06700345
 67673158, -0.6076289, -0.517944, 0.06398028, -0.06889504, -0.4952722, -0.480646, 0.06136763, -0.06737083
 67728147, -0.5825813, -0.4737864, 0.06404626, -0.06882875, -0.6076289, -0.517944, 0.06398028, -0.06889504
 67778217, -0.6989501, -0.3705887, 0.06764222, -0.06788148, -0.5825813, -0.4737864, 0.06404626, -0.06882875
 67833185, -0.6284701, -0.4048004, 0.0662123, -0.06878363, -0.6989501, -0.3705887, 0.06764222, -0.06788148
 67888184, -0.6192741, -0.3135982, 0.06662406, -0.06786638, -0.6284701, -0.4048004, 0.0662123, -0.06878363
 67943718, -0.6959908, -0.3915512, 0.06877474, -0.06945617, -0.6192741, -0.3135982, 0.06662406, -0.06786638
 67998204, -0.5776907, -0.2785038, 0.0667479, -0.06845559, -0.6959908, -0.3915512, 0.06877474, -0.06945617
 68053145, -0.6147083, -0.1190198, 0.06802961, -0.06760187, -0.5776907, -0.2785038, 0.0667479, -0.06845559
 68108178, -0.5694101, -0.2001429, 0.06743208, -0.06873268, -0.6147083, -0.1190198, 0.06802961, -0.06760187
 68158181, -0.7181189, -0.1044851, 0.07110737, -0.06882704, -0.5694101, -0.2001429, 0.06743208, -0.06873268
 68213200, -0.54488, -0.0868725, 0.06759621, -0.0688263, -0.7181189, -0.1044851, 0.07110737, -0.06882704
 68268722, -0.6228766, -0.0404243, 0.06972325, -0.06889848, -0.54488, -0.0868725, 0.06759621, -0.0688263
 68323145, -0.7378131, -0.001445964, 0.07288613, -0.06921285, -0.6228766, -0.0404243, 0.06972325, -0.06889848
 68378184, -0.5880923, 0.1642527, 0.07010304, -0.06987688, -0.7378131, -0.001445964, 0.07288613, -0.06921285
 68433376, -0.6582686, 0.06572997, 0.0721668, -0.06999453, -0.5880923, 0.1642527, 0.07010304, -0.06987688
 68488363, -0.5712675, 0.03036232, 0.07075202, -0.07048837, -0.6582686, 0.06572997, 0.0721668, -0.06999453
 68538354, -0.5568254, 0.2788489, 0.07091478, -0.07207752, -0.5712675, 0.03036232, 0.07075202, -0.07048837
 68594839, -0.5455709, 0.3363353, 0.07102955, -0.0726797, -0.5568254, 0.2788489, 0.07091478, -0.07207752
 68648160, -0.5025289, 0.1658806, 0.0705247, -0.07152018, -0.5455709, 0.3363353, 0.07102955, -0.0726797
 68703129, -0.3719517, 0.2855385, 0.06887496, -0.07262146, -0.5025289, 0.1658806, 0.0705247, -0.07152018
 68758175, -0.3998238, 0.3509863, 0.06957462, -0.073637, -0.3719517, 0.2855385, 0.06887496, -0.07262146
 68813184, -0.3452083, 0.2483218, 0.06897902, -0.07280554, -0.3998238, 0.3509863, 0.06957462, -0.073637
 68868862, -0.4291567, 0.3822396, 0.07037909, -0.07461683, -0.3452083, 0.2483218, 0.06897902, -0.07280554
 68918845, -0.4753182, 0.3070107, 0.071386, -0.07428164, -0.4291567, 0.3822396, 0.07037909, -0.07461683
 68973360, -0.4559698, 0.1620737, 0.07098393, -0.07367706, -0.4753182, 0.3070107, 0.071386, -0.07428164
 69028233, -0.5769774, 0.1548945, 0.07364036, -0.07390019, -0.4559698, 0.1620737, 0.07098393, -0.07367706
 69083457, -0.5477556, 0.192243, 0.07366759, -0.07394718, -0.5769774, 0.1548945, 0.07364036, -0.07390019
 69138352, -0.4409676, 0.3993545, 0.07328964, -0.07647835, -0.5477556, 0.192243, 0.07366759, -0.07394718
 69194813, -0.4358238, 0.174195, 0.0740004, -0.07443314, -0.4409676, 0.3993545, 0.07328964, -0.07647835
 69248248, -0.2075927, 0.1758569, 0.07226052, -0.07492702, -0.4358238, 0.174195, 0.0740004, -0.07443314
 69303241, -0.2264327, 0.3544275, 0.07294871, -0.07721168, -0.2075927, 0.1758569, 0.07226052, -0.07492702
 69353450, -0.1922131, 0.316125, 0.07285682, -0.07750952, -0.2264327, 0.3544275, 0.07294871, -0.07721168
 69408244, -0.07636455, 0.3084773, 0.07266904, -0.07836738, -0.1922131, 0.316125, 0.07285682, -0.07750952
 69463353, -0.008943956, 0.3571542, 0.07288152, -0.07991228, -0.07636455, 0.3084773, 0.07266904, -0.07836738
 69518817, -0.02618035, 0.184773, 0.07303702, -0.07944641, -0.008943956, 0.3571542, 0.07288152, -0.07991228
 69573249, -0.03948211, 0.4395015, 0.07308104, -0.08276815, -0.02618035, 0.184773, 0.07303702, -0.07944641
 69628354, -0.08862589, 0.4516903, 0.07392482, -0.08354772, -0.03948211, 0.4395015, 0.07308104, -0.08276815
 69683331, -0.01581284, 0.5404831, 0.07471287, -0.08548707, -0.08862589, 0.4516903, 0.07392482, -0.08354772
 69733285, -0.1726771, 0.6549902, 0.07610759, -0.08760795, -0.01581284, 0.5404831, 0.07471287, -0.08548707
 69788338, -0.1436381, 0.538682, 0.07657803, -0.08625714, -0.1726771, 0.6549902, 0.07610759, -0.08760795
 69843791, -0.2104559, 0.7224096, 0.07735974, -0.09045279, -0.1436381, 0.538682, 0.07657803, -0.08625714
 69898347, -0.2318988, 0.8154207, 0.07787691, -0.09300044, -0.2104559, 0.7224096, 0.07735974, -0.09045279
 69953345, -0.09802458, 0.7317117, 0.07763722, -0.09134607, -0.2318988, 0.8154207, 0.07787691, -0.09300044
 70008478, -0.316233, 0.8362036, 0.07986814, -0.09342766, -0.09802458, 0.7317117, 0.07763722, -0.09134607
 70063443, -0.2185182, 0.7513282, 0.07933883, -0.0914659, -0.316233, 0.8362036, 0.07986814, -0.09342766
 70113634, -0.3090926, 0.6452357, 0.08039629, -0.08914108, -0.2185182, 0.7513282, 0.07933883, -0.0914659
 70168914, -0.2352478, 0.7160295, 0.07990434, -0.09064287, -0.3090926, 0.6452357, 0.08039629, -0.08914108
 70223243, -0.1225043, 0.5623392, 0.07961386, -0.08753465, -0.2352478, 0.7160295, 0.07990434, -0.09064287
 70278287, -0.06437715, 0.4538398, 0.07973052, -0.08519609, -0.1225043, 0.5623392, 0.07961386, -0.08753465
 70333258, -0.2176169, 0.4750323, 0.08078143, -0.08489916, -0.06437715, 0.4538398, 0.07973052, -0.08519609
 70388447, -0.2187152, 0.3868109, 0.08084796, -0.08363862, -0.2176169, 0.4750323, 0.08078143, -0.08489916
 70443830, -0.08354253, 0.2941659, 0.08015902, -0.08285934, -0.2187152, 0.3868109, 0.08084796, -0.08363862
 70498329, -0.1766659, 0.08460649, 0.08037021, -0.08207042, -0.08354253, 0.2941659, 0.08015902, -0.08285934
 70548341, -0.1540677, 0.06244059, 0.08008815, -0.08225571, -0.1766659, 0.08460649, 0.08037021, -0.08207042
 70603341, -0.08710992, 0.04555905, 0.08000569, -0.08226416, -0.1540677, 0.06244059, 0.08008815, -0.08225571
 70658602, -0.1674781, -0.1175024, 0.08065186, -0.08257384, -0.08710992, 0.04555905, 0.08000569, -0.08226416
 70713446, 0.01037797, -0.1052498, 0.08083556, -0.08238575, -0.1674781, -0.1175024, 0.08065186, -0.08257384
 70768787, -0.2166093, -0.304299, 0.08200607, -0.08402734, 0.01037797, -0.1052498, 0.08083556, -0.08238575
 70823266, -0.2316469, -0.3231951, 0.08225778, -0.08473535, -0.2166093, -0.304299, 0.08200607, -0.08402734
 70878360, -0.1172924, -0.3668542, 0.0816175, -0.08568611, -0.2316469, -0.3231951, 0.08225778, -0.08473535
 70928469, -0.1707013, -0.1182999, 0.0817497, -0.08417435, -0.1172924, -0.3668542, 0.0816175, -0.08568611
 70983370, -0.3258028, -0.4396505, 0.0830037, -0.08713922, -0.1707013, -0.1182999, 0.0817497, -0.08417435
 71038339, -0.2716575, -0.2879686, 0.0827354, -0.08566004, -0.3258028, -0.4396505, 0.0830037, -0.08713922
 71093797, 0.06131943, -0.3293603, 0.08197933, -0.08629972, -0.2716575, -0.2879686, 0.0827354, -0.08566004
 71148347, -0.2049107, -0.4749553, 0.0834014, -0.08778968, 0.06131943, -0.3293603, 0.08197933, -0.08629972
 71203332, -0.06319931, -0.5067221, 0.08527216, -0.08691806, -0.2049107, -0.4749553, 0.0834014, -0.08778968
 71258334, -0.1860123, -0.5734777, 0.08967602, -0.08457444, -0.06319931, -0.5067221, 0.08527216, -0.08691806
 71308289, 0.006958365, -0.5970581, 0.0927138, -0.08140984, -0.1860123, -0.5734777, 0.08967602, -0.08457444
 71363339, -0.02038578, -0.7982115, 0.09641337, -0.08215956, 0.006958365, -0.5970581, 0.0927138, -0.08140984
 71420831, 0.06111667, -0.5612963, 0.09752228, -0.07669806, -0.02038578, -0.7982115, 0.09641337, -0.08215956
 71470842, 0.2030051, -0.6589198, 0.09873081, -0.0785015, 0.06111667, -0.5612963, 0.09752228, -0.07669806
 71525844, 0.09835781, -0.7189775, 0.09900563, -0.08007503, 0.2030051, -0.6589198, 0.09873081, -0.0785015
 71580964, 0.2025856, -0.6747681, 0.1001811, -0.08002377, 0.09835781, -0.7189775, 0.09900563, -0.08007503
 71635941, 0.1865705, -0.79548, 0.1012689, -0.08289347, 0.2025856, -0.6747681, 0.1001811, -0.08002377
 71691371, 0.09612454, -0.7994004, 0.1023902, -0.0830956, 0.1865705, -0.79548, 0.1012689, -0.08289347
 71745830, -0.03003338, -0.8883145, 0.103979, -0.08492362, 0.09612454, -0.7994004, 0.1023902, -0.0830956
 71800802, 0.145633, -0.8208292, 0.1043396, -0.08463971, -0.03003338, -0.8883145, 0.103979, -0.08492362
 71855827, 0.3309957, -1.067359, 0.1061321, -0.09141117, 0.145633, -0.8208292, 0.1043396, -0.08463971
 71905865, 0.215696, -1.090607, 0.1061905, -0.09181825, 0.3309957, -1.067359, 0.1061321, -0.09141117
 71960885, 0.2093873, -1.243206, 0.1069073, -0.09630984, 0.215696, -1.090607, 0.1061905, -0.09181825
 72016345, 0.008897603, -1.357325, 0.1081855, -0.0992233, 0.2093873, -1.243206, 0.1069073, -0.09630984
 72070800, 0.1467783, -1.497296, 0.1086714, -0.1044046, 0.008897603, -1.357325, 0.1081855, -0.0992233
 72125844, 0.2212136, -1.431232, 0.1094075, -0.1033582, 0.1467783, -1.497296, 0.1086714, -0.1044046
 72180833, 0.06387734, -1.846819, 0.1127381, -0.1162101, 0.2212136, -1.431232, 0.1094075, -0.1033582
 72235846, 0.05533096, -1.938667, 0.1137283, -0.1196865, 0.06387734, -1.846819, 0.1127381, -0.1162101
 72285833, 0.1194789, -2.058229, 0.1145626, -0.1244602, 0.05533096, -1.938667, 0.1137283, -0.1196865
 72341228, -0.0304094, -2.057652, 0.1159241, -0.1236554, 0.1194789, -2.058229, 0.1145626, -0.1244602
 72400828, -0.0165647, -2.333244, 0.1182311, -0.1340248, -0.0304094, -2.057652, 0.1159241, -0.1236554
 72450903, 0.1695798, -2.171531, 0.1164753, -0.1292014, -0.0165647, -2.333244, 0.1182311, -0.1340248
 72505901, 0.2360063, -2.40438, 0.1187889, -0.1377205, 0.1695798, -2.171531, 0.1164753, -0.1292014
 72560817, 0.1909518, -2.529095, 0.1204456, -0.1418838, 0.2360063, -2.40438, 0.1187889, -0.1377205
 72616418, 0.2061344, -2.622608, 0.121455, -0.1455354, 0.1909518, -2.529095, 0.1204456, -0.1418838
 72666207, 0.1523922, -2.755714, 0.123231, -0.1500798, 0.2061344, -2.622608, 0.121455, -0.1455354
 72720815, 0.1324726, -2.85798, 0.1238383, -0.1544484, 0.1523922, -2.755714, 0.123231, -0.1500798
 72775844, 0.3608629, -2.74786, 0.1217658, -0.1519992, 0.1324726, -2.85798, 0.1238383, -0.1544484
 72830839, -0.02856247, -2.84728, 0.1108576, -0.1631489, 0.3608629, -2.74786, 0.1217658, -0.1519992
 72885957, 0.1482283, -3.022022, 0.1109717, -0.1707671, -0.02856247, -2.84728, 0.1108576, -0.1631489
 72938362, 0.1950316, -2.970348, 0.1120652, -0.1677077, 0.1482283, -3.022022, 0.1109717, -0.1707671
 72995877, 0.3584296, -3.300298, 0.1170274, -0.1799923, 0.1950316, -2.970348, 0.1120652, -0.1677077
 73048224, 0.3426886, -3.524015, 0.1219134, -0.187209, 0.3584296, -3.300298, 0.1170274, -0.1799923
 73104788, 0.4802451, -3.593514, 0.1245141, -0.1894571, 0.3426886, -3.524015, 0.1219134, -0.187209
 73158477, 0.5895979, -3.839326, 0.1273961, -0.2000674, 0.4802451, -3.593514, 0.1245141, -0.1894571
 73213427, 0.6834738, -3.574129, 0.1259779, -0.1888666, 0.5895979, -3.839326, 0.1273961, -0.2000674
 73263450, 0.6554908, -3.831483, 0.1272205, -0.1999327, 0.6834738, -3.574129, 0.1259779, -0.1888666
 73318450, 0.6651034, -3.987089, 0.1281285, -0.2071934, 0.6554908, -3.831483, 0.1272205, -0.1999327
 73373359, 0.5145255, -4.081241, 0.1289683, -0.2104365, 0.6651034, -3.987089, 0.1281285, -0.2071934
 73428841, 0.508377, -3.991361, 0.1286101, -0.2065194, 0.5145255, -4.081241, 0.1289683, -0.2104365
 73483354, 0.4254443, -4.033583, 0.1289559, -0.2081507, 0.508377, -3.991361, 0.1286101, -0.2065194
 73538468, 0.5505252, -4.015317, 0.1281427, -0.2085751, 0.4254443, -4.033583, 0.1289559, -0.2081507
 73588261, 0.4788671, -4.007563, 0.1272995, -0.2082315, 0.5505252, -4.015317, 0.1281427, -0.2085751
 73643338, 0.4327779, -3.941566, 0.1282171, -0.204213, 0.4788671, -4.007563, 0.1272995, -0.2082315
 73698250, 0.5295696, -3.959844, 0.1287757, -0.2052497, 0.4327779, -3.941566, 0.1282171, -0.204213
 73753779, 0.5597156, -4.047218, 0.1301088, -0.2088741, 0.5295696, -3.959844, 0.1287757, -0.2052497
 73808455, 0.6872638, -4.104788, 0.1300977, -0.2126041, 0.5597156, -4.047218, 0.1301088, -0.2088741
 73863295, 0.6288654, -3.980625, 0.1289477, -0.2071722, 0.6872638, -4.104788, 0.1300977, -0.2126041
 73918352, 0.5445739, -4.329144, 0.131734, -0.2219374, 0.6288654, -3.980625, 0.1289477, -0.2071722
 73968356, 0.8176663, -4.317109, 0.1324536, -0.2228344, 0.5445739, -4.329144, 0.131734, -0.2219374
 74023253, 0.55758, -4.254414, 0.1311409, -0.2182281, 0.8176663, -4.317109, 0.1324536, -0.2228344
 74078925, 0.8014262, -4.564982, 0.1324538, -0.2343734, 0.55758, -4.254414, 0.1311409, -0.2182281
 74133344, 0.8689544, -4.328499, 0.1302608, -0.224515, 0.8014262, -4.564982, 0.1324538, -0.2343734
 74188262, 0.7294295, -4.600868, 0.1310973, -0.2358871, 0.8689544, -4.328499, 0.1302608, -0.224515
 74243326, 0.8748039, -4.403487, 0.1297329, -0.2280346, 0.7294295, -4.600868, 0.1310973, -0.2358871
 74293343, 0.9174351, -4.394064, 0.1290877, -0.2282466, 0.8748039, -4.403487, 0.1297329, -0.2280346
 74348454, 0.8409364, -4.720912, 0.129916, -0.2428185, 0.9174351, -4.394064, 0.1290877, -0.2282466
 74408345, 1.081203, -4.672482, 0.1322097, -0.2414163, 0.8409364, -4.720912, 0.129916, -0.2428185
 74458242, 0.9738181, -4.783086, 0.1317118, -0.2457146, 1.081203, -4.672482, 0.1322097, -0.2414163
 74513341, 1.024082, -4.790533, 0.1316191, -0.2464762, 0.9738181, -4.783086, 0.1317118, -0.2457146
 74568332, 1.243807, -4.830834, 0.1335288, -0.2498551, 1.024082, -4.790533, 0.1316191, -0.2464762
 74623340, 1.156246, -4.799936, 0.1318653, -0.2481024, 1.243807, -4.830834, 0.1335288, -0.2498551
 74673340, 1.082178, -4.567696, 0.1288418, -0.2374635, 1.156246, -4.799936, 0.1318653, -0.2481024
 74728722, 0.9577295, -4.815101, 0.1281127, -0.2485835, 1.082178, -4.567696, 0.1288418, -0.2374635
 74783255, 0.9137667, -4.697174, 0.1270112, -0.2428687, 0.9577295, -4.815101, 0.1281127, -0.2485835
 74838441, 0.8787699, -4.929586, 0.1277661, -0.2535533, 0.9137667, -4.697174, 0.1270112, -0.2428687
 74893472, 0.873735, -4.894437, 0.1273909, -0.252047, 0.8787699, -4.929586, 0.1277661, -0.2535533
 74948357, 0.7405026, -4.941198, 0.1265084, -0.2537484, 0.873735, -4.894437, 0.1273909, -0.252047
 75000971, 0.9138592, -4.906551, 0.1269859, -0.253271, 0.7405026, -4.941198, 0.1265084, -0.2537484
 75053787, 1.040513, -4.880897, 0.1276216, -0.2529457, 0.9138592, -4.906551, 0.1269859, -0.253271
 75113465, 0.9787751, -5.013494, 0.1270595, -0.2591086, 1.040513, -4.880897, 0.1276216, -0.2529457
 75163330, 1.040315, -4.864175, 0.1264151, -0.2527729, 0.9787751, -5.013494, 0.1270595, -0.2591086
 75218333, 0.8677537, -5.122951, 0.1254674, -0.2642218, 1.040315, -4.864175, 0.1264151, -0.2527729
 75273331, 0.9919838, -5.32742, 0.1271882, -0.2744509, 0.8677537, -5.122951, 0.1254674, -0.2642218
 75328329, 0.8839845, -5.075115, 0.124341, -0.2622908, 0.9919838, -5.32742, 0.1271882, -0.2744509
 75383477, 0.7247682, -5.369305, 0.1234417, -0.2758199, 0.8839845, -5.075115, 0.124341, -0.2622908
 75435849, 0.9286605, -5.489731, 0.1244076, -0.2828282, 0.7247682, -5.369305, 0.1234417, -0.2758199
 75490845, 1.074397, -5.309476, 0.125872, -0.274676, 0.9286605, -5.489731, 0.1244076, -0.2828282
 75545843, 0.8739474, -5.306175, 0.1241054, -0.273625, 1.074397, -5.309476, 0.125872, -0.274676
 75598248, 1.096555, -5.48274, 0.1277717, -0.2829008, 0.8739474, -5.306175, 0.1241054, -0.273625
 75653461, 1.228912, -5.395988, 0.1302749, -0.279048, 1.096555, -5.48274, 0.1277717, -0.2829008
 75708233, 0.9822851, -5.605488, 0.1280243, -0.288234, 1.228912, -5.395988, 0.1302749, -0.279048
 75763751, 1.02333, -4.979793, 0.1260375, -0.2592116, 0.9822851, -5.605488, 0.1280243, -0.288234
 75815844, 0.6470702, -5.2353, 0.1234489, -0.270092, 1.02333, -4.979793, 0.1260375, -0.2592116
 75870857, 0.8519856, -5.069368, 0.1241305, -0.2633181, 0.6470702, -5.2353, 0.1234489, -0.270092
 75926234, 0.8692043, -4.900825, 0.1252807, -0.2552175, 0.8519856, -5.069368, 0.1241305, -0.2633181
 75976194, 0.8747188, -4.960679, 0.1263014, -0.2580391, 0.8692043, -4.900825, 0.1252807, -0.2552175
 76030876, 0.8885297, -4.79376, 0.1257979, -0.2505243, 0.8747188, -4.960679, 0.1263014, -0.2580391
 76085838, 0.6796389, -5.053945, 0.1241573, -0.2624904, 0.8885297, -4.79376, 0.1257979, -0.2505243
