TimeUS,COFN,COFE,CNe,CEe,POFN,POFE,PNe,PEe
 2693922, 0.002629077, -0.02405309, 0.02038662, -0.03256468, 0, 0, 0, 0
 2776389, -0.01235248, 0.02150944, 0.02009851, -0.03168847, 0.002629077, -0.02405309, 0.02038662, -0.03256468
 2876349, 0.008705547, 0.0217216, 0.02050361, -0.03168431, -0.01235248, 0.02150944, 0.02009851, -0.03168847
 2976309, -0.008287906, 0.01640918, 0.02017706, -0.03178632, 0.008705547, 0.0217216, 0.02050361, -0.03168431
 3076269, 0.01064083, 0.01202232, 0.02054133, -0.03187051, -0.008287906, 0.01640918, 0.02017706, -0.03178632
 3176229, 0.0005159173, -0.02529908, 0.0203469, -0.03258805, 0.01064083, 0.01202232, 0.02054133, -0.03187051
 3276189, -0.01737626, -0.0007385158, 0.0200032, -0.0321155, 0.0005159173, -0.02529908, 0.0203469, -0.03258805
 3376149, 0.004584247, 0.01025357, 0.02042594, -0.03190384, -0.01737626, -0.0007385158, 0.0200032, -0.0321155
 3476109, -0.01209641, 0.01545873, 0.02010554, -0.0318035, 0.004584247, 0.01025357, 0.02042594, -0.03190384
 3576069, 0.01128057, -0.001705877, 0.02055544, -0.03213337, -0.01209641, 0.01545873, 0.02010554, -0.0318035
 3676029, -0.01966175, -0.004783243, 0.01996069, -0.03219237, 0.01128057, -0.001705877, 0.02055544, -0.03213337
 3775989, -0.009021777, -0.02317394, 0.02016554, -0.03254588, -0.01966175, -0.004783243, 0.01996069, -0.03219237
 3875949, -0.005919625, -0.0227293, 0.02022533, -0.03253725, -0.009021777, -0.02317394, 0.02016554, -0.03254588
 3975909, 0.004791512, 0.01350734, 0.02043138, -0.03184035, -0.005919625, -0.0227293, 0.02022533, -0.03253725
 4075869, 0.01815929, -0.003375981, 0.02068854, -0.03216497, 0.004791512, 0.01350734, 0.02043138, -0.03184035
 4175829, 0.01420845, -0.01691152, 0.02061269, -0.03242519, 0.01815929, -0.003375981, 0.02068854, -0.03216497
 4275789, 0.007792327, 0.02014589, 0.02702085, 0.02725842, 0.01420845, -0.01691152, 0.02061269, -0.03242519
 4376582, 0.006570336, 0.01490777, 0.02699727, 0.02715777, 0.007792327, 0.02014589, 0.02702085, 0.02725842
 4476542, 0.01452654, -0.004634786, 0.02715021, 0.02678201, 0.006570336, 0.01490777, 0.02699727, 0.02715777
 4576502, 0.01845708, 0.007445194, 0.02722573, 0.02701439, 0.01452654, -0.004634786, 0.02715021, 0.02678201
 4681460, 0.008104634, -0.01119242, 0.02702657, 0.02665605, 0.01845708, 0.007445194, 0.02722573, 0.02701439
 4781420, -0.006890445, -0.02031712, 0.02673811, 0.02648066, 0.008104634, -0.01119242, 0.02702657, 0.02665605
 4881380, 0.01870102, 0.01610429, 0.02723014, 0.02718118, -0.006890445, -0.02031712, 0.02673811, 0.02648066
 4981340, 0.01576073, 0.0196256, 0.02717348, 0.02724902, 0.01870102, 0.01610429, 0.02723014, 0.02718118
 5081300, -0.02040684, 0.01630359, 0.02647782, 0.02718527, 0.01576073, 0.0196256, 0.02717348, 0.02724902
 5181260, -0.0131179, 0.02350981, 0.02661785, 0.02732399, -0.02040684, 0.01630359, 0.02647782, 0.02718527
 5281220, 0.004210355, -0.01446294, 0.02695097, 0.02659387, -0.0131179, 0.02350981, 0.02661785, 0.02732399
 5381180, -0.01649483, 0.009139663, 0.02655267, 0.02704789, 0.004210355, -0.01446294, 0.02695097, 0.02659387
 5481140, -0.003165534, -0.01032789, 0.02680886, 0.02667365, -0.01649483, 0.009139663, 0.02655267, 0.02704789
 5581100, -0.020013, -0.007584208, 0.02648473, 0.02672656, -0.003165534, -0.01032789, 0.02680886, 0.02667365
 5681060, 0.00387388, 0.02020896, 0.02694396, 0.02726117, -0.020013, -0.007584208, 0.02648473, 0.02672656
 5781020, -0.00172819, 0.01319539, 0.02683608, 0.02712644, 0.00387388, 0.02020896, 0.02694396, 0.02726117
 5880980, 0.006090073, -0.01148635, 0.02045597, -0.03232124, -0.00172819, 0.01319539, 0.02683608, 0.02712644
 5980940, 0.02393875, 0.001839966, 0.0207994, -0.03206484, 0.006090073, -0.01148635, 0.02045597, -0.03232124
 6080900, 0.0002127346, -0.003058988, 0.02034332, -0.03215893, 0.02393875, 0.001839966, 0.0207994, -0.03206484
 6180860, -0.002586136, 0.02156708, 0.02028969, -0.03168523, 0.0002127346, -0.003058988, 0.02034332, -0.03215893
 6280820, 0.002289625, 0.01809939, 0.02038367, -0.03175178, -0.002586136, 0.02156708, 0.02028969, -0.03168523
 6380780, 0.00263, 0.02391397, 0.02039042, -0.03163984, 0.002289625, 0.01809939, 0.02038367, -0.03175178
 6481573, -0.02212102, -0.0146723, 0.01991465, -0.03238174, 0.00263, 0.02391397, 0.02039042, -0.03163984
 6581533, 0.02588192, 0.009590668, 0.02083799, -0.03191502, -0.02212102, -0.0146723, 0.01991465, -0.03238174
 6686491, -0.02193245, 0.008207765, 0.01991867, -0.03194149, 0.02588192, 0.009590668, 0.02083799, -0.03191502
 6786451, 0.00698454, -0.02445599, 0.02047499, -0.0325695, -0.02193245, 0.008207765, 0.01991867, -0.03194149
 6886411, -0.001416525, -0.02455757, 0.02031363, -0.03257133, 0.00698454, -0.02445599, 0.02047499, -0.0325695
 6986371, 0.01647914, 0.00595618, 0.02065797, -0.0319844, -0.001416525, -0.02455757, 0.02031363, -0.03257133
 7086331, -0.006391171, 0.02118351, 0.02021834, -0.03169145, 0.01647914, 0.00595618, 0.02065797, -0.0319844
 7186291, -0.02386691, -0.008153651, 0.01988247, -0.03225551, -0.006391171, 0.02118351, 0.02021834, -0.03169145
 7286251, 0.003816249, 0.02166286, 0.02041502, -0.03168199, -0.02386691, -0.008153651, 0.01988247, -0.03225551
 7386211, 0.01060664, -0.02318141, 0.02054579, -0.03254426, 0.003816249, 0.02166286, 0.02041502, -0.03168199
 7486171, -0.003664229, -0.003739687, 0.02027154, -0.03217027, 0.01060664, -0.02318141, 0.02054579, -0.03254426
 7586131, 0.004942209, -0.0259648, 0.02043723, -0.03259756, -0.003664229, -0.003739687, 0.02027154, -0.03217027
 7686091, 0.0224231, -0.004922955, 0.02077358, -0.03219279, 0.004942209, -0.0259648, 0.02043723, -0.03259756
 7786051, -0.02397177, -0.00410276, 0.01988156, -0.0321769, 0.0224231, -0.004922955, 0.02077358, -0.03219279
 7886011, 0.01687223, -0.01219513, 0.02066722, -0.03233239, -0.02397177, -0.00410276, 0.01988156, -0.0321769
 7985971, 0.02428235, 0.01438785, 0.02080993, -0.03182105, 0.01687223, -0.01219513, 0.02066722, -0.03233239
 8085931, -0.02814655, -0.006977429, 0.0198019, -0.03223179, 0.02428235, 0.01438785, 0.02080993, -0.03182105
 8185891, 0.01370891, -0.01923691, 0.02060702, -0.03246741, -0.02814655, -0.006977429, 0.0198019, -0.03223179
 8285851, -0.02048551, 0.008377676, 0.01994966, -0.03193622, 0.01370891, -0.01923691, 0.02060702, -0.03246741
 8385811, 0.01787686, -0.0006128417, 0.02068763, -0.03210896, -0.02048551, 0.008377676, 0.01994966, -0.03193622
 8485771, 0.007836699, -0.004623408, 0.02049482, -0.03218592, 0.01787686, -0.0006128417, 0.02068763, -0.03210896
 8586564, 0.01357858, -0.01870402, 0.02064804, -0.03242954, 0.007836699, -0.004623408, 0.02049482, -0.03218592
 8686524, 0.02951719, 0.01653686, 0.02107684, -0.03167376, 0.01357858, -0.01870402, 0.02064804, -0.03242954
 8791482, 0.009941565, -0.02629404, 0.0209105, -0.03236175, 0.02951719, 0.01653686, 0.02107684, -0.03167376
 8891442, 0.01379673, -0.007256869, 0.02124666, -0.03182369, 0.009941565, -0.02629404, 0.0209105, -0.03236175
 8991402, 0.02363454, -0.006632803, 0.0217364, -0.0316106, 0.01379673, -0.007256869, 0.02124666, -0.03182369
 9091362, 0.0201765, 0.02015693, 0.02198936, -0.03087709, 0.02363454, -0.006632803, 0.0217364, -0.0316106
 9191322, 0.004009147, -0.01772855, 0.0220024, -0.03137933, 0.0201765, 0.02015693, 0.02198936, -0.03087709
 9291282, -0.019784, -0.01085314, 0.02186321, -0.03101976, 0.004009147, -0.01772855, 0.0220024, -0.03137933
 9391242, -0.01257857, 0.01611199, 0.02230878, -0.03027722, -0.019784, -0.01085314, 0.02186321, -0.03101976
 9491202, 0.02731631, 0.0194145, 0.02336896, -0.02999553, -0.01257857, 0.01611199, 0.02230878, -0.03027722
 9591162, -0.02821782, -0.02034501, 0.02257933, -0.03054876, 0.02731631, 0.0194145, 0.02336896, -0.02999553
 9691122, 0.001097889, -0.02532755, 0.02340692, -0.03044045, -0.02821782, -0.02034501, 0.02257933, -0.03054876
 9791082, 0.0152397, 0.008702224, 0.02393036, -0.02958798, 0.001097889, -0.02532755, 0.02340692, -0.03044045
 9891042, -0.009862727, 0.02384432, 0.02368755, -0.0291046, 0.0152397, 0.008702224, 0.02393036, -0.02958798
 9991002, -0.02620568, -0.01541358, 0.02360278, -0.02967271, -0.009862727, 0.02384432, 0.02368755, -0.0291046
 10090962, -0.0184188, 0.01816789, 0.02397348, -0.02884419, -0.02620568, -0.01541358, 0.02360278, -0.02967271
 10190922, -0.009788265, 0.005339732, 0.02435269, -0.02891187, -0.0184188, 0.01816789, 0.02397348, -0.02884419
 10290882, 0.02327198, 0.01791359, 0.02519314, -0.02849569, -0.009788265, 0.005339732, 0.02435269, -0.02891187
 10390842, 0.0133937, 0.02140326, 0.02519903, -0.02825938, 0.02327198, 0.01791359, 0.02519314, -0.02849569
 10490802, 0.001219718, 0.01336822, 0.02515263, -0.02824951, 0.0133937, 0.02140326, 0.02519903, -0.02825938
 10590762, 0.01440246, -0.009284007, 0.02558604, -0.02852554, 0.001219718, 0.01336822, 0.02515263, -0.02824951
 10691555, 0.003559609, 0.01352988, 0.02555015, -0.02793173, 0.01440246, -0.009284007, 0.02558604, -0.02852554
 10791515, 0.02288387, 0.02053631, 0.02608648, -0.02764724, 0.003559609, 0.01352988, 0.02555015, -0.02793173
 10896473, -0.01102523, 0.01590158, 0.02560004, -0.02758396, 0.02288387, 0.02053631, 0.02608648, -0.02764724
 10996433, 0.0005975439, -0.02272183, 0.02597463, -0.02818613, -0.01102523, 0.01590158, 0.02560004, -0.02758396
 11096393, -0.002262245, -0.02392802, 0.02606408, -0.02807348, 0.0005975439, -0.02272183, 0.02597463, -0.02818613
 11196353, 0.0003181229, 0.01012917, 0.02625156, -0.02728753, -0.002262245, -0.02392802, 0.02606408, -0.02807348
 11296313, 0.01940203, 0.02505571, 0.02675012, -0.02687424, 0.0003181229, 0.01012917, 0.02625156, -0.02728753
 11396273, -0.02088437, 0.01694711, 0.02610083, -0.02690866, 0.01940203, 0.02505571, 0.02675012, -0.02687424
 11496233, 0.002896197, 0.00472228, 0.02667768, -0.02702692, -0.02088437, 0.01694711, 0.02610083, -0.02690866
 11596193, -0.006227164, 0.005448913, 0.02661606, -0.02690072, 0.002896197, 0.00472228, 0.02667768, -0.02702692
 11696153, -0.004509685, 0.01374372, 0.02675744, -0.02663351, -0.006227164, 0.005448913, 0.02661606, -0.02690072
 11796113, -0.01028865, 0.00603574, 0.02674869, -0.02667917, -0.004509685, 0.01374372, 0.02675744, -0.02663351
 11896073, -0.009464635, 0.01362709, 0.02686257, -0.02643423, -0.01028865, 0.00603574, 0.02674869, -0.02667917
 11996033, -0.02143995, -0.02574319, 0.02672543, -0.02709664, -0.009464635, 0.01362709, 0.02686257, -0.02643423
 12095993, 0.02018249, 0.0146452, 0.0276143, -0.02622942, -0.02143995, -0.02574319, 0.02672543, -0.02709664
 12195953, -0.01814491, -0.02415191, 0.02696185, -0.02688834, 0.02018249, 0.0146452, 0.0276143, -0.02622942
 12295913, 0.02225241, 0.02311027, 0.02781826, -0.025897, -0.01814491, -0.02415191, 0.02696185, -0.02688834
 12395873, -0.02570696, 0.01096902, 0.02697138, -0.02605185, 0.02225241, 0.02311027, 0.02781826, -0.025897
 12495833, -0.01313534, 0.0104927, 0.02728456, -0.02598611, -0.02570696, 0.01096902, 0.02697138, -0.02605185
 12595793, -0.002242132, -0.01265097, 0.02756169, -0.02635987, -0.01313534, 0.0104927, 0.02728456, -0.02598611
 12696586, 0.01340884, 0.0008850247, 0.02792735, -0.02603102, -0.002242132, -0.01265097, 0.02756169, -0.02635987
 12796546, 0.002933352, 0.02580671, 0.02778647, -0.02548727, 0.01340884, 0.0008850247, 0.02792735, -0.02603102
 12896506, 0.01722422, 0.01506357, 0.02811857, -0.02563261, 0.002933352, 0.02580671, 0.02778647, -0.02548727
 13001464, 0.007282222, 0.01172856, 0.02798403, -0.02563588, 0.01722422, 0.01506357, 0.02811857, -0.02563261
 13101424, -0.009430292, 0.0228313, 0.02771337, -0.02536764, 0.007282222, 0.01172856, 0.02798403, -0.02563588
 13201384, -0.009266943, -0.0188771, 0.02776441, -0.02611785, -0.009430292, 0.0228313, 0.02771337, -0.02536764
 13301344, 0.0115569, -0.01745756, 0.02821006, -0.02604143, -0.009266943, -0.0188771, 0.02776441, -0.02611785
 13401304, -0.001415902, -0.02074813, 0.02800323, -0.02605821, 0.0115569, -0.01745756, 0.02821006, -0.02604143
 13501264, 0.003632675, 0.0154119, 0.0281405, -0.02531886, -0.001415902, -0.02074813, 0.02800323, -0.02605821
 13601224, 0.007446766, 0.0214924, 0.02825169, -0.02516039, 0.003632675, 0.0154119, 0.0281405, -0.02531886
 13701184, 0.01556272, 0.01311992, 0.02844338, -0.0252822, 0.007446766, 0.0214924, 0.02825169, -0.02516039
 13801144, 0.01700702, 0.02482852, 0.02850464, -0.02502007, 0.01556272, 0.01311992, 0.02844338, -0.0252822
 13901104, -0.009803969, -0.0005250527, 0.02801995, -0.02547345, 0.01700702, 0.02482852, 0.02850464, -0.02502007
 14001064, -0.0003807091, -0.003647267, 0.02823075, -0.02550068, -0.009803969, -0.0005250527, 0.02801995, -0.02547345
 14101024, 0.008038177, 0.02094192, 0.02842041, -0.02499696, -0.0003807091, -0.003647267, 0.02823075, -0.02550068
 14200984, 0.02152405, 0.02673122, 0.02870575, -0.02485667, 0.008038177, 0.02094192, 0.02842041, -0.02499696
 14300944, -0.0003258743, -0.02536073, 0.02831037, -0.02583075, 0.02152405, 0.02673122, 0.02870575, -0.02485667
 14400904, 0.002963974, -0.005126592, 0.02839599, -0.02541662, -0.0003258743, -0.02536073, 0.02831037, -0.02583075
 14500864, 0.01384349, -0.004035958, 0.0286263, -0.02537203, 0.002963974, -0.005126592, 0.02839599, -0.02541662
 14600824, -0.01673841, -0.02455736, 0.02805808, -0.02574434, 0.01384349, -0.004035958, 0.0286263, -0.02537203
 14700784, -0.01686761, -0.02639342, 0.02807423, -0.0257587, -0.01673841, -0.02455736, 0.02805808, -0.02574434
 14801577, -0.02169396, 0.0006020999, 0.0279994, -0.02521933, -0.01686761, -0.02639342, 0.02807423, -0.0257587
 14901537, 0.01841217, 0.02260083, 0.028787, -0.02477787, -0.02169396, 0.0006020999, 0.0279994, -0.02521933
 15006495, -0.02430261, -0.0115334, 0.02798155, -0.02541626, 0.01841217, 0.02260083, 0.028787, -0.02477787
 15106455, -0.02376303, 0.02229109, 0.02800552, -0.02475043, -0.02430261, -0.0115334, 0.02798155, -0.02541626
 15206415, 0.02632975, -0.01647388, 0.02898131, -0.0254818, -0.02376303, 0.02229109, 0.02800552, -0.02475043
 15306375, 0.01420986, -0.009274748, 0.02875978, -0.02533029, 0.02632975, -0.01647388, 0.02898131, -0.0254818
 15406335, -0.0139617, 0.0134483, 0.02822867, -0.02488124, 0.01420986, -0.009274748, 0.02875978, -0.02533029
 15506295, 0.01249138, -0.01634344, 0.0287472, -0.02544303, -0.0139617, 0.0134483, 0.02822867, -0.02488124
 15606255, -0.006848752, 0.01648707, 0.02838427, -0.02480146, 0.01249138, -0.01634344, 0.0287472, -0.02544303
 15706215, 0.01371661, 0.01161974, 0.02878799, -0.02488572, -0.006848752, 0.01648707, 0.02838427, -0.02480146
 15806175, 0.007763554, -0.01435898, 0.02868099, -0.02537681, 0.01371661, 0.01161974, 0.02878799, -0.02488572
 15906135, -0.02431324, 0.007004478, 0.02807043, -0.02495881, 0.007763554, -0.01435898, 0.02868099, -0.02537681
 16006095, 0.02014959, 0.002401435, 0.02893163, -0.02504034, -0.02431324, 0.007004478, 0.02807043, -0.02495881
 16106055, -0.02109596, 0.01253504, 0.02814395, -0.0248392, 0.02014959, 0.002401435, 0.02893163, -0.02504034
 16206015, -0.00292193, -0.01132698, 0.02849834, -0.02529252, -0.02109596, 0.01253504, 0.02814395, -0.0248392
 16305975, 0.02317672, 0.001779048, 0.02900449, -0.02503563, -0.00292193, -0.01132698, 0.02849834, -0.02529252
 16405935, -0.01973452, -0.009169359, 0.028183, -0.02524193, 0.02317672, 0.001779048, 0.02900449, -0.02503563
 16505895, 0.01348288, -0.02454094, 0.02882455, -0.0255344, -0.01973452, -0.009169359, 0.028183, -0.02524193
 16605855, -0.02359312, 0.007548796, 0.02811547, -0.02491283, 0.01348288, -0.02454094, 0.02882455, -0.0255344
 16705815, -0.02024147, -0.01406045, 0.02818354, -0.02532426, -0.02359312, 0.007548796, 0.02811547, -0.02491283
 16805775, 0.01057186, 0.02307131, 0.02877917, -0.02460669, -0.02024147, -0.01406045, 0.02818354, -0.02532426
 16906568, 0.002310839, -0.0145637, 0.02862312, -0.02532723, 0.01057186, 0.02307131, 0.02877917, -0.02460669
 17006528, 0.00794741, -0.001202967, 0.02873323, -0.02506834, 0.002310839, -0.0145637, 0.02862312, -0.02532723
 17111486, 0.01429251, 0.01761422, 0.02885632, -0.02470525, 0.00794741, -0.001202967, 0.02873323, -0.02506834
 17211446, 0.01096599, 0.008473646, 0.02879237, -0.02488101, 0.01429251, 0.01761422, 0.02885632, -0.02470525
 17311406, 0.008718748, -0.0006612823, 0.02874862, -0.02505728, 0.01096599, 0.008473646, 0.02879237, -0.02488101
 17411366, -0.004450791, -0.02231015, 0.02849454, -0.02547455, 0.008718748, -0.0006612823, 0.02874862, -0.02505728
 17511326, -0.003094781, 0.01607996, 0.02851949, -0.02473756, -0.004450791, -0.02231015, 0.02849454, -0.02547455
 17611286, 0.004356531, -0.00733786, 0.02866143, -0.02518944, -0.003094781, 0.01607996, 0.02851949, -0.02473756
 17711246, 0.00338903, 0.01270724, 0.02864124, -0.02480577, 0.004356531, -0.00733786, 0.02866143, -0.02518944
 17811206, 0.02443225, 0.002479635, 0.02904414, -0.02500449, 0.00338903, 0.01270724, 0.02864124, -0.02480577
 17911166, 0.01306143, -0.001920589, 0.02882347, -0.02509139, 0.02443225, 0.002479635, 0.02904414, -0.02500449
 18011126, -0.008743592, -0.01346829, 0.02840158, -0.02531638, 0.01306143, -0.001920589, 0.02882347, -0.02509139
 18111086, -0.02175338, 0.018613, 0.02814903, -0.02470212, -0.008743592, -0.01346829, 0.02840158, -0.02531638
 18211046, 0.02080303, -0.02336363, 0.02896487, -0.02551228, -0.02175338, 0.018613, 0.02814903, -0.02470212
 18311006, 0.01934765, 0.01952978, 0.02893414, -0.02469052, 0.02080303, -0.02336363, 0.02896487, -0.02551228
 18410966, 0.01260762, -0.01805406, 0.02880189, -0.02541629, 0.01934765, 0.01952978, 0.02893414, -0.02469052
 18510926, 0.0235897, -0.005587544, 0.02900954, -0.02518059, 0.01260762, -0.01805406, 0.02880189, -0.02541629
 18610886, -0.01580515, 0.007339019, 0.02824828, -0.02493618, 0.0235897, -0.005587544, 0.02900954, -0.02518059
 18710846, 0.01835325, -0.008037124, 0.02890166, -0.02523587, -0.01580515, 0.007339019, 0.02824828, -0.02493618
 18810806, 0.01350335, 0.02236087, 0.02880488, -0.02465529, 0.01835325, -0.008037124, 0.02890166, -0.02523587
 18910766, -0.003603247, 0.006708402, 0.02847233, -0.02496037, 0.01350335, 0.02236087, 0.02880488, -0.02465529
 19011559, -0.002682627, -0.02357682, 0.02848679, -0.02554648, -0.003603247, 0.006708402, 0.02847233, -0.02496037
 19111519, -0.002017579, -0.01161876, 0.02849588, -0.02532072, -0.002682627, -0.02357682, 0.02848679, -0.02554648
 19216477, 0.00737735, -0.008727882, 0.02867252, -0.02526971, -0.002017579, -0.01161876, 0.02849588, -0.02532072
 19316437, -0.009202106, -0.0186167, 0.02834936, -0.02546478, 0.00737735, -0.008727882, 0.02867252, -0.02526971
 19416397, 0.0215504, 0.02594267, 0.02893629, -0.02461295, -0.009202106, -0.0186167, 0.02834936, -0.02546478
 19516357, 0.002527009, 0.01802877, 0.02856595, -0.02477025, 0.0215504, 0.02594267, 0.02893629, -0.02461295
 19616317, 0.006744153, -0.004723773, 0.0286425, -0.02521297, 0.002527009, 0.01802877, 0.02856595, -0.02477025
 19716277, -0.02133127, 0.008912552, 0.02809798, -0.02495596, 0.006744153, -0.004723773, 0.0286425, -0.02521297
 19816237, 0.02250014, -0.006146783, 0.02893624, -0.02525084, -0.02133127, 0.008912552, 0.02809798, -0.02495596
 19916197, 0.02492551, 0.0009150947, 0.02897818, -0.02512036, 0.02250014, -0.006146783, 0.02893624, -0.02525084
 20016157, 0.02106729, 0.008699724, 0.02889922, -0.02497605, 0.02492551, 0.0009150947, 0.02897818, -0.02512036
 20116117, -0.01897614, 0.01779939, 0.02812406, -0.02480684, 0.02106729, 0.008699724, 0.02889922, -0.02497605
 20216077, -0.02705004, 0.01662071, 0.02796395, -0.02483499, -0.01897614, 0.01779939, 0.02812406, -0.02480684
 20316037, -0.005569541, 0.02536619, 0.02837214, -0.02467235, -0.02705004, 0.01662071, 0.02796395, -0.02483499
 20415997, 0.0245441, 0.01427846, 0.0289463, -0.02489118, -0.005569541, 0.02536619, 0.02837214, -0.02467235
 20515957, 0.0234826, 0.00154622, 0.02892107, -0.02514148, 0.0245441, 0.01427846, 0.0289463, -0.02489118
 20615917, 0.01053039, -0.02039647, 0.02866685, -0.02556926, 0.0234826, 0.00154622, 0.02892107, -0.02514148
 20715877, -0.01116315, 0.006249099, 0.02824457, -0.02506261, 0.01053039, -0.02039647, 0.02866685, -0.02556926
 20815837, 0.01508033, -0.01164998, 0.02874414, -0.0254126, -0.01116315, 0.006249099, 0.02824457, -0.02506261
 20915797, 0.0201197, 0.008409759, 0.02883594, -0.0250326, 0.01508033, -0.01164998, 0.02874414, -0.0254126
 21016590, 0.02197838, -0.01936226, 0.02886682, -0.02557218, 0.0201197, 0.008409759, 0.02883594, -0.0250326
 21116550, -0.00623871, -0.01944362, 0.02831914, -0.02557943, 0.02197838, -0.01936226, 0.02886682, -0.02557218
 21216510, 0.007178716, 0.02259566, 0.0285721, -0.02477669, -0.00623871, -0.01944362, 0.02831914, -0.02557943
 21321468, 0.0006934993, 0.01501156, 0.02844195, -0.02492867, 0.007178716, 0.02259566, 0.0285721, -0.02477669
 21421428, -0.0007602678, 0.01252036, 0.02840859, -0.02498268, 0.0006934993, 0.01501156, 0.02844195, -0.02492867
 21521388, -0.02042532, 0.009902048, 0.02802499, -0.02503914, -0.0007602678, 0.01252036, 0.02840859, -0.02498268
 21621348, 0.01086254, 0.01361347, 0.0286213, -0.02497382, -0.02042532, 0.009902048, 0.02802499, -0.02503914
 21721308, -0.01271697, -0.009773568, 0.02816249, -0.0254296, 0.01086254, 0.01361347, 0.0286213, -0.02497382
 21821268, -0.005892859, -0.001384516, 0.0282884, -0.02527427, -0.01271697, -0.009773568, 0.02816249, -0.0254296
 21921228, 0.002961379, -0.002669966, 0.02845336, -0.02530497, -0.005892859, -0.001384516, 0.0282884, -0.02527427
 22021188, -0.01227231, 0.01546771, 0.02815509, -0.02496213, 0.002961379, -0.002669966, 0.02845336, -0.02530497
 22121148, -0.006313102, -0.01739186, 0.02826438, -0.02560002, -0.01227231, 0.01546771, 0.02815509, -0.02496213
 22221108, 0.004933214, -0.003896495, 0.02847513, -0.0253467, -0.006313102, -0.01739186, 0.02826438, -0.02560002
 22321068, -0.01003314, -0.02500454, 0.02818202, -0.02575857, 0.004933214, -0.003896495, 0.02847513, -0.0253467
 22421028, 0.0159391, 0.01000375, 0.0286762, -0.02509126, -0.01003314, -0.02500454, 0.02818202, -0.02575857
 22520988, -0.002498644, -0.004946889, 0.02831632, -0.02538473, 0.0159391, 0.01000375, 0.0286762, -0.02509126
 22620948, -0.01741802, -0.02681523, 0.02802422, -0.02581108, -0.002498644, -0.004946889, 0.02831632, -0.02538473
 22720908, 0.007099584, 0.01726456, 0.02849008, -0.0249697, -0.01741802, -0.02681523, 0.02802422, -0.02581108
 22820868, 0.01593923, -0.012258, 0.02865459, -0.02554359, 0.007099584, 0.01726456, 0.02849008, -0.0249697
 22920828, -0.02134596, -0.02126397, 0.02793226, -0.02572273, 0.01593923, -0.012258, 0.02865459, -0.02554359
 23020788, -0.02332491, 0.02364612, 0.02788897, -0.02486494, -0.02134596, -0.02126397, 0.02793226, -0.02572273
 23121581, 0.006576948, -0.01387781, 0.02845906, -0.02559208, -0.02332491, 0.02364612, 0.02788897, -0.02486494
 23221541, -0.02504691, 0.008850032, 0.02784586, -0.02516065, 0.006576948, -0.01387781, 0.02845906, -0.02559208
 23321501, 0.01520938, -0.0002394872, 0.02861497, -0.0253411, -0.02504691, 0.008850032, 0.02784586, -0.02516065
 23426459, 0.0190041, -0.01774969, 0.02868255, -0.02568387, 0.01520938, -0.0002394872, 0.02861497, -0.0253411
 23526419, -0.007032908, -0.01056195, 0.02817651, -0.0255516, 0.0190041, -0.01774969, 0.02868255, -0.02568387
 23626379, -0.004059127, 0.002852066, 0.0282284, -0.02529954, -0.007032908, -0.01056195, 0.02817651, -0.0255516
 23726339, -0.006794634, 0.01583698, 0.02817052, -0.02505571, -0.004059127, 0.002852066, 0.0282284, -0.02529954
 23826299, -0.005171692, -0.019476, 0.02819651, -0.02574064, -0.006794634, 0.01583698, 0.02817052, -0.02505571
 23926259, -0.01153007, 0.02538174, 0.02806905, -0.02488377, -0.005171692, -0.019476, 0.02819651, -0.02574064
 24026219, -0.02356886, -0.01075273, 0.02783238, -0.02558441, -0.01153007, 0.02538174, 0.02806905, -0.02488377
 24126179, -0.01419741, 0.006043314, 0.02800746, -0.02526714, -0.02356886, -0.01075273, 0.02783238, -0.02558441
 24226139, -0.005248703, 0.01410205, 0.02817443, -0.02511786, -0.01419741, 0.006043314, 0.02800746, -0.02526714
 24326099, 0.01715467, 0.02037934, 0.02859999, -0.02500302, -0.005248703, 0.01410205, 0.02817443, -0.02511786
 24426059, 0.01572368, -0.01288559, 0.0285674, -0.02564837, 0.01715467, 0.02037934, 0.02859999, -0.02500302
 24526019, 0.01053323, -0.00329256, 0.02846253, -0.0254695, 0.01572368, -0.01288559, 0.0285674, -0.02564837
 24625979, -0.0002851292, 0.000405045, 0.02824943, -0.02540403, 0.01053323, -0.00329256, 0.02846253, -0.0254695
 24725939, 0.01762109, 0.006874742, 0.02858885, -0.02528509, -0.0002851292, 0.000405045, 0.02824943, -0.02540403
 24825899, 0.0244518, 0.01934741, 0.02871493, -0.0250511, 0.01762109, 0.006874742, 0.02858885, -0.02528509
 24925859, 0.01159934, 0.01621856, 0.02846262, -0.02511699, 0.0244518, 0.01934741, 0.02871493, -0.0250511
 25025819, -0.02005764, 0.01052296, 0.02784885, -0.02523205, 0.01159934, 0.01621856, 0.02846262, -0.02511699
 25125779, 0.004508679, -0.002429595, 0.02831638, -0.02548657, -0.02005764, 0.01052296, 0.02784885, -0.02523205
 25226572, -0.002928636, -0.0002191052, 0.02816873, -0.0254492, 0.004508679, -0.002429595, 0.02831638, -0.02548657
 25326532, 0.01361074, 0.02428818, 0.02848207, -0.02498315, -0.002928636, -0.0002191052, 0.02816873, -0.0254492
 25431490, 0.02502676, 0.01269133, 0.02869673, -0.02521155, 0.01361074, 0.02428818, 0.02848207, -0.02498315
 25531450, -0.02347524, -0.02225372, 0.02775909, -0.02588902, 0.02502676, 0.01269133, 0.02869673, -0.02521155
 25631410, 0.002193826, -0.01377266, 0.0282478, -0.02573138, -0.02347524, -0.02225372, 0.02775909, -0.02588902
 25731370, 0.00426758, -0.001909945, 0.02828281, -0.02550865, 0.002193826, -0.01377266, 0.0282478, -0.02573138
 25831330, -0.02347484, 0.02198739, 0.02774447, -0.02505444, 0.00426758, -0.001909945, 0.02828281, -0.02550865
 25931290, -0.01133119, 0.01995455, 0.0279732, -0.02509884, -0.02347484, 0.02198739, 0.02774447, -0.02505444
 26031250, -0.0042777, 0.02573254, 0.02810408, -0.024993, -0.01133119, 0.01995455, 0.0279732, -0.02509884
 26131210, -0.0169941, -0.009293255, 0.02785481, -0.0256718, -0.0042777, 0.02573254, 0.02810408, -0.024993
 26231170, -0.009202038, -0.01098744, 0.02799996, -0.02570957, -0.0169941, -0.009293255, 0.02785481, -0.0256718
 26331130, -0.01657541, 0.009507971, 0.02785332, -0.02532077, -0.009202038, -0.01098744, 0.02799996, -0.02570957
 26431090, 0.01049144, 0.01051699, 0.02836919, -0.02530649, -0.01657541, 0.009507971, 0.02785332, -0.02532077
 26531050, 0.001563985, 0.002108796, 0.02819289, -0.02547329, 0.01049144, 0.01051699, 0.02836919, -0.02530649
 26631010, 0.01788785, 0.0178127, 0.0285022, -0.02517637, 0.001563985, 0.002108796, 0.02819289, -0.02547329
 26730970, 0.007400499, -0.01739103, 0.02829592, -0.02585844, 0.01788785, 0.0178127, 0.0285022, -0.02517637
 26830930, 0.02156245, -0.003978232, 0.02856364, -0.02560561, 0.007400499, -0.01739103, 0.02829592, -0.02585844
 26930890, 0.0009771165, 0.02389967, 0.02816301, -0.02507474, 0.02156245, -0.003978232, 0.02856364, -0.02560561
 27030850, 0.01856961, -0.004349339, 0.02849672, -0.02562307, 0.0009771165, 0.02389967, 0.02816301, -0.02507474
 27130810, -0.01299199, -0.02425211, 0.02788526, -0.02601077, 0.01856961, -0.004349339, 0.02849672, -0.02562307
 27230770, 0.02435167, -0.002423798, 0.02859898, -0.02559587, -0.01299199, -0.02425211, 0.02788526, -0.02601077
 27331563, -0.02147218, -0.01974646, 0.02771358, -0.0259336, 0.02435167, -0.002423798, 0.02859898, -0.02559587
 27431523, -0.005144208, 0.003036948, 0.0280233, -0.02550017, -0.02147218, -0.01974646, 0.02771358, -0.0259336
 27536481, 0.007949369, 0.003097433, 0.02827045, -0.02550411, -0.005144208, 0.003036948, 0.0280233, -0.02550017
 27636441, -0.01799145, 0.01746185, 0.02776717, -0.02523273, 0.007949369, 0.003097433, 0.02827045, -0.02550411
 27736401, 0.003637303, -0.004239579, 0.02817868, -0.02565493, -0.01799145, 0.01746185, 0.02776717, -0.02523273
 27836361, 0.01819943, 0.01598907, 0.02845435, -0.02527073, 0.003637303, -0.004239579, 0.02817868, -0.02565493
 27936321, -0.01053164, -0.01834619, 0.02789749, -0.02593578, 0.01819943, 0.01598907, 0.02845435, -0.02527073
 28036281, 0.02462406, -0.0103598, 0.02856926, -0.02578693, -0.01053164, -0.01834619, 0.02789749, -0.02593578
 28136241, -0.004398793, 0.00421715, 0.02800686, -0.02551128, 0.02462406, -0.0103598, 0.02856926, -0.02578693
 28236201, -0.008302269, -0.02238968, 0.02792756, -0.02602761, -0.004398793, 0.00421715, 0.02800686, -0.02551128
 28336161, -0.0177172, -0.00408523, 0.02774229, -0.02568022, -0.008302269, -0.02238968, 0.02792756, -0.02602761
 28436121, 0.0256968, -0.01558177, 0.02857285, -0.02590605, -0.0177172, -0.00408523, 0.02774229, -0.02568022
 28536081, 0.02111323, -0.009381061, 0.02848056, -0.02579135, 0.0256968, -0.01558177, 0.02857285, -0.02590605
 28636041, -0.01078949, 0.01998146, 0.0278629, -0.02523122, 0.02111323, -0.009381061, 0.02848056, -0.02579135
 28736001, 0.004348793, 0.009148779, 0.0281499, -0.02544406, -0.01078949, 0.01998146, 0.0278629, -0.02523122
 28835961, -0.01002916, -0.01931976, 0.02786941, -0.02599591, 0.004348793, 0.009148779, 0.0281499, -0.02544406
 28935921, 0.01998369, 0.001882937, 0.02844245, -0.02559268, -0.01002916, -0.01931976, 0.02786941, -0.02599591
 29035881, -0.01428835, -0.007920324, 0.0277793, -0.02578565, 0.01998369, 0.001882937, 0.02844245, -0.02559268
 29135841, 0.02323156, 0.007515311, 0.02849681, -0.02549323, -0.01428835, -0.007920324, 0.0277793, -0.02578565
 29235801, -0.006536326, 0.01202644, 0.02792036, -0.02541084, 0.02323156, 0.007515311, 0.02849681, -0.02549323
 29335761, -0.01241606, 0.001832869, 0.02780331, -0.02561121, -0.006536326, 0.01202644, 0.02792036, -0.02541084
 29436554, -0.008964702, -0.01023266, 0.02786593, -0.02584735, -0.01241606, 0.001832869, 0.02780331, -0.02561121
 29536514, -0.01831435, -0.003836381, 0.02768227, -0.02572857, -0.008964702, -0.01023266, 0.02786593, -0.02584735
 29641472, 0.01938826, -0.01556317, 0.0284031, -0.02595869, -0.01831435, -0.003836381, 0.02768227, -0.02572857
 29741432, -0.01161263, 0.01033826, 0.02780296, -0.02546492, 0.01938826, -0.01556317, 0.0284031, -0.02595869
 29841392, -0.00133615, -0.01534977, 0.02799665, -0.02596323, -0.01161263, 0.01033826, 0.02780296, -0.02546492
 29941352, -0.02325635, -0.002504447, 0.0275712, -0.02572045, -0.00133615, -0.01534977, 0.02799665, -0.02596323
 30041312, 0.009822287, 0.0001895834, 0.02820348, -0.02567285, -0.02325635, -0.002504447, 0.0275712, -0.02572045
 30141272, -0.0106204, -0.02052467, 0.02780653, -0.02607536, 0.009822287, 0.0001895834, 0.02820348, -0.02567285
 30241232, -0.01203917, 0.005388742, 0.02777546, -0.02558116, -0.0106204, -0.02052467, 0.02780653, -0.02607536
 30341192, 0.01553817, -0.01832101, 0.02830203, -0.02604123, -0.01203917, 0.005388742, 0.02777546, -0.02558116
 30441152, 0.02490615, -0.01171061, 0.02847845, -0.02591817, 0.01553817, -0.01832101, 0.02830203, -0.02604123
 30541112, 0.01969351, -0.02046088, 0.02837439, -0.02609061, 0.02490615, -0.01171061, 0.02847845, -0.02591817
 30641072, -0.008845941, -0.005008608, 0.02782186, -0.02579746, 0.01969351, -0.02046088, 0.02837439, -0.02609061
 30741032, 0.002132402, 0.02363789, 0.02802932, -0.02525055, -0.008845941, -0.005008608, 0.02782186, -0.02579746
 30840992, 0.01240318, -0.004711433, 0.0282232, -0.0257997, 0.002132402, 0.02363789, 0.02802932, -0.02525055
 30940952, 0.005638841, 0.01647931, 0.02808946, -0.02539616, 0.01240318, -0.004711433, 0.0282232, -0.0257997
 31040912, 0.01665501, -0.001112817, 0.0282975, -0.02573861, 0.005638841, 0.01647931, 0.02808946, -0.02539616
 31140872, -0.02340288, -0.01641862, 0.02752391, -0.02603649, 0.01665501, -0.001112817, 0.0282975, -0.02573861
 31240832, -0.001424644, -0.00785805, 0.02794344, -0.02587526, -0.02340288, -0.01641862, 0.02752391, -0.02603649
 31340792, 0.02368339, -0.003806206, 0.02842322, -0.02580068, -0.001424644, -0.00785805, 0.02794344, -0.02587526
 31441585, -0.0002187337, -0.009322076, 0.02796057, -0.02591001, 0.02368339, -0.003806206, 0.02842322, -0.02580068
 31541545, -0.02186245, 0.02017656, 0.0275412, -0.02534614, -0.0002187337, -0.009322076, 0.02796057, -0.02591001
 31641505, -0.02089297, 0.0007643049, 0.02755662, -0.02572296, -0.02186245, 0.02017656, 0.0275412, -0.02534614
 31746463, -0.007713239, 0.01579261, 0.02780643, -0.02543792, -0.02089297, 0.0007643049, 0.02755662, -0.02572296
 31846423, 0.02292622, 0.01667026, 0.02839216, -0.02542482, -0.007713239, 0.01579261, 0.02780643, -0.02543792
 31946383, 0.00716192, -0.0100843, 0.02808549, -0.02594314, 0.02292622, 0.01667026, 0.02839216, -0.02542482
 32046343, 0.006449539, -0.0201591, 0.0280683, -0.02614067, 0.00716192, -0.0100843, 0.02808549, -0.02594314
 32146303, -0.004666613, 0.01613927, 0.02785108, -0.02544637, 0.006449539, -0.0201591, 0.0280683, -0.02614067
 32246263, -0.0189416, -0.007079416, 0.02757312, -0.02589662, -0.004666613, 0.01613927, 0.02785108, -0.02544637
 32346223, 0.01386083, -0.01048212, 0.02820053, -0.02596574, -0.0189416, -0.007079416, 0.02757312, -0.02589662
 32446183, 0.0003108151, 0.01086494, 0.02793658, -0.02555888, 0.01386083, -0.01048212, 0.02820053, -0.02596574
 32546143, -0.02251041, 0.02217419, 0.02749437, -0.02534501, 0.0003108151, 0.01086494, 0.02793658, -0.02555888
 32646103, 0.008317646, 9.824622E-05, 0.02808381, -0.02577325, -0.02251041, 0.02217419, 0.02749437, -0.02534501
 32746063, -0.00327571, 0.01810581, 0.02785757, -0.02543051, 0.008317646, 9.824622E-05, 0.02808381, -0.02577325
 32846023, -0.02131055, 0.02315659, 0.02750748, -0.02533692, -0.00327571, 0.01810581, 0.02785757, -0.02543051
 32945983, 0.02039675, 0.005560503, 0.02830627, -0.02567884, -0.02131055, 0.02315659, 0.02750748, -0.02533692
 33045943, 0.01302025, 0.01315795, 0.02816114, -0.02553628, 0.02039675, 0.005560503, 0.02830627, -0.02567884
 33145903, -0.01580933, -0.003503734, 0.02760334, -0.02586036, 0.01302025, 0.01315795, 0.02816114, -0.02553628
 33245863, -0.0238105, -0.01480558, 0.02744619, -0.02608125, -0.01580933, -0.003503734, 0.02760334, -0.02586036
 33345823, 0.004980682, 0.0185889, 0.02799668, -0.0254425, -0.0238105, -0.01480558, 0.02744619, -0.02608125
 33445783, -0.01537757, -0.02620142, 0.02760203, -0.02630725, 0.004980682, 0.0185889, 0.02799668, -0.0254425
 33546576, -0.0007450834, 0.01166701, 0.02788043, -0.02558225, -0.01537757, -0.02620142, 0.02760203, -0.02630725
 33646536, 0.01575743, 0.01095802, 0.02819476, -0.02559915, -0.0007450834, 0.01166701, 0.02788043, -0.02558225
 33751494, -0.009546064, -0.01279932, 0.02770492, -0.02605953, 0.01575743, 0.01095802, 0.02819476, -0.02559915
 33851454, 0.008117547, 0.008502519, 0.0280415, -0.02565322, -0.009546064, -0.01279932, 0.02770492, -0.02605953
 33951414, -0.003623747, -0.004382328, 0.02781259, -0.02590437, 0.008117547, 0.008502519, 0.0280415, -0.02565322
 34051374, 0.01815997, -0.0065665, 0.02822842, -0.02594971, -0.003623747, -0.004382328, 0.02781259, -0.02590437
 34151334, -0.01506256, 0.01969412, 0.02758647, -0.025448, 0.01815997, -0.0065665, 0.02822842, -0.02594971
 34251294, -0.01236153, 0.002147018, 0.02763539, -0.02578871, -0.01506256, 0.01969412, 0.02758647, -0.025448
 34351254, 0.0003500304, 0.01466455, 0.02787684, -0.02555123, -0.01236153, 0.002147018, 0.02763539, -0.02578871
 34451214, 0.007403952, -0.02233784, 0.0280095, -0.02626603, 0.0003500304, 0.01466455, 0.02787684, -0.02555123
 34551174, 0.0237116, -0.01852741, 0.02832015, -0.02619595, 0.007403952, -0.02233784, 0.0280095, -0.02626603
 34651134, -0.01677394, -0.01906974, 0.02753855, -0.02620965, 0.0237116, -0.01852741, 0.02832015, -0.02619595
 34751094, 0.02352275, -0.02387888, 0.02831057, -0.02630528, -0.01677394, -0.01906974, 0.02753855, -0.02620965
 34851054, -0.02238656, -0.000535447, 0.0274248, -0.02585949, 0.02352275, -0.02387888, 0.02831057, -0.02630528
 34951014, 0.006088718, -0.002142932, 0.02796951, -0.02589351, -0.02238656, -0.000535447, 0.0274248, -0.02585949
 35050974, -0.00747906, -0.00254269, 0.0277057, -0.02590432, 0.006088718, -0.002142932, 0.02796951, -0.02589351
 35150934, 0.010573, 0.01369764, 0.02804995, -0.02559514, -0.00747906, -0.00254269, 0.0277057, -0.02590432
 35250894, -0.004455565, 0.01842854, 0.02775795, -0.02550737, 0.010573, 0.01369764, 0.02804995, -0.02559514
 35350854, 0.01222049, -0.01225298, 0.02807576, -0.02610051, -0.004455565, 0.01842854, 0.02775795, -0.02550737
 35450814, -0.02192639, -0.01144292, 0.02741626, -0.02608796, 0.01222049, -0.01225298, 0.02807576, -0.02610051
 35550774, -0.02461126, -0.002629698, 0.02736186, -0.02592146, -0.02192639, -0.01144292, 0.02741626, -0.02608796
 35651567, -0.001520827, 0.01648301, 0.02780326, -0.02555675, -0.02461126, -0.002629698, 0.02736186, -0.02592146
 35751527, 0.006484821, -0.01026828, 0.02795454, -0.02607408, -0.001520827, 0.01648301, 0.02780326, -0.02555675
 35856485, 0.00509884, 0.006678049, 0.02792501, -0.02575129, 0.006484821, -0.01026828, 0.02795454, -0.02607408
 35956445, -0.01021424, -0.02558719, 0.02762775, -0.02637475, 0.00509884, 0.006678049, 0.02792501, -0.02575129
 36056405, -0.01635977, -0.01286581, 0.0275068, -0.02613309, -0.01021424, -0.02558719, 0.02762775, -0.02637475
 36156365, -0.02461213, -0.02621841, 0.02734537, -0.02639281, -0.01635977, -0.01286581, 0.0275068, -0.02613309
 36256325, 0.004131807, -0.004092093, 0.02789542, -0.02597021, -0.02461213, -0.02621841, 0.02734537, -0.02639281
 36356285, 0.01746841, -0.0004007333, 0.0281492, -0.02590211, 0.004131807, -0.004092093, 0.02789542, -0.02597021
 36456245, 0.007055624, -0.01747242, 0.0279463, -0.02623327, 0.01746841, -0.0004007333, 0.0281492, -0.02590211
 36556205, 0.01049517, -0.02132963, 0.02800979, -0.02631029, 0.007055624, -0.01747242, 0.0279463, -0.02623327
 36656165, 0.001419863, 0.0138262, 0.02783263, -0.02563705, 0.01049517, -0.02132963, 0.02800979, -0.02631029
 36756125, -0.01009247, -0.01407032, 0.02760855, -0.02617641, 0.001419863, 0.0138262, 0.02783263, -0.02563705
 36856085, 0.02332233, 0.009013565, 0.02824854, -0.02573527, -0.01009247, -0.01407032, 0.02760855, -0.02617641
 36956045, -0.0003902604, -0.02302405, 0.02778995, -0.02635415, 0.02332233, 0.009013565, 0.02824854, -0.02573527
 37056005, -0.006698693, -0.01575824, 0.02766606, -0.02621718, -0.0003902604, -0.02302405, 0.02778995, -0.02635415
 37155965, 0.01373994, 0.02147774, 0.02805661, -0.02550379, -0.006698693, -0.01575824, 0.02766606, -0.02621718
 37255925, -0.003982798, 0.01896102, 0.02771322, -0.02555494, 0.01373994, 0.02147774, 0.02805661, -0.02550379
 37355885, -0.01081519, -0.02059487, 0.02757929, -0.02631835, -0.003982798, 0.01896102, 0.02771322, -0.02555494
 37455845, -0.01635082, 0.02437362, 0.02747032, -0.02545627, -0.01081519, -0.02059487, 0.02757929, -0.02631835
 37555805, -0.0204118, 0.01044497, 0.02738973, -0.02572681, -0.01635082, 0.02437362, 0.02747032, -0.02545627
 37655765, -0.002641441, -0.01983148, 0.02772899, -0.0263117, -0.0204118, 0.01044497, 0.02738973, -0.02572681
 37756558, 0.01551792, -0.01918367, 0.02807587, -0.02630176, -0.002641441, -0.01983148, 0.02772899, -0.0263117
 37856518, 0.01030115, 0.000923412, 0.02797313, -0.02591766, 0.01551792, -0.01918367, 0.02807587, -0.02630176
 37961476, -0.009246257, -0.02131062, 0.02759461, -0.02634802, 0.01030115, 0.000923412, 0.02797313, -0.02591766
 38061436, 0.006071297, -0.003812228, 0.02788672, -0.02601415, -0.009246257, -0.02131062, 0.02759461, -0.02634802
 38161396, 0.01727618, 0.008411788, 0.02809973, -0.02578171, 0.006071297, -0.003812228, 0.02788672, -0.02601415
 38261356, 0.0008391446, -0.003378646, 0.02778121, -0.02601105, 0.01727618, 0.008411788, 0.02809973, -0.02578171
 38361316, 0.003637601, -0.01988778, 0.02783262, -0.0263311, 0.0008391446, -0.003378646, 0.02778121, -0.02601105
 38461276, -0.01960685, -0.01426507, 0.02738323, -0.02622553, 0.003637601, -0.01988778, 0.02783262, -0.0263311
 38561236, -0.01962691, -0.005776952, 0.02738048, -0.02606482, -0.01960685, -0.01426507, 0.02738323, -0.02622553
 38661196, -0.005926174, -0.008461921, 0.02764161, -0.02611896, -0.01962691, -0.005776952, 0.02738048, -0.02606482
 38761156, -0.0232888, -0.01464949, 0.02730538, -0.02624044, -0.005926174, -0.008461921, 0.02764161, -0.02611896
 38861116, -0.02434372, 0.01086363, 0.02728271, -0.02575236, -0.0232888, -0.01464949, 0.02730538, -0.02624044
 38961076, -0.007745596, 0.001058113, 0.0275996, -0.02594339, -0.02434372, 0.01086363, 0.02728271, -0.02575236
 39061036, -0.02395891, 0.01479491, 0.02728551, -0.02568166, -0.007745596, 0.001058113, 0.0275996, -0.02594339
 39160996, -0.01106671, 0.008613316, 0.02753115, -0.02580298, -0.02395891, 0.01479491, 0.02728551, -0.02568166
 39260956, -0.01896106, 0.007808073, 0.02737706, -0.02582091, -0.01106671, 0.008613316, 0.02753115, -0.02580298
 39360916, 0.02110956, 0.009067429, 0.02814526, -0.02579923, -0.01896106, 0.007808073, 0.02737706, -0.02582091
 39460876, -0.01884665, -0.003252935, 0.02737455, -0.02603865, 0.02110956, 0.009067429, 0.02814526, -0.02579923
 39560836, -0.01269266, 0.009229057, 0.02749065, -0.02580101, -0.01884665, -0.003252935, 0.02737455, -0.02603865
 39660796, -0.008920982, 0.02225819, 0.02756098, -0.0255528, -0.01269266, 0.009229057, 0.02749065, -0.02580101
 39761589, -0.001547388, 0.008456046, 0.02770068, -0.02582047, -0.008920982, 0.02225819, 0.02756098, -0.0255528
 39861549, -0.02394628, 0.0009350201, 0.02726782, -0.02596736, -0.001547388, 0.008456046, 0.02770068, -0.02582047
 39961509, -0.02484044, -0.02150848, 0.02724851, -0.02640122, -0.02394628, 0.0009350201, 0.02726782, -0.02596736
 40066467, 0.01456245, -0.005151317, 0.02800397, -0.0260891, -0.02484044, -0.02150848, 0.02724851, -0.02640122
 40166427, -0.002299828, 0.01823299, 0.02767751, -0.02564173, 0.01456245, -0.005151317, 0.02800397, -0.0260891
 40266387, 0.02127301, -0.02436336, 0.02812864, -0.02646321, -0.002299828, 0.01823299, 0.02767751, -0.02564173
 40366347, -0.002667285, 0.02534121, 0.02766611, -0.02550965, 0.02127301, -0.02436336, 0.02812864, -0.02646321
 40466307, 0.008763713, -0.02264614, 0.02788379, -0.02643477, -0.002667285, 0.02534121, 0.02766611, -0.02550965
 40566267, -0.01194731, 0.009981018, 0.02748339, -0.02580958, 0.008763713, -0.02264614, 0.02788379, -0.02643477
 40666227, 0.002196717, 0.01961827, 0.02775328, -0.0256265, -0.01194731, 0.009981018, 0.02748339, -0.02580958
 40766187, -0.02445875, -0.01134621, 0.02723858, -0.02622419, 0.002196717, 0.01961827, 0.02775328, -0.0256265
 40866147, 0.003902825, -0.009039388, 0.02778191, -0.02618206, -0.02445875, -0.01134621, 0.02723858, -0.02622419
 40966107, -0.01729605, 0.01081786, 0.02737211, -0.02580246, 0.003902825, -0.009039388, 0.02778191, -0.02618206
 41066067, -0.01215361, -0.0198829, 0.02746895, -0.02639504, -0.01729605, 0.01081786, 0.02737211, -0.02580246
 41166027, 0.01582125, -0.02265676, 0.02800489, -0.02645055, -0.01215361, -0.0198829, 0.02746895, -0.02639504
 41265987, -0.004543016, 0.01539231, 0.02761123, -0.02572101, 0.01582125, -0.02265676, 0.02800489, -0.02645055
 41365947, -0.02521097, 0.01661151, 0.02721171, -0.02569975, -0.004543016, 0.01539231, 0.02761123, -0.02572101
 41465907, -0.005733444, -0.008780221, 0.02758416, -0.02619031, -0.02521097, 0.01661151, 0.02721171, -0.02569975
 41565867, -0.02590176, 0.02213324, 0.02719424, -0.02559802, -0.005733444, -0.008780221, 0.02758416, -0.02619031
 41665827, 0.001516149, -0.02593136, 0.02771951, -0.02652447, -0.02590176, 0.02213324, 0.02719424, -0.02559802
 41765787, 0.001681404, 0.005970652, 0.02772073, -0.02591306, 0.001516149, -0.02593136, 0.02771951, -0.02652447
 41866580, 0.003140149, -0.01628098, 0.02774689, -0.02634297, 0.001681404, 0.005970652, 0.02772073, -0.02591306
 41966540, 0.001558623, 0.01303902, 0.02771456, -0.02578116, 0.003140149, -0.01628098, 0.02774689, -0.02634297
 42066500, 0.0006627641, 0.003948523, 0.02769541, -0.02595802, 0.001558623, 0.01303902, 0.02771456, -0.02578116
 42171458, 0.02031163, -0.01758026, 0.02807118, -0.02637426, 0.0006627641, 0.003948523, 0.02769541, -0.02595802
 42271418, 0.0084155, 0.01211543, 0.0278404, -0.02580532, 0.02031163, -0.01758026, 0.02807118, -0.02637426
 42371378, 0.01392327, 0.009546205, 0.02794432, -0.02585685, 0.0084155, 0.01211543, 0.0278404, -0.02580532
 42471338, -0.01004367, 0.01114612, 0.02748143, -0.0258282, 0.01392327, 0.009546205, 0.02794432, -0.02585685
 42571298, 0.022065, 0.004252898, 0.02809691, -0.02596287, -0.01004367, 0.01114612, 0.02748143, -0.0258282
 42671258, -0.01183344, -0.01621994, 0.02744303, -0.02635869, 0.022065, 0.004252898, 0.02809691, -0.02596287
 42771218, 0.007668672, -0.00648586, 0.02781609, -0.02617358, -0.01183344, -0.01621994, 0.02744303, -0.02635869
 42871178, 0.004307308, -0.01662888, 0.02774948, -0.02637073, 0.007668672, -0.00648586, 0.02781609, -0.02617358
 42971138, 0.01336545, 0.01709992, 0.02792171, -0.02572419, 0.004307308, -0.01662888, 0.02774948, -0.02637073
 43071098, -0.01148046, -0.01344993, 0.02744189, -0.02631382, 0.01336545, 0.01709992, 0.02792171, -0.02572419
 43171058, -0.01066205, 0.01445259, 0.02745567, -0.02577931, -0.01148046, -0.01344993, 0.02744189, -0.02631382
 43271018, 0.01664278, -0.004840535, 0.02797881, -0.0261524, -0.01066205, 0.01445259, 0.02745567, -0.02577931
 43370978, 0.02277591, 0.01885467, 0.02809481, -0.02569879, 0.01664278, -0.004840535, 0.02797881, -0.0261524
 43470938, 0.007008426, 0.01044733, 0.02778963, -0.02586254, 0.02277591, 0.01885467, 0.02809481, -0.02569879
 43570898, 0.007170514, 0.02161361, 0.02779072, -0.02564996, 0.007008426, 0.01044733, 0.02778963, -0.02586254
 43670858, 0.002345106, 0.02445818, 0.0276962, -0.02559708, 0.007170514, 0.02161361, 0.02779072, -0.02564996
 43770818, 0.01963228, 0.007911424, 0.02802697, -0.02591706, 0.002345106, 0.02445818, 0.0276962, -0.02559708
 43870778, -0.001837543, -0.02260203, 0.02761245, -0.0265056, 0.01963228, 0.007911424, 0.02802697, -0.02591706
 43971571, -0.002700029, 0.00657473, 0.02759425, -0.02594621, -0.001837543, -0.02260203, 0.02761245, -0.0265056
 44071531, 0.01507462, -0.01998794, 0.02793438, -0.02645884, -0.002700029, 0.00657473, 0.02759425, -0.02594621
 44176489, 0.01517004, 0.01164839, 0.02793435, -0.02585242, 0.01507462, -0.01998794, 0.02793438, -0.02645884
 44276449, 0.008328833, 0.01134054, 0.02780097, -0.02586027, 0.01517004, 0.01164839, 0.02793435, -0.02585242
 44376409, -0.0211524, 0.004117891, 0.02723217, -0.02600113, 0.008328833, 0.01134054, 0.02780097, -0.02586027
 44476369, -0.02233431, -0.01051777, 0.02720759, -0.02628454, -0.0211524, 0.004117891, 0.02723217, -0.02600113
 44576329, 0.017509, 0.008105067, 0.02797196, -0.02592837, -0.02233431, -0.01051777, 0.02720759, -0.02628454
 44676289, -0.009243571, -0.006559731, 0.02745564, -0.02621234, 0.017509, 0.008105067, 0.02797196, -0.02592837
 44776249, -0.001819373, -0.008921443, 0.0275966, -0.02625968, -0.009243571, -0.006559731, 0.02745564, -0.02621234
 44876209, -0.002124557, -0.003863724, 0.02758892, -0.02616434, -0.001819373, -0.008921443, 0.0275966, -0.02625968
 44976169, -0.01122126, 0.007632761, 0.02741218, -0.02594516, -0.002124557, -0.003863724, 0.02758892, -0.02616434
 45076129, -0.006444643, -0.009456928, 0.02750219, -0.02627576, -0.01122126, 0.007632761, 0.02741218, -0.02594516
 45176089, -0.01740048, 0.02317216, 0.02728972, -0.02565016, -0.006444643, -0.009456928, 0.02750219, -0.02627576
 45276049, 0.01622647, 0.0152644, 0.02793461, -0.02580411, -0.01740048, 0.02317216, 0.02728972, -0.02565016
 45376009, -0.003953573, 0.01189104, 0.02754476, -0.02587086, 0.01622647, 0.0152644, 0.02793461, -0.02580411
 45475969, 0.0121582, 0.001471316, 0.02785285, -0.02607308, -0.003953573, 0.01189104, 0.02754476, -0.02587086
 45575929, 0.0185458, -0.0132957, 0.02797389, -0.02635897, 0.0121582, 0.001471316, 0.02785285, -0.02607308
 45675889, 0.01710418, 0.02022897, 0.02794437, -0.02571615, 0.0185458, -0.0132957, 0.02797389, -0.02635897
 45775849, 0.0172886, -0.006836941, 0.02794614, -0.02623853, 0.01710418, 0.02022897, 0.02794437, -0.02571615
 45875809, -0.02363325, -0.01362792, 0.02715739, -0.02637101, 0.0172886, -0.006836941, 0.02794614, -0.02623853
 45975769, 0.01069162, 0.01839639, 0.02781571, -0.02575704, -0.02363325, -0.01362792, 0.02715739, -0.02637101
 46076562, -0.008680223, -0.01405554, 0.02744147, -0.02638291, 0.01069162, 0.01839639, 0.02781571, -0.02575704
 46176522, -0.0009901139, -0.009661038, 0.0275876, -0.02630024, -0.008680223, -0.01405554, 0.02744147, -0.02638291
 46281480, 0.01619994, 0.01039455, 0.0279163, -0.02591654, -0.0009901139, -0.009661038, 0.0275876, -0.02630024
 46381440, 0.006150576, 0.0032483, 0.02772122, -0.02605589, 0.01619994, 0.01039455, 0.0279163, -0.02591654
 46481400, -0.01560575, 0.02126608, 0.02730101, -0.02571131, 0.006150576, 0.0032483, 0.02772122, -0.02605589
 46581360, -0.01179766, 0.0163538, 0.02780009, -0.026214, -0.01560575, 0.02126608, 0.02730101, -0.02571131
 46681320, 0.0208206, 0.02148622, 0.02950799, -0.02718295, -0.01179766, 0.0163538, 0.02780009, -0.026214
 46781280, -0.009281698, 0.001290126, 0.03137812, -0.02983627, 0.0208206, 0.02148622, 0.02950799, -0.02718295
 46881240, 0.02040234, -0.02931309, 0.03563827, -0.03390329, -0.009281698, 0.001290126, 0.03137812, -0.02983627
 46981200, 0.02636598, 0.03971783, 0.04153613, -0.03852336, 0.02040234, -0.02931309, 0.03563827, -0.03390329
 47081160, 0.008349326, 0.003734955, 0.05004041, -0.04729917, 0.02636598, 0.03971783, 0.04153613, -0.03852336
 47181120, 0.015115, 0.006717972, 0.06093162, -0.05757763, 0.008349326, 0.003734955, 0.05004041, -0.04729917
 47281080, -0.03704819, -0.05658751, 0.07373457, -0.07056505, 0.015115, 0.006717972, 0.06093162, -0.05757763
 47381040, 0.06483597, 0.07534062, 0.08962644, -0.08420549, -0.03704819, -0.05658751, 0.07373457, -0.07056505
 47481000, -0.04834288, -0.03436818, 0.1062849, -0.1012291, 0.06483597, 0.07534062, 0.08962644, -0.08420549
 47580960, -0.0665072, 0.01933871, 0.1258246, -0.1195863, -0.04834288, -0.03436818, 0.1062849, -0.1012291
 47680920, -0.09615373, -0.04739628, 0.1469872, -0.1400169, -0.0665072, 0.01933871, 0.1258246, -0.1195863
 47780880, -0.05838224, -0.1514695, 0.1655932, -0.1673308, -0.09615373, -0.04739628, 0.1469872, -0.1400169
 47880840, -0.05710959, -0.1089073, 0.1900787, -0.191725, -0.05838224, -0.1514695, 0.1655932, -0.1673308
 47980800, 0.0124834, 0.06784915, 0.2161904, -0.2172241, -0.05710959, -0.1089073, 0.1900787, -0.191725
 48080760, 0.241132, -0.1079754, 0.2436541, -0.2445083, 0.0124834, 0.06784915, 0.2161904, -0.2172241
 48181553, -0.2379663, -0.09796577, 0.2713684, -0.2738853, 0.241132, -0.1079754, 0.2436541, -0.2445083
 48281513, -0.1199412, 0.266529, 0.3017693, -0.3018495, -0.2379663, -0.09796577, 0.2713684, -0.2738853
 48386471, 0.03464599, -0.2018266, 0.3334518, -0.3345213, -0.1199412, 0.266529, 0.3017693, -0.3018495
 48486431, 0.2803609, -0.1319979, 0.3658678, -0.3656192, 0.03464599, -0.2018266, 0.3334518, -0.3345213
 48586391, 0.03548562, 0.2046905, 0.397601, -0.3970494, 0.2803609, -0.1319979, 0.3658678, -0.3656192
 48686351, 0.4407802, 0.2150094, 0.4322333, -0.4306186, 0.03548562, 0.2046905, 0.397601, -0.3970494
 48786311, 0.0350697, -0.4674336, 0.4650283, -0.4667903, 0.4407802, 0.2150094, 0.4322333, -0.4306186
 48886271, -0.08679335, -0.2712973, 0.4990827, -0.5010555, 0.0350697, -0.4674336, 0.4650283, -0.4667903
 48986231, -0.0669, -0.2346049, 0.5326716, -0.5350743, -0.08679335, -0.2712973, 0.4990827, -0.5010555
 49086191, -0.08830465, 0.008324975, 0.5658842, -0.5683379, -0.0669, -0.2346049, 0.5326716, -0.5350743
 49186151, 0.2608459, 0.4767157, 0.5991915, -0.6003, -0.08830465, 0.008324975, 0.5658842, -0.5683379
 49286111, -0.1469112, 0.1109198, 0.6295133, -0.6324482, 0.2608459, 0.4767157, 0.5991915, -0.6003
 49386071, -0.2936909, 0.4757632, 0.6597582, -0.6622669, -0.1469112, 0.1109198, 0.6295133, -0.6324482
 49486031, 0.6577946, 0.3763128, 0.6909308, -0.6918101, -0.2936909, 0.4757632, 0.6597582, -0.6622669
 49585991, 0.4377554, 0.04889126, 0.7188627, -0.7206832, 0.6577946, 0.3763128, 0.6909308, -0.6918101
 49685951, 0.3179872, -0.2404298, 0.7458668, -0.7483061, 0.4377554, 0.04889126, 0.7188627, -0.7206832
 49785911, -0.4839567, -0.2832333, 0.7710518, -0.7747653, 0.3179872, -0.2404298, 0.7458668, -0.7483061
 49885871, -0.502035, 0.3880388, 0.7962083, -0.7987113, -0.4839567, -0.2832333, 0.7710518, -0.7747653
 49985831, 0.2328192, 0.3454873, 0.8218084, -0.8230755, -0.502035, 0.3880388, 0.7962083, -0.7987113
 50085791, 0.5473624, -0.2417168, 0.8455051, -0.8470554, 0.2328192, 0.3454873, 0.8218084, -0.8230755
 50186584, -0.224894, -0.192047, 0.8666446, -0.8692312, 0.5473624, -0.2417168, 0.8455051, -0.8470554
 50286544, -0.50596, 0.5683473, 0.8873885, -0.8893857, -0.224894, -0.192047, 0.8666446, -0.8692312
 50386504, 0.5127794, -0.2114912, 0.9079103, -0.9097658, -0.50596, 0.5683473, 0.8873885, -0.8893857
 50491462, 0.5374025, -0.2697419, 0.9251085, -0.9272579, 0.5127794, -0.2114912, 0.9079103, -0.9097658
 50591422, 0.305983, -0.8190963, 0.9401596, -0.9436263, 0.5374025, -0.2697419, 0.9251085, -0.9272579
 50691382, -0.398104, -0.5008993, 0.9527695, -0.9569409, 0.305983, -0.8190963, 0.9401596, -0.9436263
 50791342, -0.3316086, -0.03887363, 0.9649029, -0.968474, -0.398104, -0.5008993, 0.9527695, -0.9569409
 50891302, 0.08299996, -0.5383927, 0.976307, -0.9799759, -0.3316086, -0.03887363, 0.9649029, -0.968474
 50991262, 0.04419266, -0.4597477, 0.9857379, -0.9892803, 0.08299996, -0.5383927, 0.976307, -0.9799759
 51091222, 0.7725767, -0.8683068, 0.9947222, -0.9977084, 0.04419266, -0.4597477, 0.9857379, -0.9892803
 51191182, -0.6583467, 0.04796794, 1.000045, -1.0034, 0.7725767, -0.8683068, 0.9947222, -0.9977084
 51291142, 0.4715471, 0.9049922, 1.007498, -1.007984, -0.6583467, 0.04796794, 1.000045, -1.0034
 51391102, 0.4513929, -0.2328347, 1.012621, -1.014209, 0.4715471, 0.9049922, 1.007498, -1.007984
 51491062, 0.1030329, 0.48698, 1.016672, -1.017427, 0.4513929, -0.2328347, 1.012621, -1.014209
 51591022, -0.324701, 0.4612446, 1.022984, -1.018196, 0.1030329, 0.48698, 1.016672, -1.017427
 51690982, -0.6132694, 0.5694317, 1.042657, -1.003609, -0.324701, 0.4612446, 1.022984, -1.018196
 51790942, 0.209107, -0.5394763, 1.090474, -0.9595974, -0.6132694, 0.5694317, 1.042657, -1.003609
 51890902, -0.7604752, -0.2717687, 1.16208, -0.8735052, 0.209107, -0.5394763, 1.090474, -0.9595974
 51990862, -1.048704, -0.5652068, 1.250382, -0.7459636, -0.7604752, -0.2717687, 1.16208, -0.8735052
 52090822, -0.7253291, -0.1689267, 1.338713, -0.5773313, -1.048704, -0.5652068, 1.250382, -0.7459636
 52190782, 0.3987164, -1.022579, 1.411253, -0.3772788, -0.7253291, -0.1689267, 1.338713, -0.5773313
 52291575, -1.281642, -1.717913, 1.451622, -0.1531479, 0.3987164, -1.022579, 1.411253, -0.3772788
 52391535, 0.4208491, -0.4593151, 1.460001, 0.07906702, -1.281642, -1.717913, 1.451622, -0.1531479
 52496493, 0.9079272, -1.655395, 1.429594, 0.3113961, 0.4208491, -0.4593151, 1.460001, 0.07906702
 52596453, 0.7047299, -2.385103, 1.369946, 0.5123358, 0.9079272, -1.655395, 1.429594, 0.3113961
 52696413, 0.6364294, -1.579186, 1.290632, 0.6877856, 0.7047299, -2.385103, 1.369946, 0.5123358
 52796373, 2.231782, -0.9235653, 1.2031, 0.8345422, 0.6364294, -1.579186, 1.290632, 0.6877856
 52896333, 1.620313, 0.02520511, 1.1088, 0.9558306, 2.231782, -0.9235653, 1.2031, 0.8345422
 52996293, 1.548237, 0.4556653, 1.014097, 1.05545, 1.620313, 0.02520511, 1.1088, 0.9558306
 53096253, 2.470627, -0.05011177, 0.9202034, 1.137952, 1.548237, 0.4556653, 1.014097, 1.05545
 53196213, 1.913168, 1.098261, 0.8289912, 1.205763, 2.470627, -0.05011177, 0.9202034, 1.137952
 53296173, 1.755917, 0.798077, 0.7552836, 1.251162, 1.913168, 1.098261, 0.8289912, 1.205763
 53396133, 2.656245, 0.9601961, 0.7105978, 1.276597, 1.755917, 0.798077, 0.7552836, 1.251162
 53496093, 2.399044, 0.5181065, 0.694773, 1.283054, 2.656245, 0.9601961, 0.7105978, 1.276597
 53596053, 3.591839, 1.933593, 0.7090783, 1.276655, 2.399044, 0.5181065, 0.694773, 1.283054
 53696013, 3.986664, 0.4453862, 0.7444687, 1.25395, 3.591839, 1.933593, 0.7090783, 1.276655
 53795973, 3.479075, 0.6006451, 0.7920153, 1.222417, 3.986664, 0.4453862, 0.7444687, 1.25395
 53895933, 4.274828, 1.496519, 0.847116, 1.184839, 3.479075, 0.6006451, 0.7920153, 1.222417
 53995893, 4.426863, 1.219345, 0.8981524, 1.144052, 4.274828, 1.496519, 0.847116, 1.184839
 54095853, 4.211761, 0.4177687, 0.9405298, 1.106419, 4.426863, 1.219345, 0.8981524, 1.144052
 54195813, 4.813087, -0.9691751, 0.9715562, 1.075846, 4.211761, 0.4177687, 0.9405298, 1.106419
 54295773, 4.837683, 0.5171431, 0.9885135, 1.059836, 4.813087, -0.9691751, 0.9715562, 1.075846
 54396566, 4.625621, -0.6758882, 0.991847, 1.052048, 4.837683, 0.5171431, 0.9885135, 1.059836
 54496526, 5.273399, -0.8286971, 0.9849567, 1.056321, 4.625621, -0.6758882, 0.991847, 1.052048
 54601484, 5.677919, -0.4361768, 0.9676523, 1.069726, 5.273399, -0.8286971, 0.9849567, 1.056321
 54701444, 4.97298, 0.695335, 0.9441085, 1.088167, 5.677919, -0.4361768, 0.9676523, 1.069726
 54801404, 5.601883, 0.9855821, 0.9196548, 1.106302, 4.97298, 0.695335, 0.9441085, 1.088167
 54901364, 5.994743, -0.1040202, 0.8961883, 1.121352, 5.601883, 0.9855821, 0.9196548, 1.106302
 55001324, 4.383802, 0.6676714, 0.8736129, 1.134727, 5.994743, -0.1040202, 0.8961883, 1.121352
 55101284, 5.038881, 0.9676745, 0.8597765, 1.143034, 4.383802, 0.6676714, 0.8736129, 1.134727
 55201244, 5.312586, 0.5043937, 0.851819, 1.144836, 5.038881, 0.9676745, 0.8597765, 1.143034
 55301204, 5.369077, 0.7958072, 0.8500648, 1.142709, 5.312586, 0.5043937, 0.851819, 1.144836
 55401164, 4.982185, 1.786033, 0.8530688, 1.137722, 5.369077, 0.7958072, 0.8500648, 1.142709
 55501124, 6.588408, 1.151034, 0.862196, 1.127871, 4.982185, 1.786033, 0.8530688, 1.137722
 55601084, 5.568513, 1.141281, 0.8698525, 1.117374, 6.588408, 1.151034, 0.862196, 1.127871
 55701044, 5.611977, 0.3071338, 0.8786516, 1.105083, 5.568513, 1.141281, 0.8698525, 1.117374
 55801004, 6.613772, 1.418528, 0.8874159, 1.096342, 5.611977, 0.3071338, 0.8786516, 1.105083
 55900964, 6.332742, 1.299118, 0.8922577, 1.087502, 6.613772, 1.418528, 0.8874159, 1.096342
 56000924, 6.697392, 0.2711523, 0.8951235, 1.079654, 6.332742, 1.299118, 0.8922577, 1.087502
 56100884, 7.094155, -0.3104609, 0.8950648, 1.07471, 6.697392, 0.2711523, 0.8951235, 1.079654
 56200844, 6.695965, 0.5479442, 0.8913865, 1.073713, 7.094155, -0.3104609, 0.8950648, 1.07471
 56300804, 7.296175, 0.4694807, 0.8867764, 1.072906, 6.695965, 0.5479442, 0.8913865, 1.073713
 56400764, 6.360243, 0.4801743, 0.8792167, 1.07362, 7.296175, 0.4694807, 0.8867764, 1.072906
 56501557, 6.226994, 0.9878987, 0.8718715, 1.07502, 6.360243, 0.4801743, 0.8792167, 1.07362
 56601517, 7.468078, 1.628082, 0.8666611, 1.076379, 6.226994, 0.9878987, 0.8718715, 1.07502
 56706475, 6.806279, 1.34251, 0.8597126, 1.075962, 7.468078, 1.628082, 0.8666611, 1.076379
 56806435, 6.232018, 0.8125207, 0.8539314, 1.073816, 6.806279, 1.34251, 0.8597126, 1.075962
 56906395, 7.534164, 1.460204, 0.8520818, 1.072433, 6.232018, 0.8125207, 0.8539314, 1.073816
 57006355, 7.143896, 0.8139372, 0.8492074, 1.06837, 7.534164, 1.460204, 0.8520818, 1.072433
 57106315, 6.882138, 1.35328, 0.8473635, 1.065179, 7.143896, 0.8139372, 0.8492074, 1.06837
 57206275, 6.791254, 0.9774282, 0.8460474, 1.060301, 6.882138, 1.35328, 0.8473635, 1.065179
 57306235, 7.49185, 0.1530958, 0.8461189, 1.0552, 6.791254, 0.9774282, 0.8460474, 1.060301
 57406195, 6.721857, 0.5416726, 0.8438277, 1.05143, 7.49185, 0.1530958, 0.8461189, 1.0552
 57506155, 7.721581, 0.4635094, 0.8435564, 1.047103, 6.721857, 0.5416726, 0.8438277, 1.05143
 57606115, 7.679161, 0.5026261, 0.8421431, 1.043789, 7.721581, 0.4635094, 0.8435564, 1.047103
 57706075, 7.049901, 0.6373084, 0.8393726, 1.040546, 7.679161, 0.5026261, 0.8421431, 1.043789
 57806035, 6.850576, -0.2209129, 0.8371367, 1.036402, 7.049901, 0.6373084, 0.8393726, 1.040546
 57905995, 8.157773, 1.318724, 0.8363571, 1.035492, 6.850576, -0.2209129, 0.8371367, 1.036402
 58005955, 7.814467, 1.346768, 0.8331208, 1.032565, 8.157773, 1.318724, 0.8363571, 1.035492
 58105915, 8.382005, 1.258544, 0.8312712, 1.029836, 7.814467, 1.346768, 0.8331208, 1.032565
 58205875, 6.884726, 0.618196, 0.826683, 1.026035, 8.382005, 1.258544, 0.8312712, 1.029836
 58305835, 6.878462, -0.1845912, 0.8243923, 1.022405, 6.884726, 0.618196, 0.826683, 1.026035
