TimeUS,COFN,COFE,COFD,CNe,CEe,CDe,POFN,POFE,POFD,PNe,PEe,PDe
 2696421, 0.002622103, -0.02405993, 0.1952695, 0.0204053, -0.03270802, 0.003756911, 0, 0, 0, 0, 0, 0
 2776389, -0.0123565, 0.02151807, -1.739272E-06, 0.02008787, -0.03167462, 0.4000026, 0.002622103, -0.02405993, 0.1952695, 0.0204053, -0.03270802, 0.003756911
 2876349, 0.008708939, 0.02173642, -1.242777E-06, 0.02051028, -0.03167444, 0.4000037, -0.0123565, 0.02151807, -1.739272E-06, 0.02008787, -0.03167462, 0.4000026
 2976309, -0.008289049, 0.01641306, -1.871279E-06, 0.02015878, -0.03175919, 0.4000039, 0.008708939, 0.02173642, -1.242777E-06, 0.02051028, -0.03167444, 0.4000037
 3076269, 0.01064213, 0.01202554, -4.855569E-07, 0.02056588, -0.03185099, 0.400004, -0.008289049, 0.01641306, -1.871279E-06, 0.02015878, -0.03175919, 0.4000039
 3176229, 0.0005121739, -0.025317, 2.75116E-06, 0.02033381, -0.03269913, 0.4000046, 0.01064213, 0.01202554, -4.855569E-07, 0.02056588, -0.03185099, 0.400004
 3276189, -0.01738198, -0.0007373497, -8.64984E-07, 0.01997985, -0.0321029, 0.4000051, 0.0005121739, -0.025317, 2.75116E-06, 0.02033381, -0.03269913, 0.4000046
 3376149, 0.00458462, 0.01025517, -1.010353E-06, 0.02043061, -0.03186679, 0.4000051, -0.01738198, -0.0007373497, -8.64984E-07, 0.01997985, -0.0321029, 0.4000051
 3476109, -0.0121001, 0.01546199, -2.589073E-06, 0.02008684, -0.03176177, 0.400005, 0.00458462, 0.01025517, -1.010353E-06, 0.02043061, -0.03186679, 0.4000051
 3576069, 0.01128234, -0.001706274, 9.347357E-07, 0.02058899, -0.03212202, 0.400005, -0.0121001, 0.01546199, -2.589073E-06, 0.02008684, -0.03176177, 0.400005
 3676029, -0.01966912, -0.0047825, -9.165954E-07, 0.01992741, -0.03220408, 0.4000049, 0.01128234, -0.001706274, 9.347357E-07, 0.02058899, -0.03212202, 0.400005
 3775989, -0.009025851, -0.02319181, 1.54409E-06, 0.02011796, -0.03265591, 0.4000046, -0.01966912, -0.0047825, -9.165954E-07, 0.01992741, -0.03220408, 0.4000049
 3875949, -0.005923117, -0.02274488, 1.40421E-06, 0.02018573, -0.03264624, 0.4000041, -0.009025851, -0.02319181, 1.54409E-06, 0.02011796, -0.03265591, 0.4000046
 3975909, 0.004792294, 0.0135108, -8.151368E-07, 0.02042658, -0.03181708, 0.4000043, -0.005923117, -0.02274488, 1.40421E-06, 0.02018573, -0.03264624, 0.4000041
 4075869, 0.01816685, -0.003377677, 1.787552E-06, 0.02075483, -0.03217042, 0.4000047, 0.004792294, 0.0135108, -8.151368E-07, 0.02042658, -0.03181708, 0.4000043
 4175829, 0.01421433, -0.01691587, 2.868708E-06, 0.02066276, -0.03247961, 0.400005, 0.01816685, -0.003377677, 1.787552E-06, 0.02075483, -0.03217042, 0.4000047
 4275789, 0.01796215, -0.01201474, 2.678474E-06, 0.02075856, -0.03235947, 0.4000052, 0.01421433, -0.01691587, 2.868708E-06, 0.02066276, -0.03247961, 0.400005
 4376582, 0.01311263, -0.009674521, 2.081477E-06, 0.02063624, -0.03230179, 0.3921621, 0.01796215, -0.01201474, 2.678474E-06, 0.02075856, -0.03235947, 0.4000052
 4476542, -0.007702104, -0.01316397, 1.026475E-06, 0.02015787, -0.03238783, 0.4000053, 0.01311263, -0.009674521, 2.081477E-06, 0.02063624, -0.03230179, 0.3921621
 4576502, 0.003224879, -0.0196466, 2.50354E-06, 0.0203978, -0.03254448, 0.4000052, -0.007702104, -0.01316397, 1.026475E-06, 0.02015787, -0.03238783, 0.4000053
 4681460, -0.01269641, -0.005459464, -2.828655E-07, 0.02006336, -0.03221127, 0.4000049, 0.003224879, -0.0196466, 2.50354E-06, 0.0203978, -0.03254448, 0.4000052
 4781420, -0.0183271, 0.01117171, -2.837887E-06, 0.01996516, -0.03184626, 0.4000055, -0.01269641, -0.005459464, -2.828655E-07, 0.02006336, -0.03221127, 0.4000049
 4881380, 0.01162542, -0.02178058, 4.101153E-06, 0.0205945, -0.03258606, 0.4000064, -0.0183271, 0.01117171, -2.837887E-06, 0.01996516, -0.03184626, 0.4000055
 4981340, 0.01570962, -0.0196797, 3.897965E-06, 0.02069861, -0.03253827, 0.400006, 0.01162542, -0.02178058, 4.101153E-06, 0.0205945, -0.03258606, 0.4000064
 5081300, 0.02038109, 0.01635419, 8.667712E-09, 0.02078608, -0.03177168, 0.4000053, 0.01570962, -0.0196797, 3.897965E-06, 0.02069861, -0.03253827, 0.400006
 5181260, 0.02582663, 0.007655232, 1.620715E-06, 0.02093553, -0.03194397, 0.4000055, 0.02038109, 0.01635419, 8.667712E-09, 0.02078608, -0.03177168, 0.4000053
 5281220, -0.01503739, -0.0009430428, -1.467343E-06, 0.02000846, -0.032108, 0.4000057, 0.02582663, 0.007655232, 1.620715E-06, 0.02093553, -0.03194397, 0.4000055
 5381180, 0.01252951, 0.01410051, 5.128186E-09, 0.02059029, -0.03180651, 0.4000055, -0.01503739, -0.0009430428, -1.467343E-06, 0.02000846, -0.032108, 0.4000057
 5481140, -0.009386281, 0.005349022, -1.554698E-06, 0.02011673, -0.0319794, 0.400005, 0.01252951, 0.01410051, 5.128186E-09, 0.02059029, -0.03180651, 0.4000055
 5581100, -0.003019556, 0.02119732, -1.987638E-06, 0.02024463, -0.031672, 0.4000047, -0.009386281, 0.005349022, -1.554698E-06, 0.02011673, -0.0319794, 0.400005
 5681060, 0.01888138, -0.008204541, 2.605269E-06, 0.02076909, -0.03228565, 0.4000046, -0.003019556, 0.02119732, -1.987638E-06, 0.02024463, -0.031672, 0.4000047
 5781020, 0.01325651, -0.001201927, 1.435298E-06, 0.02062441, -0.03213185, 0.4000041, 0.01888138, -0.008204541, 2.605269E-06, 0.02076909, -0.03228565, 0.4000046
 5880980, 0.006091384, -0.01148723, 1.138892E-06, 0.02045579, -0.03237049, 0.4000035, 0.01325651, -0.001201927, 1.435298E-06, 0.02062441, -0.03213185, 0.4000041
 5980940, 0.02395329, 0.001838579, 2.811438E-06, 0.02088376, -0.0320816, 0.4000042, 0.006091384, -0.01148723, 1.138892E-06, 0.02045579, -0.03237049, 0.4000035
 6080900, 0.0002128806, -0.003059008, 2.395368E-07, 0.02030414, -0.0321671, 0.4000052, 0.02395329, 0.001838579, 2.811438E-06, 0.02088376, -0.0320816, 0.4000042
 6180860, -0.002585148, 0.02157741, -1.8642E-06, 0.02023782, -0.03166963, 0.4000052, 0.0002128806, -0.003059008, 2.395368E-07, 0.02030414, -0.0321671, 0.4000052
 6280820, 0.002290652, 0.01810667, -8.160309E-07, 0.02034362, -0.0317378, 0.4000049, -0.002585148, 0.02157741, -1.8642E-06, 0.02023782, -0.03166963, 0.4000052
 6380780, 0.002633113, 0.02393049, -1.116711E-06, 0.020352, -0.03163514, 0.4000045, 0.002290652, 0.01810667, -8.160309E-07, 0.02034362, -0.0317378, 0.4000049
 6481573, -0.02213017, -0.01467941, -1.564468E-06, 0.01985575, -0.03246725, 0.392161, 0.002633113, 0.02393049, -1.116711E-06, 0.020352, -0.03163514, 0.4000045
 6581533, 0.02589772, 0.009591556, 2.060064E-06, 0.02092928, -0.03192323, 0.4000044, -0.02213017, -0.01467941, -1.564468E-06, 0.01985575, -0.03246725, 0.392161
 6686491, -0.02194747, 0.008211178, -3.001323E-06, 0.01988806, -0.03192687, 0.4000047, 0.02589772, 0.009591556, 2.060064E-06, 0.02092928, -0.03192323, 0.4000044
 6786451, 0.006983576, -0.02446992, 2.799654E-06, 0.02047006, -0.03268036, 0.400005, -0.02194747, 0.008211178, -3.001323E-06, 0.01988806, -0.03192687, 0.4000047
 6886411, -0.001420529, -0.02457479, 1.743893E-06, 0.02026938, -0.03269071, 0.4000049, 0.006983576, -0.02446992, 2.799654E-06, 0.02047006, -0.03268036, 0.400005
 6986371, 0.01648333, 0.005956093, 1.43786E-06, 0.02069159, -0.03197899, 0.4000048, -0.001420529, -0.02457479, 1.743893E-06, 0.02026938, -0.03269071, 0.4000049
 7086331, -0.00639041, 0.02119259, -2.367035E-06, 0.02017706, -0.03167106, 0.4000047, 0.01648333, 0.005956093, 1.43786E-06, 0.02069159, -0.03197899, 0.4000048
 7186291, -0.02387968, -0.008153198, -2.180091E-06, 0.01983027, -0.03230064, 0.4000048, -0.00639041, 0.02119259, -2.367035E-06, 0.02017706, -0.03167106, 0.4000047
 7286251, 0.003819688, 0.02167553, -1.176788E-06, 0.02037975, -0.0316691, 0.400005, -0.02387968, -0.008153198, -2.180091E-06, 0.01983027, -0.03230064, 0.4000048
 7386211, 0.01060808, -0.02319279, 3.603343E-06, 0.02054538, -0.03264372, 0.4000059, 0.003819688, 0.02167553, -1.176788E-06, 0.02037975, -0.0316691, 0.400005
 7486171, -0.0036644, -0.003739667, -2.281131E-07, 0.02021057, -0.03216809, 0.4000068, 0.01060808, -0.02319279, 3.603343E-06, 0.02054538, -0.03264372, 0.4000059
 7586131, 0.004938917, -0.02598245, 3.865453E-06, 0.02038827, -0.03270911, 0.4000075, -0.0036644, -0.003739667, -2.281131E-07, 0.02021057, -0.03216809, 0.4000068
 7686091, 0.02243751, -0.004926904, 5.248713E-06, 0.02081704, -0.03220022, 0.400008, 0.004938917, -0.02598245, 3.865453E-06, 0.02038827, -0.03270911, 0.4000075
 7786051, -0.0239858, -0.004099931, -4.530388E-06, 0.01979841, -0.03218711, 0.400008, 0.02243751, -0.004926904, 5.248713E-06, 0.02081704, -0.03220022, 0.400008
 7886011, 0.01688017, -0.01219815, 4.913597E-06, 0.02068345, -0.03235535, 0.4000083, -0.0239858, -0.004099931, -4.530388E-06, 0.01979841, -0.03218711, 0.400008
 7985971, 0.0242951, 0.01439363, 3.138382E-06, 0.02084184, -0.03180603, 0.4000083, 0.01688017, -0.01219815, 4.913597E-06, 0.02068345, -0.03235535, 0.4000083
 8085931, -0.02816831, -0.006974675, -5.514291E-06, 0.01971618, -0.03226267, 0.4000082, 0.0242951, 0.01439363, 3.138382E-06, 0.02084184, -0.03180603, 0.4000083
 8185891, 0.0137139, -0.01924345, 5.179868E-06, 0.02059144, -0.03253574, 0.4000081, -0.02816831, -0.006974675, -5.514291E-06, 0.01971618, -0.03226267, 0.4000082
 8285851, -0.02049775, 0.008381159, -5.470958E-06, 0.01986589, -0.03191843, 0.4000074, 0.0137139, -0.01924345, 5.179868E-06, 0.02059144, -0.03253574, 0.4000081
 8385811, 0.01788338, -0.000614943, 4.108412E-06, 0.02069006, -0.03211387, 0.4000073, -0.02049775, 0.008381159, -5.470958E-06, 0.01986589, -0.03191843, 0.4000074
 8485771, 0.007863318, -0.004579518, 2.18583E-06, 0.02062662, -0.03208267, 0.4000072, 0.01788338, -0.000614943, 4.108412E-06, 0.02069006, -0.03211387, 0.4000073
 8586564, 0.01399935, -0.01840092, 4.597751E-06, 0.02134984, -0.03204067, 0.3921641, 0.007863318, -0.004579518, 2.18583E-06, 0.02062662, -0.03208267, 0.4000072
 8686524, 0.02894214, 0.01757055, 6.732162E-06, 0.02221376, -0.03093254, 0.400008, 0.01399935, -0.01840092, 4.597751E-06, 0.02134984, -0.03204067, 0.3921641
 8791482, 0.01110272, -0.02584271, 5.09739E-06, 0.0222723, -0.03152383, 0.4081721, 0.02894214, 0.01757055, 6.732162E-06, 0.02221376, -0.03093254, 0.400008
 8891442, 0.01414633, -0.006558785, 4.634801E-06, 0.02277158, -0.03074192, 0.4000089, 0.01110272, -0.02584271, 5.09739E-06, 0.0222723, -0.03152383, 0.4081721
 8991402, 0.02397137, -0.005370581, 7.478629E-06, 0.02340823, -0.030433, 0.400009, 0.01414633, -0.006558785, 4.634801E-06, 0.02277158, -0.03074192, 0.4000089
 9091362, 0.01905434, 0.02124248, 4.323178E-06, 0.02362078, -0.02964273, 0.4000077, 0.02397137, -0.005370581, 7.478629E-06, 0.02340823, -0.030433, 0.400009
 9191322, 0.004973959, -0.01748818, 1.398266E-06, 0.02362521, -0.03022298, 0.4000061, 0.01905434, 0.02124248, 4.323178E-06, 0.02362078, -0.02964273, 0.4000077
 9291282, -0.01917377, -0.01191231, -4.371342E-06, 0.02341874, -0.02986431, 0.4000057, 0.004973959, -0.01748818, 1.398266E-06, 0.02362521, -0.03022298, 0.4000061
 9391242, -0.01342069, 0.01542458, -3.21446E-06, 0.02380141, -0.02905034, 0.4000057, -0.01917377, -0.01191231, -4.371342E-06, 0.02341874, -0.02986431, 0.4000057
 9491202, 0.02629493, 0.02081445, 5.354413E-06, 0.02494626, -0.02876808, 0.4000059, -0.01342069, 0.01542458, -3.21446E-06, 0.02380141, -0.02905034, 0.4000057
 9591162, -0.02718636, -0.02174581, -5.185684E-06, 0.02400326, -0.02951605, 0.4000057, 0.02629493, 0.02081445, 5.354413E-06, 0.02494626, -0.02876808, 0.4000059
 9691122, 0.002313496, -0.02526467, 1.063724E-06, 0.02478705, -0.0294239, 0.4000057, -0.02718636, -0.02174581, -5.185684E-06, 0.02400326, -0.02951605, 0.4000057
 9791082, 0.01482714, 0.0093947, 2.708128E-06, 0.02526578, -0.02845923, 0.4000056, 0.002313496, -0.02526467, 1.063724E-06, 0.02478705, -0.0294239, 0.4000057
 9891042, -0.0108953, 0.02340568, -2.310275E-06, 0.02486536, -0.02805317, 0.400005, 0.01482714, 0.0093947, 2.708128E-06, 0.02526578, -0.02845923, 0.4000056
 9991002, -0.02556825, -0.01648435, -4.481516E-06, 0.02474576, -0.02878042, 0.4000043, -0.0108953, 0.02340568, -2.310275E-06, 0.02486536, -0.02805317, 0.400005
 10090962, -0.0191126, 0.01745298, -3.265965E-06, 0.0250077, -0.02790653, 0.4000043, -0.02556825, -0.01648435, -4.481516E-06, 0.02474576, -0.02878042, 0.4000043
 10190922, -0.009973004, 0.004988962, -1.639213E-06, 0.02530793, -0.02803498, 0.4000044, -0.0191126, 0.01745298, -3.265965E-06, 0.0250077, -0.02790653, 0.4000043
 10290882, 0.02269095, 0.01866898, 2.946721E-06, 0.02617249, -0.02766653, 0.4000047, -0.009973004, 0.004988962, -1.639213E-06, 0.02530793, -0.02803498, 0.4000044
 10390842, 0.01276142, 0.02180125, 1.158631E-06, 0.02602569, -0.0275086, 0.4000049, 0.02269095, 0.01866898, 2.946721E-06, 0.02617249, -0.02766653, 0.4000047
 10490802, 0.0008688045, 0.01339858, -2.158077E-07, 0.02585053, -0.02757649, 0.4000044, 0.01276142, 0.02180125, 1.158631E-06, 0.02602569, -0.0275086, 0.4000049
 10590762, 0.01461631, -0.008951066, 2.104007E-06, 0.02626343, -0.02797993, 0.4000039, 0.0008688045, 0.01339858, -2.158077E-07, 0.02585053, -0.02757649, 0.4000044
 10691555, 0.003291556, 0.01360077, 5.249389E-07, 0.02607107, -0.02742935, 0.4000036, 0.01461631, -0.008951066, 2.104007E-06, 0.02626343, -0.02797993, 0.4000039
 10791515, 0.02255508, 0.02092327, 3.869327E-06, 0.02660671, -0.02723667, 0.4000035, 0.003291556, 0.01360077, 5.249389E-07, 0.02607107, -0.02742935, 0.4000036
 10896473, -0.01123452, 0.01576031, -1.477275E-06, 0.02589587, -0.02726354, 0.4081669, 0.02255508, 0.02092327, 3.869327E-06, 0.02660671, -0.02723667, 0.4000035
 10996433, 0.0008208786, -0.02272925, -6.176206E-07, 0.02619996, -0.02807761, 0.4000039, -0.01123452, 0.01576031, -1.477275E-06, 0.02589587, -0.02726354, 0.4081669
 11096393, -0.002104304, -0.02395947, -9.086639E-07, 0.02619041, -0.02805337, 0.4000043, 0.0008208786, -0.02272925, -6.176206E-07, 0.02619996, -0.02807761, 0.4000039
 11196353, 0.0002833976, 0.01013149, 1.141413E-07, 0.02629395, -0.02720685, 0.4000047, -0.002104304, -0.02395947, -9.086639E-07, 0.02619041, -0.02805337, 0.4000043
 11296313, 0.01940316, 0.02508168, 3.364188E-06, 0.02679406, -0.02688572, 0.400005, 0.0002833976, 0.01013149, 1.141413E-07, 0.02629395, -0.02720685, 0.4000047
 11396273, -0.02084902, 0.0170106, -4.015331E-06, 0.02596717, -0.02698018, 0.4000051, 0.01940316, 0.02508168, 3.364188E-06, 0.02679406, -0.02688572, 0.400005
 11496233, 0.002923379, 0.004705652, 4.714103E-07, 0.02648636, -0.02719229, 0.4000044, -0.02084902, 0.0170106, -4.015331E-06, 0.02596717, -0.02698018, 0.4000051
 11596193, -0.006179907, 0.005502987, -8.6201E-07, 0.02633036, -0.02714908, 0.4000036, 0.002923379, 0.004705652, 4.714103E-07, 0.02648636, -0.02719229, 0.4000044
 11696153, -0.004350962, 0.01379801, -3.46874E-07, 0.02640131, -0.02695517, 0.4000034, -0.006179907, 0.005502987, -8.6201E-07, 0.02633036, -0.02714908, 0.4000036
 11796113, -0.01020276, 0.006182301, -1.344452E-06, 0.02631203, -0.02708039, 0.4000031, -0.004350962, 0.01379801, -3.46874E-07, 0.02640131, -0.02695517, 0.4000034
 11896073, -0.009233095, 0.01378885, -1.104846E-06, 0.02635379, -0.02690245, 0.4000035, -0.01020276, 0.006182301, -1.344452E-06, 0.02631203, -0.02708039, 0.4000031
 11996033, -0.02195213, -0.02533935, -4.344418E-06, 0.02613336, -0.0277795, 0.4000038, -0.009233095, 0.01378885, -1.104846E-06, 0.02635379, -0.02690245, 0.4000035
 12095993, 0.02051116, 0.01419992, 3.906053E-06, 0.02707564, -0.02684598, 0.4000044, -0.02195213, -0.02533935, -4.344418E-06, 0.02613336, -0.0277795, 0.4000038
 12195953, -0.01873923, -0.02371675, -3.72715E-06, 0.02622772, -0.02768786, 0.4000046, 0.02051116, 0.01419992, 3.906053E-06, 0.02707564, -0.02684598, 0.4000044
 12295913, 0.02287879, 0.02251938, 4.709879E-06, 0.02717135, -0.02665498, 0.4000048, -0.01873923, -0.02371675, -3.72715E-06, 0.02622772, -0.02768786, 0.4000046
 12395873, -0.02539778, 0.01171324, -4.752267E-06, 0.0261448, -0.02683881, 0.4000046, 0.02287879, 0.02251938, 4.709879E-06, 0.02717135, -0.02665498, 0.4000048
 12495833, -0.01280498, 0.01089806, -2.206546E-06, 0.02639002, -0.02683993, 0.4000044, -0.02539778, 0.01171324, -4.752267E-06, 0.0261448, -0.02683881, 0.4000046
 12595793, -0.002659864, -0.01257224, -9.467421E-07, 0.0266127, -0.02734386, 0.4000042, -0.01280498, 0.01089806, -2.206546E-06, 0.02639002, -0.02683993, 0.4000044
 12696586, 0.01343461, 0.0004146316, 2.432598E-06, 0.02700218, -0.02702353, 0.4000043, -0.002659864, -0.01257224, -9.467421E-07, 0.0266127, -0.02734386, 0.4000042
 12796546, 0.003882803, 0.02570198, 7.103304E-07, 0.02679572, -0.0265163, 0.4000044, 0.01343461, 0.0004146316, 2.432598E-06, 0.02700218, -0.02702353, 0.4000043
 12896506, 0.01779979, 0.01439111, 3.410236E-06, 0.02713582, -0.0267092, 0.4000047, 0.003882803, 0.02570198, 7.103304E-07, 0.02679572, -0.0265163, 0.4000044
 13001464, 0.007750046, 0.01142706, 1.822367E-06, 0.02689419, -0.02675838, 0.400005, 0.01779979, 0.01439111, 3.410236E-06, 0.02713582, -0.0267092, 0.4000047
 13101424, -0.008465605, 0.02322193, -1.368505E-06, 0.02654091, -0.02653269, 0.4000055, 0.007750046, 0.01142706, 1.822367E-06, 0.02689419, -0.02675838, 0.400005
 13201384, -0.01007919, -0.01846467, -3.158194E-06, 0.02650695, -0.02741667, 0.4000061, -0.008465605, 0.02322193, -1.368505E-06, 0.02654091, -0.02653269, 0.4000055
 13301344, 0.01076371, -0.01796551, 1.705237E-06, 0.02697506, -0.02740593, 0.4000053, -0.01007919, -0.01846467, -3.158194E-06, 0.02650695, -0.02741667, 0.4000061
 13401304, -0.002373519, -0.02067139, -2.357671E-06, 0.02668752, -0.02747941, 0.4000042, 0.01076371, -0.01796551, 1.705237E-06, 0.02697506, -0.02740593, 0.4000053
 13501264, 0.004361178, 0.01522619, 2.179915E-06, 0.02684251, -0.02666275, 0.4000047, -0.002373519, -0.02067139, -2.357671E-06, 0.02668752, -0.02747941, 0.4000042
 13601224, 0.008486703, 0.02111533, 3.32376E-06, 0.02694364, -0.02654278, 0.4000052, 0.004361178, 0.01522619, 2.179915E-06, 0.02684251, -0.02666275, 0.4000047
 13701184, 0.01620362, 0.01232881, 4.595143E-06, 0.02713817, -0.02669553, 0.4000055, 0.008486703, 0.02111533, 3.32376E-06, 0.02694364, -0.02654278, 0.4000052
 13801144, 0.01825943, 0.02394518, 5.391406E-06, 0.02719648, -0.0264743, 0.4000057, 0.01620362, 0.01232881, 4.595143E-06, 0.02713817, -0.02669553, 0.4000055
 13901104, -0.009819177, -1.401417E-05, -2.405156E-06, 0.02656488, -0.02693265, 0.4000057, 0.01825943, 0.02394518, 5.391406E-06, 0.02719648, -0.0264743, 0.4000057
 14001064, -0.0005736143, -0.003622, -2.259496E-07, 0.02676249, -0.02700545, 0.4000059, -0.009819177, -1.401417E-05, -2.405156E-06, 0.02656488, -0.02693265, 0.4000057
 14101024, 0.009157542, 0.02048822, 2.712006E-06, 0.02698724, -0.02651418, 0.400006, -0.0005736143, -0.003622, -2.259496E-07, 0.02676249, -0.02700545, 0.4000059
 14200984, 0.02297247, 0.02553116, 6.23427E-06, 0.02733688, -0.02642275, 0.4000062, 0.009157542, 0.02048822, 2.712006E-06, 0.02698724, -0.02651418, 0.400006
 14300944, -0.001737417, -0.02532324, -1.108975E-06, 0.02674787, -0.02753166, 0.4000059, 0.02297247, 0.02553116, 6.23427E-06, 0.02733688, -0.02642275, 0.4000062
 14400904, 0.002669956, -0.005285874, 4.963198E-07, 0.02684756, -0.02703108, 0.4000058, -0.001737417, -0.02532324, -1.108975E-06, 0.02674787, -0.02753166, 0.4000059
 14500864, 0.01359329, -0.004820677, 3.040696E-06, 0.02711475, -0.02701154, 0.4000058, 0.002669956, -0.005285874, 4.963198E-07, 0.02684756, -0.02703108, 0.4000058
 14600824, -0.01813792, -0.02356437, -3.8486E-06, 0.02644637, -0.02746524, 0.4000055, 0.01359329, -0.004820677, 3.040696E-06, 0.02711475, -0.02701154, 0.4000058
 14700784, -0.01838959, -0.02538218, -4.043487E-06, 0.0264445, -0.02751342, 0.4000053, -0.01813792, -0.02356437, -3.8486E-06, 0.02644637, -0.02746524, 0.4000055
 14801577, -0.02163294, 0.001882924, -4.542652E-06, 0.02639007, -0.02685368, 0.3921621, -0.01838959, -0.02538218, -4.043487E-06, 0.0264445, -0.02751342, 0.4000053
 14901537, 0.01973706, 0.02147442, 4.896299E-06, 0.02728016, -0.02647042, 0.4000058, -0.02163294, 0.001882924, -4.542652E-06, 0.02639007, -0.02685368, 0.3921621
 15006495, -0.0249721, -0.01005054, -6.432404E-06, 0.0263203, -0.02712326, 0.4000059, 0.01973706, 0.02147442, 4.896299E-06, 0.02728016, -0.02647042, 0.4000058
 15106455, -0.02238046, 0.02370832, -4.89326E-06, 0.02637198, -0.02642676, 0.4000058, -0.0249721, -0.01005054, -6.432404E-06, 0.0263203, -0.02712326, 0.4000059
 15206415, 0.02529376, -0.01805931, 5.462623E-06, 0.02743494, -0.02731174, 0.4000058, -0.02238046, 0.02370832, -4.89326E-06, 0.02637198, -0.02642676, 0.4000058
 15306375, 0.01361557, -0.01013252, 2.524793E-06, 0.02713718, -0.02712906, 0.4000047, 0.02529376, -0.01805931, 5.462623E-06, 0.02743494, -0.02731174, 0.4000058
 15406335, -0.01310544, 0.01429016, -1.666139E-06, 0.0265544, -0.02661862, 0.4000036, 0.01361557, -0.01013252, 2.524793E-06, 0.02713718, -0.02712906, 0.4000047
 15506295, 0.01145182, -0.01709536, 8.689074E-07, 0.02707699, -0.02732488, 0.4000035, -0.01310544, 0.01429016, -1.666139E-06, 0.0265544, -0.02661862, 0.4000036
 15606255, -0.005804022, 0.01688921, 8.570794E-07, 0.02667977, -0.02659333, 0.4000034, 0.01145182, -0.01709536, 8.689074E-07, 0.02707699, -0.02732488, 0.4000035
 15706215, 0.01442372, 0.01073591, 5.431038E-06, 0.02714009, -0.02670969, 0.4000036, -0.005804022, 0.01688921, 8.570794E-07, 0.02667977, -0.02659333, 0.4000034
 15806175, 0.006841727, -0.01482459, -2.499495E-07, 0.02695878, -0.02727794, 0.4000034, 0.01442372, 0.01073591, 5.431038E-06, 0.02714009, -0.02670969, 0.4000036
 15906135, -0.02383709, 0.00853207, -5.889848E-06, 0.02633132, -0.02674779, 0.4000042, 0.006841727, -0.01482459, -2.499495E-07, 0.02695878, -0.02727794, 0.4000034
 16006095, 0.02027179, 0.001115057, 6.561351E-06, 0.02727118, -0.02689799, 0.4000054, -0.02383709, 0.00853207, -5.889848E-06, 0.02633132, -0.02674779, 0.4000042
 16106055, -0.02026353, 0.01385863, -4.702915E-06, 0.02639314, -0.02662859, 0.4000053, 0.02027179, 0.001115057, 6.561351E-06, 0.02727118, -0.02689799, 0.4000054
 16206015, -0.003640554, -0.01111857, -1.837088E-06, 0.02672495, -0.02715766, 0.4000055, -0.02026353, 0.01385863, -4.702915E-06, 0.02639314, -0.02662859, 0.4000053
 16305975, 0.02325859, 0.0002895218, 6.403036E-06, 0.02736845, -0.02689307, 0.4000057, -0.003640554, -0.01111857, -1.837088E-06, 0.02672495, -0.02715766, 0.4000055
 16405935, -0.02029306, -0.007883386, -5.968141E-06, 0.02640608, -0.02707501, 0.4000054, 0.02325859, 0.0002895218, 6.403036E-06, 0.02736845, -0.02689307, 0.4000057
 16505895, 0.01187849, -0.02537752, 1.331147E-06, 0.02708651, -0.02751786, 0.4000052, -0.02029306, -0.007883386, -5.968141E-06, 0.02640608, -0.02707501, 0.4000054
 16605855, -0.02307257, 0.009054812, -5.11304E-06, 0.02636567, -0.02671125, 0.4000046, 0.01187849, -0.02537752, 1.331147E-06, 0.02708651, -0.02751786, 0.4000052
 16705815, -0.02111893, -0.01272632, -6.031101E-06, 0.02640106, -0.02718795, 0.400005, -0.02307257, 0.009054812, -5.11304E-06, 0.02636567, -0.02671125, 0.4000046
 16805775, 0.01204433, 0.02235283, 3.961432E-06, 0.02709693, -0.02644789, 0.4000056, -0.02111893, -0.01272632, -6.031101E-06, 0.02640106, -0.02718795, 0.400005
 16906568, 0.001362505, -0.01468671, -6.475786E-07, 0.02686469, -0.02723664, 0.3921609, 0.01204433, 0.02235283, 3.961432E-06, 0.02709693, -0.02644789, 0.4000056
 17006528, 0.007853284, -0.001715744, 1.278285E-06, 0.02702471, -0.02694028, 0.4000026, 0.001362505, -0.01468671, -6.475786E-07, 0.02686469, -0.02723664, 0.3921609
 17111486, 0.01540959, 0.01665561, 4.965008E-06, 0.02718841, -0.02656622, 0.4000039, 0.007853284, -0.001715744, 1.278285E-06, 0.02702471, -0.02694028, 0.4000026
 17211446, 0.01149442, 0.007745063, 3.800357E-06, 0.02707526, -0.02673927, 0.4000051, 0.01540959, 0.01665561, 4.965008E-06, 0.02718841, -0.02656622, 0.4000039
 17311406, 0.008658331, -0.001225163, 2.188613E-06, 0.02701198, -0.02692148, 0.4000053, 0.01149442, 0.007745063, 3.800357E-06, 0.02707526, -0.02673927, 0.4000051
 17411366, -0.005887128, -0.021988, -2.547351E-06, 0.02669405, -0.02741564, 0.4000055, 0.008658331, -0.001225163, 2.188613E-06, 0.02701198, -0.02692148, 0.4000053
 17511326, -0.002047487, 0.01625185, 2.166244E-07, 0.02676954, -0.02655708, 0.4000059, -0.005887128, -0.021988, -2.547351E-06, 0.02669405, -0.02741564, 0.4000055
 17611286, 0.003873044, -0.007604728, 7.426497E-07, 0.02689485, -0.02705698, 0.4000064, -0.002047487, 0.01625185, 2.166244E-07, 0.02676954, -0.02655708, 0.4000059
 17711246, 0.004202652, 0.01246424, 1.781894E-06, 0.02690283, -0.02662852, 0.4000063, 0.003873044, -0.007604728, 7.426497E-07, 0.02689485, -0.02705698, 0.4000064
 17811206, 0.02455954, 0.0008988073, 6.945532E-06, 0.02740686, -0.02686621, 0.4000064, 0.004202652, 0.01246424, 1.781894E-06, 0.02690283, -0.02662852, 0.4000063
 17911166, 0.01291328, -0.002757784, 3.268859E-06, 0.02711575, -0.02694712, 0.4000058, 0.02455954, 0.0008988073, 6.945532E-06, 0.02740686, -0.02686621, 0.4000064
 18011126, -0.009592433, -0.01288096, -3.052952E-06, 0.02662343, -0.02718438, 0.4000051, 0.01291328, -0.002757784, 3.268859E-06, 0.02711575, -0.02694712, 0.4000058
 18111086, -0.0205245, 0.01998069, -3.852886E-06, 0.02642014, -0.02648982, 0.4000049, -0.009592433, -0.01288096, -3.052952E-06, 0.02662343, -0.02718438, 0.4000051
 18211046, 0.01927208, -0.02466706, 3.110593E-06, 0.02728769, -0.02748765, 0.4000048, -0.0205245, 0.01998069, -3.852886E-06, 0.02642014, -0.02648982, 0.4000049
 18311006, 0.02056787, 0.01825983, 6.31217E-06, 0.02731859, -0.02652783, 0.4000047, 0.01927208, -0.02466706, 3.110593E-06, 0.02728769, -0.02748765, 0.4000048
 18410966, 0.01143099, -0.01883045, 1.203059E-06, 0.02708696, -0.02734631, 0.4000044, 0.02056787, 0.01825983, 6.31217E-06, 0.02731859, -0.02652783, 0.4000047
 18510926, 0.02320119, -0.007079407, 5.257151E-06, 0.02738576, -0.02705067, 0.400005, 0.01143099, -0.01883045, 1.203059E-06, 0.02708696, -0.02734631, 0.4000044
 18610886, -0.01531119, 0.008329378, -3.354286E-06, 0.02651455, -0.02670811, 0.4000052, 0.02320119, -0.007079407, 5.257151E-06, 0.02738576, -0.02705067, 0.400005
 18710846, 0.01781365, -0.009185648, 3.681969E-06, 0.02724882, -0.02709939, 0.4000048, -0.01531119, 0.008329378, -3.354286E-06, 0.02651455, -0.02670811, 0.4000052
 18810806, 0.01489503, 0.02147396, 5.294106E-06, 0.0271775, -0.0264736, 0.4000042, 0.01781365, -0.009185648, 3.681969E-06, 0.02724882, -0.02709939, 0.4000048
 18910766, -0.003172656, 0.006922877, -7.221723E-08, 0.02676343, -0.02675558, 0.4000036, 0.01489503, 0.02147396, 5.294106E-06, 0.0271775, -0.0264736, 0.4000042
 19011559, -0.004162576, -0.02337673, -3.410293E-06, 0.02674659, -0.027471, 0.39216, -0.003172656, 0.006922877, -7.221723E-08, 0.02676343, -0.02675558, 0.4000036
 19111519, -0.002743853, -0.01147084, -1.620754E-06, 0.02677788, -0.02716364, 0.4000034, -0.004162576, -0.02337673, -3.410293E-06, 0.02674659, -0.027471, 0.39216
 19216477, 0.006816082, -0.009174152, 7.667953E-07, 0.02699287, -0.02710249, 0.4000037, -0.002743853, -0.01147084, -1.620754E-06, 0.02677788, -0.02716364, 0.4000034
 19316437, -0.0103493, -0.0180122, -3.661499E-06, 0.0266164, -0.02731838, 0.4000042, 0.006816082, -0.009174152, 7.667953E-07, 0.02699287, -0.02710249, 0.4000037
 19416397, 0.02314089, 0.02456712, 7.517457E-06, 0.02738464, -0.02641602, 0.4000049, -0.0103493, -0.0180122, -3.661499E-06, 0.0266164, -0.02731838, 0.4000042
 19516357, 0.003642739, 0.01784384, 3.040463E-06, 0.02690649, -0.02655361, 0.4000035, 0.02314089, 0.02456712, 7.517457E-06, 0.02738464, -0.02641602, 0.4000049
 19616317, 0.00643874, -0.005132856, 7.461055E-07, 0.02697105, -0.02704341, 0.4000022, 0.003642739, 0.01784384, 3.040463E-06, 0.02690649, -0.02655361, 0.4000035
 19716277, -0.02075062, 0.01021524, -3.265137E-06, 0.02642017, -0.02671226, 0.4000021, 0.00643874, -0.005132856, 7.461055E-07, 0.02697105, -0.02704341, 0.4000022
 19816237, 0.02209179, -0.007522332, 3.869344E-06, 0.0273656, -0.0270915, 0.4000023, -0.02075062, 0.01021524, -3.265137E-06, 0.02642017, -0.02671226, 0.4000021
 19916197, 0.02495376, -0.0006183094, 6.022767E-06, 0.0274331, -0.02692978, 0.4000033, 0.02209179, -0.007522332, 3.869344E-06, 0.0273656, -0.0270915, 0.4000023
 20016157, 0.02157308, 0.007393204, 6.574938E-06, 0.02733539, -0.02675544, 0.4000041, 0.02495376, -0.0006183094, 6.022767E-06, 0.0274331, -0.02692978, 0.4000033
 20116117, -0.01786086, 0.01893328, -2.784609E-06, 0.02645346, -0.02653277, 0.4000043, 0.02157308, 0.007393204, 6.574938E-06, 0.02733539, -0.02675544, 0.4000041
 20216077, -0.02600982, 0.01824388, -5.455116E-06, 0.02630653, -0.02654431, 0.4000046, -0.01786086, 0.01893328, -2.784609E-06, 0.02645346, -0.02653277, 0.4000043
 20316037, -0.00402035, 0.02567822, 1.581718E-06, 0.02672462, -0.0264114, 0.4000047, -0.02600982, 0.01824388, -5.455116E-06, 0.02630653, -0.02654431, 0.4000046
 20415997, 0.0253828, 0.01277066, 8.259572E-06, 0.0274324, -0.0266412, 0.4000049, -0.00402035, 0.02567822, 1.581718E-06, 0.02672462, -0.0264114, 0.4000047
 20515957, 0.02354918, 0.0001279544, 6.837991E-06, 0.02737768, -0.02689985, 0.4000054, 0.0253828, 0.01277066, 8.259572E-06, 0.0274324, -0.0266412, 0.4000049
 20615917, 0.00928718, -0.02100362, 9.013941E-07, 0.0270142, -0.0274039, 0.4000057, 0.02354918, 0.0001279544, 6.837991E-06, 0.02737768, -0.02689985, 0.4000054
 20715877, -0.0107706, 0.006906523, -2.71206E-06, 0.0265805, -0.02674731, 0.400006, 0.00928718, -0.02100362, 9.013941E-07, 0.0270142, -0.0274039, 0.4000057
 20815837, 0.01436222, -0.01253117, 3.613215E-06, 0.02713828, -0.02717605, 0.4000067, -0.0107706, 0.006906523, -2.71206E-06, 0.0265805, -0.02674731, 0.400006
 20915797, 0.02059472, 0.007199591, 7.673181E-06, 0.0272743, -0.02672961, 0.4000085, 0.01436222, -0.01253117, 3.613215E-06, 0.02713828, -0.02717605, 0.4000067
 21016590, 0.02080414, -0.02064079, 7.675797E-06, 0.02726326, -0.02737183, 0.392167, 0.02059472, 0.007199591, 7.673181E-06, 0.0272743, -0.02672961, 0.4000085
 21116550, -0.007375695, -0.0190501, -3.998017E-06, 0.02660868, -0.02733702, 0.4000092, 0.02080414, -0.02064079, 7.675797E-06, 0.02726326, -0.02737183, 0.392167
 21216510, 0.00849561, 0.02214783, 4.90768E-06, 0.02695975, -0.02645491, 0.4000089, -0.007375695, -0.0190501, -3.998017E-06, 0.02660868, -0.02733702, 0.4000092
 21321468, 0.001571584, 0.01494928, 1.699306E-06, 0.02680917, -0.02658733, 0.4000082, 0.00849561, 0.02214783, 4.90768E-06, 0.02695975, -0.02645491, 0.4000089
 21421428, -2.837302E-05, 0.01254582, 8.915349E-07, 0.02677908, -0.02663232, 0.4000078, 0.001571584, 0.01494928, 1.699306E-06, 0.02680917, -0.02658733, 0.4000082
 21521388, -0.01982475, 0.0110743, -7.207062E-06, 0.026379, -0.02664564, 0.4000092, -2.837302E-05, 0.01254582, 8.915349E-07, 0.02677908, -0.02663232, 0.4000078
 21621348, 0.01163452, 0.01296433, 3.876047E-06, 0.02703648, -0.02659619, 0.4000106, -0.01982475, 0.0110743, -7.207062E-06, 0.026379, -0.02664564, 0.4000092
 21721308, -0.01326237, -0.009024751, -5.1573E-06, 0.02650389, -0.02707325, 0.4000095, 0.01163452, 0.01296433, 3.876047E-06, 0.02703648, -0.02659619, 0.4000106
 21821268, -0.005962929, -0.001043679, -2.204549E-06, 0.02665502, -0.02689676, 0.4000088, -0.01326237, -0.009024751, -5.1573E-06, 0.02650389, -0.02707325, 0.4000095
 21921228, 0.002803743, -0.002835106, 9.034281E-07, 0.02683827, -0.02694546, 0.4000086, -0.005962929, -0.001043679, -2.204549E-06, 0.02665502, -0.02689676, 0.4000088
 22021188, -0.01137221, 0.0161475, -3.220369E-06, 0.02653609, -0.02656348, 0.4000083, 0.002803743, -0.002835106, 9.034281E-07, 0.02683827, -0.02694546, 0.4000086
 22121148, -0.00729136, -0.01701121, -4.089085E-06, 0.02662184, -0.02729197, 0.400008, -0.01137221, 0.0161475, -3.220369E-06, 0.02653609, -0.02656348, 0.4000083
 22221108, 0.004704942, -0.004169501, 1.411056E-06, 0.0268846, -0.026985, 0.4000078, -0.00729136, -0.01701121, -4.089085E-06, 0.02662184, -0.02729197, 0.400008
 22321068, -0.01142717, -0.02441774, -6.108263E-06, 0.02654774, -0.02748382, 0.4000074, 0.004704942, -0.004169501, 1.411056E-06, 0.0268846, -0.026985, 0.4000078
 22421028, 0.01647995, 0.009096173, 6.704805E-06, 0.02717533, -0.02669934, 0.4000075, -0.01142717, -0.02441774, -6.108263E-06, 0.02654774, -0.02748382, 0.4000074
 22520988, -0.002770393, -0.004800137, -1.590399E-06, 0.02672123, -0.02700476, 0.4000073, 0.01647995, 0.009096173, 6.704805E-06, 0.02717533, -0.02669934, 0.4000075
 22620948, -0.01888563, -0.02582989, -1.195003E-05, 0.02639682, -0.02753621, 0.4000071, -0.002770393, -0.004800137, -1.590399E-06, 0.02672123, -0.02700476, 0.4000073
 22720908, 0.00804094, 0.01685292, 6.158093E-06, 0.02694897, -0.02657274, 0.4000074, -0.01888563, -0.02582989, -1.195003E-05, 0.02639682, -0.02753621, 0.4000071
 22820868, 0.0152477, -0.01311606, 4.517434E-06, 0.02711587, -0.0272242, 0.4000073, 0.00804094, 0.01685292, 6.158093E-06, 0.02694897, -0.02657274, 0.4000074
 22920828, -0.02248765, -0.02007841, -1.492219E-05, 0.02631092, -0.027406, 0.400007, 0.0152477, -0.01311606, 4.517434E-06, 0.02711587, -0.0272242, 0.4000073
 23020788, -0.02202117, 0.02489547, -5.381186E-06, 0.02631103, -0.0264518, 0.4000072, -0.02248765, -0.02007841, -1.492219E-05, 0.02631092, -0.027406, 0.400007
 23121581, 0.005818703, -0.01421605, -5.437919E-07, 0.02687248, -0.02727038, 0.3921641, -0.02202117, 0.02489547, -5.381186E-06, 0.02631103, -0.0264518, 0.4000072
 23221541, -0.02455383, 0.01018326, -1.059651E-05, 0.02625455, -0.02673661, 0.400007, 0.005818703, -0.01421605, -5.437919E-07, 0.02687248, -0.02727038, 0.3921641
 23321501, 0.01517919, -0.0010515, 8.308722E-06, 0.02707939, -0.02697874, 0.4000074, -0.02455383, 0.01018326, -1.059651E-05, 0.02625455, -0.02673661, 0.400007
 23426459, 0.01804161, -0.01874227, 4.600094E-06, 0.02714451, -0.02740797, 0.4000072, 0.01517919, -0.0010515, 8.308722E-06, 0.02707939, -0.02697874, 0.4000074
 23526419, -0.007581661, -0.0101769, -8.168425E-06, 0.02655115, -0.02720319, 0.4000069, 0.01804161, -0.01874227, 4.600094E-06, 0.02714451, -0.02740797, 0.4000072
 23626379, -0.003903705, 0.00306148, -1.345114E-06, 0.0266204, -0.02691182, 0.400007, -0.007581661, -0.0101769, -8.168425E-06, 0.02655115, -0.02720319, 0.4000069
 23726339, -0.005957759, 0.01617574, 2.471629E-06, 0.02657086, -0.02665833, 0.400007, -0.003903705, 0.00306148, -1.345114E-06, 0.0266204, -0.02691182, 0.400007
 23826299, -0.006177646, -0.01918943, -1.223978E-05, 0.02655987, -0.02745009, 0.4000066, -0.005957759, 0.01617574, 2.471629E-06, 0.02657086, -0.02665833, 0.400007
 23926259, -0.01020317, 0.02596574, 4.431209E-06, 0.02647139, -0.02650205, 0.4000068, -0.006177646, -0.01918943, -1.223978E-05, 0.02655987, -0.02745009, 0.4000066
 24026219, -0.02410818, -0.009526939, -2.182688E-05, 0.02620885, -0.02722747, 0.4000061, -0.01020317, 0.02596574, 4.431209E-06, 0.02647139, -0.02650205, 0.4000068
 24126179, -0.01387277, 0.006762407, -6.883115E-06, 0.02638904, -0.02687383, 0.4000063, -0.02410818, -0.009526939, -2.182688E-05, 0.02620885, -0.02722747, 0.4000061
 24226139, -0.004524048, 0.01435464, 3.948502E-06, 0.02657142, -0.02673038, 0.4000064, -0.01387277, 0.006762407, -6.883115E-06, 0.02638904, -0.02687383, 0.4000063
 24326099, 0.01817208, 0.01949356, 2.43558E-05, 0.02709321, -0.02664087, 0.4000069, -0.004524048, 0.01435464, 3.948502E-06, 0.02657142, -0.02673038, 0.4000064
 24426059, 0.01505879, -0.01366448, 4.364242E-06, 0.02700866, -0.02735269, 0.4000064, 0.01817208, 0.01949356, 2.43558E-05, 0.02709321, -0.02664087, 0.4000069
 24526019, 0.01035636, -0.003816327, 6.224035E-06, 0.02688745, -0.02712518, 0.4000066, 0.01505879, -0.01366448, 4.364242E-06, 0.02700866, -0.02735269, 0.4000064
 24625979, -0.0002645834, 0.0004187551, 2.514442E-08, 0.02663829, -0.02703639, 0.4000065, 0.01035636, -0.003816327, 6.224035E-06, 0.02688745, -0.02712518, 0.4000066
 24725939, 0.01794747, 0.005992674, 1.884186E-05, 0.0270631, -0.02692419, 0.4000069, -0.0002645834, 0.0004187551, 2.514442E-08, 0.02663829, -0.02703639, 0.4000065
 24825899, 0.02539659, 0.0181251, 3.331813E-05, 0.02725276, -0.026694, 0.4000072, 0.01794747, 0.005992674, 1.884186E-05, 0.0270631, -0.02692419, 0.4000069
 24925859, 0.01238342, 0.01563463, 2.105079E-05, 0.02691179, -0.02674618, 0.4000069, 0.02539659, 0.0181251, 3.331813E-05, 0.02725276, -0.026694, 0.4000072
 25025819, -0.01952928, 0.01149122, -1.015017E-05, 0.02623009, -0.02683183, 0.4000063, 0.01238342, 0.01563463, 2.105079E-05, 0.02691179, -0.02674618, 0.4000069
 25125779, 0.004385495, -0.002645668, 2.258027E-06, 0.02671189, -0.0271342, 0.4000065, -0.01952928, 0.01149122, -1.015017E-05, 0.02623009, -0.02683183, 0.4000063
 25226572, -0.002935832, -7.735575E-05, -2.821042E-06, 0.02655297, -0.02707768, 0.3921632, 0.004385495, -0.002645668, 2.258027E-06, 0.02671189, -0.0271342, 0.4000065
 25326532, 0.0147665, 0.02362195, 3.106159E-05, 0.02694762, -0.02662471, 0.4000072, -0.002935832, -7.735575E-05, -2.821042E-06, 0.02655297, -0.02707768, 0.3921632
 25431490, 0.0256258, 0.01148196, 3.274277E-05, 0.02721453, -0.02685825, 0.4081707, 0.0147665, 0.02362195, 3.106159E-05, 0.02694762, -0.02662471, 0.4000072
 25531450, -0.02452555, -0.02112332, -4.026513E-05, 0.02611578, -0.0276019, 0.4000057, 0.0256258, 0.01148196, 3.274277E-05, 0.02721453, -0.02685825, 0.4081707
 25631410, 0.001539655, -0.01386433, -9.050616E-06, 0.02662024, -0.02742407, 0.4000063, -0.02452555, -0.02112332, -4.026513E-05, 0.02611578, -0.0276019, 0.4000057
 25731370, 0.004173025, -0.002108739, 2.650402E-06, 0.02667447, -0.02715325, 0.4000066, 0.001539655, -0.01386433, -9.050616E-06, 0.02662024, -0.02742407, 0.4000063
 25831330, -0.02243316, 0.02307789, -5.053344E-06, 0.02613604, -0.0266608, 0.4000064, 0.004173025, -0.002108739, 2.650402E-06, 0.02667447, -0.02715325, 0.4000066
 25931290, -0.01039056, 0.02047144, 5.604667E-06, 0.02635516, -0.02671091, 0.4000067, -0.02243316, 0.02307789, -5.053344E-06, 0.02613604, -0.0266608, 0.4000064
 26031250, -0.00308047, 0.02592462, 1.819096E-05, 0.02650006, -0.02662218, 0.4000069, -0.01039056, 0.02047144, 5.604667E-06, 0.02635516, -0.02671091, 0.4000067
 26131210, -0.0174111, -0.008500434, -2.629283E-05, 0.02621098, -0.02732147, 0.4000058, -0.00308047, 0.02592462, 1.819096E-05, 0.02650006, -0.02662218, 0.4000069
 26231170, -0.009697579, -0.0105551, -1.996398E-05, 0.02635379, -0.02737722, 0.4000058, -0.0174111, -0.008500434, -2.629283E-05, 0.02621098, -0.02732147, 0.4000058
 26331130, -0.01612932, 0.01025591, -9.026639E-06, 0.02622547, -0.02692731, 0.400006, -0.009697579, -0.0105551, -1.996398E-05, 0.02635379, -0.02737722, 0.4000058
 26431090, 0.0109598, 0.01003096, 2.152919E-05, 0.02679995, -0.0269366, 0.4000065, -0.01612932, 0.01025591, -9.026639E-06, 0.02622547, -0.02692731, 0.400006
 26531050, 0.001657664, 0.002035993, 3.771309E-06, 0.02658125, -0.02710561, 0.4000061, 0.0109598, 0.01003096, 2.152919E-05, 0.02679995, -0.0269366, 0.4000065
 26631010, 0.01867852, 0.01699663, 3.753563E-05, 0.02698396, -0.0268107, 0.4000069, 0.001657664, 0.002035993, 3.771309E-06, 0.02658125, -0.02710561, 0.4000061
 26730970, 0.00661571, -0.01771147, -8.886127E-06, 0.02668298, -0.02757641, 0.400006, 0.01867852, 0.01699663, 3.753563E-05, 0.02698396, -0.0268107, 0.4000069
 26830930, 0.02137607, -0.004933801, 2.095432E-05, 0.02704067, -0.02727214, 0.4000068, 0.00661571, -0.01771147, -8.886127E-06, 0.02668298, -0.02757641, 0.400006
 26930890, 0.002033892, 0.02384968, 2.556859E-05, 0.0265683, -0.0267006, 0.4000069, 0.02137607, -0.004933801, 2.095432E-05, 0.02704067, -0.02727214, 0.4000068
 27030850, 0.01836768, -0.005162961, 1.755753E-05, 0.0269533, -0.02728443, 0.4000069, 0.002033892, 0.02384968, 2.556859E-05, 0.0265683, -0.0267006, 0.4000069
 27130810, -0.01404545, -0.02367582, -4.182414E-05, 0.02622716, -0.02774677, 0.4000055, 0.01836768, -0.005162961, 1.755753E-05, 0.0269533, -0.02728443, 0.4000069
 27230770, 0.02424033, -0.003483109, 2.699669E-05, 0.02709816, -0.02725546, 0.4000071, -0.01404545, -0.02367582, -4.182414E-05, 0.02622716, -0.02774677, 0.4000055
 27331563, -0.02232248, -0.01880435, -4.762313E-05, 0.02606819, -0.02762813, 0.4000054, 0.02424033, -0.003483109, 2.699669E-05, 0.02709816, -0.02725546, 0.4000071
 27431523, -0.005008442, 0.003256261, -3.052265E-06, 0.02639513, -0.0271167, 0.4000063, -0.02232248, -0.01880435, -4.762313E-05, 0.02606819, -0.02762813, 0.4000054
 27536481, 0.008075704, 0.002753191, 1.337031E-05, 0.02667057, -0.0271406, 0.4081699, -0.005008442, 0.003256261, -3.052265E-06, 0.02639513, -0.0271167, 0.4000063
 27636441, -0.01723497, 0.01822234, -3.162688E-06, 0.02614672, -0.02683068, 0.4000062, 0.008075704, 0.002753191, 1.337031E-05, 0.02667057, -0.0271406, 0.4081699
 27736401, 0.003453689, -0.004390593, -1.516296E-07, 0.02656636, -0.02729667, 0.4000063, -0.01723497, 0.01822234, -3.162688E-06, 0.02614672, -0.02683068, 0.4000062
 27836361, 0.01886859, 0.01520821, 4.166493E-05, 0.02693349, -0.02689226, 0.4000074, 0.003453689, -0.004390593, -1.516296E-07, 0.02656636, -0.02729667, 0.4000063
 27936321, -0.01129754, -0.01789282, -3.47924E-05, 0.02624721, -0.02762849, 0.4000057, 0.01886859, 0.01520821, 4.166493E-05, 0.02693349, -0.02689226, 0.4000074
 28036281, 0.02418482, -0.01138603, 1.947816E-05, 0.02706379, -0.02747175, 0.4000069, -0.01129754, -0.01789282, -3.47924E-05, 0.02624721, -0.02762849, 0.4000057
 28136241, -0.00421882, 0.004397385, -8.473094E-07, 0.0263832, -0.02712039, 0.4000063, 0.02418482, -0.01138603, 1.947816E-05, 0.02706379, -0.02747175, 0.4000069
 28236201, -0.009227438, -0.02203799, -3.762084E-05, 0.02627749, -0.02774838, 0.4000054, -0.00421882, 0.004397385, -8.473094E-07, 0.0263832, -0.02712039, 0.4000063
 28336161, -0.01787823, -0.003347993, -2.859212E-05, 0.02610844, -0.02729522, 0.4000058, -0.009227438, -0.02203799, -3.762084E-05, 0.02627749, -0.02774838, 0.4000054
 28436121, 0.02505171, -0.01663368, 1.583332E-05, 0.02707419, -0.02761616, 0.4000067, -0.01787823, -0.003347993, -2.859212E-05, 0.02610844, -0.02729522, 0.4000058
 28536081, 0.02072123, -0.01024113, 1.718666E-05, 0.02695575, -0.02746606, 0.4000065, 0.02505171, -0.01663368, 1.583332E-05, 0.02707419, -0.02761616, 0.4000067
 28636041, -0.009965134, 0.02041625, 1.003601E-05, 0.02624771, -0.02683331, 0.4000061, 0.02072123, -0.01024113, 1.718666E-05, 0.02695575, -0.02746606, 0.4000065
 28736001, 0.004717559, 0.008965128, 1.748297E-05, 0.02655593, -0.02705412, 0.4000064, -0.009965134, 0.02041625, 1.003601E-05, 0.02624771, -0.02683331, 0.4000061
 28835961, -0.01080519, -0.01890581, -3.842518E-05, 0.02622219, -0.02769454, 0.4000052, 0.004717559, 0.008965128, 1.748297E-05, 0.02655593, -0.02705412, 0.4000064
 28935921, 0.0200533, 0.001075375, 2.96603E-05, 0.02692239, -0.02722514, 0.4000067, -0.01080519, -0.01890581, -3.842518E-05, 0.02622219, -0.02769454, 0.4000052
 29035881, -0.01459874, -0.007340597, -3.031173E-05, 0.0261434, -0.02741798, 0.4000053, 0.0200533, 0.001075375, 2.96603E-05, 0.02692239, -0.02722514, 0.4000067
 29135841, 0.02352955, 0.006580774, 4.272121E-05, 0.02700772, -0.02711732, 0.4000068, -0.01459874, -0.007340597, -3.031173E-05, 0.0261434, -0.02741798, 0.4000053
 29235801, -0.006052627, 0.01227943, 6.417741E-06, 0.02630614, -0.02700854, 0.4000058, 0.02352955, 0.006580774, 4.272121E-05, 0.02700772, -0.02711732, 0.4000068
 29335761, -0.01233594, 0.002323622, -1.543951E-05, 0.02617639, -0.02721528, 0.4000054, -0.006052627, 0.01227943, 6.417741E-06, 0.02630614, -0.02700854, 0.4000058
 29436554, -0.009362674, -0.009871935, -2.66046E-05, 0.0262316, -0.02749499, 0.4000051, -0.01233594, 0.002323622, -1.543951E-05, 0.02617639, -0.02721528, 0.4000054
 29536514, -0.01845874, -0.003113527, -3.183816E-05, 0.02605484, -0.02734308, 0.4000049, -0.009362674, -0.009871935, -2.66046E-05, 0.0262316, -0.02749499, 0.4000051
 29641472, 0.01877252, -0.01631528, 7.3273E-06, 0.02685382, -0.02767216, 0.4081689, -0.01845874, -0.003113527, -3.183816E-05, 0.02605484, -0.02734308, 0.4000049
 29741432, -0.01120277, 0.01078438, -3.042068E-06, 0.02618541, -0.02705638, 0.4000055, 0.01877252, -0.01631528, 7.3273E-06, 0.02685382, -0.02767216, 0.4081689
 29841392, -0.001930497, -0.01529077, -2.303326E-05, 0.02637277, -0.02764105, 0.4000051, -0.01120277, 0.01078438, -3.042068E-06, 0.02618541, -0.02705638, 0.4000055
 29941352, -0.02335139, -0.001604452, -3.819515E-05, 0.0259553, -0.02732317, 0.4000047, -0.001930497, -0.01529077, -2.303326E-05, 0.02637277, -0.02764105, 0.4000051
 30041312, 0.009823469, -0.0001882842, 1.499152E-05, 0.02663326, -0.02729662, 0.4000056, -0.02335139, -0.001604452, -3.819515E-05, 0.0259553, -0.02732317, 0.4000047
 30141272, -0.01140033, -0.02011286, -4.483877E-05, 0.02617184, -0.02777597, 0.4000041, 0.009823469, -0.0001882842, 1.499152E-05, 0.02663326, -0.02729662, 0.4000056
 30241232, -0.01182696, 0.005844112, -1.053803E-05, 0.0261611, -0.02717566, 0.4000048, -0.01140033, -0.02011286, -4.483877E-05, 0.02617184, -0.02777597, 0.4000041
 30341192, 0.01483536, -0.01890615, -2.566567E-06, 0.02674915, -0.02775253, 0.4000049, -0.01182696, 0.005844112, -1.053803E-05, 0.0261611, -0.02717566, 0.4000048
 30441152, 0.02446347, -0.01264636, 2.116937E-05, 0.02699437, -0.02759974, 0.4000054, 0.01483536, -0.01890615, -2.566567E-06, 0.02674915, -0.02775253, 0.4000049
 30541112, 0.01891757, -0.02119959, 5.00253E-07, 0.02684597, -0.02782111, 0.4000047, 0.02446347, -0.01264636, 2.116937E-05, 0.02699437, -0.02759974, 0.4000054
 30641072, -0.00902838, -0.004673592, -2.095891E-05, 0.02620519, -0.02742154, 0.4000041, 0.01891757, -0.02119959, 5.00253E-07, 0.02684597, -0.02782111, 0.4000047
 30741032, 0.00301327, 0.02355785, 3.812587E-05, 0.02645986, -0.02686079, 0.4000053, -0.00902838, -0.004673592, -2.095891E-05, 0.02620519, -0.02742154, 0.4000041
 30840992, 0.01222168, -0.005169452, 1.225894E-05, 0.02667272, -0.02743945, 0.4000047, 0.00301327, 0.02355785, 3.812587E-05, 0.02645986, -0.02686079, 0.4000053
 30940952, 0.0062453, 0.01626451, 3.338097E-05, 0.02652873, -0.02699827, 0.400005, 0.01222168, -0.005169452, 1.225894E-05, 0.02667272, -0.02743945, 0.4000047
 31040912, 0.01660829, -0.00172595, 2.442538E-05, 0.02677572, -0.0273687, 0.4000049, 0.0062453, 0.01626451, 3.338097E-05, 0.02652873, -0.02699827, 0.400005
 31140872, -0.02400712, -0.01555277, -6.162694E-05, 0.02591581, -0.02769676, 0.400003, 0.01660829, -0.00172595, 2.442538E-05, 0.02677572, -0.0273687, 0.4000049
 31240832, -0.00171117, -0.007801242, -1.417918E-05, 0.02634291, -0.02751326, 0.4000039, -0.02400712, -0.01555277, -6.162694E-05, 0.02591581, -0.02769676, 0.400003
 31340792, 0.0235449, -0.004667085, 3.183251E-05, 0.02694691, -0.02744539, 0.4000049, -0.00171117, -0.007801242, -1.417918E-05, 0.02634291, -0.02751326, 0.4000039
 31441585, -0.0005571907, -0.009308961, -1.470652E-05, 0.02636192, -0.02755696, 0.4000037, 0.0235449, -0.004667085, 3.183251E-05, 0.02694691, -0.02744539, 0.4000049
 31541545, -0.02112943, 0.02096602, -3.967016E-06, 0.02595278, -0.0269322, 0.4000041, -0.0005571907, -0.009308961, -1.470652E-05, 0.02636192, -0.02755696, 0.4000037
 31641505, -0.02086297, 0.00151702, -3.261868E-05, 0.02595405, -0.0273151, 0.4000036, -0.02112943, 0.02096602, -3.967016E-06, 0.02595278, -0.0269322, 0.4000041
 31746463, -0.007141851, 0.01606444, 1.206497E-05, 0.02621156, -0.02702588, 0.4000046, -0.02086297, 0.00151702, -3.261868E-05, 0.02595405, -0.0273151, 0.4000036
 31846423, 0.02352361, 0.01584486, 6.369561E-05, 0.02692902, -0.02703176, 0.4000058, -0.007141851, 0.01606444, 1.206497E-05, 0.02621156, -0.02702588, 0.4000046
 31946383, 0.006798775, -0.01033423, -4.078088E-06, 0.02650951, -0.02759267, 0.4000043, 0.02352361, 0.01584486, 6.369561E-05, 0.02692902, -0.02703176, 0.4000058
 32046343, 0.005731104, -0.02038553, -2.120035E-05, 0.02648181, -0.02784577, 0.4000039, 0.006798775, -0.01033423, -4.078088E-06, 0.02650951, -0.02759267, 0.4000043
 32146303, -0.004094021, 0.01629931, 1.7891E-05, 0.02626142, -0.02703226, 0.4000049, 0.005731104, -0.02038553, -2.120035E-05, 0.02648181, -0.02784577, 0.4000039
 32246263, -0.01918751, -0.006409363, -4.30417E-05, 0.02596311, -0.02750862, 0.4000037, -0.004094021, 0.01629931, 1.7891E-05, 0.02626142, -0.02703226, 0.4000049
 32346223, 0.01348827, -0.01096269, 6.509283E-06, 0.02665564, -0.02761877, 0.4000047, -0.01918751, -0.006409363, -4.30417E-05, 0.02596311, -0.02750862, 0.4000037
 32446183, 0.0006895103, 0.01084905, 1.802798E-05, 0.0263556, -0.02714408, 0.4000049, 0.01348827, -0.01096269, 6.509283E-06, 0.02665564, -0.02761877, 0.4000047
 32546143, -0.02173916, 0.02295773, -2.271547E-06, 0.02591029, -0.0269229, 0.4000044, 0.0006895103, 0.01084905, 1.802798E-05, 0.0263556, -0.02714408, 0.4000049
 32646103, 0.008316765, -0.0001895125, 1.429615E-05, 0.02652562, -0.02737852, 0.4000047, -0.02173916, 0.02295773, -2.271547E-06, 0.02591029, -0.0269229, 0.4000044
 32746063, -0.002650115, 0.01821536, 2.319226E-05, 0.02627722, -0.02701172, 0.4000049, 0.008316765, -0.0001895125, 1.429615E-05, 0.02652562, -0.02737852, 0.4000047
 32846023, -0.02051364, 0.02389142, 1.355322E-06, 0.02592502, -0.0269132, 0.4000046, -0.002650115, 0.01821536, 2.319226E-05, 0.02627722, -0.02701172, 0.4000049
 32945983, 0.02058585, 0.004859324, 4.412974E-05, 0.0268219, -0.02727462, 0.4000057, -0.02051364, 0.02389142, 1.355322E-06, 0.02592502, -0.0269132, 0.4000046
 33045943, 0.01346465, 0.01270847, 4.391861E-05, 0.0266403, -0.02711777, 0.4000057, 0.02058585, 0.004859324, 4.412974E-05, 0.0268219, -0.02727462, 0.4000057
 33145903, -0.01592433, -0.002963954, -3.297649E-05, 0.02600336, -0.02744666, 0.400004, 0.01346465, 0.01270847, 4.391861E-05, 0.0266403, -0.02711777, 0.4000057
 33245863, -0.0243167, -0.01399289, -6.537468E-05, 0.02585228, -0.0277073, 0.4000034, -0.01592433, -0.002963954, -3.297649E-05, 0.02600336, -0.02744666, 0.400004
 33345823, 0.005606548, 0.01841748, 3.909982E-05, 0.02644937, -0.02701507, 0.4000055, -0.0243167, -0.01399289, -6.537468E-05, 0.02585228, -0.0277073, 0.4000034
 33445783, -0.01625749, -0.02568868, -6.962298E-05, 0.02599432, -0.02801222, 0.4000031, 0.005606548, 0.01841748, 3.909982E-05, 0.02644937, -0.02701507, 0.4000055
 33546576, -0.0003523962, 0.01168742, 1.790618E-05, 0.02632782, -0.02713296, 0.3921619, -0.01625749, -0.02568868, -6.962298E-05, 0.02599432, -0.02801222, 0.4000031
 33646536, 0.01612115, 0.01042487, 4.530882E-05, 0.02669904, -0.02717163, 0.4000056, -0.0003523962, 0.01168742, 1.790618E-05, 0.02632782, -0.02713296, 0.3921619
 33751494, -0.009969769, -0.01247541, -3.841844E-05, 0.02611149, -0.02767892, 0.4000037, 0.01612115, 0.01042487, 4.530882E-05, 0.02669904, -0.02717163, 0.4000056
 33851454, 0.008397128, 0.008227904, 2.814861E-05, 0.02650781, -0.02721977, 0.4000051, -0.009969769, -0.01247541, -3.841844E-05, 0.02611149, -0.02767892, 0.4000037
 33951414, -0.003767426, -0.004259573, -1.357284E-05, 0.0262331, -0.02748968, 0.4000043, 0.008397128, 0.008227904, 2.814861E-05, 0.02650781, -0.02721977, 0.4000051
 34051374, 0.01793949, -0.007165032, 2.083664E-05, 0.02673521, -0.02755792, 0.4000052, -0.003767426, -0.004259573, -1.357284E-05, 0.0262331, -0.02748968, 0.4000043
 34151334, -0.01440739, 0.0201912, 6.353075E-06, 0.02601456, -0.02699701, 0.4000048, 0.01793949, -0.007165032, 2.083664E-05, 0.02673521, -0.02755792, 0.4000052
 34251294, -0.01228637, 0.002553063, -1.811827E-05, 0.02605353, -0.02734387, 0.4000044, -0.01440739, 0.0201912, 6.353075E-06, 0.02601456, -0.02699701, 0.4000048
 34351254, 0.0008314468, 0.01464899, 2.506922E-05, 0.02632471, -0.02710227, 0.4000051, -0.01228637, 0.002553063, -1.811827E-05, 0.02605353, -0.02734387, 0.4000044
 34451214, 0.006668874, -0.02258256, -2.432777E-05, 0.02645533, -0.02794757, 0.400004, 0.0008314468, 0.01464899, 2.506922E-05, 0.02632471, -0.02710227, 0.4000051
 34551174, 0.02310899, -0.01930078, 1.072301E-05, 0.02686197, -0.02786358, 0.4000049, 0.006668874, -0.02258256, -2.432777E-05, 0.02645533, -0.02794757, 0.400004
 34651134, -0.01739241, -0.01852121, -6.151437E-05, 0.02595305, -0.02784498, 0.4000032, 0.02310899, -0.01930078, 1.072301E-05, 0.02686197, -0.02786358, 0.4000049
 34751094, 0.0227495, -0.02464856, 1.27012E-06, 0.02684963, -0.02800955, 0.4000044, -0.01739241, -0.01852121, -6.151437E-05, 0.02595305, -0.02784498, 0.4000032
 34851054, -0.02240597, 0.0001894665, -4.04682E-05, 0.0258594, -0.02740858, 0.4000035, 0.0227495, -0.02464856, 1.27012E-06, 0.02684963, -0.02800955, 0.4000044
 34951014, 0.006016635, -0.002338374, 7.151947E-06, 0.02643182, -0.02746699, 0.4000045, -0.02240597, 0.0001894665, -4.04682E-05, 0.0258594, -0.02740858, 0.4000035
 35050974, -0.007557543, -0.002300649, -1.759351E-05, 0.02613506, -0.02746793, 0.400004, 0.006016635, -0.002338374, 7.151947E-06, 0.02643182, -0.02746699, 0.4000045
 35150934, 0.01100878, 0.01335414, 4.207677E-05, 0.02654597, -0.02714405, 0.4000052, -0.007557543, -0.002300649, -1.759351E-05, 0.02613506, -0.02746793, 0.400004
 35250894, -0.003863769, 0.01856956, 2.348321E-05, 0.02620836, -0.02704942, 0.4000048, 0.01100878, 0.01335414, 4.207677E-05, 0.02654597, -0.02714405, 0.4000052
 35350854, 0.01182538, -0.01263913, 8.287716E-07, 0.0265616, -0.02771685, 0.4000042, -0.003863769, 0.01856956, 2.348321E-05, 0.02620836, -0.02704942, 0.4000048
 35450814, -0.02229298, -0.01074111, -5.965804E-05, 0.02584988, -0.02767328, 0.4000028, 0.01182538, -0.01263913, 8.287716E-07, 0.0265616, -0.02771685, 0.4000042
 35550774, -0.02470082, -0.001847691, -4.865504E-05, 0.02580636, -0.02746961, 0.4000031, -0.02229298, -0.01074111, -5.965804E-05, 0.02584988, -0.02767328, 0.4000028
 35651567, -0.000998616, 0.01652842, 2.569851E-05, 0.02627617, -0.02708384, 0.3921615, -0.02470082, -0.001847691, -4.865504E-05, 0.02580636, -0.02746961, 0.4000031
 35751527, 0.006157892, -0.0104692, -6.055063E-06, 0.02641955, -0.02767204, 0.400004, -0.000998616, 0.01652842, 2.569851E-05, 0.02627617, -0.02708384, 0.3921615
 35856485, 0.005306559, 0.006514668, 2.076088E-05, 0.02639862, -0.02729699, 0.4000045, 0.006157892, -0.0104692, -6.055063E-06, 0.02641955, -0.02767204, 0.400004
 35956445, -0.01101336, -0.02527392, -6.303307E-05, 0.02605085, -0.02805543, 0.4000024, 0.005306559, 0.006514668, 2.076088E-05, 0.02639862, -0.02729699, 0.4000045
 36056405, -0.01675997, -0.0123501, -5.205206E-05, 0.02593935, -0.02772724, 0.4000026, -0.01101336, -0.02527392, -6.303307E-05, 0.02605085, -0.02805543, 0.4000024
 36156365, -0.02543822, -0.0254581, -9.055512E-05, 0.02578444, -0.02806443, 0.4000018, -0.01675997, -0.0123501, -5.205206E-05, 0.02593935, -0.02772724, 0.4000026
 36256325, 0.004002629, -0.0042187, -4.551104E-07, 0.02636191, -0.02754111, 0.4000037, -0.02543822, -0.0254581, -9.055512E-05, 0.02578444, -0.02806443, 0.4000018
 36356285, 0.0174541, -0.0009422408, 3.10705E-05, 0.02668298, -0.02747157, 0.4000043, 0.004002629, -0.0042187, -4.551104E-07, 0.02636191, -0.02754111, 0.4000037
 36456245, 0.006512324, -0.01768908, -1.813961E-05, 0.02641551, -0.02787232, 0.400003, 0.0174541, -0.0009422408, 3.10705E-05, 0.02668298, -0.02747157, 0.4000043
 36556205, 0.009833656, -0.02165568, -1.87921E-05, 0.02649069, -0.02797764, 0.400003, 0.006512324, -0.01768908, -1.813961E-05, 0.02641551, -0.02787232, 0.400003
 36656165, 0.001844315, 0.01377919, 2.728108E-05, 0.02630457, -0.02717728, 0.400004, 0.009833656, -0.02165568, -1.87921E-05, 0.02649069, -0.02797764, 0.400003
 36756125, -0.01052055, -0.01375739, -4.36894E-05, 0.026043, -0.02778005, 0.4000025, 0.001844315, 0.01377919, 2.728108E-05, 0.02630457, -0.02717728, 0.400004
 36856085, 0.02360324, 0.008296935, 5.915818E-05, 0.02683052, -0.02728674, 0.400005, -0.01052055, -0.01375739, -4.36894E-05, 0.026043, -0.02778005, 0.4000025
 36956045, -0.001092003, -0.02301641, -4.19369E-05, 0.02623179, -0.02801845, 0.4000028, 0.02360324, 0.008296935, 5.915818E-05, 0.02683052, -0.02728674, 0.400005
 37056005, -0.007175159, -0.01555184, -4.06958E-05, 0.02610107, -0.02782808, 0.4000029, -0.001092003, -0.02301641, -4.19369E-05, 0.02623179, -0.02801845, 0.4000028
 37155965, 0.01438853, 0.02106259, 6.421612E-05, 0.02658625, -0.02705015, 0.4000052, -0.007175159, -0.01555184, -4.06958E-05, 0.02610107, -0.02782808, 0.4000029
 37255925, -0.003407739, 0.01908134, 2.674451E-05, 0.02617543, -0.02708802, 0.4000043, 0.01438853, 0.02106259, 6.421612E-05, 0.02658625, -0.02705015, 0.4000052
 37355885, -0.01143307, -0.02026952, -5.746169E-05, 0.02600994, -0.02795489, 0.4000024, -0.003407739, 0.01908134, 2.674451E-05, 0.02617543, -0.02708802, 0.4000043
 37455845, -0.0156152, 0.02487334, 1.349115E-05, 0.02592718, -0.0269912, 0.400004, -0.01143307, -0.02026952, -5.746169E-05, 0.02600994, -0.02795489, 0.4000024
 37555805, -0.02009932, 0.01105403, -1.945065E-05, 0.02584285, -0.02724503, 0.4000035, -0.0156152, 0.02487334, 1.349115E-05, 0.02592718, -0.0269912, 0.400004
 37655765, -0.003233262, -0.01975306, -4.10193E-05, 0.02617028, -0.02794674, 0.4000029, -0.02009932, 0.01105403, -1.945065E-05, 0.02584285, -0.02724503, 0.4000035
 37756558, 0.0149429, -0.0196474, -5.5825E-06, 0.02660085, -0.02793237, 0.3921607, -0.003233262, -0.01975306, -4.10193E-05, 0.02617028, -0.02794674, 0.4000029
 37856518, 0.01032541, 0.000616365, 2.119328E-05, 0.02647132, -0.02746626, 0.4000044, 0.0149429, -0.0196474, -5.5825E-06, 0.02660085, -0.02793237, 0.3921607
 37961476, -0.009876576, -0.02103779, -5.635658E-05, 0.02601282, -0.02799946, 0.4081658, 0.01032541, 0.000616365, 2.119328E-05, 0.02647132, -0.02746626, 0.4000044
 38061436, 0.005955763, -0.003990776, 4.53339E-06, 0.02636711, -0.02757148, 0.4000039, -0.009876576, -0.02103779, -5.635658E-05, 0.02601282, -0.02799946, 0.4081658
 38161396, 0.01752441, 0.007896865, 4.802044E-05, 0.02664595, -0.02731745, 0.4000049, 0.005955763, -0.003990776, 4.53339E-06, 0.02636711, -0.02757148, 0.4000039
 38261356, 0.0007388446, -0.003402033, -4.571173E-06, 0.0262464, -0.02756097, 0.4000038, 0.01752441, 0.007896865, 4.802044E-05, 0.02664595, -0.02731745, 0.4000049
 38361316, 0.003048741, -0.01999637, -2.935962E-05, 0.0262955, -0.0279634, 0.4000033, 0.0007388446, -0.003402033, -4.571173E-06, 0.0262464, -0.02756097, 0.4000038
 38461276, -0.02002889, -0.01368376, -6.316444E-05, 0.02582932, -0.02780469, 0.4000026, 0.003048741, -0.01999637, -2.935962E-05, 0.0262955, -0.0279634, 0.4000033
 38561236, -0.01979805, -0.005196714, -4.768824E-05, 0.02583284, -0.02760387, 0.400003, -0.02002889, -0.01368376, -6.316444E-05, 0.02582932, -0.02780469, 0.4000026
 38661196, -0.006172648, -0.008284713, -2.660367E-05, 0.02609589, -0.02767757, 0.4000032, -0.01979805, -0.005196714, -4.768824E-05, 0.02583284, -0.02760387, 0.400003
 38761156, -0.02372525, -0.01396286, -7.060512E-05, 0.02576606, -0.02781641, 0.4000021, -0.006172648, -0.008284713, -2.660367E-05, 0.02609589, -0.02767757, 0.4000032
 38861116, -0.02403187, 0.01157427, -2.594567E-05, 0.0257607, -0.02725428, 0.4000029, -0.02372525, -0.01396286, -7.060512E-05, 0.02576606, -0.02781641, 0.4000021
 38961076, -0.007711871, 0.001284307, -1.261848E-05, 0.02606523, -0.02746664, 0.4000031, -0.02403187, 0.01157427, -2.594567E-05, 0.0257607, -0.02725428, 0.4000029
 39061036, -0.02353237, 0.01549317, -1.804018E-05, 0.02576725, -0.0271813, 0.4000031, -0.007711871, 0.001284307, -1.261848E-05, 0.02606523, -0.02746664, 0.4000031
 39160996, -0.01081229, 0.008933351, -5.068056E-06, 0.0260005, -0.02731074, 0.4000032, -0.02353237, 0.01549317, -1.804018E-05, 0.02576725, -0.0271813, 0.4000031
 39260956, -0.01873366, 0.008357686, -2.140563E-05, 0.025849, -0.02732367, 0.4000029, -0.01081229, 0.008933351, -5.068056E-06, 0.0260005, -0.02731074, 0.4000032
 39360916, 0.02137627, 0.008450611, 5.629548E-05, 0.02673527, -0.02732264, 0.4000047, -0.01873366, 0.008357686, -2.140563E-05, 0.025849, -0.02732367, 0.4000029
 39460876, -0.01894146, -0.0027046, -4.139977E-05, 0.02584326, -0.02756167, 0.4000024, 0.02137627, 0.008450611, 5.629548E-05, 0.02673527, -0.02732264, 0.4000047
 39560836, -0.01242224, 0.009594077, -6.980268E-06, 0.02596464, -0.02730309, 0.4000031, -0.01894146, -0.0027046, -4.139977E-05, 0.02584326, -0.02756167, 0.4000024
 39660796, -0.00827404, 0.02252106, 2.397769E-05, 0.02604578, -0.02706338, 0.4000036, -0.01242224, 0.009594077, -6.980268E-06, 0.02596464, -0.02730309, 0.4000031
 39761589, -0.001302468, 0.008497966, 1.25724E-05, 0.02619033, -0.02732802, 0.4000034, -0.00827404, 0.02252106, 2.397769E-05, 0.02604578, -0.02706338, 0.4000036
 39861549, -0.02392615, 0.001625382, -4.334942E-05, 0.02575136, -0.02747226, 0.4000023, -0.001302468, 0.008497966, 1.25724E-05, 0.02619033, -0.02732802, 0.4000034
