TimeUS,CAN,CAE,CAD,CAe
 2696421, 0, 0, 0, 0
 2776389, 0.001660075, -0.001256363, -0.01587453, 0.007198241
 2876349, -0.0001143295, 4.205286E-05, -0.0009385001, 0.0002593961
 2976309, -7.14856E-05, 0.0001669492, -0.0009694561, 0.0002593961
 3076269, -0.0002617711, 8.013238E-05, -0.001272995, 0.0002593961
 3176229, -4.731662E-05, 5.893438E-05, -0.001058184, 0.0002593961
 3276189, 8.448544E-05, 3.82092E-05, -0.001000812, 0.0002593961
 3376149, -1.199115E-05, -0.0001699253, -0.001109912, 0.0002593961
 3476109, -6.92822E-06, 9.631788E-06, -0.001221274, 0.0002593961
 3576069, 3.915955E-05, -3.893344E-05, -0.00115425, 0.0002593961
 3676029, -4.841527E-05, -6.771363E-05, -0.001087968, 0.0002593961
 3775989, 0.0001500081, 0.0001020946, -0.001032149, 0.0002593961
 3875949, 1.446944E-05, 6.026265E-05, -0.0009886968, 0.0002593961
 3975909, 8.748616E-05, 1.080109E-05, -0.001149624, 0.0002593961
 4075869, 3.289942E-05, 6.966932E-05, -0.001211184, 0.0002593961
 4175829, -1.946093E-05, 1.853996E-05, -0.001023387, 0.0002593961
 4275789, 7.17482E-05, -1.230262E-06, -0.001013534, 0.0002593961
 4376582, 8.083297E-05, 6.227014E-05, -0.001119349, 0.0002615578
 4476542, -3.852381E-05, -4.476355E-05, -0.001170191, 0.0002593961
 4576502, -1.593343E-05, 0.0001479572, -0.001080318, 0.0002593961
 4681460, 3.182689E-05, -2.399127E-06, -0.001052351, 0.000272366
 4781420, 9.149208E-05, 4.041201E-06, -0.001086481, 0.0002593961
 4881380, 4.536005E-05, -0.0002341527, -0.0009632237, 0.0002593961
 4981340, -3.674657E-05, 2.687403E-05, -0.0009602758, 0.0002593961
 5081300, -6.216615E-05, 4.723202E-05, -0.0008977921, 0.0002593961
 5181260, -2.402743E-05, -6.831608E-05, -0.001158713, 0.0002593961
 5281220, 0.0001082349, -2.247339E-05, -0.00103519, 0.0002593961
 5381180, 0.000107594, -5.05855E-06, -0.001141799, 0.0002593961
 5481140, 2.403901E-05, -5.775726E-05, -0.001014551, 0.0002593961
 5581100, 2.515066E-05, -2.671045E-05, -0.001080379, 0.0002593961
 5681060, 4.20464E-05, -0.0001616858, -0.0009120272, 0.0002593961
 5781020, -9.375607E-06, 0.000129956, -0.0009072906, 0.0002593961
 5880980, -0.0001691583, 6.862661E-05, -0.00106124, 0.0002593961
 5980940, -1.739284E-05, 9.874588E-05, -0.00126125, 0.0002593961
 6080900, 0.0001958604, 2.756427E-06, -0.001005015, 0.0002593961
 6180860, 9.256829E-05, 0.0001294284, -0.0009326505, 0.0002593961
 6280820, 9.206575E-05, -5.014626E-05, -0.001053632, 0.0002593961
 6380780, 9.345775E-05, -0.0001082494, -0.000990974, 0.0002593961
 6481573, 0.0001153228, 0.0002001828, -0.00104986, 0.0002615578
 6581533, -7.695035E-05, 7.807193E-05, -0.001211147, 0.0002593961
 6686491, 4.423252E-05, -7.628561E-05, -0.001160533, 0.000272366
 6786451, 0.000120947, 3.755718E-05, -0.001129513, 0.0002593961
 6886411, 5.221794E-05, 6.50723E-05, -0.001046441, 0.0002593961
 6986371, 3.5043E-05, -1.787714E-05, -0.0009917713, 0.0002593961
 7086331, -4.256937E-05, 4.243978E-05, -0.001055026, 0.0002593961
 7186291, -3.967985E-05, 9.159007E-05, -0.001096929, 0.0002593961
 7286251, -7.896085E-05, 0.0001145833, -0.0009939639, 0.0002593961
 7386211, 8.794626E-05, 0.0001351552, -0.001025298, 0.0002593961
 7486171, 0.0001116764, 9.413296E-05, -0.001112727, 0.0002593961
 7586131, 6.456412E-05, 6.860922E-05, -0.0009759763, 0.0002593961
 7686091, 0.0002723655, 0.0001268446, -0.001076117, 0.0002593961
 7786051, 0.000202396, -5.871724E-05, -0.001079592, 0.0002593961
 7886011, 0.0002330085, -5.400167E-05, -0.001104537, 0.0002593961
 7985971, -3.755108E-06, -8.544859E-05, -0.00112225, 0.0002593961
 8085931, 0.0001117361, 1.86254E-05, -0.001037732, 0.0002593961
 8185891, 9.891859E-05, 3.620805E-05, -0.001137243, 0.0002593961
 8285851, 0.0001200461, 3.306498E-05, -0.001095939, 0.0002593961
 8385811, 0.0001940373, 8.40791E-05, -0.001214326, 0.0002593961
 8485771, 3.543805E-05, 0.0003193646, -0.001038217, 0.0002593961
 8586564, 0.0002491021, 9.28129E-05, -0.001150115, 0.0002615578
 8686524, 0.0001364058, 8.407556E-05, -0.001033024, 0.0002593961
 8791482, 0.0003025584, 3.453874E-06, -0.00114067, 0.000272366
 8891442, 0.0002652865, 7.264706E-05, -0.0007777571, 0.0002593961
 8991402, 0.0001896649, 0.0001891584, -0.001092006, 0.0002593961
 9091362, 0.0001485392, 2.887926E-05, -0.0009706714, 0.0002593961
 9191322, 0.0001102789, 6.681198E-05, -0.001174945, 0.0002593961
 9291282, 1.205829E-05, 0.0001729821, -0.0009634525, 0.0002593961
 9391242, 9.49067E-05, 0.0001318229, -0.0009686683, 0.0002593961
 9491202, 0.0001432438, 0.0001208984, -0.001177859, 0.0002593961
 9591162, -9.838027E-06, 3.51432E-05, -0.001124948, 0.0002593961
 9691122, 0.000259422, 0.0001022085, -0.001211614, 0.0002593961
 9791082, 6.680458E-05, -8.265974E-05, -0.001172209, 0.0002593961
 9891042, 0.0001480257, 8.434292E-05, -0.001017932, 0.0002593961
 9991002, 0.0001173966, 0.0001289167, -0.001064857, 0.0002593961
 10090962, 0.0001318846, 0.0001647554, -0.001063572, 0.0002593961
 10190922, 0.0001197239, 5.842429E-05, -0.001075684, 0.0002593961
 10290882, 0.0001319963, 0.0002765932, -0.001013387, 0.0002593961
 10390842, 0.0001656441, 0.0002507732, -0.001106054, 0.0002593961
 10490802, 3.573109E-05, 9.478526E-05, -0.001042937, 0.0002593961
 10590762, 0.0001427134, 8.905899E-05, -0.0009950341, 0.0002593961
 10691555, -5.023769E-05, 0.000294689, -0.0009270626, 0.0002615578
 10791515, 0.0001527401, 0.000179085, -0.001002353, 0.0002593961
 10896473, 0.0001860267, 0.0002657358, -0.001086701, 0.000272366
 10996433, 0.0001105279, 0.0001651782, -0.0011068, 0.0002593961
 11096393, 0.0002508026, 7.495275E-05, -0.001075369, 0.0002593961
 11196353, 5.084088E-05, 7.004378E-05, -0.001122655, 0.0002593961
 11296313, 0.0001284166, 0.0001860513, -0.001105869, 0.0002593961
 11396273, 0.0001239257, 0.0001317959, -0.0009479843, 0.0002593961
 11496233, 6.547134E-05, 8.751301E-05, -0.00123569, 0.0002593961
 11596193, 5.746461E-05, 0.0001280153, -0.001063348, 0.0002593961
 11696153, -4.416723E-05, 0.0001118127, -0.001145209, 0.0002593961
 11796113, 6.520952E-06, 2.384665E-05, -0.001168626, 0.0002593961
 11896073, -2.952789E-05, 0.0001136181, -0.0009187824, 0.0002593961
 11996033, 0.0001292466, 0.0001732101, -0.001193022, 0.0002593961
 12095993, 8.543768E-05, 7.27793E-05, -0.001027156, 0.0002593961
 12195953, 6.560126E-05, 0.0001254165, -0.001107476, 0.0002593961
 12295913, 0.0001357773, -3.971578E-05, -0.001138272, 0.0002593961
 12395873, 0.0001110793, 5.39957E-05, -0.001106588, 0.0002593961
 12495833, 0.0002112427, 0.0002005044, -0.00097218, 0.0002593961
 12595793, 0.0001157165, 0.0002708859, -0.001038333, 0.0002593961
 12696586, 9.570288E-05, 7.553159E-05, -0.001225324, 0.0002615578
 12796546, 5.671657E-06, -6.045929E-06, -0.001204797, 0.0002593961
 12896506, -0.0001339875, 7.795646E-05, -0.0009585313, 0.0002593961
 13001464, -1.219925E-05, 6.084009E-05, -0.001136675, 0.000272366
 13101424, -0.0001273989, 0.000185129, -0.001181303, 0.0002593961
 13201384, 0.0003173589, 0.000298252, -0.001117085, 0.0002593961
 13301344, 0.0001652794, 0.0001689164, -0.001076762, 0.0002593961
 13401304, 7.560413E-05, 0.0002226377, -0.001073395, 0.0002593961
 13501264, 0.0001353035, 0.0001295183, -0.001246809, 0.0002593961
 13601224, 0.0001063548, 0.0001941465, -0.001194115, 0.0002593961
 13701184, 0.0003095958, 0.0002699349, -0.001064224, 0.0002593961
 13801144, 0.0003049036, 0.0001915355, -0.0009364398, 0.0002593961
 13901104, 0.0001091626, 6.713997E-05, -0.0009914734, 0.0002593961
 14001064, 8.262962E-05, 0.0001988875, -0.001017974, 0.0002593961
 14101024, 6.290484E-05, 0.0002449136, -0.001030848, 0.0002593961
 14200984, 0.0001826131, -4.048994E-06, -0.001050959, 0.0002593961
 14300944, 0.0001424117, 9.632791E-05, -0.001189361, 0.0002593961
 14400904, 0.0002750453, 0.0002853706, -0.0009328531, 0.0002593961
 14500864, 0.0001026651, 0.0001959714, -0.001023553, 0.0002593961
 14600824, 0.0001963948, -3.519278E-05, -0.001036102, 0.0002593961
 14700784, 2.432418E-05, 2.878658E-05, -0.001155487, 0.0002593961
 14801577, -6.889851E-05, 7.263391E-05, -0.001140689, 0.0002615578
 14901537, 0.0001303308, 9.976287E-05, -0.001028984, 0.0002593961
 15006495, 0.0002187571, 9.946642E-05, -0.001178812, 0.000272366
 15106455, 0.00033386, 7.361235E-05, -0.0008853874, 0.0002593961
 15206415, 0.0003010786, 1.258266E-05, -0.001124495, 0.0002593961
 15306375, 1.578325E-05, 0.0001122026, -0.001052505, 0.0002593961
 15406335, 0.000166202, 0.0001639915, -0.001061303, 0.0002593961
 15506295, 0.0001077415, 0.0001311733, -0.001087655, 0.0002593961
 15606255, 0.0001281381, 0.0001053232, -0.001064975, 0.0002593961
 15706215, 0.0001979741, 0.0002225747, -0.001074105, 0.0002593961
 15806175, 0.0001092814, 0.0001913863, -0.001107172, 0.0002593961
 15906135, 0.0002927934, 0.0003504812, -0.00110681, 0.0002593961
 16006095, 0.0004011134, 0.0001983525, -0.001125447, 0.0002593961
 16106055, 0.0001449822, 0.0001454528, -0.001047923, 0.0002593961
 16206015, 0.0002057036, 0.0001115358, -0.001121088, 0.0002593961
 16305975, 0.0001669366, 4.601675E-05, -0.001242433, 0.0002593961
 16405935, 0.0001164364, 0.0001925991, -0.001228801, 0.0002593961
 16505895, 0.000172097, 0.0002159482, -0.001124533, 0.0002593961
 16605855, 4.799039E-05, 0.0001934237, -0.0008973869, 0.0002593961
 16705815, 0.0001867519, 0.0001879661, -0.001058303, 0.0002593961
 16805775, 0.0001151917, 0.0003968206, -0.001051064, 0.0002593961
 16906568, -1.274732E-07, 0.0002328454, -0.001110163, 0.0002615578
 17006528, 0.0001329809, 0.0002265674, -0.001085805, 0.0002593961
 17111486, 0.0001490967, 0.0003197451, -0.001171566, 0.000272366
 17211446, 0.0001650317, 0.0002408985, -0.001032179, 0.0002593961
 17311406, 2.026226E-05, 0.000213986, -0.0009471632, 0.0002593961
 17411366, 0.0001093701, 8.503189E-05, -0.001024018, 0.0002593961
 17511326, 6.862787E-05, 5.524904E-05, -0.001044168, 0.0002593961
 17611286, 0.0001600593, 0.0001805834, -0.001095299, 0.0002593961
 17711246, 0.0002749838, 0.0002042284, -0.001191069, 0.0002593961
 17811206, 0.0001509256, 0.0001237127, -0.001005009, 0.0002593961
 17911166, 0.0001963502, 3.043406E-05, -0.001148099, 0.0002593961
 18011126, 0.0002388079, 0.0001266638, -0.001076064, 0.0002593961
 18111086, 8.073876E-05, 3.930233E-05, -0.001055094, 0.0002593961
 18211046, 9.712584E-05, 7.49463E-05, -0.001151945, 0.0002593961
 18311006, 0.0002312731, 0.0002748659, -0.001292256, 0.0002593961
 18410966, 5.147164E-05, 0.0002854606, -0.000975806, 0.0002593961
 18510926, 0.0001421094, 0.0001541487, -0.001040218, 0.0002593961
 18610886, 0.0001634767, 0.0002342026, -0.001013738, 0.0002593961
 18710846, 8.876308E-05, 0.0001096985, -0.001161755, 0.0002593961
 18810806, 0.0002598226, -3.738437E-05, -0.001241945, 0.0002593961
 18910766, 0.0001878873, 0.0002515988, -0.001125794, 0.0002593961
 19011559, 0.0002047382, 0.000181853, -0.001100321, 0.0002615578
 19111519, 5.697319E-05, 0.0001618149, -0.001105972, 0.0002593961
 19216477, 5.526602E-05, 0.0002169256, -0.001020504, 0.000272366
 19316437, 0.000226827, 0.0002183343, -0.0009724242, 0.0002593961
 19416397, 4.711297E-05, 0.0001445295, -0.001063674, 0.0002593961
 19516357, 0.0003043466, 0.0002648568, -0.001193669, 0.0002593961
 19616317, 0.0001903419, 0.0002351556, -0.001215103, 0.0002593961
 19716277, 0.0002336129, 0.0002468961, -0.001062377, 0.0002593961
 19816237, -5.485759E-05, 0.0002396243, -0.001184791, 0.0002593961
 19916197, 2.212912E-05, 0.0001061406, -0.0009393211, 0.0002593961
 20016157, 7.815408E-05, 0.0002737664, -0.0009613077, 0.0002593961
 20116117, 0.0002314966, 0.0001708743, -0.001063529, 0.0002593961
 20216077, 0.0002173798, 0.0001358452, -0.001054683, 0.0002593961
 20316037, 7.933028E-05, 0.0002346162, -0.0009626209, 0.0002593961
 20415997, 0.0001401381, 0.0001297965, -0.0009319152, 0.0002593961
 20515957, 0.0001818136, 0.0003208455, -0.001052333, 0.0002593961
 20615917, 0.0002552782, 0.0001222325, -0.001013815, 0.0002593961
 20715877, 0.0003921523, 0.0002068312, -0.001173214, 0.0002593961
 20815837, 0.0001613292, 0.0001548378, -0.001081542, 0.0002593961
 20915797, 0.0001868878, 0.0001938784, -0.000913562, 0.0002593961
 21016590, 0.0003482461, 0.0001276843, -0.00103753, 0.0002615578
 21116550, 0.0002462972, 0.0001417563, -0.001090894, 0.0002593961
 21216510, 0.0003029701, 0.000165305, -0.001052289, 0.0002593961
 21321468, 0.0004263895, 0.0002201055, -0.001103184, 0.000272366
 21421428, 0.0002369729, 0.000156922, -0.001047942, 0.0002593961
 21521388, 0.0002914391, 0.0001710017, -0.001144725, 0.0002593961
 21621348, 0.0002424173, 2.830291E-05, -0.001159336, 0.0002593961
 21721308, 0.0002215253, 7.847082E-05, -0.0009684155, 0.0002593961
 21821268, 0.0002268598, 0.0001483071, -0.00105193, 0.0002593961
 21921228, 0.0001917277, 0.0001743476, -0.001017735, 0.0002593961
 22021188, 0.0002969856, 0.0001648894, -0.001122132, 0.0002593961
 22121148, 0.0002264587, 0.0001643718, -0.001117737, 0.0002593961
 22221108, 0.000251761, 0.0001114744, -0.001175622, 0.0002593961
 22321068, 0.0002460919, 0.0002837216, -0.001116127, 0.0002593961
 22421028, 0.0002783405, 0.0001661387, -0.0009377817, 0.0002593961
 22520988, 0.0002197068, 0.000155358, -0.001118794, 0.0002593961
 22620948, 0.00028169, 0.0002213006, -0.0009940782, 0.0002593961
 22720908, 0.0002001501, 0.0002194273, -0.001069394, 0.0002593961
 22820868, 0.0002192684, 0.0004111199, -0.0009738053, 0.0002593961
 22920828, 0.0003728351, 0.0003075112, -0.001115218, 0.0002593961
 23020788, 0.0003973534, 0.0002604587, -0.001199996, 0.0002593961
 23121581, 0.0004324807, 0.0002731477, -0.001159277, 0.0002615578
 23221541, 0.0003553646, 0.0004734508, -0.001051046, 0.0002593961
 23321501, 0.0004744512, 0.000394055, -0.0010308, 0.0002593961
 23426459, 0.0003948387, 0.0003126563, -0.001133932, 0.000272366
 23526419, 0.0006013262, 0.0005258119, -0.0009239136, 0.0002593961
 23626379, 0.0004771088, 0.0004440021, -0.001019039, 0.0002593961
 23726339, 0.0006086415, 0.0005377596, -0.001212909, 0.0002593961
 23826299, 0.0006865237, 0.0004915594, -0.001005966, 0.0002593961
 23926259, 0.0007317972, 0.000501611, -0.001004178, 0.0002593961
 24026219, 0.0006373095, 0.0004724811, -0.001186747, 0.0002593961
 24126179, 0.0006430384, 0.0005087209, -0.0008699725, 0.0002593961
 24226139, 0.0006092352, 0.0005748726, -0.0009701351, 0.0002593961
 24326099, 0.0004424015, 0.0007681157, -0.001103287, 0.0002593961
 24426059, 0.0005649454, 0.0006637839, -0.001072866, 0.0002593961
 24526019, 0.0007310009, 0.0006378642, -0.001107744, 0.0002593961
 24625979, 0.0006780962, 0.0005502055, -0.001100795, 0.0002593961
 24725939, 0.0006462437, 0.000646218, -0.001039795, 0.0002593961
 24825899, 0.0006554099, 0.000650637, -0.001032969, 0.0002593961
 24925859, 0.0007693004, 0.0007047621, -0.001064815, 0.0002593961
 25025819, 0.0007309993, 0.000632487, -0.001195112, 0.0002593961
 25125779, 0.0007576604, 0.0006922595, -0.001201658, 0.0002593961
 25226572, 0.0007530189, 0.0008766101, -0.001190189, 0.0002615578
 25326532, 0.0008110864, 0.0007238422, -0.001127149, 0.0002593961
 25431490, 0.0009729929, 0.0009228692, -0.001093769, 0.000272366
 25531450, 0.0007969211, 0.0007750064, -0.001185716, 0.0002593961
 25631410, 0.0009084075, 0.0008475481, -0.001178988, 0.0002593961
 25731370, 0.0008245667, 0.0008263631, -0.0009936529, 0.0002593961
 25831330, 0.000804227, 0.0009289137, -0.001137728, 0.0002593961
 25931290, 0.0009506139, 0.0007172122, -0.001214513, 0.0002593961
 26031250, 0.00108991, 0.0008904577, -0.001071471, 0.0002593961
 26131210, 0.0008980116, 0.0008374155, -0.001215565, 0.0002593961
 26231170, 0.001021366, 0.0009844353, -0.001052862, 0.0002593961
 26331130, 0.001173737, 0.0009726778, -0.001229295, 0.0002593961
 26431090, 0.0009765588, 0.001092251, -0.0009612982, 0.0002593961
 26531050, 0.001152741, 0.0008800231, -0.001003785, 0.0002593961
 26631010, 0.001099734, 0.0009381176, -0.001053843, 0.0002593961
 26730970, 0.001015631, 0.00106476, -0.0009502223, 0.0002593961
 26830930, 0.001118071, 0.001091306, -0.0009832632, 0.0002593961
 26930890, 0.001005351, 0.001073799, -0.001074971, 0.0002593961
 27030850, 0.001016048, 0.0008849412, -0.001003511, 0.0002593961
 27130810, 0.0009733459, 0.001113805, -0.001018692, 0.0002593961
 27230770, 0.001250791, 0.001131839, -0.001043203, 0.0002593961
 27331563, 0.001068724, 0.001068063, -0.001079103, 0.0002615578
 27431523, 0.001224851, 0.001038183, -0.001168346, 0.0002593961
 27536481, 0.001281782, 0.001186036, -0.001095331, 0.000272366
 27636441, 0.001229735, 0.001211064, -0.001079945, 0.0002593961
 27736401, 0.001325168, 0.001204119, -0.00115423, 0.0002593961
 27836361, 0.001097878, 0.001253118, -0.001134584, 0.0002593961
 27936321, 0.00112065, 0.001056228, -0.00108489, 0.0002593961
 28036281, 0.001185772, 0.001229811, -0.001078837, 0.0002593961
 28136241, 0.001236194, 0.001280175, -0.001123108, 0.0002593961
 28236201, 0.001287315, 0.00117546, -0.001077989, 0.0002593961
 28336161, 0.001299841, 0.001210549, -0.001087852, 0.0002593961
 28436121, 0.001255597, 0.001245259, -0.001047339, 0.0002593961
 28536081, 0.001256491, 0.00115773, -0.000949898, 0.0002593961
 28636041, 0.001322202, 0.001172433, -0.001021757, 0.0002593961
 28736001, 0.001355581, 0.001286239, -0.0010963, 0.0002593961
 28835961, 0.001237147, 0.001240502, -0.001135418, 0.0002593961
 28935921, 0.001279906, 0.001402248, -0.001021012, 0.0002593961
 29035881, 0.001291993, 0.001261397, -0.0009759419, 0.0002593961
 29135841, 0.001248364, 0.001196586, -0.001182411, 0.0002593961
 29235801, 0.001306761, 0.001298028, -0.0009456414, 0.0002593961
 29335761, 0.001313356, 0.001383272, -0.001161921, 0.0002593961
 29436554, 0.001384823, 0.001317455, -0.001040881, 0.0002615578
 29536514, 0.001402583, 0.001426958, -0.0009829117, 0.0002593961
 29641472, 0.001478499, 0.001448801, -0.001157595, 0.000272366
 29741432, 0.0013504, 0.001417485, -0.001153724, 0.0002593961
 29841392, 0.001421016, 0.001579295, -0.001197618, 0.0002593961
 29941352, 0.001419308, 0.001477476, -0.001051093, 0.0002593961
 30041312, 0.001330412, 0.001295755, -0.0009972051, 0.0002593961
 30141272, 0.001503347, 0.00133159, -0.001168412, 0.0002593961
 30241232, 0.001367289, 0.001424487, -0.001099993, 0.0002593961
 30341192, 0.001473485, 0.001522405, -0.000974612, 0.0002593961
 30441152, 0.001397072, 0.00138734, -0.001058025, 0.0002593961
 30541112, 0.001563874, 0.001495957, -0.001122777, 0.0002593961
 30641072, 0.001557926, 0.001304715, -0.001128284, 0.0002593961
 30741032, 0.001486846, 0.001333057, -0.0008486594, 0.0002593961
 30840992, 0.001374604, 0.001416752, -0.00104566, 0.0002593961
 30940952, 0.001526148, 0.001607398, -0.001020723, 0.0002593961
 31040912, 0.001511001, 0.001433222, -0.001108148, 0.0002593961
 31140872, 0.001502212, 0.001480311, -0.001063256, 0.0002593961
 31240832, 0.001578262, 0.001429092, -0.001206642, 0.0002593961
 31340792, 0.001642916, 0.001576301, -0.0009189409, 0.0002593961
 31441585, 0.001556377, 0.001388211, -0.0009824644, 0.0002615578
 31541545, 0.001386066, 0.001588499, -0.001119533, 0.0002593961
 31641505, 0.001459205, 0.001483562, -0.001102004, 0.0002593961
 31746463, 0.001433421, 0.001662393, -0.001081847, 0.000272366
 31846423, 0.001464259, 0.001608472, -0.001051109, 0.0002593961
 31946383, 0.00162935, 0.001573184, -0.001168409, 0.0002593961
 32046343, 0.0015248, 0.001551792, -0.001046345, 0.0002593961
 32146303, 0.001584661, 0.00162521, -0.001063019, 0.0002593961
 32246263, 0.001490479, 0.001579836, -0.0009225921, 0.0002593961
 32346223, 0.00158084, 0.001645797, -0.0009655986, 0.0002593961
 32446183, 0.001657598, 0.001682382, -0.001049917, 0.0002593961
 32546143, 0.001528425, 0.001609251, -0.001296302, 0.0002593961
 32646103, 0.001563571, 0.001721712, -0.0009291258, 0.0002593961
 32746063, 0.00158084, 0.001679203, -0.0009739436, 0.0002593961
 32846023, 0.001579403, 0.001454408, -0.0009311454, 0.0002593961
 32945983, 0.001555805, 0.001709345, -0.00113949, 0.0002593961
 33045943, 0.001489137, 0.001501942, -0.001066662, 0.0002593961
 33145903, 0.001782008, 0.001623382, -0.0009732369, 0.0002593961
 33245863, 0.001623722, 0.001670237, -0.000987336, 0.0002593961
 33345823, 0.001643453, 0.001644901, -0.00115574, 0.0002593961
 33445783, 0.001660569, 0.001445663, -0.0009998552, 0.0002593961
 33546576, 0.001646573, 0.00162905, -0.001094028, 0.0002615578
 33646536, 0.001663178, 0.001753087, -0.00111307, 0.0002593961
 33751494, 0.001761596, 0.00166729, -0.001053502, 0.000272366
 33851454, 0.001877805, 0.001700022, -0.001146354, 0.0002593961
 33951414, 0.001666989, 0.001645406, -0.001087052, 0.0002593961
 34051374, 0.001481416, 0.00160449, -0.001030302, 0.0002593961
 34151334, 0.001838724, 0.001555789, -0.001017679, 0.0002593961
 34251294, 0.001547386, 0.001658809, -0.001205238, 0.0002593961
 34351254, 0.001633979, 0.00161523, -0.001152125, 0.0002593961
 34451214, 0.001751315, 0.001754124, -0.001075802, 0.0002593961
 34551174, 0.00160958, 0.001616411, -0.00103061, 0.0002593961
 34651134, 0.001591482, 0.001531396, -0.001089812, 0.0002593961
 34751094, 0.001530919, 0.00166563, -0.001118637, 0.0002593961
 34851054, 0.00167098, 0.001663814, -0.001154278, 0.0002593961
 34951014, 0.001672576, 0.00171742, -0.0009743487, 0.0002593961
 35050974, 0.001672341, 0.001702465, -0.001091172, 0.0002593961
 35150934, 0.001620819, 0.00156054, -0.000966521, 0.0002593961
 35250894, 0.00176953, 0.001704337, -0.000959768, 0.0002593961
 35350854, 0.001654858, 0.001682869, -0.001037071, 0.0002593961
 35450814, 0.001525657, 0.001712955, -0.001089293, 0.0002593961
 35550774, 0.00165746, 0.001747776, -0.0009803222, 0.0002593961
 35651567, 0.00182286, 0.001755895, -0.001110034, 0.0002615578
 35751527, 0.00159452, 0.001891106, -0.001012588, 0.0002593961
 35856485, 0.001738851, 0.001947547, -0.001253278, 0.000272366
 35956445, 0.001577642, 0.00172429, -0.0008764574, 0.0002593961
 36056405, 0.001639555, 0.001673305, -0.001177764, 0.0002593961
 36156365, 0.001574684, 0.001812166, -0.0009797051, 0.0002593961
 36256325, 0.00189729, 0.001630645, -0.001129024, 0.0002593961
 36356285, 0.001566562, 0.001702349, -0.001132241, 0.0002593961
 36456245, 0.001835701, 0.001947194, -0.001118719, 0.0002593961
 36556205, 0.001800825, 0.001875696, -0.0009047309, 0.0002593961
 36656165, 0.001729537, 0.001718258, -0.001072478, 0.0002593961
 36756125, 0.001769661, 0.001768607, -0.001106008, 0.0002593961
 36856085, 0.001878734, 0.001670094, -0.001208054, 0.0002593961
 36956045, 0.001711876, 0.001855791, -0.0009967951, 0.0002593961
 37056005, 0.001688105, 0.001734641, -0.001128189, 0.0002593961
 37155965, 0.001793964, 0.001944474, -0.00112729, 0.0002593961
 37255925, 0.00165233, 0.001589359, -0.001085426, 0.0002593961
 37355885, 0.001705071, 0.002017836, -0.0009602138, 0.0002593961
 37455845, 0.001736782, 0.001812881, -0.001086227, 0.0002593961
 37555805, 0.001665512, 0.001726702, -0.001107465, 0.0002593961
 37655765, 0.001630501, 0.001838347, -0.001245882, 0.0002593961
 37756558, 0.001791301, 0.001896802, -0.0009627523, 0.0002615578
 37856518, 0.001830239, 0.001849115, -0.001009442, 0.0002593961
 37961476, 0.001879788, 0.00192337, -0.0009767391, 0.000272366
 38061436, 0.001794251, 0.00187613, -0.001127239, 0.0002593961
 38161396, 0.001721396, 0.001728806, -0.0009609672, 0.0002593961
 38261356, 0.00172307, 0.001767638, -0.001086461, 0.0002593961
 38361316, 0.001795408, 0.001718449, -0.001092553, 0.0002593961
 38461276, 0.001840307, 0.001932899, -0.001000624, 0.0002593961
 38561236, 0.001790955, 0.001836238, -0.001077697, 0.0002593961
 38661196, 0.00170315, 0.001787803, -0.001084135, 0.0002593961
 38761156, 0.001834187, 0.001836121, -0.001094732, 0.0002593961
 38861116, 0.001792174, 0.001762031, -0.001027049, 0.0002593961
 38961076, 0.001849775, 0.001854116, -0.001012475, 0.0002593961
 39061036, 0.001856487, 0.001688262, -0.001105658, 0.0002593961
 39160996, 0.001705895, 0.001784151, -0.001144737, 0.0002593961
 39260956, 0.001685859, 0.001745224, -0.000896995, 0.0002593961
 39360916, 0.001812976, 0.001740955, -0.00102201, 0.0002593961
 39460876, 0.001762419, 0.001771125, -0.0009285024, 0.0002593961
 39560836, 0.001744505, 0.0017134, -0.00115852, 0.0002593961
 39660796, 0.001913957, 0.001814279, -0.001129127, 0.0002593961
 39761589, 0.00180379, 0.001912155, -0.001004416, 0.0002615578
 39861549, 0.001767582, 0.001718405, -0.0008630459, 0.0002593961
 39961509, 0.001925619, 0.001817041, -0.0009411121, 0.0002593961
 40066467, 0.001883873, 0.002032296, -0.001181836, 0.000272366
 40166427, 0.001780485, 0.001813845, -0.001216876, 0.0002593961
 40266387, 0.001921955, 0.001892357, -0.001003834, 0.0002593961
 40366347, 0.001896779, 0.001747443, -0.00109005, 0.0002593961
 40466307, 0.001778147, 0.001765298, -0.001091484, 0.0002593961
 40566267, 0.001781808, 0.001804218, -0.001090956, 0.0002593961
 40666227, 0.001692022, 0.001745954, -0.0009075337, 0.0002593961
 40766187, 0.001654968, 0.001790779, -0.0009862756, 0.0002593961
 40866147, 0.001718601, 0.001766463, -0.0009959253, 0.0002593961
 40966107, 0.001675464, 0.00190504, -0.001027029, 0.0002593961
 41066067, 0.001834773, 0.001822655, -0.0009523025, 0.0002593961
 41166027, 0.001772175, 0.001855273, -0.001100503, 0.0002593961
 41265987, 0.001703967, 0.001832736, -0.00118146, 0.0002593961
 41365947, 0.001827986, 0.001808363, -0.001148614, 0.0002593961
 41465907, 0.001897898, 0.001802184, -0.001045022, 0.0002593961
 41565867, 0.001834906, 0.001820888, -0.001048287, 0.0002593961
 41665827, 0.001747225, 0.001885687, -0.001087141, 0.0002593961
 41765787, 0.001770948, 0.001910363, -0.001121194, 0.0002593961
 41866580, 0.001805734, 0.001789608, -0.001123021, 0.0002615578
 41966540, 0.001833539, 0.001896225, -0.0011733, 0.0002593961
 42066500, 0.001919212, 0.001756781, -0.001200598, 0.0002593961
 42171458, 0.001881559, 0.001900053, -0.001081728, 0.000272366
 42271418, 0.001930885, 0.001941837, -0.001055639, 0.0002593961
 42371378, 0.0018687, 0.001820817, -0.001030223, 0.0002593961
 42471338, 0.001928401, 0.001757758, -0.001052242, 0.0002593961
 42571298, 0.001795761, 0.001824877, -0.001160657, 0.0002593961
 42671258, 0.00184913, 0.001817533, -0.001042221, 0.0002593961
 42771218, 0.001932186, 0.001896878, -0.0009181331, 0.0002593961
 42871178, 0.001920959, 0.001853372, -0.001151354, 0.0002593961
 42971138, 0.001825154, 0.00195727, -0.001196247, 0.0002593961
 43071098, 0.001681895, 0.001910698, -0.001180947, 0.0002593961
 43171058, 0.001848948, 0.001881889, -0.001050683, 0.0002593961
 43271018, 0.001869775, 0.002007515, -0.001064775, 0.0002593961
 43370978, 0.001751656, 0.00189191, -0.001006348, 0.0002593961
 43470938, 0.001829215, 0.001882852, -0.001069174, 0.0002593961
 43570898, 0.001670231, 0.001933595, -0.001069482, 0.0002593961
 43670858, 0.001832028, 0.001828527, -0.0009921216, 0.0002593961
 43770818, 0.001861667, 0.001753447, -0.001083321, 0.0002593961
 43870778, 0.001762621, 0.001782536, -0.001063196, 0.0002593961
 43971571, 0.001737246, 0.001912219, -0.001208654, 0.0002615578
 44071531, 0.001676041, 0.001863808, -0.001028689, 0.0002593961
 44176489, 0.001905279, 0.001816424, -0.001231606, 0.000272366
 44276449, 0.001923682, 0.001734469, -0.0009597264, 0.0002593961
 44376409, 0.001725625, 0.001841972, -0.0009810444, 0.0002593961
 44476369, 0.001740972, 0.001918085, -0.001130417, 0.0002593961
 44576329, 0.001898683, 0.00186342, -0.001195024, 0.0002593961
 44676289, 0.001875346, 0.001817065, -0.001043154, 0.0002593961
 44776249, 0.001888029, 0.001870835, -0.001172624, 0.0002593961
 44876209, 0.001624274, 0.001893658, -0.0009783156, 0.0002593961
 44976169, 0.001775569, 0.001937867, -0.001004713, 0.0002593961
 45076129, 0.001786886, 0.001801862, -0.001129274, 0.0002593961
 45176089, 0.001931216, 0.001776726, -0.001058802, 0.0002593961
 45276049, 0.001772077, 0.001815042, -0.001140482, 0.0002593961
 45376009, 0.001914135, 0.001672798, -0.0009981798, 0.0002593961
 45475969, 0.001845741, 0.001857677, -0.001149697, 0.0002593961
 45575929, 0.001610863, 0.001923655, -0.001179752, 0.0002593961
 45675889, 0.001824154, 0.001608446, -0.001111206, 0.0002593961
 45775849, 0.001827966, 0.001681869, -0.001177363, 0.0002593961
 45875809, 0.001757495, 0.001794336, -0.001167918, 0.0002593961
 45975769, 0.001782861, 0.001800561, -0.001028701, 0.0002593961
 46076562, 0.001701453, 0.001804794, -0.001094825, 0.0002615578
 46176522, 0.00176356, 0.001840862, -0.001193942, 0.0002593961
 46281480, 0.002055063, 0.00192635, -0.001114888, 0.000272366
 46381440, 0.001800024, 0.001816217, -0.001026085, 0.0002593961
 46481400, 0.00212652, 0.002057819, -0.2340995, 0.0002593961
 46581360, 0.002356774, 0.002644748, -0.3745134, 0.0002593961
 46681320, 0.001913373, 0.002003079, -0.1248855, 0.0002593961
 46781280, 0.002108723, 0.001736838, -0.5772991, 0.0002593961
 46881240, 0.001277276, 0.001048275, -0.8322439, 0.0002593961
 46981200, 8.764373E-05, -0.0001616784, -0.7088822, 0.0002593961
 47081160, -0.0009617598, -0.001065417, -0.5036629, 0.0002593961
 47181120, -0.001460314, -0.001343873, -0.3729087, 0.0002593961
 47281080, -0.001631224, -0.002045892, -0.3302929, 0.0002593961
 47381040, -0.001535692, -0.001813379, -0.3298657, 0.0002593961
 47481000, -0.00128765, -0.002143304, -0.3301008, 0.0002593961
 47580960, -0.001186979, -0.001880848, -0.3169602, 0.0002593961
 47680920, -0.0009218374, -0.001637, -0.2927758, 0.0002593961
 47780880, -0.0005667826, -0.001274944, -0.2652138, 0.0002593961
 47880840, -0.0004822827, -0.001035247, -0.2402178, 0.0002593961
 47980800, -0.0003391718, -0.0007369748, -0.218705, 0.0002593961
 48080760, -0.0004531453, -0.000101268, -0.2001723, 0.0002593961
 48181553, -0.0004737299, 0.0003511088, -0.1848804, 0.0002615578
 48281513, -0.0004972105, 0.0007223497, -0.1680903, 0.0002593961
 48386471, -0.0006916828, 0.0007628738, -0.1601773, 0.000272366
 48486431, -0.0007082742, 0.0008705722, -0.1380567, 0.0002593961
 48586391, -0.0006512118, 0.0008887184, -0.1249237, 0.0002593961
 48686351, -0.0007846887, 0.0008626197, -0.09239709, 0.0002593961
 48786311, 0.0001747347, 0.001011322, 0.3648133, 0.0002593961
 48886271, 0.0003596106, 0.0007475168, 0.3330291, 0.0002593961
 48986231, 0.0004703342, 0.000738245, 0.3042879, 0.0002593961
 49086191, 0.0005607639, 0.0008168113, 0.2793559, 0.0002593961
 49186151, 0.0005962873, 0.000726982, 0.2581858, 0.0002593961
 49286111, 0.0005083774, 0.0008704243, 0.2392294, 0.0002593961
 49386071, 0.0008682435, 0.0008492745, 0.2220471, 0.0002593961
 49486031, 0.0008271848, 0.0007845593, 0.2063567, 0.0002593961
 49585991, 0.000681943, 0.000946751, 0.1916889, 0.0002593961
 49685951, 0.0004566735, 0.000964372, 0.1787854, 0.0002593961
 49785911, 0.0003213755, 0.000981201, 0.1666449, 0.0002593961
 49885871, 0.0003494541, 0.0008654525, 0.1557492, 0.0002593961
 49985831, 0.0003325256, 0.0007698236, 0.1458027, 0.0002593961
 50085791, 0.000518363, 0.0006812895, 0.1977919, 0.0002593961
 50186584, 0.001189379, 0.001139689, 0.554924, 0.0002615578
 50286544, 0.002929726, 0.002356157, 0.499737, 0.0002593961
 50386504, 0.007423715, 0.004128696, 0.4144753, 0.0002593961
 50491462, 0.01546754, 0.006166596, 0.3588298, 0.000272366
 50591422, 0.02357614, 0.007632243, 0.2836705, 0.0002593961
 50691382, 0.03267377, 0.008685696, 0.2410226, 0.0002593961
 50791342, 0.04062695, 0.009513553, 0.2084397, 0.0002593961
 50891302, 0.04772543, 0.009951638, 0.1846479, 0.0002593961
 50991262, 0.05363627, 0.01046628, 0.1665734, 0.0002593961
 51091222, 0.05928091, 0.01054458, 0.1499584, 0.0002593961
 51191182, 0.06475116, 0.01083701, 0.133234, 0.0002593961
 51291142, 0.06995041, 0.01151627, 0.1168052, 0.0002593961
 51391102, 0.0753537, 0.01196644, 0.1014131, 0.0002593961
 51491062, 0.08042834, 0.01242389, 0.0871855, 0.0002593961
 51591022, 0.0856264, 0.01301956, 0.07426348, 0.0002593961
 51690982, 0.090735, 0.01334212, 0.06295531, 0.0002593961
 51790942, 0.0958131, 0.01382758, 0.05318424, 0.0002593961
 51890902, 0.1015158, 0.01423635, 0.04475221, 0.0002593961
 51990862, 0.1070237, 0.01442779, 0.03805156, 0.0002593961
 52090822, 0.1132651, 0.01511461, 0.03226962, 0.0002593961
 52190782, 0.1193655, 0.01563012, 0.02818406, 0.0002593961
 52291575, 0.1269514, 0.01677611, 0.02489836, 0.0002615578
 52391535, 0.1318288, 0.0176104, 0.02253077, 0.0002593961
 52496493, 0.1449046, 0.0201174, 0.02266173, 0.000272366
 52596453, 0.1441057, 0.02033361, 0.02136662, 0.0002593961
 52696413, 0.1500967, 0.02126587, 0.02158447, 0.0002593961
 52796373, 0.156043, 0.02206303, 0.02220846, 0.0002593961
 52896333, 0.1632282, 0.02205592, 0.02239218, 0.0002593961
 52996293, 0.1705391, 0.02200813, 0.02259923, 0.0002593961
 53096253, 0.1779769, 0.02168072, 0.02271472, 0.0002593961
 53196213, 0.1858121, 0.02123204, 0.02295255, 0.0002593961
 53296173, 0.1939824, 0.02115452, 0.02287519, 0.0002593961
 53396133, 0.2003305, 0.02162334, 0.02240341, 0.0002593961
 53496093, 0.2046801, 0.02205201, 0.02155884, 0.0002593961
 53596053, 0.2054481, 0.02268206, 0.02077528, 0.0002593961
 53696013, 0.20446, 0.02379815, 0.02020568, 0.0002593961
 53795973, 0.2028334, 0.0249926, 0.01994795, 0.0002593961
 53895933, 0.2029279, 0.02653473, 0.01971272, 0.0002593961
 53995893, 0.2033345, 0.02833349, 0.01945618, 0.0002593961
 54095853, 0.2054259, 0.03051012, 0.01928109, 0.0002593961
 54195813, 0.2070564, 0.03177267, 0.01913881, 0.0002593961
 54295773, 0.2089201, 0.03232621, 0.01861298, 0.0002593961
 54396566, 0.2116466, 0.03269509, 0.01864929, 0.0002615578
 54496526, 0.2107944, 0.03195081, 0.01802584, 0.0002593961
 54601484, 0.2223527, 0.03233127, 0.01880626, 0.000272366
 54701444, 0.212776, 0.02928497, 0.0175584, 0.0002593961
 54801404, 0.2132049, 0.02748832, 0.01729788, 0.0002593961
 54901364, 0.2137193, 0.0262118, 0.01709196, 0.0002593961
 55001324, 0.213156, 0.02517063, 0.01661856, 0.0002593961
 55101284, 0.2102031, 0.02421162, 0.01576926, 0.0002593961
 55201244, 0.2040772, 0.02380103, 0.01399063, 0.0002593961
 55301204, 0.1953252, 0.02370111, 0.01340131, 0.0002593961
 55401164, 0.186551, 0.02364646, 0.01249795, 0.0002593961
 55501124, 0.1783193, 0.02277592, 0.01221357, 0.0002593961
 55601084, 0.1701734, 0.02171755, 0.01146045, 0.0002593961
 55701044, 0.1612009, 0.02070831, 0.01026053, 0.0002593961
 55801004, 0.1513089, 0.01966233, 0.009535006, 0.0002593961
 55900964, 0.1412309, 0.01872511, 0.008437676, 0.0002593961
 56000924, 0.1316427, 0.0174106, 0.007637559, 0.0002593961
 56100884, 0.1226841, 0.01658207, 0.006698263, 0.0002593961
 56200844, 0.114253, 0.01556339, 0.005724509, 0.0002593961
 56300804, 0.1061108, 0.01425757, 0.004999567, 0.0002593961
 56400764, 0.09863259, 0.01300306, 0.00401551, 0.0002593961
 56501557, 0.09224017, 0.0126549, 0.002613725, 0.0002615578
 56601517, 0.0842066, 0.01172795, 0.002005594, 0.0002593961
 56706475, 0.0817038, 0.01262571, 0.00111282, 0.000272366
 56806435, 0.07165697, 0.01226427, 3.165528E-05, 0.0002593961
 56906395, 0.06549332, 0.01269508, -0.001038478, 0.0002593961
 57006355, 0.06032779, 0.01259088, -0.001201895, 0.0002593961
 57106315, 0.05564867, 0.009963958, -0.002268355, 0.0002593961
 57206275, 0.0501192, 0.007476642, -0.002984001, 0.0002593961
 57306235, 0.04366872, 0.004522126, -0.004095217, 0.0002593961
 57406195, 0.03689501, 0.002345845, -0.004495828, 0.0002593961
 57506155, 0.02983169, 0.0006106076, -0.004867987, 0.0002593961
 57606115, 0.02327518, -0.000220879, -0.005334817, 0.0002593961
 57706075, 0.0181418, -0.0004384105, -0.004821989, 0.0002593961
 57806035, 0.01454597, -0.0003262943, -0.004144414, 0.0002593961
 57905995, 0.0129623, -0.0003331497, -0.003914457, 0.0002593961
 58005955, 0.01282816, 0.0006001375, -0.003351788, 0.0002593961
 58105915, 0.01264182, 0.001642759, -0.003544982, 0.0002593961
 58205875, 0.01217646, 0.001634629, -0.002669048, 0.0002593961
 58305835, 0.01212179, -0.0002848513, -0.003183208, 0.0002593961
 58405795, 0.01183197, -0.002582876, -0.002924497, 0.0002593961
 58506588, 0.01130974, -0.004765959, -0.003142922, 0.0002615578
 58606548, 0.009515816, -0.006158417, -0.002775915, 0.0002593961
 58706508, 0.007877195, -0.006841726, -0.002816277, 0.0002593961
 58811466, 0.007642986, -0.007078138, -0.00221231, 0.000272366
 58911426, 0.006127881, -0.006344965, -0.001701611, 0.0002593961
 59011386, 0.005261267, -0.00559294, -0.001262808, 0.0002593961
 59111346, 0.004543935, -0.004113636, -0.0009668583, 0.0002593961
 59211306, 0.004156834, -0.002217331, -3.326638E-05, 0.0002593961
 59311266, 0.00402644, -0.0003747256, 0.0005597165, 0.0002593961
 59411226, 0.004816656, 0.0008475914, 0.0008487524, 0.0002593961
 59511186, 0.005522448, 0.001016812, 0.0009845633, 0.0002593961
 59611146, 0.006184116, 0.00141009, 0.001415923, 0.0002593961
 59711106, 0.006404246, 0.001577571, 0.001348945, 0.0002593961
 59811066, 0.007068921, 0.002537078, 0.00137332, 0.0002593961
 59911026, 0.006169223, 0.003494361, 0.00158101, 0.0002593961
 60010986, 0.005599219, 0.004573176, 0.001626635, 0.0002593961
 60110946, 0.004583574, 0.00551788, 0.001341579, 0.0002593961
 60210906, 0.003410675, 0.006284532, 0.00122402, 0.0002593961
 60310866, 0.002468296, 0.00742433, 0.001240147, 0.0002593961
 60410826, 0.00236511, 0.008954071, 0.001868378, 0.0002593961
 60510786, 0.00276767, 0.01090393, 0.001641956, 0.0002593961
 60611579, 0.003368046, 0.01243942, 0.001744799, 0.0002615578
 60711539, 0.002484747, 0.01331801, 0.001659535, 0.0002593961
 60811499, 0.002267892, 0.01312493, 0.001771399, 0.0002593961
 60916457, 0.00289369, 0.01109147, 0.001370396, 0.000272366
 61016417, 0.003160397, 0.007856665, 0.0008893328, 0.0002593961
 61116377, 0.00301604, 0.005678542, 0.0007076507, 0.0002593961
 61216337, 0.003545595, 0.004074343, 0.0005229907, 0.0002593961
 61316297, 0.003673078, 0.002758828, 0.001059539, 0.0002593961
 61416257, 0.004035734, 0.002263939, 0.0005066179, 0.0002593961
 61516217, 0.004025609, 0.001905128, 0.0001976915, 0.0002593961
 61616177, 0.004030742, 0.00195458, 0.0007553415, 0.0002593961
 61716137, 0.004277282, 0.001846159, 0.0005499106, 0.0002593961
 61816097, 0.005021859, 0.002596759, 0.0005310127, 0.0002593961
 61916057, 0.006133287, 0.003337501, 0.0005303227, 0.0002593961
 62016017, 0.00581578, 0.003673741, 0.0002593898, 0.0002593961
 62115977, 0.005111085, 0.003204311, 0.0003885764, 0.0002593961
 62215937, 0.004545701, 0.002512215, -7.48466E-05, 0.0002593961
 62315897, 0.003275932, 0.001996183, -0.0002518314, 0.0002593961
 62415857, 0.003044326, 0.001803076, -0.0001031594, 0.0002593961
 62515817, 0.003083105, 0.001845566, 6.283034E-05, 0.0002593961
 62615777, 0.003485717, 0.002018207, 0.0004278236, 0.0002593961
 62716570, 0.004084486, 0.003019121, 0.0003025124, 0.0002615578
 62816530, 0.003757108, 0.004013937, -0.0001649351, 0.0002593961
 62921488, 0.003834864, 0.005446859, 0.0001108692, 0.000272366
 63021448, 0.004008039, 0.00627648, -0.0002431504, 0.0002593961
 63121408, 0.002973901, 0.006927844, -0.0004160885, 0.0002593961
 63221368, 0.00244396, 0.007821941, 7.370623E-05, 0.0002593961
 63321328, 0.002489657, 0.008617396, -0.0001250851, 0.0002593961
 63421288, 0.002511756, 0.008194325, -0.0003299251, 0.0002593961
 63521248, 0.002187609, 0.006049366, -0.0001297086, 0.0002593961
 63621208, 0.002051148, 0.003763972, -5.069731E-05, 0.0002593961
 63721168, 0.002002651, 0.0008429903, -0.0004716833, 0.0002593961
 63821128, 0.002535711, -0.001931132, -0.001335597, 0.0002593961
 63921088, 0.002877323, -0.004006971, -0.00208202, 0.0002593961
 64021048, 0.002828584, -0.005562667, -0.002597018, 0.0002593961
 64121008, 0.002589162, -0.006513623, -0.003920733, 0.0002593961
 64220968, 0.002228167, -0.007138212, -0.004865584, 0.0002593961
 64320928, 0.002477283, -0.007527041, -0.006064787, 0.0002593961
 64420888, 0.002144472, -0.009241368, -0.006874368, 0.0002593961
 64520848, 0.002427991, -0.01268348, -0.007698436, 0.0002593961
 64620808, 0.002683846, -0.0157369, -0.008501353, 0.0002593961
 64720768, 0.003007109, -0.01850542, -0.009933869, 0.0002593961
 64821561, 0.002385111, -0.02053955, -0.01056308, 0.0002615578
 64921521, 0.00149033, -0.0217879, -0.0112257, 0.0002593961
 65026479, 0.00174299, -0.0235349, -0.01303004, 0.000272366
 65126439, 0.001688236, -0.02285038, -0.01314974, 0.0002593961
 65226399, 0.0006917797, -0.02322748, -0.01437574, 0.0002593961
 65326359, -0.0004134437, -0.02279905, -0.01521252, 0.0002593961
 65426319, -0.0002490364, -0.02238458, -0.01578738, 0.0002593961
 65526279, 0.0006286377, -0.02183492, -0.01650823, 0.0002593961
 65626239, 0.001181262, -0.02175554, -0.01805083, 0.0002593961
 65726199, 0.001288545, -0.02273429, -0.01836496, 0.0002593961
 65826159, 0.001368008, -0.02381198, -0.02035461, 0.0002593961
 65926119, 0.0007686269, -0.02426644, -0.02031152, 0.0002593961
 66026079, 0.001534912, -0.024907, -0.02118329, 0.0002593961
 66126039, 0.002011658, -0.02546044, -0.02226581, 0.0002593961
 66225999, 0.001649285, -0.02536972, -0.02291462, 0.0002593961
 66325959, 0.001356299, -0.02504508, -0.02327639, 0.0002593961
 66425919, -0.0005847993, -0.02390263, -0.02394502, 0.0002593961
 66525879, -0.002352769, -0.02230921, -0.02378723, 0.0002593961
 66625839, -0.002460695, -0.02100965, -0.02318946, 0.0002593961
 66725799, -0.001215378, -0.02012192, -0.02301683, 0.0002593961
 66826592, 0.0002208499, -0.0192646, -0.02275469, 0.0002593961
 66926552, 0.001576705, -0.01859266, -0.02351663, 0.0002615578
 67026512, 0.0014696, -0.01780529, -0.02302643, 0.0002593961
 67131470, 0.002544396, -0.01852778, -0.02418724, 0.000272366
 67231430, 0.002741599, -0.01722027, -0.02292535, 0.0002593961
 67331390, 0.00333042, -0.01704967, -0.02273807, 0.0002593961
 67431350, 0.004027149, -0.01700346, -0.02256641, 0.0002593961
 67531310, 0.005006366, -0.01693113, -0.02277816, 0.0002593961
 67631270, 0.005036352, -0.01866789, -0.02219895, 0.0002593961
 67731230, 0.004716495, -0.02244819, -0.02163542, 0.0002593961
 67831190, 0.004514801, -0.02519965, -0.02084932, 0.0002593961
 67931150, 0.004013296, -0.02745648, -0.0200355, 0.0002593961
 68031110, 0.003227738, -0.02852919, -0.01899936, 0.0002593961
 68131070, 0.003122697, -0.02944787, -0.01781462, 0.0002593961
 68231030, 0.002086792, -0.02957537, -0.01696701, 0.0002593961
 68330990, 0.0009265864, -0.02947791, -0.01642262, 0.0002593961
 68430950, -0.0005396298, -0.02911218, -0.01503587, 0.0002593961
 68530910, -0.00202575, -0.02808785, -0.01373088, 0.0002593961
 68630870, -0.002355644, -0.0265994, -0.01262557, 0.0002593961
 68730830, -0.002246656, -0.02503982, -0.0117184, 0.0002593961
 68830790, -0.00228906, -0.02323625, -0.01101146, 0.0002593961
 68931583, -0.002689985, -0.02147498, -0.01068771, 0.0002615578
 69031543, -0.004312669, -0.0190402, -0.01008414, 0.0002593961
 69131503, -0.005733818, -0.01684128, -0.008949139, 0.0002593961
 69236461, -0.006650345, -0.01547924, -0.00802487, 0.000272366
 69336421, -0.00697118, -0.01256605, -0.006491858, 0.0002593961
 69436381, -0.006891843, -0.01058879, -0.005964973, 0.0002593961
 69536341, -0.00674252, -0.008634118, -0.005068486, 0.0002593961
 69636301, -0.006457397, -0.00689488, -0.00390878, 0.0002593961
 69736261, -0.006569738, -0.004753823, -0.0032125, 0.0002593961
 69836221, -0.006445347, -0.002942061, -0.002862378, 0.0002593961
 69936181, -0.007211918, -0.001291075, -0.001764505, 0.0002593961
 70036141, -0.007220905, 0.0004604232, -0.0008746236, 0.0002593961
 70136101, -0.006295693, 0.001703026, -4.558887E-05, 0.0002593961
 70236061, -0.004725348, 0.002973742, 0.0007788187, 0.0002593961
 70336021, -0.003764999, 0.003465529, 0.0009593868, 0.0002593961
 70435981, -0.003528656, 0.003618686, 0.0003827781, 0.0002593961
 70535941, -0.003880078, 0.003834033, 0.0003179912, 0.0002593961
 70635901, -0.004611127, 0.00417269, 0.0003226289, 0.0002593961
 70735861, -0.004158566, 0.004147266, 0.0004876927, 0.0002593961
 70835821, -0.003016711, 0.004559742, 0.0007379893, 0.0002593961
 70935781, -0.00159592, 0.00514702, -0.0001193975, 0.0002593961
 71036574, -0.0008360334, 0.005722323, -0.0002112799, 0.0002615578
 71136534, -0.001386356, 0.005948735, -0.0003902853, 0.0002593961
 71241492, -0.001683415, 0.006278567, -0.0004975199, 0.000272366
 71341452, -0.00171723, 0.005793334, -0.0002198865, 0.0002593961
 71441412, -0.002031918, 0.005733549, -0.0006911135, 0.0002593961
 71541372, -0.00208644, 0.005449682, -0.0003755199, 0.0002593961
 71641332, -0.001752738, 0.005405074, -0.0005422973, 0.0002593961
 71741292, -0.001713315, 0.005198198, -0.0004492226, 0.0002593961
 71841252, -0.001638793, 0.005044436, -0.0005070827, 0.0002593961
 71941212, -0.001958415, 0.004830375, -0.0007738689, 0.0002593961
 72041172, -0.00177751, 0.004619002, -0.0004756705, 0.0002593961
 72141132, -0.0009564738, 0.004830041, -0.0006547822, 0.0002593961
 72241092, -1.165884E-05, 0.004771668, -0.0003868641, 0.0002593961
 72341052, 0.001084828, 0.004587949, -0.0004565415, 0.0002593961
 72441012, 0.0006097736, 0.004734605, -0.0008403992, 0.0002593961
 72540972, -0.0002394493, 0.00444466, -0.001136723, 0.0002593961
 72640932, -0.001365468, 0.004043123, -0.001587464, 0.0002593961
 72740892, -0.002343918, 0.003543106, -0.001280425, 0.0002593961
 72840852, -0.002114648, 0.003016208, -0.0009669834, 0.0002593961
 72940812, -0.001974297, 0.002956385, -0.0009955261, 0.0002593961
 73040772, -0.002016652, 0.002874614, -0.00112664, 0.0002593961
 73141565, -0.003013134, 0.002561377, -0.00106623, 0.0002615578
 73241525, -0.003786357, 0.00230541, -0.0008366705, 0.0002593961
 73346483, -0.003255748, 0.002167209, -0.0008605373, 0.000272366
 73446443, -0.002542244, 0.002022868, -0.0008714597, 0.0002593961
 73546403, -0.00319381, 0.002153372, -0.0009509061, 0.0002593961
 73646363, -0.003099898, 0.002029954, -0.0008117813, 0.0002593961
 73746323, -0.00281099, 0.001715309, -0.001147929, 0.0002593961
 73846283, -0.003242492, 0.001633271, -0.0009096774, 0.0002593961
 73946243, -0.003487446, 0.001942583, -0.0009093936, 0.0002593961
 74046203, -0.002776091, 0.001919717, -0.001138553, 0.0002593961
 74146163, -0.002392833, 0.002000781, -0.0006532284, 0.0002593961
 74246123, -0.001710739, 0.001996817, -0.001094922, 0.0002593961
 74346083, -0.001045714, 0.001661516, -0.001127476, 0.0002593961
 74446043, -0.0008241747, 0.001444305, -0.001406602, 0.0002593961
 74546003, -0.001257865, 0.001455642, -0.001073234, 0.0002593961
 74645963, -0.001179287, 0.0009391645, -0.0008959355, 0.0002593961
 74745923, -0.001419928, 0.0005161202, -0.001061576, 0.0002593961
 74845883, -0.001439036, 0.0005226959, -0.0009267256, 0.0002593961
 74945843, -0.0008129068, 0.00051198, -0.001124687, 0.0002593961
 75045803, -0.000703219, 0.0004907078, -0.001474564, 0.0002593961
 75145763, -0.001687748, 0.0006821819, -0.001044803, 0.0002593961
 75246556, -0.00196635, 0.0008775055, -0.001164837, 0.0002615578
 75346516, -0.002471451, 0.001073187, -0.001200551, 0.0002593961
 75451474, -0.002433296, 0.00126937, -0.0009980917, 0.000272366
 75551434, -0.00231919, 0.001379128, -0.001202131, 0.0002593961
 75651394, -0.002766401, 0.001562106, -0.001281162, 0.0002593961
 75751354, -0.002740032, 0.00163266, -0.001063634, 0.0002593961
 75851314, -0.002504167, 0.001726786, -0.001100374, 0.0002593961
 75951274, -0.002611879, 0.001660244, -0.001262846, 0.0002593961
 76051234, -0.002923394, 0.001511524, -0.001099665, 0.0002593961
 76151194, -0.003078189, 0.001471656, -0.001168222, 0.0002593961
 76251154, -0.003209312, 0.001485615, -0.001074454, 0.0002593961
 76351114, -0.002934577, 0.001438809, -0.001003167, 0.0002593961
 76451074, -0.002424716, 0.00115643, -0.0009767355, 0.0002593961
 76551034, -0.002730453, 0.001298621, -0.001355195, 0.0002593961
 76650994, -0.002806653, 0.001590336, -0.000926634, 0.0002593961
 76750954, -0.002267446, 0.001593918, -0.0008293052, 0.0002593961
 76850914, -0.002431052, 0.001862526, -0.001122788, 0.0002593961
 76950874, -0.002245892, 0.002204534, -0.001040996, 0.0002593961
 77050834, -0.001891175, 0.002172158, -0.001105658, 0.0002593961
 77150794, -0.001663623, 0.002001125, -0.001288069, 0.0002593961
 77251587, -0.001204761, 0.002078311, -0.001080369, 0.0002615578
 77351547, -0.0008392267, 0.002025861, -0.001809066, 0.0002593961
 77451507, -0.001409, 0.002307164, -0.00142373, 0.0002593961
 77556465, -0.00111364, 0.002526486, -0.001349374, 0.000272366
 77656425, -0.001333894, 0.001990088, -0.001765863, 0.0002593961
 77756385, -0.002611734, 0.00194958, -0.001183862, 0.0002593961
 77856345, -0.002473596, 0.001902463, -0.001265117, 0.0002593961
 77956305, -0.002396264, 0.002044688, -0.001067266, 0.0002593961
 78056265, -0.002351557, 0.002201591, -0.001183016, 0.0002593961
 78156225, -0.002032917, 0.002138278, -0.00115072, 0.0002593961
 78256185, -0.001688657, 0.002244875, -0.001141505, 0.0002593961
 78356145, -0.001473133, 0.002375213, -0.001308424, 0.0002593961
 78456105, -0.001574162, 0.002234443, -0.00112671, 0.0002593961
 78556065, -0.0007317404, 0.002402735, -0.001206086, 0.0002593961
 78656025, -0.000610167, 0.002555953, -0.001452851, 0.0002593961
 78755985, -0.0005869209, 0.002716706, -0.001272941, 0.0002593961
 78855945, -0.0005042222, 0.002620386, -0.001033265, 0.0002593961
 78955905, -0.0008311321, 0.002523957, -0.001215019, 0.0002593961
 79055865, -0.0009641431, 0.002360529, -0.001348223, 0.0002593961
 79155825, -0.001091166, 0.00216865, -0.0009394189, 0.0002593961
 79255785, -0.001228287, 0.001751432, -0.001399165, 0.0002593961
 79356578, -0.001747483, 0.00151342, -0.0008079717, 0.0002615578
 79456538, -0.002520294, 0.001700731, -0.001127295, 0.0002593961
 79561496, -0.002879355, 0.002032449, -0.0009416257, 0.000272366
 79661456, -0.002780528, 0.002277092, -0.001094994, 0.0002593961
 79761416, -0.003409483, 0.002384534, -0.0011308, 0.0002593961
 79861376, -0.003957965, 0.002781391, -0.001106559, 0.0002593961
 79961336, -0.003724581, 0.002598563, -0.0007474293, 0.0002593961
 80061296, -0.002439482, 0.002662808, -0.001006421, 0.0002593961
 80161256, -0.001220171, 0.002743343, -0.001294074, 0.0002593961
 80261216, -0.0006823606, 0.002831232, -0.001409781, 0.0002593961
 80361176, -0.0004859207, 0.002991705, -0.001057951, 0.0002593961
 80461136, -0.0003731831, 0.002851104, -0.001128188, 0.0002593961
 80561096, -0.0001182613, 0.002244796, -0.0008837192, 0.0002593961
 80661056, 0.0009562469, 0.002030195, -0.001183177, 0.0002593961
 80761016, 0.001034595, 0.001703092, -0.001286931, 0.0002593961
 80860976, 0.000712387, 0.001540598, -0.001397933, 0.0002593961
 80960936, 0.0003389569, 0.001345891, -0.001513362, 0.0002593961
 81060896, -0.0009506929, 0.001527411, -0.001291561, 0.0002593961
 81160856, -0.001182799, 0.001339744, -0.001131131, 0.0002593961
 81260816, -0.001278479, 0.001412143, -0.0009939877, 0.0002593961
 81360776, -0.001419616, 0.001426574, -0.0009396179, 0.0002593961
 81461569, -0.0004596747, 0.001533056, -0.001101878, 0.0002615578
 81561529, 0.0001333907, 0.001695854, -0.001321627, 0.0002593961
 81666487, 0.0008386622, 0.001775475, -0.001244856, 0.000272366
 81766447, 0.001386393, 0.00166742, -0.001261876, 0.0002593961
 81866407, 0.0007764903, 0.001337981, -0.001557671, 0.0002593961
 81966367, 0.0005100999, 0.001407648, -0.001279083, 0.0002593961
 82066327, 0.001056834, 0.001608511, -0.001185457, 0.0002593961
 82166287, 0.001860457, 0.001613637, -0.001410049, 0.0002593961
 82266247, 0.002047456, 0.001896224, -0.001011894, 0.0002593961
 82366207, 0.002445238, 0.00192957, -0.0006409799, 0.0002593961
 82466167, 0.002383586, 0.00210956, -0.0006946146, 0.0002593961
 82566127, 0.001867602, 0.002451145, -0.001267069, 0.0002593961
 82666087, 0.001338703, 0.002282082, -0.0009458786, 0.0002593961
 82766047, 0.001135314, 0.00227007, -0.001552654, 0.0002593961
 82866007, 0.0003662581, 0.002405746, -0.001521086, 0.0002593961
 82965967, -0.000242737, 0.002150793, -0.001324067, 0.0002593961
 83065927, -0.001215011, 0.002163904, -0.001537032, 0.0002593961
 83165887, -0.002378331, 0.001927578, -0.001675995, 0.0002593961
 83265847, -0.002769673, 0.001967842, -0.000835268, 0.0002593961
 83365807, -0.002792937, 0.001684668, -0.0009491652, 0.0002593961
 83465767, -0.002842954, 0.001955186, -0.0007965143, 0.0002593961
 83566560, -0.00314645, 0.001823657, -0.00102732, 0.0002615578
 83666520, -0.003832901, 0.00218777, -0.0008078847, 0.0002593961
 83771478, -0.003661419, 0.002714458, -0.001056763, 0.000272366
 83871438, -0.00378748, 0.002834985, -0.001091412, 0.0002593961
 83971398, -0.005677077, 0.00262456, -0.001575461, 0.0002593961
 84071358, -0.009141262, 0.002778232, -0.002449186, 0.0002593961
 84171318, -0.01671701, 0.003030346, -0.003046293, 0.0002593961
 84271278, -0.02644511, 0.003593968, -0.00323035, 0.0002593961
 84371238, -0.03713365, 0.004072937, -0.002968301, 0.0002593961
 84471198, -0.0474463, 0.004200458, -0.002566326, 0.0002593961
 84571158, -0.05692908, 0.004351431, -0.001820115, 0.0002593961
 84671118, -0.06664199, 0.004313353, -0.00131338, 0.0002593961
 84771078, -0.07532948, 0.004685708, -0.0008320719, 0.0002593961
 84871038, -0.08467738, 0.004492306, -0.0007211303, 0.0002593961
 84970998, -0.09434297, 0.004430878, -0.0002387868, 0.0002593961
 85070958, -0.1041792, 0.004526335, -0.0001637424, 0.0002593961
 85170918, -0.114372, 0.004851992, 0.0001872148, 0.0002593961
 85270878, -0.124803, 0.005050046, 0.0006757487, 0.0002593961
 85370838, -0.1342059, 0.005437387, 0.001304834, 0.0002593961
 85470798, -0.1444327, 0.005268887, 0.001264177, 0.0002593961
 85571591, -0.1558943, 0.005348968, 0.001755363, 0.0002615578
 85671551, -0.1651793, 0.005405934, 0.00204718, 0.0002593961
 85771511, -0.175212, 0.005396867, 0.002422217, 0.0002593961
 85876469, -0.1950943, 0.005646912, 0.002658132, 0.000272366
 85976429, -0.1963229, 0.005420242, 0.002739363, 0.0002593961
 86076389, -0.2070637, 0.00509272, 0.002739305, 0.0002593961
 86176349, -0.2169324, 0.004731671, 0.002964101, 0.0002593961
 86276309, -0.2269028, 0.004306857, 0.002982192, 0.0002593961
 86376269, -0.2364948, 0.003550281, 0.002510243, 0.0002593961
 86476229, -0.2459223, -0.000105063, 0.002090166, 0.0002593961
 86576189, -0.2523384, -0.007643461, 0.00160314, 0.0002593961
 86676149, -0.2560697, -0.01810494, 0.001159871, 0.0002593961
 86776109, -0.2574359, -0.02969863, 1.762402E-06, 0.0002593961
 86876069, -0.2591076, -0.04125653, -0.0005744387, 0.0002593961
 86976029, -0.2606527, -0.05227671, -0.001400315, 0.0002593961
 87075989, -0.2633245, -0.06262402, -0.001625738, 0.0002593961
 87175949, -0.2654293, -0.07322282, -0.002317751, 0.0002593961
 87275909, -0.26823, -0.08407636, -0.00253826, 0.0002593961
 87375869, -0.2702411, -0.09502926, -0.00267514, 0.0002593961
 87475829, -0.2723415, -0.1059239, -0.002703039, 0.0002593961
 87575789, -0.273704, -0.1166362, -0.00259557, 0.0002593961
 87676582, -0.2772173, -0.1290546, -0.00251478, 0.0002615578
 87776542, -0.2760524, -0.1386748, -0.001755796, 0.0002593961
 87876502, -0.2772875, -0.1497922, -0.001523384, 0.0002593961
 87981460, -0.2913809, -0.1688909, -0.001430079, 0.000272366
 88081420, -0.2746538, -0.1725835, -0.001130183, 0.0002593961
 88181380, -0.2671328, -0.1832798, -0.001148183, 0.0002593961
 88281340, -0.2575862, -0.1949616, -0.001031831, 0.0002593961
 88381300, -0.2464076, -0.2059163, -0.0007430929, 0.0002593961
 88481260, -0.2344598, -0.216939, -0.0003585692, 0.0002593961
 88581220, -0.2219192, -0.2265355, -0.0003322524, 0.0002593961
 88681180, -0.2093923, -0.2371887, 0.0004132382, 0.0002593961
 88781140, -0.1967156, -0.2464775, 3.124776E-05, 0.0002593961
 88881100, -0.1836025, -0.2530041, -0.0002407827, 0.0002593961
 88981060, -0.170186, -0.2564367, -0.0007554227, 0.0002593961
 89081020, -0.1567232, -0.2567943, -0.0009753867, 0.0002593961
 89180980, -0.1432825, -0.2541572, -0.00121309, 0.0002593961
 89280940, -0.1300105, -0.2519206, -0.0008352598, 0.0002593961
 89380900, -0.1166089, -0.2487184, -0.0009577375, 0.0002593961
 89480860, -0.1038678, -0.2463167, -0.0009788554, 0.0002593961
 89580820, -0.09191981, -0.2437366, -0.0009700255, 0.0002593961
 89680780, -0.08054363, -0.2423978, -0.001326479, 0.0002593961
 89781573, -0.07026853, -0.242624, -0.001572348, 0.0002615578
 89881533, -0.05829928, -0.2373003, -0.002405019, 0.0002593961
 89986491, -0.04905236, -0.2460193, -0.002532626, 0.000272366
 90086451, -0.03488752, -0.2329965, -0.002215233, 0.0002593961
 90186411, -0.02348131, -0.2309934, -0.002704871, 0.0002593961
 90286371, -0.01170738, -0.2285663, -0.002983323, 0.0002593961
 90386331, 0.0001115262, -0.2261498, -0.003064719, 0.0002593961
 90486291, 0.01127946, -0.2220454, -0.003485285, 0.0002593961
 90586251, 0.01901954, -0.2140264, -0.004581286, 0.0002593961
 90686211, 0.02312898, -0.2021783, -0.005084398, 0.0002593961
 90786171, 0.02359501, -0.1892757, -0.004808627, 0.0002593961
 90886131, 0.02300939, -0.1777354, -0.004203278, 0.0002593961
 90986091, 0.02202019, -0.1683677, -0.003496371, 0.0002593961
 91086051, 0.02127238, -0.1601956, -0.003118054, 0.0002593961
 91186011, 0.0205109, -0.1503961, -0.003124658, 0.0002593961
 91285971, 0.01938502, -0.1393046, -0.003711539, 0.0002593961
 91385931, 0.0184221, -0.1289953, -0.003341922, 0.0002593961
 91485891, 0.0176284, -0.1194531, -0.003409405, 0.0002593961
 91585851, 0.01679875, -0.111219, -0.002994565, 0.0002593961
 91685811, 0.0161653, -0.1033818, -0.002766163, 0.0002593961
 91785771, 0.01517153, -0.09596951, -0.002806165, 0.0002593961
 91886564, 0.01482528, -0.0897518, -0.003221705, 0.0002615578
 91986524, 0.01394456, -0.08152848, -0.003055521, 0.0002593961
 92091482, 0.01401807, -0.07865508, -0.002664548, 0.000272366
 92191442, 0.01210656, -0.0680034, -0.002421395, 0.0002593961
 92291402, 0.01056896, -0.05929132, -0.002904818, 0.0002593961
 92391362, 0.009328973, -0.05071001, -0.002722478, 0.0002593961
 92491322, 0.00815423, -0.04218004, -0.00263696, 0.0002593961
 92591282, 0.007480818, -0.03456333, -0.002374128, 0.0002593961
 92691242, 0.006623187, -0.02790595, -0.001792965, 0.0002593961
 92791202, 0.005703215, -0.02115241, -0.001836047, 0.0002593961
 92891162, 0.005000832, -0.0118641, -0.002424998, 0.0002593961
 92991122, 0.004058719, -0.00285963, -0.001957667, 0.0002593961
 93091082, 0.003162877, 0.002247585, -0.0008685855, 0.0002593961
 93191042, 0.002419982, 0.00262646, 0.000359737, 0.0002593961
 93291002, 0.001725449, 0.0006734799, 0.001005177, 0.0002593961
 93390962, 0.001404033, -0.001433582, 0.0008054156, 0.0002593961
 93490922, 0.0009028366, -0.001569267, 9.049729E-05, 0.0002593961
 93590882, 0.0005501999, -0.001964761, -0.0001903011, 0.0002593961
 93690842, 9.570628E-05, -0.002525567, -0.0004579214, 0.0002593961
 93790802, 3.435576E-05, -0.00278271, -0.000697665, 0.0002593961
 93890762, 7.698759E-05, -0.002497787, -0.0005691765, 0.0002593961
 93991555, -0.0001479596, -0.001903067, -0.0009694098, 0.0002615578
 94091515, -0.0001679435, -0.002401621, -0.0004065031, 0.0002593961
 94196473, -6.602932E-06, -0.004155652, 0.0003100144, 0.000272366
 94296433, 4.331478E-05, -0.006664661, 2.219147E-05, 0.0002593961
 94396393, 0.0001036738, -0.007766266, 7.503607E-05, 0.0002593961
 94496353, 0.0005693331, -0.00804127, -0.0001754309, 0.0002593961
 94596313, 0.0006869122, -0.007476892, -0.0004987354, 0.0002593961
 94696273, 0.0004996144, -0.007267613, -0.0005050438, 0.0002593961
 94796233, 0.0008721916, -0.006549878, -0.0005902373, 0.0002593961
 94896193, 0.0007477009, -0.004690513, -0.0007513569, 0.0002593961
 94996153, 0.001038924, -0.002712884, -0.0008058209, 0.0002593961
 95096113, 0.00145508, -0.001378478, -0.001301698, 0.0002593961
 95196073, 0.001681725, -0.0006768986, -0.0006488672, 0.0002593961
 95296033, 0.001656217, 0.001092208, -0.001008958, 0.0002593961
 95395993, 0.001709646, 0.002503579, -0.0005316825, 0.0002593961
 95495953, 0.002069417, 0.002488357, -0.0004526509, 0.0002593961
 95595913, 0.002154957, 0.002480359, -0.0008088045, 0.0002593961
 95695873, 0.002606557, 0.001384517, 0.0001081058, 0.0002593961
 95795833, 0.002879459, -0.0004608182, -0.0004611685, 0.0002593961
 95895793, 0.002697145, -0.001231258, -0.000861125, 0.0002593961
 95996586, 0.002888628, -0.001431708, -0.001240386, 0.0002615578
 96096546, 0.002855615, -0.0007719223, -0.0007449102, 0.0002593961
 96196506, 0.003039833, -0.0002179746, -0.0006809526, 0.0002593961
 96301464, 0.003215854, 0.0006530396, -0.0005101023, 0.000272366
 96401424, 0.003201159, 0.001653052, -0.001068197, 0.0002593961
