TimeUS,CAN,CAE,CAD,CAe,NAN,NAE,NAD,NAe,m10,m00,Gye
 8425795, 0.004006986, 0.007438341, -0.05017746, 0.02186494, 0.003943873, 0.000354655, -0.0777465, 0.0218591, -0.9757839, -0.2187366, 0.09172487
 8606556, 0.004163506, 0.000635169, -0.07968824, 0.02233471, 7.074319E-05, 0.0001198648, -0.0007054109, 0.0004690749, -0.9814928, -0.1914992, 220.9232
 8806476, 0.0005355576, 0.0001884395, -0.002910119, 0.0009943529, 0.0001939354, -3.825751E-05, -0.001141011, 0.0005187924, -0.9869444, -0.161061, 0.3378813
 9006396, 0.0006321043, 0.0002402368, -0.003047398, 0.00104407, -0.0001010162, 6.663505E-05, -0.00102109, 0.0005187924, -0.9908012, -0.1353249, 0.3503954
 9206316, 0.0002068696, 0.000178991, -0.003227427, 0.00104407, 0.0003481249, 0.0001230134, -0.001198114, 0.0005187924, -0.9935277, -0.1135901, 0.3503954
 9406236, 0.000464168, 0.0004174853, -0.003224717, 0.00104407, 0.0003297515, 0.0001381608, -0.001319561, 0.0005187924, -0.9954473, -0.09531382, 0.3503954
 9606156, 0.0005127486, 0.0002911257, -0.003677496, 0.00104407, 0.0005003771, 1.359625E-05, -0.001457522, 0.0005187924, -0.9968001, -0.07993525, 0.3503954
 9806076, 0.0007939882, 3.228498E-05, -0.003855324, 0.00104407, 0.0001265257, 3.983719E-05, -0.0009537052, 0.0005187924, -0.997752, -0.06701455, 0.3503954
 10005996, 0.0003804038, 0.0002773634, -0.003104074, 0.00104407, 0.0002425027, -6.320617E-05, -0.001088056, 0.0005187924, -0.9984211, -0.05617141, 0.3503954
 10205916, 0.0004856939, 0.0002150352, -0.003278303, 0.00104407, 8.313825E-06, 5.830422E-05, -0.001085152, 0.0005187924, -0.9988915, -0.0470736, 0.3503954
 10405836, 0.0003315607, 0.0005907961, -0.003291771, 0.00104407, -0.0001449769, 0.0001796339, -0.001353859, 0.0005187924, -0.9992223, -0.03943134, 0.3503954
 10606589, -2.152055E-05, 0.000340819, -0.003396729, 0.001046232, -0.0001191329, 0.0001777025, -0.001203912, 0.0005209541, -0.9994553, -0.03300076, 0.3379538
 10806509, 6.563244E-05, 0.0006512274, -0.003207417, 0.001046232, 0.000520425, 0.0002840615, -0.001150398, 0.0005187925, -0.9996176, -0.02764958, 0.3511209
 11006429, 0.0007988886, 0.0006525466, -0.003348105, 0.00104407, 1.66811E-05, 0.0002607755, -0.001129032, 0.0005187925, -0.9997318, -0.02315925, 0.3503954
 11206349, 0.0003290516, 0.0004192878, -0.003349069, 0.00104407, 0.0001923337, -4.270543E-05, -0.001485003, 0.0005187925, -0.9998121, -0.0193895, 0.3503954
 11406269, 0.000429687, 0.0002528724, -0.003615369, 0.00104407, -3.2068E-05, 8.688452E-05, -0.0009479031, 0.0005187925, -0.9998685, -0.01621914, 0.3503954
 11606189, 7.57641E-05, 0.000275548, -0.003288407, 0.00104407, -0.0001084834, 0.0001296229, -0.0009838387, 0.0005187925, -0.999908, -0.01356524, 0.3503954
 11806109, -0.0001009506, 0.0003097779, -0.003406511, 0.00104407, 7.038011E-05, 6.678293E-05, -0.001106682, 0.0005187925, -0.9999356, -0.01134733, 0.3503954
 12006029, 0.0001557161, 0.0003566805, -0.003263089, 0.00104407, 6.393763E-05, 0.0001242109, -0.001545705, 0.0005187925, -0.9999551, -0.009486442, 0.3503954
 12205949, 0.0002366921, 0.0003062244, -0.003754885, 0.00104407, 0.000365875, 4.798046E-05, -0.001518244, 0.0005187925, -0.9999686, -0.007919407, 0.3503954
 12405869, 0.000614407, 0.0001151223, -0.003812124, 0.00104407, 0.0002830414, 0.0002279551, -0.001121128, 0.0005187925, -0.9999782, -0.00660186, 0.3503954
 12605789, 0.0006176487, 0.0006779063, -0.003179422, 0.00104407, 0.0001930234, -0.0001670054, -0.001102553, 0.0005187925, -0.9999856, -0.005361785, 0.3503954
 12806542, 0.0002469753, -7.372557E-05, -0.003561116, 0.001046232, -0.0001541545, 0.00026566, -0.001112315, 0.0005209541, -0.9999906, -0.004313081, 0.3511209
 13006462, -0.0002882994, 0.0003844792, -0.003179225, 0.001046232, -0.0002490092, 0.000101977, -0.00117343, 0.0005187925, -0.9999941, -0.003434956, 0.3511209
 13206382, -5.69154E-05, 0.0006220454, -0.003517736, 0.00104407, 0.0003045104, 0.0001942372, -0.001281679, 0.0005187925, -0.9999964, -0.002699342, 0.3503954
 13406302, 0.0005389717, 0.0005871184, -0.003519029, 0.00104407, -0.0001295539, 0.0002088171, -0.00144564, 0.0005187925, -0.9999978, -0.00209014, 0.3503954
 13606222, 0.000121504, 0.0005345528, -0.003937302, 0.00104407, 0.0005865935, 0.0003471508, -0.001651664, 0.0005187925, -0.9999987, -0.001586682, 0.3503954
 13806142, 0.001214842, 0.0008252535, -0.003703723, 0.00104407, 0.000163684, -2.486747E-05, -0.0008320815, 0.0005187925, -0.9999993, -0.001155996, 0.3503954
 14006062, 0.0003849181, 0.0002449419, -0.002876741, 0.00104407, -7.910388E-05, 0.0003594473, -0.001419745, 0.0005187925, -0.9999997, -0.0007884266, 0.3503954
 14205982, 0.0001773837, 0.0005877924, -0.003557025, 0.00104407, 0.0002197603, 6.232609E-05, -0.001140696, 0.0005187925, -0.9999999, -0.0004773488, 0.3503954
 14405902, 0.0006956993, 0.0004388102, -0.003297555, 0.00104407, 0.0003726166, 0.0005170471, -0.001080037, 0.0005187925, -1, -0.0002165087, 0.3503954
 14605822, 0.0006362157, 0.0006391812, -0.003223736, 0.00104407, 0.000298696, -1.008673E-05, -0.001095409, 0.0005187925, -1, 4.453737E-06, 0.3503954
 14806575, 0.0002110773, 0.0001052794, -0.003430693, 0.001046232, -0.0001499314, 7.184823E-05, -0.001098627, 0.0005209541, -1, 0.000193196, 0.3511209
 15006495, 0.0002297818, 0.0002896857, -0.003286811, 0.001046232, 0.0002812749, 8.704318E-05, -0.00116471, 0.0005187925, -0.9999999, 0.0003498996, 0.3511209
 15206415, 0.0009341555, 0.0001804974, -0.003230551, 0.00104407, 0.0002963259, 5.406676E-05, -0.0007978466, 0.0005187925, -0.9999999, 0.0004827747, 0.3503954
 15406335, 0.0004619779, 0.0003110594, -0.002952578, 0.00104407, 0.0004041344, -7.269989E-05, -0.001082363, 0.0005187925, -0.9999999, 0.0005857089, 0.3503954
 15606255, 0.0006217841, 0.0001784561, -0.003288555, 0.00104407, 0.0002113169, -4.460682E-05, -0.001023954, 0.0005187925, -0.9999998, 0.0006516912, 0.3503954
 15806175, 0.0005260568, 0.0003687574, -0.0032429, 0.00104407, 0.0001007541, 0.00029391, -0.001524443, 0.0005187925, -0.9999998, 0.0006965795, 0.3503954
 16006095, 0.0007672432, 0.0008716793, -0.003825977, 0.00104407, 0.000576843, 0.0003308708, -0.001303354, 0.0005187925, -0.9999998, 0.0007384664, 0.3503954
 16206015, 0.0008953168, 0.0005953004, -0.003536105, 0.00104407, 0.0004756563, 0.0001874897, -0.001277304, 0.0005187925, -0.9999996, 0.0007857992, 0.3503954
 16405935, 0.0007678206, 0.0004315841, -0.003846155, 0.00104407, -0.000157018, 0.0001960327, -0.0009868166, 0.0005187925, -0.9999996, 0.0008353362, 0.3503954
 16605855, 0.0001026069, 0.0005915801, -0.003091868, 0.00104407, -6.281784E-05, 0.0002754589, -0.0009389399, 0.0005187925, -0.9999996, 0.0008762696, 0.3503954
 16805775, 0.0002128147, 0.0008513876, -0.003082075, 0.00104407, 0.0003401762, 0.0005611884, -0.0007913856, 0.0005187925, -0.9999995, 0.0009130954, 0.3503954
 17006528, 0.0004630645, 0.001011487, -0.003040806, 0.001046232, 0.0002793069, 0.0005769248, -0.001133217, 0.0005209541, -0.9999995, 0.0009438851, 0.3511209
 17206448, 0.0005585243, 0.001136065, -0.003302586, 0.001046232, 0.0001756517, 0.0001314903, -0.001312472, 0.0005187925, -0.9999995, 0.0009610558, 0.3511209
 17406368, 0.000321594, 0.0004473636, -0.003326441, 0.00104407, 0.0003085039, 0.0001112765, -0.001048266, 0.0005187925, -0.9999995, 0.0009829118, 0.3503954
 17606288, 0.0005650732, 0.0003728102, -0.003216471, 0.00104407, 0.0001838869, 0.0001937552, -0.0013701, 0.0005187925, -0.9999995, 0.001016411, 0.3503954
 17806208, 0.0006108388, 0.0005749035, -0.003656934, 0.00104407, 0.0002261915, 7.441758E-05, -0.0008662703, 0.0005187925, -0.9999994, 0.001046955, 0.3503954
 18006128, 0.0006499638, 0.0002494534, -0.003186585, 0.00104407, 0.0003265791, -0.0001114547, -0.001326501, 0.0005187925, -0.9999994, 0.001070391, 0.3503954
 18206048, 0.0005269087, 4.03257E-05, -0.003527041, 0.00104407, 0.0001142765, -0.0001260445, -0.001332063, 0.0005187925, -0.9999994, 0.001088511, 0.3503954
 18405968, 0.0004162767, 0.0004106256, -0.003662568, 0.00104407, -8.747228E-05, 0.0004207115, -0.001183465, 0.0005187925, -0.9999994, 0.001098731, 0.3503954
 18605888, 0.0001572771, 0.0008203088, -0.00330012, 0.00104407, 0.000424326, 0.0003295132, -0.001268672, 0.0005187925, -0.9999994, 0.001107018, 0.3503954
 18805808, 0.0007693113, 0.0004316328, -0.003753528, 0.00104407, 0.0005552925, -9.67396E-05, -0.001287756, 0.0005187925, -0.9999994, 0.001117325, 0.3503954
 19006561, 0.001018734, 0.0003634222, -0.003579065, 0.001046232, 0.0001358254, 0.0002567231, -0.0010384, 0.0005209541, -0.9999994, 0.00111637, 0.3511209
 19206481, 0.0002624438, 0.0005882359, -0.00320538, 0.001046232, 8.29635E-06, 0.000326335, -0.001026251, 0.0005187925, -0.9999994, 0.001113365, 0.3511209
 19406401, 0.0003232726, 0.0007135, -0.0030517, 0.00104407, -9.965494E-06, 0.0001737078, -0.001007066, 0.0005187925, -0.9999994, 0.001119479, 0.3503954
 19606321, 0.0005005889, 0.0007289767, -0.003478981, 0.00104407, 8.52292E-05, 0.0003266817, -0.001445521, 0.0005187925, -0.9999994, 0.001115724, 0.3503954
 19806241, 0.0002839714, 0.0008741372, -0.003761378, 0.00104407, 0.0002550263, 0.0001412194, -0.001481, 0.0005187925, -0.9999994, 0.001095365, 0.3503954
 20006161, 0.0003798912, 0.0005271695, -0.003443269, 0.00104407, -4.261693E-05, 0.0005298707, -0.001113936, 0.0005187925, -0.9999994, 0.001085892, 0.3503954
 20206081, 0.0003500145, 0.0008238909, -0.003289582, 0.00104407, 0.0003604341, 0.0001424167, -0.00102181, 0.0005187925, -0.9999994, 0.001086946, 0.3503954
 20406001, 0.0005827971, 0.0005048029, -0.002998646, 0.00104407, 0.0001789415, 0.0003969077, -0.001125162, 0.0005187925, -0.9999994, 0.001092296, 0.3503954
 20605921, 0.0005716662, 0.0008484332, -0.003236428, 0.00104407, 9.574564E-05, 0.0003032961, -0.001113081, 0.0005187925, -0.9999994, 0.001101529, 0.3503954
 20805841, 0.000660055, 0.0007264551, -0.003431611, 0.00104407, 0.0001895104, 0.000387307, -0.0009945871, 0.0005187925, -0.9999994, 0.001117184, 0.3503954
 21005761, 0.000725623, 0.0007546759, -0.002970171, 0.00104407, 0.0003260424, -0.0003219333, -0.001045245, 0.0005187925, -0.9999994, 0.001144195, 0.3503954
 21206514, 0.000887846, 4.138057E-05, -0.003204582, 0.001046232, 0.0001571905, 0.000116046, -0.001139693, 0.0005209541, -0.9999993, 0.001172096, 0.3511209
 21406434, 0.0008235534, 0.0004960071, -0.003284744, 0.001046232, 0.0002521005, 0.0004675709, -0.00135075, 0.0005187925, -0.9999993, 0.001186824, 0.3511209
 21606354, 0.0007303031, 0.000640077, -0.003677629, 0.00104407, -1.648867E-05, 0.0002943499, -0.001608054, 0.0005187925, -0.9999993, 0.001208311, 0.3503954
 21806274, 0.0004491869, 0.0004909675, -0.003691145, 0.00104407, 0.0004506171, 0.0002802227, -0.00119862, 0.0005187925, -0.9999993, 0.001238203, 0.3503954
 22006194, 0.0009470878, 0.0006260851, -0.003417378, 0.00104407, 0.0003167097, 0.0003369625, -0.001435004, 0.0005187925, -0.9999992, 0.001252066, 0.3503954
 22206114, 0.0007908312, 0.0006431498, -0.003768011, 0.00104407, 0.0002964185, 0.0002143737, -0.001191521, 0.0005187925, -0.9999992, 0.001254725, 0.3503954
 22406034, 0.0008379436, 0.0007064008, -0.003339614, 0.00104407, 0.0003897914, 0.0004744726, -0.0009734169, 0.0005187925, -0.999999, 0.001397995, 0.3503954
 22605954, 0.0008879494, 0.0008114258, -0.003152787, 0.00104407, 4.849632E-05, 0.0004663779, -0.001090941, 0.0005187925, -0.9999988, 0.001580459, 0.3503954
 22805874, 0.0004865757, 0.001092284, -0.003207095, 0.00104407, 4.793338E-05, 0.0007423209, -0.001306257, 0.0005187925, -0.9999985, 0.001746275, 0.3503954
 23005794, 0.0008315064, 0.001310379, -0.003614289, 0.00104407, 0.0004135978, 4.230158E-05, -0.001365085, 0.0005187925, -0.9999982, 0.001907763, 0.3503954
 23206547, 0.001225687, 0.0007875562, -0.003662484, 0.001046232, 0.0004879811, 0.000505391, -0.001301611, 0.0005209541, -0.9999979, 0.002064552, 0.3511209
 23406467, 0.001396067, 0.001226763, -0.003432066, 0.001046232, 0.0003516128, 0.0002189294, -0.001085912, 0.0005187925, -0.9999975, 0.002217092, 0.3511209
 23606387, 0.001443412, 0.001201334, -0.003017551, 0.00104407, 0.0002387452, 0.0005232945, -0.001110106, 0.0005187925, -0.9999971, 0.002365881, 0.3503954
 23806307, 0.001554125, 0.001554261, -0.003425411, 0.00104407, 0.000940025, 0.0003586661, -0.001219326, 0.0005187925, -0.9999968, 0.002510103, 0.3503954
 24006227, 0.002325547, 0.001351605, -0.003437204, 0.00104407, 0.0006202274, 0.0007164354, -0.001402862, 0.0005187925, -0.9999964, 0.002649452, 0.3503954
 24206147, 0.001908229, 0.001817612, -0.003325171, 0.00104407, 0.0007174528, 0.0007474148, -0.0008603586, 0.0005187925, -0.9999959, 0.002784539, 0.3503954
 24406067, 0.001725076, 0.002233088, -0.0030706, 0.00104407, 0.0006258731, 0.0007497288, -0.00110548, 0.0005187925, -0.9999956, 0.002915905, 0.3503954
 24605987, 0.002050037, 0.00200246, -0.003377829, 0.00104407, 0.0008613485, 0.0007355848, -0.001214117, 0.0005187925, -0.9999952, 0.003044554, 0.3503954
 24805907, 0.002192338, 0.001999978, -0.003369249, 0.00104407, 0.0006208947, 0.0007600764, -0.001179848, 0.0005187925, -0.9999948, 0.003169505, 0.3503954
 25005827, 0.002207682, 0.002149247, -0.003509192, 0.00104407, 0.001042674, 0.0007218914, -0.00120232, 0.0005187925, -0.9999944, 0.003290327, 0.3503954
 25206580, 0.00251916, 0.002367866, -0.003634448, 0.001046232, 0.0009106157, 0.001246673, -0.001342204, 0.0005209541, -0.9999939, 0.003408836, 0.3511209
 25406500, 0.002650827, 0.002797163, -0.003617994, 0.001046232, 0.0009100105, 0.0009575815, -0.001143612, 0.0005187925, -0.9999936, 0.00352441, 0.3511209
 25606420, 0.002656525, 0.002613248, -0.003499579, 0.00104407, 0.0008802569, 0.0007695482, -0.00124645, 0.0005187925, -0.9999931, 0.003636122, 0.3503954
 25806340, 0.00258644, 0.002593986, -0.003448187, 0.00104407, 0.0008004549, 0.0009528906, -0.001197065, 0.0005187925, -0.9999927, 0.003744978, 0.3503954
 26006260, 0.002819042, 0.002556136, -0.003574568, 0.00104407, 0.001192641, 0.001017484, -0.001345124, 0.0005187925, -0.9999923, 0.003850273, 0.3503954
 26206180, 0.003155371, 0.002911827, -0.003643029, 0.00104407, 0.001179431, 0.001155722, -0.001241372, 0.0005187925, -0.9999918, 0.00395333, 0.3503954
 26406100, 0.003409031, 0.003294641, -0.003519758, 0.00104407, 0.001249209, 0.001136854, -0.001147937, 0.0005187925, -0.9999914, 0.004053763, 0.3503954
 26606020, 0.003563228, 0.003013845, -0.003210583, 0.00104407, 0.001112841, 0.001042783, -0.001540309, 0.0005187925, -0.9999909, 0.004152242, 0.3503954
 26805940, 0.003279042, 0.003264928, -0.003507798, 0.00104407, 0.001211643, 0.001355438, -0.0008712525, 0.0005187925, -0.9999906, 0.004247685, 0.3503954
 27005860, 0.003299964, 0.003517471, -0.003054669, 0.00104407, 0.00101947, 0.001118599, -0.001102221, 0.0005187925, -0.9999901, 0.00434141, 0.3503954
 27205780, 0.003213639, 0.003295896, -0.003215091, 0.00104407, 0.001403652, 0.001256704, -0.001315387, 0.0005187925, -0.9999897, 0.004431373, 0.3503954
 27406533, 0.003660231, 0.003393792, -0.003569551, 0.001046232, 0.001230556, 0.0009161815, -0.001256764, 0.0005209541, -0.9999893, 0.004520884, 0.3511209
 27606453, 0.003739289, 0.003274851, -0.003449091, 0.001046232, 0.001363215, 0.001241403, -0.001047423, 0.0005187925, -0.9999888, 0.0046075, 0.3511209
 27806373, 0.003927548, 0.00370741, -0.003462837, 0.00104407, 0.001225613, 0.001485481, -0.001237932, 0.0005187925, -0.9999886, 0.004649613, 0.3503954
 28006293, 0.00357312, 0.003900827, -0.003441289, 0.00104407, 0.001351303, 0.001541931, -0.001305067, 0.0005187925, -0.9999884, 0.004691385, 0.3503954
 28206213, 0.003878781, 0.004066319, -0.003588898, 0.00104407, 0.00123478, 0.001065601, -0.001310487, 0.0005187925, -0.9999882, 0.004731502, 0.3503954
 28406133, 0.003875309, 0.00359405, -0.003482693, 0.00104407, 0.001349967, 0.001261987, -0.00120284, 0.0005187925, -0.999988, 0.004771, 0.3503954
 28606053, 0.003996735, 0.003627035, -0.003141673, 0.00104407, 0.001502773, 0.001464405, -0.001276028, 0.0005187925, -0.9999877, 0.004809489, 0.3503954
 28805973, 0.004186694, 0.00399668, -0.003575115, 0.00104407, 0.001435551, 0.001648441, -0.001376184, 0.0005187925, -0.9999876, 0.004846101, 0.3503954
 29005893, 0.004105717, 0.004410656, -0.003437569, 0.00104407, 0.001588193, 0.001531545, -0.000969686, 0.0005187925, -0.9999874, 0.004881929, 0.3503954
 29205813, 0.004236048, 0.004033575, -0.003155568, 0.00104407, 0.001411327, 0.001467225, -0.00108621, 0.0005187925, -0.9999871, 0.004917019, 0.3503954
 29406566, 0.004143007, 0.004194919, -0.003322732, 0.001046232, 0.001510462, 0.00161116, -0.0009477411, 0.0005209541, -0.999987, 0.004950724, 0.3511209
 29606486, 0.004370492, 0.004459273, -0.002995694, 0.001046232, 0.001824009, 0.001506404, -0.001189391, 0.0005187925, -0.9999868, 0.00498374, 0.3511209
 29806406, 0.004669531, 0.004547336, -0.003683808, 0.00104407, 0.001330228, 0.001852265, -0.001276065, 0.0005187925, -0.9999865, 0.005016102, 0.3503954
 30006326, 0.004184928, 0.004801448, -0.003377988, 0.00104407, 0.001566633, 0.001208259, -0.001141039, 0.0005187925, -0.9999864, 0.005046719, 0.3503954
 30206246, 0.004458461, 0.004002587, -0.003493249, 0.00104407, 0.001539352, 0.001597048, -0.001495316, 0.0005187925, -0.9999863, 0.005077652, 0.3503954
 30406166, 0.004581202, 0.004622503, -0.003626583, 0.00104407, 0.001619496, 0.001893348, -0.001282509, 0.0005187925, -0.9999861, 0.005107534, 0.3503954
 30606086, 0.004723102, 0.004662281, -0.003530829, 0.00104407, 0.001939903, 0.001540782, -0.001111375, 0.0005187925, -0.9999858, 0.005136319, 0.3503954
 30806006, 0.004897509, 0.00432167, -0.003114246, 0.00104407, 0.001481945, 0.001285997, -0.001401436, 0.0005187925, -0.9999857, 0.005163507, 0.3503954
 31005926, 0.004564887, 0.004408577, -0.003522504, 0.00104407, 0.001454817, 0.001393098, -0.001455729, 0.0005187925, -0.9999856, 0.005190898, 0.3503954
 31205846, 0.004600499, 0.004452202, -0.003817701, 0.00104407, 0.001712651, 0.001440397, -0.001156494, 0.0005187925, -0.9999853, 0.005216841, 0.3503954
 31405766, 0.00505529, 0.004461809, -0.003135828, 0.00104407, 0.001676296, 0.001424882, -0.0009139659, 0.0005187925, -0.9999852, 0.00524247, 0.3503954
 31606519, 0.004495535, 0.004499161, -0.003234597, 0.001046232, 0.001557492, 0.001421278, -0.001553053, 0.0005209541, -0.9999851, 0.00526712, 0.3511209
 31806439, 0.004563143, 0.004758829, -0.003687283, 0.001046232, 0.001482887, 0.002014725, -0.001100058, 0.0005187925, -0.9999849, 0.005292699, 0.3511209
 32006359, 0.004678439, 0.005111923, -0.003390574, 0.00104407, 0.001676621, 0.001614238, -0.00100599, 0.0005187925, -0.9999847, 0.005317509, 0.3503954
 32206279, 0.004794906, 0.004915705, -0.003110483, 0.00104407, 0.001691171, 0.001674508, -0.0008180968, 0.0005187925, -0.9999846, 0.005340965, 0.3503954
 32406199, 0.00496152, 0.005064273, -0.002818563, 0.00104407, 0.001719369, 0.001880328, -0.001002478, 0.0005187925, -0.9999845, 0.005364892, 0.3503954
 32606119, 0.004971588, 0.005212798, -0.00347512, 0.00104407, 0.001549004, 0.001624453, -0.001136286, 0.0005187925, -0.9999843, 0.005388613, 0.3503954
 32806039, 0.004682213, 0.005017821, -0.003012716, 0.00104407, 0.001570973, 0.00163949, -0.0009843368, 0.0005187925, -0.9999841, 0.005411943, 0.3503954
 33005959, 0.004807923, 0.004834243, -0.003184862, 0.00104407, 0.001903833, 0.001516017, -0.001150983, 0.0005187925, -0.9999844, 0.005361597, 0.3503954
 33205879, 0.00534895, 0.004882406, -0.003215173, 0.00104407, 0.001813796, 0.001883918, -0.001322892, 0.0005187925, -0.9999846, 0.005312202, 0.3503954
 33405799, 0.005149845, 0.005104108, -0.003394937, 0.00104407, 0.001685066, 0.001692213, -0.001210255, 0.0005187925, -0.9999849, 0.005264468, 0.3503954
 33606552, 0.005084924, 0.005004729, -0.003464743, 0.001046232, 0.001463938, 0.001732259, -0.001162923, 0.0005209541, -0.9999852, 0.005216806, 0.3511209
 33806472, 0.005056572, 0.005233454, -0.00335983, 0.001046232, 0.002169271, 0.001902487, -0.001142792, 0.0005187925, -0.9999853, 0.005171436, 0.3511209
 34006392, 0.005536671, 0.005238465, -0.003336295, 0.00104407, 0.001504581, 0.00177325, -0.001076437, 0.0005187925, -0.9999856, 0.005127823, 0.3503954
 34206312, 0.004971487, 0.005065184, -0.003258643, 0.00104407, 0.001606069, 0.00187428, -0.001379809, 0.0005187925, -0.9999858, 0.005084915, 0.3503954
 34406232, 0.005000336, 0.00524891, -0.003722231, 0.00104407, 0.002140627, 0.002042018, -0.001016845, 0.0005187925, -0.9999861, 0.00504363, 0.3503954
 34606152, 0.005370764, 0.005409649, -0.003303399, 0.00104407, 0.001546347, 0.001931722, -0.001399367, 0.0005187925, -0.9999862, 0.005003394, 0.3503954
 34806072, 0.00488442, 0.005267895, -0.003627721, 0.00104407, 0.001856423, 0.00169427, -0.001234, 0.0005187925, -0.9999864, 0.004964662, 0.3503954
 35005992, 0.005272476, 0.005165166, -0.003337512, 0.00104407, 0.001846262, 0.001891769, -0.001212966, 0.0005187925, -0.9999865, 0.004925197, 0.3503954
 35205912, 0.005231248, 0.005220056, -0.003211814, 0.00104407, 0.002056293, 0.001890738, -0.0008238929, 0.0005187925, -0.9999868, 0.004887338, 0.3503954
 35405832, 0.005462505, 0.005412037, -0.003011421, 0.00104407, 0.001741448, 0.001809596, -0.001192094, 0.0005187925, -0.9999869, 0.004851339, 0.3503954
 35606585, 0.005204209, 0.005399356, -0.003345794, 0.001046232, 0.002204981, 0.001966154, -0.001264745, 0.0005209541, -0.9999871, 0.004814612, 0.3511209
 35806505, 0.005505502, 0.005778737, -0.003561487, 0.001046232, 0.001638337, 0.002225238, -0.001344576, 0.0005187925, -0.9999872, 0.004779799, 0.3511209
 36006425, 0.005019004, 0.005737427, -0.00338245, 0.00104407, 0.001781095, 0.001846755, -0.0009623502, 0.0005187925, -0.9999874, 0.004746939, 0.3503954
 36206345, 0.005224668, 0.005435928, -0.003210137, 0.00104407, 0.00227984, 0.001915765, -0.001587942, 0.0005187925, -0.9999875, 0.004714285, 0.3503954
 36406265, 0.005736961, 0.005467199, -0.003881068, 0.00104407, 0.001934389, 0.002233427, -0.001187853, 0.0005187925, -0.9999876, 0.004683104, 0.3503954
 36606185, 0.00562689, 0.006037053, -0.003279686, 0.00104407, 0.00194956, 0.001831807, -0.001624289, 0.0005187925, -0.9999877, 0.004651938, 0.3503954
 36806105, 0.005549026, 0.005422266, -0.003900043, 0.00104407, 0.002090589, 0.002192614, -0.00160551, 0.0005187925, -0.9999878, 0.004621691, 0.3503954
 37006025, 0.005684141, 0.005726406, -0.003843371, 0.00104407, 0.001997232, 0.001565303, -0.00121936, 0.0005187925, -0.999988, 0.004592939, 0.3503954
 37205945, 0.005533771, 0.005340118, -0.00353455, 0.00104407, 0.001970947, 0.001878101, -0.001233, 0.0005187925, -0.9999881, 0.004565179, 0.3503954
 37405865, 0.005431353, 0.005631323, -0.003288055, 0.00104407, 0.001875121, 0.001919767, -0.001112927, 0.0005187925, -0.9999882, 0.004538225, 0.3503954
 37605785, 0.005275109, 0.00560156, -0.003531722, 0.00104407, 0.001899611, 0.002126933, -0.001320749, 0.0005187925, -0.9999883, 0.004512572, 0.3503954
 37806538, 0.005544447, 0.005972657, -0.003418827, 0.001046232, 0.002115269, 0.002142778, -0.001070969, 0.0005209541, -0.9999884, 0.00448549, 0.3511209
 38006458, 0.00582692, 0.005973714, -0.003161653, 0.001046232, 0.002073764, 0.00226355, -0.001385902, 0.0005187925, -0.9999889, 0.004385376, 0.3511209
 38206378, 0.005536499, 0.005838576, -0.003439255, 0.00104407, 0.001909368, 0.002058175, -0.001215584, 0.0005187925, -0.9999893, 0.004288389, 0.3503954
 38406298, 0.005644451, 0.005706482, -0.003386663, 0.00104407, 0.002120357, 0.002255653, -0.001062705, 0.0005187925, -0.9999897, 0.004193725, 0.3503954
 38606218, 0.005802186, 0.006044429, -0.003282502, 0.00104407, 0.001893272, 0.001904599, -0.001250721, 0.0005187925, -0.9999901, 0.004101574, 0.3503954
 38806138, 0.005567382, 0.005553779, -0.003466688, 0.00104407, 0.002249365, 0.001644001, -0.001144677, 0.0005187925, -0.9999903, 0.004013711, 0.3503954
 39006058, 0.005906431, 0.005411063, -0.003240161, 0.00104407, 0.001977124, 0.002028301, -0.00136601, 0.0005187925, -0.9999908, 0.003926125, 0.3503954
 39205978, 0.005547309, 0.005587712, -0.003592984, 0.00104407, 0.001770303, 0.001914547, -0.0009408536, 0.0005187925, -0.9999911, 0.003841868, 0.3503954
 39405898, 0.005398662, 0.005541771, -0.003033351, 0.00104407, 0.001844689, 0.001917792, -0.001161012, 0.0005187925, -0.9999914, 0.003760078, 0.3503954
 39605818, 0.005523182, 0.005465562, -0.003308255, 0.00104407, 0.002018555, 0.00203647, -0.001103905, 0.0005187925, -0.9999917, 0.003679947, 0.3503954
 39806571, 0.005725385, 0.005889019, -0.003146724, 0.001046232, 0.001901719, 0.002135252, -0.000852937, 0.0005209541, -0.9999919, 0.003601694, 0.3511209
 40006491, 0.005753056, 0.00580741, -0.002849646, 0.001046232, 0.002096651, 0.002211729, -0.001366257, 0.0005187925, -0.9999923, 0.00352595, 0.3511209
 40206411, 0.005830717, 0.00606175, -0.003656311, 0.00104407, 0.002166705, 0.002261867, -0.00112584, 0.0005187925, -0.9999925, 0.003451999, 0.3503954
 40406331, 0.005953562, 0.005904948, -0.003264806, 0.00104407, 0.001724855, 0.00198117, -0.001132331, 0.0005187925, -0.9999927, 0.003380471, 0.3503954
 40606251, 0.00543743, 0.005665404, -0.003304062, 0.00104407, 0.002111637, 0.00212682, -0.0008995092, 0.0005187925, -0.999993, 0.003310309, 0.3503954
 40806171, 0.005487913, 0.005683886, -0.003041022, 0.00104407, 0.001885229, 0.001857449, -0.001229522, 0.0005187925, -0.9999932, 0.003242878, 0.3503954
 41006091, 0.005418844, 0.005800837, -0.003187522, 0.00104407, 0.001971577, 0.002368306, -0.0010103, 0.0005187925, -0.9999934, 0.003176342, 0.3503954
 41206011, 0.005645215, 0.006090235, -0.003260846, 0.00104407, 0.002170838, 0.002066217, -0.00158308, 0.0005187925, -0.9999936, 0.003112822, 0.3503954
 41405931, 0.00582777, 0.005729307, -0.003867431, 0.00104407, 0.001918972, 0.001962593, -0.0009163886, 0.0005187925, -0.9999938, 0.003050588, 0.3503954
 41605851, 0.005729459, 0.005773198, -0.00313916, 0.00104407, 0.001885766, 0.002309876, -0.001217306, 0.0005187925, -0.9999939, 0.002989988, 0.3503954
 41805771, 0.005534416, 0.006043733, -0.003507598, 0.00104407, 0.002075819, 0.001813716, -0.001541703, 0.0005187925, -0.9999942, 0.002931613, 0.3503954
 42006524, 0.00581285, 0.005592496, -0.003934811, 0.001046232, 0.002080349, 0.00174465, -0.001612775, 0.0005209541, -0.9999943, 0.002874141, 0.3511209
 42206444, 0.005898929, 0.005518659, -0.003759273, 0.001046232, 0.001983867, 0.002217572, -0.001058204, 0.0005187925, -0.9999944, 0.002818405, 0.3511209
 42406364, 0.005956393, 0.006033462, -0.003216075, 0.00104407, 0.002424943, 0.002015567, -0.001249498, 0.0005187925, -0.9999945, 0.002764443, 0.3503954
 42606284, 0.00610933, 0.005647837, -0.003454771, 0.00104407, 0.002198791, 0.001984108, -0.0008962263, 0.0005187925, -0.9999948, 0.002713173, 0.3503954
 42806204, 0.006174154, 0.005820693, -0.002987169, 0.00104407, 0.002424493, 0.001972903, -0.001304697, 0.0005187925, -0.9999948, 0.002661506, 0.3503954
 43006124, 0.006083967, 0.005871409, -0.003755001, 0.00104407, 0.001833776, 0.001909421, -0.001434267, 0.0005187925, -0.999995, 0.002611954, 0.3503954
 43206044, 0.005516896, 0.005889922, -0.003658826, 0.00104407, 0.001895022, 0.002234324, -0.001013907, 0.0005187925, -0.9999952, 0.002498416, 0.3503954
 43405964, 0.005606722, 0.00614606, -0.003135923, 0.00104407, 0.001996767, 0.002102965, -0.001226298, 0.0005187925, -0.9999955, 0.0023885, 0.3503954
 43605884, 0.005645587, 0.005984364, -0.003339988, 0.00104407, 0.002023819, 0.002058508, -0.000736078, 0.0005187925, -0.9999958, 0.002280941, 0.3503954
 43805804, 0.005754115, 0.005678162, -0.002926517, 0.00104407, 0.001845319, 0.001911706, -0.0009602674, 0.0005187925, -0.9999961, 0.002175998, 0.3503954
 44006557, 0.005474428, 0.005707472, -0.00330158, 0.001046232, 0.001899793, 0.002052787, -0.001051675, 0.0005209541, -0.9999962, 0.002073552, 0.3511209
 44206477, 0.005565961, 0.005722889, -0.003227823, 0.001046232, 0.002192596, 0.002079591, -0.0008905805, 0.0005187925, -0.9999964, 0.001975928, 0.3511209
 44406397, 0.005844823, 0.005750543, -0.00299606, 0.00104407, 0.00178577, 0.002097704, -0.001214692, 0.0005187925, -0.9999967, 0.001880306, 0.3503954
 44606317, 0.005654939, 0.006003593, -0.003550499, 0.00104407, 0.002425991, 0.001992652, -0.001086537, 0.0005187925, -0.9999968, 0.001787449, 0.3503954
 44806237, 0.006187351, 0.005793138, -0.003323582, 0.00104407, 0.00199576, 0.001984568, -0.00100137, 0.0005187925, -0.9999969, 0.001696569, 0.3503954
 45006157, 0.005458476, 0.00591965, -0.003094899, 0.00104407, 0.002090852, 0.001941128, -0.001133768, 0.0005187925, -0.9999971, 0.001608628, 0.3503954
 45206077, 0.005892398, 0.005587962, -0.003401283, 0.00104407, 0.00186956, 0.001957648, -0.001281774, 0.0005187925, -0.9999973, 0.001524044, 0.3503954
 45405997, 0.005654904, 0.005530327, -0.00343333, 0.00104407, 0.00207412, 0.001911731, -0.001082669, 0.0005187925, -0.9999974, 0.001441474, 0.3503954
 45605917, 0.005652855, 0.005747083, -0.003530075, 0.00104407, 0.002205848, 0.001878544, -0.001224455, 0.0005187925, -0.9999975, 0.001362258, 0.3503954
 45805837, 0.005893443, 0.005263946, -0.003541481, 0.00104407, 0.001734208, 0.001926028, -0.001029006, 0.0005187925, -0.9999976, 0.001283941, 0.3503954
 46006590, 0.005408934, 0.005684418, -0.003361522, 0.001046232, 0.001930393, 0.002166118, -0.001454255, 0.0005209541, -0.9999977, 0.001208475, 0.3511209
 46206510, 0.005611348, 0.005949573, -0.003683625, 0.001046232, 0.002275749, 0.002246814, -0.001059915, 0.0005187925, -0.9999979, 0.001135716, 0.3511209
 46406430, 0.006148552, 0.005973716, -0.03540035, 0.00104407, 0.002294335, 0.002019863, -0.07884086, 0.0005187925, -0.9999979, 0.001064387, 0.3503954
 46606350, 0.006947249, 0.006930823, -0.7313102, 0.00104407, 0.002446361, 0.002382843, -0.2004185, 0.0005187925, -0.999998, 0.0009957154, 0.3503954
 46806270, 0.00634193, 0.005903685, -1.158141, 0.00104407, 0.002002273, 0.001566942, -0.9178182, 0.0005187925, -0.9999996, 0.0008604349, 0.3503954
 47006190, 0.002604583, 0.001298599, -2.401044, 0.00104407, -0.0006048239, -0.001222781, -0.6313942, 0.0005187925, -0.9999994, 0.0006576503, 0.3503954
 47206110, -0.003467035, -0.004276679, -1.447881, 0.00104407, -0.00185482, -0.002181323, -0.3728036, 0.0005187925, -0.9999989, 0.0004561494, 0.3503954
 47406030, -0.004992304, -0.005851525, -1.048612, 0.00104407, -0.001407095, -0.001974852, -0.3696744, 0.0005187925, -0.9999987, 0.0002562286, 0.3503954
 47605950, -0.00383783, -0.005723448, -1.021397, 0.00104407, -0.001103349, -0.002219159, -0.3354071, 0.0005187925, -0.9999983, 6.603779E-05, 0.3503954
 47805870, -0.00236986, -0.00566443, -0.8871756, 0.00104407, -0.0006468619, -0.001796692, -0.2764444, 0.0005187925, -0.9999983, -5.018584E-05, 0.3503954
 48005790, -0.001355572, -0.004612146, -0.7330863, 0.00104407, -0.0005142218, -0.001630087, -0.2303755, 0.0005187925, -0.9999987, 0.0003907984, 0.3503954
 48206543, -0.0007544002, -0.002104275, -0.6131951, 0.001046232, 0.0002290988, 0.0003372081, -0.1927484, 0.0005209541, -0.9999989, 0.001223879, 0.3511209
 48406463, -0.0003922794, 0.001810604, -0.510155, 0.001046232, -0.0002573845, 0.001022773, -0.1598002, 0.0005187925, -0.9999982, 0.001849225, 0.3511209
 48606383, -0.001099529, 0.003300179, -0.4217612, 0.00104407, -0.0002254682, 0.001079758, -0.1313206, 0.0005187925, -0.9999985, 0.001733092, 0.3503954
 48806303, -0.0005319209, 0.003439596, 0.1572497, 0.00104407, 0.0001369092, 0.0009454931, 0.3992676, 0.0005187925, -0.9999996, 0.0008929759, 0.3503954
 49006223, 0.0008376005, 0.002909141, 1.057038, 0.00104407, 0.0005588405, 0.0009667565, 0.3316453, 0.0005187925, -0.9999998, -0.0005069221, 0.3503954
 49206143, 0.001514181, 0.002615782, 0.8865861, 0.00104407, 0.0004504602, 0.0005755902, 0.2829802, 0.0005187925, -0.9999987, -0.001499242, 0.3503954
 49406063, 0.00167209, 0.001848474, 0.7584898, 0.00104407, 0.0007610272, 0.0002016581, 0.2427751, 0.0005187925, -0.9999979, -0.001784566, 0.3503954
 49605983, 0.002290091, 0.0009906456, 0.6531937, 0.00104407, 0.0008941216, 0.0003202003, 0.2101344, 0.0005187925, -0.9999974, -0.001870392, 0.3503954
 49805903, 0.001865401, 0.0006230593, 0.5662001, 0.00104407, 0.000660142, -0.0001838126, 0.1828697, 0.0005187925, -0.9999965, -0.001953806, 0.3503954
 50005823, 0.001740442, -0.0004730248, 0.4936748, 0.00104407, 0.0007865689, -0.0002787097, 0.1598637, 0.0005187925, -0.9999964, -0.002021852, 0.3503954
 50206576, 0.002812624, 0.001146856, 1.03099, 0.001046232, 0.00211959, 0.001844166, 0.6195213, 0.0005209541, -0.9999958, -0.00223249, 0.3511209
 50406496, 0.01416381, 0.01005758, 1.539362, 0.001046232, 0.01137148, 0.00606133, 0.4257705, 0.0005187925, -0.9999699, -0.002727465, 0.3511209
 50606416, 0.05299481, 0.02185858, 1.057503, 0.00104407, 0.03088521, 0.0100106, 0.296263, 0.0005187925, -0.9999393, -0.003251529, 0.3503954
 50806336, 0.1080915, 0.02994879, 0.7523351, 0.00104407, 0.04891496, 0.01116808, 0.220674, 0.0005187925, -0.999922, -0.003615538, 0.3503954
 51006256, 0.1547018, 0.03329267, 0.5773098, 0.00104407, 0.06241671, 0.01249955, 0.177701, 0.0005187925, -0.9999088, -0.003780005, 0.3503954
 51206176, 0.1915132, 0.03570097, 0.4624444, 0.00104407, 0.07505774, 0.01297041, 0.1394468, 0.0005187925, -0.9998937, -0.003775189, 0.3503954
 51406096, 0.2257849, 0.03853729, 0.3567243, 0.00104407, 0.08669756, 0.01443413, 0.1042723, 0.0005187925, -0.9998735, -0.003675914, 0.3503954
 51606016, 0.258663, 0.04154065, 0.263386, 0.00104407, 0.09839123, 0.01525974, 0.07497254, 0.0005187925, -0.9998734, 0.0005790589, 0.3503954
 51805936, 0.2912542, 0.04363986, 0.1888153, 0.00104407, 0.1095376, 0.01571055, 0.05348638, 0.0005187925, -0.9975095, 0.070045, 0.3503954
 52005856, 0.3250528, 0.045234, 0.1345317, 0.00104407, 0.1222665, 0.01636858, 0.03829082, 0.0005187925, -0.9655455, 0.2595129, 0.3503954
 52205776, 0.3625437, 0.04758839, 0.09754021, 0.00104407, 0.135933, 0.01746042, 0.02862115, 0.0005187925, -0.8543338, 0.5154759, 0.3503954
 52406529, 0.4025435, 0.05204597, 0.07586649, 0.001046232, 0.1501988, 0.01972224, 0.02429655, 0.0005209541, -0.6490692, 0.750738, 0.3511209
 52606449, 0.4402755, 0.05964033, 0.06789573, 0.001046232, 0.1629614, 0.02282436, 0.02400566, 0.0005187925, -0.3999525, 0.8994526, 0.3511209
 52806369, 0.4774216, 0.06711912, 0.06893624, 0.00104407, 0.1763708, 0.02459358, 0.02476459, 0.0005187925, -0.1692079, 0.9606386, 0.3503954
 53006289, 0.5190807, 0.06967024, 0.07153256, 0.00104407, 0.1928552, 0.02436213, 0.02566408, 0.0005187925, 0.02013275, 0.9662366, 0.3503954
 53206209, 0.5665066, 0.06844839, 0.07328089, 0.00104407, 0.2103403, 0.02377638, 0.02642724, 0.0005187925, 0.1728604, 0.9421496, 0.3503954
 53406129, 0.6149676, 0.06837805, 0.07374759, 0.00104407, 0.2249369, 0.02453618, 0.0254142, 0.0005187925, 0.2549971, 0.9154148, 0.3503954
 53606049, 0.6450048, 0.07129609, 0.06964105, 0.00104407, 0.2283565, 0.02563368, 0.02321656, 0.0005187925, 0.2498729, 0.9101731, 0.3503954
 53805969, 0.6452183, 0.07637712, 0.06516215, 0.00104407, 0.2255663, 0.02876531, 0.02269215, 0.0005187925, 0.1836094, 0.9187142, 0.3503954
 54005889, 0.6418872, 0.08577221, 0.0634178, 0.00104407, 0.226973, 0.03238267, 0.02241909, 0.0005187925, 0.09880402, 0.9233969, 0.3503954
 54205809, 0.6497453, 0.09670707, 0.06211095, 0.00104407, 0.2312982, 0.03594271, 0.02124264, 0.0005187925, 0.03698416, 0.91919, 0.3503954
 54406562, 0.6621137, 0.1032348, 0.05955272, 0.001046232, 0.2349564, 0.03673975, 0.02043524, 0.0005209541, 0.01836343, 0.9105439, 0.3511209
 54606482, 0.667615, 0.1009923, 0.05769504, 0.001046232, 0.2362431, 0.03335445, 0.02044789, 0.0005187925, 0.03736831, 0.8994407, 0.3511209
 54806402, 0.6723819, 0.09123493, 0.05659357, 0.00104407, 0.2371417, 0.02977256, 0.01950702, 0.0005187925, 0.0729968, 0.886182, 0.3503954
 55006322, 0.6742061, 0.08228348, 0.05431945, 0.00104407, 0.2368641, 0.02760832, 0.01844271, 0.0005187925, 0.1035557, 0.87264, 0.3503954
 55206242, 0.6610997, 0.07711624, 0.0493714, 0.00104407, 0.2244436, 0.02676186, 0.01577364, 0.0005187925, 0.1167473, 0.8651844, 0.3503954
 55406162, 0.6156113, 0.0757347, 0.04297917, 0.00104407, 0.2045697, 0.02621466, 0.01487302, 0.0005187925, 0.1112547, 0.8623897, 0.3503954
 55606082, 0.5617003, 0.07181488, 0.03972016, 0.00104407, 0.1860699, 0.02375409, 0.01255391, 0.0005187925, 0.09486336, 0.8611902, 0.3503954
 55806002, 0.50582, 0.06507932, 0.03335593, 0.00104407, 0.1649627, 0.02137288, 0.01034598, 0.0005187925, 0.07810874, 0.8618936, 0.3503954
 56005922, 0.4438798, 0.05820271, 0.02717927, 0.00104407, 0.142917, 0.01880401, 0.008225696, 0.0005187925, 0.0680787, 0.862706, 0.3503954
 56205842, 0.3847989, 0.05132231, 0.02119687, 0.00104407, 0.1237857, 0.01655793, 0.006098395, 0.0005187925, 0.06702905, 0.8626918, 0.3503954
 56405762, 0.3328263, 0.04404097, 0.01524422, 0.00104407, 0.1066695, 0.0138261, 0.004656695, 0.0005187925, 0.07235702, 0.8622185, 0.3503954
 56606515, 0.2869463, 0.03836869, 0.00933102, 0.001046232, 0.09174249, 0.01307396, 0.001642692, 0.0005209541, 0.07937826, 0.8617107, 0.3511209
 56806435, 0.2448109, 0.03869835, 0.002830114, 0.001046232, 0.07749734, 0.01418675, -0.000883923, 0.0005187925, 0.08395742, 0.8617569, 0.3511209
 57006355, 0.2064039, 0.04023924, -0.002631339, 0.00104407, 0.06570081, 0.01293683, -0.001768901, 0.0005187925, 0.08458862, 0.8619874, 0.3503954
 57206275, 0.1741592, 0.03004037, -0.007404067, 0.00104407, 0.05382482, 0.006815859, -0.003997046, 0.0005187925, 0.08255243, 0.8637602, 0.3503954
 57406195, 0.1367149, 0.01312064, -0.0128155, 0.00104407, 0.03906165, 0.001790368, -0.005284614, 0.0005187925, 0.08035287, 0.8670548, 0.3503954
 57606115, 0.09362238, 0.001851612, -0.01569048, 0.00104407, 0.02424273, -0.0006636878, -0.005855742, 0.0005187925, 0.07895932, 0.8705698, 0.3503954
 57806035, 0.05857703, -0.001943892, -0.01483423, 0.00104407, 0.01577529, -0.0005325603, -0.004605406, 0.0005187925, 0.07846411, 0.8720733, 0.3503954
 58005955, 0.0425764, -0.0004147966, -0.01193771, 0.00104407, 0.01450076, 0.0005938691, -0.003742036, 0.0005187925, 0.07881853, 0.8713769, 0.3503954
 58205875, 0.0409606, 0.003349669, -0.01058683, 0.00104407, 0.01453198, 0.0008261743, -0.003965124, 0.0005187925, 0.07944414, 0.8706653, 0.3503954
 58405795, 0.0393119, -0.002274663, -0.01060303, 0.00104407, 0.01264278, -0.003948066, -0.002957049, 0.0005187925, 0.08020484, 0.8703852, 0.3503954
 58606548, 0.03472953, -0.01483672, -0.009038433, 0.001046232, 0.01094008, -0.007260534, -0.003693996, 0.0005209541, 0.08164433, 0.870542, 0.3511209
 58806468, 0.02776409, -0.02101143, -0.008648032, 0.001046232, 0.008150956, -0.007326983, -0.002416637, 0.0005187925, 0.08316345, 0.8704772, 0.3511209
 59006388, 0.02068867, -0.01948983, -0.005744444, 0.00104407, 0.006642671, -0.00578847, -0.001555489, 0.0005187925, 0.08409633, 0.8703383, 0.3503954
 59206308, 0.018708, -0.01182898, -0.001747236, 0.00104407, 0.006584969, -0.001409741, -3.086284E-06, 0.0005187925, 0.08417665, 0.8694246, 0.3503954
 59406228, 0.01903166, -0.0002267683, 0.001390761, 0.00104407, 0.006952472, 0.001198578, 0.001443576, 0.0005187925, 0.08305188, 0.8687664, 0.3503954
 59606148, 0.01993764, 0.004013451, 0.003612765, 0.00104407, 0.007079406, 0.001922735, 0.001490047, 0.0005187925, 0.08165116, 0.8682851, 0.3503954
 59806068, 0.02098976, 0.006366448, 0.004892321, 0.00104407, 0.008385032, 0.003310536, 0.001184223, 0.0005187925, 0.08038504, 0.8672209, 0.3503954
 60005988, 0.02321018, 0.01220188, 0.004652738, 0.00104407, 0.007324417, 0.005807828, 0.002173094, 0.0005187925, 0.07976158, 0.8671115, 0.3503954
 60205908, 0.0165118, 0.01881793, 0.004893002, 0.00104407, 0.003672756, 0.007412244, 0.001129149, 0.0005187925, 0.07979506, 0.867782, 0.3503954
 60405828, 0.01076649, 0.02432592, 0.004598447, 0.00104407, 0.00462081, 0.0103436, 0.002286543, 0.0005187925, 0.07968106, 0.8667727, 0.3503954
 60606581, 0.01324111, 0.03399476, 0.005922848, 0.001046232, 0.004340701, 0.01404718, 0.001399052, 0.0005209541, 0.07934564, 0.8665182, 0.3511209
 60806501, 0.00831418, 0.04055335, 0.004194857, 0.001046232, 0.001868662, 0.01393037, 0.001553942, 0.0005187925, 0.07867055, 0.867158, 0.3511209
 61006421, 0.004894747, 0.03276832, 0.003976908, 0.00104407, 0.001338045, 0.007457939, 0.001303665, 0.0005187925, 0.07815094, 0.8671633, 0.3503954
 61206341, 0.004213582, 0.01755613, 0.002772111, 0.00104407, 0.002218276, 0.004250458, 0.000494647, 0.0005187925, 0.07856058, 0.8667618, 0.3503954
 61406261, 0.00668981, 0.009787281, 0.001570368, 0.00104407, 0.003095998, 0.002751038, 0.0005792136, 0.0005187925, 0.07968107, 0.8660933, 0.3503954
 61606181, 0.008771108, 0.007381333, 0.001610694, 0.00104407, 0.003172542, 0.00248912, 0.0006397166, 0.0005187925, 0.08093977, 0.8656361, 0.3503954
 61806101, 0.0100093, 0.007225891, 0.001389375, 0.00104407, 0.004351327, 0.002982537, 0.0004064412, 0.0005187925, 0.08163792, 0.8645455, 0.3503954
 62006021, 0.01402348, 0.01011332, 0.00135262, 0.00104407, 0.004710422, 0.004489791, 0.0003950147, 0.0005187925, 0.08142004, 0.8640268, 0.3503954
 62205941, 0.01262617, 0.01080646, 0.0007417248, 0.00104407, 0.003439512, 0.002922361, 0.0003189432, 0.0005187925, 0.08092493, 0.8644797, 0.3503954
 62405861, 0.007813098, 0.007574971, 0.0009182092, 0.00104407, 0.002293881, 0.002489293, 0.0004643108, 0.0005187925, 0.08085623, 0.8643302, 0.3503954
 62605781, 0.007604005, 0.007323107, 0.0007848244, 0.00104407, 0.003599072, 0.002627554, 0.0001991953, 0.0005187925, 0.08102319, 0.8635914, 0.3503954
 62806534, 0.01094736, 0.009273151, -0.000150272, 0.001046232, 0.003732014, 0.004015934, -0.0004975394, 0.0005209541, 0.08098543, 0.8632882, 0.3511209
 63006454, 0.01021688, 0.01396835, -0.000373901, 0.001046232, 0.003824716, 0.006252338, -0.0002374664, 0.0005187925, 0.08071596, 0.8628666, 0.3511209
 63206374, 0.008919741, 0.01995905, -0.0005383626, 0.00104407, 0.002448574, 0.008241508, 0.0003635132, 0.0005187925, 0.08024, 0.8627938, 0.3503954
 63406294, 0.007122155, 0.02485535, 0.0007536435, 0.00104407, 0.002611642, 0.008354168, -5.863944E-06, 0.0005187925, 0.07950298, 0.8624751, 0.3503954
 63606214, 0.007904003, 0.0188139, -0.0001778749, 0.00104407, 0.003043585, 0.00336597, 5.030525E-05, 0.0005187925, 0.07884095, 0.8622537, 0.3503954
 63806134, 0.009928718, 0.004049378, -0.001984453, 0.00104407, 0.003918376, -0.001357946, -0.001268062, 0.0005187925, 0.07918275, 0.8620563, 0.3503954
 64006054, 0.01126054, -0.009113487, -0.00597412, 0.00104407, 0.003777302, -0.005834642, -0.0034609, 0.0005187925, 0.08046248, 0.8620708, 0.3503954
 64205974, 0.01036521, -0.01952973, -0.01237399, 0.00104407, 0.003112899, -0.008119595, -0.005667678, 0.0005187925, 0.08148888, 0.8623304, 0.3503954
 64405894, 0.009469068, -0.02504424, -0.01887356, 0.00104407, 0.003400149, -0.01116954, -0.008288886, 0.0005187925, 0.08147638, 0.8626059, 0.3503954
 64605814, 0.01103453, -0.03946742, -0.0246966, 0.00104407, 0.0042947, -0.01820684, -0.008825957, 0.0005187925, 0.08060801, 0.8627958, 0.3503954
 64806567, 0.01345196, -0.05787735, -0.02965129, 0.001046232, 0.004649371, -0.0232785, -0.01212072, 0.0005209541, 0.07981604, 0.8635321, 0.3511209
 65006487, 0.01106781, -0.06823005, -0.03708724, 0.001046232, 0.002867057, -0.02493864, -0.01387861, 0.0005187925, 0.07848681, 0.8645321, 0.3511209
 65206407, 0.006805223, -0.07229818, -0.04186543, 0.00104407, 0.001405972, -0.02633911, -0.01578364, 0.0005187925, 0.07644596, 0.8657461, 0.3503954
 65406327, 0.0053058, -0.07320105, -0.04702511, 0.00104407, 0.002640765, -0.02517833, -0.01699536, 0.0005187925, 0.07325882, 0.8661588, 0.3503954
 65606247, 0.008225199, -0.07021066, -0.05269995, 0.00104407, 0.003157489, -0.02433143, -0.02072468, 0.0005187925, 0.06914502, 0.8669527, 0.3503954
 65806167, 0.007947017, -0.07191462, -0.06030293, 0.00104407, 0.002250422, -0.0268468, -0.02245209, 0.0005187925, 0.06453882, 0.8682916, 0.3503954
 66006087, 0.006839728, -0.0775439, -0.06544649, 0.00104407, 0.003094365, -0.02831092, -0.02399647, 0.0005187925, 0.05977466, 0.8690044, 0.3503954
 66206007, 0.008032055, -0.08018077, -0.07076619, 0.00104407, 0.001828964, -0.02790107, -0.0265385, 0.0005187925, 0.05479988, 0.8705332, 0.3503954
 66405927, 0.002164736, -0.07737719, -0.07541698, 0.00104407, -0.001281406, -0.02599006, -0.02691359, 0.0005187925, 0.04934765, 0.8724876, 0.3503954
 66605847, -0.004403181, -0.07027909, -0.07535362, 0.00104407, -0.001422075, -0.02314825, -0.02642728, 0.0005187925, 0.0436589, 0.8731279, 0.3503954
 66805767, -0.002228973, -0.0636246, -0.07424898, 0.00104407, 0.000271844, -0.02129275, -0.02571684, 0.0005187925, 0.03760352, 0.8732827, 0.3503954
 67006520, 0.001630972, -0.0587922, -0.07399955, 0.001046232, 0.0007524517, -0.01961677, -0.02619006, 0.0005209541, 0.03150439, 0.8740028, 0.3511209
 67206440, 0.003139442, -0.05510481, -0.07378743, 0.001046232, 0.00122733, -0.01894756, -0.02530661, 0.0005187925, 0.02565156, 0.8743362, 0.3511209
 67406360, 0.005213398, -0.05331402, -0.07230361, 0.00104407, 0.002324402, -0.01868151, -0.02463474, 0.0005187925, 0.02022055, 0.8742805, 0.3503954
 67606280, 0.009180248, -0.0539287, -0.0718677, 0.00104407, 0.003620262, -0.02074118, -0.02570935, 0.0005187925, 0.01519044, 0.8745454, 0.3503954
 67806200, 0.009079459, -0.06720369, -0.07028419, 0.00104407, 0.002599309, -0.02780898, -0.02329616, 0.0005187925, 0.01103787, 0.874927, 0.3503954
 68006120, 0.007386044, -0.0840672, -0.06455217, 0.00104407, 0.002264344, -0.03189582, -0.02167677, 0.0005187925, 0.008148081, 0.8751326, 0.3503954
 68206040, 0.005634492, -0.09248246, -0.05888698, 0.00104407, 0.001336744, -0.03335795, -0.01934161, 0.0005187925, 0.005566991, 0.8755481, 0.3503954
 68405960, -1.372243E-05, -0.09399363, -0.05232813, 0.00104407, -0.001855041, -0.03237144, -0.01661622, 0.0005187925, 0.002611484, 0.8764482, 0.3503954
 68605880, -0.007272889, -0.09010812, -0.04508733, 0.00104407, -0.003070481, -0.02998229, -0.01428224, 0.0005187925, -0.001021624, 0.8768282, 0.3503954
 68805800, -0.008809472, -0.08132882, -0.03865505, 0.00104407, -0.002975427, -0.02603798, -0.01261936, 0.0005187925, -0.004843426, 0.8768944, 0.3503954
 69006553, -0.01061514, -0.06947879, -0.03471321, 0.001046232, -0.005286122, -0.02155473, -0.01189924, 0.0005209541, -0.008868275, 0.8779494, 0.3511209
 69206473, -0.01809199, -0.05588628, -0.03001268, 0.001046232, -0.007409475, -0.01678946, -0.008510973, 0.0005187925, -0.01243979, 0.8783839, 0.3511209
 69406393, -0.0217422, -0.04255799, -0.02242283, 0.00104407, -0.008043421, -0.01212777, -0.006880089, 0.0005187925, -0.01558404, 0.8786859, 0.3503954
 69606313, -0.02197887, -0.02941578, -0.01691244, 0.00104407, -0.00746701, -0.007803667, -0.00480282, 0.0005187925, -0.01770203, 0.8786529, 0.3503954
 69806233, -0.02075439, -0.0162096, -0.01153045, 0.00104407, -0.006920842, -0.002912046, -0.002446413, 0.0005187925, -0.01934761, 0.8784764, 0.3503954
 70006153, -0.0178988, -0.004256071, -0.005584381, 0.00104407, -0.005208744, 0.0004890241, -0.001416445, 0.0005187925, -0.02037294, 0.8779098, 0.3503954
 70206073, -0.01311201, 0.003615283, -0.0006806643, 0.00104407, -0.003972983, 0.002478161, 0.001216044, 0.0005187925, -0.02068181, 0.877281, 0.3503954
 70405993, -0.01032548, 0.008312896, 0.002299466, 0.00104407, -0.00367132, 0.00314047, 0.0004518787, 0.0005187925, -0.02071698, 0.8774703, 0.3503954
 70605913, -0.01157785, 0.01086282, 0.001624563, 0.00104407, -0.004386846, 0.004889777, 0.0006291757, 0.0005187925, -0.02074313, 0.8776156, 0.3503954
 70805833, -0.009943211, 0.01456122, 0.001653397, 0.00104407, -0.00186597, 0.005471735, 0.0003946715, 0.0005187925, -0.02104489, 0.8769482, 0.3503954
 71006586, -0.0050196, 0.01641846, 0.0001824709, 0.001046232, -0.001388282, 0.006106697, -0.0005547637, 0.0005209541, -0.02146708, 0.876891, 0.3511209
 71206506, -0.006132323, 0.01793296, -0.001363733, 0.001046232, -0.00293819, 0.006471437, -0.0007282621, 0.0005187925, -0.02185115, 0.8772798, 0.3511209
 71406426, -0.008551646, 0.01797201, -0.001336968, 0.00104407, -0.003525388, 0.006155299, -0.00029097, 0.0005187925, -0.02207573, 0.8775221, 0.3503954
 71606346, -0.009596975, 0.01725745, -0.0009594427, 0.00104407, -0.002799881, 0.005728946, -0.0005473117, 0.0005187925, -0.02198464, 0.877318, 0.3503954
 71806266, -0.007154572, 0.01623713, -0.001461713, 0.00104407, -0.001943663, 0.005556797, -0.0004406536, 0.0005187925, -0.02185968, 0.8768804, 0.3503954
 72006186, -0.003043667, 0.01542899, -0.001657328, 0.00104407, 0.0001240579, 0.005412993, -0.001156388, 0.0005187925, -0.02183177, 0.8763165, 0.3503954
 72206106, 0.0008031314, 0.01553924, -0.002485146, 0.00104407, 0.0009627775, 0.005506041, -0.0005263332, 0.0005187925, -0.02191691, 0.8756297, 0.3503954
 72406026, 0.003584272, 0.01503377, -0.00174627, 0.00104407, 0.000849754, 0.00537192, -0.001769478, 0.0005187925, -0.02209261, 0.8758245, 0.3503954
 72605946, -0.0009865023, 0.01362922, -0.004289276, 0.00104407, -0.002567967, 0.004064694, -0.001146425, 0.0005187925, -0.02227006, 0.8767815, 0.3503954
 72805866, -0.007890354, 0.01103511, -0.003470719, 0.00104407, -0.002738627, 0.003844835, -0.001365096, 0.0005187925, -0.0222583, 0.8768277, 0.3503954
 73005786, -0.008231822, 0.01081021, -0.003356294, 0.00104407, -0.002841054, 0.003836718, -0.001080206, 0.0005187925, -0.02215104, 0.8770595, 0.3503954
 73206539, -0.01068961, 0.009810112, -0.003191322, 0.001046232, -0.004756641, 0.002713631, -0.00121927, 0.0005209541, -0.02193078, 0.8776328, 0.3511209
 73406459, -0.0125085, 0.007593188, -0.002670354, 0.001046232, -0.003263349, 0.002490686, -0.0008508902, 0.0005187925, -0.02170508, 0.8772344, 0.3511209
 73606379, -0.0107033, 0.007006152, -0.002956573, 0.00104407, -0.003791533, 0.002438569, -0.001529227, 0.0005187925, -0.02163852, 0.8775486, 0.3503954
 73806299, -0.01033575, 0.005981483, -0.003267933, 0.00104407, -0.0033448, 0.001955667, -0.0005966338, 0.0005187925, -0.02170026, 0.8772182, 0.3503954
 74006219, -0.006765436, 0.005765593, -0.002835211, 0.00104407, -0.001011078, 0.002186721, -0.001716143, 0.0005187925, -0.02185707, 0.8767323, 0.3503954
 74206139, -0.002694251, 0.00629495, -0.00412985, 0.00104407, -0.0002435002, 0.002180592, -0.001614593, 0.0005187925, -0.02184863, 0.8766578, 0.3503954
 74406059, -0.001855798, 0.005110071, -0.004193865, 0.00104407, -0.0007833584, 0.001349003, -0.001686824, 0.0005187925, -0.02145182, 0.8764917, 0.3503954
 74605979, -0.003724765, 0.003680365, -0.003694247, 0.00104407, -0.001543712, 0.001141365, -0.001213028, 0.0005187925, -0.02125284, 0.8766425, 0.3503954
 74805899, -0.005506252, 0.002221096, -0.003142702, 0.00104407, -0.002369834, 0.0004649138, -0.001362565, 0.0005187925, -0.02131006, 0.8767754, 0.3503954
 75005819, -0.005311073, 0.001430528, -0.003864781, 0.00104407, -0.001359824, 0.0005325828, -0.001585633, 0.0005187925, -0.02127502, 0.8767166, 0.3503954
 75206572, -0.006306911, 0.00160043, -0.003777038, 0.001046232, -0.002464699, 0.0004363739, -0.001445996, 0.0005209541, -0.02109819, 0.8770767, 0.3511209
 75406492, -0.008477699, 0.002345195, -0.003788638, 0.001046232, -0.003020946, 0.001124515, -0.000753497, 0.0005187925, -0.02109114, 0.877093, 0.3511209
 75606412, -0.008774095, 0.003585888, -0.00325134, 0.00104407, -0.00349711, 0.001525636, -0.001226577, 0.0005187925, -0.02126241, 0.8774078, 0.3503954
 75806332, -0.009748906, 0.004827144, -0.003574742, 0.00104407, -0.00327067, 0.001813171, -0.001006038, 0.0005187925, -0.02153077, 0.8773248, 0.3503954
 76006252, -0.00961664, 0.005438151, -0.00333571, 0.00104407, -0.003484961, 0.002180963, -0.001186345, 0.0005187925, -0.02173708, 0.8774647, 0.3503954
 76206172, -0.01030694, 0.005353986, -0.003219633, 0.00104407, -0.003579139, 0.001683396, -0.001362671, 0.0005187925, -0.02159489, 0.8775312, 0.3503954
 76406092, -0.009748789, 0.00459673, -0.00352514, 0.00104407, -0.002853321, 0.001332736, -0.0008397057, 0.0005187925, -0.02131795, 0.8773699, 0.3503954
 76606012, -0.008434717, 0.004282382, -0.003057646, 0.00104407, -0.003227791, 0.001784544, -0.0006950887, 0.0005187925, -0.02134946, 0.8774237, 0.3503954
 76805932, -0.008048353, 0.005442274, -0.002874769, 0.00104407, -0.002398344, 0.00236459, -0.001443426, 0.0005187925, -0.02174057, 0.8773508, 0.3503954
 77005852, -0.006692464, 0.007151844, -0.003438558, 0.00104407, -0.001753509, 0.002688929, -0.001252714, 0.0005187925, -0.02195366, 0.8770439, 0.3503954
 77205772, -0.004450026, 0.007167506, -0.003488186, 0.00104407, -0.001004333, 0.002167703, -0.001116158, 0.0005187925, -0.02194345, 0.8767576, 0.3503954
 77406525, -0.002617959, 0.006337204, -0.004347768, 0.001046232, -0.001608771, 0.002178118, -0.001792314, 0.0005209541, -0.02166908, 0.8768653, 0.3511209
 77606445, -0.003628731, 0.006602079, -0.004301749, 0.001046232, -0.001093224, 0.001947358, -0.001326864, 0.0005187925, -0.02147683, 0.8769332, 0.3511209
 77806365, -0.005383458, 0.005737572, -0.004308892, 0.00104407, -0.00250464, 0.00212129, -0.001228286, 0.0005187925, -0.0214883, 0.8771691, 0.3503954
 78006285, -0.006637262, 0.006616532, -0.003693518, 0.00104407, -0.002227657, 0.002485117, -0.00152371, 0.0005187925, -0.02162022, 0.877053, 0.3503954
 78206205, -0.005191723, 0.00729466, -0.004167581, 0.00104407, -0.001535619, 0.002681189, -0.001359803, 0.0005187925, -0.02181024, 0.8768284, 0.3503954
 78406125, -0.004247316, 0.007465285, -0.003825995, 0.00104407, -0.001925714, 0.002544575, -0.00109129, 0.0005187925, -0.02194548, 0.8767114, 0.3503954
 78606045, -0.00290354, 0.007190105, -0.003681619, 0.00104407, -0.0003979986, 0.002436639, -0.001745958, 0.0005187925, -0.02192935, 0.8763584, 0.3503954
 78805965, -0.001060328, 0.006897256, -0.004166577, 0.00104407, -0.0003428613, 0.002303584, -0.001269376, 0.0005187925, -0.021896, 0.8762404, 0.3503954
 79005885, -0.002363768, 0.007564623, -0.00384837, 0.00104407, -0.001355946, 0.002883212, -0.001865368, 0.0005187925, -0.02178994, 0.8765664, 0.3503954
 79205805, -0.004238345, 0.007392392, -0.004122987, 0.00104407, -0.001763186, 0.002173231, -0.001176046, 0.0005187925, -0.02175847, 0.8766238, 0.3503954
 79406558, -0.005832735, 0.006244838, -0.003473998, 0.001046232, -0.00300834, 0.00218843, -0.001649939, 0.0005209541, -0.02174565, 0.8770276, 0.3511209
 79606478, -0.008878768, 0.00704615, -0.003586903, 0.001046232, -0.003223314, 0.002988301, -0.000877879, 0.0005187925, -0.02167913, 0.8769656, 0.3511209
 79806398, -0.009751407, 0.008357702, -0.003121052, 0.00104407, -0.004424312, 0.003060297, -0.0009730356, 0.0005187925, -0.02181667, 0.8774006, 0.3503954
 80006318, -0.011163, 0.008620681, -0.003081581, 0.00104407, -0.002777783, 0.002868959, -0.001304068, 0.0005187925, -0.02197035, 0.877041, 0.3503954
 80206238, -0.005395703, 0.008109831, -0.003879546, 0.00104407, -0.0006389208, 0.002781439, -0.001920995, 0.0005187925, -0.02205983, 0.8764046, 0.3503954
 80406158, -0.001273161, 0.008101819, -0.004054427, 0.00104407, -0.0001366277, 0.002928738, -0.000977466, 0.0005187925, -0.02210434, 0.8760917, 0.3503954
 80606078, 0.000304642, 0.007514267, -0.00279806, 0.00104407, 0.000789837, 0.002030878, -0.0007318216, 0.0005187925, -0.0221154, 0.8755153, 0.3503954
 80805998, 0.002824411, 0.005557183, -0.003663904, 0.00104407, 0.001016732, 0.001627966, -0.001677484, 0.0005187925, -0.02188641, 0.8755469, 0.3503954
 81005918, 0.001438515, 0.004686615, -0.004677188, 0.00104407, -0.0004187511, 0.001637647, -0.001892699, 0.0005187925, -0.02156224, 0.8760413, 0.3503954
 81205838, -0.002845176, 0.004747061, -0.004183003, 0.00104407, -0.00127618, 0.001619308, -0.001014971, 0.0005187925, -0.02138144, 0.8760046, 0.3503954
 81406591, -0.003413453, 0.004603381, -0.003076994, 0.001046232, -0.000498566, 0.0013263, -0.001642855, 0.0005209541, -0.02134896, 0.8755654, 0.3511209
 81606511, -0.0001333603, 0.005055635, -0.004290377, 0.001046232, 0.0005746902, 0.002150682, -0.001414327, 0.0005187925, -0.02168786, 0.8751981, 0.3511209
 81806431, 0.002612644, 0.005384397, -0.004213717, 0.00104407, 0.001000441, 0.00156087, -0.001906744, 0.0005187925, -0.0217979, 0.8750976, 0.3503954
 82006351, 0.00183807, 0.004291318, -0.004300992, 0.00104407, 0.0008390234, 0.001538355, -0.001070974, 0.0005187925, -0.02153016, 0.8747483, 0.3503954
 82206271, 0.004034802, 0.004756483, -0.003781336, 0.00104407, 0.002029947, 0.002283773, -0.00159688, 0.0005187925, -0.02131069, 0.8741837, 0.3503954
 82406191, 0.006481943, 0.006097415, -0.003195558, 0.00104407, 0.002495033, 0.002225352, -0.0006763863, 0.0005187925, -0.0211103, 0.8738084, 0.3503954
 82606111, 0.006133927, 0.007073119, -0.003011486, 0.00104407, 0.001557594, 0.002682066, -0.001631196, 0.0005187925, -0.02118889, 0.8740022, 0.3503954
 82806031, 0.003430912, 0.00795324, -0.003942699, 0.00104407, 0.0003963095, 0.002940369, -0.001211896, 0.0005187925, -0.02150051, 0.8741607, 0.3503954
 83005951, -0.0003903371, 0.007460253, -0.004309598, 0.00104407, -0.0008912639, 0.002360535, -0.001701747, 0.0005187925, -0.02179724, 0.8747733, 0.3503954
 83205871, -0.005647968, 0.005917807, -0.004481267, 0.00104407, -0.003121598, 0.001805879, -0.001111024, 0.0005187925, -0.02186058, 0.8751017, 0.3503954
 83405791, -0.008295745, 0.005427708, -0.002978245, 0.00104407, -0.003002298, 0.001936369, -0.0009521775, 0.0005187925, -0.02168908, 0.8751088, 0.3503954
 83606544, -0.008658679, 0.005616929, -0.00320472, 0.001046232, -0.003647042, 0.002095371, -0.001435773, 0.0005209541, -0.02145344, 0.875565, 0.3511209
 83806464, -0.01097468, 0.006624758, -0.003187214, 0.001046232, -0.003662318, 0.002586802, -0.001290803, 0.0005187925, -0.02146628, 0.8756278, 0.3511209
 84006384, -0.01429155, 0.008151157, -0.004606721, 0.00104407, -0.007589213, 0.003089479, -0.002695345, 0.0005187925, -0.02194449, 0.8776372, 0.3503954
 84206304, -0.03898723, 0.009774589, -0.008695824, 0.00104407, -0.02497485, 0.004106543, -0.003229793, 0.0005187925, -0.02231935, 0.8845274, 0.3503954
 84406224, -0.09669524, 0.01239031, -0.00937627, 0.00104407, -0.04829573, 0.004843357, -0.003223209, 0.0005187925, -0.02244473, 0.8936017, 0.3503954
 84606144, -0.1611951, 0.01362949, -0.007420116, 0.00104407, -0.07033652, 0.004900867, -0.001598348, 0.0005187925, -0.02238422, 0.9031985, 0.3503954
 84806064, -0.2216966, 0.01416203, -0.003547174, 0.00104407, -0.09016702, 0.00493925, -0.001392865, 0.0005187925, -0.02231696, 0.9130824, 0.3503954
 85005984, -0.2803717, 0.01406223, -0.002393963, 0.00104407, -0.1119382, 0.004861447, -0.0001742297, 0.0005187925, -0.02235008, 0.9241458, 0.3503954
 85205904, -0.3433322, 0.01467509, 0.0003478244, 0.00104407, -0.134948, 0.005489788, 0.0002150367, 0.0005187925, -0.02250023, 0.9358337, 0.3503954
 85405824, -0.4065897, 0.01633314, 0.00258901, 0.00104407, -0.1555055, 0.005732598, 0.001185935, 0.0005187925, -0.02261924, 0.9472973, 0.3503954
 85606577, -0.4668526, 0.01655814, 0.004330288, 0.001046232, -0.1779961, 0.006071212, 0.002070122, 0.0005209541, -0.02273676, 0.958877, 0.3511209
 85806497, -0.5308609, 0.01690632, 0.00651941, 0.001046232, -0.2012466, 0.005782253, 0.002264786, 0.0005187925, -0.0228955, 0.9702968, 0.3511209
 86006417, -0.598182, 0.01650304, 0.007607218, 0.00104407, -0.2255941, 0.005997976, 0.003329578, 0.0005187925, -0.02298623, 0.9807569, 0.3503954
 86206337, -0.6659901, 0.01620757, 0.009352398, 0.00104407, -0.2484209, 0.005198141, 0.003553733, 0.0005187925, -0.02293619, 0.9892735, 0.3503954
 86406257, -0.7295739, 0.01253266, 0.009066774, 0.00104407, -0.2702618, 0.002058843, 0.002793129, 0.0005187925, -0.02269624, 0.9955006, 0.3503954
 86606177, -0.785742, -0.0103333, 0.0063666, 0.00104407, -0.2845451, -0.01472383, 0.001188166, 0.0005187925, -0.02372612, 0.9986658, 0.3503954
 86806097, -0.8137946, -0.06996816, 0.002212142, 0.00104407, -0.2888809, -0.0402973, -0.0005252703, 0.0005187925, -0.02922322, 0.9995312, 0.3503954
 87006017, -0.8244306, -0.1420873, -0.002854042, 0.00104407, -0.2927071, -0.0650306, -0.001624074, 0.0005187925, -0.04404037, 0.998693, 0.3503954
 87205937, -0.8377122, -0.2101856, -0.005974504, 0.00104407, -0.2982882, -0.08865471, -0.003187238, 0.0005187925, -0.07292057, 0.9955959, 0.3503954
 87405857, -0.8529079, -0.2783296, -0.008582777, 0.00104407, -0.3030784, -0.1126587, -0.002825177, 0.0005187925, -0.1190251, 0.9892721, 0.3503954
 87605777, -0.8651211, -0.3471909, -0.008335277, 0.00104407, -0.30642, -0.1375804, -0.00349727, 0.0005187925, -0.1856567, 0.9774881, 0.3503954
 87806530, -0.8758823, -0.418543, -0.007523404, 0.001046232, -0.3105483, -0.1626076, -0.002060521, 0.0005209541, -0.2762422, 0.9556514, 0.3511209
