TimeUS,COFN,COFE,COFD,CNe,CEe,CDe,POFN,POFE,POFD,PNe,PEe,PDe
 126136192, 0.006548401, -0.006167858, -2.207911E-05, 0.0113154, 0.007790506, 0.1000008, -0.001318148, 0.00343244, 9.02152E-06, 0.01084175, 0.008346843, 0.1000026
 126236152, -0.008026995, 0.003278316, 1.809296E-05, 0.01046999, 0.00833348, 0.1000031, 0.006548401, -0.006167858, -2.207911E-05, 0.0113154, 0.007790506, 0.1000008
 126336112, -0.006021813, 0.005649814, 2.018617E-05, 0.01057976, 0.008478687, 0.1000033, -0.008026995, 0.003278316, 1.809296E-05, 0.01046999, 0.00833348, 0.1000031
 126436072, 0.008860311, 0.002393436, -7.37352E-06, 0.01145451, 0.008285076, 0.1000016, -0.006021813, 0.005649814, 2.018617E-05, 0.01057976, 0.008478687, 0.1000033
 126536032, 0.00719515, -0.006679595, -2.384365E-05, 0.01135551, 0.007763281, 0.1000007, 0.008860311, 0.002393436, -7.37352E-06, 0.01145451, 0.008285076, 0.1000016
 126635992, -0.006621873, -0.003804821, 1.329747E-06, 0.0105418, 0.007928899, 0.1000021, 0.00719515, -0.006679595, -2.384365E-05, 0.01135551, 0.007763281, 0.1000007
 126735952, -0.004634211, -0.005438433, -4.804866E-06, 0.01065189, 0.007838638, 0.1000018, -0.006621873, -0.003804821, 1.329747E-06, 0.0105418, 0.007928899, 0.1000021
 126835912, -0.006790788, 0.001546365, 1.263682E-05, 0.01053474, 0.008233916, 0.1000027, -0.004634211, -0.005438433, -4.804866E-06, 0.01065189, 0.007838638, 0.1000018
 126935872, -0.0003885179, -0.002100073, -3.793854E-06, 0.01089347, 0.008024786, 0.1000018, -0.006790788, 0.001546365, 1.263682E-05, 0.01053474, 0.008233916, 0.1000027
 127035832, -0.001598883, -0.0001628931, 1.87534E-06, 0.01082317, 0.008136687, 0.1000021, -0.0003885179, -0.002100073, -3.793854E-06, 0.01089347, 0.008024786, 0.1000018
 127135792, 0.008197933, -0.003035625, -1.753486E-05, 0.01141442, 0.007967567, 0.1000011, -0.001598883, -0.0001628931, 1.87534E-06, 0.01082317, 0.008136687, 0.1000021
 127235752, 0.007230274, -0.007524719, -2.541719E-05, 0.011357, 0.00771755, 0.1000007, 0.008197933, -0.003035625, -1.753486E-05, 0.01141442, 0.007967567, 0.1000011
 127335712, -0.008066291, -0.006807638, -2.944881E-06, 0.01046183, 0.007765436, 0.100002, 0.007230274, -0.007524719, -2.541719E-05, 0.011357, 0.00771755, 0.1000007
 127435672, 0.002834833, -0.007864621, -2.001587E-05, 0.01108607, 0.007704193, 0.100001, -0.008066291, -0.006807638, -2.944881E-06, 0.01046183, 0.007765436, 0.100002
 127536465, -0.004862636, 0.001049588, 8.825249E-06, 0.01063874, 0.008207085, 0.1000026, 0.002834833, -0.007864621, -2.001587E-05, 0.01108607, 0.007704193, 0.100001
 127636425, 0.001115569, 0.0006604228, -1.81891E-07, 0.01098042, 0.008185699, 0.100002, -0.004862636, 0.001049588, 8.825249E-06, 0.01063874, 0.008207085, 0.1000026
 127736385, -0.001810666, -0.006181851, -1.013936E-05, 0.01081148, 0.00779903, 0.1000014, 0.001115569, 0.0006604228, -1.81891E-07, 0.01098042, 0.008185699, 0.100002
 127836345, 0.00266893, -0.003022783, -9.836265E-06, 0.01107371, 0.007973214, 0.1000014, -0.001810666, -0.006181851, -1.013936E-05, 0.01081148, 0.00779903, 0.1000014
 127936305, 0.001966962, -0.004462357, -1.178676E-05, 0.01103217, 0.007892828, 0.1000013, 0.00266893, -0.003022783, -9.836265E-06, 0.01107371, 0.007973214, 0.1000014
 128036265, -0.004126546, -0.005016557, -4.545064E-06, 0.01067912, 0.007864255, 0.1000017, 0.001966962, -0.004462357, -1.178676E-05, 0.01103217, 0.007892828, 0.1000013
 128136225, -0.002370649, 0.003622328, 1.06255E-05, 0.01077969, 0.00836203, 0.1000026, -0.004126546, -0.005016557, -4.545064E-06, 0.01067912, 0.007864255, 0.1000017
 128236185, 0.004210247, -0.009363606, -2.484132E-05, 0.01117199, 0.007623885, 0.1000005, -0.002370649, 0.003622328, 1.06255E-05, 0.01077969, 0.00836203, 0.1000026
 128336145, 0.007684147, 0.005301324, 2.495199E-07, 0.01137842, 0.008466757, 0.100002, 0.004210247, -0.009363606, -2.484132E-05, 0.01117199, 0.007623885, 0.1000005
 128436105, 0.004757162, -0.005367917, -1.739376E-05, 0.01120105, 0.007841028, 0.100001, 0.007684147, 0.005301324, 2.495199E-07, 0.01137842, 0.008466757, 0.100002
 128536065, -0.006649328, -0.003862681, 1.213864E-06, 0.01053878, 0.007927728, 0.1000021, 0.004757162, -0.005367917, -1.739376E-05, 0.01120105, 0.007841028, 0.100001
 128636025, 0.004549325, -0.007952787, -2.243492E-05, 0.01119047, 0.007698505, 0.1000008, -0.006649328, -0.003862681, 1.213864E-06, 0.01053878, 0.007927728, 0.1000021
 128735985, -0.001532321, 0.00757381, 1.752492E-05, 0.01082883, 0.008604524, 0.1000031, 0.004549325, -0.007952787, -2.243492E-05, 0.01119047, 0.007698505, 0.1000008
 128835945, 0.002588501, -0.008700837, -2.124039E-05, 0.01107163, 0.007660552, 0.1000009, -0.001532321, 0.00757381, 1.752492E-05, 0.01082883, 0.008604524, 0.1000031
 128935905, -0.008850787, 0.0007955119, 1.369167E-05, 0.01042187, 0.008191063, 0.1000028, 0.002588501, -0.008700837, -2.124039E-05, 0.01107163, 0.007660552, 0.1000009
 129035865, -0.001001424, 0.002396302, 6.248278E-06, 0.01085689, 0.008288665, 0.1000024, -0.008850787, 0.0007955119, 1.369167E-05, 0.01042187, 0.008191063, 0.1000028
 129135825, 0.0009552495, -0.007200309, -1.600372E-05, 0.01097388, 0.007742045, 0.1000011, -0.001001424, 0.002396302, 6.248278E-06, 0.01085689, 0.008288665, 0.1000024
 129235785, -0.008096298, -0.004651331, 1.673262E-06, 0.01046185, 0.00788308, 0.100002, 0.0009552495, -0.007200309, -1.600372E-05, 0.01097388, 0.007742045, 0.1000011
 129335745, 0.009068978, 0.007332592, 2.470405E-06, 0.01146658, 0.008592586, 0.1000021, -0.008096298, -0.004651331, 1.673262E-06, 0.01046185, 0.00788308, 0.100002
 129435705, -0.004850702, 0.0005325495, 7.790046E-06, 0.01064053, 0.00817676, 0.1000024, 0.009068978, 0.007332592, 2.470405E-06, 0.01146658, 0.008592586, 0.1000021
 129535665, 0.006525408, -0.002826544, -1.481217E-05, 0.01131049, 0.00798093, 0.1000011, -0.004850702, 0.0005325495, 7.790046E-06, 0.01064053, 0.00817676, 0.1000024
 129636458, -0.004007926, 0.00145533, 8.528204E-06, 0.01068787, 0.008230266, 0.1000025, 0.006525408, -0.002826544, -1.481217E-05, 0.01131049, 0.00798093, 0.1000011
 129736418, 0.003407303, 0.005797335, 7.187388E-06, 0.01111862, 0.008494668, 0.1000024, -0.004007926, 0.00145533, 8.528204E-06, 0.01068787, 0.008230266, 0.1000025
 129836378, -0.00922662, -0.001175038, 1.038698E-05, 0.01040328, 0.008075749, 0.1000025, 0.003407303, 0.005797335, 7.187388E-06, 0.01111862, 0.008494668, 0.1000024
 129936338, -0.003596153, 0.008976559, 2.350078E-05, 0.01071646, 0.008688364, 0.1000034, -0.00922662, -0.001175038, 1.038698E-05, 0.01040328, 0.008075749, 0.1000025
 130036298, 0.004530168, 0.003447129, 8.485245E-07, 0.01118626, 0.008349188, 0.1000021, -0.003596153, 0.008976559, 2.350078E-05, 0.01071646, 0.008688364, 0.1000034
 130136258, -0.006512208, 0.008829361, 2.733744E-05, 0.01055683, 0.008675031, 0.1000037, 0.004530168, 0.003447129, 8.485245E-07, 0.01118626, 0.008349188, 0.1000021
 130236218, -0.004979225, -0.002563759, 1.611941E-06, 0.0106337, 0.00799662, 0.1000021, -0.006512208, 0.008829361, 2.733744E-05, 0.01055683, 0.008675031, 0.1000037
 130336178, -0.002517317, -0.002576295, -1.834031E-06, 0.01077261, 0.007995734, 0.1000019, -0.004979225, -0.002563759, 1.611941E-06, 0.0106337, 0.00799662, 0.1000021
 130436138, 0.006156275, -0.0007841243, -1.02394E-05, 0.01128813, 0.008096212, 0.1000014, -0.002517317, -0.002576295, -1.834031E-06, 0.01077261, 0.007995734, 0.1000019
 130536098, 0.0007972429, 0.008104316, 1.571418E-05, 0.01096684, 0.008635348, 0.100003, 0.006156275, -0.0007841243, -1.02394E-05, 0.01128813, 0.008096212, 0.1000014
 130636058, 8.79913E-05, 0.004970401, 1.019455E-05, 0.01092397, 0.008440362, 0.1000026, 0.0007972429, 0.008104316, 1.571418E-05, 0.01096684, 0.008635348, 0.100003
 130736018, -0.009021591, -0.004238809, 3.757296E-06, 0.01041379, 0.007901774, 0.1000023, 8.79913E-05, 0.004970401, 1.019455E-05, 0.01092397, 0.008440362, 0.1000026
 130835978, 0.00587062, -0.003012611, -1.445134E-05, 0.01127097, 0.007967018, 0.1000013, -0.009021591, -0.004238809, 3.757296E-06, 0.01041379, 0.007901774, 0.1000023
 130935938, 0.002552023, -0.004169491, -1.226228E-05, 0.01106943, 0.007903197, 0.1000015, 0.00587062, -0.003012611, -1.445134E-05, 0.01127097, 0.007967018, 0.1000013
 131035898, 0.008661312, 0.002212239, -7.444106E-06, 0.01144311, 0.008271476, 0.1000017, 0.002552023, -0.004169491, -1.226228E-05, 0.01106943, 0.007903197, 0.1000015
 131135858, -0.003298608, 0.001957623, 8.712079E-06, 0.01072942, 0.008255824, 0.1000027, 0.008661312, 0.002212239, -7.444106E-06, 0.01144311, 0.008271476, 0.1000017
 131235818, 0.008543015, -0.003760057, -1.986837E-05, 0.01144013, 0.007921009, 0.100001, -0.003298608, 0.001957623, 8.712079E-06, 0.01072942, 0.008255824, 0.1000027
 131335778, 0.003470561, 0.0003914337, -4.053461E-06, 0.01112438, 0.008162886, 0.1000019, 0.008543015, -0.003760057, -1.986837E-05, 0.01144013, 0.007921009, 0.100001
 131435738, -0.009399875, -0.004421223, 3.898813E-06, 0.01039518, 0.007888217, 0.1000024, 0.003470561, 0.0003914337, -4.053461E-06, 0.01112438, 0.008162886, 0.1000019
 131535698, -0.009675141, -0.007574404, -2.360012E-06, 0.01037984, 0.007718629, 0.1000021, -0.009399875, -0.004421223, 3.898813E-06, 0.01039518, 0.007888217, 0.1000024
 131635658, -0.002056904, 0.009308608, 2.24194E-05, 0.01080464, 0.008706967, 0.1000035, -0.009675141, -0.007574404, -2.360012E-06, 0.01037984, 0.007718629, 0.1000021
 131736451, 0.006150737, -0.00964429, -2.878771E-05, 0.01129523, 0.007600216, 0.1000005, -0.002056904, 0.009308608, 2.24194E-05, 0.01080464, 0.008706967, 0.1000035
 131836411, 0.001557308, -0.003721445, -9.944008E-06, 0.0110101, 0.007928423, 0.1000016, 0.006150737, -0.00964429, -2.878771E-05, 0.01129523, 0.007600216, 0.1000005
 131936371, -0.001504988, -0.001527556, -1.087821E-06, 0.01083029, 0.008054332, 0.1000021, 0.001557308, -0.003721445, -9.944008E-06, 0.0110101, 0.007928423, 0.1000016
 132036331, 0.006856482, -0.008042807, -2.61771E-05, 0.01133663, 0.007687257, 0.1000006, -0.001504988, -0.001527556, -1.087821E-06, 0.01083029, 0.008054332, 0.1000021
 132136291, 0.0005304748, -0.00529824, -1.168984E-05, 0.01094916, 0.007842925, 0.1000014, 0.006856482, -0.008042807, -2.61771E-05, 0.01133663, 0.007687257, 0.1000006
 132236251, -0.005445209, -0.002052346, 3.2821E-06, 0.01060733, 0.008025898, 0.1000023, 0.0005304748, -0.00529824, -1.168984E-05, 0.01094916, 0.007842925, 0.1000014
 132336211, -0.006189573, 0.009595809, 2.827842E-05, 0.01057488, 0.008724686, 0.1000037, -0.005445209, -0.002052346, 3.2821E-06, 0.01060733, 0.008025898, 0.1000023
 132436171, -0.002343439, 0.0007585262, 4.79655E-06, 0.01078213, 0.00818942, 0.1000022, -0.006189573, 0.009595809, 2.827842E-05, 0.01057488, 0.008724686, 0.1000037
 132536131, -0.007830779, 0.006586944, 2.428196E-05, 0.01048318, 0.008535811, 0.1000034, -0.002343439, 0.0007585262, 4.79655E-06, 0.01078213, 0.00818942, 0.1000022
 132636091, -0.005876697, -0.002194601, 3.585125E-06, 0.01058306, 0.008019266, 0.1000022, -0.007830779, 0.006586944, 2.428196E-05, 0.01048318, 0.008535811, 0.1000034
 132736051, 0.00584207, 0.00285785, -2.18546E-06, 0.01126575, 0.008315187, 0.1000019, -0.005876697, -0.002194601, 3.585125E-06, 0.01058306, 0.008019266, 0.1000022
 132836011, -4.416573E-05, -0.002024649, -4.07122E-06, 0.01091368, 0.008029376, 0.1000018, 0.00584207, 0.00285785, -2.18546E-06, 0.01126575, 0.008315187, 0.1000019
 132935971, 0.003179399, 0.007314282, 1.054213E-05, 0.01110505, 0.008589815, 0.1000026, -4.416573E-05, -0.002024649, -4.07122E-06, 0.01091368, 0.008029376, 0.1000018
 133035931, 0.003067915, -0.003945438, -1.224478E-05, 0.01109913, 0.007919923, 0.1000012, 0.003179399, 0.007314282, 1.054213E-05, 0.01110505, 0.008589815, 0.1000026
 133135891, -0.009931864, -0.006869503, -2.445986E-07, 0.01036437, 0.007762915, 0.1000018, 0.003067915, -0.003945438, -1.224478E-05, 0.01109913, 0.007919923, 0.1000012
 133235851, 0.005174373, 0.007318967, 0.07017684, 0.01160794, 0.008892815, 0.1000023, -0.009931864, -0.006869503, -2.445986E-07, 0.01036437, 0.007762915, 0.1000018
 133335811, -0.002578886, -0.004876417, 0.06031526, 0.0115146, 0.00846859, 0.1000016, 0.005174373, 0.007318967, 0.07017684, 0.01160794, 0.008892815, 0.1000023
 133435771, 0.005890255, 0.002708454, 0.122023, 0.01265168, 0.009411654, 0.1000019, -0.002578886, -0.004876417, 0.06031526, 0.0115146, 0.00846859, 0.1000016
 133535731, -0.0007015551, -0.001151068, 0.1750682, 0.01339621, 0.009713675, 0.1000176, 0.005890255, 0.002708454, 0.122023, 0.01265168, 0.009411654, 0.1000019
 133635691, -0.003768116, -0.006881731, 0.2497579, 0.01486425, 0.01007961, 0.1000479, -0.0007015551, -0.001151068, 0.1750682, 0.01339621, 0.009713675, 0.1000176
 133736484, -0.0065451, -0.007447097, 0.4548954, 0.01749201, 0.01175526, 0.1000886, -0.003768116, -0.006881731, 0.2497579, 0.01486425, 0.01007961, 0.1000479
 133836444, -0.007615644, 0.004239021, 0.6355677, 0.02115737, 0.01486728, 0.1001313, -0.0065451, -0.007447097, 0.4548954, 0.01749201, 0.01175526, 0.1000886
 133936404, -0.005111548, -0.01671675, 0.7789334, 0.0255991, 0.01784133, 0.1001408, -0.007615644, 0.004239021, 0.6355677, 0.02115737, 0.01486728, 0.1001313
 134036364, 0.006312172, -0.02145555, 0.9502017, 0.03108882, 0.02235536, 0.1001339, -0.005111548, -0.01671675, 0.7789334, 0.0255991, 0.01784133, 0.1001408
 134136324, -0.03481002, -0.03627715, 1.05655, 0.03619563, 0.02739456, 0.1000785, 0.006312172, -0.02145555, 0.9502017, 0.03108882, 0.02235536, 0.1001339
 134236284, -0.004338154, -0.003343909, 1.145888, 0.0429681, 0.03348033, 0.09998609, -0.03481002, -0.03627715, 1.05655, 0.03619563, 0.02739456, 0.1000785
 134336244, -0.04439235, 0.008214418, 1.265612, 0.04958181, 0.03952125, 0.09989554, -0.004338154, -0.003343909, 1.145888, 0.0429681, 0.03348033, 0.09998609
 134436204, -0.06214266, 0.01841044, 1.424673, 0.0575798, 0.0459503, 0.09985127, -0.04439235, 0.008214418, 1.265612, 0.04958181, 0.03952125, 0.09989554
 134536164, -0.02894885, 0.03660553, 1.505417, 0.06649373, 0.05264429, 0.09988087, -0.06214266, 0.01841044, 1.424673, 0.0575798, 0.0459503, 0.09985127
 134636124, 0.03229787, -0.05402851, 1.631301, 0.07650664, 0.05869896, 0.09996814, -0.02894885, 0.03660553, 1.505417, 0.06649373, 0.05264429, 0.09988087
 134736084, -0.07044752, -0.03178707, 1.682868, 0.0851867, 0.06613132, 0.1000437, 0.03229787, -0.05402851, 1.631301, 0.07650664, 0.05869896, 0.09996814
 134836044, 0.0580159, 0.02200336, 1.783618, 0.09634535, 0.07445384, 0.1000952, -0.07044752, -0.03178707, 1.682868, 0.0851867, 0.06613132, 0.1000437
 134936004, -0.08903, 0.0276388, 1.87633, 0.1056138, 0.08302617, 0.100107, 0.0580159, 0.02200336, 1.783618, 0.09634535, 0.07445384, 0.1000952
 135035964, 0.002733914, -0.05537414, 1.958274, 0.1169153, 0.09164329, 0.1001151, -0.08903, 0.0276388, 1.87633, 0.1056138, 0.08302617, 0.100107
 135135924, 0.03964309, 0.09544618, 1.992128, 0.1280682, 0.1019366, 0.100255, 0.002733914, -0.05537414, 1.958274, 0.1169153, 0.09164329, 0.1001151
 135235884, 0.03134309, 0.01576778, 2.091784, 0.13951, 0.1107025, 0.1005424, 0.03964309, 0.09544618, 1.992128, 0.1280682, 0.1019366, 0.100255
 135335844, 0.008399103, 0.1754013, 2.131988, 0.1513203, 0.1214533, 0.1007745, 0.03134309, 0.01576778, 2.091784, 0.13951, 0.1107025, 0.1005424
 135435804, 0.005052757, 0.03191803, 2.185718, 0.1638304, 0.1294706, 0.1009643, 0.008399103, 0.1754013, 2.131988, 0.1513203, 0.1214533, 0.1007745
 135535764, 0.001362743, -0.06689961, 2.216477, 0.1767332, 0.1381913, 0.1011981, 0.005052757, 0.03191803, 2.185718, 0.1638304, 0.1294706, 0.1009643
 135635724, -0.05578832, 0.179686, 2.284036, 0.1898549, 0.1493141, 0.1014567, 0.001362743, -0.06689961, 2.216477, 0.1767332, 0.1381913, 0.1011981
 135735684, -0.06804536, 0.04802488, 2.308113, 0.2033104, 0.1577877, 0.1014323, -0.05578832, 0.179686, 2.284036, 0.1898549, 0.1493141, 0.1014567
 135836477, 0.03515445, -0.04988587, 2.327511, 0.2174087, 0.1672237, 0.1010609, -0.06804536, 0.04802488, 2.308113, 0.2033104, 0.1577877, 0.1014323
 135936437, -0.1061088, -0.1513286, 2.34443, 0.2301646, 0.1773101, 0.100927, 0.03515445, -0.04988587, 2.327511, 0.2174087, 0.1672237, 0.1010609
 136036397, 0.02723748, -0.1621608, 2.352561, 0.243879, 0.1877861, 0.1012539, -0.1061088, -0.1513286, 2.34443, 0.2301646, 0.1773101, 0.100927
 136136357, -0.001132793, 0.09676581, 2.407455, 0.2570752, 0.1995417, 0.1019485, 0.02723748, -0.1621608, 2.352561, 0.243879, 0.1877861, 0.1012539
 136236317, 0.1570069, -0.1204001, 2.407464, 0.2717424, 0.2088586, 0.1027349, -0.001132793, 0.09676581, 2.407455, 0.2570752, 0.1995417, 0.1019485
 136336277, 0.1505683, 0.2059181, 2.414697, 0.2855468, 0.2214374, 0.2536176, 0.1570069, -0.1204001, 2.407464, 0.2717424, 0.2088586, 0.1027349
 136436237, -0.0996788, 0.15746, 2.455392, 0.2980042, 0.2303024, 0.2542913, 0.1505683, 0.2059181, 2.414697, 0.2855468, 0.2214374, 0.2536176
 136536197, -0.1321506, -0.181135, 2.450708, 0.311911, 0.2383353, 0.2544341, -0.0996788, 0.15746, 2.455392, 0.2980042, 0.2303024, 0.2542913
 136636157, 0.05721879, -0.1470349, 2.452663, 0.3268946, 0.2502632, 0.2539055, -0.1321506, -0.181135, 2.450708, 0.311911, 0.2383353, 0.2544341
 136736117, 0.2631211, -0.3309203, 2.449415, 0.3425465, 0.2624947, 0.2524275, 0.05721879, -0.1470349, 2.452663, 0.3268946, 0.2502632, 0.2539055
 136836077, -0.0618695, 0.1052529, 2.451468, 0.3528566, 0.2780267, 0.2502755, 0.2631211, -0.3309203, 2.449415, 0.3425465, 0.2624947, 0.2524275
 136936037, 0.3269871, 0.1497771, 2.446728, 0.3705279, 0.2905375, 0.2478672, -0.0618695, 0.1052529, 2.451468, 0.3528566, 0.2780267, 0.2502755
 137035997, 0.2475166, -0.3170702, 2.454894, 0.3849928, 0.2990718, 0.2457263, 0.3269871, 0.1497771, 2.446728, 0.3705279, 0.2905375, 0.2478672
 137135957, 0.396028, 0.2518755, 2.406192, 0.4015362, 0.31133, 0.2444816, 0.2475166, -0.3170702, 2.454894, 0.3849928, 0.2990718, 0.2457263
 137235917, 0.1102861, -0.2256157, 2.416411, 0.4143716, 0.3167229, 0.2442984, 0.396028, 0.2518755, 2.406192, 0.4015362, 0.31133, 0.2444816
 137335877, 0.506398, 0.2150331, 2.379846, 0.432892, 0.3284317, 0.2434618, 0.1102861, -0.2256157, 2.416411, 0.4143716, 0.3167229, 0.2442984
 137435837, 0.1931713, 0.3153329, 2.355818, 0.4439434, 0.3396969, 0.2418925, 0.506398, 0.2150331, 2.379846, 0.432892, 0.3284317, 0.2434618
 137535797, 0.547344, 0.3899169, 2.29077, 0.4604835, 0.3513727, 0.2400696, 0.1931713, 0.3153329, 2.355818, 0.4439434, 0.3396969, 0.2418925
 137635757, 0.4842784, 0.1853396, 2.242431, 0.4726025, 0.360124, 0.238112, 0.547344, 0.3899169, 2.29077, 0.4604835, 0.3513727, 0.2400696
 137735717, 0.5025004, 0.4397564, 2.194296, 0.4860891, 0.3729939, 0.234669, 0.4842784, 0.1853396, 2.242431, 0.4726025, 0.360124, 0.238112
 137835677, 0.3961863, -0.02111028, 2.102643, 0.4973911, 0.3785853, 0.2333224, 0.5025004, 0.4397564, 2.194296, 0.4860891, 0.3729939, 0.234669
 137936470, 0.2903918, 0.1448274, 2.010721, 0.5075741, 0.3872012, 0.235896, 0.3961863, -0.02111028, 2.102643, 0.4973911, 0.3785853, 0.2333224
 138036430, 0.1952497, -0.3085163, 1.934885, 0.5174319, 0.3910587, 0.2413064, 0.2903918, 0.1448274, 2.010721, 0.5075741, 0.3872012, 0.235896
 138136390, 0.2349247, -0.04338358, 1.836662, 0.5276673, 0.3973652, 0.246652, 0.1952497, -0.3085163, 1.934885, 0.5174319, 0.3910587, 0.2413064
 138236350, 0.1558619, -0.3840429, 1.713688, 0.5369909, 0.4017189, 0.2500822, 0.2349247, -0.04338358, 1.836662, 0.5276673, 0.3973652, 0.246652
 138336310, 0.01060654, 0.2571212, 1.612751, 0.5453462, 0.4110386, 0.251391, 0.1558619, -0.3840429, 1.713688, 0.5369909, 0.4017189, 0.2500822
 138436270, 0.3075435, 0.3730095, 1.489111, 0.555902, 0.4186783, 0.2508567, 0.01060654, 0.2571212, 1.612751, 0.5453462, 0.4110386, 0.251391
 138536230, 0.4143046, 0.191724, 1.344496, 0.5649037, 0.4233719, 0.2489193, 0.3075435, 0.3730095, 1.489111, 0.555902, 0.4186783, 0.2508567
 138636190, -0.1191393, -0.05206783, 1.196019, 0.568807, 0.427746, 0.2466102, 0.4143046, 0.191724, 1.344496, 0.5649037, 0.4233719, 0.2489193
 138736150, 0.2498166, -0.3857191, 1.053393, 0.576972, 0.4325635, 0.2444454, -0.1191393, -0.05206783, 1.196019, 0.568807, 0.427746, 0.2466102
 138836110, -0.06606187, -0.3537469, 0.9122717, 0.5793852, 0.4385815, 0.243142, 0.2498166, -0.3857191, 1.053393, 0.576972, 0.4325635, 0.2444454
 138936070, 0.0112383, -0.2751223, 0.7855291, 0.5830796, 0.4439306, 0.2425388, -0.06606187, -0.3537469, 0.9122717, 0.5793852, 0.4385815, 0.243142
 139036030, 0.1645274, -0.2882394, 0.6768367, 0.5867162, 0.4480726, 0.2429076, 0.0112383, -0.2751223, 0.7855291, 0.5830796, 0.4439306, 0.2425388
 139135990, -0.06670137, -0.3252601, 0.5133047, 0.5872186, 0.4505962, 0.2450048, 0.1645274, -0.2882394, 0.6768367, 0.5867162, 0.4480726, 0.2429076
 139235950, -0.4556339, 0.125431, 0.397353, 0.5877013, 0.4534328, 0.2479017, -0.06670137, -0.3252601, 0.5133047, 0.5872186, 0.4505962, 0.2450048
 139335910, 0.2436536, -0.003377564, 0.3131488, 0.591657, 0.4542061, 0.2492837, -0.4556339, 0.125431, 0.397353, 0.5877013, 0.4534328, 0.2479017
 139435870, -0.3512726, 0.5067812, 0.1866884, 0.5902642, 0.4590871, 0.2487321, 0.2436536, -0.003377564, 0.3131488, 0.591657, 0.4542061, 0.2492837
 139535830, -0.101784, 0.3038783, 0.06454954, 0.5913345, 0.4581453, 0.247693, -0.3512726, 0.5067812, 0.1866884, 0.5902642, 0.4590871, 0.2487321
 139635790, -0.4576751, 0.336167, -0.01144043, 0.5912325, 0.4579639, 0.2465498, -0.101784, 0.3038783, 0.06454954, 0.5913345, 0.4581453, 0.247693
 139735750, 0.4014305, 0.472164, -0.07968479, 0.5952747, 0.4597748, 0.2441438, -0.4576751, 0.336167, -0.01144043, 0.5912325, 0.4579639, 0.2465498
 139835710, 0.5290973, 0.3194974, -0.138729, 0.5961959, 0.4587577, 0.2410143, 0.4014305, 0.472164, -0.07968479, 0.5952747, 0.4597748, 0.2441438
 139935670, 0.1134564, 0.6017283, -0.2017591, 0.5923237, 0.4620894, 0.2376291, 0.5290973, 0.3194974, -0.138729, 0.5961959, 0.4587577, 0.2410143
 140036463, 0.1413038, 0.2787048, -0.2379493, 0.5910076, 0.4591833, 0.2356004, 0.1134564, 0.6017283, -0.2017591, 0.5923237, 0.4620894, 0.2376291
 140136423, 0.4757638, -0.1919132, -0.2236415, 0.5928316, 0.4547946, 0.2358032, 0.1413038, 0.2787048, -0.2379493, 0.5910076, 0.4591833, 0.2356004
 140236383, 0.06210885, 0.5929011, -0.2833552, 0.5887866, 0.4575981, 0.237917, 0.4757638, -0.1919132, -0.2236415, 0.5928316, 0.4547946, 0.2358032
 140336343, -0.09606386, 0.5973396, -0.3123013, 0.5859283, 0.4545512, 0.2422403, 0.06210885, 0.5929011, -0.2833552, 0.5887866, 0.4575981, 0.237917
 140436303, 0.04812146, 0.08035829, -0.2958201, 0.5832447, 0.4481309, 0.2472018, -0.09606386, 0.5973396, -0.3123013, 0.5859283, 0.4545512, 0.2422403
 140536263, 0.4064658, 0.2814777, -0.3155009, 0.5831224, 0.4473006, 0.2507729, 0.04812146, 0.08035829, -0.2958201, 0.5832447, 0.4481309, 0.2472018
 140636223, 0.3087816, -0.2550675, -0.2941361, 0.5811706, 0.4415585, 0.2523936, 0.4064658, 0.2814777, -0.3155009, 0.5831224, 0.4473006, 0.2507729
 140736183, 0.110891, -0.1345731, -0.3274484, 0.5800188, 0.4378828, 0.2521158, 0.3087816, -0.2550675, -0.2941361, 0.5811706, 0.4415585, 0.2523936
 140836143, -0.3039227, -0.03683108, -0.2787848, 0.5797329, 0.4336138, 0.251022, 0.110891, -0.1345731, -0.3274484, 0.5800188, 0.4378828, 0.2521158
 140936103, 0.1604536, 0.5864077, -0.2295009, 0.582734, 0.4347709, 0.2508337, -0.3039227, -0.03683108, -0.2787848, 0.5797329, 0.4336138, 0.251022
 141036063, -0.2118299, 0.2058563, -0.2677114, 0.579738, 0.4284579, 0.2522081, 0.1604536, 0.5864077, -0.2295009, 0.582734, 0.4347709, 0.2508337
 141136023, -0.3878814, 0.0004804349, -0.2341697, 0.576471, 0.4249834, 0.2574455, -0.2118299, 0.2058563, -0.2677114, 0.579738, 0.4284579, 0.2522081
 141235983, -0.01652082, 0.1305297, -0.2007558, 0.5739238, 0.4239494, 0.2645838, -0.3878814, 0.0004804349, -0.2341697, 0.576471, 0.4249834, 0.2574455
 141335943, 0.1497733, -0.1495383, -0.1811466, 0.5718122, 0.4218454, 0.2688468, -0.01652082, 0.1305297, -0.2007558, 0.5739238, 0.4239494, 0.2645838
 141435903, 0.03426906, 0.08838087, -0.1488442, 0.5693376, 0.4235386, 0.2688628, 0.1497733, -0.1495383, -0.1811466, 0.5718122, 0.4218454, 0.2688468
 141535863, -0.5389966, -0.3268327, -0.1431607, 0.5675108, 0.4229433, 0.2653521, 0.03426906, 0.08838087, -0.1488442, 0.5693376, 0.4235386, 0.2688628
 141635823, 0.3052006, -0.4509289, -0.1212484, 0.5719806, 0.42307, 0.2606065, -0.5389966, -0.3268327, -0.1431607, 0.5675108, 0.4229433, 0.2653521
 141735783, 0.3775839, 0.1171505, -0.09535319, 0.5732461, 0.4248798, 0.2571431, 0.3052006, -0.4509289, -0.1212484, 0.5719806, 0.42307, 0.2606065
 141835743, 0.2222433, 0.1700097, -0.08076502, 0.5730196, 0.4239725, 0.2553878, 0.3775839, 0.1171505, -0.09535319, 0.5732461, 0.4248798, 0.2571431
 141935703, 0.3786401, -0.05828521, -0.07984598, 0.5760391, 0.4204124, 0.2535926, 0.2222433, 0.1700097, -0.08076502, 0.5730196, 0.4239725, 0.2553878
 142035663, -0.414469, -0.1601856, 0.006016876, 0.5743036, 0.418077, 0.2519459, 0.3786401, -0.05828521, -0.07984598, 0.5760391, 0.4204124, 0.2535926
 142136456, -0.3734199, 0.1513022, 0.01352635, 0.5759791, 0.4168699, 0.2528269, -0.414469, -0.1601856, 0.006016876, 0.5743036, 0.418077, 0.2519459
 142236416, -0.2854889, -0.6197934, -0.03774887, 0.5763969, 0.412762, 0.2558097, -0.3734199, 0.1513022, 0.01352635, 0.5759791, 0.4168699, 0.2528269
 142336376, 0.003589313, 0.03170773, -0.01526454, 0.5767294, 0.4127274, 0.2588941, -0.2854889, -0.6197934, -0.03774887, 0.5763969, 0.412762, 0.2558097
 142436336, -0.2305769, 0.007457966, 0.03488062, 0.5751038, 0.4132758, 0.2599082, 0.003589313, 0.03170773, -0.01526454, 0.5767294, 0.4127274, 0.2588941
 142536296, -0.003073681, -0.1914701, 0.05693673, 0.5765072, 0.4151987, 0.2556888, -0.2305769, 0.007457966, 0.03488062, 0.5751038, 0.4132758, 0.2599082
 142636256, 0.2887433, 0.1402792, 0.05301134, 0.5795449, 0.4204752, 0.248048, -0.003073681, -0.1914701, 0.05693673, 0.5765072, 0.4151987, 0.2556888
 142736216, 0.006501219, -0.7755336, 0.04567107, 0.5792891, 0.4219547, 0.2411066, 0.2887433, 0.1402792, 0.05301134, 0.5795449, 0.4204752, 0.248048
 142836176, 0.09874315, -0.5161448, 0.04390489, 0.5796313, 0.4238943, 0.2379926, 0.006501219, -0.7755336, 0.04567107, 0.5792891, 0.4219547, 0.2411066
 142936136, -0.4441591, -0.4822238, 0.05188501, 0.5753822, 0.425828, 0.2411771, 0.09874315, -0.5161448, 0.04390489, 0.5796313, 0.4238943, 0.2379926
 143036096, -0.1471927, -0.5716659, 0.03904019, 0.5726106, 0.4271611, 0.2480603, -0.4441591, -0.4822238, 0.05188501, 0.5753822, 0.425828, 0.2411771
 143136056, 0.09475752, -0.08600113, 0.03577597, 0.5696647, 0.430571, 0.2532632, -0.1471927, -0.5716659, 0.03904019, 0.5726106, 0.4271611, 0.2480603
 143236016, -0.2499382, -0.1841174, 0.08340988, 0.5655046, 0.4339866, 0.2544906, 0.09475752, -0.08600113, 0.03577597, 0.5696647, 0.430571, 0.2532632
 143335976, -0.03760874, -0.5327668, 0.08888218, 0.5657524, 0.4364699, 0.2525446, -0.2499382, -0.1841174, 0.08340988, 0.5655046, 0.4339866, 0.2544906
 143435936, -0.02311669, 0.1813619, 0.05598658, 0.5662976, 0.4404176, 0.2494772, -0.03760874, -0.5327668, 0.08888218, 0.5657524, 0.4364699, 0.2525446
 143535896, 0.1224053, -0.4663307, 0.07575555, 0.5674739, 0.4386543, 0.2491511, -0.02311669, 0.1813619, 0.05598658, 0.5662976, 0.4404176, 0.2494772
 143635856, -0.5429797, -0.1290803, 0.02040596, 0.5644439, 0.4391997, 0.2516879, 0.1224053, -0.4663307, 0.07575555, 0.5674739, 0.4386543, 0.2491511
 143735816, 0.4871997, -0.105312, 0.05532742, 0.5689318, 0.4372237, 0.2572631, -0.5429797, -0.1290803, 0.02040596, 0.5644439, 0.4391997, 0.2516879
 143835776, -0.4630693, -0.1099256, 0.02230747, 0.5636835, 0.4343794, 0.2631986, 0.4871997, -0.105312, 0.05532742, 0.5689318, 0.4372237, 0.2572631
 143935736, -0.01194644, -0.2277585, 0.03313135, 0.5645101, 0.4315206, 0.2690124, -0.4630693, -0.1099256, 0.02230747, 0.5636835, 0.4343794, 0.2631986
 144035696, 0.237535, 0.2078284, 0.03652603, 0.5657259, 0.4325783, 0.2719983, -0.01194644, -0.2277585, 0.03313135, 0.5645101, 0.4315206, 0.2690124
 144135656, 0.01768023, -0.04883098, 0.02442908, 0.5665854, 0.4312446, 0.267363, 0.237535, 0.2078284, 0.03652603, 0.5657259, 0.4325783, 0.2719983
 144236449, -0.281799, -0.01623061, 0.01491126, 0.5695657, 0.4321904, 0.2574393, 0.01768023, -0.04883098, 0.02442908, 0.5665854, 0.4312446, 0.267363
 144336409, -0.2176921, 0.2290376, 0.0142562, 0.5736504, 0.4334355, 0.2495191, -0.281799, -0.01623061, 0.01491126, 0.5695657, 0.4321904, 0.2574393
 144436369, -0.02864176, 0.01456413, 0.01501319, 0.5766063, 0.4308634, 0.2467623, -0.2176921, 0.2290376, 0.0142562, 0.5736504, 0.4334355, 0.2495191
 144536329, 0.09797756, -0.0333699, 0.0123829, 0.5777707, 0.4288158, 0.249046, -0.02864176, 0.01456413, 0.01501319, 0.5766063, 0.4308634, 0.2467623
 144636289, 0.02722818, 0.3413342, 0.01423237, 0.5766288, 0.429689, 0.2539472, 0.09797756, -0.0333699, 0.0123829, 0.5777707, 0.4288158, 0.249046
 144736249, 0.2682457, -0.3001145, 0.006155718, 0.5773306, 0.4244975, 0.2589474, 0.02722818, 0.3413342, 0.01423237, 0.5766288, 0.429689, 0.2539472
 144836209, 0.5454608, -0.5538715, 0.001099626, 0.5798073, 0.4225361, 0.2622444, 0.2682457, -0.3001145, 0.006155718, 0.5773306, 0.4244975, 0.2589474
 144936169, 0.02031147, 0.3303857, 0.01365211, 0.5750553, 0.4266768, 0.2626933, 0.5454608, -0.5538715, 0.001099626, 0.5798073, 0.4225361, 0.2622444
 145036129, -0.3711501, -0.2169797, 0.0004497753, 0.5741079, 0.4245609, 0.2601133, 0.02031147, 0.3303857, 0.01365211, 0.5750553, 0.4266768, 0.2626933
 145136089, -0.07955836, -0.4463666, -0.0005038949, 0.5767983, 0.4249178, 0.2552009, -0.3711501, -0.2169797, 0.0004497753, 0.5741079, 0.4245609, 0.2601133
 145236049, 0.09959529, -0.2520179, 0.0002996209, 0.5800027, 0.4251183, 0.250023, -0.07955836, -0.4463666, -0.0005038949, 0.5767983, 0.4249178, 0.2552009
 145336009, 0.3151342, -0.160548, -0.004477291, 0.583513, 0.4236014, 0.2483786, 0.09959529, -0.2520179, 0.0002996209, 0.5800027, 0.4251183, 0.250023
 145435969, -0.3301878, -0.5328025, -0.004852091, 0.5811731, 0.4209678, 0.2502939, 0.3151342, -0.160548, -0.004477291, 0.583513, 0.4236014, 0.2483786
 145535929, -0.001611754, -0.1638673, -0.001777475, 0.5817734, 0.4208552, 0.2524158, -0.3301878, -0.5328025, -0.004852091, 0.5811731, 0.4209678, 0.2502939
 145635889, 0.1344415, -0.4185577, -0.008019526, 0.5814312, 0.4217178, 0.2529125, -0.001611754, -0.1638673, -0.001777475, 0.5817734, 0.4208552, 0.2524158
 145735849, 0.2367281, -0.1675489, -0.05933423, 0.5816746, 0.4232141, 0.2509813, 0.1344415, -0.4185577, -0.008019526, 0.5814312, 0.4217178, 0.2529125
 145835809, -0.4547678, 0.04468616, -0.009425018, 0.5800873, 0.424086, 0.2478344, 0.2367281, -0.1675489, -0.05933423, 0.5816746, 0.4232141, 0.2509813
 145935769, -0.18478, 0.1864256, 0.01946241, 0.5820908, 0.4244552, 0.2457324, -0.4547678, 0.04468616, -0.009425018, 0.5800873, 0.424086, 0.2478344
 146035729, -0.2994594, -0.4654248, 0.008022692, 0.582461, 0.4217934, 0.2450135, -0.18478, 0.1864256, 0.01946241, 0.5820908, 0.4244552, 0.2457324
 146135689, -0.3204464, -0.1217263, 0.01445126, 0.5826635, 0.422806, 0.2437773, -0.2994594, -0.4654248, 0.008022692, 0.582461, 0.4217934, 0.2450135
 146236482, 0.04659782, 0.1963262, 0.009122712, 0.5839938, 0.4258517, 0.2418912, -0.3204464, -0.1217263, 0.01445126, 0.5826635, 0.422806, 0.2437773
 146336442, 0.3401427, 0.1028101, -5.207863E-05, 0.585664, 0.4265261, 0.2404535, 0.04659782, 0.1963262, 0.009122712, 0.5839938, 0.4258517, 0.2418912
 146436402, 0.2112964, -0.5375131, -0.0003719698, 0.5847219, 0.4254369, 0.2396625, 0.3401427, 0.1028101, -5.207863E-05, 0.585664, 0.4265261, 0.2404535
 146536362, -0.1850614, 0.1006065, 0.008931994, 0.5827348, 0.4283124, 0.237268, 0.2112964, -0.5375131, -0.0003719698, 0.5847219, 0.4254369, 0.2396625
 146636322, -0.1416554, 0.1186513, 0.007563609, 0.5839061, 0.4290403, 0.233729, -0.1850614, 0.1006065, 0.008931994, 0.5827348, 0.4283124, 0.237268
 146736282, -0.2598848, 0.2864706, 0.01031907, 0.5848112, 0.4304647, 0.2302618, -0.1416554, 0.1186513, 0.007563609, 0.5839061, 0.4290403, 0.233729
 146836242, 0.1129603, -0.003574076, -0.0006530904, 0.5869715, 0.4289829, 0.2280636, -0.2598848, 0.2864706, 0.01031907, 0.5848112, 0.4304647, 0.2302618
 146936202, -0.1729703, -0.09453008, 0.008973096, 0.5854337, 0.4288576, 0.2280567, 0.1129603, -0.003574076, -0.0006530904, 0.5869715, 0.4289829, 0.2280636
 147036162, -0.3787737, 0.4452547, 0.009825302, 0.5845004, 0.4320968, 0.230328, -0.1729703, -0.09453008, 0.008973096, 0.5854337, 0.4288576, 0.2280567
 147136122, -0.4766954, -0.01321168, 0.01320385, 0.5830409, 0.4272879, 0.2360894, -0.3787737, 0.4452547, 0.009825302, 0.5845004, 0.4320968, 0.230328
 147236082, -0.5340164, 0.4421147, 0.01610805, 0.582549, 0.4272242, 0.2436003, -0.4766954, -0.01321168, 0.01320385, 0.5830409, 0.4272879, 0.2360894
 147336042, -0.2904968, 0.4227774, 0.01295749, 0.5816625, 0.4252183, 0.2496437, -0.5340164, 0.4421147, 0.01610805, 0.582549, 0.4272242, 0.2436003
 147436002, -0.2815341, 0.233387, 0.008466678, 0.5805658, 0.423131, 0.2528486, -0.2904968, 0.4227774, 0.01295749, 0.5816625, 0.4252183, 0.2496437
 147535962, -0.2003115, -0.4928513, -0.006758857, 0.5802673, 0.420738, 0.2537889, -0.2815341, 0.233387, 0.008466678, 0.5805658, 0.423131, 0.2528486
 147635922, -0.4974229, -0.3236793, -0.001377744, 0.579531, 0.421166, 0.253488, -0.2003115, -0.4928513, -0.006758857, 0.5802673, 0.420738, 0.2537889
 147735882, -0.05540586, 0.1042409, 0.002747291, 0.5807258, 0.4231815, 0.252744, -0.4974229, -0.3236793, -0.001377744, 0.579531, 0.421166, 0.253488
 147835842, -0.139089, -0.4350968, -0.03315463, 0.5801799, 0.4218573, 0.2520302, -0.05540586, 0.1042409, 0.002747291, 0.5807258, 0.4231815, 0.252744
 147935802, 0.3653666, 0.3610767, -0.04920304, 0.5825115, 0.4259412, 0.2520577, -0.139089, -0.4350968, -0.03315463, 0.5801799, 0.4218573, 0.2520302
 148035762, 0.1842375, -0.5172587, -0.04890002, 0.5806633, 0.422057, 0.2526578, 0.3653666, 0.3610767, -0.04920304, 0.5825115, 0.4259412, 0.2520577
 148135722, 0.04128183, -0.391976, -0.04007682, 0.5786009, 0.422846, 0.2531955, 0.1842375, -0.5172587, -0.04890002, 0.5806633, 0.422057, 0.2526578
 148235682, -0.2165731, 0.3635955, 0.02290007, 0.576988, 0.427556, 0.2531611, 0.04128183, -0.391976, -0.04007682, 0.5786009, 0.422846, 0.2531955
 148336475, 0.0156938, 0.1850577, 0.01955258, 0.5775738, 0.4276268, 0.2517944, -0.2165731, 0.3635955, 0.02290007, 0.576988, 0.427556, 0.2531611
 148436435, 0.1634012, -0.4402707, 0.02258869, 0.5786421, 0.4265592, 0.2497723, 0.0156938, 0.1850577, 0.01955258, 0.5775738, 0.4276268, 0.2517944
 148536395, -0.4802422, 0.03574986, 0.008076657, 0.5747336, 0.4307315, 0.2485853, 0.1634012, -0.4402707, 0.02258869, 0.5786421, 0.4265592, 0.2497723
 148636355, 0.2412685, -0.4288811, 0.03303783, 0.575339, 0.4327161, 0.2486351, -0.4802422, 0.03574986, 0.008076657, 0.5747336, 0.4307315, 0.2485853
 148736315, 0.1583319, 0.1748834, -0.006567619, 0.5721055, 0.4390315, 0.2472712, 0.2412685, -0.4288811, 0.03303783, 0.575339, 0.4327161, 0.2486351
 148836275, -0.227199, 0.5590236, -0.05245243, 0.5697735, 0.4446577, 0.2444508, 0.1583319, 0.1748834, -0.006567619, 0.5721055, 0.4390315, 0.2472712
 148936235, -0.3639093, 0.2525056, -0.04153103, 0.5709226, 0.4411959, 0.2415101, -0.227199, 0.5590236, -0.05245243, 0.5697735, 0.4446577, 0.2444508
 149036195, 0.5249169, 0.02293724, 0.008675048, 0.5795699, 0.4364666, 0.2391796, -0.3639093, 0.2525056, -0.04153103, 0.5709226, 0.4411959, 0.2415101
 149136155, 0.2841974, -0.01674906, 0.01633492, 0.5809906, 0.4324337, 0.2379005, 0.5249169, 0.02293724, 0.008675048, 0.5795699, 0.4364666, 0.2391796
 149236115, 0.08211955, 0.1250172, 0.009854663, 0.5817537, 0.4301071, 0.2386637, 0.2841974, -0.01674906, 0.01633492, 0.5809906, 0.4324337, 0.2379005
 149336075, -0.06761502, 0.6810574, 0.004211581, 0.5816037, 0.4327011, 0.2426515, 0.08211955, 0.1250172, 0.009854663, 0.5817537, 0.4301071, 0.2386637
 149436035, 0.01644911, 0.649719, 0.007000174, 0.5803658, 0.430885, 0.249206, -0.06761502, 0.6810574, 0.004211581, 0.5816037, 0.4327011, 0.2426515
 149535995, 0.02190756, 0.1839226, 0.008599384, 0.576857, 0.4254672, 0.2585756, 0.01644911, 0.649719, 0.007000174, 0.5803658, 0.430885, 0.249206
 149635955, 0.09244086, 0.1016222, 0.009920604, 0.5734756, 0.424416, 0.267764, 0.02190756, 0.1839226, 0.008599384, 0.576857, 0.4254672, 0.2585756
 149735915, -0.01158682, 0.352885, 0.004985631, 0.5700374, 0.4274756, 0.2722314, 0.09244086, 0.1016222, 0.009920604, 0.5734756, 0.424416, 0.267764
 149835875, 0.3874668, -0.1554365, 0.02395719, 0.5719417, 0.4269102, 0.2699954, -0.01158682, 0.352885, 0.004985631, 0.5700374, 0.4274756, 0.2722314
 149935835, 0.5189723, -0.08455199, 0.02352736, 0.57653, 0.4309594, 0.2565557, 0.3874668, -0.1554365, 0.02395719, 0.5719417, 0.4269102, 0.2699954
 150035795, -0.1099015, -0.07117458, 0.005971742, 0.5781257, 0.4346937, 0.2361382, 0.5189723, -0.08455199, 0.02352736, 0.57653, 0.4309594, 0.2565557
 150135755, 0.6044983, 0.5785123, -0.05570099, 0.5901856, 0.4421785, 0.2136471, -0.1099015, -0.07117458, 0.005971742, 0.5781257, 0.4346937, 0.2361382
 150235715, 0.03016152, 0.6902878, -0.06844889, 0.5912614, 0.4437314, 0.1967109, 0.6044983, 0.5785123, -0.05570099, 0.5901856, 0.4421785, 0.2136471
 150335675, -0.1024337, 0.8385237, -0.07953808, 0.5935863, 0.4446094, 0.1895614, 0.03016152, 0.6902878, -0.06844889, 0.5912614, 0.4437314, 0.1967109
 150436468, -0.389434, 0.06092598, -0.009986319, 0.5920028, 0.4354498, 0.1936622, -0.1024337, 0.8385237, -0.07953808, 0.5935863, 0.4446094, 0.1895614
 150536428, 0.2128821, 0.4351132, -0.03089045, 0.5916249, 0.4364396, 0.2065165, -0.389434, 0.06092598, -0.009986319, 0.5920028, 0.4354498, 0.1936622
 150636388, -0.3693798, 0.2324105, 0.01286316, 0.5844567, 0.4320408, 0.2245973, 0.2128821, 0.4351132, -0.03089045, 0.5916249, 0.4364396, 0.2065165
 150736348, 0.3133694, 0.4838304, 0.008805697, 0.5826597, 0.4315174, 0.2429584, -0.3693798, 0.2324105, 0.01286316, 0.5844567, 0.4320408, 0.2245973
 150836308, -0.1915039, 0.640693, 0.01171511, 0.576548, 0.4291729, 0.2580267, 0.3133694, 0.4838304, 0.008805697, 0.5826597, 0.4315174, 0.2429584
 150936268, 0.2534838, -0.07741337, 0.01634824, 0.5763552, 0.4202504, 0.268417, -0.1915039, 0.640693, 0.01171511, 0.576548, 0.4291729, 0.2580267
 151036228, -0.3096021, 0.08025523, 0.004501516, 0.5733366, 0.4184247, 0.2732612, 0.2534838, -0.07741337, 0.01634824, 0.5763552, 0.4202504, 0.268417
 151136188, 0.2957944, 0.1455794, 0.01820452, 0.5780295, 0.4173115, 0.2723695, -0.3096021, 0.08025523, 0.004501516, 0.5733366, 0.4184247, 0.2732612
 151236148, 0.136855, 0.4494043, 0.02125948, 0.5801794, 0.4194958, 0.2662795, 0.2957944, 0.1455794, 0.01820452, 0.5780295, 0.4173115, 0.2723695
 151336108, -0.230376, 0.6691783, 0.02138332, 0.5834138, 0.423672, 0.2528464, 0.136855, 0.4494043, 0.02125948, 0.5801794, 0.4194958, 0.2662795
 151436068, 0.07168629, 0.1121839, 0.004045074, 0.5883045, 0.4228721, 0.2361797, -0.230376, 0.6691783, 0.02138332, 0.5834138, 0.423672, 0.2528464
 151536028, 0.3583405, 0.5654355, -0.01656106, 0.5931135, 0.43088, 0.2218707, 0.07168629, 0.1121839, 0.004045074, 0.5883045, 0.4228721, 0.2361797
 151635988, 0.1450895, 0.6552458, -0.03311783, 0.5926733, 0.4343649, 0.213968, 0.3583405, 0.5654355, -0.01656106, 0.5931135, 0.43088, 0.2218707
 151735948, 0.03516506, 0.5174008, -0.02510842, 0.5923057, 0.4332042, 0.2119605, 0.1450895, 0.6552458, -0.03311783, 0.5926733, 0.4343649, 0.213968
 151835908, 0.1414726, 0.7039741, -0.0303937, 0.5927755, 0.4341041, 0.2150672, 0.03516506, 0.5174008, -0.02510842, 0.5923057, 0.4332042, 0.2119605
 151935868, 0.07623554, 0.1821858, -0.004783639, 0.5898366, 0.4276086, 0.224008, 0.1414726, 0.7039741, -0.0303937, 0.5927755, 0.4341041, 0.2150672
 152035828, -0.209955, 0.7746412, -0.0004535415, 0.5854335, 0.4320002, 0.2359976, 0.07623554, 0.1821858, -0.004783639, 0.5898366, 0.4276086, 0.224008
 152135788, -0.2330147, -0.207297, 0.007164121, 0.5803082, 0.4231585, 0.24912, -0.209955, 0.7746412, -0.0004535415, 0.5854335, 0.4320002, 0.2359976
 152235748, 0.2090696, -0.2914102, 0.009574281, 0.579407, 0.4210172, 0.2596036, -0.2330147, -0.207297, 0.007164121, 0.5803082, 0.4231585, 0.24912
 152335708, 0.1804034, 0.4891606, 0.00875235, 0.5778431, 0.4257365, 0.2630478, 0.2090696, -0.2914102, 0.009574281, 0.579407, 0.4210172, 0.2596036
 152435668, -0.1677422, 0.3257337, -0.001028884, 0.5766332, 0.4250699, 0.2602097, 0.1804034, 0.4891606, 0.00875235, 0.5778431, 0.4257365, 0.2630478
 152536461, -0.3494065, 0.3841642, -0.005214386, 0.5779067, 0.4262713, 0.2552057, -0.1677422, 0.3257337, -0.001028884, 0.5766332, 0.4250699, 0.2602097
 152636421, -0.05427155, -0.1002027, 0.003469751, 0.5802363, 0.4234308, 0.2514199, -0.3494065, 0.3841642, -0.005214386, 0.5779067, 0.4262713, 0.2552057
 152736381, 0.5956364, 0.5976624, 0.003179791, 0.5860069, 0.4279908, 0.2513033, -0.05427155, -0.1002027, 0.003469751, 0.5802363, 0.4234308, 0.2514199
 152836341, 0.2614471, 0.1311436, 0.0042577, 0.5828831, 0.4216806, 0.2547641, 0.5956364, 0.5976624, 0.003179791, 0.5860069, 0.4279908, 0.2513033
 152936301, -0.06415451, 0.3859246, 0.0063215, 0.5803233, 0.420742, 0.2611712, 0.2614471, 0.1311436, 0.0042577, 0.5828831, 0.4216806, 0.2547641
 153036261, -0.3357716, 0.554177, 0.01083609, 0.5789161, 0.4187976, 0.2683201, -0.06415451, 0.3859246, 0.0063215, 0.5803233, 0.420742, 0.2611712
 153136221, 0.5444149, 0.2193881, 0.01853006, 0.5830706, 0.4125326, 0.2753029, -0.3357716, 0.554177, 0.01083609, 0.5789161, 0.4187976, 0.2683201
 153236181, 0.4215429, -0.3125079, -0.02166235, 0.5820728, 0.4061315, 0.2805056, 0.5444149, 0.2193881, 0.01853006, 0.5830706, 0.4125326, 0.2753029
 153336141, -0.3580705, 0.1712638, -0.005937304, 0.5781949, 0.4055243, 0.2835226, 0.4215429, -0.3125079, -0.02166235, 0.5820728, 0.4061315, 0.2805056
 153436101, -0.1067129, -0.03031982, -0.02672672, 0.5796728, 0.4030081, 0.2834348, -0.3580705, 0.1712638, -0.005937304, 0.5781949, 0.4055243, 0.2835226
 153536061, -0.4750886, -0.1342306, -0.03211639, 0.5799118, 0.4029387, 0.2801441, -0.1067129, -0.03031982, -0.02672672, 0.5796728, 0.4030081, 0.2834348
 153636021, -0.2585884, -0.3337038, -0.02237079, 0.581683, 0.4046426, 0.2740616, -0.4750886, -0.1342306, -0.03211639, 0.5799118, 0.4029387, 0.2801441
 153735981, -0.1706136, 0.05689905, 0.00122571, 0.5847299, 0.4084272, 0.2643537, -0.2585884, -0.3337038, -0.02237079, 0.581683, 0.4046426, 0.2740616
 153835941, 0.1483993, -0.3233673, -0.01881379, 0.5899169, 0.4086424, 0.2536703, -0.1706136, 0.05689905, 0.00122571, 0.5847299, 0.4084272, 0.2643537
 153935901, -0.020983, -0.1663347, -0.008449035, 0.591914, 0.408574, 0.2473365, 0.1483993, -0.3233673, -0.01881379, 0.5899169, 0.4086424, 0.2536703
 154035861, -0.5203533, -0.1669594, 0.003986155, 0.5924746, 0.4063704, 0.246271, -0.020983, -0.1663347, -0.008449035, 0.591914, 0.408574, 0.2473365
 154135821, -0.5255163, 0.2739115, 0.02183782, 0.5931597, 0.4065789, 0.2482673, -0.5203533, -0.1669594, 0.003986155, 0.5924746, 0.4063704, 0.246271
 154235781, 0.2357927, -0.4620911, -0.04541737, 0.5950072, 0.4035501, 0.2504878, -0.5255163, 0.2739115, 0.02183782, 0.5931597, 0.4065789, 0.2482673
 154335741, -0.158369, 0.01187102, 0.008345868, 0.5908833, 0.4070508, 0.2514475, 0.2357927, -0.4620911, -0.04541737, 0.5950072, 0.4035501, 0.2504878
 154435701, -0.6831846, -0.1182018, 0.02107254, 0.588531, 0.4095489, 0.2505028, -0.158369, 0.01187102, 0.008345868, 0.5908833, 0.4070508, 0.2514475
 154535661, -0.6227946, 0.06536984, 0.02617573, 0.5869581, 0.4133202, 0.2496755, -0.6831846, -0.1182018, 0.02107254, 0.588531, 0.4095489, 0.2505028
 154636454, 0.06795837, 0.1425513, 0.01439564, 0.5870659, 0.4164096, 0.2496314, -0.6227946, 0.06536984, 0.02617573, 0.5869581, 0.4133202, 0.2496755
 154736414, -0.5636066, 0.1318077, 0.01500906, 0.5842174, 0.4178411, 0.2497684, 0.06795837, 0.1425513, 0.01439564, 0.5870659, 0.4164096, 0.2496314
 154836374, -0.6129829, 0.2040944, 0.01142094, 0.5835239, 0.4197301, 0.2493088, -0.5636066, 0.1318077, 0.01500906, 0.5842174, 0.4178411, 0.2497684
 154936334, -0.6794797, -0.6704767, 0.01370241, 0.5840641, 0.4193204, 0.2457323, -0.6129829, 0.2040944, 0.01142094, 0.5835239, 0.4197301, 0.2493088
 155036294, -0.3388673, -0.07506528, 0.01254602, 0.5863404, 0.4202231, 0.2398121, -0.6794797, -0.6704767, 0.01370241, 0.5840641, 0.4193204, 0.2457323
 155136254, -0.3761021, -0.3038533, 0.0168617, 0.5883254, 0.4202148, 0.2337514, -0.3388673, -0.07506528, 0.01254602, 0.5863404, 0.4202231, 0.2398121
 155236214, -0.1958701, -0.6335648, 0.01557332, 0.5898148, 0.4206564, 0.230854, -0.3761021, -0.3038533, 0.0168617, 0.5883254, 0.4202148, 0.2337514
 155336174, -0.4515259, -0.02859361, 0.01287392, 0.5869484, 0.4216273, 0.2361078, -0.1958701, -0.6335648, 0.01557332, 0.5898148, 0.4206564, 0.230854
 155436134, 0.04159928, -0.5179126, 0.008045582, 0.584349, 0.4204384, 0.2470035, -0.4515259, -0.02859361, 0.01287392, 0.5869484, 0.4216273, 0.2361078
 155536094, -0.312328, -0.4615412, 0.001900712, 0.5784763, 0.4208934, 0.2565981, 0.04159928, -0.5179126, 0.008045582, 0.584349, 0.4204384, 0.2470035
 155636054, -0.2899768, -0.2066134, -0.002427219, 0.5760908, 0.4220683, 0.2605866, -0.312328, -0.4615412, 0.001900712, 0.5784763, 0.4208934, 0.2565981
 155736014, 0.2318677, -0.004188044, 0.009076169, 0.5787696, 0.4254281, 0.2560779, -0.2899768, -0.2066134, -0.002427219, 0.5760908, 0.4220683, 0.2605866
 155835974, -0.2731514, -0.4973759, 0.08592018, 0.5785508, 0.428068, 0.2462018, 0.2318677, -0.004188044, 0.009076169, 0.5787696, 0.4254281, 0.2560779
 155935934, 0.2675583, 0.3481587, 0.0347423, 0.5834198, 0.4341559, 0.2373744, -0.2731514, -0.4973759, 0.08592018, 0.5785508, 0.428068, 0.2462018
 156035894, 0.3077293, -0.03231836, 0.04645003, 0.5852504, 0.4318697, 0.233946, 0.2675583, 0.3481587, 0.0347423, 0.5834198, 0.4341559, 0.2373744
 156135854, -0.3556451, 0.2640758, 0.0287362, 0.582823, 0.4309163, 0.2380344, 0.3077293, -0.03231836, 0.04645003, 0.5852504, 0.4318697, 0.233946
 156235814, -0.1024527, -0.1404549, -0.02470417, 0.5829451, 0.4239314, 0.247276, -0.3556451, 0.2640758, 0.0287362, 0.582823, 0.4309163, 0.2380344
 156335774, -0.1326389, 0.2066556, -0.02455534, 0.5824337, 0.4204772, 0.256663, -0.1024527, -0.1404549, -0.02470417, 0.5829451, 0.4239314, 0.247276
 156435734, 0.1593117, -0.3894855, -0.02280596, 0.5837618, 0.414113, 0.2631382, -0.1326389, 0.2066556, -0.02455534, 0.5824337, 0.4204772, 0.256663
 156535694, -0.2695632, -0.2659095, -0.0256706, 0.5812371, 0.4129797, 0.2659775, 0.1593117, -0.3894855, -0.02280596, 0.5837618, 0.414113, 0.2631382
 156635654, -0.07276966, -0.1523484, -0.01806189, 0.5819613, 0.4137169, 0.264952, -0.2695632, -0.2659095, -0.0256706, 0.5812371, 0.4129797, 0.2659775
 156736447, 0.0245766, 0.04790131, -0.01183399, 0.5840225, 0.416413, 0.2583172, -0.07276966, -0.1523484, -0.01806189, 0.5819613, 0.4137169, 0.264952
 156836407, 0.4935603, -0.1288697, -0.01261418, 0.5903875, 0.4173537, 0.2484988, 0.0245766, 0.04790131, -0.01183399, 0.5840225, 0.416413, 0.2583172
 156936367, -0.0929729, 0.5377174, -0.009512064, 0.5892816, 0.4232785, 0.2398354, 0.4935603, -0.1288697, -0.01261418, 0.5903875, 0.4173537, 0.2484988
 157036327, -0.2655079, 0.1245657, -0.002385144, 0.5902516, 0.4198418, 0.2351397, -0.0929729, 0.5377174, -0.009512064, 0.5892816, 0.4232785, 0.2398354
 157136287, -0.30266, -0.2873625, 0.001118944, 0.5897218, 0.4185657, 0.2353742, -0.2655079, 0.1245657, -0.002385144, 0.5902516, 0.4198418, 0.2351397
 157236247, -0.3110815, 0.005010897, -0.00212897, 0.5876265, 0.4205175, 0.2386627, -0.30266, -0.2873625, 0.001118944, 0.5897218, 0.4185657, 0.2353742
 157336207, -0.1930745, -0.2273791, -0.0003009574, 0.5853699, 0.4219608, 0.2408603, -0.3110815, 0.005010897, -0.00212897, 0.5876265, 0.4205175, 0.2386627
 157436167, 0.1069699, 0.4890924, -0.01796927, 0.5850365, 0.4289194, 0.2410933, -0.1930745, -0.2273791, -0.0003009574, 0.5853699, 0.4219608, 0.2408603
 157536127, -0.1666809, 0.2294804, -0.01243234, 0.5831084, 0.4270046, 0.2415507, 0.1069699, 0.4890924, -0.01796927, 0.5850365, 0.4289194, 0.2410933
 157636087, 0.5219042, 0.02266947, -0.0002630767, 0.588253, 0.4239714, 0.2431144, -0.1666809, 0.2294804, -0.01243234, 0.5831084, 0.4270046, 0.2415507
 157736047, -0.0421898, 0.5730213, -0.01071626, 0.58557, 0.4252565, 0.2457896, 0.5219042, 0.02266947, -0.0002630767, 0.588253, 0.4239714, 0.2431144
 157836007, 0.2311188, -0.0114504, -0.002647335, 0.5880352, 0.4172532, 0.2488556, -0.0421898, 0.5730213, -0.01071626, 0.58557, 0.4252565, 0.2457896
 157935967, -0.3229246, 0.1881802, 0.0003204886, 0.5863994, 0.4163926, 0.2500727, 0.2311188, -0.0114504, -0.002647335, 0.5880352, 0.4172532, 0.2488556
 158035927, 0.06508191, 0.6056144, 0.0004210304, 0.5882992, 0.4206864, 0.2490035, -0.3229246, 0.1881802, 0.0003204886, 0.5863994, 0.4163926, 0.2500727
 158135887, 0.3336643, -0.004947507, -0.002752758, 0.5896977, 0.4186385, 0.2443392, 0.06508191, 0.6056144, 0.0004210304, 0.5882992, 0.4206864, 0.2490035
 158235847, 0.380868, 0.4320238, -0.01329275, 0.5896345, 0.4263861, 0.2377152, 0.3336643, -0.004947507, -0.002752758, 0.5896977, 0.4186385, 0.2443392
 158335807, 0.5587435, 0.4982868, -0.02316255, 0.5908656, 0.4313118, 0.2310217, 0.380868, 0.4320238, -0.01329275, 0.5896345, 0.4263861, 0.2377152
 158435767, -0.03447245, 0.08726071, -0.01974385, 0.5859164, 0.430248, 0.2275425, 0.5587435, 0.4982868, -0.02316255, 0.5908656, 0.4313118, 0.2310217
 158535727, -0.3328891, -0.2020837, -0.004079547, 0.5836226, 0.4287602, 0.2309493, -0.03447245, 0.08726071, -0.01974385, 0.5859164, 0.430248, 0.2275425
 158635687, -0.1681397, 0.6843527, -0.03320684, 0.5835009, 0.432161, 0.2389187, -0.3328891, -0.2020837, -0.004079547, 0.5836226, 0.4287602, 0.2309493
 158736480, 0.5384525, 0.5535832, -0.00351491, 0.5887365, 0.4260043, 0.2458454, -0.1681397, 0.6843527, -0.03320684, 0.5835009, 0.432161, 0.2389187
 158836440, 0.2158544, 0.3880661, 0.002792011, 0.5894518, 0.4183512, 0.2477079, 0.5384525, 0.5535832, -0.00351491, 0.5887365, 0.4260043, 0.2458454
 158936400, 0.1450029, 0.3860295, 0.005495544, 0.5944971, 0.4142744, 0.2413137, 0.2158544, 0.3880661, 0.002792011, 0.5894518, 0.4183512, 0.2477079
 159036360, -0.4248505, 0.3659773, 0.01756039, 0.597828, 0.4120112, 0.2307937, 0.1450029, 0.3860295, 0.005495544, 0.5944971, 0.4142744, 0.2413137
 159136320, 0.3015895, -0.273237, -0.04899391, 0.6035703, 0.4085545, 0.2232473, -0.4248505, 0.3659773, 0.01756039, 0.597828, 0.4120112, 0.2307937
 159236280, 0.05330762, 0.2817424, -0.01819916, 0.6014236, 0.4120344, 0.2230849, 0.3015895, -0.273237, -0.04899391, 0.6035703, 0.4085545, 0.2232473
 159336240, -0.1573685, 0.3981462, 0.01135541, 0.5979206, 0.4127735, 0.230381, 0.05330762, 0.2817424, -0.01819916, 0.6014236, 0.4120344, 0.2230849
 159436200, 0.1780161, -0.2026718, -0.005111574, 0.5955452, 0.4089448, 0.240805, -0.1573685, 0.3981462, 0.01135541, 0.5979206, 0.4127735, 0.230381
 159536160, -0.4793411, 0.4445773, 0.02298928, 0.5902812, 0.4140648, 0.2465101, 0.1780161, -0.2026718, -0.005111574, 0.5955452, 0.4089448, 0.240805
 159636120, 0.2633599, 0.4708966, 0.007000939, 0.5911051, 0.4181582, 0.2456214, -0.4793411, 0.4445773, 0.02298928, 0.5902812, 0.4140648, 0.2465101
 159736080, -0.3470894, 0.3251178, 0.006708142, 0.588412, 0.4193976, 0.2406922, 0.2633599, 0.4708966, 0.007000939, 0.5911051, 0.4181582, 0.2456214
 159836040, -0.1487747, -0.2113703, 0.01201833, 0.5894807, 0.4185693, 0.2356416, -0.3470894, 0.3251178, 0.006708142, 0.588412, 0.4193976, 0.2406922
 159936000, -0.4898311, 0.666294, 0.0002420009, 0.5901899, 0.4241323, 0.2344131, -0.1487747, -0.2113703, 0.01201833, 0.5894807, 0.4185693, 0.2356416
 160035960, -0.3642209, -0.2946086, 0.01235578, 0.5890931, 0.4166634, 0.2384053, -0.4898311, 0.666294, 0.0002420009, 0.5901899, 0.4241323, 0.2344131
 160135920, -0.2023008, -0.01402811, 0.005639503, 0.5885962, 0.4135347, 0.2475626, -0.3642209, -0.2946086, 0.01235578, 0.5890931, 0.4166634, 0.2384053
 160235880, -0.3921931, 0.1427599, 0.007713832, 0.5869561, 0.4093627, 0.2586543, -0.2023008, -0.01402811, 0.005639503, 0.5885962, 0.4135347, 0.2475626
 160335840, -0.2819934, 0.004109409, 0.001841263, 0.5854455, 0.4050751, 0.2679159, -0.3921931, 0.1427599, 0.007713832, 0.5869561, 0.4093627, 0.2586543
 160435800, 0.1347679, -0.0529505, 0.001952193, 0.5858335, 0.4038936, 0.2724936, -0.2819934, 0.004109409, 0.001841263, 0.5854455, 0.4050751, 0.2679159
 160535760, -0.2102831, 0.4056012, 0.01121011, 0.5839915, 0.4096521, 0.2694421, 0.1347679, -0.0529505, 0.001952193, 0.5858335, 0.4038936, 0.2724936
 160635720, 0.1623411, 0.4426649, 0.008495467, 0.5859421, 0.4151276, 0.2613034, -0.2102831, 0.4056012, 0.01121011, 0.5839915, 0.4096521, 0.2694421
 160735680, -0.2190225, -0.1767084, -7.628673E-05, 0.5844164, 0.4145414, 0.2548007, 0.1623411, 0.4426649, 0.008495467, 0.5859421, 0.4151276, 0.2613034
 160836473, 0.1016671, 0.4619252, -0.0002518455, 0.5862927, 0.4194489, 0.2530207, -0.2190225, -0.1767084, -7.628673E-05, 0.5844164, 0.4145414, 0.2548007
 160936433, 0.06373465, 0.05721544, 0.00202037, 0.5863161, 0.4134601, 0.2567557, 0.1016671, 0.4619252, -0.0002518455, 0.5862927, 0.4194489, 0.2530207
 161036393, -0.07523518, 0.423763, 0.01077699, 0.5865417, 0.4111979, 0.2630265, 0.06373465, 0.05721544, 0.00202037, 0.5863161, 0.4134601, 0.2567557
 161136353, 0.3491876, -0.3413426, -0.0131071, 0.5910079, 0.402243, 0.266097, -0.07523518, 0.423763, 0.01077699, 0.5865417, 0.4111979, 0.2630265
 161236313, -0.3413061, -0.4376091, -0.03141186, 0.5892076, 0.4004892, 0.264616, 0.3491876, -0.3413426, -0.0131071, 0.5910079, 0.402243, 0.266097
 161336273, 0.08368349, -0.3236575, -0.02570171, 0.5923381, 0.4020878, 0.2587031, -0.3413061, -0.4376091, -0.03141186, 0.5892076, 0.4004892, 0.264616
 161436233, -0.3844822, -0.04706675, 0.008565671, 0.5907243, 0.407418, 0.2512481, 0.08368349, -0.3236575, -0.02570171, 0.5923381, 0.4020878, 0.2587031
 161536193, 0.2658492, -0.2306948, -0.0005488584, 0.5931401, 0.4111947, 0.2453532, -0.3844822, -0.04706675, 0.008565671, 0.5907243, 0.407418, 0.2512481
 161636153, 0.3471898, -0.0994173, 0.001627794, 0.5925578, 0.4149451, 0.2426868, 0.2658492, -0.2306948, -0.0005488584, 0.5931401, 0.4111947, 0.2453532
 161736113, 0.06518266, -0.6092131, 0.01249259, 0.5894337, 0.4161759, 0.2429534, 0.3471898, -0.0994173, 0.001627794, 0.5925578, 0.4149451, 0.2426868
 161836073, -0.4583687, 0.07923675, -0.001980772, 0.5857908, 0.4187042, 0.2452737, 0.06518266, -0.6092131, 0.01249259, 0.5894337, 0.4161759, 0.2429534
 161936033, 0.06329622, 0.3049882, -0.00311358, 0.5853764, 0.4205765, 0.2500993, -0.4583687, 0.07923675, -0.001980772, 0.5857908, 0.4187042, 0.2452737
 162035993, -0.4519715, -0.3757063, -0.001849122, 0.5816087, 0.4168476, 0.2557859, 0.06329622, 0.3049882, -0.00311358, 0.5853764, 0.4205765, 0.2500993
 162135953, -0.2466398, -0.4022557, -0.0002957719, 0.5812126, 0.4153071, 0.2601236, -0.4519715, -0.3757063, -0.001849122, 0.5816087, 0.4168476, 0.2557859
 162235913, -0.5007833, -0.2397937, -0.009564389, 0.5811006, 0.41379, 0.2620537, -0.2466398, -0.4022557, -0.0002957719, 0.5812126, 0.4153071, 0.2601236
 162335873, -0.3648992, -0.2089352, -0.00548267, 0.5827919, 0.4127056, 0.2605238, -0.5007833, -0.2397937, -0.009564389, 0.5811006, 0.41379, 0.2620537
 162435833, 0.06472466, -0.006600095, 0.001629619, 0.5863634, 0.4133101, 0.2563826, -0.3648992, -0.2089352, -0.00548267, 0.5827919, 0.4127056, 0.2605238
 162535793, 0.3489108, -0.3651582, 0.004810639, 0.5900934, 0.4131675, 0.2509516, 0.06472466, -0.006600095, 0.001629619, 0.5863634, 0.4133101, 0.2563826
 162635753, 0.01291961, 0.1210008, -0.001065022, 0.5881668, 0.4176073, 0.2456411, 0.3489108, -0.3651582, 0.004810639, 0.5900934, 0.4131675, 0.2509516
 162735713, -0.343254, 0.5171393, -0.0106772, 0.5882792, 0.4220926, 0.240655, 0.01291961, 0.1210008, -0.001065022, 0.5881668, 0.4176073, 0.2456411
 162835673, 0.439556, 0.2300764, -0.006992378, 0.5930849, 0.4205397, 0.2372964, -0.343254, 0.5171393, -0.0106772, 0.5882792, 0.4220926, 0.240655
 162936466, 0.6151389, 0.4443137, -0.01264278, 0.5955548, 0.4212958, 0.2375562, 0.439556, 0.2300764, -0.006992378, 0.5930849, 0.4205397, 0.2372964
 163036426, 0.05643915, 0.1695944, -0.001970321, 0.5912645, 0.416737, 0.2408026, 0.6151389, 0.4443137, -0.01264278, 0.5955548, 0.4212958, 0.2375562
 163136386, 0.02737945, 0.01343374, 6.068664E-05, 0.5909556, 0.4145444, 0.2432809, 0.05643915, 0.1695944, -0.001970321, 0.5912645, 0.416737, 0.2408026
 163236346, 0.05000862, -0.1002073, 0.000829289, 0.5908226, 0.4142976, 0.243453, 0.02737945, 0.01343374, 6.068664E-05, 0.5909556, 0.4145444, 0.2432809
 163336306, 0.02640279, 0.3878117, -0.006887491, 0.5906652, 0.4198695, 0.2396746, 0.05000862, -0.1002073, 0.000829289, 0.5908226, 0.4142976, 0.243453
 163436266, -0.04431858, -0.2980145, 0.009432396, 0.5904847, 0.4189658, 0.2340828, 0.02640279, 0.3878117, -0.006887491, 0.5906652, 0.4198695, 0.2396746
 163536226, 0.5105982, 0.4643622, -0.02086055, 0.5961795, 0.423775, 0.2292282, -0.04431858, -0.2980145, 0.009432396, 0.5904847, 0.4189658, 0.2340828
 163636186, -0.4669356, -0.09605132, 0.01356965, 0.5938942, 0.4168493, 0.2270505, 0.5105982, 0.4643622, -0.02086055, 0.5961795, 0.423775, 0.2292282
 163736146, -0.4124492, 0.121637, 0.01328191, 0.5966211, 0.4149714, 0.2255815, -0.4669356, -0.09605132, 0.01356965, 0.5938942, 0.4168493, 0.2270505
 163836106, -0.4434918, 0.542636, 0.0162474, 0.5983757, 0.4162462, 0.2256313, -0.4124492, 0.121637, 0.01328191, 0.5966211, 0.4149714, 0.2255815
 163936066, 0.06720649, 0.2671656, -0.001040219, 0.5990379, 0.4125038, 0.2301379, -0.4434918, 0.542636, 0.0162474, 0.5983757, 0.4162462, 0.2256313
 164036026, -0.02105433, 0.2109299, 0.003515122, 0.5967361, 0.4098268, 0.2387277, 0.06720649, 0.2671656, -0.001040219, 0.5990379, 0.4125038, 0.2301379
 164135986, -0.02846413, 0.1187153, 0.003145008, 0.593513, 0.4067395, 0.2505218, -0.02105433, 0.2109299, 0.003515122, 0.5967361, 0.4098268, 0.2387277
 164235946, 0.3011089, -0.2618114, -0.007638235, 0.592263, 0.4027937, 0.2618743, -0.02846413, 0.1187153, 0.003145008, 0.593513, 0.4067395, 0.2505218
 164335906, -0.1119836, 0.3148864, 0.009173403, 0.5874479, 0.4051178, 0.2684554, 0.3011089, -0.2618114, -0.007638235, 0.592263, 0.4027937, 0.2618743
 164435866, 0.1755476, -0.1360931, -0.002240344, 0.5884008, 0.4027876, 0.2689639, -0.1119836, 0.3148864, 0.009173403, 0.5874479, 0.4051178, 0.2684554
 164535826, -0.2129775, 0.2160954, 0.004761838, 0.5876882, 0.405472, 0.2652837, 0.1755476, -0.1360931, -0.002240344, 0.5884008, 0.4027876, 0.2689639
 164635786, -0.4431674, -0.07189619, -0.001608129, 0.5888289, 0.4046072, 0.2602223, -0.2129775, 0.2160954, 0.004761838, 0.5876882, 0.405472, 0.2652837
 164735746, -0.1552336, -0.1103144, -0.002036863, 0.5905017, 0.40477, 0.2575269, -0.4431674, -0.07189619, -0.001608129, 0.5888289, 0.4046072, 0.2602223
 164835706, -0.03163948, 0.2925462, 0.007291918, 0.5909902, 0.4071638, 0.2578581, -0.1552336, -0.1103144, -0.002036863, 0.5905017, 0.40477, 0.2575269
 164935666, -0.05725097, 0.04513825, 0.0008152348, 0.5893872, 0.4064731, 0.2594814, -0.03163948, 0.2925462, 0.007291918, 0.5909902, 0.4071638, 0.2578581
 165036459, -0.2799487, -0.03918059, -0.003072884, 0.5868218, 0.4079972, 0.2603956, -0.05725097, 0.04513825, 0.0008152348, 0.5893872, 0.4064731, 0.2594814
 165136419, -0.4422382, -0.01062904, -0.004296024, 0.5865175, 0.4102845, 0.2569768, -0.2799487, -0.03918059, -0.003072884, 0.5868218, 0.4079972, 0.2603956
 165236379, 0.1524645, 0.01573707, 0.0004325765, 0.5903852, 0.4121772, 0.2504278, -0.4422382, -0.01062904, -0.004296024, 0.5865175, 0.4102845, 0.2569768
 165336339, -0.5500537, -0.184688, 0.004223144, 0.5904304, 0.4114676, 0.244573, 0.1524645, 0.01573707, 0.0004325765, 0.5903852, 0.4121772, 0.2504278
 165436299, 0.03472194, 0.3519228, -0.0006513, 0.5940797, 0.4136314, 0.2415967, -0.5500537, -0.184688, 0.004223144, 0.5904304, 0.4114676, 0.244573
 165536259, 0.07997106, -0.3676747, -0.002898088, 0.5953951, 0.4086494, 0.2413433, 0.03472194, 0.3519228, -0.0006513, 0.5940797, 0.4136314, 0.2415967
 165636219, -0.121606, -0.4549165, -0.00135833, 0.5943891, 0.4077218, 0.2429836, 0.07997106, -0.3676747, -0.002898088, 0.5953951, 0.4086494, 0.2413433
