TimeUS,CAN,CAE,CAD,CAe,NAN,NAE,NAD,NAe,m10,m00
 126231154, -0.009893565, 0.01226111, -7.333681E-05, 0.00104407, -0.003579349, 0.004652954, 8.177703E-05, 0.0005187925, -0.1257151, 0.9920651
 126431074, -0.00990063, 0.01249531, 0.0002972212, 0.00104407, -0.003350481, 0.004072058, -9.009571E-05, 0.0005187925, -0.1257325, 0.9920629
 126630994, -0.009442109, 0.0119801, -0.0002934664, 0.00104407, -0.00348777, 0.004547503, -0.0004663532, 0.0005187925, -0.1257475, 0.992061
 126830914, -0.01001689, 0.01217801, -0.0005063321, 0.00104407, -0.00364752, 0.004482587, -3.083545E-05, 0.0005187925, -0.1257615, 0.9920592
 127030834, -0.009823885, 0.01244145, -7.808779E-05, 0.00104407, -0.003555708, 0.004403779, -0.0002173567, 0.0005187925, -0.1257747, 0.9920576
 127230754, -0.009348646, 0.01222875, -0.0003422333, 0.00104407, -0.003357909, 0.004644168, 1.049814E-05, 0.0005187925, -0.1257866, 0.992056
 127430674, -0.009231918, 0.0126141, -0.0002505826, 0.00104407, -0.003619396, 0.004728236, -7.407682E-05, 0.0005187925, -0.1257971, 0.9920548
 127631427, -0.009594405, 0.012954, -0.0002988224, 0.001046232, -0.003536259, 0.00481654, -0.0006706006, 0.0005209541, -0.1258082, 0.9920533
 127831347, -0.009575327, 0.0126062, -0.0008150269, 0.001046232, -0.004046218, 0.004762034, -0.0002180407, 0.0005187925, -0.1258164, 0.9920522
 128031267, -0.01044439, 0.01259353, -0.000350552, 0.00104407, -0.003856149, 0.004561466, -0.0003703507, 0.0005187925, -0.1258232, 0.9920514
 128231187, -0.009707958, 0.01253712, -0.000763615, 0.00104407, -0.002808924, 0.004681549, 0.0002189297, 0.0005187925, -0.1258305, 0.9920505
 128431107, -0.009010155, 0.01255308, -0.0001279962, 0.00104407, -0.003603187, 0.004587682, -0.0004057346, 0.0005187925, -0.1258368, 0.9920497
 128631027, -0.009857549, 0.01233893, -0.0006541412, 0.00104407, -0.003840425, 0.004491279, 0.0001919467, 0.0005187925, -0.1258415, 0.992049
 128830947, -0.01022342, 0.01255261, -0.0001562721, 0.00104407, -0.003495509, 0.005188701, -3.82187E-05, 0.0005187925, -0.125845, 0.9920487
 129030867, -0.009678997, 0.01287798, 2.399319E-05, 0.00104407, -0.003443982, 0.00432581, -3.11262E-05, 0.0005187925, -0.1258482, 0.9920482
 129230787, -0.009889547, 0.01207437, -0.0001928487, 0.00104407, -0.003943734, 0.004656313, 0.0002196828, 0.0005187925, -0.1258513, 0.9920478
 129430707, -0.01003666, 0.012182, 8.716083E-05, 0.00104407, -0.003308947, 0.004554097, 8.875038E-05, 0.0005187925, -0.1258543, 0.9920474
 129631460, -0.009614442, 0.01250829, -0.000166261, 0.001046232, -0.003582827, 0.004753504, 2.129696E-05, 0.0005209541, -0.1258571, 0.9920471
 129831380, -0.00959562, 0.0123993, 1.265298E-05, 0.001046232, -0.003610539, 0.004534303, -0.0002089785, 0.0005187925, -0.1258596, 0.9920468
 130031300, -0.0096936, 0.01237031, -0.0003993881, 0.00104407, -0.003350499, 0.004184497, -6.984061E-05, 0.0005187925, -0.1258615, 0.9920465
 130231220, -0.009687949, 0.01229859, -0.0002909759, 0.00104407, -0.003850345, 0.004256241, -0.0001288304, 0.0005187925, -0.1258627, 0.9920464
 130431140, -0.009796014, 0.0125024, -0.0002359125, 0.00104407, -0.003331869, 0.004252142, 0.0001015388, 0.0005187925, -0.1258644, 0.9920462
 130631060, -0.009569912, 0.01210076, 2.006724E-06, 0.00104407, -0.003414052, 0.003960953, -0.0004055045, 0.0005187925, -0.1258658, 0.992046
 130830980, -0.009653224, 0.01174154, -0.000684215, 0.00104407, -0.003261107, 0.004599318, -0.0001211039, 0.0005187925, -0.1258669, 0.9920458
 131030900, -0.009558621, 0.01269423, -0.0001737662, 0.00104407, -0.003707759, 0.004476022, -0.0003079291, 0.0005187925, -0.1258665, 0.9920458
 131230820, -0.009902891, 0.01260085, -0.0004922841, 0.00104407, -0.004086629, 0.00457088, -0.0001551603, 0.0005187925, -0.1258668, 0.9920458
 131430740, -0.01043031, 0.01235928, -0.000130613, 0.00104407, -0.003610996, 0.004504886, -0.0003323012, 0.0005187925, -0.125867, 0.9920458
 131630660, -0.009789133, 0.01269365, -0.0007358264, 0.00104407, -0.003510181, 0.004328301, 0.0001534337, 0.0005187925, -0.1258821, 0.9920439
 131831413, -0.009783873, 0.01244813, -5.391674E-06, 0.001046232, -0.003521268, 0.004442781, 0.0001480889, 0.0005209541, -0.1258959, 0.9920421
 132031333, -0.009547967, 0.01250681, -8.522889E-06, 0.001046232, -0.003266735, 0.00461558, -0.0003721906, 0.0005187925, -0.1259077, 0.9920407
 132231253, -0.009684384, 0.01228615, -0.0004753535, 0.00104407, -0.003533749, 0.00447038, 0.0002767695, 0.0005187925, -0.125918, 0.9920393
 132431173, -0.009913046, 0.0122521, 0.0001937258, 0.00104407, -0.003561428, 0.004804137, -4.751926E-05, 0.0005187925, -0.1259272, 0.9920382
 132631093, -0.009854144, 0.01271294, -5.906365E-05, 0.00104407, -0.003585236, 0.004639237, 0.0003135178, 0.0005187925, -0.1259351, 0.9920372
 132831013, -0.009800414, 0.01250743, 2.610119E-05, 0.00104407, -0.003495266, 0.004487354, 5.624906E-05, 0.0005187925, -0.1259423, 0.9920363
 133030933, -0.009726197, 0.0122564, -0.09844853, 0.00104407, -0.003336265, 0.004593187, -0.0971292, 0.0005187925, -0.1259483, 0.9920355
 133230853, -0.00991464, 0.01270996, -0.2629535, 0.00104407, -0.003880518, 0.004928007, -0.08659621, 0.0005187925, -0.1259526, 0.992035
 133430773, -0.01019136, 0.01301648, -0.2140718, 0.00104407, -0.003662785, 0.004500533, -0.06765022, 0.0005187925, -0.1259567, 0.9920344
 133630693, -0.0143019, 0.02250608, -1.033858, 0.00104407, -0.008094194, 0.01471835, -0.676639, 0.0005187925, -0.1260433, 0.9920087
 133831446, -0.02367694, 0.04892356, -1.116286, 0.001046232, -0.00933383, 0.0214001, -0.06227765, 0.0005209541, -0.1263065, 0.9919512
 134031366, -0.02378494, 0.05460953, -0.08808019, 0.001046232, -0.00670309, 0.01587299, -0.03719854, 0.0005187925, -0.1265335, 0.9919469
 134231286, -0.01064753, 0.0235348, -0.2029163, 0.00104407, 0.0003531094, -0.002418292, -0.1145139, 0.0005187925, -0.1265377, 0.9919611
 134431206, 0.004574303, -0.01788644, -0.2944255, 0.00104407, 0.003088092, -0.0104859, -0.09215673, 0.0005187925, -0.1264473, 0.991967
 134631126, 0.005228001, -0.02209221, -0.2155989, 0.00104407, 0.0001863175, -0.003847713, -0.06340995, 0.0005187925, -0.126423, 0.9919753
 134831046, -0.001163705, -0.003714706, -0.1560076, 0.00104407, -0.0008757202, 0.001232014, -0.04990643, 0.0005187925, -0.1263725, 0.9919819
 135030966, 0.005100355, -0.006210474, -0.1211264, 0.00104407, 0.006731395, -0.008515999, -0.03762088, 0.0005187925, -0.1261425, 0.9919646
 135230886, 0.03144778, -0.03668275, -0.08859663, 0.00104407, 0.01775089, -0.01920722, -0.02617796, 0.0005187925, -0.125786, 0.9918551
 135430806, 0.04965936, -0.04885162, -0.06095554, 0.00104407, 0.01657987, -0.01374268, -0.01826086, 0.0005187925, -0.1258055, 0.9918734
 135630726, 0.03211623, -0.01919475, -0.04237929, 0.00104407, 0.004447003, 0.003550489, -0.01306391, 0.0005187925, -0.1261502, 0.9919693
 135831479, -0.002979823, 0.02601025, -0.02367835, 0.001046232, -0.008700657, 0.01623725, -0.003438842, 0.0005209541, -0.1265588, 0.9919589
 136031399, -0.0244437, 0.04088518, -0.002826298, 0.001046232, -0.006982733, 0.01164492, -7.911139E-05, 0.0005187925, -0.127014, 0.9918979
 136231319, -0.008925376, 0.02614839, 0.004889198, 0.00104407, 0.0009119287, 0.007824909, 0.001543142, 0.0005187925, -0.1274777, 0.9918078
 136431239, 0.001972929, 0.031124, 0.007981763, 0.00104407, -0.0008904618, 0.01755678, 0.002644716, 0.0005187925, -0.1281095, 0.9917486
 136631159, -0.004843767, 0.04851251, 0.02184082, 0.00104407, -0.001635106, 0.01484577, 0.01373785, 0.0005187925, -0.1287607, 0.9916577
 136831079, 0.001463018, 0.01414189, 0.05764494, 0.00104407, 0.003559165, -0.01022831, 0.02949266, 0.0005187925, -0.1289658, 0.991559
 137030999, 0.006008999, -0.04461282, 0.1064131, 0.00104407, -0.001915421, -0.02143265, 0.04965995, 0.0005187925, -0.1291751, 0.991585
 137230919, -0.02391799, -0.04106553, 0.1646015, 0.00104407, -0.01877786, -0.003319229, 0.07306799, 0.0005187925, -0.1297812, 0.9915138
 137430839, -0.0632864, 0.007528343, 0.2311346, 0.00104407, -0.02784465, 0.007894592, 0.09782018, 0.0005187925, -0.1301987, 0.9913452
 137630759, -0.07377306, 0.01275769, 0.3214531, 0.00104407, -0.02406413, -0.0008289275, 0.1553208, 0.0005187925, -0.1303719, 0.9913318
 137830679, -0.06987409, -0.009005138, 0.4311692, 0.00104407, -0.0273856, -0.006628079, 0.1520409, 0.0005187925, -0.1306156, 0.9912192
 138031432, -0.06715588, -0.005101024, 0.4473859, 0.001046232, -0.01957436, 0.007273952, 0.1760411, 0.0005209541, -0.1310016, 0.9912286
 138231352, -0.04374407, 0.04199988, 0.5232772, 0.001046232, -0.01197013, 0.02551622, 0.2024367, 0.0005187925, -0.1317113, 0.991161
 138431272, -0.03087215, 0.07358985, 0.555193, 0.00104407, -0.01045952, 0.02685439, 0.1955355, 0.0005187925, -0.1323345, 0.99107
 138631192, -0.03058575, 0.06549491, 0.5167425, 0.00104407, -0.0128634, 0.019434, 0.1715227, 0.0005187925, -0.1327563, 0.9909703
 138831112, -0.03212659, 0.03916903, 0.4429134, 0.00104407, -0.009217598, 0.006003541, 0.1417125, 0.0005187925, -0.1331462, 0.9910115
 139031032, -0.01427213, 0.0003923986, 0.3528219, 0.00104407, 0.0008644204, -0.007670362, 0.1076842, 0.0005187925, -0.1332838, 0.9910768
 139230952, 0.01117942, -0.02328996, 0.2587865, 0.00104407, 0.008343072, -0.007964405, 0.07346695, 0.0005187925, -0.133485, 0.9910282
 139430872, 0.0273758, -0.02065801, 0.1665842, 0.00104407, 0.01179155, -0.008525874, 0.04258194, 0.0005187925, -0.1338647, 0.9909382
 139630792, 0.02963369, -0.02549612, 0.08403985, 0.00104407, 0.008772437, -0.009605743, 0.01368929, 0.0005187925, -0.1342891, 0.9909025
 139830712, 0.0168409, -0.02932136, 0.01084798, 0.00104407, 0.002619246, -0.01339921, -0.009110576, 0.0005187925, -0.1347401, 0.9908652
 140031465, 0.00425905, -0.04965724, -0.04470896, 0.001046232, 0.0006973098, -0.02465048, -0.02568766, 0.0005209541, -0.134944, 0.9908308
 140231385, -0.0004491901, -0.06121579, -0.08304191, 0.001046232, -0.002247751, -0.01565464, -0.03540502, 0.0005187925, -0.1354129, 0.9907857
 140431305, -0.001718056, -0.02478888, -0.1056945, 0.00104407, 0.004187163, -0.001527238, -0.04103917, 0.0005187925, -0.135801, 0.9906943
 140631225, 0.01924803, 0.005558598, -0.1182294, 0.00104407, 0.009037984, 0.007230788, -0.0446244, 0.0005187925, -0.1362014, 0.9906216
 140831145, 0.004235055, 0.04434066, -0.122627, 0.00104407, -0.01185081, 0.03072529, -0.04373468, 0.0005187925, -0.1367308, 0.9905381
 141031065, -0.051471, 0.1062492, -0.1144996, 0.00104407, -0.02530042, 0.04721014, -0.03848404, 0.0005187925, -0.1372647, 0.9902529
 141230985, -0.05203809, 0.132239, -0.1030435, 0.00104407, -0.007144518, 0.04941209, -0.03442353, 0.0005187925, -0.1383194, 0.9903574
 141430905, 0.002662509, 0.1266873, -0.0868442, 0.00104407, 0.009701063, 0.03966018, -0.02742177, 0.0005187925, -0.1389104, 0.9902906
 141630825, 0.02162908, 0.09063724, -0.06747571, 0.00104407, 0.0028626, 0.02389825, -0.02015789, 0.0005187925, -0.1386864, 0.9903363
 141830745, -0.00812172, 0.06209931, -0.04908239, 0.00104407, -0.01090708, 0.02295809, -0.01443255, 0.0005187925, -0.1385981, 0.9902699
 142030665, -0.04777629, 0.07604492, -0.03343654, 0.00104407, -0.02758606, 0.03522146, -0.007802087, 0.0005187925, -0.1386871, 0.9898582
 142231418, -0.08481868, 0.1127908, -0.01396865, 0.001046232, -0.03307647, 0.04935138, -0.002392442, 0.0005209541, -0.1395285, 0.9894763
 142431338, -0.07873068, 0.1356235, -0.005145994, 0.001046232, -0.0216122, 0.04680728, -0.001093334, 0.0005187925, -0.1409153, 0.9895434
 142631258, -0.0559906, 0.1004196, 0.005436952, 0.00104407, -0.02112758, 0.02012568, 0.005173426, 0.0005187925, -0.1412163, 0.9894656
 142831178, -0.06426327, 0.0243645, 0.01699317, 0.00104407, -0.02492608, -0.005200669, 0.007396713, 0.0005187925, -0.1412255, 0.9894478
 143031098, -0.04427962, -0.02785354, 0.01986512, 0.00104407, 0.0005115762, -0.01598871, 0.006784421, 0.0005187925, -0.1413025, 0.9899457
 143231018, 0.03965644, -0.06301542, 0.01832925, 0.00104407, 0.03280533, -0.03512935, 0.00745587, 0.0005187925, -0.1407274, 0.9897274
 143430938, 0.09772576, -0.1170289, 0.02271607, 0.00104407, 0.03577676, -0.05101095, 0.008414032, 0.0005187925, -0.1403638, 0.9895885
 143630858, 0.09470377, -0.1374605, 0.02209671, 0.00104407, 0.03418367, -0.04736674, 0.006931969, 0.0005187925, -0.1404783, 0.9894225
 143830778, 0.09637064, -0.104943, 0.01630388, 0.00104407, 0.03533523, -0.02226982, 0.004979416, 0.0005187925, -0.1412044, 0.989247
 144030698, 0.09762476, -0.03412542, 0.01266175, 0.00104407, 0.03645802, -0.001372953, 0.004095137, 0.0005187925, -0.1421916, 0.9889877
 144231451, 0.07976439, -0.004567491, 0.009499605, 0.001046232, 0.01415385, -0.004436824, 0.002241653, 0.0005209541, -0.143056, 0.9894838
 144431371, 0.002212441, -0.01129249, 0.005881818, 0.001046232, -0.01523665, -0.0007675409, 0.001742093, 0.0005187925, -0.1437498, 0.9896119
 144631291, -0.04526762, 0.0142465, 0.004058777, 0.00104407, -0.01475041, 0.0136566, 0.001020863, 0.0005187925, -0.1442676, 0.9895375
 144831211, -0.0287494, 0.04967137, 0.00257313, 0.00104407, -0.004955538, 0.02428022, 0.0003186179, 0.0005187925, -0.1447318, 0.9894634
 145031131, -0.01187004, 0.06507695, 0.0006954735, 0.00104407, -0.004329794, 0.02063798, -8.263142E-05, 0.0005187925, -0.1449995, 0.9894251
 145231051, -0.02567684, 0.04681034, -0.0001075124, 0.00104407, -0.01845628, 0.01333675, 0.0001492428, 0.0005187925, -0.1451109, 0.9893575
 145430971, -0.06622119, 0.04829916, 0.000150768, 0.00104407, -0.03031304, 0.02578864, -0.0001440378, 0.0005187925, -0.1456032, 0.9890671
 145630891, -0.07381074, 0.0722055, -0.0008000522, 0.00104407, -0.01980232, 0.0221858, -0.0004837782, 0.0005187925, -0.1465448, 0.9891046
 145830811, -0.04977395, 0.04617918, -0.004826593, 0.00104407, -0.01927816, 0.0116149, -0.003889326, 0.0005187925, -0.1467705, 0.9890127
 146030731, -0.063141, 0.03541222, -0.006464973, 0.00104407, -0.02730996, 0.01540699, -0.0006651351, 0.0005187925, -0.1471054, 0.9887794
 146231484, -0.07312918, 0.03537316, -0.0009437333, 0.001046232, -0.02531615, 0.008076663, -8.4426E-06, 0.0005209541, -0.1475198, 0.9887409
 146431404, -0.06226866, 0.008113032, 0.0001046715, 0.001046232, -0.01914669, -0.003461288, -0.0002003035, 0.0005187925, -0.1477467, 0.9888125
 146631324, -0.05309179, -0.01689266, -0.0002652335, 0.00104407, -0.02160653, -0.009672411, 0.0001703809, 0.0005187925, -0.1479369, 0.9886779
 146831244, -0.067342, -0.02891709, 0.0008506757, 0.00104407, -0.02836623, -0.01205029, 0.0005882925, 0.0005187925, -0.1482437, 0.9884287
 147031164, -0.07248733, -0.03269519, 0.0008042707, 0.00104407, -0.02206763, -0.01208248, 4.720229E-05, 0.0005187925, -0.148544, 0.9885302
 147231084, -0.04598871, -0.0167229, 6.978124E-06, 0.00104407, -0.009121768, 0.005288573, -0.0001899758, 0.0005187925, -0.1489972, 0.988635
 147431004, -0.01230808, 0.03379101, -0.0002329729, 0.00104407, 0.001869593, 0.01907163, -0.0008194946, 0.0005187925, -0.1496343, 0.9886637
 147630924, 0.01015067, 0.04908092, -0.0006188722, 0.00104407, 0.005407344, 0.01573894, 0.0005662643, 0.0005187925, -0.1500271, 0.9886388
 147830844, 0.01410652, 0.03630411, 0.0002626214, 0.00104407, 0.005188022, 0.00935158, -0.000572146, 0.0005187925, -0.1504212, 0.9885926
 148030764, 0.01632231, 0.01930868, -0.006418596, 0.00104407, 0.007615829, 0.004408898, -0.003866651, 0.0005187925, -0.1506822, 0.9885778
 148230684, 0.02711442, 0.004591523, -0.01093287, 0.00104407, 0.01299847, -0.002563617, -0.003123315, 0.0005187925, -0.1508618, 0.988546
 148431437, 0.03752159, -0.01871361, -0.003740796, 0.001046232, 0.01351407, -0.01291191, 0.0003115699, 0.0005209541, -0.1509472, 0.9885113
 148631357, 0.0482104, -0.05740657, 0.001676765, 0.001046232, 0.02608209, -0.03442345, 0.001136112, 0.0005187925, -0.1506159, 0.9882169
 148831277, 0.09010351, -0.125212, 0.003365327, 0.00104407, 0.04050338, -0.06102785, 0.001125196, 0.0005187925, -0.1500247, 0.9876324
 149031197, 0.09227249, -0.1580208, 2.229412E-05, 0.00104407, 0.01915157, -0.04683995, -0.001155031, 0.0005187925, -0.1517344, 0.9881117
 149231117, 0.01665725, -0.08480819, -0.001765018, 0.00104407, -0.01026194, -0.009479539, 0.0005798845, 0.0005187925, -0.1531283, 0.9882056
 149431037, -0.0290827, 0.0006483188, 0.00161843, 0.00104407, -0.007543018, 0.01188948, 0.000774766, 0.0005187925, -0.1531481, 0.9882021
 149630957, 0.008967392, 0.04356996, 0.002413303, 0.00104407, 0.02034616, 0.02054782, 0.0005367098, 0.0005187925, -0.1530794, 0.9878485
 149830877, 0.07960652, 0.04429498, 0.002227425, 0.00104407, 0.03859371, 0.00680038, 0.0008381052, 0.0005187925, -0.152973, 0.9872055
 150030797, 0.07569129, -0.01961194, 0.001815458, 0.00104407, 0.00527265, -0.02746909, 0.00051303, 0.0005187925, -0.1536284, 0.9879807
 150230717, -0.05402417, -0.1024656, 0.001025757, 0.00104407, -0.05440876, -0.0483107, -0.0001739032, 0.0005187925, -0.1556793, 0.9872765
 150431470, -0.1778949, -0.1214227, -0.003949954, 0.001046232, -0.07309255, -0.03500073, -0.003293199, 0.0005209541, -0.1555154, 0.9866044
 150631390, -0.1602119, -0.06143131, -0.009481903, 0.001046232, -0.03277268, -0.004439723, -0.003043149, 0.0005187925, -0.1535392, 0.9879482
 150831310, -0.03484999, 0.02391792, -0.004190825, 0.00104407, 0.01309307, 0.02757066, 0.0003664028, 0.0005187925, -0.1532862, 0.9881024
 151031230, 0.05631385, 0.1028, 0.001524871, 0.00104407, 0.02748783, 0.04965703, 0.0008116348, 0.0005187925, -0.1543801, 0.9877995
 151231150, 0.05914949, 0.1435668, 0.002226137, 0.00104407, 0.01009636, 0.05393761, 0.0005569839, 0.0005187925, -0.1551475, 0.9878851
 151431070, -0.01232137, 0.1215915, 0.001563322, 0.00104407, -0.02623582, 0.02640608, 0.0005693493, 0.0005187925, -0.1558688, 0.9874479
 151630990, -0.09824918, 0.02837588, 0.002009055, 0.00104407, -0.0454234, -0.01101204, 0.0002620423, 0.0005187925, -0.1568474, 0.9869081
 151830910, -0.122358, -0.03691464, -0.0003495129, 0.00104407, -0.04190264, -0.01256873, -0.0008136879, 0.0005187925, -0.1575155, 0.9868082
 152030830, -0.08593979, -0.01821292, -0.002063894, 0.00104407, -0.01219188, 0.0009469488, -0.0001746528, 0.0005187925, -0.1576073, 0.9874279
 152230750, 0.0105523, 0.01794813, -5.819854E-05, 0.00104407, 0.02454287, 0.01515431, -0.0001989498, 0.0005187925, -0.1577511, 0.9873347
 152430670, 0.07838938, 0.04370813, 0.0009573932, 0.00104407, 0.03063802, 0.01344167, 0.0005669136, 0.0005187925, -0.1580722, 0.9871845
 152631423, 0.06608267, 0.02688929, 0.001216218, 0.001046232, 0.01389384, 0.005947683, 0.0003658464, 0.0005209541, -0.1582983, 0.9873357
 152831343, 0.02701343, 0.02546127, 0.0009882489, 0.001046232, 0.006249935, 0.01565638, 0.0004422075, 0.0005187925, -0.1586118, 0.9873231
 153031263, 0.02332466, 0.06619043, 0.0009267007, 0.00104407, 0.01251324, 0.03701617, 0.0003225633, 0.0005187925, -0.1590937, 0.9872189
 153231183, 0.03770933, 0.1288064, 0.00112447, 0.00104407, 0.0147432, 0.06110391, 0.0004573447, 0.0005187925, -0.1596047, 0.9871458
 153431103, 0.03403277, 0.1831899, -0.0007969551, 0.00104407, 0.008097039, 0.07267565, -0.0008136331, 0.0005187925, -0.1599045, 0.9871321
 153631023, 0.01054553, 0.1865555, -0.004438528, 0.00104407, -0.002373949, 0.05797559, -0.001958794, 0.0005187925, -0.1602234, 0.9870599
 153830943, -0.0306487, 0.1302884, -0.004530965, 0.00104407, -0.02638544, 0.03382383, -0.001217536, 0.0005187925, -0.1600308, 0.986723
 154030863, -0.09768234, 0.0905376, -0.002247923, 0.00104407, -0.04679288, 0.03561326, -0.0002822128, 0.0005187925, -0.160486, 0.9858631
 154230783, -0.1238912, 0.10494, -0.002358474, 0.00104407, -0.03975288, 0.03957423, -0.00179378, 0.0005187925, -0.1620671, 0.9857861
 154430703, -0.08673718, 0.08408525, -0.004297351, 0.00104407, -0.0202274, 0.01536406, -0.0008574917, 0.0005187925, -0.1631392, 0.9862367
 154631456, -0.03695128, 0.01298276, -0.0003091016, 0.001046232, -0.004715766, -0.008789865, 0.001181367, 0.0005209541, -0.1628415, 0.9865821
 154831376, -0.0009432421, -0.03775102, 0.003189947, 0.001046232, 0.00484019, -0.02025738, 0.001074109, 0.0005187925, -0.1620197, 0.9867846
 155031296, 0.004709921, -0.0598236, 0.00344382, 0.00104407, -0.005777991, -0.02301012, 0.001361283, 0.0005187925, -0.1614392, 0.9867877
 155231216, -0.03646005, -0.0645741, 0.003473765, 0.00104407, -0.02200019, -0.02435819, 0.0008871129, 0.0005187925, -0.1613872, 0.9865591
 155431136, -0.03834565, -0.06432975, 0.002236355, 0.00104407, 0.003248298, -0.02151933, 0.0008416909, 0.0005187925, -0.1613475, 0.9868973
 155631056, 0.04916906, -0.05737447, 0.002266163, 0.00104407, 0.03563176, -0.0208028, 0.000679078, 0.0005187925, -0.1615359, 0.9864491
 155830976, 0.095572, -0.07993596, 0.002801943, 0.00104407, 0.02970111, -0.04383719, 0.002250665, 0.0005187925, -0.1620646, 0.9863716
 156030896, 0.06099331, -0.1403588, 0.01038642, 0.00104407, 0.01249231, -0.05792892, 0.004761481, 0.0005187925, -0.1627706, 0.9864748
 156230816, 0.0278147, -0.1256798, 0.01206794, 0.00104407, 0.008368266, -0.02311943, 0.003038292, 0.0005187925, -0.1634112, 0.986461
 156430736, 0.02473782, -0.01074419, 0.003214409, 0.00104407, 0.009609449, 0.02060068, -0.0002698665, 0.0005187925, -0.1639897, 0.9864053
 156630656, 0.02687038, 0.06985778, -0.002397978, 0.00104407, 0.009804015, 0.02812867, -0.001450808, 0.0005187925, -0.1642566, 0.9863577
 156831409, 0.01139477, 0.05722403, -0.004488066, 0.001046232, -0.006958306, 0.009389317, -0.002005583, 0.0005209541, -0.1641972, 0.9864226
 157031329, -0.04557118, 0.01336974, -0.004783917, 0.001046232, -0.02908313, 0.0006690245, -0.001691572, 0.0005187925, -0.164454, 0.9861497
 157231249, -0.07481381, -0.001122958, -0.004457634, 0.00104407, -0.02014993, -0.003244047, -0.001167607, 0.0005187925, -0.1647668, 0.9862725
 157431169, -0.02811017, -0.0292012, -0.002962632, 0.00104407, 0.002838398, -0.02230943, -0.0007133229, 0.0005187925, -0.1646904, 0.9862901
 157631089, 0.01419785, -0.06498683, -0.002122156, 0.00104407, 0.005862769, -0.02148393, -0.001024771, 0.0005187925, -0.1652063, 0.986196
 157831009, 0.005755486, -0.02708595, -0.00232667, 0.00104407, -0.003589432, 0.007715759, -0.0004527235, 0.0005187925, -0.1662169, 0.9860889
 158030929, -0.01633937, 0.03793732, -0.001512325, 0.00104407, -0.007835575, 0.01830359, -0.0006978259, 0.0005187925, -0.1667977, 0.9859771
 158230849, -0.02018797, 0.02169061, -0.00116495, 0.00104407, -0.005783378, -0.01042181, -0.0002749773, 0.0005187925, -0.1667181, 0.9860032
 158430769, -0.01215911, -0.06827798, -0.0001888818, 0.00104407, -0.002624871, -0.04318021, 0.0002676727, 0.0005187925, -0.166236, 0.9860402
 158630689, 0.00338829, -0.1108732, -0.001644351, 0.00104407, 0.007461008, -0.03049031, -0.001631982, 0.0005187925, -0.1661869, 0.9859449
 158831442, 0.01227476, -0.03033888, -0.003080055, 0.001046232, -0.004874013, 0.01844439, -0.0004713783, 0.0005209541, -0.1675264, 0.9858541
 159031362, -0.06215848, 0.08669275, -0.0003880344, 0.001046232, -0.0498066, 0.0454956, 9.067722E-05, 0.0005187925, -0.1679243, 0.9844691
 159231282, -0.1608171, 0.119411, -0.002172162, 0.00104407, -0.06472389, 0.03911118, -0.002159784, 0.0005187925, -0.1684148, 0.9837261
 159431202, -0.1400332, 0.0994064, -0.00602978, 0.00104407, -0.02773905, 0.03319978, -0.002007173, 0.0005187925, -0.1694808, 0.9849917
 159631122, -0.03820755, 0.07211731, -0.00304872, 0.00104407, 0.002161943, 0.01296238, 0.0002219385, 0.0005187925, -0.1698749, 0.9854314
 159831042, 0.007134476, 0.006788641, 0.001074714, 0.00104407, 0.0004496345, -0.01070221, 0.0005380719, 0.0005187925, -0.16956, 0.9854862
 160030962, -0.004386306, -0.02806213, 0.001936853, 0.00104407, -0.00287207, -0.005938763, 0.0005367325, 0.0005187925, -0.1694676, 0.9854815
 160230882, 0.002013087, 0.02118366, 0.001989701, 0.00104407, 0.006943217, 0.02984492, 0.0003941497, 0.0005187925, -0.169753, 0.9854673
 160430802, 0.03374015, 0.1104169, 0.001715459, 0.00104407, 0.0199023, 0.05055798, 0.000938194, 0.0005187925, -0.1704472, 0.9853603
 160630722, 0.05701373, 0.1087293, 0.001541532, 0.00104407, 0.02027479, 0.01920468, 8.960834E-05, 0.0005187925, -0.1705422, 0.985302
 160831475, 0.04879963, 0.01766037, 0.0003106003, 0.001046232, 0.01465982, -0.006883651, 0.0002660768, 0.0005209541, -0.1703418, 0.9853335
 161031395, 0.03365296, 0.005867799, 0.0007402483, 0.001046232, 0.008827085, 0.02059931, 0.0003636836, 0.0005187925, -0.1707135, 0.9853195
 161231315, 0.009013494, 0.0931422, 0.001037544, 0.00104407, -0.006121599, 0.04949904, 0.0003434905, 0.0005187925, -0.1710441, 0.9851345
 161431235, -0.02884701, 0.1157454, -0.001436945, 0.00104407, -0.01491531, 0.02548073, -0.001206393, 0.0005187925, -0.1717239, 0.9849783
 161631155, -0.0328432, 0.02240799, -0.001487283, 0.00104407, -0.006884715, -0.01413226, 0.0005010518, 0.0005187925, -0.1720191, 0.9850782
 161831075, -0.003936817, -0.05609439, 0.0003210534, 0.00104407, 0.006393903, -0.0269028, -0.0001973054, 0.0005187925, -0.171856, 0.9850816
 162030995, 0.03554637, -0.07026935, 0.0004223528, 0.00104407, 0.02235651, -0.02261701, 0.0007963463, 0.0005187925, -0.171701, 0.9848536
 162230915, 0.0667736, -0.04426577, 0.001547224, 0.00104407, 0.02427648, -0.006405485, 2.329251E-05, 0.0005187925, -0.171989, 0.9847993
 162430835, 0.05052009, -0.005270931, 0.0002834676, 0.00104407, 0.008410447, 0.002395679, 0.0005107623, 0.0005187925, -0.1723509, 0.9849759
 162630755, 0.008602255, -0.005500033, 0.0008252453, 0.00104407, -0.002624472, -0.01071706, 0.0006260703, 0.0005187925, -0.1725581, 0.9849835
 162830675, -0.01525183, -0.04466357, 0.001022922, 0.00104407, -0.01031043, -0.02196617, 0.0008921284, 0.0005187925, -0.1727414, 0.9849672
 163031428, -0.03441549, -0.04719008, 0.0006730279, 0.001046232, -0.01417643, -0.007760521, -0.0003483694, 0.0005209541, -0.1731235, 0.9848846
 163231348, -0.03599631, -0.007496619, -0.0002980237, 0.001046232, -0.01109423, 0.00144148, 9.445346E-05, 0.0005187925, -0.1734654, 0.984832
 163431268, -0.0276196, -0.01713548, -0.0001064387, 0.00104407, -0.009513476, -0.02005589, 0.0001596229, 0.0005187925, -0.1734712, 0.984839
 163631188, -0.04096685, -0.05547163, 0.0001240234, 0.00104407, -0.02588587, -0.0141484, -0.000191196, 0.0005187925, -0.1740651, 0.9845324
 163831108, -0.09180646, -0.009488721, -0.0006155793, 0.00104407, -0.04195128, 0.009650228, -0.0008291312, 0.0005187925, -0.1745647, 0.9839055
 164031028, -0.1050233, 0.04365368, -0.001059442, 0.00104407, -0.02987365, 0.02531341, 0.0002594089, 0.0005187925, -0.1747826, 0.9841285
 164230948, -0.04617146, 0.08747811, -0.0004237827, 0.00104407, 0.002669008, 0.0406591, -7.965357E-05, 0.0005187925, -0.1754194, 0.9844771
 164430868, 0.02969547, 0.114278, -0.0002567503, 0.00104407, 0.01880289, 0.04067874, -0.0008902635, 0.0005187925, -0.1756936, 0.9844304
 164630788, 0.03896207, 0.1005298, -0.001173234, 0.00104407, 0.005822008, 0.03102166, -0.0001611422, 0.0005187925, -0.1753438, 0.9844961
 164830708, 0.004693909, 0.07837519, -0.0005749047, 0.00104407, -0.00159819, 0.02590261, -0.000412354, 0.0005187925, -0.1754685, 0.9844521
 165031461, 0.007612962, 0.05825147, -0.0008843821, 0.001046232, 0.01071881, 0.01252841, -0.0005711459, 0.0005209541, -0.175954, 0.9843754
 165231381, 0.02988187, 0.01185735, -0.0007244784, 0.001046232, 0.007184178, -0.006266409, 0.0001644108, 0.0005187925, -0.175965, 0.9843879
 165431301, -0.003521427, -0.01925925, 0.0002635163, 0.00104407, -0.01277171, -0.005398005, 0.0005700358, 0.0005187925, -0.1762328, 0.9842606
 165631221, -0.04354122, -0.002304794, 0.0008226716, 0.00104407, -0.01794988, 0.005048736, 8.686881E-05, 0.0005187925, -0.1766424, 0.9841067
 165831141, -0.03975311, 0.01966141, -5.414226E-05, 0.00104407, -0.008768893, 0.009389813, -0.0001014887, 0.0005187925, -0.1770061, 0.9841413
 166031061, -0.02739072, 0.02630558, -4.736435E-05, 0.00104407, -0.01502859, 0.009985454, -9.378614E-05, 0.0005187925, -0.1771909, 0.9839547
 166230981, -0.05414953, 0.02777909, -4.03922E-05, 0.00104407, -0.02462994, 0.009688372, -0.0003190612, 0.0005187925, -0.1774494, 0.9837186
 166430901, -0.05165991, 0.02157774, -0.0008831712, 0.00104407, -0.008199899, 0.00433218, 0.0002029954, 0.0005187925, -0.177714, 0.9840024
 166630821, -0.0004701274, 0.01196807, 0.0001639175, 0.00104407, 0.009372712, 0.006050019, 0.0001388566, 0.0005187925, -0.1778347, 0.9840598
 166830741, 0.03448137, 0.01276015, 0.0001053103, 0.00104407, 0.01689774, -0.0003021653, -2.390263E-05, 0.0005187925, -0.177849, 0.9840055
 167030661, 0.04874621, -0.02640761, 0.000411726, 0.00104407, 0.01836879, -0.02310934, -5.615014E-05, 0.0005187925, -0.1775725, 0.9839664
 167231414, 0.03519525, -0.07448948, 8.717028E-05, 0.001046232, 0.002547182, -0.03007944, -3.306177E-05, 0.0005209541, -0.1778121, 0.9840578
 167431334, -0.01587212, -0.06049944, -5.653419E-05, 0.001046232, -0.01629003, -0.008528481, 0.000346479, 0.0005187925, -0.1783348, 0.9838601
 167631254, -0.04500533, -0.0007489871, -1.303677E-06, 0.00104407, -0.01400154, 0.009489098, 9.5937E-06, 0.0005187925, -0.1785576, 0.983835
 167831174, -0.01803913, 0.02255757, -0.0001202805, 0.00104407, 0.004291099, 0.004254171, 0.0003201645, 0.0005187925, -0.178644, 0.9839078
 168031094, 0.01886522, 0.004893109, 0.002936987, 0.00104407, 0.007392134, -6.210939E-07, 0.004369936, 0.0005187925, -0.1786667, 0.9838994
 168231014, 0.006468237, 0.009920424, 0.00617419, 0.00104407, -0.005128699, 0.009671542, 0.000512103, 0.0005187925, -0.178961, 0.9838295
 168430934, -0.01648447, 0.02568562, 0.0003392376, 0.00104407, -0.005188396, 0.006085293, -0.0001842596, 0.0005187925, -0.179255, 0.9837882
 168630854, -0.01666764, 0.004407221, -0.001125798, 0.00104407, -0.009014661, -0.004213816, -0.0002788143, 0.0005187925, -0.1793913, 0.9837333
 168830774, -0.03452156, -0.008158219, -0.00123378, 0.00104407, -0.0164657, 0.0004474936, -0.0004170287, 0.0005187925, -0.1796588, 0.983588
 169030694, -0.04474329, 0.03316566, -0.001385062, 0.00104407, -0.01512733, 0.03080441, -0.0005813348, 0.0005187925, -0.180112, 0.9834063
 169231447, -0.02743687, 0.1129729, 0.001641568, 0.001046232, -0.0006277414, 0.052191, 0.003812409, 0.0005209541, -0.1809845, 0.9834203
 169431367, 0.01670182, 0.1317095, 0.0102793, 0.001046232, 0.01439211, 0.03871717, 0.004638313, 0.0005187925, -0.1814543, 0.9833943
 169631287, 0.04085749, 0.0823386, 0.00778788, 0.00104407, 0.01416216, 0.01849547, -8.280659E-05, 0.0005187925, -0.1810291, 0.9834594
 169831207, 0.02865491, 0.02208861, -0.001248316, 0.00104407, 0.0048911, -0.007900632, -0.0007343584, 0.0005187925, -0.1804963, 0.9835687
 170031127, 0.006658635, -0.04268444, -0.003006205, 0.00104407, 0.000132119, -0.02348818, -0.0009528103, 0.0005187925, -0.1802377, 0.983616
 170231047, 0.005796616, -0.06145577, -0.003098466, 0.00104407, 0.005940256, -0.01970721, -0.00186106, 0.0005187925, -0.1802279, 0.9835674
 170430967, 0.03149734, -0.04756537, -0.003981117, 0.00104407, 0.01969597, -0.01410369, -0.0008930078, 0.0005187925, -0.1803701, 0.9833363
 170630887, 0.04499613, -0.01844779, -0.002828869, 0.00104407, 0.007716373, 0.005740878, -0.000925962, 0.0005187925, -0.1809302, 0.9834667
 170830807, -0.003933512, 0.03675875, -0.002465533, 0.00104407, -0.01285615, 0.02175738, -0.001552135, 0.0005187925, -0.1813864, 0.9833574
 171030727, -0.0338514, 0.05233961, -0.002773499, 0.00104407, -0.009095838, 0.01291795, -8.844056E-05, 0.0005187925, -0.1818078, 0.9833239
 171231480, -0.02160069, 0.01858748, -0.001087525, 0.001046232, -0.008204218, -0.001373472, -0.0007253637, 0.0005209541, -0.1818833, 0.9833156
 171431400, -0.007149039, -0.01070374, -0.001296171, 0.001046232, 0.008988579, -0.00640538, -0.0001671385, 0.0005187925, -0.1818946, 0.9831924
 171631320, 0.03716601, -7.997546E-05, -0.0005377774, 0.00104407, 0.01522733, 0.01211205, -0.0002690157, 0.0005187925, -0.1820804, 0.9831696
 171831240, 0.01850822, 0.05074523, -0.000830616, 0.00104407, -0.006324932, 0.02450361, -0.0006635407, 0.0005187925, -0.1821998, 0.9832491
 172031160, -0.03222696, 0.04363017, -0.001176431, 0.00104407, -0.01711929, 0.0002600924, -0.0003196582, 0.0005187925, -0.1824016, 0.9831899
 172231080, -0.03532268, -0.03366472, -0.0003824433, 0.00104407, -0.005078142, -0.0282691, 0.0001246025, 0.0005187925, -0.1822248, 0.9832311
 172431000, -0.001533957, -0.07039244, 0.0002853992, 0.00104407, 0.004254894, -0.01687857, -8.205587E-05, 0.0005187925, -0.1824597, 0.9831431
 172630920, 0.01242538, 0.0003001075, -0.0002472972, 0.00104407, 0.004859795, 0.02582277, 0.000193124, 0.0005187925, -0.18316, 0.9830621
 172830840, 0.02389485, 0.1030743, 0.0002765002, 0.00104407, 0.01575065, 0.05000855, -0.0005003965, 0.0005187925, -0.184003, 0.9828148
 173030760, 0.0479451, 0.1146175, -0.002601171, 0.00104407, 0.0170857, 0.02495569, -0.0006808393, 0.0005187925, -0.1840049, 0.9827291
 173230680, 0.03410514, 0.01675649, -0.001481976, 0.00104407, 0.005845865, -0.0206823, -0.0002940848, 0.0005187925, -0.183381, 0.9828653
 173431433, 0.001413995, -0.06754463, -0.0004620917, 0.001046232, -0.007467364, -0.02320771, -0.0003987485, 0.0005209541, -0.1833261, 0.9830273
 173631353, -0.03651158, -0.03471493, -0.0001651345, 0.001046232, -0.02139986, 0.00223032, 0.0005066382, 0.0005187925, -0.1837485, 0.9829209
 173831273, -0.07980365, 0.01991625, 0.0007241343, 0.00104407, -0.04064799, 0.01200911, 1.012277E-05, 0.0005187925, -0.1840373, 0.9824386
 174031193, -0.1020563, 0.02266152, -6.347749E-06, 0.00104407, -0.02625659, 0.001140181, -0.0003404685, 0.0005187925, -0.1843863, 0.9827485
 174231113, -0.0365535, -0.0166589, -0.0003313193, 0.00104407, 0.003819733, -0.01576803, 0.0002330086, 0.0005187925, -0.1842963, 0.9827979
 174431033, 0.03566597, -0.0487328, 0.0007383276, 0.00104407, 0.02638473, -0.01894224, 2.703784E-06, 0.0005187925, -0.1840395, 0.9823204
 174630953, 0.08109159, -0.05999349, 0.0004695147, 0.00104407, 0.03090151, -0.02771934, -0.0002926812, 0.0005187925, -0.184036, 0.9820962
 174830873, 0.05901774, -0.06687591, -0.0005228478, 0.00104407, 0.006221447, -0.0145975, -0.0003383987, 0.0005187925, -0.1848081, 0.982635
 175030793, -0.01410901, -0.01309836, -0.0006373479, 0.00104407, -0.01970299, 0.007042373, -0.0005334436, 0.0005187925, -0.1852419, 0.9826678
 175230713, -0.06810521, 0.003643394, -0.0006778697, 0.00104407, -0.03114728, -0.01124604, 0.000161091, 0.0005187925, -0.1851094, 0.9826152
 175431466, -0.08651643, -0.05654895, 0.0002564099, 0.001046232, -0.03092373, -0.03075315, 0.0001713059, 0.0005209541, -0.1847781, 0.9826918
 175631386, -0.08029761, -0.0559016, -0.000263504, 0.001046232, -0.02670621, -0.000511754, -0.0002217693, 0.0005187925, -0.1851913, 0.9825542
 175831306, -0.05503036, 0.04845329, -0.001479238, 0.00104407, -0.01099609, 0.04118443, -0.001631139, 0.0005187925, -0.1858447, 0.9825106
 176031226, -0.008165618, 0.1435479, -0.01349817, 0.00104407, 0.0112048, 0.06683418, -0.009644399, 0.0005187925, -0.1870087, 0.9823438
 176231146, 0.06746659, 0.1828479, -0.03941272, 0.00104407, 0.04375827, 0.06190916, -0.0210794, 0.0005187925, -0.1882825, 0.981436
 176431066, 0.1555878, 0.1439636, -0.06569314, 0.00104407, 0.07483246, 0.03909486, -0.02728253, 0.0005187925, -0.1882769, 0.9795198
 176630986, 0.230154, 0.08461726, -0.07686572, 0.00104407, 0.09501332, 0.01893718, -0.0291801, 0.0005187925, -0.1868605, 0.977463
 176830906, 0.2687651, 0.03193888, -0.08133496, 0.00104407, 0.1010243, 0.00126831, -0.0303926, 0.0005187925, -0.1848756, 0.975976
 177030826, 0.282354, -0.006904192, -0.08274903, 0.00104407, 0.1062752, -0.006631534, -0.03062177, 0.0005187925, -0.1833043, 0.9741564
 177230746, 0.2950174, -0.02011914, -0.08245586, 0.00104407, 0.108509, -0.008505602, -0.02985284, 0.0005187925, -0.1826052, 0.9724693
 177430666, 0.3048057, -0.01883745, -0.08150374, 0.00104407, 0.1164752, -0.00386166, -0.02974154, 0.0005187925, -0.1827364, 0.9695615
 177631419, 0.324761, -0.001608908, -0.08151087, 0.001046232, 0.1189745, 0.005787083, -0.03016067, 0.0005209541, -0.1727835, 0.9695696
 177831339, 0.3210774, 0.0360817, -0.09180961, 0.001046232, 0.1150029, 0.02176885, -0.0393223, 0.0005187925, -0.1100802, 0.9771475
 178031259, 0.3069666, 0.04221844, -0.1146802, 0.00104407, 0.1071034, 0.001871784, -0.04477904, 0.0005187925, -0.0201657, 0.9819182
 178231179, 0.2806475, -0.04017374, -0.1272453, 0.00104407, 0.09612381, -0.03770977, -0.04896256, 0.0005187925, 0.0467664, 0.9812232
 178431099, 0.2505695, -0.1211827, -0.1390184, 0.00104407, 0.08485095, -0.04834, -0.05361054, 0.0005187925, 0.06618406, 0.9804886
 178631019, 0.2286767, -0.0916547, -0.1517858, 0.00104407, 0.08305866, -0.007054325, -0.05678716, 0.0005187925, 0.04593808, 0.9796668
 178830939, 0.2414896, 0.03613717, -0.1564317, 0.00104407, 0.09598639, 0.03943362, -0.05744682, 0.0005187925, 0.01076521, 0.9767182
 179030859, 0.2765299, 0.1303091, -0.1599177, 0.00104407, 0.1061137, 0.05535626, -0.05906761, 0.0005187925, -0.01617294, 0.9735385
 179230779, 0.2892512, 0.1360075, -0.1552998, 0.00104407, 0.1031069, 0.03828099, -0.0519402, 0.0005187925, -0.02401308, 0.9717484
 179430699, 0.2739738, 0.08185963, -0.1313329, 0.00104407, 0.09529885, 0.01942066, -0.04195695, 0.0005187925, -0.01496282, 0.9706112
 179631452, 0.2541082, 0.03338969, -0.1033904, 0.001046232, 0.08837159, 0.0002527332, -0.03165941, 0.0005209541, 0.001576791, 0.9694578
 179831372, 0.2337116, -0.01674278, -0.07640851, 0.001046232, 0.08066596, -0.01320294, -0.02265043, 0.0005187925, 0.01331975, 0.9684553
 180031292, 0.2123746, -0.03598095, -0.05468054, 0.00104407, 0.07278135, -0.0120858, -0.01628458, 0.0005187925, 0.01428208, 0.9678023
 180231212, 0.1925457, -0.02267421, -0.03917503, 0.00104407, 0.06713904, -0.002314869, -0.01122288, 0.0005187925, 0.004932365, 0.9669467
 180431132, 0.1769357, 0.004734446, -0.02688275, 0.00104407, 0.06052183, 0.00689362, -0.007654227, 0.0005187925, -0.009797282, 0.9665778
 180631052, 0.1508602, 0.02225888, -0.01948172, 0.00104407, 0.04605352, 0.009187375, -0.006158514, 0.0005187925, -0.02439385, 0.9678161
 180830972, 0.111916, 0.0203445, -0.01620518, 0.00104407, 0.03429738, 0.004269864, -0.005263946, 0.0005187925, -0.03563936, 0.9683905
 181030892, 0.09349886, 0.0001363819, -0.01329373, 0.00104407, 0.03480424, -0.006070127, -0.00373025, 0.0005187925, -0.04354311, 0.9666587
 181230812, 0.09716908, -0.02208995, -0.01043058, 0.00104407, 0.03494146, -0.00943803, -0.003502945, 0.0005187925, -0.04927191, 0.9657155
 181430732, 0.08692102, -0.02180953, -0.008990221, 0.00104407, 0.02672305, -0.005004657, -0.002543348, 0.0005187925, -0.05393668, 0.966287
 181631485, 0.06616764, -0.006072152, -0.006738266, 0.001046232, 0.02105779, 0.001604235, -0.00164358, 0.0005209541, -0.05758092, 0.9663634
 181831405, 0.05694728, 0.005381574, -0.00359153, 0.001046232, 0.02103081, 0.001943881, -0.000934283, 0.0005187925, -0.06023967, 0.9653582
 182031325, 0.06577685, 0.00730524, -0.002134102, 0.00104407, 0.02862908, 0.004521547, -0.000234236, 0.0005187925, -0.06187225, 0.9629114
 182231245, 0.0846478, 0.01663429, -0.001199603, 0.00104407, 0.03236293, 0.007789523, -0.0007353165, 0.0005187925, -0.06195325, 0.9616654
 182431165, 0.08428448, 0.02021162, -0.002489439, 0.00104407, 0.02832997, 0.006023307, -0.00139866, 0.0005187925, -0.06099099, 0.961754
 182631085, 0.07799614, 0.007655551, -0.00378213, 0.00104407, 0.02954439, -0.00262002, -0.001137965, 0.0005187925, -0.06062534, 0.9602628
 182831005, 0.08492186, -0.006552706, -0.002814276, 0.00104407, 0.03235939, 0.000632633, -0.001182644, 0.0005187925, -0.06143347, 0.9590401
 183030925, 0.08381105, 0.01682587, -0.004232675, 0.00104407, 0.02722359, 0.01362706, -0.002157074, 0.0005187925, -0.06171568, 0.9595547
 183230845, 0.0658553, 0.04143979, -0.005716317, 0.00104407, 0.01928949, 0.01570848, -0.001906169, 0.0005187925, -0.06075212, 0.9605745
 183430765, 0.04997768, 0.03303121, -0.004968742, 0.00104407, 0.01780123, 0.005973205, -0.001370571, 0.0005187925, -0.05958976, 0.9599026
 183630685, 0.05638568, 0.01073885, -0.002956588, 0.00104407, 0.02497766, 0.002576694, -5.9638E-05, 0.0005187925, -0.05883365, 0.9575852
 183831438, 0.06946672, 0.009211561, -0.000756513, 0.001046232, 0.02410812, 0.004229954, -0.001317032, 0.0005209541, -0.05871205, 0.9577311
 184031358, 0.05139046, 0.001102997, -0.00370275, 0.001046232, 0.01112914, -0.006280312, -0.001349003, 0.0005187925, -0.06101553, 0.9594664
 184231278, 0.02399468, -0.024741, -0.002330963, 0.00104407, 0.006682472, -0.01093078, 2.240596E-05, 0.0005187925, -0.06652889, 0.9591975
 184431198, 0.01885136, -0.01217733, 0.0005813788, 0.00104407, 0.006248076, 0.007133546, 0.0009020212, 0.0005187925, -0.07240205, 0.9589556
 184631118, 0.01401074, 0.03984509, 0.001842904, 0.00104407, 0.003225441, 0.02341405, 0.000820678, 0.0005187925, -0.07496974, 0.9594728
 184831038, 0.01009328, 0.05621476, 0.002209661, 0.00104407, 0.005605161, 0.01342573, 0.0004223266, 0.0005187925, -0.07381976, 0.9584409
 185030958, 0.02550966, 0.02456033, 0.002143885, 0.00104407, 0.01481305, 0.004508676, 0.0004556002, 0.0005187925, -0.07028296, 0.9560559
 185230878, 0.04800113, 0.01474476, 0.007317771, 0.00104407, 0.02031111, 0.006949144, 0.004433534, 0.0005187925, -0.06529595, 0.9548932
 185430798, 0.04543268, 0.02330721, 0.007877825, 0.00104407, 0.00931841, 0.01024275, 0.002030927, 0.0005187925, -0.06040163, 0.9577618
 185630718, 0.006359289, 0.01868485, 0.005423655, 0.00104407, -0.006246216, 1.781905E-05, 0.001622034, 0.0005187925, -0.05789407, 0.9605214
 185831471, -0.02293929, -0.01208781, 0.002937154, 0.001046232, -0.0099206, -0.009488958, 0.001033055, 0.0005209541, -0.0595478, 0.960868
 186031391, -0.02314975, -0.0200097, 0.005731201, 0.001046232, -0.006546378, -0.002935173, 0.006949638, 0.0005187925, -0.06430542, 0.9595768
 186231311, -0.01286819, 0.01233051, 0.02599501, 0.00104407, -0.002092673, 0.01604418, 0.01225539, 0.0005187925, -0.06891694, 0.9584159
 186431231, -0.005255415, 0.05030957, 0.03240848, 0.00104407, -0.002189227, 0.01835696, 0.01061266, 0.0005187925, -0.07054856, 0.958391
 186631151, -0.0105977, 0.02420126, 0.03106562, 0.00104407, -0.007533971, -0.006498981, 0.01731774, 0.0005187925, -0.07106002, 0.9587048
 186831071, -0.02249511, -0.03730792, 0.04508049, 0.00104407, -0.007264104, -0.02108409, 0.01073396, 0.0005187925, -0.07326037, 0.9583856
 187030991, -0.01456679, -0.0461538, 0.0234404, 0.00104407, -0.003483276, -0.008946765, 0.00858693, 0.0005187925, -0.07719813, 0.9577287
 187230911, -0.006955839, 0.001248435, 0.01872117, 0.00104407, -0.0003179706, 0.01401029, 0.001213176, 0.0005187925, -0.08033516, 0.957604
 187430831, 0.0003544963, 0.05636106, -0.005147403, 0.00104407, 0.0002620723, 0.0281989, -0.00453699, 0.0005187925, -0.07948983, 0.9580746
 187630751, -0.001175727, 0.07088643, -0.01326364, 0.00104407, -0.001763793, 0.02009183, -0.004425887, 0.0005187925, -0.07418579, 0.9586906
 187830671, -0.007507763, 0.02451946, -0.01108077, 0.00104407, -0.004056192, -0.008660988, -0.004131092, 0.0005187925, -0.06851866, 0.9590074
 188031424, -0.011949, -0.05166204, -0.01160348, 0.001046232, -0.004196629, -0.03053463, -0.006182343, 0.0005209541, -0.0679775, 0.9589936
 188231344, -0.0128319, -0.07329497, -0.01672217, 0.001046232, -0.005469125, -0.01764866, -0.003565536, 0.0005187925, -0.07355607, 0.9589261
 188431264, -0.01461203, -0.02091297, -0.004013054, 0.00104407, -0.004053601, 0.005906536, -0.001073544, 0.0005187925, -0.08175936, 0.9581013
 188631184, -0.01281173, 0.02724331, 0.01389448, 0.00104407, -0.01261806, 0.01396473, 0.03737367, 0.0005187925, -0.08862445, 0.9573061
 188831104, -0.0229187, 0.028827, 0.06192763, 0.00104407, -0.004071462, 0.003981312, 0.00972231, 0.0005187925, -0.09224135, 0.9565471
 189031024, -0.008758406, -0.01281583, 0.01659516, 0.00104407, -0.001711896, -0.01750255, 0.0001084001, 0.0005187925, -0.09460787, 0.9558668
 189230944, -0.00291513, -0.0601078, -0.008837491, 0.00104407, 0.0003176845, -0.02506286, -0.008723364, 0.0005187925, -0.09859844, 0.955652
 189430864, -0.0009045887, -0.04581041, -0.03052153, 0.00104407, -0.00122025, -0.002489087, -0.01381788, 0.0005187925, -0.1032346, 0.9561757
 189630784, -0.00535144, 0.02707021, -0.03781962, 0.00104407, -0.002459238, 0.02614152, -0.01365612, 0.0005187925, -0.1044511, 0.9568101
 189830704, -0.005511703, 0.073381, -0.03540738, 0.00104407, -0.0009009505, 0.02345939, -0.01200907, 0.0005187925, -0.1008595, 0.956651
 190031457, -0.001518887, 0.04150419, -0.02733256, 0.001046232, -0.0006464718, 0.003755299, -0.007367043, 0.0005209541, -0.09483925, 0.9567053
 190231377, -0.007066648, 0.002632492, -0.0201148, 0.001046232, -0.005922094, -0.00126841, -0.007012863, 0.0005187925, -0.08917608, 0.9583863
 190431297, -0.02427767, 0.005376324, -0.01705559, 0.00104407, -0.01256078, 0.00742635, -0.005487779, 0.0005187925, -0.08529989, 0.960138
 190631217, -0.03373405, 0.02703391, -0.01182027, 0.00104407, -0.01087049, 0.0125481, -0.002856231, 0.0005187925, -0.08306433, 0.9598194
 190831137, -0.02020161, 0.03276356, -0.00613976, 0.00104407, -0.002357578, 0.01037923, -0.0007461017, 0.0005187925, -0.08210772, 0.9581432
 191031057, -0.0002566528, 0.01166663, -0.002614775, 0.00104407, 0.00209067, -0.006404608, -0.001301005, 0.0005187925, -0.08343247, 0.9569907
 191230977, 0.003445619, -0.03774249, -0.003153117, 0.00104407, -0.0003191789, -0.02243084, -0.001253385, 0.0005187925, -0.08914561, 0.956653
 191430897, -0.02985707, -0.05300732, 0.06454714, 0.00104407, -0.03198109, -0.01163915, 0.06923523, 0.0005187925, -0.09843539, 0.9595626
 191630817, -0.1485847, -0.007536759, 0.2378813, 0.00104407, -0.08657183, 0.009130035, 0.1099859, 0.0005187925, -0.1079478, 0.9688349
 191830737, -0.254685, 0.02933561, 0.3298575, 0.00104407, -0.09013794, 0.01027733, 0.1314294, 0.0005187925, -0.1148129, 0.9666508
 192030657, -0.177415, 0.0198206, 0.3591229, 0.00104407, -0.02606253, 0.003566762, 0.1281839, 0.0005187925, -0.1171473, 0.9524097
 192231410, -0.01737411, 0.004939732, 0.3298084, 0.001046232, 0.01678639, -0.0005631908, 0.1073521, 0.0005209541, -0.1154001, 0.9440623
 192431330, 0.04474252, -0.007603724, 0.263106, 0.001046232, 0.01152999, -0.006222821, 0.08056651, 0.0005187925, -0.1130236, 0.9471382
 192631250, 0.01436641, -0.02428712, 0.1951673, 0.00104407, -0.002488112, -0.01225249, 0.05935748, 0.0005187925, -0.1129699, 0.9504887
 192831170, -0.002548126, -0.04038089, 0.1432478, 0.00104407, 0.003432252, -0.01802529, 0.04284688, 0.0005187925, -0.116456, 0.9485865
 193031090, 0.02214841, -0.04964975, 0.1012582, 0.00104407, 0.01478873, -0.01710111, 0.02879698, 0.0005187925, -0.1234987, 0.94523
 193231010, 0.04828718, -0.03648238, 0.0657983, 0.00104407, 0.02136149, -0.00690079, 0.01746521, 0.0005187925, -0.1314827, 0.9430258
 193430930, 0.06033964, -0.004342678, 0.03934462, 0.00104407, 0.02256686, 0.005945874, 0.01069841, 0.0005187925, -0.1365196, 0.9420716
 193630850, 0.06186023, 0.03494351, 0.02352914, 0.00104407, 0.02204668, 0.02271839, 0.005863961, 0.0005187925, -0.1348726, 0.9424959
 193830770, 0.05902399, 0.07289638, 0.01319709, 0.00104407, 0.02046757, 0.03013825, 0.003405535, 0.0005187925, -0.1253932, 0.9437157
 194030690, 0.05570767, 0.07197618, 0.007669644, 0.00104407, 0.02054174, 0.01910649, 0.002164599, 0.0005187925, -0.1114466, 0.9442351
 194231443, 0.05231379, 0.03922318, 0.005588414, 0.001046232, 0.01627043, 0.008477099, 0.001471848, 0.0005209541, -0.09814719, 0.9460562
 194431363, 0.03556947, 0.02842473, 0.004125408, 0.001046232, 0.008513547, 0.01470262, 0.001440836, 0.0005187925, -0.08834207, 0.9484268
 194631283, 0.01863904, 0.04871272, 0.004164567, 0.00104407, 0.004934296, 0.02065639, 0.001290038, 0.0005187925, -0.08201605, 0.9493101
 194831203, 0.01816674, 0.04815159, 0.004143391, 0.00104407, 0.009290679, 0.01165491, 0.002118028, 0.0005187925, -0.07978469, 0.9476948
 195031123, 0.02600521, 0.01905002, 0.003840155, 0.00104407, 0.008286075, 0.0008110406, 0.0007317261, 0.0005187925, -0.08191631, 0.9477267
 195231043, 0.01806746, -0.004496991, 0.00184847, 0.00104407, 0.005105116, -0.004757829, 0.0007709231, 0.0005187925, -0.08767485, 0.9472835
 195430963, 0.01638388, -0.0112285, 0.002593599, 0.00104407, 0.007524061, -0.001827235, 0.001360089, 0.0005187925, -0.09509302, 0.9456888
 195630883, 0.01769263, 0.01408305, 0.003121949, 0.00104407, 0.003903504, 0.0161532, 0.0004356393, 0.0005187925, -0.1003968, 0.9466652
 195830803, 0.004450787, 0.06964156, 0.001640234, 0.00104407, -0.0007825062, 0.03751213, 0.0006070341, 0.0005187925, -0.0989648, 0.9482155
 196030723, -0.004510628, 0.1090439, 0.001689048, 0.00104407, -0.002813661, 0.04066919, 0.0009505473, 0.0005187925, -0.08964294, 0.9493568
 196231476, -0.007840807, 0.09861347, 0.001471544, 0.001046232, -0.002797252, 0.0283685, 0.0001515303, 0.0005209541, -0.07538729, 0.950155
 196431396, 0.0002545875, 0.0740221, 0.00139177, 0.001046232, 0.005713982, 0.02704432, 0.0007754727, 0.0005187925, -0.0600506, 0.9483956
 196631316, 0.031279, 0.07683728, 0.002393063, 0.00104407, 0.01950177, 0.02797756, 0.0007598972, 0.0005187925, -0.04592285, 0.9451228
 196831236, 0.06168396, 0.06830264, 0.0007480991, 0.00104407, 0.0253654, 0.01978122, -0.0003014002, 0.0005187925, -0.03577966, 0.9435798
 197031156, 0.0620893, 0.04144346, -0.00248277, 0.00104407, 0.01753573, 0.008459394, -0.002055924, 0.0005187925, -0.03167066, 0.9454268
 197231076, 0.02864922, 0.0135978, -0.006476543, 0.00104407, 0.0002475332, -9.03918E-06, -0.003298754, 0.0005187925, -0.03411769, 0.9493817
 197430996, -0.0137315, -0.002604716, -0.006679603, 0.00104407, -0.0106516, -0.001305138, -0.001485968, 0.0005187925, -0.04152172, 0.9512442
 197630916, -0.02423287, -0.001715296, -0.001326962, 0.00104407, -0.004240699, 0.0001877809, 0.0003426671, 0.0005187925, -0.05085906, 0.9487678
 197830836, 0.0005562985, 0.0001947241, 0.001804871, 0.00104407, 0.006176462, -0.0005564776, 0.0004743644, 0.0005187925, -0.05944308, 0.9457958
 198030756, 0.01770483, -0.002843929, 6.821656E-05, 0.00104407, 0.005686754, -0.001725735, -0.0008539775, 0.0005187925, -0.06565873, 0.9457441
 198230676, 0.004798725, -0.003711548, -0.003137996, 0.00104407, -0.004210132, -0.0005888561, -0.001720993, 0.0005187925, -0.06917566, 0.9480433
 198431429, -0.02023372, 0.0006062617, -0.003628551, 0.001046232, -0.01081376, 0.001758651, -0.001241298, 0.0005209541, -0.07018331, 0.9494531
 198631349, -0.02850289, 0.00444575, -0.00149614, 0.001046232, -0.008993128, 0.0004618322, 0.0002253537, 0.0005187925, -0.06954595, 0.9489068
 198831269, -0.02032042, 0.0003299323, 0.0006217841, 0.00104407, -0.005193254, -0.0003082984, 0.0001131737, 0.0005187925, -0.06847619, 0.9483312
 199031189, -0.01445319, 0.001625851, 0.0004912973, 0.00104407, -0.005200424, 0.002423661, -0.0002288749, 0.0005187925, -0.06742994, 0.9483015
 199231109, -0.01056664, 0.01000352, 0.0004272075, 0.00104407, -0.002141675, 0.005071388, 0.001145081, 0.0005187925, -0.06652218, 0.9475175
 199431029, -0.002178229, 0.02001955, 0.0020361, 0.00104407, 0.0009251066, 0.01084734, 0.0004353449, 0.0005187925, -0.06510841, 0.9470216
 199630949, 0.004181237, 0.03360686, 0.0005783153, 0.00104407, 0.002593828, 0.01347715, 6.23728E-05, 0.0005187925, -0.06248646, 0.946848
 199830869, 0.005658646, 0.02824808, -0.0006238086, 0.00104407, 0.001272165, 0.004662394, -0.0006331794, 0.0005187925, -0.05983032, 0.9469165
 200030789, 0.001627505, -0.0009649749, -0.001505553, 0.00104407, -0.0003809559, -0.007434324, -0.0005194028, 0.0005187925, -0.05942103, 0.947163
 200230709, -0.004041628, -0.02886251, -0.0008634212, 0.00104407, -0.002909349, -0.01343834, -0.000134456, 0.0005187925, -0.06285819, 0.947253
 200431462, -0.007955362, -0.03430597, -0.0001213189, 0.001046232, -0.002360633, -0.009744519, -0.0001658333, 0.0005209541, -0.06928856, 0.9467675
 200631382, -0.009973234, -0.01576707, 8.942254E-06, 0.001046232, -0.005922999, 0.0004938534, -0.0001112815, 0.0005187925, -0.07623187, 0.9474326
 200831302, -0.02109413, 0.01326752, -0.0003119853, 0.00104407, -0.01011042, 0.01013822, -1.20949E-05, 0.0005187925, -0.08066818, 0.9482867
 201031222, -0.02620598, 0.02805442, 5.412677E-05, 0.00104407, -0.00816039, 0.009264171, -0.0002202106, 0.0005187925, -0.08138599, 0.9478492
 201231142, -0.02017299, 0.00915171, -0.0005534603, 0.00104407, -0.006491974, -0.006379375, -0.0002981198, 0.0005187925, -0.08041325, 0.9473017
 201431062, -0.01282588, -0.02655567, -0.0004165843, 0.00104407, -0.00122756, -0.01211538, 6.899219E-05, 0.0005187925, -0.08034419, 0.9456463
 201630982, 0.004636944, -0.01999789, 0.0003162406, 0.00104407, 0.00565468, 0.0006329935, -5.492873E-05, 0.0005187925, -0.0809065, 0.9441771
 201830902, 0.0166692, 0.01633884, -0.001679697, 0.00104407, 0.005743186, 0.01197593, -0.001786262, 0.0005187925, -0.08061903, 0.9443262
 202030822, 0.0161616, 0.03386027, -0.003951405, 0.00104407, 0.006540871, 0.01122366, -0.0005582066, 0.0005187925, -0.07897784, 0.9436864
 202230742, 0.01936479, 0.02411421, -0.001733342, 0.00104407, 0.007057943, 0.005916258, -8.16829E-05, 0.0005187925, -0.07661109, 0.9434663
 202430662, 0.01149545, 0.01438537, -0.001659247, 0.00104407, -0.001125043, 0.004952279, -0.0008676657, 0.0005187925, -0.0743638, 0.9458558
 202631415, -0.01445857, 0.01317597, -0.002099484, 0.001046232, -0.01038135, 0.004490704, -0.0008687119, 0.0005209541, -0.07303916, 0.9480441
 202831335, -0.03017389, 0.008634881, -0.0006663873, 0.001046232, -0.01046054, 0.0009095034, 0.0004599984, 0.0005187925, -0.0732081, 0.9479126
 203031255, -0.02779443, 0.0003565872, 0.001473031, 0.00104407, -0.01006361, -0.0003433154, 0.0001535838, 0.0005187925, -0.07505631, 0.9478507
 203231175, -0.0243301, -9.936356E-05, 0.001334867, 0.00104407, -0.006403382, 0.0008821566, 0.0007918183, 0.0005187925, -0.07791358, 0.946677
 203431095, -0.01092422, 0.004066911, 0.002338581, 0.00104407, -0.0009320413, 0.002500598, 0.0008750752, 0.0005187925, -0.08090819, 0.9450551
 203631015, 0.004510584, 0.01218937, 0.002651352, 0.00104407, 0.005664217, 0.008152157, 0.0007445777, 0.0005187925, -0.08262406, 0.9432756
 203830935, 0.01999744, 0.03029419, 0.00222601, 0.00104407, 0.009337115, 0.01484289, 0.00033776, 0.0005187925, -0.08146974, 0.9423708
 204030855, 0.02332174, 0.04254644, 0.0002082944, 0.00104407, 0.006653159, 0.01504319, -0.00108303, 0.0005187925, -0.07750361, 0.9433357
 204230775, 0.01046163, 0.03358696, -0.002821244, 0.00104407, -0.0001314225, 0.008144568, -0.001251403, 0.0005187925, -0.07265845, 0.9450271
 204430695, -0.004400482, 0.01446748, -0.002792409, 0.00104407, -0.00344226, 0.001891712, -0.0006060452, 0.0005187925, -0.06900721, 0.9456695
 204631448, -0.006279089, 0.01421035, -0.001237018, 0.001046232, -0.0004422869, 0.01183215, -0.001095857, 0.0005209541, -0.06655423, 0.9450651
 204831368, 0.001440859, 0.04219006, -0.001939549, 0.001046232, 0.001095502, 0.01846568, -0.0003456163, 0.0005187925, -0.06408525, 0.945129
 205031288, -0.001989511, 0.0388185, -0.002414247, 0.00104407, -0.004165813, 0.006577335, -0.0006652816, 0.0005187925, -0.0625427, 0.9464856
 205231208, -0.01947209, 3.577676E-05, -0.002939577, 0.00104407, -0.01157201, -0.008484737, -0.001342768, 0.0005187925, -0.06391567, 0.9479086
 205431128, -0.03248194, -0.03144024, -0.002193662, 0.00104407, -0.01104382, -0.01454372, 8.512665E-05, 0.0005187925, -0.06898864, 0.9473249
 205631048, -0.02302999, -0.02612348, 0.0008762585, 0.00104407, -0.003974839, 0.000116512, 0.0009952735, 0.0005187925, -0.07555973, 0.9452171
 205830968, -0.003555329, 0.02197041, 0.002432324, 0.00104407, 0.001382566, 0.01776387, 0.0008375191, 0.0005187925, -0.07948163, 0.9441044
 206030888, 0.001949691, 0.0457744, 0.000181756, 0.00104407, -0.001263014, 0.01198283, -0.0006472322, 0.0005187925, -0.0795657, 0.9449257
 206230808, -0.007698985, 0.01378688, -0.001072041, 0.00104407, -0.003871757, -0.004816923, 9.42914E-05, 0.0005187925, -0.07820289, 0.9448801
 206430728, -0.007603682, -0.01859002, 0.0006384655, 0.00104407, -0.001073872, -0.007076186, 0.0001322372, 0.0005187925, -0.07717481, 0.944267
 206631481, -0.001561254, -0.006135069, 0.0002568135, 0.001046232, -0.0004011696, 0.005853754, -0.000131871, 0.0005209541, -0.07651351, 0.9446569
 206831401, -0.005715886, 0.03325353, -0.0005004724, 0.001046232, -0.00477757, 0.02051467, -0.0001106439, 0.0005187925, -0.07464365, 0.9460236
 207031321, -0.01689266, 0.05767295, -0.0009630224, 0.00104407, -0.008769517, 0.01926152, -0.0003100394, 0.0005187925, -0.07098166, 0.9469457
 207231241, -0.02705085, 0.03582286, -0.0006592235, 0.00104407, -0.009553398, 0.003842839, -0.0001201173, 0.0005187925, -0.06751189, 0.9473493
 207431161, -0.0225007, -0.005171289, 0.0001598649, 0.00104407, -0.001528691, -0.009207187, 0.0001705012, 0.0005187925, -0.06681307, 0.9475859
 207631081, -0.01396257, -0.028251, 0.0006834228, 0.00104407, -0.009153886, -0.01045615, 0.0003646941, 0.0005187925, -0.0699517, 0.9475986
 207831001, -0.03337097, -0.02159252, 0.001149527, 0.00104407, -0.02023607, -0.003109687, 0.0008448868, 0.0005187925, -0.07577226, 0.9477546
 208030921, -0.04154352, 0.0007700151, 0.001556092, 0.00104407, -0.00555812, 0.004444716, 0.001059807, 0.0005187925, -0.08167454, 0.9471618
 208230841, -0.01861352, 0.01246933, 0.001188112, 0.00104407, -0.0119694, 0.003591522, -0.0002811177, 0.0005187925, -0.08602495, 0.9483991
 208430761, -0.0514997, 0.003138491, -0.001658392, 0.00104407, -0.02725721, -0.002351654, -0.001331555, 0.0005187925, -0.08896032, 0.9510239
 208630681, -0.07253812, -0.005240242, -0.001164914, 0.00104407, -0.02306375, -0.0006227595, -0.0003271296, 0.0005187925, -0.09046213, 0.9506908
 208831434, -0.04961265, 0.006005277, 0.0005036432, 0.001046232, -0.01087068, 0.006398246, 0.000470688, 0.0005209541, -0.09008402, 0.9484051
 209031354, -0.02040824, 0.02179055, 0.0007962627, 0.001046232, -0.003421, 0.009727199, 0.00071106, 0.0005187925, -0.08788762, 0.9471505
 209231274, -0.009281349, 0.03030073, -0.0001271072, 0.00104407, -0.004412209, 0.01362455, 0.0002965575, 0.0005187925, -0.08399135, 0.948088
 209431194, -0.01478005, 0.04806409, -0.0009825709, 0.00104407, -0.006012128, 0.02320097, -0.001278691, 0.0005187925, -0.07778991, 0.9491202
 209631114, -0.01423527, 0.06486968, -0.00101132, 0.00104407, -0.003264359, 0.02230796, 0.0009279089, 0.0005187925, -0.06978229, 0.9488322
 209831034, -0.004598534, 0.03880017, 0.00136416, 0.00104407, 0.0003889056, 0.0009113143, 4.335218E-05, 0.0005187925, -0.06344377, 0.9477506
 210030954, 0.002738782, -0.01788269, 0.0005033506, 0.00104407, 0.001179996, -0.01473851, -0.0002688298, 0.0005187925, -0.06258363, 0.9475925
 210230874, -0.007013283, -0.04077252, -0.00169824, 0.00104407, -0.008066811, -0.01397005, -0.001160256, 0.0005187925, -0.06794821, 0.9493638
 210430794, -0.03004054, -0.02970254, -0.002886255, 0.00104407, -0.01456646, -0.005815099, -0.0002348771, 0.0005187925, -0.07723612, 0.9505906
 210630714, -0.03069966, -0.01222212, 0.0004665819, 0.00104407, -0.007630496, -0.003501265, 0.0007870243, 0.0005187925, -0.08711466, 0.948242
 210831467, -0.01119711, -0.01384647, 0.00300652, 0.001046232, 0.001488381, -0.007424464, 0.00108651, 0.0005209541, -0.09539045, 0.9450675
 211031387, 0.006062551, -0.01454736, 0.001426665, 0.001046232, -0.0005596236, -0.0006121511, -0.0002722009, 0.0005187925, -0.1002588, 0.9438669
 211231307, 0.00105161, 0.01089336, -0.002079506, 0.00104407, -6.517403E-05, 0.009564032, -0.001032547, 0.0005187925, -0.1002373, 0.9453496
 211431227, -0.005838942, 0.02168165, -0.00335908, 0.00104407, -0.004435216, 0.003521249, -0.0007150936, 0.0005187925, -0.09682369, 0.9463414
 211631147, -0.009640863, -0.01216677, -0.0009846776, 0.00104407, -0.001527003, -0.0162065, 0.0004084086, 0.0005187925, -0.09429957, 0.944971
 211831067, 0.008853914, -0.0503853, 0.001257825, 0.00104407, 0.008403957, -0.01857829, 0.0004892478, 0.0005187925, -0.0954622, 0.943132
 212030987, 0.02069018, -0.03750026, 0.001167799, 0.00104407, 0.006997156, -0.00629549, 0.00056158, 0.0005187925, -0.09938537, 0.9413776
 212230907, 0.02332067, -0.005265612, 0.0001304364, 0.00104407, 0.008352024, 0.004021906, -0.000929806, 0.0005187925, -0.1039042, 0.9416476
 212430827, 0.01255271, 0.01886659, -0.002675876, 0.00104407, -0.001899676, 0.01081822, -0.001018409, 0.0005187925, -0.1066081, 0.9442176
 212630747, -0.01363829, 0.03899387, -0.0009554744, 0.00104407, -0.007658953, 0.01950547, -0.0002448306, 0.0005187925, -0.1052838, 0.9454812
