TimeUS,CAN,CAE,CAD,CAe
 126136192, -0.003023668, 0.003815347, -0.0002092073, 0.0002593961
 126236152, -0.003021946, 0.003927946, -6.378601E-05, 0.0002593961
 126336112, -0.00311439, 0.003819406, 0.0001886376, 0.0002593961
 126436072, -0.003144172, 0.003731022, 3.017053E-05, 0.0002593961
 126536032, -0.002911795, 0.003778886, -0.000144232, 0.0002593961
 126635992, -0.003078355, 0.003896062, 1.666714E-05, 0.0002593961
 126735952, -0.003226484, 0.003780346, 4.196515E-05, 0.0002593961
 126835912, -0.003125769, 0.003778046, -4.02361E-05, 0.0002593961
 126935872, -0.002967773, 0.003930374, 1.924222E-05, 0.0002593961
 127035832, -0.003006, 0.003850469, -9.722633E-05, 0.0002593961
 127135792, -0.002736492, 0.003783981, 2.765862E-05, 0.0002593961
 127235752, -0.002882232, 0.003848991, -0.0001337649, 0.0002593961
 127335712, -0.002971865, 0.003810707, -0.0001850604, 0.0002593961
 127435672, -0.002852835, 0.003959425, -7.083682E-05, 0.0002593961
 127536465, -0.002910223, 0.003971725, 9.033325E-05, 0.0002615578
 127636425, -0.002978937, 0.004080261, -0.0002878384, 0.0002593961
 127736385, -0.002852613, 0.003685872, 6.773265E-05, 0.0002593961
 127836345, -0.003107257, 0.003868486, -0.0001158656, 0.0002593961
 127936305, -0.003099013, 0.003911968, 0.0001772958, 0.0002593961
 128036265, -0.003181795, 0.003772039, -0.000273981, 0.0002593961
 128136225, -0.002994865, 0.003851031, -0.0002456325, 0.0002593961
 128236185, -0.002716976, 0.003993353, -0.0001188768, 0.0002593961
 128336145, -0.003060785, 0.003869181, -4.698899E-05, 0.0002593961
 128436105, -0.002941388, 0.003794913, -0.0003267066, 0.0002593961
 128536065, -0.002993507, 0.003869395, -0.0002388046, 0.0002593961
 128636025, -0.003042688, 0.003629213, -6.068424E-05, 0.0002593961
 128735985, -0.003057508, 0.00391933, -0.0002208076, 0.0002593961
 128835945, -0.003067664, 0.003926775, -9.432952E-05, 0.0002593961
 128935905, -0.003103686, 0.003769211, -3.07568E-05, 0.0002593961
 129035865, -0.002908304, 0.003801518, 4.66756E-05, 0.0002593961
 129135825, -0.003022392, 0.003800104, -0.0001336457, 0.0002593961
 129235785, -0.003230253, 0.003827776, -4.542431E-06, 0.0002593961
 129335745, -0.002971312, 0.003745549, -3.500849E-05, 0.0002593961
 129435705, -0.002915837, 0.003705206, -4.61358E-05, 0.0002593961
 129535665, -0.003092988, 0.003879446, -0.0002100319, 0.0002593961
 129636458, -0.003060571, 0.003916301, -0.0001041468, 0.0002615578
 129736418, -0.0028925, 0.003713406, 7.762782E-05, 0.0002593961
 129836378, -0.003041476, 0.003751632, -7.677582E-05, 0.0002593961
 129936338, -0.003084616, 0.003789956, 4.042913E-05, 0.0002593961
 130036298, -0.002836591, 0.00382854, -0.0001662197, 0.0002593961
 130136258, -0.003134869, 0.003978895, -0.0001729857, 0.0002593961
 130236218, -0.00310098, 0.003862378, 1.021573E-05, 0.0002593961
 130336178, -0.002901034, 0.004046191, -0.0002354145, 0.0002593961
 130436138, -0.002887577, 0.003945889, 5.602861E-05, 0.0002593961
 130536098, -0.002979455, 0.003915261, -2.241311E-05, 0.0002593961
 130636058, -0.003101671, 0.003655033, -7.637187E-05, 0.0002593961
 130736018, -0.003148319, 0.003650711, -4.984536E-06, 0.0002593961
 130835978, -0.002865341, 0.00385197, -0.0002270851, 0.0002593961
 130935938, -0.003135788, 0.003960997, 1.263113E-05, 0.0002593961
 131035898, -0.003032966, 0.003913512, -2.511689E-05, 0.0002593961
 131135858, -0.002893405, 0.003897675, -0.0001214221, 0.0002593961
 131235818, -0.003137186, 0.003961984, -0.0001034156, 0.0002593961
 131335778, -0.003063359, 0.003766847, 1.418025E-05, 0.0002593961
 131435738, -0.003066487, 0.003878623, -1.237852E-05, 0.0002593961
 131535698, -0.003044006, 0.004066229, -0.0002407172, 0.0002593961
 131635658, -0.003042318, 0.003873433, -0.0001586804, 0.0002593961
 131736451, -0.003055225, 0.003985883, -8.706743E-05, 0.0002615578
 131836411, -0.003073146, 0.003890736, -6.371689E-05, 0.0002593961
 131936371, -0.002926374, 0.003869353, 9.856928E-05, 0.0002593961
 132036331, -0.002933677, 0.004013229, -0.000233832, 0.0002593961
 132136291, -0.003186672, 0.003728028, -0.0001293273, 0.0002593961
 132236251, -0.003132023, 0.003795932, 4.318418E-06, 0.0002593961
 132336211, -0.003155398, 0.003753504, -1.641451E-05, 0.0002593961
 132436171, -0.003032857, 0.003833927, -4.542083E-05, 0.0002593961
 132536131, -0.002995173, 0.003817625, -2.061496E-05, 0.0002593961
 132636091, -0.003121369, 0.003858336, 3.991438E-05, 0.0002593961
 132736051, -0.003133862, 0.003875726, -0.0002304121, 0.0002593961
 132836011, -0.002966372, 0.003784708, -3.957E-05, 0.0002593961
 132935971, -0.003138759, 0.003690497, -0.02269016, 0.0002593961
 133035931, -0.002964666, 0.003866495, -0.07736252, 0.0002593961
 133135891, -0.003226474, 0.003937892, -0.08519883, 0.0002593961
 133235851, -0.003193825, 0.004019279, -0.07575781, 0.0002593961
 133335811, -0.003084572, 0.003964982, -0.06482906, 0.0002593961
 133435771, -0.003120999, 0.003867779, -0.05856049, 0.0002593961
 133535731, -0.00409614, 0.006092213, -0.3736012, 0.0002593961
 133635691, -0.006387467, 0.01188695, -0.5940289, 0.0002593961
 133736484, -0.007386172, 0.0158095, -0.3240058, 0.0002615578
 133836444, -0.007950102, 0.01772986, -0.08119855, 0.0002593961
 133936404, -0.007745373, 0.01781053, -0.001151327, 0.0002593961
 134036364, -0.006243393, 0.01437911, -0.02328288, 0.0002593961
 134136324, -0.00331101, 0.007450135, -0.06906836, 0.0002593961
 134236284, -0.000237447, -0.0006249102, -0.09371161, 0.0002593961
 134336244, 0.001666542, -0.006621046, -0.09344837, 0.0002593961
 134436204, 0.002561726, -0.00870927, -0.07929558, 0.0002593961
 134536164, 0.001620327, -0.007267131, -0.06400653, 0.0002593961
 134636124, 0.0004355086, -0.003761999, -0.05351004, 0.0002593961
 134736084, -0.0006468067, -0.0005064542, -0.04643779, 0.0002593961
 134836044, -0.0005799435, 0.0008594124, -0.04138418, 0.0002593961
 134936004, 0.001059549, -0.00126013, -0.03607213, 0.0002593961
 135035964, 0.005043296, -0.006428033, -0.03072937, 0.0002593961
 135135924, 0.009895583, -0.01202115, -0.02563751, 0.0002593961
 135235884, 0.01460612, -0.01574023, -0.02133889, 0.0002593961
 135335844, 0.01633571, -0.01611283, -0.01720401, 0.0002593961
 135435804, 0.01464748, -0.01254359, -0.01394822, 0.0002593961
 135535764, 0.01003711, -0.006357388, -0.01145879, 0.0002593961
 135635724, 0.004632033, 0.001675922, -0.009375974, 0.0002593961
 135735684, -0.001129675, 0.008998116, -0.006103652, 0.0002593961
 135836477, -0.00659827, 0.01334865, -0.001087607, 0.0002615578
 135936437, -0.008725018, 0.01332496, 0.001007338, 0.0002593961
 136036397, -0.006422635, 0.01053859, 0.002356214, 0.0002593961
 136136357, -0.002344739, 0.007504576, 0.003654143, 0.0002593961
 136236317, 0.0006755713, 0.006543498, 0.003965949, 0.0002593961
 136336277, 0.001375291, 0.009121657, 0.004020239, 0.0002593961
 136436237, -0.0004900389, 0.01396518, 0.00492628, 0.0002593961
 136536197, -0.002272999, 0.01654468, 0.008427306, 0.0002593961
 136636157, -0.00165946, 0.01348542, 0.01335299, 0.0002593961
 136736117, 0.0004582878, 0.004971084, 0.01955329, 0.0002593961
 136836077, 0.002738817, -0.006630997, 0.02667399, 0.0002593961
 136936037, 0.003041577, -0.01554786, 0.03490836, 0.0002593961
 137035997, -0.0009253282, -0.0182576, 0.04372282, 0.0002593961
 137135957, -0.007373343, -0.01398265, 0.05314479, 0.0002593961
 137235917, -0.01469577, -0.004358301, 0.06310455, 0.0002593961
 137335877, -0.02027161, 0.004148094, 0.07416735, 0.0002593961
 137435837, -0.02339564, 0.006778701, 0.08445355, 0.0002593961
 137535797, -0.02331315, 0.004196325, 0.09915718, 0.0002593961
 137635757, -0.02111585, 0.0002928998, 0.130206, 0.0002593961
 137735717, -0.0217339, -0.002990613, 0.1394204, 0.0002593961
 137835677, -0.02299163, -0.00508346, 0.132102, 0.0002593961
 137936470, -0.02133365, -0.002762898, 0.141988, 0.0002615578
 138036430, -0.01708366, 0.004847692, 0.1520174, 0.0002593961
 138136390, -0.01286839, 0.01387068, 0.1681419, 0.0002593961
 138236350, -0.01041296, 0.02058061, 0.1770866, 0.0002593961
 138336310, -0.009411963, 0.02372813, 0.1764967, 0.0002593961
 138436270, -0.008909053, 0.02304818, 0.1721227, 0.0002593961
 138536230, -0.00929222, 0.02035659, 0.1638204, 0.0002593961
 138636190, -0.01038394, 0.01699711, 0.1522628, 0.0002593961
 138736150, -0.01031964, 0.01249658, 0.1404848, 0.0002593961
 138836110, -0.008268925, 0.006276379, 0.1259658, 0.0002593961
 138936070, -0.004412263, -0.0002290708, 0.1106009, 0.0002593961
 139036030, -0.0001267722, -0.005701904, 0.0961805, 0.0002593961
 139135990, 0.003647562, -0.00815825, 0.08146229, 0.0002593961
 139235950, 0.00678054, -0.007017813, 0.06605326, 0.0002593961
 139335910, 0.00889372, -0.005595298, 0.05140886, 0.0002593961
 139435870, 0.009769442, -0.006763536, 0.03876608, 0.0002593961
 139535830, 0.009607193, -0.008277559, 0.02612534, 0.0002593961
 139635790, 0.0076606, -0.008265371, 0.01342179, 0.0002593961
 139735750, 0.005099918, -0.008451258, 0.002509953, 0.0002593961
 139835710, 0.002525711, -0.01093124, -0.006464148, 0.0002593961
 139935670, 0.001000796, -0.01543138, -0.01442382, 0.0002593961
 140036463, 0.00058899, -0.02038814, -0.02154717, 0.0002615578
 140136423, 0.000345064, -0.02057725, -0.02696555, 0.0002593961
 140236383, -0.001591621, -0.01464243, -0.03022784, 0.0002593961
 140336343, -0.001615808, -0.006813893, -0.03362716, 0.0002593961
 140436303, 0.002426596, -0.001630455, -0.035939, 0.0002593961
 140536263, 0.007063983, 0.001639673, -0.03755215, 0.0002593961
 140636223, 0.007744527, 0.005528303, -0.03872346, 0.0002593961
 140736183, 0.002566139, 0.01288362, -0.03851487, 0.0002593961
 140836143, -0.008146733, 0.02420094, -0.03834745, 0.0002593961
 140936103, -0.01765154, 0.03447593, -0.03606142, 0.0002593961
 141036063, -0.02142062, 0.03973747, -0.03358047, 0.0002593961
 141136023, -0.01757256, 0.0411533, -0.03304773, 0.0002593961
 141235983, -0.007716379, 0.04182062, -0.03031368, 0.0002593961
 141335943, 0.002329062, 0.04008465, -0.02711364, 0.0002593961
 141435903, 0.007744516, 0.03480019, -0.02416265, 0.0002593961
 141535863, 0.00791443, 0.02776241, -0.02099817, 0.0002593961
 141635823, 0.003399472, 0.02131961, -0.01804577, 0.0002593961
 141735783, -0.002835122, 0.01816848, -0.01549421, 0.0002593961
 141835743, -0.008390965, 0.01906214, -0.01277875, 0.0002593961
 141935703, -0.01452318, 0.02324508, -0.01052325, 0.0002593961
 142035663, -0.02207738, 0.02896695, -0.007680291, 0.0002593961
 142136456, -0.02769014, 0.0352294, -0.003845416, 0.0002615578
 142236416, -0.02825082, 0.0409435, -0.002063246, 0.0002593961
 142336376, -0.02467199, 0.0433564, -0.001454031, 0.0002593961
 142436336, -0.01940697, 0.04063518, -0.001246406, 0.0002593961
 142536296, -0.01611037, 0.03190299, 0.002307519, 0.0002593961
 142636256, -0.01743445, 0.01925078, 0.004494554, 0.0002593961
 142736216, -0.02074297, 0.006411519, 0.005562149, 0.0002593961
 142836176, -0.02145534, -0.0032248, 0.006293603, 0.0002593961
 142936136, -0.01557273, -0.009304471, 0.006113063, 0.0002593961
 143036096, -0.00221068, -0.01309291, 0.006045976, 0.0002593961
 143136056, 0.0132425, -0.01840186, 0.005506445, 0.0002593961
 143236016, 0.02601939, -0.02820261, 0.006014868, 0.0002593961
 143335976, 0.03213113, -0.03764184, 0.007631322, 0.0002593961
 143435936, 0.03118394, -0.0427547, 0.007557597, 0.0002593961
 143535896, 0.02862417, -0.04331119, 0.007128317, 0.0002593961
 143635856, 0.02879417, -0.04086906, 0.006216201, 0.0002593961
 143735816, 0.03039831, -0.03373149, 0.004943962, 0.0002593961
 143835776, 0.03025988, -0.021386, 0.004326085, 0.0002593961
 143935736, 0.03000258, -0.00904494, 0.003903229, 0.0002593961
 144035696, 0.03083888, -0.00178939, 0.003648036, 0.0002593961
 144135656, 0.02691001, -0.0002878498, 0.002924752, 0.0002593961
 144236449, 0.01440033, -0.003038102, 0.002223409, 0.0002615578
 144336409, -0.0009647972, -0.0048263, 0.001873931, 0.0002593961
 144436369, -0.0118013, -0.001642333, 0.001718875, 0.0002593961
 144536329, -0.01585719, 0.004489792, 0.001361174, 0.0002593961
 144636289, -0.01332065, 0.01072905, 0.0009153553, 0.0002593961
 144736249, -0.008455751, 0.01556341, 0.0008604099, 0.0002593961
 144836209, -0.004873541, 0.02001976, 0.0006840067, 0.0002593961
 144936169, -0.003285798, 0.02132818, 0.0002240465, 0.0002593961
 145036129, -0.003461415, 0.01822086, 6.118234E-05, 0.0002593961
 145136089, -0.007035527, 0.01375947, -3.246557E-05, 0.0002593961
 145236049, -0.01436847, 0.01155961, 3.584977E-05, 0.0002593961
 145336009, -0.02152145, 0.01375001, 0.0001391367, 0.0002593961
 145435969, -0.02545335, 0.02080447, -0.0001512077, 0.0002593961
 145535929, -0.02400357, 0.02490666, -0.0002083016, 0.0002593961
 145635889, -0.01795162, 0.02007011, -0.0004047014, 0.0002593961
 145735849, -0.01372885, 0.0130484, -0.001223431, 0.0002593961
 145835809, -0.01562707, 0.01000772, -0.003213156, 0.0002593961
 145935769, -0.02030416, 0.01080632, -0.001797093, 0.0002593961
 146035729, -0.02272778, 0.01256792, -0.0005298092, 0.0002593961
 146135689, -0.02285354, 0.01163671, -3.393125E-05, 0.0002593961
 146236482, -0.02178329, 0.007595723, -0.0001501555, 0.0002615578
 146336442, -0.01923292, 0.001977263, 6.963206E-05, 0.0002593961
 146436402, -0.01660243, -0.002283867, 5.472972E-05, 0.0002593961
 146536362, -0.01555274, -0.005552435, -0.0001624542, 0.0002593961
 146636322, -0.01773682, -0.007769767, 0.0002663584, 0.0002593961
 146736282, -0.02121642, -0.009160116, 0.0004507776, 0.0002593961
 146836242, -0.02370891, -0.009750212, 0.0002923463, 0.0002593961
 146936202, -0.0232638, -0.009964379, 8.046029E-05, 0.0002593961
 147036162, -0.01949847, -0.01027356, 0.0002411771, 0.0002593961
 147136122, -0.01418488, -0.006501506, 4.913986E-05, 0.0002593961
 147236082, -0.00870211, 0.002722094, -0.0001147002, 0.0002593961
 147336042, -0.003562296, 0.01219207, 6.29793E-05, 0.0002593961
 147436002, 0.0008267568, 0.01607063, -7.928537E-05, 0.0002593961
 147535962, 0.003676546, 0.01546259, -0.0001852105, 0.0002593961
 147635922, 0.004424171, 0.01359956, 0.0003832654, 0.0002593961
 147735882, 0.004312988, 0.01122428, -0.000252314, 0.0002593961
 147835842, 0.004228195, 0.008593606, -0.0001437351, 0.0002593961
 147935802, 0.004804677, 0.005786494, -0.002489951, 0.0002593961
 148035762, 0.00618661, 0.003856499, -0.003465733, 0.0002593961
 148135722, 0.008476617, 0.001561846, -0.00373365, 0.0002593961
 148235682, 0.01080051, -0.001622304, -0.003164859, 0.0002593961
 148336475, 0.01216381, -0.005893453, -0.0005880169, 0.0002615578
 148436435, 0.01171871, -0.01021656, 6.600838E-05, 0.0002593961
 148536395, 0.01363516, -0.01693015, 0.0005614049, 0.0002593961
 148636355, 0.02074837, -0.02739905, 0.0008808557, 0.0002593961
 148736315, 0.02905662, -0.03939506, 0.00116228, 0.0002593961
 148836275, 0.03390992, -0.0501667, 0.001028702, 0.0002593961
 148936235, 0.03090894, -0.05204293, -0.0002153143, 0.0002593961
 149036195, 0.01864788, -0.04178898, -0.0009331199, 0.0002593961
 149136155, 0.003807137, -0.02544005, -0.0006717401, 0.0002593961
 149236115, -0.007301784, -0.01028644, 0.0001621503, 0.0002593961
 149336075, -0.01086399, 0.001407638, 0.0004261505, 0.0002593961
 149436035, -0.007286546, 0.009193105, 0.0005627655, 0.0002593961
 149535995, 0.002216094, 0.01407143, 0.0008433175, 0.0002593961
 149635955, 0.01507291, 0.01712899, 0.0007565832, 0.0002593961
 149735915, 0.02624815, 0.01522084, 0.0009174728, 0.0002593961
 149835875, 0.03220244, 0.007284545, 0.0008029383, 0.0002593961
 149935835, 0.02674923, -0.005947045, 0.0004295442, 0.0002593961
 150035795, 0.008005473, -0.02104891, 0.0004854024, 0.0002593961
 150135755, -0.01763126, -0.03353172, 0.0003706378, 0.0002593961
 150235715, -0.04242953, -0.0402733, 4.356549E-06, 0.0002593961
 150335675, -0.05850922, -0.03929735, -0.001336328, 0.0002593961
 150436468, -0.06244121, -0.03140795, -0.002531725, 0.0002615578
 150536428, -0.05185511, -0.01887185, -0.003402512, 0.0002593961
 150636388, -0.03151478, -0.005704395, -0.002632778, 0.0002593961
 150736348, -0.00910781, 0.007721608, -0.000936926, 0.0002593961
 150836308, 0.008721967, 0.02113234, -2.727611E-06, 0.0002593961
 150936268, 0.01940183, 0.03296852, 0.0003215707, 0.0002593961
 151036228, 0.02319541, 0.04113977, 0.0009421226, 0.0002593961
 151136188, 0.01971408, 0.04550636, 0.0006943975, 0.0002593961
 151236148, 0.01051915, 0.0462127, 0.000619719, 0.0002593961
 151336108, -0.003487485, 0.03969028, 0.0005462905, 0.0002593961
 151436068, -0.01979117, 0.02509201, 0.0004514103, 0.0002593961
 151536028, -0.03260499, 0.007597853, 0.0008160591, 0.0002593961
 151635988, -0.03830115, -0.007040343, 0.000584919, 0.0002593961
 151735948, -0.03863301, -0.01367527, -8.174486E-05, 0.0002593961
 151835908, -0.03633666, -0.01157122, -0.0006139027, 0.0002593961
 151935868, -0.02858373, -0.005088517, -0.0008177727, 0.0002593961
 152035828, -0.01319393, 0.0001114089, -0.0003460871, 0.0002593961
 152135788, 0.004549089, 0.005285407, 7.291498E-05, 0.0002593961
 152235748, 0.01896863, 0.01178503, 8.005992E-05, 0.0002593961
 152335708, 0.0263214, 0.01525331, 0.0006970739, 0.0002593961
 152435668, 0.0262622, 0.01236899, 0.0004037255, 0.0002593961
 152536461, 0.02082642, 0.00759206, 0.0004918642, 0.0002615578
 152636421, 0.01310757, 0.005254602, 0.0002174902, 0.0002593961
 152736381, 0.007162501, 0.007133047, 0.0003016505, 0.0002593961
 152836341, 0.005443305, 0.01228339, 0.0003510179, 0.0002593961
 152936301, 0.006956514, 0.02020709, 0.0002481338, 0.0002593961
 153036261, 0.009930485, 0.02988316, 0.000225337, 0.0002593961
 153136221, 0.01206155, 0.04015234, 0.0004930014, 0.0002593961
 153236181, 0.01258149, 0.05033905, 0.0003049561, 0.0002593961
 153336141, 0.01107394, 0.05788178, -0.0005083756, 0.0002593961
 153436101, 0.007539555, 0.06165497, -0.0008980758, 0.0002593961
 153536061, 0.003152098, 0.05944345, -0.00164949, 0.0002593961
 153636021, -0.001097959, 0.0510498, -0.001952053, 0.0002593961
 153735981, -0.008317603, 0.03965317, -0.001436867, 0.0002593961
 153835941, -0.02019105, 0.02998676, -0.001051391, 0.0002593961
 153935901, -0.03147043, 0.0259524, -0.0008466373, 0.0002593961
 154035861, -0.03880546, 0.02953742, -0.0002152071, 0.0002593961
 154135821, -0.03991444, 0.03391024, -0.0008512393, 0.0002593961
 154235781, -0.034913, 0.0337856, -0.001243898, 0.0002593961
 154335741, -0.02665656, 0.02722008, -0.001553515, 0.0002593961
 154435701, -0.01847585, 0.0152593, -0.0007564272, 0.0002593961
 154535661, -0.01084893, 0.002976464, 2.432209E-05, 0.0002593961
 154636454, -0.004894753, -0.006149918, 0.0006551712, 0.0002615578
 154736414, 0.0003301494, -0.0121574, 0.0009546358, 0.0002593961
 154836374, 0.003691543, -0.01654023, 0.001140454, 0.0002593961
 154936334, 0.003076933, -0.01897035, 0.00114921, 0.0002593961
 155036294, -0.003678783, -0.01971439, 0.001170435, 0.0002593961
 155136254, -0.01241847, -0.01998106, 0.001305977, 0.0002593961
 155236214, -0.01808803, -0.02060901, 0.0007472459, 0.0002593961
 155336174, -0.01458045, -0.0202364, 0.0008588047, 0.0002593961
 155436134, -0.0002680487, -0.01859948, 0.0004434242, 0.0002593961
 155536094, 0.0170582, -0.01726891, 0.000694562, 0.0002593961
 155636054, 0.02884375, -0.01772717, 0.0007106155, 0.0002593961
 155736014, 0.03162483, -0.0235733, 0.0008682258, 0.0002593961
 155835974, 0.02646779, -0.03501556, 0.0016142, 0.0002593961
 155935934, 0.01840216, -0.0455303, 0.004095114, 0.0002593961
 156035894, 0.01148086, -0.04903834, 0.004192279, 0.0002593961
 156135854, 0.007803059, -0.04145842, 0.004018049, 0.0002593961
 156235814, 0.007052323, -0.02311706, 0.002881616, 0.0002593961
 156335774, 0.007809499, -0.001666451, 0.0003753948, 0.0002593961
 156435734, 0.008223599, 0.01530928, -0.0002734723, 0.0002593961
 156535694, 0.008451814, 0.02395642, -0.0008289788, 0.0002593961
 156635654, 0.008418062, 0.02419942, -0.001359874, 0.0002593961
 156736447, 0.004998993, 0.01820001, -0.001403325, 0.0002615578
 156836407, -0.004153274, 0.00944451, -0.001548882, 0.0002593961
 156936367, -0.01488693, 0.002830792, -0.001391041, 0.0002593961
 157036327, -0.02362256, 0.0008208164, -0.001352698, 0.0002593961
 157136287, -0.02541252, 0.0003586764, -0.001505154, 0.0002593961
 157236247, -0.01873367, -0.002295342, -0.001203066, 0.0002593961
 157336207, -0.008019255, -0.008644546, -0.001051674, 0.0002593961
 157436167, 0.001112159, -0.01753841, -0.0007006, 0.0002593961
 157536127, 0.00575775, -0.0223963, -0.0006684479, 0.0002593961
 157636087, 0.005383664, -0.01910924, -0.0006742068, 0.0002593961
 157736047, 0.001818446, -0.008737067, -0.0006730844, 0.0002593961
 157836007, -0.00231826, 0.00440293, -0.0006158986, 0.0002593961
 157935967, -0.005690059, 0.01398322, -0.0004407836, 0.0002593961
 158035927, -0.006912557, 0.01574485, -0.0005516766, 0.0002593961
 158135887, -0.006713832, 0.008403632, -0.0001261493, 0.0002593961
 158235847, -0.005197769, -0.006307317, -0.0002983723, 0.0002593961
 158335807, -0.003869563, -0.02258468, 7.626104E-05, 0.0002593961
 158435767, -0.002313471, -0.03502191, 3.597609E-05, 0.0002593961
 158535727, 0.0007504132, -0.03732863, -0.0007874116, 0.0002593961
 158635687, 0.005565064, -0.02802903, -0.001204405, 0.0002593961
 158736480, 0.006334187, -0.01017348, -0.0008554068, 0.0002615578
 158836440, -0.002246551, 0.01221067, -0.0004962056, 0.0002593961
 158936400, -0.01871037, 0.0296217, -8.036139E-05, 0.0002593961
 159036360, -0.03891195, 0.03780228, 0.0001203461, 0.0002593961
 159136320, -0.05338645, 0.03780868, -0.0005430945, 0.0002593961
 159236280, -0.05517993, 0.0340532, -0.001772827, 0.0002593961
 159336240, -0.0450298, 0.03015643, -0.002149372, 0.0002593961
 159436200, -0.02694733, 0.02843054, -0.001579209, 0.0002593961
 159536160, -0.009798971, 0.02389123, -0.0007969743, 0.0002593961
 159636120, 0.00066843, 0.01328168, -0.0001678129, 0.0002593961
 159736080, 0.00366372, 0.001120727, 0.0003363097, 0.0002593961
 159836040, 0.001146906, -0.008051653, 0.0006392769, 0.0002593961
 159936000, -0.002178219, -0.01057135, 0.000539839, 0.0002593961
 160035960, -0.002625763, -0.006051898, 0.000748547, 0.0002593961
 160135920, 0.0002528124, 0.005520066, 0.0009176682, 0.0002593961
 160235880, 0.004961052, 0.02241353, 0.0004653153, 0.0002593961
 160335840, 0.01063939, 0.03669479, 0.0006942356, 0.0002593961
 160435800, 0.01601782, 0.04255334, 0.0006153684, 0.0002593961
 160535760, 0.01848108, 0.03605708, 0.0004164281, 0.0002593961
 160635720, 0.01768774, 0.01936055, 0.0001475102, 0.0002593961
 160735680, 0.01485063, 0.002741714, 1.886925E-05, 0.0002593961
 160836473, 0.01279348, -0.005031528, 0.0001995763, 0.0002615578
 160936433, 0.01022068, -0.0007825095, 0.0002388809, 0.0002593961
 161036393, 0.008053533, 0.01438097, 0.0001722696, 0.0002593961
 161136353, 0.003323258, 0.03092352, 0.0004483396, 0.0002593961
 161236313, -0.003735463, 0.04093063, 0.0001913962, 0.0002593961
 161336273, -0.00994313, 0.03902987, -0.0007201043, 0.0002593961
 161436233, -0.0124968, 0.02448777, -0.00106984, 0.0002593961
 161536193, -0.01067495, 0.005424077, -0.0003775755, 0.0002593961
 161636153, -0.006526986, -0.009816371, 8.959999E-05, 0.0002593961
 161736113, -0.001206093, -0.01863953, -0.0001772696, 0.0002593961
 161836073, 0.004675236, -0.02270218, 5.204144E-05, 0.0002593961
 161936033, 0.01103011, -0.02246946, 0.0003016481, 0.0002593961
 162035993, 0.01797581, -0.01956511, 0.0003695964, 0.0002593961
 162135953, 0.02205271, -0.01386332, 0.0004417022, 0.0002593961
 162235913, 0.02124599, -0.006622654, 0.0002866647, 0.0002593961
 162335873, 0.01638054, -0.000519035, 3.185428E-05, 0.0002593961
 162435833, 0.008569323, 0.001947179, 7.333443E-05, 0.0002593961
 162535793, 0.001640298, -0.0006070293, 0.0001144512, 0.0002593961
 162635753, -0.001820337, -0.00768063, 0.0001140734, 0.0002593961
 162735713, -0.004491295, -0.01504916, 7.680563E-05, 0.0002593961
 162835673, -0.008105288, -0.0184973, 0.0003094924, 0.0002593961
 162936466, -0.01140629, -0.01593117, -7.046065E-05, 0.0002615578
 163036426, -0.01229864, -0.008064596, -0.0001618346, 0.0002593961
 163136386, -0.01140405, -0.0007454801, -5.43663E-05, 0.0002593961
 163236346, -0.009740241, 0.00122013, 0.0001280558, 0.0002593961
 163336306, -0.008197423, -0.004044, -0.0001545037, 0.0002593961
 163436266, -0.007852538, -0.01495334, 7.86586E-06, 0.0002593961
 163536226, -0.01108301, -0.02049262, 2.50585E-05, 0.0002593961
 163636186, -0.02026099, -0.01363159, -4.076518E-05, 0.0002593961
 163736146, -0.02970573, -0.001758191, 1.122146E-05, 0.0002593961
 163836106, -0.03514347, 0.0071009, -0.0004124589, 0.0002593961
 163936066, -0.03403442, 0.01339414, -0.0002843541, 0.0002593961
 164036026, -0.02692656, 0.02035552, 0.0001171287, 0.0002593961
 164135986, -0.01458756, 0.0274394, -0.0004131214, 0.0002593961
 164235946, -5.943071E-05, 0.03373704, -0.0001873888, 0.0002593961
 164335906, 0.01125314, 0.03663734, 0.0001766023, 0.0002593961
 164435866, 0.01563208, 0.03512878, -0.0002960082, 0.0002593961
 164535826, 0.01302801, 0.03117168, -7.42973E-06, 0.0002593961
 164635786, 0.006080142, 0.02684263, -0.0002626739, 0.0002593961
 164735746, 0.0002309449, 0.0237367, 9.879678E-06, 0.0002593961
 164835706, -0.001486852, 0.02230622, -0.0002282851, 0.0002593961
 164935666, 0.001514594, 0.0190206, 4.54959E-05, 0.0002593961
 165036459, 0.00808543, 0.01202195, -0.0005316327, 0.0002615578
 165136419, 0.01118237, 0.002976121, -0.0001789402, 0.0002593961
 165236379, 0.007309824, -0.004370494, 4.055188E-05, 0.0002593961
 165336339, -0.001460579, -0.00749182, -0.0001531703, 0.0002593961
 165436299, -0.009695228, -0.005038397, 0.0003690649, 0.0002593961
 165536259, -0.0147467, -0.0004483022, -0.000113107, 0.0002593961
 165636219, -0.01539452, 0.003797778, 0.0002618731, 0.0002593961
 165736179, -0.01267428, 0.006539824, -0.000157652, 0.0002593961
 165836139, -0.008218788, 0.007802615, -2.685187E-05, 0.0002593961
 165936099, -0.00681312, 0.008142146, 8.689741E-05, 0.0002593961
 166036059, -0.01166766, 0.008397949, -1.126434E-05, 0.0002593961
 166136019, -0.01782822, 0.008827046, 6.988827E-05, 0.0002593961
 166235979, -0.02070667, 0.008540997, -1.585564E-05, 0.0002593961
 166335939, -0.01712136, 0.007082121, -0.0003795536, 0.0002593961
 166435899, -0.008512374, 0.004226292, -0.0001726747, 0.0002593961
 166535859, 0.0009162441, 0.00269934, -5.267896E-05, 0.0002593961
 166635819, 0.007157276, 0.004763214, 7.433657E-05, 0.0002593961
 166735779, 0.01097149, 0.005414801, 0.0001067164, 0.0002593961
 166835739, 0.01382138, 0.0007943759, -0.0001379689, 0.0002593961
 166935699, 0.0154411, -0.008277182, 0.0002660891, 0.0002593961
 167035659, 0.01563706, -0.01803728, 0.000128063, 0.0002593961
 167136452, 0.01208767, -0.02484779, 8.40554E-05, 0.0002615578
 167236412, 0.003733588, -0.02546556, 9.049847E-05, 0.0002593961
 167336372, -0.005696116, -0.01962278, -9.513028E-05, 0.0002593961
 167436332, -0.01289254, -0.009190376, 7.072716E-05, 0.0002593961
 167536292, -0.01526753, 0.0009692183, -0.0002452858, 0.0002593961
 167636252, -0.01254488, 0.00727145, -5.533149E-05, 0.0002593961
 167736212, -0.005751365, 0.008042309, -0.0001641379, 0.0002593961
 167836172, 0.002515145, 0.00445349, -2.835331E-05, 0.0002593961
 167936132, 0.007429379, 0.0006123094, -7.546624E-05, 0.0002593961
 168036092, 0.006868918, -8.091375E-05, 0.003013566, 0.0002593961
 168136052, 0.001988018, 0.002728485, 0.001115651, 0.0002593961
 168236012, -0.003437476, 0.007300026, 0.0004374697, 0.0002593961
 168335972, -0.006147282, 0.009245398, 9.391364E-05, 0.0002593961
 168435932, -0.004927002, 0.006204959, -0.0003329852, 0.0002593961
 168535892, -0.00434616, 0.0008976387, -0.0004129081, 0.0002593961
 168635852, -0.007054737, -0.00297356, -0.0004856801, 0.0002593961
 168735812, -0.0113846, -0.003437247, -0.0005067419, 0.0002593961
 168835772, -0.01372263, -0.0001777576, -0.0004279212, 0.0002593961
 168935732, -0.01421493, 0.009319123, -0.0004963487, 0.0002593961
 169035692, -0.01336226, 0.02381086, -0.0004373279, 0.0002593961
 169136485, -0.009417715, 0.0372025, -0.0003199477, 0.0002615578
 169236445, -0.002005149, 0.04365562, 0.002730797, 0.0002593961
 169336405, 0.005909668, 0.04238789, 0.002875165, 0.0002593961
 169436365, 0.0116029, 0.03456701, 0.003609523, 0.0002593961
 169536325, 0.01349232, 0.02505089, 0.002610553, 0.0002593961
 169636285, 0.01229059, 0.01673028, 0.0002325177, 0.0002593961
 169736245, 0.009005915, 0.007273232, -0.0004947149, 0.0002593961
 169836205, 0.004816414, -0.00478203, -0.0007990382, 0.0002593961
 169936165, 0.001570051, -0.01496851, -0.001199409, 0.0002593961
 170036125, 9.178912E-05, -0.01946781, -0.001010924, 0.0002593961
 170136085, 0.001254608, -0.01968372, -0.000888724, 0.0002593961
 170236045, 0.004522427, -0.01714491, -0.001252246, 0.0002593961
 170336005, 0.009858405, -0.01465635, -0.001118204, 0.0002593961
 170435965, 0.01552809, -0.01235435, -0.0009453316, 0.0002593961
 170535925, 0.01578413, -0.006612518, -0.0009408728, 0.0002593961
 170635885, 0.008315021, 0.003199157, -0.000906808, 0.0002593961
 170735845, -0.002205162, 0.01279829, -0.0006967987, 0.0002593961
 170835805, -0.009895072, 0.01806221, -0.0007588269, 0.0002593961
 170935765, -0.01181314, 0.01736362, -0.0005577253, 0.0002593961
 171035725, -0.008466233, 0.01206915, -0.0005680838, 0.0002593961
 171135685, -0.005628978, 0.005319991, -0.0004444406, 0.0002593961
 171236478, -0.006605822, -0.0002700709, -0.0005605179, 0.0002615578
 171336438, -0.004024232, -0.003912594, -0.0002516204, 0.0002593961
 171436398, 0.005790349, -0.005335144, -0.0002398354, 0.0002593961
 171536358, 0.01403133, -0.001530797, -0.0001736161, 0.0002593961
 171636318, 0.01357972, 0.00848321, -0.0001200982, 0.0002593961
 171736278, 0.006050908, 0.01746739, -0.000166663, 0.0002593961
 171836238, -0.003764961, 0.02059611, -0.0003226503, 0.0002593961
 171936198, -0.01124024, 0.01511536, -0.0001509659, 0.0002593961
 172036158, -0.01439082, 0.002540743, -0.0002437725, 0.0002593961
 172136118, -0.01182245, -0.01172512, -0.0001056153, 0.0002593961
 172236078, -0.005420815, -0.02242532, 9.63255E-05, 0.0002593961
 172336038, 0.0004834275, -0.02430006, 0.0001433073, 0.0002593961
 172435998, 0.003284402, -0.01623539, -4.044584E-05, 0.0002593961
 172535958, 0.003922401, -0.0002478891, -0.000155264, 0.0002593961
 172635918, 0.004058393, 0.01869006, -8.01124E-06, 0.0002593961
 172735878, 0.006732949, 0.03434857, 0.0002831673, 0.0002593961
 172835838, 0.01231602, 0.04180083, -0.0002171828, 0.0002593961
 172935798, 0.01636473, 0.03784473, -0.001009391, 0.0002593961
 173035758, 0.01501722, 0.0240606, -0.001112828, 0.0002593961
 173135718, 0.01040495, 0.004788314, -0.0004067998, 0.0002593961
 173235678, 0.005751729, -0.01454365, -0.0002352393, 0.0002593961
 173336471, 0.0005503885, -0.02457763, -3.831602E-05, 0.0002615578
 173436431, -0.005391642, -0.02103497, -6.954156E-05, 0.0002593961
 173536391, -0.01155752, -0.01052463, -2.231301E-05, 0.0002593961
 173636351, -0.01731079, 0.0002680516, 0.0001779464, 0.0002593961
 173736311, -0.02441614, 0.00737749, 0.000171302, 0.0002593961
 173836271, -0.03326171, 0.01017143, 2.548151E-05, 0.0002593961
 173936231, -0.03456979, 0.007943494, 2.78719E-05, 0.0002593961
 174036191, -0.02463365, 0.00189231, -0.0001438888, 0.0002593961
 174136151, -0.0103743, -0.005673245, -6.274692E-05, 0.0002593961
 174236111, 0.001373061, -0.01226369, 5.380384E-05, 0.0002593961
 174336071, 0.01107292, -0.01597148, 0.0001810196, 0.0002593961
 174436031, 0.02089228, -0.01628029, 0.000345154, 0.0002593961
 174535991, 0.02686375, -0.01780178, 0.000235971, 0.0002593961
 174635951, 0.02655589, -0.0226406, 0.000167366, 0.0002593961
 174735911, 0.01927665, -0.02324786, 3.524084E-05, 0.0002593961
 174835871, 0.007209268, -0.01429632, -0.0002688846, 0.0002593961
 174935831, -0.005490243, -0.002798384, -9.018391E-05, 0.0002593961
 175035791, -0.01529809, 0.005043245, -0.0002597663, 0.0002593961
 175135751, -0.02179137, 0.003407526, -3.365124E-05, 0.0002593961
 175235711, -0.02587386, -0.007470486, -6.196046E-05, 0.0002593961
 175335671, -0.02734266, -0.01931418, 2.477608E-05, 0.0002593961
 175436464, -0.0265824, -0.02551517, 6.243629E-05, 0.0002615578
 175536424, -0.02491683, -0.01981363, -5.980006E-05, 0.0002593961
 175636384, -0.02304742, -0.003404789, -0.0003413051, 0.0002593961
 175736344, -0.01693058, 0.01649862, -0.0002516265, 0.0002593961
 175836304, -0.01013145, 0.03272172, -0.001043442, 0.0002593961
 175936264, -0.003765752, 0.04534538, -0.004125246, 0.0002593961
 176036224, 0.007340204, 0.05542946, -0.007783222, 0.0002593961
 176136184, 0.02129598, 0.05893807, -0.01244035, 0.0002593961
 176236144, 0.03482898, 0.05386858, -0.01701032, 0.0002593961
 176336104, 0.04865281, 0.04433134, -0.02107298, 0.0002593961
 176436064, 0.06159973, 0.03490352, -0.02272164, 0.0002593961
 176536024, 0.07240713, 0.02606835, -0.0238386, 0.0002593961
 176635984, 0.07976372, 0.01756689, -0.0245377, 0.0002593961
 176735944, 0.0839851, 0.009722998, -0.02540828, 0.0002593961
 176835904, 0.08560712, 0.002322651, -0.02555967, 0.0002593961
 176935864, 0.08727821, -0.002930658, -0.02547352, 0.0002593961
 177035824, 0.08976857, -0.005379185, -0.02560605, 0.0002593961
 177135784, 0.09199614, -0.006362834, -0.02529322, 0.0002593961
 177235744, 0.09219605, -0.006797206, -0.02516958, 0.0002593961
 177335704, 0.09377842, -0.006115024, -0.02526386, 0.0002593961
 177435664, 0.09803503, -0.003804273, -0.02515987, 0.0002593961
 177536457, 0.1022305, -0.001279424, -0.02512682, 0.0002615578
 177636417, 0.1009622, 0.003881714, -0.02544229, 0.0002593961
 177736377, 0.09919038, 0.01225813, -0.0280325, 0.0002593961
 177836337, 0.0978829, 0.01784645, -0.03246218, 0.0002593961
 177936297, 0.09542809, 0.01530741, -0.03592805, 0.0002593961
 178036257, 0.09154299, 0.003759649, -0.03781936, 0.0002593961
 178136217, 0.08659301, -0.01289509, -0.0393737, 0.0002593961
 178236177, 0.08228439, -0.02955883, -0.04115646, 0.0002593961
 178336137, 0.07740914, -0.04017597, -0.04282777, 0.0002593961
 178436097, 0.07275079, -0.04151408, -0.04518567, 0.0002593961
 178536057, 0.06994901, -0.03055996, -0.04740985, 0.0002593961
 178636017, 0.07033665, -0.009980064, -0.04842731, 0.0002593961
 178735977, 0.07450074, 0.01278772, -0.04854739, 0.0002593961
 178835937, 0.08048938, 0.03106585, -0.04876892, 0.0002593961
 178935897, 0.08652432, 0.04234619, -0.0496741, 0.0002593961
 179035857, 0.08986493, 0.04678194, -0.05028231, 0.0002593961
 179135817, 0.09027739, 0.04363921, -0.04854839, 0.0002593961
 179235777, 0.0881665, 0.03434078, -0.04490118, 0.0002593961
 179335737, 0.08476913, 0.0243384, -0.0407827, 0.0002593961
 179435697, 0.08155565, 0.01755143, -0.03618473, 0.0002593961
 179535657, 0.0786052, 0.01084465, -0.03181, 0.0002593961
 179636450, 0.07605058, 0.001961486, -0.02774145, 0.0002615578
 179736410, 0.07248675, -0.006301861, -0.02359957, 0.0002593961
 179836370, 0.06895193, -0.01076698, -0.01959742, 0.0002593961
 179936330, 0.06570695, -0.01168797, -0.01677328, 0.0002593961
 180036290, 0.06247919, -0.0104381, -0.0142673, 0.0002593961
 180136250, 0.05921461, -0.007144063, -0.01193082, 0.0002593961
 180236210, 0.05735275, -0.00275083, -0.01015845, 0.0002593961
 180336170, 0.05495439, 0.00186983, -0.008303856, 0.0002593961
 180436130, 0.05191377, 0.005320366, -0.006809385, 0.0002593961
 180536090, 0.04709068, 0.00728752, -0.006041321, 0.0002593961
 180636050, 0.04042182, 0.007821766, -0.005332687, 0.0002593961
 180736010, 0.03411111, 0.006627142, -0.005135345, 0.0002593961
 180835970, 0.0296576, 0.004056445, -0.004671901, 0.0002593961
 180935930, 0.02821748, -8.53838E-05, -0.004154639, 0.0002593961
 181035890, 0.0295075, -0.004283673, -0.003662392, 0.0002593961
 181135850, 0.03080756, -0.00744004, -0.003284797, 0.0002593961
 181235810, 0.0299457, -0.008180342, -0.003222734, 0.0002593961
 181335770, 0.0269971, -0.007058577, -0.00264041, 0.0002593961
 181435730, 0.02333861, -0.004831131, -0.002605373, 0.0002593961
 181535690, 0.02009458, -0.001711059, -0.00247571, 0.0002593961
 181636483, 0.01817519, 0.0009217795, -0.001587956, 0.0002615578
 181736443, 0.01727464, 0.001906445, -0.0009106449, 0.0002593961
 181836403, 0.01777502, 0.00172674, -0.0009656142, 0.0002593961
 181936363, 0.02024774, 0.001775589, -0.001091807, 0.0002593961
 182036323, 0.02368493, 0.003570131, -0.0002181909, 0.0002593961
 182136283, 0.02699353, 0.005344494, -0.0005502192, 0.0002593961
 182236243, 0.02776638, 0.006501539, -0.0005396043, 0.0002593961
 182336203, 0.02617807, 0.006621573, -0.0007166903, 0.0002593961
 182436163, 0.02428179, 0.005421192, -0.001049603, 0.0002593961
 182536123, 0.02359629, 0.002715902, -0.001327879, 0.0002593961
 182636083, 0.02491053, -0.001545207, -0.001006565, 0.0002593961
 182736043, 0.02666464, -0.0034383, -0.0007382656, 0.0002593961
 182836003, 0.0274469, -0.0001025825, -0.000959978, 0.0002593961
 182935963, 0.02618968, 0.005545645, -0.001137248, 0.0002593961
 183035923, 0.02374271, 0.01067981, -0.001857306, 0.0002593961
 183135883, 0.02055798, 0.01362685, -0.001778225, 0.0002593961
 183235843, 0.01679394, 0.01357414, -0.001703, 0.0002593961
 183335803, 0.01484028, 0.01067357, -0.001583859, 0.0002593961
 183435763, 0.01513416, 0.005802928, -0.001480689, 0.0002593961
 183535723, 0.01721063, 0.002411766, -0.001131127, 0.0002593961
 183635683, 0.02069679, 0.002132161, -0.0003718331, 0.0002593961
 183736476, 0.02260382, 0.003093747, 7.482132E-06, 0.0002615578
 183836436, 0.02068434, 0.003460502, -0.0007148612, 0.0002593961
 183936396, 0.01580968, 0.0008474514, -0.001035054, 0.0002593961
 184036356, 0.01033637, -0.004311645, -0.001158248, 0.0002593961
 184136316, 0.006722477, -0.008762361, -0.0007972889, 0.0002593961
 184236276, 0.005749854, -0.009315399, -7.21833E-05, 0.0002593961
 184336236, 0.006193829, -0.004799512, 0.0001877022, 0.0002593961
 184436196, 0.005647386, 0.004250046, 0.0004367999, 0.0002593961
 184536156, 0.004357426, 0.01336504, 0.0004229439, 0.0002593961
 184636116, 0.002986232, 0.01910171, 0.0006212526, 0.0002593961
 184736076, 0.002584065, 0.01875417, 0.0007218119, 0.0002593961
 184836036, 0.004214763, 0.01279496, 0.0006149739, 0.0002593961
 184935996, 0.007696413, 0.006499055, 0.001112501, 0.0002593961
 185035956, 0.01211779, 0.004099396, 0.0005766242, 0.0002593961
 185135916, 0.01575077, 0.004429486, 0.001730406, 0.0002593961
 185235876, 0.0168088, 0.005678023, 0.004999724, 0.0002593961
 185335836, 0.01500705, 0.007545946, 0.001980696, 0.0002593961
 185435796, 0.008970509, 0.008470812, 0.001352876, 0.0002593961
 185535756, 0.001214343, 0.006595389, 0.001760326, 0.0002593961
 185635716, -0.004636349, 0.001213114, 0.001501196, 0.0002593961
 185735676, -0.00790164, -0.004461288, 0.0007425246, 0.0002593961
 185836469, -0.008403142, -0.007570836, 0.0005020119, 0.0002615578
 185936429, -0.007218604, -0.006779713, 0.0008423915, 0.0002593961
 186036389, -0.00556145, -0.003243769, 0.004060827, 0.0002593961
 186136349, -0.00394983, 0.003430236, 0.008682338, 0.0002593961
 186236309, -0.002046837, 0.01219398, 0.01007203, 0.0002593961
 186336269, -0.001389943, 0.01728616, 0.01039612, 0.0002593961
 186436229, -0.001708968, 0.01614716, 0.009172804, 0.0002593961
 186536189, -0.002756434, 0.008260058, 0.007690086, 0.0002593961
 186636149, -0.005765405, -0.003520977, 0.01262262, 0.0002593961
 186736109, -0.007937836, -0.01314461, 0.01589008, 0.0002593961
 186836069, -0.00657627, -0.01740082, 0.0107365, 0.0002593961
 186936029, -0.004031188, -0.01528991, 0.005773626, 0.0002593961
 187035989, -0.003063581, -0.008602534, 0.006641032, 0.0002593961
 187135949, -0.002488771, 0.0004612763, 0.006938522, 0.0002593961
 187235909, -0.0007272398, 0.01030475, 0.002579719, 0.0002593961
 187335869, 0.0004960735, 0.01848772, -0.00256944, 0.0002593961
 187435829, 0.0001211221, 0.0233022, -0.003732421, 0.0002593961
 187535789, -0.000194783, 0.02309369, -0.004354709, 0.0002593961
 187635749, -0.001280802, 0.01811055, -0.004140398, 0.0002593961
 187735709, -0.002377548, 0.008321189, -0.003085738, 0.0002593961
 187835669, -0.003265752, -0.005122233, -0.003531861, 0.0002593961
 187936462, -0.003835432, -0.01783438, -0.00291802, 0.0002615578
 188036422, -0.003908989, -0.02486423, -0.00446756, 0.0002593961
 188136382, -0.004014405, -0.02458278, -0.005872014, 0.0002593961
 188236342, -0.004548269, -0.01659187, -0.004246516, 0.0002593961
 188336302, -0.005033051, -0.00592927, -6.833678E-05, 0.0002593961
 188436262, -0.003879475, 0.003689423, -0.0003249132, 0.0002593961
 188536222, -0.002348749, 0.009453505, -0.0005631494, 0.0002593961
 188636182, -0.006573522, 0.01161051, 0.01642822, 0.0002593961
 188736142, -0.006046755, 0.009604495, 0.014689, 0.0002593961
 188836102, -0.003785615, 0.004478742, 0.008518189, 0.0002593961
 188936062, -0.002832972, -0.003732243, 0.00524054, 0.0002593961
 189036022, -0.001693091, -0.0134363, 0.001024897, 0.0002593961
 189135982, -0.001125494, -0.02039966, -0.002645533, 0.0002593961
 189235942, -8.991813E-05, -0.02139096, -0.006533572, 0.0002593961
 189335902, -0.0001570112, -0.01536092, -0.01002673, 0.0002593961
 189435862, -0.001153033, -0.003986552, -0.0113571, 0.0002593961
 189535822, -0.001896302, 0.009398956, -0.01174831, 0.0002593961
 189635782, -0.002130097, 0.02047497, -0.01163524, 0.0002593961
 189735742, -0.001849838, 0.02502682, -0.0109293, 0.0002593961
 189835702, -0.00108251, 0.02088855, -0.01026326, 0.0002593961
 189935662, -0.0001079333, 0.01242763, -0.00812462, 0.0002593961
 190036455, -0.0004368548, 0.004420135, -0.006681128, 0.0002615578
 190136415, -0.00190411, -0.0002009732, -0.006431752, 0.0002593961
 190236375, -0.004579872, -0.0009945233, -0.005987061, 0.0002593961
 190336335, -0.007817881, 0.001353538, -0.005099547, 0.0002593961
 190436295, -0.01030182, 0.005518978, -0.004554516, 0.0002593961
 190536255, -0.01108994, 0.008883011, -0.003473458, 0.0002593961
 190636215, -0.009453242, 0.01045043, -0.002559287, 0.0002593961
 190736175, -0.006209525, 0.0104034, -0.002088164, 0.0002593961
 190836135, -0.002599981, 0.009276194, -0.001023408, 0.0002593961
 190936095, 0.000457367, 0.004316922, -0.000588102, 0.0002593961
 191036055, 0.001681194, -0.003765693, -0.001212124, 0.0002593961
 191136015, 0.001260608, -0.01263379, -0.0009433786, 0.0002593961
 191235975, -3.10806E-05, -0.01847954, -0.0008048937, 0.0002593961
 191335935, -0.005908018, -0.01813681, 0.01281497, 0.0002593961
 191435895, -0.02427347, -0.01117831, 0.05430739, 0.0002593961
 191535855, -0.04605904, -0.001770927, 0.07480036, 0.0002593961
 191635815, -0.06979065, 0.006501367, 0.09119914, 0.0002593961
 191735775, -0.08481555, 0.01046093, 0.1042771, 0.0002593961
 191835735, -0.07897352, 0.009150228, 0.1109148, 0.0002593961
 191935695, -0.05581785, 0.005757244, 0.1124063, 0.0002593961
 192035655, -0.02689074, 0.00321981, 0.1094906, 0.0002593961
 192136448, -0.002400175, 0.001406668, 0.1034654, 0.0002615578
 192236408, 0.01229269, -0.0002337248, 0.09232625, 0.0002593961
 192336368, 0.01600267, -0.002225081, 0.08100434, 0.0002593961
 192436328, 0.01097552, -0.004881617, 0.0699553, 0.0002593961
 192536288, 0.00370126, -0.007751529, 0.05973055, 0.0002593961
 192636248, -0.001405487, -0.01005521, 0.05131111, 0.0002593961
 192736208, -0.001690223, -0.01261056, 0.04379914, 0.0002593961
 192836168, 0.001830588, -0.01511142, 0.03743119, 0.0002593961
 192936128, 0.006970241, -0.01593495, 0.03114168, 0.0002593961
 193036088, 0.01170495, -0.01486264, 0.02541818, 0.0002593961
 193136048, 0.01533907, -0.01169363, 0.0199795, 0.0002593961
 193236008, 0.01759294, -0.006803984, 0.01569034, 0.0002593961
 193335968, 0.01878584, -0.001242213, 0.01189068, 0.0002593961
 193435928, 0.01928024, 0.004253197, 0.009247499, 0.0002593961
 193535888, 0.01931108, 0.01072014, 0.007043245, 0.0002593961
 193635848, 0.01896987, 0.01817206, 0.005247223, 0.0002593961
 193735808, 0.01827256, 0.02363626, 0.00401972, 0.0002593961
 193835768, 0.01771184, 0.02543991, 0.00307895, 0.0002593961
 193935728, 0.01709771, 0.02302367, 0.002269271, 0.0002593961
 194035688, 0.01727063, 0.01731066, 0.001915147, 0.0002593961
 194136481, 0.01656675, 0.01147786, 0.001881978, 0.0002615578
 194236441, 0.01422869, 0.00776005, 0.001380596, 0.0002593961
 194336401, 0.01076861, 0.007969726, 0.00141437, 0.0002593961
 194436361, 0.00777331, 0.01177752, 0.001196465, 0.0002593961
 194536321, 0.005327482, 0.01584238, 0.001567515, 0.0002593961
 194636281, 0.004430979, 0.01754999, 0.001081351, 0.0002593961
 194736241, 0.00534213, 0.01560162, 0.001235001, 0.0002593961
 194836201, 0.007723498, 0.01075433, 0.001658917, 0.0002593961
 194936161, 0.00876855, 0.005338265, 0.001139626, 0.0002593961
 195036121, 0.007370885, 0.001502875, 0.0005542457, 0.0002593961
 195136081, 0.005245127, -0.001572494, 0.0003882381, 0.0002593961
 195236041, 0.004204547, -0.003822753, 0.000730662, 0.0002593961
 195336001, 0.004972123, -0.004103159, 0.0007552392, 0.0002593961
 195435961, 0.006164362, -0.00201737, 0.001097619, 0.0002593961
 195535921, 0.006068787, 0.003856361, 0.0009646084, 0.0002593961
 195635881, 0.00369718, 0.01240135, 0.0006349455, 0.0002593961
 195735841, 0.001008714, 0.02237646, 0.0004787556, 0.0002593961
 195835801, -0.0006625635, 0.03058111, 0.0007371861, 0.0002593961
 195935761, -0.001480078, 0.0349624, 0.0005244219, 0.0002593961
 196035721, -0.002235783, 0.03479458, 0.000584994, 0.0002593961
 196135681, -0.002373976, 0.03086846, 0.0002873511, 0.0002593961
 196236474, -0.002529684, 0.02514578, 0.0001371797, 0.0002615578
 196336434, -0.0006181708, 0.02183344, 0.0004370824, 0.0002593961
 196436394, 0.004019055, 0.02277189, 0.0007397182, 0.0002593961
 196536354, 0.009928228, 0.02454733, 0.000855262, 0.0002593961
 196636314, 0.01556867, 0.02404786, 0.0007083789, 0.0002593961
 196736274, 0.01987261, 0.0215644, 3.266339E-05, 0.0002593961
 196836234, 0.02144111, 0.01744848, -5.819258E-05, 0.0002593961
 196936194, 0.01979117, 0.01273028, -0.000749591, 0.0002593961
 197036154, 0.01570703, 0.008081295, -0.001450287, 0.0002593961
 197136114, 0.008853695, 0.004076433, -0.001940782, 0.0002593961
 197236074, 0.001315321, 0.0005807037, -0.002283331, 0.0002593961
 197336034, -0.005099938, -0.001282885, -0.002113777, 0.0002593961
 197435994, -0.008892242, -0.001261038, -0.001143232, 0.0002593961
 197535954, -0.008403117, -0.0004876483, -0.0002792135, 0.0002593961
 197635914, -0.004552775, 0.0001257145, 0.0004894658, 0.0002593961
 197735874, 0.00054005, 0.0003353764, 0.0007369585, 0.0002593961
 197835834, 0.004548326, -0.0003649281, 0.0007060588, 0.0002593961
 197935794, 0.006030756, -0.0009501283, 0.0001490664, 0.0002593961
 198035754, 0.00514758, -0.001221584, -0.0006033462, 0.0002593961
 198135714, 0.001654527, -0.001172392, -0.0008271506, 0.0002593961
 198235674, -0.00291273, -0.0006916405, -0.00138112, 0.0002593961
 198336467, -0.006891462, 6.401992E-05, -0.0009049757, 0.0002615578
 198436427, -0.008979582, 0.001165736, -0.001014344, 0.0002593961
 198536387, -0.009265178, 0.001616832, -0.0004324864, 0.0002593961
 198636347, -0.00789947, 0.0009745526, 0.0002763358, 0.0002593961
 198736307, -0.006221856, 3.898014E-05, 0.0003248263, 0.0002593961
 198836267, -0.004760744, -0.0002137553, 2.458661E-05, 0.0002593961
 198936227, -0.004559733, 0.0003344088, 0.0002591539, 0.0002593961
 199036187, -0.004466369, 0.001653085, 0.0001230213, 0.0002593961
 199136147, -0.003219524, 0.003234221, 4.984173E-05, 0.0002593961
 199236107, -0.001870219, 0.004233297, 0.0005944734, 0.0002593961
 199336067, -0.0003210184, 0.005987781, 0.0004611006, 0.0002593961
 199436027, 0.0004356635, 0.008839484, 0.0002762773, 0.0002593961
 199535987, 0.001383719, 0.01090998, 0.0001712757, 0.0002593961
 199635947, 0.001950002, 0.01139615, -0.0001422194, 0.0002593961
 199735907, 0.001722872, 0.009236662, -0.0001326281, 0.0002593961
 199835867, 0.001269638, 0.004882372, -0.0006732487, 0.0002593961
 199935827, 0.0005651326, -0.0003854239, -0.0003989269, 0.0002593961
 200035787, -0.000357481, -0.005621945, -0.0003955724, 0.0002593961
 200135747, -0.001341691, -0.009686542, -0.000300771, 0.0002593961
 200235707, -0.002263737, -0.01138039, 1.429344E-05, 0.0002593961
 200335667, -0.002594869, -0.01130787, -0.0001929238, 0.0002593961
 200436460, -0.002348428, -0.008909057, 0.0001865614, 0.0002615578
 200536420, -0.002885629, -0.005110176, 0.000172975, 0.0002593961
 200636380, -0.004670199, -0.0003906671, 4.571039E-05, 0.0002593961
 200736340, -0.00671653, 0.004625448, -1.037183E-05, 0.0002593961
 200836300, -0.008260381, 0.008150499, -7.167213E-05, 0.0002593961
 200936260, -0.008222603, 0.009277795, -1.221646E-05, 0.0002593961
 201036220, -0.007415663, 0.008174215, -2.22272E-05, 0.0002593961
 201136180, -0.006042893, 0.00323672, -0.000156253, 0.0002593961
 201236140, -0.005616035, -0.004006716, -0.0002114236, 0.0002593961
 201336100, -0.004371253, -0.009391859, -0.0001511577, 0.0002593961
 201436060, -0.001575038, -0.01045373, -6.395523E-05, 0.0002593961
 201536020, 0.00162913, -0.00670993, 0.0002352667, 0.0002593961
 201635980, 0.004277616, -0.0004711813, -1.283848E-05, 0.0002593961
 201735940, 0.005583821, 0.005732178, -0.0005896271, 0.0002593961
 201835900, 0.005104674, 0.009955494, -0.0009663922, 0.0002593961
 201935860, 0.004701181, 0.01134401, -0.001051866, 0.0002593961
 202035820, 0.00551661, 0.009926073, -0.000940253, 0.0002593961
 202135780, 0.006272472, 0.007231395, -0.0006779664, 0.0002593961
 202235740, 0.006285184, 0.005140082, -0.000449642, 0.0002593961
 202335700, 0.004040131, 0.004209711, -0.0006490589, 0.0002593961
 202435660, -0.0001168632, 0.00399631, -0.0008821259, 0.0002593961
 202536453, -0.004823621, 0.004206008, -0.0006771254, 0.0002615578
 202636413, -0.008467801, 0.003829489, -0.0004179426, 0.0002593961
 202736373, -0.009972327, 0.002663962, -0.0001371491, 0.0002593961
 202836333, -0.009277074, 0.001203869, 0.0002798045, 0.0002593961
 202936293, -0.008428833, -0.0001254178, 0.0008166586, 0.0002593961
 203036253, -0.008389921, -0.000448944, 9.600014E-05, 0.0002593961
 203136213, -0.007868218, -0.0002251187, 0.0004456298, 0.0002593961
 203236173, -0.005896003, 0.0004901729, 0.0006102564, 0.0002593961
 203336133, -0.003212863, 0.001138006, 0.0006194843, 0.0002593961
 203436093, -0.0009864599, 0.002030656, 0.0008881687, 0.0002593961
 203536053, 0.001304466, 0.003359725, 0.0008548164, 0.0002593961
 203636013, 0.004209685, 0.006269052, 0.000936547, 0.0002593961
 203735973, 0.006327641, 0.00950304, 0.0009930988, 0.0002593961
 203835933, 0.007785151, 0.01239017, 0.0003833202, 0.0002593961
 203935893, 0.007524021, 0.01393215, 0.0001679487, 0.0002593961
 204035853, 0.006009108, 0.0130291, -0.000400383, 0.0002593961
 204135813, 0.003156973, 0.01055465, -0.0006334906, 0.0002593961
 204235773, 0.0002496889, 0.007235741, -0.001057828, 0.0002593961
 204335733, -0.001707383, 0.004038702, -0.0008824726, 0.0002593961
 204435693, -0.002618015, 0.001900226, -0.0006668059, 0.0002593961
 204536486, -0.002148828, 0.003498749, -0.0003108867, 0.0002593961
 204636446, -0.0004635893, 0.008935722, -0.0002890662, 0.0002615578
 204736406, 0.000797891, 0.01414344, -0.0002310341, 0.0002593961
 204836366, 0.001050778, 0.01569743, -0.0005804398, 0.0002593961
 204936326, -0.0002993166, 0.01275707, -0.0009378887, 0.0002593961
 205036286, -0.003011874, 0.006658236, -0.0009779105, 0.0002593961
 205136246, -0.006104188, -0.0005141828, -0.001026929, 0.0002593961
 205236206, -0.009118296, -0.006393044, -0.001200566, 0.0002593961
 205336166, -0.01051659, -0.01044318, -0.0006468734, 0.0002593961
 205436126, -0.009817221, -0.01207514, -0.0001129878, 0.0002593961
 205536086, -0.007367838, -0.00928156, 0.0001578462, 0.0002593961
 205636046, -0.004054344, -0.001390735, 0.0007206608, 0.0002593961
 205736006, -0.000549302, 0.0076855, 0.0008495355, 0.0002593961
 205835966, 0.001132839, 0.01426222, 0.0004696492, 0.0002593961
 205935926, 0.001157815, 0.01573282, -0.000145805, 0.0002593961
 206035886, -0.000739165, 0.01127205, -0.0004881086, 0.0002593961
 206135846, -0.002914476, 0.004213612, -0.0004807659, 0.0002593961
 206235806, -0.003391365, -0.003124288, -2.785164E-05, 0.0002593961
 206335766, -0.002303257, -0.006948392, 0.0002466156, 0.0002593961
 206435726, -0.001200623, -0.00648615, 0.0002900656, 0.0002593961
 206535686, -0.0003693682, -0.002438436, 1.319834E-05, 0.0002593961
 206636479, -9.473172E-05, 0.003817335, -2.218989E-05, 0.0002615578
 206736439, -0.00163738, 0.01069004, -8.132898E-05, 0.0002593961
 206836399, -0.003695346, 0.01668137, -0.0002977492, 0.0002593961
 206936359, -0.004995836, 0.01914725, -0.0003173715, 0.0002593961
 207036319, -0.007221981, 0.01706439, -0.0004713115, 0.0002593961
 207136279, -0.009331059, 0.01124621, -0.0001684278, 0.0002593961
 207236239, -0.008368831, 0.004306098, -6.333439E-05, 0.0002593961
 207336199, -0.008292372, -0.00211665, 7.443311E-05, 0.0002593961
 207436159, -0.00388226, -0.007109797, 0.0002431576, 0.0002593961
 207536119, -0.004933288, -0.00933261, 0.0002563333, 0.0002593961
 207636079, -0.00749183, -0.009221092, 0.0003049762, 0.0002593961
 207736039, -0.008607931, -0.007124833, 0.0005284257, 0.0002593961
 207835999, -0.01532231, -0.003412929, 0.0002039391, 0.0002593961
 207935959, -0.01310772, 0.0007109631, 7.909469E-05, 0.0002593961
 208035919, -0.006953989, 0.003446602, 0.0007189151, 0.0002593961
 208135879, -0.003877313, 0.004423941, 0.0001248754, 0.0002593961
 208235839, -0.009336978, 0.003373404, -5.608341E-05, 0.0002593961
 208335799, -0.01623863, 0.0009127795, -0.0002905672, 0.0002593961
 208435759, -0.02290077, -0.001567095, -0.0009878379, 0.0002593961
 208535719, -0.02374832, -0.001927432, 0.0002027058, 0.0002593961
 208635679, -0.02016126, -0.0007674024, -4.818538E-05, 0.0002593961
 208736472, -0.01544033, 0.001795834, 0.0003715729, 0.0002615578
 208836432, -0.009975015, 0.004962305, 0.0005354562, 0.0002593961
 208936392, -0.005791709, 0.007064411, 3.998348E-05, 0.0002593961
 209036352, -0.003222989, 0.008058211, 0.0003163431, 0.0002593961
 209136312, -0.002321379, 0.009169507, -0.0005416586, 0.0002593961
 209236272, -0.003457366, 0.01111086, -0.0004204355, 0.0002593961
 209336232, -0.004954055, 0.01486417, -0.0004433444, 0.0002593961
 209436192, -0.005199509, 0.0191441, -0.0007123279, 0.0002593961
 209536152, -0.004733772, 0.02106046, -0.0002619088, 0.0002593961
 209636112, -0.003163076, 0.01951964, 0.0006280018, 0.0002593961
 209736072, -0.001312048, 0.01284382, 0.0001438436, 0.0002593961
 209836032, 0.0001835994, 0.002380923, 0.0002150819, 0.0002593961
 209935992, 0.001343973, -0.006931964, 0.000359843, 0.0002593961
 210035952, 0.001020169, -0.01191817, -4.06496E-05, 0.0002593961
 210135912, -0.001687772, -0.01319019, -0.0003666258, 0.0002593961
 210235872, -0.00668024, -0.01220765, -0.0009780773, 0.0002593961
 210335832, -0.009598955, -0.009397834, -0.001357146, 0.0002593961
 210435792, -0.01207777, -0.005634222, -0.0002344159, 0.0002593961
 210535752, -0.008485493, -0.003281346, 0.0001181475, 0.0002593961
 210635712, -0.006901688, -0.00295863, 0.0005714335, 0.0002593961
 210735672, -0.003419286, -0.004250028, 0.001077698, 0.0002593961
 210836465, 0.0003074308, -0.005998868, 0.001108187, 0.0002615578
 210936425, 0.00298163, -0.005358679, 0.0003557951, 0.0002593961
 211036385, 0.001408717, -0.001226686, 2.676251E-05, 0.0002593961
 211136345, 0.001312706, 0.003895908, -0.0006894464, 0.0002593961
 211236305, 0.0002015447, 0.007662931, -0.001073499, 0.0002593961
 211336265, -0.002093819, 0.007830532, -0.001470557, 0.0002593961
 211436225, -0.003670855, 0.003612817, -0.0007719123, 0.0002593961
 211536185, -0.003323687, -0.00385049, -0.0006466234, 0.0002593961
 211636145, -0.00161515, -0.01222817, 0.0003261024, 0.0002593961
 211736105, 0.002708057, -0.01706011, 0.0004881717, 0.0002593961
 211836065, 0.007793679, -0.01631511, 0.0003000644, 0.0002593961
 211936025, 0.006738067, -0.01166849, 0.000286443, 0.0002593961
 212035985, 0.005228882, -0.006260759, 0.0002688703, 0.0002593961
 212135945, 0.008376856, -0.001361164, 0.0003964507, 0.0002593961
 212235905, 0.007540049, 0.002764096, -0.0009070461, 0.0002593961
 212335865, 0.004397257, 0.005997492, -0.0008429766, 0.0002593961
 212435825, -0.0007310868, 0.008708219, -0.0008255373, 0.0002593961
 212535785, -0.005159404, 0.0118088, 2.837237E-05, 0.0002593961
 212635745, -0.006476756, 0.01602411, -5.074618E-05, 0.0002593961
 212735705, -0.005897773, 0.02109403, -2.284213E-05, 0.0002593961
 212835665, -0.001641531, 0.02651844, 0.0008494149, 0.0002593961
 212936458, 0.00574779, 0.0303006, 0.0007233548, 0.0002615578
 213036418, 0.004887919, 0.02966682, 2.717837E-05, 0.0002593961
 213136378, -0.00029305, 0.02597773, -0.0004242832, 0.0002593961
 213236338, -0.003015176, 0.01971841, -0.0006406497, 0.0002593961
 213336298, -0.002096339, 0.01170185, -0.0007410519, 0.0002593961
 213436258, -0.001853811, 0.002695531, -0.0003412777, 0.0002593961
 213536218, -0.00232321, -0.004135911, -0.0003576076, 0.0002593961
 213636178, -0.003559189, -0.007087084, -0.0002422782, 0.0002593961
 213736138, -0.004938568, -0.006258712, -0.0001226292, 0.0002593961
 213836098, -0.005157288, -0.002491218, 0.0001269774, 0.0002593961
 213936058, -0.002458571, 0.002598681, 0.0002555337, 0.0002593961
 214036018, -0.00280087, 0.007780953, 0.0006454996, 0.0002593961
 214135978, -0.003069326, 0.009987771, 0.0005250309, 0.0002593961
 214235938, -0.003698616, 0.008058114, 0.0008836476, 0.0002593961
 214335898, -0.00322407, 0.005201117, 0.001007501, 0.0002593961
 214435858, -0.006078807, 0.002870054, 0.0005301238, 0.0002593961
 214535818, -0.005556421, 0.002454754, 0.0004677498, 0.0002593961
 214635778, -0.003516534, 0.003673855, 0.000985382, 0.0002593961
 214735738, -0.001591175, 0.007060695, 0.001050539, 0.0002593961
 214835698, -0.001083114, 0.01206609, 0.0006680868, 0.0002593961
 214935658, -0.0011026, 0.01532169, 0.000233956, 0.0002593961
 215036451, 0.001126316, 0.01487268, 0.0003792703, 0.0002615578
 215136411, 0.001798966, 0.01041127, 0.0004039733, 0.0002593961
 215236371, 0.003626269, 0.004730267, 0.0002629027, 0.0002593961
 215336331, 0.003727828, 0.0005622138, -0.000126347, 0.0002593961
 215436291, 0.004217443, -0.0008584961, -0.00029745, 0.0002593961
 215536251, 0.004333214, -0.0001586138, -0.0008215179, 0.0002593961
 215636211, 0.004139356, 0.002282901, -0.0006010808, 0.0002593961
 215736171, 0.0001873047, 0.004809153, -0.00132905, 0.0002593961
 215836131, -0.003491867, 0.006665416, -0.00110684, 0.0002593961
 215936091, -0.01408838, 0.009851436, -0.0003009915, 0.0002593961
 216036051, -0.02996737, 0.01487694, 0.0004471575, 0.0002593961
 216136011, -0.03522305, 0.02006564, 0.0009528211, 0.0002593961
 216235971, -0.03248921, 0.02374239, 0.00101293, 0.0002593961
 216335931, -0.03202379, 0.02492334, 0.000622138, 0.0002593961
 216435891, -0.02951759, 0.02359311, 0.000474747, 0.0002593961
 216535851, -0.02652031, 0.02076786, 0.0001140102, 0.0002593961
 216635811, -0.02674869, 0.01736565, -0.0002027213, 0.0002593961
 216735771, -0.02633421, 0.01465388, -0.0006109368, 0.0002593961
 216835731, -0.02558096, 0.01312024, -5.430195E-05, 0.0002593961
 216935691, -0.02450395, 0.0129672, -0.0001830477, 0.0002593961
 217036484, -0.02325862, 0.01358088, -0.0003827987, 0.0002615578
 217136444, -0.02156374, 0.01437357, -0.0002378835, 0.0002593961
 217236404, -0.02018724, 0.01511316, -0.000186476, 0.0002593961
 217336364, -0.01823467, 0.01584147, -5.129901E-06, 0.0002593961
 217436324, -0.01577432, 0.0163326, -0.0002464977, 0.0002593961
 217536284, -0.01288814, 0.01663161, -0.000173398, 0.0002593961
 217636244, -0.009652409, 0.01702103, -0.000198111, 0.0002593961
 217736204, -0.006458785, 0.01766308, -0.0001406655, 0.0002593961
 217836164, -0.003075696, 0.01832611, -0.0003808917, 0.0002593961
 217936124, 0.0001609108, 0.01880407, -0.0002179215, 0.0002593961
 218036084, 0.003713359, 0.01906664, -0.0003502053, 0.0002593961
 218136044, 0.00785423, 0.01930049, -0.0003993284, 0.0002593961
 218236004, 0.01233268, 0.01935066, -4.642894E-05, 0.0002593961
 218335964, 0.01717378, 0.01915624, -0.0001551913, 0.0002593961
 218435924, 0.02209363, 0.01920122, -0.0001266879, 0.0002593961
 218535884, 0.02714566, 0.01905416, -0.0002015249, 0.0002593961
