TimeUS,CGpN,CGpE,CGpD,CGpe,PGpN,PGpE,PGpD,PGpe
 76940878, 0, 0, 0, 2.5, 0, 0, 0, 0
 77020846, 0, 0, 0, 2.5, 0, 0, 0, 2.5
 77220766, 0, 0, 0, 2.5, 0, 0, 0, 2.5
 77420686, 0, 0, 0, 2.5, 0, 0, 0, 2.5
 77620606, 0, 0, 0, 2.5, 0, 0, 0, 2.5
 77820526, 0, 0, 0, 2.5, 0, 0, 0, 2.5
 78020446, 0, 0, 0, 2.5, 0, 0, 0, 2.5
 78220366, 0, 0, 0, 2.5, 0, 0, 0, 2.5
 78420286, 0, 0, 0, 2.5, 0, 0, 0, 2.5
 78620206, 0, 0, 0, 2.5, 0, 0, 0, 2.5
 78820959, 0, 0, 0, 2.5, 0, 0, 0, 2.5
 79020879, 0, 0, 0, 2.5, 0, 0, 0, 2.5
 79220799, 0, 0, 0, 2.5, 0, 0, 0, 2.5
 79420719, 0, 0, 0, 2.5, 0, 0, 0, 2.5
 79620639, 0, 0, 0, 2.5, 0, 0, 0, 2.5
 79820559, 0, 0, 0, 2.5, 0, 0, 0, 2.5
 80020479, 0, 0, 0, 2.5, 0, 0, 0, 2.5
 80220399, 0, 0, 0, 2.5, 0, 0, 0, 2.5
 80420319, 0, 0, 0, 2.5, 0, 0, 0, 2.5
 80620239, 0, 0, 0, 2.5, 0, 0, 0, 2.5
 80820159, 0, 0, 0, 2.5, 0, 0, 0, 2.5
 81020912, 0, 0, 0, 2.5, 0, 0, 0, 2.5
 81220832, 0, 0, 0, 2.5, 0, 0, 0, 2.5
 81420752, 0, 0, 0, 2.5, 0, 0, 0, 2.5
 81620672, 0, 0, 0, 2.5, 0, 0, 0, 2.5
 81820592, 0, 0, 0, 2.5, 0, 0, 0, 2.5
 82020512, 0, 0, 0, 2.5, 0, 0, 0, 2.5
 82220432, 0, 0, 0, 2.5, 0, 0, 0, 2.5
 82420352, 0, 0, 0, 2.5, 0, 0, 0, 2.5
 82620272, 0, 0, 0, 2.5, 0, 0, 0, 2.5
 82820192, 0, 0, 0, 2.5, 0, 0, 0, 2.5
 83020945, 0, 0, 0, 2.5, 0, 0, 0, 2.5
 83220865, 0, 0, 0, 2.5, 0, 0, 0, 2.5
 83420785, 0, 0, 0, 2.5, 0, 0, 0, 2.5
 83620705, 0, 0, 0, 2.5, 0, 0, 0, 2.5
 83820625, 0, 0, 0, 2.5, 0, 0, 0, 2.5
 84020545, 0, 0, 0, 2.5, 0, 0, 0, 2.5
 84220465, 0, 0, 0, 2.5, 0, 0, 0, 2.5
 84420385, 0, 0, 0, 2.5, 0, 0, 0, 2.5
 84620305, 0, 0, 0, 2.5, 0, 0, 0, 2.5
 84820225, 0, 0, 0, 2.5, 0, 0, 0, 2.5
 85020145, 0, 0, 0, 2.5, 0, 0, 0, 2.5
 85220898, 0, 0, 0, 2.5, 0, 0, 0, 2.5
 85420818, 0, 0, 0, 2.5, 0, 0, 0, 2.5
 85620738, 0, 0, 0, 2.5, 0, 0, 0, 2.5
 85820658, 0, 0, 0, 2.5, 0, 0, 0, 2.5
 86020578, 0, 0, 0, 2.5, 0, 0, 0, 2.5
 86220498, 0, 0, 0, 2.5, 0, 0, 0, 2.5
 86420418, 0, 0, 0, 2.5, 0, 0, 0, 2.5
 86620338, 0, 0, 0, 2.5, 0, 0, 0, 2.5
 86820258, 0, 0, 0, 2.5, 0, 0, 0, 2.5
 87020178, 0, 0, 0, 2.5, 0, 0, 0, 2.5
 87220931, 0, 0, 0, 2.5, 0, 0, 0, 2.5
 87420851, 0, 0, 0, 2.5, 0, 0, 0, 2.5
 87620771, 0, 0, 0, 2.5, 0, 0, 0, 2.5
 87820691, 0, 0, 0, 2.5, 0, 0, 0, 2.5
 88020611, 0, 0, 0, 2.5, 0, 0, 0, 2.5
 88220531, 0, 0, 0, 2.5, 0, 0, 0, 2.5
 88420451, 0, 0, 0, 2.5, 0, 0, 0, 2.5
 88620371, 0, 0, 0, 2.5, 0, 0, 0, 2.5
 88820291, 0, 0, 0, 2.5, 0, 0, 0, 2.5
 89020211, 0, 0, 0, 2.5, 0, 0, 0, 2.5
 89220964, 0, 0, 0, 2.5, 0, 0, 0, 2.5
 89420884, 0, 0, 0, 2.5, 0, 0, 0, 2.5
 89620804, 0, 0, 0, 2.5, 0, 0, 0, 2.5
 89820724, 0, 0, 0, 2.5, 0, 0, 0, 2.5
 90020644, 0, 0, 0, 2.5, 0, 0, 0, 2.5
 90220564, 0, 0, 0, 2.5, 0, 0, 0, 2.5
 90420484, 0, 0, 0, 2.5, 0, 0, 0, 2.5
 90620404, 0, 0, 0, 2.5, 0, 0, 0, 2.5
 90820324, 0, 0, 0, 2.5, 0, 0, 0, 2.5
 91020244, 0, 0, 0, 2.5, 0, 0, 0, 2.5
 91220164, 0, 0, 0, 2.5, 0, 0, 0, 2.5
 91420917, 0, 0, 0, 2.5, 0, 0, 0, 2.5
 91620837, 0, 0, 0, 2.5, 0, 0, 0, 2.5
 91820757, 0, 0, 0, 2.5, 0, 0, 0, 2.5
 92020677, 0, 0, 0, 2.5, 0, 0, 0, 2.5
 92220597, 0, 0, 0, 2.5, 0, 0, 0, 2.5
 92420517, 0, 0, 0, 2.5, 0, 0, 0, 2.5
 92620437, 0, 0, 0, 2.5, 0, 0, 0, 2.5
 92820357, 0, 0, 0, 2.5, 0, 0, 0, 2.5
 93020277, 0, 0, 0, 2.5, 0, 0, 0, 2.5
 93220197, 0, 0, 0, 2.5, 0, 0, 0, 2.5
 93420950, 0, 0, 0, 2.5, 0, 0, 0, 2.5
 93620870, 0, 0, 0, 2.5, 0, 0, 0, 2.5
 93820790, 0, 0, 0, 2.5, 0, 0, 0, 2.5
 94020710, 0, 0, 0, 2.5, 0, 0, 0, 2.5
 94220630, 0, 0, 0, 2.5, 0, 0, 0, 2.5
 94420550, 0, 0, 0, 2.5, 0, 0, 0, 2.5
 94620470, 0, 0, 0, 2.5, 0, 0, 0, 2.5
 94820390, 0, 0, 0, 2.5, 0, 0, 0, 2.5
 95020310, 0, 0, 0, 2.5, 0, 0, 0, 2.5
 95220230, 0, 0, 0, 2.5, 0, 0, 0, 2.5
 95420150, 0, 0, 0, 2.5, 0, 0, 0, 2.5
 95620903, 0, 0, 0, 2.5, 0, 0, 0, 2.5
 95820823, 0, 0, 0, 2.5, 0, 0, 0, 2.5
 96020743, 0, 0, 0, 2.5, 0, 0, 0, 2.5
 96220663, 0, 0, 0, 2.5, 0, 0, 0, 2.5
 96420583, 0, 0, 0, 2.5, 0, 0, 0, 2.5
 96620503, 0, 0, 0, 2.5, 0, 0, 0, 2.5
 96820423, 0, 0, 0, 2.5, 0, 0, 0, 2.5
 97020343, 0, 0, 0, 2.5, 0, 0, 0, 2.5
 97220263, 0, 0, 0, 2.5, 0, 0, 0, 2.5
 97420183, 0, 0, 0, 2.5, 0, 0, 0, 2.5
 97620936, 0, 0, 0, 2.5, 0, 0, 0, 2.5
 97820856, 0, 0, 0, 2.5, 0, 0, 0, 2.5
 98020776, 0, 0, 0, 2.5, 0, 0, 0, 2.5
 98220696, 0, 0, 0, 2.5, 0, 0, 0, 2.5
 98420616, 0, 0, 0, 2.5, 0, 0, 0, 2.5
 98620536, 0, 0, 0, 2.5, 0, 0, 0, 2.5
 98820456, 0, 0, 0, 2.5, 0, 0, 0, 2.5
 99020376, 0, 0, 0, 2.5, 0, 0, 0, 2.5
 99220296, 0, 0, 0, 2.5, 0, 0, 0, 2.5
 99420216, 0, 0, 0, 2.5, 0, 0, 0, 2.5
 99620969, 0, 0, 0, 2.5, 0, 0, 0, 2.5
 99820889, 0, 0, 0, 2.5, 0, 0, 0, 2.5
 100020809, 0, 0, 0, 2.5, 0, 0, 0, 2.5
 100220729, 0, 0, 0, 2.5, 0, 0, 0, 2.5
 100420649, 0, 0, 0, 2.5, 0, 0, 0, 2.5
 100620569, 0, 0, 0, 2.5, 0, 0, 0, 2.5
 100820489, 0, 0, 0, 2.5, 0, 0, 0, 2.5
 101020409, 0, 0, 0, 2.5, 0, 0, 0, 2.5
 101220329, 0, 0, 0, 2.5, 0, 0, 0, 2.5
 101420249, 0, 0, 0, 2.5, 0, 0, 0, 2.5
 101620169, 0, 0, 0, 2.5, 0, 0, 0, 2.5
 101820922, 0, 0, 0, 2.5, 0, 0, 0, 2.5
 102020842, 0, 0, 0, 2.5, 0, 0, 0, 2.5
 102220762, 0, 0, 0, 2.5, 0, 0, 0, 2.5
 102420682, 0, 0, 0, 2.5, 0, 0, 0, 2.5
 102620602, 0, 0, 0, 2.5, 0, 0, 0, 2.5
 102820522, 0, 0, 0, 2.5, 0, 0, 0, 2.5
 103020442, 0, 0, 0, 2.5, 0, 0, 0, 2.5
 103220362, 0, 0, 0, 2.5, 0, 0, 0, 2.5
 103420282, 0, 0, 0, 2.5, 0, 0, 0, 2.5
 103620202, 0, 0, 0, 2.5, 0, 0, 0, 2.5
 103820955, 0, 0, 0, 2.5, 0, 0, 0, 2.5
 104020875, 0, 0, 0, 2.5, 0, 0, 0, 2.5
 104220795, 0, 0, 0, 2.5, 0, 0, 0, 2.5
 104420715, 0, 0, 0, 2.5, 0, 0, 0, 2.5
 104620635, 0, 0, 0, 2.5, 0, 0, 0, 2.5
 104820555, 0, 0, 0, 2.5, 0, 0, 0, 2.5
 105020475, 0, 0, 0, 2.5, 0, 0, 0, 2.5
 105220395, 0, 0, 0, 2.5, 0, 0, 0, 2.5
 105420315, 0, 0, 0, 2.5, 0, 0, 0, 2.5
 105620235, 0, 0, 0, 2.5, 0, 0, 0, 2.5
 105820155, 0, 0, 0, 2.5, 0, 0, 0, 2.5
 106020908, 0, 0, 0, 2.5, 0, 0, 0, 2.5
 106220828, 0, 0, 0, 2.5, 0, 0, 0, 2.5
 106420748, 0, 0, 0, 2.5, 0, 0, 0, 2.5
 106620668, 0, 0, 0, 2.5, 0, 0, 0, 2.5
 106820588, 0, 0, 0, 2.5, 0, 0, 0, 2.5
 107020508, 0, 0, 0, 2.5, 0, 0, 0, 2.5
 107220428, 0, 0, 0, 2.5, 0, 0, 0, 2.5
 107420348, 0, 0, 0, 2.5, 0, 0, 0, 2.5
 107620268, 0, 0, 0, 2.5, 0, 0, 0, 2.5
 107820188, 0, 0, 0, 2.5, 0, 0, 0, 2.5
 108020941, 0, 0, 0, 2.5, 0, 0, 0, 2.5
 108220861, 0, 0, 0, 2.5, 0, 0, 0, 2.5
 108420781, 0, 0, 0, 2.5, 0, 0, 0, 2.5
 108620701, 0, 0, 0, 2.5, 0, 0, 0, 2.5
 108820621, 0, 0, 0, 2.5, 0, 0, 0, 2.5
 109020541, 0, 0, 0, 2.5, 0, 0, 0, 2.5
 109220461, 0, 0, 0, 2.5, 0, 0, 0, 2.5
 109420381, 0, 0, 0, 2.5, 0, 0, 0, 2.5
 109620301, 0, 0, 0, 2.5, 0, 0, 0, 2.5
 109820221, 0, 0, 0, 2.5, 0, 0, 0, 2.5
 110020974, 0, 0, 0, 2.5, 0, 0, 0, 2.5
 110220894, 0, 0, 0, 2.5, 0, 0, 0, 2.5
 110420814, 0, 0, 0, 2.5, 0, 0, 0, 2.5
 110620734, 0, 0, 0, 2.5, 0, 0, 0, 2.5
 110820654, 0, 0, 0, 2.5, 0, 0, 0, 2.5
 111020574, 0, 0, 0, 2.5, 0, 0, 0, 2.5
 111220494, 0, 0, 0, 2.5, 0, 0, 0, 2.5
 111420414, 0, 0, 0, 2.5, 0, 0, 0, 2.5
 111620334, 0, 0, 0, 2.5, 0, 0, 0, 2.5
 111820254, 0, 0, 0, 2.5, 0, 0, 0, 2.5
 112020174, 0, 0, 0, 2.5, 0, 0, 0, 2.5
 112220927, 0, 0, 0, 2.5, 0, 0, 0, 2.5
 112420847, 0, 0, 0, 2.5, 0, 0, 0, 2.5
 112620767, 0, 0, 0, 2.5, 0, 0, 0, 2.5
 112820687, 0, 0, 0, 2.5, 0, 0, 0, 2.5
 113020607, 0, 0, 0, 2.5, 0, 0, 0, 2.5
 113220527, 0, 0, 0, 2.5, 0, 0, 0, 2.5
 113420447, 0, 0, 0, 2.5, 0, 0, 0, 2.5
 113620367, 0, 0, 0, 2.5, 0, 0, 0, 2.5
 113820287, 0, 0, 0, 2.5, 0, 0, 0, 2.5
 114020207, 0, 0, 0, 2.5, 0, 0, 0, 2.5
 114220960, 0, 0, 0, 2.5, 0, 0, 0, 2.5
 114420880, 0, 0, 0, 2.5, 0, 0, 0, 2.5
 114620800, 0, 0, 0, 2.5, 0, 0, 0, 2.5
 114820720, 0, 0, 0, 2.5, 0, 0, 0, 2.5
 115020640, 0, 0, 0, 2.5, 0, 0, 0, 2.5
 115220560, 0, 0, 0, 2.5, 0, 0, 0, 2.5
 115420480, 0, 0, 0, 2.5, 0, 0, 0, 2.5
 115620400, 0, 0, 0, 2.5, 0, 0, 0, 2.5
 115820320, 0, 0, 0, 2.5, 0, 0, 0, 2.5
 116020240, 0, 0, 0, 2.5, 0, 0, 0, 2.5
 116220160, 0, 0, 0, 2.5, 0, 0, 0, 2.5
 116420913, 0, 0, 0, 2.5, 0, 0, 0, 2.5
 116620833, 0, 0, 0, 2.5, 0, 0, 0, 2.5
 116820753, 0, 0, 0, 2.5, 0, 0, 0, 2.5
 117020673, 0, 0, 0, 2.5, 0, 0, 0, 2.5
 117220593, 0, 0, 0, 2.5, 0, 0, 0, 2.5
 117420513, 0, 0, 0, 2.5, 0, 0, 0, 2.5
 117620433, 0, 0, 0, 2.5, 0, 0, 0, 2.5
 117820353, 0, 0, 0, 2.5, 0, 0, 0, 2.5
 118020273, 0, 0, 0, 2.5, 0, 0, 0, 2.5
 118220193, 0, 0, 0, 2.5, 0, 0, 0, 2.5
 118420946, 0, 0, 0, 2.5, 0, 0, 0, 2.5
 118620866, 0, 0, 0, 2.5, 0, 0, 0, 2.5
 118820786, 0, 0, 0, 2.5, 0, 0, 0, 2.5
 119020706, 0, 0, 0, 2.5, 0, 0, 0, 2.5
 119220626, 0, 0, 0, 2.5, 0, 0, 0, 2.5
 119420546, 0, 0, 0, 2.5, 0, 0, 0, 2.5
 119620466, 0, 0, 0, 2.5, 0, 0, 0, 2.5
 119820386, 0, 0, 0, 2.5, 0, 0, 0, 2.5
 120020306, 0, 0, 0, 2.5, 0, 0, 0, 2.5
 120220226, 0, 0, 0, 2.5, 0, 0, 0, 2.5
 120420146, 0, 0, 0, 2.5, 0, 0, 0, 2.5
 120620899, 0, 0, 0, 2.5, 0, 0, 0, 2.5
 120820819, 0, 0, 0, 2.5, 0, 0, 0, 2.5
 121020739, 0, 0, 0, 2.5, 0, 0, 0, 2.5
 121220659, 0, 0, 0, 2.5, 0, 0, 0, 2.5
 121420579, 0, 0, 0, 2.5, 0, 0, 0, 2.5
 121620499, 0, 0, 0, 2.5, 0, 0, 0, 2.5
 121820419, 0, 0, 0, 2.5, 0, 0, 0, 2.5
 122020339, 0, 0, 0, 2.5, 0, 0, 0, 2.5
 122220259, 0, 0, 0, 2.5, 0, 0, 0, 2.5
 122420179, 0, 0, 0, 2.5, 0, 0, 0, 2.5
 122620932, 0, 0, 0, 2.5, 0, 0, 0, 2.5
 122820852, 0, 0, 0, 2.5, 0, 0, 0, 2.5
 123020772, 0, 0, 0, 2.5, 0, 0, 0, 2.5
 123220692, 0, 0, 0, 2.5, 0, 0, 0, 2.5
 123420612, 0, 0, 0, 2.5, 0, 0, 0, 2.5
 123620532, 0, 0, 0, 2.5, 0, 0, 0, 2.5
 123820452, 0, 0, 0, 2.5, 0, 0, 0, 2.5
 124020372, 0, 0, 0, 2.5, 0, 0, 0, 2.5
 124220292, 0, 0, 0, 2.5, 0, 0, 0, 2.5
 124420212, 0, 0, 0, 2.5, 0, 0, 0, 2.5
 124620965, 0, 0, 0, 2.5, 0, 0, 0, 2.5
 124820885, 0, 0, 0, 2.5, 0, 0, 0, 2.5
 125020805, 0, 0, 0, 2.5, 0, 0, 0, 2.5
 125220725, 0, 0, 0, 2.5, 0, 0, 0, 2.5
 125420645, 0, 0, 0, 2.5, 0, 0, 0, 2.5
 125620565, 0, 0, 0, 2.5, 0, 0, 0, 2.5
 125820485, 0, 0, 0, 2.5, 0, 0, 0, 2.5
 126020405, 0, 0, 0, 2.5, 0, 0, 0, 2.5
 126220325, 0, 0, 0, 2.5, 0, 0, 0, 2.5
 126420245, 0, 0, 0, 2.5, 0, 0, 0, 2.5
 126620165, 0, 0, 0, 2.5, 0, 0, 0, 2.5
 126820918, 0, 0, 0, 2.5, 0, 0, 0, 2.5
 127020838, 0, 0, 0, 2.5, 0, 0, 0, 2.5
 127220758, 0, 0, 0, 2.5, 0, 0, 0, 2.5
 127420678, 0, 0, 0, 2.5, 0, 0, 0, 2.5
 127620598, 0, 0, 0, 2.5, 0, 0, 0, 2.5
 127820518, 0, 0, 0, 2.5, 0, 0, 0, 2.5
 128020438, 0, 0, 0, 2.5, 0, 0, 0, 2.5
 128220358, 0, 0, 0, 2.5, 0, 0, 0, 2.5
 128420278, 0, 0, 0, 2.5, 0, 0, 0, 2.5
 128620198, 0, 0, 0, 2.5, 0, 0, 0, 2.5
 128820951, 0, 0, 0, 2.5, 0, 0, 0, 2.5
 129020871, 0, 0, 0, 2.5, 0, 0, 0, 2.5
 129220791, 0, 0, 0, 2.5, 0, 0, 0, 2.5
 129420711, 0, 0, 0, 2.5, 0, 0, 0, 2.5
 129620631, 0, 0, 0, 2.5, 0, 0, 0, 2.5
 129820551, 0, 0, 0, 2.5, 0, 0, 0, 2.5
 130020471, 0, 0, 0, 2.5, 0, 0, 0, 2.5
 130220391, 0, 0, 0, 2.5, 0, 0, 0, 2.5
 130420311, 0, 0, 0, 2.5, 0, 0, 0, 2.5
 130620231, 0, 0, 0, 2.5, 0, 0, 0, 2.5
 130820151, 0, 0, 0, 2.5, 0, 0, 0, 2.5
 131020904, 0, 0, 0, 2.5, 0, 0, 0, 2.5
 131220824, 0, 0, 0, 2.5, 0, 0, 0, 2.5
 131420744, 0, 0, 0, 2.5, 0, 0, 0, 2.5
 131620664, 0, 0, 0, 2.5, 0, 0, 0, 2.5
 131820584, 0, 0, 0, 2.5, 0, 0, 0, 2.5
 132020504, 0, 0, 0, 2.5, 0, 0, 0, 2.5
 132220424, 0, 0, 0, 2.5, 0, 0, 0, 2.5
 132420344, 0, 0, 0, 2.5, 0, 0, 0, 2.5
 132620264, 0, 0, 0, 2.5, 0, 0, 0, 2.5
 132820184, 0, 0, 0, 2.5, 0, 0, 0, 2.5
 133020937, 0, 0, 0, 2.5, 0, 0, 0, 2.5
 133220857, 0, 0, 0, 2.5, 0, 0, 0, 2.5
 133420777, 0, 0, 0, 2.5, 0, 0, 0, 2.5
 133620697, 0, 0, 0, 2.5, 0, 0, 0, 2.5
 133820617, 0, 0, 0, 2.5, 0, 0, 0, 2.5
 134020537, 0, 0, 0, 2.5, 0, 0, 0, 2.5
 134220457, 0, 0, 0, 2.5, 0, 0, 0, 2.5
 134420377, 0, 0, 0, 2.5, 0, 0, 0, 2.5
 134620297, 0, 0, 0, 2.5, 0, 0, 0, 2.5
 134820217, 0, 0, 0, 2.5, 0, 0, 0, 2.5
 135020970, 0, 0, 0, 2.5, 0, 0, 0, 2.5
 135220890, 0, 0, 0, 2.5, 0, 0, 0, 2.5
 135420810, 0, 0, 0, 2.5, 0, 0, 0, 2.5
 135620730, 0, 0, 0, 2.5, 0, 0, 0, 2.5
 135820650, 0, 0, 0, 2.5, 0, 0, 0, 2.5
 136020570, 0, 0, 0, 2.5, 0, 0, 0, 2.5
 136220490, 0, 0, 0, 2.5, 0, 0, 0, 2.5
 136420410, 0, 0, 0, 2.5, 0, 0, 0, 2.5
 136620330, 0, 0, 0, 2.5, 0, 0, 0, 2.5
 136820250, 0, 0, 0, 2.5, 0, 0, 0, 2.5
 137020170, 0, 0, 0, 2.5, 0, 0, 0, 2.5
 137220923, 0, 0, 0, 2.5, 0, 0, 0, 2.5
 137420843, 0, 0, 0, 2.5, 0, 0, 0, 2.5
 137620763, 0, 0, 0, 2.5, 0, 0, 0, 2.5
 137820683, 0, 0, 0, 2.5, 0, 0, 0, 2.5
 138020603, 0, 0, 0, 2.5, 0, 0, 0, 2.5
 138220523, 0, 0, 0, 2.5, 0, 0, 0, 2.5
 138420443, 0, 0, 0, 2.5, 0, 0, 0, 2.5
 138620363, 0, 0, 0, 2.5, 0, 0, 0, 2.5
 138820283, 0, 0, 0, 2.5, 0, 0, 0, 2.5
 139020203, 0, 0, 0, 2.5, 0, 0, 0, 2.5
 139220956, 0, 0, 0, 2.5, 0, 0, 0, 2.5
 139420876, 0, 0, 0, 2.5, 0, 0, 0, 2.5
 139620796, 0, 0, 0, 2.5, 0, 0, 0, 2.5
 139820716, 0, 0, 0, 2.5, 0, 0, 0, 2.5
 140020636, 0, 0, 0, 2.5, 0, 0, 0, 2.5
 140220556, 0, 0, 0, 2.5, 0, 0, 0, 2.5
 140420476, 0, 0, 0, 2.5, 0, 0, 0, 2.5
 140620396, 0, 0, 0, 2.5, 0, 0, 0, 2.5
 140820316, 0.083, -0.008, 0, 2.5, 0, 0, 0, 2.5
 141020236, 0.539, -0.056, 0.005, 2.5, 0.083, -0.008, 0, 2.5
 141220156, 1.469, -0.154, 0.024, 2.5, 0.539, -0.056, 0.005, 2.5
 141420909, 2.863, -0.301, 0.056, 2.5, 1.469, -0.154, 0.024, 2.5
 141620829, 4.68, -0.491, 0.1, 2.5, 2.863, -0.301, 0.056, 2.5
 141820749, 6.797, -0.714, 0.155, 2.5, 4.68, -0.491, 0.1, 2.5
 142020669, 8.873, -0.932, 0.215, 2.5, 6.797, -0.714, 0.155, 2.5
 142220589, 10.75, -1.129, 0.271, 2.5, 8.873, -0.932, 0.215, 2.5
 142420509, 12.401, -1.306, 0.23, 2.5, 10.75, -1.129, 0.271, 2.5
 142620429, 13.834, -1.454, 0.229, 2.5, 12.401, -1.306, 0.23, 2.5
 142820349, 15.407, -1.618, 0.043, 2.5, 13.834, -1.454, 0.229, 2.5
 143020269, 17.182, -1.811, -1.833, 2.5, 15.407, -1.618, 0.043, 2.5
 143220189, 18.581, -1.975, -3.186, 2.5, 17.182, -1.811, -1.833, 2.5
 143420942, 19.903, -2.126, -3.473, 2.5, 18.581, -1.975, -3.186, 2.5
 143620862, 21.197, -2.28, -3.289, 2.5, 19.903, -2.126, -3.473, 2.5
 143820782, 22.322, -2.391, -3.404, 2.5, 21.197, -2.28, -3.289, 2.5
 144020702, 23.235, -2.503, -3.932, 2.5, 22.322, -2.391, -3.404, 2.5
 144220622, 23.956, -2.609, -4.548, 2.5, 23.235, -2.503, -3.932, 2.5
 144420542, 24.595, -2.715, -4.897, 2.5, 23.956, -2.609, -4.548, 2.5
 144620462, 25.171, -2.812, -5.029, 2.5, 24.595, -2.715, -4.897, 2.5
 144820382, 25.677, -2.871, -5.138, 2.5, 25.171, -2.812, -5.029, 2.5
 145020302, 26.101, -2.933, -5.292, 2.5, 25.677, -2.871, -5.138, 2.5
 145220222, 26.467, -2.999, -5.408, 2.5, 26.101, -2.933, -5.292, 2.5
 145420975, 26.718, -3.045, -5.649, 2.5, 26.467, -2.999, -5.408, 2.5
 145620895, 26.831, -3.079, -6.219, 2.5, 26.718, -3.045, -5.649, 2.5
 145820815, 26.933, -3.089, -6.602, 2.5, 26.831, -3.079, -6.219, 2.5
 146020735, 27.083, -3.114, -6.675, 2.5, 26.933, -3.089, -6.602, 2.5
 146220655, 27.24, -3.123, -6.622, 2.5, 27.083, -3.114, -6.675, 2.5
 146420575, 27.375, -3.155, -6.592, 2.5, 27.24, -3.123, -6.622, 2.5
 146620495, 27.5, -3.19, -6.556, 2.5, 27.375, -3.155, -6.592, 2.5
 146820415, 27.618, -3.218, -6.487, 2.5, 27.5, -3.19, -6.556, 2.5
 147020335, 27.765, -3.238, -6.254, 2.5, 27.618, -3.218, -6.487, 2.5
 147220255, 27.926, -3.261, -5.987, 2.5, 27.765, -3.238, -6.254, 2.5
 147420175, 28.061, -3.315, -5.838, 2.5, 27.926, -3.261, -5.987, 2.5
 147620928, 28.164, -3.349, -5.785, 2.5, 28.061, -3.315, -5.838, 2.5
 147820848, 28.219, -3.368, -5.883, 2.5, 28.164, -3.349, -5.785, 2.5
 148020768, 28.255, -3.382, -5.959, 2.5, 28.219, -3.368, -5.883, 2.5
 148220688, 28.256, -3.387, -5.953, 2.5, 28.255, -3.382, -5.959, 2.5
 148420608, 28.182, -3.372, -5.829, 2.5, 28.256, -3.387, -5.953, 2.5
 148620528, 28.084, -3.372, -5.526, 2.5, 28.182, -3.372, -5.829, 2.5
 148820448, 28.162, -3.34, -4.195, 2.5, 28.084, -3.372, -5.526, 2.5
 149020368, 28.262, -3.114, -2.768, 2.5, 28.162, -3.34, -4.195, 2.5
 149220288, 28.283, -2.862, -1.972, 2.5, 28.262, -3.114, -2.768, 2.5
 149420208, 28.288, -2.613, -1.817, 2.5, 28.283, -2.862, -1.972, 2.5
 149620961, 28.288, -2.411, -1.811, 2.5, 28.288, -2.613, -1.817, 2.5
 149820881, 28.298, -2.254, -1.637, 2.5, 28.288, -2.411, -1.811, 2.5
 150020801, 28.343, -2.144, -1.249, 2.5, 28.298, -2.254, -1.637, 2.5
 150220721, 28.381, -2.026, -0.8560001, 2.5, 28.343, -2.144, -1.249, 2.5
 150420641, 28.33, -1.862, -0.6670001, 2.5, 28.381, -2.026, -0.8560001, 2.5
 150620561, 27.893, -1.636, -0.9620001, 2.5, 28.33, -1.862, -0.6670001, 2.5
 150820481, 27.199, -1.405, -1.342, 2.5, 27.893, -1.636, -0.9620001, 2.5
 151020401, 26.659, -1.264, -1.177, 2.5, 27.199, -1.405, -1.342, 2.5
 151220321, 26.33, -1.212, -0.479, 2.5, 26.659, -1.264, -1.177, 2.5
 151420241, 26.116, -1.174, 0.251, 2.5, 26.33, -1.212, -0.479, 2.5
 151620161, 25.964, -1.101, 0.705, 2.5, 26.116, -1.174, 0.251, 2.5
 151820914, 25.863, -1.03, 0.923, 2.5, 25.964, -1.101, 0.705, 2.5
 152020834, 25.811, -0.9720001, 1.08, 2.5, 25.863, -1.03, 0.923, 2.5
 152220754, 25.797, -0.8880001, 1.2, 2.5, 25.811, -0.9720001, 1.08, 2.5
 152420674, 25.821, -0.8060001, 1.278, 2.5, 25.797, -0.8880001, 1.2, 2.5
 152620594, 25.847, -0.757, 1.379, 2.5, 25.821, -0.8060001, 1.278, 2.5
 152820514, 25.889, -0.717, 1.562, 2.5, 25.847, -0.757, 1.379, 2.5
 153020434, 25.953, -0.6720001, 1.601, 2.5, 25.889, -0.717, 1.562, 2.5
 153220354, 26.014, -0.6300001, 1.512, 2.5, 25.953, -0.6720001, 1.601, 2.5
 153420274, 26.062, -0.586, 1.404, 2.5, 26.014, -0.6300001, 1.512, 2.5
 153620194, 26.117, -0.524, 1.397, 2.5, 26.062, -0.586, 1.404, 2.5
 153820947, 26.164, -0.464, 1.454, 2.5, 26.117, -0.524, 1.397, 2.5
 154020867, 26.214, -0.413, 1.48, 2.5, 26.164, -0.464, 1.454, 2.5
 154220787, 26.275, -0.396, 1.508, 2.5, 26.214, -0.413, 1.48, 2.5
 154420707, 26.337, -0.382, 1.437, 2.5, 26.275, -0.396, 1.508, 2.5
 154620627, 26.406, -0.374, 1.327, 2.5, 26.337, -0.382, 1.437, 2.5
 154820547, 26.466, -0.359, 1.187, 2.5, 26.406, -0.374, 1.327, 2.5
 155020467, 26.524, -0.342, 1.189, 2.5, 26.466, -0.359, 1.187, 2.5
 155220387, 26.584, -0.321, 1.224, 2.5, 26.524, -0.342, 1.189, 2.5
 155420307, 26.649, -0.31, 1.206, 2.5, 26.584, -0.321, 1.224, 2.5
 155620227, 26.71, -0.299, 1.177, 2.5, 26.649, -0.31, 1.206, 2.5
 155820147, 26.773, -0.286, 1.131, 2.5, 26.71, -0.299, 1.177, 2.5
 156020900, 26.838, -0.275, 1.08, 2.5, 26.773, -0.286, 1.131, 2.5
 156220820, 26.894, -0.262, 1.027, 2.5, 26.838, -0.275, 1.08, 2.5
 156420740, 26.955, -0.245, 0.956, 2.5, 26.894, -0.262, 1.027, 2.5
 156620660, 27.015, -0.233, 0.975, 2.5, 26.955, -0.245, 0.956, 2.5
 156820580, 27.084, -0.214, 1.008, 2.5, 27.015, -0.233, 0.975, 2.5
 157020500, 27.152, -0.208, 0.872, 2.5, 27.084, -0.214, 1.008, 2.5
 157220420, 27.21, -0.2, 0.7410001, 2.5, 27.152, -0.208, 0.872, 2.5
 157420340, 27.246, -0.187, 0.7360001, 2.5, 27.21, -0.2, 0.7410001, 2.5
 157620260, 27.3, -0.158, 0.723, 2.5, 27.246, -0.187, 0.7360001, 2.5
 157820180, 27.351, -0.127, 0.694, 2.5, 27.3, -0.158, 0.723, 2.5
 158020933, 27.398, -0.113, 0.712, 2.5, 27.351, -0.127, 0.694, 2.5
 158220853, 27.457, -0.112, 0.747, 2.5, 27.398, -0.113, 0.712, 2.5
 158420773, 27.508, -0.11, 0.6900001, 2.5, 27.457, -0.112, 0.747, 2.5
 158620693, 27.561, -0.105, 0.59, 2.5, 27.508, -0.11, 0.6900001, 2.5
 158820613, 27.617, -0.09900001, 0.464, 2.5, 27.561, -0.105, 0.59, 2.5
 159020533, 27.659, -0.124, 0.408, 2.5, 27.617, -0.09900001, 0.464, 2.5
 159220453, 27.69, -0.141, 0.389, 2.5, 27.659, -0.124, 0.408, 2.5
 159420373, 27.711, -0.149, 0.314, 2.5, 27.69, -0.141, 0.389, 2.5
 159620293, 27.732, -0.165, 0.204, 2.5, 27.711, -0.149, 0.314, 2.5
 159820213, 27.758, -0.188, 0.216, 2.5, 27.732, -0.165, 0.204, 2.5
 160020966, 27.787, -0.199, 0.273, 2.5, 27.758, -0.188, 0.216, 2.5
 160220886, 27.818, -0.203, 0.263, 2.5, 27.787, -0.199, 0.273, 2.5
 160420806, 27.848, -0.207, 0.223, 2.5, 27.818, -0.203, 0.263, 2.5
 160620726, 27.886, -0.194, 0.203, 2.5, 27.848, -0.207, 0.223, 2.5
 160820646, 27.927, -0.193, 0.187, 2.5, 27.886, -0.194, 0.203, 2.5
 161020566, 27.955, -0.199, 0.074, 2.5, 27.927, -0.193, 0.187, 2.5
 161220486, 27.969, -0.182, 0.08000001, 2.5, 27.955, -0.199, 0.074, 2.5
 161420406, 27.991, -0.171, 0.159, 2.5, 27.969, -0.182, 0.08000001, 2.5
 161620326, 28.014, -0.164, 0.164, 2.5, 27.991, -0.171, 0.159, 2.5
 161820246, 28.044, -0.158, 0.2, 2.5, 28.014, -0.164, 0.164, 2.5
 162020166, 28.085, -0.171, 0.164, 2.5, 28.044, -0.158, 0.2, 2.5
 162220919, 28.118, -0.203, 0.107, 2.5, 28.085, -0.171, 0.164, 2.5
 162420839, 28.151, -0.206, 0.15, 2.5, 28.118, -0.203, 0.107, 2.5
 162620759, 28.195, -0.218, 0.14, 2.5, 28.151, -0.206, 0.15, 2.5
 162820679, 28.232, -0.235, 0.085, 2.5, 28.195, -0.218, 0.14, 2.5
 163020599, 28.245, -0.24, 0.047, 2.5, 28.232, -0.235, 0.085, 2.5
 163220519, 28.267, -0.246, 0.016, 2.5, 28.245, -0.24, 0.047, 2.5
 163420439, 28.295, -0.25, 0.052, 2.5, 28.267, -0.246, 0.016, 2.5
 163620359, 28.318, -0.233, 0.136, 2.5, 28.295, -0.25, 0.052, 2.5
 163820279, 28.34, -0.219, 0.103, 2.5, 28.318, -0.233, 0.136, 2.5
 164020199, 28.357, -0.206, 0.028, 2.5, 28.34, -0.219, 0.103, 2.5
 164220952, 28.365, -0.161, -0.028, 2.5, 28.357, -0.206, 0.028, 2.5
 164420872, 28.394, -0.13, 0.041, 2.5, 28.365, -0.161, -0.028, 2.5
 164620792, 28.421, -0.134, 0.036, 2.5, 28.394, -0.13, 0.041, 2.5
 164820712, 28.428, -0.118, -0.004, 2.5, 28.421, -0.134, 0.036, 2.5
 165020632, 28.434, -0.107, -0.08400001, 2.5, 28.428, -0.118, -0.004, 2.5
 165220552, 28.453, -0.11, -0.102, 2.5, 28.434, -0.107, -0.08400001, 2.5
 165420472, 28.47, -0.143, -0.027, 2.5, 28.453, -0.11, -0.102, 2.5
 165620392, 28.49, -0.147, 0.056, 2.5, 28.47, -0.143, -0.027, 2.5
 165820312, 28.512, -0.139, 0.02, 2.5, 28.49, -0.147, 0.056, 2.5
 166020232, 28.547, -0.128, -0.079, 2.5, 28.512, -0.139, 0.02, 2.5
 166220152, 28.572, -0.129, -0.143, 2.5, 28.547, -0.128, -0.079, 2.5
 166420905, 28.596, -0.132, -0.144, 2.5, 28.572, -0.129, -0.143, 2.5
 166620825, 28.605, -0.112, -0.07700001, 2.5, 28.596, -0.132, -0.144, 2.5
 166820745, 28.606, -0.111, 0.014, 2.5, 28.605, -0.112, -0.07700001, 2.5
 167020665, 28.616, -0.12, -0.042, 2.5, 28.606, -0.111, 0.014, 2.5
 167220585, 28.632, -0.128, -0.201, 2.5, 28.616, -0.12, -0.042, 2.5
 167420505, 28.629, -0.14, -0.205, 2.5, 28.632, -0.128, -0.201, 2.5
 167620425, 28.634, -0.16, -0.198, 2.5, 28.629, -0.14, -0.205, 2.5
 167820345, 28.644, -0.168, -0.181, 2.5, 28.634, -0.16, -0.198, 2.5
 168020265, 28.647, -0.172, -0.172, 2.5, 28.644, -0.168, -0.181, 2.5
 168220185, 28.653, -0.172, -0.183, 2.5, 28.647, -0.172, -0.172, 2.5
 168420938, 28.662, -0.177, -0.193, 2.5, 28.653, -0.172, -0.183, 2.5
 168620858, 28.667, -0.161, -0.147, 2.5, 28.662, -0.177, -0.193, 2.5
 168820778, 28.671, -0.157, -0.161, 2.5, 28.667, -0.161, -0.147, 2.5
 169020698, 28.683, -0.143, -0.113, 2.5, 28.671, -0.157, -0.161, 2.5
 169220618, 28.697, -0.137, -0.05, 2.5, 28.683, -0.143, -0.113, 2.5
 169420538, 28.707, -0.109, -0.058, 2.5, 28.697, -0.137, -0.05, 2.5
 169620458, 28.713, -0.083, -0.128, 2.5, 28.707, -0.109, -0.058, 2.5
 169820378, 28.724, -0.063, -0.137, 2.5, 28.713, -0.083, -0.128, 2.5
 170020298, 28.734, -0.07, -0.111, 2.5, 28.724, -0.063, -0.137, 2.5
 170220218, 28.732, -0.056, -0.205, 2.5, 28.734, -0.07, -0.111, 2.5
 170420971, 28.739, -0.025, -0.175, 2.5, 28.732, -0.056, -0.205, 2.5
 170620891, 28.753, -0.021, -0.089, 2.5, 28.739, -0.025, -0.175, 2.5
 170820811, 28.756, -0.016, -0.064, 2.5, 28.753, -0.021, -0.089, 2.5
 171020731, 28.757, -0.018, -0.039, 2.5, 28.756, -0.016, -0.064, 2.5
 171220651, 28.757, -0.022, -0.07, 2.5, 28.757, -0.018, -0.039, 2.5
 171420571, 28.771, -0.026, -0.068, 2.5, 28.757, -0.022, -0.07, 2.5
 171620491, 28.795, -0.015, -0.117, 2.5, 28.771, -0.026, -0.068, 2.5
 171820411, 28.808, -0.014, -0.126, 2.5, 28.795, -0.015, -0.117, 2.5
 172020331, 28.822, -0.001, -0.135, 2.5, 28.808, -0.014, -0.126, 2.5
 172220251, 28.836, -0.002, -0.129, 2.5, 28.822, -0.001, -0.135, 2.5
 172420171, 28.858, -0.013, -0.148, 2.5, 28.836, -0.002, -0.129, 2.5
 172620924, 28.852, -0.009000001, -0.139, 2.5, 28.858, -0.013, -0.148, 2.5
 172820844, 28.841, 0.01, -0.172, 2.5, 28.852, -0.009000001, -0.139, 2.5
 173020764, 28.846, 0.021, -0.139, 2.5, 28.841, 0.01, -0.172, 2.5
 173220684, 28.845, 0.031, -0.127, 2.5, 28.846, 0.021, -0.139, 2.5
 173420604, 28.856, 0.027, -0.126, 2.5, 28.845, 0.031, -0.127, 2.5
 173620524, 28.861, 0.019, -0.094, 2.5, 28.856, 0.027, -0.126, 2.5
 173820444, 28.873, 0.035, -0.07600001, 2.5, 28.861, 0.019, -0.094, 2.5
 174020364, 28.867, 0.041, -0.137, 2.5, 28.873, 0.035, -0.07600001, 2.5
 174220284, 28.872, 0.035, -0.081, 2.5, 28.867, 0.041, -0.137, 2.5
 174420204, 28.863, 0.028, -0.135, 2.5, 28.872, 0.035, -0.081, 2.5
 174620957, 28.863, 0.039, -0.2, 2.5, 28.863, 0.028, -0.135, 2.5
 174820877, 28.863, 0.063, -0.165, 2.5, 28.863, 0.039, -0.2, 2.5
 175020797, 28.867, 0.083, -0.174, 2.5, 28.863, 0.063, -0.165, 2.5
 175220717, 28.869, 0.09200001, -0.138, 2.5, 28.867, 0.083, -0.174, 2.5
 175420637, 28.874, 0.08400001, -0.123, 2.5, 28.869, 0.09200001, -0.138, 2.5
 175620557, 28.878, 0.08400001, -0.09100001, 2.5, 28.874, 0.08400001, -0.123, 2.5
 175820477, 28.875, 0.068, -0.138, 2.5, 28.878, 0.08400001, -0.09100001, 2.5
 176020397, 28.876, 0.072, -0.183, 2.5, 28.875, 0.068, -0.138, 2.5
 176220317, 28.881, 0.094, -0.133, 2.5, 28.876, 0.072, -0.183, 2.5
 176420237, 28.882, 0.104, -0.1, 2.5, 28.881, 0.094, -0.133, 2.5
 176620157, 28.88, 0.107, -0.146, 2.5, 28.882, 0.104, -0.1, 2.5
 176820910, 28.882, 0.111, -0.08800001, 2.5, 28.88, 0.107, -0.146, 2.5
 177020830, 28.889, 0.085, -0.035, 2.5, 28.882, 0.111, -0.08800001, 2.5
 177220750, 28.896, 0.067, -0.047, 2.5, 28.889, 0.085, -0.035, 2.5
 177420670, 28.905, 0.044, -0.09100001, 2.5, 28.896, 0.067, -0.047, 2.5
 177620590, 28.907, 0.028, -0.058, 2.5, 28.905, 0.044, -0.09100001, 2.5
 177820510, 28.91, -0.002, -0.039, 2.5, 28.907, 0.028, -0.058, 2.5
 178020430, 28.911, -0.013, -0.06, 2.5, 28.91, -0.002, -0.039, 2.5
 178220350, 28.912, -0.018, -0.068, 2.5, 28.911, -0.013, -0.06, 2.5
 178420270, 28.912, -0.03, -0.07700001, 2.5, 28.912, -0.018, -0.068, 2.5
 178620190, 28.918, -0.019, -0.023, 2.5, 28.912, -0.03, -0.07700001, 2.5
 178820943, 28.924, -0.043, -0.001, 2.5, 28.918, -0.019, -0.023, 2.5
 179020863, 28.931, -0.07700001, 0.003, 2.5, 28.924, -0.043, -0.001, 2.5
 179220783, 28.934, -0.074, 0.007, 2.5, 28.931, -0.07700001, 0.003, 2.5
 179420703, 28.937, -0.07, -0.082, 2.5, 28.934, -0.074, 0.007, 2.5
 179620623, 28.934, -0.07700001, -0.111, 2.5, 28.937, -0.07, -0.082, 2.5
 179820543, 28.939, -0.086, -0.082, 2.5, 28.934, -0.07700001, -0.111, 2.5
 180020463, 28.946, -0.097, -0.022, 2.5, 28.939, -0.086, -0.082, 2.5
 180220383, 28.949, -0.094, -0.012, 2.5, 28.946, -0.097, -0.022, 2.5
 180420303, 28.957, -0.07700001, 0.02, 2.5, 28.949, -0.094, -0.012, 2.5
 180620223, 28.965, -0.032, -0.044, 2.5, 28.957, -0.07700001, 0.02, 2.5
 180820976, 28.954, -0.027, -0.094, 2.5, 28.965, -0.032, -0.044, 2.5
 181020896, 28.953, 0.004, -0.094, 2.5, 28.954, -0.027, -0.094, 2.5
 181220816, 28.957, 0.026, -0.047, 2.5, 28.953, 0.004, -0.094, 2.5
 181420736, 28.955, 0.064, 0.035, 2.5, 28.957, 0.026, -0.047, 2.5
 181620656, 28.956, -0.09500001, -0.032, 2.5, 28.955, 0.064, 0.035, 2.5
 181820576, 28.938, -1.016, 0.029, 2.5, 28.956, -0.09500001, -0.032, 2.5
 182020496, 28.927, -2.426, 0.323, 2.5, 28.938, -1.016, 0.029, 2.5
 182220416, 28.885, -4.581, 0.717, 2.5, 28.927, -2.426, 0.323, 2.5
 182420336, 28.639, -7.52, 0.873, 2.5, 28.885, -4.581, 0.717, 2.5
 182620256, 27.759, -11.231, 0.334, 2.5, 28.639, -7.52, 0.873, 2.5
 182820176, 26.35, -14.714, -0.484, 2.5, 27.759, -11.231, 0.334, 2.5
 183020929, 24.841, -17.363, -0.988, 2.5, 26.35, -14.714, -0.484, 2.5
 183220849, 23.293, -19.321, -1.193, 2.5, 24.841, -17.363, -0.988, 2.5
 183420769, 21.777, -20.826, -1.171, 2.5, 23.293, -19.321, -1.193, 2.5
 183620689, 20.307, -22.07, -1.008, 2.5, 21.777, -20.826, -1.171, 2.5
 183820609, 18.827, -23.172, -0.836, 2.5, 20.307, -22.07, -1.008, 2.5
 184020529, 17.355, -24.138, -0.647, 2.5, 18.827, -23.172, -0.836, 2.5
 184220449, 15.842, -25.005, -0.475, 2.5, 17.355, -24.138, -0.647, 2.5
 184420369, 14.249, -25.803, -0.392, 2.5, 15.842, -25.005, -0.475, 2.5
 184620289, 12.694, -26.48, -0.219, 2.5, 14.249, -25.803, -0.392, 2.5
 184820209, 11.197, -27.038, -0.044, 2.5, 12.694, -26.48, -0.219, 2.5
 185020962, 9.609, -27.552, 0.048, 2.5, 11.197, -27.038, -0.044, 2.5
 185220882, 8.047, -27.959, 0.113, 2.5, 9.609, -27.552, 0.048, 2.5
 185420802, 6.598001, -28.252, 0.215, 2.5, 8.047, -27.959, 0.113, 2.5
 185620722, 5.194, -28.464, 0.322, 2.5, 6.598001, -28.252, 0.215, 2.5
 185820642, 3.851, -28.596, 0.43, 2.5, 5.194, -28.464, 0.322, 2.5
 186020562, 2.542, -28.654, 0.507, 2.5, 3.851, -28.596, 0.43, 2.5
 186220482, 1.297, -28.659, 0.554, 2.5, 2.542, -28.654, 0.507, 2.5
 186420402, 0.151, -28.604, 0.582, 2.5, 1.297, -28.659, 0.554, 2.5
 186620322, -0.836, -28.515, 0.657, 2.5, 0.151, -28.604, 0.582, 2.5
 186820242, -1.762, -28.397, 0.737, 2.5, -0.836, -28.515, 0.657, 2.5
 187020162, -2.606, -28.265, 0.8190001, 2.5, -1.762, -28.397, 0.737, 2.5
 187220915, -3.427, -28.125, 0.8280001, 2.5, -2.606, -28.265, 0.8190001, 2.5
 187420835, -4.167, -27.976, 0.813, 2.5, -3.427, -28.125, 0.8280001, 2.5
 187620755, -4.802, -27.836, 0.822, 2.5, -4.167, -27.976, 0.813, 2.5
 187820675, -5.339, -27.704, 0.867, 2.5, -4.802, -27.836, 0.822, 2.5
 188020595, -5.813, -27.585, 0.8380001, 2.5, -5.339, -27.704, 0.867, 2.5
 188220515, -6.202, -27.479, 0.86, 2.5, -5.813, -27.585, 0.8380001, 2.5
 188420435, -6.558, -27.385, 0.818, 2.5, -6.202, -27.479, 0.86, 2.5
 188620355, -6.844, -27.316, 0.8290001, 2.5, -6.558, -27.385, 0.818, 2.5
 188820275, -7.089, -27.264, 0.809, 2.5, -6.844, -27.316, 0.8290001, 2.5
 189020195, -7.263, -27.235, 0.771, 2.5, -7.089, -27.264, 0.809, 2.5
 189220948, -7.375, -27.229, 0.731, 2.5, -7.263, -27.235, 0.771, 2.5
 189420868, -7.439, -27.237, 0.707, 2.5, -7.375, -27.229, 0.731, 2.5
 189620788, -7.459001, -27.257, 0.654, 2.5, -7.439, -27.237, 0.707, 2.5
 189820708, -7.423, -27.303, 0.557, 2.5, -7.459001, -27.257, 0.654, 2.5
 190020628, -7.338, -27.355, 0.523, 2.5, -7.423, -27.303, 0.557, 2.5
 190220548, -7.232, -27.401, 0.47, 2.5, -7.338, -27.355, 0.523, 2.5
 190420468, -7.086, -27.466, 0.442, 2.5, -7.232, -27.401, 0.47, 2.5
 190620388, -6.942, -27.538, 0.39, 2.5, -7.086, -27.466, 0.442, 2.5
 190820308, -6.756001, -27.611, 0.307, 2.5, -6.942, -27.538, 0.39, 2.5
 191020228, -6.546, -27.686, 0.296, 2.5, -6.756001, -27.611, 0.307, 2.5
 191220148, -6.312, -27.755, 0.195, 2.5, -6.546, -27.686, 0.296, 2.5
 191420901, -6.057, -27.829, 0.101, 2.5, -6.312, -27.755, 0.195, 2.5
 191620821, -5.814, -27.899, 0.09200001, 2.5, -6.057, -27.829, 0.101, 2.5
 191820741, -5.581, -27.97, 0.147, 2.5, -5.814, -27.899, 0.09200001, 2.5
 192020661, -5.329, -28.044, 0.151, 2.5, -5.581, -27.97, 0.147, 2.5
 192220581, -5.049, -28.112, 0.053, 2.5, -5.329, -28.044, 0.151, 2.5
 192420501, -4.757, -28.168, -0.018, 2.5, -5.049, -28.112, 0.053, 2.5
 192620421, -4.465, -28.237, -0.041, 2.5, -4.757, -28.168, -0.018, 2.5
 192820341, -4.171, -28.287, -0.086, 2.5, -4.465, -28.237, -0.041, 2.5
 193020261, -3.899, -28.34, -0.108, 2.5, -4.171, -28.287, -0.086, 2.5
 193220181, -3.64, -28.389, -0.134, 2.5, -3.899, -28.34, -0.108, 2.5
 193420934, -3.389, -28.426, -0.166, 2.5, -3.64, -28.389, -0.134, 2.5
 193620854, -3.132, -28.468, -0.165, 2.5, -3.389, -28.426, -0.166, 2.5
 193820774, -2.903, -28.503, -0.123, 2.5, -3.132, -28.468, -0.165, 2.5
 194020694, -2.67, -28.54, -0.085, 2.5, -2.903, -28.503, -0.123, 2.5
 194220614, -2.422, -28.583, -0.138, 2.5, -2.67, -28.54, -0.085, 2.5
 194420534, -2.172, -28.628, -0.208, 2.5, -2.422, -28.583, -0.138, 2.5
 194620454, -1.917, -28.65, -0.217, 2.5, -2.172, -28.628, -0.208, 2.5
 194820374, -1.692, -28.663, -0.255, 2.5, -1.917, -28.65, -0.217, 2.5
 195020294, -1.479, -28.689, -0.298, 2.5, -1.692, -28.663, -0.255, 2.5
 195220214, -1.278, -28.712, -0.267, 2.5, -1.479, -28.689, -0.298, 2.5
 195420967, -1.066, -28.733, -0.283, 2.5, -1.278, -28.712, -0.267, 2.5
 195620887, -0.873, -28.745, -0.338, 2.5, -1.066, -28.733, -0.283, 2.5
 195820807, -0.707, -28.755, -0.311, 2.5, -0.873, -28.745, -0.338, 2.5
 196020727, -0.536, -28.77, -0.322, 2.5, -0.707, -28.755, -0.311, 2.5
 196220647, -0.366, -28.774, -0.306, 2.5, -0.536, -28.77, -0.322, 2.5
 196420567, -0.223, -28.759, -0.303, 2.5, -0.366, -28.774, -0.306, 2.5
 196620487, -0.082, -28.749, -0.337, 2.5, -0.223, -28.759, -0.303, 2.5
 196820407, 0.048, -28.759, -0.32, 2.5, -0.082, -28.749, -0.337, 2.5
 197020327, 0.149, -28.769, -0.348, 2.5, 0.048, -28.759, -0.32, 2.5
 197220247, 0.26, -28.773, -0.311, 2.5, 0.149, -28.769, -0.348, 2.5
 197420167, 0.359, -28.781, -0.318, 2.5, 0.26, -28.773, -0.311, 2.5
 197620920, 0.417, -28.79, -0.256, 2.5, 0.359, -28.781, -0.318, 2.5
 197820840, 0.468, -28.795, -0.238, 2.5, 0.417, -28.79, -0.256, 2.5
 198020760, 0.505, -28.804, -0.224, 2.5, 0.468, -28.795, -0.238, 2.5
 198220680, 0.536, -28.809, -0.28, 2.5, 0.505, -28.804, -0.224, 2.5
 198420600, 0.561, -28.807, -0.291, 2.5, 0.536, -28.809, -0.28, 2.5
 198620520, 0.5930001, -28.806, -0.298, 2.5, 0.561, -28.807, -0.291, 2.5
 198820440, 0.624, -28.815, -0.239, 2.5, 0.5930001, -28.806, -0.298, 2.5
 199020360, 0.6530001, -28.818, -0.216, 2.5, 0.624, -28.815, -0.239, 2.5
 199220280, 0.674, -28.807, -0.314, 2.5, 0.6530001, -28.818, -0.216, 2.5
 199420200, 0.679, -28.797, -0.341, 2.5, 0.674, -28.807, -0.314, 2.5
 199620953, 0.705, -28.777, -0.307, 2.5, 0.679, -28.797, -0.341, 2.5
 199820873, 0.7270001, -28.774, -0.271, 2.5, 0.705, -28.777, -0.307, 2.5
 200020793, 0.716, -28.775, -0.281, 2.5, 0.7270001, -28.774, -0.271, 2.5
 200220713, 0.714, -28.779, -0.229, 2.5, 0.716, -28.775, -0.281, 2.5
 200420633, 0.689, -28.773, -0.168, 2.5, 0.714, -28.779, -0.229, 2.5
 200620553, 0.692, -28.77, -0.201, 2.5, 0.689, -28.773, -0.168, 2.5
 200820473, 0.673, -28.773, -0.267, 2.5, 0.692, -28.77, -0.201, 2.5
 201020393, 0.673, -28.779, -0.259, 2.5, 0.673, -28.773, -0.267, 2.5
 201220313, 0.659, -28.786, -0.113, 2.5, 0.673, -28.779, -0.259, 2.5
 201420233, 0.638, -28.79, -0.153, 2.5, 0.659, -28.786, -0.113, 2.5
 201620153, 0.622, -28.796, -0.197, 2.5, 0.638, -28.79, -0.153, 2.5
 201820906, 0.596, -28.796, -0.21, 2.5, 0.622, -28.796, -0.197, 2.5
 202020826, 0.5790001, -28.783, -0.249, 2.5, 0.596, -28.796, -0.21, 2.5
 202220746, 0.555, -28.776, -0.213, 2.5, 0.5790001, -28.783, -0.249, 2.5
 202420666, 0.545, -28.786, -0.153, 2.5, 0.555, -28.776, -0.213, 2.5
 202620586, 0.507, -28.789, -0.081, 2.5, 0.545, -28.786, -0.153, 2.5
 202820506, 0.487, -28.784, -0.09100001, 2.5, 0.507, -28.789, -0.081, 2.5
 203020426, 0.473, -28.794, -0.197, 2.5, 0.487, -28.784, -0.09100001, 2.5
 203220346, 0.431, -28.805, -0.189, 2.5, 0.473, -28.794, -0.197, 2.5
 203420266, 0.385, -28.82, -0.154, 2.5, 0.431, -28.805, -0.189, 2.5
 203620186, 0.363, -28.821, -0.115, 2.5, 0.385, -28.82, -0.154, 2.5
 203820939, 0.327, -28.827, -0.119, 2.5, 0.363, -28.821, -0.115, 2.5
 204020859, 0.271, -28.815, -0.163, 2.5, 0.327, -28.827, -0.119, 2.5
 204220779, 0.226, -28.813, -0.198, 2.5, 0.271, -28.815, -0.163, 2.5
 204420699, 0.188, -28.823, -0.174, 2.5, 0.226, -28.813, -0.198, 2.5
 204620619, 0.17, -28.835, -0.054, 2.5, 0.188, -28.823, -0.174, 2.5
 204820539, 0.162, -28.851, -0.059, 2.5, 0.17, -28.835, -0.054, 2.5
 205020459, 0.134, -28.857, -0.146, 2.5, 0.162, -28.851, -0.059, 2.5
 205220379, 0.094, -28.868, -0.138, 2.5, 0.134, -28.857, -0.146, 2.5
 205420299, 0.063, -28.874, -0.071, 2.5, 0.094, -28.868, -0.138, 2.5
 205620219, 0.039, -28.88, -0.08400001, 2.5, 0.063, -28.874, -0.071, 2.5
 205820972, -0.007, -28.889, -0.125, 2.5, 0.039, -28.88, -0.08400001, 2.5
 206020892, -0.035, -28.874, -0.124, 2.5, -0.007, -28.889, -0.125, 2.5
 206220812, -0.054, -28.862, -0.167, 2.5, -0.035, -28.874, -0.124, 2.5
 206420732, -0.06, -28.851, -0.116, 2.5, -0.054, -28.862, -0.167, 2.5
 206620652, -0.048, -28.858, -0.06900001, 2.5, -0.06, -28.851, -0.116, 2.5
 206820572, -0.021, -28.849, -0.035, 2.5, -0.048, -28.858, -0.06900001, 2.5
 207020492, -0.008, -28.841, 0.009000001, 2.5, -0.021, -28.849, -0.035, 2.5
 207220412, -0.026, -28.849, -0.071, 2.5, -0.008, -28.841, 0.009000001, 2.5
 207420332, -0.057, -28.853, -0.163, 2.5, -0.026, -28.849, -0.071, 2.5
 207620252, -0.083, -28.854, -0.169, 2.5, -0.057, -28.853, -0.163, 2.5
 207820172, -0.098, -28.867, -0.038, 2.5, -0.083, -28.854, -0.169, 2.5
 208020925, -0.07600001, -28.883, 0.036, 2.5, -0.098, -28.867, -0.038, 2.5
 208220845, -0.044, -28.876, -0.005, 2.5, -0.07600001, -28.883, 0.036, 2.5
 208420765, -0.044, -28.878, -0.001, 2.5, -0.044, -28.876, -0.005, 2.5
 208620685, -0.039, -28.885, -0.032, 2.5, -0.044, -28.878, -0.001, 2.5
 208820605, -0.035, -28.891, -0.018, 2.5, -0.039, -28.885, -0.032, 2.5
 209020525, -0.023, -28.907, 0.033, 2.5, -0.035, -28.891, -0.018, 2.5
 209220445, -0.005, -28.912, -0.008, 2.5, -0.023, -28.907, 0.033, 2.5
 209420365, 0.014, -28.917, -0.018, 2.5, -0.005, -28.912, -0.008, 2.5
 209620285, 0.015, -28.918, -0.047, 2.5, 0.014, -28.917, -0.018, 2.5
 209820205, 0.032, -28.919, -0.046, 2.5, 0.015, -28.918, -0.047, 2.5
 210020958, 0.047, -28.92, -0.038, 2.5, 0.032, -28.919, -0.046, 2.5
 210220878, 0.055, -28.922, -0.017, 2.5, 0.047, -28.92, -0.038, 2.5
 210420798, 0.08800001, -28.929, 0, 2.5, 0.055, -28.922, -0.017, 2.5
 210620718, 0.109, -28.928, -0.002, 2.5, 0.08800001, -28.929, 0, 2.5
 210820638, 0.135, -28.933, -0.023, 2.5, 0.109, -28.928, -0.002, 2.5
 211020558, 0.141, -28.933, -0.07300001, 2.5, 0.135, -28.933, -0.023, 2.5
 211220478, 0.157, -28.947, -0.072, 2.5, 0.141, -28.933, -0.07300001, 2.5
 211420398, 0.153, -28.95, -0.029, 2.5, 0.157, -28.947, -0.072, 2.5
 211620318, 0.137, -28.947, -0.05, 2.5, 0.153, -28.95, -0.029, 2.5
 211820238, 0.138, -28.942, -0.044, 2.5, 0.137, -28.947, -0.05, 2.5
 212020158, 0.122, -28.942, -0.056, 2.5, 0.138, -28.942, -0.044, 2.5
 212220911, 0.09, -28.946, 0.011, 2.5, 0.122, -28.942, -0.056, 2.5
 212420831, 0.117, -28.949, -0.052, 2.5, 0.09, -28.946, 0.011, 2.5
 212620751, -0.086, -28.94, -0.137, 2.5, 0.117, -28.949, -0.052, 2.5
 212820671, -1.025, -28.915, -0.041, 2.5, -0.086, -28.94, -0.137, 2.5
 213020591, -2.391, -28.906, 0.35, 2.5, -1.025, -28.915, -0.041, 2.5
 213220511, -4.481, -28.883, 0.8100001, 2.5, -2.391, -28.906, 0.35, 2.5
 213420431, -7.608, -28.594, 0.8750001, 2.5, -4.481, -28.883, 0.8100001, 2.5
 213620351, -11.267, -27.726, 0.406, 2.5, -7.608, -28.594, 0.8750001, 2.5
 213820271, -14.783, -26.306, -0.403, 2.5, -11.267, -27.726, 0.406, 2.5
 214020191, -17.454, -24.774, -0.942, 2.5, -14.783, -26.306, -0.403, 2.5
 214220944, -19.402, -23.232, -1.096, 2.5, -17.454, -24.774, -0.942, 2.5
 214420864, -20.926, -21.682, -1.074, 2.5, -19.402, -23.232, -1.096, 2.5
 214620784, -22.204, -20.144, -0.9580001, 2.5, -20.926, -21.682, -1.074, 2.5
 214820704, -23.319, -18.602, -0.8150001, 2.5, -22.204, -20.144, -0.9580001, 2.5
 215020624, -24.311, -17.029, -0.697, 2.5, -23.319, -18.602, -0.8150001, 2.5
 215220544, -25.172, -15.453, -0.578, 2.5, -24.311, -17.029, -0.697, 2.5
 215420464, -25.897, -13.929, -0.414, 2.5, -25.172, -15.453, -0.578, 2.5
 215620384, -26.499, -12.47, -0.238, 2.5, -25.897, -13.929, -0.414, 2.5
 215820304, -27.026, -10.98, -0.118, 2.5, -26.499, -12.47, -0.238, 2.5
 216020224, -27.449, -9.543, 0.062, 2.5, -27.026, -10.98, -0.118, 2.5
 216220977, -27.817, -8.067, 0.174, 2.5, -27.449, -9.543, 0.062, 2.5
 216420897, -28.114, -6.642, 0.269, 2.5, -27.817, -8.067, 0.174, 2.5
 216620817, -28.317, -5.32, 0.398, 2.5, -28.114, -6.642, 0.269, 2.5
 216820737, -28.458, -4.027, 0.501, 2.5, -28.317, -5.32, 0.398, 2.5
 217020657, -28.522, -2.79, 0.571, 2.5, -28.458, -4.027, 0.501, 2.5
 217220577, -28.538, -1.569, 0.633, 2.5, -28.522, -2.79, 0.571, 2.5
 217420497, -28.506, -0.447, 0.656, 2.5, -28.538, -1.569, 0.633, 2.5
 217620417, -28.437, 0.568, 0.679, 2.5, -28.506, -0.447, 0.656, 2.5
 217820337, -28.335, 1.506, 0.68, 2.5, -28.437, 0.568, 0.679, 2.5
 218020257, -28.223, 2.346, 0.693, 2.5, -28.335, 1.506, 0.68, 2.5
 218220177, -28.097, 3.046, 0.793, 2.5, -28.223, 2.346, 0.693, 2.5
 218420930, -27.964, 3.676, 0.878, 2.5, -28.097, 3.046, 0.793, 2.5
 218620850, -27.837, 4.27, 0.8880001, 2.5, -27.964, 3.676, 0.878, 2.5
 218820770, -27.728, 4.815, 0.799, 2.5, -27.837, 4.27, 0.8880001, 2.5
 219020690, -27.623, 5.277, 0.802, 2.5, -27.728, 4.815, 0.799, 2.5
 219220610, -27.527, 5.668, 0.7590001, 2.5, -27.623, 5.277, 0.802, 2.5
 219420530, -27.452, 5.958, 0.779, 2.5, -27.527, 5.668, 0.7590001, 2.5
 219620450, -27.41, 6.194, 0.757, 2.5, -27.452, 5.958, 0.779, 2.5
 219820370, -27.374, 6.408, 0.73, 2.5, -27.41, 6.194, 0.757, 2.5
 220020290, -27.35, 6.552001, 0.77, 2.5, -27.374, 6.408, 0.73, 2.5
 220220210, -27.336, 6.658, 0.682, 2.5, -27.35, 6.552001, 0.77, 2.5
 220420963, -27.338, 6.721, 0.5420001, 2.5, -27.336, 6.658, 0.682, 2.5
 220620883, -27.35, 6.728, 0.484, 2.5, -27.338, 6.721, 0.5420001, 2.5
 220820803, -27.385, 6.703001, 0.495, 2.5, -27.35, 6.728, 0.484, 2.5
 221020723, -27.435, 6.65, 0.511, 2.5, -27.385, 6.703001, 0.495, 2.5
 221220643, -27.495, 6.547, 0.495, 2.5, -27.435, 6.65, 0.511, 2.5
 221420563, -27.548, 6.43, 0.446, 2.5, -27.495, 6.547, 0.495, 2.5
 221620483, -27.616, 6.289001, 0.399, 2.5, -27.548, 6.43, 0.446, 2.5
 221820403, -27.688, 6.137, 0.351, 2.5, -27.616, 6.289001, 0.399, 2.5
 222020323, -27.754, 5.961, 0.294, 2.5, -27.688, 6.137, 0.351, 2.5
 222220243, -27.817, 5.774, 0.276, 2.5, -27.754, 5.961, 0.294, 2.5
 222420163, -27.882, 5.58, 0.194, 2.5, -27.817, 5.774, 0.276, 2.5
 222620916, -27.955, 5.381, 0.213, 2.5, -27.882, 5.58, 0.194, 2.5
 222820836, -28.025, 5.16, 0.22, 2.5, -27.955, 5.381, 0.213, 2.5
 223020756, -28.102, 4.893, 0.087, 2.5, -28.025, 5.16, 0.22, 2.5
 223220676, -28.158, 4.615, -0.034, 2.5, -28.102, 4.893, 0.087, 2.5
 223420596, -28.205, 4.351, -0.085, 2.5, -28.158, 4.615, -0.034, 2.5
 223620516, -28.249, 4.142, 0.001, 2.5, -28.205, 4.351, -0.085, 2.5
 223820436, -28.303, 3.952, 0.063, 2.5, -28.249, 4.142, 0.001, 2.5
 224020356, -28.343, 3.734, -0.019, 2.5, -28.303, 3.952, 0.063, 2.5
 224220276, -28.376, 3.523, -0.094, 2.5, -28.343, 3.734, -0.019, 2.5
 224420196, -28.417, 3.302, -0.223, 2.5, -28.376, 3.523, -0.094, 2.5
 224620949, -28.445, 3.1, -0.293, 2.5, -28.417, 3.302, -0.223, 2.5
 224820869, -28.472, 2.911, -0.229, 2.5, -28.445, 3.1, -0.293, 2.5
 225020789, -28.502, 2.709, -0.199, 2.5, -28.472, 2.911, -0.229, 2.5
 225220709, -28.527, 2.509, -0.171, 2.5, -28.502, 2.709, -0.199, 2.5
 225420629, -28.55, 2.319, -0.217, 2.5, -28.527, 2.509, -0.171, 2.5
 225620549, -28.568, 2.104, -0.298, 2.5, -28.55, 2.319, -0.217, 2.5
 225820469, -28.58, 1.89, -0.343, 2.5, -28.568, 2.104, -0.298, 2.5
 226020389, -28.596, 1.697, -0.324, 2.5, -28.58, 1.89, -0.343, 2.5
 226220309, -28.609, 1.517, -0.278, 2.5, -28.596, 1.697, -0.324, 2.5
 226420229, -28.619, 1.317, -0.27, 2.5, -28.609, 1.517, -0.278, 2.5
 226620149, -28.628, 1.123, -0.319, 2.5, -28.619, 1.317, -0.27, 2.5
 226820902, -28.627, 0.933, -0.342, 2.5, -28.628, 1.123, -0.319, 2.5
 227020822, -28.632, 0.7640001, -0.281, 2.5, -28.627, 0.933, -0.342, 2.5
 227220742, -28.638, 0.608, -0.252, 2.5, -28.632, 0.7640001, -0.281, 2.5
 227420662, -28.642, 0.467, -0.256, 2.5, -28.638, 0.608, -0.252, 2.5
 227620582, -28.645, 0.33, -0.279, 2.5, -28.642, 0.467, -0.256, 2.5
 227820502, -28.647, 0.212, -0.266, 2.5, -28.645, 0.33, -0.279, 2.5
 228020422, -28.647, 0.126, -0.271, 2.5, -28.647, 0.212, -0.266, 2.5
 228220342, -28.65, 0.042, -0.331, 2.5, -28.647, 0.126, -0.271, 2.5
 228420262, -28.656, -0.032, -0.339, 2.5, -28.65, 0.042, -0.331, 2.5
 228620182, -28.667, -0.096, -0.301, 2.5, -28.656, -0.032, -0.339, 2.5
 228820935, -28.671, -0.161, -0.256, 2.5, -28.667, -0.096, -0.301, 2.5
 229020855, -28.674, -0.229, -0.211, 2.5, -28.671, -0.161, -0.256, 2.5
 229220775, -28.674, -0.285, -0.197, 2.5, -28.674, -0.229, -0.211, 2.5
 229420695, -28.68, -0.345, -0.215, 2.5, -28.674, -0.285, -0.197, 2.5
 229620615, -28.677, -0.365, -0.25, 2.5, -28.68, -0.345, -0.215, 2.5
 229820535, -28.675, -0.384, -0.278, 2.5, -28.677, -0.365, -0.25, 2.5
 230020455, -28.67, -0.39, -0.34, 2.5, -28.675, -0.384, -0.278, 2.5
 230220375, -28.665, -0.403, -0.309, 2.5, -28.67, -0.39, -0.34, 2.5
 230420295, -28.655, -0.385, -0.295, 2.5, -28.665, -0.403, -0.309, 2.5
 230620215, -28.656, -0.35, -0.318, 2.5, -28.655, -0.385, -0.295, 2.5
 230820968, -28.656, -0.329, -0.264, 2.5, -28.656, -0.35, -0.318, 2.5
 231020888, -28.66, -0.319, -0.21, 2.5, -28.656, -0.329, -0.264, 2.5
 231220808, -28.664, -0.315, -0.173, 2.5, -28.66, -0.319, -0.21, 2.5
 231420728, -28.668, -0.303, -0.154, 2.5, -28.664, -0.315, -0.173, 2.5
 231620648, -28.685, -0.274, -0.174, 2.5, -28.668, -0.303, -0.154, 2.5
 231820568, -28.708, -0.272, -0.164, 2.5, -28.685, -0.274, -0.174, 2.5
 232020488, -28.713, -0.25, -0.164, 2.5, -28.708, -0.272, -0.164, 2.5
 232220408, -28.728, -0.243, -0.124, 2.5, -28.713, -0.25, -0.164, 2.5
 232420328, -28.739, -0.252, -0.033, 2.5, -28.728, -0.243, -0.124, 2.5
 232620248, -28.751, -0.265, -0.021, 2.5, -28.739, -0.252, -0.033, 2.5
 232820168, -28.752, -0.269, -0.07700001, 2.5, -28.751, -0.265, -0.021, 2.5
 233020921, -28.753, -0.05, -0.151, 2.5, -28.752, -0.269, -0.07700001, 2.5
 233220841, -28.743, 0.9170001, -0.081, 2.5, -28.753, -0.05, -0.151, 2.5
 233420761, -28.731, 2.396, 0.223, 2.5, -28.743, 0.9170001, -0.081, 2.5
 233620681, -28.703, 4.55, 0.6760001, 2.5, -28.731, 2.396, 0.223, 2.5
 233820601, -28.446, 7.596, 0.7870001, 2.5, -28.703, 4.55, 0.6760001, 2.5
 234020521, -27.547, 11.358, 0.221, 2.5, -28.446, 7.596, 0.7870001, 2.5
 234220441, -26.136, 14.828, -0.576, 2.5, -27.547, 11.358, 0.221, 2.5
 234420361, -24.645, 17.439, -1.086, 2.5, -26.136, 14.828, -0.576, 2.5
 234620281, -23.185, 19.314, -1.242, 2.5, -24.645, 17.439, -1.086, 2.5
 234820201, -21.78, 20.732, -1.146, 2.5, -23.185, 19.314, -1.242, 2.5
 235020954, -20.392, 21.948, -0.946, 2.5, -21.78, 20.732, -1.146, 2.5
 235220874, -18.882, 23.111, -0.8100001, 2.5, -20.392, 21.948, -0.946, 2.5
 235420794, -17.331, 24.155, -0.683, 2.5, -18.882, 23.111, -0.8100001, 2.5
 235620714, -15.722, 25.097, -0.588, 2.5, -17.331, 24.155, -0.683, 2.5
 235820634, -14.095, 25.919, -0.516, 2.5, -15.722, 25.097, -0.588, 2.5
 236020554, -12.529, 26.582, -0.422, 2.5, -14.095, 25.919, -0.516, 2.5
 236220474, -11.004, 27.125, -0.312, 2.5, -12.529, 26.582, -0.422, 2.5
 236420394, -9.498, 27.56, -0.188, 2.5, -11.004, 27.125, -0.312, 2.5
 236620314, -8.056001, 27.896, -0.059, 2.5, -9.498, 27.56, -0.188, 2.5
 236820234, -6.625, 28.168, 0.029, 2.5, -8.056001, 27.896, -0.059, 2.5
 237020154, -5.259, 28.35, 0.111, 2.5, -6.625, 28.168, 0.029, 2.5
 237220907, -3.926, 28.461, 0.169, 2.5, -5.259, 28.35, 0.111, 2.5
 237420827, -2.751, 28.503, 0.27, 2.5, -3.926, 28.461, 0.169, 2.5
 237620747, -1.669, 28.508, 0.407, 2.5, -2.751, 28.503, 0.27, 2.5
 237820667, -0.632, 28.475, 0.509, 2.5, -1.669, 28.508, 0.407, 2.5
 238020587, 0.363, 28.404, 0.58, 2.5, -0.632, 28.475, 0.509, 2.5
 238220507, 1.223, 28.311, 0.691, 2.5, 0.363, 28.404, 0.58, 2.5
 238420427, 2.097, 28.204, 0.645, 2.5, 1.223, 28.311, 0.691, 2.5
 238620347, 2.87, 28.088, 0.677, 2.5, 2.097, 28.204, 0.645, 2.5
 238820267, 3.56, 27.972, 0.682, 2.5, 2.87, 28.088, 0.677, 2.5
 239020187, 4.134, 27.86, 0.7270001, 2.5, 3.56, 27.972, 0.682, 2.5
 239220940, 4.625, 27.753, 0.753, 2.5, 4.134, 27.86, 0.7270001, 2.5
 239420860, 5.097, 27.65, 0.698, 2.5, 4.625, 27.753, 0.753, 2.5
 239620780, 5.475, 27.552, 0.705, 2.5, 5.097, 27.65, 0.698, 2.5
 239820700, 5.806, 27.467, 0.7360001, 2.5, 5.475, 27.552, 0.705, 2.5
 240020620, 6.089, 27.409, 0.711, 2.5, 5.806, 27.467, 0.7360001, 2.5
 240220540, 6.292, 27.379, 0.735, 2.5, 6.089, 27.409, 0.711, 2.5
 240420460, 6.468, 27.354, 0.8, 2.5, 6.292, 27.379, 0.735, 2.5
 240620380, 6.616, 27.34, 0.7180001, 2.5, 6.468, 27.354, 0.8, 2.5
 240820300, 6.72, 27.337, 0.557, 2.5, 6.616, 27.34, 0.7180001, 2.5
 241020220, 6.755, 27.346, 0.498, 2.5, 6.72, 27.337, 0.557, 2.5
 241220973, 6.747, 27.362, 0.507, 2.5, 6.755, 27.346, 0.498, 2.5
 241420893, 6.711, 27.383, 0.513, 2.5, 6.747, 27.362, 0.507, 2.5
 241620813, 6.633, 27.432, 0.414, 2.5, 6.711, 27.383, 0.513, 2.5
 241820733, 6.535, 27.476, 0.347, 2.5, 6.633, 27.432, 0.414, 2.5
 242020653, 6.414001, 27.534, 0.344, 2.5, 6.535, 27.476, 0.347, 2.5
 242220573, 6.247, 27.608, 0.299, 2.5, 6.414001, 27.534, 0.344, 2.5
 242420493, 6.025, 27.694, 0.228, 2.5, 6.247, 27.608, 0.299, 2.5
 242620413, 5.841, 27.761, 0.179, 2.5, 6.025, 27.694, 0.228, 2.5
 242820333, 5.637, 27.831, 0.22, 2.5, 5.841, 27.761, 0.179, 2.5
 243020253, 5.454, 27.885, 0.186, 2.5, 5.637, 27.831, 0.22, 2.5
 243220173, 5.217, 27.94, 0.126, 2.5, 5.454, 27.885, 0.186, 2.5
 243420926, 4.97, 28.003, 0.052, 2.5, 5.217, 27.94, 0.126, 2.5
 243620846, 4.709, 28.058, -0.002, 2.5, 4.97, 28.003, 0.052, 2.5
 243820766, 4.45, 28.123, -0.006, 2.5, 4.709, 28.058, -0.002, 2.5
 244020686, 4.201, 28.18, -0.052, 2.5, 4.45, 28.123, -0.006, 2.5
 244220606, 3.944, 28.228, -0.08400001, 2.5, 4.201, 28.18, -0.052, 2.5
 244420526, 3.675, 28.279, -0.165, 2.5, 3.944, 28.228, -0.08400001, 2.5
 244620446, 3.421, 28.314, -0.118, 2.5, 3.675, 28.279, -0.165, 2.5
 244820366, 3.156, 28.353, -0.139, 2.5, 3.421, 28.314, -0.118, 2.5
 245020286, 2.935, 28.381, -0.161, 2.5, 3.156, 28.353, -0.139, 2.5
 245220206, 2.715, 28.419, -0.171, 2.5, 2.935, 28.381, -0.161, 2.5
 245420959, 2.536, 28.458, -0.137, 2.5, 2.715, 28.419, -0.171, 2.5
 245620879, 2.36, 28.497, -0.036, 2.5, 2.536, 28.458, -0.137, 2.5
 245820799, 2.14, 28.521, -0.114, 2.5, 2.36, 28.497, -0.036, 2.5
 246020719, 1.928, 28.529, -0.24, 2.5, 2.14, 28.521, -0.114, 2.5
 246220639, 1.774, 28.546, -0.256, 2.5, 1.928, 28.529, -0.24, 2.5
 246420559, 1.624, 28.567, -0.235, 2.5, 1.774, 28.546, -0.256, 2.5
 246620479, 1.49, 28.583, -0.24, 2.5, 1.624, 28.567, -0.235, 2.5
 246820399, 1.339, 28.596, -0.255, 2.5, 1.49, 28.583, -0.24, 2.5
 247020319, 1.177, 28.609, -0.255, 2.5, 1.339, 28.596, -0.255, 2.5
 247220239, 1.05, 28.623, -0.233, 2.5, 1.177, 28.609, -0.255, 2.5
 247420159, 0.9220001, 28.632, -0.249, 2.5, 1.05, 28.623, -0.233, 2.5
 247620912, 0.762, 28.637, -0.361, 2.5, 0.9220001, 28.632, -0.249, 2.5
 247820832, 0.611, 28.637, -0.339, 2.5, 0.762, 28.637, -0.361, 2.5
 248020752, 0.515, 28.637, -0.276, 2.5, 0.611, 28.637, -0.339, 2.5
 248220672, 0.433, 28.646, -0.189, 2.5, 0.515, 28.637, -0.276, 2.5
 248420592, 0.361, 28.656, -0.17, 2.5, 0.433, 28.646, -0.189, 2.5
 248620512, 0.3, 28.658, -0.272, 2.5, 0.361, 28.656, -0.17, 2.5
 248820432, 0.257, 28.658, -0.297, 2.5, 0.3, 28.658, -0.272, 2.5
 249020352, 0.189, 28.653, -0.344, 2.5, 0.257, 28.658, -0.297, 2.5
 249220272, 0.156, 28.65, -0.281, 2.5, 0.189, 28.653, -0.344, 2.5
 249420192, 0.141, 28.649, -0.233, 2.5, 0.156, 28.65, -0.281, 2.5
 249620945, 0.106, 28.656, -0.156, 2.5, 0.141, 28.649, -0.233, 2.5
 249820865, 0.059, 28.668, -0.145, 2.5, 0.106, 28.656, -0.156, 2.5
 250020785, 0.02, 28.678, -0.187, 2.5, 0.059, 28.668, -0.145, 2.5
 250220705, 0.023, 28.685, -0.182, 2.5, 0.02, 28.678, -0.187, 2.5
 250420625, -0.016, 28.686, -0.176, 2.5, 0.023, 28.685, -0.182, 2.5
 250620545, -0.031, 28.692, -0.078, 2.5, -0.016, 28.686, -0.176, 2.5
 250820465, -0.05, 28.702, -0.074, 2.5, -0.031, 28.692, -0.078, 2.5
 251020385, -0.08000001, 28.706, -0.109, 2.5, -0.05, 28.702, -0.074, 2.5
 251220305, -0.09200001, 28.712, -0.136, 2.5, -0.08000001, 28.706, -0.109, 2.5
 251420225, -0.108, 28.717, -0.128, 2.5, -0.09200001, 28.712, -0.136, 2.5
 251620145, -0.136, 28.72, -0.132, 2.5, -0.108, 28.717, -0.128, 2.5
 251820898, -0.174, 28.724, -0.173, 2.5, -0.136, 28.72, -0.132, 2.5
 252020818, -0.198, 28.726, -0.2, 2.5, -0.174, 28.724, -0.173, 2.5
 252220738, -0.229, 28.746, -0.16, 2.5, -0.198, 28.726, -0.2, 2.5
 252420658, -0.284, 28.746, -0.214, 2.5, -0.229, 28.746, -0.16, 2.5
 252620578, -0.309, 28.738, -0.23, 2.5, -0.284, 28.746, -0.214, 2.5
 252820498, -0.347, 28.728, -0.223, 2.5, -0.309, 28.738, -0.23, 2.5
 253020418, -0.37, 28.72, -0.123, 2.5, -0.347, 28.728, -0.223, 2.5
 253220338, -0.395, 28.732, -0.085, 2.5, -0.37, 28.72, -0.123, 2.5
 253420258, -0.392, 28.755, -0.13, 2.5, -0.395, 28.732, -0.085, 2.5
 253620178, -0.382, 28.758, -0.156, 2.5, -0.392, 28.755, -0.13, 2.5
 253820931, -0.388, 28.754, -0.164, 2.5, -0.382, 28.758, -0.156, 2.5
 254020851, -0.387, 28.758, -0.135, 2.5, -0.388, 28.754, -0.164, 2.5
 254220771, -0.403, 28.749, -0.156, 2.5, -0.387, 28.758, -0.135, 2.5
 254420691, -0.388, 28.748, -0.184, 2.5, -0.403, 28.749, -0.156, 2.5
 254620611, -0.339, 28.767, -0.141, 2.5, -0.388, 28.748, -0.184, 2.5
 254820531, -0.319, 28.77, -0.143, 2.5, -0.339, 28.767, -0.141, 2.5
 255020451, -0.311, 28.767, -0.121, 2.5, -0.319, 28.77, -0.143, 2.5
 255220371, -0.273, 28.764, -0.109, 2.5, -0.311, 28.767, -0.121, 2.5
 255420291, -0.277, 28.764, -0.096, 2.5, -0.273, 28.764, -0.109, 2.5
 255620211, -0.279, 28.773, -0.141, 2.5, -0.277, 28.764, -0.096, 2.5
 255820964, -0.271, 28.782, -0.107, 2.5, -0.279, 28.773, -0.141, 2.5
 256020884, -0.257, 28.785, -0.048, 2.5, -0.271, 28.782, -0.107, 2.5
 256220804, -0.237, 28.782, -0.11, 2.5, -0.257, 28.785, -0.048, 2.5
 256420724, -0.25, 28.777, -0.192, 2.5, -0.237, 28.782, -0.11, 2.5
 256620644, -0.259, 28.784, -0.173, 2.5, -0.25, 28.777, -0.192, 2.5
 256820564, -0.241, 28.792, -0.022, 2.5, -0.259, 28.784, -0.173, 2.5
 257020484, -0.217, 28.794, -0.009000001, 2.5, -0.241, 28.792, -0.022, 2.5
 257220404, -0.185, 28.795, -0.047, 2.5, -0.217, 28.794, -0.009000001, 2.5
 257420324, -0.194, 28.802, -0.137, 2.5, -0.185, 28.795, -0.047, 2.5
 257620244, -0.188, 28.813, -0.014, 2.5, -0.194, 28.802, -0.137, 2.5
 257820164, -0.168, 28.823, 0.014, 2.5, -0.188, 28.813, -0.014, 2.5
 258020917, -0.149, 28.83, -0.081, 2.5, -0.168, 28.823, 0.014, 2.5
 258220837, -0.136, 28.83, -0.127, 2.5, -0.149, 28.83, -0.081, 2.5
 258420757, -0.126, 28.843, -0.098, 2.5, -0.136, 28.83, -0.127, 2.5
 258620677, -0.124, 28.852, -0.009000001, 2.5, -0.126, 28.843, -0.098, 2.5
 258820597, -0.112, 28.848, -0.012, 2.5, -0.124, 28.852, -0.009000001, 2.5
 259020517, -0.101, 28.849, -0.09200001, 2.5, -0.112, 28.848, -0.012, 2.5
 259220437, -0.108, 28.852, -0.074, 2.5, -0.101, 28.849, -0.09200001, 2.5
 259420357, -0.113, 28.863, -0.094, 2.5, -0.108, 28.852, -0.074, 2.5
 259620277, -0.117, 28.861, -0.087, 2.5, -0.113, 28.863, -0.094, 2.5
 259820197, -0.111, 28.869, -0.027, 2.5, -0.117, 28.861, -0.087, 2.5
 260020950, -0.106, 28.871, -0.024, 2.5, -0.111, 28.869, -0.027, 2.5
 260220870, -0.102, 28.859, -0.085, 2.5, -0.106, 28.871, -0.024, 2.5
 260420790, -0.105, 28.856, -0.052, 2.5, -0.102, 28.859, -0.085, 2.5
 260620710, -0.104, 28.855, -0.066, 2.5, -0.105, 28.856, -0.052, 2.5
 260820630, -0.079, 28.842, -0.034, 2.5, -0.104, 28.855, -0.066, 2.5
 261020550, -0.059, 28.85, -0.052, 2.5, -0.079, 28.842, -0.034, 2.5
 261220470, -0.044, 28.864, -0.046, 2.5, -0.059, 28.85, -0.052, 2.5
 261420390, -0.044, 28.881, 0.045, 2.5, -0.044, 28.864, -0.046, 2.5
 261620310, -0.029, 28.899, 0.137, 2.5, -0.044, 28.881, 0.045, 2.5
 261820230, -0.033, 28.916, 0.059, 2.5, -0.029, 28.899, 0.137, 2.5
 262020150, -0.042, 28.919, -0.063, 2.5, -0.033, 28.916, 0.059, 2.5
 262220903, -0.07, 28.912, -0.123, 2.5, -0.042, 28.919, -0.063, 2.5
 262420823, -0.098, 28.911, -0.111, 2.5, -0.07, 28.912, -0.123, 2.5
 262620743, -0.102, 28.915, -0.109, 2.5, -0.098, 28.911, -0.111, 2.5
 262820663, -0.101, 28.922, -0.037, 2.5, -0.102, 28.915, -0.109, 2.5
 263020583, -0.101, 28.915, -0.05, 2.5, -0.101, 28.922, -0.037, 2.5
 263220503, -0.109, 28.914, -0.023, 2.5, -0.101, 28.915, -0.05, 2.5
 263420423, -0.161, 28.922, -0.02, 2.5, -0.109, 28.914, -0.023, 2.5
 263620343, 0.451, 28.911, -0.09500001, 2.5, -0.161, 28.922, -0.02, 2.5
 263820263, 1.621, 28.877, 0.086, 2.5, 0.451, 28.911, -0.09500001, 2.5
 264020183, 3.339, 28.846, 0.479, 2.5, 1.621, 28.877, 0.086, 2.5
 264220936, 5.915, 28.755, 0.8200001, 2.5, 3.339, 28.846, 0.479, 2.5
 264420856, 9.344001, 28.228, 0.651, 2.5, 5.915, 28.755, 0.8200001, 2.5
 264620776, 13.134, 27.003, -0.132, 2.5, 9.344001, 28.228, 0.651, 2.5
 264820696, 16.206, 25.501, -0.839, 2.5, 13.134, 27.003, -0.132, 2.5
 265020616, 18.475, 23.939, -1.182, 2.5, 16.206, 25.501, -0.839, 2.5
 265220536, 20.094, 22.436, -1.213, 2.5, 18.475, 23.939, -1.182, 2.5
 265420456, 21.423, 20.951, -1.095, 2.5, 20.094, 22.436, -1.213, 2.5
 265620376, 22.534, 19.512, -0.896, 2.5, 21.423, 20.951, -1.095, 2.5
 265820296, 23.538, 18.06, -0.7220001, 2.5, 22.534, 19.512, -0.896, 2.5
 266020216, 24.467, 16.534, -0.592, 2.5, 23.538, 18.06, -0.7220001, 2.5
 266220969, 25.261, 15.026, -0.434, 2.5, 24.467, 16.534, -0.592, 2.5
 266420889, 25.988, 13.498, -0.288, 2.5, 25.261, 15.026, -0.434, 2.5
 266620809, 26.669, 11.863, -0.237, 2.5, 25.988, 13.498, -0.288, 2.5
 266820729, 27.208, 10.319, -0.124, 2.5, 26.669, 11.863, -0.237, 2.5
 267020649, 27.646, 8.812, -0.03, 2.5, 27.208, 10.319, -0.124, 2.5
 267220569, 27.978, 7.379, 0.08800001, 2.5, 27.646, 8.812, -0.03, 2.5
 267420489, 28.198, 6.043, 0.219, 2.5, 27.978, 7.379, 0.08800001, 2.5
 267620409, 28.349, 4.694, 0.303, 2.5, 28.198, 6.043, 0.219, 2.5
 267820329, 28.423, 3.431, 0.402, 2.5, 28.349, 4.694, 0.303, 2.5
 268020249, 28.455, 2.23, 0.525, 2.5, 28.423, 3.431, 0.402, 2.5
 268220169, 28.456, 1.034, 0.5420001, 2.5, 28.455, 2.23, 0.525, 2.5
 268420922, 28.395, -0.097, 0.511, 2.5, 28.456, 1.034, 0.5420001, 2.5
 268620842, 28.3, -1.069, 0.601, 2.5, 28.395, -0.097, 0.511, 2.5
 268820762, 28.185, -1.948, 0.697, 2.5, 28.3, -1.069, 0.601, 2.5
 269020682, 28.049, -2.775, 0.753, 2.5, 28.185, -1.948, 0.697, 2.5
 269220602, 27.913, -3.529, 0.802, 2.5, 28.049, -2.775, 0.753, 2.5
 269420522, 27.772, -4.228, 0.811, 2.5, 27.913, -3.529, 0.802, 2.5
 269620442, 27.635, -4.838, 0.777, 2.5, 27.772, -4.228, 0.811, 2.5
 269820362, 27.507, -5.353, 0.794, 2.5, 27.635, -4.838, 0.777, 2.5
 270020282, 27.394, -5.785, 0.798, 2.5, 27.507, -5.353, 0.794, 2.5
 270220202, 27.295, -6.15, 0.742, 2.5, 27.394, -5.785, 0.798, 2.5
 270420955, 27.229, -6.429, 0.788, 2.5, 27.295, -6.15, 0.742, 2.5
 270620875, 27.175, -6.682, 0.749, 2.5, 27.229, -6.429, 0.788, 2.5
 270820795, 27.126, -6.885, 0.637, 2.5, 27.175, -6.682, 0.749, 2.5
 271020715, 27.096, -7.014, 0.626, 2.5, 27.126, -6.885, 0.637, 2.5
 271220635, 27.089, -7.098001, 0.6390001, 2.5, 27.096, -7.014, 0.626, 2.5
 271420555, 27.117, -7.102, 0.646, 2.5, 27.089, -7.098001, 0.6390001, 2.5
 271620475, 27.149, -7.05, 0.645, 2.5, 27.117, -7.102, 0.646, 2.5
 271820395, 27.205, -6.973001, 0.581, 2.5, 27.149, -7.05, 0.645, 2.5
 272020315, 27.264, -6.906, 0.512, 2.5, 27.205, -6.973001, 0.581, 2.5
 272220235, 27.336, -6.806, 0.446, 2.5, 27.264, -6.906, 0.512, 2.5
 272420155, 27.41, -6.670001, 0.412, 2.5, 27.336, -6.806, 0.446, 2.5
 272620908, 27.486, -6.499, 0.417, 2.5, 27.41, -6.670001, 0.412, 2.5
 272820828, 27.555, -6.301, 0.346, 2.5, 27.486, -6.499, 0.417, 2.5
 273020748, 27.636, -6.106, 0.279, 2.5, 27.555, -6.301, 0.346, 2.5
 273220668, 27.708, -5.911, 0.262, 2.5, 27.636, -6.106, 0.279, 2.5
 273420588, 27.784, -5.704, 0.228, 2.5, 27.708, -5.911, 0.262, 2.5
 273620508, 27.854, -5.472, 0.211, 2.5, 27.784, -5.704, 0.228, 2.5
 273820428, 27.926, -5.191, 0.146, 2.5, 27.854, -5.472, 0.211, 2.5
 274020348, 28.005, -4.94, 0.148, 2.5, 27.926, -5.191, 0.146, 2.5
 274220268, 28.078, -4.687, 0.071, 2.5, 28.005, -4.94, 0.148, 2.5
 274420188, 28.148, -4.413, 0.063, 2.5, 28.078, -4.687, 0.071, 2.5
 274620941, 28.209, -4.136, 0.005, 2.5, 28.148, -4.413, 0.063, 2.5
 274820861, 28.254, -3.89, -0.032, 2.5, 28.209, -4.136, 0.005, 2.5
 275020781, 28.312, -3.622, -0.039, 2.5, 28.254, -3.89, -0.032, 2.5
 275220701, 28.357, -3.38, 0, 2.5, 28.312, -3.622, -0.039, 2.5
 275420621, 28.397, -3.142, -0.003, 2.5, 28.357, -3.38, 0, 2.5
 275620541, 28.424, -2.885, -0.157, 2.5, 28.397, -3.142, -0.003, 2.5
 275820461, 28.459, -2.656, -0.198, 2.5, 28.424, -2.885, -0.157, 2.5
 276020381, 28.483, -2.443, -0.134, 2.5, 28.459, -2.656, -0.198, 2.5
 276220301, 28.51, -2.23, -0.104, 2.5, 28.483, -2.443, -0.134, 2.5
 276420221, 28.539, -2.037, -0.113, 2.5, 28.51, -2.23, -0.104, 2.5
 276620974, 28.563, -1.845, -0.169, 2.5, 28.539, -2.037, -0.113, 2.5
 276820894, 28.589, -1.664, -0.222, 2.5, 28.563, -1.845, -0.169, 2.5
 277020814, 28.603, -1.502, -0.257, 2.5, 28.589, -1.664, -0.222, 2.5
 277220734, 28.615, -1.366, -0.241, 2.5, 28.603, -1.502, -0.257, 2.5
 277420654, 28.618, -1.242, -0.187, 2.5, 28.615, -1.366, -0.241, 2.5
 277620574, 28.632, -1.106, -0.168, 2.5, 28.618, -1.242, -0.187, 2.5
 277820494, 28.641, -0.969, -0.199, 2.5, 28.632, -1.106, -0.168, 2.5
 278020414, 28.648, -0.827, -0.235, 2.5, 28.641, -0.969, -0.199, 2.5
 278220334, 28.649, -0.726, -0.27, 2.5, 28.648, -0.827, -0.235, 2.5
 278420254, 28.648, -0.649, -0.176, 2.5, 28.649, -0.726, -0.27, 2.5
 278620174, 28.659, -0.551, -0.129, 2.5, 28.648, -0.649, -0.176, 2.5
 278820927, 28.668, -0.454, -0.136, 2.5, 28.659, -0.551, -0.129, 2.5
