TimeUS,CAN,CAE,CAD,CAe,NAN,NAE,NAD,NAe,m10,m00,Gye
 77706405, 2.330401E-07, 4.512633E-05, -3.285285E-06, 6.484905E-06, 0, 0, 0, 0, -0.9999961, -0.00222608, 0.8459274
 77806365, -0.01600831, 1.418086, -0.1230527, 0.2019074, -0.02671161, 1.408824, 0.01956351, 0.201901, -0.9999962, -0.002215416, 26.25749
 78006285, -0.02671948, 1.416114, 0.01958116, 0.2024261, -0.0001099491, 0.004194502, -5.325928E-05, 0.0005187925, -0.9999962, -0.002192747, 67.93536
 78206205, -8.888794E-05, 0.01162117, -0.0001897327, 0.00104407, 7.585387E-05, 0.004111447, 5.123233E-05, 0.0005187925, -0.9999963, -0.002170643, 0.3503954
 78406125, 4.216128E-05, 0.01172364, -2.984402E-05, 0.00104407, -8.551377E-05, 0.004445112, 0.0003256067, 0.0005187925, -0.9999963, -0.002149597, 0.3503954
 78606045, -0.000200645, 0.01185509, 0.0003733942, 0.00104407, -0.0001045138, 0.004209895, -0.0001576437, 0.0005187925, -0.9999963, -0.002127128, 0.3503954
 78805965, -0.0003741214, 0.01164848, -4.222368E-05, 0.00104407, -0.0003728807, 0.004044253, 4.167678E-05, 0.0005187925, -0.9999964, -0.002104638, 0.3503954
 79005885, -0.0002996872, 0.01152219, 0.0001521431, 0.00104407, 9.553588E-05, 0.004202731, -0.0001420764, 0.0005187925, -0.9999964, -0.002082945, 0.3503954
 79205805, 0.000127387, 0.0116937, -0.0002728073, 0.00104407, -4.509927E-05, 0.004137268, -7.670075E-05, 0.0005187925, -0.9999964, -0.002061312, 0.3503954
 79406558, -0.0001186039, 0.01186329, 8.43954E-05, 0.001046232, -0.0002574931, 0.00442375, 0.0001854087, 0.0005209541, -0.9999964, -0.002039803, 0.3511209
 79606478, -0.0006145998, 0.01208984, 0.0002146414, 0.001046232, 2.761313E-05, 0.004278436, 0.0002144527, 0.0005187925, -0.9999965, -0.002023012, 0.3511209
 79806398, -3.945791E-05, 0.01208553, 0.0002634651, 0.00104407, 5.553093E-05, 0.00442927, 0.0002599487, 0.0005187925, -0.9999967, -0.00200478, 0.3503954
 80006318, 0.000190174, 0.01205126, 0.0003769558, 0.00104407, -4.728965E-05, 0.004026327, -0.0001118189, 0.0005187925, -0.9999967, -0.001984575, 0.3503954
 80206238, -0.0001781589, 0.01139245, -7.623721E-05, 0.00104407, -0.0001381386, 0.004129875, -0.0001764986, 0.0005187925, -0.9999968, -0.001963817, 0.3503954
 80406158, -0.000153855, 0.011687, 1.268476E-05, 0.00104407, 4.299185E-05, 0.004026849, 0.0001041055, 0.0005187925, -0.9999968, -0.001943349, 0.3503954
 80606078, -0.000178759, 0.01164684, 0.0002673224, 0.00104407, -0.0002553665, 0.004237451, 0.0002176713, 0.0005187925, -0.9999968, -0.001923104, 0.3503954
 80805998, -0.0002888614, 0.01178069, 0.0001365235, 0.00104407, -0.0001027948, 0.003974588, 5.366086E-05, 0.0005187925, -0.9999969, -0.001902143, 0.3503954
 81005918, -0.0001016296, 0.01133611, 0.0001687602, 0.00104407, -9.256029E-05, 0.003746436, -0.0001516939, 0.0005187925, -0.9999969, -0.001880793, 0.3503954
 81205838, -0.00019019, 0.01122271, -0.0002881375, 0.00104407, -0.0001232256, 0.003981529, -0.0001315747, 0.0005187925, -0.9999969, -0.001858448, 0.3503954
 81406591, -0.0003918235, 0.011642, -1.253146E-05, 0.001046232, -0.000465509, 0.004280606, -0.0001507382, 0.0005209541, -0.999997, -0.001837279, 0.3511209
 81606511, -0.0004636403, 0.01176943, -0.0001024135, 0.001046232, 7.715692E-05, 0.003999009, 3.869773E-05, 0.0005187925, -0.999997, -0.001815408, 0.3511209
 81806431, -0.0001090584, 0.01145341, 2.237258E-05, 0.00104407, -0.0001929795, 0.004013633, 7.130988E-05, 0.0005187925, -0.999997, -0.001793216, 0.3503954
 82006351, -0.0006227438, 0.01153585, 0.0002044658, 0.00104407, -0.0001722885, 0.004029624, 1.004294E-05, 0.0005187925, -0.9999971, -0.001771055, 0.3503954
 82206271, -0.0003304921, 0.01158599, -1.486661E-05, 0.00104407, 0.000301186, 0.004291117, -0.0001459253, 0.0005187925, -0.9999971, -0.001748226, 0.3503954
 82406191, 4.802787E-05, 0.01170864, -4.993107E-05, 0.00104407, -0.0001376002, 0.004000043, 8.326297E-05, 0.0005187925, -0.9999971, -0.00172597, 0.3503954
 82606111, -0.0001365289, 0.0112687, 0.0002137104, 0.00104407, -0.0001497455, 0.003900659, 0.0001396836, 0.0005187925, -0.9999973, -0.001703412, 0.3503954
 82806031, -0.0002954227, 0.01150287, 7.988357E-05, 0.00104407, 0.0001013362, 0.004171344, 3.618342E-05, 0.0005187925, -0.9999973, -0.001680753, 0.3503954
 83005951, 8.603263E-06, 0.01175993, -3.182796E-06, 0.00104407, 8.004693E-05, 0.00388479, -5.016466E-05, 0.0005187925, -0.9999974, -0.001657887, 0.3503954
 83205871, -0.0001492888, 0.01135226, -4.109288E-05, 0.00104407, -0.0002021816, 0.004245742, -0.0001104092, 0.0005187925, -0.9999974, -0.001634019, 0.3503954
 83405791, -0.0002467016, 0.01169947, -0.000223341, 0.00104407, -0.0001011045, 0.004174842, 0.0002039355, 0.0005187925, -0.9999974, -0.001610685, 0.3503954
 83606544, -0.0003678237, 0.01161526, 0.0001338816, 0.001046232, -0.0002113741, 0.003943529, -6.295784E-05, 0.0005209541, -0.9999974, -0.001587942, 0.3511209
 83806464, -0.0003297552, 0.01153065, -0.0001811494, 0.001046232, -9.766625E-05, 0.004026253, -0.0002078095, 0.0005187925, -0.9999975, -0.001563563, 0.3511209
 84006384, -7.966258E-05, 0.01147119, 7.205347E-05, 0.00104407, -0.0001633937, 0.003942383, -3.051729E-05, 0.0005187925, -0.9999975, -0.001539599, 0.3503954
 84206304, -0.0003066733, 0.01153356, 0.0001582335, 0.00104407, 7.061986E-05, 0.003857617, 3.386573E-05, 0.0005187925, -0.9999975, -0.001515527, 0.3503954
 84406224, 5.090417E-05, 0.01142899, 0.0004141866, 0.00104407, 0.0001526174, 0.004358196, 2.071625E-05, 0.0005187925, -0.9999976, -0.001492438, 0.3503954
 84606144, 0.0001471163, 0.0118589, 0.0001982575, 0.00104407, 3.582719E-05, 0.004221891, 8.648035E-05, 0.0005187925, -0.9999976, -0.001469428, 0.3503954
 84806064, 2.952257E-05, 0.01154993, 0.0001822195, 0.00104407, -0.0001707523, 0.004130818, -0.0002393516, 0.0005187925, -0.9999976, -0.001455682, 0.3503954
 85005984, -0.0002024703, 0.01146643, -0.0002698176, 0.00104407, -0.000137228, 0.003780309, -3.019436E-05, 0.0005187925, -0.9999976, -0.001440992, 0.3503954
 85205904, -0.0001711099, 0.0113817, -9.786741E-05, 0.00104407, -6.106098E-05, 0.004408749, -0.0002394326, 0.0005187925, -0.9999976, -0.001424242, 0.3503954
 85405824, 7.276717E-05, 0.01202341, -0.000124618, 0.00104407, -9.807323E-05, 0.003898771, 4.069011E-05, 0.0005187925, -0.9999977, -0.001408262, 0.3503954
 85606577, -8.95722E-05, 0.01138492, -0.0001002697, 0.001046232, 0.0001520218, 0.00414802, -0.0002640994, 0.0005209541, -0.9999977, -0.00139211, 0.3511209
 85806497, 4.158697E-05, 0.0116639, -9.778206E-05, 0.001046232, -9.014743E-05, 0.004335335, 0.0001156189, 0.0005187925, -0.9999977, -0.001375334, 0.3511209
 86006417, -0.0002084675, 0.01196889, 0.0002239786, 0.00104407, 3.220233E-05, 0.004225795, 0.0002791468, 0.0005187925, -0.9999977, -0.001358223, 0.3503954
 86206337, -1.270058E-06, 0.01166619, 0.0003750219, 0.00104407, 4.490461E-05, 0.004192171, 0.0001579285, 0.0005187925, -0.9999979, -0.001340404, 0.3503954
 86406257, 3.520106E-05, 0.01151342, 8.030896E-05, 0.00104407, -0.0002142409, 0.004059344, -2.358566E-05, 0.0005187925, -0.9999979, -0.00132195, 0.3503954
 86606177, -0.0004004421, 0.0114965, -0.0001363387, 0.00104407, 8.0527E-05, 0.003874514, -0.0002863239, 0.0005187925, -0.9999979, -0.001303851, 0.3503954
 86806097, -8.320231E-05, 0.01130897, -0.0002609497, 0.00104407, 5.022475E-05, 0.004208538, 0.0001026863, 0.0005187925, -0.9999979, -0.001285893, 0.3503954
 87006017, -0.000186179, 0.01160021, 0.0002325308, 0.00104407, -0.0002361408, 0.004120824, 1.738449E-05, 0.0005187925, -0.999998, -0.001266858, 0.3503954
 87205937, -0.0004029893, 0.01156076, 9.985149E-05, 0.00104407, -0.0001546604, 0.003966979, 2.216167E-05, 0.0005187925, -0.999998, -0.001246623, 0.3503954
 87405857, -0.0002887329, 0.01118737, 0.0001413399, 0.00104407, 2.899054E-05, 0.004098452, -0.0001598839, 0.0005187925, -0.999998, -0.001227821, 0.3503954
 87605777, -0.0001599878, 0.01147964, -0.0001610623, 0.00104407, -0.0002337559, 0.003887224, -0.0001189876, 0.0005187925, -0.999998, -0.001208168, 0.3503954
 87806530, -0.0006901691, 0.01139796, -4.202906E-05, 0.001046232, -0.0004132181, 0.004187014, -0.0001687468, 0.0005209541, -0.9999981, -0.00118984, 0.3511209
 88006450, -0.0003940615, 0.01132545, -3.401311E-05, 0.001046232, 0.0001315973, 0.003860537, 0.0001279367, 0.0005187925, -0.9999981, -0.001169785, 0.3511209
 88206370, -0.0001177848, 0.01118116, 3.183644E-05, 0.00104407, -3.861777E-05, 0.003810258, -3.94985E-05, 0.0005187925, -0.9999981, -0.001149609, 0.3503954
 88406290, -0.0002071528, 0.01113583, 0.0001801258, 0.00104407, 7.607594E-05, 0.004114477, 0.0002644029, 0.0005187925, -0.9999981, -0.001129691, 0.3503954
 88606210, -0.0001327482, 0.01138818, 0.000284739, 0.00104407, -4.793071E-06, 0.00400131, 4.301854E-05, 0.0005187925, -0.9999981, -0.001109401, 0.3503954
 88806130, -0.000250421, 0.011575, 0.00028074, 0.00104407, -0.0003190914, 0.004122651, -5.782078E-05, 0.0005187925, -0.9999981, -0.001090678, 0.3503954
 89006050, -0.0004173256, 0.01173271, -0.0001351721, 0.00104407, -0.0001847688, 0.004118837, -0.0001486851, 0.0005187925, -0.9999981, -0.001071564, 0.3503954
 89205970, -0.0002600209, 0.01153242, -0.0002489763, 0.00104407, -0.00030716, 0.003990243, 0.0002250033, 0.0005187925, -0.9999981, -0.001052243, 0.3503954
 89405890, -0.0004639935, 0.01149965, 0.0003609143, 0.00104407, -0.0005109732, 0.004067663, 0.0001519847, 0.0005187925, -0.9999982, -0.001032393, 0.3503954
 89605810, -0.0006173291, 0.01144571, 0.0003118388, 0.00104407, -1.74954E-05, 0.004044115, 0.0002256587, 0.0005187925, -0.9999982, -0.001011128, 0.3503954
 89806563, -0.0001861938, 0.01158428, 0.0003588765, 0.001046232, -8.268135E-05, 0.004345254, 8.462698E-05, 0.0005209541, -0.9999982, -0.0009919159, 0.3511209
 90006483, -7.690429E-05, 0.01202109, 0.0002154367, 0.001046232, -2.451948E-05, 0.004157834, -0.0001531238, 0.0005187925, -0.9999982, -0.0009858274, 0.3511209
 90206403, -0.0002053806, 0.01149446, -0.0001134764, 0.00104407, 1.525384E-05, 0.004144417, 2.013831E-05, 0.0005187925, -0.9999982, -0.0009788665, 0.3503954
 90406323, -0.0003952833, 0.01167835, -6.739065E-05, 0.00104407, 7.024043E-05, 0.004319091, -8.809259E-05, 0.0005187925, -0.9999982, -0.0009717184, 0.3503954
 90606243, -0.0002296029, 0.01173404, 6.458678E-05, 0.00104407, -0.0001720093, 0.004177573, 0.0002038545, 0.0005187925, -0.9999983, -0.0009634547, 0.3503954
 90806163, -0.0003890484, 0.0115341, 0.0003564899, 0.00104407, -0.0001968139, 0.004004803, -0.0001167593, 0.0005187925, -0.9999983, -0.0009546238, 0.3503954
 91006083, -0.0004086118, 0.01141411, -0.0001902796, 0.00104407, -8.757344E-05, 0.004151654, -7.988714E-05, 0.0005187925, -0.9999983, -0.0009455787, 0.3503954
 91206003, -0.000321388, 0.01135433, 0.000202197, 0.00104407, -0.0001565958, 0.004052233, 3.025513E-06, 0.0005187925, -0.9999983, -0.0009346555, 0.3503954
 91405923, -0.0004213435, 0.01153885, 0.0001232822, 0.00104407, 1.959531E-05, 0.003981434, 3.157782E-05, 0.0005187925, -0.9999983, -0.0009228216, 0.3503954
 91605843, -0.0003378002, 0.01126806, 6.354173E-05, 0.00104407, 6.993765E-05, 0.003825494, 0.0001440461, 0.0005187925, -0.9999983, -0.0009112633, 0.3503954
 91805763, -8.410087E-05, 0.01102502, 0.0004069857, 0.00104407, -9.755958E-05, 0.003708885, -5.866445E-05, 0.0005187925, -0.9999983, -0.0008986734, 0.3503954
 92006516, -0.0003748896, 0.01096229, 6.621333E-05, 0.001046232, 1.280431E-05, 0.003964161, 8.897917E-05, 0.0005209541, -0.9999983, -0.0008869254, 0.3511209
 92206436, -0.0003065289, 0.01125411, 4.68615E-05, 0.001046232, -0.0001692739, 0.003887662, -8.510522E-05, 0.0005187925, -0.9999983, -0.0008742921, 0.3511209
 92406356, -0.0005716977, 0.01126533, 1.593786E-05, 0.00104407, -0.0002641416, 0.004213866, 0.0002488976, 0.0005187925, -0.9999983, -0.0008620114, 0.3503954
 92606276, -0.0004723339, 0.0114876, 0.0002961488, 0.00104407, -0.0001546672, 0.003990756, 8.271365E-05, 0.0005187925, -0.9999983, -0.0008484127, 0.3503954
 92806196, -0.0004567723, 0.01140243, 0.0001835506, 0.00104407, -0.0003064386, 0.003660234, 0.0001747755, 0.0005187925, -0.9999983, -0.0008356911, 0.3503954
 93006116, -0.0004180241, 0.01110088, -2.481179E-05, 0.00104407, -5.316635E-05, 0.004020114, -0.000248334, 0.0005187925, -0.9999985, -0.0008223937, 0.3503954
 93206036, -9.362741E-05, 0.01149683, -0.0002217013, 0.00104407, 0.0001393651, 0.003718895, 2.828658E-05, 0.0005187925, -0.9999985, -0.0008086783, 0.3503954
 93405956, -0.0001187522, 0.01107113, 0.000251767, 0.00104407, -0.0004557836, 0.00395247, 0.0003415183, 0.0005187925, -0.9999985, -0.0007948003, 0.3503954
 93605876, -0.0009715687, 0.01146829, 0.0004336517, 0.00104407, -2.190179E-05, 0.00380932, 6.94879E-05, 0.0005187925, -0.9999985, -0.0007816426, 0.3503954
 93805796, -0.0002009967, 0.01135787, 0.0002010995, 0.00104407, -7.902689E-06, 0.004033331, 0.0003658225, 0.0005187925, -0.9999985, -0.0007679103, 0.3503954
 94006549, -0.000231517, 0.0115626, 0.0004799217, 0.001046232, -0.0002956797, 0.004133953, 0.0001545987, 0.0005209541, -0.9999985, -0.000753382, 0.3511209
 94206469, -0.000534508, 0.01163353, 3.598164E-05, 0.001046232, -0.0002304237, 0.004053455, 0.0002661474, 0.0005187925, -0.9999985, -0.0007390001, 0.3511209
 94406389, -0.0005329165, 0.01142731, 0.0003519712, 0.00104407, -0.0005287208, 0.004009753, -0.0001339508, 0.0005187925, -0.9999985, -0.000724353, 0.3503954
 94606309, -0.0004411034, 0.01148968, -0.0002166704, 0.00104407, 0.0001421199, 0.003746567, 0.0002420518, 0.0005187925, -0.9999985, -0.0007115667, 0.3503954
 94806229, 0.0001724492, 0.01113566, 0.0001863795, 0.00104407, -7.202743E-05, 0.003951794, 7.203199E-05, 0.0005187925, -0.9999985, -0.0006972835, 0.3503954
 95006149, -0.0001647958, 0.01131194, 0.000334726, 0.00104407, 0.0001735004, 0.004291043, -0.0001149254, 0.0005187925, -0.9999985, -0.0006829363, 0.3503954
 95206069, 0.0002239708, 0.01199521, 9.185095E-05, 0.00104407, 0.0002997807, 0.004221481, 0.0001403855, 0.0005187925, -0.9999985, -0.0006862167, 0.3503954
 95405989, 0.0001196001, 0.01167973, 0.0003641567, 0.00104407, -0.0001163645, 0.004068591, 5.882293E-05, 0.0005187925, -0.9999985, -0.0006877538, 0.3503954
 95605909, -0.0003062374, 0.01136199, 7.9053E-05, 0.00104407, -0.0002589825, 0.004029804, -7.47334E-05, 0.0005187925, -0.9999985, -0.0006879459, 0.3503954
 95805829, -0.0002799371, 0.01144907, 9.052351E-05, 0.00104407, -0.000385241, 0.003885587, 9.029948E-05, 0.0005187925, -0.9999986, -0.0006885119, 0.3503954
 96006582, -0.0004111379, 0.01151483, -4.50685E-05, 0.001046232, -2.13237E-05, 0.004246952, 0.0001152245, 0.0005209541, -0.9999986, -0.0006864064, 0.3511209
 96206502, -0.0002141557, 0.01163763, -8.043529E-05, 0.001046232, -0.0001630437, 0.004049279, -0.0002071267, 0.0005187925, -0.9999986, -0.0006850679, 0.3511209
 96406422, -0.0005000901, 0.01129231, -8.678537E-05, 0.00104407, -0.0001756496, 0.004047708, -1.962353E-05, 0.0005187925, -0.9999986, -0.0006828928, 0.3503954
 96606342, -0.000416097, 0.01145552, -1.422194E-05, 0.00104407, -0.000369804, 0.004151287, 8.935927E-06, 0.0005187925, -0.9999986, -0.0006812143, 0.3503954
 96806262, -0.0003627032, 0.01150488, -8.872178E-05, 0.00104407, -0.0001838994, 0.003843096, -5.293754E-05, 0.0005187925, -0.9999986, -0.0006773702, 0.3503954
 97006182, -0.0004389981, 0.01108777, 9.780307E-05, 0.00104407, -0.0002815789, 0.004437543, 9.983478E-05, 0.0005187925, -0.9999986, -0.0006740371, 0.3503954
 97206102, -0.0003879298, 0.01166006, 7.924246E-05, 0.00104407, -8.972984E-05, 0.003812275, -4.817345E-05, 0.0005187925, -0.9999986, -0.0006706828, 0.3503954
 97406022, -0.0004133602, 0.01121729, 1.867381E-05, 0.00104407, -0.0003247988, 0.004038627, 9.355139E-05, 0.0005187925, -0.9999986, -0.0006655854, 0.3503954
 97605942, -0.0004170162, 0.01145982, 4.229877E-05, 0.00104407, 0.0001859495, 0.003735291, -0.0001181416, 0.0005187925, -0.9999986, -0.0006589163, 0.3503954
 97805862, -6.307455E-06, 0.01111354, -0.0002029084, 0.00104407, -0.0001378244, 0.004123297, 5.313655E-05, 0.0005187925, -0.9999986, -0.0006538187, 0.3503954
 98005782, -0.000249762, 0.01146695, 0.0002411105, 0.00104407, -9.313214E-05, 0.003977459, 5.117753E-05, 0.0005187925, -0.9999986, -0.0006480249, 0.3503954
 98206535, -6.40024E-05, 0.01147503, 0.000178711, 0.001046232, -0.0001348279, 0.003888211, 0.0001118701, 0.0005209541, -0.9999986, -0.0006403235, 0.3511209
 98406455, -0.0001189592, 0.01137228, 0.0001914665, 0.001046232, -4.18581E-06, 0.004135905, 1.42279E-05, 0.0005187925, -0.9999986, -0.000633987, 0.3511209
 98606375, -0.0004286396, 0.01146898, 6.683898E-05, 0.00104407, -0.0004050215, 0.004079705, 0.0001091246, 0.0005187925, -0.9999986, -0.0006267546, 0.3503954
 98806295, -0.000723701, 0.0113831, 0.0001657836, 0.00104407, -0.0001252592, 0.004458011, -0.0001378652, 0.0005187925, -0.9999986, -0.0006198233, 0.3503954
 99006215, -0.0002358535, 0.01203735, 6.375144E-06, 0.00104407, -9.510295E-05, 0.004122968, 3.542794E-05, 0.0005187925, -0.9999986, -0.0006118239, 0.3503954
 99206135, -0.000417255, 0.01161389, -9.241937E-05, 0.00104407, -0.0002943739, 0.003806469, -0.0001576651, 0.0005187925, -0.9999985, -0.0006045832, 0.3503954
 99406055, -0.0006073127, 0.01120234, -0.0001115532, 0.00104407, -0.0004081978, 0.004006496, -0.0001048956, 0.0005187925, -0.9999985, -0.0005970412, 0.3503954
 99605975, -0.0007327375, 0.01143572, 0.0001257024, 0.00104407, 0.0001510864, 0.003955098, 0.0003336978, 0.0005187925, -0.9999986, -0.0005893986, 0.3503954
 99805895, 0.000239551, 0.01146159, 0.0005466955, 0.00104407, 0.0001072807, 0.003915356, 0.0004652963, 0.0005187925, -0.9999986, -0.0005800883, 0.3503954
 100005815, -5.571719E-06, 0.01148182, 0.0005093014, 0.00104407, 1.70121E-05, 0.003921244, 1.985471E-05, 0.0005187925, -0.9999986, -0.0005713796, 0.3503954
 100206568, -5.248017E-05, 0.01154329, -6.746573E-05, 0.001046232, -0.0002101879, 0.00401944, -0.000164221, 0.0005209541, -0.9999986, -0.0005614505, 0.3511209
 100406488, -0.0004207178, 0.0115797, -6.256305E-05, 0.001046232, -0.0002858305, 0.004267351, 4.585815E-05, 0.0005187925, -0.9999986, -0.0005730026, 0.3511209
 100606408, -0.0004266123, 0.0116991, 1.758705E-05, 0.00104407, -0.0001287685, 0.003819986, 4.448065E-05, 0.0005187925, -0.9999986, -0.0005840474, 0.3503954
 100806328, -0.000187005, 0.01105242, 0.0001753463, 0.00104407, 4.138612E-05, 0.00392393, 0.0001093808, 0.0005187925, -0.9999986, -0.0005924443, 0.3503954
 101006248, -0.0001947593, 0.01126629, 0.0001418703, 0.00104407, -0.0001551878, 0.004069215, -0.0001061873, 0.0005187925, -0.9999986, -0.0005998201, 0.3503954
 101206168, -0.0004089609, 0.0116556, -0.0001163029, 0.00104407, -0.0003425753, 0.00380398, -0.0001257298, 0.0005187925, -0.9999986, -0.0006059273, 0.3503954
 101406088, -0.0004212549, 0.01102402, -0.0001675663, 0.00104407, -0.0002159846, 0.003818443, 0.0001101065, 0.0005187925, -0.9999986, -0.0006117687, 0.3503954
 101606008, -0.0005153964, 0.01111808, 0.0001317701, 0.00104407, -0.0001308342, 0.003919097, 0.0005277477, 0.0005187925, -0.9999986, -0.0006157826, 0.3503954
 101805928, -0.0005789718, 0.01142408, 0.0004684625, 0.00104407, -0.0002115714, 0.004296309, 5.86144E-05, 0.0005187925, -0.9999986, -0.000619382, 0.3503954
 102005848, -0.0005781747, 0.01154113, 0.0001912508, 0.00104407, -0.0001343211, 0.003925006, -5.978219E-05, 0.0005187925, -0.9999986, -0.0006235339, 0.3503954
 102205768, -0.0005934779, 0.01152774, 0.0001108596, 0.00104407, -0.0003331609, 0.004233296, -0.0001414436, 0.0005187925, -0.9999986, -0.0006267919, 0.3503954
 102406521, -0.000570244, 0.01181406, -1.583222E-05, 0.001046232, -0.0002955207, 0.004247526, -4.878953E-05, 0.0005209541, -0.9999986, -0.0006276066, 0.3511209
 102606441, -0.000363188, 0.01163852, -0.0001610886, 0.001046232, 2.207423E-05, 0.003654924, -0.000348133, 0.0005187925, -0.9999986, -0.000628475, 0.3511209
 102806361, -0.0003047267, 0.01103839, -0.0003006723, 0.00104407, -5.83339E-05, 0.003992445, 0.0002633387, 0.0005187925, -0.9999986, -0.0006294015, 0.3503954
 103006281, -0.0002388224, 0.01130504, 0.0003038333, 0.00104407, -0.0001961651, 0.003703746, 9.732287E-05, 0.0005187925, -0.9999986, -0.0006297932, 0.3503954
 103206201, -0.0006226989, 0.01105109, 2.257517E-05, 0.00104407, -0.0002729724, 0.00382045, 0.0002436295, 0.0005187925, -0.9999986, -0.0006301022, 0.3503954
 103406121, -0.0004075203, 0.01111396, 0.000355216, 0.00104407, 5.029733E-05, 0.004170942, 0.0001569442, 0.0005187925, -0.9999986, -0.0006296132, 0.3503954
 103606041, -0.0002440435, 0.01153513, 0.0001248861, 0.00104407, -0.0002206635, 0.004044869, 1.21378E-05, 0.0005187925, -0.9999986, -0.0006286807, 0.3503954
 103805961, -0.0005158195, 0.01128255, 0.0001596015, 0.00104407, -0.0003857841, 0.003861479, 0.0003581784, 0.0005187925, -0.9999986, -0.0006258292, 0.3503954
 104005881, -0.0005149159, 0.01126969, 0.0004625437, 0.00104407, -0.0002288062, 0.004030448, 0.0002392443, 0.0005187925, -0.9999986, -0.0006237701, 0.3503954
 104205801, -0.0004797148, 0.01142155, 0.0003365267, 0.00104407, -0.0003811907, 0.00387734, 0.0001646301, 0.0005187925, -0.9999986, -0.0006209634, 0.3503954
 104406554, -0.0004670382, 0.01111097, 0.0001485425, 0.001046232, -8.145179E-05, 0.003954519, 7.973459E-05, 0.0005209541, -0.9999986, -0.0006173974, 0.3511209
 104606474, -0.0003323291, 0.01131104, 6.181508E-05, 0.001046232, -0.0003593001, 0.004179971, -6.550314E-06, 0.0005187925, -0.9999985, -0.0006136124, 0.3511209
 104806394, -0.0005647901, 0.01196259, -0.0003849231, 0.00104407, 9.368304E-05, 0.003827027, -8.28054E-06, 0.0005187925, -0.9999985, -0.0006093064, 0.3503954
 105006314, -0.000275233, 0.01106919, 8.867768E-05, 0.00104407, -0.0004040124, 0.003963846, 0.0001936293, 0.0005187925, -0.9999985, -0.0006050412, 0.3503954
 105206234, -0.0007056135, 0.01137329, 0.0003099584, 0.00104407, -0.0002926951, 0.003693328, -0.0001267069, 0.0005187925, -0.9999985, -0.0006015401, 0.3503954
 105406154, -0.000496443, 0.01134225, 9.354662E-05, 0.00104407, -0.0002043332, 0.004370669, -3.414457E-05, 0.0005187925, -0.9999985, -0.0005969019, 0.3503954
 105606074, -0.000214643, 0.01181068, 6.424957E-05, 0.00104407, 0.0001454173, 0.003899259, 6.857512E-05, 0.0005187925, -0.9999985, -0.0006125997, 0.3503954
 105805994, -0.0002190025, 0.01133511, 0.0001874257, 0.00104407, 3.421991E-06, 0.004115174, -0.0001142164, 0.0005187925, -0.9999985, -0.0006275811, 0.3503954
 106005914, -0.000128322, 0.01166581, 8.753851E-05, 0.00104407, -6.140724E-05, 0.004075353, 0.0002001605, 0.0005187925, -0.9999985, -0.0006398734, 0.3503954
 106205834, -0.000163988, 0.01127869, 0.0004688436, 0.00104407, 0.0002242549, 0.003863602, 0.0004214651, 0.0005187925, -0.9999986, -0.0006526281, 0.3503954
 106406587, -0.0001164113, 0.01114941, 0.0006140678, 0.001046232, -0.0003374307, 0.003406106, 0.0001990257, 0.0005209541, -0.9999986, -0.0006637651, 0.3511209
 106606507, -0.0006035478, 0.01093341, 0.0003000533, 0.001046232, 5.681428E-05, 0.003793127, -6.148738E-06, 0.0005187925, -0.9999986, -0.0006730906, 0.3511209
 106806427, -0.0003743928, 0.01133856, 0.0003679161, 0.00104407, -0.0001078988, 0.004296237, 0.0001729273, 0.0005187925, -0.9999986, -0.0006817126, 0.3503954
 107006347, -0.0001061053, 0.0115943, 0.0001797898, 0.00104407, 0.0001022893, 0.003922076, -6.475599E-05, 0.0005187925, -0.9999986, -0.0006896388, 0.3503954
 107206267, -0.0001185938, 0.01127845, -3.218079E-05, 0.00104407, -0.0003926095, 0.004359717, 4.015508E-05, 0.0005187925, -0.9999986, -0.00069656, 0.3503954
 107406187, -0.0005348749, 0.01153912, 1.424575E-05, 0.00104407, 2.784043E-05, 0.003660045, 0.0001118582, 0.0005187925, -0.9999986, -0.0007027577, 0.3503954
 107606107, -2.479803E-05, 0.01086604, -3.581163E-05, 0.00104407, 1.703677E-05, 0.003899847, -0.0001113732, 0.0005187925, -0.9999986, -0.0007089851, 0.3503954
 107806027, -9.694134E-05, 0.0112097, -7.782325E-05, 0.00104407, -0.0001914187, 0.003883701, -3.93138E-05, 0.0005187925, -0.9999986, -0.0007137975, 0.3503954
 108005947, -0.0003890699, 0.0113692, -7.29268E-06, 0.00104407, -0.0003753667, 0.004069201, 5.645519E-05, 0.0005187925, -0.9999985, -0.0007170846, 0.3503954
 108205867, -0.0003722841, 0.01157292, -6.938186E-05, 0.00104407, 3.425079E-05, 0.00409105, -1.621312E-05, 0.0005187925, -0.9999985, -0.0007210204, 0.3503954
 108405787, -0.0001503447, 0.01147645, -0.0001007273, 0.00104407, -5.963585E-05, 0.004025391, -3.155519E-05, 0.0005187925, -0.9999985, -0.0007245675, 0.3503954
 108606540, -0.0005693629, 0.01146692, 3.767692E-05, 0.001046232, -0.00017372, 0.003883032, 0.0002710669, 0.0005209541, -0.9999985, -0.0007285131, 0.3511209
 108806460, -0.0003584045, 0.01137819, 0.0003172265, 0.001046232, -0.0002443908, 0.004375554, 0.0001006558, 0.0005187925, -0.9999985, -0.0007306564, 0.3511209
 109006380, -0.0004985228, 0.01204247, 3.148843E-05, 0.00104407, 2.15294E-05, 0.004324748, -0.0002166561, 0.0005187925, -0.9999985, -0.0007319065, 0.3503954
 109206300, -0.0003139347, 0.01194279, -0.0001158108, 0.00104407, -0.0002838654, 0.004160418, 0.0001331941, 0.0005187925, -0.9999985, -0.000733697, 0.3503954
 109406220, -0.0004132766, 0.01162939, 6.221545E-05, 0.00104407, -0.0001444659, 0.004170998, -3.20652E-05, 0.0005187925, -0.9999985, -0.0007350039, 0.3503954
 109606140, -0.0004517959, 0.01155958, -0.0001816476, 0.00104407, -0.0001069629, 0.003692256, -0.0001878523, 0.0005187925, -0.9999985, -0.000734881, 0.3503954
 109806060, -0.0005464601, 0.01123111, -0.0001959219, 0.00104407, -0.0002079086, 0.0042876, 1.862138E-05, 0.0005187925, -0.9999985, -0.0007359706, 0.3503954
 110005980, -0.0004823662, 0.01184593, 0.0001753296, 0.00104407, 0.0001786917, 0.004103362, -2.004537E-05, 0.0005187925, -0.9999985, -0.000734452, 0.3503954
 110205900, 0.0003845177, 0.01180165, 1.658967E-05, 0.00104407, -0.0001163631, 0.004120717, 2.743219E-05, 0.0005187925, -0.9999983, -0.0007320807, 0.3503954
 110405820, -0.0004634175, 0.01167731, 6.210585E-05, 0.00104407, -0.0003868063, 0.003905964, -9.363957E-05, 0.0005187925, -0.9999983, -0.0007320963, 0.3503954
 110606573, -0.0004918733, 0.01161727, 3.521899E-05, 0.001046232, -1.349468E-05, 0.004206983, 0.0001798868, 0.0005209541, -0.9999983, -0.0007303467, 0.3511209
 110806493, -0.0002668729, 0.01192, 9.377937E-05, 0.001046232, -2.501136E-05, 0.004339208, 1.007392E-05, 0.0005187925, -0.9999983, -0.0007486438, 0.3511209
 111006413, -0.0002560865, 0.01191539, 9.981572E-05, 0.00104407, 5.725345E-07, 0.004186193, 0.0003609559, 0.0005187925, -0.9999983, -0.0007649589, 0.3503954
 111206333, 2.41063E-05, 0.01143751, 0.0003166421, 0.00104407, -0.000343848, 0.00385382, -9.909002E-05, 0.0005187925, -0.9999983, -0.0007795631, 0.3503954
 111406253, -0.0004732881, 0.01133597, 4.033858E-05, 0.00104407, -1.144018E-05, 0.003975024, 0.0001892501, 0.0005187925, -0.9999983, -0.0007939366, 0.3503954
 111606173, -0.0001191459, 0.0114055, 8.815338E-05, 0.00104407, 0.0003303935, 0.004050689, 0.0001081856, 0.0005187925, -0.9999983, -0.0008072586, 0.3503954
 111806093, 0.0002811195, 0.01131461, 0.0001689163, 0.00104407, 5.516539E-05, 0.003793929, -0.0005388249, 0.0005187925, -0.9999983, -0.0008188175, 0.3503954
 112006013, -0.0001524769, 0.01137779, -0.000366789, 0.00104407, 5.295259E-05, 0.004217809, -4.182572E-06, 0.0005187925, -0.9999983, -0.0008298715, 0.3503954
 112205933, -0.0002233521, 0.0117695, 0.0002012842, 0.00104407, -0.0003024107, 0.004389346, 0.0002405182, 0.0005187925, -0.9999983, -0.0008393381, 0.3503954
 112405853, -0.000628188, 0.01191831, 0.000231494, 0.00104407, -0.0004971355, 0.003837721, -7.57987E-05, 0.0005187925, -0.9999983, -0.0008490616, 0.3503954
 112605773, -0.000725817, 0.01106889, -4.819967E-05, 0.00104407, -0.0001794098, 0.003977984, -0.0003716864, 0.0005187925, -0.9999983, -0.0008570771, 0.3503954
 112806526, -0.0002369556, 0.0112974, -0.0002943331, 0.001046232, -0.0001240392, 0.004037299, -0.0001773712, 0.0005209541, -0.9999983, -0.0008651124, 0.3511209
 113006446, -0.0003084725, 0.01148425, -4.968365E-05, 0.001046232, 6.14681E-05, 0.004048837, 8.067599E-05, 0.0005187925, -0.9999983, -0.0008724247, 0.3511209
 113206366, -5.009232E-05, 0.01157989, 0.0001358788, 0.00104407, -0.0001370009, 0.004084802, 8.993125E-06, 0.0005187925, -0.9999983, -0.0008793755, 0.3503954
 113406286, -0.0004203569, 0.0113675, 0.0002387891, 0.00104407, -0.000220298, 0.003834757, 0.0001576127, 0.0005187925, -0.9999983, -0.0008842968, 0.3503954
 113606206, -0.0007222301, 0.01138554, 0.0001398433, 0.00104407, -0.0003221877, 0.004140097, 0.0001400804, 0.0005187925, -0.9999983, -0.0008886966, 0.3503954
 113806126, -0.0006056441, 0.01162427, 0.0003394663, 0.00104407, 3.168881E-05, 0.004213064, 0.0001931252, 0.0005187925, -0.9999983, -0.000893769, 0.3503954
 114006046, -0.0002122651, 0.01180114, 0.0002803169, 0.00104407, 7.558418E-06, 0.004295993, 0.0001033369, 0.0005187925, -0.9999983, -0.0008965774, 0.3503954
 114205966, -0.0001353741, 0.01161734, 0.000183124, 0.00104407, 0.0001139516, 0.004103773, 4.185074E-05, 0.0005187925, -0.9999983, -0.0008984723, 0.3503954
 114405886, -9.293376E-06, 0.01154769, 6.469641E-05, 0.00104407, -0.0001148398, 0.003781646, 0.0002743196, 0.0005187925, -0.9999983, -0.0009009303, 0.3503954
 114605806, -0.0001868212, 0.01113065, 0.00010325, 0.00104407, -0.0001702298, 0.003827727, -0.0001004866, 0.0005187925, -0.9999983, -0.0009023168, 0.3503954
 114806559, -0.0003951109, 0.01136467, -0.0001541908, 0.001046232, -4.491556E-05, 0.00399797, 0.0001658646, 0.0005209541, -0.9999983, -0.0009037218, 0.3511209
 115006479, -0.0002429938, 0.01140556, 0.0001816153, 0.001046232, -0.0002670753, 0.003919533, 2.86679E-05, 0.0005187925, -0.9999983, -0.0009043808, 0.3511209
 115206399, -0.0004447488, 0.01146724, 0.0002382958, 0.00104407, -2.312047E-05, 0.004073459, 5.229049E-05, 0.0005187925, -0.9999982, -0.0009050226, 0.3503954
 115406319, -0.0002381807, 0.01159884, 0.0001037945, 0.00104407, 0.0001158989, 0.003978855, 0.0001829321, 0.0005187925, -0.9999982, -0.000905082, 0.3503954
 115606239, -3.557783E-06, 0.01137562, 0.0001337088, 0.00104407, 6.529012E-05, 0.003794683, 9.678544E-05, 0.0005187925, -0.9999982, -0.0009049549, 0.3503954
 115806159, -2.699843E-05, 0.01125515, 0.0001040638, 0.00104407, -0.0001534621, 0.004076223, 8.188787E-06, 0.0005187925, -0.9999982, -0.0009026437, 0.3503954
 116006079, -0.0003054742, 0.0115418, 0.0001398159, 0.00104407, -4.094653E-05, 0.003976333, 0.0003118924, 0.0005187925, -0.9999982, -0.0009199231, 0.3503954
 116205999, -0.0003602204, 0.0115315, 0.0002846079, 0.00104407, 0.0001666594, 0.004171971, 1.496431E-05, 0.0005187925, -0.9999982, -0.0009348993, 0.3503954
 116405919, -0.0001452066, 0.01161753, 9.531617E-05, 0.00104407, 0.0001622473, 0.00418377, -0.0002156694, 0.0005187925, -0.9999982, -0.0009486182, 0.3503954
 116605839, -0.0001730763, 0.01142975, 5.740018E-06, 0.00104407, -0.0001908264, 0.003885556, 0.0002698725, 0.0005187925, -0.9999982, -0.0009608195, 0.3503954
 116806592, -0.0004374433, 0.01141056, 0.0002599201, 0.001046232, -0.0004306752, 0.004211685, 0.0001161897, 0.0005187925, -0.9999982, -0.0009735068, 0.3511209
 117006512, -0.0007507995, 0.01197094, 7.529583E-05, 0.001046232, -0.0002536264, 0.004298042, 0.0002880231, 0.0005209541, -0.9999982, -0.0009847032, 0.3511209
 117206432, -0.0005940979, 0.01179207, 0.0003661562, 0.001046232, -8.371526E-05, 0.003915932, -0.0001577295, 0.0005187925, -0.9999982, -0.0009944327, 0.3511209
 117406352, -0.0002135742, 0.01121004, -0.000120868, 0.00104407, -0.0001192112, 0.004019874, -0.0001356452, 0.0005187925, -0.9999982, -0.001003161, 0.3503954
 117606272, -0.0003462472, 0.01144403, 6.880272E-05, 0.00104407, -0.0001661344, 0.00416825, 0.0001386743, 0.0005187925, -0.9999982, -0.001010802, 0.3503954
 117806192, -0.0006792418, 0.01153819, 0.0001756156, 0.00104407, -8.940859E-06, 0.004184608, -2.518242E-05, 0.0005187925, -0.9999982, -0.001018502, 0.3503954
 118006112, -0.0001501628, 0.0116431, 0.0002416621, 0.00104407, -0.0001300673, 0.003685054, 0.0002621043, 0.0005187925, -0.9999982, -0.001025405, 0.3503954
 118206032, -0.0003918264, 0.01091524, 0.0003566233, 0.00104407, 2.909964E-05, 0.004098147, 0.0003316803, 0.0005187925, -0.9999982, -0.001031041, 0.3503954
 118405952, -0.0002793451, 0.01146691, 0.0003105793, 0.00104407, -0.0002629826, 0.003719341, -5.782198E-05, 0.0005187925, -0.9999982, -0.001034567, 0.3503954
 118605872, -0.0004976625, 0.0110692, 6.846192E-05, 0.00104407, -0.0001789126, 0.003966316, -8.831781E-05, 0.0005187925, -0.9999982, -0.001038558, 0.3503954
 118805792, -0.000363414, 0.01133233, -6.192469E-05, 0.00104407, -1.694938E-05, 0.003919858, -1.279438E-05, 0.0005187925, -0.9999982, -0.001041132, 0.3503954
 119006545, -0.0001372502, 0.01147377, -6.191318E-05, 0.001046232, -1.658107E-05, 0.004070288, 0.0001561836, 0.0005209541, -0.9999982, -0.001043857, 0.3511209
 119206465, -0.0003591811, 0.01157678, 0.0002758873, 0.001046232, -0.0003221748, 0.004108205, -9.445464E-05, 0.0005187925, -0.9999982, -0.001044961, 0.3511209
 119406385, -0.00041484, 0.01149087, 8.645166E-06, 0.00104407, -8.91431E-05, 0.004143154, 0.0002343444, 0.0005187925, -0.9999982, -0.001046077, 0.3503954
 119606305, -0.0003598414, 0.01144539, 0.0002942898, 0.00104407, -9.290547E-05, 0.00379976, -4.282669E-05, 0.0005187925, -0.9999982, -0.001047271, 0.3503954
 119806225, -0.000519482, 0.01113693, 6.11037E-05, 0.00104407, -0.0001062005, 0.004175611, 0.0002623236, 0.0005187925, -0.9999982, -0.001048591, 0.3503954
 120006145, -0.0002461934, 0.01157887, 0.0004104606, 0.00104407, -0.0001158093, 0.004049054, 0.0001340497, 0.0005187925, -0.9999982, -0.001048149, 0.3503954
 120206065, -0.0003460239, 0.0113331, 0.0001625722, 0.00104407, -3.115661E-05, 0.003653949, 0.0002327357, 0.0005187925, -0.9999982, -0.00104788, 0.3503954
 120405985, -0.0004983137, 0.01107486, 0.0003528314, 0.00104407, -0.0002077836, 0.004400848, -0.0001850663, 0.0005187925, -0.9999982, -0.001046762, 0.3503954
 120605905, -0.0004752554, 0.01154684, -0.0001966322, 0.00104407, -0.0001737804, 0.003870218, 0.0001422802, 0.0005187925, -0.9999982, -0.001044028, 0.3503954
 120805825, -0.0002957185, 0.01132826, 0.0001766917, 0.00104407, -0.0002890942, 0.004218428, -0.0001040078, 0.0005187925, -0.9999982, -0.001042746, 0.3503954
 121006578, -0.0001569551, 0.01166416, 4.811985E-05, 0.001046232, 2.433905E-05, 0.003902167, 0.0004725071, 0.0005209541, -0.9999982, -0.001041645, 0.3511209
 121206498, 5.830752E-07, 0.01138893, 0.0002980677, 0.001046232, -0.000105601, 0.004213986, -5.358579E-05, 0.0005187925, -0.9999982, -0.001055653, 0.3511209
 121406418, -0.0003154994, 0.01162858, -1.7114E-05, 0.00104407, -0.0001270962, 0.0041647, -1.616666E-05, 0.0005187925, -0.9999982, -0.001068382, 0.3503954
 121606338, -0.0001739702, 0.01150711, 8.299845E-05, 0.00104407, -0.0002800267, 0.004184959, -8.608474E-05, 0.0005187925, -0.9999982, -0.001079213, 0.3503954
 121806258, -0.0004164282, 0.01182498, -7.656371E-05, 0.00104407, -9.170664E-05, 0.004354698, -8.430445E-05, 0.0005187925, -0.9999982, -0.00108878, 0.3503954
 122006178, -0.0001375748, 0.01150464, 7.419004E-05, 0.00104407, -3.964698E-05, 0.003863915, 0.0001574065, 0.0005187925, -0.9999982, -0.001097293, 0.3503954
 122206098, -0.0003356091, 0.01124407, 8.944156E-05, 0.00104407, -0.000192576, 0.004118251, -0.0002257171, 0.0005187925, -0.9999982, -0.001106239, 0.3503954
 122406018, -0.0003036077, 0.01148007, -0.0001879988, 0.00104407, -0.0001954516, 0.003935519, 0.0001095012, 0.0005187925, -0.9999982, -0.001114029, 0.3503954
 122605938, -0.0004106874, 0.01130508, 0.0002283827, 0.00104407, -0.0004275786, 0.00388883, 8.702133E-05, 0.0005187925, -0.9999981, -0.001120725, 0.3503954
 122805858, -0.0005319861, 0.01127668, 0.0001099445, 0.00104407, -0.0002649789, 0.003838595, -0.0001847589, 0.0005187925, -0.9999981, -0.001126945, 0.3503954
 123005778, -0.0005117936, 0.01118714, -0.0001426508, 0.00104407, -0.0001261692, 0.004080338, 0.0002848928, 0.0005187925, -0.9999981, -0.001132974, 0.3503954
 123206531, -0.0002701512, 0.0113977, 0.0004140926, 0.001046232, -0.0004038074, 0.004267735, 1.385889E-05, 0.0005209541, -0.9999981, -0.001139205, 0.3511209
 123406451, -0.0003882107, 0.01179792, 0.0002482451, 0.001046232, 0.0003014805, 0.004141898, -8.198796E-05, 0.0005187925, -0.9999981, -0.001143693, 0.3511209
 123606371, -0.0002483927, 0.01168908, -0.0002049223, 0.00104407, -0.0005606841, 0.004249305, -0.0002298425, 0.0005187925, -0.9999981, -0.001147402, 0.3503954
 123806291, -0.0007457347, 0.01159558, -5.510267E-05, 0.00104407, -0.0004724736, 0.003678627, 0.0002703991, 0.0005187925, -0.9999981, -0.001148334, 0.3503954
 124006211, -0.0006359043, 0.01108764, 0.0003335071, 0.00104407, -0.0001483367, 0.004210243, -0.0001602831, 0.0005187925, -0.9999981, -0.001149563, 0.3503954
 124206131, -0.0003331298, 0.0116237, -0.0001507097, 0.00104407, 0.0001984017, 0.003949983, 0.0001366712, 0.0005187925, -0.9999981, -0.001150942, 0.3503954
 124406051, -9.836021E-05, 0.01131809, 0.0001207274, 0.00104407, -1.163613E-05, 0.004033346, 5.552931E-06, 0.0005187925, -0.9999981, -0.001151969, 0.3503954
 124605971, -0.0001924155, 0.01152144, 8.897202E-05, 0.00104407, -6.25118E-05, 0.00403818, -0.0001546968, 0.0005187925, -0.9999981, -0.001152707, 0.3503954
 124805891, -0.0002178792, 0.01145216, -0.0001719692, 0.00104407, -0.0003228246, 0.003885521, -2.322578E-05, 0.0005187925, -0.9999981, -0.001151396, 0.3503954
 125005811, -0.0005442202, 0.0112236, 9.637196E-05, 0.00104407, -4.903738E-05, 0.003946189, 2.44174E-05, 0.0005187925, -0.9999981, -0.001150695, 0.3503954
 125206564, -3.692315E-05, 0.01169561, 0.0002813219, 0.001046232, 1.420546E-05, 0.004489738, 9.201618E-05, 0.0005209541, -0.9999981, -0.001150952, 0.3511209
 125406484, -0.0001681795, 0.01185219, 0.0001606103, 0.001046232, 8.004402E-05, 0.003941303, -5.793876E-05, 0.0005187925, -0.999998, -0.001149182, 0.3511209
 125606404, -9.59517E-05, 0.01134074, 3.733335E-05, 0.00104407, -0.0001553368, 0.004064251, -0.0001913342, 0.0005187925, -0.999998, -0.001147968, 0.3503954
 125806324, -0.0003704155, 0.01155956, -0.0002742338, 0.00104407, -5.784724E-06, 0.003904424, 0.0002580838, 0.0005187925, -0.999998, -0.001146603, 0.3503954
 126006244, -0.0001362576, 0.01160654, 0.0001684516, 0.00104407, -0.0001022278, 0.004124538, -0.0001420132, 0.0005187925, -0.999998, -0.001144246, 0.3503954
 126206164, -0.0002554904, 0.01194213, -0.0001908337, 0.00104407, -1.5611E-05, 0.004369624, -0.0002786916, 0.0005187925, -0.999998, -0.001141665, 0.3503954
 126406084, 1.525838E-05, 0.01189494, -0.000217688, 0.00104407, 0.0002362655, 0.004469127, 5.225237E-05, 0.0005187925, -0.999998, -0.00115449, 0.3503954
 126606004, 0.0002606293, 0.01217688, 0.000246114, 0.00104407, 0.0001120406, 0.004288075, 0.0001130832, 0.0005187925, -0.999998, -0.001166136, 0.3503954
 126805924, -0.000199464, 0.0117787, 0.0001157488, 0.00104407, -3.593931E-05, 0.004287146, 0.000121154, 0.0005187925, -0.999998, -0.001175801, 0.3503954
 127005844, -0.0002811154, 0.0116357, -0.0001446741, 0.00104407, -0.0002520652, 0.004144365, 8.443434E-05, 0.0005187925, -0.999998, -0.001185126, 0.3503954
 127205764, -0.0005909238, 0.01164163, 0.0002877706, 0.00104407, -0.0003302169, 0.004357114, -0.0002618112, 0.0005187925, -0.999998, -0.001193728, 0.3503954
 127406517, -0.0004439401, 0.01182751, -0.0001151312, 0.001046232, -0.000302654, 0.004044545, 0.0002095918, 0.0005209541, -0.999998, -0.001202144, 0.3511209
 127606437, -0.0004181205, 0.01155983, 0.0001915662, 0.001046232, -0.0001097534, 0.00376899, 0.000188404, 0.0005187925, -0.999998, -0.001208081, 0.3511209
 127806357, -0.0001371872, 0.01110134, 0.00034021, 0.00104407, -6.61334E-05, 0.004115733, 0.0001638532, 0.0005187925, -0.999998, -0.001213673, 0.3503954
 128006277, -0.0001394441, 0.01148937, 0.0002777514, 0.00104407, -3.313747E-05, 0.004106109, 3.349871E-05, 0.0005187925, -0.999998, -0.001218535, 0.3503954
 128206197, -0.0001765349, 0.01154837, 7.897676E-05, 0.00104407, 6.167935E-05, 0.004140688, 1.96712E-05, 0.0005187925, -0.999998, -0.001222677, 0.3503954
 128406117, -4.387664E-05, 0.01173845, -7.245979E-05, 0.00104407, 4.321919E-05, 0.003863859, -4.658385E-05, 0.0005187925, -0.999998, -0.001226733, 0.3503954
 128606037, -0.0001112587, 0.01110144, -9.496107E-05, 0.00104407, 0.0002587289, 0.004058632, 0.0001155951, 0.0005187925, -0.999998, -0.001229103, 0.3503954
 128805957, 0.0001704734, 0.01141954, 6.863353E-05, 0.00104407, 9.563484E-05, 0.004037741, 5.541968E-05, 0.0005187925, -0.999998, -0.001230126, 0.3503954
 129005877, -7.197943E-05, 0.01141432, 0.000136135, 0.00104407, -8.695696E-05, 0.003911874, -7.950463E-06, 0.0005187925, -0.999998, -0.001231135, 0.3503954
 129205797, -0.0004420055, 0.01136277, -6.744188E-05, 0.00104407, -0.0002062284, 0.003841933, 3.087358E-05, 0.0005187925, -0.999998, -0.00123232, 0.3503954
 129406550, -0.0003474508, 0.01139784, 0.0001785542, 0.001046232, -9.012015E-07, 0.003931492, 8.526331E-05, 0.0005209541, -0.999998, -0.001232841, 0.3511209
 129606470, -9.86727E-05, 0.0112106, 8.474972E-05, 0.001046232, -1.88994E-05, 0.003948637, 1.119404E-05, 0.0005187925, -0.999998, -0.001231736, 0.3511209
 129806390, -0.0002948248, 0.01120888, 0.0001475709, 0.00104407, 0.0001207032, 0.003878623, 0.0004090592, 0.0005187925, -0.999998, -0.001230569, 0.3503954
 130006310, 0.0001823195, 0.01116213, 0.0004639843, 0.00104407, 0.0002013454, 0.004031803, 2.94341E-05, 0.0005187925, -0.999998, -0.001229258, 0.3503954
 130206230, 1.334403E-05, 0.01153478, 4.81174E-06, 0.00104407, -0.0001966103, 0.003785072, -6.990735E-05, 0.0005187925, -0.999998, -0.001227199, 0.3503954
 130406150, -0.0002521674, 0.01111761, -1.137875E-05, 0.00104407, -5.569449E-05, 0.00404605, -0.0001394632, 0.0005187925, -0.999998, -0.001224556, 0.3503954
 130606070, -0.0002646837, 0.01138806, -7.766717E-05, 0.00104407, -1.001697E-05, 0.004007232, 2.476178E-05, 0.0005187925, -0.999998, -0.001221944, 0.3503954
 130805990, -0.0002568107, 0.01131401, 0.0001009096, 0.00104407, -0.0003038379, 0.003982488, -0.0001334228, 0.0005187925, -0.999998, -0.001218965, 0.3503954
 131005910, -0.0006823425, 0.01134673, -8.869176E-06, 0.00104407, -0.0003114579, 0.004507736, 0.0001476555, 0.0005187925, -0.999998, -0.001215337, 0.3503954
 131205830, -0.0004270072, 0.01225304, 0.0003495367, 0.00104407, 9.629453E-05, 0.00459406, 0.000249976, 0.0005187925, -0.999998, -0.001211987, 0.3503954
 131406583, 8.911596E-05, 0.01234989, 0.0003328942, 0.001046232, 0.0001157289, 0.004564201, -0.0001131185, 0.0005209541, -0.9999979, -0.00120857, 0.3511209
 131606503, 0.0001074127, 0.01193917, -7.418961E-05, 0.001046232, 0.00012233, 0.004018919, -0.0003280877, 0.0005187925, -0.999998, -0.001218746, 0.3511209
 131806423, 1.026224E-05, 0.01148065, -0.0003711849, 0.00104407, 6.312739E-05, 0.004004403, -7.534469E-05, 0.0005187925, -0.999998, -0.001227999, 0.3503954
 132006343, 4.714038E-05, 0.01132963, -0.0001750865, 0.00104407, -0.0003307155, 0.003921224, -8.288881E-06, 0.0005187925, -0.999998, -0.00123668, 0.3503954
 132206263, -0.0004556377, 0.01115817, 0.0001492714, 0.00104407, -0.0002241591, 0.004142999, -8.596557E-05, 0.0005187925, -0.999998, -0.001242863, 0.3503954
 132406183, -0.0004367016, 0.01183811, -4.952833E-05, 0.00104407, -0.0001307488, 0.003781249, -3.293388E-05, 0.0005187925, -0.999998, -0.001249632, 0.3503954
 132606103, -0.0002137842, 0.01122501, 0.0001064792, 0.00104407, -0.0004412677, 0.00397567, 0.0003179518, 0.0005187925, -0.999998, -0.001255773, 0.3503954
 132806023, -0.0003769252, 0.01149444, 0.0004135586, 0.00104407, 0.0001384606, 0.004197905, 0.0002543421, 0.0005187925, -0.999998, -0.001260017, 0.3503954
 133005943, -5.684447E-05, 0.01174703, 0.0002677108, 0.00104407, 0.000103274, 0.004116096, 0.0003440815, 0.0005187925, -0.999998, -0.001262467, 0.3503954
 133205863, -0.0001918725, 0.01127789, 0.0004137374, 0.00104407, -4.396838E-06, 0.003909673, -5.620257E-05, 0.0005187925, -0.999998, -0.001264348, 0.3503954
 133405783, -0.0003365357, 0.01112469, -8.328082E-05, 0.00104407, -8.371309E-05, 0.003869125, 7.295073E-06, 0.0005187925, -0.999998, -0.001265558, 0.3503954
 133606536, -0.0003746013, 0.01139103, 0.0001304156, 0.001046232, -7.455909E-05, 0.004241492, 0.0003406, 0.0005209541, -0.999998, -0.001265457, 0.3511209
 133806456, 6.075849E-05, 0.01149296, 0.0002975516, 0.001046232, -7.383005E-05, 0.004208908, -0.0002005931, 0.0005187925, -0.999998, -0.001266778, 0.3511209
 134006376, -0.0003007406, 0.01160218, -0.0003188502, 0.00104407, -3.601967E-06, 0.003714258, 7.926511E-05, 0.0005187925, -0.999998, -0.001266776, 0.3503954
 134206296, -0.0004159267, 0.01108505, 0.0002957281, 0.00104407, -0.0002228917, 0.003884973, -4.054235E-05, 0.0005187925, -0.999998, -0.001267348, 0.3503954
 134406216, -0.0003720926, 0.01113735, 0.0001464294, 0.00104407, -2.550935E-05, 0.004047061, 6.772788E-05, 0.0005187925, -0.999998, -0.001266906, 0.3503954
 134606136, -0.0002259211, 0.01148675, 0.0003593045, 0.00104407, -0.0001984069, 0.004196133, 0.0001306798, 0.0005187925, -0.999998, -0.001265768, 0.3503954
 134806056, -0.0002623765, 0.01189388, 0.0003537944, 0.00104407, 9.960458E-05, 0.00422764, 0.0003200729, 0.0005187925, -0.999998, -0.001263749, 0.3503954
 135005976, -0.0003714907, 0.01167538, 0.000431819, 0.00104407, -0.0003263543, 0.004001289, 0.0005038856, 0.0005187925, -0.999998, -0.00126068, 0.3503954
 135205896, -0.0003630384, 0.01172523, 0.000392074, 0.00104407, 0.0001479441, 0.004146359, -0.000449592, 0.0005187925, -0.999998, -0.001256585, 0.3503954
 135405816, -9.27123E-05, 0.01151871, -0.0004091655, 0.00104407, -0.0003069523, 0.004057491, 0.0001166533, 0.0005187925, -0.999998, -0.001252742, 0.3503954
 135606569, -0.0001848477, 0.01152931, 0.000256991, 0.001046232, 0.0002734751, 0.003999989, -0.0001549283, 0.0005209541, -0.999998, -0.001247436, 0.3511209
 135806489, 0.0003314425, 0.0112015, -0.0002163252, 0.001046232, -3.067335E-05, 0.004041833, 0.0001567523, 0.0005187925, -0.999998, -0.001242154, 0.3511209
 136006409, -0.000166388, 0.01137725, 0.0002016751, 0.00104407, 0.000253586, 0.003832649, 2.975704E-05, 0.0005187925, -0.999998, -0.00123688, 0.3503954
 136206329, 9.950537E-05, 0.01119033, 0.0001875306, 0.00104407, -0.0002457397, 0.003962142, 9.854427E-05, 0.0005187925, -0.999998, -0.00123276, 0.3503954
 136406249, -0.0004044113, 0.01160592, 0.0002410997, 0.00104407, 8.647939E-05, 0.004180455, 0.0001125374, 0.0005187925, -0.999998, -0.001227969, 0.3503954
 136606169, -4.451689E-05, 0.01181613, 0.0001242498, 0.00104407, -0.0002812635, 0.004373622, 3.751088E-05, 0.0005187925, -0.999998, -0.001223115, 0.3503954
 136806089, -0.0005146731, 0.01193411, -7.732756E-05, 0.00104407, -0.0003523306, 0.00423307, -1.393595E-05, 0.0005187925, -0.999998, -0.001231144, 0.3503954
 137006009, -0.0004593845, 0.01144138, 0.000221842, 0.00104407, 7.78662E-05, 0.003953981, -7.402319E-05, 0.0005187925, -0.999998, -0.001238118, 0.3503954
 137205929, 6.504342E-07, 0.01159055, -2.829493E-05, 0.00104407, -0.0003161589, 0.004363352, 0.000221133, 0.0005187925, -0.999998, -0.001244381, 0.3503954
 137405849, -0.0003667434, 0.01178182, 0.000312804, 0.00104407, -0.0003559219, 0.003947129, 2.782662E-05, 0.0005187925, -0.999998, -0.001249892, 0.3503954
 137605769, -0.0004898171, 0.01149835, 0.0004380047, 0.00104407, -0.0003577229, 0.0039374, 0.0002114284, 0.0005187925, -0.999998, -0.001254588, 0.3503954
 137806522, -0.0005690429, 0.01157145, 0.0002479225, 0.001046232, -6.154363E-05, 0.004258764, -8.250153E-05, 0.0005209541, -0.9999979, -0.001257232, 0.3511209
 138006442, -0.0001004074, 0.01156183, 5.113105E-05, 0.001046232, -5.458629E-05, 0.004085419, 2.727013E-05, 0.0005187925, -0.9999979, -0.001260521, 0.3511209
 138206362, -0.0002077101, 0.01153105, 0.0001126101, 0.00104407, -0.0001312785, 0.004003958, -0.0001972255, 0.0005187925, -0.9999979, -0.001262842, 0.3503954
 138406282, -0.0002713573, 0.01116132, -5.928407E-05, 0.00104407, -0.0002570223, 0.003714539, 6.972147E-06, 0.0005187925, -0.9999979, -0.00126408, 0.3503954
 138606202, -0.0004155392, 0.01112438, 0.0001534694, 0.00104407, 8.520848E-05, 0.004118438, 0.0002713786, 0.0005187925, -0.9999979, -0.001266125, 0.3503954
 138806122, -1.036344E-05, 0.01160726, 0.0003859514, 0.00104407, -5.964551E-06, 0.003799343, 4.931503E-05, 0.0005187925, -0.999998, -0.001267681, 0.3503954
 139006042, -0.0002266266, 0.01125126, 6.055201E-05, 0.00104407, -0.0002027759, 0.00395982, 0.000174679, 0.0005187925, -0.999998, -0.001267651, 0.3503954
 139205962, -0.0001964306, 0.0113113, 0.0002378013, 0.00104407, 0.0001316601, 0.004087697, -0.0001782955, 0.0005187925, -0.999998, -0.001264606, 0.3503954
 139405882, -0.0001934263, 0.01145071, -9.751948E-05, 0.00104407, -0.0004210957, 0.004126468, 0.0001587793, 0.0005187925, -0.999998, -0.00126352, 0.3503954
 139605802, -0.0006903959, 0.01161222, 0.0001745491, 0.00104407, 2.565901E-05, 0.003971899, 0.0001064173, 0.0005187925, -0.999998, -0.001262385, 0.3503954
 139806555, -0.0001062007, 0.0113467, 9.685613E-05, 0.001046232, -0.0002189853, 0.004059465, -3.631648E-05, 0.0005209541, -0.999998, -0.001259642, 0.3511209
 140006475, -0.0006246983, 0.01148365, -0.000143861, 0.001046232, -0.0002225638, 0.00381632, -0.000333301, 0.0005187925, -0.9999979, -0.001257605, 0.3511209
 140206395, -0.0004010773, 0.01131873, -0.0005354896, 0.00104407, 0.0001984888, 0.004139981, 8.233112E-05, 0.0005187925, -0.9999979, -0.001254803, 0.3503954
 140406315, 0.0001036922, 0.0116548, 9.055091E-05, 0.00104407, 0.0002850971, 0.004239902, 5.384556E-05, 0.0005187925, -0.9999979, -0.001251078, 0.3503954
 140606235, 0.0001516443, 0.01170932, -3.457951E-05, 0.00104407, -0.0001559216, 0.003988828, -8.179252E-05, 0.0005187925, -0.9999979, -0.001246788, 0.3503954
 140806155, -0.0002697255, 0.01149264, -0.0002433506, 0.00104407, -0.0001797264, 0.004357129, 0.0002533685, 0.0005187925, -0.9999979, -0.001243121, 0.3503954
 141006075, -0.0004141936, 0.01188725, 0.0005463, 0.00104407, 0.0001589168, 0.004133949, 0.0002496435, 0.0005187925, -0.9999979, -0.001239898, 0.3503954
 141205995, 7.686259E-05, 0.01162838, 0.0001827712, 0.00104407, -0.0002378435, 0.004168444, 5.944854E-05, 0.0005187925, -0.9999979, -0.001235426, 0.3503954
 141405915, -0.0004863116, 0.01160219, 0.0001968764, 0.00104407, -4.624263E-05, 0.00412833, 0.0001930311, 0.0005187925, -0.9999979, -0.001230448, 0.3503954
 141605835, -9.757137E-05, 0.01141925, 0.0001939749, 0.00104407, 0.0001409757, 0.003867057, 0.0001367296, 0.0005187925, -0.9999979, -0.001225286, 0.3503954
 141806588, -0.0001597586, 0.01145164, 0.0003262073, 0.001046232, -0.0004142299, 0.004128369, 3.910804E-05, 0.0005209541, -0.9999979, -0.001218629, 0.3511209
 142006508, -0.0005086731, 0.01173162, 9.440385E-05, 0.001046232, -0.0001067284, 0.004351437, 0.0001801771, 0.0005187925, -0.9999979, -0.001226914, 0.3511209
 142206428, -0.0001304549, 0.01167984, 8.665433E-05, 0.00104407, -0.0001795098, 0.003951272, -0.0001582955, 0.0005187925, -0.9999979, -0.001234333, 0.3503954
 142406348, -0.0003703698, 0.01141071, -0.0002097483, 0.00104407, -0.0005092029, 0.004254732, -9.443795E-05, 0.0005187925, -0.9999979, -0.00124106, 0.3503954
 142606268, -0.0008852846, 0.01174465, -9.3549E-05, 0.00104407, -0.0003404984, 0.00411188, -0.0001453426, 0.0005187925, -0.9999979, -0.001247194, 0.3503954
 142806188, -0.0005259101, 0.01167096, -5.870499E-05, 0.00104407, -3.91949E-05, 0.003909522, -7.893026E-05, 0.0005187925, -0.9999979, -0.001251481, 0.3503954
 143006108, -0.0001546325, 0.01148589, 4.622267E-06, 0.00104407, 0.0004194812, 0.004095541, -0.0002910891, 0.0005187925, -0.9999979, -0.001256741, 0.3503954
 143206028, 0.0002286767, 0.01138321, -0.000303116, 0.00104407, -0.0002651681, 0.003815473, -0.0001689938, 0.0005187925, -0.9999979, -0.001259492, 0.3503954
 143405948, -0.0005279534, 0.01115072, -0.0001795062, 0.00104407, -7.892532E-05, 0.004013681, -2.085566E-05, 0.0005187925, -0.999998, -0.001261008, 0.3503954
 143605868, -0.0003396902, 0.01129359, 7.866212E-05, 0.00104407, -0.0002301897, 0.003876131, 0.0003720034, 0.0005187925, -0.999998, -0.001262604, 0.3503954
 143805788, -0.0004072477, 0.011315, 0.0003412334, 0.00104407, -9.25158E-05, 0.003954911, -0.000188802, 0.0005187925, -0.999998, -0.001263965, 0.3503954
 144006541, -0.000211483, 0.01157586, -0.000294631, 0.001046232, -0.0001891374, 0.004232348, -0.0002764558, 0.0005209541, -0.999998, -0.001263349, 0.3511209
 144206461, -0.0005652242, 0.01154905, -0.000200141, 0.001046232, -0.000640871, 0.004005398, 0.0002851263, 0.0005187925, -0.999998, -0.001262705, 0.3511209
 144406381, -0.0007659719, 0.01109325, 0.0003735549, 0.00104407, -0.0002154824, 0.003826035, 7.243476E-05, 0.0005187925, -0.999998, -0.001261133, 0.3503954
 144606301, -0.0004595933, 0.01127539, 0.000146284, 0.00104407, -0.0002468198, 0.004126264, 9.348348E-05, 0.0005187925, -0.999998, -0.001259566, 0.3503954
 144806221, -0.0004457003, 0.01159099, 0.0003073678, 0.00104407, -5.511827E-05, 0.003599871, -0.0001089602, 0.0005187925, -0.999998, -0.001258061, 0.3503954
 145006141, -6.008855E-05, 0.01109536, 0.0001749924, 0.00104407, -0.0001299114, 0.004571541, 0.000150799, 0.0005187925, -0.999998, -0.001255674, 0.3503954
 145206061, -0.0004174742, 0.01201617, -0.03139009, 0.00104407, -0.0001540161, 0.004327716, -0.07970068, 0.0005187925, -0.999998, -0.001252303, 0.3503954
 145405981, 0.0007892827, 0.01258033, -0.7299507, 0.00104407, 0.0002225102, 0.004696724, -0.1980632, 0.0005187925, -0.999998, -0.001248833, 0.3503954
 145605901, -0.0009148193, 0.01142036, -1.148014, 0.00104407, -0.001989133, 0.002721992, -0.9179465, 0.0005187925, -0.9999991, -0.001279234, 0.3503954
 145805821, -0.009179552, 0.0045697, -2.404618, 0.00104407, -0.005331546, 0.000154978, -0.6321058, 0.0005187925, -0.9999977, -0.001309749, 0.3503954
 146006574, -0.01693361, -0.001087742, -1.450121, 0.001046232, -0.007214865, -0.00109521, -0.3730688, 0.0005209541, -0.9999966, -0.001342266, 0.3511209
 146206494, -0.0187301, -0.002881703, -1.046073, 0.001046232, -0.006261088, -0.0008489594, -0.3685758, 0.0005187925, -0.9999965, -0.001371968, 0.3511209
 146406414, -0.017234, -0.001491152, -1.017755, 0.00104407, -0.005647263, -0.0003674921, -0.3341688, 0.0005187925, -0.9999967, -0.001410948, 0.3503954
 146606334, -0.01544643, 3.512701E-05, -0.8828048, 0.00104407, -0.005255753, 0.0002089446, -0.2747871, 0.0005187925, -0.9999968, -0.001442243, 0.3503954
 146806254, -0.01373483, 0.001246737, -0.727555, 0.00104407, -0.004254879, 0.0006234804, -0.2283137, 0.0005187925, -0.9999971, -0.001469457, 0.3503954
 147006174, -0.01155176, 0.002590282, -0.6069852, 0.00104407, -0.003873158, 0.001289312, -0.1910131, 0.0005187925, -0.9999972, -0.001495752, 0.3503954
 147206094, -0.01028806, 0.00392194, -0.505635, 0.00104407, -0.003262889, 0.001826705, -0.1580188, 0.0005187925, -0.9999973, -0.001536131, 0.3503954
 147406014, -0.008615013, 0.00507678, -0.4166242, 0.00104407, -0.002704802, 0.002320266, -0.1295554, 0.0005187925, -0.9999974, -0.001574375, 0.3503954
 147605934, -0.006282509, 0.006549109, 0.2469329, 0.00104407, -0.001657495, 0.00269865, 0.3897281, 0.0005187925, -0.9999977, -0.001610593, 0.3503954
 147805854, -0.004753883, 0.007510578, 1.033712, 0.00104407, -0.001628627, 0.002787654, 0.3257039, 0.0005187925, -0.9999976, -0.001667314, 0.3503954
 148005774, -0.004587975, 0.007683807, 0.8708068, 0.00104407, -0.001781772, 0.00274807, 0.277523, 0.0005187925, -0.9999973, -0.001773412, 0.3503954
 148206527, -0.004858474, 0.007652524, 0.7481991, 0.001046232, -0.001803426, 0.002485416, 0.2405018, 0.0005209541, -0.9999966, -0.002041427, 0.3511209
 148406447, -0.004799535, 0.006654259, 0.6451058, 0.001046232, -0.001614717, 0.00225066, 0.2074832, 0.0005187925, -0.9999952, -0.002338734, 0.3511209
 148606367, -0.004465979, 0.006219653, 0.5590388, 0.00104407, -0.001321, 0.002117941, 0.1811535, 0.0005187925, -0.9999937, -0.002631114, 0.3503954
 148806287, -0.004081971, 0.005590629, 0.488799, 0.00104407, -0.001663368, 0.002056241, 0.1586851, 0.0005187925, -0.9999929, -0.002906387, 0.3503954
 149006207, -0.004440505, 0.005753679, 0.4292739, 0.00104407, -0.00168282, 0.002061863, 0.1397356, 0.0005187925, -0.9999927, -0.003170177, 0.3503954
 149206127, -0.004125686, 0.0063663, 0.3792644, 0.00104407, -0.001572079, 0.002731224, 0.1238338, 0.0005187925, -0.9999923, -0.003431346, 0.3503954
 149406047, -0.004007433, 0.00799485, 0.3368059, 0.00104407, -0.001216047, 0.003069093, 0.1105027, 0.0005187925, -0.9999918, -0.003688741, 0.3503954
 149605967, -0.003470253, 0.008803961, 0.301103, 0.00104407, -0.001275299, 0.003065033, 0.09987509, 0.0005187925, -0.9999911, -0.003887294, 0.3503954
 149805887, -0.003769258, 0.008434515, 0.2711797, 0.00104407, -0.001391009, 0.002725107, 0.08875995, 0.0005187925, -0.999992, -0.003606565, 0.3503954
 150005807, -0.004181706, 0.007576238, 0.2417325, 0.00104407, -0.001369077, 0.002575903, 0.07935563, 0.0005187925, -0.999993, -0.003117486, 0.3503954
 150206560, -0.0004417202, 0.002185015, 0.3560894, 0.001046232, 0.003837863, -0.004319918, 0.2035047, 0.0005209541, -0.9999394, -0.003210077, 0.3511209
 150406480, 0.01222186, -0.01188602, 0.6513951, 0.001046232, 0.003285683, 0.001658426, 0.2618681, 0.0005187925, -0.9999899, -0.004474415, 0.3511209
 150606400, -0.0001667412, 0.03348624, 0.7527869, 0.00104407, -0.005675779, 0.02400992, 0.2647245, 0.0005187925, -0.9997094, -0.006055605, 0.3503954
 150806320, -0.02974086, 0.06785463, 0.722157, 0.00104407, -0.01882747, 0.02107379, 0.2351266, 0.0005187925, -0.9998161, -0.006213052, 0.3503954
 151006240, -0.07086961, 0.04694351, 0.617601, 0.00104407, -0.03610311, 0.01056513, 0.1866004, 0.0005187925, -0.9999599, -0.004800353, 0.3503954
 151206160, -0.127249, 0.03119113, 0.477181, 0.00104407, -0.05903986, 0.01466663, 0.1392177, 0.0005187925, -0.9998898, -0.003335659, 0.3503954
 151406080, -0.1930189, 0.05975743, 0.344295, 0.00104407, -0.08205587, 0.02752996, 0.0933676, 0.0005187925, -0.9996916, -0.001454346, 0.3503954
 151606000, -0.2555471, 0.06718107, 0.2236749, 0.00104407, -0.1040235, 0.01568251, 0.05713871, 0.0005187925, -0.9999149, 0.003238808, 0.3503954
 151805920, -0.3262428, 0.02213155, 0.1315663, 0.00104407, -0.1308489, -0.006803031, 0.03126226, 0.0005187925, -0.9999112, 0.009694129, 0.3503954
 152005840, -0.396282, -0.05077006, 0.06746031, 0.00104407, -0.1541028, -0.03340859, 0.01319845, 0.0005187925, -0.9993376, 0.01676261, 0.3503954
 152205760, -0.4620773, -0.1095869, 0.0272281, 0.00104407, -0.1710961, -0.04458388, 0.003999557, 0.0005187925, -0.9988725, 0.02241084, 0.3503954
 152406513, -0.4808878, -0.1330241, 0.001992307, 0.001046232, -0.1688341, -0.05091588, -0.003465479, 0.0005209541, -0.9983953, 0.0298521, 0.3511209
 152606433, -0.4900087, -0.1539527, -0.0120204, 0.001046232, -0.1755062, -0.0594289, -0.005411474, 0.0005187925, -0.9975898, 0.0415066, 0.3511209
 152806353, -0.4877716, -0.1731046, -0.01484708, 0.00104407, -0.1671123, -0.06090309, -0.003585981, 0.0005187925, -0.9968867, 0.05591663, 0.3503954
 153006273, -0.4745054, -0.1688218, -0.01032366, 0.00104407, -0.1666825, -0.061904, -0.001462496, 0.0005187925, -0.9954684, 0.07512279, 0.3503954
 153206193, -0.4729373, -0.2040999, -0.002477135, 0.00104407, -0.1685863, -0.08764559, 0.001151516, 0.0005187925, -0.991832, 0.1004989, 0.3503954
 153406113, -0.4892188, -0.2702193, -0.001181146, 0.00104407, -0.1752145, -0.1050752, -0.0009347752, 0.0005187925, -0.9881374, 0.1234704, 0.3503954
 153606033, -0.4874189, -0.3080848, -0.000470288, 0.00104407, -0.1644525, -0.1123811, 0.0006417399, 0.0005187925, -0.9848671, 0.1431894, 0.3503954
 153805953, -0.4504471, -0.3194653, 0.001250234, 0.00104407, -0.1464042, -0.1103995, 0.001434734, 0.0005187925, -0.9821839, 0.160908, 0.3503954
 154005873, -0.3862467, -0.3023534, 0.001441985, 0.00104407, -0.1211853, -0.101054, -0.001286865, 0.0005187925, -0.9792405, 0.1803171, 0.3503954
 154205793, -0.3272291, -0.2855875, -0.002214891, 0.00104407, -0.1063314, -0.103159, 0.000185879, 0.0005187925, -0.9734687, 0.2072671, 0.3503954
 154406546, -0.2845884, -0.3091325, -0.001882457, 0.001046232, -0.08627485, -0.1121209, -0.003076748, 0.0005209541, -0.9656193, 0.2389576, 0.3511209
