TimeUS,COFN,COFE,COFD,CNe,CEe,CDe,POFN,POFE,POFD,PNe,PEe,PDe
 77696409, -0.02512503, -0.01650191, 0.006621067, 0.02634741, -0.02734199, 0.0001324596, 0, 0, 0, 0, 0, 0
 77756385, 0.00655935, -0.02558195, -3.044186E-05, 0.02623304, -0.02824613, 0.4000032, -0.02512503, -0.01650191, 0.006621067, 0.02634741, -0.02734199, 0.0001324596
 77856345, -0.01656542, -0.01272809, -5.229882E-05, 0.02575059, -0.02791662, 0.4000028, 0.00655935, -0.02558195, -3.044186E-05, 0.02623304, -0.02824613, 0.4000032
 77956305, -0.005959959, 0.006514261, -2.766801E-07, 0.02595846, -0.02748379, 0.4000039, -0.01656542, -0.01272809, -5.229882E-05, 0.02575059, -0.02791662, 0.4000028
 78056265, 0.008392325, 0.02354835, 5.513346E-05, 0.0262759, -0.02716284, 0.400005, -0.005959959, 0.006514261, -2.766801E-07, 0.02595846, -0.02748379, 0.4000039
 78156225, -0.01654326, 0.02557017, 1.190022E-05, 0.02575216, -0.0271293, 0.400004, 0.008392325, 0.02354835, 5.513346E-05, 0.0262759, -0.02716284, 0.400005
 78256185, -0.01363316, -0.01923679, -5.781436E-05, 0.02580708, -0.02808114, 0.4000024, -0.01654326, 0.02557017, 1.190022E-05, 0.02575216, -0.0271293, 0.400004
 78356145, 0.02104275, -0.006651544, 2.824144E-05, 0.02659089, -0.02777378, 0.4000044, -0.01363316, -0.01923679, -5.781436E-05, 0.02580708, -0.02808114, 0.4000024
 78456105, -0.02010533, 0.01906338, -5.616927E-06, 0.02568809, -0.02724326, 0.4000036, 0.02104275, -0.006651544, 2.824144E-05, 0.02659089, -0.02777378, 0.4000044
 78556065, 0.02057035, 0.004782564, 4.657314E-05, 0.02657896, -0.02752125, 0.4000048, -0.02010533, 0.01906338, -5.616927E-06, 0.02568809, -0.02724326, 0.4000036
 78656025, 0.004001973, 0.009746927, 2.389443E-05, 0.02617624, -0.0274203, 0.4000042, 0.02057035, 0.004782564, 4.657314E-05, 0.02657896, -0.02752125, 0.4000048
 78755985, 0.005287235, 0.01903184, 4.199783E-05, 0.02620532, -0.0272452, 0.4000045, 0.004001973, 0.009746927, 2.389443E-05, 0.02617624, -0.0274203, 0.4000042
 78855945, -0.02160726, 0.0225566, -2.477809E-06, 0.02566043, -0.02718377, 0.4000035, 0.005287235, 0.01903184, 4.199783E-05, 0.02620532, -0.0272452, 0.4000045
 78955905, -0.01728707, 0.02498316, 9.714171E-06, 0.02573691, -0.02714256, 0.4000038, -0.02160726, 0.0225566, -2.477809E-06, 0.02566043, -0.02718377, 0.4000035
 79055865, -0.0130096, -0.003924855, -3.115778E-05, 0.02581695, -0.02771471, 0.400003, -0.01728707, 0.02498316, 9.714171E-06, 0.02573691, -0.02714256, 0.4000038
 79155825, 0.01452327, 0.004025666, 3.419595E-05, 0.02642304, -0.02754177, 0.4000043, -0.0130096, -0.003924855, -3.115778E-05, 0.02581695, -0.02771471, 0.400003
 79255785, -0.02501654, 0.009821669, -3.047506E-05, 0.02560023, -0.0274236, 0.4000029, 0.01452327, 0.004025666, 3.419595E-05, 0.02642304, -0.02754177, 0.4000043
 79356578, -0.0182898, -0.01928594, -6.730662E-05, 0.02571756, -0.02808809, 0.400002, -0.02501654, 0.009821669, -3.047506E-05, 0.02560023, -0.0274236, 0.4000029
 79456538, -0.02032919, -0.02593621, -8.245218E-05, 0.02568043, -0.02826278, 0.4000017, -0.0182898, -0.01928594, -6.730662E-05, 0.02571756, -0.02808809, 0.400002
 79561496, -0.0133554, 0.009131454, -9.755069E-06, 0.02581001, -0.0274346, 0.4000036, -0.02032919, -0.02593621, -8.245218E-05, 0.02568043, -0.02826278, 0.4000017
 79661456, 0.0143861, 0.02582341, 7.071404E-05, 0.02641969, -0.02712527, 0.4000053, -0.0133554, 0.009131454, -9.755069E-06, 0.02581001, -0.0274346, 0.4000036
 79761416, -0.006070665, 0.02087608, 2.364875E-05, 0.02595714, -0.02720739, 0.4000044, 0.0143861, 0.02582341, 7.071404E-05, 0.02641969, -0.02712527, 0.4000053
 79861376, -0.02570921, -0.009942199, -6.499912E-05, 0.0255915, -0.02784465, 0.4000028, -0.006070665, 0.02087608, 2.364875E-05, 0.02595714, -0.02720739, 0.4000044
 79961336, 0.02123223, 0.01868031, 7.097995E-05, 0.02659859, -0.02724087, 0.4000058, -0.02570921, -0.009942199, -6.499912E-05, 0.0255915, -0.02784465, 0.4000028
 80061296, -0.002108327, 0.003992627, 2.681807E-06, 0.02604579, -0.02752588, 0.4000043, 0.02123223, 0.01868031, 7.097995E-05, 0.02659859, -0.02724087, 0.4000058
 80161256, -0.02543979, 0.01898374, -1.613888E-05, 0.02560109, -0.02723069, 0.400004, -0.002108327, 0.003992627, 2.681807E-06, 0.02604579, -0.02752588, 0.4000043
 80261216, 0.003100006, -0.01147658, -1.318084E-05, 0.02616271, -0.02787186, 0.400004, -0.02543979, 0.01898374, -1.613888E-05, 0.02560109, -0.02723069, 0.400004
 80361176, 0.02446843, -0.0203884, 1.195954E-05, 0.02669049, -0.0280938, 0.4000046, 0.003100006, -0.01147658, -1.318084E-05, 0.02616271, -0.02787186, 0.400004
 80461136, 0.022554, -0.01838035, 1.166832E-05, 0.0266416, -0.02804058, 0.4000046, 0.02446843, -0.0203884, 1.195954E-05, 0.02669049, -0.0280938, 0.4000046
 80561096, -0.02013773, 0.0005243538, -3.652996E-05, 0.02569959, -0.02759228, 0.4000035, 0.022554, -0.01838035, 1.166832E-05, 0.0266416, -0.02804058, 0.4000046
 80661056, 0.02336376, 0.001947685, 4.650694E-05, 0.02666603, -0.02756003, 0.4000054, -0.02013773, 0.0005243538, -3.652996E-05, 0.02569959, -0.02759228, 0.4000035
 80761016, -0.01800386, -0.01879185, -6.41138E-05, 0.02574064, -0.02804663, 0.4000029, 0.02336376, 0.001947685, 4.650694E-05, 0.02666603, -0.02756003, 0.4000054
 80860976, -0.000272585, 0.02455964, 3.964352E-05, 0.02609725, -0.02712212, 0.4000051, -0.01800386, -0.01879185, -6.41138E-05, 0.02574064, -0.02804663, 0.4000029
 80960936, 0.01339358, 0.009863407, 4.08213E-05, 0.02641536, -0.02739167, 0.4000053, -0.000272585, 0.02455964, 3.964352E-05, 0.02609725, -0.02712212, 0.4000051
 81060896, -0.0007144265, -0.0009288347, -2.829672E-06, 0.02609126, -0.02761676, 0.4000042, 0.01339358, 0.009863407, 4.08213E-05, 0.02641536, -0.02739167, 0.4000053
 81160856, -0.008099051, -0.01953143, -4.669631E-05, 0.02593811, -0.02806067, 0.4000032, -0.0007144265, -0.0009288347, -2.829672E-06, 0.02609126, -0.02761676, 0.4000042
 81260816, 0.01062683, 0.01585474, 4.532636E-05, 0.02635352, -0.02727398, 0.4000051, -0.008099051, -0.01953143, -4.669631E-05, 0.02593811, -0.02806067, 0.4000032
 81360776, 0.02236686, 0.01099529, 5.894837E-05, 0.0266494, -0.02736739, 0.4000054, 0.01062683, 0.01585474, 4.532636E-05, 0.02635352, -0.02727398, 0.4000051
 81461569, -0.02169502, 0.004505094, -3.241021E-05, 0.02569893, -0.02748562, 0.3921604, 0.02236686, 0.01099529, 5.894837E-05, 0.0266494, -0.02736739, 0.4000054
 81561529, 0.009478911, 0.003153173, 2.248056E-05, 0.02632902, -0.0275261, 0.4000046, -0.02169502, 0.004505094, -3.241021E-05, 0.02569893, -0.02748562, 0.3921604
 81666487, -0.01213055, 0.02081037, 1.173717E-05, 0.02584786, -0.02719647, 0.4081674, 0.009478911, 0.003153173, 2.248056E-05, 0.02632902, -0.0275261, 0.4000046
 81766447, -0.01253387, 0.0179009, 6.29219E-06, 0.02585444, -0.02723671, 0.4000041, -0.01213055, 0.02081037, 1.173717E-05, 0.02584786, -0.02719647, 0.4081674
 81866407, 0.02138738, 0.00184209, 4.224709E-05, 0.02662523, -0.02755604, 0.400005, -0.01253387, 0.0179009, 6.29219E-06, 0.02585444, -0.02723671, 0.4000041
 81966367, 0.01214474, 0.004076567, 2.896322E-05, 0.02639154, -0.02750715, 0.4000047, 0.02138738, 0.00184209, 4.224709E-05, 0.02662523, -0.02755604, 0.400005
 82066327, -0.0001713309, -0.02356588, -3.873398E-05, 0.02610677, -0.02816407, 0.4000033, 0.01214474, 0.004076567, 2.896322E-05, 0.02639154, -0.02750715, 0.4000047
 82166287, 0.02233429, 0.02379799, 7.991414E-05, 0.02664737, -0.02712901, 0.4000061, -0.0001713309, -0.02356588, -3.873398E-05, 0.02610677, -0.02816407, 0.4000033
 82266247, -0.01559455, -0.01636038, -5.536237E-05, 0.0257929, -0.02797583, 0.4000032, 0.02233429, 0.02379799, 7.991414E-05, 0.02664737, -0.02712901, 0.4000061
 82366207, -0.009919809, 0.02296127, 1.903606E-05, 0.02590287, -0.02714134, 0.4000048, -0.01559455, -0.01636038, -5.536237E-05, 0.0257929, -0.02797583, 0.4000032
 82466167, 0.02368092, 0.02044716, 7.690021E-05, 0.02668346, -0.02718529, 0.4000062, -0.009919809, 0.02296127, 1.903606E-05, 0.02590287, -0.02714134, 0.4000048
 82566127, 0.006165375, 0.02471449, 5.154198E-05, 0.0262486, -0.02711074, 0.4000055, 0.02368092, 0.02044716, 7.690021E-05, 0.02668346, -0.02718529, 0.4000062
 82666087, 0.004531466, 0.01223605, 2.824801E-05, 0.02621212, -0.02733755, 0.4000051, 0.006165375, 0.02471449, 5.154198E-05, 0.0262486, -0.02711074, 0.4000055
 82766047, 0.004465267, 0.006067972, 1.809677E-05, 0.02621137, -0.02746111, 0.4000048, 0.004531466, 0.01223605, 2.824801E-05, 0.02621212, -0.02733755, 0.4000051
 82866007, -0.01030318, 0.008658584, -4.892694E-06, 0.02589728, -0.02740827, 0.4000043, 0.004465267, 0.006067972, 1.809677E-05, 0.02621137, -0.02746111, 0.4000048
 82965967, 0.01827859, 0.01954433, 6.558622E-05, 0.02654351, -0.02720147, 0.4000059, -0.01030318, 0.008658584, -4.892694E-06, 0.02589728, -0.02740827, 0.4000043
 83065927, -0.007198086, 0.009185844, 1.679434E-06, 0.02595846, -0.0273982, 0.4000045, 0.01827859, 0.01954433, 6.558622E-05, 0.02654351, -0.02720147, 0.4000059
 83165887, -0.02120332, -0.006156425, -4.922033E-05, 0.02569198, -0.02772869, 0.4000035, -0.007198086, 0.009185844, 1.679434E-06, 0.02595846, -0.0273982, 0.4000045
 83265847, -0.01717885, -0.01855044, -6.202513E-05, 0.02576415, -0.02803001, 0.4000031, -0.02120332, -0.006156425, -4.922033E-05, 0.02569198, -0.02772869, 0.4000035
 83365807, 0.01898942, 0.00482089, 4.30119E-05, 0.02656114, -0.02748689, 0.4000055, -0.01717885, -0.01855044, -6.202513E-05, 0.02576415, -0.02803001, 0.4000031
 83465767, 0.02328726, 0.0162258, 6.963824E-05, 0.02667242, -0.02726165, 0.4000061, 0.01898942, 0.00482089, 4.30119E-05, 0.02656114, -0.02748689, 0.4000055
 83566560, -0.02337391, 0.006854158, -3.220572E-05, 0.02565208, -0.02744472, 0.400004, 0.02328726, 0.0162258, 6.963824E-05, 0.02667242, -0.02726165, 0.4000061
 83666520, -0.00549638, 0.02258748, 2.667876E-05, 0.02599044, -0.02714702, 0.4000052, -0.02337391, 0.006854158, -3.220572E-05, 0.02565208, -0.02744472, 0.400004
 83771478, 0.02211663, -0.001270751, 3.911952E-05, 0.02662375, -0.02763169, 0.4081689, -0.00549638, 0.02258748, 2.667876E-05, 0.02599044, -0.02714702, 0.4000052
 83871438, -2.455687E-05, -0.02112107, -3.462582E-05, 0.02610548, -0.02809689, 0.4000039, 0.02211663, -0.001270751, 3.911952E-05, 0.02662375, -0.02763169, 0.4081689
 83971398, -0.004511701, 0.01171913, 1.07857E-05, 0.02600884, -0.02734878, 0.4000049, -2.455687E-05, -0.02112107, -3.462582E-05, 0.02610548, -0.02809689, 0.4000039
 84071358, 0.009535671, -0.01016211, 1.154813E-06, 0.02632237, -0.02782391, 0.4000048, -0.004511701, 0.01171913, 1.07857E-05, 0.02600884, -0.02734878, 0.4000049
 84171318, -0.009301239, 0.009446748, -1.893977E-06, 0.0259099, -0.0273941, 0.4000047, 0.009535671, -0.01016211, 1.154813E-06, 0.02632237, -0.02782391, 0.4000048
 84271278, 0.002873658, -0.02446799, -3.481314E-05, 0.02616757, -0.02818625, 0.4000039, -0.009301239, 0.009446748, -1.893977E-06, 0.0259099, -0.0273941, 0.4000047
 84371238, 0.02097062, -0.01361918, 1.69833E-05, 0.02660534, -0.02790751, 0.4000053, 0.002873658, -0.02446799, -3.481314E-05, 0.02616757, -0.02818625, 0.4000039
 84471198, -0.00664491, 0.009795703, 3.619703E-06, 0.02596148, -0.02738714, 0.400005, 0.02097062, -0.01361918, 1.69833E-05, 0.02660534, -0.02790751, 0.4000053
 84571158, 0.01262004, 0.005246846, 3.23785E-05, 0.02639361, -0.02748033, 0.4000056, -0.00664491, 0.009795703, 3.619703E-06, 0.02596148, -0.02738714, 0.400005
 84671118, -0.008890794, -0.003854834, -2.304363E-05, 0.02591623, -0.02767613, 0.4000045, 0.01262004, 0.005246846, 3.23785E-05, 0.02639361, -0.02748033, 0.4000056
 84771078, -0.01439275, 0.009591273, -1.132098E-05, 0.02580995, -0.02738743, 0.4000048, -0.008890794, -0.003854834, -2.304363E-05, 0.02591623, -0.02767613, 0.4000045
 84871038, 0.009592982, -0.01296019, -3.162684E-06, 0.02632404, -0.02788558, 0.4000051, -0.01439275, 0.009591273, -1.132098E-05, 0.02580995, -0.02738743, 0.4000048
 84970998, -0.02387306, 0.006483788, -3.413582E-05, 0.02564153, -0.02744575, 0.4000046, 0.009592982, -0.01296019, -3.162684E-06, 0.02632404, -0.02788558, 0.4000051
 85070958, -0.000291931, -0.008706014, -1.466905E-05, 0.02610245, -0.02777937, 0.4000049, -0.02387306, 0.006483788, -3.413582E-05, 0.02564153, -0.02744575, 0.4000046
 85170918, 0.01290531, 0.0002386762, 2.439604E-05, 0.0264101, -0.02757487, 0.4000057, -0.000291931, -0.008706014, -1.466905E-05, 0.02610245, -0.02777937, 0.4000049
 85270878, -0.02121172, 0.0151501, -1.485132E-05, 0.02569502, -0.02727069, 0.4000048, 0.01290531, 0.0002386762, 2.439604E-05, 0.0264101, -0.02757487, 0.4000057
 85370838, -0.0006611699, 0.02261707, 3.530753E-05, 0.02610176, -0.0271346, 0.4000056, -0.02121172, 0.0151501, -1.485132E-05, 0.02569502, -0.02727069, 0.4000048
 85470798, 0.01471524, -0.01502176, 2.957277E-06, 0.02646018, -0.02792802, 0.400005, -0.0006611699, 0.02261707, 3.530753E-05, 0.02610176, -0.0271346, 0.4000056
 85571591, 0.001392058, -0.0002673255, 2.142835E-06, 0.02614747, -0.02758245, 0.400005, 0.01471524, -0.01502176, 2.957277E-06, 0.02646018, -0.02792802, 0.400005
 85671551, 0.009944357, -0.01888164, -1.20779E-05, 0.02634544, -0.02802431, 0.4000047, 0.001392058, -0.0002673255, 2.142835E-06, 0.02614747, -0.02758245, 0.400005
 85771511, -0.01931846, -0.004988558, -4.361132E-05, 0.0257352, -0.02768691, 0.400004, 0.009944357, -0.01888164, -1.20779E-05, 0.02634544, -0.02802431, 0.4000047
 85876469, 0.01559695, 0.01090228, 4.618032E-05, 0.02648727, -0.02734734, 0.4000059, -0.01931846, -0.004988558, -4.361132E-05, 0.0257352, -0.02768691, 0.400004
 85976429, -0.01766579, 0.01160285, -1.379321E-05, 0.02576892, -0.02733163, 0.4000046, 0.01559695, 0.01090228, 4.618032E-05, 0.02648727, -0.02734734, 0.4000059
 86076389, -0.0089594, 0.002678552, -1.212953E-05, 0.02593703, -0.02751224, 0.4000047, -0.01766579, 0.01160285, -1.379321E-05, 0.02576892, -0.02733163, 0.4000046
 86176349, 0.00113938, -0.003501075, -3.499583E-06, 0.02615028, -0.02764611, 0.400005, -0.0089594, 0.002678552, -1.212953E-05, 0.02593703, -0.02751224, 0.4000047
 86276309, 0.00540664, 0.01583415, 3.510638E-05, 0.0262472, -0.02724574, 0.4000058, 0.00113938, -0.003501075, -3.499583E-06, 0.02615028, -0.02764611, 0.400005
 86376269, -0.01063366, -0.0256245, -6.017538E-05, 0.02590592, -0.0281913, 0.4000037, 0.00540664, 0.01583415, 3.510638E-05, 0.0262472, -0.02724574, 0.4000058
 86476229, -0.02496437, 0.01801999, -1.698795E-05, 0.02564408, -0.02720344, 0.4000048, -0.01063366, -0.0256245, -6.017538E-05, 0.02590592, -0.0281913, 0.4000037
 86576189, -0.0135151, 0.02517554, 1.532655E-05, 0.02585054, -0.0270779, 0.4000054, -0.02496437, 0.01801999, -1.698795E-05, 0.02564408, -0.02720344, 0.4000048
 86676149, 0.01602904, 0.01128467, 4.72036E-05, 0.0265045, -0.02733059, 0.4000061, -0.0135151, 0.02517554, 1.532655E-05, 0.02585054, -0.0270779, 0.4000054
 86776109, 0.01847502, 0.01118957, 5.145402E-05, 0.02656741, -0.0273312, 0.4000062, 0.01602904, 0.01128467, 4.72036E-05, 0.0265045, -0.02733059, 0.4000061
 86876069, 1.769356E-05, -0.00442514, -6.993193E-06, 0.02613057, -0.02766211, 0.4000049, 0.01847502, 0.01118957, 5.145402E-05, 0.02656741, -0.0273312, 0.4000062
 86976029, 0.02562354, -0.0125921, 2.667203E-05, 0.02675632, -0.02785582, 0.4000056, 1.769356E-05, -0.00442514, -6.993193E-06, 0.02613057, -0.02766211, 0.4000049
 87075989, 0.01420985, 0.001254355, 2.78978E-05, 0.02646171, -0.02753744, 0.4000055, 0.02562354, -0.0125921, 2.667203E-05, 0.02675632, -0.02785582, 0.4000056
 87175949, -0.0006992492, 0.01454912, 2.188834E-05, 0.02611557, -0.02726756, 0.4000053, 0.01420985, 0.001254355, 2.78978E-05, 0.02646171, -0.02753744, 0.4000055
 87275909, -0.01231618, -0.001275781, -2.449247E-05, 0.02587702, -0.0275919, 0.4000044, -0.0006992492, 0.01454912, 2.188834E-05, 0.02611557, -0.02726756, 0.4000053
 87375869, -0.004042037, -0.01186384, -2.623528E-05, 0.02604469, -0.02783649, 0.4000044, -0.01231618, -0.001275781, -2.449247E-05, 0.02587702, -0.0275919, 0.4000044
 87475829, 0.01313492, -0.003517013, 1.835915E-05, 0.02643603, -0.02764102, 0.4000054, -0.004042037, -0.01186384, -2.623528E-05, 0.02604469, -0.02783649, 0.4000044
 87575789, 0.02411945, 0.008720814, 5.786051E-05, 0.02671717, -0.0273801, 0.4000063, 0.01313492, -0.003517013, 1.835915E-05, 0.02643603, -0.02764102, 0.4000054
 87676582, -0.0002126077, -0.007149428, -1.175986E-05, 0.02614167, -0.02771146, 0.3921616, 0.02411945, 0.008720814, 5.786051E-05, 0.02671717, -0.0273801, 0.4000063
 87776542, -0.001789826, -0.002975279, -7.997887E-06, 0.0260935, -0.02762833, 0.4000048, -0.0002126077, -0.007149428, -1.175986E-05, 0.02614167, -0.02771146, 0.3921616
 87876502, 0.02146306, -0.01317704, 1.821855E-05, 0.02664699, -0.02786767, 0.4000055, -0.001789826, -0.002975279, -7.997887E-06, 0.0260935, -0.02762833, 0.4000048
 87981460, 0.01503083, -0.00323493, 2.233973E-05, 0.02648194, -0.0276342, 0.4000056, 0.02146306, -0.01317704, 1.821855E-05, 0.02664699, -0.02786767, 0.4000055
 88081420, 0.01229837, -0.01004874, 6.471142E-06, 0.02641498, -0.02779279, 0.4000052, 0.01503083, -0.00323493, 2.233973E-05, 0.02648194, -0.0276342, 0.4000056
 88181380, 0.02278207, 0.01071034, 5.877145E-05, 0.02668131, -0.02734169, 0.4000063, 0.01229837, -0.01004874, 6.471142E-06, 0.02641498, -0.02779279, 0.4000052
 88281340, -0.01372015, -0.009184148, -3.979589E-05, 0.02585062, -0.02777439, 0.4000039, 0.02278207, 0.01071034, 5.877145E-05, 0.02668131, -0.02734169, 0.4000063
 88381300, -0.007844403, 0.01228076, 5.344366E-06, 0.02596607, -0.02731281, 0.4000049, -0.01372015, -0.009184148, -3.979589E-05, 0.02585062, -0.02777439, 0.4000039
 88481260, -0.02314469, -0.01606033, -6.822684E-05, 0.02567826, -0.02794422, 0.4000033, -0.007844403, 0.01228076, 5.344366E-06, 0.02596607, -0.02731281, 0.4000049
 88581220, 0.02339136, 0.01338191, 6.445091E-05, 0.02669642, -0.02729384, 0.4000062, -0.02314469, -0.01606033, -6.822684E-05, 0.02567826, -0.02794422, 0.4000033
 88681180, 0.008113572, 0.02370117, 5.316375E-05, 0.02631422, -0.02710761, 0.4000057, 0.02339136, 0.01338191, 6.445091E-05, 0.02669642, -0.02729384, 0.4000062
 88781140, 0.003043566, -0.006711742, -5.28386E-06, 0.02619791, -0.02772238, 0.4000044, 0.008113572, 0.02370117, 5.316375E-05, 0.02631422, -0.02710761, 0.4000057
 88881100, 0.01274535, -0.01799169, -5.753129E-06, 0.02642508, -0.02799693, 0.4000043, 0.003043566, -0.006711742, -5.28386E-06, 0.02619791, -0.02772238, 0.4000044
 88981060, -0.01575162, -0.009374832, -4.415769E-05, 0.02581031, -0.02778545, 0.4000036, 0.01274535, -0.01799169, -5.753129E-06, 0.02642508, -0.02799693, 0.4000043
 89081020, -0.01018587, -0.01775221, -4.754888E-05, 0.02591751, -0.02799154, 0.4000034, -0.01575162, -0.009374832, -4.415769E-05, 0.02581031, -0.02778545, 0.4000036
 89180980, 6.791695E-05, -0.02059347, -3.335615E-05, 0.02613129, -0.02806515, 0.4000036, -0.01018587, -0.01775221, -4.754888E-05, 0.02591751, -0.02799154, 0.4000034
 89280940, -0.0142454, -0.02060349, -5.976411E-05, 0.02583657, -0.02806487, 0.4000033, 6.791695E-05, -0.02059347, -3.335615E-05, 0.02613129, -0.02806515, 0.4000036
 89380900, -0.01055294, -0.01052812, -3.663107E-05, 0.02590549, -0.02781196, 0.4000041, -0.0142454, -0.02060349, -5.976411E-05, 0.02583657, -0.02806487, 0.4000033
 89480860, -0.01767046, -0.02065849, -6.634886E-05, 0.02576832, -0.02806506, 0.4000035, -0.01055294, -0.01052812, -3.663107E-05, 0.02590549, -0.02781196, 0.4000041
 89580820, 0.0007874864, -0.01565302, -2.397041E-05, 0.02613973, -0.02793784, 0.4000044, -0.01767046, -0.02065849, -6.634886E-05, 0.02576832, -0.02806506, 0.4000035
 89680780, 0.0004680809, 0.003607079, 6.747836E-06, 0.02613181, -0.02749504, 0.4000051, 0.0007874864, -0.01565302, -2.397041E-05, 0.02613973, -0.02793784, 0.4000044
 89781573, -0.02550406, 0.003320041, -4.214936E-05, 0.02564314, -0.02748939, 0.392161, 0.0004680809, 0.003607079, 6.747836E-06, 0.02613181, -0.02749504, 0.4000051
 89881533, -0.001651503, 0.01932091, 2.839967E-05, 0.0260863, -0.02718718, 0.4000055, -0.02550406, 0.003320041, -4.214936E-05, 0.02564314, -0.02748939, 0.392161
 89986491, 0.02326597, 0.02176157, 7.85831E-05, 0.0266865, -0.02714186, 0.4000067, -0.001651503, 0.01932091, 2.839967E-05, 0.0260863, -0.02718718, 0.4000055
 90086451, 0.01926006, -0.02040624, 2.650868E-06, 0.02658488, -0.02805512, 0.400005, 0.02326597, 0.02176157, 7.85831E-05, 0.0266865, -0.02714186, 0.4000067
 90186411, -0.0193641, 0.02320113, 1.664524E-06, 0.02574376, -0.02711146, 0.400005, 0.01926006, -0.02040624, 2.650868E-06, 0.02658488, -0.02805512, 0.400005
 90286371, -0.006405437, -0.003579681, -1.754627E-05, 0.02599556, -0.02764294, 0.4000046, -0.0193641, 0.02320113, 1.664524E-06, 0.02574376, -0.02711146, 0.400005
 90386331, 0.0210203, -0.01101721, 2.092633E-05, 0.02663661, -0.02781525, 0.4000054, -0.006405437, -0.003579681, -1.754627E-05, 0.02599556, -0.02764294, 0.4000046
 90486291, -0.01578267, -0.02378103, -6.701135E-05, 0.02581392, -0.02813658, 0.4000035, 0.0210203, -0.01101721, 2.092633E-05, 0.02663661, -0.02781525, 0.4000054
 90586251, -0.0225551, -0.01067435, -5.836719E-05, 0.02569253, -0.02780278, 0.4000039, -0.01578267, -0.02378103, -6.701135E-05, 0.02581392, -0.02813658, 0.4000035
 90686211, -0.007103518, -0.005043242, -2.104327E-05, 0.02598494, -0.02766919, 0.4000047, -0.0225551, -0.01067435, -5.836719E-05, 0.02569253, -0.02780278, 0.4000039
 90786171, -0.01972572, 0.01315432, -1.525641E-05, 0.02574304, -0.02728454, 0.400005, -0.007103518, -0.005043242, -2.104327E-05, 0.02598494, -0.02766919, 0.4000047
 90886131, -0.01283369, -0.0005868578, -2.440597E-05, 0.02587261, -0.02756616, 0.4000048, -0.01972572, 0.01315432, -1.525641E-05, 0.02574304, -0.02728454, 0.400005
 90986091, -0.01441518, -0.02099941, -5.95383E-05, 0.02584335, -0.02805506, 0.400004, -0.01283369, -0.0005868578, -2.440597E-05, 0.02587261, -0.02756616, 0.4000048
 91086051, 0.01402022, 0.01346238, 4.683723E-05, 0.02646472, -0.0272747, 0.4000064, -0.01441518, -0.02099941, -5.95383E-05, 0.02584335, -0.02805506, 0.400004
 91186011, -0.01949116, -0.01397571, -5.756082E-05, 0.02575153, -0.02787493, 0.4000041, 0.01402022, 0.01346238, 4.683723E-05, 0.02646472, -0.0272747, 0.4000064
 91285971, -0.002864525, 0.002986847, -5.018233E-07, 0.02607915, -0.02748566, 0.4000053, -0.01949116, -0.01397571, -5.756082E-05, 0.02575153, -0.02787493, 0.4000041
 91385931, -0.004280678, 0.01638552, 1.808869E-05, 0.02605015, -0.02721905, 0.4000055, -0.002864525, 0.002986847, -5.018233E-07, 0.02607915, -0.02748566, 0.4000053
 91485891, -0.0106232, 0.02061277, 1.319836E-05, 0.02592163, -0.02714113, 0.4000055, -0.004280678, 0.01638552, 1.808869E-05, 0.02605015, -0.02721905, 0.4000055
 91585851, -0.01931109, -0.01104224, -5.243674E-05, 0.02575813, -0.02780142, 0.4000042, -0.0106232, 0.02061277, 1.319836E-05, 0.02592163, -0.02714113, 0.4000055
 91685811, 0.01322582, -0.0173736, -3.338344E-06, 0.02645056, -0.02795744, 0.4000052, -0.01931109, -0.01104224, -5.243674E-05, 0.02575813, -0.02780142, 0.4000042
 91785771, -0.01424994, 0.01120051, -8.211797E-06, 0.02585342, -0.02731524, 0.400005, 0.01322582, -0.0173736, -3.338344E-06, 0.02645056, -0.02795744, 0.4000052
 91886564, -0.01495302, 0.0258392, 1.359639E-05, 0.02585476, -0.02703729, 0.3921623, -0.01424994, 0.01120051, -8.211797E-06, 0.02585342, -0.02731524, 0.400005
 91986524, -0.008535845, 0.007469885, -3.684061E-06, 0.02596617, -0.02739097, 0.400005, -0.01495302, 0.0258392, 1.359639E-05, 0.02585476, -0.02703729, 0.3921623
 92091482, 0.01876786, -0.005839985, 2.483601E-05, 0.02657511, -0.02769282, 0.408169, -0.008535845, 0.007469885, -3.684061E-06, 0.02596617, -0.02739097, 0.400005
 92191442, -0.01300052, -0.008241874, -3.663047E-05, 0.02587647, -0.02773608, 0.4000044, 0.01876786, -0.005839985, 2.483601E-05, 0.02657511, -0.02769282, 0.408169
 92291402, -0.004429159, 0.02262113, 2.767306E-05, 0.02604895, -0.02710553, 0.4000057, -0.01300052, -0.008241874, -3.663047E-05, 0.02587647, -0.02773608, 0.4000044
 92391362, 0.0204691, 0.01923614, 6.760142E-05, 0.026633, -0.02716598, 0.4000066, -0.004429159, 0.02262113, 2.767306E-05, 0.02604895, -0.02710553, 0.4000057
 92491322, -0.0150311, 0.006577844, -1.688258E-05, 0.02583843, -0.02741117, 0.4000047, 0.0204691, 0.01923614, 6.760142E-05, 0.026633, -0.02716598, 0.4000066
 92591282, -0.0221473, -0.01273844, -6.04263E-05, 0.02570982, -0.02784672, 0.4000036, -0.0150311, 0.006577844, -1.688258E-05, 0.02583843, -0.02741117, 0.4000047
 92691242, 0.01901843, 0.01798686, 6.310447E-05, 0.0265971, -0.02719172, 0.4000062, -0.0221473, -0.01273844, -6.04263E-05, 0.02570982, -0.02784672, 0.4000036
 92791202, -0.005144171, -0.02009331, -4.129416E-05, 0.02603593, -0.02803227, 0.4000038, 0.01901843, 0.01798686, 6.310447E-05, 0.0265971, -0.02719172, 0.4000062
 92891162, 0.02519955, 0.005293736, 5.41557E-05, 0.02675988, -0.02743974, 0.4000061, -0.005144171, -0.02009331, -4.129416E-05, 0.02603593, -0.02803227, 0.4000038
 92991122, -0.003905039, -0.002002369, -1.027269E-05, 0.02606199, -0.02759656, 0.4000046, 0.02519955, 0.005293736, 5.41557E-05, 0.02675988, -0.02743974, 0.4000061
 93091082, -0.01249461, -0.02005436, -5.456403E-05, 0.02588869, -0.02803067, 0.4000035, -0.003905039, -0.002002369, -1.027269E-05, 0.02606199, -0.02759656, 0.4000046
 93191042, -0.007634172, 0.0179487, 1.470159E-05, 0.02598578, -0.02719174, 0.400005, -0.01249461, -0.02005436, -5.456403E-05, 0.02588869, -0.02803067, 0.4000035
 93291002, 0.01715199, 0.0108648, 4.836708E-05, 0.02655192, -0.02732663, 0.4000058, -0.007634172, 0.0179487, 1.470159E-05, 0.02598578, -0.02719174, 0.400005
 93390962, -0.00348405, -0.001872916, -9.292859E-06, 0.02607352, -0.02759436, 0.4000044, 0.01715199, 0.0108648, 4.836708E-05, 0.02655192, -0.02732663, 0.4000058
 93490922, -0.02158861, 0.01358438, -1.743082E-05, 0.02572274, -0.02727502, 0.4000042, -0.00348405, -0.001872916, -9.292859E-06, 0.02607352, -0.02759436, 0.4000044
 93590882, -0.01649119, -0.01160582, -4.842768E-05, 0.02581416, -0.02782054, 0.4000036, -0.02158861, 0.01358438, -1.743082E-05, 0.02572274, -0.02727502, 0.4000042
 93690842, 0.005890083, -0.02199717, -2.442216E-05, 0.02627857, -0.02808266, 0.400004, -0.01649119, -0.01160582, -4.842768E-05, 0.02581416, -0.02782054, 0.4000036
 93790802, -0.01901395, 0.01291639, -1.396548E-05, 0.02576575, -0.02728821, 0.4000044, 0.005890083, -0.02199717, -2.442216E-05, 0.02627857, -0.02808266, 0.400004
 93890762, 0.008031288, -0.02042488, -1.805151E-05, 0.02632685, -0.02804258, 0.4000042, -0.01901395, 0.01291639, -1.396548E-05, 0.02576575, -0.02728821, 0.4000044
 93991555, 0.01406362, -0.02056837, -7.330826E-06, 0.02647194, -0.02804702, 0.4000044, 0.008031288, -0.02042488, -1.805151E-05, 0.02632685, -0.02804258, 0.4000042
 94091515, 0.01683958, -0.01377826, 8.698717E-06, 0.02653889, -0.02787553, 0.400005, 0.01406362, -0.02056837, -7.330826E-06, 0.02647194, -0.02804702, 0.4000044
 94196473, 0.00701694, -0.01425065, -9.982788E-06, 0.02628292, -0.02790059, 0.408168, 0.01683958, -0.01377826, 8.698717E-06, 0.02653889, -0.02787553, 0.400005
 94296433, -0.01198845, 0.00209899, -1.869597E-05, 0.02589007, -0.027512, 0.4000045, 0.00701694, -0.01425065, -9.982788E-06, 0.02628292, -0.02790059, 0.408168
 94396393, -0.0005521721, 0.01576327, 2.442285E-05, 0.0261238, -0.02723939, 0.4000055, -0.01198845, 0.00209899, -1.869597E-05, 0.02589007, -0.027512, 0.4000045
 94496353, 0.008002752, -0.00460957, 7.350938E-06, 0.02631595, -0.02766306, 0.4000051, -0.0005521721, 0.01576327, 2.442285E-05, 0.0261238, -0.02723939, 0.4000055
 94596313, 0.02348779, -0.003053324, 3.858505E-05, 0.02670194, -0.02762898, 0.4000059, 0.008002752, -0.00460957, 7.350938E-06, 0.02631595, -0.02766306, 0.4000051
 94696273, 0.01897103, -0.01981443, 3.097553E-06, 0.02658352, -0.02803321, 0.4000051, 0.02348779, -0.003053324, 3.858505E-05, 0.02670194, -0.02762898, 0.4000059
 94796233, 0.007185738, 0.008568808, 2.722226E-05, 0.02629419, -0.02738037, 0.4000058, 0.01897103, -0.01981443, 3.097553E-06, 0.02658352, -0.02803321, 0.4000051
 94896193, -0.0155962, 0.02223344, 7.055942E-06, 0.02581446, -0.02712491, 0.4000053, 0.007185738, 0.008568808, 2.722226E-05, 0.02629419, -0.02738037, 0.4000058
 94996153, 0.009486033, -0.01900572, -1.326266E-05, 0.02634656, -0.02801499, 0.4000047, -0.0155962, 0.02223344, 7.055942E-06, 0.02581446, -0.02712491, 0.4000053
 95096113, 0.009846188, 0.003589656, 2.412477E-05, 0.02635721, -0.02748496, 0.4000055, 0.009486033, -0.01900572, -1.326266E-05, 0.02634656, -0.02801499, 0.4000047
 95196073, 0.02400238, -0.009223985, 2.951737E-05, 0.02671685, -0.02777041, 0.4000057, 0.009846188, 0.003589656, 2.412477E-05, 0.02635721, -0.02748496, 0.4000055
 95296033, 0.01823215, 0.004909445, 4.16468E-05, 0.02656756, -0.02745418, 0.4000059, 0.02400238, -0.009223985, 2.951737E-05, 0.02671685, -0.02777041, 0.4000057
 95395993, 0.01761608, -0.02249243, -3.756737E-06, 0.02655327, -0.02809962, 0.4000049, 0.01823215, 0.004909445, 4.16468E-05, 0.02656756, -0.02745418, 0.4000059
 95495953, -0.01084448, -0.008798864, -3.417527E-05, 0.02591172, -0.02775605, 0.4000044, 0.01761608, -0.02249243, -3.756737E-06, 0.02655327, -0.02809962, 0.4000049
 95595913, 0.001776137, 0.001584801, 5.823585E-06, 0.02617586, -0.02752005, 0.4000054, -0.01084448, -0.008798864, -3.417527E-05, 0.02591172, -0.02775605, 0.4000044
 95695873, -0.00309014, 0.01908268, 2.486689E-05, 0.02607078, -0.02717248, 0.4000058, 0.001776137, 0.001584801, 5.823585E-06, 0.02617586, -0.02752005, 0.4000054
 95795833, -0.0121825, -0.003044768, -2.731295E-05, 0.02588713, -0.02761993, 0.4000047, -0.00309014, 0.01908268, 2.486689E-05, 0.02607078, -0.02717248, 0.4000058
 95895793, 0.007870572, -0.02521626, -2.573765E-05, 0.02631751, -0.0281652, 0.4000047, -0.0121825, -0.003044768, -2.731295E-05, 0.02588713, -0.02761993, 0.4000047
 95996586, -0.02467573, 0.005626128, -3.642533E-05, 0.02566131, -0.02742874, 0.4000047, 0.007870572, -0.02521626, -2.573765E-05, 0.02631751, -0.0281652, 0.4000047
 96096546, -0.01699129, -0.02004936, -6.301148E-05, 0.02580071, -0.02802759, 0.4000038, -0.02467573, 0.005626128, -3.642533E-05, 0.02566131, -0.02742874, 0.4000047
 96196506, 0.003589711, -0.002464944, 2.605919E-06, 0.02622712, -0.02760448, 0.4000049, -0.01699129, -0.02004936, -6.301148E-05, 0.02580071, -0.02802759, 0.4000038
 96301464, -0.001909566, -0.009750013, -1.899308E-05, 0.02610769, -0.02777196, 0.4000044, 0.003589711, -0.002464944, 2.605919E-06, 0.02622712, -0.02760448, 0.4000049
 96401424, -0.01215196, -0.004803656, -2.968012E-05, 0.0258993, -0.02765616, 0.4000041, -0.001909566, -0.009750013, -1.899308E-05, 0.02610769, -0.02777196, 0.4000044
 96501384, -0.02536749, -0.00573335, -5.510612E-05, 0.02565997, -0.02767694, 0.4000037, -0.01215196, -0.004803656, -2.968012E-05, 0.0258993, -0.02765616, 0.4000041
 96601344, 0.01624764, -0.00160958, 2.68972E-05, 0.02653194, -0.0275835, 0.4000054, -0.02536749, -0.00573335, -5.510612E-05, 0.02565997, -0.02767694, 0.4000037
 96701304, -0.02307103, -0.02451523, -8.070602E-05, 0.02569936, -0.02814292, 0.4000031, 0.01624764, -0.00160958, 2.68972E-05, 0.02653194, -0.0275835, 0.4000054
 96801264, -0.0129099, 0.007181147, -1.202141E-05, 0.02588513, -0.02739434, 0.4000047, -0.02307103, -0.02451523, -8.070602E-05, 0.02569936, -0.02814292, 0.4000031
 96901224, -0.002822547, -0.007682769, -1.727231E-05, 0.02608935, -0.02771875, 0.4000046, -0.0129099, 0.007181147, -1.202141E-05, 0.02588513, -0.02739434, 0.4000047
 97001184, -0.003346216, -0.01157771, -2.43522E-05, 0.02607795, -0.02781016, 0.4000046, -0.002822547, -0.007682769, -1.727231E-05, 0.02608935, -0.02771875, 0.4000046
 97101144, 0.01667489, 0.01032888, 4.655595E-05, 0.0265427, -0.02732899, 0.4000061, -0.003346216, -0.01157771, -2.43522E-05, 0.02607795, -0.02781016, 0.4000046
 97201104, -0.01804167, 0.009899825, -1.703479E-05, 0.02578959, -0.02733746, 0.4000047, 0.01667489, 0.01032888, 4.655595E-05, 0.0265427, -0.02732899, 0.4000061
 97301064, -0.003266593, -0.005131896, -1.401994E-05, 0.02608225, -0.0276591, 0.4000046, -0.01804167, 0.009899825, -1.703479E-05, 0.02578959, -0.02733746, 0.4000047
 97401024, 0.001796104, -0.02043044, -2.907092E-05, 0.02619313, -0.02803285, 0.4000041, -0.003266593, -0.005131896, -1.401994E-05, 0.02608225, -0.0276591, 0.4000046
 97500984, 0.02538966, 0.008216714, 5.886824E-05, 0.02677294, -0.02737235, 0.4000062, 0.001796104, -0.02043044, -2.907092E-05, 0.02619313, -0.02803285, 0.4000041
 97600944, 0.02198374, -0.02065008, 6.986731E-06, 0.02668215, -0.02803989, 0.4000049, 0.02538966, 0.008216714, 5.886824E-05, 0.02677294, -0.02737235, 0.4000062
 97700904, -0.01434476, -0.003018992, -3.073633E-05, 0.02586, -0.02761437, 0.400004, 0.02198374, -0.02065008, 6.986731E-06, 0.02668215, -0.02803989, 0.4000049
 97800864, 0.0191375, 0.002095463, 3.796988E-05, 0.02660736, -0.02750349, 0.4000055, -0.01434476, -0.003018992, -3.073633E-05, 0.02586, -0.02761437, 0.400004
 97900824, 0.0041792, 0.0033304, 1.287525E-05, 0.02624498, -0.02747707, 0.4000049, 0.0191375, 0.002095463, 3.796988E-05, 0.02660736, -0.02750349, 0.4000055
 98000784, -0.009829585, -0.0147797, -4.139479E-05, 0.02594579, -0.02789411, 0.4000037, 0.0041792, 0.0033304, 1.287525E-05, 0.02624498, -0.02747707, 0.4000049
 98101577, 0.02250339, -0.003089446, 3.585637E-05, 0.02670833, -0.02760535, 0.3921624, -0.009829585, -0.0147797, -4.139479E-05, 0.02594579, -0.02789411, 0.4000037
 98201537, 0.02108109, -0.01053204, 2.136334E-05, 0.02665767, -0.02779078, 0.4000051, 0.02250339, -0.003089446, 3.585637E-05, 0.02670833, -0.02760535, 0.3921624
 98306495, -0.01941067, -0.01866147, -6.490026E-05, 0.02576631, -0.02799221, 0.4000031, 0.02108109, -0.01053204, 2.136334E-05, 0.02665767, -0.02779078, 0.4000051
 98406455, -0.01854865, -0.02587279, -7.481237E-05, 0.02578256, -0.02818177, 0.4000028, -0.01941067, -0.01866147, -6.490026E-05, 0.02576631, -0.02799221, 0.4000031
 98506415, -0.01603926, 0.00496995, -2.103385E-05, 0.0258297, -0.02744331, 0.400004, -0.01854865, -0.02587279, -7.481237E-05, 0.02578256, -0.02818177, 0.4000028
 98606375, 0.008329959, -0.01918502, -1.561379E-05, 0.0263442, -0.02800593, 0.4000039, -0.01603926, 0.00496995, -2.103385E-05, 0.0258297, -0.02744331, 0.400004
 98706335, -0.003676156, 0.005476324, 2.105734E-06, 0.02607475, -0.02743356, 0.4000044, 0.008329959, -0.01918502, -1.561379E-05, 0.0263442, -0.02800593, 0.4000039
 98806295, -0.001684172, 0.009737368, 1.253225E-05, 0.02611561, -0.02734759, 0.4000047, -0.003676156, 0.005476324, 2.105734E-06, 0.02607475, -0.02743356, 0.4000044
 98906255, 0.01266686, 0.01203083, 4.233363E-05, 0.026443, -0.02730395, 0.4000054, -0.001684172, 0.009737368, 1.253225E-05, 0.02611561, -0.02734759, 0.4000047
 99006215, 0.005609788, 0.01586263, 3.575495E-05, 0.02627379, -0.02723255, 0.4000053, 0.01266686, 0.01203083, 4.233363E-05, 0.026443, -0.02730395, 0.4000054
 99106175, 0.009069905, 0.001200753, 1.847357E-05, 0.02635479, -0.02752988, 0.4000048, 0.005609788, 0.01586263, 3.575495E-05, 0.02627379, -0.02723255, 0.4000053
 99206135, -0.02200874, 0.0072238, -2.840112E-05, 0.02571622, -0.02740511, 0.4000036, 0.009069905, 0.001200753, 1.847357E-05, 0.02635479, -0.02752988, 0.4000048
 99306095, -0.001744116, 0.00599849, 6.528518E-06, 0.02611059, -0.02743012, 0.4000044, -0.02200874, 0.0072238, -2.840112E-05, 0.02571622, -0.02740511, 0.4000036
 99406055, 0.02504751, -0.00657649, 3.50995E-05, 0.02675745, -0.0277059, 0.4000052, -0.001744116, 0.00599849, 6.528518E-06, 0.02611059, -0.02743012, 0.4000044
 99506015, 0.00320194, 0.000627652, 6.876413E-06, 0.02621703, -0.02754454, 0.4000045, 0.02504751, -0.00657649, 3.50995E-05, 0.02675745, -0.0277059, 0.4000052
 99605975, 0.009804196, 0.01521419, 4.265944E-05, 0.02636846, -0.02724937, 0.4000053, 0.00320194, 0.000627652, 6.876413E-06, 0.02621703, -0.02754454, 0.4000045
 99705935, -0.008892611, 0.001195633, -1.440866E-05, 0.02595628, -0.02753363, 0.4000042, 0.009804196, 0.01521419, 4.265944E-05, 0.02636846, -0.02724937, 0.4000053
 99805895, 0.003405397, -0.004825425, -1.578106E-06, 0.02621685, -0.02766844, 0.4000045, -0.008892611, 0.001195633, -1.440866E-05, 0.02595628, -0.02753363, 0.4000042
 99905855, 2.479408E-05, -0.02237273, -3.641014E-05, 0.02614112, -0.02810031, 0.4000036, 0.003405397, -0.004825425, -1.578106E-06, 0.02621685, -0.02766844, 0.4000045
 100005815, -0.02452322, 0.0135722, -2.31376E-05, 0.02566395, -0.02728368, 0.4000041, 2.479408E-05, -0.02237273, -3.641014E-05, 0.02614112, -0.02810031, 0.4000036
 100105775, 0.01852688, 0.007891866, 4.715275E-05, 0.02657799, -0.02739603, 0.4000056, -0.02452322, 0.0135722, -2.31376E-05, 0.02566395, -0.02728368, 0.4000041
 100206568, 0.01365141, 0.01168937, 4.441447E-05, 0.02646885, -0.02730838, 0.3921625, 0.01852688, 0.007891866, 4.715275E-05, 0.02657799, -0.02739603, 0.4000056
 100306528, -0.0185836, -0.000314631, -3.480763E-05, 0.02576878, -0.02756979, 0.4000037, 0.01365141, 0.01168937, 4.441447E-05, 0.02646885, -0.02730838, 0.3921625
 100411486, -0.01615615, -0.006095571, -3.963333E-05, 0.02581666, -0.02769975, 0.4000034, -0.0185836, -0.000314631, -3.480763E-05, 0.02576878, -0.02756979, 0.4000037
 100511446, -0.02026402, 0.0249025, 3.369758E-06, 0.02574299, -0.02707796, 0.4000043, -0.01615615, -0.006095571, -3.963333E-05, 0.02581666, -0.02769975, 0.4000034
 100611406, 0.02013416, 0.003851185, 4.309823E-05, 0.0266266, -0.02747564, 0.4000054, -0.02026402, 0.0249025, 3.369758E-06, 0.02574299, -0.02707796, 0.4000043
 100711366, -0.002376517, -0.01249823, -2.456462E-05, 0.02609638, -0.02784594, 0.4000038, 0.02013416, 0.003851185, 4.309823E-05, 0.0266266, -0.02747564, 0.4000054
 100811326, -0.02068953, -0.009395243, -5.285355E-05, 0.02574001, -0.02777037, 0.4000032, -0.002376517, -0.01249823, -2.456462E-05, 0.02609638, -0.02784594, 0.4000038
 100911286, 0.009397663, -0.01790055, -1.181954E-05, 0.02636581, -0.02797873, 0.4000039, -0.02068953, -0.009395243, -5.285355E-05, 0.02574001, -0.02777037, 0.4000032
 101011246, 0.004346175, 0.01135908, 2.617955E-05, 0.02625035, -0.02731954, 0.4000046, 0.009397663, -0.01790055, -1.181954E-05, 0.02636581, -0.02797873, 0.4000039
 101111206, 0.0175074, 0.01726344, 5.942673E-05, 0.026568, -0.02720649, 0.4000054, 0.004346175, 0.01135908, 2.617955E-05, 0.02625035, -0.02731954, 0.4000046
 101211166, -0.008185567, -0.02588921, -5.636502E-05, 0.02598357, -0.02818584, 0.4000028, 0.0175074, 0.01726344, 5.942673E-05, 0.026568, -0.02720649, 0.4000054
 101311126, 0.01989481, -0.0188672, 5.557667E-06, 0.02663202, -0.02799964, 0.4000042, -0.008185567, -0.02588921, -5.636502E-05, 0.02598357, -0.02818584, 0.4000028
 101411086, -0.02470183, 0.01556503, -1.944805E-05, 0.02567982, -0.027235, 0.4000037, 0.01989481, -0.0188672, 5.557667E-06, 0.02663202, -0.02799964, 0.4000042
 101511046, -0.02370457, 0.01430896, -1.961125E-05, 0.02569777, -0.0272587, 0.4000036, -0.02470183, 0.01556503, -1.944805E-05, 0.02567982, -0.027235, 0.4000037
 101611006, 0.01568345, 0.009730824, 4.366344E-05, 0.02652831, -0.02734763, 0.4000049, -0.02370457, 0.01430896, -1.961125E-05, 0.02569777, -0.0272587, 0.4000036
 101710966, 0.01762695, -0.007512923, 1.953855E-05, 0.02657766, -0.0277201, 0.4000044, 0.01568345, 0.009730824, 4.366344E-05, 0.02652831, -0.02734763, 0.4000049
 101810926, -0.0172611, -0.01066962, -4.791673E-05, 0.02581429, -0.02779428, 0.4000029, 0.01762695, -0.007512923, 1.953855E-05, 0.02657766, -0.0277201, 0.4000044
 101910886, 0.01987546, -0.02213413, 2.663364E-07, 0.0266354, -0.02808131, 0.400004, -0.0172611, -0.01066962, -4.791673E-05, 0.02581429, -0.02779428, 0.4000029
 102010846, 0.002771274, 0.0238963, 4.298043E-05, 0.02622251, -0.02708178, 0.400005, 0.01987546, -0.02213413, 2.663364E-07, 0.0266354, -0.02808131, 0.400004
 102110806, -0.0200615, -0.02008017, -6.786481E-05, 0.02576263, -0.02802654, 0.4000026, 0.002771274, 0.0238963, 4.298043E-05, 0.02622251, -0.02708178, 0.400005
 102210766, 0.005192176, 0.00942113, 2.428064E-05, 0.02627753, -0.02735029, 0.4000046, -0.0200615, -0.02008017, -6.786481E-05, 0.02576263, -0.02802654, 0.4000026
 102311559, 0.001306099, 0.0008134178, 3.631035E-06, 0.02620338, -0.02751588, 0.3921612, 0.005192176, 0.00942113, 2.428064E-05, 0.02627753, -0.02735029, 0.4000046
 102411519, 0.01912594, -0.01402599, 1.205367E-05, 0.02661462, -0.0278711, 0.4000046, 0.001306099, 0.0008134178, 3.631035E-06, 0.02620338, -0.02751588, 0.3921612
 102516477, -0.0071858, -0.0223555, -4.834275E-05, 0.02600871, -0.02808421, 0.4000031, 0.01912594, -0.01402599, 1.205367E-05, 0.02661462, -0.0278711, 0.4000046
 102616437, -0.01467616, -0.01769833, -5.437709E-05, 0.02586206, -0.02796462, 0.400003, -0.0071858, -0.0223555, -4.834275E-05, 0.02600871, -0.02808421, 0.4000031
 102716397, -0.01822122, 0.0209597, 9.342439E-07, 0.02579854, -0.02713455, 0.4000038, -0.01467616, -0.01769833, -5.437709E-05, 0.02586206, -0.02796462, 0.400003
 102816357, 0.002499509, -0.01075609, -1.276214E-05, 0.02622123, -0.02779744, 0.4000033, -0.01822122, 0.0209597, 9.342439E-07, 0.02579854, -0.02713455, 0.4000038
 102916317, -0.01034492, -0.00359838, -2.41458E-05, 0.02595045, -0.02763055, 0.4000031, 0.002499509, -0.01075609, -1.276214E-05, 0.02622123, -0.02779744, 0.4000033
 103016277, -0.01939466, -0.01954453, -6.574974E-05, 0.02577903, -0.02801598, 0.4000022, -0.01034492, -0.00359838, -2.41458E-05, 0.02595045, -0.02763055, 0.4000031
 103116237, 0.009546336, -0.00220599, 1.349498E-05, 0.02638152, -0.02759916, 0.400004, -0.01939466, -0.01954453, -6.574974E-05, 0.02577903, -0.02801598, 0.4000022
 103216197, -0.01192363, -0.009752935, -3.688433E-05, 0.02591614, -0.02777298, 0.400003, 0.009546336, -0.00220599, 1.349498E-05, 0.02638152, -0.02759916, 0.400004
 103316157, -0.01702427, 0.007696626, -1.813748E-05, 0.02581851, -0.02738826, 0.4000035, -0.01192363, -0.009752935, -3.688433E-05, 0.02591614, -0.02777298, 0.400003
 103416117, -0.01483648, 0.02530658, 1.391323E-05, 0.02585874, -0.02706123, 0.4000041, -0.01702427, 0.007696626, -1.813748E-05, 0.02581851, -0.02738826, 0.4000035
 103516077, 2.513535E-05, 0.015401, 2.465707E-05, 0.02615971, -0.02723723, 0.4000045, -0.01483648, 0.02530658, 1.391323E-05, 0.02585874, -0.02706123, 0.4000041
 103616037, -0.02110355, -0.02170577, -7.263345E-05, 0.02574044, -0.02807136, 0.4000026, 2.513535E-05, 0.015401, 2.465707E-05, 0.02615971, -0.02723723, 0.4000045
 103715997, -0.0208324, 0.02405711, 9.086543E-07, 0.02574452, -0.02708171, 0.4000042, -0.02110355, -0.02170577, -7.263345E-05, 0.02574044, -0.02807136, 0.4000026
 103815957, -0.0166218, 0.01392051, -7.731598E-06, 0.02581971, -0.02726549, 0.4000041, -0.0208324, 0.02405711, 9.086543E-07, 0.02574452, -0.02708171, 0.4000042
 103915917, 0.003149612, 0.02599103, 4.729857E-05, 0.02622495, -0.02705045, 0.4000052, -0.0166218, 0.01392051, -7.731598E-06, 0.02581971, -0.02726549, 0.4000041
 104015877, -0.02066961, -0.02195924, -7.251791E-05, 0.02574564, -0.02808015, 0.4000026, 0.003149612, 0.02599103, 4.729857E-05, 0.02622495, -0.02705045, 0.4000052
 104115837, 0.01288419, -0.01142383, 4.953497E-06, 0.02645308, -0.02781469, 0.4000043, -0.02066961, -0.02195924, -7.251791E-05, 0.02574564, -0.02808015, 0.4000026
 104215797, -0.005668445, -0.02485973, -5.011032E-05, 0.02603379, -0.02815733, 0.4000031, 0.01288419, -0.01142383, 4.953497E-06, 0.02645308, -0.02781469, 0.4000043
 104316590, 0.01951581, -0.01571052, 1.008968E-05, 0.02663239, -0.02790822, 0.3921614, -0.005668445, -0.02485973, -5.011032E-05, 0.02603379, -0.02815733, 0.4000031
 104416550, -0.01464126, -0.000264896, -2.695541E-05, 0.02585392, -0.02755973, 0.4000037, 0.01951581, -0.01571052, 1.008968E-05, 0.02663239, -0.02790822, 0.3921614
 104516510, 0.009370539, 0.007572157, 2.918874E-05, 0.02636621, -0.0273959, 0.4000047, -0.01464126, -0.000264896, -2.695541E-05, 0.02585392, -0.02755973, 0.4000037
 104621468, -0.005256723, 0.00210449, -6.127013E-06, 0.02604021, -0.02751166, 0.4000039, 0.009370539, 0.007572157, 2.918874E-05, 0.02636621, -0.0273959, 0.4000047
 104721428, 0.01394566, 0.001550956, 2.783563E-05, 0.02647534, -0.02752459, 0.4000047, -0.005256723, 0.00210449, -6.127013E-06, 0.02604021, -0.02751166, 0.4000039
 104821388, 0.02153625, 0.0235615, 7.738116E-05, 0.026667, -0.02709955, 0.4000057, 0.01394566, 0.001550956, 2.783563E-05, 0.02647534, -0.02752459, 0.4000047
 104921348, 0.01154331, -0.01405064, -1.788365E-06, 0.02641474, -0.02788656, 0.400004, 0.02153625, 0.0235615, 7.738116E-05, 0.026667, -0.02709955, 0.4000057
 105021308, 0.006353648, 0.008402593, 2.525306E-05, 0.02629098, -0.0273842, 0.4000046, 0.01154331, -0.01405064, -1.788365E-06, 0.02641474, -0.02788656, 0.400004
 105121268, -0.02106841, -0.02069931, -7.230298E-05, 0.02572978, -0.02805813, 0.4000025, 0.006353648, 0.008402593, 2.525306E-05, 0.02629098, -0.0273842, 0.4000046
 105221228, -0.002129981, 0.01317333, 1.765867E-05, 0.02609821, -0.02729439, 0.4000044, -0.02106841, -0.02069931, -7.230298E-05, 0.02572978, -0.02805813, 0.4000025
 105321188, 0.01425367, -0.01486176, 1.785878E-06, 0.02647492, -0.02791362, 0.400004, -0.002129981, 0.01317333, 1.765867E-05, 0.02609821, -0.02729439, 0.4000044
 105421148, -0.01841965, 0.007612939, -2.135561E-05, 0.02577333, -0.02740765, 0.4000035, 0.01425367, -0.01486176, 1.785878E-06, 0.02647492, -0.02791362, 0.400004
 105521108, 0.005546673, -0.01833633, -1.990872E-05, 0.02626808, -0.02800097, 0.4000035, -0.01841965, 0.007612939, -2.135561E-05, 0.02577333, -0.02740765, 0.4000035
 105621068, -0.02364364, 0.00324745, -3.796228E-05, 0.02568417, -0.02749528, 0.4000032, 0.005546673, -0.01833633, -1.990872E-05, 0.02626808, -0.02800097, 0.4000035
 105721028, -0.01183944, -0.01808071, -5.11022E-05, 0.02590246, -0.02799121, 0.4000028, -0.02364364, 0.00324745, -3.796228E-05, 0.02568417, -0.02749528, 0.4000032
 105820988, 0.01296233, -0.01797328, -5.653803E-06, 0.02644942, -0.02798667, 0.4000038, -0.01183944, -0.01808071, -5.11022E-05, 0.02590246, -0.02799121, 0.4000028
 105920948, 0.0005227643, -0.0165173, -2.585707E-05, 0.0261612, -0.02794856, 0.4000034, 0.01296233, -0.01797328, -5.653803E-06, 0.02644942, -0.02798667, 0.4000038
 106020908, -0.009086384, 0.02550342, 2.480202E-05, 0.02596009, -0.02706634, 0.4000045, 0.0005227643, -0.0165173, -2.585707E-05, 0.0261612, -0.02794856, 0.4000034
 106120868, 0.01540414, 0.01201745, 4.735115E-05, 0.02651137, -0.0273094, 0.4000051, -0.009086384, 0.02550342, 2.480202E-05, 0.02596009, -0.02706634, 0.4000045
 106220828, -0.01491841, 0.02294638, 9.936068E-06, 0.02584765, -0.02710696, 0.4000043, 0.01540414, 0.01201745, 4.735115E-05, 0.02651137, -0.0273094, 0.4000051
 106320788, -0.007642447, 0.005526379, -4.976089E-06, 0.02598939, -0.02743737, 0.4000042, -0.01491841, 0.02294638, 9.936068E-06, 0.02584765, -0.02710696, 0.4000043
 106421581, -0.02247757, 0.01642434, -1.444578E-05, 0.0257235, -0.0272088, 0.3921611, -0.007642447, 0.005526379, -4.976089E-06, 0.02598939, -0.02743737, 0.4000042
 106521541, 0.004376589, 0.01793127, 3.666121E-05, 0.02624801, -0.02719293, 0.4000052, -0.02247757, 0.01642434, -1.444578E-05, 0.0257235, -0.0272088, 0.3921611
 106621501, 0.02602084, 0.001706978, 4.988873E-05, 0.02678726, -0.02751507, 0.4000057, 0.004376589, 0.01793127, 3.666121E-05, 0.02624801, -0.02719293, 0.4000052
 106726459, 0.005692521, -0.01104168, -7.308687E-06, 0.02627887, -0.02780405, 0.4000044, 0.02602084, 0.001706978, 4.988873E-05, 0.02678726, -0.02751507, 0.4000057
 106826419, -0.006750626, 0.002340008, -8.498251E-06, 0.02600841, -0.02749837, 0.4000045, 0.005692521, -0.01104168, -7.308687E-06, 0.02627887, -0.02780405, 0.4000044
 106926379, 0.001445345, 0.005653329, 1.159614E-05, 0.02618251, -0.02742731, 0.400005, -0.006750626, 0.002340008, -8.498251E-06, 0.02600841, -0.02749837, 0.4000045
 107026339, -0.003579485, 0.02291398, 2.985664E-05, 0.02607369, -0.02709846, 0.4000054, 0.001445345, 0.005653329, 1.159614E-05, 0.02618251, -0.02742731, 0.400005
 107126299, -0.005051801, -0.002976261, -1.386335E-05, 0.02604433, -0.02761445, 0.4000044, -0.003579485, 0.02291398, 2.985664E-05, 0.02607369, -0.02709846, 0.4000054
 107226259, 0.01651522, 0.02179055, 6.44833E-05, 0.02654135, -0.02712039, 0.4000059, -0.005051801, -0.002976261, -1.386335E-05, 0.02604433, -0.02761445, 0.4000044
 107326219, 0.002152398, -0.0002497605, 3.490856E-06, 0.02620019, -0.02755357, 0.4000047, 0.01651522, 0.02179055, 6.44833E-05, 0.02654135, -0.02712039, 0.4000059
 107426179, -0.00808202, -0.0198526, -4.607709E-05, 0.02598238, -0.0280205, 0.4000036, 0.002152398, -0.0002497605, 3.490856E-06, 0.02620019, -0.02755357, 0.4000047
 107526139, 0.01952431, -0.003189405, 3.014635E-05, 0.02661851, -0.02761828, 0.4000053, -0.00808202, -0.0198526, -4.607709E-05, 0.02598238, -0.0280205, 0.4000036
 107626099, -0.01513757, 0.01688185, -4.61896E-07, 0.02584727, -0.02720683, 0.4000045, 0.01952431, -0.003189405, 3.014635E-05, 0.02661851, -0.02761828, 0.4000053
 107726059, 0.01032619, -0.01570821, -6.377477E-06, 0.02639272, -0.0279158, 0.4000042, -0.01513757, 0.01688185, -4.61896E-07, 0.02584727, -0.02720683, 0.4000045
 107826019, -0.01160813, 0.01976408, 1.057118E-05, 0.02591707, -0.02715548, 0.4000045, 0.01032619, -0.01570821, -6.377477E-06, 0.02639272, -0.0279158, 0.4000042
 107925979, 0.008088298, 0.004288221, 2.131623E-05, 0.02634128, -0.02745796, 0.4000047, -0.01160813, 0.01976408, 1.057118E-05, 0.02591707, -0.02715548, 0.4000045
 108025939, -0.01791297, -0.02123927, -6.594839E-05, 0.02579853, -0.02806044, 0.4000026, 0.008088298, 0.004288221, 2.131623E-05, 0.02634128, -0.02745796, 0.4000047
 108125899, -0.0172607, -0.0175392, -5.891936E-05, 0.02581048, -0.02796614, 0.4000027, -0.01791297, -0.02123927, -6.594839E-05, 0.02579853, -0.02806044, 0.4000026
 108225859, -0.02430443, 0.004934557, -3.561796E-05, 0.0256861, -0.02744767, 0.4000033, -0.0172607, -0.0175392, -5.891936E-05, 0.02581048, -0.02796614, 0.4000027
 108325819, -0.0190186, 0.009900059, -1.805502E-05, 0.02578066, -0.02734944, 0.4000033, -0.02430443, 0.004934557, -3.561796E-05, 0.0256861, -0.02744767, 0.4000033
 108425779, -0.01534227, -0.02302255, -6.445185E-05, 0.02584971, -0.02811455, 0.4000019, -0.0190186, 0.009900059, -1.805502E-05, 0.02578066, -0.02734944, 0.4000033
 108526572, -0.0230547, 0.01213343, -2.15787E-05, 0.02572368, -0.0272953, 0.3921599, -0.01534227, -0.02302255, -6.445185E-05, 0.02584971, -0.02811455, 0.4000019
 108626532, -0.01632435, -0.02587986, -7.088436E-05, 0.02582924, -0.028191, 0.4000019, -0.0230547, 0.01213343, -2.15787E-05, 0.02572368, -0.0272953, 0.3921599
 108731490, -0.01128, 0.01240012, -2.293673E-07, 0.02590931, -0.02731555, 0.4081669, -0.01632435, -0.02587986, -7.088436E-05, 0.02582924, -0.028191, 0.4000019
 108831450, 0.0224497, 0.00241137, 4.419592E-05, 0.02669707, -0.02750613, 0.4000047, -0.01128, 0.01240012, -2.293673E-07, 0.02590931, -0.02731555, 0.4081669
 108931410, -0.02087104, 0.002785773, -3.304542E-05, 0.02574207, -0.02749877, 0.4000031, 0.0224497, 0.00241137, 4.419592E-05, 0.02669707, -0.02750613, 0.4000047
 109031370, 0.01937751, 0.01487505, 5.8892E-05, 0.02661475, -0.02725584, 0.4000051, -0.02087104, 0.002785773, -3.304542E-05, 0.02574207, -0.02749877, 0.4000031
 109131330, -0.01293077, 0.0136232, -1.369728E-06, 0.02588691, -0.027279, 0.4000039, 0.01937751, 0.01487505, 5.8892E-05, 0.02661475, -0.02725584, 0.4000051
 109231290, 0.00954318, 0.003091654, 2.221341E-05, 0.02636947, -0.02749123, 0.4000045, -0.01293077, 0.0136232, -1.369728E-06, 0.02588691, -0.027279, 0.4000039
 109331250, -0.0008920469, -0.003490251, -7.228282E-06, 0.0261316, -0.02763485, 0.4000039, 0.00954318, 0.003091654, 2.221341E-05, 0.02636947, -0.02749123, 0.4000045
 109431210, 0.01188474, 0.01243351, 4.150801E-05, 0.02642416, -0.02730096, 0.4000051, -0.0008920469, -0.003490251, -7.228282E-06, 0.0261316, -0.02763485, 0.4000039
 109531170, 0.01076705, -0.0008039618, 1.819113E-05, 0.02639713, -0.02757619, 0.4000045, 0.01188474, 0.01243351, 4.150801E-05, 0.02642416, -0.02730096, 0.4000051
 109631130, 0.004035171, 0.001633646, 9.940808E-06, 0.0262401, -0.02752433, 0.4000042, 0.01076705, -0.0008039618, 1.819113E-05, 0.02639713, -0.02757619, 0.4000045
 109731090, 0.005730773, -0.01828376, -1.919523E-05, 0.02627813, -0.02799384, 0.4000035, 0.004035171, 0.001633646, 9.940808E-06, 0.0262401, -0.02752433, 0.4000042
 109831050, 0.01844889, -0.004458782, 2.625894E-05, 0.0265855, -0.0276611, 0.4000046, 0.005730773, -0.01828376, -1.919523E-05, 0.02627813, -0.02799384, 0.4000035
 109931010, 0.000494941, 0.02407695, 3.992026E-05, 0.02615718, -0.02709352, 0.4000049, 0.01844889, -0.004458782, 2.625894E-05, 0.0265855, -0.0276611, 0.4000046
 110030970, -0.01048845, 0.02277861, 1.785515E-05, 0.02592681, -0.02711683, 0.4000044, 0.000494941, 0.02407695, 3.992026E-05, 0.02615718, -0.02709352, 0.4000049
 110130930, -0.01545556, -0.007324978, -4.008564E-05, 0.02583267, -0.02773303, 0.4000028, -0.01048845, 0.02277861, 1.785515E-05, 0.02592681, -0.02711683, 0.4000044
 110230890, -0.01388009, -0.01554706, -5.076126E-05, 0.02586357, -0.0279351, 0.4000023, -0.01545556, -0.007324978, -4.008564E-05, 0.02583267, -0.02773303, 0.4000028
 110330850, -0.02461971, -0.01014262, -6.149926E-05, 0.0256683, -0.02780365, 0.4000022, -0.01388009, -0.01554706, -5.076126E-05, 0.02586357, -0.0279351, 0.4000023
 110430810, 0.01854967, -0.01835019, 3.655015E-06, 0.02658405, -0.02800668, 0.4000036, -0.02461971, -0.01014262, -6.149926E-05, 0.0256683, -0.02780365, 0.4000022
 110530770, -0.0202192, -0.02268137, -7.435583E-05, 0.02574091, -0.02811965, 0.400002, 0.01854967, -0.01835019, 3.655015E-06, 0.02658405, -0.02800668, 0.4000036
 110631563, 0.01938174, 0.01392396, 5.845301E-05, 0.02660221, -0.02728752, 0.400005, -0.0202192, -0.02268137, -7.435583E-05, 0.02574091, -0.02811965, 0.400002
 110731523, 0.004130465, -0.02315729, -3.053003E-05, 0.02623534, -0.02813136, 0.4000028, 0.01938174, 0.01392396, 5.845301E-05, 0.02660221, -0.02728752, 0.400005
 110836481, -0.01373025, 0.01900387, 6.154927E-06, 0.02584966, -0.02720371, 0.408167, 0.004130465, -0.02315729, -3.053003E-05, 0.02623534, -0.02813136, 0.4000028
 110936441, 0.01104027, -0.02306421, -1.759591E-05, 0.0264007, -0.02812449, 0.4000032, -0.01373025, 0.01900387, 6.154927E-06, 0.02584966, -0.02720371, 0.408167
 111036401, -0.01179456, -0.009858696, -3.739955E-05, 0.02590478, -0.02779037, 0.4000029, 0.01104027, -0.02306421, -1.759591E-05, 0.0264007, -0.02812449, 0.4000032
 111136361, -0.02194363, -0.0146251, -6.337351E-05, 0.02571903, -0.02790534, 0.4000023, -0.01179456, -0.009858696, -3.739955E-05, 0.02590478, -0.02779037, 0.4000029
 111236321, 0.01761647, 0.02290973, 6.887238E-05, 0.02656796, -0.02711483, 0.4000051, -0.02194363, -0.0146251, -6.337351E-05, 0.02571903, -0.02790534, 0.4000023
 111336281, -0.02590982, -0.01982238, -7.877191E-05, 0.02565163, -0.02803434, 0.4000022, 0.01761647, 0.02290973, 6.887238E-05, 0.02656796, -0.02711483, 0.4000051
 111436241, -0.01856276, -0.01701647, -6.091363E-05, 0.02577968, -0.02796124, 0.4000026, -0.02590982, -0.01982238, -7.877191E-05, 0.02565163, -0.02803434, 0.4000022
 111536201, -0.01132537, -0.01793942, -4.923589E-05, 0.02591781, -0.02798331, 0.4000028, -0.01856276, -0.01701647, -6.091363E-05, 0.02577968, -0.02796124, 0.4000026
 111636161, 0.009523092, -0.009237635, 2.273737E-06, 0.0263713, -0.02776803, 0.4000039, -0.01132537, -0.01793942, -4.923589E-05, 0.02591781, -0.02798331, 0.4000028
 111736121, 0.01206972, -0.02075353, -1.161465E-05, 0.02643404, -0.028053, 0.4000036, 0.009523092, -0.009237635, 2.273737E-06, 0.0263713, -0.02776803, 0.4000039
 111836081, -0.01214158, -0.003659572, -2.756249E-05, 0.02590617, -0.02763769, 0.4000032, 0.01206972, -0.02075353, -1.161465E-05, 0.02643404, -0.028053, 0.4000036
 111936041, 0.01302313, 0.009806889, 3.89781E-05, 0.02645921, -0.02735309, 0.4000045, -0.01214158, -0.003659572, -2.756249E-05, 0.02590617, -0.02763769, 0.4000032
 112036001, 0.02503143, 0.02049165, 7.752853E-05, 0.02676808, -0.02715273, 0.4000053, 0.01302313, 0.009806889, 3.89781E-05, 0.02645921, -0.02735309, 0.4000045
 112135961, 0.01548925, 0.007505654, 3.962114E-05, 0.02652139, -0.02739917, 0.4000045, 0.02503143, 0.02049165, 7.752853E-05, 0.02676808, -0.02715273, 0.4000053
 112235921, 0.02179931, -0.002001485, 3.559423E-05, 0.0266834, -0.02760074, 0.4000045, 0.01548925, 0.007505654, 3.962114E-05, 0.02652139, -0.02739917, 0.4000045
 112335881, -0.01014973, 0.0141275, 4.505677E-06, 0.02594793, -0.02726679, 0.4000038, 0.02179931, -0.002001485, 3.559423E-05, 0.0266834, -0.02760074, 0.4000045
 112435841, -0.02268063, 0.01261386, -2.02045E-05, 0.02571526, -0.02729544, 0.4000033, -0.01014973, 0.0141275, 4.505677E-06, 0.02594793, -0.02726679, 0.4000038
 112535801, 0.01333946, 0.02142009, 5.792202E-05, 0.02646936, -0.02713354, 0.4000048, -0.02268063, 0.01261386, -2.02045E-05, 0.02571526, -0.02729544, 0.4000033
 112635761, -0.0239795, 0.01725269, -1.500082E-05, 0.02569385, -0.02720899, 0.4000033, 0.01333946, 0.02142009, 5.792202E-05, 0.02646936, -0.02713354, 0.4000048
 112736554, 0.02291352, 0.01155748, 5.913206E-05, 0.02671429, -0.02731763, 0.4000048, -0.0239795, 0.01725269, -1.500082E-05, 0.02569385, -0.02720899, 0.4000033
 112836514, 0.01633154, -0.01708075, 1.663213E-06, 0.02654431, -0.02795961, 0.4000035, 0.02291352, 0.01155748, 5.913206E-05, 0.02671429, -0.02731763, 0.4000048
 112941472, -0.0005548857, 0.02390829, 3.725886E-05, 0.02613269, -0.02710471, 0.4081676, 0.01633154, -0.01708075, 1.663213E-06, 0.02654431, -0.02795961, 0.4000035
 113041432, -0.02600008, -0.0131438, -6.730705E-05, 0.02565743, -0.02786215, 0.4000022, -0.0005548857, 0.02390829, 3.725886E-05, 0.02613269, -0.02710471, 0.4081676
 113141392, -0.009486756, 0.02468446, 2.261874E-05, 0.02596024, -0.02707879, 0.400004, -0.02600008, -0.0131438, -6.730705E-05, 0.02565743, -0.02786215, 0.4000022
 113241352, -0.003951721, -0.02277133, -4.348424E-05, 0.02607392, -0.02810759, 0.4000025, -0.009486756, 0.02468446, 2.261874E-05, 0.02596024, -0.02707879, 0.400004
 113341312, 0.00322422, -0.009390634, -9.319128E-06, 0.02623004, -0.02777311, 0.4000033, -0.003951721, -0.02277133, -4.348424E-05, 0.02607392, -0.02810759, 0.4000025
 113441272, -7.687575E-05, 0.01349223, 2.151628E-05, 0.02615666, -0.02728304, 0.4000039, 0.00322422, -0.009390634, -9.319128E-06, 0.02623004, -0.02777311, 0.4000033
 113541232, -0.0119007, 0.0237079, 1.689712E-05, 0.02591242, -0.02709798, 0.4000037, -7.687575E-05, 0.01349223, 2.151628E-05, 0.02615666, -0.02728304, 0.4000039
 113641192, 0.002460195, -0.009605689, -1.104047E-05, 0.02621211, -0.02777928, 0.4000032, -0.0119007, 0.0237079, 1.689712E-05, 0.02591242, -0.02709798, 0.4000037
 113741152, 0.01830292, 0.0240512, 7.121712E-05, 0.02658976, -0.02709145, 0.4000051, 0.002460195, -0.009605689, -1.104047E-05, 0.02621211, -0.02777928, 0.4000032
 113841112, 0.01965724, -0.007635127, 2.287393E-05, 0.02662374, -0.02773171, 0.4000042, 0.01830292, 0.0240512, 7.121712E-05, 0.02658976, -0.02709145, 0.4000051
 113941072, 0.02124877, -0.01574923, 1.275969E-05, 0.02666397, -0.02792829, 0.4000041, 0.01965724, -0.007635127, 2.287393E-05, 0.02662374, -0.02773171, 0.4000042
 114041032, 0.006096137, -0.01931744, -2.00724E-05, 0.02629044, -0.0280193, 0.4000033, 0.02124877, -0.01574923, 1.275969E-05, 0.02666397, -0.02792829, 0.4000041
 114140992, 0.01941873, -0.02099588, 1.094813E-06, 0.02661552, -0.0280628, 0.4000038, 0.006096137, -0.01931744, -2.00724E-05, 0.02629044, -0.0280193, 0.4000033
 114240952, -0.007867696, 0.0003660492, -1.351025E-05, 0.02598726, -0.02755239, 0.4000035, 0.01941873, -0.02099588, 1.094813E-06, 0.02661552, -0.0280628, 0.4000038
 114340912, 0.002642842, -0.02190525, -3.045493E-05, 0.02621071, -0.0280876, 0.400003, -0.007867696, 0.0003660492, -1.351025E-05, 0.02598726, -0.02755239, 0.4000035
 114440872, -0.01547504, -0.000712162, -2.893235E-05, 0.02583711, -0.02757724, 0.4000032, 0.002642842, -0.02190525, -3.045493E-05, 0.02621071, -0.0280876, 0.400003
 114540832, 0.00574973, -0.02050189, -2.26968E-05, 0.02628019, -0.02805266, 0.4000032, -0.01547504, -0.000712162, -2.893235E-05, 0.02583711, -0.02757724, 0.4000032
 114640792, 0.01166868, -0.002332446, 1.721283E-05, 0.02641919, -0.02761557, 0.4000041, 0.00574973, -0.02050189, -2.26968E-05, 0.02628019, -0.02805266, 0.4000032
 114741585, 0.004097143, 0.02307566, 4.467805E-05, 0.02624104, -0.02711367, 0.4000045, 0.01166868, -0.002332446, 1.721283E-05, 0.02641919, -0.02761557, 0.4000041
