TimeUS,CAN,CAE,CAD,CAe,NAN,NAE,NAD,NAe,m10,m00,Gye
 76940878, -0.000306387, 0.0003870032, -7.540546E-06, 5.187924E-05, 0, 0, 0, 0, -0.1083255, 0.9941142, 0.8375937
 77020846, -1.343452, 1.457629, 0.001560648, 0.1998691, -1.276885, 1.51239, 0.0001835844, 0.1998172, -0.1083223, 0.9941146, 2.515393
 77220766, -1.283602, 1.521157, -5.78752E-05, 0.2003879, -0.003363499, 0.00409417, 2.83128E-05, 0.0005187924, -0.1083131, 0.9941155, 8.406407
 77420686, -0.01018994, 0.01257114, -3.608213E-05, 0.001089464, -0.002911527, 0.004094793, -0.0001794097, 0.0005187924, -0.108304, 0.9941165, 0.04570375
 77620606, -0.009342724, 0.01290837, -0.0003603162, 0.001089464, -0.00316557, 0.003600351, 1.868454E-05, 0.0005187924, -0.108296, 0.9941174, 0.04570375
 77820526, -0.01006765, 0.01200537, 0.0001760255, 0.001089464, -0.00333859, 0.003798743, 4.737865E-05, 0.0005187924, -0.1082884, 0.9941182, 0.04570375
 78020446, -0.01004232, 0.01217641, 4.118221E-06, 0.001089464, -0.002924659, 0.004068108, -2.030514E-05, 0.0005187924, -0.1082805, 0.994119, 0.04570375
 78220366, -0.009558417, 0.01257274, -9.648276E-05, 0.001089464, -0.002794495, 0.004189955, 5.138249E-05, 0.0005187924, -0.1082729, 0.9941198, 0.04570375
 78420286, -0.0094993, 0.01272895, 4.942823E-05, 0.001089464, -0.002995654, 0.003775332, -0.0003105828, 0.0005187924, -0.1082648, 0.9941207, 0.04570375
 78620206, -0.00949359, 0.0124373, -0.0003516412, 0.001089464, -0.002896455, 0.003881813, 0.0001807443, 0.0005187924, -0.1082572, 0.9941216, 0.04570375
 78820959, -0.009744677, 0.0124703, 0.00016765, 0.001091626, -0.003107867, 0.003627864, -0.0003019214, 0.000520954, -0.1082502, 0.9941223, 0.04579443
 79020879, -0.009837011, 0.01233068, -0.0004227704, 0.001091626, -0.002759774, 0.003888397, 8.360378E-05, 0.0005187924, -0.1082554, 0.9941217, 0.04579443
 79220799, -0.009597806, 0.01268163, 6.497646E-05, 0.001089464, -0.003338211, 0.004009029, 6.043877E-05, 0.0005187924, -0.1082589, 0.9941214, 0.04570375
 79420719, -0.01003268, 0.01255334, -4.785527E-06, 0.001089464, -0.00327572, 0.003740739, -6.291733E-05, 0.0005187924, -0.1082621, 0.994121, 0.04570375
 79620639, -0.01010976, 0.01237506, -7.183061E-05, 0.001089464, -0.002879176, 0.003805287, 0.0001510016, 0.0005187924, -0.1082631, 0.9941209, 0.04570375
 79820559, -0.009735336, 0.01245301, 0.0001642905, 0.001089464, -0.003313572, 0.004218475, 0.0001747386, 0.0005187924, -0.1082629, 0.994121, 0.04570375
 80020479, -0.01008702, 0.01269774, 0.0001639568, 0.001089464, -0.002990793, 0.00395789, 0.0005178287, 0.0005187924, -0.1082609, 0.9941212, 0.04570375
 80220399, -0.009757882, 0.01253192, 0.0006682679, 0.001089464, -0.002708881, 0.003986406, -0.0002960928, 0.0005187924, -0.10826, 0.9941214, 0.04570375
 80420319, -0.009230055, 0.01250667, -0.0003181234, 0.001089464, -0.002893922, 0.003784798, 3.84177E-05, 0.0005187924, -0.1082576, 0.9941216, 0.04570375
 80620239, -0.009560433, 0.01221406, 8.941888E-06, 0.001089464, -0.003011363, 0.003980918, 0.0001290759, 0.0005187924, -0.1082547, 0.9941218, 0.04570375
 80820159, -0.009539051, 0.01247726, 0.0001076172, 0.001089464, -0.002829381, 0.003779369, 1.487137E-05, 0.0005187924, -0.1082501, 0.9941224, 0.04570375
 81020912, -0.009537112, 0.01248911, -0.0001659051, 0.001091626, -0.003189031, 0.004034719, 0.0001997812, 0.000520954, -0.1082449, 0.994123, 0.04579443
 81220832, -0.009846276, 0.01278347, 0.0001726028, 0.001091626, -0.002957362, 0.003498403, 3.67971E-05, 0.0005187924, -0.1082398, 0.9941235, 0.04579443
 81420752, -0.009528519, 0.0120006, -0.0001085133, 0.001089464, -0.002948759, 0.0039374, 1.858921E-05, 0.0005187924, -0.1082348, 0.994124, 0.04570375
 81620672, -0.009613414, 0.01241459, 4.690201E-06, 0.001089464, -0.002971614, 0.004103162, 0.0001231654, 0.0005187924, -0.1082278, 0.9941247, 0.04570375
 81820592, -0.0096467, 0.01264934, 7.460468E-05, 0.001089464, -0.002936196, 0.003544838, -8.388977E-05, 0.0005187924, -0.1082215, 0.9941255, 0.04570375
 82020512, -0.009685377, 0.01176739, -0.0001514782, 0.001089464, -0.00305808, 0.003983031, -1.344143E-05, 0.0005187924, -0.1082141, 0.9941263, 0.04570375
 82220432, -0.01000982, 0.01234904, -0.0001433276, 0.001089464, -0.003092615, 0.004037728, -0.000101335, 0.0005187924, -0.1082061, 0.9941272, 0.04570375
 82420352, -0.009865236, 0.01239724, -6.171616E-05, 0.001089464, -0.003167185, 0.003912015, -0.0002226892, 0.0005187924, -0.1081994, 0.9941278, 0.04570375
 82620272, -0.009812631, 0.01261406, -0.0002910117, 0.001089464, -0.003180906, 0.00398307, -0.0001699721, 0.0005187924, -0.1081922, 0.9941286, 0.04570375
 82820192, -0.0100549, 0.01250972, -0.0001978654, 0.001089464, -0.003178096, 0.003745826, -0.0002153488, 0.0005187924, -0.1081858, 0.9941294, 0.04570375
 83020945, -0.01004962, 0.01249886, -0.0001352429, 0.001091626, -0.003104745, 0.004137023, 0.0003257572, 0.000520954, -0.1081794, 0.99413, 0.04579443
 83220865, -0.00985819, 0.01288681, 0.0005491328, 0.001091626, -0.003075038, 0.004005818, 0.0003011452, 0.0005187924, -0.1081727, 0.9941307, 0.04579443
 83420785, -0.009969298, 0.0126372, 0.0003562741, 0.001089464, -0.003020882, 0.00378717, 9.170677E-05, 0.0005187924, -0.1081662, 0.9941315, 0.04570375
 83620705, -0.009512078, 0.01208743, 0.0001440711, 0.001089464, -0.003134889, 0.003812598, -0.0001339376, 0.0005187924, -0.108159, 0.9941322, 0.04570375
 83820625, -0.00979407, 0.01221087, -2.503347E-05, 0.001089464, -0.002906756, 0.003773554, 0.0002346054, 0.0005187924, -0.1081523, 0.994133, 0.04570375
 84020545, -0.00974844, 0.01227568, 0.0002467217, 0.001089464, -0.003055361, 0.004029026, -0.0001554821, 0.0005187924, -0.1081454, 0.9941337, 0.04570375
 84220465, -0.009925601, 0.01266044, -5.106787E-05, 0.001089464, -0.002768329, 0.003841327, -0.0003471893, 0.0005187924, -0.1081537, 0.9941328, 0.04570375
 84420385, -0.00952845, 0.01248644, -0.0002761594, 0.001089464, -0.003222694, 0.004185341, 1.429939E-05, 0.0005187924, -0.1081604, 0.994132, 0.04570375
 84620305, -0.009988125, 0.01277117, -0.0002010304, 0.001089464, -0.002955769, 0.00399392, -6.549122E-05, 0.0005187924, -0.1081652, 0.9941315, 0.04570375
 84820225, -0.009861096, 0.01264415, -0.0002450249, 0.001089464, -0.00291756, 0.003777104, -0.0002885617, 0.0005187924, -0.1081686, 0.9941311, 0.04570375
 85020145, -0.009825577, 0.01229989, -0.0004548446, 0.001089464, -0.002817193, 0.004151272, 4.194488E-05, 0.0005187924, -0.1081704, 0.994131, 0.04570375
 85220898, -0.009712423, 0.0127142, -0.0001058683, 0.001091626, -0.003200993, 0.003665968, 0.0002927316, 0.000520954, -0.1081716, 0.9941308, 0.04579443
 85420818, -0.01009011, 0.01210827, 0.0003308538, 0.001091626, -0.003082633, 0.003984717, -0.0002011448, 0.0005187924, -0.1081707, 0.994131, 0.04579443
 85620738, -0.009724082, 0.01261609, -0.0003293245, 0.001089464, -0.003144376, 0.003738794, 0.0001150624, 0.0005187924, -0.1081697, 0.9941311, 0.04570375
 85820658, -0.009927768, 0.01212154, 0.0003785907, 0.001089464, -0.003028695, 0.003868888, -7.998127E-05, 0.0005187924, -0.1081674, 0.9941314, 0.04570375
 86020578, -0.009704298, 0.01253629, 3.310786E-05, 0.001089464, -0.003299581, 0.003975015, 0.0001836042, 0.0005187924, -0.1081653, 0.9941316, 0.04570375
 86220498, -0.01001803, 0.01248747, 0.0001121263, 0.001089464, -0.003303669, 0.003822856, -3.260262E-05, 0.0005187924, -0.108162, 0.994132, 0.04570375
 86420418, -0.01015775, 0.01207899, -0.0002669125, 0.001089464, -0.003142547, 0.003655094, -8.293648E-06, 0.0005187924, -0.1081583, 0.9941323, 0.04570375
 86620338, -0.01009603, 0.01211471, -4.01527E-05, 0.001089464, -0.00299379, 0.003819725, -4.633003E-05, 0.0005187924, -0.108154, 0.9941328, 0.04570375
 86820258, -0.009858017, 0.01216929, -0.0002966838, 0.001089464, -0.002845159, 0.004098374, 1.429939E-06, 0.0005187924, -0.1081492, 0.9941334, 0.04570375
 87020178, -0.009353193, 0.01254282, -0.0002385806, 0.001089464, -0.002974305, 0.003999638, -1.163017E-05, 0.0005187924, -0.1081437, 0.9941339, 0.04570375
 87220931, -0.009822359, 0.01255156, -5.19493E-05, 0.001091626, -0.002843751, 0.004259558, 0.0003341812, 0.000520954, -0.108139, 0.9941344, 0.04579443
 87420851, -0.009510092, 0.01294776, 0.0003470888, 0.001091626, -0.0030474, 0.003871441, -5.681625E-05, 0.0005187924, -0.1081329, 0.9941352, 0.04579443
 87620771, -0.009693515, 0.01264176, -0.0001022883, 0.001089464, -0.003034701, 0.003794414, -0.0001347956, 0.0005187924, -0.1081276, 0.9941357, 0.04570375
 87820691, -0.009631367, 0.01236224, -0.0003154351, 0.001089464, -0.002726896, 0.00393023, 5.624428E-05, 0.0005187924, -0.1081209, 0.9941364, 0.04570375
 88020611, -0.009406699, 0.01211637, 0.0002397722, 0.001089464, -0.003004171, 0.003522857, -0.0001626318, 0.0005187924, -0.1081147, 0.9941371, 0.04570375
 88220531, -0.009754934, 0.01195151, -0.0001658634, 0.001089464, -0.002876013, 0.003449867, -8.274582E-05, 0.0005187924, -0.1081076, 0.9941379, 0.04570375
 88420451, -0.009817801, 0.0119477, -0.0002122983, 0.001089464, -0.00336249, 0.003957689, -0.000149095, 0.0005187924, -0.1081008, 0.9941386, 0.04570375
 88620371, -0.01034643, 0.01258848, -0.0002526798, 0.001089464, -0.003215555, 0.004001098, -0.0001301245, 0.0005187924, -0.1080946, 0.9941392, 0.04570375
 88820291, -0.01015292, 0.01261838, -0.0001468738, 0.001089464, -0.003254374, 0.004108921, -0.0002958068, 0.0005187924, -0.108089, 0.9941398, 0.04570375
 89020211, -0.01027149, 0.0128036, -0.0002258446, 0.001089464, -0.00312357, 0.003854411, -0.0001854155, 0.0005187924, -0.1080829, 0.9941405, 0.04570375
 89220964, -0.009841958, 0.0124889, -0.0004428073, 0.001091626, -0.002887308, 0.003943198, -3.82906E-05, 0.000520954, -0.1080793, 0.9941409, 0.04579443
 89420884, -0.009779423, 0.01277734, -6.596469E-05, 0.001091626, -0.002978624, 0.003614045, -0.0002226892, 0.0005187924, -0.1080879, 0.9941399, 0.04579443
 89620804, -0.009627434, 0.01210821, -0.000146483, 0.001089464, -0.002971608, 0.004112425, -7.511947E-05, 0.0005187924, -0.1080952, 0.9941392, 0.04570375
 89820724, -0.009788844, 0.01263382, -0.0002327464, 0.001089464, -0.002912562, 0.003967922, 3.336525E-05, 0.0005187924, -0.1081017, 0.9941385, 0.04570375
 90020644, -0.009477676, 0.01249724, -3.694009E-05, 0.001089464, -0.002971872, 0.003889562, -0.0001393714, 0.0005187924, -0.1081053, 0.9941381, 0.04570375
 90220564, -0.0096477, 0.0123594, -0.0002005442, 0.001089464, -0.003114533, 0.0038379, -0.0003278374, 0.0005187924, -0.1081074, 0.9941379, 0.04570375
 90420484, -0.009888123, 0.01238773, -0.0003833667, 0.001089464, -0.002774581, 0.00388027, -8.131588E-05, 0.0005187924, -0.1081088, 0.9941377, 0.04570375
 90620404, -0.00928585, 0.0124492, -4.903737E-05, 0.001089464, -0.003172898, 0.004043186, -0.0002690192, 0.0005187924, -0.108108, 0.9941378, 0.04570375
 90820324, -0.009759498, 0.01256157, -0.0003245581, 0.001089464, -0.003004715, 0.003645679, -0.0002006681, 0.0005187924, -0.1081071, 0.9941379, 0.04570375
 91020244, -0.009484179, 0.01218607, -0.0001329081, 0.001089464, -0.002991857, 0.003931648, 2.793148E-05, 0.0005187924, -0.1081056, 0.9941381, 0.04570375
 91220164, -0.009605597, 0.01256086, 0.0001086182, 0.001089464, -0.0029585, 0.004020786, 6.205936E-05, 0.0005187924, -0.108103, 0.9941384, 0.04570375
 91420917, -0.00959299, 0.01277515, 0.0001042581, 0.001091626, -0.003077278, 0.004001729, 0.000213853, 0.000520954, -0.108101, 0.9941385, 0.04579443
 91620837, -0.009945679, 0.01252141, -6.355524E-05, 0.001091626, -0.003029546, 0.003709786, 0.0004100113, 0.0005187924, -0.1080972, 0.994139, 0.04579443
 91820757, -0.009788118, 0.01207975, 8.71312E-06, 0.001089464, -0.002755795, 0.003901482, -0.0001347003, 0.0005187924, -0.108094, 0.9941394, 0.04570375
 92020677, -0.009408683, 0.01238191, -3.966652E-05, 0.001089464, -0.003116768, 0.003986003, 7.245025E-05, 0.0005187924, -0.1080897, 0.9941399, 0.04570375
 92220597, -0.009966698, 0.01242613, 0.000154462, 0.001089464, -0.002680553, 0.004025422, 0.0001322217, 0.0005187924, -0.1080841, 0.9941404, 0.04570375
 92420517, -0.009355505, 0.01235836, 0.0002005442, 0.001089464, -0.002830558, 0.003692009, -2.268837E-05, 0.0005187924, -0.1080789, 0.9941409, 0.04570375
 92620437, -0.009450055, 0.01212195, 0.0001883039, 0.001089464, -0.00304802, 0.003912692, 0.0003743581, 0.0005187924, -0.1080736, 0.9941415, 0.04570375
 92820357, -0.009794025, 0.01237308, 0.0003554734, 0.001089464, -0.002996117, 0.003570082, 0.00025186, 0.0005187924, -0.1080682, 0.9941421, 0.04570375
 93020277, -0.009589374, 0.01203841, 0.000327704, 0.001089464, -0.002743814, 0.004109523, -0.0004122992, 0.0005187924, -0.1080613, 0.9941429, 0.04570375
 93220197, -0.00944423, 0.01274259, -0.0005908032, 0.001089464, -0.002842915, 0.003602713, -0.0002302202, 0.0005187924, -0.108056, 0.9941435, 0.04570375
 93420950, -0.009604337, 0.01192438, -0.000269186, 0.001091626, -0.003161342, 0.004061601, -0.0004321094, 0.000520954, -0.1080517, 0.9941439, 0.04579443
 93620870, -0.009977691, 0.0125999, -0.0004850552, 0.001091626, -0.003093619, 0.00400058, 7.245025E-05, 0.0005187924, -0.1080468, 0.9941444, 0.04579443
 93820790, -0.009767059, 0.01255854, -0.0002230324, 0.001089464, -0.003423433, 0.003888439, 0.0001229748, 0.0005187924, -0.1080412, 0.9941451, 0.04570375
 94020710, -0.01026573, 0.01250866, 0.0003009355, 0.001089464, -0.00341676, 0.003823409, -4.85226E-05, 0.0005187924, -0.1080355, 0.9941457, 0.04570375
 94220630, -0.01002454, 0.01240123, -0.0001355201, 0.001089464, -0.002999208, 0.003796264, -0.0001517642, 0.0005187924, -0.1080292, 0.9941463, 0.04570375
 94420550, -0.009680239, 0.01236829, -0.0002272173, 0.001089464, -0.002779488, 0.004097924, -4.909458E-05, 0.0005187924, -0.1080225, 0.9941471, 0.04570375
 94620470, -0.009641325, 0.01268088, -9.952378E-05, 0.001089464, -0.003120979, 0.004126996, 0.0001160157, 0.0005187924, -0.1080309, 0.9941462, 0.04570375
 94820390, -0.01020601, 0.01250323, -0.0001327746, 0.001089464, -0.003211159, 0.003968915, 0.0001514782, 0.0005187924, -0.1080373, 0.9941454, 0.04570375
 95020310, -0.009923106, 0.01250403, 0.000165301, 0.001089464, -0.002900341, 0.003864917, 4.356548E-05, 0.0005187924, -0.108042, 0.994145, 0.04570375
 95220230, -0.009675081, 0.01222433, 7.752177E-05, 0.001089464, -0.003189719, 0.004025017, 0.0001991429, 0.0005187924, -0.1080457, 0.9941446, 0.04570375
 95420150, -0.009959428, 0.01264534, 0.000277637, 0.001089464, -0.003242664, 0.003723209, -0.0003548156, 0.0005187924, -0.1080478, 0.9941444, 0.04570375
 95620903, -0.0101155, 0.01246339, -0.000370765, 0.001091626, -0.003057644, 0.004053976, 2.862222E-05, 0.000520954, -0.1080502, 0.9941441, 0.04579443
 95820823, -0.00971206, 0.01260921, -1.661153E-05, 0.001091626, -0.003080888, 0.003644223, -0.0001690188, 0.0005187924, -0.1080505, 0.9941441, 0.04579443
 96020743, -0.009936915, 0.01223818, -0.0002506302, 0.001089464, -0.003237796, 0.004031611, 0.0003246915, 0.0005187924, -0.1080497, 0.9941441, 0.04570375
 96220663, -0.01003633, 0.01219137, 0.0004581811, 0.001089464, -0.00313522, 0.003597603, -7.035301E-05, 0.0005187924, -0.1080482, 0.9941444, 0.04570375
 96420583, -0.009799642, 0.01176934, -0.0001142331, 0.001089464, -0.002945042, 0.00383549, -0.0002040047, 0.0005187924, -0.1080452, 0.9941447, 0.04570375
 96620503, -0.009537544, 0.01228663, 9.375637E-05, 0.001089464, -0.003067323, 0.003779902, -0.0001568167, 0.0005187924, -0.1080426, 0.994145, 0.04570375
 96820423, -0.009901201, 0.01207881, -6.482402E-06, 0.001089464, -0.003115284, 0.003834642, -4.78553E-05, 0.0005187924, -0.1080399, 0.9941452, 0.04570375
 97020343, -0.0100933, 0.01245608, -7.277436E-05, 0.001089464, -0.002887557, 0.003946998, 0.0001458538, 0.0005187924, -0.1080365, 0.9941456, 0.04570375
 97220263, -0.009488678, 0.0124057, 0.0001468261, 0.001089464, -0.003215562, 0.003577927, 0.0001103913, 0.0005187924, -0.1080324, 0.9941461, 0.04570375
 97420183, -0.009875194, 0.01186026, 0.000174853, 0.001089464, -0.003459924, 0.003979054, -9.618725E-05, 0.0005187924, -0.1080292, 0.9941464, 0.04570375
 97620936, -0.01017481, 0.01245737, -0.0001010542, 0.001091626, -0.003294813, 0.003624163, -0.0002011214, 0.000520954, -0.1080245, 0.9941469, 0.04579443
 97820856, -0.01007388, 0.01223208, -0.000301484, 0.001091626, -0.002713944, 0.003925271, 0.0001264066, 0.0005187924, -0.1080201, 0.9941474, 0.04579443
 98020776, -0.00921878, 0.01260334, 3.902781E-05, 0.001089464, -0.002881022, 0.00406296, -0.0002145862, 0.0005187924, -0.1080166, 0.9941478, 0.04570375
 98220696, -0.009543238, 0.01242639, -0.0002082087, 0.001089464, -0.003109687, 0.003800208, 7.016235E-05, 0.0005187924, -0.1080117, 0.9941484, 0.04570375
 98420616, -0.009965153, 0.0122727, 8.614907E-05, 0.001089464, -0.003101757, 0.00386431, 0.0001373695, 0.0005187924, -0.1080063, 0.9941489, 0.04570375
 98620536, -0.009986815, 0.01220335, 0.0001442428, 0.001089464, -0.003004043, 0.003791085, 0.0001985709, 0.0005187924, -0.1080015, 0.9941494, 0.04570375
 98820456, -0.009823596, 0.0123723, -6.399456E-05, 0.001089464, -0.003001573, 0.003946337, 2.163975E-05, 0.0005187924, -0.1079974, 0.9941499, 0.04570375
 99020376, -0.009752747, 0.0124797, 0.0001047478, 0.001089464, -0.003109163, 0.003739171, -0.0001299338, 0.0005187924, -0.1079933, 0.9941502, 0.04570375
 99220296, -0.00968175, 0.01230897, -0.0001728987, 0.001089464, -0.003070248, 0.003727956, -0.0001686375, 0.0005187924, -0.1079889, 0.9941507, 0.04570375
 99420216, -0.009717536, 0.01249119, -2.967603E-05, 0.001089464, -0.002896255, 0.00399254, 0.0001255487, 0.0005187924, -0.1079843, 0.9941513, 0.04570375
 99620969, -0.009756625, 0.01262572, 0.0001825425, 0.001091626, -0.003028644, 0.004011593, -0.0003999453, 0.000520954, -0.1079792, 0.9941518, 0.04579443
 99820889, -0.009839702, 0.01279622, -0.0005924056, 0.001091626, -0.003325769, 0.003958624, -0.0002846533, 0.0005187924, -0.1079898, 0.9941507, 0.04579443
 100020809, -0.01020522, 0.01264318, -0.000182079, 0.001089464, -0.00288356, 0.004035373, -0.0001365115, 0.0005187924, -0.1079985, 0.9941497, 0.04570375
 100220729, -0.00936424, 0.01243402, 8.427116E-06, 0.001089464, -0.00322134, 0.004234808, 0.0002056253, 0.0005187924, -0.1080065, 0.9941489, 0.04570375
 100420649, -0.009824585, 0.01301396, 4.853213E-05, 0.001089464, -0.002966, 0.003935199, 0.0003938053, 0.0005187924, -0.1080121, 0.9941483, 0.04570375
 100620569, -0.009462202, 0.01275965, 0.0005732246, 0.001089464, -0.002843988, 0.003733947, 6.387062E-05, 0.0005187924, -0.1080159, 0.9941478, 0.04570375
 100820489, -0.009507389, 0.01213623, 0.000298352, 0.001089464, -0.002973561, 0.003964469, 0.0001299338, 0.0005187924, -0.1080188, 0.9941475, 0.04570375
 101020409, -0.009575538, 0.01252601, 8.275534E-05, 0.001089464, -0.002938158, 0.003952547, -6.263134E-05, 0.0005187924, -0.1080215, 0.9941473, 0.04570375
 101220329, -0.009534598, 0.01249976, -0.000205139, 0.001089464, -0.003056641, 0.004054984, 3.441387E-05, 0.0005187924, -0.1080222, 0.9941472, 0.04570375
 101420249, -0.009804515, 0.0126344, -8.487166E-05, 0.001089464, -0.003000249, 0.004033676, -0.0002219266, 0.0005187924, -0.1080223, 0.9941472, 0.04570375
 101620169, -0.009736171, 0.0123937, -0.0003642437, 0.001089464, -0.002940063, 0.003884725, 0.0001073408, 0.0005187924, -0.1080204, 0.9941474, 0.04570375
 101820922, -0.009529469, 0.01227953, 5.943306E-05, 0.001091626, -0.003227251, 0.003881052, -0.0001071179, 0.000520954, -0.1080168, 0.9941478, 0.04579443
 102020842, -0.01011244, 0.01242328, 1.84722E-07, 0.001091626, -0.002946382, 0.003846346, -8.484306E-06, 0.0005187924, -0.1080137, 0.9941481, 0.04579443
 102220762, -0.009593584, 0.0124431, 1.515736E-05, 0.001089464, -0.002919831, 0.003752943, 0.0001197336, 0.0005187924, -0.1080106, 0.9941485, 0.04570375
 102420682, -0.009389835, 0.01221149, 0.0001779226, 0.001089464, -0.002868219, 0.004047683, 0.000109152, 0.0005187924, -0.1080064, 0.9941489, 0.04570375
 102620602, -0.009478001, 0.01256194, 0.0004533098, 0.001089464, -0.003025915, 0.003840804, -3.145867E-05, 0.0005187924, -0.1080013, 0.9941495, 0.04570375
 102820522, -0.009642893, 0.0121651, -7.28411E-05, 0.001089464, -0.002984904, 0.0038387, -0.0004499542, 0.0005187924, -0.1079968, 0.99415, 0.04570375
 103020442, -0.009728727, 0.01237653, -0.0005503359, 0.001089464, -0.002760795, 0.003700483, -6.911373E-05, 0.0005187924, -0.1079918, 0.9941505, 0.04570375
 103220362, -0.00947814, 0.01222214, 0.0002170743, 0.001089464, -0.002947287, 0.003729666, 2.583424E-05, 0.0005187924, -0.1079865, 0.9941511, 0.04570375
 103420282, -0.009793401, 0.01214837, 0.0001184276, 0.001089464, -0.003018029, 0.003700783, -0.0002762643, 0.0005187924, -0.1079813, 0.9941517, 0.04570375
 103620202, -0.009593317, 0.01213353, -0.0003860837, 0.001089464, -0.002813241, 0.003721054, -5.948547E-05, 0.0005187924, -0.1079759, 0.9941522, 0.04570375
 103820955, -0.009327081, 0.01229562, -0.0002801739, 0.001091626, -0.003110598, 0.004013652, -1.91453E-07, 0.000520954, -0.1079695, 0.9941529, 0.04579443
 104020875, -0.009788129, 0.01252317, 0.0001725643, 0.001091626, -0.003138959, 0.003929189, 0.0002770269, 0.0005187924, -0.1079636, 0.9941536, 0.04579443
 104220795, -0.009844567, 0.01241377, 0.0002261116, 0.001089464, -0.002824629, 0.003788659, 8.903755E-05, 0.0005187924, -0.1079582, 0.9941542, 0.04570375
 104420715, -0.009493414, 0.01257408, 9.424254E-05, 0.001089464, -0.003311394, 0.003600369, 0.0002776942, 0.0005187924, -0.1079538, 0.9941546, 0.04570375
 104620635, -0.009921739, 0.01186332, 0.0002749869, 0.001089464, -0.002917851, 0.004046895, -0.0001751199, 0.0005187924, -0.1079481, 0.9941552, 0.04570375
 104820555, -0.00964844, 0.01266794, -0.0003783714, 0.001089464, -0.003038441, 0.003758439, -0.0001796004, 0.0005187924, -0.107943, 0.9941558, 0.04570375
 105020475, -0.009833226, 0.01235346, -0.0002363118, 0.001089464, -0.003183721, 0.004011596, -0.0002288856, 0.0005187924, -0.1079536, 0.9941546, 0.04570375
 105220395, -0.009888591, 0.01272707, -0.0002511069, 0.001089464, -0.003206979, 0.003682241, 0.0002513833, 0.0005187924, -0.1079626, 0.9941537, 0.04570375
 105420315, -0.01013572, 0.01196381, 0.0002852919, 0.001089464, -0.00300092, 0.004040163, 6.501457E-05, 0.0005187924, -0.1079691, 0.9941529, 0.04570375
 105620235, -0.009594651, 0.01240678, -5.448068E-05, 0.001089464, -0.002824396, 0.004123187, -8.141121E-05, 0.0005187924, -0.1079734, 0.9941525, 0.04570375
 105820155, -0.009559246, 0.01247875, -0.0001310778, 0.001089464, -0.002985596, 0.003949134, 5.452835E-05, 0.0005187924, -0.1079773, 0.9941521, 0.04570375
 106020908, -0.009476135, 0.01216028, 0.0001003658, 0.001091626, -0.003384502, 0.004321093, -8.634529E-05, 0.000520954, -0.1079785, 0.9941519, 0.04579443
 106220828, -0.01000498, 0.01281299, -0.0002995493, 0.001091626, -0.00293526, 0.00375842, 0.0001552914, 0.0005187924, -0.1079805, 0.9941517, 0.04579443
 106420748, -0.009698881, 0.01224012, 0.0001075314, 0.001089464, -0.002855266, 0.004273105, -0.0003245962, 0.0005187924, -0.1079822, 0.9941515, 0.04570375
 106620668, -0.009616151, 0.01281076, -0.0001931753, 0.001089464, -0.003265057, 0.003751849, -0.000110582, 0.0005187924, -0.1079823, 0.9941515, 0.04570375
 106820588, -0.01003489, 0.01220376, 2.583424E-05, 0.001089464, -0.003014024, 0.003961667, 0.0001757872, 0.0005187924, -0.10798, 0.9941518, 0.04570375
 107020508, -0.009815026, 0.0123666, -0.0001722314, 0.001089464, -0.003030781, 0.003524394, 5.862751E-05, 0.0005187924, -0.1079786, 0.994152, 0.04570375
 107220428, -0.009651299, 0.01198458, -2.228798E-05, 0.001089464, -0.003077122, 0.004165797, -2.3451E-05, 0.0005187924, -0.1079756, 0.9941523, 0.04570375
 107420348, -0.00975447, 0.01260561, -3.679711E-05, 0.001089464, -0.003087862, 0.003717055, -0.0001347003, 0.0005187924, -0.1079738, 0.9941524, 0.04570375
 107620268, -0.009466954, 0.01217381, -0.0001998579, 0.001089464, -0.002784551, 0.003847321, 0.0001350816, 0.0005187924, -0.1079715, 0.9941528, 0.04570375
 107820188, -0.009282736, 0.01244448, 9.698801E-05, 0.001089464, -0.003013147, 0.003629947, -3.593914E-05, 0.0005187924, -0.1079683, 0.994153, 0.04570375
 108020941, -0.009531667, 0.01206464, 0.0001884962, 0.001091626, -0.003164067, 0.00392506, -1.91453E-07, 0.000520954, -0.1079644, 0.9941535, 0.04579443
 108220861, -0.009441894, 0.01230475, -2.717917E-05, 0.001091626, -0.0029929, 0.003592167, -1.468071E-05, 0.0005187924, -0.1079604, 0.994154, 0.04579443
 108420781, -0.009728839, 0.01210305, -2.030514E-05, 0.001089464, -0.00307664, 0.004357369, 0.000290659, 0.0005187924, -0.1079575, 0.9941542, 0.04570375
 108620701, -0.009748715, 0.0127763, 0.0002675035, 0.001089464, -0.002963055, 0.003797913, 0.0001208775, 0.0005187924, -0.1079535, 0.9941547, 0.04570375
 108820621, -0.009625255, 0.01225988, 0.0003192197, 0.001089464, -0.003127476, 0.003874648, -3.908501E-05, 0.0005187924, -0.1079488, 0.9941552, 0.04570375
 109020541, -0.009892456, 0.0123189, -0.0001877606, 0.001089464, -0.003022139, 0.004036694, 3.593914E-05, 0.0005187924, -0.1079437, 0.9941558, 0.04570375
 109220461, -0.009719549, 0.01247952, 0.000228857, 0.001089464, -0.003031778, 0.003917831, -0.0002785522, 0.0005187924, -0.10794, 0.9941562, 0.04570375
 109420381, -0.01001598, 0.01241082, -0.000384463, 0.001089464, -0.003050391, 0.003825497, 1.296478E-05, 0.0005187924, -0.1079361, 0.9941565, 0.04570375
 109620301, -0.009863898, 0.01211019, 4.430906E-05, 0.001089464, -0.00294627, 0.003983009, 0.0001514782, 0.0005187924, -0.1079316, 0.9941571, 0.04570375
 109820221, -0.009524548, 0.01257959, 7.238353E-05, 0.001089464, -0.003047587, 0.004015306, -7.91233E-05, 0.0005187924, -0.1079274, 0.9941574, 0.04570375
 110020974, -0.00962748, 0.01253596, -0.0001540688, 0.001091626, -0.003222261, 0.003864078, 0.0001161111, 0.0005187924, -0.1079245, 0.9941577, 0.04579443
 110220894, -0.00984294, 0.0124185, 0.0002539513, 0.001091626, -0.002634362, 0.003911209, 6.490256E-05, 0.000520954, -0.1079362, 0.9941565, 0.04579443
 110420814, -0.009385307, 0.01255675, -9.742415E-05, 0.001091626, -0.003264288, 0.004164977, -0.0001821743, 0.0005187924, -0.1079473, 0.9941553, 0.04579443
 110620734, -0.01001805, 0.01276367, -5.806506E-05, 0.001089464, -0.002857815, 0.003855398, 0.0003455687, 0.0005187924, -0.1079577, 0.9941541, 0.04570375
 110820654, -0.00955214, 0.0125063, 0.0002575511, 0.001089464, -0.003284373, 0.003878978, -6.310799E-05, 0.0005187924, -0.1079655, 0.9941533, 0.04570375
 111020574, -0.009802442, 0.0126071, -5.566278E-05, 0.001089464, -0.003252393, 0.003906853, -8.045792E-05, 0.0005187924, -0.1079698, 0.9941529, 0.04570375
 111220494, -0.01017724, 0.01230186, -0.0001466355, 0.001089464, -0.002666532, 0.004205898, 0.0001922792, 0.0005187924, -0.1079742, 0.9941524, 0.04570375
 111420414, -0.009344036, 0.01286018, 0.0004679524, 0.001089464, -0.003238333, 0.003831493, 9.523395E-05, 0.0005187924, -0.1079764, 0.9941522, 0.04570375
 111620334, -0.00999313, 0.01229061, 7.503368E-05, 0.001089464, -0.003298427, 0.004149608, 2.50716E-05, 0.0005187924, -0.1079775, 0.9941521, 0.04570375
 111820254, -0.01015359, 0.01256497, 6.981917E-05, 0.001089464, -0.002952455, 0.003556482, -0.0003505258, 0.0005187924, -0.1079779, 0.994152, 0.04570375
 112020174, -0.009530941, 0.01205932, -0.0008261332, 0.001089464, -0.00301526, 0.003777226, 0.0001075314, 0.0005187924, -0.1079777, 0.9941521, 0.04570375
 112220927, -0.009794377, 0.0122796, 0.000198182, 0.001091626, -0.002908621, 0.003941889, -7.179487E-05, 0.000520954, -0.1079756, 0.9941524, 0.04579443
 112420847, -0.009429464, 0.01219469, -0.000104693, 0.001091626, -0.002962747, 0.0035386, 0.0001613925, 0.0005187924, -0.1079739, 0.9941524, 0.04579443
 112620767, -0.009536443, 0.01186501, 0.0002247483, 0.001089464, -0.003192433, 0.003768112, 0.0003277421, 0.0005187924, -0.1079717, 0.9941527, 0.04570375
 112820687, -0.009773618, 0.01215207, 0.0004123468, 0.001089464, -0.002865492, 0.003941404, 0.0001395621, 0.0005187924, -0.1079687, 0.9941531, 0.04570375
 113020607, -0.009451236, 0.01233765, 0.0003754544, 0.001089464, -0.002553581, 0.003607108, -5.243111E-06, 0.0005187924, -0.1079646, 0.9941535, 0.04570375
 113220527, -0.009157198, 0.01222992, 1.639664E-05, 0.001089464, -0.003185782, 0.003798744, -0.0002963787, 0.0005187924, -0.1079601, 0.9941539, 0.04570375
 113420447, -0.009881337, 0.01225908, -0.0003966556, 0.001089464, -0.003190113, 0.003814284, 0.0002642528, 0.0005187924, -0.1079553, 0.9941545, 0.04570375
 113620367, -0.009799531, 0.012235, 0.0003820989, 0.001089464, -0.002990932, 0.003944711, -3.527183E-05, 0.0005187924, -0.1079507, 0.994155, 0.04570375
 113820287, -0.009604696, 0.01240742, 1.391807E-05, 0.001089464, -0.003256935, 0.003622714, 0.0001624411, 0.0005187924, -0.1079465, 0.9941554, 0.04570375
 114020207, -0.009777807, 0.01195925, 0.0004362364, 0.001089464, -0.003014449, 0.003782426, -5.719757E-05, 0.0005187924, -0.1079426, 0.9941559, 0.04570375
 114220960, -0.009607635, 0.01220305, -0.000137474, 0.001091626, -0.003213969, 0.003780964, 8.136752E-06, 0.000520954, -0.1079386, 0.9941562, 0.04579443
 114420880, -0.009984231, 0.01232449, -0.0001163538, 0.001091626, -0.002918424, 0.003937108, -0.0001126792, 0.0005187924, -0.1079352, 0.9941567, 0.04579443
 114620800, -0.009583438, 0.01234193, -0.0001197622, 0.001089464, -0.003234131, 0.003754325, -0.0001065781, 0.0005187924, -0.1079315, 0.994157, 0.04570375
 114820720, -0.009847131, 0.01224226, -1.085801E-05, 0.001089464, -0.003183365, 0.003872972, -2.097244E-06, 0.0005187924, -0.1079296, 0.9941573, 0.04570375
 115020640, -0.009989219, 0.01248451, -0.000172117, 0.001089464, -0.003016546, 0.00401246, -0.0003949492, 0.0005187924, -0.1079271, 0.9941576, 0.04570375
 115220560, -0.009663706, 0.01245854, -0.0005318515, 0.001089464, -0.002590576, 0.004058413, 6.043877E-05, 0.0005187924, -0.1079244, 0.9941578, 0.04570375
 115420480, -0.009079812, 0.01267373, -0.0001821171, 0.001089464, -0.003051416, 0.003924678, 6.396595E-05, 0.0005187924, -0.1079381, 0.9941563, 0.04570375
 115620400, -0.009766331, 0.01260528, 9.694977E-06, 0.001089464, -0.003075131, 0.003580168, -8.446175E-05, 0.0005187924, -0.1079489, 0.9941552, 0.04570375
 115820320, -0.009900246, 0.01220794, -6.317472E-05, 0.001089464, -0.003064824, 0.003517574, -0.0003263121, 0.0005187924, -0.1079581, 0.9941542, 0.04570375
 116020240, -0.009742988, 0.01194909, -0.0005029287, 0.001089464, -0.003057009, 0.003911498, -0.0001504296, 0.0005187924, -0.1079655, 0.9941533, 0.04570375
 116220160, -0.009559897, 0.01233549, -0.0001651866, 0.001089464, -0.003057077, 0.003965654, -0.0001330797, 0.0005187924, -0.1079713, 0.9941527, 0.04570375
 116420913, -0.009457512, 0.01245751, -0.0002299187, 0.001091626, -0.00276001, 0.004090155, -8.653674E-05, 0.000520954, -0.1079759, 0.9941523, 0.04579443
 116620833, -0.009243319, 0.0124967, -0.0001886916, 0.001091626, -0.003168133, 0.003537974, -0.0001768358, 0.0005187924, -0.1079793, 0.9941519, 0.04579443
 116820753, -0.009741927, 0.01176798, -0.0001601627, 0.001089464, -0.003113108, 0.004148165, 2.535759E-05, 0.0005187924, -0.1079827, 0.9941516, 0.04570375
 117020673, -0.009751596, 0.01283394, 0.0001190758, 0.001089464, -0.002946294, 0.003757276, 0.0001068641, 0.0005187924, -0.1079834, 0.9941515, 0.04570375
 117220593, -0.009868067, 0.01228376, -8.022912E-05, 0.001089464, -0.003107879, 0.003973436, 0.0002028607, 0.0005187924, -0.107983, 0.9941515, 0.04570375
 117420513, -0.009581165, 0.01227826, 0.0002648152, 0.001089464, -0.003206213, 0.00378209, 0.0001244047, 0.0005187924, -0.1079824, 0.9941516, 0.04570375
 117620433, -0.009891461, 0.01215801, 4.111552E-05, 0.001089464, -0.003038191, 0.003787678, -0.0004349875, 0.0005187924, -0.1079818, 0.9941516, 0.04570375
 117820353, -0.009740243, 0.01225163, -0.0003773705, 0.001089464, -0.002914412, 0.003769939, 9.370869E-05, 0.0005187924, -0.1079797, 0.9941519, 0.04570375
 118020273, -0.009408618, 0.01220926, -6.177337E-05, 0.001089464, -0.002965604, 0.003624502, 1.058155E-05, 0.0005187924, -0.107977, 0.9941521, 0.04570375
 118220193, -0.009546321, 0.01184545, -0.0001623362, 0.001089464, -0.002850455, 0.003692113, 0.000305149, 0.0005187924, -0.1079743, 0.9941524, 0.04570375
 118420946, -0.00953434, 0.01221625, 0.0001773665, 0.001091626, -0.00298549, 0.003806322, 0.0001532581, 0.000520954, -0.1079713, 0.9941528, 0.04579443
 118620866, -0.009564068, 0.01222487, 1.18887E-06, 0.001091626, -0.003011545, 0.00397621, 2.66922E-06, 0.0005187924, -0.1079684, 0.9941531, 0.04579443
 118820786, -0.009614778, 0.01241386, -0.0001629654, 0.001089464, -0.003244964, 0.003813213, -7.569145E-05, 0.0005187924, -0.1079656, 0.9941534, 0.04570375
 119020706, -0.009882543, 0.0121837, -0.000128113, 0.001089464, -0.002728385, 0.003869469, -1.763592E-05, 0.0005187924, -0.1079633, 0.9941536, 0.04570375
 119220626, -0.009308429, 0.01244244, -0.0001434896, 0.001089464, -0.003027422, 0.003980633, -0.0002523366, 0.0005187924, -0.1079591, 0.994154, 0.04570375
 119420546, -0.009631248, 0.01252703, -0.0003396296, 0.001089464, -0.003082056, 0.00389657, -5.061985E-05, 0.0005187924, -0.1079551, 0.9941545, 0.04570375
 119620466, -0.009728931, 0.01253675, -8.224056E-05, 0.001089464, -0.003081847, 0.004140484, 0.0003594867, 0.0005187924, -0.1079518, 0.9941549, 0.04570375
 119820386, -0.009805742, 0.01277584, 0.0004216223, 0.001089464, -0.00288559, 0.003822626, 0.000126502, 0.0005187924, -0.1079488, 0.9941552, 0.04570375
 120020306, -0.009638191, 0.01244197, 0.0001233656, 0.001089464, -0.00303094, 0.004090675, -0.0003043864, 0.0005187924, -0.1079456, 0.9941555, 0.04570375
 120220226, -0.009671398, 0.01264931, -0.0001213828, 0.001089464, -0.003258165, 0.004383031, 0.0002956161, 0.0005187924, -0.1079429, 0.9941557, 0.04570375
 120420146, -0.01018149, 0.01293509, 0.0003534524, 0.001089464, -0.003088926, 0.00374671, 0.0001964737, 0.0005187924, -0.1079401, 0.9941561, 0.04570375
 120620899, -0.009602288, 0.01228654, 0.0002371094, 0.001091626, -0.002817734, 0.003900099, 0.0001104684, 0.000520954, -0.1079525, 0.9941548, 0.04579443
 120820819, -0.009428603, 0.01253898, 0.0001787527, 0.001091626, -0.002879458, 0.003771522, -0.0002452823, 0.0005187924, -0.107963, 0.9941536, 0.04579443
 121020739, -0.00931182, 0.0123193, -0.000215978, 0.001089464, -0.00278596, 0.003886729, 0.0001683515, 0.0005187924, -0.1079722, 0.9941526, 0.04570375
 121220659, -0.00917693, 0.01230551, 4.005736E-05, 0.001089464, -0.002984263, 0.003987366, -0.0002178274, 0.0005187924, -0.1079807, 0.9941517, 0.04570375
 121420579, -0.009463192, 0.01242977, -2.630135E-05, 0.001089464, -0.003186254, 0.003862027, 7.979061E-05, 0.0005187924, -0.1079865, 0.9941511, 0.04570375
 121620499, -0.009934071, 0.01233355, 0.0002976752, 0.001089464, -0.002998749, 0.003611002, -3.527183E-06, 0.0005187924, -0.1079912, 0.9941506, 0.04570375
 121820419, -0.009515075, 0.0119973, -4.198301E-05, 0.001089464, -0.003092514, 0.003918298, 0.0002106777, 0.0005187924, -0.1079952, 0.9941501, 0.04570375
 122020339, -0.009691312, 0.01236892, 0.0002239571, 0.001089464, -0.003109108, 0.003726381, 9.637791E-05, 0.0005187924, -0.1079987, 0.9941498, 0.04570375
 122220259, -0.009769191, 0.01227962, -9.735027E-05, 0.001089464, -0.003003059, 0.003687365, -0.0003795059, 0.0005187924, -0.1080007, 0.9941495, 0.04570375
 122420179, -0.009418591, 0.01220234, -0.0005047971, 0.001089464, -0.003081176, 0.003630185, 8.055325E-05, 0.0005187924, -0.1080023, 0.9941493, 0.04570375
 122620932, -0.009546508, 0.01225059, 4.553443E-05, 0.001091626, -0.002954552, 0.003809869, -0.0001915487, 0.000520954, -0.1080033, 0.9941493, 0.04579443
 122820852, -0.009484909, 0.01239777, -0.0003858203, 0.001091626, -0.003087905, 0.004192958, 0.000291517, 0.0005187924, -0.1080041, 0.9941492, 0.04579443
 123020772, -0.009993264, 0.01268939, 0.0003108307, 0.001089464, -0.00296099, 0.003665372, -3.365124E-05, 0.0005187924, -0.1080036, 0.9941492, 0.04570375
 123220692, -0.009393857, 0.01201864, -5.591063E-05, 0.001089464, -0.003052039, 0.003822894, 7.378487E-05, 0.0005187924, -0.1080017, 0.9941494, 0.04570375
 123420612, -0.009853058, 0.01232046, -5.666372E-05, 0.001089464, -0.003101984, 0.003756392, -2.755016E-05, 0.0005187924, -0.1079984, 0.9941499, 0.04570375
 123620532, -0.009968975, 0.01223291, -6.311752E-05, 0.001089464, -0.003151624, 0.003777983, -0.0001298385, 0.0005187924, -0.1079961, 0.99415, 0.04570375
 123820452, -0.009929194, 0.01200523, -5.375617E-05, 0.001089464, -0.002689399, 0.003775064, -1.868454E-05, 0.0005187924, -0.1079936, 0.9941503, 0.04570375
 124020372, -0.009252917, 0.01215765, -0.0001934327, 0.001089464, -0.002971468, 0.004146744, 0.0001299338, 0.0005187924, -0.1079909, 0.9941506, 0.04570375
 124220292, -0.009676157, 0.01259016, 0.0001641284, 0.001089464, -0.003150441, 0.004037789, 7.721672E-06, 0.0005187924, -0.1079873, 0.994151, 0.04570375
 124420212, -0.009816292, 0.01246126, -7.548173E-05, 0.001089464, -0.002994067, 0.003321848, -0.0002128703, 0.0005187924, -0.1079849, 0.9941513, 0.04570375
 124620965, -0.009674966, 0.0117455, -0.0001680143, 0.001091626, -0.00307777, 0.00373092, -6.79658E-05, 0.000520954, -0.1079823, 0.9941515, 0.04579443
 124820885, -0.009947157, 0.0120795, -0.0002400447, 0.001091626, -0.003111789, 0.003825405, -6.825577E-05, 0.0005187924, -0.1079777, 0.994152, 0.04579443
 125020805, -0.009754373, 0.01231606, -7.276484E-05, 0.001089464, -0.002966424, 0.003704666, -0.0001361302, 0.0005187924, -0.1079735, 0.9941524, 0.04570375
 125220725, -0.00967172, 0.01245619, -7.820813E-05, 0.001089464, -0.002848196, 0.003966784, 3.050537E-05, 0.0005187924, -0.1079714, 0.9941526, 0.04570375
 125420645, -0.00965738, 0.01242562, 9.414721E-05, 0.001089464, -0.003201463, 0.003964892, -9.237407E-05, 0.0005187924, -0.1079682, 0.9941529, 0.04570375
 125620565, -0.009994921, 0.0125488, -0.000113928, 0.001089464, -0.003215837, 0.003921244, 7.121098E-05, 0.0005187924, -0.1079786, 0.9941518, 0.04570375
 125820485, -0.01009719, 0.01239062, 2.041E-05, 0.001089464, -0.003317167, 0.004201552, 0.0002721651, 0.0005187924, -0.1079896, 0.9941506, 0.04570375
 126020405, -0.01020114, 0.01272596, 0.0003029946, 0.001089464, -0.002839885, 0.004117747, -0.0002261211, 0.0005187924, -0.1079986, 0.9941497, 0.04570375
 126220325, -0.009626655, 0.01250738, -4.289818E-05, 0.001089464, -0.00321724, 0.004004673, 0.0001483324, 0.0005187924, -0.1080051, 0.994149, 0.04570375
 126420245, -0.01003293, 0.01251855, -7.60251E-05, 0.001089464, -0.003201334, 0.003741967, -0.0001116306, 0.0005187924, -0.1080102, 0.9941484, 0.04570375
 126620165, -0.009946864, 0.01222497, -0.0001576079, 0.001089464, -0.003122069, 0.00375519, 6.129673E-05, 0.0005187924, -0.1080146, 0.994148, 0.04570375
 126820918, -0.009898288, 0.01220967, 0.0001349529, 0.001091626, -0.003083139, 0.00390326, -7.859145E-05, 0.000520954, -0.1080187, 0.9941476, 0.04579443
 127020838, -0.009699613, 0.01240406, 4.330611E-05, 0.001091626, -0.003213509, 0.003880949, 8.293648E-05, 0.0005187924, -0.1080203, 0.9941474, 0.04579443
 127220758, -0.009566976, 0.01238048, -6.501457E-05, 0.001089464, -0.002885205, 0.003829126, -9.809383E-05, 0.0005187924, -0.1080218, 0.9941472, 0.04570375
 127420678, -0.009513618, 0.01215693, -7.359422E-05, 0.001089464, -0.002857727, 0.003781641, -5.481434E-05, 0.0005187924, -0.10802, 0.9941474, 0.04570375
 127620598, -0.009591802, 0.0121886, -0.0001049194, 0.001089464, -0.003154635, 0.004038504, 0.0001489043, 0.0005187924, -0.108019, 0.9941475, 0.04570375
 127820518, -0.009927786, 0.01252233, 0.0001796195, 0.001089464, -0.003147408, 0.003474886, -9.266006E-05, 0.0005187924, -0.1080168, 0.9941478, 0.04570375
 128020438, -0.0100034, 0.01170347, -0.0001179032, 0.001089464, -0.003145689, 0.003675437, 0.0001382275, 0.0005187924, -0.1080158, 0.9941479, 0.04570375
 128220358, -0.009660699, 0.01208188, 0.0001221263, 0.001089464, -0.002814326, 0.003852471, 9.685455E-05, 0.0005187924, -0.1080145, 0.9941481, 0.04570375
 128420278, -0.009348204, 0.01227272, 8.513858E-05, 0.001089464, -0.002676532, 0.003704267, -0.0001352722, 0.0005187924, -0.1080117, 0.9941483, 0.04570375
 128620198, -0.009343895, 0.01196384, -0.000224367, 0.001089464, -0.002988931, 0.003781273, 7.817001E-05, 0.0005187924, -0.108009, 0.9941486, 0.04570375
 128820951, -0.009869713, 0.01245087, -4.187935E-05, 0.001091626, -0.003006318, 0.003592712, -0.0004654222, 0.000520954, -0.1080072, 0.9941489, 0.04579443
 129020871, -0.009677857, 0.01174805, -0.0007502088, 0.001091626, -0.003204217, 0.004170657, -7.731205E-05, 0.0005187924, -0.108004, 0.9941491, 0.04579443
 129220791, -0.00987672, 0.01269513, -9.927592E-05, 0.001089464, -0.003187851, 0.003810808, 0.0001219262, 0.0005187924, -0.1080009, 0.9941494, 0.04570375
 129420711, -0.00991925, 0.0120277, 0.0001806109, 0.001089464, -0.003006887, 0.003782831, -0.0001673982, 0.0005187924, -0.1079973, 0.9941498, 0.04570375
 129620631, -0.009880969, 0.01226653, -0.0001719359, 0.001089464, -0.003209206, 0.003829693, -0.0002628228, 0.0005187924, -0.1079928, 0.9941503, 0.04570375
 129820551, -0.009782143, 0.01209218, -0.0002267598, 0.001089464, -0.003152349, 0.003833067, -0.0002833186, 0.0005187924, -0.1079871, 0.9941509, 0.04570375
 130020471, -0.0100248, 0.0124595, -0.000313071, 0.001089464, -0.003084603, 0.003911548, 0.0001459491, 0.0005187924, -0.1079837, 0.9941514, 0.04570375
 130220391, -0.009826999, 0.01247825, 0.000140277, 0.001089464, -0.003276774, 0.003811273, -1.65873E-05, 0.0005187924, -0.1079799, 0.9941517, 0.04570375
 130420311, -0.01011666, 0.01227265, -0.0001086563, 0.001089464, -0.002944953, 0.003912267, 7.807469E-05, 0.0005187924, -0.1079773, 0.994152, 0.04570375
 130620231, -0.009571999, 0.01220878, -0.0002046624, 0.001089464, -0.00271345, 0.004036564, -9.132546E-05, 0.0005187924, -0.1079743, 0.9941522, 0.04570375
 130820151, -0.009386574, 0.0127191, -0.0003082759, 0.001089464, -0.003213873, 0.003794554, 7.531013E-05, 0.0005187924, -0.1079863, 0.9941511, 0.04570375
 131020904, -0.01006687, 0.01236239, 9.103231E-05, 0.001091626, -0.002586999, 0.003882003, 0.0001707761, 0.000520954, -0.1079966, 0.9941499, 0.04579443
 131220824, -0.009234304, 0.01244218, 0.0001309761, 0.001091626, -0.002959106, 0.003824334, -0.0002500487, 0.0005187924, -0.1080049, 0.994149, 0.04579443
 131420744, -0.00985891, 0.01238176, -0.000479125, 0.001089464, -0.002557348, 0.00346205, 0.0001508109, 0.0005187924, -0.1080127, 0.9941482, 0.04570375
 131620664, -0.00915775, 0.01191031, 8.940932E-05, 0.001089464, -0.003466873, 0.003780219, -0.0001364162, 0.0005187924, -0.1080178, 0.9941476, 0.04570375
 131820584, -0.0102979, 0.01212462, -5.249783E-05, 0.001089464, -0.003071159, 0.003737513, 0.0002392765, 0.0005187924, -0.1080208, 0.9941474, 0.04570375
 132020504, -0.009687903, 0.01214047, 0.0002756732, 0.001089464, -0.003038455, 0.003853769, -8.85609E-05, 0.0005187924, -0.1080231, 0.9941471, 0.04570375
 132220424, -0.00969898, 0.01224554, 9.390888E-05, 0.001089464, -0.002999803, 0.003744766, -0.0002165881, 0.0005187924, -0.1080249, 0.9941469, 0.04570375
 132420344, -0.009472063, 0.01201904, -0.0003684381, 0.001089464, -0.002974157, 0.003599261, 5.023853E-05, 0.0005187924, -0.1080246, 0.9941469, 0.04570375
 132620264, -0.009611642, 0.01215394, 0.0001169309, 0.001089464, -0.002844498, 0.003661598, 1.982849E-05, 0.0005187924, -0.1080242, 0.994147, 0.04570375
 132820184, -0.009570789, 0.01204958, 1.149672E-05, 0.001089464, -0.002950046, 0.003600545, -0.000337847, 0.0005187924, -0.1080234, 0.9941471, 0.04570375
 133020937, -0.009904691, 0.01204313, -0.0005110789, 0.001091626, -0.003148903, 0.003733957, 0.0003209709, 0.000520954, -0.1080232, 0.9941471, 0.04579443
 133220857, -0.01004531, 0.01190452, 0.0002814188, 0.001091626, -0.003188055, 0.00379003, -2.583424E-05, 0.0005187924, -0.1080225, 0.9941472, 0.04579443
 133420777, -0.009750875, 0.01233529, -7.389927E-05, 0.001089464, -0.003103625, 0.003910161, 0.0001034323, 0.0005187924, -0.1080206, 0.9941473, 0.04570375
 133620697, -0.009916104, 0.01212001, 0.000348438, 0.001089464, -0.002869861, 0.004125096, 0.0001828416, 0.0005187924, -0.1080189, 0.9941475, 0.04570375
 133820617, -0.009516367, 0.01263478, 0.0002562546, 0.001089464, -0.002852274, 0.003962914, -0.0002885617, 0.0005187924, -0.108016, 0.9941478, 0.04570375
 134020537, -0.009395845, 0.01278011, -0.0004236052, 0.001089464, -0.002872901, 0.003730563, 9.761719E-05, 0.0005187924, -0.108014, 0.9941481, 0.04570375
 134220457, -0.009469632, 0.01209866, 7.234538E-05, 0.001089464, -0.003155313, 0.003639526, -0.0001437566, 0.0005187924, -0.1080117, 0.9941483, 0.04570375
 134420377, -0.009899262, 0.01203725, 4.314602E-05, 0.001089464, -0.003157264, 0.004047215, 0.0001745479, 0.0005187924, -0.1080095, 0.9941486, 0.04570375
 134620297, -0.009876249, 0.01259246, 4.747397E-05, 0.001089464, -0.003171813, 0.003632369, 8.350845E-05, 0.0005187924, -0.1080063, 0.9941489, 0.04570375
 134820217, -0.009850094, 0.01203705, -0.0002016501, 0.001089464, -0.003090336, 0.003520191, 8.160187E-05, 0.0005187924, -0.108002, 0.9941494, 0.04570375
 135020970, -0.009880195, 0.01214239, 6.597184E-05, 0.001091626, -0.003142668, 0.003994074, -6.806511E-05, 0.0005187924, -0.1079996, 0.9941496, 0.04579443
 135220890, -0.009990739, 0.01240811, 0.0001312112, 0.001091626, -0.002935157, 0.003923147, -5.734017E-05, 0.000520954, -0.1079972, 0.9941499, 0.04579443
 135420810, -0.009846197, 0.01263744, -0.0001291231, 0.001091626, -0.003183952, 0.004179172, -0.0003895155, 0.0005187924, -0.1079937, 0.9941503, 0.04579443
 135620730, -0.009646417, 0.01296079, -0.0007088495, 0.001089464, -0.002930488, 0.003607044, 0.0002003822, 0.0005187924, -0.1079924, 0.9941504, 0.04570375
 135820650, -0.009741855, 0.01203492, -4.223075E-06, 0.001089464, -0.003016058, 0.003920272, -9.866581E-05, 0.0005187924, -0.1080037, 0.9941492, 0.04570375
 136020570, -0.009783172, 0.01250255, -0.0001700007, 0.001089464, -0.00281144, 0.003688672, 4.194488E-05, 0.0005187924, -0.1080127, 0.9941482, 0.04570375
 136220490, -0.009334581, 0.01210452, 9.841796E-05, 0.001089464, -0.003172586, 0.003980952, -9.923778E-05, 0.0005187924, -0.1080199, 0.9941475, 0.04570375
 136420410, -0.00977891, 0.01238709, -0.0003130709, 0.001089464, -0.003239394, 0.003703157, -0.000251574, 0.0005187924, -0.1080272, 0.9941467, 0.04570375
 136620330, -0.01000513, 0.01220221, -0.000388829, 0.001089464, -0.003098349, 0.003850796, 0.0003656831, 0.0005187924, -0.1080336, 0.9941459, 0.04570375
 136820250, -0.009632027, 0.01229568, 0.0005588965, 0.001089464, -0.003044645, 0.003453088, -0.0001185896, 0.0005187924, -0.1080383, 0.9941455, 0.04570375
 137020170, -0.009622801, 0.01212561, -0.0003451683, 0.001089464, -0.00316218, 0.003742652, -1.620598E-05, 0.0005187924, -0.1080421, 0.994145, 0.04570375
 137220923, -0.009844613, 0.01218476, -0.0002630655, 0.001091626, -0.002805583, 0.003765337, -5.102222E-05, 0.000520954, -0.108045, 0.9941448, 0.04579443
 137420843, -0.009253398, 0.01231308, -0.0001878483, 0.001091626, -0.003021757, 0.003971566, 5.681625E-05, 0.0005187924, -0.1080462, 0.9941447, 0.04579443
 137620763, -0.009468131, 0.01241637, 1.705441E-05, 0.001089464, -0.002976547, 0.004059592, 0.0002390858, 0.0005187924, -0.1080472, 0.9941446, 0.04570375
 137820683, -0.009456763, 0.01270525, 0.0002278942, 0.001089464, -0.003065353, 0.003913148, -8.141121E-05, 0.0005187924, -0.1080467, 0.9941446, 0.04570375
 138020603, -0.009814517, 0.01249389, -0.0001359396, 0.001089464, -0.002785637, 0.003719042, 0.0003695916, 0.0005187924, -0.1080455, 0.9941447, 0.04570375
 138220523, -0.009477476, 0.01204466, 0.0004702594, 0.001089464, -0.002916001, 0.003981814, 8.932354E-05, 0.0005187924, -0.1080435, 0.994145, 0.04570375
 138420443, -0.009498113, 0.01241654, 0.0001008012, 0.001089464, -0.002982366, 0.003502147, 9.418534E-05, 0.0005187924, -0.108041, 0.9941452, 0.04570375
 138620363, -0.009582138, 0.01168983, 5.24597E-05, 0.001089464, -0.003256147, 0.003584666, -0.0001147765, 0.0005187924, -0.108038, 0.9941455, 0.04570375
 138820283, -0.009788902, 0.01191991, -0.0003311739, 0.001089464, -0.002965395, 0.003704411, 8.617767E-05, 0.0005187924, -0.1080342, 0.9941459, 0.04570375
 139020203, -0.00932785, 0.0120496, 0.0004219465, 0.001089464, -0.00284433, 0.003569135, -0.0001339376, 0.0005187924, -0.1080309, 0.9941463, 0.04570375
 139220956, -0.009511649, 0.01190832, -0.0004036183, 0.001091626, -0.002917773, 0.004210219, 4.815042E-05, 0.000520954, -0.1080269, 0.9941466, 0.04579443
 139420876, -0.009556754, 0.01285879, 0.000199867, 0.001091626, -0.00287205, 0.003592418, 0.0001008584, 0.0005187924, -0.1080236, 0.994147, 0.04579443
 139620796, -0.00952062, 0.01205543, 9.542418E-09, 0.001089464, -0.003073535, 0.003785781, 0.0001552914, 0.0005187924, -0.1080208, 0.9941473, 0.04570375
 139820716, -0.01000141, 0.01200215, 0.0004148731, 0.001089464, -0.002877401, 0.004000464, 0.0002175414, 0.0005187924, -0.1080184, 0.9941475, 0.04570375
 140020636, -0.009650148, 0.01262288, 0.0001412589, 0.001089464, -0.003088447, 0.003635957, 0.0002856065, 0.0005187924, -0.1080154, 0.9941478, 0.04570375
 140220556, -0.009831744, 0.01215671, 0.0003513265, 0.001089464, -0.002998621, 0.003979446, 0.0002066739, 0.0005187924, -0.1080111, 0.9941483, 0.04570375
 140420476, -0.00957299, 0.01279999, 0.0001988092, 0.001089464, -0.003085004, 0.004326835, -0.0004029569, 0.0005187924, -0.1080079, 0.9941487, 0.04570375
 140620396, 0.003973189, 0.0114449, -0.0004244632, 0.001089464, 0.02264952, 0.0009317094, -0.0003341291, 0.0005187924, -0.108005, 0.9941489, 0.04570375
 140820316, 0.2831369, -0.01955922, 0.0003151015, 0.001089464, 0.2094672, -0.01845835, 0.001125743, 0.0005187924, -0.1079957, 0.9941499, 0.04570375
 141020236, 0.9585935, -0.09174788, 0.01337823, 0.001089464, 0.445177, -0.0501175, 0.007791358, 0.0005187924, -0.1079761, 0.9941518, 0.04570375
 141220156, 1.713812, -0.1817877, 0.03312403, 0.001089464, 0.6816326, -0.06931539, 0.0142461, 0.0005187924, -0.1079454, 0.9941534, 0.04570375
 141420909, 2.450075, -0.2515717, 0.05146343, 0.001091626, 0.8979349, -0.09703776, 0.01903081, 0.000520954, -0.1079104, 0.9941559, 0.04579443
 141620829, 3.096446, -0.3272336, 0.067021, 0.001091626, 1.058405, -0.1201351, 0.02405682, 0.0005187924, -0.107868, 0.994159, 0.04579443
 141820749, 3.38064, -0.3669256, 0.07986168, 0.001089464, 1.038219, -0.1105684, 0.02608009, 0.0005187924, -0.1078468, 0.9941588, 0.04570375
 142020669, 3.208948, -0.3356721, 0.08173005, 0.001089464, 0.9308282, -0.1120023, 0.02429553, 0.0005187924, -0.1078252, 0.9941582, 0.04570375
 142220589, 2.857045, -0.312287, 0.05113968, 0.001089464, 0.8265092, -0.08839136, -0.02772576, 0.0005187924, -0.1078185, 0.9941578, 0.04570375
 142420509, 2.513885, -0.2645243, -0.1071104, 0.001089464, 0.7135434, -0.07428843, 0.0004979048, 0.0005187924, -0.1077995, 0.9941592, 0.04570375
 142620429, 2.259432, -0.2340994, 0.02396438, 0.001089464, 0.9445923, -0.09547547, -0.01062397, 0.0005187924, -0.1078698, 0.9941373, 0.04570375
 142820349, 3.023755, -0.3313396, -1.522687, 0.001089464, 0.8533446, -0.1195202, -1.005073, 0.0005187924, -0.1121661, 0.9913942, 0.04570375
 143020269, 2.505154, -0.3211243, -2.795594, 0.001089464, 0.6928331, -0.08292132, -0.5781593, 0.0005187924, -0.1087984, 0.9870515, 0.04570375
 143220189, 2.177418, -0.2558486, -1.214298, 0.001089464, 0.6802968, -0.08908588, -0.07896582, 0.0005187924, -0.1118666, 0.986946, 0.04570375
 143420942, 2.157603, -0.2714266, 0.03570794, 0.001091626, 0.6448094, -0.07340641, 0.09040955, 0.000520954, -0.1112938, 0.9893606, 0.04579443
 143620862, 1.957171, -0.201733, 0.07488542, 0.001091626, 0.5415861, -0.06176277, -0.1236273, 0.0005187924, -0.1118934, 0.9895263, 0.04579443
 143820782, 1.618268, -0.1933278, -0.5840689, 0.001089464, 0.4592332, -0.05174613, -0.2747612, 0.0005187924, -0.1134547, 0.9879947, 0.04570375
 144020702, 1.322672, -0.174138, -0.9520034, 0.001089464, 0.3578839, -0.05374262, -0.2938741, 0.0005187924, -0.1138541, 0.9859944, 0.04570375
 144220622, 1.106508, -0.1600578, -0.7597453, 0.001089464, 0.3085163, -0.04301827, -0.1346031, 0.0005187924, -0.1147458, 0.9851183, 0.04570375
 144420542, 0.9741917, -0.1289895, -0.3477374, 0.001089464, 0.2728636, -0.03219134, -0.1088761, 0.0005187924, -0.1135805, 0.9850937, 0.04570375
 144620462, 0.8605918, -0.07593532, -0.2630596, 0.001089464, 0.2343095, -0.02177875, -0.09050229, 0.0005187924, -0.1131366, 0.9850363, 0.04570375
 144820382, 0.7343677, -0.07176848, -0.2543463, 0.001089464, 0.210795, -0.02013086, -0.06295594, 0.0005187924, -0.1143769, 0.984759, 0.04570375
 145020302, 0.638436, -0.06695236, -0.1938576, 0.001089464, 0.1751366, -0.01398082, -0.08592676, 0.0005187924, -0.1138965, 0.9845905, 0.04570375
 145220222, 0.5037051, -0.04709766, -0.3098457, 0.001089464, 0.1214268, 0.001461847, -0.127319, 0.0005187924, -0.1146347, 0.9836601, 0.04570375
 145420975, 0.2613312, 0.001075499, -0.7070921, 0.001091626, 0.05437232, 0.0199455, -0.2950012, 0.0005187924, -0.1128781, 0.9808311, 0.04579443
 145620895, 0.1484734, 0.04401828, -0.8500952, 0.001091626, 0.05357609, -0.0001642631, -0.1851894, 0.000520954, -0.1130797, 0.9784831, 0.04579443
 145820815, 0.2044748, -0.0004596044, -0.3648018, 0.001091626, 0.07870117, -0.008375473, -0.01964641, 0.0005187924, -0.1128507, 0.9784045, 0.04579443
 146020735, 0.2436322, -0.004012343, 0.007747955, 0.001089464, 0.08155092, 0.007507198, 0.02841737, 0.0005187924, -0.1119065, 0.9789734, 0.04570375
 146220655, 0.2336297, -0.009685854, 0.06848831, 0.001089464, 0.05292742, -0.008274972, 0.01452132, 0.0005187924, -0.1131069, 0.9792559, 0.04570375
 146420575, 0.190801, -0.02638383, 0.05821338, 0.001089464, 0.05530756, -0.003526681, 0.02157283, 0.0005187924, -0.1122566, 0.9797206, 0.04570375
 146620495, 0.1765794, -0.01786402, 0.06856044, 0.001089464, 0.0613426, -0.01117036, 0.05290404, 0.0005187924, -0.1136466, 0.9801362, 0.04570375
 146820415, 0.1927871, -0.01625135, 0.2041649, 0.001089464, 0.07095975, 0.00599479, 0.1242788, 0.0005187924, -0.1114953, 0.9815037, 0.04570375
 147020335, 0.2219063, -0.001868476, 0.3315901, 0.001089464, 0.07284063, -0.02009071, 0.1010061, 0.0005187924, -0.1148062, 0.9821866, 0.04570375
 147220255, 0.230417, -0.0634845, 0.3407533, 0.001089464, 0.08440367, -0.001661693, 0.1281856, 0.0005187924, -0.1152239, 0.9834914, 0.04570375
 147420175, 0.2250766, -0.0230835, 0.3188386, 0.001089464, 0.04857304, -0.009759029, 0.04139417, 0.0005187924, -0.1146896, 0.9842091, 0.04570375
 147620928, 0.1202274, -0.02470205, -0.01271545, 0.001091626, 0.01017078, -0.01201735, -0.07017594, 0.000520954, -0.1159095, 0.9836417, 0.04579443
 147820848, 0.05001334, -0.01358183, -0.192041, 0.001091626, -0.008213994, 0.004149851, -0.08930371, 0.0005187924, -0.116164, 0.983122, 0.04579443
 148020768, 0.002055543, 0.006536972, -0.1542983, 0.001089464, -0.0003702411, 0.01304884, 0.01763001, 0.0005187924, -0.1156776, 0.9832138, 0.04570375
 148220688, -0.05873705, 0.04184354, 0.1099361, 0.001089464, -0.04632405, 0.0177914, 0.06726797, 0.0005187924, -0.115775, 0.9836518, 0.04570375
 148420608, -0.1885359, 0.04614382, 0.1868873, 0.001089464, -0.0789296, 0.02197421, 0.06697968, 0.0005187924, -0.115785, 0.9841031, 0.04570375
 148620528, -0.1360607, 0.005798352, 0.9161927, 0.001089464, 0.02846333, 0.01316081, 0.6581768, 0.0005187924, -0.1111681, 0.9890922, 0.04570375
 148820448, 0.1366268, 0.1789564, 2.300031, 0.001089464, 0.04768046, 0.1236663, 0.7190816, 0.0005187924, -0.1128007, 0.9926469, 0.04570375
 149020368, 0.1129132, 0.3688163, 2.049835, 0.001089464, 0.02288223, 0.1100065, 0.4587164, 0.0005187924, -0.1218462, 0.9924852, 0.04570375
 149220288, 0.03821134, 0.3580434, 0.9794894, 0.001089464, -0.00857927, 0.1143273, 0.1167804, 0.0005187924, -0.1213028, 0.9926125, 0.04570375
 149420208, -0.02574228, 0.3492683, 0.1465841, 0.001089464, -0.006475249, 0.1041187, -0.05090202, 0.0005187924, -0.1105492, 0.993866, 0.04570375
 149620961, -0.01432417, 0.2916553, -0.0008510388, 0.001091626, -0.003355772, 0.0647071, 0.08294155, 0.000520954, -0.1010076, 0.9948837, 0.04579443
 149820881, 0.01447267, 0.1887604, 0.4136388, 0.001091626, 0.01171544, 0.04678369, 0.1693562, 0.0005187924, -0.09495242, 0.9953734, 0.04579443
 150020801, 0.03598421, 0.1636848, 0.6167449, 0.001089464, 0.01201868, 0.06598347, 0.2175822, 0.0005187924, -0.08831564, 0.9956396, 0.04570375
 150220721, 0.04507853, 0.2219804, 0.5583561, 0.001089464, 0.01543015, 0.070817, 0.08682896, 0.0005187924, -0.08363768, 0.9957631, 0.04570375
 150420641, -0.04745926, 0.2268655, 0.2663824, 0.001089464, -0.08590897, 0.08370727, 0.02248656, 0.0005187924, -0.07963308, 0.9959481, 0.04570375
 150620561, -0.5518551, 0.3281148, -0.3248437, 0.001089464, -0.3184679, 0.1298284, -0.2641245, 0.0005187924, -0.07100294, 0.997175, 0.04570375
 150820481, -1.097349, 0.3910932, -0.6871179, 0.001089464, -0.3462138, 0.09283606, -0.07798021, 0.0005187924, -0.06510344, 0.9977829, 0.04570375
 151020401, -0.9608826, 0.2390559, 0.1525077, 0.001089464, -0.2200759, 0.03854932, 0.2598765, 0.0005187924, -0.06192524, 0.9976819, 0.04570375
 151220321, -0.5963864, 0.1068298, 1.020062, 0.001089464, -0.134867, 0.0231133, 0.3885271, 0.0005187924, -0.0572261, 0.9967433, 0.04570375
 151420241, -0.3767582, 0.08999491, 1.194879, 0.001089464, -0.09267402, 0.03171699, 0.3183509, 0.0005187924, -0.05437712, 0.9950972, 0.04570375
 151620161, -0.265266, 0.1006853, 0.8614613, 0.001089464, -0.06315687, 0.02682549, 0.1783845, 0.0005187924, -0.05272726, 0.9938234, 0.04570375
 151820914, -0.1667551, 0.09922875, 0.4781479, 0.001091626, -0.03467023, 0.04350243, 0.1004358, 0.000520954, -0.04907754, 0.9931501, 0.04579443
 152020834, -0.08872869, 0.1500074, 0.2182761, 0.001091626, -0.0151315, 0.05001968, 0.0322499, 0.0005187924, -0.0450212, 0.9930636, 0.04579443
 152220754, -0.02041294, 0.1580773, 0.07642137, 0.001089464, 0.002262944, 0.03796292, 0.0235388, 0.0005187924, -0.04272406, 0.9930323, 0.04570375
 152420674, 0.008563686, 0.1023239, 0.1529697, 0.001089464, 0.003093483, 0.02608196, 0.08918178, 0.0005187924, -0.04027173, 0.9924365, 0.04570375
 152620594, 0.02511283, 0.07812938, 0.3403644, 0.001089464, 0.01014364, 0.02121935, 0.1062578, 0.0005187924, -0.03760556, 0.9914425, 0.04570375
 152820514, 0.05990075, 0.07451372, 0.2051084, 0.001089464, 0.03164637, 0.03021788, -0.009189267, 0.0005187924, -0.0351176, 0.9914509, 0.04570375
 153020434, 0.08750373, 0.08528945, -0.05844771, 0.001089464, 0.02914027, 0.02085494, -0.04235861, 0.0005187924, -0.03387979, 0.9918199, 0.04570375
 153220354, 0.08664378, 0.07392368, -0.1459929, 0.001089464, 0.02719292, 0.03015847, -0.01931362, 0.0005187924, -0.02996418, 0.992335, 0.04570375
 153420274, 0.08621548, 0.1026881, -0.01933497, 0.001089464, 0.02909267, 0.03777289, 0.01308099, 0.0005187924, -0.02818252, 0.992283, 0.04570375
 153620194, 0.0787476, 0.1115825, 0.07025902, 0.001089464, 0.02343237, 0.03400096, 0.03280652, 0.0005187924, -0.02537137, 0.9920952, 0.04570375
 153820947, 0.0852263, 0.09564314, 0.07047474, 0.001091626, 0.02777967, 0.01393596, 0.0155344, 0.000520954, -0.02431244, 0.9920071, 0.04579443
 154020867, 0.09077504, 0.03759537, 0.05923846, 0.001091626, 0.02903175, 0.01998687, -0.008753994, 0.0005187924, -0.02291555, 0.9919482, 0.04579443
 154220787, 0.1028443, 0.05003709, -0.05648175, 0.001089464, 0.03316756, 0.01957306, -0.002650154, 0.0005187924, -0.02162166, 0.9921554, 0.04570375
 154420707, 0.1074231, 0.0460512, -0.1033451, 0.001089464, 0.03275081, 0.001779039, -0.0788969, 0.0005187924, -0.0217014, 0.9928104, 0.04570375
 154620627, 0.1052119, 0.03111661, -0.2257815, 0.001089464, 0.02938928, 0.02118027, -0.04300513, 0.0005187924, -0.01921513, 0.9933073, 0.04570375
 154820547, 0.09479972, 0.05500082, -0.04575702, 0.001089464, 0.02961883, 0.01636953, 0.03262511, 0.0005187924, -0.01978383, 0.9931539, 0.04570375
 155020467, 0.1092855, 0.05208312, 0.07764957, 0.001089464, 0.04686824, 0.01682623, 0.01400406, 0.0005187924, -0.01873374, 0.9930618, 0.04570375
 155220387, 0.1245903, 0.04811616, -0.001653219, 0.001089464, 0.03494957, 0.0002126757, 0.004452354, 0.0005187924, -0.01794126, 0.9931788, 0.04570375
 155420307, 0.09858747, 0.02547293, -0.03517225, 0.001089464, 0.02336656, 0.01216861, -0.03744029, 0.0005187924, -0.01803726, 0.9934471, 0.04570375
 155620227, 0.09840745, 0.03960418, -0.08140615, 0.001089464, 0.03480047, 0.01990463, -0.0199692, 0.0005187924, -0.01584036, 0.9936112, 0.04570375
