TimeUS,CAN,CAE,CAD,CAe
 77696409, 0, 0, 0, 0
 77756385, -0.05216508, 1.43453, -0.01797693, 0.2017713
 77856345, -6.199641E-05, 0.003620249, 2.050414E-05, 0.0002593961
 77956305, -2.069688E-05, 0.003483495, 1.537543E-05, 0.0002593961
 78056265, 3.878376E-05, 0.003604838, -3.20509E-05, 0.0002593961
 78156225, -3.389651E-05, 0.003674037, -5.731792E-05, 0.0002593961
 78256185, 3.120886E-05, 0.00362474, -2.803157E-05, 0.0002593961
 78356145, 4.381131E-05, 0.003712792, -0.000121857, 0.0002593961
 78456105, -0.0001058053, 0.003733312, 6.348931E-05, 0.0002593961
 78556065, -2.023284E-05, 0.003553494, 6.94891E-05, 0.0002593961
 78656025, -0.0001011651, 0.003668987, 5.580934E-05, 0.0002593961
 78755985, -0.0001101014, 0.003632068, 3.14384E-05, 0.0002593961
 78855945, -7.366542E-05, 0.003646939, -0.0001188732, 0.0002593961
 78955905, 8.264276E-06, 0.003658587, 0.0001152305, 0.0002593961
 79055865, 3.428446E-05, 0.003684632, 8.992889E-05, 0.0002593961
 79155825, 0.0001035459, 0.003627281, -0.0001248468, 0.0002593961
 79255785, -2.454763E-05, 0.003683946, -7.7063E-05, 0.0002593961
 79356578, -4.317297E-05, 0.003794529, 0.0001275999, 0.0002615578
 79456538, -0.0001100532, 0.003746622, 4.89361E-05, 0.0002593961
 79561496, -0.0002386634, 0.003863381, 2.449367E-05, 0.000272366
 79661456, -8.868454E-05, 0.00385974, -3.443715E-07, 0.0002593961
 79761416, -0.0001303773, 0.00384103, 9.807001E-06, 0.0002593961
 79861376, 0.00016576, 0.003802203, 9.807358E-05, 0.0002593961
 79961336, -2.012142E-05, 0.003675263, 0.0001412578, 0.0002593961
 80061296, -2.443144E-05, 0.00361381, -2.704963E-06, 0.0002593961
 80161256, -8.374027E-06, 0.003561324, -8.042694E-05, 0.0002593961
 80261216, -4.102171E-05, 0.003637688, 0.0001295406, 0.0002593961
 80361176, 1.205544E-05, 0.003727185, 6.653865E-05, 0.0002593961
 80461136, 3.15897E-05, 0.003664377, 5.799834E-05, 0.0002593961
 80561096, -0.0002032972, 0.003717622, 3.085929E-05, 0.0002593961
 80661056, -1.820285E-05, 0.00379278, -4.227855E-05, 0.0002593961
 80761016, -1.081902E-05, 0.003659453, 4.231785E-05, 0.0002593961
 80860976, 4.306347E-05, 0.003618968, 0.0001259133, 0.0002593961
 80960936, -6.980686E-05, 0.003548892, 5.942231E-05, 0.0002593961
 81060896, 5.790214E-05, 0.00360619, -0.0001239996, 0.0002593961
 81160856, -0.0001483729, 0.003667784, -9.10395E-06, 0.0002593961
 81260816, -0.0001020187, 0.003673482, -8.582376E-05, 0.0002593961
 81360776, -0.0001206566, 0.003692456, 0.0001757347, 0.0002593961
 81461569, -5.727174E-05, 0.003748444, 1.825555E-05, 0.0002615578
 81561529, -1.560634E-05, 0.003620323, 3.873826E-05, 0.0002593961
 81666487, -5.988059E-05, 0.003815071, -2.645507E-05, 0.000272366
 81766447, -2.751187E-05, 0.003624831, -2.248699E-05, 0.0002593961
 81866407, -0.0002165123, 0.003654107, 0.0001360694, 0.0002593961
 81966367, -0.0002122333, 0.003688745, -1.319476E-05, 0.0002593961
 82066327, -9.397489E-05, 0.003715939, 6.235011E-05, 0.0002593961
 82166287, -0.0001884464, 0.003642161, -3.21939E-05, 0.0002593961
 82266247, -3.345438E-05, 0.003737556, 1.073646E-05, 0.0002593961
 82366207, -0.0001229502, 0.003582945, 6.196405E-06, 0.0002593961
 82466167, -7.915733E-05, 0.003538481, 3.886098E-05, 0.0002593961
 82566127, 0.0001067132, 0.003565055, 3.890626E-05, 0.0002593961
 82666087, -9.746708E-05, 0.003609639, 4.816631E-05, 0.0002593961
 82766047, -0.0001325265, 0.003720791, -3.874658E-05, 0.0002593961
 82866007, -1.589022E-05, 0.003801758, -6.35191E-05, 0.0002593961
 82965967, -0.0001380546, 0.003697249, 1.804344E-05, 0.0002593961
 83065927, 1.063669E-05, 0.00356085, 6.399574E-05, 0.0002593961
 83165887, -0.0001026493, 0.003687187, 1.464019E-05, 0.0002593961
 83265847, 3.846664E-05, 0.003615345, -0.0001576556, 0.0002593961
 83365807, -0.0001761788, 0.003657979, -5.699858E-05, 0.0002593961
 83465767, 4.209639E-05, 0.003603132, 0.0001617119, 0.0002593961
 83566560, -0.0002428407, 0.003713257, -6.535061E-05, 0.0002615578
 83666520, -0.0001539805, 0.003612786, -6.148262E-05, 0.0002593961
 83771478, -2.447646E-06, 0.003882117, -0.0001008, 0.000272366
 83871438, 0.0001573371, 0.003556039, -2.802919E-05, 0.0002593961
 83971398, -0.0001015308, 0.003712912, 0.0003168555, 0.0002593961
 84071358, -6.094281E-05, 0.003674692, -5.984058E-05, 0.0002593961
 84171318, -8.239727E-05, 0.003729282, 0.0001809314, 0.0002593961
 84271278, -5.935162E-05, 0.003548342, 0.0002248568, 0.0002593961
 84371238, 1.870569E-05, 0.003752573, 0.0001574387, 0.0002593961
 84471198, 2.339933E-06, 0.003798266, 5.825572E-05, 0.0002593961
 84571158, 5.542668E-05, 0.003592151, 7.8114E-05, 0.0002593961
 84671118, -0.0001262555, 0.00357245, 0.0001128317, 0.0002593961
 84771078, 0.0001141633, 0.003548172, -1.870481E-05, 0.0002593961
 84871038, 2.189043E-05, 0.003619792, -1.638353E-05, 0.0002593961
 84970998, -4.050212E-05, 0.003618771, 1.537182E-06, 0.0002593961
 85070958, -8.384776E-05, 0.003650006, 2.609043E-05, 0.0002593961
 85170918, 2.410503E-05, 0.003609364, -6.456533E-05, 0.0002593961
 85270878, -5.952614E-05, 0.003784374, -8.724535E-05, 0.0002593961
 85370838, 0.0001945022, 0.003698847, 0.0001505011, 0.0002593961
 85470798, 1.566038E-05, 0.003601143, -7.647553E-05, 0.0002593961
 85571591, -3.180594E-05, 0.003621945, -6.66352E-06, 0.0002615578
 85671551, 5.536236E-05, 0.003671125, -0.0001273778, 0.0002593961
 85771511, -0.0001169124, 0.00368148, 0.0001877045, 0.0002593961
 85876469, -0.0001930724, 0.003884578, 0.0001723398, 0.000272366
 85976429, 2.894707E-05, 0.003751465, -1.169335E-05, 0.0002593961
 86076389, -1.217277E-05, 0.003602701, 2.709378E-05, 0.0002593961
 86176349, -4.373788E-05, 0.003664259, 5.847378E-05, 0.0002593961
 86276309, -6.73723E-06, 0.003611649, 2.547915E-05, 0.0002593961
 86376269, 6.874465E-05, 0.003607186, -1.746195E-05, 0.0002593961
 86476229, -6.944167E-05, 0.003602906, -0.0001073777, 0.0002593961
 86576189, -0.0001291851, 0.003655951, 2.053512E-05, 0.0002593961
 86676149, -4.72158E-05, 0.003651541, 3.911361E-05, 0.0002593961
 86776109, -0.0001295559, 0.003627684, -5.197948E-05, 0.0002593961
 86876069, -8.530913E-05, 0.003650521, 9.522082E-05, 0.0002593961
 86976029, -8.507362E-05, 0.003557889, 7.315807E-05, 0.0002593961
 87075989, -4.643368E-05, 0.003712482, 2.525749E-05, 0.0002593961
 87175949, -0.0001450756, 0.003597563, 7.029103E-05, 0.0002593961
 87275909, 1.130818E-05, 0.003510611, 9.91484E-05, 0.0002593961
 87375869, -0.0001552348, 0.003520499, 3.543271E-05, 0.0002593961
 87475829, -5.114266E-05, 0.003581374, -8.365141E-06, 0.0002593961
 87575789, -8.062032E-05, 0.003636881, 2.535758E-06, 0.0002593961
 87676582, -0.0001298171, 0.003561252, 4.055466E-05, 0.0002615578
 87776542, -0.000253191, 0.003733482, -8.881117E-06, 0.0002593961
 87876502, -0.0001087262, 0.003514527, 2.367146E-05, 0.0002593961
 87981460, 4.19337E-05, 0.003675704, 7.805562E-05, 0.000272366
 88081420, -0.0002144416, 0.003563299, -6.964758E-05, 0.0002593961
 88181380, 2.96808E-06, 0.003554934, -1.523482E-05, 0.0002593961
 88281340, -8.509406E-05, 0.003575634, 5.178048E-05, 0.0002593961
 88381300, -0.0001110098, 0.003526092, 0.0001057023, 0.0002593961
 88481260, -0.0002060344, 0.003437701, 9.46608E-05, 0.0002593961
 88581220, -6.795329E-06, 0.00360463, -6.16709E-05, 0.0002593961
 88681180, -5.382972E-05, 0.003591658, 0.0001114042, 0.0002593961
 88781140, -0.0001544665, 0.003735679, 0.0001648232, 0.0002593961
 88881100, -3.68641E-05, 0.003724092, 7.461661E-05, 0.0002593961
 88981060, -3.596983E-05, 0.003740782, -0.0001127614, 0.0002593961
 89081020, -6.962517E-05, 0.003529729, -9.721442E-05, 0.0002593961
 89180980, -4.418435E-05, 0.003700732, -7.094881E-06, 0.0002593961
 89280940, -0.0001086519, 0.003532103, -5.3326E-05, 0.0002593961
 89380900, -1.133273E-05, 0.003733293, 0.000177633, 0.0002593961
 89480860, -6.798223E-05, 0.003603286, 3.731308E-05, 0.0002593961
 89580820, -7.705064E-05, 0.003588543, 0.000129711, 0.0002593961
 89680780, 1.259112E-05, 0.003676254, -4.015151E-05, 0.0002593961
 89781573, -0.0001467774, 0.0036648, 0.0001658301, 0.0002615578
 89881533, -7.997917E-05, 0.003744955, 5.640634E-05, 0.0002593961
 89986491, 8.593302E-05, 0.003937822, 6.429483E-05, 0.000272366
 90086451, -1.591283E-05, 0.003582936, 3.238818E-06, 0.0002593961
 90186411, -0.0001602117, 0.003572384, 3.914101E-05, 0.0002593961
 90286371, -0.0002524299, 0.003600625, 2.368455E-05, 0.0002593961
 90386331, -0.0001708583, 0.003700101, -0.0001213494, 0.0002593961
 90486291, -6.24442E-05, 0.003621452, 0.0001158096, 0.0002593961
 90586251, -0.0002119878, 0.00362456, -3.053278E-05, 0.0002593961
 90686211, -8.107163E-05, 0.003473996, 0.0001254653, 0.0002593961
 90786171, -0.0001422888, 0.00363692, 6.522071E-05, 0.0002593961
 90886131, -0.0001818752, 0.003646874, -4.027662E-05, 0.0002593961
 90986091, -1.113584E-05, 0.003592642, -1.430773E-05, 0.0002593961
 91086051, -9.677623E-05, 0.003494378, -5.330933E-05, 0.0002593961
 91186011, -9.947025E-05, 0.003531943, 0.0002476071, 0.0002593961
 91285971, -0.0002386338, 0.003749137, 4.948787E-06, 0.0002593961
 91385931, -3.837986E-05, 0.003545643, 8.047937E-05, 0.0002593961
 91485891, -0.0001511245, 0.003501538, 2.078655E-05, 0.0002593961
 91585851, -0.0002185934, 0.003600588, -8.423536E-06, 0.0002593961
 91685811, 4.454216E-05, 0.003506384, 0.0001907682, 0.0002593961
 91785771, -0.0001626147, 0.003500026, 0.00011598, 0.0002593961
 91886564, -5.050204E-05, 0.003519451, 6.317829E-05, 0.0002615578
 91986524, -0.000199339, 0.003529618, 4.254427E-05, 0.0002593961
 92091482, -0.0001292209, 0.00372912, -6.922931E-05, 0.000272366
 92191442, -0.0001498501, 0.003558905, 7.465354E-05, 0.0002593961
 92291402, -0.0002580435, 0.003504691, 7.086779E-05, 0.0002593961
 92391362, -0.0001280274, 0.003662578, 4.803405E-05, 0.0002593961
 92491322, -0.0001710865, 0.003591488, 1.5578E-05, 0.0002593961
 92591282, -6.03964E-05, 0.003509347, 2.506922E-05, 0.0002593961
 92691242, -9.078542E-05, 0.003555414, 2.68066E-05, 0.0002593961
 92791202, -0.0001955038, 0.003728734, 5.352144E-05, 0.0002593961
 92891162, -5.926638E-05, 0.003597289, 5.610125E-06, 0.0002593961
 92991122, -9.584294E-05, 0.003610865, -0.0001843716, 0.0002593961
 93091082, -1.271295E-05, 0.003702401, -7.235136E-05, 0.0002593961
 93191042, -1.132257E-05, 0.003605955, 8.396961E-05, 0.0002593961
 93291002, -0.0001282663, 0.003480991, 3.835097E-05, 0.0002593961
 93390962, -9.795531E-05, 0.003654664, 0.0001109073, 0.0002593961
 93490922, -0.0002729956, 0.003809768, 0.00011751, 0.0002593961
 93590882, -0.0002757053, 0.003601698, -2.204488E-06, 0.0002593961
 93690842, -0.0001345676, 0.003595497, -4.644562E-05, 0.0002593961
 93790802, -2.92291E-05, 0.00369522, 0.0001246669, 0.0002593961
 93890762, 2.30778E-05, 0.003521006, 0.0001103008, 0.0002593961
 93991555, -0.0001853249, 0.003816979, -8.359591E-06, 0.0002615578
 94091515, -0.000206553, 0.003601319, -2.115238E-05, 0.0002593961
 94196473, -5.622306E-05, 0.003843154, -0.0001052149, 0.000272366
 94296433, -8.437963E-05, 0.003606101, 7.589284E-05, 0.0002593961
 94396393, -0.0002228321, 0.003613387, -9.961882E-07, 0.0002593961
 94496353, 4.633838E-05, 0.003567234, -9.433428E-05, 0.0002593961
 94596313, 6.610165E-06, 0.003725223, -1.08866E-05, 0.0002593961
 94696273, -0.000130925, 0.003589174, -5.037081E-05, 0.0002593961
 94796233, 0.0001407359, 0.003633999, -3.223322E-05, 0.0002593961
 94896193, -5.558013E-05, 0.003492197, 0.00021576, 0.0002593961
 94996153, -6.304137E-05, 0.003647244, 6.227504E-05, 0.0002593961
 95096113, 2.832184E-05, 0.003731085, 6.885515E-05, 0.0002593961
 95196073, 2.293424E-05, 0.003744903, 9.04663E-05, 0.0002593961
 95296033, -2.497794E-05, 0.003747466, 0.0001311612, 0.0002593961
 95395993, -0.0001402374, 0.00357258, 9.593702E-05, 0.0002593961
 95495953, -1.981787E-05, 0.00350238, 6.658753E-05, 0.0002593961
 95595913, -0.0001776307, 0.003661545, -3.306616E-05, 0.0002593961
 95695873, -8.723396E-06, 0.003599366, 8.057825E-05, 0.0002593961
 95795833, -3.412418E-05, 0.003658459, 0.0001096144, 0.0002593961
 95895793, -0.0001044337, 0.003719231, -5.666848E-05, 0.0002593961
 95996586, 5.215434E-05, 0.003704885, -6.161172E-05, 0.0002615578
 96096546, -8.511433E-05, 0.003648549, -7.968813E-05, 0.0002593961
 96196506, -0.0001168458, 0.003591437, -0.0001166413, 0.0002593961
 96301464, -0.0001582895, 0.003716813, 0.0001440961, 0.000272366
 96401424, -0.0001690521, 0.003521806, -2.693052E-05, 0.0002593961
 96501384, -0.0001261986, 0.003551369, 3.008711E-05, 0.0002593961
 96601344, -0.0001339097, 0.003691571, -2.39789E-05, 0.0002593961
 96701304, 3.743051E-05, 0.003587892, -3.415887E-05, 0.0002593961
 96801264, -1.220645E-05, 0.003552766, -3.535286E-05, 0.0002593961
 96901224, -6.942774E-05, 0.003418962, -5.204622E-05, 0.0002593961
 97001184, -0.0001537857, 0.00363205, 0.0001951176, 0.0002593961
 97101144, -0.0001068955, 0.003450302, 2.301487E-05, 0.0002593961
 97201104, -3.904953E-05, 0.00358016, -4.557932E-05, 0.0002593961
 97301064, -2.844788E-05, 0.003419191, 5.290656E-05, 0.0002593961
 97401024, -0.0002306144, 0.003787727, -1.24167E-06, 0.0002593961
 97500984, -0.0001224611, 0.003584445, 5.742994E-05, 0.0002593961
 97600944, 1.547129E-05, 0.003623201, -0.0001003412, 0.0002593961
 97700904, -6.076708E-05, 0.003647655, -6.412325E-05, 0.0002593961
 97800864, -0.0001005079, 0.003585277, -2.608209E-05, 0.0002593961
 97900824, -0.0001651071, 0.00353169, 2.835995E-07, 0.0002593961
 98000784, 4.85467E-05, 0.003639509, 0.0001534742, 0.0002593961
 98101577, -5.623583E-05, 0.003635804, 4.27381E-05, 0.0002615578
 98201537, 8.12005E-05, 0.003648972, 6.444258E-05, 0.0002593961
 98306495, 9.079351E-05, 0.003803846, -1.028483E-05, 0.000272366
 98406455, -7.463673E-05, 0.003681221, 6.103695E-05, 0.0002593961
 98506415, -0.000167401, 0.003592669, 6.130388E-05, 0.0002593961
 98606375, -0.0002530431, 0.003537338, -4.773614E-05, 0.0002593961
 98706335, -0.000168475, 0.003520715, 1.450435E-05, 0.0002593961
 98806295, -0.0001256078, 0.003629102, -4.265976E-07, 0.0002593961
 98906255, -9.661238E-05, 0.003751318, 0.0001511958, 0.0002593961
 99006215, -3.510715E-05, 0.003612017, -2.500606E-05, 0.0002593961
 99106175, -0.0001986697, 0.003794806, -5.516467E-05, 0.0002593961
 99206135, -0.0001162539, 0.003534684, -4.719872E-05, 0.0002593961
 99306095, -0.0001714448, 0.003545864, 7.062708E-05, 0.0002593961
 99406055, -0.0001713602, 0.003616705, -2.111186E-05, 0.0002593961
 99506015, -0.0002106897, 0.003682732, 0.0001222955, 0.0002593961
 99605975, -0.000117918, 0.00357674, 0.0001032202, 0.0002593961
 99705935, 4.884549E-05, 0.003693616, 0.0001252043, 0.0002593961
 99805895, 3.459108E-05, 0.003617795, 8.904947E-05, 0.0002593961
 99905855, -0.0001369957, 0.003702212, 1.866428E-05, 0.0002593961
 100005815, 3.977706E-06, 0.003665705, 1.787454E-08, 0.0002593961
 100105775, 8.116489E-05, 0.003647931, -0.0001177341, 0.0002593961
 100206568, -0.0001852041, 0.003780971, 6.558536E-05, 0.0002615578
 100306528, 5.758486E-05, 0.003717638, 2.542903E-06, 0.0002593961
 100411486, -0.0002956869, 0.003837252, 8.533044E-05, 0.000272366
 100511446, -3.302899E-05, 0.003675375, -1.740594E-05, 0.0002593961
 100611406, -0.0001365131, 0.003576334, 9.242179E-06, 0.0002593961
 100711366, 3.426756E-05, 0.003504101, 8.896963E-05, 0.0002593961
 100811326, -0.0001228549, 0.003558186, 6.251456E-05, 0.0002593961
 100911286, -0.0002085204, 0.003602548, 8.022555E-05, 0.0002593961
 101011246, -1.050686E-05, 0.003581333, -9.618129E-05, 0.0002593961
 101111206, -0.0001652255, 0.003736044, 1.403605E-05, 0.0002593961
 101211166, -4.340395E-05, 0.003631409, -2.691741E-05, 0.0002593961
 101311126, -3.20353E-05, 0.003542024, -0.000116173, 0.0002593961
 101411086, -0.0001049117, 0.003482407, 7.026482E-05, 0.0002593961
 101511046, -0.0001297483, 0.003527061, -6.310792E-06, 0.0002593961
 101611006, -0.00017517, 0.003611711, 3.990604E-05, 0.0002593961
 101710966, -0.0002901665, 0.003648907, -6.382773E-05, 0.0002593961
 101810926, -0.0001547678, 0.003710311, 3.556973E-06, 0.0002593961
 101910886, -0.00013004, 0.00352225, 3.729877E-05, 0.0002593961
 102010846, -0.0002003531, 0.003546191, 6.079267E-05, 0.0002593961
 102110806, -0.0002143622, 0.00374097, 6.113586E-05, 0.0002593961
 102210766, -0.0002635297, 0.003676191, 0.0001212207, 0.0002593961
 102311559, -7.318796E-05, 0.003573685, 0.0001509559, 0.0002615578
 102411519, -0.0001361029, 0.003821507, -2.728086E-05, 0.0002593961
 102516477, -0.0001490236, 0.003839391, -0.0001040019, 0.000272366
 102616437, 7.247209E-05, 0.003496155, 1.940785E-05, 0.0002593961
 102716397, -0.0001124474, 0.00368498, 3.714745E-05, 0.0002593961
 102816357, -0.0002167836, 0.003543909, -1.440902E-05, 0.0002593961
 102916317, -6.031774E-05, 0.003480766, -6.107628E-05, 0.0002593961
 103016277, -0.0001485443, 0.003630897, 0.0001294226, 0.0002593961
 103116237, -0.0001585696, 0.003619956, -8.817955E-06, 0.0002593961
 103216197, -0.0002544785, 0.003511815, -6.615853E-05, 0.0002593961
 103316157, 1.568402E-05, 0.003454927, 2.376439E-05, 0.0002593961
 103416117, -0.0001111731, 0.003675448, 7.574627E-05, 0.0002593961
 103516077, -0.0001586451, 0.003485641, 6.875863E-05, 0.0002593961
 103616037, -0.0001469973, 0.003726094, -5.997047E-05, 0.0002593961
 103715997, -0.00012242, 0.003564741, 1.404558E-05, 0.0002593961
 103815957, -0.0001200692, 0.003493448, 0.0001539532, 0.0002593961
 103915917, -1.267049E-05, 0.003651439, 2.719267E-05, 0.0002593961
 104015877, -0.0001081764, 0.003612822, 0.0001061027, 0.0002593961
 104115837, -6.901299E-05, 0.003501877, 8.436644E-06, 0.0002593961
 104215797, -0.0001768556, 0.003669125, 0.000100402, 0.0002593961
 104316590, -0.0001348419, 0.003643023, -1.676206E-05, 0.0002615578
 104416550, 5.240813E-05, 0.003409261, -1.195667E-05, 0.0002593961
 104516510, -3.644869E-05, 0.00344714, -2.705087E-05, 0.0002593961
 104621468, -0.0002576207, 0.003974946, -1.644434E-06, 0.000272366
 104721428, -0.0001513385, 0.003868063, -0.0002607125, 0.0002593961
 104821388, -4.703436E-05, 0.003687767, -7.831538E-05, 0.0002593961
 104921348, -0.0001175065, 0.003532805, 8.094647E-06, 0.0002593961
 105021308, -0.0002651829, 0.003515288, 9.656856E-05, 0.0002593961
 105121268, -9.740643E-05, 0.003695129, 0.0001224314, 0.0002593961
 105221228, -0.0002208207, 0.003547328, -1.42982E-05, 0.0002593961
 105321188, -5.428874E-05, 0.003703044, 5.353932E-05, 0.0002593961
 105421148, -8.78213E-05, 0.003774952, 0.0001808242, 0.0002593961
 105521108, -9.906384E-05, 0.00369065, 4.958315E-05, 0.0002593961
 105621068, 6.503424E-05, 0.003557043, 2.179823E-05, 0.0002593961
 105721028, -0.0001907348, 0.003691691, 0.0001097347, 0.0002593961
 105820988, -0.0001731354, 0.003568311, -1.683515E-05, 0.0002593961
 105920948, -6.236959E-06, 0.003719542, 0.0001517833, 0.0002593961
 106020908, -0.0001278177, 0.003640478, 0.0001319083, 0.0002593961
 106120868, -5.434939E-05, 0.003550197, 8.183304E-05, 0.0002593961
 106220828, -2.543425E-05, 0.003532672, 0.000185114, 0.0002593961
 106320788, -0.0001552418, 0.003632935, 3.003231E-05, 0.0002593961
 106421581, -0.0001781106, 0.003473509, 0.0001565541, 0.0002615578
 106521541, -0.0001790883, 0.003785638, 2.80852E-05, 0.0002593961
 106621501, -6.035508E-05, 0.003553728, 7.729179E-05, 0.0002593961
 106726459, -0.0002564252, 0.003727202, 0.0002218873, 0.000272366
 106826419, -0.0001647949, 0.00381381, 0.0001779369, 0.0002593961
 106926379, 5.380997E-05, 0.003510155, 1.073169E-05, 0.0002593961
 107026339, -6.130012E-05, 0.003612445, 1.754059E-06, 0.0002593961
 107126299, -7.436627E-05, 0.003543817, -2.545888E-05, 0.0002593961
 107226259, -0.0001687373, 0.003583708, -4.491201E-06, 0.0002593961
 107326219, -0.0001157464, 0.003558411, 9.515768E-05, 0.0002593961
 107426179, -2.078241E-05, 0.00344678, -6.69557E-05, 0.0002593961
 107526139, 5.152838E-06, 0.003477498, -0.0001559361, 0.0002593961
 107626099, -8.559208E-05, 0.003511398, 9.613952E-06, 0.0002593961
 107726059, -3.869945E-05, 0.003707434, -1.137993E-05, 0.0002593961
 107826019, -7.052759E-05, 0.003579561, 4.358926E-06, 0.0002593961
 107925979, -5.841251E-05, 0.003611341, 7.173649E-05, 0.0002593961
 108025939, -0.0001142858, 0.003611465, -2.371674E-05, 0.0002593961
 108125899, -9.829825E-05, 0.003620547, -9.036621E-05, 0.0002593961
 108225859, 0.0001314318, 0.003671438, -1.109394E-05, 0.0002593961
 108325819, -0.0001349198, 0.003617784, -2.604992E-05, 0.0002593961
 108425779, -7.917375E-05, 0.003599295, -9.69499E-06, 0.0002593961
 108526572, -0.0002354962, 0.003665063, 1.219103E-05, 0.0002615578
 108626532, -0.0003155981, 0.003610703, 0.0001223504, 0.0002593961
 108731490, 5.466277E-05, 0.003883163, -5.753119E-06, 0.000272366
 108831450, -0.0001326958, 0.003745778, 4.54363E-06, 0.0002593961
 108931410, -0.0001081598, 0.003694569, 6.679603E-05, 0.0002593961
 109031370, -0.0001171514, 0.003733265, -0.0001184454, 0.0002593961
 109131330, -0.0002526882, 0.003677603, 9.895657E-05, 0.0002593961
 109231290, -9.673704E-05, 0.003711862, 7.745507E-08, 0.0002593961
 109331250, 2.462225E-05, 0.003679597, -9.541628E-05, 0.0002593961
 109431210, -0.0002705627, 0.003596453, 1.136086E-05, 0.0002593961
 109531170, -3.206027E-05, 0.003704145, -5.676263E-05, 0.0002593961
 109631130, -0.0001612875, 0.003523292, -1.821862E-05, 0.0002593961
 109731090, -0.0001221304, 0.003706055, -1.472838E-06, 0.0002593961
 109831050, -0.000366568, 0.003589069, -1.825079E-05, 0.0002593961
 109931010, -0.0002076473, 0.003653564, 8.332256E-05, 0.0002593961
 110030970, 3.802635E-05, 0.003806556, 9.203089E-05, 0.0002593961
 110130930, 0.0001558216, 0.003750346, 1.546479E-05, 0.0002593961
 110230890, 3.240004E-05, 0.003721615, -3.839268E-05, 0.0002593961
 110330850, -0.0001459491, 0.00375126, 9.940699E-05, 0.0002593961
 110430810, -0.0002211866, 0.003606358, -8.821651E-05, 0.0002593961
 110530770, -4.668087E-05, 0.003740063, 0.0001082595, 0.0002593961
 110631563, -5.031765E-05, 0.00382254, -4.754944E-06, 0.0002615578
 110731523, -0.0001411298, 0.003656856, 7.107275E-05, 0.0002593961
 110836481, -0.0001734859, 0.004025682, -8.147317E-05, 0.000272366
 110936441, -0.0001478183, 0.003612541, -4.150041E-05, 0.0002593961
 111036401, 2.466983E-05, 0.003704514, 0.0001919336, 0.0002593961
 111136361, 6.332208E-05, 0.003471327, -7.807944E-05, 0.0002593961
 111236321, -0.000132781, 0.00351393, -7.564381E-06, 0.0002593961
 111336281, -4.233387E-05, 0.003673537, 0.0001209884, 0.0002593961
 111436241, -4.223049E-05, 0.003670644, -3.28755E-05, 0.0002593961
 111536201, -0.0001444904, 0.00362312, -2.826037E-05, 0.0002593961
 111636161, 8.662271E-05, 0.003707424, 3.319247E-05, 0.0002593961
 111736121, -1.762901E-05, 0.003467761, 0.0001118653, 0.0002593961
 111836081, -7.718107E-05, 0.003647172, -0.00013088, 0.0002593961
 111936041, -5.211521E-05, 0.003618061, 0.000126819, 0.0002593961
 112036001, -8.588886E-05, 0.0037348, 6.422811E-05, 0.0002593961
 112135961, -0.0001323783, 0.003559443, 6.307701E-05, 0.0002593961
 112235921, -0.0001751543, 0.003797613, 9.433309E-05, 0.0002593961
 112335881, -0.0001436068, 0.003688668, 6.180794E-05, 0.0002593961
 112435841, -0.0002059788, 0.003605653, 1.137159E-05, 0.0002593961
 112535801, -0.0001116963, 0.003561299, -5.667326E-05, 0.0002593961
 112635761, -0.0001345772, 0.003454709, 7.057942E-05, 0.0002593961
 112736554, 3.804796E-05, 0.003620197, -3.768645E-05, 0.0002615578
 112836514, -0.0001614495, 0.003542749, 8.110496E-05, 0.0002593961
 112941472, -0.0001638671, 0.003783115, 0.0001274767, 0.000272366
 113041432, 8.464383E-05, 0.003665507, 1.995719E-05, 0.0002593961
 113141392, -0.0001298373, 0.003641721, 7.115136E-06, 0.0002593961
 113241352, -4.167807E-05, 0.00367552, 5.350476E-05, 0.0002593961
 113341312, -0.0002061076, 0.003572263, 0.0001382727, 0.0002593961
 113441272, -0.000127535, 0.003598772, 5.98811E-05, 0.0002593961
 113541232, -0.0002343634, 0.003775318, -1.6772E-05, 0.0002593961
 113641192, -0.0002088287, 0.0035597, 1.614642E-06, 0.0002593961
 113741152, -0.0001760856, 0.003631815, 0.000125022, 0.0002593961
 113841112, -0.0001092882, 0.003761478, 7.143262E-05, 0.0002593961
 113941072, -0.0001276967, 0.003572387, 5.046733E-05, 0.0002593961
 114041032, -0.0001387935, 0.003732095, 2.647651E-05, 0.0002593961
 114140992, -3.50419E-05, 0.003632902, -0.0001191997, 0.0002593961
 114240952, -1.279442E-05, 0.00361026, 0.0001488245, 0.0002593961
 114340912, -9.932427E-05, 0.003641586, 4.705693E-06, 0.0002593961
 114440872, 1.478311E-05, 0.003571069, 7.501581E-05, 0.0002593961
 114540832, -3.696565E-05, 0.003595573, -0.0001091997, 0.0002593961
 114640792, -0.0001322206, 0.003512388, -8.091432E-05, 0.0002593961
 114741585, -0.0001084902, 0.003788456, -1.346328E-05, 0.0002615578
 114841545, -7.138112E-05, 0.003557451, -8.545793E-05, 0.0002593961
 114941505, -0.0001001834, 0.003682649, 6.574264E-05, 0.0002593961
 115046463, -0.0001130784, 0.003812694, 1.587113E-05, 0.000272366
 115146423, -0.0001269753, 0.003667241, 4.097491E-05, 0.0002593961
 115246383, -0.0001435617, 0.003664269, 0.0002202547, 0.0002593961
 115346343, -4.180526E-05, 0.003704978, -3.885621E-05, 0.0002593961
 115446303, -1.039807E-05, 0.003600235, -0.0001057607, 0.0002593961
 115546263, -0.0001369846, 0.00360719, 1.986662E-05, 0.0002593961
 115646223, -2.047742E-05, 0.003585062, 9.116936E-05, 0.0002593961
 115746183, -0.0001126928, 0.003734461, -8.891003E-05, 0.0002593961
 115846143, -5.70693E-05, 0.003577161, 5.549356E-05, 0.0002593961
 115946103, 1.565715E-05, 0.003586842, 2.183279E-05, 0.0002593961
 116046063, -0.0002355225, 0.003671371, 0.0001154295, 0.0002593961
 116146023, -0.0001120826, 0.003677328, -0.0001150541, 0.0002593961
 116245983, -6.883137E-05, 0.003720905, 0.0002020981, 0.0002593961
 116345943, -0.00022836, 0.003551377, 3.238808E-06, 0.0002593961
 116445903, -7.677516E-05, 0.003624678, -3.5049E-05, 0.0002593961
 116545863, -0.0001837515, 0.003551945, 4.643131E-05, 0.0002593961
 116645823, -4.671385E-05, 0.003541982, 8.531971E-05, 0.0002593961
 116745783, -0.000155672, 0.003657448, 1.102602E-05, 0.0002593961
 116846576, -0.0002000792, 0.003717309, -7.953679E-05, 0.0002615578
 116946536, -0.0001484875, 0.003735462, 3.195913E-05, 0.0002593961
 117051494, -0.000137248, 0.003951579, 5.156124E-05, 0.000272366
 117151454, -0.000250274, 0.003642939, 5.810558E-05, 0.0002593961
 117251414, -9.467934E-05, 0.00357507, 7.235493E-05, 0.0002593961
 117351374, -9.707867E-05, 0.003571844, 4.608933E-05, 0.0002593961
 117451334, -6.032506E-06, 0.003619132, -3.392531E-05, 0.0002593961
 117551294, -0.0001604701, 0.003602805, 0.0001053698, 0.0002593961
 117651254, -0.0001312137, 0.003604927, 0.0001057047, 0.0002593961
 117751214, -0.0003082431, 0.003573167, 0.0001141759, 0.0002593961
 117851174, -8.892621E-05, 0.003621868, -2.242621E-05, 0.0002593961
 117951134, -3.030515E-05, 0.003748596, 0.0001144618, 0.0002593961
 118051094, -0.0001647987, 0.003391383, 0.0001743812, 0.0002593961
 118151054, -0.0001180444, 0.003545112, -7.553653E-05, 0.0002593961
 118251014, -9.402433E-05, 0.003632272, 0.0001881943, 0.0002593961
 118350974, -5.695031E-05, 0.003676788, -0.0001120119, 0.0002593961
 118450934, -0.0002092943, 0.003472307, 9.274586E-05, 0.0002593961
 118550894, -6.207929E-05, 0.003604701, 9.810575E-06, 0.0002593961
 118650854, -0.0001240962, 0.003544108, 4.445204E-05, 0.0002593961
 118750814, -0.0001185766, 0.003637689, 8.707144E-06, 0.0002593961
 118850774, -7.59977E-06, 0.003643554, -3.987148E-05, 0.0002593961
 118951567, -1.240969E-05, 0.00367784, -6.034265E-05, 0.0002615578
 119051527, -0.0002644322, 0.003646389, 5.553288E-05, 0.0002593961
 119156485, -0.0001073676, 0.003847077, 0.0001610791, 0.000272366
 119256445, -0.0001215435, 0.003623583, -0.0001093141, 0.0002593961
 119356405, -7.422538E-05, 0.003519906, 6.025645E-05, 0.0002593961
 119456365, -0.0001609392, 0.003608429, 0.0001211039, 0.0002593961
 119556325, -0.000149357, 0.003570043, 4.132525E-05, 0.0002593961
 119656285, -0.0001441607, 0.003558176, -3.215456E-05, 0.0002593961
 119756245, -0.0001341156, 0.003593066, 2.617982E-05, 0.0002593961
 119856205, -0.0002270129, 0.003573194, 0.0002133755, 0.0002593961
 119956165, 1.726639E-05, 0.003651935, -3.443815E-07, 0.0002593961
 120056125, -0.0001724213, 0.003571828, 8.614075E-05, 0.0002593961
 120156085, -0.0001337816, 0.003572711, -3.355233E-05, 0.0002593961
 120256045, -0.0001188229, 0.003512286, 6.232149E-06, 0.0002593961
 120356005, -0.0002890759, 0.003629423, 0.0001258644, 0.0002593961
 120455965, -0.000168264, 0.003593253, 5.51599E-05, 0.0002593961
 120555925, -9.619939E-05, 0.003423391, -3.55471E-05, 0.0002593961
 120655885, -9.504074E-06, 0.003627054, -6.036012E-05, 0.0002593961
 120755845, -0.0001280466, 0.003583997, 0.0001125303, 0.0002593961
 120855805, 6.474282E-06, 0.003684385, -3.539457E-05, 0.0002593961
 120955765, 8.308612E-06, 0.00365, 4.720824E-05, 0.0002593961
 121056558, 3.044475E-05, 0.003547687, 6.507414E-05, 0.0002615578
 121156518, -1.484826E-06, 0.003806829, -0.0001380511, 0.0002593961
 121261476, 7.482996E-05, 0.003715029, 0.0001164447, 0.000272366
 121361436, -0.0001723153, 0.003590432, -4.941393E-05, 0.0002593961
 121461396, -0.000191512, 0.003641129, 6.630152E-05, 0.0002593961
 121561356, 8.503463E-05, 0.003564131, -2.281588E-05, 0.0002593961
 121661316, 9.773857E-06, 0.003580679, 5.387296E-06, 0.0002593961
 121761276, -0.0001325338, 0.003764939, 2.364523E-05, 0.0002593961
 121861236, -0.0001381993, 0.003720756, -1.368095E-05, 0.0002593961
 121961196, 2.924449E-05, 0.00339943, 0.0001203222, 0.0002593961
 122061156, -5.623639E-06, 0.003648767, 0.0001225494, 0.0002593961
 122161116, -0.0001906074, 0.003498205, -5.868351E-05, 0.0002593961
 122261076, -8.044602E-05, 0.00358332, -7.41638E-05, 0.0002593961
 122361036, -3.691403E-05, 0.003606341, -1.039564E-05, 0.0002593961
 122460996, -6.090273E-05, 0.003654736, 0.0001538102, 0.0002593961
 122560956, -0.0001127998, 0.003568508, -8.675919E-05, 0.0002593961
 122660916, -0.0002017456, 0.003536235, 0.0001617988, 0.0002593961
 122760876, 2.025652E-05, 0.003658606, 1.46688E-05, 0.0002593961
 122860836, -0.0001369407, 0.003566249, 1.243689E-05, 0.0002593961
 122960796, -0.0001545519, 0.003596816, -0.0001424863, 0.0002593961
 123061589, -5.549637E-05, 0.003585171, 2.078655E-05, 0.0002615578
 123161549, -6.901109E-05, 0.003458996, 0.0001577557, 0.0002593961
 123261509, -6.383253E-05, 0.003733135, 0.0001073432, 0.0002593961
 123366467, -3.337462E-05, 0.003832033, 0.0001270275, 0.000272366
 123466427, -0.0001173511, 0.003636355, -0.0001352461, 0.0002593961
 123566387, -0.0002646254, 0.003692145, 7.971077E-05, 0.0002593961
 123666347, -0.0001451722, 0.003672249, -3.786957E-06, 0.0002593961
 123766307, -5.039702E-05, 0.003632244, 2.385735E-05, 0.0002593961
 123866267, -0.0002671229, 0.003548851, 0.0001538472, 0.0002593961
 123966227, 4.194675E-05, 0.003556451, 3.785884E-05, 0.0002593961
 124066187, -0.0001288683, 0.003670533, -7.348338E-05, 0.0002593961
 124166147, -0.0001454248, 0.003639259, 2.950918E-05, 0.0002593961
 124266107, -9.352498E-05, 0.003589505, 7.971912E-06, 0.0002593961
 124366067, -0.0001681554, 0.003545793, -1.973316E-05, 0.0002593961
 124466027, -8.082437E-05, 0.0037043, 3.214502E-05, 0.0002593961
 124565987, -9.694975E-05, 0.003597876, 0.0001147979, 0.0002593961
 124665947, -3.079034E-05, 0.003601267, 2.369886E-05, 0.0002593961
 124765907, -9.511759E-06, 0.00361811, -4.492154E-05, 0.0002593961
 124865867, -0.0001264474, 0.003575843, 5.842613E-05, 0.0002593961
 124965827, -0.0001337082, 0.0035856, 6.666973E-05, 0.0002593961
 125065787, -9.720391E-05, 0.00373019, 3.7381E-05, 0.0002593961
 125166580, 4.273955E-05, 0.00368622, 0.0002568175, 0.0002615578
 125266540, 3.884973E-05, 0.003737121, 2.793149E-06, 0.0002593961
 125366500, -0.0001401269, 0.00356177, 4.850354E-05, 0.0002593961
 125471458, -0.000129071, 0.003567894, -2.900512E-05, 0.000272366
 125571418, 1.637814E-05, 0.003745868, 0.0001491772, 0.0002593961
 125671378, -3.548172E-05, 0.003684103, -0.0001115317, 0.0002593961
 125771338, -0.0001792103, 0.003706284, -7.355249E-05, 0.0002593961
 125871298, -9.597565E-05, 0.003610281, -1.444241E-06, 0.0002593961
 125971258, -1.64386E-05, 0.003781449, -3.360119E-05, 0.0002593961
 126071218, 1.245414E-05, 0.003764571, -0.0001095965, 0.0002593961
 126171178, -0.0002109521, 0.003851908, 0.0001060669, 0.0002593961
 126271138, 7.577793E-05, 0.00374629, -2.226773E-05, 0.0002593961
 126371098, -6.837877E-05, 0.003585212, 9.224302E-06, 0.0002593961
 126471058, 3.147719E-05, 0.003846153, 0.0001301721, 0.0002593961
 126571018, 9.536287E-06, 0.003722714, 7.397195E-05, 0.0002593961
 126670978, -0.000111076, 0.003779663, -7.428892E-05, 0.0002593961
 126770938, -0.000141591, 0.003555126, 8.598583E-05, 0.0002593961
 126870898, -7.901424E-05, 0.003691332, -0.0001365854, 0.0002593961
 126970858, -9.423861E-05, 0.003463809, -0.0001462756, 0.0002593961
 127070818, -0.0001070534, 0.003726838, 8.429496E-06, 0.0002593961
 127170778, -0.0002452676, 0.003590192, 0.0002458256, 0.0002593961
 127271571, -8.106184E-05, 0.003682885, 5.756142E-05, 0.0002615578
 127371531, -1.487149E-05, 0.003650365, 1.884303E-05, 0.0002593961
 127476489, -0.0001227783, 0.00379725, -5.024927E-05, 0.000272366
 127576449, -4.540742E-05, 0.003757209, 1.90897E-05, 0.0002593961
 127676409, -0.0001081479, 0.003514991, 0.0001095822, 0.0002593961
 127776369, 7.06119E-05, 0.003600632, 4.491677E-05, 0.0002593961
 127876329, -0.0001152082, 0.003602515, 0.0001075839, 0.0002593961
 127976289, 5.111166E-05, 0.003583003, 3.202467E-05, 0.0002593961
 128076249, -5.627673E-05, 0.00370515, -1.370119E-05, 0.0002593961
 128176209, -0.0001102845, 0.003598032, 6.148023E-05, 0.0002593961
 128276169, -4.097467E-05, 0.003710192, -8.639932E-05, 0.0002593961
 128376129, -6.676438E-05, 0.003752955, 1.259896E-05, 0.0002593961
 128476089, -2.287652E-05, 0.003574583, -6.656368E-05, 0.0002593961
 128576049, -0.0001723321, 0.003440384, -4.667562E-06, 0.0002593961
 128676009, -2.52084E-05, 0.00359393, 1.985589E-05, 0.0002593961
 128775969, -4.777735E-05, 0.003641554, -4.916012E-05, 0.0002593961
 128875929, -5.681562E-06, 0.003617084, 0.0001234181, 0.0002593961
 128975889, -8.613009E-05, 0.003580246, -2.960689E-05, 0.0002593961
 129075849, -0.0002317407, 0.003579036, -2.912667E-05, 0.0002593961
 129175809, -7.79434E-05, 0.003668988, -1.656704E-05, 0.0002593961
 129275769, -0.000137856, 0.003617728, 0.0001375387, 0.0002593961
 129376562, -4.294593E-05, 0.003718763, -4.39039E-05, 0.0002615578
 129476522, -6.347688E-05, 0.003574457, 9.029351E-05, 0.0002593961
 129581480, -9.604717E-06, 0.003712168, -6.952365E-05, 0.000272366
 129681440, -0.000241682, 0.003658261, -4.998948E-05, 0.0002593961
 129781400, -8.351875E-05, 0.003473923, 0.0001005617, 0.0002593961
 129881360, 3.803145E-05, 0.003619745, 0.0001463983, 0.0002593961
 129981320, 1.849061E-05, 0.003473149, -7.806395E-05, 0.0002593961
 130081280, -9.861992E-05, 0.003631233, -1.977249E-05, 0.0002593961
 130181240, -5.076033E-05, 0.0037268, 2.156944E-05, 0.0002593961
 130281200, -0.0001633664, 0.003603048, -5.967971E-05, 0.0002593961
 130381160, 7.203822E-05, 0.003544036, 8.604184E-05, 0.0002593961
 130481120, -1.766771E-05, 0.003635238, 6.949268E-05, 0.0002593961
 130581080, -0.0002028092, 0.003577698, -1.893597E-05, 0.0002593961
 130681040, -7.72947E-05, 0.003529924, 0.0001076589, 0.0002593961
 130781000, -8.450741E-05, 0.003587241, -3.317935E-05, 0.0002593961
 130880960, -0.000210697, 0.003676717, 0.0001217713, 0.0002593961
 130980920, -0.0001895623, 0.003454787, -9.420915E-06, 0.0002593961
 131080880, -0.0001655924, 0.003823094, 7.255155E-05, 0.0002593961
 131180840, -8.570436E-05, 0.003761436, 3.665649E-05, 0.0002593961
 131280800, -4.998316E-06, 0.003875034, 0.0003066552, 0.0002593961
 131380760, 1.378486E-05, 0.003700462, -0.0001300661, 0.0002593961
 131481553, 9.163158E-05, 0.003658704, 0.0001141723, 0.0002615578
 131581513, -0.0001258913, 0.003616865, -1.340806E-05, 0.0002593961
 131686471, -4.594666E-05, 0.003881227, -5.952717E-05, 0.000272366
 131786431, -4.415531E-05, 0.003645735, -1.981777E-05, 0.0002593961
 131886391, -2.545912E-05, 0.003454263, -4.466892E-05, 0.0002593961
 131986351, 6.070766E-05, 0.003666124, -7.111209E-05, 0.0002593961
 132086311, -8.728692E-05, 0.003514665, 9.307238E-05, 0.0002593961
 132186271, -3.055235E-05, 0.003508379, 6.468807E-05, 0.0002593961
 132286231, -0.0001257412, 0.003752036, -6.307221E-06, 0.0002593961
 132386191, -0.0001114916, 0.003814074, 2.369529E-05, 0.0002593961
 132486151, -8.084673E-05, 0.00361648, 0.000110719, 0.0002593961
 132586111, 1.243118E-05, 0.003641529, -9.641375E-06, 0.0002593961
 132686071, -6.064691E-05, 0.003624931, 3.075679E-05, 0.0002593961
 132786031, 4.922143E-05, 0.003676896, 5.91125E-05, 0.0002593961
 132885991, -5.834894E-05, 0.003755222, 4.528021E-05, 0.0002593961
 132985951, -0.0001261555, 0.003696427, -2.82115E-05, 0.0002593961
 133085911, -0.0001139934, 0.003476285, 0.0001174242, 0.0002593961
 133185871, -0.0001355192, 0.003547088, -2.131801E-05, 0.0002593961
 133285831, -0.0001770806, 0.003498805, -3.256925E-05, 0.0002593961
 133385791, -0.0001882581, 0.003537242, -4.681855E-06, 0.0002593961
 133486584, -0.0001304787, 0.003616372, 8.905341E-06, 0.0002615578
 133586544, -0.0001649841, 0.003682845, 9.104304E-05, 0.0002593961
 133686504, 0.0001141113, 0.003501626, 3.616196E-05, 0.0002593961
 133791462, 3.878772E-05, 0.003750814, -0.0001000398, 0.000272366
 133891422, -0.0002059827, 0.003673239, -2.19305E-05, 0.0002593961
 133991382, -3.793011E-05, 0.003566029, -0.0001033739, 0.0002593961
 134091342, -0.000214606, 0.003635238, 1.440188E-05, 0.0002593961
 134191302, -0.0001704077, 0.003540985, 0.0002187056, 0.0002593961
 134291262, -0.0002261327, 0.003547262, 5.623952E-05, 0.0002593961
 134391222, 4.295037E-05, 0.003521088, 0.0001186683, 0.0002593961
 134491182, 6.619068E-05, 0.003532195, 0.0001892, 0.0002593961
 134591142, -0.000201629, 0.003703527, 0.0001034382, 0.0002593961
 134691102, -0.0001664406, 0.003700858, 0.0001415652, 0.0002593961
 134791062, 3.661919E-05, 0.003783255, 5.127286E-05, 0.0002593961
 134891022, -0.0002625838, 0.003761483, 1.094619E-05, 0.0002593961
 134990982, -0.0001837138, 0.003535274, 7.528988E-05, 0.0002593961
 135090942, -0.000106016, 0.003792064, -1.739879E-05, 0.0002593961
 135190902, 8.797886E-05, 0.003754432, -4.329022E-05, 0.0002593961
 135290862, -0.0001067926, 0.003585338, -0.0001007845, 0.0002593961
 135390822, -0.0001159675, 0.003577924, 8.183305E-05, 0.0002593961
 135490782, -4.271335E-05, 0.003596366, 0.0001041627, 0.0002593961
 135591575, 0.0001197759, 0.003693052, 6.655653E-05, 0.0002615578
 135691535, 9.8455E-05, 0.003477991, -3.024917E-05, 0.0002593961
 135796493, -3.542748E-05, 0.003708135, -1.413256E-05, 0.000272366
 135896453, -0.0001257555, 0.003674531, 5.222258E-05, 0.0002593961
 135996413, 3.299516E-06, 0.003511591, -8.57964E-06, 0.0002593961
 136096373, -9.382983E-05, 0.003559988, 0.0001292021, 0.0002593961
 136196333, -6.095526E-05, 0.003560708, 1.678032E-05, 0.0002593961
 136296293, -0.0001404013, 0.003745183, 4.863583E-05, 0.0002593961
 136396253, -3.201182E-05, 0.003752295, 7.743597E-05, 0.0002593961
 136496213, -7.533086E-06, 0.003534425, 5.672331E-05, 0.0002593961
 136596173, -9.518371E-05, 0.0038568, -3.949373E-05, 0.0002593961
 136696133, -7.552545E-05, 0.003664245, -8.512785E-05, 0.0002593961
 136796093, -0.0001724908, 0.003729912, -2.301129E-05, 0.0002593961
 136896053, -3.103199E-05, 0.003563799, 7.847268E-05, 0.0002593961
 136996013, -0.0001081371, 0.003524964, 0.0001384432, 0.0002593961
 137095973, -1.569771E-05, 0.00366673, -3.561026E-05, 0.0002593961
 137195933, -3.771364E-05, 0.003750619, 6.133486E-05, 0.0002593961
 137295893, -6.591216E-05, 0.003647273, 7.246457E-05, 0.0002593961
 137395853, 2.176626E-05, 0.003577182, 2.793149E-06, 0.0002593961
 137495813, 2.010862E-05, 0.003689787, 0.0002749404, 0.0002593961
 137595773, -0.0001743415, 0.003679572, 0.0001339591, 0.0002593961
 137696566, -0.0001207423, 0.003721082, 1.199918E-05, 0.0002615578
 137796526, -7.900979E-05, 0.003713696, 1.344142E-06, 0.0002593961
 137901484, -9.75478E-05, 0.003675564, 0.0001388698, 0.000272366
 138001444, 2.709576E-05, 0.003651139, 1.930418E-05, 0.0002593961
 138101404, -8.85955E-06, 0.00364577, 0.0001331869, 0.0002593961
 138201364, -0.0001390058, 0.003595301, -6.36323E-05, 0.0002593961
 138301324, -6.606834E-05, 0.003487681, 0.0001531251, 0.0002593961
 138401284, -6.321546E-05, 0.003482415, -1.624053E-05, 0.0002593961
 138501244, -6.321572E-05, 0.003532578, 2.307565E-05, 0.0002593961
 138601204, -5.254665E-05, 0.003678741, 9.22156E-05, 0.0002593961
 138701164, 9.247014E-06, 0.003682979, 9.13636E-05, 0.0002593961
 138801124, -7.638274E-05, 0.003621854, 1.143594E-05, 0.0002593961
 138901084, -8.956325E-05, 0.003596653, 0.000109668, 0.0002593961
 139001044, -0.0001346027, 0.003694339, -8.805681E-05, 0.0002593961
 139101004, -4.275626E-05, 0.003574091, 7.805085E-05, 0.0002593961
 139200964, 5.028522E-05, 0.00361091, -1.205081E-05, 0.0002593961
 139300924, -0.0001143933, 0.003512744, 1.887282E-05, 0.0002593961
 139400884, -0.0002264298, 0.003602638, 5.381696E-05, 0.0002593961
 139500844, -5.459869E-05, 0.003784439, 1.098431E-05, 0.0002593961
 139600804, -0.0001937506, 0.003542475, 1.851294E-05, 0.0002593961
 139700764, -0.0001293165, 0.003520024, -3.580329E-05, 0.0002593961
 139801557, 2.126025E-05, 0.00366029, 3.709064E-05, 0.0002615578
 139901517, -0.0003156002, 0.003679197, -9.46036E-05, 0.0002593961
 140006475, -0.0001368712, 0.003727835, 2.116191E-05, 0.000272366
 140106435, -0.0001071073, 0.003579378, -0.0001806609, 0.0002593961
 140206395, -4.681082E-05, 0.003755664, -6.089181E-07, 0.0002593961
 140306355, -9.646845E-05, 0.003683321, -5.034935E-05, 0.0002593961
 140406315, 2.575481E-05, 0.003629927, 4.076638E-05, 0.0002593961
 140506275, -3.945841E-05, 0.003584581, -2.688167E-05, 0.0002593961
 140606235, -0.0001041036, 0.003698548, -4.630619E-05, 0.0002593961
 140706195, -5.239115E-05, 0.003635736, -7.838809E-05, 0.0002593961
 140806155, -6.225036E-05, 0.003668241, -8.474418E-05, 0.0002593961
 140906115, -0.0001635197, 0.003723175, 9.252066E-05, 0.0002593961
 141006075, -6.1586E-05, 0.003624221, 0.0002024961, 0.0002593961
 141106035, -9.008079E-05, 0.003640132, -0.000140364, 0.0002593961
 141205995, 2.111511E-05, 0.00367752, 6.375981E-05, 0.0002593961
 141305955, -0.0001675632, 0.003610661, 7.891478E-05, 0.0002593961
 141405915, -8.123344E-05, 0.003639971, 6.80234E-05, 0.0002593961
 141505875, -2.427183E-05, 0.00364522, -4.941632E-05, 0.0002593961
 141605835, -4.283391E-06, 0.003503849, 5.561034E-05, 0.0002593961
 141705795, -0.0001046172, 0.003695642, 7.110611E-05, 0.0002593961
 141806588, -0.0001673416, 0.003715679, 0.0001454884, 0.0002615578
 141906548, 4.389092E-06, 0.003659122, 0.0001028329, 0.0002593961
 142006508, -7.27269E-05, 0.003741595, -5.510271E-05, 0.0002593961
 142111466, 1.572519E-05, 0.003817921, -4.079498E-05, 0.000272366
 142211426, -3.66987E-05, 0.003503201, -1.423385E-05, 0.0002593961
 142311386, -1.576389E-05, 0.00360497, -7.347505E-06, 0.0002593961
 142411346, -0.0001781342, 0.003683286, -4.167319E-05, 0.0002593961
 142511306, -0.000140876, 0.00358733, -1.009537E-05, 0.0002593961
 142611266, -0.0001957796, 0.003675393, 1.229391E-05, 0.0002593961
 142711226, -3.96116E-05, 0.003729663, 9.612171E-05, 0.0002593961
 142811186, -0.0001068689, 0.003639375, -7.862282E-06, 0.0002593961
 142911146, -5.723825E-05, 0.003730475, 5.995855E-05, 0.0002593961
 143011106, -7.455694E-06, 0.003625323, 6.393021E-06, 0.0002593961
 143111066, -0.0001499996, 0.003586285, 7.833802E-05, 0.0002593961
 143211026, -3.544696E-05, 0.003526968, -8.231923E-05, 0.0002593961
 143310986, -0.0001098962, 0.003573648, 2.283732E-05, 0.0002593961
 143410946, -0.0001579689, 0.00361549, -1.951629E-05, 0.0002593961
 143510906, -0.0001810028, 0.003583731, -0.0001383502, 0.0002593961
 143610866, -9.35127E-05, 0.003488767, 0.000233776, 0.0002593961
 143710826, -0.0001320365, 0.003681816, 3.31889E-05, 0.0002593961
 143810786, 2.040338E-05, 0.003584876, -8.538645E-05, 0.0002593961
 143911579, -4.594761E-05, 0.003646222, 1.315028E-05, 0.0002615578
 144011539, -5.473827E-05, 0.003826155, -0.0001150994, 0.0002593961
 144111499, -0.0002415842, 0.003528332, -1.568165E-06, 0.0002593961
 144216457, -0.0001530605, 0.003730355, 0.0001242963, 0.000272366
 144316417, -0.0001148667, 0.003456225, -2.218431E-05, 0.0002593961
 144416377, 4.533291E-06, 0.003506844, 9.631117E-05, 0.0002593961
 144516337, -0.0001256651, 0.003617853, 9.559503E-05, 0.0002593961
 144616297, -0.0001071631, 0.003632608, 7.48931E-06, 0.0002593961
 144716257, -0.0001514665, 0.003742048, 9.905786E-05, 0.0002593961
 144816217, -1.890741E-05, 0.003504636, 0.0001305761, 0.0002593961
 144916177, 0.0001611225, 0.003583598, 6.228696E-05, 0.0002593961
 145016137, -0.0001964235, 0.003759132, 0.0002012866, 0.0002593961
 145116097, -6.709112E-05, 0.003706596, 0.000106882, 0.0002593961
 145216057, -0.0001930072, 0.003624083, -0.06442033, 0.0002593961
 145316017, 0.0006316857, 0.004077544, -0.3993026, 0.0002593961
 145415977, 0.0002701892, 0.004015215, -0.2220495, 0.0002593961
 145515937, 0.0001009856, 0.00373094, -0.2806609, 0.0002593961
 145615897, -0.0002934692, 0.003383658, -0.7765658, 0.0002593961
 145715857, -0.001365055, 0.002580007, -0.7929128, 0.0002593961
 145815817, -0.002513146, 0.001843135, -0.5965008, 0.0002593961
 145915777, -0.003190176, 0.00124985, -0.4213849, 0.0002593961
 146016570, -0.003838465, 0.0006519775, -0.3438399, 0.0002615578
 146116530, -0.003399167, 0.0006370638, -0.3268298, 0.0002593961
 146221488, -0.003413726, 0.0005581631, -0.3471305, 0.000272366
 146321448, -0.003209796, 0.0008150261, -0.3229151, 0.0002593961
 146421408, -0.003112337, 0.0008550974, -0.3018835, 0.0002593961
 146521368, -0.002783824, 0.001154952, -0.2746864, 0.0002593961
 146621328, -0.002727143, 0.001102479, -0.2487186, 0.0002593961
 146721288, -0.002657359, 0.001262798, -0.2260829, 0.0002593961
 146821248, -0.002368171, 0.001277579, -0.2067352, 0.0002593961
 146921208, -0.00228521, 0.001438907, -0.189233, 0.0002593961
 147021168, -0.002298237, 0.001593529, -0.1728476, 0.0002593961
 147121128, -0.0021513, 0.001678421, -0.1575054, 0.0002593961
 147221088, -0.00226672, 0.001803242, -0.1428661, 0.0002593961
 147321048, -0.002089739, 0.002134533, -0.1294364, 0.0002593961
 147421008, -0.001771357, 0.002250201, -0.1172241, 0.0002593961
 147520968, -0.001612748, 0.002400193, -0.02184141, 0.0002593961
 147620928, -0.001378271, 0.002757518, 0.36914, 0.0002593961
 147720888, -0.001364131, 0.002628904, 0.3328892, 0.0002593961
 147820848, -0.001055472, 0.002720277, 0.3042051, 0.0002593961
 147920808, -0.0009464345, 0.002640846, 0.2799089, 0.0002593961
 148020768, -0.0009223755, 0.002906183, 0.2587467, 0.0002593961
 148121561, -0.001085681, 0.002829847, 0.5742734, 0.0002615578
 148221521, -0.001417024, 0.002477584, 0.971928, 0.0002593961
 148326479, 8.977453E-05, 0.003445649, 0.8598266, 0.000272366
 148426439, 0.00450837, 0.005781959, 0.6538805, 0.0002593961
 148526399, 0.01207148, 0.009720132, 0.5225808, 0.0002593961
 148626359, 0.02220504, 0.01451828, 0.4209949, 0.0002593961
 148726319, 0.03336722, 0.01963389, 0.3431405, 0.0002593961
 148826279, 0.04496113, 0.02502988, 0.277414, 0.0002593961
 148926239, 0.05672743, 0.03016704, 0.2186733, 0.0002593961
 149026199, 0.0685099, 0.03526278, 0.1655543, 0.0002593961
 149126159, 0.08001015, 0.04001363, 0.1193742, 0.0002593961
 149226119, 0.09036832, 0.0448563, 0.07920744, 0.0002593961
 149326079, 0.1000329, 0.04899088, 0.04537295, 0.0002593961
 149426039, 0.1083973, 0.05204359, 0.01720023, 0.0002593961
 149525999, 0.1158879, 0.05478721, -0.005625753, 0.0002593961
 149625959, 0.1224082, 0.0569828, -0.02356579, 0.0002593961
 149725919, 0.1280862, 0.05905253, -0.03780941, 0.0002593961
 149825879, 0.1336198, 0.06104257, -0.04830271, 0.0002593961
 149925839, 0.139491, 0.06328471, -0.05628274, 0.0002593961
 150025799, 0.1453259, 0.06529572, -0.06205907, 0.0002593961
 150126592, 0.1516902, 0.06743066, -0.06629889, 0.0002593961
 150226552, 0.1585338, 0.07048659, -0.0696293, 0.0002615578
 150326512, 0.1642024, 0.0737642, -0.07175354, 0.0002593961
 150431470, 0.1788421, 0.08200648, -0.07727161, 0.000272366
 150531430, 0.1755747, 0.08246731, -0.07585814, 0.0002593961
 150631390, 0.180559, 0.08586857, -0.07724775, 0.0002593961
 150731350, 0.18691, 0.08863866, -0.07923492, 0.0002593961
 150831310, 0.1914107, 0.0899702, -0.08071888, 0.0002593961
 150931270, 0.1926785, 0.09052077, -0.0816177, 0.0002593961
 151031230, 0.1910659, 0.08907863, -0.08137983, 0.0002593961
 151131190, 0.1875067, 0.08674999, -0.08060657, 0.0002593961
 151231150, 0.1811346, 0.08282326, -0.0783001, 0.0002593961
 151331110, 0.1732239, 0.07797274, -0.0751091, 0.0002593961
 151431070, 0.164229, 0.07231545, -0.07161413, 0.0002593961
 151531030, 0.1554994, 0.06673043, -0.06757703, 0.0002593961
 151630990, 0.1464866, 0.06252173, -0.06328477, 0.0002593961
 151730950, 0.1388515, 0.05919888, -0.05944176, 0.0002593961
 151830910, 0.1302473, 0.05675068, -0.05541137, 0.0002593961
 151930870, 0.1222287, 0.05527377, -0.05170029, 0.0002593961
 152030830, 0.1140452, 0.05456949, -0.04799866, 0.0002593961
 152130790, 0.106113, 0.05457589, -0.0446327, 0.0002593961
 152231583, 0.09953839, 0.05489541, -0.04123742, 0.0002615578
 152331543, 0.09265061, 0.05381121, -0.03730588, 0.0002593961
 152431503, 0.08701119, 0.05041293, -0.03431078, 0.0002593961
 152536461, 0.08574931, 0.04659807, -0.03220566, 0.000272366
 152636421, 0.07532339, 0.0382213, -0.02784415, 0.0002593961
 152736381, 0.06815576, 0.03263664, -0.02466537, 0.0002593961
 152836341, 0.06124763, 0.02812225, -0.02138058, 0.0002593961
 152936301, 0.05476763, 0.02436405, -0.01829193, 0.0002593961
 153036261, 0.04752497, 0.01887977, -0.01555123, 0.0002593961
 153136221, 0.04031183, 0.01206013, -0.01260827, 0.0002593961
 153236181, 0.03317413, 0.006683883, -0.009114528, 0.0002593961
 153336141, 0.02549285, 0.002861916, -0.006424874, 0.0002593961
 153436101, 0.01804256, 0.0006507177, -0.003140284, 0.0002593961
 153536061, 0.01023002, -0.0006218307, -3.764193E-05, 0.0002593961
 153636021, 0.003031632, -0.001816652, 0.002884317, 0.0002593961
 153735981, -0.001018948, -0.002346547, 0.004693554, 0.0002593961
 153835941, -0.001278441, -0.0009646942, 0.005945502, 0.0002593961
 153935901, 2.848559E-05, 0.001143119, 0.007209008, 0.0002593961
 154035861, 0.002101411, 0.003041648, 0.008512116, 0.0002593961
 154135821, 0.004581624, 0.003006071, 0.0105457, 0.0002593961
 154235781, 0.006066013, -0.0004924936, 0.01265735, 0.0002593961
 154336574, 0.01535497, -0.003328134, -0.03141551, 0.0002615578
 154436534, 0.01004343, -0.01057731, -0.005092811, 0.0002593961
 154541492, 0.008181348, -0.01704586, 0.0169071, 0.000272366
 154641452, 0.008240526, -0.01975063, 0.0291494, 0.0002593961
 154741412, 0.008999586, -0.0226074, 0.03821464, 0.0002593961
 154841372, 0.009857691, -0.02555136, 0.044445, 0.0002593961
 154941332, 0.01107289, -0.02880368, 0.04851188, 0.0002593961
 155041292, 0.01238762, -0.03144616, 0.05154074, 0.0002593961
 155141252, 0.01398673, -0.03409212, 0.05397477, 0.0002593961
 155241212, 0.0154674, -0.03610443, 0.05566776, 0.0002593961
 155341172, 0.01695348, -0.03789035, 0.05718527, 0.0002593961
 155441132, 0.01765992, -0.04173191, 0.05841282, 0.0002593961
 155541092, 0.01839748, -0.04691894, 0.06007984, 0.0002593961
 155641052, 0.01972417, -0.05168429, 0.0616341, 0.0002593961
 155741012, 0.02101468, -0.05654616, 0.06375971, 0.0002593961
 155840972, 0.02227106, -0.06067602, 0.06589284, 0.0002593961
 155940932, 0.02329622, -0.06441157, 0.06832219, 0.0002593961
 156040892, 0.02380192, -0.06957033, 0.07109956, 0.0002593961
 156140852, 0.02476762, -0.07528172, 0.07390153, 0.0002593961
 156240812, 0.0258605, -0.08086956, 0.07728247, 0.0002593961
 156340772, 0.02729684, -0.08548155, 0.08028223, 0.0002593961
 156441565, 0.02956815, -0.08975287, 0.08356111, 0.0002615578
 156541525, 0.03225404, -0.09106697, 0.08402713, 0.0002593961
 156646483, 0.03707481, -0.09666451, 0.08888866, 0.000272366
 156746443, 0.0390678, -0.09271041, 0.08402675, 0.0002593961
 156846403, 0.04431615, -0.0916354, 0.08173772, 0.0002593961
 156946363, 0.05218314, -0.08839982, 0.07887551, 0.0002593961
 157046323, 0.06163364, -0.08418178, 0.07526693, 0.0002593961
 157146283, 0.07094087, -0.0796291, 0.07084719, 0.0002593961
 157246243, 0.07996657, -0.07467866, 0.06643166, 0.0002593961
 157346203, 0.08831117, -0.07007443, 0.06193084, 0.0002593961
 157446163, 0.09708056, -0.06502497, 0.05772428, 0.0002593961
 157546123, 0.1056564, -0.05976242, 0.05316661, 0.0002593961
 157646083, 0.1151684, -0.05482797, 0.04932012, 0.0002593961
 157746043, 0.1236839, -0.04985231, 0.04513215, 0.0002593961
 157846003, 0.1322865, -0.04468171, 0.04114809, 0.0002593961
 157945963, 0.1404121, -0.04013466, 0.03718188, 0.0002593961
 158045923, 0.1458099, -0.03737913, 0.03278878, 0.0002593961
 158145883, 0.1481359, -0.03560368, 0.02843004, 0.0002593961
 158245843, 0.1473638, -0.0344352, 0.02443971, 0.0002593961
 158345803, 0.1450756, -0.03267697, 0.02082911, 0.0002593961
 158445763, 0.1424715, -0.03052213, 0.01751521, 0.0002593961
 158546556, 0.1407867, -0.02827726, 0.01441878, 0.0002615578
 158646516, 0.1371102, -0.02456423, 0.01135572, 0.0002593961
 158751474, 0.1414848, -0.02199399, 0.008072685, 0.000272366
 158851434, 0.1298156, -0.016074, 0.003671543, 0.0002593961
 158951394, 0.1235195, -0.01054746, 0.0004683421, 0.0002593961
 159051354, 0.1167424, -0.00522506, -0.002973837, 0.0002593961
 159151314, 0.1099229, -0.0003389495, -0.005463973, 0.0002593961
 159251274, 0.1025352, 0.003153558, -0.007059624, 0.0002593961
 159351234, 0.09524001, 0.005467336, -0.007548284, 0.0002593961
 159451194, 0.0884126, 0.006646886, -0.007804208, 0.0002593961
 159551154, 0.0816066, 0.007372369, -0.007507818, 0.0002593961
 159651114, 0.07513169, 0.00785985, -0.007074648, 0.0002593961
 159751074, 0.06943878, 0.008089606, -0.006716116, 0.0002593961
 159851034, 0.06332371, 0.007870651, -0.005813837, 0.0002593961
 159950994, 0.05699137, 0.007324152, -0.00529546, 0.0002593961
 160050954, 0.05065213, 0.006701542, -0.005283284, 0.0002593961
 160150914, 0.0426764, 0.005960815, -0.004908701, 0.0002593961
 160250874, 0.03495731, 0.005836302, -0.004394518, 0.0002593961
 160350834, 0.02816662, 0.005354059, -0.003733313, 0.0002593961
 160450794, 0.01981645, 0.005424733, -0.003618778, 0.0002593961
 160551587, 0.01234744, 0.005609327, -0.002763117, 0.0002615578
 160651547, 0.006973751, 0.005679261, -0.001980816, 0.0002593961
 160751507, 0.005185488, 0.005546469, -0.0004422468, 0.0002593961
 160856465, 0.006258648, 0.005873919, -0.0004273409, 0.000272366
 160956425, 0.006214445, 0.005613062, -0.000412889, 0.0002593961
 161056385, 0.00553818, 0.005475517, -0.0008398746, 0.0002593961
 161156345, 0.004940689, 0.005404501, -0.0003216076, 0.0002593961
 161256305, 0.004549522, 0.005104974, -0.0007029747, 0.0002593961
 161356265, 0.004052203, 0.004892765, -0.0003374812, 0.0002593961
 161456225, 0.003469885, 0.004919336, -0.0006906738, 0.0002593961
 161556185, 0.002382553, 0.004451978, -0.0005948381, 0.0002593961
 161656145, 0.001010861, 0.00504746, 1.978085E-06, 0.0002593961
 161756105, 0.0004072506, 0.00518787, -0.0003082973, 0.0002593961
 161856065, -0.0002124035, 0.005269693, -0.0001229879, 0.0002593961
 161956025, -0.001798304, 0.005691498, -4.863939E-05, 0.0002593961
 162055985, -0.002629622, 0.005504206, 0.0001886161, 0.0002593961
 162155945, -0.002895843, 0.005154029, -5.28017E-05, 0.0002593961
 162255905, -0.004081097, 0.005173528, -0.0005507888, 0.0002593961
 162355865, -0.004475995, 0.004978237, -0.0005241215, 0.0002593961
 162455825, -0.005101776, 0.004794746, 0.0002261735, 0.0002593961
 162555785, -0.005410526, 0.004923817, 0.000167117, 0.0002593961
 162656578, -0.00583488, 0.004920241, 0.0001808945, 0.0002615578
 162756538, -0.007218731, 0.004849993, 5.611201E-05, 0.0002593961
 162861496, -0.008487938, 0.005299762, -0.0001920122, 0.000272366
 162961456, -0.008451665, 0.004814502, 0.0004589354, 0.0002593961
 163061416, -0.009398648, 0.004773744, 0.0003499812, 0.0002593961
 163161376, -0.009990879, 0.004840862, 0.0006463921, 0.0002593961
 163261336, -0.009973183, 0.004812107, 0.0002084542, 0.0002593961
 163361296, -0.01029712, 0.00470826, 0.0003251896, 0.0002593961
 163461256, -0.01010431, 0.00446377, 0.0002898451, 0.0002593961
 163561216, -0.008983874, 0.004320486, 0.0004881479, 0.0002593961
 163661176, -0.008095846, 0.004673566, 0.0006886575, 0.0002593961
 163761136, -0.007249772, 0.00494068, 0.0008487239, 0.0002593961
 163861096, -0.006752849, 0.005162397, 0.0005624369, 0.0002593961
 163961056, -0.006078675, 0.005344026, 0.0003099226, 0.0002593961
 164061016, -0.006876074, 0.005015905, 0.0002448628, 0.0002593961
 164160976, -0.007746189, 0.004512941, 9.209762E-05, 0.0002593961
 164260936, -0.008068376, 0.004158373, 0.0002868184, 0.0002593961
 164360896, -0.008608668, 0.003886717, 0.0002422734, 0.0002593961
 164460856, -0.00787547, 0.003975258, 0.0008186867, 0.0002593961
 164560816, -0.006491208, 0.003819566, 0.0005960154, 0.0002593961
 164660776, -0.005371921, 0.003850758, 0.0006027897, 0.0002593961
 164761569, -0.004440208, 0.003643482, 0.0007258913, 0.0002615578
 164861529, -0.003999436, 0.003489489, 0.000528042, 0.0002593961
 164966487, -0.002873968, 0.004026603, 0.0002807709, 0.000272366
 165066447, -0.0012252, 0.003744677, 0.0002664132, 0.0002593961
 165166407, -0.0009458509, 0.003816017, 6.93175E-05, 0.0002593961
 165266367, -0.0007866545, 0.00382184, 7.264093E-05, 0.0002593961
 165366327, -0.0004358058, 0.003418234, 0.0005412283, 0.0002593961
 165466287, -4.19249E-05, 0.003663551, 0.0003599156, 0.0002593961
 165566247, 0.0002057548, 0.004025971, -0.0001562459, 0.0002593961
 165666207, 0.000488821, 0.004037394, 5.807817E-05, 0.0002593961
 165766167, 0.000747622, 0.003767391, 7.192475E-05, 0.0002593961
 165866127, 0.0006910645, 0.003612206, 0.0001693013, 0.0002593961
 165966087, 0.001430992, 0.003537661, -0.0001802665, 0.0002593961
 166066047, 0.001129506, 0.00330968, 6.12717E-05, 0.0002593961
 166166007, -9.944328E-06, 0.002927225, -6.099047E-05, 0.0002593961
 166265967, -0.0009638055, 0.002716077, 6.808892E-06, 0.0002593961
 166365927, -0.002449675, 0.002447504, 0.0002149723, 0.0002593961
 166465887, -0.003569775, 0.002116673, 4.244418E-05, 0.0002593961
 166565847, -0.003812667, 0.001937469, 0.0003756569, 0.0002593961
 166665807, -0.003855043, 0.002314776, 0.0003160987, 0.0002593961
 166765767, -0.004217439, 0.002484059, 0.000593886, 0.0002593961
 166866560, -0.004905888, 0.002635415, 0.0005198246, 0.0002615578
 166966520, -0.005978239, 0.002743084, 0.0006640531, 0.0002593961
 167071478, -0.005919309, 0.003168269, 0.001110573, 0.000272366
 167171438, -0.004972498, 0.002949296, 0.0004977904, 0.0002593961
 167271398, -0.00566465, 0.003359797, 0.0002357398, 0.0002593961
 167371358, -0.005456212, 0.003649381, 0.0004181738, 0.0002593961
 167471318, -0.005303834, 0.003814242, 0.0003455675, 0.0002593961
 167571278, -0.004940967, 0.004065902, 0.0003823026, 0.0002593961
 167671238, -0.00490045, 0.004143658, 0.0003896048, 0.0002593961
 167771198, -0.00480862, 0.004059543, 0.0003731701, 0.0002593961
 167871158, -0.004459779, 0.00418219, 0.0004312541, 0.0002593961
 167971118, -0.004692559, 0.004271078, 0.0003544974, 0.0002593961
 168071078, -0.004409048, 0.004201747, 0.0004655417, 0.0002593961
 168171038, -0.00495424, 0.003974816, 0.0004796708, 0.0002593961
 168270998, -0.004684962, 0.003542107, 0.0005068479, 0.0002593961
 168370958, -0.004079456, 0.003318987, 0.0005060305, 0.0002593961
 168470918, -0.004437218, 0.002982463, 0.0002001605, 0.0002593961
 168570878, -0.004552268, 0.00263481, 0.0004544359, 0.0002593961
 168670838, -0.004177346, 0.00262959, 0.0005263653, 0.0002593961
 168770798, -0.003926354, 0.002648457, 0.0003735991, 0.0002593961
 168871591, -0.00434977, 0.0029476, 0.0002233732, 0.0002615578
 168971551, -0.005214942, 0.003280186, 0.0004650126, 0.0002593961
 169071511, -0.004972639, 0.003617768, 0.0006757535, 0.0002593961
