TimeUS,COFN,COFE,COFD,CNe,CEe,CDe,POFN,POFE,POFD,PNe,PEe,PDe
 77860510, 0.04070371, 0.007641287, 0.01961315, 0.08657184, 0.06929202, 0.0001453417, 0, 0, 0, 0, 0, 0
 77940478, -0.05683256, 0.0140078, 0.0001096258, 0.08716951, 0.06731252, 1.000015, 0.04070371, 0.007641287, 0.01961315, 0.08657184, 0.06929202, 0.0001453417
 78040438, 0.008603501, -0.009321663, -3.124934E-05, 0.08766009, 0.06710923, 1.000014, -0.05683256, 0.0140078, 0.0001096258, 0.08716951, 0.06731252, 1.000015
 78140398, 0.04518336, 0.04681512, 3.813909E-05, 0.08805332, 0.0677004, 1.000015, 0.008603501, -0.009321663, -3.124934E-05, 0.08766009, 0.06710923, 1.000014
 78240358, -0.06853583, -0.02416931, 4.896197E-05, 0.08709952, 0.06698494, 1.000015, 0.04518336, 0.04681512, 3.813909E-05, 0.08805332, 0.0677004, 1.000015
 78340318, -0.03589419, 0.07585073, 0.0002061855, 0.08733489, 0.06804089, 1.000017, -0.06853583, -0.02416931, 4.896197E-05, 0.08709952, 0.06698494, 1.000015
 78440278, -0.07176147, 0.04138991, 0.0001876311, 0.08712166, 0.06757542, 1.000016, -0.03589419, 0.07585073, 0.0002061855, 0.08733489, 0.06804089, 1.000017
 78540238, -0.06272553, -0.02647128, 3.61486E-05, 0.08713445, 0.06696139, 1.000015, -0.07176147, 0.04138991, 0.0001876311, 0.08712166, 0.06757542, 1.000016
 78640198, 0.001908272, -0.02649871, -5.703852E-05, 0.08760893, 0.06695793, 1.000014, -0.06272553, -0.02647128, 3.61486E-05, 0.08713445, 0.06696139, 1.000015
 78740158, 0.02833534, -0.04990973, -0.0001357209, 0.08789469, 0.06678692, 1.000013, 0.001908272, -0.02649871, -5.703852E-05, 0.08760893, 0.06695793, 1.000014
 78840951, -0.02496486, -0.01258858, 1.027429E-05, 0.08738314, 0.06706403, 1.000014, 0.02833534, -0.04990973, -0.0001357209, 0.08789469, 0.06678692, 1.000013
 78940911, -0.07646298, -0.02074014, 6.791876E-05, 0.08707514, 0.06699537, 1.000015, -0.02496486, -0.01258858, 1.027429E-05, 0.08738314, 0.06706403, 1.000014
 79040871, -0.03864503, 0.03476489, 0.0001268589, 0.08729669, 0.06752083, 1.000015, -0.07646298, -0.02074014, 6.791876E-05, 0.08707514, 0.06699537, 1.000015
 79140831, 0.007360768, 0.02074472, 3.18204E-05, 0.08765341, 0.06738601, 1.000015, -0.03864503, 0.03476489, 0.0001268589, 0.08729669, 0.06752083, 1.000015
 79240791, -0.02373302, -0.01870341, -4.078745E-06, 0.08738238, 0.06702748, 1.000014, 0.007360768, 0.02074472, 3.18204E-05, 0.08765341, 0.06738601, 1.000015
 79340751, 0.03596651, 0.01662709, -1.803989E-05, 0.08795466, 0.06735554, 1.000013, -0.02373302, -0.01870341, -4.078745E-06, 0.08738238, 0.06702748, 1.000014
 79440711, 0.004623065, 0.006683685, 6.860503E-06, 0.08763203, 0.06726319, 1.000013, 0.03596651, 0.01662709, -1.803989E-05, 0.08795466, 0.06735554, 1.000013
 79540671, -0.04352171, -0.008109948, 4.620576E-05, 0.08724766, 0.06712696, 1.000013, 0.004623065, 0.006683685, 6.860503E-06, 0.08763203, 0.06726319, 1.000013
 79640631, 0.02481294, -0.03886491, -0.0001141824, 0.08783995, 0.06688868, 1.000012, -0.04352171, -0.008109948, 4.620576E-05, 0.08724766, 0.06712696, 1.000013
 79740591, -0.06170124, -0.04877313, -1.005059E-05, 0.08713081, 0.06685128, 1.000013, 0.02481294, -0.03886491, -0.0001141824, 0.08783995, 0.06688868, 1.000012
 79840551, -0.01028002, 0.0759974, 0.0001678954, 0.08751339, 0.06808671, 1.000015, -0.06170124, -0.04877313, -1.005059E-05, 0.08713081, 0.06685128, 1.000013
 79940511, -0.06922429, -0.02685564, 4.473698E-05, 0.08709087, 0.0669873, 1.000014, -0.01028002, 0.0759974, 0.0001678954, 0.08751339, 0.06808671, 1.000015
 80040471, -0.0398316, 0.0528047, 0.0001632925, 0.08728484, 0.06776061, 1.000015, -0.06922429, -0.02685564, 4.473698E-05, 0.08709087, 0.0669873, 1.000014
 80140431, 0.00848608, 0.01332141, 1.485141E-05, 0.08764553, 0.06733418, 1.000015, -0.0398316, 0.0528047, 0.0001632925, 0.08728484, 0.06776061, 1.000015
 80240391, 0.04915497, 0.05397099, 3.953205E-05, 0.08808338, 0.0678065, 1.000015, 0.00848608, 0.01332141, 1.485141E-05, 0.08764553, 0.06733418, 1.000015
 80340351, -0.04411404, 0.007198099, 7.679423E-05, 0.0872207, 0.06726617, 1.000016, 0.04915497, 0.05397099, 3.953205E-05, 0.08808338, 0.0678065, 1.000015
 80440311, -0.005208531, -0.06433655, -0.0001223458, 0.08752222, 0.06676099, 1.000014, -0.04411404, 0.007198099, 7.679423E-05, 0.0872207, 0.06726617, 1.000016
 80540271, 0.01289577, 0.06427804, 0.0001112255, 0.0876865, 0.06794202, 1.000016, -0.005208531, -0.06433655, -0.0001223458, 0.08752222, 0.06676099, 1.000014
 80640231, -0.0694302, -0.01980217, 5.774567E-05, 0.08706783, 0.06704345, 1.000015, 0.01289577, 0.06427804, 0.0001112255, 0.0876865, 0.06794202, 1.000016
 80740191, -0.05096368, -0.01885316, 3.366809E-05, 0.08716419, 0.06705695, 1.000015, -0.0694302, -0.01980217, 5.774567E-05, 0.08706783, 0.06704345, 1.000015
 80840151, 0.01108792, -0.04233816, -0.0001004937, 0.08766337, 0.06688848, 1.000014, -0.05096368, -0.01885316, 3.366809E-05, 0.08716419, 0.06705695, 1.000015
 80940944, -0.03617201, -0.03234847, -1.397119E-05, 0.08726005, 0.06696713, 1.000014, 0.01108792, -0.04233816, -0.0001004937, 0.08766337, 0.06688848, 1.000014
 81040904, 0.00901063, -0.05316377, -0.0001191292, 0.08765185, 0.06682806, 1.000013, -0.03617201, -0.03234847, -1.397119E-05, 0.08726005, 0.06696713, 1.000014
 81140864, 0.07273062, -0.01971788, -0.000141981, 0.08840339, 0.06703071, 1.000012, 0.00901063, -0.05316377, -0.0001191292, 0.08765185, 0.06682806, 1.000013
 81240824, -0.03331163, -0.06736086, -8.764074E-05, 0.08729268, 0.0667759, 1.000013, 0.07273062, -0.01971788, -0.000141981, 0.08840339, 0.06703071, 1.000012
 81340784, -0.06514772, -0.04747936, -2.555345E-06, 0.08709314, 0.06688371, 1.000013, -0.03331163, -0.06736086, -8.764074E-05, 0.08729268, 0.0667759, 1.000013
 81440744, -0.07624727, -0.04228312, 2.392747E-05, 0.0870444, 0.06691474, 1.000013, -0.06514772, -0.04747936, -2.555345E-06, 0.08709314, 0.06688371, 1.000013
 81540704, -0.04222459, 0.08160278, 0.0002228764, 0.08728935, 0.06816471, 1.000015, -0.07624727, -0.04228312, 2.392747E-05, 0.0870444, 0.06691474, 1.000013
 81640664, -0.02148974, -0.05647404, -8.196597E-05, 0.08739628, 0.06683041, 1.000011, -0.04222459, 0.08160278, 0.0002228764, 0.08728935, 0.06816471, 1.000015
 81740624, 0.03185916, 0.05685659, 6.767998E-05, 0.08790078, 0.06787232, 1.000012, -0.02148974, -0.05647404, -8.196597E-05, 0.08739628, 0.06683041, 1.000011
 81840584, -0.04622187, 0.02802555, 0.0001221909, 0.0872386, 0.06750167, 1.000012, 0.03185916, 0.05685659, 6.767998E-05, 0.08790078, 0.06787232, 1.000012
 81940544, -0.0626701, 0.01053645, 0.0001109788, 0.08714049, 0.06732024, 1.000012, -0.04622187, 0.02802555, 0.0001221909, 0.0872386, 0.06750167, 1.000012
 82040504, -0.04730796, -0.04958287, -3.07795E-05, 0.0872159, 0.06687728, 1.000011, -0.0626701, 0.01053645, 0.0001109788, 0.08714049, 0.06732024, 1.000012
 82140464, 0.02054862, 0.03421313, 3.86332E-05, 0.08778424, 0.06759057, 1.000011, -0.04730796, -0.04958287, -3.07795E-05, 0.0872159, 0.06687728, 1.000011
 82240424, 0.05971221, -0.06622524, -0.0002184172, 0.08829028, 0.06672972, 1.000009, 0.02054862, 0.03421313, 3.86332E-05, 0.08778424, 0.06759057, 1.000011
 82340384, 0.05384671, 0.06687814, 5.609964E-05, 0.08816577, 0.06800757, 1.000012, 0.05971221, -0.06622524, -0.0002184172, 0.08829028, 0.06672972, 1.000009
 82440344, -0.03201066, -0.01016352, 2.575532E-05, 0.08732163, 0.06713831, 1.000012, 0.05384671, 0.06687814, 5.609964E-05, 0.08816577, 0.06800757, 1.000012
 82540304, -0.01732938, -0.01413809, -3.397538E-06, 0.08743034, 0.0671064, 1.000012, -0.03201066, -0.01016352, 2.575532E-05, 0.08732163, 0.06713831, 1.000012
 82640264, 0.07261281, 0.04449285, -1.513077E-05, 0.08840182, 0.06770646, 1.000012, -0.01732938, -0.01413809, -3.397538E-06, 0.08743034, 0.0671064, 1.000012
 82740224, -0.02846477, 0.01016841, 6.13632E-05, 0.08734852, 0.06731571, 1.000013, 0.07261281, 0.04449285, -1.513077E-05, 0.08840182, 0.06770646, 1.000012
 82840184, -0.02584877, 0.002172503, 4.161839E-05, 0.087368, 0.06723924, 1.000012, -0.02846477, 0.01016841, 6.13632E-05, 0.08734852, 0.06731571, 1.000013
 82940977, 0.0524924, -0.08008154, -0.000237047, 0.08820545, 0.06665501, 1.00001, -0.02584877, 0.002172503, 4.161839E-05, 0.087368, 0.06723924, 1.000012
 83040937, 0.01379814, -0.06813572, -0.0001574072, 0.08774202, 0.06673718, 1.000011, 0.0524924, -0.08008154, -0.000237047, 0.08820545, 0.06665501, 1.00001
 83140897, 0.05142159, 0.06687304, 6.046831E-05, 0.08814304, 0.06798937, 1.000013, 0.01379814, -0.06813572, -0.0001574072, 0.08774202, 0.06673718, 1.000011
 83240857, 0.03666848, 0.00551723, -4.219078E-05, 0.0879721, 0.06725992, 1.000011, 0.05142159, 0.06687304, 6.046831E-05, 0.08814304, 0.06798937, 1.000013
 83340817, -0.04808878, -0.01739088, 3.485694E-05, 0.08722842, 0.06706136, 1.000012, 0.03666848, 0.00551723, -4.219078E-05, 0.0879721, 0.06725992, 1.000011
 83440777, 0.06586918, -0.06537993, -0.0002283288, 0.08838564, 0.06670516, 1.000009, -0.04808878, -0.01739088, 3.485694E-05, 0.08722842, 0.06706136, 1.000012
 83540737, 0.06099167, 0.004542871, -7.987998E-05, 0.08827729, 0.06723832, 1.000011, 0.06586918, -0.06537993, -0.0002283288, 0.08838564, 0.06670516, 1.000009
 83640697, -0.06439923, 0.03881717, 0.0001731198, 0.0871721, 0.06757278, 1.000013, 0.06099167, 0.004542871, -7.987998E-05, 0.08827729, 0.06723832, 1.000011
 83740657, 0.07453427, 0.04389557, -1.972474E-05, 0.08845389, 0.06766823, 1.000011, -0.06439923, 0.03881717, 0.0001731198, 0.0871721, 0.06757278, 1.000013
 83840617, 0.03527794, -0.05226883, -0.0001586645, 0.08799194, 0.06678411, 1.00001, 0.07453427, 0.04389557, -1.972474E-05, 0.08845389, 0.06766823, 1.000011
 83940577, 0.002147943, -0.006798765, -2.471901E-05, 0.0876302, 0.06712592, 1.000012, 0.03527794, -0.05226883, -0.0001586645, 0.08799194, 0.06678411, 1.00001
 84040537, 0.05242383, 0.02721919, -2.921536E-05, 0.08817726, 0.06745952, 1.000011, 0.002147943, -0.006798765, -2.471901E-05, 0.0876302, 0.06712592, 1.000012
 84140497, -0.07670664, -0.04353022, 2.436028E-05, 0.08709638, 0.06686053, 1.000011, 0.05242383, 0.02721919, -2.921536E-05, 0.08817726, 0.06745952, 1.000011
 84240457, -0.06783915, 0.058168, 0.0002192326, 0.0871888, 0.06778809, 1.000013, -0.07670664, -0.04353022, 2.436028E-05, 0.08709638, 0.06686053, 1.000011
 84340417, 2.810871E-05, 0.0116504, 2.371985E-05, 0.0876143, 0.06730542, 1.000011, -0.06783915, 0.058168, 0.0002192326, 0.0871888, 0.06778809, 1.000013
 84440377, 0.04226608, 0.02458812, -1.205021E-05, 0.0880489, 0.06744419, 1.000011, 2.810871E-05, 0.0116504, 2.371985E-05, 0.0876143, 0.06730542, 1.000011
 84540337, 0.03219776, -0.03682702, -0.0001220324, 0.08794484, 0.06689663, 1.00001, 0.04226608, 0.02458812, -1.205021E-05, 0.0880489, 0.06744419, 1.000011
 84640297, 0.04612178, -0.02437831, -0.0001168045, 0.08809998, 0.06698637, 1.00001, 0.03219776, -0.03682702, -0.0001220324, 0.08794484, 0.06689663, 1.00001
 84740257, -0.0139263, -0.02709637, -3.448105E-05, 0.08747889, 0.06698951, 1.000011, 0.04612178, -0.02437831, -0.0001168045, 0.08809998, 0.06698637, 1.00001
 84840217, -0.03866449, -0.02081428, 2.201064E-05, 0.0872908, 0.06704013, 1.000011, -0.0139263, -0.02709637, -3.448105E-05, 0.08747889, 0.06698951, 1.000011
 84940177, -0.04366579, 0.05413338, 0.0001728937, 0.08728553, 0.06777898, 1.000013, -0.03866449, -0.02081428, 2.201064E-05, 0.0872908, 0.06704013, 1.000011
 85040970, -0.02426277, 0.0748114, 0.0001863716, 0.08742266, 0.06806348, 1.000014, -0.04366579, 0.05413338, 0.0001728937, 0.08728553, 0.06777898, 1.000013
 85140930, -0.05785241, -0.0232077, 3.69141E-05, 0.08716143, 0.06702345, 1.000012, -0.02426277, 0.0748114, 0.0001863716, 0.08742266, 0.06806348, 1.000014
 85240890, -0.05248522, -0.05435771, -3.375982E-05, 0.08718531, 0.06683517, 1.000012, -0.05785241, -0.0232077, 3.69141E-05, 0.08716143, 0.06702345, 1.000012
 85340850, -0.05054867, -0.01585137, 4.072611E-05, 0.08719425, 0.06708344, 1.000013, -0.05248522, -0.05435771, -3.375982E-05, 0.08718531, 0.06683517, 1.000012
 85440810, 0.06897318, 0.03377292, -3.85498E-05, 0.0883479, 0.06757227, 1.000012, -0.05054867, -0.01585137, 4.072611E-05, 0.08719425, 0.06708344, 1.000013
 85540770, -0.01229858, 0.03623299, 8.272957E-05, 0.08746887, 0.06759412, 1.000014, 0.06897318, 0.03377292, -3.85498E-05, 0.0883479, 0.06757227, 1.000012
 85640730, 0.06164239, -0.01915466, -0.0001264306, 0.0882631, 0.06704042, 1.000012, -0.01229858, 0.03623299, 8.272957E-05, 0.08746887, 0.06759412, 1.000014
 85740690, -0.04765557, 0.01439565, 8.939527E-05, 0.08721344, 0.06735122, 1.000014, 0.06164239, -0.01915466, -0.0001264306, 0.0882631, 0.06704042, 1.000012
 85840650, 0.003266361, -0.04674169, -9.846019E-05, 0.08761079, 0.06687066, 1.000012, -0.04765557, 0.01439565, 8.939527E-05, 0.08721344, 0.06735122, 1.000014
 85940610, 0.05264645, -0.04501151, -0.0001655965, 0.08816703, 0.06685848, 1.000011, 0.003266361, -0.04674169, -9.846019E-05, 0.08761079, 0.06687066, 1.000012
 86040570, -0.04174194, 0.06323271, 0.0001862098, 0.08728005, 0.06791636, 1.000014, 0.05264645, -0.04501151, -0.0001655965, 0.08816703, 0.06685848, 1.000011
 86140530, 0.04860642, -0.02198787, -0.0001135011, 0.08809984, 0.06703382, 1.000011, -0.04174194, 0.06323271, 0.0001862098, 0.08728005, 0.06791636, 1.000014
 86240490, -0.0381026, -0.06832232, -8.203665E-05, 0.08726935, 0.0667814, 1.000012, 0.04860642, -0.02198787, -0.0001135011, 0.08809984, 0.06703382, 1.000011
 86340450, 0.00208835, 0.02396101, 4.478712E-05, 0.08758766, 0.06747822, 1.000013, -0.0381026, -0.06832232, -8.203665E-05, 0.08726935, 0.0667814, 1.000012
 86440410, -0.03158272, -0.04750872, -4.948027E-05, 0.08730921, 0.066893, 1.000012, 0.00208835, 0.02396101, 4.478712E-05, 0.08758766, 0.06747822, 1.000013
 86540370, 0.01158311, -0.07101049, -0.0001578314, 0.08769889, 0.06675424, 1.000011, -0.03158272, -0.04750872, -4.948027E-05, 0.08730921, 0.066893, 1.000012
 86640330, -0.07084914, -0.03399795, 3.320835E-05, 0.08706921, 0.06697493, 1.000012, 0.01158311, -0.07101049, -0.0001578314, 0.08769889, 0.06675424, 1.000011
 86740290, 0.06454419, -0.02710376, -0.0001457542, 0.08830061, 0.06699301, 1.000011, -0.07084914, -0.03399795, 3.320835E-05, 0.08706921, 0.06697493, 1.000012
 86840250, 0.01486341, 0.04891053, 8.396475E-05, 0.08770689, 0.06777249, 1.000013, 0.06454419, -0.02710376, -0.0001457542, 0.08830061, 0.06699301, 1.000011
 86940210, -0.07011459, 0.02861266, 0.0001568426, 0.08709782, 0.06749664, 1.000014, 0.01486341, 0.04891053, 8.396475E-05, 0.08770689, 0.06777249, 1.000013
 87040170, -0.04919101, -0.02890689, 1.994165E-05, 0.08718611, 0.06700529, 1.000013, -0.07011459, 0.02861266, 0.0001568426, 0.08709782, 0.06749664, 1.000014
 87140963, 0.06817215, -0.07502478, -0.0002468524, 0.08839051, 0.06668235, 1.00001, -0.04919101, -0.02890689, 1.994165E-05, 0.08718611, 0.06700529, 1.000013
 87240923, 0.01982214, -0.05317799, -0.0001268392, 0.0877703, 0.06683483, 1.000012, 0.06817215, -0.07502478, -0.0002468524, 0.08839051, 0.06668235, 1.00001
 87340883, 0.07595708, 0.03947185, -2.131791E-05, 0.08842951, 0.06765019, 1.000013, 0.01982214, -0.05317799, -0.0001268392, 0.0877703, 0.06683483, 1.000012
 87440843, 0.01268547, 0.004065039, -9.894905E-06, 0.08768049, 0.06726726, 1.000013, 0.07595708, 0.03947185, -2.131791E-05, 0.08842951, 0.06765019, 1.000013
 87540803, -0.05131295, 0.03953395, 0.000152518, 0.08719939, 0.06761713, 1.000015, 0.01268547, 0.004065039, -9.894905E-06, 0.08768049, 0.06726726, 1.000013
 87640763, -0.07251452, -0.04795698, 7.262897E-06, 0.08706182, 0.06687798, 1.000013, -0.05131295, 0.03953395, 0.000152518, 0.08719939, 0.06761713, 1.000015
 87740723, -0.05799593, 0.008991355, 0.0001009399, 0.0871501, 0.06730006, 1.000014, -0.07251452, -0.04795698, 7.262897E-06, 0.08706182, 0.06687798, 1.000013
 87840683, -0.03091183, 0.009759396, 6.382064E-05, 0.08731837, 0.06731741, 1.000013, -0.05799593, 0.008991355, 0.0001009399, 0.0871501, 0.06730006, 1.000014
 87940643, -0.05874564, -0.03760721, 8.774397E-06, 0.08713751, 0.06694196, 1.000012, -0.03091183, 0.009759396, 6.382064E-05, 0.08731837, 0.06731741, 1.000013
 88040603, 0.05697737, 0.00433227, -7.307743E-05, 0.0881961, 0.06726353, 1.000011, -0.05874564, -0.03760721, 8.774397E-06, 0.08713751, 0.06694196, 1.000012
 88140563, -0.06035642, -0.06739614, -5.615105E-05, 0.0871335, 0.06678523, 1.000012, 0.05697737, 0.00433227, -7.307743E-05, 0.0881961, 0.06726353, 1.000011
 88240523, 0.0038639, 0.06133394, 0.0001177106, 0.08762434, 0.06791416, 1.000013, -0.06035642, -0.06739614, -5.615105E-05, 0.0871335, 0.06678523, 1.000012
 88340483, -0.01580431, 0.03504908, 9.343558E-05, 0.08744834, 0.06757807, 1.000013, 0.0038639, 0.06133394, 0.0001177106, 0.08762434, 0.06791416, 1.000013
 88440443, -0.0007302227, -0.02104731, -4.14865E-05, 0.08757418, 0.06704047, 1.000012, -0.01580431, 0.03504908, 9.343558E-05, 0.08744834, 0.06757807, 1.000013
 88540403, -0.03744097, -0.06315871, -7.322572E-05, 0.08729479, 0.06678566, 1.000011, -0.0007302227, -0.02104731, -4.14865E-05, 0.08757418, 0.06704047, 1.000012
 88640363, 0.03460048, -0.05253214, -0.0001569841, 0.08797618, 0.06680869, 1.00001, -0.03744097, -0.06315871, -7.322572E-05, 0.08729479, 0.06678566, 1.000011
 88740323, 0.07602406, 0.0326029, -4.546907E-05, 0.08847412, 0.06754677, 1.00001, 0.03460048, -0.05253214, -0.0001569841, 0.08797618, 0.06680869, 1.00001
 88840283, 0.04215605, -0.07523768, -0.0002147371, 0.08808931, 0.06667749, 1.000009, 0.07602406, 0.0326029, -4.546907E-05, 0.08847412, 0.06754677, 1.00001
 88940243, -0.03734766, 0.06040847, 0.0001781409, 0.08733946, 0.06785087, 1.000013, 0.04215605, -0.07523768, -0.0002147371, 0.08808931, 0.06667749, 1.000009
 89040203, 0.04802446, -0.003124678, -7.719789E-05, 0.08812296, 0.06715914, 1.000011, -0.03734766, 0.06040847, 0.0001781409, 0.08733946, 0.06785087, 1.000013
 89140163, 0.02120724, 0.03857883, 5.529412E-05, 0.08781777, 0.06760034, 1.000012, 0.04802446, -0.003124678, -7.719789E-05, 0.08812296, 0.06715914, 1.000011
 89240956, 0.04975767, 0.03544818, -8.655406E-07, 0.08813775, 0.06756568, 1.000011, 0.02120724, 0.03857883, 5.529412E-05, 0.08781777, 0.06760034, 1.000012
 89340916, -0.03034014, -0.06952062, -9.746884E-05, 0.08736128, 0.06673504, 1.000011, 0.04975767, 0.03544818, -8.655406E-07, 0.08813775, 0.06756568, 1.000011
 89440876, -0.02532938, 0.004010629, 4.521046E-05, 0.08738626, 0.0672354, 1.000013, -0.03034014, -0.06952062, -9.746884E-05, 0.08736128, 0.06673504, 1.000011
 89540836, 0.02791187, -0.03493772, -0.0001117441, 0.08788429, 0.06691797, 1.000011, -0.02532938, 0.004010629, 4.521046E-05, 0.08738626, 0.0672354, 1.000013
 89640796, 0.01312274, 0.07539108, 0.0001337165, 0.08773124, 0.06809526, 1.000013, 0.02791187, -0.03493772, -0.0001117441, 0.08788429, 0.06691797, 1.000011
 89740756, 0.04277445, -0.0676346, -0.0002062782, 0.08807094, 0.06672257, 1.00001, 0.01312274, 0.07539108, 0.0001337165, 0.08773124, 0.06809526, 1.000013
 89840716, 0.06118993, 0.006213643, -8.346084E-05, 0.08825817, 0.06727266, 1.000011, 0.04277445, -0.0676346, -0.0002062782, 0.08807094, 0.06672257, 1.00001
 89940676, -0.06527803, 0.06221623, 0.0002115795, 0.0871615, 0.06787753, 1.000014, 0.06118993, 0.006213643, -8.346084E-05, 0.08825817, 0.06727266, 1.000011
 90040636, 0.02862586, -0.0006311141, -5.009413E-05, 0.08786226, 0.06722373, 1.000012, -0.06527803, 0.06221623, 0.0002115795, 0.0871615, 0.06787753, 1.000014
 90140596, 0.005542086, 0.009690319, 3.82547E-06, 0.08762193, 0.06732723, 1.000012, 0.02862586, -0.0006311141, -5.009413E-05, 0.08786226, 0.06722373, 1.000012
 90240556, 0.01549671, 0.06027692, 9.066753E-05, 0.08772495, 0.06791581, 1.000013, 0.005542086, 0.009690319, 3.82547E-06, 0.08762193, 0.06732723, 1.000012
 90340516, 0.07194085, -0.04053591, -0.0001914099, 0.08841804, 0.06688799, 1.00001, 0.01549671, 0.06027692, 9.066753E-05, 0.08772495, 0.06791581, 1.000013
 90440476, 0.01055454, 0.05049424, 7.786494E-05, 0.08767002, 0.06779514, 1.000013, 0.07194085, -0.04053591, -0.0001914099, 0.08841804, 0.06688799, 1.00001
 90540436, -0.03318358, 0.05065383, 0.000140528, 0.08731501, 0.06777752, 1.000013, 0.01055454, 0.05049424, 7.786494E-05, 0.08767002, 0.06779514, 1.000013
 90640396, -0.06256673, 0.07180562, 0.0002318841, 0.08716498, 0.06802656, 1.000014, -0.03318358, 0.05065383, 0.000140528, 0.08731501, 0.06777752, 1.000013
 90740356, -0.01405327, -0.05511922, -8.943521E-05, 0.08744201, 0.06685507, 1.000011, -0.06256673, 0.07180562, 0.0002318841, 0.08716498, 0.06802656, 1.000014
 90840316, -0.06188675, -0.002689921, 8.26121E-05, 0.08711553, 0.06722023, 1.000013, -0.01405327, -0.05511922, -8.943521E-05, 0.08744201, 0.06685507, 1.000011
 90940276, -0.0102086, 0.02138608, 5.697963E-05, 0.08746909, 0.06746063, 1.000013, -0.06188675, -0.002689921, 8.26121E-05, 0.08711553, 0.06722023, 1.000013
 91040236, 0.0333598, -0.03539385, -0.000117794, 0.08791033, 0.06695599, 1.000011, -0.0102086, 0.02138608, 5.697963E-05, 0.08746909, 0.06746063, 1.000013
 91140196, -0.07599948, -0.04950459, 1.004001E-05, 0.08704203, 0.06689221, 1.000012, 0.0333598, -0.03539385, -0.000117794, 0.08791033, 0.06695599, 1.000011
 91240156, 0.05987535, 0.06898173, 5.133588E-05, 0.08822103, 0.0680614, 1.000012, -0.07599948, -0.04950459, 1.004001E-05, 0.08704203, 0.06689221, 1.000012
 91340949, -0.02182048, 0.06161854, 0.000160891, 0.08740608, 0.06793366, 1.000012, 0.05987535, 0.06898173, 5.133588E-05, 0.08822103, 0.0680614, 1.000012
 91440909, -0.01592449, 0.0629576, 0.0001549547, 0.08745376, 0.06795801, 1.000012, -0.02182048, 0.06161854, 0.000160891, 0.08740608, 0.06793366, 1.000012
 91540869, -0.06756449, 0.04275333, 0.0001889717, 0.08712684, 0.06767652, 1.000012, -0.01592449, 0.0629576, 0.0001549547, 0.08745376, 0.06795801, 1.000012
 91640829, -0.02871127, 0.05317879, 0.0001537886, 0.08735333, 0.06782843, 1.000012, -0.06756449, 0.04275333, 0.0001889717, 0.08712684, 0.06767652, 1.000012
 91740789, 0.04127514, 0.03450876, 9.075993E-06, 0.08799374, 0.06762444, 1.000011, -0.02871127, 0.05317879, 0.0001537886, 0.08735333, 0.06782843, 1.000012
 91840749, -0.04830611, 0.04092034, 0.0001574082, 0.08721677, 0.06767073, 1.000012, 0.04127514, 0.03450876, 9.075993E-06, 0.08799374, 0.06762444, 1.000011
 91940709, -0.06272913, -0.06614155, -3.340714E-05, 0.08710845, 0.06682574, 1.00001, -0.04830611, 0.04092034, 0.0001574082, 0.08721677, 0.06767073, 1.000012
 92040669, -0.03506446, -0.06024029, -6.126519E-05, 0.08728042, 0.06684838, 1.00001, -0.06272913, -0.06614155, -3.340714E-05, 0.08710845, 0.06682574, 1.00001
 92140629, 0.08047046, 0.03342534, -4.870087E-05, 0.08849379, 0.067609, 1.00001, -0.03506446, -0.06024029, -6.126519E-05, 0.08728042, 0.06684838, 1.00001
 92240589, 0.06667365, 0.02953808, -3.671485E-05, 0.08830453, 0.06756593, 1.00001, 0.08047046, 0.03342534, -4.870087E-05, 0.08849379, 0.067609, 1.00001
 92340549, 0.04128515, 0.03892564, 1.810505E-05, 0.08798631, 0.06767709, 1.000011, 0.06667365, 0.02953808, -3.671485E-05, 0.08830453, 0.06756593, 1.00001
 92440509, 0.02768504, -0.01374275, -6.659898E-05, 0.08783771, 0.06713857, 1.000011, 0.04128515, 0.03892564, 1.810505E-05, 0.08798631, 0.06767709, 1.000011
 92540469, -0.01209721, 0.03667989, 8.986094E-05, 0.08746124, 0.06763674, 1.000012, 0.02768504, -0.01374275, -6.659898E-05, 0.08783771, 0.06713857, 1.000011
 92640429, 0.008481179, 0.0182323, 2.402187E-05, 0.08764008, 0.06743814, 1.000011, -0.01209721, 0.03667989, 8.986094E-05, 0.08746124, 0.06763674, 1.000012
 92740389, 0.01823699, -0.008373616, -4.263509E-05, 0.08773791, 0.06718186, 1.000011, 0.008481179, 0.0182323, 2.402187E-05, 0.08764008, 0.06743814, 1.000011
 92840349, -0.06465367, -0.02834518, 3.598649E-05, 0.08709795, 0.0670248, 1.000012, 0.01823699, -0.008373616, -4.263509E-05, 0.08773791, 0.06718186, 1.000011
 92940309, 0.05579604, -0.03199728, -0.000150984, 0.08818814, 0.06697141, 1.00001, -0.06465367, -0.02834518, 3.598649E-05, 0.08709795, 0.0670248, 1.000012
 93040269, 0.009832836, 0.05469364, 9.480106E-05, 0.08766279, 0.06785362, 1.000013, 0.05579604, -0.03199728, -0.000150984, 0.08818814, 0.06697141, 1.00001
 93140229, -0.03398638, -0.03444938, -2.00624E-05, 0.08728614, 0.06697962, 1.000012, 0.009832836, 0.05469364, 9.480106E-05, 0.08766279, 0.06785362, 1.000013
 93240189, 0.01484874, -0.003205111, -2.763956E-05, 0.08770478, 0.06721707, 1.000012, -0.03398638, -0.03444938, -2.00624E-05, 0.08728614, 0.06697962, 1.000012
 93340149, 0.03081886, 0.01367625, -1.685509E-05, 0.08787465, 0.06737725, 1.000012, 0.01484874, -0.003205111, -2.763956E-05, 0.08770478, 0.06721707, 1.000012
 93440942, -0.06617609, -0.02736394, 4.030717E-05, 0.08709758, 0.06701972, 1.000012, 0.03081886, 0.01367625, -1.685509E-05, 0.08787465, 0.06737725, 1.000012
 93540902, 0.04188875, 0.02362236, -1.293812E-05, 0.08800475, 0.0674772, 1.000012, -0.06617609, -0.02736394, 4.030717E-05, 0.08709758, 0.06701972, 1.000012
 93640862, 0.01699116, -0.07252503, -0.0001699704, 0.0877644, 0.06673726, 1.000011, 0.04188875, 0.02362236, -1.293812E-05, 0.08800475, 0.0674772, 1.000012
 93740822, -0.01718345, -0.007512119, 9.684871E-06, 0.08742428, 0.06716838, 1.000012, 0.01699116, -0.07252503, -0.0001699704, 0.0877644, 0.06673726, 1.000011
 93840782, -0.05770847, 0.07357739, 0.0002312094, 0.08720374, 0.06803866, 1.000014, -0.01718345, -0.007512119, 9.684871E-06, 0.08742428, 0.06716838, 1.000012
 93940742, -0.06447193, 0.05119082, 0.0001962536, 0.0871564, 0.06774735, 1.000013, -0.05770847, 0.07357739, 0.0002312094, 0.08720374, 0.06803866, 1.000014
 94040702, -0.0007344041, -0.01936659, -3.789969E-05, 0.08757579, 0.06706829, 1.000011, -0.06447193, 0.05119082, 0.0001962536, 0.0871564, 0.06774735, 1.000013
 94140662, -0.05575155, -0.06711683, -5.422287E-05, 0.0871703, 0.06678427, 1.000011, -0.0007344041, -0.01936659, -3.789969E-05, 0.08757579, 0.06706829, 1.000011
 94240622, -0.04064194, -0.01912267, 2.05297E-05, 0.08726394, 0.06706499, 1.000012, -0.05575155, -0.06711683, -5.422287E-05, 0.0871703, 0.06678427, 1.000011
 94340582, -0.06925794, 0.004688475, 0.0001103362, 0.0871128, 0.06725056, 1.000012, -0.04064194, -0.01912267, 2.05297E-05, 0.08726394, 0.06706499, 1.000012
 94440542, -0.01077783, 0.04349967, 0.0001035835, 0.08750314, 0.06768099, 1.000012, -0.06925794, 0.004688475, 0.0001103362, 0.0871128, 0.06725056, 1.000012
 94540502, 0.008220748, 0.04811473, 8.470627E-05, 0.08767812, 0.06775274, 1.000011, -0.01077783, 0.04349967, 0.0001035835, 0.08750314, 0.06768099, 1.000012
 94640462, 0.03660207, -0.00501588, -6.385036E-05, 0.08797894, 0.06719174, 1.000008, 0.008220748, 0.04811473, 8.470627E-05, 0.08767812, 0.06775274, 1.000011
 94740422, 0.07060362, 0.04653328, -3.035539E-06, 0.08839414, 0.06775285, 1.000009, 0.03660207, -0.00501588, -6.385036E-05, 0.08797894, 0.06719174, 1.000008
 94840382, 0.05407039, -0.06348569, -0.0001981691, 0.08822314, 0.0667671, 1.000007, 0.07060362, 0.04653328, -3.035539E-06, 0.08839414, 0.06775285, 1.000009
 94940342, -0.03755324, 0.02024346, 9.505007E-05, 0.08729946, 0.0674439, 1.00001, 0.05407039, -0.06348569, -0.0001981691, 0.08822314, 0.0667671, 1.000007
 95040302, -0.03046298, 0.01976574, 8.346607E-05, 0.08734127, 0.06744658, 1.00001, -0.03755324, 0.02024346, 9.505007E-05, 0.08729946, 0.0674439, 1.00001
 95140262, -0.05560987, -0.002362511, 7.59314E-05, 0.08717313, 0.06723373, 1.00001, -0.03046298, 0.01976574, 8.346607E-05, 0.08734127, 0.06744658, 1.00001
 95240222, -0.0059571, 0.06568627, 0.0001461565, 0.08754282, 0.06800444, 1.000011, -0.05560987, -0.002362511, 7.59314E-05, 0.08717313, 0.06723373, 1.00001
 95340182, -0.03192378, -0.03909983, -3.109357E-05, 0.08731481, 0.06696948, 1.000009, -0.0059571, 0.06568627, 0.0001461565, 0.08754282, 0.06800444, 1.000011
 95440975, -0.003455295, -0.07005721, -0.0001330222, 0.08755856, 0.06679703, 1.000008, -0.03192378, -0.03909983, -3.109357E-05, 0.08731481, 0.06696948, 1.000009
 95540935, -0.004676649, 0.07295, 0.0001502097, 0.08755109, 0.06811504, 1.000011, -0.003455295, -0.07005721, -0.0001330222, 0.08755856, 0.06679703, 1.000008
 95640895, 0.03855632, -0.03997944, -0.0001338533, 0.08798397, 0.06695084, 1.000008, -0.004676649, 0.07295, 0.0001502097, 0.08755109, 0.06811504, 1.000011
 95740855, 0.07852297, 0.02726084, -5.90975E-05, 0.08847316, 0.06755503, 1.000009, 0.03855632, -0.03997944, -0.0001338533, 0.08798397, 0.06695084, 1.000008
 95840815, 0.02203364, -0.03092137, -9.201601E-05, 0.08778699, 0.06702944, 1.000008, 0.07852297, 0.02726084, -5.90975E-05, 0.08847316, 0.06755503, 1.000009
 95940775, 0.01873039, -0.06188662, -0.000147902, 0.08776396, 0.06683617, 1.000008, 0.02203364, -0.03092137, -9.201601E-05, 0.08778699, 0.06702944, 1.000008
 96040735, -0.05500939, -0.02192333, 3.549379E-05, 0.08714813, 0.06710079, 1.00001, 0.01873039, -0.06188662, -0.000147902, 0.08776396, 0.06683617, 1.000008
 96140695, -0.02830345, 0.02789057, 9.488068E-05, 0.08733096, 0.06755828, 1.000011, -0.05500939, -0.02192333, 3.549379E-05, 0.08714813, 0.06710079, 1.00001
 96240655, -0.02964331, 0.01834233, 7.804227E-05, 0.0873166, 0.06745963, 1.000011, -0.02830345, 0.02789057, 9.488068E-05, 0.08733096, 0.06755828, 1.000011
 96340615, 0.06088076, -0.06690153, -0.0002176282, 0.08827644, 0.06677875, 1.000008, -0.02964331, 0.01834233, 7.804227E-05, 0.0873166, 0.06745963, 1.000011
 96440575, -0.07478276, -0.04437277, 2.720371E-05, 0.08704253, 0.06695299, 1.00001, 0.06088076, -0.06690153, -0.0002176282, 0.08827644, 0.06677875, 1.000008
 96540535, -0.05492483, -0.04862641, -9.677606E-06, 0.08714261, 0.06692731, 1.00001, -0.07478276, -0.04437277, 2.720371E-05, 0.08704253, 0.06695299, 1.00001
 96640495, 0.06296217, -0.005487002, -9.252323E-05, 0.08825771, 0.0672155, 1.00001, -0.05492483, -0.04862641, -9.677606E-06, 0.08714261, 0.06692731, 1.00001
 96740455, -0.04753955, 0.06593119, 0.0001971087, 0.08722558, 0.06798992, 1.000013, 0.06296217, -0.005487002, -9.252323E-05, 0.08825771, 0.0672155, 1.00001
 96840415, 0.02320597, -0.07311304, -0.0001768713, 0.08780766, 0.06676749, 1.00001, -0.04753955, 0.06593119, 0.0001971087, 0.08722558, 0.06798992, 1.000013
 96940375, 0.05479304, -0.06056394, -0.0001892114, 0.08818172, 0.06680787, 1.00001, 0.02320597, -0.07311304, -0.0001768713, 0.08780766, 0.06676749, 1.00001
 97040335, -0.01055929, -0.04376059, -7.116608E-05, 0.0874589, 0.06694342, 1.000011, 0.05479304, -0.06056394, -0.0001892114, 0.08818172, 0.06680787, 1.00001
 97140295, -0.03545342, 0.0418581, 0.0001403168, 0.08728071, 0.06769902, 1.000013, -0.01055929, -0.04376059, -7.116608E-05, 0.0874589, 0.06694342, 1.000011
 97240255, 0.0151804, -0.04877925, -0.0001100304, 0.08770734, 0.06690042, 1.00001, -0.03545342, 0.0418581, 0.0001403168, 0.08728071, 0.06769902, 1.000013
 97340215, -0.0255981, -0.001648532, 3.304889E-05, 0.08733527, 0.06725879, 1.000012, 0.0151804, -0.04877925, -0.0001100304, 0.08770734, 0.06690042, 1.00001
 97440175, 0.02871454, -0.04991975, -0.0001314119, 0.08785667, 0.06688852, 1.00001, -0.0255981, -0.001648532, 3.304889E-05, 0.08733527, 0.06725879, 1.000012
 97540968, 0.02448075, 0.05869119, 8.079746E-05, 0.08779595, 0.06793587, 1.000012, 0.02871454, -0.04991975, -0.0001314119, 0.08785667, 0.06688852, 1.00001
 97640928, 0.0514928, 0.007249715, -5.882931E-05, 0.08810424, 0.06733973, 1.00001, 0.02448075, 0.05869119, 8.079746E-05, 0.08779595, 0.06793587, 1.000012
 97740888, 0.03434191, 0.02611191, 2.651668E-06, 0.08789852, 0.06754105, 1.000011, 0.0514928, 0.007249715, -5.882931E-05, 0.08810424, 0.06733973, 1.00001
 97840848, 0.04224504, 0.01683386, -2.682881E-05, 0.08799022, 0.06743898, 1.000011, 0.03434191, 0.02611191, 2.651668E-06, 0.08789852, 0.06754105, 1.000011
 97940808, 0.03668194, 0.0442986, 3.524904E-05, 0.08792568, 0.06775222, 1.000012, 0.04224504, 0.01683386, -2.682881E-05, 0.08799022, 0.06743898, 1.000011
 98040768, 0.03871072, -0.03447066, -0.0001229727, 0.08796439, 0.0669825, 1.00001, 0.03668194, 0.0442986, 3.524904E-05, 0.08792568, 0.06775222, 1.000012
 98140728, 0.02537294, -0.06878889, -0.0001720201, 0.08783171, 0.0667814, 1.00001, 0.03871072, -0.03447066, -0.0001229727, 0.08796439, 0.0669825, 1.00001
 98240688, 0.0366889, 0.01567196, -2.112865E-05, 0.08792683, 0.06741796, 1.000011, 0.02537294, -0.06878889, -0.0001720201, 0.08783171, 0.0667814, 1.00001
 98340648, -0.06181718, -0.05465576, -2.021423E-05, 0.08710556, 0.06687854, 1.000011, 0.0366889, 0.01567196, -2.112865E-05, 0.08792683, 0.06741796, 1.000011
 98440608, -0.04378073, -0.03535321, -7.61175E-06, 0.08721586, 0.06698661, 1.000011, -0.06181718, -0.05465576, -2.021423E-05, 0.08710556, 0.06687854, 1.000011
 98540568, 0.07099336, 0.04734365, -7.388328E-06, 0.08835952, 0.06777606, 1.000011, -0.04378073, -0.03535321, -7.61175E-06, 0.08721586, 0.06698661, 1.000011
 98640528, -0.03336155, 0.0541157, 0.0001555367, 0.08731449, 0.06782878, 1.000013, 0.07099336, 0.04734365, -7.388328E-06, 0.08835952, 0.06777606, 1.000011
 98740488, -0.01689733, 0.05334605, 0.0001307443, 0.08743181, 0.06782331, 1.000013, -0.03336155, 0.0541157, 0.0001555367, 0.08731449, 0.06782878, 1.000013
 98840448, -0.0001180549, -0.04043387, -8.07726E-05, 0.08756493, 0.06693105, 1.000012, -0.01689733, 0.05334605, 0.0001307443, 0.08743181, 0.06782331, 1.000013
 98940408, -0.01214311, -0.02573849, -3.422128E-05, 0.08745494, 0.06703166, 1.000012, -0.0001180549, -0.04043387, -8.07726E-05, 0.08756493, 0.06693105, 1.000012
 99040368, 0.05803197, -0.03971299, -0.0001629386, 0.08822229, 0.06690067, 1.000011, -0.01214311, -0.02573849, -3.422128E-05, 0.08745494, 0.06703166, 1.000012
 99140328, -0.04447805, 0.06557832, 0.0001955646, 0.08725537, 0.06794983, 1.000015, 0.05803197, -0.03971299, -0.0001629386, 0.08822229, 0.06690067, 1.000011
 99240288, -0.0728493, -0.06485595, -2.604638E-05, 0.08705685, 0.0668029, 1.000013, -0.04447805, 0.06557832, 0.0001955646, 0.08725537, 0.06794983, 1.000015
 99340248, 0.05741591, -0.04830256, -0.000179718, 0.08822119, 0.06683724, 1.000011, -0.0728493, -0.06485595, -2.604638E-05, 0.08705685, 0.0668029, 1.000013
 99440208, 0.03899258, 0.004302327, -4.735984E-05, 0.08796864, 0.06726856, 1.000012, 0.05741591, -0.04830256, -0.000179718, 0.08822119, 0.06683724, 1.000011
 99540168, -0.02627456, 0.02973511, 9.78851E-05, 0.0873591, 0.06752352, 1.000013, 0.03899258, 0.004302327, -4.735984E-05, 0.08796864, 0.06726856, 1.000012
 99640961, 0.02605123, 0.02699138, 1.68695E-05, 0.087828, 0.06750539, 1.000013, -0.02627456, 0.02973511, 9.78851E-05, 0.0873591, 0.06752352, 1.000013
 99740921, -0.01479041, -0.04489027, -7.678651E-05, 0.08743934, 0.06689602, 1.000012, 0.02605123, 0.02699138, 1.68695E-05, 0.087828, 0.06750539, 1.000013
 99840881, -0.07567877, -0.06092997, -1.413702E-05, 0.08704133, 0.06682219, 1.000013, -0.01479041, -0.04489027, -7.678651E-05, 0.08743934, 0.06689602, 1.000012
 99940841, -0.05849047, 0.07427324, 0.0002326323, 0.0871826, 0.06805446, 1.000015, -0.07567877, -0.06092997, -1.413702E-05, 0.08704133, 0.06682219, 1.000013
 100040801, 0.004486522, -0.02834456, -6.321495E-05, 0.08759663, 0.06700955, 1.000013, -0.05849047, 0.07427324, 0.0002326323, 0.0871826, 0.06805446, 1.000015
 100140761, -0.03259594, -0.01879678, 8.733619E-06, 0.08728334, 0.06709004, 1.000013, 0.004486522, -0.02834456, -6.321495E-05, 0.08759663, 0.06700955, 1.000013
 100240721, 0.0679556, 0.05630889, 1.595605E-05, 0.08830658, 0.06788673, 1.000013, -0.03259594, -0.01879678, 8.733619E-06, 0.08728334, 0.06709004, 1.000013
 100340681, 0.06719161, 0.05529768, 1.5305E-05, 0.08829059, 0.06787522, 1.000013, 0.0679556, 0.05630889, 1.595605E-05, 0.08830658, 0.06788673, 1.000013
 100440641, 0.02566522, -0.04675317, -0.0001367464, 0.08780693, 0.06689051, 1.000013, 0.06719161, 0.05529768, 1.5305E-05, 0.08829059, 0.06787522, 1.000013
 100540601, 0.01245025, -0.02433455, -7.349666E-05, 0.08765691, 0.06705345, 1.000013, 0.02566522, -0.04675317, -0.0001367464, 0.08780693, 0.06689051, 1.000013
 100640561, 0.05935415, -0.05524177, -0.0002005538, 0.08822216, 0.06681973, 1.000012, 0.01245025, -0.02433455, -7.349666E-05, 0.08765691, 0.06705345, 1.000013
 100740521, -0.0396296, -0.05589573, -6.316011E-05, 0.08721615, 0.06686535, 1.000014, 0.05935415, -0.05524177, -0.0002005538, 0.08822216, 0.06681973, 1.000012
 100840481, -0.002772992, 0.06155765, 0.0001184429, 0.087517, 0.06794622, 1.000016, -0.0396296, -0.05589573, -6.316011E-05, 0.08721615, 0.06686535, 1.000014
 100940441, 0.07424185, 0.04765888, -1.696294E-05, 0.08837136, 0.0677863, 1.000014, -0.002772992, 0.06155765, 0.0001184429, 0.087517, 0.06794622, 1.000016
 101040401, -0.0058362, -0.01037815, -1.998576E-05, 0.08747204, 0.06717969, 1.000013, 0.07424185, 0.04765888, -1.696294E-05, 0.08837136, 0.0677863, 1.000014
 101140361, -0.04125178, -0.04499826, -3.895284E-05, 0.08719627, 0.06693853, 1.000014, -0.0058362, -0.01037815, -1.998576E-05, 0.08747204, 0.06717969, 1.000013
 101240321, 0.05399034, -0.04469892, -0.0001706099, 0.08813027, 0.06690672, 1.000012, -0.04125178, -0.04499826, -3.895284E-05, 0.08719627, 0.06693853, 1.000014
 101340281, -0.02048026, -0.01819034, -1.485645E-05, 0.0873457, 0.0671284, 1.000013, 0.05399034, -0.04469892, -0.0001706099, 0.08813027, 0.06690672, 1.000012
 101440241, 0.06495576, -0.05662781, -0.0002089491, 0.08828827, 0.06683226, 1.000011, -0.02048026, -0.01819034, -1.485645E-05, 0.0873457, 0.0671284, 1.000013
 101540201, -0.02985018, 0.03204408, 9.65334E-05, 0.08728512, 0.06760549, 1.000014, 0.06495576, -0.05662781, -0.0002089491, 0.08828827, 0.06683226, 1.000011
 101640161, -0.02308322, 0.04607479, 0.0001145045, 0.08733897, 0.06777098, 1.000014, -0.02985018, 0.03204408, 9.65334E-05, 0.08728512, 0.06760549, 1.000014
 101740954, 0.07617699, 0.06708004, 2.53153E-05, 0.08838986, 0.068073, 1.000013, -0.02308322, 0.04607479, 0.0001145045, 0.08733897, 0.06777098, 1.000014
 101840914, 0.03450215, -0.0411732, -0.0001284615, 0.08788817, 0.06695558, 1.000012, 0.07617699, 0.06708004, 2.53153E-05, 0.08838986, 0.068073, 1.000013
 101940874, -0.001708566, 0.001037007, 4.399115E-06, 0.08750127, 0.06730151, 1.000013, 0.03450215, -0.0411732, -0.0001284615, 0.08788817, 0.06695558, 1.000012
 102040834, -0.02911917, 0.05895863, 0.00016324, 0.08730232, 0.06792852, 1.000015, -0.001708566, 0.001037007, 4.399115E-06, 0.08750127, 0.06730151, 1.000013
 102140794, -0.01744305, -0.05866485, -8.282408E-05, 0.08737326, 0.06687652, 1.000012, -0.02911917, 0.05895863, 0.00016324, 0.08730232, 0.06792852, 1.000015
 102240754, -0.03244772, 0.006949585, 6.623739E-05, 0.08725555, 0.06735225, 1.000013, -0.01744305, -0.05866485, -8.282408E-05, 0.08737326, 0.06687652, 1.000012
 102340714, -0.08194432, -0.06098222, 2.301517E-06, 0.08697379, 0.06687431, 1.000013, -0.03244772, 0.006949585, 6.623739E-05, 0.08725555, 0.06735225, 1.000013
 102440674, 0.06896485, -0.05539367, -0.0001968633, 0.08834369, 0.0668394, 1.000011, -0.08194432, -0.06098222, 2.301517E-06, 0.08697379, 0.06687431, 1.000013
 102540634, -0.04901222, 0.03951151, 0.0001533558, 0.08717328, 0.06767945, 1.000014, 0.06896485, -0.05539367, -0.0001968633, 0.08834369, 0.0668394, 1.000011
 102640594, 0.06715897, -0.07555912, -0.0002342173, 0.08834317, 0.06673316, 1.00001, -0.04901222, 0.03951151, 0.0001533558, 0.08717328, 0.06767945, 1.000014
 102740554, -0.001427562, -0.05184742, -9.18158E-05, 0.08752588, 0.06690662, 1.000011, 0.06715897, -0.07555912, -0.0002342173, 0.08834317, 0.06673316, 1.00001
 102840514, -0.03635398, -0.003292884, 5.222788E-05, 0.08724195, 0.06725803, 1.000012, -0.001427562, -0.05184742, -9.18158E-05, 0.08752588, 0.06690662, 1.000011
 102940474, 0.07916924, 0.06698152, 2.75695E-05, 0.08844422, 0.06807239, 1.000012, -0.03635398, -0.003292884, 5.222788E-05, 0.08724195, 0.06725803, 1.000012
 103040434, 0.05506402, -5.852155E-05, -6.985969E-05, 0.08813445, 0.06728153, 1.000011, 0.07916924, 0.06698152, 2.75695E-05, 0.08844422, 0.06807239, 1.000012
 103140394, 0.02178847, -0.01042336, -5.109524E-05, 0.08775216, 0.06719778, 1.000011, 0.05506402, -5.852155E-05, -6.985969E-05, 0.08813445, 0.06728153, 1.000011
 103240354, -0.04719131, 0.04762367, 0.0001674339, 0.08720441, 0.06777735, 1.000012, 0.02178847, -0.01042336, -5.109524E-05, 0.08775216, 0.06719778, 1.000011
 103340314, -0.01166874, 0.02625406, 6.787283E-05, 0.0874403, 0.06755076, 1.000012, -0.04719131, 0.04762367, 0.0001674339, 0.08720441, 0.06777735, 1.000012
 103440274, -0.01336972, 0.03151745, 8.826941E-05, 0.08742745, 0.06760587, 1.000012, -0.01166874, 0.02625406, 6.787283E-05, 0.0874403, 0.06755076, 1.000012
 103540234, 0.08133906, 0.04779169, -2.10344E-05, 0.08848179, 0.0678096, 1.000011, -0.01336972, 0.03151745, 8.826941E-05, 0.08742745, 0.06760587, 1.000012
 103640194, 0.0492143, 0.03087289, -8.858384E-06, 0.08806048, 0.06760395, 1.000011, 0.08133906, 0.04779169, -2.10344E-05, 0.08848179, 0.0678096, 1.000011
 103740154, -0.03890333, -0.01015398, 3.49748E-05, 0.08722995, 0.06719397, 1.000012, 0.0492143, 0.03087289, -8.858384E-06, 0.08806048, 0.06760395, 1.000011
 103840947, 0.06705089, -0.06919621, -0.0002308221, 0.08834632, 0.06675732, 1.00001, -0.03890333, -0.01015398, 3.49748E-05, 0.08722995, 0.06719397, 1.000012
 103940907, 0.07526915, -0.01056, -0.0001270608, 0.08841591, 0.06716118, 1.000011, 0.06705089, -0.06919621, -0.0002308221, 0.08834632, 0.06675732, 1.00001
 104040867, -0.01376335, -0.05152777, -8.248389E-05, 0.08742246, 0.066895, 1.000012, 0.07526915, -0.01056, -0.0001270608, 0.08841591, 0.06716118, 1.000011
 104140827, -0.05820218, 0.0811372, 0.0002430565, 0.08717332, 0.06817796, 1.000015, -0.01376335, -0.05152777, -8.248389E-05, 0.08742246, 0.066895, 1.000012
 104240787, 0.06760117, -0.03775195, -0.0001782437, 0.08832883, 0.0669325, 1.000011, -0.05820218, 0.0811372, 0.0002430565, 0.08717332, 0.06817796, 1.000015
 104340747, -0.01858268, -0.07454427, -0.0001218385, 0.08739717, 0.06677509, 1.000012, 0.06760117, -0.03775195, -0.0001782437, 0.08832883, 0.0669325, 1.000011
 104440707, 0.03614203, 0.03306038, 1.441551E-05, 0.08791544, 0.06760454, 1.000013, -0.01858268, -0.07454427, -0.0001218385, 0.08739717, 0.06677509, 1.000012
 104540667, -0.0331675, 0.04927789, 0.000145665, 0.0873047, 0.06776995, 1.000014, 0.03614203, 0.03306038, 1.441551E-05, 0.08791544, 0.06760454, 1.000013
 104640627, 0.05198161, -0.08035734, -0.0002351374, 0.08817209, 0.06668925, 1.00001, -0.0331675, 0.04927789, 0.000145665, 0.0873047, 0.06776995, 1.000014
 104740587, 0.02149321, -0.05695878, -0.0001448501, 0.08779032, 0.06682611, 1.000011, 0.05198161, -0.08035734, -0.0002351374, 0.08817209, 0.06668925, 1.00001
 104840547, 0.06999011, 0.02208603, -5.622051E-05, 0.08835123, 0.06746413, 1.000011, 0.02149321, -0.05695878, -0.0001448501, 0.08779032, 0.06682611, 1.000011
 104940507, -0.04680414, 0.04279302, 0.0001525747, 0.08722045, 0.06768072, 1.000013, 0.06999011, 0.02208603, -5.622051E-05, 0.08835123, 0.06746413, 1.000011
 105040467, -0.009439001, -0.02791588, -4.221283E-05, 0.08747156, 0.06702882, 1.000012, -0.04680414, 0.04279302, 0.0001525747, 0.08722045, 0.06768072, 1.000013
 105140427, 0.008146836, 0.02604606, 4.01913E-05, 0.08762956, 0.06752329, 1.000012, -0.009439001, -0.02791588, -4.221283E-05, 0.08747156, 0.06702882, 1.000012
 105240387, -0.01457489, 0.008867335, 4.599083E-05, 0.0874249, 0.06734891, 1.000012, 0.008146836, 0.02604606, 4.01913E-05, 0.08762956, 0.06752329, 1.000012
 105340347, -0.008555208, 0.04183539, 9.491714E-05, 0.08747879, 0.06770867, 1.000013, -0.01457489, 0.008867335, 4.599083E-05, 0.0874249, 0.06734891, 1.000012
 105440307, -0.01109627, -0.01609353, -1.604553E-05, 0.08744374, 0.06713978, 1.000012, -0.008555208, 0.04183539, 9.491714E-05, 0.08747879, 0.06770867, 1.000013
 105540267, 0.04791879, -0.05173194, -0.0001695095, 0.08807755, 0.06687071, 1.00001, -0.01109627, -0.01609353, -1.604553E-05, 0.08744374, 0.06713978, 1.000012
 105640227, -0.02540941, 0.05302084, 0.0001475775, 0.08734325, 0.0678494, 1.000013, 0.04791879, -0.05173194, -0.0001695095, 0.08807755, 0.06687071, 1.00001
 105740187, 0.05562276, 0.01333528, -5.191721E-05, 0.08813517, 0.06741153, 1.000011, -0.02540941, 0.05302084, 0.0001475775, 0.08734325, 0.0678494, 1.000013
 105840147, -0.05850555, -0.06644546, -4.829551E-05, 0.0870965, 0.0668487, 1.000012, 0.05562276, 0.01333528, -5.191721E-05, 0.08813517, 0.06741153, 1.000011
 105940940, 0.0006452634, 0.02301103, 4.411782E-05, 0.08753223, 0.06752086, 1.000013, -0.05850555, -0.06644546, -4.829551E-05, 0.0870965, 0.0668487, 1.000012
 106040900, 0.03180003, 0.0411558, 3.601106E-05, 0.08784465, 0.06773397, 1.000013, 0.0006452634, 0.02301103, 4.411782E-05, 0.08753223, 0.06752086, 1.000013
 106140860, -0.01849834, -0.06064998, -9.264886E-05, 0.08736965, 0.06687158, 1.000012, 0.03180003, 0.0411558, 3.601106E-05, 0.08784465, 0.06773397, 1.000013
 106240820, 0.016425, 0.05814083, 9.055715E-05, 0.08768322, 0.0679476, 1.000013, -0.01849834, -0.06064998, -9.264886E-05, 0.08736965, 0.06687158, 1.000012
 106340780, -0.03082529, -0.04020728, -3.558927E-05, 0.08726314, 0.06699244, 1.000012, 0.016425, 0.05814083, 9.055715E-05, 0.08768322, 0.0679476, 1.000013
 106440740, 0.04759098, -0.07172899, -0.0002058501, 0.08806493, 0.06677973, 1.000011, -0.03082529, -0.04020728, -3.558927E-05, 0.08726314, 0.06699244, 1.000012
 106540700, -0.06034428, 0.008554339, 0.0001003671, 0.08708574, 0.06736638, 1.000013, 0.04759098, -0.07172899, -0.0002058501, 0.08806493, 0.06677973, 1.000011
 106640660, -0.02580548, -0.04044716, -4.292953E-05, 0.087299, 0.06699388, 1.000012, -0.06034428, 0.008554339, 0.0001003671, 0.08708574, 0.06736638, 1.000013
 106740620, -0.001584975, -0.02360738, -4.372111E-05, 0.08750466, 0.06710711, 1.000012, -0.02580548, -0.04044716, -4.292953E-05, 0.087299, 0.06699388, 1.000012
 106840580, -0.06736023, 0.04028884, 0.0001723251, 0.08707803, 0.06768842, 1.000013, -0.001584975, -0.02360738, -4.372111E-05, 0.08750466, 0.06710711, 1.000012
 106940540, -0.02728271, 0.03186718, 0.0001000407, 0.0873004, 0.06761488, 1.000013, -0.06736023, 0.04028884, 0.0001723251, 0.08707803, 0.06768842, 1.000013
 107040500, -0.005822938, 0.03259233, 7.934248E-05, 0.08746435, 0.06762764, 1.000014, -0.02728271, 0.03186718, 0.0001000407, 0.0873004, 0.06761488, 1.000013
 107140460, -0.03896137, -0.00820294, 3.796825E-05, 0.08720423, 0.06722088, 1.000013, -0.005822938, 0.03259233, 7.934248E-05, 0.08746435, 0.06762764, 1.000014
 107240420, 0.01580854, -0.05097679, -0.00012159, 0.08767908, 0.06690712, 1.000012, -0.03896137, -0.00820294, 3.796825E-05, 0.08720423, 0.06722088, 1.000013
 107340380, -0.01418181, -0.01319209, 1.444435E-06, 0.08738496, 0.06718101, 1.000013, 0.01580854, -0.05097679, -0.00012159, 0.08767908, 0.06690712, 1.000012
 107440340, 0.03555426, 0.007067949, -3.526142E-05, 0.08787081, 0.06735926, 1.000013, -0.01418181, -0.01319209, 1.444435E-06, 0.08738496, 0.06718101, 1.000013
 107540300, 0.0503103, 0.006644161, -5.646461E-05, 0.08804631, 0.06735544, 1.000013, 0.03555426, 0.007067949, -3.526142E-05, 0.08787081, 0.06735926, 1.000013
 107640260, 0.01328145, -0.006131692, -3.029071E-05, 0.08763378, 0.06724494, 1.000013, 0.0503103, 0.006644161, -5.646461E-05, 0.08804631, 0.06735544, 1.000013
 107740220, -0.06390973, -0.01012465, 6.858928E-05, 0.08705465, 0.06720334, 1.000014, 0.01328145, -0.006131692, -3.029071E-05, 0.08763378, 0.06724494, 1.000013
 107840180, -0.03282718, -0.02138369, 3.73022E-06, 0.08724303, 0.06712138, 1.000013, -0.06390973, -0.01012465, 6.858928E-05, 0.08705465, 0.06720334, 1.000014
 107940973, 0.06536012, -0.01557228, -0.0001211725, 0.088259, 0.06714347, 1.000011, -0.03282718, -0.02138369, 3.73022E-06, 0.08724303, 0.06712138, 1.000013
 108040933, 0.007090336, 0.01781881, 2.492019E-05, 0.08758323, 0.0674727, 1.000013, 0.06536012, -0.01557228, -0.0001211725, 0.088259, 0.06714347, 1.000011
 108140893, 0.03062483, -0.0719688, -0.0001834669, 0.0878588, 0.06678538, 1.000012, 0.007090336, 0.01781881, 2.492019E-05, 0.08758323, 0.0674727, 1.000013
 108240853, 0.01461799, 0.0205465, 2.007696E-05, 0.08765195, 0.06749047, 1.000014, 0.03062483, -0.0719688, -0.0001834669, 0.0878588, 0.06678538, 1.000012
 108340813, 0.07075784, 0.02590485, -4.721259E-05, 0.08831384, 0.06754183, 1.000013, 0.01461799, 0.0205465, 2.007696E-05, 0.08765195, 0.06749047, 1.000014
 108440773, -0.03357708, 0.00841561, 6.317544E-05, 0.08724514, 0.06735607, 1.000014, 0.07075784, 0.02590485, -4.721259E-05, 0.08831384, 0.06754183, 1.000013
 108540733, -0.07627589, -0.05300828, 1.70507E-06, 0.08699714, 0.06690192, 1.000014, -0.03357708, 0.00841561, 6.317544E-05, 0.08724514, 0.06735607, 1.000014
 108640693, -0.07611008, -0.06593555, -1.633844E-05, 0.08699968, 0.06684047, 1.000014, -0.07627589, -0.05300828, 1.70507E-06, 0.08699714, 0.06690192, 1.000014
 108740653, -0.05972157, 0.02985841, 0.0001422232, 0.08710533, 0.06755412, 1.000015, -0.07611008, -0.06593555, -1.633844E-05, 0.08699968, 0.06684047, 1.000014
 108840613, 0.05788409, 0.01879008, -4.35838E-05, 0.08815157, 0.06745757, 1.000013, -0.05972157, 0.02985841, 0.0001422232, 0.08710533, 0.06755412, 1.000015
 108940573, 0.01731986, 0.06855068, 0.0001115074, 0.08769792, 0.06806234, 1.000015, 0.05788409, 0.01879008, -4.35838E-05, 0.08815157, 0.06745757, 1.000013
 109040533, 0.06486177, -0.05480839, -0.0001992582, 0.08828604, 0.06682714, 1.000012, 0.01731986, 0.06855068, 0.0001115074, 0.08769792, 0.06806234, 1.000015
 109140493, -0.01361752, 0.031528, 8.159411E-05, 0.08741344, 0.06758676, 1.000014, 0.06486177, -0.05480839, -0.0001992582, 0.08828604, 0.06682714, 1.000012
 109240453, 0.0733349, 0.05975217, 1.544918E-05, 0.08836237, 0.06794959, 1.000013, -0.01361752, 0.031528, 8.159411E-05, 0.08741344, 0.06758676, 1.000014
 109340413, 0.02215363, -0.0111456, -5.329608E-05, 0.08775034, 0.06716615, 1.000013, 0.0733349, 0.05975217, 1.544918E-05, 0.08836237, 0.06794959, 1.000013
 109440373, -0.02785863, 0.001661785, 4.252761E-05, 0.08730257, 0.06727742, 1.000014, 0.02215363, -0.0111456, -5.329608E-05, 0.08775034, 0.06716615, 1.000013
 109540333, -0.02442437, -0.01706191, 4.119574E-07, 0.08732736, 0.06711568, 1.000014, -0.02785863, 0.001661785, 4.252761E-05, 0.08730257, 0.06727742, 1.000014
 109640293, -0.05329747, -0.000725402, 7.378889E-05, 0.08714108, 0.06724107, 1.000014, -0.02442437, -0.01706191, 4.119574E-07, 0.08732736, 0.06711568, 1.000014
 109740253, 0.03758499, 0.03661223, 2.000223E-05, 0.08792689, 0.06763662, 1.000014, -0.05329747, -0.000725402, 7.378889E-05, 0.08714108, 0.06724107, 1.000014
 109840213, -0.005048628, -0.07353667, -0.0001403854, 0.08752048, 0.06675614, 1.000012, 0.03758499, 0.03661223, 2.000223E-05, 0.08792689, 0.06763662, 1.000014
 109940173, 0.06498714, 0.03223912, -2.790948E-05, 0.08827314, 0.06757416, 1.000013, -0.005048628, -0.07353667, -0.0001403854, 0.08752048, 0.06675614, 1.000012
 110040966, -0.03261238, 0.06530987, 0.0001783287, 0.08732025, 0.06795428, 1.000015, 0.06498714, 0.03223912, -2.790948E-05, 0.08827314, 0.06757416, 1.000013
 110140926, -0.07233842, 0.03410328, 0.0001723667, 0.08708748, 0.06755231, 1.000014, -0.03261238, 0.06530987, 0.0001783287, 0.08732025, 0.06795428, 1.000015
 110240886, 0.02064647, -0.05052344, -0.0001313282, 0.08777686, 0.06685315, 1.000012, -0.07233842, 0.03410328, 0.0001723667, 0.08708748, 0.06755231, 1.000014
 110340846, -0.0003183554, -0.02750216, -5.478158E-05, 0.08755451, 0.06701832, 1.000012, 0.02064647, -0.05052344, -0.0001313282, 0.08777686, 0.06685315, 1.000012
 110440806, -0.01310319, -0.06607127, -0.000113639, 0.08744994, 0.06679551, 1.000012, -0.0003183554, -0.02750216, -5.478158E-05, 0.08755451, 0.06701832, 1.000012
 110540766, -0.02951215, 0.02304173, 8.809677E-05, 0.08731653, 0.06747528, 1.000013, -0.01310319, -0.06607127, -0.000113639, 0.08744994, 0.06679551, 1.000012
 110640726, 0.008224975, 0.0635968, 0.0001071946, 0.08763918, 0.06797935, 1.000013, -0.02951215, 0.02304173, 8.809677E-05, 0.08731653, 0.06747528, 1.000013
 110740686, -0.06083546, -0.04691088, -6.621172E-06, 0.08710206, 0.06692298, 1.000012, 0.008224975, 0.0635968, 0.0001071946, 0.08763918, 0.06797935, 1.000013
 110840646, -0.007627107, 0.07678451, 0.0001626449, 0.08750063, 0.06816349, 1.000014, -0.06083546, -0.04691088, -6.621172E-06, 0.08710206, 0.06692298, 1.000012
 110940606, -0.02073753, -0.06740289, -0.0001039686, 0.08737253, 0.06681672, 1.000012, -0.007627107, 0.07678451, 0.0001626449, 0.08750063, 0.06816349, 1.000014
 111040566, 0.04652432, 0.00933279, -5.47829E-05, 0.08802875, 0.06736019, 1.000012, -0.02073753, -0.06740289, -0.0001039686, 0.08737253, 0.06681672, 1.000012
 111140526, 0.003537966, 0.00114889, -2.709465E-06, 0.08756395, 0.06729043, 1.000012, 0.04652432, 0.00933279, -5.47829E-05, 0.08802875, 0.06736019, 1.000012
 111240486, -0.06116561, 0.06673548, 0.0002169312, 0.08713626, 0.06799622, 1.000014, 0.003537966, 0.00114889, -2.709465E-06, 0.08756395, 0.06729043, 1.000012
 111340446, -0.04355224, -0.01893956, 1.628941E-05, 0.08718815, 0.06712975, 1.000012, -0.06116561, 0.06673548, 0.0002169312, 0.08713626, 0.06799622, 1.000014
 111440406, 0.02718098, -0.003013745, -5.15595E-05, 0.08779837, 0.06726535, 1.000011, -0.04355224, -0.01893956, 1.628941E-05, 0.08718815, 0.06712975, 1.000012
 111540366, -0.07103366, -0.06105738, -2.770384E-05, 0.08702524, 0.06688134, 1.000012, 0.02718098, -0.003013745, -5.15595E-05, 0.08779837, 0.06726535, 1.000011
 111640326, -0.03711974, 0.05885116, 0.0001587192, 0.08725145, 0.0679302, 1.000014, -0.07103366, -0.06105738, -2.770384E-05, 0.08702524, 0.06688134, 1.000012
 111740286, -0.02896313, 0.03049475, 9.199771E-05, 0.08728855, 0.06760228, 1.000013, -0.03711974, 0.05885116, 0.0001587192, 0.08725145, 0.0679302, 1.000014
 111840246, 0.03201806, -0.02720306, -0.0001050157, 0.08784974, 0.06707083, 1.000011, -0.02896313, 0.03049475, 9.199771E-05, 0.08728855, 0.06760228, 1.000013
 111940206, 0.03491154, 0.05403677, 4.890442E-05, 0.08787165, 0.06790732, 1.000013, 0.03201806, -0.02720306, -0.0001050157, 0.08784974, 0.06707083, 1.000011
 112040166, -0.05166554, -0.01107408, 5.006953E-05, 0.0871238, 0.06720761, 1.000013, 0.03491154, 0.05403677, 4.890442E-05, 0.08787165, 0.06790732, 1.000013
 112140959, 0.05268049, 0.06979923, 5.495222E-05, 0.08807755, 0.06812655, 1.000013, -0.05166554, -0.01107408, 5.006953E-05, 0.0871238, 0.06720761, 1.000013
 112240919, -0.05732604, 0.05244652, 0.000180958, 0.08712155, 0.06784432, 1.000014, 0.05268049, 0.06979923, 5.495222E-05, 0.08807755, 0.06812655, 1.000013
 112340879, -0.04871048, -0.0696075, -7.53705E-05, 0.08713553, 0.06685409, 1.000012, -0.05732604, 0.05244652, 0.000180958, 0.08712155, 0.06784432, 1.000014
 112440839, -0.06139175, -0.02169222, 4.249625E-05, 0.08705877, 0.06712897, 1.000013, -0.04871048, -0.0696075, -7.53705E-05, 0.08713553, 0.06685409, 1.000012
 112540799, 0.009902863, 0.07247505, 0.0001266454, 0.08761027, 0.0681545, 1.000014, -0.06139175, -0.02169222, 4.249625E-05, 0.08705877, 0.06712897, 1.000013
 112640759, 0.03072579, -0.03100594, -0.0001021717, 0.0878206, 0.06705449, 1.000012, 0.009902863, 0.07247505, 0.0001266454, 0.08761027, 0.0681545, 1.000014
 112740719, -0.04079176, -0.003347516, 4.959643E-05, 0.08718121, 0.06728048, 1.000013, 0.03072579, -0.03100594, -0.0001021717, 0.0878206, 0.06705449, 1.000012
 112840679, 0.02573564, 0.01193416, -1.22973E-05, 0.08775605, 0.06742776, 1.000013, -0.04079176, -0.003347516, 4.959643E-05, 0.08718121, 0.06728048, 1.000013
 112940639, -0.06462123, -0.05528114, -1.815128E-05, 0.08703765, 0.06692407, 1.000013, 0.02573564, 0.01193416, -1.22973E-05, 0.08775605, 0.06742776, 1.000013
 113040599, -0.05557125, 0.04589771, 0.0001654806, 0.08712028, 0.06777061, 1.000014, -0.06462123, -0.05528114, -1.815128E-05, 0.08703765, 0.06692407, 1.000013
 113140559, 0.05569413, 0.005097913, -6.685594E-05, 0.08811124, 0.06735225, 1.000012, -0.05557125, 0.04589771, 0.0001654806, 0.08712028, 0.06777061, 1.000014
 113240519, -0.01095466, -0.04654035, -7.510159E-05, 0.08741349, 0.06696247, 1.000012, 0.05569413, 0.005097913, -6.685594E-05, 0.08811124, 0.06735225, 1.000012
 113340479, 0.05253617, -0.004850343, -8.194705E-05, 0.08807705, 0.06725619, 1.000012, -0.01095466, -0.04654035, -7.510159E-05, 0.08741349, 0.06696247, 1.000012
 113440439, 0.03258181, 0.01120266, -1.560748E-05, 0.08783557, 0.06741504, 1.000013, 0.05253617, -0.004850343, -8.194705E-05, 0.08807705, 0.06725619, 1.000012
 113540399, -0.07776345, -0.05969717, -8.888742E-07, 0.08698164, 0.06689509, 1.000013, 0.03258181, 0.01120266, -1.560748E-05, 0.08783557, 0.06741504, 1.000013
 113640359, 0.02925496, -0.0782311, -0.0001854616, 0.08784425, 0.06676779, 1.000011, -0.07776345, -0.05969717, -8.888742E-07, 0.08698164, 0.06689509, 1.000013
 113740319, -0.000816568, -0.01889304, -2.816707E-05, 0.08750288, 0.06713691, 1.000013, 0.02925496, -0.0782311, -0.0001854616, 0.08784425, 0.06676779, 1.000011
 113840279, -0.07693351, -0.0269536, 6.137621E-05, 0.08699068, 0.06706796, 1.000014, -0.000816568, -0.01889304, -2.816707E-05, 0.08750288, 0.06713691, 1.000013
 113940239, -0.05651466, -0.0122891, 6.203097E-05, 0.08709856, 0.06717622, 1.000014, -0.07693351, -0.0269536, 6.137621E-05, 0.08699068, 0.06706796, 1.000014
 114040199, 0.02808007, -0.01554324, -6.212719E-05, 0.08780324, 0.06714305, 1.000013, -0.05651466, -0.0122891, 6.203097E-05, 0.08709856, 0.06717622, 1.000014
 114140159, -0.06516179, 0.0248531, 0.0001401276, 0.08707751, 0.06749785, 1.000015, 0.02808007, -0.01554324, -6.212719E-05, 0.08780324, 0.06714305, 1.000013
 114240952, -0.06820784, -0.06404892, -2.383399E-05, 0.08704212, 0.06684026, 1.000014, -0.06516179, 0.0248531, 0.0001401276, 0.08707751, 0.06749785, 1.000015
 114340912, -0.006455449, -0.03517797, -5.311424E-05, 0.08747201, 0.06699032, 1.000013, -0.06820784, -0.06404892, -2.383399E-05, 0.08704212, 0.06684026, 1.000014
 114440872, -0.07501418, -0.0198327, 6.604884E-05, 0.0870214, 0.06709064, 1.000014, -0.006455449, -0.03517797, -5.311424E-05, 0.08747201, 0.06699032, 1.000013
 114540832, 0.05702424, 0.05905262, 3.761343E-05, 0.08815179, 0.06792635, 1.000014, -0.07501418, -0.0198327, 6.604884E-05, 0.0870214, 0.06709064, 1.000014
 114640792, -0.03674386, 0.05539751, 0.0001629032, 0.08726776, 0.06783529, 1.000016, 0.05702424, 0.05905262, 3.761343E-05, 0.08815179, 0.06792635, 1.000014
 114740752, -0.06985689, 0.003698107, 0.0001060431, 0.08705889, 0.06726543, 1.000015, -0.03674386, 0.05539751, 0.0001629032, 0.08726776, 0.06783529, 1.000016
 114840712, 0.05504984, 0.03017679, -1.724446E-05, 0.088132, 0.06755487, 1.000014, -0.06985689, 0.003698107, 0.0001060431, 0.08705889, 0.06726543, 1.000015
 114940672, 0.02389109, -0.07480524, -0.0001768718, 0.08780891, 0.0667246, 1.000013, 0.05504984, 0.03017679, -1.724446E-05, 0.088132, 0.06755487, 1.000014
 115040632, -0.03252913, -0.007839814, 3.029954E-05, 0.08727725, 0.06716311, 1.000015, 0.02389109, -0.07480524, -0.0001768718, 0.08780891, 0.0667246, 1.000013
 115140592, -0.02173355, 0.0517674, 0.0001357919, 0.08737941, 0.06777859, 1.000016, -0.03252913, -0.007839814, 3.029954E-05, 0.08727725, 0.06716311, 1.000015
 115240552, 0.0341902, 0.0003032053, -4.806854E-05, 0.08789677, 0.06722545, 1.000014, -0.02173355, 0.0517674, 0.0001357919, 0.08737941, 0.06777859, 1.000016
 115340512, 0.03342808, -0.01825183, -8.4297E-05, 0.08788845, 0.06706905, 1.000014, 0.0341902, 0.0003032053, -4.806854E-05, 0.08789677, 0.06722545, 1.000014
 115440472, 0.01054264, -0.04996862, -0.0001231796, 0.08764923, 0.06686004, 1.000014, 0.03342808, -0.01825183, -8.4297E-05, 0.08788845, 0.06706905, 1.000014
 115540432, -0.01785111, -0.06016292, -9.574136E-05, 0.08739021, 0.06681938, 1.000014, 0.01054264, -0.04996862, -0.0001231796, 0.08764923, 0.06686004, 1.000014
 115640392, 0.07654242, -0.0007026074, -0.0001093062, 0.08842595, 0.0672204, 1.000013, -0.01785111, -0.06016292, -9.574136E-05, 0.08739021, 0.06681938, 1.000014
 115740352, 0.01505448, 0.05341947, 8.5715E-05, 0.0876822, 0.06783781, 1.000015, 0.07654242, -0.0007026074, -0.0001093062, 0.08842595, 0.0672204, 1.000013
 115840312, 0.06874291, -0.02760066, -0.0001515813, 0.08832688, 0.06699867, 1.000013, 0.01505448, 0.05341947, 8.5715E-05, 0.0876822, 0.06783781, 1.000015
 115940272, 0.03505659, -0.03231122, -0.0001210653, 0.08789721, 0.06698626, 1.000013, 0.06874291, -0.02760066, -0.0001515813, 0.08832688, 0.06699867, 1.000013
