TimeUS,CAN,CAE,CAD,CAe
 77840518, 0, 0, 0, 0
 77940478, -1.10902, 1.58209, 0.07552445, 0.2022037
 78040438, -0.002739674, 0.003408117, -3.979044E-05, 0.0002593962
 78140398, -0.002757223, 0.003514894, -3.882762E-05, 0.0002593962
 78240358, -0.00262151, 0.003470019, -5.653027E-05, 0.0002593962
 78340318, -0.002762085, 0.003477533, 6.22119E-05, 0.0002593962
 78440278, -0.00274962, 0.003405945, -0.000111602, 0.0002593962
 78540238, -0.00270075, 0.003568874, -0.0001242427, 0.0002593962
 78640198, -0.002620379, 0.003506105, 0.0001709254, 0.0002593962
 78740158, -0.002801941, 0.003484569, 2.231659E-05, 0.0002593962
 78840951, -0.002812522, 0.003461611, -0.0001127106, 0.0002615578
 78940911, -0.002704975, 0.003636387, 5.369899E-05, 0.0002593962
 79040871, -0.002718139, 0.003504177, -0.000115358, 0.0002593962
 79140831, -0.002661708, 0.003639963, 5.749309E-05, 0.0002593962
 79240791, -0.002978293, 0.003560108, -3.654925E-05, 0.0002593962
 79340751, -0.002696547, 0.003484394, -9.115386E-05, 0.0002593962
 79440711, -0.002719735, 0.003462387, 1.434706E-05, 0.0002593962
 79540671, -0.002856771, 0.003490358, -2.774082E-06, 0.0002593962
 79640631, -0.002698412, 0.003550222, 1.938044E-05, 0.0002593962
 79740591, -0.002821635, 0.003489428, -2.928516E-05, 0.0002593962
 79840551, -0.002857477, 0.00360433, 1.548148E-05, 0.0002593962
 79940511, -0.002729804, 0.003328378, -6.755033E-05, 0.0002593962
 80040471, -0.002757991, 0.003581051, 0.0001551579, 0.0002593962
 80140431, -0.002877306, 0.003459934, -4.993348E-05, 0.0002593962
 80240391, -0.002594982, 0.003554015, 6.606322E-06, 0.0002593962
 80340351, -0.002661258, 0.003486269, 0.0001243094, 0.0002593962
 80440311, -0.002675102, 0.00346038, -2.001915E-05, 0.0002593962
 80540271, -0.002731124, 0.003489219, -6.478578E-05, 0.0002593962
 80640231, -0.002755273, 0.003438189, 0.0001076649, 0.0002593962
 80740191, -0.002612794, 0.003444694, -0.0001605059, 0.0002593962
 80840151, -0.002674711, 0.003464944, 0.000102193, 0.0002593962
 80940944, -0.002664286, 0.003499293, -7.892351E-05, 0.0002615578
 81040904, -0.002865964, 0.00364876, -3.078183E-05, 0.0002593962
 81140864, -0.002714677, 0.003604434, -1.707348E-05, 0.0002593962
 81240824, -0.002710955, 0.003461138, -3.583428E-05, 0.0002593962
 81340784, -0.002727748, 0.003560817, 1.695908E-05, 0.0002593962
 81440744, -0.002662618, 0.003467901, -0.0001316688, 0.0002593962
 81540704, -0.002675508, 0.003445896, -2.022888E-05, 0.0002593962
 81640664, -0.002742707, 0.00350568, 2.252631E-05, 0.0002593962
 81740624, -0.002744547, 0.003508395, 1.426126E-05, 0.0002593962
 81840584, -0.002679576, 0.003387563, -8.907569E-05, 0.0002593962
 81940544, -0.002742351, 0.003375092, -9.790318E-05, 0.0002593962
 82040504, -0.002742206, 0.00340011, 3.428041E-05, 0.0002593962
 82140464, -0.002868013, 0.00344505, -1.349863E-05, 0.0002593962
 82240424, -0.002802964, 0.003417237, -5.689252E-05, 0.0002593962
 82340384, -0.002758501, 0.003309412, 2.657781E-05, 0.0002593962
 82440344, -0.002769334, 0.003480044, 1.801724E-05, 0.0002593962
 82540304, -0.002686506, 0.003609695, 5.082004E-05, 0.0002593962
 82640264, -0.00272878, 0.003547009, -0.0001207727, 0.0002593962
 82740224, -0.002564433, 0.003428076, -4.735005E-05, 0.0002593962
 82840184, -0.0030395, 0.003474973, -3.056257E-05, 0.0002593962
 82940977, -0.002785318, 0.003505983, 5.099164E-05, 0.0002593962
 83040937, -0.002801542, 0.003649783, 7.826256E-05, 0.0002615578
 83140897, -0.002802588, 0.003539537, 5.814133E-05, 0.0002593962
 83240857, -0.002717889, 0.003579659, 0.0001442999, 0.0002593962
 83340817, -0.002854208, 0.003496382, -4.818895E-05, 0.0002593962
 83440777, -0.002793527, 0.003509786, 7.711186E-05, 0.0002593962
 83540737, -0.002563312, 0.003439719, 3.107733E-06, 0.0002593962
 83640697, -0.002722427, 0.003361285, 2.47856E-06, 0.0002593962
 83740657, -0.002679585, 0.003445302, 4.95045E-05, 0.0002593962
 83840617, -0.002705867, 0.003426, 7.0639E-05, 0.0002593962
 83940577, -0.002886364, 0.003448198, 7.158276E-05, 0.0002593962
 84040537, -0.002752921, 0.00351581, -0.000108132, 0.0002593962
 84140497, -0.002822344, 0.0035036, 2.327941E-05, 0.0002593962
 84240457, -0.00272993, 0.003504425, 1.79219E-05, 0.0002593962
 84340417, -0.002843997, 0.003549442, 0.00012797, 0.0002593962
 84440377, -0.002760603, 0.003563001, 9.780784E-06, 0.0002593962
 84540337, -0.002731605, 0.003485678, -0.0001036801, 0.0002593962
 84640297, -0.002780699, 0.003510033, -9.126827E-05, 0.0002593962
 84740257, -0.00278162, 0.003579269, -4.888486E-05, 0.0002593962
 84840217, -0.002855134, 0.003430201, -0.0001096668, 0.0002593962
 84940177, -0.002800603, 0.003535284, -5.919948E-06, 0.0002593962
 85040970, -0.002790358, 0.003482858, -6.165898E-05, 0.0002593962
 85140930, -0.002920312, 0.003471955, -0.000116399, 0.0002615578
 85240890, -0.002817588, 0.003458132, 5.787441E-05, 0.0002593962
 85340850, -0.002831167, 0.003438483, -7.46619E-05, 0.0002593962
 85440810, -0.002828272, 0.003497954, 2.539572E-05, 0.0002593962
 85540770, -0.002668677, 0.003490101, -8.4681E-05, 0.0002593962
 85640730, -0.002763511, 0.003501305, 3.483332E-05, 0.0002593962
 85740690, -0.00279014, 0.003508586, 1.49095E-05, 0.0002593962
 85840650, -0.002755679, 0.003344156, 0.0001767214, 0.0002593962
 85940610, -0.002690928, 0.003552325, 1.209729E-05, 0.0002593962
 86040570, -0.002778988, 0.003570923, 0.0001373981, 0.0002593962
 86140530, -0.002677064, 0.003433127, -0.0001033274, 0.0002593962
 86240490, -0.002824775, 0.003518595, -9.170677E-06, 0.0002593962
 86340450, -0.002789884, 0.003296238, -0.0001862162, 0.0002593962
 86440410, -0.002814016, 0.00343888, -6.537682E-05, 0.0002593962
 86540370, -0.002752116, 0.003561956, -4.460457E-05, 0.0002593962
 86640330, -0.002861416, 0.003373142, -1.120119E-05, 0.0002593962
 86740290, -0.002797677, 0.003457306, -7.664473E-05, 0.0002593962
 86840250, -0.002796436, 0.003384979, -0.000115091, 0.0002593962
 86940210, -0.002683464, 0.003475675, -5.379431E-05, 0.0002593962
 87040170, -0.002660923, 0.003448086, -0.0001346049, 0.0002593962
 87140963, -0.002790266, 0.003498581, -5.415898E-06, 0.0002615578
 87240923, -0.002755717, 0.003537133, 5.318421E-05, 0.0002593962
 87340883, -0.002778098, 0.003521102, -0.0001575221, 0.0002593962
 87440843, -0.002667091, 0.003500559, 9.76458E-05, 0.0002593962
 87540803, -0.002727907, 0.003709281, -1.546241E-05, 0.0002593962
 87640763, -0.002697113, 0.003408662, -1.906574E-08, 0.0002593962
 87740723, -0.002675991, 0.003369736, -3.788386E-05, 0.0002593962
 87840683, -0.002648243, 0.003655976, -9.165911E-05, 0.0002593962
 87940643, -0.002707569, 0.003332277, 0.000132298, 0.0002593962
 88040603, -0.002786833, 0.003273969, -1.487137E-06, 0.0002593962
 88140563, -0.00276749, 0.003402627, 0.0001109728, 0.0002593962
 88240523, -0.00272895, 0.003498772, -8.129681E-05, 0.0002593962
 88340483, -0.00285205, 0.003443639, -3.969511E-05, 0.0002593962
 88440443, -0.002930944, 0.003573434, -8.588216E-05, 0.0002593962
 88540403, -0.002789288, 0.003515218, 4.86084E-05, 0.0002593962
 88640363, -0.002869124, 0.00352115, -0.0001290854, 0.0002593962
 88740323, -0.002793243, 0.003526107, 3.714982E-05, 0.0002593962
 88840283, -0.002886473, 0.003513789, -5.859891E-05, 0.0002593962
 88940243, -0.002801585, 0.00351407, 0.0001158156, 0.0002593962
 89040203, -0.002908495, 0.00355539, -2.670173E-05, 0.0002593962
 89140163, -0.002672161, 0.003533849, -0.0001167784, 0.0002593962
 89240956, -0.002760513, 0.003558332, -6.408869E-05, 0.0002615578
 89340916, -0.002797104, 0.003591656, 6.643498E-05, 0.0002593962
 89440876, -0.002820903, 0.003541126, -0.0001040805, 0.0002593962
 89540836, -0.002834098, 0.003529428, 0.0001272646, 0.0002593962
 89640796, -0.002612011, 0.003525786, -4.186862E-05, 0.0002593962
 89740756, -0.002884453, 0.00342702, -6.115374E-05, 0.0002593962
 89840716, -0.002659634, 0.003501944, -6.29078E-05, 0.0002593962
 89940676, -0.002684305, 0.003490643, -0.0001117164, 0.0002593962
 90040636, -0.00268557, 0.003477591, -9.24694E-06, 0.0002593962
 90140596, -0.002696978, 0.003459988, 6.071523E-05, 0.0002593962
 90240556, -0.00280844, 0.003449208, -0.0001269405, 0.0002593962
 90340516, -0.002782625, 0.003401852, 5.863704E-05, 0.0002593962
 90440476, -0.002674549, 0.003553044, -3.394676E-05, 0.0002593962
 90540436, -0.002684872, 0.003556166, -1.536708E-05, 0.0002593962
 90640396, -0.002742547, 0.00347751, 7.702605E-06, 0.0002593962
 90740356, -0.002671684, 0.003474137, 1.177317E-05, 0.0002593962
 90840316, -0.002686174, 0.003424553, -6.067709E-05, 0.0002593962
 90940276, -0.002601503, 0.003581385, 6.919953E-05, 0.0002593962
 91040236, -0.002709399, 0.003464702, 1.95425E-06, 0.0002593962
 91140196, -0.00275468, 0.003483581, 7.680681E-05, 0.0002593962
 91240156, -0.002649461, 0.003574798, -5.01432E-06, 0.0002593962
 91340949, -0.002744366, 0.003554121, 7.567239E-05, 0.0002615578
 91440909, -0.002708373, 0.003613994, 1.379415E-05, 0.0002593962
 91540869, -0.002892131, 0.003595056, -9.665436E-05, 0.0002593962
 91640829, -0.002737585, 0.003295835, -7.909469E-05, 0.0002593962
 91740789, -0.002795406, 0.003482448, -0.0002256253, 0.0002593962
 91840749, -0.002672437, 0.003409085, -0.0001444906, 0.0002593962
 91940709, -0.002728964, 0.003382545, 6.02481E-05, 0.0002593962
 92040669, -0.002808309, 0.003546329, 6.761706E-05, 0.0002593962
 92140629, -0.002797937, 0.003449683, -7.413758E-05, 0.0002593962
 92240589, -0.002688285, 0.003497887, 0.0001178175, 0.0002593962
 92340549, -0.002681782, 0.003371591, -1.273599E-05, 0.0002593962
 92440509, -0.002782456, 0.003359177, 1.25358E-05, 0.0002593962
 92540469, -0.00266679, 0.003441791, 7.279344E-05, 0.0002593962
 92640429, -0.002790248, 0.003471921, 0.0001953869, 0.0002593962
 92740389, -0.002788896, 0.003417456, -2.662547E-05, 0.0002593962
 92840349, -0.002718442, 0.00342993, 2.396578E-05, 0.0002593962
 92940309, -0.002762087, 0.00342185, 2.877038E-05, 0.0002593962
 93040269, -0.002616827, 0.003558638, -8.871344E-05, 0.0002593962
 93140229, -0.002768887, 0.003512815, -2.146815E-05, 0.0002593962
 93240189, -0.002701303, 0.003446088, -6.868475E-05, 0.0002593962
 93340149, -0.002846138, 0.003474726, -2.20306E-05, 0.0002593962
 93440942, -0.002710763, 0.003434866, -7.705625E-05, 0.0002615578
 93540902, -0.00275933, 0.003402331, 6.456653E-05, 0.0002593962
 93640862, -0.002773982, 0.003547435, -3.662551E-05, 0.0002593962
 93740822, -0.002761976, 0.003473359, -3.603447E-05, 0.0002593962
 93840782, -0.00275786, 0.003513753, -0.0001391903, 0.0002593962
 93940742, -0.002811397, 0.003497374, 0.0001768549, 0.0002593962
 94040702, -0.002817405, 0.003539447, -2.26979E-05, 0.0002593962
 94140662, -0.002584867, 0.003534853, 1.177317E-05, 0.0002593962
 94240622, -0.002719908, 0.003448553, -0.0001025457, 0.0002593962
 94340582, -0.002641676, 0.003429836, -7.575819E-05, 0.0002593962
 94440542, -0.002748108, 0.003603125, 1.72832E-05, 0.0002593962
 94540502, -0.002731842, 0.003597284, 5.281243E-06, 0.0002593962
 94640462, -0.002963397, 0.003452424, -3.557689E-05, 0.0002593962
 94740422, -0.002922705, 0.00338659, -0.0001214018, 0.0002593962
 94840382, -0.002884481, 0.003397898, -7.968575E-05, 0.0002593962
 94940342, -0.002721483, 0.003403213, -8.378491E-05, 0.0002593962
 95040302, -0.002689017, 0.003535445, 7.916144E-05, 0.0002593962
 95140262, -0.002722188, 0.003381595, -9.723585E-06, 0.0002593962
 95240222, -0.002872208, 0.003486705, 1.772171E-05, 0.0002593962
 95340182, -0.002714082, 0.003487979, -4.308884E-05, 0.0002593962
 95440975, -0.002829737, 0.003480633, -1.65301E-05, 0.0002593962
 95540935, -0.002884164, 0.003511519, 6.454575E-07, 0.0002615578
 95640895, -0.002697684, 0.003701498, 6.711181E-06, 0.0002593962
 95740855, -0.002709758, 0.003492704, 3.460454E-06, 0.0002593962
 95840815, -0.002731933, 0.003410533, -8.457615E-05, 0.0002593962
 95940775, -0.002769484, 0.003448455, 0.0001079985, 0.0002593962
 96040735, -0.002845065, 0.003633115, -9.218342E-05, 0.0002593962
 96140695, -0.00276929, 0.003400594, 5.108696E-05, 0.0002593962
 96240655, -0.002795993, 0.003175464, 5.4433E-06, 0.0002593962
 96340615, -0.002762962, 0.003329497, -8.517672E-05, 0.0002593962
 96440575, -0.002650523, 0.00336219, -1.778844E-05, 0.0002593962
 96540535, -0.002741254, 0.003504343, 0.0002418313, 0.0002593962
 96640495, -0.00268215, 0.003414626, 2.98762E-05, 0.0002593962
 96740455, -0.002695294, 0.003367415, 8.528158E-05, 0.0002593962
 96840415, -0.002866706, 0.003407529, 7.300317E-05, 0.0002593962
 96940375, -0.002807506, 0.003426041, -1.846528E-05, 0.0002593962
 97040335, -0.002791312, 0.00363375, 5.634914E-05, 0.0002593962
 97140295, -0.002696731, 0.003405917, 1.817929E-05, 0.0002593962
 97240255, -0.002767577, 0.003453651, -1.81507E-05, 0.0002593962
 97340215, -0.002656667, 0.003309678, -1.548147E-05, 0.0002593962
 97440175, -0.002816522, 0.003535557, 3.06007E-05, 0.0002593962
 97540968, -0.002707656, 0.003562821, 2.059907E-05, 0.0002615578
 97640928, -0.002762596, 0.003310569, -4.046728E-05, 0.0002593962
 97740888, -0.002813361, 0.003523824, -3.631092E-05, 0.0002593962
 97840848, -0.002644759, 0.003569726, 3.365126E-06, 0.0002593962
 97940808, -0.002753227, 0.00348672, -9.732167E-05, 0.0002593962
 98040768, -0.002548913, 0.003639547, -3.555782E-05, 0.0002593962
 98140728, -0.002721208, 0.003433413, -1.925651E-06, 0.0002593962
 98240688, -0.002718506, 0.003378322, 8.035306E-05, 0.0002593962
 98340648, -0.002716362, 0.003487582, -8.664479E-05, 0.0002593962
 98440608, -0.002869253, 0.003437267, 8.281255E-05, 0.0002593962
 98540568, -0.002796869, 0.00344552, 3.961885E-05, 0.0002593962
 98640528, -0.002788403, 0.003347791, 1.782656E-06, 0.0002593962
 98740488, -0.002910045, 0.003420807, -0.0001298099, 0.0002593962
 98840448, -0.002641792, 0.00364668, -0.0001137946, 0.0002593962
 98940408, -0.002808655, 0.003427347, -1.176363E-05, 0.0002593962
 99040368, -0.002749958, 0.003482674, 0.000105825, 0.0002593962
 99140328, -0.002714975, 0.003476163, 7.979059E-06, 0.0002593962
 99240288, -0.002664187, 0.003535361, -1.214495E-05, 0.0002593962
 99340248, -0.002633788, 0.003593795, -6.768392E-07, 0.0002593962
 99440208, -0.00275501, 0.003624603, 0.000147503, 0.0002593962
 99540168, -0.002806815, 0.003543388, 2.408971E-05, 0.0002593962
 99640961, -0.002830477, 0.003514851, -5.750937E-05, 0.0002615578
 99740921, -0.002837537, 0.003581714, -7.243119E-05, 0.0002593962
 99840881, -0.002799488, 0.003590188, -6.921859E-05, 0.0002593962
 99940841, -0.002777169, 0.00349949, 8.043885E-05, 0.0002593962
 100040801, -0.002784878, 0.003640486, 1.66159E-05, 0.0002593962
 100140761, -0.002612002, 0.003428372, 9.136359E-05, 0.0002593962
 100240721, -0.002778039, 0.003496023, 6.872288E-05, 0.0002593962
 100340681, -0.002872009, 0.003588775, -7.796029E-05, 0.0002593962
 100440641, -0.002504222, 0.0034751, -6.882776E-06, 0.0002593962
 100540601, -0.002614025, 0.00364548, 3.422322E-05, 0.0002593962
 100640561, -0.002685305, 0.003492064, 6.278387E-05, 0.0002593962
 100740521, -0.002728302, 0.003383615, 6.285059E-05, 0.0002593962
 100840481, -0.00273941, 0.003528939, 0.0001420406, 0.0002593962
 100940441, -0.002739057, 0.003529258, 1.919932E-05, 0.0002593962
 101040401, -0.002636829, 0.003519815, -8.088689E-05, 0.0002593962
 101140361, -0.002657089, 0.003479557, -0.0002040619, 0.0002593962
 101240321, -0.0027411, 0.003495522, 0.000103194, 0.0002593962
 101340281, -0.002733091, 0.003522094, 5.17638E-06, 0.0002593962
 101440241, -0.002765544, 0.003473587, -0.000151421, 0.0002593962
 101540201, -0.002805209, 0.003383205, 5.192586E-05, 0.0002593962
 101640161, -0.002697417, 0.003409686, -0.0001113637, 0.0002593962
 101740954, -0.002622218, 0.003515082, -3.300498E-05, 0.0002615578
 101840914, -0.002820162, 0.003369429, -3.071509E-05, 0.0002593962
 101940874, -0.002865294, 0.003473542, -2.639668E-05, 0.0002593962
 102040834, -0.002710334, 0.003492382, 0.0001417546, 0.0002593962
 102140794, -0.002681316, 0.003552922, 4.07628E-05, 0.0002593962
 102240754, -0.002746453, 0.003486563, 8.102988E-06, 0.0002593962
 102340714, -0.002612277, 0.003454274, 7.52148E-05, 0.0002593962
 102440674, -0.002636415, 0.003502136, -2.775989E-05, 0.0002593962
 102540634, -0.002643805, 0.003531502, 9.165911E-05, 0.0002593962
 102640594, -0.002801548, 0.003358955, 0.000185873, 0.0002593962
 102740554, -0.002728565, 0.003443829, 7.14779E-05, 0.0002593962
 102840514, -0.002671611, 0.003385264, -0.0002019742, 0.0002593962
 102940474, -0.002821024, 0.003581435, -6.179245E-05, 0.0002593962
 103040434, -0.002657561, 0.003382301, 8.202132E-05, 0.0002593962
 103140394, -0.002684296, 0.003507557, 0.0002606302, 0.0002593962
 103240354, -0.002804808, 0.003471117, -4.139198E-05, 0.0002593962
 103340314, -0.002788515, 0.00348948, 0.0001626985, 0.0002593962
 103440274, -0.002799378, 0.003340076, -0.0001267975, 0.0002593962
 103540234, -0.002734326, 0.003454417, -1.447098E-05, 0.0002593962
 103640194, -0.002592769, 0.003433414, -6.145879E-05, 0.0002593962
 103740154, -0.002699186, 0.003459211, -0.0001174457, 0.0002593962
 103840947, -0.002641366, 0.003636315, -3.887409E-05, 0.0002615578
 103940907, -0.00269519, 0.003530257, 0.0001041949, 0.0002593962
 104040867, -0.00278117, 0.003392914, 9.760766E-05, 0.0002593962
 104140827, -0.002817767, 0.003512909, 3.726422E-05, 0.0002593962
 104240787, -0.0026007, 0.003396299, -7.033395E-05, 0.0002593962
 104340747, -0.002689192, 0.003606158, -2.986666E-05, 0.0002593962
 104440707, -0.002834631, 0.003525484, 5.386105E-05, 0.0002593962
 104540667, -0.002668009, 0.003492261, -3.080089E-05, 0.0002593962
 104640627, -0.002623518, 0.003373553, -4.365128E-05, 0.0002593962
 104740587, -0.002845049, 0.00350794, -5.576763E-05, 0.0002593962
 104840547, -0.002677047, 0.003485928, -9.289839E-05, 0.0002593962
 104940507, -0.002745765, 0.003511135, -2.163975E-06, 0.0002593962
 105040467, -0.002821813, 0.003569891, -4.394679E-05, 0.0002593962
 105140427, -0.002765811, 0.003521344, -5.328908E-06, 0.0002593962
 105240387, -0.002712319, 0.003574109, 8.38993E-05, 0.0002593962
 105340347, -0.002857688, 0.003496469, -7.999079E-05, 0.0002593962
 105440307, -0.002793806, 0.003372734, 6.483345E-05, 0.0002593962
 105540267, -0.002642747, 0.003387625, -3.53481E-05, 0.0002593962
 105640227, -0.00270019, 0.003473805, -8.603468E-05, 0.0002593962
 105740187, -0.002735125, 0.003323097, -4.159217E-05, 0.0002593962
 105840147, -0.002763187, 0.003525944, 2.789335E-05, 0.0002593962
 105940940, -0.002619631, 0.003344307, 8.289557E-05, 0.0002615578
 106040900, -0.002775636, 0.003438613, -8.475727E-05, 0.0002593962
 106140860, -0.00269344, 0.003435862, -8.391837E-05, 0.0002593962
 106240820, -0.002652126, 0.00338086, 5.452835E-06, 0.0002593962
 106340780, -0.002656688, 0.003523194, -9.096319E-05, 0.0002593962
 106440740, -0.002818469, 0.00352567, -3.518604E-05, 0.0002593962
 106540700, -0.002782274, 0.003495984, 0.0001040424, 0.0002593962
 106640660, -0.002792398, 0.003408336, 2.18876E-05, 0.0002593962
 106740620, -0.002720242, 0.003407654, 0.0001114399, 0.0002593962
 106840580, -0.002776795, 0.003527955, 3.593912E-06, 0.0002593962
 106940540, -0.002832111, 0.003366401, -0.0001235658, 0.0002593962
 107040500, -0.002714268, 0.003389446, -0.0001806585, 0.0002593962
 107140460, -0.002741342, 0.003525811, 7.048647E-05, 0.0002593962
 107240420, -0.002733679, 0.003500973, -0.0001246335, 0.0002593962
 107340380, -0.002688362, 0.003431601, 0.000115377, 0.0002593962
 107440340, -0.002763492, 0.003382799, -0.0001324696, 0.0002593962
 107540300, -0.002576997, 0.00342315, -5.319374E-06, 0.0002593962
 107640260, -0.00256153, 0.003503297, 2.780755E-05, 0.0002593962
 107740220, -0.002607781, 0.003596418, 2.684473E-05, 0.0002593962
 107840180, -0.002734912, 0.003380531, -7.578678E-05, 0.0002593962
 107940973, -0.002518453, 0.003460037, 5.819853E-05, 0.0002593962
 108040933, -0.002776184, 0.003492546, 0.0001275295, 0.0002615578
 108140893, -0.002514312, 0.00334408, -9.437608E-07, 0.0002593962
 108240853, -0.002602455, 0.003431551, -2.002868E-05, 0.0002593962
 108340813, -0.002734408, 0.00351078, -8.575822E-05, 0.0002593962
 108440773, -0.002807824, 0.003562572, 9.984789E-05, 0.0002593962
 108540733, -0.002739081, 0.003417375, -4.959029E-05, 0.0002593962
 108640693, -0.002675573, 0.003370861, -7.531016E-07, 0.0002593962
 108740653, -0.002665222, 0.003382296, 0.0001400197, 0.0002593962
 108840613, -0.002782499, 0.003521612, 2.907543E-05, 0.0002593962
 108940573, -0.002697826, 0.003450901, -8.136354E-05, 0.0002593962
 109040533, -0.002823073, 0.00344032, -7.864665E-06, 0.0002593962
 109140493, -0.002763666, 0.003387068, 1.601533E-06, 0.0002593962
 109240453, -0.00274733, 0.00348557, 0.0001130224, 0.0002593962
 109340413, -0.002883196, 0.003392755, -5.217372E-05, 0.0002593962
 109440373, -0.002838209, 0.003475239, -3.260263E-06, 0.0002593962
 109540333, -0.002794086, 0.003366297, 5.099163E-05, 0.0002593962
 109640293, -0.00273117, 0.003470901, 1.504296E-05, 0.0002593962
 109740253, -0.002689726, 0.003519013, -7.585352E-05, 0.0002593962
 109840213, -0.002750293, 0.003500848, -1.934231E-05, 0.0002593962
 109940173, -0.002695301, 0.003431371, 7.849413E-05, 0.0002593962
 110040966, -0.002711399, 0.003504172, -0.0001026784, 0.0002615578
 110140926, -0.002713966, 0.003384644, 6.86372E-07, 0.0002593962
 110240886, -0.002555172, 0.003555458, 8.54627E-05, 0.0002593962
 110340846, -0.002743685, 0.003470465, -0.0001516594, 0.0002593962
 110440806, -0.002902641, 0.003632643, -1.782659E-06, 0.0002593962
 110540766, -0.002810687, 0.003440805, 4.254546E-05, 0.0002593962
 110640726, -0.002662879, 0.003563605, 9.81129E-05, 0.0002593962
 110740686, -0.002700215, 0.003600223, -0.0001614973, 0.0002593962
 110840646, -0.002811192, 0.003513181, 2.081038E-05, 0.0002593962
 110940606, -0.002541326, 0.003596385, -4.175423E-05, 0.0002593962
 111040566, -0.002767351, 0.003555941, 3.492865E-05, 0.0002593962
 111140526, -0.002825651, 0.00339939, 1.313638E-05, 0.0002593962
 111240486, -0.002687215, 0.003547712, 2.215452E-05, 0.0002593962
 111340446, -0.002837481, 0.003528493, 7.735018E-05, 0.0002593962
 111440406, -0.002749656, 0.003520895, 0.0001333561, 0.0002593962
 111540366, -0.002747388, 0.003548134, 9.396608E-05, 0.0002593962
 111640326, -0.002794074, 0.003444843, -0.0001034418, 0.0002593962
 111740286, -0.002820275, 0.003445388, -5.255503E-05, 0.0002593962
 111840246, -0.00277842, 0.003350974, 1.848435E-05, 0.0002593962
 111940206, -0.002688644, 0.003410801, -0.0001558538, 0.0002593962
 112040166, -0.002708536, 0.003554581, -0.00011348, 0.0002593962
 112140959, -0.002695703, 0.003446671, -2.741154E-05, 0.0002615578
 112240919, -0.002805247, 0.003521156, 8.376584E-05, 0.0002593962
 112340879, -0.002654146, 0.003316545, -2.945675E-05, 0.0002593962
 112440839, -0.002705914, 0.003370408, 5.006694E-05, 0.0002593962
 112540799, -0.002723678, 0.003452718, 5.319374E-05, 0.0002593962
 112640759, -0.002704932, 0.003392669, 4.085813E-05, 0.0002593962
 112740719, -0.002636794, 0.003356965, -5.731197E-05, 0.0002593962
 112840679, -0.002663414, 0.003456853, 0.0001288375, 0.0002593962
 112940639, -0.002708887, 0.003398336, 4.039102E-05, 0.0002593962
 113040599, -0.002612308, 0.00338388, 0.0001442427, 0.0002593962
 113140559, -0.002709772, 0.003624325, 5.354646E-05, 0.0002593962
 113240519, -0.002792002, 0.0034247, -9.042936E-05, 0.0002593962
 113340479, -0.002699367, 0.003492358, -0.000124338, 0.0002593962
 113440439, -0.0027827, 0.003427151, 0.0001473981, 0.0002593962
 113540399, -0.002670057, 0.003485072, 5.150642E-05, 0.0002593962
 113640359, -0.002651353, 0.003384762, -5.764562E-05, 0.0002593962
 113740319, -0.00259393, 0.003440819, 1.759779E-05, 0.0002593962
 113840279, -0.00284523, 0.003414933, 8.23645E-05, 0.0002593962
 113940239, -0.002561876, 0.003457339, 9.4233E-05, 0.0002593962
 114040199, -0.002713392, 0.003405564, 0.0001010109, 0.0002593962
 114140159, -0.002693073, 0.003401133, -6.476671E-05, 0.0002593962
 114240952, -0.002766844, 0.003466521, 2.292073E-05, 0.0002615578
 114340912, -0.002705653, 0.003498395, -0.0001353962, 0.0002593962
 114440872, -0.002761952, 0.003532116, -7.721671E-06, 0.0002593962
 114540832, -0.002764704, 0.003428468, 2.450916E-05, 0.0002593962
 114640792, -0.002740177, 0.003386792, -5.968567E-05, 0.0002593962
 114740752, -0.002591094, 0.003517202, -5.468088E-05, 0.0002593962
 114840712, -0.002810332, 0.003440946, 0.000149524, 0.0002593962
 114940672, -0.002741105, 0.003557006, -4.605358E-05, 0.0002593962
 115040632, -0.002747849, 0.003502019, -0.0001846528, 0.0002593962
 115140592, -0.002782904, 0.00349775, -2.857972E-05, 0.0002593962
 115240552, -0.002589277, 0.00345015, 2.545292E-06, 0.0002593962
 115340512, -0.002825038, 0.00355661, -0.0001526603, 0.0002593962
 115440472, -0.002569845, 0.003437092, -1.223075E-05, 0.0002593962
 115540432, -0.002746376, 0.003530108, -0.0001147955, 0.0002593962
 115640392, -0.00275884, 0.003492956, 2.305062E-05, 0.0002593962
 115740352, -0.002800296, 0.00360725, -6.515757E-05, 0.0002593962
 115840312, -0.002803735, 0.003419077, 2.692099E-05, 0.0002593962
 115940272, -0.002829617, 0.003479299, -0.0001375411, 0.0002593962
 116040232, -0.002646059, 0.003468746, 2.023841E-05, 0.0002593962
 116140192, -0.002688081, 0.003525506, -1.676842E-05, 0.0002593962
 116240152, -0.002605524, 0.003421422, -3.632046E-06, 0.0002593962
 116340945, -0.002540918, 0.003558798, -4.806316E-08, 0.0002615578
 116440905, -0.002629258, 0.003428129, -7.687354E-05, 0.0002593962
 116540865, -0.002637937, 0.00325397, -5.942828E-05, 0.0002593962
 116640825, -0.002709941, 0.003505698, -2.351773E-05, 0.0002593962
 116740785, -0.00267728, 0.003363819, -3.933287E-05, 0.0002593962
 116840745, -0.002718953, 0.00345221, 0.0001186373, 0.0002593962
 116940705, -0.002672041, 0.003583733, 5.81032E-05, 0.0002593962
 117040665, -0.002685556, 0.003427802, 3.69401E-05, 0.0002593962
 117140625, -0.002873285, 0.003463337, -6.872288E-05, 0.0002593962
 117240585, -0.002804866, 0.003543267, -6.177337E-05, 0.0002593962
 117340545, -0.002598576, 0.003320856, -7.339402E-05, 0.0002593962
 117440505, -0.002680048, 0.003394932, 7.364187E-05, 0.0002593962
 117540465, -0.002763967, 0.003439958, -1.934231E-05, 0.0002593962
 117640425, -0.002692377, 0.003396985, -0.0001142998, 0.0002593962
 117740385, -0.002812609, 0.003487162, 7.807467E-06, 0.0002593962
 117840345, -0.00267534, 0.003414505, 0.000119705, 0.0002593962
 117940305, -0.00272769, 0.003424326, -0.0001457871, 0.0002593962
 118040265, -0.002554535, 0.003442669, 1.183037E-05, 0.0002593962
 118140225, -0.002593026, 0.003447981, -0.0001406965, 0.0002593962
 118240185, -0.002756937, 0.003260758, 4.686388E-05, 0.0002593962
 118340145, -0.002780534, 0.003436779, -0.0001080843, 0.0002593962
 118440938, -0.002700543, 0.003550063, -3.996204E-05, 0.0002615578
 118540898, -0.002695247, 0.003344808, -4.767418E-05, 0.0002593962
 118640858, -0.002714288, 0.00355637, -8.63874E-05, 0.0002593962
 118740818, -0.002604219, 0.003533651, -2.689239E-05, 0.0002593962
 118840778, -0.002840484, 0.00338359, -0.0001009728, 0.0002593962
 118940738, -0.002753522, 0.003386886, -4.190675E-05, 0.0002593962
 119040698, -0.002591583, 0.003470944, 5.074378E-05, 0.0002593962
 119140658, -0.002616005, 0.003481392, 4.065794E-05, 0.0002593962
 119240618, -0.002797692, 0.003511359, -0.0001555774, 0.0002593962
 119340578, -0.002720391, 0.00347599, -3.958071E-05, 0.0002593962
 119440538, -0.002718751, 0.003451107, -6.434729E-06, 0.0002593962
 119540498, -0.002625117, 0.003494286, -3.891341E-05, 0.0002593962
 119640458, -0.002772146, 0.003609426, 0.0001170739, 0.0002593962
 119740418, -0.002686256, 0.003513022, 4.638723E-05, 0.0002593962
 119840378, -0.002750392, 0.003471188, -1.064828E-05, 0.0002593962
 119940338, -0.002813635, 0.003505384, -8.484306E-05, 0.0002593962
 120040298, -0.002768326, 0.003572217, 2.913264E-05, 0.0002593962
 120140258, -0.002571218, 0.003377419, 0.0001428986, 0.0002593962
 120240218, -0.002926571, 0.003626645, 0.000161831, 0.0002593962
 120340178, -0.002848177, 0.003570945, 5.977145E-06, 0.0002593962
 120440971, -0.002785014, 0.003332966, 3.340338E-05, 0.0002593962
 120540931, -0.00269056, 0.003530457, -7.10759E-06, 0.0002615578
 120640891, -0.002613563, 0.003482002, 4.525281E-05, 0.0002593962
 120740851, -0.00271678, 0.003448623, -2.073413E-05, 0.0002593962
 120840811, -0.002715579, 0.003559822, 1.618691E-05, 0.0002593962
 120940771, -0.002584573, 0.003440869, 4.285052E-05, 0.0002593962
 121040731, -0.002653689, 0.003536154, 4.920898E-05, 0.0002593962
 121140691, -0.002682924, 0.003383588, -0.0001052626, 0.0002593962
 121240651, -0.002580708, 0.003536659, -0.0001023646, 0.0002593962
 121340611, -0.002625425, 0.003449155, 7.264092E-05, 0.0002593962
 121440571, -0.002722598, 0.003461992, 0.0001060729, 0.0002593962
 121540531, -0.002769877, 0.00349371, 0.0001830036, 0.0002593962
 121640491, -0.002771561, 0.003388373, -5.272663E-05, 0.0002593962
 121740451, -0.002536142, 0.003418574, -4.401353E-05, 0.0002593962
 121840411, -0.00283163, 0.003496918, 4.839868E-05, 0.0002593962
 121940371, -0.002640913, 0.00341348, 2.833186E-05, 0.0002593962
 122040331, -0.002777478, 0.003472958, 2.964739E-06, 0.0002593962
 122140291, -0.002697827, 0.003634003, -0.0001769884, 0.0002593962
 122240251, -0.002668666, 0.00338308, -6.67877E-05, 0.0002593962
 122340211, -0.00262723, 0.003566186, -3.069603E-05, 0.0002593962
 122440171, -0.002647346, 0.003412124, 3.229756E-05, 0.0002593962
 122540964, -0.002614723, 0.003467676, 4.615725E-05, 0.0002615578
 122640924, -0.002638181, 0.003623766, -9.622538E-05, 0.0002593962
 122740884, -0.002622928, 0.003482762, -0.0001266831, 0.0002593962
 122840844, -0.002725561, 0.003566481, 5.471902E-06, 0.0002593962
 122940804, -0.002854648, 0.003444534, -0.0001071025, 0.0002593962
 123040764, -0.002740609, 0.003392125, 6.072475E-05, 0.0002593962
 123140724, -0.002517566, 0.00352393, 3.714982E-05, 0.0002593962
 123240684, -0.002725551, 0.003368407, -4.418512E-05, 0.0002593962
 123340644, -0.002700294, 0.003467666, -7.226913E-05, 0.0002593962
 123440604, -0.002822294, 0.00342335, -7.732158E-05, 0.0002593962
 123540564, -0.002744706, 0.003501718, 4.657789E-05, 0.0002593962
 123640524, -0.002879139, 0.003408604, -8.77792E-05, 0.0002593962
 123740484, -0.00282118, 0.003363346, 0.0001599721, 0.0002593962
 123840444, -0.0026678, 0.003339456, -7.822721E-05, 0.0002593962
 123940404, -0.002713185, 0.003298424, -8.064858E-05, 0.0002593962
 124040364, -0.00262929, 0.00359536, -6.008604E-05, 0.0002593962
 124140324, -0.002809263, 0.003442053, 3.469986E-05, 0.0002593962
 124240284, -0.002695576, 0.003413721, 3.689243E-06, 0.0002593962
 124340244, -0.002598576, 0.003392083, -6.631105E-05, 0.0002593962
 124440204, -0.002772394, 0.003339515, -2.995246E-05, 0.0002593962
 124540164, -0.002713283, 0.003460901, 7.83416E-05, 0.0002593962
 124640957, -0.002739805, 0.003464164, 3.46522E-06, 0.0002615578
 124740917, -0.00269907, 0.003320023, -2.247865E-05, 0.0002593962
 124840877, -0.002922911, 0.003533976, -9.935218E-05, 0.0002593962
 124940837, -0.002603061, 0.003561666, 1.703535E-05, 0.0002593962
 125040797, -0.002837461, 0.003373905, -7.630156E-05, 0.0002593962
 125140757, -0.002750009, 0.00360867, 3.072463E-05, 0.0002593962
 125240717, -0.002686715, 0.003627612, 6.261228E-05, 0.0002593962
 125340677, -0.002841488, 0.00351468, 1.738806E-05, 0.0002593962
 125440637, -0.002778994, 0.003421148, 7.006702E-06, 0.0002593962
 125540597, -0.002770236, 0.003498072, 5.418516E-05, 0.0002593962
 125640557, -0.002763825, 0.003514039, 1.492857E-05, 0.0002593962
 125740517, -0.002877232, 0.003367957, -0.0001253294, 0.0002593962
 125840477, -0.002752269, 0.003578094, 0.0001323552, 0.0002593962
 125940437, -0.002884924, 0.003359046, 3.46236E-05, 0.0002593962
 126040397, -0.002634263, 0.003571905, -7.526248E-05, 0.0002593962
 126140357, -0.00274882, 0.003565782, 0.0001705441, 0.0002593962
 126240317, -0.002891156, 0.00331081, 3.042911E-05, 0.0002593962
 126340277, -0.002763284, 0.003440644, -0.0001261016, 0.0002593962
 126440237, -0.002759858, 0.003397252, -0.0001159967, 0.0002593962
 126540197, -0.002688867, 0.003444045, -4.422325E-05, 0.0002593962
 126640157, -0.002785244, 0.003470186, 6.299359E-05, 0.0002593962
 126740950, -0.002698117, 0.003569457, -2.117422E-05, 0.0002615578
 126840910, -0.002793266, 0.003364454, 4.272659E-05, 0.0002593962
 126940870, -0.002777706, 0.003441837, 7.131584E-05, 0.0002593962
 127040830, -0.002652867, 0.003479743, 4.196395E-05, 0.0002593962
 127140790, -0.002460813, 0.003507696, -8.267909E-05, 0.0002593962
 127240750, -0.00267809, 0.003444139, -3.558642E-05, 0.0002593962
 127340710, -0.002685736, 0.003311722, -5.967612E-06, 0.0002593962
 127440670, -0.002733369, 0.003447884, 3.289814E-05, 0.0002593962
 127540630, -0.002781822, 0.003401424, 4.32223E-05, 0.0002593962
 127640590, -0.002768205, 0.003509548, -1.870361E-05, 0.0002593962
 127740550, -0.00274887, 0.003543873, 8.062951E-05, 0.0002593962
 127840510, -0.002756034, 0.003275744, -8.841791E-05, 0.0002593962
 127940470, -0.002829654, 0.003363024, -1.420406E-05, 0.0002593962
 128040430, -0.002781981, 0.003411081, -6.787446E-06, 0.0002593962
 128140390, -0.002631723, 0.003453069, -3.018125E-05, 0.0002593962
 128240350, -0.00264765, 0.003452005, 2.36226E-05, 0.0002593962
 128340310, -0.00272355, 0.003435662, -8.089643E-05, 0.0002593962
 128440270, -0.00257487, 0.003396588, 2.584377E-05, 0.0002593962
 128540230, -0.002673825, 0.003382983, -6.861802E-05, 0.0002593962
 128640190, -0.002816368, 0.00334883, 5.236438E-05, 0.0002593962
 128740150, -0.00296372, 0.003549233, -3.033378E-05, 0.0002593962
 128840943, -0.002643787, 0.00349931, -0.0001492932, 0.0002615578
 128940903, -0.00277666, 0.003351294, -8.775061E-05, 0.0002593962
 129040863, -0.002698957, 0.0034525, -8.263143E-05, 0.0002593962
 129140823, -0.002693283, 0.003328331, -9.72359E-07, 0.0002593962
 129240783, -0.002778091, 0.003556862, 4.261219E-05, 0.0002593962
 129340743, -0.002754061, 0.003380437, 5.32128E-05, 0.0002593962
 129440703, -0.00268925, 0.003334791, -4.179236E-05, 0.0002593962
 129540663, -0.002819652, 0.003460077, 1.066735E-05, 0.0002593962
 129640623, -0.002837231, 0.003504034, -5.072471E-05, 0.0002593962
 129740583, -0.002703465, 0.003367814, 9.762673E-05, 0.0002593962
 129840543, -0.002697198, 0.003378166, -2.282184E-05, 0.0002593962
 129940503, -0.00281126, 0.003525751, -1.10582E-05, 0.0002593962
 130040463, -0.002768982, 0.003535653, 7.236446E-05, 0.0002593962
 130140423, -0.002719647, 0.003486362, -4.538627E-05, 0.0002593962
 130240383, -0.0028102, 0.003440666, 2.050533E-05, 0.0002593962
 130340343, -0.002775516, 0.003474622, -0.0002168074, 0.0002593962
 130440303, -0.002773464, 0.003502155, 0.0001095429, 0.0002593962
 130540263, -0.002706705, 0.003377375, -0.0001013636, 0.0002593962
 130640223, -0.00262245, 0.003448149, -0.0001440616, 0.0002593962
 130740183, -0.002775897, 0.003658666, -0.000112603, 0.0002593962
 130840976, -0.00271817, 0.003436676, -3.912314E-05, 0.0002593962
 130940936, -0.002829335, 0.003552119, 0.0001025743, 0.0002615578
 131040896, -0.002638551, 0.003448524, -2.651107E-05, 0.0002593962
 131140856, -0.002807737, 0.003545464, -4.132524E-05, 0.0002593962
 131240816, -0.002703764, 0.003410467, -4.4004E-05, 0.0002593962
 131340776, -0.002869164, 0.003505779, -5.684486E-05, 0.0002593962
 131440736, -0.00268449, 0.003446, -9.421393E-05, 0.0002593962
 131540696, -0.00272535, 0.003575581, -9.187836E-05, 0.0002593962
 131640656, -0.002842014, 0.003374909, -1.572933E-06, 0.0002593962
 131740616, -0.002780556, 0.003474156, 3.383236E-05, 0.0002593962
 131840576, -0.002733532, 0.003376113, 0.0001273218, 0.0002593962
 131940536, -0.002595758, 0.003471599, -2.595816E-05, 0.0002593962
 132040496, -0.002760348, 0.003392027, -2.840813E-06, 0.0002593962
 132140456, -0.002615484, 0.003428305, 0.0001279796, 0.0002593962
 132240416, -0.002808514, 0.003427966, -2.665407E-05, 0.0002593962
 132340376, -0.002770293, 0.003413035, -5.210699E-05, 0.0002593962
 132440336, -0.002514182, 0.003337217, -3.21355E-05, 0.0002593962
 132540296, -0.002738343, 0.003544692, 2.12489E-05, 0.0002593962
 132640256, -0.002615677, 0.003463298, 4.424232E-05, 0.0002593962
 132740216, -0.002808549, 0.003447806, 0.0001126315, 0.0002593962
 132840176, -0.002732342, 0.00335958, -0.0001983802, 0.0002593962
 132940969, -0.002815089, 0.003420396, -3.748943E-05, 0.0002615578
 133040929, -0.002901902, 0.003481488, 1.540521E-05, 0.0002593962
 133140889, -0.002735947, 0.003347762, -2.189714E-05, 0.0002593962
 133240849, -0.002883371, 0.003391432, -5.085817E-05, 0.0002593962
 133340809, -0.002623348, 0.003422287, -0.0001030605, 0.0002593962
 133440769, -0.002699784, 0.003544971, 7.187828E-05, 0.0002593962
 133540729, -0.002849812, 0.003389509, 0.0001363018, 0.0002593962
 133640689, -0.002651648, 0.00336997, 9.463337E-05, 0.0002593962
 133740649, -0.002731503, 0.003474247, 6.339398E-05, 0.0002593962
 133840609, -0.002676236, 0.003451847, -8.504326E-05, 0.0002593962
 133940569, -0.002622083, 0.003700493, -2.414691E-05, 0.0002593962
 134040529, -0.00270988, 0.003465807, 1.96283E-05, 0.0002593962
 134140489, -0.002729611, 0.003372697, -1.379415E-05, 0.0002593962
 134240449, -0.002691789, 0.003431351, -3.671131E-05, 0.0002593962
 134340409, -0.002781159, 0.003410645, -8.579646E-07, 0.0002593962
 134440369, -0.002696245, 0.00354063, 0.0001799722, 0.0002593962
 134540329, -0.002807783, 0.003531617, -0.0001342999, 0.0002593962
 134640289, -0.002689341, 0.003396781, 2.297435E-06, 0.0002593962
 134740249, -0.002787043, 0.003471125, -0.0001773697, 0.0002593962
 134840209, -0.002632911, 0.003410471, -5.679719E-05, 0.0002593962
 134940169, -0.002707546, 0.003551692, -8.913285E-06, 0.0002593962
 135040962, -0.002863561, 0.003592948, 9.068993E-06, 0.0002615578
 135140922, -0.002737686, 0.003481606, 0.0001308204, 0.0002593962
 135240882, -0.002770259, 0.003377364, 3.7779E-05, 0.0002593962
 135340842, -0.002861829, 0.003513251, -4.206882E-05, 0.0002593962
 135440802, -0.002829751, 0.003686514, -4.254546E-05, 0.0002593962
 135540762, -0.002626657, 0.003557341, -0.0001676461, 0.0002593962
 135640722, -0.002616744, 0.003526973, -9.532936E-06, 0.0002593962
 135740682, -0.002725774, 0.003483106, -0.0001105438, 0.0002593962
 135840642, -0.00286066, 0.003433233, -0.0001003913, 0.0002593962
 135940602, -0.002810928, 0.003597307, 3.352731E-05, 0.0002593962
 136040562, -0.002705442, 0.003378363, -6.683536E-05, 0.0002593962
 136140522, -0.002613661, 0.003421895, 4.981909E-05, 0.0002593962
 136240482, -0.002794492, 0.003505826, -2.083898E-05, 0.0002593962
 136340442, -0.002617286, 0.00339936, -0.0001526984, 0.0002593962
 136440402, -0.002770254, 0.0034229, -2.90945E-05, 0.0002593962
 136540362, -0.002732569, 0.003488336, -7.931397E-06, 0.0002593962
 136640322, -0.002766278, 0.003502027, 7.302218E-06, 0.0002593962
 136740282, -0.002585967, 0.003429097, 8.529112E-05, 0.0002593962
 136840242, -0.002720279, 0.00333782, -8.579636E-06, 0.0002593962
 136940202, -0.002672646, 0.003664877, -4.137291E-05, 0.0002593962
 137040162, -0.002784632, 0.003459811, -0.0001104962, 0.0002593962
 137140955, -0.002770138, 0.003455307, -0.000116436, 0.0002615578
 137240915, -0.002632161, 0.003460298, -7.526248E-05, 0.0002593962
 137340875, -0.002624901, 0.003467518, -1.751199E-05, 0.0002593962
 137440835, -0.002645353, 0.003536846, -7.438544E-05, 0.0002593962
 137540795, -0.002546272, 0.003428993, -8.164E-05, 0.0002593962
 137640755, -0.002698707, 0.00345988, 6.295546E-05, 0.0002593962
 137740715, -0.002582843, 0.003492878, -3.262168E-05, 0.0002593962
 137840675, -0.00271309, 0.003533797, -2.467122E-05, 0.0002593962
 137940635, -0.002738799, 0.003504893, 7.174482E-05, 0.0002593962
 138040595, -0.002758307, 0.003470101, -4.099147E-07, 0.0002593962
 138140555, -0.002818046, 0.003401532, 1.260253E-05, 0.0002593962
 138240515, -0.002685429, 0.003487862, 3.83605E-05, 0.0002593962
 138340475, -0.002699171, 0.003410806, 0.0001173504, 0.0002593962
 138440435, -0.002667424, 0.003353706, -7.550079E-05, 0.0002593962
 138540395, -0.002749963, 0.003433722, 4.625377E-05, 0.0002593962
 138640355, -0.002718966, 0.003267831, -0.000105663, 0.0002593962
 138740315, -0.002586302, 0.003355209, -0.0001036325, 0.0002593962
 138840275, -0.002712945, 0.003501034, -2.570078E-05, 0.0002593962
 138940235, -0.002582283, 0.003498335, 0.0001513162, 0.0002593962
 139040195, -0.002586257, 0.003312496, 5.510986E-05, 0.0002593962
 139140155, -0.002736108, 0.003482719, -0.0001135276, 0.0002593962
 139240948, -0.002727052, 0.003448459, -4.821755E-05, 0.0002615578
 139340908, -0.002740983, 0.003567594, 2.263117E-05, 0.0002593962
 139440868, -0.002670313, 0.003405537, 9.80843E-05, 0.0002593962
 139540828, -0.002721761, 0.003541336, -7.347981E-05, 0.0002593962
 139640788, -0.002761627, 0.003388236, -4.938056E-06, 0.0002593962
 139740748, -0.0027887, 0.003287686, 4.479523E-05, 0.0002593962
 139840708, -0.002829113, 0.0034534, 0.0001738044, 0.0002593962
 139940668, -0.00274026, 0.003486413, -8.440455E-05, 0.0002593962
 140040628, -0.002805962, 0.003501303, 3.835097E-05, 0.0002593962
 140140588, -0.002822599, 0.003517259, 9.463338E-05, 0.0002593962
 140240548, -0.002663163, 0.003505937, -4.819848E-05, 0.0002593962
 140340508, -0.002623163, 0.003633451, 8.058184E-05, 0.0002593962
 140440468, -0.002776355, 0.003605825, -0.0001956157, 0.0002593962
 140540428, -0.002712267, 0.003601362, 5.439489E-05, 0.0002593962
 140640388, -0.002759544, 0.003338287, -6.264087E-05, 0.0002593962
 140740348, -0.002759268, 0.003480809, -0.0001181225, 0.0002593962
 140840308, -0.002858225, 0.003514659, 8.494793E-05, 0.0002593962
 140940268, -0.002969001, 0.003409146, 0.0001325554, 0.0002593962
 141040228, -0.00272731, 0.003290888, -8.067717E-05, 0.0002593962
 141140188, -0.002846492, 0.003508072, 5.643494E-05, 0.0002593962
 141240148, -0.002728301, 0.003533151, 2.410878E-05, 0.0002593962
 141340941, -0.002783472, 0.003628217, -1.608126E-05, 0.0002615578
 141440901, -0.002657957, 0.003560539, 1.938998E-05, 0.0002593962
 141540861, 0.01101667, 0.001939374, -6.377529E-06, 0.0002593962
 141640821, 0.07389984, -0.005114676, -0.0001357966, 0.0002593962
 141740781, 0.1657355, -0.0148325, 0.0006277815, 0.0002593962
 141840741, 0.2688136, -0.02619107, 0.003831093, 0.0002593962
 141940701, 0.3768629, -0.03671589, 0.006866788, 0.0002593962
 142040661, 0.4826923, -0.05068958, 0.009706189, 0.0002593962
 142140621, 0.5858238, -0.05991196, 0.0120084, 0.0002593962
 142240581, 0.6855072, -0.06979305, 0.01398026, 0.0002593962
 142340541, 0.7839851, -0.0814492, 0.0165053, 0.0002593962
 142440501, 0.8704087, -0.09304653, 0.01863657, 0.0002593962
 142540461, 0.9430989, -0.0981787, 0.0209711, 0.0002593962
 142640421, 0.956864, -0.1018494, 0.02258014, 0.0002593962
 142740381, 0.9394063, -0.09923515, 0.02345234, 0.0002593962
 142840341, 0.9025983, -0.09882408, 0.02293581, 0.0002593962
 142940301, 0.8579952, -0.08864817, 0.02211983, 0.0002593962
 143040261, 0.8135086, -0.08230101, 0.02097461, 0.0002593962
 143140221, 0.7620469, -0.08103932, -0.00480838, 0.0002593962
 143240181, 0.7116272, -0.07841069, -0.04730246, 0.0002593962
 143340974, 0.6592983, -0.06876679, -0.01405239, 0.0002593962
 143440934, 0.6154766, -0.0638092, 0.02005492, 0.0002615578
 143540894, 0.5645372, -0.06166431, 0.03486079, 0.0002593962
 143640854, 0.8194106, -0.08001202, -0.1948183, 0.0002593962
 143740814, 0.8376894, -0.09304599, -0.7813365, 0.0002593962
 143840774, 0.7329199, -0.07806261, -0.9221795, 0.0002593962
 143940734, 0.6345353, -0.07330593, -0.773731, 0.0002593962
 144040694, 0.5888857, -0.07742189, -0.5014794, 0.0002593962
 144140654, 0.5853143, -0.07859592, -0.2309262, 0.0002593962
 144240614, 0.5941085, -0.0716584, -0.008750821, 0.0002593962
 144340574, 0.5922445, -0.07648128, 0.1042438, 0.0002593962
 144440534, 0.5617415, -0.06670026, 0.07579636, 0.0002593962
 144540494, 0.5270054, -0.05414541, 0.01935319, 0.0002593962
 144640454, 0.4806941, -0.04377026, -0.09923038, 0.0002593962
 144740414, 0.4302142, -0.04662554, -0.2111021, 0.0002593962
 144840374, 0.3797006, -0.03690893, -0.2491057, 0.0002593962
 144940334, 0.3424434, -0.03853047, -0.2644436, 0.0002593962
 145040294, 0.3124188, -0.03255664, -0.2419737, 0.0002593962
 145140254, 0.2854898, -0.03685202, -0.2225233, 0.0002593962
 145240214, 0.2749364, -0.03265076, -0.1579392, 0.0002593962
 145340174, 0.2468517, -0.04252867, -0.1472106, 0.0002593962
 145440967, 0.2461535, -0.02436832, -0.0893289, 0.0002615578
 145540927, 0.2272184, -0.01980107, -0.05656422, 0.0002593962
 145640887, 0.223279, -0.02501635, -0.02218493, 0.0002593962
 145740847, 0.2079039, -0.02112836, -0.02310964, 0.0002593962
 145840807, 0.1918597, -0.02313797, -0.03760911, 0.0002593962
 145940767, 0.1597337, -0.01240091, -0.06764556, 0.0002593962
 146040727, 0.1528361, -0.009683039, -0.08722048, 0.0002593962
 146140687, 0.1191734, -0.01598776, -0.1110612, 0.0002593962
 146240647, 0.07768299, -0.01817801, -0.1586653, 0.0002593962
 146340607, 0.06541152, -0.01646688, -0.210679, 0.0002593962
 146440567, 0.05098734, -0.009178007, -0.2286401, 0.0002593962
 146540527, 0.04957865, -0.004625917, -0.1839807, 0.0002593962
 146640487, 0.04915443, -0.0160288, -0.1194061, 0.0002593962
 146740447, 0.05921768, -0.008134984, -0.04167401, 0.0002593962
 146840407, 0.07304765, -0.0008882715, 0.0152156, 0.0002593962
 146940367, 0.07577417, 0.003748455, 0.02254471, 0.0002593962
 147040327, 0.05702196, -0.01661612, -0.0116038, 0.0002593962
 147140287, 0.05156275, -0.02076411, -0.02010891, 0.0002593962
 147240247, 0.06127921, -0.01266799, 0.01589908, 0.0002593962
 147340207, 0.05535164, -0.01178919, 0.02823597, 0.0002593962
 147440167, 0.04752251, -0.008975681, 0.006851268, 0.0002593962
 147540960, 0.04502132, -0.007550917, 0.002393407, 0.0002615578
 147640920, 0.03465192, -0.008721115, -0.003803467, 0.0002593962
 147740880, 0.05083999, -0.00560465, 0.05790012, 0.0002593962
 147840840, 0.05500827, -0.004386888, 0.07863872, 0.0002593962
 147940800, 0.06840373, -0.006019875, 0.1221049, 0.0002593962
 148040760, 0.08083612, -0.008142701, 0.1639226, 0.0002593962
 148140720, 0.0775288, -0.0002393, 0.1553366, 0.0002593962
 148240680, 0.06787965, 0.001218642, 0.1136893, 0.0002593962
 148340640, 0.05798393, -0.006423045, 0.05558877, 0.0002593962
 148440600, 0.03822174, 0.004008783, -0.02694024, 0.0002593962
 148540560, 0.02235512, -0.003016849, -0.05033307, 0.0002593962
 148640520, 0.01284357, -0.005604885, -0.06224077, 0.0002593962
 148740480, 0.009820933, -0.003024959, -0.0769017, 0.0002593962
 148840440, -0.0001458793, 0.00575364, -0.08420718, 0.0002593962
 148940400, -0.000260303, 0.001106813, -0.005028791, 0.0002593962
 149040360, -0.006050646, 0.002886904, 0.03465463, 0.0002593962
 149140320, -0.02245352, 0.003594606, 0.04215528, 0.0002593962
 149240280, -0.0320152, -0.003412068, 0.07712835, 0.0002593962
 149340240, -0.04628275, 0.001778051, 0.08012901, 0.0002593962
 149440200, -0.07353742, 0.0157749, 0.02509904, 0.0002593962
 149540160, -0.03786495, 0.005240449, 0.2604392, 0.0002593962
 149640953, 0.02541626, 0.001724874, 0.5903376, 0.0002615578
 149740913, 0.06329327, 0.0102552, 0.7925988, 0.0002593962
 149840873, 0.05056962, 0.0205727, 0.7715198, 0.0002593962
 149940833, 0.02415135, 0.02403307, 0.6425062, 0.0002593962
 150040793, 0.006698744, 0.03419723, 0.4533512, 0.0002593962
 150140753, -0.00172548, 0.04873062, 0.2484722, 0.0002593962
 150240713, -0.01163225, 0.04768137, 0.02569859, 0.0002593962
 150340673, -0.01442773, 0.04104463, -0.02715611, 0.0002593962
 150440633, -0.006488101, 0.02527296, 0.004505376, 0.0002593962
 150540593, 0.001776054, 0.01792291, 0.02619887, 0.0002593962
 150640553, 0.00854153, 0.02259869, 0.06902944, 0.0002593962
 150740513, 0.0140545, 0.01975968, 0.1134209, 0.0002593962
 150840473, 0.02182354, 0.01599558, 0.1757791, 0.0002593962
 150940433, 0.01713278, 0.01546616, 0.1863645, 0.0002593962
 151040393, 0.01968484, 0.009980509, 0.1806306, 0.0002593962
 151140353, 0.006725278, 0.01451277, 0.1315647, 0.0002593962
 151240313, -0.05661066, 0.03489986, 0.01757302, 0.0002593962
 151340273, -0.1484539, 0.05287076, -0.1317132, 0.0002593962
 151440233, -0.2570407, 0.06365424, -0.2427636, 0.0002593962
 151540193, -0.3249776, 0.06294862, -0.2190848, 0.0002593962
 151640153, -0.3160205, 0.05277057, -0.1107035, 0.0002593962
 151740946, -0.2677602, 0.03736134, 0.05123163, 0.0002615578
 151840906, -0.2043319, 0.03172714, 0.2258728, 0.0002593962
 151940866, -0.1639162, 0.02908861, 0.3073404, 0.0002593962
 152040826, -0.1324092, 0.02878789, 0.3438246, 0.0002593962
 152140786, -0.1101608, 0.02852554, 0.3215635, 0.0002593962
 152240746, -0.09022057, 0.02256216, 0.2612866, 0.0002593962
 152340706, -0.07779586, 0.01658821, 0.209242, 0.0002593962
 152440666, -0.06327558, 0.01569017, 0.1627822, 0.0002593962
 152540626, -0.05071241, 0.01602421, 0.1411089, 0.0002593962
 152640586, -0.03721972, 0.01668053, 0.1080301, 0.0002593962
 152740546, -0.02715702, 0.01563068, 0.0634649, 0.0002593962
 152840506, -0.02000756, 0.0157309, 0.0190463, 0.0002593962
 152940466, -0.01458192, 0.01378836, 0.02080357, 0.0002593962
 153040426, -0.008030277, 0.01069071, 0.03159523, 0.0002593962
 153140386, -0.0006700503, 0.006320175, 0.02607919, 0.0002593962
 153240346, 0.004203608, 0.01597132, 0.05302331, 0.0002593962
 153340306, 0.01102437, 0.0218556, 0.07666577, 0.0002593962
 153440266, 0.01542526, 0.01891763, 0.07768738, 0.0002593962
 153540226, 0.01493087, 0.02205122, 0.0793889, 0.0002593962
 153640186, 0.01666974, 0.02290445, 0.06555761, 0.0002593962
 153740146, 0.02361475, 0.0215867, 0.03748878, 0.0002593962
 153840939, 0.02595181, 0.01527055, 0.0192809, 0.0002615578
 153940899, 0.02587122, 0.003392591, 0.02490875, 0.0002593962
 154040859, 0.02554754, 0.006475493, 0.00430221, 0.0002593962
 154140819, 0.02485928, 0.003562487, -0.03345314, 0.0002593962
 154240779, 0.02727378, 0.00312267, -0.01696347, 0.0002593962
 154340739, 0.02822697, 0.003582412, -0.02329578, 0.0002593962
 154440699, 0.02799503, -0.002567173, -0.06508486, 0.0002593962
 154540659, 0.03114185, 0.0005600479, -0.06369422, 0.0002593962
 154640619, 0.02745472, 0.008738413, -0.03560728, 0.0002593962
 154740579, 0.02677886, 0.008179702, -0.002832595, 0.0002593962
 154840539, 0.025477, 0.004622402, 0.01885394, 0.0002593962
 154940499, 0.02724164, 0.008568585, 0.01893708, 0.0002593962
 155040459, 0.0279855, 0.009087298, 0.003010032, 0.0002593962
 155140419, 0.02353713, 0.005797768, -0.01649743, 0.0002593962
 155240379, 0.02321112, 0.005397279, -0.01812203, 0.0002593962
 155340339, 0.02405444, 0.008632236, -0.00967474, 0.0002593962
 155440299, 0.0220977, 0.002469223, -0.03868877, 0.0002593962
 155540259, 0.02528362, 0.004580535, -0.01810982, 0.0002593962
 155640219, 0.02737345, 0.01015059, -0.01980355, 0.0002593962
 155740179, 0.02850101, 0.003942427, -0.008343172, 0.0002593962
 155840972, 0.02313046, 0.004410902, -0.02591758, 0.0002593962
 155940932, 0.02563803, 0.005352794, -0.009781517, 0.0002615578
 156040892, 0.02126807, 0.01379426, -0.02225685, 0.0002593962
 156140852, 0.02782266, 0.008995005, -0.04358755, 0.0002593962
 156240812, 0.02810037, 0.007843455, -0.0005065323, 0.0002593962
 156340772, 0.02683417, 0.005528914, 0.01114258, 0.0002593962
 156440732, 0.02465339, 0.01239665, 0.00612975, 0.0002593962
 156540692, 0.02708936, 0.01113156, 0.02938799, 0.0002593962
 156640652, 0.03446774, 0.01017674, -0.01339044, 0.0002593962
 156740612, 0.02990458, 0.003931217, -0.06246693, 0.0002593962
 156840572, 0.03102329, 0.00588744, -0.06487021, 0.0002593962
 156940532, 0.02510687, 0.006152673, -0.06938206, 0.0002593962
 157040492, 0.02417048, 0.004714623, -0.05223747, 0.0002593962
 157140452, 0.0218363, 0.008008477, -0.01205964, 0.0002593962
 157240412, 0.02088753, 0.009673627, 0.02076397, 0.0002593962
 157340372, 0.02456661, 0.01378314, 0.002586675, 0.0002593962
 157440332, 0.02551163, 0.01893877, -0.0236122, 0.0002593962
 157540292, 0.02200988, 0.01856373, -0.01464598, 0.0002593962
 157640252, 0.01964125, 0.01806184, -0.02091686, 0.0002593962
 157740212, 0.02639848, 0.01441604, -0.01109659, 0.0002593962
 157840172, 0.02397958, 0.009090249, 0.02240568, 0.0002593962
 157940965, 0.02414924, 0.005595205, 0.01398474, 0.0002615578
 158040925, 0.02684755, 0.009415447, 0.01026129, 0.0002593962
 158140885, 0.02816246, 0.00720796, -0.02179622, 0.0002593962
 158240845, 0.02629508, 0.001930441, -0.02787382, 0.0002593962
 158340805, 0.02745551, 0.004246498, -0.0234194, 0.0002593962
 158440765, 0.02556876, 0.007347429, -0.05908229, 0.0002593962
 158540725, 0.01930597, 0.005943243, -0.06897894, 0.0002593962
 158640685, 0.01989427, -0.0006237288, -0.03242785, 0.0002593962
 158740645, 0.02233453, -0.005854112, -0.02663164, 0.0002593962
 158840605, 0.0183249, -0.01545944, -0.02689468, 0.0002593962
 158940565, 0.01703662, -0.007616174, -0.006525204, 0.0002593962
 159040525, 0.0186726, -0.005917368, -0.01790203, 0.0002593962
 159140485, 0.01341145, -0.004192946, -0.0271276, 0.0002593962
 159240445, 0.01049089, -1.724875E-05, -0.0596788, 0.0002593962
 159340405, 0.008934442, -0.001812801, -0.05779708, 0.0002593962
 159440365, 0.0121014, -0.01100967, -0.0434593, 0.0002593962
 159540325, 0.01175426, -0.01318408, -0.01767518, 0.0002593962
 159640285, 0.0113865, -0.004554149, 0.0354453, 0.0002593962
 159740245, 0.01645355, -0.002966648, 0.02592036, 0.0002593962
 159840205, 0.01053724, -0.002180089, -0.0003141577, 0.0002593962
 159940165, 0.01362858, -0.00099221, 0.005506896, 0.0002593962
 160040958, 0.01091402, 0.007143481, -0.04522434, 0.0002615578
 160140918, 0.01156492, 0.004051188, -0.02564623, 0.0002593962
 160240878, 0.01065326, 0.002882136, -0.02833978, 0.0002593962
 160340838, 0.006988161, 0.008083089, -0.03099614, 0.0002593962
 160440798, 0.009673595, 0.01238948, 0.02017502, 0.0002593962
 160540758, 0.01430126, 0.00698281, 0.01105244, 0.0002593962
 160640718, 0.01370912, -0.000916022, -0.02171727, 0.0002593962
 160740678, 0.01105848, 0.0003478248, -0.05399614, 0.0002593962
 160840638, 0.009595335, 0.007094847, -0.03110272, 0.0002593962
 160940598, 0.005784848, 0.01193807, -0.006439245, 0.0002593962
 161040558, 0.009432616, 0.009961493, 0.01530612, 0.0002593962
 161140518, 0.009155158, 0.009428846, 0.03730403, 0.0002593962
 161240478, 0.01089632, 0.00510201, 0.02302348, 0.0002593962
 161340438, 0.009367222, 0.009076649, 0.001885175, 0.0002593962
 161440398, 0.0125486, 0.0004868027, -0.009823664, 0.0002593962
 161540358, 0.01632298, -0.003138678, 0.02392341, 0.0002593962
 161640318, 0.01431058, 0.005848018, 0.004298197, 0.0002593962
 161740278, 0.01223882, -0.003804448, -0.01619953, 0.0002593962
 161840238, 0.01600569, -0.01609821, -0.02863298, 0.0002593962
 161940198, 0.015792, -0.01910638, -0.04523447, 0.0002593962
 162040158, 0.01709954, -0.0138267, -0.005212224, 0.0002593962
 162140951, 0.01333403, -0.006860766, 0.00903553, 0.0002615578
 162240911, 0.01564526, -0.000694113, 0.03795873, 0.0002593962
 162340871, 0.01735282, -0.003559113, 0.003953639, 0.0002593962
 162440831, 0.01322763, -0.01797802, -0.01268034, 0.0002593962
 162540791, 0.01380498, -0.02339812, -0.03341943, 0.0002593962
 162640751, 0.01183456, -0.005354445, -0.01768094, 0.0002593962
 162740711, 0.004578067, -0.01085697, -0.01817015, 0.0002593962
 162840671, 0.008688803, -0.007385543, -0.01580808, 0.0002593962
 162940631, 0.009281195, -0.007165934, -0.02118322, 0.0002593962
 163040591, 0.003286557, -0.01407038, -0.01545497, 0.0002593962
 163140551, 0.006532042, -0.004375461, 0.004825454, 0.0002593962
 163240511, 0.007629838, 0.002513619, 0.006547434, 0.0002593962
 163340471, 0.002747766, 0.008447714, 0.03827292, 0.0002593962
 163440431, 0.007133842, 0.01345232, 0.009279134, 0.0002593962
 163540391, 0.002686338, 0.01302024, -0.005123063, 0.0002593962
 163640351, 0.007924683, 0.007981514, -0.02953172, 0.0002593962
 163740311, 0.01627607, 0.01598421, -0.01559409, 0.0002593962
 163840271, 0.01216553, 0.02703013, -0.03688205, 0.0002593962
 163940231, 0.0131679, 0.04017429, -0.01603072, 0.0002593962
 164040191, 0.008659299, 0.05326781, -0.003545258, 0.0002593962
 164140151, 0.01486177, 0.04920051, 0.02553725, 0.0002593962
 164240944, 0.01187688, 0.03869404, 0.03931763, 0.0002615578
 164340904, 0.01031119, 0.03834679, -0.005154073, 0.0002593962
 164440864, 0.01095738, 0.04946181, -0.02881938, 0.0002593962
 164540824, 0.008792493, 0.06645206, -0.02543974, 0.0002593962
 164640784, 0.0101263, 0.0835385, -0.01690965, 0.0002593962
 164740744, 0.01234246, 0.08769371, -0.04399825, 0.0002593962
 164840704, 0.02232003, 0.21013, -0.02092228, 0.0002593962
 164940664, 0.03052842, 0.3350166, 0.02548212, 0.0002593962
 165040624, 0.0289073, 0.2402458, 0.01806208, 0.0002593962
 165140584, 0.01880156, 0.08451226, -0.02913305, 0.0002593962
 165240544, 0.007353895, -0.01625972, -0.03995484, 0.0002593962
 165340504, 0.004445072, -0.06462546, 0.01340284, 0.0002593962
 165440464, 0.004821953, -0.06652661, 0.03595271, 0.0002593962
 165540424, 0.005919873, -0.04494796, 0.01606127, 0.0002593962
 165640384, 0.003511449, -0.001485971, 0.02050416, 0.0002593962
 165740344, 0.01167012, 0.02944625, -0.02414836, 0.0002593962
 165840304, 0.008118805, 0.05243021, -0.04853218, 0.0002593962
 165940264, 0.004153094, 0.06415291, -0.05663846, 0.0002593962
 166040224, 0.003068785, 0.06007599, -0.01313677, 0.0002593962
 166140184, 0.0002696397, 0.06138147, -0.02973948, 0.0002593962
 166240977, 0.001832135, 0.04545933, 0.002911738, 0.0002593962
 166340937, 0.0002850429, 0.04534753, 0.02210927, 0.0002615578
 166440897, 0.002978081, 0.03336034, 0.04439436, 0.0002593962
 166540857, 0.00780435, 0.02202012, 0.07052431, 0.0002593962
 166640817, 0.006572552, 0.01358048, 0.03347965, 0.0002593962
 166740777, 0.003459811, 0.01678776, -0.01569087, 0.0002593962
 166840737, 0.007736237, 0.01283415, -0.007513321, 0.0002593962
 166940697, 0.01157131, 0.01843233, -0.06101851, 0.0002593962
 167040657, 0.006329955, 0.02376206, -0.07210463, 0.0002593962
 167140617, 0.005381675, 0.01779597, 0.01246311, 0.0002593962
 167240577, 0.0002157264, 0.02064467, -0.02017097, 0.0002593962
 167340537, 0.002811737, 0.01262672, -0.01899877, 0.0002593962
 167440497, 0.003429731, 0.01967939, 0.002400649, 0.0002593962
 167540457, 0.002799191, 0.01732457, -0.003305819, 0.0002593962
 167640417, -0.00348928, 0.01968763, -1.229811E-06, 0.0002593962
 167740377, -0.006683026, 0.01856916, 0.01067109, 0.0002593962
 167840337, -0.007534725, 0.01742887, -0.002529515, 0.0002593962
 167940297, -0.002403077, 0.01994026, -0.009833444, 0.0002593962
 168040257, 0.001804059, 0.01881871, -0.002949212, 0.0002593962
 168140217, 0.001302519, 0.01178452, 0.01422165, 0.0002593962
 168240177, 0.002408916, 0.01808529, -0.03136544, 0.0002593962
 168340970, -0.008605265, 0.02194204, 0.02300784, 0.0002593962
 168440930, -0.006822206, 0.02072936, 0.009221087, 0.0002615578
 168540890, -0.009842534, 0.01782533, -0.01699204, 0.0002593962
 168640850, -0.00716957, 0.01436532, 0.002498152, 0.0002593962
 168740810, 0.002966956, 0.02223753, 0.03916203, 0.0002593962
 168840770, 0.006851053, 0.01729439, 0.003606631, 0.0002593962
 168940730, 0.006740074, 0.01385377, 0.02181831, 0.0002593962
 169040690, 0.009755272, 0.01505599, 0.0457034, 0.0002593962
 169140650, 0.005313399, 0.02051799, 0.01178808, 0.0002593962
 169240610, 0.007652804, 0.02686475, -0.03188562, 0.0002593962
 169340570, 0.00234136, 0.02287756, -0.039095, 0.0002593962
 169440530, -0.001989929, 0.02526574, -0.02604738, 0.0002593962
 169540490, 0.0004994147, 0.02423486, -0.01810966, 0.0002593962
 169640450, -0.000370957, 0.01448186, 0.01001856, 0.0002593962
 169740410, -0.001438592, 0.005113357, 0.004035946, 0.0002593962
 169840370, -0.002157966, 0.007188618, 0.02394945, 0.0002593962
 169940330, -0.001721297, 0.01508584, -0.03995703, 0.0002593962
 170040290, 0.0002175667, 0.0179171, -0.03054852, 0.0002593962
 170140250, 0.003637386, 0.02365421, 0.007704094, 0.0002593962
 170240210, 0.006248107, 0.01586743, 0.04646158, 0.0002593962
 170340170, 0.00454495, 0.009843318, 0.05198747, 0.0002593962
 170440963, 0.004942944, 0.00325943, 0.03801639, 0.0002615578
