TimeUS,CAN,CAE,CAD,CAe,NAN,NAE,NAD,NAe,m10,m00,Gye
 77703906, 2.551199E-07, 4.478652E-05, -2.051963E-06, 6.484905E-06, 0, 0, 0, 0, -0.9999962, -0.002226411, 0.8459001
 77806365, 0.007192709, 1.406872, -0.1021209, 0.2019074, -0.02671465, 1.408832, 0.01956351, 0.201901, -0.9999962, -0.002215416, 27.1045
 78006285, -0.02672255, 1.416122, 0.01958116, 0.2024261, -0.0001099577, 0.004194524, -5.325928E-05, 0.0005187925, -0.9999962, -0.002192747, 67.93536
 78206205, -8.891242E-05, 0.01162123, -0.0001897327, 0.00104407, 7.584528E-05, 0.004111469, 5.123233E-05, 0.0005187925, -0.9999963, -0.002170643, 0.3503954
 78406125, 4.213686E-05, 0.01172371, -2.984402E-05, 0.00104407, -8.552238E-05, 0.004445133, 0.0003256067, 0.0005187925, -0.9999963, -0.002149597, 0.3503954
 78606045, -0.0002006694, 0.01185515, 0.0003733942, 0.00104407, -0.0001045224, 0.004209916, -0.0001576437, 0.0005187925, -0.9999963, -0.002127128, 0.3503954
 78805965, -0.0003741458, 0.01164854, -4.222368E-05, 0.00104407, -0.0003728894, 0.004044276, 4.167678E-05, 0.0005187925, -0.9999964, -0.002104638, 0.3503954
 79005885, -0.0002997117, 0.01152225, 0.0001521431, 0.00104407, 9.552727E-05, 0.004202754, -0.0001420764, 0.0005187925, -0.9999964, -0.002082945, 0.3503954
 79205805, 0.0001273626, 0.01169376, -0.0002728073, 0.00104407, -4.510786E-05, 0.004137291, -7.670075E-05, 0.0005187925, -0.9999964, -0.002061312, 0.3503954
 79406558, -0.0001186284, 0.01186335, 8.43954E-05, 0.001046232, -0.0002575017, 0.004423772, 0.0001854087, 0.0005209541, -0.9999964, -0.002039803, 0.3511209
 79606478, -0.0006146242, 0.0120899, 0.0002146414, 0.001046232, 2.760453E-05, 0.004278458, 0.0002144527, 0.0005187925, -0.9999965, -0.002023012, 0.3511209
 79806398, -3.94823E-05, 0.01208559, 0.0002634651, 0.00104407, 5.552233E-05, 0.004429291, 0.0002599487, 0.0005187925, -0.9999967, -0.00200478, 0.3503954
 80006318, 0.0001901495, 0.01205133, 0.0003769558, 0.00104407, -4.729825E-05, 0.004026349, -0.0001118189, 0.0005187925, -0.9999967, -0.001984575, 0.3503954
 80206238, -0.0001781833, 0.01139252, -7.623721E-05, 0.00104407, -0.0001381472, 0.004129897, -0.0001764986, 0.0005187925, -0.9999968, -0.001963817, 0.3503954
 80406158, -0.0001538794, 0.01168707, 1.268476E-05, 0.00104407, 4.298325E-05, 0.004026871, 0.0001041055, 0.0005187925, -0.9999968, -0.001943349, 0.3503954
 80606078, -0.0001787833, 0.0116469, 0.0002673224, 0.00104407, -0.0002553751, 0.004237473, 0.0002176713, 0.0005187925, -0.9999968, -0.001923104, 0.3503954
 80805998, -0.0002888859, 0.01178075, 0.0001365235, 0.00104407, -0.0001028034, 0.00397461, 5.366086E-05, 0.0005187925, -0.9999969, -0.001902143, 0.3503954
 81005918, -0.000101654, 0.01133617, 0.0001687602, 0.00104407, -9.25689E-05, 0.003746457, -0.0001516939, 0.0005187925, -0.9999969, -0.001880793, 0.3503954
 81205838, -0.0001902144, 0.01122277, -0.0002881375, 0.00104407, -0.0001232343, 0.00398155, -0.0001315747, 0.0005187925, -0.9999969, -0.001858448, 0.3503954
 81406591, -0.0003918481, 0.01164206, -1.253146E-05, 0.001046232, -0.0004655176, 0.004280628, -0.0001507382, 0.0005209541, -0.999997, -0.001837279, 0.3511209
 81606511, -0.0004636649, 0.01176949, -0.0001024135, 0.001046232, 7.714833E-05, 0.003999031, 3.869773E-05, 0.0005187925, -0.999997, -0.001815408, 0.3511209
 81806431, -0.0001090828, 0.01145348, 2.237258E-05, 0.00104407, -0.0001929881, 0.004013655, 7.130988E-05, 0.0005187925, -0.999997, -0.001793216, 0.3503954
 82006351, -0.000622768, 0.01153592, 0.0002044658, 0.00104407, -0.0001722971, 0.004029646, 1.004294E-05, 0.0005187925, -0.9999971, -0.001771055, 0.3503954
 82206271, -0.0003305165, 0.01158606, -1.486661E-05, 0.00104407, 0.0003011774, 0.004291139, -0.0001459253, 0.0005187925, -0.9999971, -0.001748226, 0.3503954
 82406191, 4.800341E-05, 0.01170871, -4.993107E-05, 0.00104407, -0.0001376088, 0.004000065, 8.326297E-05, 0.0005187925, -0.9999971, -0.00172597, 0.3503954
 82606111, -0.0001365533, 0.01126876, 0.0002137104, 0.00104407, -0.0001497541, 0.003900681, 0.0001396836, 0.0005187925, -0.9999973, -0.001703412, 0.3503954
 82806031, -0.0002954472, 0.01150294, 7.988357E-05, 0.00104407, 0.0001013276, 0.004171367, 3.618342E-05, 0.0005187925, -0.9999973, -0.001680753, 0.3503954
 83005951, 8.578798E-06, 0.01175999, -3.182796E-06, 0.00104407, 8.003833E-05, 0.003884811, -5.016466E-05, 0.0005187925, -0.9999974, -0.001657887, 0.3503954
 83205871, -0.0001493132, 0.01135232, -4.109288E-05, 0.00104407, -0.0002021902, 0.004245764, -0.0001104092, 0.0005187925, -0.9999974, -0.001634019, 0.3503954
 83405791, -0.0002467259, 0.01169953, -0.000223341, 0.00104407, -0.0001011131, 0.004174864, 0.0002039355, 0.0005187925, -0.9999974, -0.001610685, 0.3503954
 83606544, -0.0003678482, 0.01161533, 0.0001338816, 0.001046232, -0.0002113828, 0.00394355, -6.295784E-05, 0.0005209541, -0.9999974, -0.001587942, 0.3511209
 83806464, -0.0003297796, 0.01153071, -0.0001811494, 0.001046232, -9.767486E-05, 0.004026276, -0.0002078095, 0.0005187925, -0.9999975, -0.001563563, 0.3511209
 84006384, -7.968703E-05, 0.01147126, 7.205347E-05, 0.00104407, -0.0001634024, 0.003942405, -3.051729E-05, 0.0005187925, -0.9999975, -0.001539599, 0.3503954
 84206304, -0.0003066977, 0.01153362, 0.0001582335, 0.00104407, 7.061126E-05, 0.003857638, 3.386573E-05, 0.0005187925, -0.9999975, -0.001515527, 0.3503954
 84406224, 5.087974E-05, 0.01142905, 0.0004141866, 0.00104407, 0.0001526088, 0.004358218, 2.071625E-05, 0.0005187925, -0.9999976, -0.001492438, 0.3503954
 84606144, 0.0001470919, 0.01185896, 0.0001982575, 0.00104407, 3.581858E-05, 0.004221913, 8.648035E-05, 0.0005187925, -0.9999976, -0.001469428, 0.3503954
 84806064, 2.949815E-05, 0.01154999, 0.0001822195, 0.00104407, -0.0001707609, 0.00413084, -0.0002393516, 0.0005187925, -0.9999976, -0.001455682, 0.3503954
 85005984, -0.0002024947, 0.01146649, -0.0002698176, 0.00104407, -0.0001372366, 0.00378033, -3.019436E-05, 0.0005187925, -0.9999976, -0.001440992, 0.3503954
 85205904, -0.0001711343, 0.01138177, -9.786741E-05, 0.00104407, -6.106958E-05, 0.004408771, -0.0002394326, 0.0005187925, -0.9999976, -0.001424242, 0.3503954
 85405824, 7.274273E-05, 0.01202347, -0.000124618, 0.00104407, -9.808183E-05, 0.003898794, 4.069011E-05, 0.0005187925, -0.9999977, -0.001408262, 0.3503954
 85606577, -8.959676E-05, 0.01138499, -0.0001002697, 0.001046232, 0.0001520131, 0.004148042, -0.0002640994, 0.0005209541, -0.9999977, -0.00139211, 0.3511209
 85806497, 4.156245E-05, 0.01166396, -9.778206E-05, 0.001046232, -9.015603E-05, 0.004335357, 0.0001156189, 0.0005187925, -0.9999977, -0.001375334, 0.3511209
 86006417, -0.000208492, 0.01196895, 0.0002239786, 0.00104407, 3.219373E-05, 0.004225818, 0.0002791468, 0.0005187925, -0.9999977, -0.001358223, 0.3503954
 86206337, -1.294497E-06, 0.01166625, 0.0003750219, 0.00104407, 4.489601E-05, 0.004192193, 0.0001579285, 0.0005187925, -0.9999979, -0.001340404, 0.3503954
 86406257, 3.517664E-05, 0.01151348, 8.030896E-05, 0.00104407, -0.0002142494, 0.004059365, -2.358566E-05, 0.0005187925, -0.9999979, -0.00132195, 0.3503954
 86606177, -0.0004004665, 0.01149656, -0.0001363387, 0.00104407, 8.05184E-05, 0.003874536, -0.0002863239, 0.0005187925, -0.9999979, -0.001303851, 0.3503954
 86806097, -8.322671E-05, 0.01130903, -0.0002609497, 0.00104407, 5.021615E-05, 0.00420856, 0.0001026863, 0.0005187925, -0.9999979, -0.001285893, 0.3503954
 87006017, -0.0001862034, 0.01160027, 0.0002325308, 0.00104407, -0.0002361494, 0.004120845, 1.738449E-05, 0.0005187925, -0.999998, -0.001266858, 0.3503954
 87205937, -0.0004030139, 0.01156081, 9.985149E-05, 0.00104407, -0.000154669, 0.003967001, 2.216167E-05, 0.0005187925, -0.999998, -0.001246623, 0.3503954
 87405857, -0.0002887573, 0.01118744, 0.0001413399, 0.00104407, 2.898193E-05, 0.004098474, -0.0001598839, 0.0005187925, -0.999998, -0.001227821, 0.3503954
 87605777, -0.0001600123, 0.01147971, -0.0001610623, 0.00104407, -0.0002337645, 0.003887246, -0.0001189876, 0.0005187925, -0.999998, -0.001208168, 0.3503954
 87806530, -0.0006901937, 0.01139803, -4.202906E-05, 0.001046232, -0.0004132267, 0.004187037, -0.0001687468, 0.0005209541, -0.9999981, -0.00118984, 0.3511209
 88006450, -0.000394086, 0.01132552, -3.401311E-05, 0.001046232, 0.0001315887, 0.003860559, 0.0001279367, 0.0005187925, -0.9999981, -0.001169785, 0.3511209
 88206370, -0.0001178092, 0.01118123, 3.183644E-05, 0.00104407, -3.862637E-05, 0.00381028, -3.94985E-05, 0.0005187925, -0.9999981, -0.001149609, 0.3503954
 88406290, -0.0002071773, 0.01113589, 0.0001801258, 0.00104407, 7.606733E-05, 0.004114499, 0.0002644029, 0.0005187925, -0.9999981, -0.001129691, 0.3503954
 88606210, -0.0001327727, 0.01138825, 0.000284739, 0.00104407, -4.80167E-06, 0.004001332, 4.301854E-05, 0.0005187925, -0.9999981, -0.001109401, 0.3503954
 88806130, -0.0002504454, 0.01157506, 0.00028074, 0.00104407, -0.0003191, 0.004122674, -5.782078E-05, 0.0005187925, -0.9999981, -0.001090678, 0.3503954
 89006050, -0.00041735, 0.01173277, -0.0001351721, 0.00104407, -0.0001847774, 0.004118859, -0.0001486851, 0.0005187925, -0.9999981, -0.001071564, 0.3503954
 89205970, -0.0002600454, 0.01153248, -0.0002489763, 0.00104407, -0.0003071687, 0.003990265, 0.0002250033, 0.0005187925, -0.9999981, -0.001052243, 0.3503954
 89405890, -0.0004640179, 0.01149971, 0.0003609143, 0.00104407, -0.0005109818, 0.004067685, 0.0001519847, 0.0005187925, -0.9999982, -0.001032393, 0.3503954
 89605810, -0.0006173532, 0.01144577, 0.0003118388, 0.00104407, -1.7504E-05, 0.004044136, 0.0002256587, 0.0005187925, -0.9999982, -0.001011128, 0.3503954
 89806563, -0.0001862183, 0.01158434, 0.0003588765, 0.001046232, -8.268998E-05, 0.004345275, 8.462698E-05, 0.0005209541, -0.9999982, -0.0009919159, 0.3511209
 90006483, -7.692867E-05, 0.01202115, 0.0002154367, 0.001046232, -2.452809E-05, 0.004157856, -0.0001531238, 0.0005187925, -0.9999982, -0.0009858274, 0.3511209
 90206403, -0.0002054051, 0.01149452, -0.0001134764, 0.00104407, 1.524523E-05, 0.004144439, 2.013831E-05, 0.0005187925, -0.9999982, -0.0009788665, 0.3503954
 90406323, -0.0003953078, 0.01167841, -6.739065E-05, 0.00104407, 7.023182E-05, 0.004319112, -8.809259E-05, 0.0005187925, -0.9999982, -0.0009717184, 0.3503954
 90606243, -0.0002296273, 0.0117341, 6.458678E-05, 0.00104407, -0.0001720179, 0.004177594, 0.0002038545, 0.0005187925, -0.9999983, -0.0009634547, 0.3503954
 90806163, -0.0003890729, 0.01153416, 0.0003564899, 0.00104407, -0.0001968225, 0.004004825, -0.0001167593, 0.0005187925, -0.9999983, -0.0009546238, 0.3503954
 91006083, -0.0004086361, 0.01141417, -0.0001902796, 0.00104407, -8.758206E-05, 0.004151675, -7.988714E-05, 0.0005187925, -0.9999983, -0.0009455787, 0.3503954
 91206003, -0.0003214125, 0.01135439, 0.000202197, 0.00104407, -0.0001566044, 0.004052255, 3.025513E-06, 0.0005187925, -0.9999983, -0.0009346555, 0.3503954
 91405923, -0.0004213679, 0.01153891, 0.0001232822, 0.00104407, 1.958671E-05, 0.003981456, 3.157782E-05, 0.0005187925, -0.9999983, -0.0009228216, 0.3503954
 91605843, -0.0003378247, 0.01126812, 6.354173E-05, 0.00104407, 6.992905E-05, 0.003825517, 0.0001440461, 0.0005187925, -0.9999983, -0.0009112633, 0.3503954
 91805763, -8.412528E-05, 0.01102509, 0.0004069857, 0.00104407, -9.756818E-05, 0.003708907, -5.866445E-05, 0.0005187925, -0.9999983, -0.0008986734, 0.3503954
 92006516, -0.0003749141, 0.01096235, 6.621333E-05, 0.001046232, 1.279568E-05, 0.003964183, 8.897917E-05, 0.0005209541, -0.9999983, -0.0008869254, 0.3511209
 92206436, -0.0003065534, 0.01125417, 4.68615E-05, 0.001046232, -0.0001692825, 0.003887684, -8.510522E-05, 0.0005187925, -0.9999983, -0.0008742921, 0.3511209
 92406356, -0.0005717222, 0.01126539, 1.593786E-05, 0.00104407, -0.0002641502, 0.004213888, 0.0002488976, 0.0005187925, -0.9999983, -0.0008620114, 0.3503954
 92606276, -0.0004723583, 0.01148766, 0.0002961488, 0.00104407, -0.0001546758, 0.003990778, 8.271365E-05, 0.0005187925, -0.9999983, -0.0008484127, 0.3503954
 92806196, -0.0004567965, 0.01140249, 0.0001835506, 0.00104407, -0.0003064473, 0.003660256, 0.0001747755, 0.0005187925, -0.9999983, -0.0008356911, 0.3503954
 93006116, -0.0004180486, 0.01110095, -2.481179E-05, 0.00104407, -5.317494E-05, 0.004020136, -0.000248334, 0.0005187925, -0.9999985, -0.0008223937, 0.3503954
 93206036, -9.365186E-05, 0.01149689, -0.0002217013, 0.00104407, 0.0001393565, 0.003718916, 2.828658E-05, 0.0005187925, -0.9999985, -0.0008086783, 0.3503954
 93405956, -0.0001187766, 0.01107119, 0.000251767, 0.00104407, -0.0004557922, 0.003952492, 0.0003415183, 0.0005187925, -0.9999985, -0.0007948003, 0.3503954
 93605876, -0.0009715931, 0.01146835, 0.0004336517, 0.00104407, -2.191038E-05, 0.003809342, 6.94879E-05, 0.0005187925, -0.9999985, -0.0007816426, 0.3503954
 93805796, -0.0002010213, 0.01135794, 0.0002010995, 0.00104407, -7.91129E-06, 0.004033354, 0.0003658225, 0.0005187925, -0.9999985, -0.0007679103, 0.3503954
 94006549, -0.0002315415, 0.01156266, 0.0004799217, 0.001046232, -0.0002956883, 0.004133975, 0.0001545987, 0.0005209541, -0.9999985, -0.000753382, 0.3511209
 94206469, -0.0005345324, 0.01163359, 3.598164E-05, 0.001046232, -0.0002304323, 0.004053477, 0.0002661474, 0.0005187925, -0.9999985, -0.0007390001, 0.3511209
 94406389, -0.0005329409, 0.01142737, 0.0003519712, 0.00104407, -0.0005287293, 0.004009775, -0.0001339508, 0.0005187925, -0.9999985, -0.000724353, 0.3503954
 94606309, -0.0004411275, 0.01148975, -0.0002166704, 0.00104407, 0.0001421113, 0.003746588, 0.0002420518, 0.0005187925, -0.9999985, -0.0007115667, 0.3503954
 94806229, 0.0001724248, 0.01113573, 0.0001863795, 0.00104407, -7.203603E-05, 0.003951816, 7.203199E-05, 0.0005187925, -0.9999985, -0.0006972835, 0.3503954
 95006149, -0.0001648202, 0.011312, 0.000334726, 0.00104407, 0.0001734918, 0.004291065, -0.0001149254, 0.0005187925, -0.9999985, -0.0006829363, 0.3503954
 95206069, 0.0002239462, 0.01199527, 9.185095E-05, 0.00104407, 0.0002997721, 0.004221503, 0.0001403855, 0.0005187925, -0.9999985, -0.0006862167, 0.3503954
 95405989, 0.0001195757, 0.0116798, 0.0003641567, 0.00104407, -0.0001163731, 0.004068614, 5.882293E-05, 0.0005187925, -0.9999985, -0.0006877538, 0.3503954
 95605909, -0.0003062617, 0.01136205, 7.9053E-05, 0.00104407, -0.0002589911, 0.004029826, -7.47334E-05, 0.0005187925, -0.9999985, -0.0006879459, 0.3503954
 95805829, -0.0002799616, 0.01144914, 9.052351E-05, 0.00104407, -0.0003852496, 0.00388561, 9.029948E-05, 0.0005187925, -0.9999986, -0.0006885119, 0.3503954
 96006582, -0.0004111624, 0.01151489, -4.50685E-05, 0.001046232, -2.133234E-05, 0.004246973, 0.0001152245, 0.0005209541, -0.9999986, -0.0006864064, 0.3511209
 96206502, -0.0002141802, 0.01163769, -8.043529E-05, 0.001046232, -0.0001630523, 0.004049301, -0.0002071267, 0.0005187925, -0.9999986, -0.0006850679, 0.3511209
 96406422, -0.0005001146, 0.01129237, -8.678537E-05, 0.00104407, -0.0001756583, 0.00404773, -1.962353E-05, 0.0005187925, -0.9999986, -0.0006828928, 0.3503954
 96606342, -0.0004161216, 0.01145558, -1.422194E-05, 0.00104407, -0.0003698125, 0.004151309, 8.935927E-06, 0.0005187925, -0.9999986, -0.0006812143, 0.3503954
 96806262, -0.0003627275, 0.01150494, -8.872178E-05, 0.00104407, -0.000183908, 0.003843118, -5.293754E-05, 0.0005187925, -0.9999986, -0.0006773702, 0.3503954
 97006182, -0.0004390225, 0.01108783, 9.780307E-05, 0.00104407, -0.0002815875, 0.004437567, 9.983478E-05, 0.0005187925, -0.9999986, -0.0006740371, 0.3503954
 97206102, -0.0003879541, 0.01166012, 7.924246E-05, 0.00104407, -8.973842E-05, 0.003812297, -4.817345E-05, 0.0005187925, -0.9999986, -0.0006706828, 0.3503954
 97406022, -0.0004133848, 0.01121735, 1.867381E-05, 0.00104407, -0.0003248074, 0.004038649, 9.355139E-05, 0.0005187925, -0.9999986, -0.0006655854, 0.3503954
 97605942, -0.0004170409, 0.01145987, 4.229877E-05, 0.00104407, 0.0001859409, 0.003735313, -0.0001181416, 0.0005187925, -0.9999986, -0.0006589163, 0.3503954
 97805862, -6.331895E-06, 0.0111136, -0.0002029084, 0.00104407, -0.000137833, 0.004123319, 5.313655E-05, 0.0005187925, -0.9999986, -0.0006538187, 0.3503954
 98005782, -0.0002497865, 0.01146701, 0.0002411105, 0.00104407, -9.314075E-05, 0.003977481, 5.117753E-05, 0.0005187925, -0.9999986, -0.0006480249, 0.3503954
 98206535, -6.402688E-05, 0.01147509, 0.000178711, 0.001046232, -0.0001348365, 0.003888233, 0.0001118701, 0.0005209541, -0.9999986, -0.0006403235, 0.3511209
 98406455, -0.0001189838, 0.01137234, 0.0001914665, 0.001046232, -4.194411E-06, 0.004135927, 1.42279E-05, 0.0005187925, -0.9999986, -0.000633987, 0.3511209
 98606375, -0.0004286641, 0.01146905, 6.683898E-05, 0.00104407, -0.0004050302, 0.004079727, 0.0001091246, 0.0005187925, -0.9999986, -0.0006267546, 0.3503954
 98806295, -0.0007237257, 0.01138316, 0.0001657836, 0.00104407, -0.0001252678, 0.004458033, -0.0001378652, 0.0005187925, -0.9999986, -0.0006198233, 0.3503954
 99006215, -0.000235878, 0.01203741, 6.375144E-06, 0.00104407, -9.511156E-05, 0.00412299, 3.542794E-05, 0.0005187925, -0.9999986, -0.0006118239, 0.3503954
 99206135, -0.0004172793, 0.01161395, -9.241937E-05, 0.00104407, -0.0002943825, 0.003806491, -0.0001576651, 0.0005187925, -0.9999985, -0.0006045832, 0.3503954
 99406055, -0.0006073372, 0.01120241, -0.0001115532, 0.00104407, -0.0004082064, 0.004006518, -0.0001048956, 0.0005187925, -0.9999985, -0.0005970412, 0.3503954
 99605975, -0.0007327617, 0.01143578, 0.0001257024, 0.00104407, 0.0001510778, 0.003955121, 0.0003336978, 0.0005187925, -0.9999986, -0.0005893986, 0.3503954
 99805895, 0.0002395266, 0.01146165, 0.0005466955, 0.00104407, 0.0001072721, 0.003915378, 0.0004652963, 0.0005187925, -0.9999986, -0.0005800883, 0.3503954
 100005815, -5.59614E-06, 0.01148188, 0.0005093014, 0.00104407, 1.70035E-05, 0.003921266, 1.985471E-05, 0.0005187925, -0.9999986, -0.0005713796, 0.3503954
 100206568, -5.250468E-05, 0.01154335, -6.746573E-05, 0.001046232, -0.0002101966, 0.004019462, -0.000164221, 0.0005209541, -0.9999986, -0.0005614505, 0.3511209
 100406488, -0.0004207423, 0.01157977, -6.256305E-05, 0.001046232, -0.0002858391, 0.004267372, 4.585815E-05, 0.0005187925, -0.9999986, -0.0005730026, 0.3511209
 100606408, -0.0004266367, 0.01169916, 1.758705E-05, 0.00104407, -0.0001287771, 0.003820008, 4.448065E-05, 0.0005187925, -0.9999986, -0.0005840474, 0.3503954
 100806328, -0.0001870294, 0.01105249, 0.0001753463, 0.00104407, 4.137752E-05, 0.003923952, 0.0001093808, 0.0005187925, -0.9999986, -0.0005924443, 0.3503954
 101006248, -0.0001947837, 0.01126635, 0.0001418703, 0.00104407, -0.0001551964, 0.004069237, -0.0001061873, 0.0005187925, -0.9999986, -0.0005998201, 0.3503954
 101206168, -0.0004089855, 0.01165566, -0.0001163029, 0.00104407, -0.0003425839, 0.003804002, -0.0001257298, 0.0005187925, -0.9999986, -0.0006059273, 0.3503954
 101406088, -0.0004212794, 0.01102408, -0.0001675663, 0.00104407, -0.0002159932, 0.003818465, 0.0001101065, 0.0005187925, -0.9999986, -0.0006117687, 0.3503954
 101606008, -0.0005154207, 0.01111814, 0.0001317701, 0.00104407, -0.0001308429, 0.003919119, 0.0005277477, 0.0005187925, -0.9999986, -0.0006157826, 0.3503954
 101805928, -0.0005789963, 0.01142414, 0.0004684625, 0.00104407, -0.00021158, 0.004296331, 5.86144E-05, 0.0005187925, -0.9999986, -0.000619382, 0.3503954
 102005848, -0.0005781992, 0.01154118, 0.0001912508, 0.00104407, -0.0001343296, 0.003925028, -5.978219E-05, 0.0005187925, -0.9999986, -0.0006235339, 0.3503954
 102205768, -0.0005935023, 0.0115278, 0.0001108596, 0.00104407, -0.0003331695, 0.004233318, -0.0001414436, 0.0005187925, -0.9999986, -0.0006267919, 0.3503954
 102406521, -0.0005702687, 0.01181413, -1.583222E-05, 0.001046232, -0.0002955293, 0.004247548, -4.878953E-05, 0.0005209541, -0.9999986, -0.0006276066, 0.3511209
 102606441, -0.0003632123, 0.01163858, -0.0001610886, 0.001046232, 2.206563E-05, 0.003654946, -0.000348133, 0.0005187925, -0.9999986, -0.000628475, 0.3511209
 102806361, -0.000304751, 0.01103845, -0.0003006723, 0.00104407, -5.83425E-05, 0.003992468, 0.0002633387, 0.0005187925, -0.9999986, -0.0006294015, 0.3503954
 103006281, -0.0002388468, 0.01130511, 0.0003038333, 0.00104407, -0.0001961737, 0.003703768, 9.732287E-05, 0.0005187925, -0.9999986, -0.0006297932, 0.3503954
 103206201, -0.0006227232, 0.01105115, 2.257517E-05, 0.00104407, -0.0002729809, 0.003820472, 0.0002436295, 0.0005187925, -0.9999986, -0.0006301022, 0.3503954
 103406121, -0.0004075449, 0.01111402, 0.000355216, 0.00104407, 5.028872E-05, 0.004170963, 0.0001569442, 0.0005187925, -0.9999986, -0.0006296132, 0.3503954
 103606041, -0.0002440679, 0.01153519, 0.0001248861, 0.00104407, -0.0002206721, 0.004044891, 1.21378E-05, 0.0005187925, -0.9999986, -0.0006286807, 0.3503954
 103805961, -0.000515844, 0.01128261, 0.0001596015, 0.00104407, -0.0003857928, 0.003861502, 0.0003581784, 0.0005187925, -0.9999986, -0.0006258292, 0.3503954
 104005881, -0.0005149404, 0.01126975, 0.0004625437, 0.00104407, -0.0002288148, 0.00403047, 0.0002392443, 0.0005187925, -0.9999986, -0.0006237701, 0.3503954
 104205801, -0.0004797392, 0.01142161, 0.0003365267, 0.00104407, -0.0003811994, 0.003877362, 0.0001646301, 0.0005187925, -0.9999986, -0.0006209634, 0.3503954
 104406554, -0.000467063, 0.01111103, 0.0001485425, 0.001046232, -8.146041E-05, 0.003954541, 7.973459E-05, 0.0005209541, -0.9999986, -0.0006173974, 0.3511209
 104606474, -0.0003323535, 0.01131111, 6.181508E-05, 0.001046232, -0.0003593087, 0.004179993, -6.550314E-06, 0.0005187925, -0.9999985, -0.0006136124, 0.3511209
 104806394, -0.0005648147, 0.01196265, -0.0003849231, 0.00104407, 9.367443E-05, 0.003827049, -8.28054E-06, 0.0005187925, -0.9999985, -0.0006093064, 0.3503954
 105006314, -0.0002752574, 0.01106925, 8.867768E-05, 0.00104407, -0.0004040209, 0.003963869, 0.0001936293, 0.0005187925, -0.9999985, -0.0006050412, 0.3503954
 105206234, -0.0007056377, 0.01137335, 0.0003099584, 0.00104407, -0.0002927037, 0.00369335, -0.0001267069, 0.0005187925, -0.9999985, -0.0006015401, 0.3503954
 105406154, -0.0004964673, 0.01134231, 9.354662E-05, 0.00104407, -0.0002043418, 0.004370691, -3.414457E-05, 0.0005187925, -0.9999985, -0.0005969019, 0.3503954
 105606074, -0.0002146674, 0.01181074, 6.424957E-05, 0.00104407, 0.0001454087, 0.00389928, 6.857512E-05, 0.0005187925, -0.9999985, -0.0006125997, 0.3503954
 105805994, -0.0002190268, 0.01133517, 0.0001874257, 0.00104407, 3.413389E-06, 0.004115195, -0.0001142164, 0.0005187925, -0.9999985, -0.0006275811, 0.3503954
 106005914, -0.0001283464, 0.01166587, 8.753851E-05, 0.00104407, -6.141583E-05, 0.004075374, 0.0002001605, 0.0005187925, -0.9999985, -0.0006398734, 0.3503954
 106205834, -0.0001640123, 0.01127875, 0.0004688436, 0.00104407, 0.0002242463, 0.003863624, 0.0004214651, 0.0005187925, -0.9999986, -0.0006526281, 0.3503954
 106406587, -0.0001164358, 0.01114947, 0.0006140678, 0.001046232, -0.0003374393, 0.003406128, 0.0001990257, 0.0005209541, -0.9999986, -0.0006637651, 0.3511209
 106606507, -0.0006035721, 0.01093347, 0.0003000533, 0.001046232, 5.680568E-05, 0.003793149, -6.148738E-06, 0.0005187925, -0.9999986, -0.0006730906, 0.3511209
 106806427, -0.0003744172, 0.01133863, 0.0003679161, 0.00104407, -0.0001079074, 0.004296258, 0.0001729273, 0.0005187925, -0.9999986, -0.0006817126, 0.3503954
 107006347, -0.0001061297, 0.01159437, 0.0001797898, 0.00104407, 0.0001022807, 0.003922099, -6.475599E-05, 0.0005187925, -0.9999986, -0.0006896388, 0.3503954
 107206267, -0.0001186183, 0.01127851, -3.218079E-05, 0.00104407, -0.0003926181, 0.004359739, 4.015508E-05, 0.0005187925, -0.9999986, -0.00069656, 0.3503954
 107406187, -0.0005348995, 0.01153918, 1.424575E-05, 0.00104407, 2.783182E-05, 0.003660067, 0.0001118582, 0.0005187925, -0.9999986, -0.0007027577, 0.3503954
 107606107, -2.482248E-05, 0.01086611, -3.581163E-05, 0.00104407, 1.702817E-05, 0.00389987, -0.0001113732, 0.0005187925, -0.9999986, -0.0007089851, 0.3503954
 107806027, -9.696577E-05, 0.01120976, -7.782325E-05, 0.00104407, -0.0001914273, 0.003883723, -3.93138E-05, 0.0005187925, -0.9999986, -0.0007137975, 0.3503954
 108005947, -0.0003890943, 0.01136926, -7.29268E-06, 0.00104407, -0.0003753754, 0.004069223, 5.645519E-05, 0.0005187925, -0.9999985, -0.0007170846, 0.3503954
 108205867, -0.0003723087, 0.01157299, -6.938186E-05, 0.00104407, 3.424219E-05, 0.004091073, -1.621312E-05, 0.0005187925, -0.9999985, -0.0007210204, 0.3503954
 108405787, -0.0001503691, 0.01147651, -0.0001007273, 0.00104407, -5.964447E-05, 0.004025413, -3.155519E-05, 0.0005187925, -0.9999985, -0.0007245675, 0.3503954
 108606540, -0.0005693875, 0.01146698, 3.767692E-05, 0.001046232, -0.0001737286, 0.003883054, 0.0002710669, 0.0005209541, -0.9999985, -0.0007285131, 0.3511209
 108806460, -0.000358429, 0.01137825, 0.0003172265, 0.001046232, -0.0002443993, 0.004375576, 0.0001006558, 0.0005187925, -0.9999985, -0.0007306564, 0.3511209
 109006380, -0.0004985473, 0.01204254, 3.148843E-05, 0.00104407, 2.15208E-05, 0.00432477, -0.0002166561, 0.0005187925, -0.9999985, -0.0007319065, 0.3503954
 109206300, -0.0003139591, 0.01194284, -0.0001158108, 0.00104407, -0.000283874, 0.00416044, 0.0001331941, 0.0005187925, -0.9999985, -0.000733697, 0.3503954
 109406220, -0.0004133011, 0.01162945, 6.221545E-05, 0.00104407, -0.0001444745, 0.004171019, -3.20652E-05, 0.0005187925, -0.9999985, -0.0007350039, 0.3503954
 109606140, -0.0004518204, 0.01155964, -0.0001816476, 0.00104407, -0.0001069715, 0.003692278, -0.0001878523, 0.0005187925, -0.9999985, -0.000734881, 0.3503954
 109806060, -0.0005464845, 0.01123117, -0.0001959219, 0.00104407, -0.0002079172, 0.004287622, 1.862138E-05, 0.0005187925, -0.9999985, -0.0007359706, 0.3503954
 110005980, -0.0004823909, 0.01184599, 0.0001753296, 0.00104407, 0.0001786831, 0.004103383, -2.004537E-05, 0.0005187925, -0.9999985, -0.000734452, 0.3503954
 110205900, 0.0003844933, 0.01180171, 1.658967E-05, 0.00104407, -0.0001163717, 0.00412074, 2.743219E-05, 0.0005187925, -0.9999983, -0.0007320807, 0.3503954
 110405820, -0.0004634421, 0.01167737, 6.210585E-05, 0.00104407, -0.000386815, 0.003905986, -9.363957E-05, 0.0005187925, -0.9999983, -0.0007320963, 0.3503954
 110606573, -0.000491898, 0.01161733, 3.521899E-05, 0.001046232, -1.350332E-05, 0.004207005, 0.0001798868, 0.0005209541, -0.9999983, -0.0007303467, 0.3511209
 110806493, -0.0002668974, 0.01192006, 9.377937E-05, 0.001046232, -2.501997E-05, 0.004339229, 1.007392E-05, 0.0005187925, -0.9999983, -0.0007486438, 0.3511209
 111006413, -0.0002561109, 0.01191545, 9.981572E-05, 0.00104407, 5.639321E-07, 0.004186215, 0.0003609559, 0.0005187925, -0.9999983, -0.0007649589, 0.3503954
 111206333, 2.408186E-05, 0.01143757, 0.0003166421, 0.00104407, -0.0003438566, 0.003853842, -9.909002E-05, 0.0005187925, -0.9999983, -0.0007795631, 0.3503954
 111406253, -0.0004733125, 0.01133603, 4.033858E-05, 0.00104407, -1.144878E-05, 0.003975046, 0.0001892501, 0.0005187925, -0.9999983, -0.0007939366, 0.3503954
 111606173, -0.0001191704, 0.01140556, 8.815338E-05, 0.00104407, 0.0003303849, 0.004050711, 0.0001081856, 0.0005187925, -0.9999983, -0.0008072586, 0.3503954
 111806093, 0.0002810951, 0.01131467, 0.0001689163, 0.00104407, 5.515679E-05, 0.003793951, -0.0005388249, 0.0005187925, -0.9999983, -0.0008188175, 0.3503954
 112006013, -0.0001525014, 0.01137785, -0.000366789, 0.00104407, 5.294399E-05, 0.004217831, -4.182572E-06, 0.0005187925, -0.9999983, -0.0008298715, 0.3503954
 112205933, -0.0002233765, 0.01176957, 0.0002012842, 0.00104407, -0.0003024193, 0.004389367, 0.0002405182, 0.0005187925, -0.9999983, -0.0008393381, 0.3503954
 112405853, -0.0006282125, 0.01191837, 0.000231494, 0.00104407, -0.0004971439, 0.003837742, -7.57987E-05, 0.0005187925, -0.9999983, -0.0008490616, 0.3503954
 112605773, -0.0007258411, 0.01106895, -4.819967E-05, 0.00104407, -0.0001794184, 0.003978006, -0.0003716864, 0.0005187925, -0.9999983, -0.0008570771, 0.3503954
 112806526, -0.0002369801, 0.01129746, -0.0002943331, 0.001046232, -0.0001240479, 0.004037321, -0.0001773712, 0.0005209541, -0.9999983, -0.0008651124, 0.3511209
 113006446, -0.0003084969, 0.01148431, -4.968365E-05, 0.001046232, 6.14595E-05, 0.004048859, 8.067599E-05, 0.0005187925, -0.9999983, -0.0008724247, 0.3511209
 113206366, -5.011675E-05, 0.01157995, 0.0001358788, 0.00104407, -0.0001370095, 0.004084825, 8.993125E-06, 0.0005187925, -0.9999983, -0.0008793755, 0.3503954
 113406286, -0.0004203815, 0.01136756, 0.0002387891, 0.00104407, -0.0002203066, 0.00383478, 0.0001576127, 0.0005187925, -0.9999983, -0.0008842968, 0.3503954
 113606206, -0.0007222543, 0.0113856, 0.0001398433, 0.00104407, -0.0003221963, 0.00414012, 0.0001400804, 0.0005187925, -0.9999983, -0.0008886966, 0.3503954
 113806126, -0.0006056685, 0.01162433, 0.0003394663, 0.00104407, 3.168022E-05, 0.004213086, 0.0001931252, 0.0005187925, -0.9999983, -0.000893769, 0.3503954
 114006046, -0.0002122896, 0.01180121, 0.0002803169, 0.00104407, 7.549818E-06, 0.004296015, 0.0001033369, 0.0005187925, -0.9999983, -0.0008965774, 0.3503954
 114205966, -0.0001353985, 0.0116174, 0.000183124, 0.00104407, 0.000113943, 0.004103796, 4.185074E-05, 0.0005187925, -0.9999983, -0.0008984723, 0.3503954
 114405886, -9.31775E-06, 0.01154776, 6.469641E-05, 0.00104407, -0.0001148484, 0.003781667, 0.0002743196, 0.0005187925, -0.9999983, -0.0009009303, 0.3503954
 114605806, -0.0001868456, 0.01113071, 0.00010325, 0.00104407, -0.0001702384, 0.00382775, -0.0001004866, 0.0005187925, -0.9999983, -0.0009023168, 0.3503954
 114806559, -0.0003951355, 0.01136473, -0.0001541908, 0.001046232, -4.49242E-05, 0.003997992, 0.0001658646, 0.0005209541, -0.9999983, -0.0009037218, 0.3511209
 115006479, -0.0002430183, 0.01140562, 0.0001816153, 0.001046232, -0.0002670839, 0.003919556, 2.86679E-05, 0.0005187925, -0.9999983, -0.0009043808, 0.3511209
 115206399, -0.0004447733, 0.01146731, 0.0002382958, 0.00104407, -2.312907E-05, 0.004073482, 5.229049E-05, 0.0005187925, -0.9999982, -0.0009050226, 0.3503954
 115406319, -0.0002382052, 0.0115989, 0.0001037945, 0.00104407, 0.0001158903, 0.003978877, 0.0001829321, 0.0005187925, -0.9999982, -0.000905082, 0.3503954
 115606239, -3.582123E-06, 0.01137569, 0.0001337088, 0.00104407, 6.528154E-05, 0.003794705, 9.678544E-05, 0.0005187925, -0.9999982, -0.0009049549, 0.3503954
 115806159, -2.702286E-05, 0.01125521, 0.0001040638, 0.00104407, -0.0001534707, 0.004076245, 8.188787E-06, 0.0005187925, -0.9999982, -0.0009026437, 0.3503954
 116006079, -0.0003054986, 0.01154186, 0.0001398159, 0.00104407, -4.095513E-05, 0.003976356, 0.0003118924, 0.0005187925, -0.9999982, -0.0009199231, 0.3503954
 116205999, -0.000360245, 0.01153156, 0.0002846079, 0.00104407, 0.0001666508, 0.004171993, 1.496431E-05, 0.0005187925, -0.9999982, -0.0009348993, 0.3503954
 116405919, -0.000145231, 0.01161759, 9.531617E-05, 0.00104407, 0.0001622387, 0.004183792, -0.0002156694, 0.0005187925, -0.9999982, -0.0009486182, 0.3503954
 116605839, -0.0001731007, 0.01142981, 5.740018E-06, 0.00104407, -0.000190835, 0.003885578, 0.0002698725, 0.0005187925, -0.9999982, -0.0009608195, 0.3503954
 116806592, -0.0004374678, 0.01141062, 0.0002599201, 0.001046232, -0.0004306838, 0.004211706, 0.0001161897, 0.0005187925, -0.9999982, -0.0009735068, 0.3511209
 117006512, -0.0007508239, 0.011971, 7.529583E-05, 0.001046232, -0.000253635, 0.004298063, 0.0002880231, 0.0005209541, -0.9999982, -0.0009847032, 0.3511209
 117206432, -0.0005941223, 0.01179214, 0.0003661562, 0.001046232, -8.372388E-05, 0.003915955, -0.0001577295, 0.0005187925, -0.9999982, -0.0009944327, 0.3511209
 117406352, -0.0002135986, 0.01121011, -0.000120868, 0.00104407, -0.0001192198, 0.004019896, -0.0001356452, 0.0005187925, -0.9999982, -0.001003161, 0.3503954
 117606272, -0.0003462715, 0.01144409, 6.880272E-05, 0.00104407, -0.000166143, 0.004168272, 0.0001386743, 0.0005187925, -0.9999982, -0.001010802, 0.3503954
 117806192, -0.0006792662, 0.01153825, 0.0001756156, 0.00104407, -8.949461E-06, 0.00418463, -2.518242E-05, 0.0005187925, -0.9999982, -0.001018502, 0.3503954
 118006112, -0.0001501872, 0.01164316, 0.0002416621, 0.00104407, -0.0001300759, 0.003685076, 0.0002621043, 0.0005187925, -0.9999982, -0.001025405, 0.3503954
 118206032, -0.0003918509, 0.0109153, 0.0003566233, 0.00104407, 2.909104E-05, 0.004098169, 0.0003316803, 0.0005187925, -0.9999982, -0.001031041, 0.3503954
 118405952, -0.0002793695, 0.01146698, 0.0003105793, 0.00104407, -0.0002629913, 0.003719362, -5.782198E-05, 0.0005187925, -0.9999982, -0.001034567, 0.3503954
 118605872, -0.0004976869, 0.01106927, 6.846192E-05, 0.00104407, -0.0001789212, 0.003966337, -8.831781E-05, 0.0005187925, -0.9999982, -0.001038558, 0.3503954
 118805792, -0.0003634384, 0.0113324, -6.192469E-05, 0.00104407, -1.695799E-05, 0.003919881, -1.279438E-05, 0.0005187925, -0.9999982, -0.001041132, 0.3503954
 119006545, -0.0001372747, 0.01147384, -6.191318E-05, 0.001046232, -1.65897E-05, 0.004070309, 0.0001561836, 0.0005209541, -0.9999982, -0.001043857, 0.3511209
 119206465, -0.0003592057, 0.01157684, 0.0002758873, 0.001046232, -0.0003221833, 0.004108226, -9.445464E-05, 0.0005187925, -0.9999982, -0.001044961, 0.3511209
 119406385, -0.0004148646, 0.01149093, 8.645166E-06, 0.00104407, -8.915171E-05, 0.004143176, 0.0002343444, 0.0005187925, -0.9999982, -0.001046077, 0.3503954
 119606305, -0.0003598659, 0.01144546, 0.0002942898, 0.00104407, -9.291407E-05, 0.003799783, -4.282669E-05, 0.0005187925, -0.9999982, -0.001047271, 0.3503954
 119806225, -0.0005195065, 0.01113699, 6.11037E-05, 0.00104407, -0.0001062091, 0.004175633, 0.0002623236, 0.0005187925, -0.9999982, -0.001048591, 0.3503954
 120006145, -0.0002462179, 0.01157893, 0.0004104606, 0.00104407, -0.0001158179, 0.004049076, 0.0001340497, 0.0005187925, -0.9999982, -0.001048149, 0.3503954
 120206065, -0.0003460483, 0.01133315, 0.0001625722, 0.00104407, -3.116521E-05, 0.003653971, 0.0002327357, 0.0005187925, -0.9999982, -0.00104788, 0.3503954
 120405985, -0.0004983383, 0.01107492, 0.0003528314, 0.00104407, -0.0002077922, 0.00440087, -0.0001850663, 0.0005187925, -0.9999982, -0.001046762, 0.3503954
 120605905, -0.0004752801, 0.0115469, -0.0001966322, 0.00104407, -0.000173789, 0.003870239, 0.0001422802, 0.0005187925, -0.9999982, -0.001044028, 0.3503954
 120805825, -0.000295743, 0.01132831, 0.0001766917, 0.00104407, -0.0002891028, 0.00421845, -0.0001040078, 0.0005187925, -0.9999982, -0.001042746, 0.3503954
 121006578, -0.0001569794, 0.01166422, 4.811985E-05, 0.001046232, 2.433041E-05, 0.003902189, 0.0004725071, 0.0005209541, -0.9999982, -0.001041645, 0.3511209
 121206498, 5.586007E-07, 0.01138899, 0.0002980677, 0.001046232, -0.0001056096, 0.004214008, -5.358579E-05, 0.0005187925, -0.9999982, -0.001055653, 0.3511209
 121406418, -0.0003155239, 0.01162864, -1.7114E-05, 0.00104407, -0.0001271048, 0.004164722, -1.616666E-05, 0.0005187925, -0.9999982, -0.001068382, 0.3503954
 121606338, -0.0001739945, 0.01150717, 8.299845E-05, 0.00104407, -0.0002800353, 0.00418498, -8.608474E-05, 0.0005187925, -0.9999982, -0.001079213, 0.3503954
 121806258, -0.0004164526, 0.01182504, -7.656371E-05, 0.00104407, -9.171525E-05, 0.00435472, -8.430445E-05, 0.0005187925, -0.9999982, -0.00108878, 0.3503954
 122006178, -0.0001375992, 0.0115047, 7.419004E-05, 0.00104407, -3.965559E-05, 0.003863937, 0.0001574065, 0.0005187925, -0.9999982, -0.001097293, 0.3503954
 122206098, -0.0003356335, 0.01124413, 8.944156E-05, 0.00104407, -0.0001925846, 0.004118273, -0.0002257171, 0.0005187925, -0.9999982, -0.001106239, 0.3503954
 122406018, -0.0003036321, 0.01148013, -0.0001879988, 0.00104407, -0.0001954602, 0.003935541, 0.0001095012, 0.0005187925, -0.9999982, -0.001114029, 0.3503954
 122605938, -0.0004107119, 0.01130515, 0.0002283827, 0.00104407, -0.0004275872, 0.003888852, 8.702133E-05, 0.0005187925, -0.9999981, -0.001120725, 0.3503954
 122805858, -0.0005320106, 0.01127674, 0.0001099445, 0.00104407, -0.0002649875, 0.003838618, -0.0001847589, 0.0005187925, -0.9999981, -0.001126945, 0.3503954
 123005778, -0.000511818, 0.0111872, -0.0001426508, 0.00104407, -0.0001261778, 0.004080361, 0.0002848928, 0.0005187925, -0.9999981, -0.001132974, 0.3503954
 123206531, -0.0002701756, 0.01139776, 0.0004140926, 0.001046232, -0.000403816, 0.004267757, 1.385889E-05, 0.0005209541, -0.9999981, -0.001139205, 0.3511209
 123406451, -0.0003882352, 0.01179798, 0.0002482451, 0.001046232, 0.0003014718, 0.00414192, -8.198796E-05, 0.0005187925, -0.9999981, -0.001143693, 0.3511209
 123606371, -0.0002484172, 0.01168914, -0.0002049223, 0.00104407, -0.0005606926, 0.004249327, -0.0002298425, 0.0005187925, -0.9999981, -0.001147402, 0.3503954
 123806291, -0.0007457589, 0.01159564, -5.510267E-05, 0.00104407, -0.0004724822, 0.003678648, 0.0002703991, 0.0005187925, -0.9999981, -0.001148334, 0.3503954
 124006211, -0.0006359292, 0.0110877, 0.0003335071, 0.00104407, -0.0001483453, 0.004210265, -0.0001602831, 0.0005187925, -0.9999981, -0.001149563, 0.3503954
 124206131, -0.0003331542, 0.01162376, -0.0001507097, 0.00104407, 0.0001983931, 0.003950005, 0.0001366712, 0.0005187925, -0.9999981, -0.001150942, 0.3503954
 124406051, -9.838471E-05, 0.01131815, 0.0001207274, 0.00104407, -1.164473E-05, 0.004033369, 5.552931E-06, 0.0005187925, -0.9999981, -0.001151969, 0.3503954
 124605971, -0.0001924399, 0.0115215, 8.897202E-05, 0.00104407, -6.25204E-05, 0.004038202, -0.0001546968, 0.0005187925, -0.9999981, -0.001152707, 0.3503954
 124805891, -0.0002179036, 0.01145222, -0.0001719692, 0.00104407, -0.0003228332, 0.003885542, -2.322578E-05, 0.0005187925, -0.9999981, -0.001151396, 0.3503954
 125005811, -0.0005442445, 0.01122366, 9.637196E-05, 0.00104407, -4.904599E-05, 0.003946211, 2.44174E-05, 0.0005187925, -0.9999981, -0.001150695, 0.3503954
 125206564, -3.694759E-05, 0.01169567, 0.0002813219, 0.001046232, 1.419682E-05, 0.00448976, 9.201618E-05, 0.0005209541, -0.9999981, -0.001150952, 0.3511209
 125406484, -0.0001682039, 0.01185226, 0.0001606103, 0.001046232, 8.003542E-05, 0.003941325, -5.793876E-05, 0.0005187925, -0.999998, -0.001149182, 0.3511209
 125606404, -9.597615E-05, 0.0113408, 3.733335E-05, 0.00104407, -0.0001553454, 0.004064273, -0.0001913342, 0.0005187925, -0.999998, -0.001147968, 0.3503954
 125806324, -0.0003704399, 0.01155962, -0.0002742338, 0.00104407, -5.793326E-06, 0.003904446, 0.0002580838, 0.0005187925, -0.999998, -0.001146603, 0.3503954
 126006244, -0.0001362821, 0.01160661, 0.0001684516, 0.00104407, -0.0001022364, 0.00412456, -0.0001420132, 0.0005187925, -0.999998, -0.001144246, 0.3503954
 126206164, -0.0002555148, 0.01194219, -0.0001908337, 0.00104407, -1.56196E-05, 0.004369646, -0.0002786916, 0.0005187925, -0.999998, -0.001141665, 0.3503954
 126406084, 1.523394E-05, 0.011895, -0.000217688, 0.00104407, 0.000236257, 0.004469149, 5.225237E-05, 0.0005187925, -0.999998, -0.00115449, 0.3503954
 126606004, 0.0002606049, 0.01217694, 0.000246114, 0.00104407, 0.000112032, 0.004288097, 0.0001130832, 0.0005187925, -0.999998, -0.001166136, 0.3503954
 126805924, -0.0001994885, 0.01177876, 0.0001157488, 0.00104407, -3.594791E-05, 0.004287168, 0.000121154, 0.0005187925, -0.999998, -0.001175801, 0.3503954
 127005844, -0.0002811399, 0.01163576, -0.0001446741, 0.00104407, -0.0002520738, 0.004144387, 8.443434E-05, 0.0005187925, -0.999998, -0.001185126, 0.3503954
 127205764, -0.0005909485, 0.01164169, 0.0002877706, 0.00104407, -0.0003302256, 0.004357135, -0.0002618112, 0.0005187925, -0.999998, -0.001193728, 0.3503954
 127406517, -0.0004439647, 0.01182757, -0.0001151312, 0.001046232, -0.0003026625, 0.004044567, 0.0002095918, 0.0005209541, -0.999998, -0.001202144, 0.3511209
 127606437, -0.0004181449, 0.01155989, 0.0001915662, 0.001046232, -0.000109762, 0.003769011, 0.000188404, 0.0005187925, -0.999998, -0.001208081, 0.3511209
 127806357, -0.0001372116, 0.0111014, 0.00034021, 0.00104407, -6.614201E-05, 0.004115756, 0.0001638532, 0.0005187925, -0.999998, -0.001213673, 0.3503954
 128006277, -0.0001394686, 0.01148943, 0.0002777514, 0.00104407, -3.314607E-05, 0.004106131, 3.349871E-05, 0.0005187925, -0.999998, -0.001218535, 0.3503954
 128206197, -0.0001765593, 0.01154843, 7.897676E-05, 0.00104407, 6.167074E-05, 0.00414071, 1.96712E-05, 0.0005187925, -0.999998, -0.001222677, 0.3503954
 128406117, -4.390109E-05, 0.01173851, -7.245979E-05, 0.00104407, 4.321059E-05, 0.003863881, -4.658385E-05, 0.0005187925, -0.999998, -0.001226733, 0.3503954
 128606037, -0.0001112831, 0.0111015, -9.496107E-05, 0.00104407, 0.0002587204, 0.004058653, 0.0001155951, 0.0005187925, -0.999998, -0.001229103, 0.3503954
 128805957, 0.000170449, 0.0114196, 6.863353E-05, 0.00104407, 9.562625E-05, 0.004037763, 5.541968E-05, 0.0005187925, -0.999998, -0.001230126, 0.3503954
 129005877, -7.200384E-05, 0.01141438, 0.000136135, 0.00104407, -8.696556E-05, 0.003911896, -7.950463E-06, 0.0005187925, -0.999998, -0.001231135, 0.3503954
 129205797, -0.0004420299, 0.01136283, -6.744188E-05, 0.00104407, -0.000206237, 0.003841956, 3.087358E-05, 0.0005187925, -0.999998, -0.00123232, 0.3503954
 129406550, -0.0003474752, 0.0113979, 0.0001785542, 0.001046232, -9.098367E-07, 0.003931514, 8.526331E-05, 0.0005209541, -0.999998, -0.001232841, 0.3511209
 129606470, -9.869717E-05, 0.01121066, 8.474972E-05, 0.001046232, -1.8908E-05, 0.003948659, 1.119404E-05, 0.0005187925, -0.999998, -0.001231736, 0.3511209
 129806390, -0.0002948492, 0.01120894, 0.0001475709, 0.00104407, 0.0001206946, 0.003878646, 0.0004090592, 0.0005187925, -0.999998, -0.001230569, 0.3503954
 130006310, 0.0001822951, 0.01116219, 0.0004639843, 0.00104407, 0.0002013368, 0.004031825, 2.94341E-05, 0.0005187925, -0.999998, -0.001229258, 0.3503954
 130206230, 1.331952E-05, 0.01153484, 4.81174E-06, 0.00104407, -0.0001966189, 0.003785094, -6.990735E-05, 0.0005187925, -0.999998, -0.001227199, 0.3503954
 130406150, -0.0002521919, 0.01111767, -1.137875E-05, 0.00104407, -5.570308E-05, 0.004046072, -0.0001394632, 0.0005187925, -0.999998, -0.001224556, 0.3503954
 130606070, -0.000264708, 0.01138812, -7.766717E-05, 0.00104407, -1.002557E-05, 0.004007254, 2.476178E-05, 0.0005187925, -0.999998, -0.001221944, 0.3503954
 130805990, -0.000256835, 0.01131407, 0.0001009096, 0.00104407, -0.0003038465, 0.003982509, -0.0001334228, 0.0005187925, -0.999998, -0.001218965, 0.3503954
 131005910, -0.0006823669, 0.01134679, -8.869176E-06, 0.00104407, -0.0003114664, 0.004507758, 0.0001476555, 0.0005187925, -0.999998, -0.001215337, 0.3503954
 131205830, -0.0004270316, 0.0122531, 0.0003495367, 0.00104407, 9.628593E-05, 0.004594082, 0.000249976, 0.0005187925, -0.999998, -0.001211987, 0.3503954
 131406583, 8.909145E-05, 0.01234995, 0.0003328942, 0.001046232, 0.0001157203, 0.004564223, -0.0001131185, 0.0005209541, -0.9999979, -0.00120857, 0.3511209
 131606503, 0.0001073882, 0.01193923, -7.418961E-05, 0.001046232, 0.0001223214, 0.004018941, -0.0003280877, 0.0005187925, -0.999998, -0.001218746, 0.3511209
 131806423, 1.023785E-05, 0.01148071, -0.0003711849, 0.00104407, 6.311879E-05, 0.004004425, -7.534469E-05, 0.0005187925, -0.999998, -0.001227999, 0.3503954
 132006343, 4.711593E-05, 0.01132969, -0.0001750865, 0.00104407, -0.0003307241, 0.003921246, -8.288881E-06, 0.0005187925, -0.999998, -0.00123668, 0.3503954
 132206263, -0.0004556622, 0.01115824, 0.0001492714, 0.00104407, -0.0002241677, 0.004143021, -8.596557E-05, 0.0005187925, -0.999998, -0.001242863, 0.3503954
 132406183, -0.000436726, 0.01183818, -4.952833E-05, 0.00104407, -0.0001307573, 0.003781272, -3.293388E-05, 0.0005187925, -0.999998, -0.001249632, 0.3503954
 132606103, -0.0002138085, 0.01122508, 0.0001064792, 0.00104407, -0.0004412764, 0.003975692, 0.0003179518, 0.0005187925, -0.999998, -0.001255773, 0.3503954
 132806023, -0.0003769497, 0.0114945, 0.0004135586, 0.00104407, 0.000138452, 0.004197928, 0.0002543421, 0.0005187925, -0.999998, -0.001260017, 0.3503954
 133005943, -5.686891E-05, 0.0117471, 0.0002677108, 0.00104407, 0.0001032654, 0.004116118, 0.0003440815, 0.0005187925, -0.999998, -0.001262467, 0.3503954
 133205863, -0.000191897, 0.01127796, 0.0004137374, 0.00104407, -4.405443E-06, 0.003909694, -5.620257E-05, 0.0005187925, -0.999998, -0.001264348, 0.3503954
 133405783, -0.0003365601, 0.01112475, -8.328082E-05, 0.00104407, -8.372167E-05, 0.003869147, 7.295073E-06, 0.0005187925, -0.999998, -0.001265558, 0.3503954
 133606536, -0.0003746258, 0.0113911, 0.0001304156, 0.001046232, -7.456772E-05, 0.004241514, 0.0003406, 0.0005209541, -0.999998, -0.001265457, 0.3511209
 133806456, 6.073403E-05, 0.01149302, 0.0002975516, 0.001046232, -7.383866E-05, 0.004208929, -0.0002005931, 0.0005187925, -0.999998, -0.001266778, 0.3511209
 134006376, -0.000300765, 0.01160224, -0.0003188502, 0.00104407, -3.610569E-06, 0.00371428, 7.926511E-05, 0.0005187925, -0.999998, -0.001266776, 0.3503954
 134206296, -0.0004159512, 0.01108512, 0.0002957281, 0.00104407, -0.0002229003, 0.003884996, -4.054235E-05, 0.0005187925, -0.999998, -0.001267348, 0.3503954
 134406216, -0.0003721169, 0.01113741, 0.0001464294, 0.00104407, -2.551795E-05, 0.004047082, 6.772788E-05, 0.0005187925, -0.999998, -0.001266906, 0.3503954
 134606136, -0.0002259455, 0.01148682, 0.0003593045, 0.00104407, -0.0001984156, 0.004196155, 0.0001306798, 0.0005187925, -0.999998, -0.001265768, 0.3503954
 134806056, -0.0002624011, 0.01189394, 0.0003537944, 0.00104407, 9.959599E-05, 0.004227662, 0.0003200729, 0.0005187925, -0.999998, -0.001263749, 0.3503954
 135005976, -0.0003715151, 0.01167544, 0.000431819, 0.00104407, -0.0003263629, 0.004001311, 0.0005038856, 0.0005187925, -0.999998, -0.00126068, 0.3503954
 135205896, -0.0003630628, 0.01172529, 0.000392074, 0.00104407, 0.0001479355, 0.004146382, -0.000449592, 0.0005187925, -0.999998, -0.001256585, 0.3503954
 135405816, -9.273675E-05, 0.01151877, -0.0004091655, 0.00104407, -0.000306961, 0.004057513, 0.0001166533, 0.0005187925, -0.999998, -0.001252742, 0.3503954
 135606569, -0.0001848722, 0.01152937, 0.000256991, 0.001046232, 0.0002734664, 0.004000012, -0.0001549283, 0.0005209541, -0.999998, -0.001247436, 0.3511209
 135806489, 0.0003314181, 0.01120156, -0.0002163252, 0.001046232, -3.068195E-05, 0.004041855, 0.0001567523, 0.0005187925, -0.999998, -0.001242154, 0.3511209
 136006409, -0.0001664125, 0.01137732, 0.0002016751, 0.00104407, 0.0002535773, 0.003832671, 2.975704E-05, 0.0005187925, -0.999998, -0.00123688, 0.3503954
 136206329, 9.948083E-05, 0.0111904, 0.0001875306, 0.00104407, -0.0002457483, 0.003962164, 9.854427E-05, 0.0005187925, -0.999998, -0.00123276, 0.3503954
 136406249, -0.0004044357, 0.01160599, 0.0002410997, 0.00104407, 8.647078E-05, 0.004180477, 0.0001125374, 0.0005187925, -0.999998, -0.001227969, 0.3503954
 136606169, -4.454132E-05, 0.0118162, 0.0001242498, 0.00104407, -0.0002812721, 0.004373643, 3.751088E-05, 0.0005187925, -0.999998, -0.001223115, 0.3503954
 136806089, -0.0005146975, 0.01193417, -7.732756E-05, 0.00104407, -0.0003523392, 0.004233093, -1.393595E-05, 0.0005187925, -0.999998, -0.001231144, 0.3503954
 137006009, -0.0004594087, 0.01144144, 0.000221842, 0.00104407, 7.785761E-05, 0.003954003, -7.402319E-05, 0.0005187925, -0.999998, -0.001238118, 0.3503954
 137205929, 6.260307E-07, 0.01159061, -2.829493E-05, 0.00104407, -0.0003161675, 0.004363373, 0.000221133, 0.0005187925, -0.999998, -0.001244381, 0.3503954
 137405849, -0.0003667681, 0.01178189, 0.000312804, 0.00104407, -0.0003559304, 0.003947152, 2.782662E-05, 0.0005187925, -0.999998, -0.001249892, 0.3503954
 137605769, -0.0004898414, 0.01149841, 0.0004380047, 0.00104407, -0.0003577315, 0.003937422, 0.0002114284, 0.0005187925, -0.999998, -0.001254588, 0.3503954
 137806522, -0.0005690674, 0.01157151, 0.0002479225, 0.001046232, -6.155227E-05, 0.004258786, -8.250153E-05, 0.0005209541, -0.9999979, -0.001257232, 0.3511209
 138006442, -0.0001004317, 0.01156189, 5.113105E-05, 0.001046232, -5.459489E-05, 0.00408544, 2.727013E-05, 0.0005187925, -0.9999979, -0.001260521, 0.3511209
 138206362, -0.0002077345, 0.01153111, 0.0001126101, 0.00104407, -0.0001312871, 0.00400398, -0.0001972255, 0.0005187925, -0.9999979, -0.001262842, 0.3503954
 138406282, -0.0002713818, 0.01116139, -5.928407E-05, 0.00104407, -0.0002570309, 0.003714561, 6.972147E-06, 0.0005187925, -0.9999979, -0.00126408, 0.3503954
 138606202, -0.0004155639, 0.01112444, 0.0001534694, 0.00104407, 8.519988E-05, 0.004118461, 0.0002713786, 0.0005187925, -0.9999979, -0.001266125, 0.3503954
 138806122, -1.038789E-05, 0.01160732, 0.0003859514, 0.00104407, -5.973155E-06, 0.003799365, 4.931503E-05, 0.0005187925, -0.999998, -0.001267681, 0.3503954
 139006042, -0.000226651, 0.01125133, 6.055201E-05, 0.00104407, -0.0002027846, 0.003959842, 0.000174679, 0.0005187925, -0.999998, -0.001267651, 0.3503954
 139205962, -0.0001964551, 0.01131136, 0.0002378013, 0.00104407, 0.0001316515, 0.004087719, -0.0001782955, 0.0005187925, -0.999998, -0.001264606, 0.3503954
 139405882, -0.0001934508, 0.01145077, -9.751948E-05, 0.00104407, -0.0004211043, 0.00412649, 0.0001587793, 0.0005187925, -0.999998, -0.00126352, 0.3503954
 139605802, -0.0006904207, 0.01161228, 0.0001745491, 0.00104407, 2.56504E-05, 0.003971921, 0.0001064173, 0.0005187925, -0.999998, -0.001262385, 0.3503954
 139806555, -0.0001062252, 0.01134677, 9.685613E-05, 0.001046232, -0.0002189939, 0.004059487, -3.631648E-05, 0.0005209541, -0.999998, -0.001259642, 0.3511209
 140006475, -0.0006247232, 0.01148371, -0.000143861, 0.001046232, -0.0002225724, 0.003816342, -0.000333301, 0.0005187925, -0.9999979, -0.001257605, 0.3511209
 140206395, -0.0004011016, 0.0113188, -0.0005354896, 0.00104407, 0.0001984802, 0.004140003, 8.233112E-05, 0.0005187925, -0.9999979, -0.001254803, 0.3503954
 140406315, 0.0001036678, 0.01165486, 9.055091E-05, 0.00104407, 0.0002850886, 0.004239924, 5.384556E-05, 0.0005187925, -0.9999979, -0.001251078, 0.3503954
 140606235, 0.00015162, 0.01170938, -3.457951E-05, 0.00104407, -0.0001559302, 0.003988849, -8.179252E-05, 0.0005187925, -0.9999979, -0.001246788, 0.3503954
 140806155, -0.0002697499, 0.0114927, -0.0002433506, 0.00104407, -0.0001797349, 0.004357152, 0.0002533685, 0.0005187925, -0.9999979, -0.001243121, 0.3503954
 141006075, -0.0004142179, 0.01188731, 0.0005463, 0.00104407, 0.0001589082, 0.004133971, 0.0002496435, 0.0005187925, -0.9999979, -0.001239898, 0.3503954
 141205995, 7.683817E-05, 0.01162845, 0.0001827712, 0.00104407, -0.0002378521, 0.004168467, 5.944854E-05, 0.0005187925, -0.9999979, -0.001235426, 0.3503954
 141405915, -0.000486336, 0.01160225, 0.0001968764, 0.00104407, -4.625123E-05, 0.004128352, 0.0001930311, 0.0005187925, -0.9999979, -0.001230448, 0.3503954
 141605835, -9.759582E-05, 0.01141931, 0.0001939749, 0.00104407, 0.0001409672, 0.003867079, 0.0001367296, 0.0005187925, -0.9999979, -0.001225286, 0.3503954
 141806588, -0.0001597831, 0.0114517, 0.0003262073, 0.001046232, -0.0004142386, 0.00412839, 3.910804E-05, 0.0005209541, -0.9999979, -0.001218629, 0.3511209
 142006508, -0.0005086976, 0.01173167, 9.440385E-05, 0.001046232, -0.000106737, 0.004351459, 0.0001801771, 0.0005187925, -0.9999979, -0.001226914, 0.3511209
 142206428, -0.0001304793, 0.0116799, 8.665433E-05, 0.00104407, -0.0001795184, 0.003951294, -0.0001582955, 0.0005187925, -0.9999979, -0.001234333, 0.3503954
 142406348, -0.0003703942, 0.01141076, -0.0002097483, 0.00104407, -0.0005092117, 0.004254754, -9.443795E-05, 0.0005187925, -0.9999979, -0.00124106, 0.3503954
 142606268, -0.0008853094, 0.01174471, -9.3549E-05, 0.00104407, -0.000340507, 0.004111901, -0.0001453426, 0.0005187925, -0.9999979, -0.001247194, 0.3503954
 142806188, -0.0005259349, 0.01167102, -5.870499E-05, 0.00104407, -3.92035E-05, 0.003909545, -7.893026E-05, 0.0005187925, -0.9999979, -0.001251481, 0.3503954
 143006108, -0.0001546569, 0.01148595, 4.622267E-06, 0.00104407, 0.0004194726, 0.004095563, -0.0002910891, 0.0005187925, -0.9999979, -0.001256741, 0.3503954
 143206028, 0.0002286522, 0.01138328, -0.000303116, 0.00104407, -0.0002651766, 0.003815495, -0.0001689938, 0.0005187925, -0.9999979, -0.001259492, 0.3503954
 143405948, -0.0005279777, 0.01115078, -0.0001795062, 0.00104407, -7.893393E-05, 0.004013703, -2.085566E-05, 0.0005187925, -0.999998, -0.001261008, 0.3503954
 143605868, -0.0003397145, 0.01129365, 7.866212E-05, 0.00104407, -0.0002301983, 0.003876153, 0.0003720034, 0.0005187925, -0.999998, -0.001262604, 0.3503954
 143805788, -0.0004072719, 0.01131506, 0.0003412334, 0.00104407, -9.252442E-05, 0.003954933, -0.000188802, 0.0005187925, -0.999998, -0.001263965, 0.3503954
 144006541, -0.0002115075, 0.01157592, -0.000294631, 0.001046232, -0.0001891461, 0.004232371, -0.0002764558, 0.0005209541, -0.999998, -0.001263349, 0.3511209
 144206461, -0.0005652488, 0.01154911, -0.000200141, 0.001046232, -0.0006408795, 0.00400542, 0.0002851263, 0.0005187925, -0.999998, -0.001262705, 0.3511209
 144406381, -0.0007659966, 0.01109331, 0.0003735549, 0.00104407, -0.000215491, 0.003826057, 7.243476E-05, 0.0005187925, -0.999998, -0.001261133, 0.3503954
 144606301, -0.0004596176, 0.01127546, 0.000146284, 0.00104407, -0.0002468285, 0.004126286, 9.348348E-05, 0.0005187925, -0.999998, -0.001259566, 0.3503954
 144806221, -0.0004457285, 0.01159105, 0.0003073678, 0.00104407, -5.512713E-05, 0.003599893, -0.0001089602, 0.0005187925, -0.999998, -0.001258026, 0.3503954
 145006141, -6.017752E-05, 0.01109538, 0.00017499, 0.00104407, -0.0001298818, 0.004571601, 0.000150799, 0.0005187925, -0.999998, -0.001255634, 0.3503954
 145206061, -0.0004007381, 0.01203128, -0.04073862, 0.00104407, -0.0001025109, 0.004373905, -0.1083272, 0.0005187925, -0.999998, -0.001252262, 0.3503954
 145405981, 0.0008347116, 0.01262124, -0.7552876, 0.00104407, 0.0001931647, 0.004670588, -0.1818356, 0.0005187925, -0.999998, -0.00124879, 0.3503954
 145605901, -0.001049218, 0.01131128, -1.168537, 0.00104407, -0.002084338, 0.0026416, -0.9256241, 0.0005187925, -0.9999991, -0.001279732, 0.3503954
 145805821, -0.009396874, 0.004353551, -2.395876, 0.00104407, -0.005398568, 0.0001139517, -0.6203867, 0.0005187925, -0.9999977, -0.001310629, 0.3503954
 146006574, -0.01697507, -0.00116088, -1.428434, 0.001046232, -0.007130675, -0.001097736, -0.3715801, 0.0005209541, -0.9999966, -0.001340565, 0.3511209
 146206494, -0.01857936, -0.003001585, -1.04462, 0.001046232, -0.006235088, -0.00103138, -0.3685258, 0.0005187925, -0.9999961, -0.001365279, 0.3511209
 146406414, -0.01716606, -0.002251304, -1.015873, 0.00104407, -0.005626359, -0.0006917068, -0.3326915, 0.0005187925, -0.9999961, -0.001398717, 0.3503954
 146606334, -0.01545463, -0.0008317623, -0.8786219, 0.00104407, -0.005296296, -6.511639E-05, -0.2734381, 0.0005187925, -0.9999965, -0.001431196, 0.3503954
 146806254, -0.01383298, 0.0004927717, -0.7241493, 0.00104407, -0.004277342, 0.0003692828, -0.2273118, 0.0005187925, -0.9999967, -0.001458956, 0.3503954
 147006174, -0.01160983, 0.001901998, -0.6042871, 0.00104407, -0.003891647, 0.001066932, -0.190132, 0.0005187925, -0.999997, -0.001485637, 0.3503954
 147206094, -0.01033781, 0.003305327, -0.5032414, 0.00104407, -0.003278816, 0.001616379, -0.157243, 0.0005187925, -0.9999971, -0.001526412, 0.3503954
 147406014, -0.008657873, 0.004506557, -0.4145597, 0.00104407, -0.002718572, 0.002135833, -0.1289082, 0.0005187925, -0.9999972, -0.001564942, 0.3503954
 147605934, -0.006313796, 0.006208439, 0.2494684, 0.00104407, -0.001675243, 0.002701211, 0.3912979, 0.0005187925, -0.9999978, -0.001477419, 0.3503954
 147805854, -0.004863891, 0.007722973, 1.037824, 0.00104407, -0.001682588, 0.002967837, 0.3263774, 0.0005187925, -0.9999983, -0.001312687, 0.3503954
 148005774, -0.005010887, 0.008153708, 0.873399, 0.00104407, -0.002112565, 0.002839002, 0.2786864, 0.0005187925, -0.9999977, -0.001555032, 0.3503954
 148206527, -0.004749085, 0.008110937, 1.754401, 0.001046232, -0.001057397, 0.002754564, 1.053664, 0.0005209541, -0.9999937, -0.001930607, 0.3511209
 148406447, 0.007828093, 0.007306006, 2.590171, 0.001046232, 0.009705142, 0.002758845, 0.6963954, 0.0005187925, -0.9999966, -0.002223085, 0.3511209
 148606367, 0.04249315, 0.01233464, 1.693318, 0.00104407, 0.02434966, 0.007846098, 0.4548468, 0.0005187925, -0.9999715, -0.002313474, 0.3503954
 148806287, 0.08970571, 0.0318446, 1.122354, 0.00104407, 0.04152179, 0.01654857, 0.3075299, 0.0005187925, -0.9998537, -0.002231194, 0.3503954
 149006207, 0.133567, 0.05126316, 0.7426791, 0.00104407, 0.05829331, 0.01785487, 0.1920065, 0.0005187925, -0.9998763, -0.002646434, 0.3503954
 149206127, 0.2027638, 0.04435447, 0.4447533, 0.00104407, 0.09364625, 0.01677184, 0.1034464, 0.0005187925, -0.9998634, -0.002186664, 0.3503954
 149406047, 0.3103135, 0.05970255, 0.2211964, 0.00104407, 0.1325631, 0.01906339, 0.04019507, 0.0005187925, -0.9999032, 0.007595636, 0.3503954
 149605967, 0.4088443, 0.01502214, 0.06546035, 0.00104407, 0.1615607, -0.01594339, -0.001214506, 0.0005187925, -0.9946334, 0.09712329, 0.3503954
 149805887, 0.4887331, -0.06407529, -0.03289496, 0.00104407, 0.188905, -0.02633723, -0.02617487, 0.0005187925, -0.9491736, 0.3032507, 0.3503954
 150005807, 0.5640508, -0.05641162, -0.08938095, 0.00104407, 0.2135861, -0.01143994, -0.03880982, 0.0005187925, -0.817207, 0.5590114, 0.3503954
 150206560, 0.6308956, -0.02935269, -0.1173106, 0.001046232, 0.232737, -0.005962612, -0.04463559, 0.0005209541, -0.5942084, 0.7775866, 0.3511209
 150406480, 0.666581, 0.007128807, -0.1291091, 0.001046232, 0.2379281, 0.02068562, -0.04640714, 0.0005187925, -0.3361924, 0.9086359, 0.3511209
 150606400, 0.6853533, 0.1023327, -0.1316068, 0.00104407, 0.2474979, 0.05377186, -0.04617747, 0.0005187925, -0.1029668, 0.952675, 0.3503954
 150806320, 0.7210746, 0.1485433, -0.1311863, 0.00104407, 0.2639808, 0.04627508, -0.04585309, 0.0005187925, 0.0855693, 0.9429544, 0.3503954
 151006240, 0.7602235, 0.1161296, -0.1309708, 0.00104407, 0.2706048, 0.0347077, -0.04577788, 0.0005187925, 0.219565, 0.9152935, 0.3503954
 151206160, 0.7602031, 0.1042585, -0.1284263, 0.00104407, 0.2625546, 0.04357222, -0.04379397, 0.0005187925, 0.263498, 0.8994192, 0.3503954
 151406080, 0.7391246, 0.1479533, -0.1223366, 0.00104407, 0.2576338, 0.06065722, -0.0419488, 0.0005187925, 0.2239474, 0.9022697, 0.3503954
 151606000, 0.7314212, 0.165591, -0.1184051, 0.00104407, 0.2555721, 0.05289686, -0.04167804, 0.0005187925, 0.1373907, 0.9125554, 0.3503954
 151805920, 0.7184098, 0.1367077, -0.1167853, 0.00104407, 0.2493648, 0.03885888, -0.03986137, 0.0005187925, 0.0487255, 0.9159932, 0.3503954
 152005840, 0.7099566, 0.08730687, -0.112042, 0.00104407, 0.2503082, 0.01959772, -0.03929972, 0.0005187925, -0.003490662, 0.9100227, 0.3503954
 152205760, 0.710428, 0.04673803, -0.1102622, 0.00104407, 0.2536641, 0.01358897, -0.03681992, 0.0005187925, -0.007614558, 0.8993807, 0.3503954
 152406513, 0.7454941, 0.0387033, -0.1055906, 0.001046232, 0.2700674, 0.01316209, -0.03876766, 0.0005209541, 0.02306673, 0.8866003, 0.3511209
 152606433, 0.7433325, 0.03340662, -0.1127691, 0.001046232, 0.2479535, 0.009738064, -0.03879418, 0.0005187925, 0.06499285, 0.8813656, 0.3511209
 152806353, 0.6866279, 0.0291639, -0.1058985, 0.00104407, 0.2303869, 0.01363381, -0.03570596, 0.0005187925, 0.09638157, 0.8747865, 0.3503954
 153006273, 0.6242831, 0.05277924, -0.09913074, 0.00104407, 0.2017951, 0.02123731, -0.03354464, 0.0005187925, 0.1055574, 0.873784, 0.3503954
 153206193, 0.5395458, 0.0426544, -0.09230315, 0.00104407, 0.1689411, 0.005163123, -0.03102101, 0.0005187925, 0.09543035, 0.8781946, 0.3503954
 153406113, 0.4341522, 0.004857925, -0.08526302, 0.00104407, 0.1301642, -0.002256787, -0.02704467, 0.0005187925, 0.07682183, 0.8840844, 0.3503954
 153606033, 0.3477592, -0.006420072, -0.07019775, 0.00104407, 0.1109197, -0.001036571, -0.02204942, 0.0005187925, 0.05938369, 0.8854668, 0.3503954
 153805953, 0.2972437, 0.00356125, -0.05803167, 0.00104407, 0.09659339, 0.006610721, -0.01705534, 0.0005187925, 0.04936607, 0.8849372, 0.3503954
 154005873, 0.266859, 0.03349796, -0.04577014, 0.00104407, 0.08874351, 0.01928144, -0.01533004, 0.0005187925, 0.04744617, 0.8832217, 0.3503954
 154205793, 0.2338568, 0.05932678, -0.04160357, 0.00104407, 0.07098345, 0.0200696, -0.01395116, 0.0005187925, 0.05115326, 0.8848995, 0.3503954
 154406546, 0.1803649, 0.04561942, -0.03522228, 0.001046232, 0.05412241, 0.01428701, -0.008184748, 0.0005209541, 0.05768351, 0.885197, 0.3511209
 154606466, 0.1530809, 0.05648445, -0.01953528, 0.001046232, 0.04833024, 0.02520265, -0.007428949, 0.0005187925, 0.06243594, 0.8853831, 0.3511209
