TimeUS,CAN,CAE,CAD,CAe
 76940878, 0, 0, 0, 0
 77040838, -1.181765, 1.492491, -0.02896686, 0.1998691
 77140798, -0.002696998, 0.003665018, -7.118237E-05, 0.0002593962
 77240758, -0.002829982, 0.00357501, -8.757901E-05, 0.0002593962
 77340718, -0.002821655, 0.003375584, -0.0001060157, 0.0002593962
 77440678, -0.002693473, 0.003566267, 4.728336E-06, 0.0002593962
 77540638, -0.002606399, 0.003543417, -0.0001081606, 0.0002593962
 77640598, -0.002719377, 0.003577108, 1.239281E-05, 0.0002593962
 77740558, -0.002818266, 0.003487151, 0.0001164924, 0.0002593962
 77840518, -0.002854392, 0.003447931, 1.039091E-06, 0.0002593962
 77940478, -0.002680397, 0.003477835, 8.951418E-06, 0.0002593962
 78040438, -0.002743914, 0.003413493, -4.107739E-05, 0.0002593962
 78140398, -0.002761463, 0.003520269, -4.011456E-05, 0.0002593962
 78240358, -0.00262575, 0.003475395, -5.781721E-05, 0.0002593962
 78340318, -0.002766325, 0.003482909, 6.092494E-05, 0.0002593962
 78440278, -0.00275386, 0.003411321, -0.0001128889, 0.0002593962
 78540238, -0.00270499, 0.00357425, -0.0001255296, 0.0002593962
 78640198, -0.002624619, 0.003511481, 0.0001696385, 0.0002593962
 78740158, -0.00280618, 0.003489945, 2.102964E-05, 0.0002593962
 78840951, -0.002816801, 0.003467036, -0.0001140095, 0.0002615578
 78940911, -0.002709215, 0.003641762, 5.241204E-05, 0.0002593962
 79040871, -0.002722379, 0.003509553, -0.0001166449, 0.0002593962
 79140831, -0.002665948, 0.003645339, 5.620615E-05, 0.0002593962
 79240791, -0.002982533, 0.003565484, -3.783619E-05, 0.0002593962
 79340751, -0.002700787, 0.00348977, -9.244081E-05, 0.0002593962
 79440711, -0.002723974, 0.003467763, 1.306011E-05, 0.0002593962
 79540671, -0.002861011, 0.003495734, -4.061028E-06, 0.0002593962
 79640631, -0.002702652, 0.003555598, 1.80935E-05, 0.0002593962
 79740591, -0.002825875, 0.003494803, -3.05721E-05, 0.0002593962
 79840551, -0.002861717, 0.003609706, 1.419453E-05, 0.0002593962
 79940511, -0.002734044, 0.003333754, -6.883728E-05, 0.0002593962
 80040471, -0.002762231, 0.003586427, 0.000153871, 0.0002593962
 80140431, -0.002881546, 0.00346531, -5.122043E-05, 0.0002593962
 80240391, -0.002599222, 0.00355939, 5.319376E-06, 0.0002593962
 80340351, -0.002665498, 0.003491645, 0.0001230224, 0.0002593962
 80440311, -0.002679342, 0.003465757, -2.130609E-05, 0.0002593962
 80540271, -0.002735364, 0.003494595, -6.607273E-05, 0.0002593962
 80640231, -0.002759513, 0.003443565, 0.0001063779, 0.0002593962
 80740191, -0.002617034, 0.00345007, -0.0001617929, 0.0002593962
 80840151, -0.002678952, 0.003470319, 0.000100906, 0.0002593962
 80940944, -0.002668565, 0.003504719, -8.022237E-05, 0.0002615578
 81040904, -0.002870204, 0.003654136, -3.206878E-05, 0.0002593962
 81140864, -0.002718917, 0.00360981, -1.836042E-05, 0.0002593962
 81240824, -0.002715195, 0.003466514, -3.712122E-05, 0.0002593962
 81340784, -0.002731988, 0.003566193, 1.567214E-05, 0.0002593962
 81440744, -0.002666858, 0.003473277, -0.0001329558, 0.0002593962
 81540704, -0.002679748, 0.003451272, -2.151582E-05, 0.0002593962
 81640664, -0.002746947, 0.003511056, 2.123936E-05, 0.0002593962
 81740624, -0.002748787, 0.003513771, 1.297432E-05, 0.0002593962
 81840584, -0.002683816, 0.003392939, -9.036264E-05, 0.0002593962
 81940544, -0.002746591, 0.003380468, -9.919012E-05, 0.0002593962
 82040504, -0.002746446, 0.003405486, 3.299346E-05, 0.0002593962
 82140464, -0.002872253, 0.003450426, -1.478557E-05, 0.0002593962
 82240424, -0.002807204, 0.003422613, -5.817946E-05, 0.0002593962
 82340384, -0.002762741, 0.003314788, 2.529086E-05, 0.0002593962
 82440344, -0.002773574, 0.003485419, 1.673029E-05, 0.0002593962
 82540304, -0.002690746, 0.003615071, 4.95331E-05, 0.0002593962
 82640264, -0.00273302, 0.003552384, -0.0001220596, 0.0002593962
 82740224, -0.002568673, 0.003433452, -4.8637E-05, 0.0002593962
 82840184, -0.00304374, 0.003480348, -3.184951E-05, 0.0002593962
 82940977, -0.002789558, 0.003511359, 4.970469E-05, 0.0002593962
 83040937, -0.002805802, 0.003655184, 7.696966E-05, 0.0002615578
 83140897, -0.002806828, 0.003544913, 5.685438E-05, 0.0002593962
 83240857, -0.002722129, 0.003585035, 0.000143013, 0.0002593962
 83340817, -0.002858448, 0.003501758, -4.94759E-05, 0.0002593962
 83440777, -0.002797767, 0.003515162, 7.582492E-05, 0.0002593962
 83540737, -0.002567552, 0.003445095, 1.820791E-06, 0.0002593962
 83640697, -0.002726667, 0.003366661, 1.191618E-06, 0.0002593962
 83740657, -0.002683825, 0.003450678, 4.821755E-05, 0.0002593962
 83840617, -0.002710107, 0.003431375, 6.935206E-05, 0.0002593962
 83940577, -0.002890604, 0.003453574, 7.029581E-05, 0.0002593962
 84040537, -0.002757161, 0.003521186, -0.000109419, 0.0002593962
 84140497, -0.002826584, 0.003508976, 2.199247E-05, 0.0002593962
 84240457, -0.002734169, 0.003509801, 1.663496E-05, 0.0002593962
 84340417, -0.002848238, 0.003554818, 0.0001266831, 0.0002593962
 84440377, -0.002764843, 0.003568377, 8.493839E-06, 0.0002593962
 84540337, -0.002735845, 0.003491054, -0.0001049671, 0.0002593962
 84640297, -0.002784939, 0.003515409, -9.255521E-05, 0.0002593962
 84740257, -0.00278586, 0.003584645, -5.017181E-05, 0.0002593962
 84840217, -0.002859374, 0.003435577, -0.0001109538, 0.0002593962
 84940177, -0.002804843, 0.00354066, -7.206892E-06, 0.0002593962
 85040970, -0.002794598, 0.003488234, -6.294592E-05, 0.0002593962
 85140930, -0.002924571, 0.003477356, -0.000117692, 0.0002615578
 85240890, -0.002821828, 0.003463508, 5.658746E-05, 0.0002593962
 85340850, -0.002835406, 0.003443859, -7.594884E-05, 0.0002593962
 85440810, -0.002832512, 0.00350333, 2.410878E-05, 0.0002593962
 85540770, -0.002672917, 0.003495477, -8.596795E-05, 0.0002593962
 85640730, -0.002767752, 0.00350668, 3.354638E-05, 0.0002593962
 85740690, -0.00279438, 0.003513961, 1.362256E-05, 0.0002593962
 85840650, -0.002759919, 0.003349532, 0.0001754345, 0.0002593962
 85940610, -0.002695168, 0.003557701, 1.081034E-05, 0.0002593962
 86040570, -0.002783228, 0.003576298, 0.0001361111, 0.0002593962
 86140530, -0.002681304, 0.003438503, -0.0001046144, 0.0002593962
 86240490, -0.002829015, 0.003523971, -1.045762E-05, 0.0002593962
 86340450, -0.002794123, 0.003301614, -0.0001875032, 0.0002593962
 86440410, -0.002818256, 0.003444256, -6.666377E-05, 0.0002593962
 86540370, -0.002756356, 0.003567332, -4.589152E-05, 0.0002593962
 86640330, -0.002865656, 0.003378518, -1.248814E-05, 0.0002593962
 86740290, -0.002801917, 0.003462682, -7.793169E-05, 0.0002593962
 86840250, -0.002800676, 0.003390355, -0.000116378, 0.0002593962
 86940210, -0.002687704, 0.003481051, -5.508126E-05, 0.0002593962
 87040170, -0.002665163, 0.003453461, -0.0001358919, 0.0002593962
 87140963, -0.002794545, 0.003504007, -6.714757E-06, 0.0002615578
 87240923, -0.002759957, 0.003542509, 5.189726E-05, 0.0002593962
 87340883, -0.002782338, 0.003526478, -0.0001588091, 0.0002593962
 87440843, -0.002671331, 0.003505935, 9.635885E-05, 0.0002593962
 87540803, -0.002732147, 0.003714657, -1.674936E-05, 0.0002593962
 87640763, -0.002701353, 0.003414038, -1.306007E-06, 0.0002593962
 87740723, -0.002680231, 0.003375112, -3.91708E-05, 0.0002593962
 87840683, -0.002652483, 0.003661352, -9.294605E-05, 0.0002593962
 87940643, -0.002711809, 0.003337653, 0.000131011, 0.0002593962
 88040603, -0.002791073, 0.003279345, -2.774081E-06, 0.0002593962
 88140563, -0.00277173, 0.003408003, 0.0001096859, 0.0002593962
 88240523, -0.00273319, 0.003504147, -8.258376E-05, 0.0002593962
 88340483, -0.00285629, 0.003449015, -4.098205E-05, 0.0002593962
 88440443, -0.002935184, 0.00357881, -8.71691E-05, 0.0002593962
 88540403, -0.002793528, 0.003520594, 4.732145E-05, 0.0002593962
 88640363, -0.002873364, 0.003526525, -0.0001303723, 0.0002593962
 88740323, -0.002797483, 0.003531483, 3.586287E-05, 0.0002593962
 88840283, -0.002890713, 0.003519165, -5.988585E-05, 0.0002593962
 88940243, -0.002805825, 0.003519445, 0.0001145286, 0.0002593962
 89040203, -0.002912735, 0.003560766, -2.798868E-05, 0.0002593962
 89140163, -0.002676401, 0.003539226, -0.0001180653, 0.0002593962
 89240956, -0.002764792, 0.003563757, -6.538755E-05, 0.0002615578
 89340916, -0.002801344, 0.003597031, 6.514803E-05, 0.0002593962
 89440876, -0.002825143, 0.003546502, -0.0001053675, 0.0002593962
 89540836, -0.002838338, 0.003534803, 0.0001259776, 0.0002593962
 89640796, -0.002616251, 0.003531162, -4.315556E-05, 0.0002593962
 89740756, -0.002888693, 0.003432396, -6.244068E-05, 0.0002593962
 89840716, -0.002663875, 0.003507321, -6.419474E-05, 0.0002593962
 89940676, -0.002688545, 0.003496019, -0.0001130033, 0.0002593962
 90040636, -0.00268981, 0.003482967, -1.053389E-05, 0.0002593962
 90140596, -0.002701217, 0.003465365, 5.942828E-05, 0.0002593962
 90240556, -0.002812679, 0.003454583, -0.0001282274, 0.0002593962
 90340516, -0.002786865, 0.003407228, 5.73501E-05, 0.0002593962
 90440476, -0.002678789, 0.00355842, -3.52337E-05, 0.0002593962
 90540436, -0.002689112, 0.003561541, -1.665403E-05, 0.0002593962
 90640396, -0.002746787, 0.003482886, 6.415665E-06, 0.0002593962
 90740356, -0.002675924, 0.003479513, 1.048622E-05, 0.0002593962
 90840316, -0.002690414, 0.003429929, -6.196403E-05, 0.0002593962
 90940276, -0.002605743, 0.003586761, 6.791258E-05, 0.0002593962
 91040236, -0.002713639, 0.003470078, 6.673054E-07, 0.0002593962
 91140196, -0.002758921, 0.003488956, 7.551986E-05, 0.0002593962
 91240156, -0.002653701, 0.003580174, -6.301266E-06, 0.0002593962
 91340949, -0.002748645, 0.003559547, 7.437352E-05, 0.0002615578
 91440909, -0.002712613, 0.00361937, 1.25072E-05, 0.0002593962
 91540869, -0.00289637, 0.003600432, -9.79413E-05, 0.0002593962
 91640829, -0.002741825, 0.003301211, -8.038165E-05, 0.0002593962
 91740789, -0.002799646, 0.003487824, -0.0002269123, 0.0002593962
 91840749, -0.002676676, 0.003414461, -0.0001457776, 0.0002593962
 91940709, -0.002733204, 0.003387921, 5.896116E-05, 0.0002593962
 92040669, -0.002812549, 0.003551705, 6.633012E-05, 0.0002593962
 92140629, -0.002802176, 0.003455058, -7.542453E-05, 0.0002593962
 92240589, -0.002692525, 0.003503263, 0.0001165305, 0.0002593962
 92340549, -0.002686022, 0.003376966, -1.402295E-05, 0.0002593962
 92440509, -0.002786696, 0.003364553, 1.124885E-05, 0.0002593962
 92540469, -0.00267103, 0.003447167, 7.15065E-05, 0.0002593962
 92640429, -0.002794487, 0.003477296, 0.0001941, 0.0002593962
 92740389, -0.002793137, 0.003422832, -2.791241E-05, 0.0002593962
 92840349, -0.002722682, 0.003435306, 2.267884E-05, 0.0002593962
 92940309, -0.002766327, 0.003427226, 2.748343E-05, 0.0002593962
 93040269, -0.002621068, 0.003564013, -9.000038E-05, 0.0002593962
 93140229, -0.002773127, 0.003518191, -2.27551E-05, 0.0002593962
 93240189, -0.002705543, 0.003451464, -6.997169E-05, 0.0002593962
 93340149, -0.002850378, 0.003480102, -2.331754E-05, 0.0002593962
 93440942, -0.002715043, 0.003440291, -7.835511E-05, 0.0002615578
 93540902, -0.00276357, 0.003407707, 6.327959E-05, 0.0002593962
 93640862, -0.002778222, 0.003552811, -3.791246E-05, 0.0002593962
 93740822, -0.002766216, 0.003478735, -3.732141E-05, 0.0002593962
 93840782, -0.0027621, 0.003519129, -0.0001404772, 0.0002593962
 93940742, -0.002815637, 0.003502751, 0.0001755679, 0.0002593962
 94040702, -0.002821645, 0.003544823, -2.398485E-05, 0.0002593962
 94140662, -0.002589107, 0.003540229, 1.048622E-05, 0.0002593962
 94240622, -0.002724148, 0.003453929, -0.0001038327, 0.0002593962
 94340582, -0.002645917, 0.003435211, -7.704513E-05, 0.0002593962
 94440542, -0.002752349, 0.003608501, 1.599625E-05, 0.0002593962
 94540502, -0.002736082, 0.00360266, 3.994301E-06, 0.0002593962
 94640462, -0.002967637, 0.0034578, -3.686383E-05, 0.0002593962
 94740422, -0.002926945, 0.003391966, -0.0001226888, 0.0002593962
 94840382, -0.002888721, 0.003403274, -8.09727E-05, 0.0002593962
 94940342, -0.002725723, 0.003408589, -8.507186E-05, 0.0002593962
 95040302, -0.002693258, 0.00354082, 7.787449E-05, 0.0002593962
 95140262, -0.002726428, 0.003386971, -1.101053E-05, 0.0002593962
 95240222, -0.002876448, 0.003492081, 1.643477E-05, 0.0002593962
 95340182, -0.002718322, 0.003493355, -4.437579E-05, 0.0002593962
 95440975, -0.002833977, 0.003486009, -1.781704E-05, 0.0002593962
 95540935, -0.002888424, 0.00351692, -6.474438E-07, 0.0002615578
 95640895, -0.002701924, 0.003706874, 5.424237E-06, 0.0002593962
 95740855, -0.002713998, 0.00349808, 2.173507E-06, 0.0002593962
 95840815, -0.002736172, 0.003415908, -8.58631E-05, 0.0002593962
 95940775, -0.002773724, 0.003453832, 0.0001067116, 0.0002593962
 96040735, -0.002849305, 0.00363849, -9.347036E-05, 0.0002593962
 96140695, -0.00277353, 0.00340597, 4.980002E-05, 0.0002593962
 96240655, -0.002800233, 0.00318084, 4.156354E-06, 0.0002593962
 96340615, -0.002767202, 0.003334872, -8.646367E-05, 0.0002593962
 96440575, -0.002654763, 0.003367565, -1.907539E-05, 0.0002593962
 96540535, -0.002745494, 0.003509719, 0.0002405444, 0.0002593962
 96640495, -0.00268639, 0.003420002, 2.858925E-05, 0.0002593962
 96740455, -0.002699534, 0.003372791, 8.399462E-05, 0.0002593962
 96840415, -0.002870946, 0.003412905, 7.171623E-05, 0.0002593962
 96940375, -0.002811746, 0.003431418, -1.975223E-05, 0.0002593962
 97040335, -0.002795552, 0.003639126, 5.506219E-05, 0.0002593962
 97140295, -0.002700971, 0.003411293, 1.689235E-05, 0.0002593962
 97240255, -0.002771817, 0.003459027, -1.943764E-05, 0.0002593962
 97340215, -0.002660906, 0.003315054, -1.676842E-05, 0.0002593962
 97440175, -0.002820762, 0.003540933, 2.931376E-05, 0.0002593962
 97540968, -0.002711935, 0.003568247, 1.930021E-05, 0.0002615578
 97640928, -0.002766836, 0.003315945, -4.175423E-05, 0.0002593962
 97740888, -0.0028176, 0.003529199, -3.759787E-05, 0.0002593962
 97840848, -0.002648999, 0.003575102, 2.078177E-06, 0.0002593962
 97940808, -0.002757467, 0.003492096, -9.860861E-05, 0.0002593962
 98040768, -0.002553153, 0.003644923, -3.684477E-05, 0.0002593962
 98140728, -0.002725448, 0.003438788, -3.212597E-06, 0.0002593962
 98240688, -0.002722746, 0.003383697, 7.906611E-05, 0.0002593962
 98340648, -0.002720602, 0.003492957, -8.793173E-05, 0.0002593962
 98440608, -0.002873493, 0.003442643, 8.152561E-05, 0.0002593962
 98540568, -0.002801109, 0.003450895, 3.833191E-05, 0.0002593962
 98640528, -0.002792642, 0.003353167, 4.957141E-07, 0.0002593962
 98740488, -0.002914285, 0.003426183, -0.0001310968, 0.0002593962
 98840448, -0.002646032, 0.003652056, -0.0001150815, 0.0002593962
 98940408, -0.002812895, 0.003432723, -1.305058E-05, 0.0002593962
 99040368, -0.002754198, 0.003488049, 0.0001045381, 0.0002593962
 99140328, -0.002719215, 0.003481539, 6.692118E-06, 0.0002593962
 99240288, -0.002668427, 0.003540737, -1.34319E-05, 0.0002593962
 99340248, -0.002638028, 0.003599171, -1.963783E-06, 0.0002593962
 99440208, -0.00275925, 0.003629979, 0.0001462161, 0.0002593962
 99540168, -0.002811055, 0.003548764, 2.280276E-05, 0.0002593962
 99640961, -0.002834756, 0.003520277, -5.880824E-05, 0.0002615578
 99740921, -0.002841777, 0.00358709, -7.371814E-05, 0.0002593962
 99840881, -0.002803728, 0.003595564, -7.050554E-05, 0.0002593962
 99940841, -0.002781409, 0.003504866, 7.915191E-05, 0.0002593962
 100040801, -0.002789118, 0.003645862, 1.532895E-05, 0.0002593962
 100140761, -0.002616242, 0.003433748, 9.007664E-05, 0.0002593962
 100240721, -0.002782279, 0.003501399, 6.743593E-05, 0.0002593962
 100340681, -0.002876248, 0.003594151, -7.924723E-05, 0.0002593962
 100440641, -0.002508462, 0.003480475, -8.169718E-06, 0.0002593962
 100540601, -0.002618266, 0.003650856, 3.293627E-05, 0.0002593962
 100640561, -0.002689545, 0.00349744, 6.149692E-05, 0.0002593962
 100740521, -0.002732543, 0.003388991, 6.156365E-05, 0.0002593962
 100840481, -0.00274365, 0.003534314, 0.0001407537, 0.0002593962
 100940441, -0.002743297, 0.003534634, 1.791237E-05, 0.0002593962
 101040401, -0.002641069, 0.003525191, -8.217384E-05, 0.0002593962
 101140361, -0.002661329, 0.003484932, -0.0002053488, 0.0002593962
 101240321, -0.00274534, 0.003500898, 0.000101907, 0.0002593962
 101340281, -0.002737331, 0.00352747, 3.889435E-06, 0.0002593962
 101440241, -0.002769785, 0.003478963, -0.000152708, 0.0002593962
 101540201, -0.002809449, 0.003388581, 5.063892E-05, 0.0002593962
 101640161, -0.002701656, 0.003415061, -0.0001126506, 0.0002593962
 101740954, -0.002626497, 0.003520508, -3.430384E-05, 0.0002615578
 101840914, -0.002824402, 0.003374805, -3.200204E-05, 0.0002593962
 101940874, -0.002869534, 0.003478918, -2.768363E-05, 0.0002593962
 102040834, -0.002714574, 0.003497758, 0.0001404677, 0.0002593962
 102140794, -0.002685556, 0.003558298, 3.947585E-05, 0.0002593962
 102240754, -0.002750693, 0.003491939, 6.816043E-06, 0.0002593962
 102340714, -0.002616517, 0.003459651, 7.392786E-05, 0.0002593962
 102440674, -0.002640654, 0.003507511, -2.904684E-05, 0.0002593962
 102540634, -0.002648045, 0.003536878, 9.037217E-05, 0.0002593962
 102640594, -0.002805788, 0.003364331, 0.0001845861, 0.0002593962
 102740554, -0.002732805, 0.003449205, 7.019095E-05, 0.0002593962
 102840514, -0.002675851, 0.003390639, -0.0002032611, 0.0002593962
 102940474, -0.002825264, 0.003586811, -6.307939E-05, 0.0002593962
 103040434, -0.002661801, 0.003387676, 8.073437E-05, 0.0002593962
 103140394, -0.002688536, 0.003512932, 0.0002593433, 0.0002593962
 103240354, -0.002809048, 0.003476493, -4.267892E-05, 0.0002593962
 103340314, -0.002792755, 0.003494856, 0.0001614115, 0.0002593962
 103440274, -0.002803618, 0.003345452, -0.0001280844, 0.0002593962
 103540234, -0.002738566, 0.003459792, -1.575793E-05, 0.0002593962
 103640194, -0.002597009, 0.003438791, -6.274573E-05, 0.0002593962
 103740154, -0.002703426, 0.003464586, -0.0001187326, 0.0002593962
 103840947, -0.002645645, 0.003641741, -4.017295E-05, 0.0002615578
 103940907, -0.00269943, 0.003535633, 0.000102908, 0.0002593962
 104040867, -0.00278541, 0.00339829, 9.632071E-05, 0.0002593962
 104140827, -0.002822007, 0.003518285, 3.597727E-05, 0.0002593962
 104240787, -0.00260494, 0.003401675, -7.16209E-05, 0.0002593962
 104340747, -0.002693432, 0.003611533, -3.115361E-05, 0.0002593962
 104440707, -0.002838871, 0.00353086, 5.25741E-05, 0.0002593962
 104540667, -0.002672249, 0.003497637, -3.208784E-05, 0.0002593962
 104640627, -0.002627758, 0.003378929, -4.493822E-05, 0.0002593962
 104740587, -0.002849289, 0.003513315, -5.705458E-05, 0.0002593962
 104840547, -0.002681287, 0.003491304, -9.418534E-05, 0.0002593962
 104940507, -0.002750005, 0.003516511, -3.450921E-06, 0.0002593962
 105040467, -0.002826053, 0.003575266, -4.523374E-05, 0.0002593962
 105140427, -0.00277005, 0.003526719, -6.615852E-06, 0.0002593962
 105240387, -0.002716559, 0.003579484, 8.261236E-05, 0.0002593962
 105340347, -0.002861928, 0.003501845, -8.127775E-05, 0.0002593962
 105440307, -0.002798046, 0.00337811, 6.35465E-05, 0.0002593962
 105540267, -0.002646987, 0.003393001, -3.663504E-05, 0.0002593962
 105640227, -0.002704429, 0.00347918, -8.732163E-05, 0.0002593962
 105740187, -0.002739365, 0.003328473, -4.287911E-05, 0.0002593962
 105840147, -0.002767427, 0.00353132, 2.660641E-05, 0.0002593962
 105940940, -0.00262391, 0.003349733, 8.159671E-05, 0.0002615578
 106040900, -0.002779875, 0.003443989, -8.604421E-05, 0.0002593962
 106140860, -0.00269768, 0.003441237, -8.520532E-05, 0.0002593962
 106240820, -0.002656366, 0.003386236, 4.16589E-06, 0.0002593962
 106340780, -0.002660928, 0.003528569, -9.225015E-05, 0.0002593962
 106440740, -0.002822709, 0.003531046, -3.647299E-05, 0.0002593962
 106540700, -0.002786514, 0.00350136, 0.0001027554, 0.0002593962
 106640660, -0.002796639, 0.003413712, 2.060066E-05, 0.0002593962
 106740620, -0.002724482, 0.00341303, 0.000110153, 0.0002593962
 106840580, -0.002781035, 0.003533331, 2.306966E-06, 0.0002593962
 106940540, -0.002836351, 0.003371777, -0.0001248528, 0.0002593962
 107040500, -0.002718508, 0.003394822, -0.0001819455, 0.0002593962
 107140460, -0.002745582, 0.003531186, 6.919953E-05, 0.0002593962
 107240420, -0.00273792, 0.003506349, -0.0001259205, 0.0002593962
 107340380, -0.002692602, 0.003436977, 0.0001140901, 0.0002593962
 107440340, -0.002767732, 0.003388175, -0.0001337565, 0.0002593962
 107540300, -0.002581237, 0.003428525, -6.606321E-06, 0.0002593962
 107640260, -0.002565769, 0.003508673, 2.65206E-05, 0.0002593962
 107740220, -0.00261202, 0.003601795, 2.555778E-05, 0.0002593962
 107840180, -0.002739152, 0.003385907, -7.707373E-05, 0.0002593962
 107940973, -0.002522693, 0.003465413, 5.691158E-05, 0.0002593962
 108040933, -0.002780443, 0.003497946, 0.0001262366, 0.0002615578
 108140893, -0.002518552, 0.003349456, -2.23071E-06, 0.0002593962
 108240853, -0.002606695, 0.003436927, -2.131563E-05, 0.0002593962
 108340813, -0.002738648, 0.003516156, -8.704518E-05, 0.0002593962
 108440773, -0.002812064, 0.003567948, 9.856095E-05, 0.0002593962
 108540733, -0.002743321, 0.003422751, -5.087724E-05, 0.0002593962
 108640693, -0.002679813, 0.003376236, -2.040048E-06, 0.0002593962
 108740653, -0.002669462, 0.003387671, 0.0001387327, 0.0002593962
 108840613, -0.002786739, 0.003526988, 2.778849E-05, 0.0002593962
 108940573, -0.002702067, 0.003456277, -8.265049E-05, 0.0002593962
 109040533, -0.002827313, 0.003445696, -9.151612E-06, 0.0002593962
 109140493, -0.002767906, 0.003392444, 3.145879E-07, 0.0002593962
 109240453, -0.00275157, 0.003490946, 0.0001117355, 0.0002593962
 109340413, -0.002887436, 0.00339813, -5.346066E-05, 0.0002593962
 109440373, -0.002842449, 0.003480614, -4.547206E-06, 0.0002593962
 109540333, -0.002798326, 0.003371673, 4.970469E-05, 0.0002593962
 109640293, -0.002735409, 0.003476277, 1.375601E-05, 0.0002593962
 109740253, -0.002693966, 0.003524389, -7.714046E-05, 0.0002593962
 109840213, -0.002754533, 0.003506224, -2.062926E-05, 0.0002593962
 109940173, -0.002699541, 0.003436747, 7.720719E-05, 0.0002593962
 110040966, -0.002715678, 0.003509598, -0.0001039772, 0.0002615578
 110140926, -0.002718206, 0.00339002, -6.00573E-07, 0.0002593962
 110240886, -0.002559412, 0.003560833, 8.417576E-05, 0.0002593962
 110340846, -0.002747925, 0.003475841, -0.0001529463, 0.0002593962
 110440806, -0.002906881, 0.003638018, -3.069601E-06, 0.0002593962
 110540766, -0.002814927, 0.003446181, 4.125851E-05, 0.0002593962
 110640726, -0.002667119, 0.003568981, 9.682596E-05, 0.0002593962
 110740686, -0.002704455, 0.003605598, -0.0001627843, 0.0002593962
 110840646, -0.002815432, 0.003518557, 1.952344E-05, 0.0002593962
 110940606, -0.002545566, 0.003601761, -4.304117E-05, 0.0002593962
 111040566, -0.002771591, 0.003561317, 3.364171E-05, 0.0002593962
 111140526, -0.002829891, 0.003404765, 1.184943E-05, 0.0002593962
 111240486, -0.002691455, 0.003553088, 2.086758E-05, 0.0002593962
 111340446, -0.002841722, 0.003533869, 7.606324E-05, 0.0002593962
 111440406, -0.002753896, 0.003526271, 0.0001320692, 0.0002593962
 111540366, -0.002751627, 0.00355351, 9.267913E-05, 0.0002593962
 111640326, -0.002798314, 0.003450219, -0.0001047288, 0.0002593962
 111740286, -0.002824514, 0.003450763, -5.384198E-05, 0.0002593962
 111840246, -0.00278266, 0.00335635, 1.719741E-05, 0.0002593962
 111940206, -0.002692885, 0.003416176, -0.0001571408, 0.0002593962
 112040166, -0.002712776, 0.003559957, -0.0001147669, 0.0002593962
 112140959, -0.002699982, 0.003452097, -2.87104E-05, 0.0002615578
 112240919, -0.002809486, 0.003526532, 8.24789E-05, 0.0002593962
 112340879, -0.002658386, 0.003321921, -3.074369E-05, 0.0002593962
 112440839, -0.002710155, 0.003375784, 4.877999E-05, 0.0002593962
 112540799, -0.002727918, 0.003458094, 5.19068E-05, 0.0002593962
 112640759, -0.002709172, 0.003398045, 3.957119E-05, 0.0002593962
 112740719, -0.002641033, 0.003362341, -5.859891E-05, 0.0002593962
 112840679, -0.002667654, 0.003462229, 0.0001275506, 0.0002593962
 112940639, -0.002713127, 0.003403712, 3.910407E-05, 0.0002593962
 113040599, -0.002616548, 0.003389255, 0.0001429558, 0.0002593962
 113140559, -0.002714013, 0.003629701, 5.225951E-05, 0.0002593962
 113240519, -0.002796242, 0.003430076, -9.171631E-05, 0.0002593962
 113340479, -0.002703608, 0.003497734, -0.0001256249, 0.0002593962
 113440439, -0.00278694, 0.003432527, 0.0001461112, 0.0002593962
 113540399, -0.002674297, 0.003490448, 5.021947E-05, 0.0002593962
 113640359, -0.002655593, 0.003390137, -5.893256E-05, 0.0002593962
 113740319, -0.00259817, 0.003446195, 1.631084E-05, 0.0002593962
 113840279, -0.00284947, 0.003420309, 8.107756E-05, 0.0002593962
 113940239, -0.002566115, 0.003462715, 9.294605E-05, 0.0002593962
 114040199, -0.002717632, 0.00341094, 9.972396E-05, 0.0002593962
 114140159, -0.002697313, 0.003406509, -6.605366E-05, 0.0002593962
 114240952, -0.002771123, 0.003471946, 2.162188E-05, 0.0002615578
 114340912, -0.002709893, 0.003503771, -0.0001366831, 0.0002593962
 114440872, -0.002766192, 0.003537491, -9.008618E-06, 0.0002593962
 114540832, -0.002768944, 0.003433844, 2.322222E-05, 0.0002593962
 114640792, -0.002744417, 0.003392167, -6.097261E-05, 0.0002593962
 114740752, -0.002595334, 0.003522578, -5.596782E-05, 0.0002593962
 114840712, -0.002814572, 0.003446321, 0.000148237, 0.0002593962
 114940672, -0.002745345, 0.003562383, -4.734052E-05, 0.0002593962
 115040632, -0.002752089, 0.003507395, -0.0001859398, 0.0002593962
 115140592, -0.002787144, 0.003503125, -2.986666E-05, 0.0002593962
 115240552, -0.002593517, 0.003455525, 1.258348E-06, 0.0002593962
 115340512, -0.002829278, 0.003561986, -0.0001539472, 0.0002593962
 115440472, -0.002574085, 0.003442467, -1.351769E-05, 0.0002593962
 115540432, -0.002750616, 0.003535484, -0.0001160825, 0.0002593962
 115640392, -0.00276308, 0.003498332, 2.176368E-05, 0.0002593962
 115740352, -0.002804536, 0.003612626, -6.644452E-05, 0.0002593962
 115840312, -0.002807975, 0.003424452, 2.563405E-05, 0.0002593962
 115940272, -0.002833857, 0.003484675, -0.000138828, 0.0002593962
 116040232, -0.002650299, 0.003474122, 1.895146E-05, 0.0002593962
 116140192, -0.002692321, 0.003530882, -1.805537E-05, 0.0002593962
 116240152, -0.002609764, 0.003426797, -4.918989E-06, 0.0002593962
 116340945, -0.002545197, 0.003564223, -1.346923E-06, 0.0002615578
 116440905, -0.002633498, 0.003433505, -7.816048E-05, 0.0002593962
 116540865, -0.002642177, 0.003259346, -6.071522E-05, 0.0002593962
 116640825, -0.00271418, 0.003511074, -2.480468E-05, 0.0002593962
 116740785, -0.00268152, 0.003369194, -4.061981E-05, 0.0002593962
 116840745, -0.002723193, 0.003457586, 0.0001173503, 0.0002593962
 116940705, -0.002676281, 0.003589109, 5.681626E-05, 0.0002593962
 117040665, -0.002689796, 0.003433177, 3.565315E-05, 0.0002593962
 117140625, -0.002877525, 0.003468713, -7.000983E-05, 0.0002593962
 117240585, -0.002809107, 0.003548642, -6.306032E-05, 0.0002593962
 117340545, -0.002602816, 0.003326232, -7.468096E-05, 0.0002593962
 117440505, -0.002684288, 0.003400308, 7.235493E-05, 0.0002593962
 117540465, -0.002768207, 0.003445333, -2.062926E-05, 0.0002593962
 117640425, -0.002696617, 0.00340236, -0.0001155868, 0.0002593962
 117740385, -0.002816849, 0.003492538, 6.520524E-06, 0.0002593962
 117840345, -0.002679579, 0.00341988, 0.000118418, 0.0002593962
 117940305, -0.00273193, 0.003429702, -0.000147074, 0.0002593962
 118040265, -0.002558775, 0.003448045, 1.054342E-05, 0.0002593962
 118140225, -0.002597267, 0.003453357, -0.0001419834, 0.0002593962
 118240185, -0.002761177, 0.003266134, 4.557693E-05, 0.0002593962
 118340145, -0.002784773, 0.003442155, -0.0001093713, 0.0002593962
 118440938, -0.002704823, 0.003555488, -4.12609E-05, 0.0002615578
 118540898, -0.002699486, 0.003350184, -4.896112E-05, 0.0002593962
 118640858, -0.002718528, 0.003561745, -8.767434E-05, 0.0002593962
 118740818, -0.002608459, 0.003539026, -2.817934E-05, 0.0002593962
 118840778, -0.002844724, 0.003388966, -0.0001022597, 0.0002593962
 118940738, -0.002757762, 0.003392262, -4.319369E-05, 0.0002593962
 119040698, -0.002595823, 0.00347632, 4.945683E-05, 0.0002593962
 119140658, -0.002620246, 0.003486768, 3.937099E-05, 0.0002593962
 119240618, -0.002801932, 0.003516735, -0.0001568643, 0.0002593962
 119340578, -0.002724631, 0.003481366, -4.086766E-05, 0.0002593962
 119440538, -0.002722991, 0.003456483, -7.721667E-06, 0.0002593962
 119540498, -0.002629357, 0.003499661, -4.020036E-05, 0.0002593962
 119640458, -0.002776386, 0.003614802, 0.0001157869, 0.0002593962
 119740418, -0.002690496, 0.003518397, 4.510029E-05, 0.0002593962
 119840378, -0.002754632, 0.003476564, -1.193523E-05, 0.0002593962
 119940338, -0.002817875, 0.00351076, -8.613001E-05, 0.0002593962
 120040298, -0.002772565, 0.003577593, 2.784569E-05, 0.0002593962
 120140258, -0.002575458, 0.003382795, 0.0001416116, 0.0002593962
 120240218, -0.002930811, 0.00363202, 0.000160544, 0.0002593962
 120340178, -0.002852417, 0.003576321, 4.6902E-06, 0.0002593962
 120440971, -0.002789254, 0.003338341, 3.211643E-05, 0.0002593962
 120540931, -0.00269482, 0.003535858, -8.400497E-06, 0.0002615578
 120640891, -0.002617803, 0.003487378, 4.396587E-05, 0.0002593962
 120740851, -0.00272102, 0.003453998, -2.202105E-05, 0.0002593962
 120840811, -0.002719819, 0.003565198, 1.489997E-05, 0.0002593962
 120940771, -0.002588813, 0.003446245, 4.156357E-05, 0.0002593962
 121040731, -0.002657929, 0.00354153, 4.792203E-05, 0.0002593962
 121140691, -0.002687164, 0.003388964, -0.0001065495, 0.0002593962
 121240651, -0.002584948, 0.003542035, -0.0001036515, 0.0002593962
 121340611, -0.002629665, 0.00345453, 7.135397E-05, 0.0002593962
 121440571, -0.002726838, 0.003467368, 0.000104786, 0.0002593962
 121540531, -0.002774117, 0.003499086, 0.0001817167, 0.0002593962
 121640491, -0.002775801, 0.003393749, -5.401357E-05, 0.0002593962
 121740451, -0.002540382, 0.00342395, -4.530048E-05, 0.0002593962
 121840411, -0.00283587, 0.003502294, 4.711173E-05, 0.0002593962
 121940371, -0.002645153, 0.003418855, 2.704492E-05, 0.0002593962
 122040331, -0.002781718, 0.003478334, 1.677797E-06, 0.0002593962
 122140291, -0.002702067, 0.003639379, -0.0001782753, 0.0002593962
 122240251, -0.002672906, 0.003388456, -6.807465E-05, 0.0002593962
 122340211, -0.00263147, 0.003571562, -3.198297E-05, 0.0002593962
 122440171, -0.002651586, 0.0034175, 3.101062E-05, 0.0002593962
 122540964, -0.002619003, 0.003473101, 4.485839E-05, 0.0002615578
 122640924, -0.002642421, 0.003629142, -9.751233E-05, 0.0002593962
 122740884, -0.002627168, 0.003488137, -0.00012797, 0.0002593962
 122840844, -0.002729801, 0.003571857, 4.184953E-06, 0.0002593962
 122940804, -0.002858888, 0.00344991, -0.0001083894, 0.0002593962
 123040764, -0.002744849, 0.003397501, 5.943781E-05, 0.0002593962
 123140724, -0.002521805, 0.003529306, 3.586287E-05, 0.0002593962
 123240684, -0.002729791, 0.003373783, -4.547208E-05, 0.0002593962
 123340644, -0.002704534, 0.003473042, -7.355608E-05, 0.0002593962
 123440604, -0.002826534, 0.003428726, -7.860853E-05, 0.0002593962
 123540564, -0.002748946, 0.003507094, 4.529094E-05, 0.0002593962
 123640524, -0.002883379, 0.003413979, -8.906615E-05, 0.0002593962
 123740484, -0.00282542, 0.003368722, 0.0001586851, 0.0002593962
 123840444, -0.00267204, 0.003344832, -7.951416E-05, 0.0002593962
 123940404, -0.002717425, 0.0033038, -8.193552E-05, 0.0002593962
 124040364, -0.002633529, 0.003600736, -6.1373E-05, 0.0002593962
 124140324, -0.002813503, 0.003447429, 3.341291E-05, 0.0002593962
 124240284, -0.002699816, 0.003419097, 2.402297E-06, 0.0002593962
 124340244, -0.002602816, 0.003397459, -6.7598E-05, 0.0002593962
 124440204, -0.002776634, 0.00334489, -3.12394E-05, 0.0002593962
 124540164, -0.002717523, 0.003466276, 7.705465E-05, 0.0002593962
 124640957, -0.002744084, 0.003469589, 2.166357E-06, 0.0002615578
 124740917, -0.00270331, 0.003325399, -2.376559E-05, 0.0002593962
 124840877, -0.002927151, 0.003539352, -0.0001006391, 0.0002593962
 124940837, -0.002607302, 0.003567041, 1.57484E-05, 0.0002593962
 125040797, -0.002841701, 0.003379281, -7.758851E-05, 0.0002593962
 125140757, -0.002754249, 0.003614045, 2.943768E-05, 0.0002593962
 125240717, -0.002690954, 0.003632988, 6.132533E-05, 0.0002593962
 125340677, -0.002845728, 0.003520056, 1.610112E-05, 0.0002593962
 125440637, -0.002783234, 0.003426523, 5.719756E-06, 0.0002593962
 125540597, -0.002774476, 0.003503448, 5.289821E-05, 0.0002593962
 125640557, -0.002768066, 0.003519415, 1.364162E-05, 0.0002593962
 125740517, -0.002881472, 0.003373332, -0.0001266164, 0.0002593962
 125840477, -0.002756509, 0.00358347, 0.0001310682, 0.0002593962
 125940437, -0.002889164, 0.003364422, 3.333665E-05, 0.0002593962
 126040397, -0.002638503, 0.003577281, -7.654942E-05, 0.0002593962
 126140357, -0.002753059, 0.003571158, 0.0001692572, 0.0002593962
 126240317, -0.002895396, 0.003316185, 2.914216E-05, 0.0002593962
 126340277, -0.002767524, 0.003446019, -0.0001273885, 0.0002593962
 126440237, -0.002764098, 0.003402628, -0.0001172836, 0.0002593962
 126540197, -0.002693107, 0.003449421, -4.55102E-05, 0.0002593962
 126640157, -0.002789484, 0.003475562, 6.170664E-05, 0.0002593962
 126740950, -0.002702397, 0.003574883, -2.247309E-05, 0.0002615578
 126840910, -0.002797505, 0.00336983, 4.143964E-05, 0.0002593962
 126940870, -0.002781946, 0.003447213, 7.002889E-05, 0.0002593962
 127040830, -0.002657107, 0.003485119, 4.067701E-05, 0.0002593962
 127140790, -0.002465053, 0.003513072, -8.396604E-05, 0.0002593962
 127240750, -0.002682329, 0.003449515, -3.687337E-05, 0.0002593962
 127340710, -0.002689976, 0.003317097, -7.254559E-06, 0.0002593962
 127440670, -0.002737609, 0.00345326, 3.161119E-05, 0.0002593962
 127540630, -0.002786062, 0.0034068, 4.193535E-05, 0.0002593962
 127640590, -0.002772445, 0.003514924, -1.999055E-05, 0.0002593962
 127740550, -0.00275311, 0.003549249, 7.934256E-05, 0.0002593962
 127840510, -0.002760274, 0.00328112, -8.970486E-05, 0.0002593962
 127940470, -0.002833894, 0.0033684, -1.549101E-05, 0.0002593962
 128040430, -0.002786221, 0.003416457, -8.074392E-06, 0.0002593962
 128140390, -0.002635963, 0.003458445, -3.14682E-05, 0.0002593962
 128240350, -0.00265189, 0.00345738, 2.233565E-05, 0.0002593962
 128340310, -0.002727791, 0.003441038, -8.218337E-05, 0.0002593962
 128440270, -0.00257911, 0.003401964, 2.455682E-05, 0.0002593962
 128540230, -0.002678064, 0.003388359, -6.990496E-05, 0.0002593962
 128640190, -0.002820608, 0.003354206, 5.107743E-05, 0.0002593962
 128740150, -0.00296796, 0.003554609, -3.162072E-05, 0.0002593962
 128840943, -0.002648066, 0.003504735, -0.0001505921, 0.0002615578
 128940903, -0.002780901, 0.003356669, -8.903755E-05, 0.0002593962
 129040863, -0.002703197, 0.003457875, -8.391838E-05, 0.0002593962
 129140823, -0.002697523, 0.003333707, -2.259307E-06, 0.0002593962
 129240783, -0.002782331, 0.003562238, 4.132525E-05, 0.0002593962
 129340743, -0.0027583, 0.003385813, 5.192586E-05, 0.0002593962
 129440703, -0.00269349, 0.003340167, -4.30793E-05, 0.0002593962
 129540663, -0.002823892, 0.003465453, 9.380402E-06, 0.0002593962
 129640623, -0.002841471, 0.00350941, -5.201166E-05, 0.0002593962
 129740583, -0.002707705, 0.00337319, 9.633978E-05, 0.0002593962
 129840543, -0.002701438, 0.003383541, -2.410877E-05, 0.0002593962
 129940503, -0.002815499, 0.003531127, -1.234514E-05, 0.0002593962
 130040463, -0.002773222, 0.003541029, 7.107751E-05, 0.0002593962
 130140423, -0.002723887, 0.003491739, -4.667322E-05, 0.0002593962
 130240383, -0.00281444, 0.003446042, 1.921838E-05, 0.0002593962
 130340343, -0.002779756, 0.003479998, -0.0002180943, 0.0002593962
 130440303, -0.002777705, 0.003507531, 0.0001082559, 0.0002593962
 130540263, -0.002710945, 0.003382751, -0.0001026506, 0.0002593962
 130640223, -0.00262669, 0.003453525, -0.0001453486, 0.0002593962
 130740183, -0.002780137, 0.003664042, -0.0001138899, 0.0002593962
 130840976, -0.00272241, 0.003442052, -4.041009E-05, 0.0002593962
 130940936, -0.002833595, 0.00355752, 0.0001012814, 0.0002615578
 131040896, -0.002642791, 0.0034539, -2.779802E-05, 0.0002593962
 131140856, -0.002811977, 0.00355084, -4.261219E-05, 0.0002593962
 131240816, -0.002708004, 0.003415843, -4.529094E-05, 0.0002593962
 131340776, -0.002873404, 0.003511155, -5.81318E-05, 0.0002593962
 131440736, -0.00268873, 0.003451375, -9.550087E-05, 0.0002593962
 131540696, -0.00272959, 0.003580957, -9.316531E-05, 0.0002593962
 131640656, -0.002846254, 0.003380285, -2.859879E-06, 0.0002593962
 131740616, -0.002784795, 0.003479532, 3.254542E-05, 0.0002593962
 131840576, -0.002737772, 0.003381489, 0.0001260349, 0.0002593962
 131940536, -0.002599998, 0.003476975, -2.72451E-05, 0.0002593962
 132040496, -0.002764588, 0.003397403, -4.127758E-06, 0.0002593962
 132140456, -0.002619724, 0.003433681, 0.0001266926, 0.0002593962
 132240416, -0.002812754, 0.003433342, -2.794101E-05, 0.0002593962
 132340376, -0.002774533, 0.00341841, -5.339394E-05, 0.0002593962
 132440336, -0.002518422, 0.003342593, -3.342245E-05, 0.0002593962
 132540296, -0.002742583, 0.003550068, 1.996195E-05, 0.0002593962
 132640256, -0.002619917, 0.003468674, 4.295538E-05, 0.0002593962
 132740216, -0.002812789, 0.003453181, 0.0001113446, 0.0002593962
 132840176, -0.002736582, 0.003364956, -0.0001996672, 0.0002593962
 132940969, -0.002819368, 0.003425822, -3.878829E-05, 0.0002615578
 133040929, -0.002906142, 0.003486864, 1.411827E-05, 0.0002593962
 133140889, -0.002740187, 0.003353138, -2.318408E-05, 0.0002593962
 133240849, -0.002887611, 0.003396808, -5.214512E-05, 0.0002593962
 133340809, -0.002627588, 0.003427663, -0.0001043474, 0.0002593962
 133440769, -0.002704024, 0.003550346, 7.059133E-05, 0.0002593962
 133540729, -0.002854052, 0.003394885, 0.0001350149, 0.0002593962
 133640689, -0.002655888, 0.003375345, 9.334643E-05, 0.0002593962
 133740649, -0.002735743, 0.003479623, 6.210703E-05, 0.0002593962
 133840609, -0.002680476, 0.003457222, -8.63302E-05, 0.0002593962
 133940569, -0.002626323, 0.003705869, -2.543385E-05, 0.0002593962
 134040529, -0.002714119, 0.003471183, 1.834135E-05, 0.0002593962
 134140489, -0.002733851, 0.003378073, -1.508109E-05, 0.0002593962
 134240449, -0.002696028, 0.003436727, -3.799825E-05, 0.0002593962
 134340409, -0.002785399, 0.003416021, -2.144909E-06, 0.0002593962
 134440369, -0.002700484, 0.003546006, 0.0001786852, 0.0002593962
 134540329, -0.002812023, 0.003536992, -0.0001355868, 0.0002593962
 134640289, -0.002693581, 0.003402157, 1.010492E-06, 0.0002593962
 134740249, -0.002791283, 0.003476501, -0.0001786566, 0.0002593962
 134840209, -0.00263715, 0.003415847, -5.808413E-05, 0.0002593962
 134940169, -0.002711786, 0.003557068, -1.020023E-05, 0.0002593962
 135040962, -0.00286784, 0.003598374, 7.770133E-06, 0.0002615578
 135140922, -0.002741926, 0.003486982, 0.0001295334, 0.0002593962
 135240882, -0.002774498, 0.003382739, 3.649205E-05, 0.0002593962
 135340842, -0.002866069, 0.003518627, -4.335576E-05, 0.0002593962
 135440802, -0.002833991, 0.00369189, -4.383241E-05, 0.0002593962
 135540762, -0.002630897, 0.003562717, -0.000168933, 0.0002593962
 135640722, -0.002620985, 0.003532348, -1.081987E-05, 0.0002593962
 135740682, -0.002730015, 0.003488482, -0.0001118308, 0.0002593962
 135840642, -0.0028649, 0.003438608, -0.0001016782, 0.0002593962
 135940602, -0.002815167, 0.003602683, 3.224036E-05, 0.0002593962
 136040562, -0.002709682, 0.003383739, -6.81223E-05, 0.0002593962
 136140522, -0.002617901, 0.003427271, 4.853214E-05, 0.0002593962
 136240482, -0.002798732, 0.003511202, -2.212593E-05, 0.0002593962
 136340442, -0.002621526, 0.003404735, -0.0001539854, 0.0002593962
 136440402, -0.002774494, 0.003428276, -3.038144E-05, 0.0002593962
 136540362, -0.002736809, 0.003493711, -9.218342E-06, 0.0002593962
 136640322, -0.002770518, 0.003507403, 6.01528E-06, 0.0002593962
 136740282, -0.002590207, 0.003434473, 8.400417E-05, 0.0002593962
 136840242, -0.002724519, 0.003343196, -9.86658E-06, 0.0002593962
 136940202, -0.002676886, 0.003670253, -4.265985E-05, 0.0002593962
 137040162, -0.002788872, 0.003465187, -0.0001117831, 0.0002593962
 137140955, -0.002774417, 0.003460733, -0.0001177348, 0.0002615578
 137240915, -0.002636401, 0.003465673, -7.654942E-05, 0.0002593962
 137340875, -0.002629141, 0.003472894, -1.879894E-05, 0.0002593962
 137440835, -0.002649593, 0.003542222, -7.567238E-05, 0.0002593962
 137540795, -0.002550512, 0.003434369, -8.292694E-05, 0.0002593962
 137640755, -0.002702947, 0.003465255, 6.166851E-05, 0.0002593962
 137740715, -0.002587083, 0.003498254, -3.390863E-05, 0.0002593962
 137840675, -0.00271733, 0.003539173, -2.595816E-05, 0.0002593962
 137940635, -0.002743039, 0.003510269, 7.045787E-05, 0.0002593962
 138040595, -0.002762547, 0.003475477, -1.696859E-06, 0.0002593962
 138140555, -0.002822286, 0.003406908, 1.131559E-05, 0.0002593962
 138240515, -0.002689669, 0.003493238, 3.707356E-05, 0.0002593962
 138340475, -0.002703411, 0.003416182, 0.0001160634, 0.0002593962
 138440435, -0.002671664, 0.003359082, -7.678774E-05, 0.0002593962
 138540395, -0.002754203, 0.003439098, 4.496683E-05, 0.0002593962
 138640355, -0.002723206, 0.003273207, -0.0001069499, 0.0002593962
 138740315, -0.002590542, 0.003360585, -0.0001049194, 0.0002593962
 138840275, -0.002717185, 0.00350641, -2.698772E-05, 0.0002593962
 138940235, -0.002586523, 0.003503711, 0.0001500292, 0.0002593962
 139040195, -0.002590497, 0.003317872, 5.382291E-05, 0.0002593962
 139140155, -0.002740348, 0.003488095, -0.0001148146, 0.0002593962
 139240948, -0.002731331, 0.003453885, -4.951641E-05, 0.0002615578
 139340908, -0.002745223, 0.00357297, 2.134423E-05, 0.0002593962
 139440868, -0.002674553, 0.003410913, 9.679736E-05, 0.0002593962
 139540828, -0.002726001, 0.003546712, -7.476676E-05, 0.0002593962
 139640788, -0.002765867, 0.003393612, -6.225004E-06, 0.0002593962
 139740748, -0.00279294, 0.003293062, 4.350828E-05, 0.0002593962
 139840708, -0.002833353, 0.003458775, 0.0001725174, 0.0002593962
 139940668, -0.0027445, 0.003491789, -8.56915E-05, 0.0002593962
 140040628, -0.002810202, 0.003506679, 3.706402E-05, 0.0002593962
 140140588, -0.002826839, 0.003522635, 9.334644E-05, 0.0002593962
 140240548, -0.002667402, 0.003511313, -4.948543E-05, 0.0002593962
 140340508, -0.002627403, 0.003638827, 7.92949E-05, 0.0002593962
 140440468, -0.002780595, 0.003611201, -0.0001969026, 0.0002593962
 140540428, 0.01085135, 0.002146258, 3.058163E-05, 0.0002593962
 140640388, 0.0733233, -0.004977674, -0.000190649, 0.0002593962
 140740348, 0.1655136, -0.01467717, 0.0005353693, 0.0002593962
 140840308, 0.2682528, -0.02578036, 0.003954497, 0.0002593962
 140940268, 0.3772753, -0.03758124, 0.006997446, 0.0002593962
 141040228, 0.4830936, -0.05051576, 0.009612252, 0.0002593962
 141140188, 0.5883252, -0.06155809, 0.0119713, 0.0002593962
 141240148, 0.6873264, -0.0716795, 0.01418276, 0.0002593962
 141340941, 0.7883531, -0.08211809, 0.01674252, 0.0002615578
 141440901, 0.8743731, -0.09061538, 0.01872724, 0.0002593962
 141540861, 0.9461049, -0.09578357, 0.02078384, 0.0002593962
 141640821, 0.9603751, -0.1050043, 0.02252684, 0.0002593962
 141740781, 0.9390268, -0.09871823, 0.02326733, 0.0002593962
 141840741, 0.9027577, -0.09458841, 0.02295891, 0.0002593962
 141940701, 0.8593883, -0.08599009, 0.02203544, 0.0002593962
 142040661, 0.8077092, -0.08775295, 0.02088429, 0.0002593962
 142140621, 0.7560312, -0.07830338, -0.005795945, 0.0002593962
 142240581, 0.7046315, -0.07042649, -0.04392589, 0.0002593962
 142340541, 0.6596075, -0.06682499, -0.01735449, 0.0002593962
 142440501, 0.6081169, -0.06419678, 0.02208935, 0.0002593962
 142540461, 0.5670779, -0.0565826, 0.04003094, 0.0002593962
 142640421, 0.8939956, -0.09227107, -0.2918048, 0.0002593962
 142740381, 0.8264384, -0.08265836, -0.8234074, 0.0002593962
 142840341, 0.7159715, -0.08479248, -0.9191682, 0.0002593962
 142940301, 0.6312178, -0.07351182, -0.7182787, 0.0002593962
 143040261, 0.599587, -0.06201686, -0.428305, 0.0002593962
 143140221, 0.5907624, -0.06226679, -0.2003381, 0.0002593962
 143240181, 0.5987827, -0.0729816, -0.008581838, 0.0002593962
 143340974, 0.5913811, -0.07346889, 0.09235925, 0.0002593962
 143440934, 0.5680441, -0.06496762, 0.07579785, 0.0002615578
 143540894, 0.5225385, -0.05262567, -0.0003985232, 0.0002593962
 143640854, 0.4641397, -0.03934986, -0.1426845, 0.0002593962
 143740814, 0.4189628, -0.0512649, -0.2225823, 0.0002593962
 143840774, 0.3754131, -0.04318206, -0.2639201, 0.0002593962
 143940734, 0.3282583, -0.04285119, -0.2951646, 0.0002593962
 144040694, 0.3038558, -0.04603331, -0.2593657, 0.0002593962
 144140654, 0.2889637, -0.04727183, -0.1921758, 0.0002593962
 144240614, 0.2789099, -0.04101484, -0.09867489, 0.0002593962
 144340574, 0.2672654, -0.04530761, -0.04951252, 0.0002593962
 144440534, 0.242727, -0.03472834, -0.06702259, 0.0002593962
 144540494, 0.2324558, -0.02548363, -0.0390004, 0.0002593962
 144640454, 0.2140633, -0.01957213, -0.06384773, 0.0002593962
 144740414, 0.1963744, -0.02902282, -0.08017428, 0.0002593962
 144840374, 0.1786276, -0.02314364, -0.0551552, 0.0002593962
 144940334, 0.1659266, -0.02675607, -0.05435577, 0.0002593962
 145040294, 0.1519577, -0.02085769, -0.05422926, 0.0002593962
 145140254, 0.120639, -0.02127713, -0.09029384, 0.0002593962
 145240214, 0.08983132, -0.009763769, -0.1442023, 0.0002593962
 145340174, 0.05042193, -0.0166811, -0.2639301, 0.0002593962
 145440967, 0.04556102, 0.003168496, -0.25681, 0.0002615578
 145540927, 0.03691433, 0.003930185, -0.2093951, 0.0002593962
 145640887, 0.0536917, -0.005110364, -0.1186027, 0.0002593962
 145740847, 0.06339207, -0.004678412, -0.04957212, 0.0002593962
 145840807, 0.07307366, -0.009960365, 0.002992587, 0.0002593962
 145940767, 0.06280079, -0.001331023, 0.02251908, 0.0002593962
 146040727, 0.07240859, -0.0005905904, 0.02702166, 0.0002593962
 146140687, 0.06151216, -0.009786649, 0.01162574, 0.0002593962
 146240647, 0.05119313, -0.01509519, 0.01336386, 0.0002593962
 146340607, 0.05519918, -0.01466344, 0.02148409, 0.0002593962
 146440567, 0.0518471, -0.008324167, 0.01324174, 0.0002593962
 146540527, 0.05197166, -0.004168153, 0.02245519, 0.0002593962
 146640487, 0.04473642, -0.01662106, 0.02709604, 0.0002593962
 146740447, 0.0449708, -0.008191235, 0.04335183, 0.0002593962
 146840407, 0.0502055, -5.072565E-06, 0.05172696, 0.0002593962
 146940367, 0.04828784, 0.004750071, 0.02976328, 0.0002593962
 147040327, 0.02934147, -0.01597253, -0.01426128, 0.0002593962
 147140287, 0.02680858, -0.01982753, -0.01829429, 0.0002593962
 147240247, 0.04145259, -0.01153664, 0.03166286, 0.0002593962
 147340207, 0.04086037, -0.01112273, 0.05779366, 0.0002593962
 147440167, 0.03775716, -0.008772215, 0.04522417, 0.0002593962
 147540960, 0.0379247, -0.007431898, 0.04214469, 0.0002615578
 147640920, 0.02612418, -0.008491294, 0.01968377, 0.0002593962
 147740880, 0.03456901, -0.004409538, 0.04715074, 0.0002593962
 147840840, 0.02893539, -0.001931969, 0.02632435, 0.0002593962
 147940800, 0.03305138, -0.002371021, 0.03538205, 0.0002593962
 148040760, 0.04028805, -0.003709803, 0.06155187, 0.0002593962
 148140720, 0.04010373, 0.004060741, 0.07149167, 0.0002593962
 148240680, 0.03820663, 0.004567693, 0.06667496, 0.0002593962
 148340640, 0.03688215, -0.003835964, 0.04567883, 0.0002593962
 148440600, 0.02519544, 0.006029352, -0.00653589, 0.0002593962
 148540560, 0.01609273, -0.00155248, -0.009053517, 0.0002593962
 148640520, 0.01010239, -0.004401311, -0.0166, 0.0002593962
 148740480, 0.007969848, -0.001846686, -0.03848663, 0.0002593962
 148840440, -7.513078E-05, 0.006979899, -0.06080206, 0.0002593962
 148940400, 0.007970552, 0.001361948, 0.002886294, 0.0002593962
 149040360, 0.01630174, 0.001588943, 0.02735152, 0.0002593962
 149140320, 0.01663271, 0.0001984225, 0.02296925, 0.0002593962
 149240280, 0.02526555, -0.009171071, 0.05300901, 0.0002593962
 149340240, 0.02504527, -0.005188438, 0.04921258, 0.0002593962
 149440200, 0.004418215, 0.008988311, -0.03507825, 0.0002593962
 149540160, 0.004358048, 0.008007775, -0.01002358, 0.0002593962
 149640953, 0.005721791, 0.006452226, -0.00711849, 0.0002615578
 149740913, 0.01654827, -0.003083364, 0.0229981, 0.0002593962
 149840873, 0.009096663, -0.005709942, 0.0004624996, 0.0002593962
 149940833, 0.006642814, -0.006569556, 0.03720282, 0.0002593962
 150040793, 0.04601813, -0.02868455, 0.3085442, 0.0002593962
 150140753, 0.10002, -0.002967042, 0.6649647, 0.0002593962
 150240713, 0.09828535, 0.08093593, 0.7734388, 0.0002593962
 150340673, 0.03040617, 0.1427488, 0.7426046, 0.0002593962
 150440633, -0.07292926, 0.1918443, 0.510565, 0.0002593962
 150540593, -0.1903594, 0.2688015, 0.1700493, 0.0002593962
 150640553, -0.2935748, 0.3234735, -0.0689605, 0.0002593962
 150740513, -0.3315219, 0.3079017, -0.1617077, 0.0002593962
 150840473, -0.3024542, 0.2338959, -0.1042232, 0.0002593962
 150940433, -0.2533486, 0.149764, 0.01970827, 0.0002593962
 151040393, -0.197608, 0.07236879, 0.1746424, 0.0002593962
 151140353, -0.1532634, 0.03103825, 0.295486, 0.0002593962
 151240313, -0.1215196, 0.02512146, 0.3647721, 0.0002593962
 151340273, -0.09853245, 0.03103503, 0.3941126, 0.0002593962
 151440233, -0.09024979, 0.04325626, 0.3631952, 0.0002593962
 151540193, -0.08633476, 0.05427623, 0.3135031, 0.0002593962
 151640153, -0.07400629, 0.06666245, 0.2418757, 0.0002593962
 151740946, -0.06510468, 0.07525682, 0.1836194, 0.0002615578
 151840906, -0.05470099, 0.08639184, 0.1584833, 0.0002593962
 151940866, -0.04904712, 0.09987333, 0.09472768, 0.0002593962
 152040826, -0.03747094, 0.1058114, 0.06342226, 0.0002593962
 152140786, -0.03058297, 0.1050032, 0.04298168, 0.0002593962
 152240746, -0.02296273, 0.09296413, 0.03173764, 0.0002593962
 152340706, -0.02460886, 0.07529289, 0.05426474, 0.0002593962
 152440666, -0.02278163, 0.06388719, 0.08678685, 0.0002593962
 152540626, -0.01743298, 0.05568701, 0.1296699, 0.0002593962
 152640586, -0.01435764, 0.0549858, 0.1320974, 0.0002593962
 152740546, -0.01544999, 0.05677912, 0.09627232, 0.0002593962
 152840506, -0.01310607, 0.06254452, 0.04166639, 0.0002593962
 152940466, -0.009665223, 0.06319384, 0.02546591, 0.0002593962
 153040426, -0.004214174, 0.06162594, 0.015581, 0.0002593962
 153140386, -0.001121669, 0.05949651, -0.00919451, 0.0002593962
 153240346, -0.003083297, 0.06790506, 0.006809123, 0.0002593962
 153340306, -0.0001231279, 0.07125296, 0.02920821, 0.0002593962
 153440266, 0.002368246, 0.06436846, 0.03630259, 0.0002593962
 153540226, 0.000273673, 0.06358943, 0.04917883, 0.0002593962
 153640186, 0.001143404, 0.06064536, 0.04798376, 0.0002593962
 153740146, 0.004583434, 0.0580118, 0.03239524, 0.0002593962
 153840939, 0.006300166, 0.0493684, 0.0258011, 0.0002615578
 153940899, 0.01114438, 0.03490929, 0.04106043, 0.0002593962
 154040859, 0.01262535, 0.03877337, 0.02653076, 0.0002593962
 154140819, 0.01374, 0.03777695, -0.009414091, 0.0002593962
 154240779, 0.01495233, 0.0369583, 0.003777995, 0.0002593962
 154340739, 0.01292728, 0.03669927, -0.01287145, 0.0002593962
 154440699, 0.01216301, 0.0316035, -0.06489341, 0.0002593962
 154540659, 0.01495016, 0.03490747, -0.06806947, 0.0002593962
 154640619, 0.01098228, 0.04054199, -0.0381205, 0.0002593962
 154740579, 0.01128072, 0.03687233, 0.000369334, 0.0002593962
 154840539, 0.0114416, 0.03097882, 0.02634721, 0.0002593962
 154940499, 0.01690557, 0.03387025, 0.03095719, 0.0002593962
 155040459, 0.02293771, 0.03267623, 0.02028607, 0.0002593962
 155140419, 0.0216148, 0.02747686, 0.006142991, 0.0002593962
 155240379, 0.01993098, 0.02579402, 0.00785763, 0.0002593962
 155340339, 0.01731691, 0.02790611, 0.01627486, 0.0002593962
 155440299, 0.01518166, 0.02229023, -0.0173363, 0.0002593962
 155540259, 0.02156293, 0.0243339, -0.0001231081, 0.0002593962
 155640219, 0.02473517, 0.02992203, -0.005157648, 0.0002593962
 155740179, 0.02456644, 0.0228632, 0.001523171, 0.0002593962
 155840972, 0.01841569, 0.02270286, -0.02240432, 0.0002593962
 155940932, 0.02384869, 0.02272786, -0.009245608, 0.0002615578
 156040892, 0.02277719, 0.02999615, -0.02291615, 0.0002593962
 156140852, 0.0283789, 0.0256891, -0.04564374, 0.0002593962
 156240812, 0.02504026, 0.02316256, -0.004379208, 0.0002593962
 156340772, 0.02232954, 0.01894565, 0.006639999, 0.0002593962
 156440732, 0.02171555, 0.02442086, 0.000512919, 0.0002593962
 156540692, 0.02528881, 0.0223529, 0.02252454, 0.0002593962
 156640652, 0.02978402, 0.0221424, -0.02155253, 0.0002593962
 156740612, 0.0244667, 0.01558934, -0.07106544, 0.0002593962
 156840572, 0.02468009, 0.01693167, -0.07301923, 0.0002593962
 156940532, 0.01848688, 0.01627979, -0.07675244, 0.0002593962
 157040492, 0.01457749, 0.01442148, -0.05737728, 0.0002593962
 157140452, 0.01094147, 0.01678468, -0.01452111, 0.0002593962
 157240412, 0.01287811, 0.01763614, 0.02441691, 0.0002593962
 157340372, 0.01762378, 0.02221978, 0.01265771, 0.0002593962
 157440332, 0.01909137, 0.02648161, -0.009705465, 0.0002593962
 157540292, 0.01675315, 0.02400501, 0.0004085432, 0.0002593962
 157640252, 0.01533689, 0.02175694, -0.007806973, 0.0002593962
 157740212, 0.02315288, 0.01815394, -0.002545664, 0.0002593962
 157840172, 0.02184383, 0.01218292, 0.02753295, 0.0002593962
 157940965, 0.02265579, 0.008887146, 0.01664023, 0.0002615578
 158040925, 0.02493402, 0.01407173, 0.01153003, 0.0002593962
 158140885, 0.0265408, 0.01249428, -0.02120857, 0.0002593962
 158240845, 0.02539427, 0.007139864, -0.0276233, 0.0002593962
 158340805, 0.02627081, 0.009619763, -0.02335178, 0.0002593962
 158440765, 0.02390629, 0.01447801, -0.05995633, 0.0002593962
 158540725, 0.0178095, 0.01301265, -0.07023246, 0.0002593962
 158640685, 0.01926006, 0.005919698, -0.03323287, 0.0002593962
 158740645, 0.02232851, 0.001462942, -0.02776101, 0.0002593962
 158840605, 0.01636245, -0.008279554, -0.03131775, 0.0002593962
 158940565, 0.01273794, -0.0009386297, -0.01331128, 0.0002593962
 159040525, 0.01661438, 0.001173533, -0.02316616, 0.0002593962
 159140485, 0.01236732, 0.00240381, -0.02962151, 0.0002593962
 159240445, 0.009478207, 0.006478885, -0.05956913, 0.0002593962
 159340405, 0.008495836, 0.004678741, -0.0563962, 0.0002593962
 159440365, 0.01305875, -0.0040611, -0.04105351, 0.0002593962
 159540325, 0.01325753, -0.006483539, -0.01241898, 0.0002593962
 159640285, 0.01212772, 0.001753536, 0.044895, 0.0002593962
 159740245, 0.01725001, 0.003993988, 0.03661581, 0.0002593962
 159840205, 0.01166162, 0.002146078, 0.01019326, 0.0002593962
 159940165, 0.01481856, 0.003436045, 0.01353476, 0.0002593962
 160040958, 0.01127994, 0.0106947, -0.04072137, 0.0002615578
 160140918, 0.01233595, 0.00700032, -0.02346012, 0.0002593962
 160240878, 0.01154697, 0.005492023, -0.02793511, 0.0002593962
 160340838, 0.01028962, 0.01043328, -0.03403526, 0.0002593962
 160440798, 0.01320453, 0.0153406, 0.01130111, 0.0002593962
 160540758, 0.01543947, 0.01062282, 0.001795603, 0.0002593962
 160640718, 0.01433717, 0.002679502, -0.02736999, 0.0002593962
 160740678, 0.01079894, 0.003671844, -0.05703866, 0.0002593962
 160840638, 0.008151821, 0.01016934, -0.03281403, 0.0002593962
 160940598, 0.003627368, 0.01446097, -0.007230374, 0.0002593962
 161040558, 0.007482099, 0.01379745, 0.01697958, 0.0002593962
 161140518, 0.007333703, 0.01351642, 0.03859647, 0.0002593962
 161240478, 0.009654192, 0.009239314, 0.0223732, 0.0002593962
 161340438, 0.01075007, 0.01354725, 0.0006548748, 0.0002593962
 161440398, 0.01614588, 0.006491244, -0.01191574, 0.0002593962
 161540358, 0.01754064, 0.005308991, 0.02239586, 0.0002593962
 161640318, 0.01304195, 0.01515962, 0.003118163, 0.0002593962
 161740278, 0.01168879, 0.005107094, -0.0177466, 0.0002593962
 161840238, 0.0166984, -0.006946757, -0.0331547, 0.0002593962
 161940198, 0.01341757, -0.009986349, -0.05209701, 0.0002593962
 162040158, 0.01266915, -0.004873608, -0.01304628, 0.0002593962
 162140951, 0.01062217, 0.001674319, 0.003632871, 0.0002615578
 162240911, 0.01344436, 0.007961619, 0.03526735, 0.0002593962
 162340871, 0.01609635, 0.006000382, 0.002765093, 0.0002593962
 162440831, 0.01422446, -0.007557499, -0.01159397, 0.0002593962
 162540791, 0.01577047, -0.01073916, -0.02835011, 0.0002593962
 162640751, 0.01174447, 0.007670345, -0.0122304, 0.0002593962
 162740711, 0.005521856, 0.001375002, -0.01422378, 0.0002593962
 162840671, 0.009278707, 0.005703873, -0.01274476, 0.0002593962
 162940631, 0.009924184, 0.006332268, -0.01937861, 0.0002593962
 163040591, 0.005046553, -0.003125028, -0.01459898, 0.0002593962
 163140551, 0.0071423, 0.003613152, 0.005458841, 0.0002593962
 163240511, 0.007456851, 0.008085432, 0.008069986, 0.0002593962
 163340471, 0.001944023, 0.01164139, 0.04051533, 0.0002593962
 163440431, 0.005747293, 0.01583234, 0.01194761, 0.0002593962
 163540391, 0.004665972, 0.01433939, -0.002166873, 0.0002593962
 163640351, 0.0119231, 0.007488237, -0.0270376, 0.0002593962
 163740311, 0.01666402, 0.01275085, -0.01316504, 0.0002593962
 163840271, 0.01014141, 0.01681405, -0.03628556, 0.0002593962
 163940231, 0.009005328, 0.02374613, -0.01873302, 0.0002593962
 164040191, 0.002624745, 0.03171754, -0.008642897, 0.0002593962
 164140151, 0.009160411, 0.02516249, 0.0182065, 0.0002593962
 164240944, 0.007488427, 0.01075476, 0.03199131, 0.0002615578
 164340904, 0.006292948, 0.0008667138, -0.01069397, 0.0002593962
 164440864, 0.005952609, 0.002620798, -0.03160533, 0.0002593962
 164540824, 0.002273156, 0.009623859, -0.02643876, 0.0002593962
 164640784, 0.002256901, 0.0168808, -0.01593453, 0.0002593962
 164740744, 0.001454134, 0.01389905, -0.0380593, 0.0002593962
 164840704, 0.003596712, 0.009154826, -0.02386025, 0.0002593962
 164940664, 0.009128585, 0.006098816, -0.01378096, 0.0002593962
 165040624, 0.01215577, 0.003810176, 0.006977579, 0.0002593962
 165140584, 0.01114311, -0.01060423, 0.03268032, 0.0002593962
 165240544, 0.009118603, -0.005819749, 0.03689982, 0.0002593962
 165340504, 0.01135562, 0.001957374, 0.04232432, 0.0002593962
 165440464, 0.01110293, 0.005850697, 0.01333518, 0.0002593962
 165540424, 0.009515703, 0.006420564, -0.03030109, 0.0002593962
 165640384, 0.00307402, 0.01637282, -0.02519972, 0.0002593962
 165740344, 0.00918754, 0.01399101, -0.05217046, 0.0002593962
 165840304, 0.004769418, 0.008465957, -0.05850235, 0.0002593962
 165940264, 0.0007728105, 0.005337724, -0.0535733, 0.0002593962
 166040224, 0.0008465199, 0.001668811, 0.002525521, 0.0002593962
 166140184, -0.001270856, 0.006786298, -0.006867283, 0.0002593962
 166240977, 0.001851626, 0.00145462, 0.02174349, 0.0002593962
 166340937, 6.633287E-05, 0.01295375, 0.03262398, 0.0002615578
 166440897, -5.754613E-06, 0.01195156, 0.04775123, 0.0002593962
 166540857, 0.0008289985, 0.007636975, 0.06672163, 0.0002593962
 166640817, 0.004693899, 0.0001093721, 0.0247981, 0.0002593962
 166740777, 0.009281933, 0.002337023, -0.02574614, 0.0002593962
 166840737, 0.01392644, -0.001498482, -0.01519846, 0.0002593962
 166940697, 0.01410512, 0.001175868, -0.06591436, 0.0002593962
 167040657, 0.006851287, 0.005106361, -0.07482655, 0.0002593962
 167140617, 0.00250567, -0.000736401, 0.01215181, 0.0002593962
 167240577, -0.004217005, -0.001008118, -0.01933785, 0.0002593962
 167340537, 0.001526414, -0.008242178, -0.01820441, 0.0002593962
 167440497, 0.002795831, 0.0003761161, 0.003320252, 0.0002593962
 167540457, 0.003018068, -0.001671825, 0.0008222053, 0.0002593962
 167640417, -0.003170898, 0.00291504, 0.00398443, 0.0002593962
 167740377, -0.006191746, 0.003383382, 0.01295915, 0.0002593962
 167840337, -0.006884179, 0.002279269, -0.001280072, 0.0002593962
 167940297, -0.00190662, 0.004963612, -0.009181135, 0.0002593962
 168040257, 0.00228844, 0.005212297, -0.002793053, 0.0002593962
 168140217, 0.002051418, 0.0002458651, 0.0122587, 0.0002593962
 168240177, 0.005789809, 0.007268736, -0.03346332, 0.0002593962
 168340970, -0.004414503, 0.01220544, 0.02370779, 0.0002593962
 168440930, -0.005166514, 0.0110283, 0.01148389, 0.0002615578
 168540890, -0.009186863, 0.007702922, -0.01457614, 0.0002593962
 168640850, -0.006886146, 0.004808964, 0.00395323, 0.0002593962
 168740810, 0.002337526, 0.0141903, 0.03910557, 0.0002593962
 168840770, 0.006372049, 0.009861334, 0.002155663, 0.0002593962
 168940730, 0.00634554, 0.007692392, 0.02065724, 0.0002593962
 169040690, 0.00922786, 0.009074808, 0.04486932, 0.0002593962
 169140650, 0.001228833, 0.01446576, 0.009387046, 0.0002593962
 169240610, -0.001320136, 0.02044071, -0.03660267, 0.0002593962
 169340570, -0.00498791, 0.01599229, -0.0447415, 0.0002593962
 169440530, -0.005586838, 0.01845131, -0.02997226, 0.0002593962
 169540490, -0.00121207, 0.01807979, -0.01975151, 0.0002593962
