TimeUS,CAN,CAE,CAD,CAe,NAN,NAE,NAD,NAe,m10,m00,Gye
 77960470, -0.0003255831, 0.0003753083, 3.889435E-06, 5.187924E-05, 0, 0, 0, 0, -0.1082839, 0.9941186, 0.8486931
 78020446, -1.147738, 1.444957, 0.01323194, 0.2024631, -1.139084, 1.58467, -0.007252736, 0.2024112, -0.1082805, 0.994119, 1.698692
 78220366, -1.145706, 1.59316, -0.007325138, 0.2029819, -0.002789378, 0.004183454, 5.309841E-05, 0.0005187924, -0.1082729, 0.9941198, 8.515225
 78420286, -0.009482928, 0.01270814, 5.49192E-05, 0.001089464, -0.002990538, 0.003768831, -0.0003088669, 0.0005187924, -0.1082648, 0.9941207, 0.04570375
 78620206, -0.009477217, 0.0124165, -0.0003461501, 0.001089464, -0.002891338, 0.003875311, 0.0001824603, 0.0005187924, -0.1082572, 0.9941216, 0.04570375
 78820959, -0.009728263, 0.01244945, 0.0001731553, 0.001091626, -0.003102729, 0.003621337, -0.0003001983, 0.000520954, -0.1082502, 0.9941223, 0.04579443
 79020879, -0.009820617, 0.01230985, -0.0004172722, 0.001091626, -0.002754658, 0.003881896, 8.531971E-05, 0.0005187924, -0.1082554, 0.9941217, 0.04579443
 79220799, -0.009581432, 0.01266083, 7.04674E-05, 0.001089464, -0.003333094, 0.004002528, 6.215469E-05, 0.0005187924, -0.1082589, 0.9941214, 0.04570375
 79420719, -0.01001631, 0.01253253, 7.054359E-07, 0.001089464, -0.003270603, 0.003734238, -6.12014E-05, 0.0005187924, -0.1082621, 0.994121, 0.04570375
 79620639, -0.01009339, 0.01235426, -6.633966E-05, 0.001089464, -0.00287406, 0.003798786, 0.0001527175, 0.0005187924, -0.1082631, 0.9941209, 0.04570375
 79820559, -0.009718964, 0.0124322, 0.0001697815, 0.001089464, -0.003308455, 0.004211974, 0.0001764545, 0.0005187924, -0.1082629, 0.994121, 0.04570375
 80020479, -0.01007065, 0.01267693, 0.0001694478, 0.001089464, -0.002985676, 0.003951389, 0.0005195446, 0.0005187924, -0.1082609, 0.9941212, 0.04570375
 80220399, -0.009741509, 0.01251112, 0.0006737589, 0.001089464, -0.002703764, 0.003979905, -0.0002943768, 0.0005187924, -0.10826, 0.9941214, 0.04570375
 80420319, -0.009213682, 0.01248587, -0.0003126324, 0.001089464, -0.002888805, 0.003778297, 4.013363E-05, 0.0005187924, -0.1082576, 0.9941216, 0.04570375
 80620239, -0.00954406, 0.01219326, 1.443286E-05, 0.001089464, -0.003006246, 0.003974417, 0.0001307918, 0.0005187924, -0.1082547, 0.9941218, 0.04570375
 80820159, -0.009522676, 0.01245646, 0.0001131082, 0.001089464, -0.002824264, 0.003772868, 1.65873E-05, 0.0005187924, -0.1082501, 0.9941224, 0.04570375
 81020912, -0.009520695, 0.01246825, -0.0001603999, 0.001091626, -0.003183892, 0.004028191, 0.0002015043, 0.000520954, -0.1082449, 0.994123, 0.04579443
 81220832, -0.009829882, 0.01276264, 0.0001781009, 0.001091626, -0.002952246, 0.003491902, 3.851303E-05, 0.0005187924, -0.1082398, 0.9941235, 0.04579443
 81420752, -0.009512146, 0.0119798, -0.0001030224, 0.001089464, -0.002943642, 0.003930899, 2.030514E-05, 0.0005187924, -0.1082348, 0.994124, 0.04570375
 81620672, -0.00959704, 0.01239379, 1.018117E-05, 0.001089464, -0.002966498, 0.004096661, 0.0001248814, 0.0005187924, -0.1082278, 0.9941247, 0.04570375
 81820592, -0.009630328, 0.01262854, 8.009567E-05, 0.001089464, -0.00293108, 0.003538337, -8.217384E-05, 0.0005187924, -0.1082215, 0.9941255, 0.04570375
 82020512, -0.009669005, 0.01174659, -0.0001459873, 0.001089464, -0.003052963, 0.00397653, -1.17255E-05, 0.0005187924, -0.1082141, 0.9941263, 0.04570375
 82220432, -0.009993451, 0.01232824, -0.0001378366, 0.001089464, -0.003087498, 0.004031227, -9.96191E-05, 0.0005187924, -0.1082061, 0.9941272, 0.04570375
 82420352, -0.009848863, 0.01237644, -5.622521E-05, 0.001089464, -0.003162069, 0.003905514, -0.0002209733, 0.0005187924, -0.1081994, 0.9941278, 0.04570375
 82620272, -0.009796257, 0.01259325, -0.0002855207, 0.001089464, -0.00317579, 0.003976569, -0.0001682562, 0.0005187924, -0.1081922, 0.9941286, 0.04570375
 82820192, -0.01003853, 0.01248892, -0.0001923745, 0.001089464, -0.003172979, 0.003739325, -0.0002136329, 0.0005187924, -0.1081858, 0.9941294, 0.04570375
 83020945, -0.01003321, 0.012478, -0.0001297376, 0.001091626, -0.003099607, 0.004130495, 0.0003274803, 0.000520954, -0.1081794, 0.99413, 0.04579443
 83220865, -0.009841795, 0.01286598, 0.0005546309, 0.001091626, -0.003069921, 0.003999318, 0.0003028612, 0.0005187924, -0.1081727, 0.9941307, 0.04579443
 83420785, -0.009952923, 0.0126164, 0.0003617651, 0.001089464, -0.003015765, 0.003780668, 9.34227E-05, 0.0005187924, -0.1081662, 0.9941315, 0.04570375
 83620705, -0.009495704, 0.01206663, 0.0001495621, 0.001089464, -0.003129773, 0.003806097, -0.0001322217, 0.0005187924, -0.108159, 0.9941322, 0.04570375
 83820625, -0.009777697, 0.01219006, -1.954249E-05, 0.001089464, -0.002901639, 0.003767053, 0.0002363213, 0.0005187924, -0.1081523, 0.994133, 0.04570375
 84020545, -0.009732068, 0.01225488, 0.0002522127, 0.001089464, -0.003050244, 0.004022525, -0.0001537661, 0.0005187924, -0.1081454, 0.9941337, 0.04570375
 84220465, -0.009909227, 0.01263963, -4.557694E-05, 0.001089464, -0.002763212, 0.003834826, -0.0003454733, 0.0005187924, -0.1081537, 0.9941328, 0.04570375
 84420385, -0.009512076, 0.01246564, -0.0002706684, 0.001089464, -0.003217577, 0.00417884, 1.601532E-05, 0.0005187924, -0.1081604, 0.994132, 0.04570375
 84620305, -0.009971751, 0.01275036, -0.0001955394, 0.001089464, -0.002950652, 0.003987418, -6.377529E-05, 0.0005187924, -0.1081652, 0.9941315, 0.04570375
 84820225, -0.00984472, 0.01262335, -0.0002395339, 0.001089464, -0.002912443, 0.003770603, -0.0002868458, 0.0005187924, -0.1081686, 0.9941311, 0.04570375
 85020145, -0.009809204, 0.01227909, -0.0004493537, 0.001089464, -0.002812076, 0.004144771, 4.366081E-05, 0.0005187924, -0.1081704, 0.994131, 0.04570375
 85220898, -0.009696007, 0.01269334, -0.0001003631, 0.001091626, -0.003195855, 0.00365944, 0.0002944547, 0.000520954, -0.1081716, 0.9941308, 0.04579443
 85420818, -0.01007372, 0.01208744, 0.0003363518, 0.001091626, -0.003077516, 0.003978216, -0.0001994289, 0.0005187924, -0.1081707, 0.994131, 0.04579443
 85620738, -0.00970771, 0.01259529, -0.0003238336, 0.001089464, -0.003139259, 0.003732293, 0.0001167784, 0.0005187924, -0.1081697, 0.9941311, 0.04570375
 85820658, -0.009911395, 0.01210074, 0.0003840817, 0.001089464, -0.003023578, 0.003862387, -7.826534E-05, 0.0005187924, -0.1081674, 0.9941314, 0.04570375
 86020578, -0.009687924, 0.01251549, 3.859882E-05, 0.001089464, -0.003294465, 0.003968514, 0.0001853201, 0.0005187924, -0.1081653, 0.9941316, 0.04570375
 86220498, -0.01000166, 0.01246667, 0.0001176173, 0.001089464, -0.003298552, 0.003816355, -3.088669E-05, 0.0005187924, -0.108162, 0.994132, 0.04570375
 86420418, -0.01014138, 0.01205818, -0.0002614215, 0.001089464, -0.00313743, 0.003648593, -6.577721E-06, 0.0005187924, -0.1081583, 0.9941323, 0.04570375
 86620338, -0.01007965, 0.01209391, -3.466172E-05, 0.001089464, -0.002988673, 0.003813224, -4.461411E-05, 0.0005187924, -0.108154, 0.9941328, 0.04570375
 86820258, -0.009841643, 0.01214849, -0.0002911928, 0.001089464, -0.002840043, 0.004091873, 3.145866E-06, 0.0005187924, -0.1081492, 0.9941334, 0.04570375
 87020178, -0.009336821, 0.01252202, -0.0002330896, 0.001089464, -0.002969188, 0.003993137, -9.914245E-06, 0.0005187924, -0.1081437, 0.9941339, 0.04570375
 87220931, -0.009805944, 0.01253071, -4.644402E-05, 0.001091626, -0.002838613, 0.00425303, 0.0003359043, 0.000520954, -0.108139, 0.9941344, 0.04579443
 87420851, -0.009493698, 0.01292693, 0.0003525869, 0.001091626, -0.003042284, 0.00386494, -5.510032E-05, 0.0005187924, -0.1081329, 0.9941352, 0.04579443
 87620771, -0.009677141, 0.01262095, -9.679736E-05, 0.001089464, -0.003029584, 0.003787913, -0.0001330797, 0.0005187924, -0.1081276, 0.9941357, 0.04570375
 87820691, -0.009614995, 0.01234144, -0.0003099441, 0.001089464, -0.00272178, 0.003923729, 5.796021E-05, 0.0005187924, -0.1081209, 0.9941364, 0.04570375
 88020611, -0.009390324, 0.01209556, 0.0002452632, 0.001089464, -0.002999055, 0.003516356, -0.0001609158, 0.0005187924, -0.1081147, 0.9941371, 0.04570375
 88220531, -0.009738562, 0.01193071, -0.0001603725, 0.001089464, -0.002870896, 0.003443366, -8.10299E-05, 0.0005187924, -0.1081076, 0.9941379, 0.04570375
 88420451, -0.009801427, 0.01192689, -0.0002068073, 0.001089464, -0.003357373, 0.003951188, -0.0001473791, 0.0005187924, -0.1081008, 0.9941386, 0.04570375
 88620371, -0.01033006, 0.01256768, -0.0002471888, 0.001089464, -0.003210438, 0.003994597, -0.0001284085, 0.0005187924, -0.1080946, 0.9941392, 0.04570375
 88820291, -0.01013655, 0.01259758, -0.0001413829, 0.001089464, -0.003249257, 0.004102421, -0.0002940909, 0.0005187924, -0.108089, 0.9941398, 0.04570375
 89020211, -0.01025512, 0.0127828, -0.0002203537, 0.001089464, -0.003118453, 0.00384791, -0.0001836995, 0.0005187924, -0.1080829, 0.9941405, 0.04570375
 89220964, -0.009825543, 0.01246804, -0.000437302, 0.001091626, -0.00288217, 0.00393667, -3.656752E-05, 0.000520954, -0.1080793, 0.9941409, 0.04579443
 89420884, -0.009763028, 0.0127565, -6.046658E-05, 0.001091626, -0.002973507, 0.003607544, -0.0002209733, 0.0005187924, -0.1080879, 0.9941399, 0.04579443
 89620804, -0.009611059, 0.0120874, -0.000140992, 0.001089464, -0.002966491, 0.004105924, -7.340355E-05, 0.0005187924, -0.1080952, 0.9941392, 0.04570375
 89820724, -0.009772469, 0.01261302, -0.0002272555, 0.001089464, -0.002907445, 0.003961421, 3.508118E-05, 0.0005187924, -0.1081017, 0.9941385, 0.04570375
 90020644, -0.009461301, 0.01247643, -3.144913E-05, 0.001089464, -0.002966756, 0.00388306, -0.0001376555, 0.0005187924, -0.1081053, 0.9941381, 0.04570375
 90220564, -0.009631325, 0.01233859, -0.0001950532, 0.001089464, -0.003109416, 0.003831399, -0.0003261215, 0.0005187924, -0.1081074, 0.9941379, 0.04570375
 90420484, -0.009871749, 0.01236693, -0.0003778758, 0.001089464, -0.002769464, 0.003873769, -7.959995E-05, 0.0005187924, -0.1081088, 0.9941377, 0.04570375
 90620404, -0.009269476, 0.0124284, -4.354643E-05, 0.001089464, -0.003167781, 0.004036685, -0.0002673033, 0.0005187924, -0.108108, 0.9941378, 0.04570375
 90820324, -0.009743124, 0.01254077, -0.0003190672, 0.001089464, -0.002999598, 0.003639177, -0.0001989522, 0.0005187924, -0.1081071, 0.9941379, 0.04570375
 91020244, -0.009467808, 0.01216527, -0.0001274171, 0.001089464, -0.00298674, 0.003925147, 2.964741E-05, 0.0005187924, -0.1081056, 0.9941381, 0.04570375
 91220164, -0.009589224, 0.01254005, 0.0001141092, 0.001089464, -0.002953383, 0.004014285, 6.377529E-05, 0.0005187924, -0.108103, 0.9941384, 0.04570375
 91420917, -0.009576576, 0.01275429, 0.0001097633, 0.001091626, -0.00307214, 0.003995201, 0.000215576, 0.000520954, -0.108101, 0.9941385, 0.04579443
 91620837, -0.009929283, 0.01250058, -5.805713E-05, 0.001091626, -0.00302443, 0.003703285, 0.0004117272, 0.0005187924, -0.1080972, 0.994139, 0.04579443
 91820757, -0.009771744, 0.01205895, 1.420405E-05, 0.001089464, -0.002750679, 0.003894981, -0.0001329844, 0.0005187924, -0.108094, 0.9941394, 0.04570375
 92020677, -0.00939231, 0.01236111, -3.417555E-05, 0.001089464, -0.003111651, 0.003979502, 7.416619E-05, 0.0005187924, -0.1080897, 0.9941399, 0.04570375
 92220597, -0.009950325, 0.01240533, 0.000159953, 0.001089464, -0.002675436, 0.00401892, 0.0001339376, 0.0005187924, -0.1080841, 0.9941404, 0.04570375
 92420517, -0.009339131, 0.01233756, 0.0002060352, 0.001089464, -0.002825442, 0.003685508, -2.097244E-05, 0.0005187924, -0.1080789, 0.9941409, 0.04570375
 92620437, -0.009433683, 0.01210115, 0.0001937949, 0.001089464, -0.003042903, 0.003906192, 0.000376074, 0.0005187924, -0.1080736, 0.9941415, 0.04570375
 92820357, -0.009777652, 0.01235228, 0.0003609643, 0.001089464, -0.002991, 0.003563581, 0.0002535759, 0.0005187924, -0.1080682, 0.9941421, 0.04570375
 93020277, -0.009573, 0.01201761, 0.0003331949, 0.001089464, -0.002738697, 0.004103022, -0.0004105832, 0.0005187924, -0.1080613, 0.9941429, 0.04570375
 93220197, -0.009427858, 0.01272178, -0.0005853122, 0.001089464, -0.002837798, 0.003596212, -0.0002285043, 0.0005187924, -0.108056, 0.9941435, 0.04570375
 93420950, -0.00958792, 0.01190353, -0.0002636808, 0.001091626, -0.003156204, 0.004055073, -0.0004303863, 0.000520954, -0.1080517, 0.9941439, 0.04579443
 93620870, -0.009961297, 0.01257907, -0.0004795571, 0.001091626, -0.003088502, 0.003994079, 7.416619E-05, 0.0005187924, -0.1080468, 0.9941444, 0.04579443
 93820790, -0.009750686, 0.01253773, -0.0002175414, 0.001089464, -0.003418316, 0.003881938, 0.0001246907, 0.0005187924, -0.1080412, 0.9941451, 0.04570375
 94020710, -0.01024936, 0.01248786, 0.0003064265, 0.001089464, -0.003411643, 0.003816908, -4.680668E-05, 0.0005187924, -0.1080355, 0.9941457, 0.04570375
 94220630, -0.01000816, 0.01238042, -0.0001300291, 0.001089464, -0.002994091, 0.003789763, -0.0001500483, 0.0005187924, -0.1080292, 0.9941463, 0.04570375
 94420550, -0.009663866, 0.01234748, -0.0002217264, 0.001089464, -0.002774372, 0.004091423, -4.737865E-05, 0.0005187924, -0.1080225, 0.9941471, 0.04570375
 94620470, -0.009624952, 0.01266008, -9.40328E-05, 0.001089464, -0.003115863, 0.004120494, 0.0001177317, 0.0005187924, -0.1080309, 0.9941462, 0.04570375
 94820390, -0.01018964, 0.01248243, -0.0001272837, 0.001089464, -0.003206042, 0.003962414, 0.0001531942, 0.0005187924, -0.1080373, 0.9941454, 0.04570375
 95020310, -0.009906734, 0.01248322, 0.0001707919, 0.001089464, -0.002895224, 0.003858416, 4.528141E-05, 0.0005187924, -0.108042, 0.994145, 0.04570375
 95220230, -0.009658706, 0.01220352, 8.301274E-05, 0.001089464, -0.003184602, 0.004018516, 0.0002008588, 0.0005187924, -0.1080457, 0.9941446, 0.04570375
 95420150, -0.009943053, 0.01262454, 0.0002831279, 0.001089464, -0.003237547, 0.003716708, -0.0003530997, 0.0005187924, -0.1080478, 0.9941444, 0.04570375
 95620903, -0.01009908, 0.01244253, -0.0003652597, 0.001091626, -0.003052507, 0.004047447, 3.03453E-05, 0.000520954, -0.1080502, 0.9941441, 0.04579443
 95820823, -0.009695665, 0.01258837, -1.11134E-05, 0.001091626, -0.003075772, 0.003637722, -0.0001673029, 0.0005187924, -0.1080505, 0.9941441, 0.04579443
 96020743, -0.009920542, 0.01221738, -0.0002451393, 0.001089464, -0.003232679, 0.00402511, 0.0003264075, 0.0005187924, -0.1080497, 0.9941441, 0.04570375
 96220663, -0.01001996, 0.01217057, 0.0004636721, 0.001089464, -0.003130103, 0.003591103, -6.863708E-05, 0.0005187924, -0.1080482, 0.9941444, 0.04570375
 96420583, -0.00978327, 0.01174854, -0.0001087421, 0.001089464, -0.002939925, 0.003828988, -0.0002022887, 0.0005187924, -0.1080452, 0.9941447, 0.04570375
 96620503, -0.009521171, 0.01226583, 9.924731E-05, 0.001089464, -0.003062206, 0.003773401, -0.0001551007, 0.0005187924, -0.1080426, 0.994145, 0.04570375
 96820423, -0.009884828, 0.012058, -9.914256E-07, 0.001089464, -0.003110168, 0.003828141, -4.613937E-05, 0.0005187924, -0.1080399, 0.9941452, 0.04570375
 97020343, -0.01007692, 0.01243528, -6.72834E-05, 0.001089464, -0.002882441, 0.003940497, 0.0001475697, 0.0005187924, -0.1080365, 0.9941456, 0.04570375
 97220263, -0.009472304, 0.01238489, 0.0001523171, 0.001089464, -0.003210445, 0.003571426, 0.0001121072, 0.0005187924, -0.1080324, 0.9941461, 0.04570375
 97420183, -0.00985882, 0.01183945, 0.000180344, 0.001089464, -0.003454807, 0.003972553, -9.447132E-05, 0.0005187924, -0.1080292, 0.9941464, 0.04570375
 97620936, -0.0101584, 0.01243651, -9.554894E-05, 0.001091626, -0.003289675, 0.003617635, -0.0001993983, 0.000520954, -0.1080245, 0.9941469, 0.04579443
 97820856, -0.01005748, 0.01221125, -0.0002959859, 0.001091626, -0.002708827, 0.003918771, 0.0001281226, 0.0005187924, -0.1080201, 0.9941474, 0.04579443
 98020776, -0.009202407, 0.01258254, 4.451878E-05, 0.001089464, -0.002875905, 0.004056459, -0.0002128703, 0.0005187924, -0.1080166, 0.9941478, 0.04570375
 98220696, -0.009526865, 0.01240559, -0.0002027177, 0.001089464, -0.00310457, 0.003793707, 7.187828E-05, 0.0005187924, -0.1080117, 0.9941484, 0.04570375
 98420616, -0.009948779, 0.01225189, 9.164005E-05, 0.001089464, -0.00309664, 0.003857809, 0.0001390854, 0.0005187924, -0.1080063, 0.9941489, 0.04570375
 98620536, -0.009970441, 0.01218255, 0.0001497337, 0.001089464, -0.002998926, 0.003784584, 0.0002002868, 0.0005187924, -0.1080015, 0.9941494, 0.04570375
 98820456, -0.009807223, 0.0123515, -5.850358E-05, 0.001089464, -0.002996456, 0.003939836, 2.335567E-05, 0.0005187924, -0.1079974, 0.9941499, 0.04570375
 99020376, -0.009736373, 0.01245889, 0.0001102388, 0.001089464, -0.003104046, 0.003732669, -0.0001282179, 0.0005187924, -0.1079933, 0.9941502, 0.04570375
 99220296, -0.009665377, 0.01228817, -0.0001674078, 0.001089464, -0.003065131, 0.003721455, -0.0001669216, 0.0005187924, -0.1079889, 0.9941507, 0.04570375
 99420216, -0.009701163, 0.01247038, -2.418502E-05, 0.001089464, -0.002891138, 0.003986039, 0.0001272646, 0.0005187924, -0.1079843, 0.9941513, 0.04570375
 99620969, -0.009740207, 0.01260486, 0.0001880477, 0.001091626, -0.003023506, 0.004005065, -0.0003982222, 0.000520954, -0.1079792, 0.9941518, 0.04579443
 99820889, -0.009823307, 0.01277539, -0.0005869074, 0.001091626, -0.003320652, 0.003952123, -0.0002829373, 0.0005187924, -0.1079898, 0.9941507, 0.04579443
 100020809, -0.01018885, 0.01262238, -0.0001765879, 0.001089464, -0.002878444, 0.004028872, -0.0001347956, 0.0005187924, -0.1079985, 0.9941497, 0.04570375
 100220729, -0.009347867, 0.01241321, 1.391807E-05, 0.001089464, -0.003216224, 0.004228306, 0.0002073412, 0.0005187924, -0.1080065, 0.9941489, 0.04570375
 100420649, -0.009808212, 0.01299315, 5.402311E-05, 0.001089464, -0.002960883, 0.003928698, 0.0003955212, 0.0005187924, -0.1080121, 0.9941483, 0.04570375
 100620569, -0.009445829, 0.01273885, 0.0005787155, 0.001089464, -0.002838871, 0.003727447, 6.558654E-05, 0.0005187924, -0.1080159, 0.9941478, 0.04570375
 100820489, -0.009491014, 0.01211543, 0.000303843, 0.001089464, -0.002968445, 0.003957968, 0.0001316498, 0.0005187924, -0.1080188, 0.9941475, 0.04570375
 101020409, -0.009559166, 0.01250521, 8.824632E-05, 0.001089464, -0.002933042, 0.003946046, -6.091541E-05, 0.0005187924, -0.1080215, 0.9941473, 0.04570375
 101220329, -0.009518224, 0.01247896, -0.0001996481, 0.001089464, -0.003051524, 0.004048483, 3.61298E-05, 0.0005187924, -0.1080222, 0.9941472, 0.04570375
 101420249, -0.009788143, 0.0126136, -7.93807E-05, 0.001089464, -0.002995132, 0.004027175, -0.0002202106, 0.0005187924, -0.1080223, 0.9941472, 0.04570375
 101620169, -0.009719797, 0.01237289, -0.0003587527, 0.001089464, -0.002934946, 0.003878224, 0.0001090567, 0.0005187924, -0.1080204, 0.9941474, 0.04570375
 101820922, -0.009513052, 0.01225868, 6.493831E-05, 0.001091626, -0.003222113, 0.003874524, -0.0001053949, 0.000520954, -0.1080168, 0.9941478, 0.04579443
 102020842, -0.01009604, 0.01240245, 5.682828E-06, 0.001091626, -0.002941265, 0.003839844, -6.768379E-06, 0.0005187924, -0.1080137, 0.9941481, 0.04579443
 102220762, -0.00957721, 0.0124223, 2.064833E-05, 0.001089464, -0.002914714, 0.003746442, 0.0001214495, 0.0005187924, -0.1080106, 0.9941485, 0.04570375
 102420682, -0.009373461, 0.01219069, 0.0001834135, 0.001089464, -0.002863102, 0.004041182, 0.000110868, 0.0005187924, -0.1080064, 0.9941489, 0.04570375
 102620602, -0.009461626, 0.01254113, 0.0004588008, 0.001089464, -0.003020799, 0.003834303, -2.974274E-05, 0.0005187924, -0.1080013, 0.9941495, 0.04570375
 102820522, -0.009626521, 0.0121443, -6.735013E-05, 0.001089464, -0.002979788, 0.003832199, -0.0004482383, 0.0005187924, -0.1079968, 0.99415, 0.04570375
 103020442, -0.009712353, 0.01235572, -0.000544845, 0.001089464, -0.002755679, 0.003693982, -6.739781E-05, 0.0005187924, -0.1079918, 0.9941505, 0.04570375
 103220362, -0.009461767, 0.01220134, 0.0002225653, 0.001089464, -0.00294217, 0.003723165, 2.755016E-05, 0.0005187924, -0.1079865, 0.9941511, 0.04570375
 103420282, -0.009777028, 0.01212756, 0.0001239185, 0.001089464, -0.003012912, 0.003694282, -0.0002745483, 0.0005187924, -0.1079813, 0.9941517, 0.04570375
 103620202, -0.009576944, 0.01211273, -0.0003805927, 0.001089464, -0.002808124, 0.003714553, -5.776955E-05, 0.0005187924, -0.1079759, 0.9941522, 0.04570375
 103820955, -0.009310665, 0.01227476, -0.0002746687, 0.001091626, -0.00310546, 0.004007123, 1.531624E-06, 0.000520954, -0.1079695, 0.9941529, 0.04579443
 104020875, -0.009771734, 0.01250234, 0.0001780624, 0.001091626, -0.003133842, 0.003922688, 0.0002787428, 0.0005187924, -0.1079636, 0.9941536, 0.04579443
 104220795, -0.009828193, 0.01239297, 0.0002316025, 0.001089464, -0.002819513, 0.003782158, 9.075348E-05, 0.0005187924, -0.1079582, 0.9941542, 0.04570375
 104420715, -0.009477042, 0.01255328, 9.97335E-05, 0.001089464, -0.003306278, 0.003593868, 0.0002794101, 0.0005187924, -0.1079538, 0.9941546, 0.04570375
 104620635, -0.009905366, 0.01184252, 0.0002804778, 0.001089464, -0.002912734, 0.004040394, -0.000173404, 0.0005187924, -0.1079481, 0.9941552, 0.04570375
 104820555, -0.009632067, 0.01264714, -0.0003728805, 0.001089464, -0.003033324, 0.003751938, -0.0001778844, 0.0005187924, -0.107943, 0.9941558, 0.04570375
 105020475, -0.009816853, 0.01233266, -0.0002308208, 0.001089464, -0.003178604, 0.004005095, -0.0002271697, 0.0005187924, -0.1079536, 0.9941546, 0.04570375
 105220395, -0.009872219, 0.01270627, -0.0002456159, 0.001089464, -0.003201862, 0.00367574, 0.0002530992, 0.0005187924, -0.1079626, 0.9941537, 0.04570375
 105420315, -0.01011935, 0.01194301, 0.0002907829, 0.001089464, -0.002995804, 0.004033661, 6.67305E-05, 0.0005187924, -0.1079691, 0.9941529, 0.04570375
 105620235, -0.009578278, 0.01238598, -4.898971E-05, 0.001089464, -0.002819279, 0.004116686, -7.969528E-05, 0.0005187924, -0.1079734, 0.9941525, 0.04570375
 105820155, -0.009542872, 0.01245795, -0.0001255868, 0.001089464, -0.00298048, 0.003942633, 5.624428E-05, 0.0005187924, -0.1079773, 0.9941521, 0.04570375
 106020908, -0.009459719, 0.01213943, 0.0001058711, 0.001091626, -0.003379364, 0.004314565, -8.462222E-05, 0.000520954, -0.1079785, 0.9941519, 0.04579443
 106220828, -0.009988585, 0.01279216, -0.0002940511, 0.001091626, -0.002930143, 0.003751919, 0.0001570073, 0.0005187924, -0.1079805, 0.9941517, 0.04579443
 106420748, -0.009682508, 0.01221931, 0.0001130224, 0.001089464, -0.00285015, 0.004266604, -0.0003228803, 0.0005187924, -0.1079822, 0.9941515, 0.04570375
 106620668, -0.009599778, 0.01278995, -0.0001876843, 0.001089464, -0.003259941, 0.003745348, -0.000108866, 0.0005187924, -0.1079823, 0.9941515, 0.04570375
 106820588, -0.01001851, 0.01218296, 3.13252E-05, 0.001089464, -0.003008908, 0.003955166, 0.0001775031, 0.0005187924, -0.10798, 0.9941518, 0.04570375
 107020508, -0.009798652, 0.0123458, -0.0001667405, 0.001089464, -0.003025664, 0.003517893, 6.034344E-05, 0.0005187924, -0.1079786, 0.994152, 0.04570375
 107220428, -0.009634925, 0.01196378, -1.679702E-05, 0.001089464, -0.003072005, 0.004159295, -2.173508E-05, 0.0005187924, -0.1079756, 0.9941523, 0.04570375
 107420348, -0.009738096, 0.01258481, -3.130615E-05, 0.001089464, -0.003082745, 0.003710554, -0.0001329844, 0.0005187924, -0.1079738, 0.9941524, 0.04570375
 107620268, -0.00945058, 0.012153, -0.0001943669, 0.001089464, -0.002779434, 0.003840821, 0.0001367975, 0.0005187924, -0.1079715, 0.9941528, 0.04570375
 107820188, -0.009266362, 0.01242368, 0.000102479, 0.001089464, -0.00300803, 0.003623446, -3.422321E-05, 0.0005187924, -0.1079683, 0.994153, 0.04570375
 108020941, -0.009515251, 0.01204379, 0.0001940014, 0.001091626, -0.003158929, 0.003918532, 1.531624E-06, 0.000520954, -0.1079644, 0.9941535, 0.04579443
 108220861, -0.0094255, 0.01228392, -2.168105E-05, 0.001091626, -0.002987783, 0.003585666, -1.296478E-05, 0.0005187924, -0.1079604, 0.994154, 0.04579443
 108420781, -0.009712463, 0.01208225, -1.481416E-05, 0.001089464, -0.003071523, 0.004350868, 0.0002923749, 0.0005187924, -0.1079575, 0.9941542, 0.04570375
 108620701, -0.009732341, 0.0127555, 0.0002729944, 0.001089464, -0.002957939, 0.003791412, 0.0001225935, 0.0005187924, -0.1079535, 0.9941547, 0.04570375
 108820621, -0.009608882, 0.01223908, 0.0003247106, 0.001089464, -0.00312236, 0.003868147, -3.736908E-05, 0.0005187924, -0.1079488, 0.9941552, 0.04570375
 109020541, -0.009876084, 0.01229809, -0.0001822696, 0.001089464, -0.003017023, 0.004030193, 3.765507E-05, 0.0005187924, -0.1079437, 0.9941558, 0.04570375
 109220461, -0.009703176, 0.01245871, 0.000234348, 0.001089464, -0.003026661, 0.003911329, -0.0002768362, 0.0005187924, -0.10794, 0.9941562, 0.04570375
 109420381, -0.009999604, 0.01239001, -0.000378972, 0.001089464, -0.003045275, 0.003818996, 1.468071E-05, 0.0005187924, -0.1079361, 0.9941565, 0.04570375
 109620301, -0.009847524, 0.01208939, 4.980002E-05, 0.001089464, -0.002941154, 0.003976508, 0.0001531942, 0.0005187924, -0.1079316, 0.9941571, 0.04570375
 109820221, -0.009508176, 0.01255879, 7.787449E-05, 0.001089464, -0.003042471, 0.004008806, -7.740738E-05, 0.0005187924, -0.1079274, 0.9941574, 0.04570375
 110020974, -0.009611065, 0.0125151, -0.0001485635, 0.001091626, -0.003217145, 0.003857577, 0.000117827, 0.0005187924, -0.1079245, 0.9941577, 0.04579443
 110220894, -0.009826523, 0.01239764, 0.0002594565, 0.001091626, -0.002629224, 0.003904681, 6.662564E-05, 0.000520954, -0.1079362, 0.9941565, 0.04579443
 110420814, -0.009368913, 0.01253592, -9.192603E-05, 0.001091626, -0.003259172, 0.004158475, -0.0001804583, 0.0005187924, -0.1079473, 0.9941553, 0.04579443
 110620734, -0.01000168, 0.01274286, -5.257413E-05, 0.001089464, -0.002852698, 0.003848898, 0.0003472846, 0.0005187924, -0.1079577, 0.9941541, 0.04570375
 110820654, -0.009535767, 0.0124855, 0.0002630421, 0.001089464, -0.003279256, 0.003872477, -6.139206E-05, 0.0005187924, -0.1079655, 0.9941533, 0.04570375
 111020574, -0.009786069, 0.0125863, -5.01718E-05, 0.001089464, -0.003247277, 0.003900351, -7.874199E-05, 0.0005187924, -0.1079698, 0.9941529, 0.04570375
 111220494, -0.01016086, 0.01228106, -0.0001411446, 0.001089464, -0.002661416, 0.004199397, 0.0001939951, 0.0005187924, -0.1079742, 0.9941524, 0.04570375
 111420414, -0.009327662, 0.01283937, 0.0004734433, 0.001089464, -0.003233217, 0.003824991, 9.694988E-05, 0.0005187924, -0.1079764, 0.9941522, 0.04570375
 111620334, -0.009976759, 0.01226981, 8.052462E-05, 0.001089464, -0.003293311, 0.004143107, 2.678753E-05, 0.0005187924, -0.1079775, 0.9941521, 0.04570375
 111820254, -0.01013722, 0.01254417, 7.531013E-05, 0.001089464, -0.002947338, 0.003549981, -0.0003488098, 0.0005187924, -0.1079779, 0.994152, 0.04570375
 112020174, -0.009514567, 0.01203851, -0.0008206422, 0.001089464, -0.003010143, 0.003770725, 0.0001092474, 0.0005187924, -0.1079777, 0.9941521, 0.04570375
 112220927, -0.009777961, 0.01225874, 0.0002036873, 0.001091626, -0.002903483, 0.003935361, -7.007179E-05, 0.000520954, -0.1079756, 0.9941524, 0.04579443
 112420847, -0.00941307, 0.01217386, -9.919488E-05, 0.001091626, -0.00295763, 0.003532099, 0.0001631084, 0.0005187924, -0.1079739, 0.9941524, 0.04579443
 112620767, -0.00952007, 0.01184421, 0.0002302393, 0.001089464, -0.003187316, 0.003761611, 0.000329458, 0.0005187924, -0.1079717, 0.9941527, 0.04570375
 112820687, -0.009757245, 0.01213127, 0.0004178378, 0.001089464, -0.002860375, 0.003934903, 0.000141278, 0.0005187924, -0.1079687, 0.9941531, 0.04570375
 113020607, -0.009434861, 0.01231684, 0.0003809453, 0.001089464, -0.002548465, 0.003600607, -3.527183E-06, 0.0005187924, -0.1079646, 0.9941535, 0.04570375
 113220527, -0.009140826, 0.01220911, 2.18876E-05, 0.001089464, -0.003180665, 0.003792243, -0.0002946628, 0.0005187924, -0.1079601, 0.9941539, 0.04570375
 113420447, -0.009864963, 0.01223828, -0.0003911646, 0.001089464, -0.003184997, 0.003807783, 0.0002659687, 0.0005187924, -0.1079553, 0.9941545, 0.04570375
 113620367, -0.009783158, 0.01221419, 0.0003875898, 0.001089464, -0.002985815, 0.00393821, -3.355591E-05, 0.0005187924, -0.1079507, 0.994155, 0.04570375
 113820287, -0.009588324, 0.01238662, 1.940904E-05, 0.001089464, -0.003251819, 0.003616213, 0.000164157, 0.0005187924, -0.1079465, 0.9941554, 0.04570375
 114020207, -0.009761433, 0.01193845, 0.0004417273, 0.001089464, -0.003009333, 0.003775924, -5.548164E-05, 0.0005187924, -0.1079426, 0.9941559, 0.04570375
 114220960, -0.00959122, 0.01218219, -0.0001319687, 0.001091626, -0.003208831, 0.003774436, 9.859829E-06, 0.000520954, -0.1079386, 0.9941562, 0.04579443
 114420880, -0.009967836, 0.01230366, -0.0001108557, 0.001091626, -0.002913308, 0.003930607, -0.0001109633, 0.0005187924, -0.1079352, 0.9941567, 0.04579443
 114620800, -0.009567064, 0.01232112, -0.0001142712, 0.001089464, -0.003229015, 0.003747824, -0.0001048622, 0.0005187924, -0.1079315, 0.994157, 0.04570375
 114820720, -0.009830757, 0.01222146, -5.367045E-06, 0.001089464, -0.003178248, 0.00386647, -3.813171E-07, 0.0005187924, -0.1079296, 0.9941573, 0.04570375
 115020640, -0.009972845, 0.0124637, -0.0001666261, 0.001089464, -0.00301143, 0.004005959, -0.0003932333, 0.0005187924, -0.1079271, 0.9941576, 0.04570375
 115220560, -0.009647331, 0.01243774, -0.0005263607, 0.001089464, -0.002585459, 0.004051913, 6.215469E-05, 0.0005187924, -0.1079244, 0.9941578, 0.04570375
 115420480, -0.009063439, 0.01265293, -0.0001766261, 0.001089464, -0.003046299, 0.003918177, 6.568187E-05, 0.0005187924, -0.1079381, 0.9941563, 0.04570375
 115620400, -0.009749957, 0.01258448, 1.518595E-05, 0.001089464, -0.003070014, 0.003573667, -8.274582E-05, 0.0005187924, -0.1079489, 0.9941552, 0.04570375
 115820320, -0.009883873, 0.01218714, -5.768376E-05, 0.001089464, -0.003059707, 0.003511073, -0.0003245962, 0.0005187924, -0.1079581, 0.9941542, 0.04570375
 116020240, -0.009726615, 0.01192829, -0.0004974378, 0.001089464, -0.003051892, 0.003904997, -0.0001487137, 0.0005187924, -0.1079655, 0.9941533, 0.04570375
 116220160, -0.009543524, 0.01231469, -0.0001596956, 0.001089464, -0.00305196, 0.003959153, -0.0001313637, 0.0005187924, -0.1079713, 0.9941527, 0.04570375
 116420913, -0.009441097, 0.01243665, -0.0002244135, 0.001091626, -0.002754872, 0.004083627, -8.481367E-05, 0.000520954, -0.1079759, 0.9941523, 0.04579443
 116620833, -0.009226924, 0.01247587, -0.0001831935, 0.001091626, -0.003163016, 0.003531473, -0.0001751199, 0.0005187924, -0.1079793, 0.9941519, 0.04579443
 116820753, -0.009725552, 0.01174717, -0.0001546718, 0.001089464, -0.00310799, 0.004141664, 2.707352E-05, 0.0005187924, -0.1079827, 0.9941516, 0.04570375
 117020673, -0.009735221, 0.01281314, 0.0001245668, 0.001089464, -0.002941177, 0.003750775, 0.0001085801, 0.0005187924, -0.1079834, 0.9941515, 0.04570375
 117220593, -0.009851695, 0.01226296, -7.473816E-05, 0.001089464, -0.003102762, 0.003966935, 0.0002045766, 0.0005187924, -0.107983, 0.9941515, 0.04570375
 117420513, -0.009564792, 0.01225746, 0.0002703062, 0.001089464, -0.003201096, 0.00377559, 0.0001261206, 0.0005187924, -0.1079824, 0.9941516, 0.04570375
 117620433, -0.009875086, 0.01213721, 4.660648E-05, 0.001089464, -0.003033073, 0.003781177, -0.0004332716, 0.0005187924, -0.1079818, 0.9941516, 0.04570375
 117820353, -0.009723869, 0.01223083, -0.0003718795, 0.001089464, -0.002909295, 0.003763438, 9.542461E-05, 0.0005187924, -0.1079797, 0.9941519, 0.04570375
 118020273, -0.009392246, 0.01218846, -5.628241E-05, 0.001089464, -0.002960488, 0.003618001, 1.229748E-05, 0.0005187924, -0.107977, 0.9941521, 0.04570375
 118220193, -0.009529947, 0.01182465, -0.0001568453, 0.001089464, -0.002845339, 0.003685612, 0.000306865, 0.0005187924, -0.1079743, 0.9941524, 0.04570375
 118420946, -0.009517923, 0.01219539, 0.0001828717, 0.001091626, -0.002980352, 0.003799794, 0.0001549812, 0.000520954, -0.1079713, 0.9941528, 0.04579443
 118620866, -0.009547673, 0.01220404, 6.686954E-06, 0.001091626, -0.003006428, 0.003969709, 4.385147E-06, 0.0005187924, -0.1079684, 0.9941531, 0.04579443
 118820786, -0.009598406, 0.01239306, -0.0001574745, 0.001089464, -0.003239848, 0.003806712, -7.397553E-05, 0.0005187924, -0.1079656, 0.9941534, 0.04570375
 119020706, -0.009866169, 0.01216289, -0.0001226221, 0.001089464, -0.002723269, 0.003862968, -1.591999E-05, 0.0005187924, -0.1079633, 0.9941536, 0.04570375
 119220626, -0.009292055, 0.01242163, -0.0001379987, 0.001089464, -0.003022305, 0.003974133, -0.0002506207, 0.0005187924, -0.1079591, 0.994154, 0.04570375
 119420546, -0.009614875, 0.01250622, -0.0003341387, 0.001089464, -0.00307694, 0.003890069, -4.890392E-05, 0.0005187924, -0.1079551, 0.9941545, 0.04570375
 119620466, -0.009712557, 0.01251594, -7.674961E-05, 0.001089464, -0.003076731, 0.004133983, 0.0003612027, 0.0005187924, -0.1079518, 0.9941549, 0.04570375
 119820386, -0.009789369, 0.01275503, 0.0004271133, 0.001089464, -0.002880473, 0.003816125, 0.0001282179, 0.0005187924, -0.1079488, 0.9941552, 0.04570375
 120020306, -0.00962182, 0.01242116, 0.0001288566, 0.001089464, -0.003025824, 0.004084174, -0.0003026705, 0.0005187924, -0.1079456, 0.9941555, 0.04570375
 120220226, -0.009655024, 0.01262851, -0.0001158918, 0.001089464, -0.003253049, 0.00437653, 0.000297332, 0.0005187924, -0.1079429, 0.9941557, 0.04570375
 120420146, -0.01016512, 0.01291429, 0.0003589434, 0.001089464, -0.003083809, 0.003740209, 0.0001981896, 0.0005187924, -0.1079401, 0.9941561, 0.04570375
 120620899, -0.009585871, 0.01226568, 0.0002426146, 0.001091626, -0.002812596, 0.003893571, 0.0001121914, 0.000520954, -0.1079525, 0.9941548, 0.04579443
 120820819, -0.00941221, 0.01251815, 0.0001842508, 0.001091626, -0.002874341, 0.003765021, -0.0002435663, 0.0005187924, -0.107963, 0.9941536, 0.04579443
 121020739, -0.009295447, 0.0122985, -0.0002104871, 0.001089464, -0.002780844, 0.003880228, 0.0001700674, 0.0005187924, -0.1079722, 0.9941526, 0.04570375
 121220659, -0.009160557, 0.0122847, 4.554832E-05, 0.001089464, -0.002979146, 0.003980865, -0.0002161115, 0.0005187924, -0.1079807, 0.9941517, 0.04570375
 121420579, -0.009446817, 0.01240897, -2.081035E-05, 0.001089464, -0.003181138, 0.003855526, 8.150654E-05, 0.0005187924, -0.1079865, 0.9941511, 0.04570375
 121620499, -0.009917698, 0.01231274, 0.0003031662, 0.001089464, -0.002993633, 0.003604501, -1.811256E-06, 0.0005187924, -0.1079912, 0.9941506, 0.04570375
 121820419, -0.009498701, 0.01197649, -3.649205E-05, 0.001089464, -0.003087397, 0.003911796, 0.0002123936, 0.0005187924, -0.1079952, 0.9941501, 0.04570375
 122020339, -0.009674938, 0.01234811, 0.0002294481, 0.001089464, -0.003103991, 0.00371988, 9.809383E-05, 0.0005187924, -0.1079987, 0.9941498, 0.04570375
 122220259, -0.009752817, 0.01225882, -9.18593E-05, 0.001089464, -0.002997942, 0.003680864, -0.00037779, 0.0005187924, -0.1080007, 0.9941495, 0.04570375
 122420179, -0.009402216, 0.01218154, -0.0004993062, 0.001089464, -0.00307606, 0.003623684, 8.226917E-05, 0.0005187924, -0.1080023, 0.9941493, 0.04570375
 122620932, -0.009530092, 0.01222973, 5.103969E-05, 0.001091626, -0.002949415, 0.003803341, -0.0001898256, 0.000520954, -0.1080033, 0.9941493, 0.04579443
 122820852, -0.009468516, 0.01237694, -0.0003803221, 0.001091626, -0.003082789, 0.004186457, 0.0002932329, 0.0005187924, -0.1080041, 0.9941492, 0.04579443
 123020772, -0.00997689, 0.01266859, 0.0003163216, 0.001089464, -0.002955873, 0.003658871, -3.193531E-05, 0.0005187924, -0.1080036, 0.9941492, 0.04570375
 123220692, -0.009377484, 0.01199784, -5.041966E-05, 0.001089464, -0.003046922, 0.003816393, 7.550079E-05, 0.0005187924, -0.1080017, 0.9941494, 0.04570375
 123420612, -0.009836684, 0.01229966, -5.117275E-05, 0.001089464, -0.003096867, 0.003749891, -2.583424E-05, 0.0005187924, -0.1079984, 0.9941499, 0.04570375
 123620532, -0.009952602, 0.01221211, -5.762656E-05, 0.001089464, -0.003146507, 0.003771482, -0.0001281226, 0.0005187924, -0.1079961, 0.99415, 0.04570375
 123820452, -0.00991282, 0.01198443, -4.82652E-05, 0.001089464, -0.002684282, 0.003768563, -1.696861E-05, 0.0005187924, -0.1079936, 0.9941503, 0.04570375
 124020372, -0.009236543, 0.01213684, -0.0001879417, 0.001089464, -0.002966352, 0.004140244, 0.0001316498, 0.0005187924, -0.1079909, 0.9941506, 0.04570375
 124220292, -0.009659785, 0.01256936, 0.0001696194, 0.001089464, -0.003145324, 0.004031288, 9.437599E-06, 0.0005187924, -0.1079873, 0.994151, 0.04570375
 124420212, -0.009799918, 0.01244046, -6.999076E-05, 0.001089464, -0.00298895, 0.003315347, -0.0002111544, 0.0005187924, -0.1079849, 0.9941513, 0.04570375
 124620965, -0.00965855, 0.01172465, -0.000162509, 0.001091626, -0.003072632, 0.003724392, -6.624273E-05, 0.000520954, -0.1079823, 0.9941515, 0.04579443
 124820885, -0.009930762, 0.01205867, -0.0002345466, 0.001091626, -0.003106672, 0.003818904, -6.653984E-05, 0.0005187924, -0.1079777, 0.994152, 0.04579443
 125020805, -0.009737999, 0.01229526, -6.727388E-05, 0.001089464, -0.002961307, 0.003698166, -0.0001344143, 0.0005187924, -0.1079735, 0.9941524, 0.04570375
 125220725, -0.009655346, 0.01243539, -7.271719E-05, 0.001089464, -0.002843079, 0.003960282, 3.22213E-05, 0.0005187924, -0.1079714, 0.9941526, 0.04570375
 125420645, -0.009641006, 0.01240481, 9.963816E-05, 0.001089464, -0.003196346, 0.003958391, -9.065815E-05, 0.0005187924, -0.1079682, 0.9941529, 0.04570375
 125620565, -0.009978547, 0.012528, -0.0001084371, 0.001089464, -0.00321072, 0.003914743, 7.29269E-05, 0.0005187924, -0.1079786, 0.9941518, 0.04570375
 125820485, -0.01008082, 0.01236982, 2.590097E-05, 0.001089464, -0.00331205, 0.004195051, 0.000273881, 0.0005187924, -0.1079896, 0.9941506, 0.04570375
 126020405, -0.01018477, 0.01270516, 0.0003084856, 0.001089464, -0.002834769, 0.004111246, -0.0002244051, 0.0005187924, -0.1079986, 0.9941497, 0.04570375
 126220325, -0.009610281, 0.01248657, -3.740722E-05, 0.001089464, -0.003212123, 0.003998172, 0.0001500483, 0.0005187924, -0.1080051, 0.994149, 0.04570375
 126420245, -0.01001656, 0.01249775, -7.053414E-05, 0.001089464, -0.003196217, 0.003735466, -0.0001099147, 0.0005187924, -0.1080102, 0.9941484, 0.04570375
 126620165, -0.009930491, 0.01220417, -0.0001521169, 0.001089464, -0.003116952, 0.003748688, 6.301266E-05, 0.0005187924, -0.1080146, 0.994148, 0.04570375
 126820918, -0.009881874, 0.01218882, 0.0001404582, 0.001091626, -0.003078001, 0.003896732, -7.686837E-05, 0.000520954, -0.1080187, 0.9941476, 0.04579443
 127020838, -0.009683217, 0.01238323, 4.880423E-05, 0.001091626, -0.003208393, 0.003874448, 8.465241E-05, 0.0005187924, -0.1080203, 0.9941474, 0.04579443
 127220758, -0.009550602, 0.01235967, -5.952361E-05, 0.001089464, -0.002880088, 0.003822624, -9.637791E-05, 0.0005187924, -0.1080218, 0.9941472, 0.04570375
 127420678, -0.009497246, 0.01213613, -6.810324E-05, 0.001089464, -0.00285261, 0.00377514, -5.309841E-05, 0.0005187924, -0.10802, 0.9941474, 0.04570375
 127620598, -0.009575427, 0.0121678, -9.942845E-05, 0.001089464, -0.003149518, 0.004032003, 0.0001506203, 0.0005187924, -0.108019, 0.9941475, 0.04570375
 127820518, -0.009911412, 0.01250153, 0.0001851104, 0.001089464, -0.003142291, 0.003468385, -9.094414E-05, 0.0005187924, -0.1080168, 0.9941478, 0.04570375
 128020438, -0.009987028, 0.01168267, -0.0001124123, 0.001089464, -0.003140573, 0.003668936, 0.0001399434, 0.0005187924, -0.1080158, 0.9941479, 0.04570375
 128220358, -0.009644326, 0.01206108, 0.0001276173, 0.001089464, -0.002809209, 0.00384597, 9.857048E-05, 0.0005187924, -0.1080145, 0.9941481, 0.04570375
 128420278, -0.009331832, 0.01225192, 9.062956E-05, 0.001089464, -0.002671415, 0.003697766, -0.0001335563, 0.0005187924, -0.1080117, 0.9941483, 0.04570375
 128620198, -0.009327523, 0.01194304, -0.000218876, 0.001089464, -0.002983814, 0.003774772, 7.988594E-05, 0.0005187924, -0.108009, 0.9941486, 0.04570375
 128820951, -0.009853297, 0.01243001, -3.637409E-05, 0.001091626, -0.003001181, 0.003586184, -0.0004636991, 0.000520954, -0.1080072, 0.9941489, 0.04579443
 129020871, -0.009661463, 0.01172722, -0.0007447107, 0.001091626, -0.003199101, 0.004164156, -7.559612E-05, 0.0005187924, -0.108004, 0.9941491, 0.04579443
 129220791, -0.009860345, 0.01267433, -9.378494E-05, 0.001089464, -0.003182734, 0.003804306, 0.0001236421, 0.0005187924, -0.1080009, 0.9941494, 0.04570375
 129420711, -0.009902878, 0.01200689, 0.0001861018, 0.001089464, -0.00300177, 0.00377633, -0.0001656823, 0.0005187924, -0.1079973, 0.9941498, 0.04570375
 129620631, -0.009864597, 0.01224573, -0.000166445, 0.001089464, -0.003204089, 0.003823192, -0.0002611069, 0.0005187924, -0.1079928, 0.9941503, 0.04570375
 129820551, -0.009765769, 0.01207138, -0.0002212688, 0.001089464, -0.003147233, 0.003826566, -0.0002816027, 0.0005187924, -0.1079871, 0.9941509, 0.04570375
 130020471, -0.01000842, 0.0124387, -0.0003075799, 0.001089464, -0.003079486, 0.003905047, 0.0001476651, 0.0005187924, -0.1079837, 0.9941514, 0.04570375
 130220391, -0.009810625, 0.01245745, 0.000145768, 0.001089464, -0.003271657, 0.003804772, -1.487137E-05, 0.0005187924, -0.1079799, 0.9941517, 0.04570375
 130420311, -0.01010029, 0.01225185, -0.0001031654, 0.001089464, -0.002939837, 0.003905766, 7.979061E-05, 0.0005187924, -0.1079773, 0.994152, 0.04570375
 130620231, -0.009555625, 0.01218797, -0.0001991715, 0.001089464, -0.002708333, 0.004030063, -8.960953E-05, 0.0005187924, -0.1079743, 0.9941522, 0.04570375
 130820151, -0.0093702, 0.0126983, -0.0003027849, 0.001089464, -0.003208756, 0.003788053, 7.702606E-05, 0.0005187924, -0.1079863, 0.9941511, 0.04570375
 131020904, -0.01005045, 0.01234154, 9.653759E-05, 0.001091626, -0.002581861, 0.003875475, 0.0001724991, 0.000520954, -0.1079966, 0.9941499, 0.04579443
 131220824, -0.009217909, 0.01242135, 0.0001364742, 0.001091626, -0.002953989, 0.003817833, -0.0002483328, 0.0005187924, -0.1080049, 0.994149, 0.04579443
 131420744, -0.009842537, 0.01236096, -0.000473634, 0.001089464, -0.002552231, 0.003455549, 0.0001525269, 0.0005187924, -0.1080127, 0.9941482, 0.04570375
 131620664, -0.009141376, 0.01188951, 9.490032E-05, 0.001089464, -0.003461757, 0.003773719, -0.0001347003, 0.0005187924, -0.1080178, 0.9941476, 0.04570375
 131820584, -0.01028152, 0.01210382, -4.700688E-05, 0.001089464, -0.003066043, 0.003731012, 0.0002409924, 0.0005187924, -0.1080208, 0.9941474, 0.04570375
 132020504, -0.00967153, 0.01211967, 0.0002811642, 0.001089464, -0.003033338, 0.003847268, -8.684498E-05, 0.0005187924, -0.1080231, 0.9941471, 0.04570375
 132220424, -0.009682605, 0.01222474, 9.939984E-05, 0.001089464, -0.002994686, 0.003738265, -0.0002148722, 0.0005187924, -0.1080249, 0.9941469, 0.04570375
 132420344, -0.00945569, 0.01199824, -0.0003629471, 0.001089464, -0.00296904, 0.00359276, 5.195446E-05, 0.0005187924, -0.1080246, 0.9941469, 0.04570375
 132620264, -0.009595269, 0.01213314, 0.0001224219, 0.001089464, -0.002839381, 0.003655097, 2.154442E-05, 0.0005187924, -0.1080242, 0.994147, 0.04570375
 132820184, -0.009554416, 0.01202878, 1.698767E-05, 0.001089464, -0.00294493, 0.003594044, -0.0003361311, 0.0005187924, -0.1080234, 0.9941471, 0.04570375
 133020937, -0.009888275, 0.01202227, -0.0005055737, 0.001091626, -0.003143765, 0.00372743, 0.000322694, 0.000520954, -0.1080232, 0.9941471, 0.04579443
 133220857, -0.01002892, 0.01188369, 0.0002869169, 0.001091626, -0.003182939, 0.003783529, -2.411831E-05, 0.0005187924, -0.1080225, 0.9941472, 0.04579443
 133420777, -0.009734501, 0.01231449, -6.840829E-05, 0.001089464, -0.003098508, 0.00390366, 0.0001051482, 0.0005187924, -0.1080206, 0.9941473, 0.04570375
 133620697, -0.00989973, 0.01209921, 0.000353929, 0.001089464, -0.002864744, 0.004118595, 0.0001845575, 0.0005187924, -0.1080189, 0.9941475, 0.04570375
 133820617, -0.009499994, 0.01261398, 0.0002617456, 0.001089464, -0.002847157, 0.003956413, -0.0002868458, 0.0005187924, -0.108016, 0.9941478, 0.04570375
 134020537, -0.009379473, 0.01275931, -0.0004181143, 0.001089464, -0.002867784, 0.003724062, 9.933311E-05, 0.0005187924, -0.108014, 0.9941481, 0.04570375
 134220457, -0.009453259, 0.01207785, 7.783636E-05, 0.001089464, -0.003150197, 0.003633025, -0.0001420406, 0.0005187924, -0.1080117, 0.9941483, 0.04570375
 134420377, -0.00988289, 0.01201645, 4.8637E-05, 0.001089464, -0.003152147, 0.004040713, 0.0001762639, 0.0005187924, -0.1080095, 0.9941486, 0.04570375
 134620297, -0.009859875, 0.01257165, 5.296496E-05, 0.001089464, -0.003166696, 0.003625868, 8.522438E-05, 0.0005187924, -0.1080063, 0.9941489, 0.04570375
 134820217, -0.009833721, 0.01201625, -0.0001961591, 0.001089464, -0.003085219, 0.00351369, 8.33178E-05, 0.0005187924, -0.108002, 0.9941494, 0.04570375
 135020970, -0.009863779, 0.01212153, 7.14771E-05, 0.001091626, -0.003137551, 0.003987573, -6.634918E-05, 0.0005187924, -0.1079996, 0.9941496, 0.04579443
 135220890, -0.009974321, 0.01238726, 0.0001367165, 0.001091626, -0.002930019, 0.003916619, -5.561709E-05, 0.000520954, -0.1079972, 0.9941499, 0.04579443
 135420810, -0.009829802, 0.01261661, -0.000123625, 0.001091626, -0.003178835, 0.004172672, -0.0003877995, 0.0005187924, -0.1079937, 0.9941503, 0.04579443
 135620730, -0.009630045, 0.01293999, -0.0007033586, 0.001089464, -0.002925372, 0.003600543, 0.0002020981, 0.0005187924, -0.1079924, 0.9941504, 0.04570375
 135820650, -0.009725483, 0.01201411, 1.267908E-06, 0.001089464, -0.003010941, 0.00391377, -9.694988E-05, 0.0005187924, -0.1080037, 0.9941492, 0.04570375
 136020570, -0.009766797, 0.01248175, -0.0001645098, 0.001089464, -0.002806324, 0.003682171, 4.366081E-05, 0.0005187924, -0.1080127, 0.9941482, 0.04570375
 136220490, -0.009318206, 0.01208372, 0.0001039089, 0.001089464, -0.003167469, 0.003974451, -9.752186E-05, 0.0005187924, -0.1080199, 0.9941475, 0.04570375
 136420410, -0.009762537, 0.01236628, -0.00030758, 0.001089464, -0.003234277, 0.003696656, -0.0002498581, 0.0005187924, -0.1080272, 0.9941467, 0.04570375
 136620330, -0.009988757, 0.01218141, -0.0003833382, 0.001089464, -0.003093233, 0.003844295, 0.000367399, 0.0005187924, -0.1080336, 0.9941459, 0.04570375
 136820250, -0.009615654, 0.01227487, 0.0005643875, 0.001089464, -0.003039528, 0.003446587, -0.0001168737, 0.0005187924, -0.1080383, 0.9941455, 0.04570375
 137020170, -0.009606427, 0.01210481, -0.0003396773, 0.001089464, -0.003157063, 0.003736151, -1.449005E-05, 0.0005187924, -0.1080421, 0.994145, 0.04570375
 137220923, -0.009828197, 0.0121639, -0.0002575603, 0.001091626, -0.002800446, 0.003758809, -4.929914E-05, 0.000520954, -0.108045, 0.9941448, 0.04579443
 137420843, -0.009237003, 0.01229225, -0.0001823502, 0.001091626, -0.00301664, 0.003965064, 5.853218E-05, 0.0005187924, -0.1080462, 0.9941447, 0.04579443
 137620763, -0.009451756, 0.01239557, 2.254538E-05, 0.001089464, -0.002971431, 0.004053091, 0.0002408018, 0.0005187924, -0.1080472, 0.9941446, 0.04570375
 137820683, -0.00944039, 0.01268445, 0.0002333851, 0.001089464, -0.003060236, 0.003906647, -7.969528E-05, 0.0005187924, -0.1080467, 0.9941446, 0.04570375
 138020603, -0.009798146, 0.01247308, -0.0001304486, 0.001089464, -0.00278052, 0.003712541, 0.0003713075, 0.0005187924, -0.1080455, 0.9941447, 0.04570375
 138220523, -0.009461103, 0.01202386, 0.0004757503, 0.001089464, -0.002910884, 0.003975314, 9.103947E-05, 0.0005187924, -0.1080435, 0.994145, 0.04570375
 138420443, -0.009481738, 0.01239573, 0.0001062922, 0.001089464, -0.002977249, 0.003495646, 9.590126E-05, 0.0005187924, -0.108041, 0.9941452, 0.04570375
 138620363, -0.009565764, 0.01166903, 5.795065E-05, 0.001089464, -0.003251031, 0.003578165, -0.0001130605, 0.0005187924, -0.108038, 0.9941455, 0.04570375
 138820283, -0.009772529, 0.01189911, -0.000325683, 0.001089464, -0.002960278, 0.003697909, 8.78936E-05, 0.0005187924, -0.1080342, 0.9941459, 0.04570375
 139020203, -0.009311477, 0.0120288, 0.0004274374, 0.001089464, -0.002839213, 0.003562634, -0.0001322217, 0.0005187924, -0.1080309, 0.9941463, 0.04570375
 139220956, -0.009495231, 0.01188746, -0.000398113, 0.001091626, -0.002912635, 0.00420369, 4.98735E-05, 0.000520954, -0.1080269, 0.9941466, 0.04579443
 139420876, -0.009540359, 0.01283795, 0.0002053651, 0.001091626, -0.002866933, 0.003585917, 0.0001025743, 0.0005187924, -0.1080236, 0.994147, 0.04579443
 139620796, -0.009504247, 0.01203462, 5.500502E-06, 0.001089464, -0.003068419, 0.00377928, 0.0001570073, 0.0005187924, -0.1080208, 0.9941473, 0.04570375
 139820716, -0.009985039, 0.01198135, 0.000420364, 0.001089464, -0.002872284, 0.003993963, 0.0002192574, 0.0005187924, -0.1080184, 0.9941475, 0.04570375
 140020636, -0.009633775, 0.01260207, 0.0001467499, 0.001089464, -0.00308333, 0.003629456, 0.0002873224, 0.0005187924, -0.1080154, 0.9941478, 0.04570375
 140220556, -0.00981537, 0.01213591, 0.0003568175, 0.001089464, -0.002993504, 0.003972946, 0.0002083898, 0.0005187924, -0.1080111, 0.9941483, 0.04570375
 140420476, -0.009556618, 0.01277919, 0.0002043002, 0.001089464, -0.003079887, 0.004320335, -0.000401241, 0.0005187924, -0.1080079, 0.9941487, 0.04570375
 140620396, -0.009754007, 0.01291205, -0.0003961122, 0.001089464, -0.003117771, 0.003731529, -0.000289515, 0.0005187924, -0.108005, 0.9941489, 0.04570375
 140820316, -0.009893768, 0.01223585, -0.0003665888, 0.001089464, -0.003563764, 0.003934916, 0.0001280272, 0.0005187924, -0.1080025, 0.9941493, 0.04570375
 141020236, -0.01068471, 0.01213374, 0.0002716027, 0.001089464, -0.00311459, 0.003763605, -0.0003271701, 0.0005187924, -0.1080154, 0.9941478, 0.04570375
 141220156, -0.009896215, 0.01227639, -0.0003569701, 0.001089464, -0.003198057, 0.004118847, 1.858921E-05, 0.0005187924, -0.1080259, 0.9941467, 0.04570375
 141420909, -0.009838818, 0.01293635, 2.958306E-05, 0.001091626, -0.00331231, 0.004042369, 4.671453E-05, 0.000520954, -0.1080334, 0.994146, 0.04579443
 141620829, 0.08452371, 0.002119476, -0.000188072, 0.001091626, 0.1041686, -0.008697373, 0.0001475697, 0.0005187924, -0.1080393, 0.9941454, 0.04579443
 141820749, 0.5974398, -0.05505434, 0.004990402, 0.001089464, 0.3282403, -0.03285487, 0.004270466, 0.0005187924, -0.1080303, 0.9941463, 0.04570375
 142020669, 1.339208, -0.1347484, 0.02312948, 0.001089464, 0.5621002, -0.06349555, 0.01146163, 0.0005187924, -0.1079973, 0.9941489, 0.04570375
 142220589, 2.077233, -0.2187701, 0.04249179, 0.001089464, 0.7886268, -0.08369454, 0.01590474, 0.0005187924, -0.1079693, 0.9941497, 0.04570375
 142420509, 2.775852, -0.2935756, 0.05798753, 0.001089464, 0.9892973, -0.1048886, 0.02120381, 0.0005187924, -0.107938, 0.9941517, 0.04570375
 142620429, 3.2963, -0.3491233, 0.07360567, 0.001089464, 1.064725, -0.1095987, 0.02570506, 0.0005187924, -0.1078737, 0.9941573, 0.04570375
 142820349, 3.328834, -0.3492388, 0.08256957, 0.001089464, 0.991318, -0.1142857, 0.02520659, 0.0005187924, -0.1078667, 0.9941552, 0.04570375
 143020269, 3.050122, -0.3270622, 0.07817252, 0.001089464, 0.8917847, -0.09712161, 0.02324967, 0.0005187924, -0.1078293, 0.9941571, 0.04570375
 143220189, 2.710832, -0.2935392, -0.02413308, 0.001089464, 0.7813069, -0.08738197, -0.06037794, 0.0005187924, -0.1078326, 0.9941558, 0.04570375
 143420942, 2.363314, -0.2546109, -0.07235171, 0.001091626, 0.6627554, -0.06671061, 0.0351702, 0.000520954, -0.107809, 0.994158, 0.04579443
 143620862, 2.307018, -0.2311283, -0.1078341, 0.001091626, 0.9983425, -0.1090392, -0.4166996, 0.0005187924, -0.1086636, 0.9939474, 0.04579443
 143820782, 2.951487, -0.3267613, -2.359967, 0.001089464, 0.800736, -0.08576198, -1.004964, 0.0005187924, -0.1108407, 0.9903457, 0.04570375
 144020702, 2.330306, -0.2821658, -2.636962, 0.001089464, 0.6481915, -0.08945673, -0.4762297, 0.0005187924, -0.1119703, 0.9857771, 0.04570375
 144220622, 2.092886, -0.2811667, -0.8648081, 0.001089464, 0.6468299, -0.08449818, 0.03150576, 0.0005187924, -0.113185, 0.9870877, 0.04570375
 144420542, 2.063877, -0.2654814, 0.2385978, 0.001089464, 0.6078253, -0.07569501, 0.05806202, 0.0005187924, -0.1120869, 0.9893969, 0.04570375
 144620462, 1.856368, -0.2040894, -0.006603003, 0.001089464, 0.5066509, -0.05573867, -0.1497214, 0.0005187924, -0.1111528, 0.9894635, 0.04570375
 144820382, 1.516002, -0.165655, -0.6761401, 0.001089464, 0.4117248, -0.04364318, -0.2863577, 0.0005187924, -0.1126584, 0.9877264, 0.04570375
 145020302, 1.228542, -0.1396938, -0.9004561, 0.001089464, 0.3383467, -0.03514672, -0.279085, 0.0005187924, -0.1123182, 0.9860271, 0.04570375
 145220222, 1.02961, -0.1162393, -0.7662795, 0.001089464, 0.3071584, -0.02396053, -0.1633078, 0.0005187924, -0.1133944, 0.9848446, 0.04570375
 145420975, 0.9193621, -0.09219987, -0.4604589, 0.001091626, 0.2768488, -0.01298494, -0.0677877, 0.0005187924, -0.112026, 0.9846504, 0.04579443
 145620895, 0.8373042, -0.05376131, -0.1621669, 0.001091626, 0.2479565, -0.02611762, -0.0271958, 0.000520954, -0.1125429, 0.9848108, 0.04579443
 145820815, 0.7474083, -0.07246576, -0.09446207, 0.001091626, 0.2086301, -0.02531385, -0.05212348, 0.0005187924, -0.1125485, 0.9849705, 0.04579443
 146020735, 0.5980793, -0.05098013, -0.2394667, 0.001089464, 0.1639594, -0.003666263, -0.1067048, 0.0005187924, -0.1117416, 0.9844356, 0.04570375
 146220655, 0.419778, -0.03695169, -0.4348881, 0.001089464, 0.0741676, -0.01295602, -0.2049262, 0.0005187924, -0.1131217, 0.9827865, 0.04570375
 146420575, 0.2199248, -0.0375549, -0.7421426, 0.001089464, 0.04908889, -0.005462529, -0.2463046, 0.0005187924, -0.1123663, 0.9803103, 0.04570375
 146620495, 0.166427, -0.02287139, -0.6482031, 0.001089464, 0.06602407, -0.01169596, -0.09403471, 0.0005187924, -0.1138215, 0.97885, 0.04570375
 146820415, 0.2192868, -0.01934576, -0.1674332, 0.001089464, 0.08204238, 0.004561113, 0.04148292, 0.0005187924, -0.1117782, 0.9793486, 0.04570375
 147020335, 0.2388168, -0.003054706, 0.03751389, 0.001089464, 0.06692378, -0.01846367, -0.01371874, 0.0005187924, -0.115125, 0.9789267, 0.04570375
 147220255, 0.1982274, -0.0576007, -0.03581243, 0.001089464, 0.07094725, 0.0001545167, 0.01670503, 0.0005187924, -0.1155635, 0.9791168, 0.04570375
 147420175, 0.19456, -0.01818486, 0.05158891, 0.001089464, 0.04735964, -0.008610517, 0.01011892, 0.0005187924, -0.1149488, 0.9794773, 0.04570375
 147620928, 0.141819, -0.02321412, 0.007692957, 0.001091626, 0.03177232, -0.01305031, 0.0008312888, 0.000520954, -0.11618, 0.9794618, 0.04579443
 147820848, 0.1554749, -0.02214731, 0.1494299, 0.001091626, 0.04201929, -0.0009323817, 0.07296503, 0.0005187924, -0.1165127, 0.9805812, 0.04579443
 148020768, 0.2108266, -0.01573927, 0.3911597, 0.001089464, 0.08999174, 0.003238084, 0.1864553, 0.0005187924, -0.1160924, 0.9826233, 0.04570375
 148220688, 0.2661476, 0.006652977, 0.5203568, 0.001089464, 0.07243874, 0.005408118, 0.1189062, 0.0005187924, -0.1161488, 0.9840099, 0.04570375
 148420608, 0.191285, 0.006133351, 0.175188, 0.001089464, 0.03504103, 0.01088218, -0.04062476, 0.0005187924, -0.1159892, 0.9839103, 0.04570375
 148620528, 0.07845084, 0.007149026, -0.1768792, 0.001089464, 0.01264421, 0.003456071, -0.07804237, 0.0005187924, -0.1167232, 0.9831954, 0.04570375
 148820448, 0.02252171, 0.009381404, -0.2785072, 0.001089464, -0.006791772, 0.01657255, -0.1110168, 0.0005187924, -0.1162776, 0.9824407, 0.04570375
 149020368, -0.02171264, 0.02894812, -0.1206972, 0.001089464, -0.003283345, 0.006150967, 0.05474951, 0.0005187924, -0.1161128, 0.9827328, 0.04570375
 149220288, -0.06696671, 0.008216978, 0.183985, 0.001089464, -0.05000377, 0.007257222, 0.09630384, 0.0005187924, -0.1174948, 0.9831831, 0.04570375
 149420208, -0.1412646, 0.01640608, 0.457643, 0.001089464, -0.01157994, -0.001211666, 0.3268574, 0.0005187924, -0.1163056, 0.9855456, 0.04570375
 149620961, 0.08244494, 0.01500314, 1.791193, 0.001091626, 0.0639312, 0.01124663, 0.8374746, 0.000520954, -0.1157684, 0.9909019, 0.04579443
 149820881, 0.1702013, 0.05481666, 2.514295, 0.001091626, 0.02100282, 0.01656691, 0.6111935, 0.0005187924, -0.1196055, 0.9925997, 0.04579443
 150020801, 0.02039442, 0.07616937, 1.484777, 0.001089464, -0.01196646, 0.04327246, 0.2255722, 0.0005187924, -0.1192758, 0.9928573, 0.04570375
 150220721, -0.05616851, 0.1414697, 0.3282326, 0.001089464, -0.02776623, 0.03863874, -0.07502872, 0.0005187924, -0.1177957, 0.9930328, 0.04570375
 150420641, -0.0753008, 0.09532411, -0.08401518, 0.001089464, -0.005312209, 0.02004995, 0.06409741, 0.0005187924, -0.1167139, 0.9931654, 0.04570375
 150620561, -0.001442426, 0.05747432, 0.3208099, 0.001089464, 0.008990703, 0.01774435, 0.1553099, 0.0005187924, -0.1128874, 0.99356, 0.04570375
 150820481, 0.04059462, 0.05849507, 0.5922448, 0.001089464, 0.01188336, 0.006800781, 0.2344456, 0.0005187924, -0.1119088, 0.9934003, 0.04570375
 151020401, 0.04298403, 0.0329821, 0.6872113, 0.001089464, 0.01510008, 0.005370879, 0.1933412, 0.0005187924, -0.1115313, 0.993018, 0.04570375
 151220321, -0.05876171, 0.05915794, 0.3733267, 0.001089464, -0.09752264, 0.03652636, -0.03191329, 0.0005187924, -0.1080596, 0.9933735, 0.04570375
 151420241, -0.5865462, 0.1694123, -0.436311, 0.001089464, -0.3276916, 0.06995013, -0.2705613, 0.0005187924, -0.1069382, 0.9940504, 0.04570375
 151620161, -1.106898, 0.2098969, -0.6617234, 0.001089464, -0.3341826, 0.05015889, -0.06694347, 0.0005187924, -0.1065022, 0.9942533, 0.04570375
 151820914, -0.922224, 0.138008, 0.240592, 0.001091626, -0.2089184, 0.03743468, 0.2882317, 0.000520954, -0.1048762, 0.9940911, 0.04579443
 152020834, -0.5758368, 0.1092023, 1.082036, 0.001091626, -0.1370993, 0.02902375, 0.3927006, 0.0005187924, -0.1031952, 0.9930403, 0.04579443
 152220754, -0.3827491, 0.08980335, 1.127939, 0.001089464, -0.09732707, 0.01933896, 0.275512, 0.0005187924, -0.1026933, 0.9915799, 0.04570375
 152420674, -0.2821661, 0.05652077, 0.7412314, 0.001089464, -0.0741571, 0.01755105, 0.1665033, 0.0005187924, -0.1018742, 0.9904966, 0.04570375
 152620594, -0.1962952, 0.05458107, 0.4781426, 0.001089464, -0.0500426, 0.01513959, 0.1092714, 0.0005187924, -0.1009046, 0.9896924, 0.04570375
 152820514, -0.1192081, 0.04803818, 0.2394796, 0.001089464, -0.0169752, 0.01807676, 0.0233857, 0.0005187924, -0.100144, 0.9895213, 0.04570375
 153020434, -0.05220733, 0.04462739, 0.1149312, 0.001089464, -0.004234063, 0.006375822, 0.04681879, 0.0005187924, -0.1003027, 0.9891281, 0.04570375
 153220354, -0.008888606, 0.02672386, 0.1671123, 0.001089464, 0.00271941, 0.01535744, 0.08331522, 0.0005187924, -0.09768962, 0.9888644, 0.04570375
 153420274, 0.0188526, 0.05668615, 0.2750827, 0.001089464, 0.01375217, 0.02449855, 0.08426403, 0.0005187924, -0.09690796, 0.9881528, 0.04570375
 153620194, 0.04934419, 0.07188606, 0.252157, 0.001089464, 0.02377047, 0.0227328, 0.06675767, 0.0005187924, -0.09503888, 0.9877097, 0.04570375
 153820947, 0.0817657, 0.06234853, 0.1428328, 0.001091626, 0.02313143, 0.00553403, 0.02209971, 0.000520954, -0.09484561, 0.9875203, 0.04579443
 154020867, 0.08498536, 0.01101778, 0.08017458, 0.001091626, 0.03275001, 0.01074152, 0.0003831284, 0.0005187924, -0.09424952, 0.9874181, 0.04579443
 154220787, 0.1060045, 0.0213503, -0.02384438, 0.001089464, 0.03034041, 0.01128744, 0.008229109, 0.0005187924, -0.09363198, 0.9875535, 0.04570375
 154420707, 0.09861185, 0.01990065, -0.06335958, 0.001089464, 0.03306157, -0.006371149, -0.06398863, 0.0005187924, -0.09435712, 0.9880415, 0.04570375
 154620627, 0.1057714, 0.004411293, -0.1810357, 0.001089464, 0.02833735, 0.01275846, -0.03125847, 0.0005187924, -0.09249292, 0.9885715, 0.04570375
 154820547, 0.09731361, 0.02865713, -0.01653118, 0.001089464, 0.03131168, 0.008964929, 0.0355215, 0.0005187924, -0.09342949, 0.9882891, 0.04570375
 155020467, 0.1096201, 0.0260272, 0.07519546, 0.001089464, 0.04490338, 0.007208703, 0.006595071, 0.0005187924, -0.09280154, 0.9882805, 0.04570375
 155220387, 0.1173186, 0.0184761, -0.02311645, 0.001089464, 0.03101224, -0.008577404, -0.0001365115, 0.0005187924, -0.09241661, 0.9884737, 0.04570375
 155420307, 0.09624287, -0.004190037, -0.03430298, 0.001089464, 0.02457711, 0.003112834, -0.02975456, 0.0005187924, -0.09294547, 0.9886563, 0.04570375
 155620227, 0.09753719, 0.01021708, -0.05386857, 0.001089464, 0.03363644, 0.01058316, -0.0117909, 0.0005187924, -0.09131433, 0.9888682, 0.04570375
 155820147, 0.1036274, 0.01082183, -0.04328634, 0.001089464, 0.03307141, 0.003572363, -0.04086585, 0.0005187924, -0.09228823, 0.9889763, 0.04570375
 156020900, 0.1060503, 0.01071418, -0.09783056, 0.001091626, 0.02800797, 0.01609753, -0.05628019, 0.000520954, -0.09117108, 0.9893695, 0.04579443
 156220820, 0.1056453, 0.02686684, -0.141791, 0.001091626, 0.03339532, -0.002131573, 0.0004421372, 0.0005187924, -0.09221338, 0.9894351, 0.04579443
 156420740, 0.105255, 0.005006655, 0.009263348, 0.001089464, 0.03275672, 0.008160653, -0.007051412, 0.0005187924, -0.09154288, 0.9894648, 0.04570375
 156620660, 0.1055069, 0.02451152, 0.006164974, 0.001089464, 0.03432827, 0.01048156, -0.05707231, 0.0005187924, -0.09149547, 0.989556, 0.04570375
