TimeUS,CGpN,CGpE,CGpD,CGpe,PGpN,PGpE,PGpD,PGpe
 77980462, 0, 0, 0, 0.01, 0, 0, 0, 0
 78020446, 0, 0, 0, 0.01, 0, 0, 0, 0.01
 78220366, 0, 0, 0, 0.01, 0, 0, 0, 0.01
 78420286, 0, 0, 0, 0.01, 0, 0, 0, 0.01
 78620206, 0, 0, 0, 0.01, 0, 0, 0, 0.01
 78820959, 0, 0, 0, 0.01, 0, 0, 0, 0.01
 79020879, 0, 0, 0, 0.01, 0, 0, 0, 0.01
 79220799, 0, 0, 0, 0.01, 0, 0, 0, 0.01
 79420719, 0, 0, 0, 0.01, 0, 0, 0, 0.01
 79620639, 0, 0, 0, 0.01, 0, 0, 0, 0.01
 79820559, 0, 0, 0, 0.01, 0, 0, 0, 0.01
 80020479, 0, 0, 0, 0.01, 0, 0, 0, 0.01
 80220399, 0, 0, 0, 0.01, 0, 0, 0, 0.01
 80420319, 0, 0, 0, 0.01, 0, 0, 0, 0.01
 80620239, 0, 0, 0, 0.01, 0, 0, 0, 0.01
 80820159, 0, 0, 0, 0.01, 0, 0, 0, 0.01
 81020912, 0, 0, 0, 0.01, 0, 0, 0, 0.01
 81220832, 0, 0, 0, 0.01, 0, 0, 0, 0.01
 81420752, 0, 0, 0, 0.01, 0, 0, 0, 0.01
 81620672, 0, 0, 0, 0.01, 0, 0, 0, 0.01
 81820592, 0, 0, 0, 0.01, 0, 0, 0, 0.01
 82020512, 0, 0, 0, 0.01, 0, 0, 0, 0.01
 82220432, 0, 0, 0, 0.01, 0, 0, 0, 0.01
 82420352, 0, 0, 0, 0.01, 0, 0, 0, 0.01
 82620272, 0, 0, 0, 0.01, 0, 0, 0, 0.01
 82820192, 0, 0, 0, 0.01, 0, 0, 0, 0.01
 83020945, 0, 0, 0, 0.01, 0, 0, 0, 0.01
 83220865, 0, 0, 0, 0.01, 0, 0, 0, 0.01
 83420785, 0, 0, 0, 0.01, 0, 0, 0, 0.01
 83620705, 0, 0, 0, 0.01, 0, 0, 0, 0.01
 83820625, 0, 0, 0, 0.01, 0, 0, 0, 0.01
 84020545, 0, 0, 0, 0.01, 0, 0, 0, 0.01
 84220465, 0, 0, 0, 0.01, 0, 0, 0, 0.01
 84420385, 0, 0, 0, 0.01, 0, 0, 0, 0.01
 84620305, 0, 0, 0, 0.01, 0, 0, 0, 0.01
 84820225, 0, 0, 0, 0.01, 0, 0, 0, 0.01
 85020145, 0, 0, 0, 0.01, 0, 0, 0, 0.01
 85220898, 0, 0, 0, 0.01, 0, 0, 0, 0.01
 85420818, 0, 0, 0, 0.01, 0, 0, 0, 0.01
 85620738, 0, 0, 0, 0.01, 0, 0, 0, 0.01
 85820658, 0, 0, 0, 0.01, 0, 0, 0, 0.01
 86020578, 0, 0, 0, 0.01, 0, 0, 0, 0.01
 86220498, 0, 0, 0, 0.01, 0, 0, 0, 0.01
 86420418, 0, 0, 0, 0.01, 0, 0, 0, 0.01
 86620338, 0, 0, 0, 0.01, 0, 0, 0, 0.01
 86820258, 0, 0, 0, 0.01, 0, 0, 0, 0.01
 87020178, 0, 0, 0, 0.01, 0, 0, 0, 0.01
 87220931, 0, 0, 0, 0.01, 0, 0, 0, 0.01
 87420851, 0, 0, 0, 0.01, 0, 0, 0, 0.01
 87620771, 0, 0, 0, 0.01, 0, 0, 0, 0.01
 87820691, 0, 0, 0, 0.01, 0, 0, 0, 0.01
 88020611, 0, 0, 0, 0.01, 0, 0, 0, 0.01
 88220531, 0, 0, 0, 0.01, 0, 0, 0, 0.01
 88420451, 0, 0, 0, 0.01, 0, 0, 0, 0.01
 88620371, 0, 0, 0, 0.01, 0, 0, 0, 0.01
 88820291, 0, 0, 0, 0.01, 0, 0, 0, 0.01
 89020211, 0, 0, 0, 0.01, 0, 0, 0, 0.01
 89220964, 0, 0, 0, 0.01, 0, 0, 0, 0.01
 89420884, 0, 0, 0, 0.01, 0, 0, 0, 0.01
 89620804, 0, 0, 0, 0.01, 0, 0, 0, 0.01
 89820724, 0, 0, 0, 0.01, 0, 0, 0, 0.01
 90020644, 0, 0, 0, 0.01, 0, 0, 0, 0.01
 90220564, 0, 0, 0, 0.01, 0, 0, 0, 0.01
 90420484, 0, 0, 0, 0.01, 0, 0, 0, 0.01
 90620404, 0, 0, 0, 0.01, 0, 0, 0, 0.01
 90820324, 0, 0, 0, 0.01, 0, 0, 0, 0.01
 91020244, 0, 0, 0, 0.01, 0, 0, 0, 0.01
 91220164, 0, 0, 0, 0.01, 0, 0, 0, 0.01
 91420917, 0, 0, 0, 0.01, 0, 0, 0, 0.01
 91620837, 0, 0, 0, 0.01, 0, 0, 0, 0.01
 91820757, 0, 0, 0, 0.01, 0, 0, 0, 0.01
 92020677, 0, 0, 0, 0.01, 0, 0, 0, 0.01
 92220597, 0, 0, 0, 0.01, 0, 0, 0, 0.01
 92420517, 0, 0, 0, 0.01, 0, 0, 0, 0.01
 92620437, 0, 0, 0, 0.01, 0, 0, 0, 0.01
 92820357, 0, 0, 0, 0.01, 0, 0, 0, 0.01
 93020277, 0, 0, 0, 0.01, 0, 0, 0, 0.01
 93220197, 0, 0, 0, 0.01, 0, 0, 0, 0.01
 93420950, 0, 0, 0, 0.01, 0, 0, 0, 0.01
 93620870, 0, 0, 0, 0.01, 0, 0, 0, 0.01
 93820790, 0, 0, 0, 0.01, 0, 0, 0, 0.01
 94020710, 0, 0, 0, 0.01, 0, 0, 0, 0.01
 94220630, 0, 0, 0, 0.01, 0, 0, 0, 0.01
 94420550, 0, 0, 0, 0.01, 0, 0, 0, 0.01
 94620470, 0, 0, 0, 0.01, 0, 0, 0, 0.01
 94820390, 0, 0, 0, 0.01, 0, 0, 0, 0.01
 95020310, 0, 0, 0, 0.01, 0, 0, 0, 0.01
 95220230, 0, 0, 0, 0.01, 0, 0, 0, 0.01
 95420150, 0, 0, 0, 0.01, 0, 0, 0, 0.01
 95620903, 0, 0, 0, 0.01, 0, 0, 0, 0.01
 95820823, 0, 0, 0, 0.01, 0, 0, 0, 0.01
 96020743, 0, 0, 0, 0.01, 0, 0, 0, 0.01
 96220663, 0, 0, 0, 0.01, 0, 0, 0, 0.01
 96420583, 0, 0, 0, 0.01, 0, 0, 0, 0.01
 96620503, 0, 0, 0, 0.01, 0, 0, 0, 0.01
 96820423, 0, 0, 0, 0.01, 0, 0, 0, 0.01
 97020343, 0, 0, 0, 0.01, 0, 0, 0, 0.01
 97220263, 0, 0, 0, 0.01, 0, 0, 0, 0.01
 97420183, 0, 0, 0, 0.01, 0, 0, 0, 0.01
 97620936, 0, 0, 0, 0.01, 0, 0, 0, 0.01
 97820856, 0, 0, 0, 0.01, 0, 0, 0, 0.01
 98020776, 0, 0, 0, 0.01, 0, 0, 0, 0.01
 98220696, 0, 0, 0, 0.01, 0, 0, 0, 0.01
 98420616, 0, 0, 0, 0.01, 0, 0, 0, 0.01
 98620536, 0, 0, 0, 0.01, 0, 0, 0, 0.01
 98820456, 0, 0, 0, 0.01, 0, 0, 0, 0.01
 99020376, 0, 0, 0, 0.01, 0, 0, 0, 0.01
 99220296, 0, 0, 0, 0.01, 0, 0, 0, 0.01
 99420216, 0, 0, 0, 0.01, 0, 0, 0, 0.01
 99620969, 0, 0, 0, 0.01, 0, 0, 0, 0.01
 99820889, 0, 0, 0, 0.01, 0, 0, 0, 0.01
 100020809, 0, 0, 0, 0.01, 0, 0, 0, 0.01
 100220729, 0, 0, 0, 0.01, 0, 0, 0, 0.01
 100420649, 0, 0, 0, 0.01, 0, 0, 0, 0.01
 100620569, 0, 0, 0, 0.01, 0, 0, 0, 0.01
 100820489, 0, 0, 0, 0.01, 0, 0, 0, 0.01
 101020409, 0, 0, 0, 0.01, 0, 0, 0, 0.01
 101220329, 0, 0, 0, 0.01, 0, 0, 0, 0.01
 101420249, 0, 0, 0, 0.01, 0, 0, 0, 0.01
 101620169, 0, 0, 0, 0.01, 0, 0, 0, 0.01
 101820922, 0, 0, 0, 0.01, 0, 0, 0, 0.01
 102020842, 0, 0, 0, 0.01, 0, 0, 0, 0.01
 102220762, 0, 0, 0, 0.01, 0, 0, 0, 0.01
 102420682, 0, 0, 0, 0.01, 0, 0, 0, 0.01
 102620602, 0, 0, 0, 0.01, 0, 0, 0, 0.01
 102820522, 0, 0, 0, 0.01, 0, 0, 0, 0.01
 103020442, 0, 0, 0, 0.01, 0, 0, 0, 0.01
 103220362, 0, 0, 0, 0.01, 0, 0, 0, 0.01
 103420282, 0, 0, 0, 0.01, 0, 0, 0, 0.01
 103620202, 0, 0, 0, 0.01, 0, 0, 0, 0.01
 103820955, 0, 0, 0, 0.01, 0, 0, 0, 0.01
 104020875, 0, 0, 0, 0.01, 0, 0, 0, 0.01
 104220795, 0, 0, 0, 0.01, 0, 0, 0, 0.01
 104420715, 0, 0, 0, 0.01, 0, 0, 0, 0.01
 104620635, 0, 0, 0, 0.01, 0, 0, 0, 0.01
 104820555, 0, 0, 0, 0.01, 0, 0, 0, 0.01
 105020475, 0, 0, 0, 0.01, 0, 0, 0, 0.01
 105220395, 0, 0, 0, 0.01, 0, 0, 0, 0.01
 105420315, 0, 0, 0, 0.01, 0, 0, 0, 0.01
 105620235, 0, 0, 0, 0.01, 0, 0, 0, 0.01
 105820155, 0, 0, 0, 0.01, 0, 0, 0, 0.01
 106020908, 0, 0, 0, 0.01, 0, 0, 0, 0.01
 106220828, 0, 0, 0, 0.01, 0, 0, 0, 0.01
 106420748, 0, 0, 0, 0.01, 0, 0, 0, 0.01
 106620668, 0, 0, 0, 0.01, 0, 0, 0, 0.01
 106820588, 0, 0, 0, 0.01, 0, 0, 0, 0.01
 107020508, 0, 0, 0, 0.01, 0, 0, 0, 0.01
 107220428, 0, 0, 0, 0.01, 0, 0, 0, 0.01
 107420348, 0, 0, 0, 0.01, 0, 0, 0, 0.01
 107620268, 0, 0, 0, 0.01, 0, 0, 0, 0.01
 107820188, 0, 0, 0, 0.01, 0, 0, 0, 0.01
 108020941, 0, 0, 0, 0.01, 0, 0, 0, 0.01
 108220861, 0, 0, 0, 0.01, 0, 0, 0, 0.01
 108420781, 0, 0, 0, 0.01, 0, 0, 0, 0.01
 108620701, 0, 0, 0, 0.01, 0, 0, 0, 0.01
 108820621, 0, 0, 0, 0.01, 0, 0, 0, 0.01
 109020541, 0, 0, 0, 0.01, 0, 0, 0, 0.01
 109220461, 0, 0, 0, 0.01, 0, 0, 0, 0.01
 109420381, 0, 0, 0, 0.01, 0, 0, 0, 0.01
 109620301, 0, 0, 0, 0.01, 0, 0, 0, 0.01
 109820221, 0, 0, 0, 0.01, 0, 0, 0, 0.01
 110020974, 0, 0, 0, 0.01, 0, 0, 0, 0.01
 110220894, 0, 0, 0, 0.01, 0, 0, 0, 0.01
 110420814, 0, 0, 0, 0.01, 0, 0, 0, 0.01
 110620734, 0, 0, 0, 0.01, 0, 0, 0, 0.01
 110820654, 0, 0, 0, 0.01, 0, 0, 0, 0.01
 111020574, 0, 0, 0, 0.01, 0, 0, 0, 0.01
 111220494, 0, 0, 0, 0.01, 0, 0, 0, 0.01
 111420414, 0, 0, 0, 0.01, 0, 0, 0, 0.01
 111620334, 0, 0, 0, 0.01, 0, 0, 0, 0.01
 111820254, 0, 0, 0, 0.01, 0, 0, 0, 0.01
 112020174, 0, 0, 0, 0.01, 0, 0, 0, 0.01
 112220927, 0, 0, 0, 0.01, 0, 0, 0, 0.01
 112420847, 0, 0, 0, 0.01, 0, 0, 0, 0.01
 112620767, 0, 0, 0, 0.01, 0, 0, 0, 0.01
 112820687, 0, 0, 0, 0.01, 0, 0, 0, 0.01
 113020607, 0, 0, 0, 0.01, 0, 0, 0, 0.01
 113220527, 0, 0, 0, 0.01, 0, 0, 0, 0.01
 113420447, 0, 0, 0, 0.01, 0, 0, 0, 0.01
 113620367, 0, 0, 0, 0.01, 0, 0, 0, 0.01
 113820287, 0, 0, 0, 0.01, 0, 0, 0, 0.01
 114020207, 0, 0, 0, 0.01, 0, 0, 0, 0.01
 114220960, 0, 0, 0, 0.01, 0, 0, 0, 0.01
 114420880, 0, 0, 0, 0.01, 0, 0, 0, 0.01
 114620800, 0, 0, 0, 0.01, 0, 0, 0, 0.01
 114820720, 0, 0, 0, 0.01, 0, 0, 0, 0.01
 115020640, 0, 0, 0, 0.01, 0, 0, 0, 0.01
 115220560, 0, 0, 0, 0.01, 0, 0, 0, 0.01
 115420480, 0, 0, 0, 0.01, 0, 0, 0, 0.01
 115620400, 0, 0, 0, 0.01, 0, 0, 0, 0.01
 115820320, 0, 0, 0, 0.01, 0, 0, 0, 0.01
 116020240, 0, 0, 0, 0.01, 0, 0, 0, 0.01
 116220160, 0, 0, 0, 0.01, 0, 0, 0, 0.01
 116420913, 0, 0, 0, 0.01, 0, 0, 0, 0.01
 116620833, 0, 0, 0, 0.01, 0, 0, 0, 0.01
 116820753, 0, 0, 0, 0.01, 0, 0, 0, 0.01
 117020673, 0, 0, 0, 0.01, 0, 0, 0, 0.01
 117220593, 0, 0, 0, 0.01, 0, 0, 0, 0.01
 117420513, 0, 0, 0, 0.01, 0, 0, 0, 0.01
 117620433, 0, 0, 0, 0.01, 0, 0, 0, 0.01
 117820353, 0, 0, 0, 0.01, 0, 0, 0, 0.01
 118020273, 0, 0, 0, 0.01, 0, 0, 0, 0.01
 118220193, 0, 0, 0, 0.01, 0, 0, 0, 0.01
 118420946, 0, 0, 0, 0.01, 0, 0, 0, 0.01
 118620866, 0, 0, 0, 0.01, 0, 0, 0, 0.01
 118820786, 0, 0, 0, 0.01, 0, 0, 0, 0.01
 119020706, 0, 0, 0, 0.01, 0, 0, 0, 0.01
 119220626, 0, 0, 0, 0.01, 0, 0, 0, 0.01
 119420546, 0, 0, 0, 0.01, 0, 0, 0, 0.01
 119620466, 0, 0, 0, 0.01, 0, 0, 0, 0.01
 119820386, 0, 0, 0, 0.01, 0, 0, 0, 0.01
 120020306, 0, 0, 0, 0.01, 0, 0, 0, 0.01
 120220226, 0, 0, 0, 0.01, 0, 0, 0, 0.01
 120420146, 0, 0, 0, 0.01, 0, 0, 0, 0.01
 120620899, 0, 0, 0, 0.01, 0, 0, 0, 0.01
 120820819, 0, 0, 0, 0.01, 0, 0, 0, 0.01
 121020739, 0, 0, 0, 0.01, 0, 0, 0, 0.01
 121220659, 0, 0, 0, 0.01, 0, 0, 0, 0.01
 121420579, 0, 0, 0, 0.01, 0, 0, 0, 0.01
 121620499, 0, 0, 0, 0.01, 0, 0, 0, 0.01
 121820419, 0, 0, 0, 0.01, 0, 0, 0, 0.01
 122020339, 0, 0, 0, 0.01, 0, 0, 0, 0.01
 122220259, 0, 0, 0, 0.01, 0, 0, 0, 0.01
 122420179, 0, 0, 0, 0.01, 0, 0, 0, 0.01
 122620932, 0, 0, 0, 0.01, 0, 0, 0, 0.01
 122820852, 0, 0, 0, 0.01, 0, 0, 0, 0.01
 123020772, 0, 0, 0, 0.01, 0, 0, 0, 0.01
 123220692, 0, 0, 0, 0.01, 0, 0, 0, 0.01
 123420612, 0, 0, 0, 0.01, 0, 0, 0, 0.01
 123620532, 0, 0, 0, 0.01, 0, 0, 0, 0.01
 123820452, 0, 0, 0, 0.01, 0, 0, 0, 0.01
 124020372, 0, 0, 0, 0.01, 0, 0, 0, 0.01
 124220292, 0, 0, 0, 0.01, 0, 0, 0, 0.01
 124420212, 0, 0, 0, 0.01, 0, 0, 0, 0.01
 124620965, 0, 0, 0, 0.01, 0, 0, 0, 0.01
 124820885, 0, 0, 0, 0.01, 0, 0, 0, 0.01
 125020805, 0, 0, 0, 0.01, 0, 0, 0, 0.01
 125220725, 0, 0, 0, 0.01, 0, 0, 0, 0.01
 125420645, 0, 0, 0, 0.01, 0, 0, 0, 0.01
 125620565, 0, 0, 0, 0.01, 0, 0, 0, 0.01
 125820485, 0, 0, 0, 0.01, 0, 0, 0, 0.01
 126020405, 0, 0, 0, 0.01, 0, 0, 0, 0.01
 126220325, 0, 0, 0, 0.01, 0, 0, 0, 0.01
 126420245, 0, 0, 0, 0.01, 0, 0, 0, 0.01
 126620165, 0, 0, 0, 0.01, 0, 0, 0, 0.01
 126820918, 0, 0, 0, 0.01, 0, 0, 0, 0.01
 127020838, 0, 0, 0, 0.01, 0, 0, 0, 0.01
 127220758, 0, 0, 0, 0.01, 0, 0, 0, 0.01
 127420678, 0, 0, 0, 0.01, 0, 0, 0, 0.01
 127620598, 0, 0, 0, 0.01, 0, 0, 0, 0.01
 127820518, 0, 0, 0, 0.01, 0, 0, 0, 0.01
 128020438, 0, 0, 0, 0.01, 0, 0, 0, 0.01
 128220358, 0, 0, 0, 0.01, 0, 0, 0, 0.01
 128420278, 0, 0, 0, 0.01, 0, 0, 0, 0.01
 128620198, 0, 0, 0, 0.01, 0, 0, 0, 0.01
 128820951, 0, 0, 0, 0.01, 0, 0, 0, 0.01
 129020871, 0, 0, 0, 0.01, 0, 0, 0, 0.01
 129220791, 0, 0, 0, 0.01, 0, 0, 0, 0.01
 129420711, 0, 0, 0, 0.01, 0, 0, 0, 0.01
 129620631, 0, 0, 0, 0.01, 0, 0, 0, 0.01
 129820551, 0, 0, 0, 0.01, 0, 0, 0, 0.01
 130020471, 0, 0, 0, 0.01, 0, 0, 0, 0.01
 130220391, 0, 0, 0, 0.01, 0, 0, 0, 0.01
 130420311, 0, 0, 0, 0.01, 0, 0, 0, 0.01
 130620231, 0, 0, 0, 0.01, 0, 0, 0, 0.01
 130820151, 0, 0, 0, 0.01, 0, 0, 0, 0.01
 131020904, 0, 0, 0, 0.01, 0, 0, 0, 0.01
 131220824, 0, 0, 0, 0.01, 0, 0, 0, 0.01
 131420744, 0, 0, 0, 0.01, 0, 0, 0, 0.01
 131620664, 0, 0, 0, 0.01, 0, 0, 0, 0.01
 131820584, 0, 0, 0, 0.01, 0, 0, 0, 0.01
 132020504, 0, 0, 0, 0.01, 0, 0, 0, 0.01
 132220424, 0, 0, 0, 0.01, 0, 0, 0, 0.01
 132420344, 0, 0, 0, 0.01, 0, 0, 0, 0.01
 132620264, 0, 0, 0, 0.01, 0, 0, 0, 0.01
 132820184, 0, 0, 0, 0.01, 0, 0, 0, 0.01
 133020937, 0, 0, 0, 0.01, 0, 0, 0, 0.01
 133220857, 0, 0, 0, 0.01, 0, 0, 0, 0.01
 133420777, 0, 0, 0, 0.01, 0, 0, 0, 0.01
 133620697, 0, 0, 0, 0.01, 0, 0, 0, 0.01
 133820617, 0, 0, 0, 0.01, 0, 0, 0, 0.01
 134020537, 0, 0, 0, 0.01, 0, 0, 0, 0.01
 134220457, 0, 0, 0, 0.01, 0, 0, 0, 0.01
 134420377, 0, 0, 0, 0.01, 0, 0, 0, 0.01
 134620297, 0, 0, 0, 0.01, 0, 0, 0, 0.01
 134820217, 0, 0, 0, 0.01, 0, 0, 0, 0.01
 135020970, 0, 0, 0, 0.01, 0, 0, 0, 0.01
 135220890, 0, 0, 0, 0.01, 0, 0, 0, 0.01
 135420810, 0, 0, 0, 0.01, 0, 0, 0, 0.01
 135620730, 0, 0, 0, 0.01, 0, 0, 0, 0.01
 135820650, 0, 0, 0, 0.01, 0, 0, 0, 0.01
 136020570, 0, 0, 0, 0.01, 0, 0, 0, 0.01
 136220490, 0, 0, 0, 0.01, 0, 0, 0, 0.01
 136420410, 0, 0, 0, 0.01, 0, 0, 0, 0.01
 136620330, 0, 0, 0, 0.01, 0, 0, 0, 0.01
 136820250, 0, 0, 0, 0.01, 0, 0, 0, 0.01
 137020170, 0, 0, 0, 0.01, 0, 0, 0, 0.01
 137220923, 0, 0, 0, 0.01, 0, 0, 0, 0.01
 137420843, 0, 0, 0, 0.01, 0, 0, 0, 0.01
 137620763, 0, 0, 0, 0.01, 0, 0, 0, 0.01
 137820683, 0, 0, 0, 0.01, 0, 0, 0, 0.01
 138020603, 0, 0, 0, 0.01, 0, 0, 0, 0.01
 138220523, 0, 0, 0, 0.01, 0, 0, 0, 0.01
 138420443, 0, 0, 0, 0.01, 0, 0, 0, 0.01
 138620363, 0, 0, 0, 0.01, 0, 0, 0, 0.01
 138820283, 0, 0, 0, 0.01, 0, 0, 0, 0.01
 139020203, 0, 0, 0, 0.01, 0, 0, 0, 0.01
 139220956, 0, 0, 0, 0.01, 0, 0, 0, 0.01
 139420876, 0, 0, 0, 0.01, 0, 0, 0, 0.01
 139620796, 0, 0, 0, 0.01, 0, 0, 0, 0.01
 139820716, 0, 0, 0, 0.01, 0, 0, 0, 0.01
 140020636, 0, 0, 0, 0.01, 0, 0, 0, 0.01
 140220556, 0, 0, 0, 0.01, 0, 0, 0, 0.01
 140420476, 0, 0, 0, 0.01, 0, 0, 0, 0.01
 140620396, 0, 0, 0, 0.01, 0, 0, 0, 0.01
 140820316, 0, 0, 0, 0.01, 0, 0, 0, 0.01
 141020236, 0, 0, 0, 0.01, 0, 0, 0, 0.01
 141220156, 0, 0, 0, 0.01, 0, 0, 0, 0.01
 141420909, 0, 0, 0, 0.01, 0, 0, 0, 0.01
 141620829, 0, 0, 0, 0.01, 0, 0, 0, 0.01
 141820749, 0.082, -0.008, 0, 0.01, 0, 0, 0, 0.01
 142020669, 0.54, -0.056, 0.005, 0.01, 0.082, -0.008, 0, 0.01
 142220589, 1.469, -0.154, 0.024, 0.01, 0.54, -0.056, 0.005, 0.01
 142420509, 2.86, -0.301, 0.056, 0.01, 1.469, -0.154, 0.024, 0.01
 142620429, 4.68, -0.491, 0.1, 0.01, 2.86, -0.301, 0.056, 0.01
 142820349, 6.794, -0.7130001, 0.155, 0.01, 4.68, -0.491, 0.1, 0.01
 143020269, 8.861, -0.932, 0.215, 0.01, 6.794, -0.7130001, 0.155, 0.01
 143220189, 10.742, -1.128, 0.271, 0.01, 8.861, -0.932, 0.215, 0.01
 143420942, 12.401, -1.307, 0.23, 0.01, 10.742, -1.128, 0.271, 0.01
 143620862, 13.837, -1.454, 0.228, 0.01, 12.401, -1.307, 0.23, 0.01
 143820782, 15.334, -1.609, 0.141, 0.01, 13.837, -1.454, 0.228, 0.01
 144020702, 17.151, -1.815, -1.663, 0.01, 15.334, -1.609, 0.141, 0.01
 144220622, 18.551, -2.002, -3.13, 0.01, 17.151, -1.815, -1.663, 0.01
 144420542, 19.865, -2.18, -3.468, 0.01, 18.551, -2.002, -3.13, 0.01
 144620462, 21.155, -2.347, -3.275, 0.01, 19.865, -2.18, -3.468, 0.01
 144820382, 22.295, -2.468, -3.327, 0.01, 21.155, -2.347, -3.275, 0.01
 145020302, 23.219, -2.572, -3.812, 0.01, 22.295, -2.468, -3.327, 0.01
 145220222, 23.972, -2.672, -4.368, 0.01, 23.219, -2.572, -3.812, 0.01
 145420975, 24.61, -2.753, -4.803, 0.01, 23.972, -2.672, -4.368, 0.01
 145620895, 25.163, -2.829, -5.074, 0.01, 24.61, -2.753, -4.803, 0.01
 145820815, 25.673, -2.877, -5.156, 0.01, 25.163, -2.829, -5.074, 0.01
 146020735, 26.13, -2.929, -5.219, 0.01, 25.673, -2.877, -5.156, 0.01
 146220655, 26.492, -2.957, -5.389, 0.01, 26.13, -2.929, -5.219, 0.01
 146420575, 26.729, -2.995, -5.687, 0.01, 26.492, -2.957, -5.389, 0.01
 146620495, 26.869, -3.029, -6.182, 0.01, 26.729, -2.995, -5.687, 0.01
 146820415, 26.984, -3.053, -6.543, 0.01, 26.869, -3.029, -6.182, 0.01
 147020335, 27.13, -3.067, -6.603, 0.01, 26.984, -3.053, -6.543, 0.01
 147220255, 27.274, -3.081, -6.606, 0.01, 27.13, -3.067, -6.603, 0.01
 147420175, 27.395, -3.127, -6.632, 0.01, 27.274, -3.081, -6.606, 0.01
 147620928, 27.509, -3.156, -6.602, 0.01, 27.395, -3.127, -6.632, 0.01
 147820848, 27.601, -3.172, -6.605, 0.01, 27.509, -3.156, -6.602, 0.01
 148020768, 27.714, -3.188, -6.465, 0.01, 27.601, -3.172, -6.605, 0.01
 148220688, 27.874, -3.207, -6.169, 0.01, 27.714, -3.188, -6.465, 0.01
 148420608, 28.037, -3.215, -5.867, 0.01, 27.874, -3.207, -6.169, 0.01
 148620528, 28.151, -3.22, -5.824, 0.01, 28.037, -3.215, -5.867, 0.01
 148820448, 28.198, -3.235, -5.945, 0.01, 28.151, -3.22, -5.824, 0.01
 149020368, 28.21, -3.241, -6.135, 0.01, 28.198, -3.235, -5.945, 0.01
 149220288, 28.201, -3.239, -6.134, 0.01, 28.21, -3.241, -6.135, 0.01
 149420208, 28.147, -3.246, -6.023, 0.01, 28.201, -3.239, -6.134, 0.01
 149620961, 28.065, -3.245, -5.705, 0.01, 28.147, -3.246, -6.023, 0.01
 149820881, 28.156, -3.234, -4.357, 0.01, 28.065, -3.245, -5.705, 0.01
 150020801, 28.258, -3.2, -2.821, 0.01, 28.156, -3.234, -4.357, 0.01
 150220721, 28.262, -3.148, -2.031, 0.01, 28.258, -3.2, -2.821, 0.01
 150420641, 28.227, -3.068, -1.949, 0.01, 28.262, -3.148, -2.031, 0.01
 150620561, 28.187, -3.023, -1.956, 0.01, 28.227, -3.068, -1.949, 0.01
 150820481, 28.194, -3.003, -1.717, 0.01, 28.187, -3.023, -1.956, 0.01
 151020401, 28.22, -2.974, -1.322, 0.01, 28.194, -3.003, -1.717, 0.01
 151220321, 28.251, -2.957, -0.91, 0.01, 28.22, -2.974, -1.322, 0.01
 151420241, 28.193, -2.922, -0.7450001, 0.01, 28.251, -2.957, -0.91, 0.01
 151620161, 27.748, -2.811, -1.126, 0.01, 28.193, -2.922, -0.7450001, 0.01
 151820914, 27.04, -2.695, -1.484, 0.01, 27.748, -2.811, -1.126, 0.01
 152020834, 26.509, -2.626, -1.2, 0.01, 27.04, -2.695, -1.484, 0.01
 152220754, 26.179, -2.567, -0.474, 0.01, 26.509, -2.626, -1.2, 0.01
 152420674, 25.954, -2.52, 0.198, 0.01, 26.179, -2.567, -0.474, 0.01
 152620594, 25.786, -2.494, 0.619, 0.01, 25.954, -2.52, 0.198, 0.01
 152820514, 25.676, -2.471, 0.9030001, 0.01, 25.786, -2.494, 0.619, 0.01
 153020434, 25.62, -2.447, 1.02, 0.01, 25.676, -2.471, 0.9030001, 0.01
 153220354, 25.594, -2.433, 1.099, 0.01, 25.62, -2.447, 1.02, 0.01
 153420274, 25.594, -2.42, 1.208, 0.01, 25.594, -2.433, 1.099, 0.01
 153620194, 25.614, -2.388, 1.383, 0.01, 25.594, -2.42, 1.208, 0.01
 153820947, 25.65, -2.354, 1.539, 0.01, 25.614, -2.388, 1.383, 0.01
 154020867, 25.704, -2.326, 1.604, 0.01, 25.65, -2.354, 1.539, 0.01
 154220787, 25.767, -2.327, 1.66, 0.01, 25.704, -2.326, 1.604, 0.01
 154420707, 25.838, -2.325, 1.637, 0.01, 25.767, -2.327, 1.66, 0.01
 154620627, 25.906, -2.328, 1.571, 0.01, 25.838, -2.325, 1.637, 0.01
 154820547, 25.976, -2.327, 1.461, 0.01, 25.906, -2.328, 1.571, 0.01
 155020467, 26.044, -2.322, 1.475, 0.01, 25.976, -2.327, 1.461, 0.01
 155220387, 26.12, -2.315, 1.511, 0.01, 26.044, -2.322, 1.475, 0.01
 155420307, 26.19, -2.318, 1.482, 0.01, 26.12, -2.315, 1.511, 0.01
 155620227, 26.254, -2.321, 1.452, 0.01, 26.19, -2.318, 1.482, 0.01
 155820147, 26.326, -2.325, 1.43, 0.01, 26.254, -2.321, 1.452, 0.01
 156020900, 26.397, -2.329, 1.4, 0.01, 26.326, -2.325, 1.43, 0.01
 156220820, 26.468, -2.332, 1.356, 0.01, 26.397, -2.329, 1.4, 0.01
 156420740, 26.543, -2.331, 1.279, 0.01, 26.468, -2.332, 1.356, 0.01
 156620660, 26.614, -2.333, 1.285, 0.01, 26.543, -2.331, 1.279, 0.01
 156820580, 26.684, -2.327, 1.305, 0.01, 26.614, -2.333, 1.285, 0.01
 157020500, 26.759, -2.331, 1.164, 0.01, 26.684, -2.327, 1.305, 0.01
 157220420, 26.824, -2.332, 1.031, 0.01, 26.759, -2.331, 1.164, 0.01
 157420340, 26.875, -2.325, 1.031, 0.01, 26.824, -2.332, 1.031, 0.01
 157620260, 26.94, -2.302, 1.014, 0.01, 26.875, -2.325, 1.031, 0.01
 157820180, 26.998, -2.276, 0.98, 0.01, 26.94, -2.302, 1.014, 0.01
 158020933, 27.055, -2.269, 0.9860001, 0.01, 26.998, -2.276, 0.98, 0.01
 158220853, 27.129, -2.275, 1.02, 0.01, 27.055, -2.269, 0.9860001, 0.01
 158420773, 27.201, -2.277, 0.978, 0.01, 27.129, -2.275, 1.02, 0.01
 158620693, 27.267, -2.274, 0.899, 0.01, 27.201, -2.277, 0.978, 0.01
 158820613, 27.336, -2.264, 0.784, 0.01, 27.267, -2.274, 0.899, 0.01
 159020533, 27.395, -2.277, 0.72, 0.01, 27.336, -2.264, 0.784, 0.01
 159220453, 27.443, -2.282, 0.688, 0.01, 27.395, -2.277, 0.72, 0.01
 159420373, 27.48, -2.277, 0.596, 0.01, 27.443, -2.282, 0.688, 0.01
 159620293, 27.521, -2.28, 0.477, 0.01, 27.48, -2.277, 0.596, 0.01
 159820213, 27.558, -2.29, 0.476, 0.01, 27.521, -2.28, 0.477, 0.01
 160020966, 27.593, -2.293, 0.507, 0.01, 27.558, -2.29, 0.476, 0.01
 160220886, 27.627, -2.293, 0.464, 0.01, 27.593, -2.293, 0.507, 0.01
 160420806, 27.664, -2.296, 0.39, 0.01, 27.627, -2.293, 0.464, 0.01
 160620726, 27.704, -2.283, 0.359, 0.01, 27.664, -2.296, 0.39, 0.01
 160820646, 27.744, -2.281, 0.356, 0.01, 27.704, -2.283, 0.359, 0.01
 161020566, 27.781, -2.285, 0.259, 0.01, 27.744, -2.281, 0.356, 0.01
 161220486, 27.817, -2.266, 0.262, 0.01, 27.781, -2.285, 0.259, 0.01
 161420406, 27.858, -2.251, 0.309, 0.01, 27.817, -2.266, 0.262, 0.01
 161620326, 27.897, -2.237, 0.267, 0.01, 27.858, -2.251, 0.309, 0.01
 161820246, 27.927, -2.217, 0.259, 0.01, 27.897, -2.237, 0.267, 0.01
 162020166, 27.953, -2.217, 0.189, 0.01, 27.927, -2.217, 0.259, 0.01
 162220919, 27.977, -2.236, 0.112, 0.01, 27.953, -2.217, 0.189, 0.01
 162420839, 28.004, -2.226, 0.139, 0.01, 27.977, -2.236, 0.112, 0.01
 162620759, 28.033, -2.222, 0.125, 0.01, 28.004, -2.226, 0.139, 0.01
 162820679, 28.057, -2.221, 0.075, 0.01, 28.033, -2.222, 0.125, 0.01
 163020599, 28.074, -2.207, 0.044, 0.01, 28.057, -2.221, 0.075, 0.01
 163220519, 28.089, -2.193, 0.013, 0.01, 28.074, -2.207, 0.044, 0.01
 163420439, 28.109, -2.183, 0.036, 0.01, 28.089, -2.193, 0.013, 0.01
 163620359, 28.14, -2.158, 0.104, 0.01, 28.109, -2.183, 0.036, 0.01
 163820279, 28.164, -2.133, 0.079, 0.01, 28.14, -2.158, 0.104, 0.01
 164020199, 28.183, -2.108, 0.012, 0.01, 28.164, -2.133, 0.079, 0.01
 164220952, 28.203, -2.051, -0.042, 0.01, 28.183, -2.108, 0.012, 0.01
 164420872, 28.227, -2.007, 0.019, 0.01, 28.203, -2.051, -0.042, 0.01
 164620792, 28.245, -1.996, 0, 0.01, 28.227, -2.007, 0.019, 0.01
 164820712, 28.264, -1.953, -0.036, 0.01, 28.245, -1.996, 0, 0.01
 165020632, 28.294, -1.864, -0.09500001, 0.01, 28.264, -1.953, -0.036, 0.01
 165220552, 28.34, -1.625, -0.103, 0.01, 28.294, -1.864, -0.09500001, 0.01
 165420472, 28.374, -1.485, -0.055, 0.01, 28.34, -1.625, -0.103, 0.01
 165620392, 28.404, -1.394, 0.003, 0.01, 28.374, -1.485, -0.055, 0.01
 165820312, 28.431, -1.304, -0.037, 0.01, 28.404, -1.394, 0.003, 0.01
 166020232, 28.456, -1.201, -0.131, 0.01, 28.431, -1.304, -0.037, 0.01
 166220152, 28.466, -1.104, -0.192, 0.01, 28.456, -1.201, -0.131, 0.01
 166420905, 28.478, -1.012, -0.196, 0.01, 28.466, -1.104, -0.192, 0.01
 166620825, 28.486, -0.899, -0.118, 0.01, 28.478, -1.012, -0.196, 0.01
 166820745, 28.509, -0.8100001, -0.002, 0.01, 28.486, -0.899, -0.118, 0.01
 167020665, 28.528, -0.733, -0.031, 0.01, 28.509, -0.8100001, -0.002, 0.01
 167220585, 28.558, -0.6530001, -0.173, 0.01, 28.528, -0.733, -0.031, 0.01
 167420505, 28.573, -0.587, -0.176, 0.01, 28.558, -0.6530001, -0.173, 0.01
 167620425, 28.573, -0.535, -0.192, 0.01, 28.573, -0.587, -0.176, 0.01
 167820345, 28.586, -0.482, -0.189, 0.01, 28.573, -0.535, -0.192, 0.01
 168020265, 28.597, -0.43, -0.17, 0.01, 28.586, -0.482, -0.189, 0.01
 168220185, 28.611, -0.373, -0.169, 0.01, 28.597, -0.43, -0.17, 0.01
 168420938, 28.627, -0.327, -0.176, 0.01, 28.611, -0.373, -0.169, 0.01
 168620858, 28.628, -0.268, -0.139, 0.01, 28.627, -0.327, -0.176, 0.01
 168820778, 28.626, -0.221, -0.176, 0.01, 28.628, -0.268, -0.139, 0.01
 169020698, 28.641, -0.171, -0.136, 0.01, 28.626, -0.221, -0.176, 0.01
 169220618, 28.656, -0.139, -0.068, 0.01, 28.641, -0.171, -0.136, 0.01
 169420538, 28.652, -0.093, -0.075, 0.01, 28.656, -0.139, -0.068, 0.01
 169620458, 28.651, -0.049, -0.149, 0.01, 28.652, -0.093, -0.075, 0.01
 169820378, 28.657, -0.016, -0.155, 0.01, 28.651, -0.049, -0.149, 0.01
 170020298, 28.663, -0.017, -0.122, 0.01, 28.657, -0.016, -0.155, 0.01
 170220218, 28.668, -0.005, -0.201, 0.01, 28.663, -0.017, -0.122, 0.01
 170420971, 28.677, 0.017, -0.155, 0.01, 28.668, -0.005, -0.201, 0.01
 170620891, 28.698, 0.012, -0.052, 0.01, 28.677, 0.017, -0.155, 0.01
 170820811, 28.711, 0.009000001, -0.025, 0.01, 28.698, 0.012, -0.052, 0.01
 171020731, 28.719, -0.002, -0.021, 0.01, 28.711, 0.009000001, -0.025, 0.01
 171220651, 28.723, -0.017, -0.072, 0.01, 28.719, -0.002, -0.021, 0.01
 171420571, 28.722, -0.031, -0.093, 0.01, 28.723, -0.017, -0.072, 0.01
 171620491, 28.727, -0.032, -0.151, 0.01, 28.722, -0.031, -0.093, 0.01
 171820411, 28.724, -0.042, -0.145, 0.01, 28.727, -0.032, -0.151, 0.01
 172020331, 28.731, -0.041, -0.126, 0.01, 28.724, -0.042, -0.145, 0.01
 172220251, 28.749, -0.056, -0.101, 0.01, 28.731, -0.041, -0.126, 0.01
 172420171, 28.78, -0.083, -0.116, 0.01, 28.749, -0.056, -0.101, 0.01
 172620924, 28.779, -0.1, -0.107, 0.01, 28.78, -0.083, -0.116, 0.01
 172820844, 28.779, -0.109, -0.139, 0.01, 28.779, -0.1, -0.107, 0.01
 173020764, 28.795, -0.126, -0.093, 0.01, 28.779, -0.109, -0.139, 0.01
 173220684, 28.805, -0.141, -0.07300001, 0.01, 28.795, -0.126, -0.093, 0.01
 173420604, 28.824, -0.167, -0.078, 0.01, 28.805, -0.141, -0.07300001, 0.01
 173620524, 28.836, -0.196, -0.072, 0.01, 28.824, -0.167, -0.078, 0.01
 173820444, 28.841, -0.199, -0.072, 0.01, 28.836, -0.196, -0.072, 0.01
 174020364, 28.828, -0.214, -0.133, 0.01, 28.841, -0.199, -0.072, 0.01
 174220284, 28.836, -0.238, -0.06900001, 0.01, 28.828, -0.214, -0.133, 0.01
 174420204, 28.83, -0.266, -0.117, 0.01, 28.836, -0.238, -0.06900001, 0.01
 174620957, 28.828, -0.277, -0.176, 0.01, 28.83, -0.266, -0.117, 0.01
 174820877, 28.833, -0.274, -0.142, 0.01, 28.828, -0.277, -0.176, 0.01
 175020797, 28.842, -0.272, -0.153, 0.01, 28.833, -0.274, -0.142, 0.01
 175220717, 28.846, -0.281, -0.127, 0.01, 28.842, -0.272, -0.153, 0.01
 175420637, 28.838, -0.306, -0.127, 0.01, 28.846, -0.281, -0.127, 0.01
 175620557, 28.844, -0.322, -0.097, 0.01, 28.838, -0.306, -0.127, 0.01
 175820477, 28.852, -0.355, -0.126, 0.01, 28.844, -0.322, -0.097, 0.01
 176020397, 28.858, -0.369, -0.162, 0.01, 28.852, -0.355, -0.126, 0.01
 176220317, 28.864, -0.363, -0.123, 0.01, 28.858, -0.369, -0.162, 0.01
 176420237, 28.852, -0.367, -0.108, 0.01, 28.864, -0.363, -0.123, 0.01
 176620157, 28.847, -0.373, -0.16, 0.01, 28.852, -0.367, -0.108, 0.01
 176820910, 28.852, -0.373, -0.089, 0.01, 28.847, -0.373, -0.16, 0.01
 177020830, 28.863, -0.392, -0.017, 0.01, 28.852, -0.373, -0.089, 0.01
 177220750, 28.875, -0.402, -0.021, 0.01, 28.863, -0.392, -0.017, 0.01
 177420670, 28.888, -0.412, -0.067, 0.01, 28.875, -0.402, -0.021, 0.01
 177620590, 28.894, -0.414, -0.044, 0.01, 28.888, -0.412, -0.067, 0.01
 177820510, 28.898, -0.432, -0.035, 0.01, 28.894, -0.414, -0.044, 0.01
 178020430, 28.9, -0.428, -0.072, 0.01, 28.898, -0.432, -0.035, 0.01
 178220350, 28.901, -0.418, -0.093, 0.01, 28.9, -0.428, -0.072, 0.01
 178420270, 28.9, -0.414, -0.106, 0.01, 28.901, -0.418, -0.093, 0.01
 178620190, 28.907, -0.388, -0.052, 0.01, 28.9, -0.414, -0.106, 0.01
 178820943, 28.912, -0.395, -0.032, 0.01, 28.907, -0.388, -0.052, 0.01
 179020863, 28.918, -0.413, -0.028, 0.01, 28.912, -0.395, -0.032, 0.01
 179220783, 28.921, -0.402, -0.024, 0.01, 28.918, -0.413, -0.028, 0.01
 179420703, 28.923, -0.399, -0.116, 0.01, 28.921, -0.402, -0.024, 0.01
 179620623, 28.919, -0.41, -0.145, 0.01, 28.923, -0.399, -0.116, 0.01
 179820543, 28.916, -0.426, -0.111, 0.01, 28.919, -0.41, -0.145, 0.01
 180020463, 28.92, -0.452, -0.04, 0.01, 28.916, -0.426, -0.111, 0.01
 180220383, 28.925, -0.474, -0.02, 0.01, 28.92, -0.452, -0.04, 0.01
 180420303, 28.935, -0.486, 0.011, 0.01, 28.925, -0.474, -0.02, 0.01
 180620223, 28.944, -0.464, -0.061, 0.01, 28.935, -0.486, 0.011, 0.01
 180820976, 28.935, -0.474, -0.108, 0.01, 28.944, -0.464, -0.061, 0.01
 181020896, 28.944, -0.447, -0.094, 0.01, 28.935, -0.474, -0.108, 0.01
 181220816, 28.953, -0.422, -0.049, 0.01, 28.944, -0.447, -0.094, 0.01
 181420736, 28.952, -0.41, 0.014, 0.01, 28.953, -0.422, -0.049, 0.01
 181620656, 28.954, -0.367, -0.034, 0.01, 28.952, -0.41, 0.014, 0.01
 181820576, 28.951, -0.343, -0.055, 0.01, 28.954, -0.367, -0.034, 0.01
 182020496, 28.957, -0.346, -0.051, 0.01, 28.951, -0.343, -0.055, 0.01
 182220416, 28.955, -0.349, -0.093, 0.01, 28.957, -0.346, -0.051, 0.01
 182420336, 28.956, -0.365, -0.009000001, 0.01, 28.955, -0.349, -0.093, 0.01
 182620256, 28.956, -0.376, -0.005, 0.01, 28.956, -0.365, -0.009000001, 0.01
 182820176, 28.952, -0.373, -0.06900001, 0.01, 28.956, -0.376, -0.005, 0.01
 183020929, 28.954, -0.392, -0.075, 0.01, 28.952, -0.373, -0.06900001, 0.01
 183220849, 28.955, -0.401, -0.086, 0.01, 28.954, -0.392, -0.075, 0.01
 183420769, 28.954, -0.406, -0.085, 0.01, 28.955, -0.401, -0.086, 0.01
 183620689, 28.961, -0.423, -0.037, 0.01, 28.954, -0.406, -0.085, 0.01
 183820609, 28.97, -0.436, -0.006, 0.01, 28.961, -0.423, -0.037, 0.01
 184020529, 28.975, -0.438, 0.039, 0.01, 28.97, -0.436, -0.006, 0.01
 184220449, 28.972, -0.441, 0.041, 0.01, 28.975, -0.438, 0.039, 0.01
 184420369, 28.968, -0.417, -0.07600001, 0.01, 28.972, -0.441, 0.041, 0.01
 184620289, 28.965, -0.438, -0.086, 0.01, 28.968, -0.417, -0.07600001, 0.01
 184820209, 28.98, -0.434, 0.019, 0.01, 28.965, -0.438, -0.086, 0.01
 185020962, 28.989, -0.448, -0.011, 0.01, 28.98, -0.434, 0.019, 0.01
 185220882, 28.982, -0.448, -0.062, 0.01, 28.989, -0.448, -0.011, 0.01
 185420802, 28.987, -0.44, -0.026, 0.01, 28.982, -0.448, -0.062, 0.01
 185620722, 28.993, -0.446, -0.015, 0.01, 28.987, -0.44, -0.026, 0.01
 185820642, 28.994, -0.464, -0.026, 0.01, 28.993, -0.446, -0.015, 0.01
 186020562, 29.002, -0.491, -0.058, 0.01, 28.994, -0.464, -0.026, 0.01
 186220482, 29.012, -0.514, -0.085, 0.01, 29.002, -0.491, -0.058, 0.01
 186420402, 29.002, -0.5190001, -0.104, 0.01, 29.012, -0.514, -0.085, 0.01
 186620322, 29.002, -0.5100001, -0.051, 0.01, 29.002, -0.5190001, -0.104, 0.01
 186820242, 29.012, -0.52, -0.046, 0.01, 29.002, -0.5100001, -0.051, 0.01
 187020162, 29.006, -0.527, -0.018, 0.01, 29.012, -0.52, -0.046, 0.01
 187220915, 29.009, -0.541, -0.054, 0.01, 29.006, -0.527, -0.018, 0.01
 187420835, 29.015, -0.537, -0.064, 0.01, 29.009, -0.541, -0.054, 0.01
 187620755, 29.019, -0.526, -0.038, 0.01, 29.015, -0.537, -0.064, 0.01
 187820675, 29.01, -0.521, 0.023, 0.01, 29.019, -0.526, -0.038, 0.01
 188020595, 29.014, -0.512, -0.011, 0.01, 29.01, -0.521, 0.023, 0.01
 188220515, 29.028, -0.509, 0.026, 0.01, 29.014, -0.512, -0.011, 0.01
 188420435, 29.042, -0.517, -0.014, 0.01, 29.028, -0.509, 0.026, 0.01
 188620355, 29.037, -0.517, 0.006, 0.01, 29.042, -0.517, -0.014, 0.01
 188820275, 29.046, -0.498, -0.008, 0.01, 29.037, -0.517, 0.006, 0.01
 189020195, 29.084, -0.708, -0.066, 0.01, 29.046, -0.498, -0.008, 0.01
 189220948, 29.202, -1.721, -0.09500001, 0.01, 29.084, -0.708, -0.066, 0.01
 189420868, 29.36, -3.365, -0.021, 0.01, 29.202, -1.721, -0.09500001, 0.01
 189620788, 29.267, -5.955, 0.161, 0.01, 29.36, -3.365, -0.021, 0.01
 189820708, 28.551, -9.696, 0.087, 0.01, 29.267, -5.955, 0.161, 0.01
 190020628, 26.831, -14.163, -0.592, 0.01, 28.551, -9.696, 0.087, 0.01
 190220548, 24.287, -18.293, -1.568, 0.01, 26.831, -14.163, -0.592, 0.01
 190420468, 21.616, -21.388, -2.332, 0.01, 24.287, -18.293, -1.568, 0.01
 190620388, 19.099, -23.665, -2.68, 0.01, 21.616, -21.388, -2.332, 0.01
 190820308, 16.625, -25.468, -2.821, 0.01, 19.099, -23.665, -2.68, 0.01
 191020228, 14.102, -26.959, -2.865, 0.01, 16.625, -25.468, -2.821, 0.01
 191220148, 11.335, -28.227, -2.947, 0.01, 14.102, -26.959, -2.865, 0.01
 191420901, 8.428, -29.202, -3.061, 0.01, 11.335, -28.227, -2.947, 0.01
 191620821, 5.537, -29.865, -3.132, 0.01, 8.428, -29.202, -3.061, 0.01
 191820741, 2.696, -30.245, -3.153, 0.01, 5.537, -29.865, -3.132, 0.01
 192020661, -0.114, -30.359, -3.169, 0.01, 2.696, -30.245, -3.153, 0.01
 192220581, -2.964, -30.2, -3.221, 0.01, -0.114, -30.359, -3.169, 0.01
 192420501, -5.733, -29.778, -3.27, 0.01, -2.964, -30.2, -3.221, 0.01
 192620421, -8.419001, -29.117, -3.329, 0.01, -5.733, -29.778, -3.27, 0.01
 192820341, -11.046, -28.199, -3.404, 0.01, -8.419001, -29.117, -3.329, 0.01
 193020261, -13.573, -27.045, -3.473, 0.01, -11.046, -28.199, -3.404, 0.01
 193220181, -15.994, -25.651, -3.57, 0.01, -13.573, -27.045, -3.473, 0.01
 193420934, -18.243, -24.046, -3.691, 0.01, -15.994, -25.651, -3.57, 0.01
 193620854, -20.257, -22.311, -3.861, 0.01, -18.243, -24.046, -3.691, 0.01
 193820774, -21.98, -20.548, -3.982, 0.01, -20.257, -22.311, -3.861, 0.01
 194020694, -23.432, -18.807, -4.08, 0.01, -21.98, -20.548, -3.982, 0.01
 194220614, -24.676, -17.061, -4.193, 0.01, -23.432, -18.807, -4.08, 0.01
 194420534, -25.714, -15.361, -4.298, 0.01, -24.676, -17.061, -4.193, 0.01
 194620454, -26.528, -13.801, -4.364, 0.01, -25.714, -15.361, -4.298, 0.01
 194820374, -27.211, -12.319, -4.395, 0.01, -26.528, -13.801, -4.364, 0.01
 195020294, -27.776, -10.92, -4.428, 0.01, -27.211, -12.319, -4.395, 0.01
 195220214, -28.222, -9.64, -4.432, 0.01, -27.776, -10.92, -4.428, 0.01
 195420967, -28.588, -8.396001, -4.482, 0.01, -28.222, -9.64, -4.432, 0.01
 195620887, -28.882, -7.181, -4.561, 0.01, -28.588, -8.396001, -4.482, 0.01
 195820807, -29.105, -6.142, -4.525, 0.01, -28.882, -7.181, -4.561, 0.01
 196020727, -29.289, -5.202, -4.487, 0.01, -29.105, -6.142, -4.525, 0.01
 196220647, -29.423, -4.29, -4.554, 0.01, -29.289, -5.202, -4.487, 0.01
 196420567, -29.508, -3.389, -4.658, 0.01, -29.423, -4.29, -4.554, 0.01
 196620487, -29.55, -2.56, -4.776, 0.01, -29.508, -3.389, -4.658, 0.01
 196820407, -29.582, -1.865, -4.817, 0.01, -29.55, -2.56, -4.776, 0.01
 197020327, -29.595, -1.213, -4.857, 0.01, -29.582, -1.865, -4.817, 0.01
 197220247, -29.595, -0.686, -4.845, 0.01, -29.595, -1.213, -4.857, 0.01
 197420167, -29.586, -0.192, -4.876, 0.01, -29.595, -0.686, -4.845, 0.01
 197620920, -29.588, 0.252, -4.816, 0.01, -29.586, -0.192, -4.876, 0.01
 197820840, -29.571, 0.679, -4.819, 0.01, -29.588, 0.252, -4.816, 0.01
 198020760, -29.553, 1.082, -4.825, 0.01, -29.571, 0.679, -4.819, 0.01
 198220680, -29.512, 1.469, -4.924, 0.01, -29.553, 1.082, -4.825, 0.01
 198420600, -29.471, 1.787, -4.965, 0.01, -29.512, 1.469, -4.924, 0.01
 198620520, -29.435, 2.055, -4.991, 0.01, -29.471, 1.787, -4.965, 0.01
 198820440, -29.426, 2.28, -4.928, 0.01, -29.435, 2.055, -4.991, 0.01
 199020360, -29.408, 2.493, -4.911, 0.01, -29.426, 2.28, -4.928, 0.01
 199220280, -29.362, 2.728, -5.044, 0.01, -29.408, 2.493, -4.911, 0.01
 199420200, -29.32, 2.951, -5.086, 0.01, -29.362, 2.728, -5.044, 0.01
 199620953, -29.29, 3.11, -5.067, 0.01, -29.32, 2.951, -5.086, 0.01
 199820873, -29.271, 3.254, -5.036, 0.01, -29.29, 3.11, -5.067, 0.01
 200020793, -29.246, 3.426, -5.057, 0.01, -29.271, 3.254, -5.036, 0.01
 200220713, -29.23, 3.551, -5.024, 0.01, -29.246, 3.426, -5.057, 0.01
 200420633, -29.22, 3.688, -4.979, 0.01, -29.23, 3.551, -5.024, 0.01
 200620553, -29.202, 3.782, -5.035, 0.01, -29.22, 3.688, -4.979, 0.01
 200820473, -29.193, 3.881, -4.992, 0.01, -29.202, 3.782, -5.035, 0.01
 201020393, -29.189, 3.952, -4.961, 0.01, -29.193, 3.881, -4.992, 0.01
 201220313, -29.195, 4.029, -4.904, 0.01, -29.189, 3.952, -4.961, 0.01
 201420233, -29.163, 4.116, -5.065, 0.01, -29.195, 4.029, -4.904, 0.01
 201620153, -29.128, 4.187, -5.149, 0.01, -29.163, 4.116, -5.065, 0.01
 201820906, -29.109, 4.269, -5.146, 0.01, -29.128, 4.187, -5.149, 0.01
 202020826, -29.087, 4.337, -5.163, 0.01, -29.109, 4.269, -5.146, 0.01
 202220746, -29.076, 4.407, -5.107, 0.01, -29.087, 4.337, -5.163, 0.01
 202420666, -29.075, 4.452, -5.064, 0.01, -29.076, 4.407, -5.107, 0.01
 202620586, -29.079, 4.52, -5.014, 0.01, -29.075, 4.452, -5.064, 0.01
 202820506, -29.065, 4.553, -5.042, 0.01, -29.079, 4.52, -5.014, 0.01
 203020426, -29.042, 4.566, -5.153, 0.01, -29.065, 4.553, -5.042, 0.01
 203220346, -29.056, 4.606, -5.025, 0.01, -29.042, 4.566, -5.153, 0.01
 203420266, -29.115, 4.649, -4.744, 0.01, -29.056, 4.606, -5.025, 0.01
 203620186, -29.198, 4.672, -4.415, 0.01, -29.115, 4.649, -4.744, 0.01
 203820939, -29.259, 4.717, -4.191, 0.01, -29.198, 4.672, -4.415, 0.01
 204020859, -29.217, 4.77, -4.07, 0.01, -29.259, 4.717, -4.191, 0.01
 204220779, -29.081, 4.794, -3.944, 0.01, -29.217, 4.77, -4.07, 0.01
 204420699, -28.925, 4.804, -3.7, 0.01, -29.081, 4.794, -3.944, 0.01
 204620619, -28.778, 4.789, -3.283, 0.01, -28.925, 4.804, -3.7, 0.01
 204820539, -28.619, 4.756, -2.971, 0.01, -28.778, 4.789, -3.283, 0.01
 205020459, -28.441, 4.741, -2.76, 0.01, -28.619, 4.756, -2.971, 0.01
 205220379, -28.287, 4.743, -2.492, 0.01, -28.441, 4.741, -2.76, 0.01
 205420299, -28.136, 4.738, -2.179, 0.01, -28.287, 4.743, -2.492, 0.01
 205620219, -27.991, 4.726, -1.938, 0.01, -28.136, 4.738, -2.179, 0.01
 205820972, -27.856, 4.74, -1.725, 0.01, -27.991, 4.726, -1.938, 0.01
 206020892, -27.736, 4.742, -1.477, 0.01, -27.856, 4.74, -1.725, 0.01
 206220812, -27.626, 4.741, -1.303, 0.01, -27.736, 4.742, -1.477, 0.01
 206420732, -27.518, 4.734, -1.088, 0.01, -27.626, 4.741, -1.303, 0.01
 206620652, -27.519, 4.741, -0.7870001, 0.01, -27.518, 4.734, -1.088, 0.01
 206820572, -27.453, 4.728, -0.586, 0.01, -27.519, 4.741, -0.7870001, 0.01
 207020492, -27.36, 4.722, -0.52, 0.01, -27.453, 4.728, -0.586, 0.01
 207220412, -27.281, 4.739, -0.567, 0.01, -27.36, 4.722, -0.52, 0.01
 207420332, -27.209, 4.769, -0.565, 0.01, -27.281, 4.739, -0.567, 0.01
 207620252, -27.151, 4.797, -0.449, 0.01, -27.209, 4.769, -0.565, 0.01
 207820172, -27.106, 4.817, -0.23, 0.01, -27.151, 4.797, -0.449, 0.01
 208020925, -27.075, 4.811, -0.101, 0.01, -27.106, 4.817, -0.23, 0.01
 208220845, -27.045, 4.797, -0.09, 0.01, -27.075, 4.811, -0.101, 0.01
 208420765, -27.017, 4.81, -0.036, 0.01, -27.045, 4.797, -0.09, 0.01
 208620685, -26.995, 4.824, -0.002, 0.01, -27.017, 4.81, -0.036, 0.01
 208820605, -26.98, 4.836, 0.06500001, 0.01, -26.995, 4.824, -0.002, 0.01
 209020525, -26.981, 4.843, 0.161, 0.01, -26.98, 4.836, 0.06500001, 0.01
 209220445, -26.978, 4.841, 0.162, 0.01, -26.981, 4.843, 0.161, 0.01
 209420365, -26.979, 4.84, 0.197, 0.01, -26.978, 4.841, 0.162, 0.01
 209620285, -26.977, 4.856, 0.219, 0.01, -26.979, 4.84, 0.197, 0.01
 209820205, -26.989, 4.865, 0.247, 0.01, -26.977, 4.856, 0.219, 0.01
 210020958, -27.011, 4.878, 0.263, 0.01, -26.989, 4.865, 0.247, 0.01
 210220878, -27.022, 4.897, 0.278, 0.01, -27.011, 4.878, 0.263, 0.01
 210420798, -27.027, 4.902, 0.28, 0.01, -27.022, 4.897, 0.278, 0.01
 210620718, -27.022, 4.916, 0.264, 0.01, -27.027, 4.902, 0.28, 0.01
 210820638, -27.039, 4.926, 0.252, 0.01, -27.022, 4.916, 0.264, 0.01
 211020558, -27.051, 4.951, 0.213, 0.01, -27.039, 4.926, 0.252, 0.01
 211220478, -27.064, 4.963, 0.211, 0.01, -27.051, 4.951, 0.213, 0.01
 211420398, -27.074, 4.987, 0.254, 0.01, -27.064, 4.963, 0.211, 0.01
 211620318, -27.081, 5.019, 0.242, 0.01, -27.074, 4.987, 0.254, 0.01
 211820238, -27.089, 5.025, 0.249, 0.01, -27.081, 5.019, 0.242, 0.01
 212020158, -27.109, 5.04, 0.242, 0.01, -27.089, 5.025, 0.249, 0.01
 212220911, -27.136, 5.065, 0.31, 0.01, -27.109, 5.04, 0.242, 0.01
 212420831, -27.154, 5.057, 0.257, 0.01, -27.136, 5.065, 0.31, 0.01
 212620751, -27.166, 5.051, 0.206, 0.01, -27.154, 5.057, 0.257, 0.01
 212820671, -27.189, 5.044, 0.211, 0.01, -27.166, 5.051, 0.206, 0.01
 213020591, -27.212, 5.051, 0.309, 0.01, -27.189, 5.044, 0.211, 0.01
 213220511, -27.242, 5.04, 0.339, 0.01, -27.212, 5.051, 0.309, 0.01
 213420431, -27.26, 5.034, 0.221, 0.01, -27.242, 5.04, 0.339, 0.01
 213620351, -27.289, 5.043, 0.281, 0.01, -27.26, 5.034, 0.221, 0.01
 213820271, -27.327, 5.04, 0.242, 0.01, -27.289, 5.043, 0.281, 0.01
 214020191, -27.355, 5.034, 0.193, 0.01, -27.327, 5.04, 0.242, 0.01
 214220944, -27.371, 5.059, 0.15, 0.01, -27.355, 5.034, 0.193, 0.01
 214420864, -27.38, 5.081, 0.106, 0.01, -27.371, 5.059, 0.15, 0.01
 214620784, -27.388, 5.106, 0.078, 0.01, -27.38, 5.081, 0.106, 0.01
 214820704, -27.398, 5.118, 0.082, 0.01, -27.388, 5.106, 0.078, 0.01
 215020624, -27.404, 5.114, 0.072, 0.01, -27.398, 5.118, 0.082, 0.01
 215220544, -27.413, 5.109, 0.06500001, 0.01, -27.404, 5.114, 0.072, 0.01
 215420464, -27.438, 5.116, 0.123, 0.01, -27.413, 5.109, 0.06500001, 0.01
 215620384, -27.462, 5.105, 0.209, 0.01, -27.438, 5.116, 0.123, 0.01
 215820304, -27.477, 5.079, 0.163, 0.01, -27.462, 5.105, 0.209, 0.01
 216020224, -27.49, 5.08, 0.138, 0.01, -27.477, 5.079, 0.163, 0.01
 216220977, -27.495, 5.084, 0.06, 0.01, -27.49, 5.08, 0.138, 0.01
 216420897, -27.51, 5.087, 0.028, 0.01, -27.495, 5.084, 0.06, 0.01
 216620817, -27.528, 5.088, 0.103, 0.01, -27.51, 5.087, 0.028, 0.01
 216820737, -27.557, 5.096, 0.157, 0.01, -27.528, 5.088, 0.103, 0.01
 217020657, -27.578, 5.088, 0.167, 0.01, -27.557, 5.096, 0.157, 0.01
 217220577, -27.606, 5.114, 0.124, 0.01, -27.578, 5.088, 0.167, 0.01
 217420497, -27.634, 5.104, 0.09500001, 0.01, -27.606, 5.114, 0.124, 0.01
 217620417, -27.665, 5.091, 0.094, 0.01, -27.634, 5.104, 0.09500001, 0.01
 217820337, -27.687, 5.083, 0.046, 0.01, -27.665, 5.091, 0.094, 0.01
 218020257, -27.707, 5.084, -0.008, 0.01, -27.687, 5.083, 0.046, 0.01
 218220177, -27.722, 5.078, 0.038, 0.01, -27.707, 5.084, -0.008, 0.01
 218420930, -27.736, 5.071, 0.086, 0.01, -27.722, 5.078, 0.038, 0.01
 218620850, -27.751, 5.07, 0.071, 0.01, -27.736, 5.071, 0.086, 0.01
 218820770, -27.765, 5.044, -0.034, 0.01, -27.751, 5.07, 0.071, 0.01
 219020690, -27.763, 5.044, -0.035, 0.01, -27.765, 5.044, -0.034, 0.01
 219220610, -27.771, 5.039, -0.047, 0.01, -27.763, 5.044, -0.035, 0.01
 219420530, -27.794, 5.03, 0.031, 0.01, -27.771, 5.039, -0.047, 0.01
 219620450, -27.823, 5.016, 0.029, 0.01, -27.794, 5.03, 0.031, 0.01
 219820370, -27.824, 5.029, -0.005, 0.01, -27.823, 5.016, 0.029, 0.01
 220020290, -27.833, 5.026, 0.06500001, 0.01, -27.824, 5.029, -0.005, 0.01
 220220210, -27.852, 5.013, 0.027, 0.01, -27.833, 5.026, 0.06500001, 0.01
 220420963, -27.858, 4.994, -0.063, 0.01, -27.852, 5.013, 0.027, 0.01
 220620883, -27.865, 4.972, -0.08400001, 0.01, -27.858, 4.994, -0.063, 0.01
 220820803, -27.881, 4.964, -0.044, 0.01, -27.865, 4.972, -0.08400001, 0.01
 221020723, -27.897, 4.964, -0.004, 0.01, -27.881, 4.964, -0.044, 0.01
 221220643, -27.914, 4.947, 0.008, 0.01, -27.897, 4.964, -0.004, 0.01
 221420563, -27.924, 4.938, 0.003, 0.01, -27.914, 4.947, 0.008, 0.01
 221620483, -27.941, 4.92, 0.003, 0.01, -27.924, 4.938, 0.003, 0.01
 221820403, -27.953, 4.908, -0.009000001, 0.01, -27.941, 4.92, 0.003, 0.01
 222020323, -27.96, 4.885, -0.033, 0.01, -27.953, 4.908, -0.009000001, 0.01
 222220243, -27.969, 4.86, -0.001, 0.01, -27.96, 4.885, -0.033, 0.01
 222420163, -27.974, 4.86, -0.017, 0.01, -27.969, 4.86, -0.001, 0.01
 222620916, -27.997, 4.871, 0.058, 0.01, -27.974, 4.86, -0.017, 0.01
 222820836, -28.011, 4.884, 0.108, 0.01, -27.997, 4.871, 0.058, 0.01
 223020756, -28.02, 4.885, 0.01, 0.01, -28.011, 4.884, 0.108, 0.01
 223220676, -28.024, 4.883, -0.079, 0.01, -28.02, 4.885, 0.01, 0.01
 223420596, -28.039, 4.875, -0.089, 0.01, -28.024, 4.883, -0.079, 0.01
 223620516, -28.048, 4.887, 0.032, 0.01, -28.039, 4.875, -0.089, 0.01
 223820436, -28.049, 4.901, 0.108, 0.01, -28.048, 4.887, 0.032, 0.01
 224020356, -28.048, 4.908, 0.036, 0.01, -28.049, 4.901, 0.108, 0.01
 224220276, -28.055, 4.92, 0.004, 0.01, -28.048, 4.908, 0.036, 0.01
 224420196, -28.068, 4.934, -0.07600001, 0.01, -28.055, 4.92, 0.004, 0.01
 224620949, -28.072, 4.96, -0.109, 0.01, -28.068, 4.934, -0.07600001, 0.01
 224820869, -28.076, 4.975, -0.03, 0.01, -28.072, 4.96, -0.109, 0.01
 225020789, -28.073, 4.974, 0.001, 0.01, -28.076, 4.975, -0.03, 0.01
 225220709, -28.078, 4.976, 0.039, 0.01, -28.073, 4.974, 0.001, 0.01
 225420629, -28.088, 4.996, 0.013, 0.01, -28.078, 4.976, 0.039, 0.01
 225620549, -28.096, 4.994, -0.056, 0.01, -28.088, 4.996, 0.013, 0.01
 225820469, -28.102, 4.984, -0.085, 0.01, -28.096, 4.994, -0.056, 0.01
 226020389, -28.113, 4.983, -0.041, 0.01, -28.102, 4.984, -0.085, 0.01
 226220309, -28.122, 4.989, 0.027, 0.01, -28.113, 4.983, -0.041, 0.01
 226420229, -28.132, 4.975, 0.05, 0.01, -28.122, 4.989, 0.027, 0.01
 226620149, -28.141, 4.971, 0.003, 0.01, -28.132, 4.975, 0.05, 0.01
 226820902, -28.143, 4.961, -0.028, 0.01, -28.141, 4.971, 0.003, 0.01
 227020822, -28.166, 4.954, 0.027, 0.01, -28.143, 4.961, -0.028, 0.01
 227220742, -28.184, 4.947, 0.05, 0.01, -28.166, 4.954, 0.027, 0.01
 227420662, -28.187, 4.939, 0.033, 0.01, -28.184, 4.947, 0.05, 0.01
 227620582, -28.192, 4.921, -0.004, 0.01, -28.187, 4.939, 0.033, 0.01
 227820502, -28.21, 4.908, 0.009000001, 0.01, -28.192, 4.921, -0.004, 0.01
 228020422, -28.216, 4.916, 0.015, 0.01, -28.21, 4.908, 0.009000001, 0.01
 228220342, -28.227, 4.915, -0.049, 0.01, -28.216, 4.916, 0.015, 0.01
 228420262, -28.238, 4.905, -0.074, 0.01, -28.227, 4.915, -0.049, 0.01
 228620182, -28.252, 4.896, -0.053, 0.01, -28.238, 4.905, -0.074, 0.01
 228820935, -28.251, 4.885, -0.03, 0.01, -28.252, 4.896, -0.053, 0.01
 229020855, -28.246, 4.873, 0.006, 0.01, -28.251, 4.885, -0.03, 0.01
 229220775, -28.237, 4.865, 0.029, 0.01, -28.246, 4.873, 0.006, 0.01
 229420695, -28.235, 4.836, 0.033, 0.01, -28.237, 4.865, 0.029, 0.01
 229620615, -27.1, 4.638, 0.008, 0.01, -28.235, 4.836, 0.033, 0.01
 229820535, -25.411, 4.35, 0.046, 0.01, -27.1, 4.638, 0.008, 0.01
 230020455, -23.781, 4.073, 0.204, 0.01, -25.411, 4.35, 0.046, 0.01
 230220375, -22.325, 3.825, 0.429, 0.01, -23.781, 4.073, 0.204, 0.01
 230420295, -21.046, 3.606, 0.6390001, 0.01, -22.325, 3.825, 0.429, 0.01
 230620215, -19.923, 3.413, 0.793, 0.01, -21.046, 3.606, 0.6390001, 0.01
 230820968, -18.932, 3.236, 0.8940001, 0.01, -19.923, 3.413, 0.793, 0.01
 231020888, -18.053, 3.072, 0.969, 0.01, -18.932, 3.236, 0.8940001, 0.01
 231220808, -17.267, 2.925, 1.03, 0.01, -18.053, 3.072, 0.969, 0.01
 231420728, -16.56, 2.793, 1.078, 0.01, -17.267, 2.925, 1.03, 0.01
 231620648, -15.926, 2.675, 1.114, 0.01, -16.56, 2.793, 1.078, 0.01
 231820568, -15.352, 2.569, 1.141, 0.01, -15.926, 2.675, 1.114, 0.01
 232020488, -14.831, 2.475, 1.166, 0.01, -15.352, 2.569, 1.141, 0.01
 232220408, -14.357, 2.391, 1.19, 0.01, -14.831, 2.475, 1.166, 0.01
 232420328, -13.926, 2.316, 1.211, 0.01, -14.357, 2.391, 1.19, 0.01
 232620248, -13.532, 2.247, 1.229, 0.01, -13.926, 2.316, 1.211, 0.01
 232820168, -13.172, 2.184, 1.244, 0.01, -13.532, 2.247, 1.229, 0.01
 233020921, -12.843, 2.127, 1.261, 0.01, -13.172, 2.184, 1.244, 0.01
 233220841, -12.541, 2.075, 1.28, 0.01, -12.843, 2.127, 1.261, 0.01
 233420761, -12.264, 2.028, 1.297, 0.01, -12.541, 2.075, 1.28, 0.01
 233620681, -12.01, 1.989, 1.312, 0.01, -12.264, 2.028, 1.297, 0.01
 233820601, -11.777, 1.955, 1.326, 0.01, -12.01, 1.989, 1.312, 0.01
 234020521, -11.563, 1.924, 1.339, 0.01, -11.777, 1.955, 1.326, 0.01
 234220441, -11.367, 1.896, 1.349, 0.01, -11.563, 1.924, 1.339, 0.01
 234420361, -11.186, 1.871, 1.356, 0.01, -11.367, 1.896, 1.349, 0.01
 234620281, -11.02, 1.849, 1.361, 0.01, -11.186, 1.871, 1.356, 0.01
 234820201, -10.866, 1.83, 1.365, 0.01, -11.02, 1.849, 1.361, 0.01
 235020954, -10.722, 1.816, 1.368, 0.01, -10.866, 1.83, 1.365, 0.01
 235220874, -10.59, 1.803, 1.371, 0.01, -10.722, 1.816, 1.368, 0.01
 235420794, -10.467, 1.791, 1.375, 0.01, -10.59, 1.803, 1.371, 0.01
 235620714, -10.353, 1.779, 1.38, 0.01, -10.467, 1.791, 1.375, 0.01
 235820634, -10.248, 1.766, 1.383, 0.01, -10.353, 1.779, 1.38, 0.01
 236020554, -10.152, 1.751, 1.385, 0.01, -10.248, 1.766, 1.383, 0.01
 236220474, -10.063, 1.736, 1.385, 0.01, -10.152, 1.751, 1.385, 0.01
 236420394, -9.98, 1.721, 1.385, 0.01, -10.063, 1.736, 1.385, 0.01
 236620314, -9.903001, 1.707, 1.387, 0.01, -9.98, 1.721, 1.385, 0.01
 236820234, -9.831, 1.694, 1.388, 0.01, -9.903001, 1.707, 1.387, 0.01
 237020154, -9.764001, 1.683, 1.388, 0.01, -9.831, 1.694, 1.388, 0.01
 237220907, -9.702001, 1.674, 1.386, 0.01, -9.764001, 1.683, 1.388, 0.01
 237420827, -9.643001, 1.666, 1.381, 0.01, -9.702001, 1.674, 1.386, 0.01
 237620747, -9.587001, 1.658, 1.373, 0.01, -9.643001, 1.666, 1.381, 0.01
 237820667, -9.533, 1.651, 1.365, 0.01, -9.587001, 1.658, 1.373, 0.01
 238020587, -9.481001, 1.643, 1.361, 0.01, -9.533, 1.651, 1.365, 0.01
 238220507, -9.433001, 1.636, 1.361, 0.01, -9.481001, 1.643, 1.361, 0.01
 238420427, -9.387, 1.63, 1.362, 0.01, -9.433001, 1.636, 1.361, 0.01
 238620347, -9.345, 1.624, 1.359, 0.01, -9.387, 1.63, 1.362, 0.01
 238820267, -9.304001, 1.619, 1.348, 0.01, -9.345, 1.624, 1.359, 0.01
 239020187, -9.264001, 1.614, 1.333, 0.01, -9.304001, 1.619, 1.348, 0.01
 239220940, -9.224, 1.609, 1.323, 0.01, -9.264001, 1.614, 1.333, 0.01
 239420860, -9.184, 1.604, 1.321, 0.01, -9.224, 1.609, 1.323, 0.01
 239620780, -9.147, 1.6, 1.324, 0.01, -9.184, 1.604, 1.321, 0.01
 239820700, -9.113001, 1.594, 1.323, 0.01, -9.147, 1.6, 1.324, 0.01
 240020620, -9.081, 1.588, 1.317, 0.01, -9.113001, 1.594, 1.323, 0.01
 240220540, -9.05, 1.58, 1.308, 0.01, -9.081, 1.588, 1.317, 0.01
 240420460, -9.019, 1.572, 1.297, 0.01, -9.05, 1.58, 1.308, 0.01
 240620380, -8.988001, 1.564, 1.288, 0.01, -9.019, 1.572, 1.297, 0.01
 240820300, -8.958, 1.556, 1.281, 0.01, -8.988001, 1.564, 1.288, 0.01
 241020220, -8.927, 1.549, 1.276, 0.01, -8.958, 1.556, 1.281, 0.01
 241220973, -8.898001, 1.543, 1.275, 0.01, -8.927, 1.549, 1.276, 0.01
 241420893, -8.871, 1.538, 1.277, 0.01, -8.898001, 1.543, 1.275, 0.01
 241620813, -8.845, 1.534, 1.275, 0.01, -8.871, 1.538, 1.277, 0.01
 241820733, -8.820001, 1.531, 1.268, 0.01, -8.845, 1.534, 1.275, 0.01
 242020653, -8.795, 1.527, 1.259, 0.01, -8.820001, 1.531, 1.268, 0.01
 242220573, -8.77, 1.523, 1.253, 0.01, -8.795, 1.527, 1.259, 0.01
 242420493, -8.746, 1.519, 1.25, 0.01, -8.77, 1.523, 1.253, 0.01
 242620413, -8.722, 1.515, 1.248, 0.01, -8.746, 1.519, 1.25, 0.01
 242820333, -8.699, 1.512, 1.245, 0.01, -8.722, 1.515, 1.248, 0.01
 243020253, -8.677, 1.509, 1.241, 0.01, -8.699, 1.512, 1.245, 0.01
 243220173, -8.655001, 1.507, 1.234, 0.01, -8.677, 1.509, 1.241, 0.01
 243420926, -8.633, 1.505, 1.229, 0.01, -8.655001, 1.507, 1.234, 0.01
 243620846, -8.612, 1.503, 1.228, 0.01, -8.633, 1.505, 1.229, 0.01
 243820766, -8.592, 1.5, 1.228, 0.01, -8.612, 1.503, 1.228, 0.01
 244020686, -8.573, 1.498, 1.226, 0.01, -8.592, 1.5, 1.228, 0.01
 244220606, -8.555, 1.494, 1.221, 0.01, -8.573, 1.498, 1.226, 0.01
 244420526, -8.536, 1.489, 1.216, 0.01, -8.555, 1.494, 1.221, 0.01
 244620446, -8.519, 1.483, 1.213, 0.01, -8.536, 1.489, 1.216, 0.01
 244820366, -8.502001, 1.476, 1.214, 0.01, -8.519, 1.483, 1.213, 0.01
 245020286, -8.486, 1.47, 1.213, 0.01, -8.502001, 1.476, 1.214, 0.01
 245220206, -8.471001, 1.464, 1.209, 0.01, -8.486, 1.47, 1.213, 0.01
 245420959, -8.455001, 1.458, 1.202, 0.01, -8.471001, 1.464, 1.209, 0.01
 245620879, -8.439, 1.454, 1.195, 0.01, -8.455001, 1.458, 1.202, 0.01
 245820799, -8.423, 1.45, 1.193, 0.01, -8.439, 1.454, 1.195, 0.01
 246020719, -8.407001, 1.447, 1.195, 0.01, -8.423, 1.45, 1.193, 0.01
 246220639, -8.392, 1.443, 1.196, 0.01, -8.407001, 1.447, 1.195, 0.01
 246420559, -8.379001, 1.437, 1.196, 0.01, -8.392, 1.443, 1.196, 0.01
 246620479, -8.363001, 1.456, 1.192, 0.01, -8.379001, 1.437, 1.196, 0.01
 246820399, -8.336, 1.53, 1.191, 0.01, -8.363001, 1.456, 1.192, 0.01
 247020319, -8.298, 1.658, 1.195, 0.01, -8.336, 1.53, 1.191, 0.01
 247220239, -8.251, 1.826, 1.203, 0.01, -8.298, 1.658, 1.195, 0.01
 247420159, -8.194, 2.023, 1.21, 0.01, -8.251, 1.826, 1.203, 0.01
 247620912, -8.124001, 2.253, 1.216, 0.01, -8.194, 2.023, 1.21, 0.01
 247820832, -8.036, 2.516, 1.225, 0.01, -8.124001, 2.253, 1.216, 0.01
 248020752, -7.929, 2.812, 1.237, 0.01, -8.036, 2.516, 1.225, 0.01
 248220672, -7.797, 3.142, 1.252, 0.01, -7.929, 2.812, 1.237, 0.01
 248420592, -7.64, 3.496, 1.265, 0.01, -7.797, 3.142, 1.252, 0.01
 248620512, -7.453001, 3.87, 1.274, 0.01, -7.64, 3.496, 1.265, 0.01
 248820432, -7.233, 4.259, 1.282, 0.01, -7.453001, 3.87, 1.274, 0.01
 249020352, -6.981, 4.655, 1.291, 0.01, -7.233, 4.259, 1.282, 0.01
 249220272, -6.696, 5.052, 1.3, 0.01, -6.981, 4.655, 1.291, 0.01
 249420192, -6.38, 5.443, 1.306, 0.01, -6.696, 5.052, 1.3, 0.01
 249620945, -6.034, 5.821, 1.31, 0.01, -6.38, 5.443, 1.306, 0.01
 249820865, -5.665, 6.179, 1.31, 0.01, -6.034, 5.821, 1.31, 0.01
 250020785, -5.277, 6.512, 1.308, 0.01, -5.665, 6.179, 1.31, 0.01
 250220705, -4.875, 6.816, 1.303, 0.01, -5.277, 6.512, 1.308, 0.01
 250420625, -4.471, 7.085001, 1.298, 0.01, -4.875, 6.816, 1.303, 0.01
 250620545, -4.07, 7.321001, 1.291, 0.01, -4.471, 7.085001, 1.298, 0.01
 250820465, -3.678, 7.524, 1.284, 0.01, -4.07, 7.321001, 1.291, 0.01
 251020385, -3.3, 7.695, 1.276, 0.01, -3.678, 7.524, 1.284, 0.01
 251220305, -2.943, 7.837, 1.266, 0.01, -3.3, 7.695, 1.276, 0.01
 251420225, -2.609, 7.952, 1.255, 0.01, -2.943, 7.837, 1.266, 0.01
 251620145, -2.301, 8.044001, 1.244, 0.01, -2.609, 7.952, 1.255, 0.01
 251820898, -2.021, 8.115001, 1.232, 0.01, -2.301, 8.044001, 1.244, 0.01
 252020818, -1.771, 8.169001, 1.219, 0.01, -2.021, 8.115001, 1.232, 0.01
 252220738, -1.551, 8.208, 1.208, 0.01, -1.771, 8.169001, 1.219, 0.01
 252420658, -1.362, 8.235001, 1.2, 0.01, -1.551, 8.208, 1.208, 0.01
 252620578, -1.203, 8.254001, 1.194, 0.01, -1.362, 8.235001, 1.2, 0.01
 252820498, -1.073, 8.265, 1.188, 0.01, -1.203, 8.254001, 1.194, 0.01
 253020418, -0.9720001, 8.27, 1.182, 0.01, -1.073, 8.265, 1.188, 0.01
 253220338, -0.897, 8.272, 1.176, 0.01, -0.9720001, 8.27, 1.182, 0.01
 253420258, -0.8470001, 8.269, 1.171, 0.01, -0.897, 8.272, 1.176, 0.01
 253620178, -0.821, 8.264, 1.168, 0.01, -0.8470001, 8.269, 1.171, 0.01
 253820931, -0.8190001, 8.256001, 1.167, 0.01, -0.821, 8.264, 1.168, 0.01
 254020851, -0.8380001, 8.246, 1.167, 0.01, -0.8190001, 8.256001, 1.167, 0.01
 254220771, -0.8790001, 8.234, 1.168, 0.01, -0.8380001, 8.246, 1.167, 0.01
 254420691, -0.941, 8.221001, 1.169, 0.01, -0.8790001, 8.234, 1.168, 0.01
 254620611, -1.021, 8.204, 1.169, 0.01, -0.941, 8.221001, 1.169, 0.01
 254820531, -1.119, 8.185, 1.169, 0.01, -1.021, 8.204, 1.169, 0.01
 255020451, -1.231, 8.163, 1.171, 0.01, -1.119, 8.185, 1.169, 0.01
 255220371, -1.358, 8.137, 1.173, 0.01, -1.231, 8.163, 1.171, 0.01
 255420291, -1.498, 8.107, 1.175, 0.01, -1.358, 8.137, 1.173, 0.01
 255620211, -1.65, 8.073, 1.178, 0.01, -1.498, 8.107, 1.175, 0.01
 255820964, -1.811, 8.034, 1.181, 0.01, -1.65, 8.073, 1.178, 0.01
 256020884, -1.979, 7.991, 1.183, 0.01, -1.811, 8.034, 1.181, 0.01
 256220804, -2.155, 7.942, 1.185, 0.01, -1.979, 7.991, 1.183, 0.01
 256420724, -2.341, 7.886, 1.186, 0.01, -2.155, 7.942, 1.185, 0.01
 256620644, -2.531, 7.824, 1.186, 0.01, -2.341, 7.886, 1.186, 0.01
 256820564, -2.725, 7.756001, 1.187, 0.01, -2.531, 7.824, 1.186, 0.01
 257020484, -2.921, 7.681, 1.188, 0.01, -2.725, 7.756001, 1.187, 0.01
 257220404, -3.12, 7.6, 1.189, 0.01, -2.921, 7.681, 1.188, 0.01
 257420324, -3.322, 7.511, 1.189, 0.01, -3.12, 7.6, 1.189, 0.01
 257620244, -3.525, 7.416, 1.19, 0.01, -3.322, 7.511, 1.189, 0.01
 257820164, -3.727, 7.314, 1.189, 0.01, -3.525, 7.416, 1.19, 0.01
 258020917, -3.926, 7.207, 1.188, 0.01, -3.727, 7.314, 1.189, 0.01
 258220837, -4.122, 7.094, 1.187, 0.01, -3.926, 7.207, 1.188, 0.01
 258420757, -4.313, 6.976, 1.186, 0.01, -4.122, 7.094, 1.187, 0.01
 258620677, -4.501, 6.853, 1.185, 0.01, -4.313, 6.976, 1.186, 0.01
 258820597, -4.686, 6.725, 1.185, 0.01, -4.501, 6.853, 1.185, 0.01
 259020517, -4.868, 6.591, 1.183, 0.01, -4.686, 6.725, 1.185, 0.01
 259220437, -5.046, 6.453, 1.181, 0.01, -4.868, 6.591, 1.183, 0.01
 259420357, -5.218, 6.31, 1.178, 0.01, -5.046, 6.453, 1.181, 0.01
 259620277, -5.383, 6.165, 1.176, 0.01, -5.218, 6.31, 1.178, 0.01
 259820197, -5.543, 6.017, 1.176, 0.01, -5.383, 6.165, 1.176, 0.01
 260020950, -5.696, 5.867, 1.175, 0.01, -5.543, 6.017, 1.176, 0.01
 260220870, -5.844, 5.715, 1.174, 0.01, -5.696, 5.867, 1.175, 0.01
 260420790, -5.986, 5.561, 1.172, 0.01, -5.844, 5.715, 1.174, 0.01
 260620710, -6.124, 5.404, 1.17, 0.01, -5.986, 5.561, 1.172, 0.01
 260820630, -6.255, 5.246, 1.167, 0.01, -6.124, 5.404, 1.17, 0.01
 261020550, -6.378, 5.089, 1.165, 0.01, -6.255, 5.246, 1.167, 0.01
 261220470, -6.493001, 4.935, 1.162, 0.01, -6.378, 5.089, 1.165, 0.01
 261420390, -6.6, 4.783, 1.161, 0.01, -6.493001, 4.935, 1.162, 0.01
 261620310, -6.702, 4.632, 1.16, 0.01, -6.6, 4.783, 1.161, 0.01
 261820230, -6.799, 4.482, 1.159, 0.01, -6.702, 4.632, 1.16, 0.01
 262020150, -6.892, 4.33, 1.158, 0.01, -6.799, 4.482, 1.159, 0.01
 262220903, -6.98, 4.179, 1.156, 0.01, -6.892, 4.33, 1.158, 0.01
 262420823, -7.063, 4.029, 1.153, 0.01, -6.98, 4.179, 1.156, 0.01
 262620743, -7.14, 3.881, 1.15, 0.01, -7.063, 4.029, 1.153, 0.01
 262820663, -7.212, 3.736, 1.148, 0.01, -7.14, 3.881, 1.15, 0.01
 263020583, -7.279, 3.593, 1.148, 0.01, -7.212, 3.736, 1.148, 0.01
 263220503, -7.342, 3.451, 1.147, 0.01, -7.279, 3.593, 1.148, 0.01
 263420423, -7.403, 3.309, 1.145, 0.01, -7.342, 3.451, 1.147, 0.01
 263620343, -7.459001, 3.167, 1.144, 0.01, -7.403, 3.309, 1.145, 0.01
 263820263, -7.512001, 3.028, 1.142, 0.01, -7.459001, 3.167, 1.144, 0.01
 264020183, -7.561, 2.891, 1.14, 0.01, -7.512001, 3.028, 1.142, 0.01
 264220936, -7.606, 2.756, 1.139, 0.01, -7.561, 2.891, 1.14, 0.01
 264420856, -7.649, 2.621, 1.139, 0.01, -7.606, 2.756, 1.139, 0.01
 264620776, -7.689, 2.489, 1.139, 0.01, -7.649, 2.621, 1.139, 0.01
 264820696, -7.726, 2.358, 1.139, 0.01, -7.689, 2.489, 1.139, 0.01
 265020616, -7.761, 2.227, 1.138, 0.01, -7.726, 2.358, 1.139, 0.01
 265220536, -7.793, 2.096, 1.137, 0.01, -7.761, 2.227, 1.138, 0.01
 265420456, -7.824, 1.964, 1.136, 0.01, -7.793, 2.096, 1.137, 0.01
 265620376, -7.852, 1.83, 1.135, 0.01, -7.824, 1.964, 1.136, 0.01
 265820296, -7.879, 1.695, 1.134, 0.01, -7.852, 1.83, 1.135, 0.01
 266020216, -7.902, 1.562, 1.135, 0.01, -7.879, 1.695, 1.134, 0.01
 266220969, -7.924, 1.43, 1.136, 0.01, -7.902, 1.562, 1.135, 0.01
 266420889, -7.944, 1.295, 1.137, 0.01, -7.924, 1.43, 1.136, 0.01
 266620809, -7.963, 1.159, 1.138, 0.01, -7.944, 1.295, 1.137, 0.01
 266820729, -7.979001, 1.021, 1.137, 0.01, -7.963, 1.159, 1.138, 0.01
 267020649, -7.993001, 0.8840001, 1.136, 0.01, -7.979001, 1.021, 1.137, 0.01
 267220569, -8.004001, 0.749, 1.135, 0.01, -7.993001, 0.8840001, 1.136, 0.01
 267420489, -8.013, 0.6160001, 1.135, 0.01, -8.004001, 0.749, 1.135, 0.01
 267620409, -8.02, 0.486, 1.136, 0.01, -8.013, 0.6160001, 1.135, 0.01
 267820329, -8.025001, 0.357, 1.138, 0.01, -8.02, 0.486, 1.136, 0.01
 268020249, -8.028001, 0.226, 1.139, 0.01, -8.025001, 0.357, 1.138, 0.01
 268220169, -8.030001, 0.09200001, 1.138, 0.01, -8.028001, 0.226, 1.139, 0.01
 268420922, -8.029, -0.041, 1.137, 0.01, -8.030001, 0.09200001, 1.138, 0.01
 268620842, -8.026, -0.176, 1.136, 0.01, -8.029, -0.041, 1.137, 0.01
 268820762, -8.02, -0.309, 1.136, 0.01, -8.026, -0.176, 1.136, 0.01
 269020682, -8.012, -0.442, 1.137, 0.01, -8.02, -0.309, 1.136, 0.01
 269220602, -8.003, -0.574, 1.138, 0.01, -8.012, -0.442, 1.137, 0.01
 269420522, -7.992001, -0.706, 1.139, 0.01, -8.003, -0.574, 1.138, 0.01
 269620442, -7.978, -0.837, 1.138, 0.01, -7.992001, -0.706, 1.139, 0.01
 269820362, -7.963, -0.9680001, 1.138, 0.01, -7.978, -0.837, 1.138, 0.01
 270020282, -7.945, -1.098, 1.137, 0.01, -7.963, -0.9680001, 1.138, 0.01
 270220202, -7.925, -1.228, 1.137, 0.01, -7.945, -1.098, 1.137, 0.01
 270420955, -7.903, -1.358, 1.138, 0.01, -7.925, -1.228, 1.137, 0.01
 270620875, -7.879, -1.488, 1.139, 0.01, -7.903, -1.358, 1.138, 0.01
 270820795, -7.853, -1.619, 1.139, 0.01, -7.879, -1.488, 1.139, 0.01
 271020715, -7.824, -1.752, 1.139, 0.01, -7.853, -1.619, 1.139, 0.01
 271220635, -7.792, -1.885, 1.139, 0.01, -7.824, -1.752, 1.139, 0.01
 271420555, -7.758, -2.019, 1.14, 0.01, -7.792, -1.885, 1.139, 0.01
 271620475, -7.721, -2.155, 1.141, 0.01, -7.758, -2.019, 1.14, 0.01
 271820395, -7.682, -2.291, 1.141, 0.01, -7.721, -2.155, 1.141, 0.01
 272020315, -7.641, -2.425, 1.14, 0.01, -7.682, -2.291, 1.141, 0.01
 272220235, -7.598001, -2.557, 1.14, 0.01, -7.641, -2.425, 1.14, 0.01
 272420155, -7.552001, -2.689, 1.14, 0.01, -7.598001, -2.557, 1.14, 0.01
 272620908, -7.503, -2.821, 1.142, 0.01, -7.552001, -2.689, 1.14, 0.01
 272820828, -7.452, -2.953, 1.142, 0.01, -7.503, -2.821, 1.142, 0.01
 273020748, -7.400001, -3.083, 1.142, 0.01, -7.452, -2.953, 1.142, 0.01
 273220668, -7.344, -3.213, 1.141, 0.01, -7.400001, -3.083, 1.142, 0.01
 273420588, -7.287, -3.34, 1.14, 0.01, -7.344, -3.213, 1.141, 0.01
 273620508, -7.228, -3.465, 1.139, 0.01, -7.287, -3.34, 1.14, 0.01
 273820428, -7.167, -3.589, 1.139, 0.01, -7.228, -3.465, 1.139, 0.01
 274020348, -7.103, -3.713, 1.139, 0.01, -7.167, -3.589, 1.139, 0.01
 274220268, -7.037, -3.835, 1.14, 0.01, -7.103, -3.713, 1.139, 0.01
 274420188, -6.97, -3.956, 1.139, 0.01, -7.037, -3.835, 1.14, 0.01
 274620941, -6.901, -4.074, 1.138, 0.01, -6.97, -3.956, 1.139, 0.01
 274820861, -6.831, -4.19, 1.136, 0.01, -6.901, -4.074, 1.138, 0.01
 275020781, -6.758, -4.303, 1.135, 0.01, -6.831, -4.19, 1.136, 0.01
 275220701, -6.684, -4.417, 1.135, 0.01, -6.758, -4.303, 1.135, 0.01
 275420621, -6.607, -4.529, 1.136, 0.01, -6.684, -4.417, 1.135, 0.01
 275620541, -6.529, -4.639, 1.136, 0.01, -6.607, -4.529, 1.136, 0.01
 275820461, -6.449, -4.749, 1.136, 0.01, -6.529, -4.639, 1.136, 0.01
 276020381, -6.366, -4.858, 1.136, 0.01, -6.449, -4.749, 1.136, 0.01
