TimeUS,CAN,CAE,CAD,CAe
 77960470, 0, 0, 0, 0
 78040438, -1.27144, 1.465882, 0.01514938, 0.2024631
 78140398, -0.002756858, 0.003514419, -3.866556E-05, 0.0002593962
 78240358, -0.002621145, 0.003469545, -5.633961E-05, 0.0002593962
 78340318, -0.002761719, 0.003477059, 6.240255E-05, 0.0002593962
 78440278, -0.002749254, 0.00340547, -0.0001114399, 0.0002593962
 78540238, -0.002700385, 0.0035684, -0.0001239853, 0.0002593962
 78640198, -0.002620014, 0.00350563, 0.0001711351, 0.0002593962
 78740158, -0.002801575, 0.003484094, 2.244052E-05, 0.0002593962
 78840951, -0.002812153, 0.003461131, -0.0001124893, 0.0002615578
 78940911, -0.002704609, 0.003635912, 5.382292E-05, 0.0002593962
 79040871, -0.002717773, 0.003503702, -0.0001151864, 0.0002593962
 79140831, -0.002661343, 0.003639488, 5.765515E-05, 0.0002593962
 79240791, -0.002977927, 0.003559633, -3.636812E-05, 0.0002593962
 79340751, -0.002696182, 0.003483919, -9.094413E-05, 0.0002593962
 79440711, -0.002719369, 0.003461912, 1.450912E-05, 0.0002593962
 79540671, -0.002856406, 0.003489883, -2.640621E-06, 0.0002593962
 79640631, -0.002698047, 0.003549747, 1.955204E-05, 0.0002593962
 79740591, -0.002821269, 0.003488953, -2.908496E-05, 0.0002593962
 79840551, -0.002857111, 0.003603855, 1.568167E-05, 0.0002593962
 79940511, -0.002729438, 0.003327903, -6.739781E-05, 0.0002593962
 80040471, -0.002757626, 0.003580576, 0.00015532, 0.0002593962
 80140431, -0.002876941, 0.003459459, -4.978095E-05, 0.0002593962
 80240391, -0.002594617, 0.00355354, 6.76838E-06, 0.0002593962
 80340351, -0.002660893, 0.003485795, 0.0001245, 0.0002593962
 80440311, -0.002674737, 0.003459906, -1.984756E-05, 0.0002593962
 80540271, -0.002730759, 0.003488744, -6.461419E-05, 0.0002593962
 80640231, -0.002754907, 0.003437714, 0.000107846, 0.0002593962
 80740191, -0.002612429, 0.003444219, -0.0001603343, 0.0002593962
 80840151, -0.002674346, 0.003464469, 0.0001023646, 0.0002593962
 80940944, -0.002663917, 0.003498815, -7.873127E-05, 0.0002615578
 81040904, -0.002865599, 0.003648285, -3.061023E-05, 0.0002593962
 81140864, -0.002714312, 0.003603959, -1.690188E-05, 0.0002593962
 81240824, -0.00271059, 0.003460663, -3.564361E-05, 0.0002593962
 81340784, -0.002727383, 0.003560342, 1.708301E-05, 0.0002593962
 81440744, -0.002662252, 0.003467426, -0.0001315163, 0.0002593962
 81540704, -0.002675143, 0.003445421, -2.007635E-05, 0.0002593962
 81640664, -0.002742341, 0.003505205, 2.267884E-05, 0.0002593962
 81740624, -0.002744182, 0.003507921, 1.439472E-05, 0.0002593962
 81840584, -0.00267921, 0.003387089, -8.890409E-05, 0.0002593962
 81940544, -0.002741986, 0.003374618, -9.773158E-05, 0.0002593962
 82040504, -0.00274184, 0.003399635, 3.4452E-05, 0.0002593962
 82140464, -0.002867647, 0.003444575, -1.332703E-05, 0.0002593962
 82240424, -0.002802599, 0.003416762, -5.672092E-05, 0.0002593962
 82340384, -0.002758136, 0.003308937, 2.67494E-05, 0.0002593962
 82440344, -0.002768969, 0.003479569, 1.818883E-05, 0.0002593962
 82540304, -0.00268614, 0.00360922, 5.09821E-05, 0.0002593962
 82640264, -0.002728415, 0.003546534, -0.0001206106, 0.0002593962
 82740224, -0.002564068, 0.003427601, -4.720706E-05, 0.0002593962
 82840184, -0.003039134, 0.003474498, -3.037191E-05, 0.0002593962
 82940977, -0.002784953, 0.003505508, 5.118229E-05, 0.0002593962
 83040937, -0.002801175, 0.003649306, 7.841589E-05, 0.0002615578
 83140897, -0.002802223, 0.003539062, 5.837013E-05, 0.0002593962
 83240857, -0.002717524, 0.003579184, 0.0001445097, 0.0002593962
 83340817, -0.002853843, 0.003495907, -4.800782E-05, 0.0002593962
 83440777, -0.002793161, 0.003509311, 7.729299E-05, 0.0002593962
 83540737, -0.002562947, 0.003439244, 3.260261E-06, 0.0002593962
 83640697, -0.002722062, 0.00336081, 2.621553E-06, 0.0002593962
 83740657, -0.00267922, 0.003444827, 4.968562E-05, 0.0002593962
 83840617, -0.002705502, 0.003425525, 7.081059E-05, 0.0002593962
 83940577, -0.002885998, 0.003447724, 7.175436E-05, 0.0002593962
 84040537, -0.002752556, 0.003515335, -0.0001079413, 0.0002593962
 84140497, -0.002821979, 0.003503125, 2.3451E-05, 0.0002593962
 84240457, -0.002729564, 0.00350395, 1.807444E-05, 0.0002593962
 84340417, -0.002843632, 0.003548968, 0.0001281416, 0.0002593962
 84440377, -0.002760238, 0.003562526, 1.000004E-05, 0.0002593962
 84540337, -0.00273124, 0.003485203, -0.0001035181, 0.0002593962
 84640297, -0.002780334, 0.003509558, -9.104899E-05, 0.0002593962
 84740257, -0.002781254, 0.003578794, -4.870373E-05, 0.0002593962
 84840217, -0.002854769, 0.003429726, -0.0001095048, 0.0002593962
 84940177, -0.002800238, 0.003534809, -5.662558E-06, 0.0002593962
 85040970, -0.002789993, 0.003482384, -6.145878E-05, 0.0002593962
 85140930, -0.002919945, 0.003471478, -0.0001161981, 0.0002615578
 85240890, -0.002817223, 0.003457658, 5.802693E-05, 0.0002593962
 85340850, -0.002830802, 0.003438008, -7.449984E-05, 0.0002593962
 85440810, -0.002827907, 0.00349748, 2.557685E-05, 0.0002593962
 85540770, -0.002668312, 0.003489626, -8.447128E-05, 0.0002593962
 85640730, -0.002763146, 0.00350083, 3.500491E-05, 0.0002593962
 85740690, -0.002789775, 0.003508111, 1.508109E-05, 0.0002593962
 85840650, -0.002755314, 0.003343681, 0.000176893, 0.0002593962
 85940610, -0.002690563, 0.00355185, 1.226888E-05, 0.0002593962
 86040570, -0.002778623, 0.003570448, 0.0001375697, 0.0002593962
 86140530, -0.002676698, 0.003432652, -0.0001031558, 0.0002593962
 86240490, -0.00282441, 0.00351812, -8.999084E-06, 0.0002593962
 86340450, -0.002789518, 0.003295763, -0.0001860542, 0.0002593962
 86440410, -0.00281365, 0.003438405, -6.522429E-05, 0.0002593962
 86540370, -0.002751751, 0.003561482, -4.441392E-05, 0.0002593962
 86640330, -0.002861051, 0.003372667, -1.10296E-05, 0.0002593962
 86740290, -0.002797312, 0.003456831, -7.649222E-05, 0.0002593962
 86840250, -0.00279607, 0.003384504, -0.0001149099, 0.0002593962
 86940210, -0.002683099, 0.003475201, -5.370852E-05, 0.0002593962
 87040170, -0.002660557, 0.003447611, -0.0001344906, 0.0002593962
 87140963, -0.002789897, 0.003498103, -5.290376E-06, 0.0002615578
 87240923, -0.002755352, 0.003536658, 5.33558E-05, 0.0002593962
 87340883, -0.002777733, 0.003520627, -0.0001573696, 0.0002593962
 87440843, -0.002666726, 0.003500085, 9.781738E-05, 0.0002593962
 87540803, -0.002727542, 0.003708806, -1.529082E-05, 0.0002593962
 87640763, -0.002696748, 0.003408187, 1.525291E-07, 0.0002593962
 87740723, -0.002675626, 0.003369262, -3.771227E-05, 0.0002593962
 87840683, -0.002647877, 0.003655502, -9.148752E-05, 0.0002593962
 87940643, -0.002707203, 0.003331803, 0.0001324696, 0.0002593962
 88040603, -0.002786468, 0.003273494, -1.315546E-06, 0.0002593962
 88140563, -0.002767124, 0.003402152, 0.0001111254, 0.0002593962
 88240523, -0.002728584, 0.003498297, -8.113476E-05, 0.0002593962
 88340483, -0.002851685, 0.003443165, -3.951399E-05, 0.0002593962
 88440443, -0.002930579, 0.003572959, -8.576775E-05, 0.0002593962
 88540403, -0.002788922, 0.003514743, 4.881812E-05, 0.0002593962
 88640363, -0.002868759, 0.003520675, -0.0001289233, 0.0002593962
 88740323, -0.002792877, 0.003525633, 3.729282E-05, 0.0002593962
 88840283, -0.002886108, 0.003513315, -5.839872E-05, 0.0002593962
 88940243, -0.00280122, 0.003513595, 0.0001159776, 0.0002593962
 89040203, -0.00290813, 0.003554915, -2.653014E-05, 0.0002593962
 89140163, -0.002671796, 0.003533375, -0.0001165877, 0.0002593962
 89240956, -0.002760144, 0.003557852, -6.39445E-05, 0.0002615578
 89340916, -0.002796739, 0.003591181, 6.663517E-05, 0.0002593962
 89440876, -0.002820537, 0.003540651, -0.0001039185, 0.0002593962
 89540836, -0.002833733, 0.003528953, 0.0001274076, 0.0002593962
 89640796, -0.002611645, 0.003525311, -4.167796E-05, 0.0002593962
 89740756, -0.002884087, 0.003426545, -6.099168E-05, 0.0002593962
 89840716, -0.002659269, 0.00350147, -6.27648E-05, 0.0002593962
 89940676, -0.002683939, 0.003490168, -0.0001115639, 0.0002593962
 90040636, -0.002685204, 0.003477117, -9.084881E-06, 0.0002593962
 90140596, -0.002696612, 0.003459514, 6.084868E-05, 0.0002593962
 90240556, -0.002808074, 0.003448733, -0.0001267689, 0.0002593962
 90340516, -0.00278226, 0.003401378, 5.880863E-05, 0.0002593962
 90440476, -0.002674184, 0.003552569, -3.379423E-05, 0.0002593962
 90540436, -0.002684506, 0.003555691, -1.523362E-05, 0.0002593962
 90640396, -0.002742181, 0.003477036, 7.874196E-06, 0.0002593962
 90740356, -0.002671319, 0.003473663, 1.194476E-05, 0.0002593962
 90840316, -0.002685808, 0.003424079, -6.053409E-05, 0.0002593962
 90940276, -0.002601137, 0.003580911, 6.939018E-05, 0.0002593962
 91040236, -0.002709034, 0.003464228, 2.154442E-06, 0.0002593962
 91140196, -0.002754315, 0.003483106, 7.699747E-05, 0.0002593962
 91240156, -0.002649096, 0.003574324, -4.861794E-06, 0.0002593962
 91340949, -0.002743997, 0.003553642, 7.58261E-05, 0.0002615578
 91440909, -0.002708007, 0.003613519, 1.397527E-05, 0.0002593962
 91540869, -0.002891765, 0.003594581, -9.653997E-05, 0.0002593962
 91640829, -0.002737219, 0.00329536, -7.895172E-05, 0.0002593962
 91740789, -0.002795041, 0.003481974, -0.0002254347, 0.0002593962
 91840749, -0.002672071, 0.00340861, -0.0001443095, 0.0002593962
 91940709, -0.002728599, 0.00338207, 6.042924E-05, 0.0002593962
 92040669, -0.002807943, 0.003545855, 6.776005E-05, 0.0002593962
 92140629, -0.002797571, 0.003449208, -7.399459E-05, 0.0002593962
 92240589, -0.00268792, 0.003497413, 0.0001180367, 0.0002593962
 92340549, -0.002681417, 0.003371116, -1.258347E-05, 0.0002593962
 92440509, -0.002782091, 0.003358702, 1.269786E-05, 0.0002593962
 92540469, -0.002666424, 0.003441316, 7.29555E-05, 0.0002593962
 92640429, -0.002789882, 0.003471446, 0.0001955871, 0.0002593962
 92740389, -0.002788531, 0.003416982, -2.645388E-05, 0.0002593962
 92840349, -0.002718077, 0.003429455, 2.411831E-05, 0.0002593962
 92940309, -0.002761722, 0.003421375, 2.89515E-05, 0.0002593962
 93040269, -0.002616462, 0.003558163, -8.85609E-05, 0.0002593962
 93140229, -0.002768521, 0.00351234, -2.129656E-05, 0.0002593962
 93240189, -0.002700938, 0.003445613, -6.851316E-05, 0.0002593962
 93340149, -0.002845773, 0.003474251, -2.185901E-05, 0.0002593962
 93440942, -0.002710395, 0.003434387, -7.688308E-05, 0.0002615578
 93540902, -0.002758965, 0.003401857, 6.473812E-05, 0.0002593962
 93640862, -0.002773617, 0.00354696, -3.644438E-05, 0.0002593962
 93740822, -0.002761611, 0.003472884, -3.586287E-05, 0.0002593962
 93840782, -0.002757495, 0.003513278, -0.0001390378, 0.0002593962
 93940742, -0.002811032, 0.0034969, 0.0001770265, 0.0002593962
 94040702, -0.00281704, 0.003538972, -2.253584E-05, 0.0002593962
 94140662, -0.002584501, 0.003534379, 1.189709E-05, 0.0002593962
 94240622, -0.002719543, 0.003448079, -0.0001023074, 0.0002593962
 94340582, -0.002641311, 0.003429361, -7.560565E-05, 0.0002593962
 94440542, -0.002747743, 0.00360265, 1.746432E-05, 0.0002593962
 94540502, -0.002731476, 0.003596809, 5.376576E-06, 0.0002593962
 94640462, -0.002963031, 0.003451949, -3.545297E-05, 0.0002593962
 94740422, -0.00292234, 0.003386115, -0.0001212398, 0.0002593962
 94840382, -0.002884116, 0.003397423, -7.956183E-05, 0.0002593962
 94940342, -0.002721118, 0.003402738, -8.363237E-05, 0.0002593962
 95040302, -0.002688653, 0.00353497, 7.933303E-05, 0.0002593962
 95140262, -0.002721823, 0.00338112, -9.551994E-06, 0.0002593962
 95240222, -0.002871843, 0.00348623, 1.790284E-05, 0.0002593962
 95340182, -0.002713717, 0.003487504, -4.295538E-05, 0.0002593962
 95440975, -0.002829372, 0.003480158, -1.635851E-05, 0.0002593962
 95540935, -0.002883798, 0.003511043, 8.079151E-07, 0.0002615578
 95640895, -0.002697319, 0.003701023, 6.854176E-06, 0.0002593962
 95740855, -0.002709392, 0.003492229, 3.641579E-06, 0.0002593962
 95840815, -0.002731567, 0.003410058, -8.435689E-05, 0.0002593962
 95940775, -0.002769118, 0.003447981, 0.0001082369, 0.0002593962
 96040735, -0.0028447, 0.00363264, -9.20595E-05, 0.0002593962
 96140695, -0.002768924, 0.003400119, 5.120136E-05, 0.0002593962
 96240655, -0.002795628, 0.003174989, 5.653023E-06, 0.0002593962
 96340615, -0.002762597, 0.003329022, -8.497652E-05, 0.0002593962
 96440575, -0.002650158, 0.003361715, -1.765498E-05, 0.0002593962
 96540535, -0.002740889, 0.003503868, 0.0002420125, 0.0002593962
 96640495, -0.002681785, 0.003414151, 2.99906E-05, 0.0002593962
 96740455, -0.002694929, 0.00336694, 8.545317E-05, 0.0002593962
 96840415, -0.002866341, 0.003407054, 7.315569E-05, 0.0002593962
 96940375, -0.002807141, 0.003425567, -1.833182E-05, 0.0002593962
 97040335, -0.002790947, 0.003633275, 5.65112E-05, 0.0002593962
 97140295, -0.002696366, 0.003405442, 1.834136E-05, 0.0002593962
 97240255, -0.002767212, 0.003453176, -1.796957E-05, 0.0002593962
 97340215, -0.002656301, 0.003309203, -1.528128E-05, 0.0002593962
 97440175, -0.002816157, 0.003535082, 3.081043E-05, 0.0002593962
 97540968, -0.002707288, 0.003562342, 2.073372E-05, 0.0002615578
 97640928, -0.00276223, 0.003310094, -4.030522E-05, 0.0002593962
 97740888, -0.002812995, 0.003523349, -3.609167E-05, 0.0002593962
 97840848, -0.002644393, 0.003569252, 3.517653E-06, 0.0002593962
 97940808, -0.002752862, 0.003486245, -9.711194E-05, 0.0002593962
 98040768, -0.002548547, 0.003639072, -3.541483E-05, 0.0002593962
 98140728, -0.002720843, 0.003432938, -1.754059E-06, 0.0002593962
 98240688, -0.002718141, 0.003377846, 8.053418E-05, 0.0002593962
 98340648, -0.002715996, 0.003487107, -8.650179E-05, 0.0002593962
 98440608, -0.002868888, 0.003436792, 8.296507E-05, 0.0002593962
 98540568, -0.002796504, 0.003445045, 3.980951E-05, 0.0002593962
 98640528, -0.002788038, 0.003347317, 1.954251E-06, 0.0002593962
 98740488, -0.00290968, 0.003420332, -0.0001296192, 0.0002593962
 98840448, -0.002641427, 0.003646205, -0.000113623, 0.0002593962
 98940408, -0.00280829, 0.003426873, -1.159204E-05, 0.0002593962
 99040368, -0.002749593, 0.003482199, 0.0001059871, 0.0002593962
 99140328, -0.00271461, 0.003475689, 8.122057E-06, 0.0002593962
 99240288, -0.002663822, 0.003534886, -1.197336E-05, 0.0002593962
 99340248, -0.002633423, 0.00359332, -4.957127E-07, 0.0002593962
 99440208, -0.002754644, 0.003624129, 0.0001476651, 0.0002593962
 99540168, -0.00280645, 0.003542914, 2.428037E-05, 0.0002593962
 99640961, -0.002830109, 0.003514373, -5.735566E-05, 0.0002615578
 99740921, -0.002837172, 0.003581239, -7.226913E-05, 0.0002593962
 99840881, -0.002799122, 0.003589713, -6.90184E-05, 0.0002593962
 99940841, -0.002776804, 0.003499016, 8.061044E-05, 0.0002593962
 100040801, -0.002784513, 0.003640012, 1.678749E-05, 0.0002593962
 100140761, -0.002611637, 0.003427897, 9.153518E-05, 0.0002593962
 100240721, -0.002777675, 0.003495549, 6.889447E-05, 0.0002593962
 100340681, -0.002871643, 0.0035883, -7.776963E-05, 0.0002593962
 100440641, -0.002503857, 0.003474625, -6.720715E-06, 0.0002593962
 100540601, -0.00261366, 0.003645005, 3.438527E-05, 0.0002593962
 100640561, -0.00268494, 0.003491589, 6.297453E-05, 0.0002593962
 100740521, -0.002727938, 0.003383141, 6.303172E-05, 0.0002593962
 100840481, -0.002739045, 0.003528464, 0.0001422218, 0.0002593962
 100940441, -0.002738692, 0.003528783, 1.938044E-05, 0.0002593962
 101040401, -0.002636464, 0.00351934, -8.067717E-05, 0.0002593962
 101140361, -0.002656724, 0.003479082, -0.0002039379, 0.0002593962
 101240321, -0.002740735, 0.003495048, 0.0001033369, 0.0002593962
 101340281, -0.002732726, 0.003521619, 5.319374E-06, 0.0002593962
 101440241, -0.00276518, 0.003473112, -0.0001512399, 0.0002593962
 101540201, -0.002804844, 0.00338273, 5.208792E-05, 0.0002593962
 101640161, -0.002697052, 0.003409212, -0.0001111254, 0.0002593962
 101740954, -0.00262185, 0.003514603, -3.281234E-05, 0.0002615578
 101840914, -0.002819797, 0.003368955, -3.056257E-05, 0.0002593962
 101940874, -0.002864929, 0.003473068, -2.624415E-05, 0.0002593962
 102040834, -0.002709969, 0.003491908, 0.0001419167, 0.0002593962
 102140794, -0.002680951, 0.003552448, 4.089627E-05, 0.0002593962
 102240754, -0.002746088, 0.003486088, 8.303181E-06, 0.0002593962
 102340714, -0.002611912, 0.0034538, 7.542453E-05, 0.0002593962
 102440674, -0.002636049, 0.003501661, -2.755016E-05, 0.0002593962
 102540634, -0.002643439, 0.003531028, 9.184977E-05, 0.0002593962
 102640594, -0.002801183, 0.003358481, 0.0001860446, 0.0002593962
 102740554, -0.0027282, 0.003443355, 7.171622E-05, 0.0002593962
 102840514, -0.002671246, 0.003384789, -0.000201793, 0.0002593962
 102940474, -0.002820659, 0.00358096, -6.161132E-05, 0.0002593962
 103040434, -0.002657196, 0.003381826, 8.214525E-05, 0.0002593962
 103140394, -0.002683931, 0.003507082, 0.0002607923, 0.0002593962
 103240354, -0.002804443, 0.003470643, -4.126805E-05, 0.0002593962
 103340314, -0.00278815, 0.003489006, 0.000162851, 0.0002593962
 103440274, -0.002799013, 0.003339601, -0.0001265782, 0.0002593962
 103540234, -0.002733961, 0.003453942, -1.430892E-05, 0.0002593962
 103640194, -0.002592404, 0.00343294, -6.12872E-05, 0.0002593962
 103740154, -0.002698822, 0.003458736, -0.0001172646, 0.0002593962
 103840947, -0.002640998, 0.003635836, -3.869058E-05, 0.0002615578
 103940907, -0.002694825, 0.003529782, 0.0001043188, 0.0002593962
 104040867, -0.002780805, 0.00339244, 9.778878E-05, 0.0002593962
 104140827, -0.002817403, 0.003512435, 3.748347E-05, 0.0002593962
 104240787, -0.002600335, 0.003395825, -7.018142E-05, 0.0002593962
 104340747, -0.002688827, 0.003605683, -2.968554E-05, 0.0002593962
 104440707, -0.002834266, 0.003525009, 5.403264E-05, 0.0002593962
 104540667, -0.002667644, 0.003491787, -3.061023E-05, 0.0002593962
 104640627, -0.002623154, 0.003373078, -4.347969E-05, 0.0002593962
 104740587, -0.002844685, 0.003507465, -5.559604E-05, 0.0002593962
 104840547, -0.002676683, 0.003485453, -9.272679E-05, 0.0002593962
 104940507, -0.002745401, 0.00351066, -1.992379E-06, 0.0002593962
 105040467, -0.002821448, 0.003569416, -4.377521E-05, 0.0002593962
 105140427, -0.002765446, 0.003520869, -5.138249E-06, 0.0002593962
 105240387, -0.002711954, 0.003573634, 8.403276E-05, 0.0002593962
 105340347, -0.002857323, 0.003495994, -7.980014E-05, 0.0002593962
 105440307, -0.002793442, 0.003372259, 6.495738E-05, 0.0002593962
 105540267, -0.002642382, 0.003387151, -3.518604E-05, 0.0002593962
 105640227, -0.002699825, 0.00347333, -8.588215E-05, 0.0002593962
 105740187, -0.00273476, 0.003322622, -4.139197E-05, 0.0002593962
 105840147, -0.002762822, 0.00352547, 2.806494E-05, 0.0002593962
 105940940, -0.002619263, 0.003343828, 8.306835E-05, 0.0002615578
 106040900, -0.00277527, 0.003438138, -8.455708E-05, 0.0002593962
 106140860, -0.002693075, 0.003435387, -8.373724E-05, 0.0002593962
 106240820, -0.002651761, 0.003380385, 5.614896E-06, 0.0002593962
 106340780, -0.002656323, 0.003522719, -9.079161E-05, 0.0002593962
 106440740, -0.002818104, 0.003525195, -3.499538E-05, 0.0002593962
 106540700, -0.00278191, 0.003495509, 0.0001041949, 0.0002593962
 106640660, -0.002792033, 0.003407861, 2.20592E-05, 0.0002593962
 106740620, -0.002719877, 0.003407179, 0.0001116115, 0.0002593962
 106840580, -0.00277643, 0.00352748, 3.71784E-06, 0.0002593962
 106940540, -0.002831746, 0.003365926, -0.0001233847, 0.0002593962
 107040500, -0.002713903, 0.003388971, -0.0001804583, 0.0002593962
 107140460, -0.002740977, 0.003525336, 7.061994E-05, 0.0002593962
 107240420, -0.002733315, 0.003500498, -0.0001244619, 0.0002593962
 107340380, -0.002687997, 0.003431126, 0.0001155486, 0.0002593962
 107440340, -0.002763127, 0.003382324, -0.0001322884, 0.0002593962
 107540300, -0.002576632, 0.003422675, -5.147781E-06, 0.0002593962
 107640260, -0.002561165, 0.003502822, 2.797915E-05, 0.0002593962
 107740220, -0.002607416, 0.003595944, 2.701632E-05, 0.0002593962
 107840180, -0.002734547, 0.003380056, -7.560565E-05, 0.0002593962
 107940973, -0.002518088, 0.003459562, 5.841779E-05, 0.0002593962
 108040933, -0.002775817, 0.003492068, 0.0001276348, 0.0002615578
 108140893, -0.002513947, 0.003343605, -8.102943E-07, 0.0002593962
 108240853, -0.00260209, 0.003431076, -1.985709E-05, 0.0002593962
 108340813, -0.002734043, 0.003510306, -8.555804E-05, 0.0002593962
 108440773, -0.002807459, 0.003562097, 9.996229E-05, 0.0002593962
 108540733, -0.002738716, 0.0034169, -4.946637E-05, 0.0002593962
 108640693, -0.002675208, 0.003370386, -6.196424E-07, 0.0002593962
 108740653, -0.002664857, 0.003381821, 0.0001402389, 0.0002593962
 108840613, -0.002782134, 0.003521137, 2.921843E-05, 0.0002593962
 108940573, -0.002697462, 0.003450426, -8.119195E-05, 0.0002593962
 109040533, -0.002822708, 0.003439845, -7.759804E-06, 0.0002593962
 109140493, -0.0027633, 0.003386593, 1.820788E-06, 0.0002593962
 109240453, -0.002746965, 0.003485095, 0.0001132416, 0.0002593962
 109340413, -0.002882831, 0.00339228, -5.200213E-05, 0.0002593962
 109440373, -0.002837844, 0.003474764, -3.136332E-06, 0.0002593962
 109540333, -0.002793722, 0.003365823, 5.117276E-05, 0.0002593962
 109640293, -0.002730805, 0.003470426, 1.524315E-05, 0.0002593962
 109740253, -0.002689361, 0.003518538, -7.570098E-05, 0.0002593962
 109840213, -0.002749928, 0.003500374, -1.918979E-05, 0.0002593962
 109940173, -0.002694936, 0.003430896, 7.866573E-05, 0.0002593962
 110040966, -0.002711031, 0.003503693, -0.0001025243, 0.0002615578
 110140926, -0.002713602, 0.003384169, 8.293655E-07, 0.0002593962
 110240886, -0.002554807, 0.003554983, 8.564383E-05, 0.0002593962
 110340846, -0.00274332, 0.00346999, -0.0001514592, 0.0002593962
 110440806, -0.002902277, 0.003632168, -1.611066E-06, 0.0002593962
 110540766, -0.002810322, 0.00344033, 4.271705E-05, 0.0002593962
 110640726, -0.002662514, 0.00356313, 9.832263E-05, 0.0002593962
 110740686, -0.002699849, 0.003599748, -0.0001612876, 0.0002593962
 110840646, -0.002810827, 0.003512707, 2.101058E-05, 0.0002593962
 110940606, -0.002540961, 0.003595911, -4.15731E-05, 0.0002593962
 111040566, -0.002766986, 0.003555466, 3.510978E-05, 0.0002593962
 111140526, -0.002825285, 0.003398915, 1.33175E-05, 0.0002593962
 111240486, -0.00268685, 0.003547238, 2.237379E-05, 0.0002593962
 111340446, -0.002837117, 0.003528018, 7.751225E-05, 0.0002593962
 111440406, -0.002749291, 0.003520421, 0.0001334705, 0.0002593962
 111540366, -0.002747023, 0.00354766, 9.413767E-05, 0.0002593962
 111640326, -0.002793709, 0.003444368, -0.0001032702, 0.0002593962
 111740286, -0.002819909, 0.003444913, -5.234531E-05, 0.0002593962
 111840246, -0.002778055, 0.0033505, 1.8675E-05, 0.0002593962
 111940206, -0.00268828, 0.003410326, -0.0001556823, 0.0002593962
 112040166, -0.002708171, 0.003554107, -0.0001133084, 0.0002593962
 112140959, -0.002695335, 0.003446192, -2.723836E-05, 0.0002615578
 112240919, -0.002804881, 0.003520681, 8.393743E-05, 0.0002593962
 112340879, -0.002653781, 0.00331607, -2.928515E-05, 0.0002593962
 112440839, -0.002705549, 0.003369934, 5.023853E-05, 0.0002593962
 112540799, -0.002723313, 0.003452243, 5.340347E-05, 0.0002593962
 112640759, -0.002704567, 0.003392194, 4.102972E-05, 0.0002593962
 112740719, -0.002636428, 0.003356491, -5.714038E-05, 0.0002593962
 112840679, -0.002663049, 0.003456378, 0.0001289996, 0.0002593962
 112940639, -0.002708522, 0.003397861, 4.058168E-05, 0.0002593962
 113040599, -0.002611944, 0.003383405, 0.0001443953, 0.0002593962
 113140559, -0.002709407, 0.00362385, 5.375619E-05, 0.0002593962
 113240519, -0.002791637, 0.003424226, -9.028637E-05, 0.0002593962
 113340479, -0.002699003, 0.003491884, -0.0001241664, 0.0002593962
 113440439, -0.002782335, 0.003426676, 0.0001475697, 0.0002593962
 113540399, -0.002669691, 0.003484598, 5.167801E-05, 0.0002593962
 113640359, -0.002650988, 0.003384287, -5.747402E-05, 0.0002593962
 113740319, -0.002593565, 0.003440344, 1.775031E-05, 0.0002593962
 113840279, -0.002844865, 0.003414458, 8.25647E-05, 0.0002593962
 113940239, -0.00256151, 0.003456864, 9.435692E-05, 0.0002593962
 114040199, -0.002713027, 0.003405089, 0.0001011825, 0.0002593962
 114140159, -0.002692708, 0.003400658, -6.459512E-05, 0.0002593962
 114240952, -0.002766476, 0.003466041, 2.309392E-05, 0.0002615578
 114340912, -0.002705288, 0.00349792, -0.0001352151, 0.0002593962
 114440872, -0.002761587, 0.003531641, -7.550078E-06, 0.0002593962
 114540832, -0.002764339, 0.003427993, 2.468075E-05, 0.0002593962
 114640792, -0.002739811, 0.003386316, -5.952361E-05, 0.0002593962
 114740752, -0.002590729, 0.003516727, -5.449975E-05, 0.0002593962
 114840712, -0.002809967, 0.003440471, 0.0001497146, 0.0002593962
 114940672, -0.00274074, 0.003556531, -4.588198E-05, 0.0002593962
 115040632, -0.002747484, 0.003501544, -0.0001845003, 0.0002593962
 115140592, -0.002782539, 0.003497275, -2.838906E-05, 0.0002593962
 115240552, -0.002588912, 0.003449674, 2.69782E-06, 0.0002593962
 115340512, -0.002824673, 0.003556136, -0.0001524792, 0.0002593962
 115440472, -0.002569479, 0.003436617, -1.205915E-05, 0.0002593962
 115540432, -0.002746011, 0.003529633, -0.0001146239, 0.0002593962
 115640392, -0.002758475, 0.003492481, 2.322221E-05, 0.0002593962
 115740352, -0.002799931, 0.003606775, -6.500504E-05, 0.0002593962
 115840312, -0.00280337, 0.003418602, 2.707352E-05, 0.0002593962
 115940272, -0.002829252, 0.003478824, -0.0001373218, 0.0002593962
 116040232, -0.002645694, 0.003468271, 2.041E-05, 0.0002593962
 116140192, -0.002687715, 0.003525031, -1.662543E-05, 0.0002593962
 116240152, -0.002605159, 0.003420947, -3.479519E-06, 0.0002593962
 116340945, -0.002540549, 0.003558318, 1.060534E-07, 0.0002615578
 116440905, -0.002628893, 0.003427654, -7.669241E-05, 0.0002593962
 116540865, -0.002637572, 0.003253495, -5.921855E-05, 0.0002593962
 116640825, -0.002709575, 0.003505223, -2.330801E-05, 0.0002593962
 116740785, -0.002676915, 0.003363344, -3.918033E-05, 0.0002593962
 116840745, -0.002718588, 0.003451735, 0.0001188279, 0.0002593962
 116940705, -0.002671676, 0.003583258, 5.828433E-05, 0.0002593962
 117040665, -0.00268519, 0.003427327, 3.708309E-05, 0.0002593962
 117140625, -0.00287292, 0.003462863, -6.853222E-05, 0.0002593962
 117240585, -0.002804501, 0.003542792, -6.158272E-05, 0.0002593962
 117340545, -0.00259821, 0.003320381, -7.320336E-05, 0.0002593962
 117440505, -0.002679683, 0.003394457, 7.383253E-05, 0.0002593962
 117540465, -0.002763602, 0.003439483, -1.917072E-05, 0.0002593962
 117640425, -0.002692012, 0.00339651, -0.0001141282, 0.0002593962
 117740385, -0.002812244, 0.003486687, 7.979061E-06, 0.0002593962
 117840345, -0.002674974, 0.003414029, 0.0001198766, 0.0002593962
 117940305, -0.002727325, 0.003423852, -0.0001456155, 0.0002593962
 118040265, -0.00255417, 0.003442194, 1.200196E-05, 0.0002593962
 118140225, -0.002592661, 0.003447507, -0.0001405249, 0.0002593962
 118240185, -0.002756572, 0.003260283, 4.703546E-05, 0.0002593962
 118340145, -0.002780168, 0.003436305, -0.0001079128, 0.0002593962
 118440938, -0.002700175, 0.003549583, -3.976979E-05, 0.0002615578
 118540898, -0.002694881, 0.003344333, -4.748352E-05, 0.0002593962
 118640858, -0.002713923, 0.003555895, -8.623487E-05, 0.0002593962
 118740818, -0.002603854, 0.003533176, -2.678753E-05, 0.0002593962
 118840778, -0.002840119, 0.003383115, -0.000100744, 0.0002593962
 118940738, -0.002753156, 0.003386411, -4.17733E-05, 0.0002593962
 119040698, -0.002591218, 0.003470469, 5.092491E-05, 0.0002593962
 119140658, -0.00261564, 0.003480917, 4.08486E-05, 0.0002593962
 119240618, -0.002797327, 0.003510884, -0.0001554344, 0.0002593962
 119340578, -0.002720026, 0.003475515, -3.944726E-05, 0.0002593962
 119440538, -0.002718386, 0.003450632, -6.282198E-06, 0.0002593962
 119540498, -0.002624752, 0.003493811, -3.868462E-05, 0.0002593962
 119640458, -0.002771781, 0.003608951, 0.0001172932, 0.0002593962
 119740418, -0.002685891, 0.003512547, 4.655882E-05, 0.0002593962
 119840378, -0.002750027, 0.003470713, -1.045762E-05, 0.0002593962
 119940338, -0.00281327, 0.003504909, -8.467147E-05, 0.0002593962
 120040298, -0.00276796, 0.003571742, 2.930422E-05, 0.0002593962
 120140258, -0.002570853, 0.003376944, 0.0001430702, 0.0002593962
 120240218, -0.002926205, 0.003626169, 0.0001620217, 0.0002593962
 120340178, -0.002847812, 0.00357047, 6.167806E-06, 0.0002593962
 120440971, -0.002784648, 0.003332491, 3.353684E-05, 0.0002593962
 120540931, -0.002690193, 0.00352998, -6.906206E-06, 0.0002615578
 120640891, -0.002613198, 0.003481527, 4.54244E-05, 0.0002593962
 120740851, -0.002716415, 0.003448148, -2.056253E-05, 0.0002593962
 120840811, -0.002715214, 0.003559347, 1.633944E-05, 0.0002593962
 120940771, -0.002584207, 0.003440394, 4.300304E-05, 0.0002593962
 121040731, -0.002653324, 0.00353568, 4.93615E-05, 0.0002593962
 121140691, -0.002682558, 0.003383114, -0.0001051101, 0.0002593962
 121240651, -0.002580342, 0.003536184, -0.000102193, 0.0002593962
 121340611, -0.002625059, 0.00344868, 7.279344E-05, 0.0002593962
 121440571, -0.002722233, 0.003461517, 0.0001062445, 0.0002593962
 121540531, -0.002769511, 0.003493235, 0.0001831562, 0.0002593962
 121640491, -0.002771195, 0.003387898, -5.259316E-05, 0.0002593962
 121740451, -0.002535776, 0.003418099, -4.385147E-05, 0.0002593962
 121840411, -0.002831264, 0.003496443, 4.861793E-05, 0.0002593962
 121940371, -0.002640547, 0.003413005, 2.852252E-05, 0.0002593962
 122040331, -0.002777112, 0.003472483, 3.155399E-06, 0.0002593962
 122140291, -0.002697461, 0.003633528, -0.0001768358, 0.0002593962
 122240251, -0.0026683, 0.003382605, -6.66447E-05, 0.0002593962
 122340211, -0.002626864, 0.003565711, -3.05435E-05, 0.0002593962
 122440171, -0.00264698, 0.003411649, 3.248822E-05, 0.0002593962
 122540964, -0.002614354, 0.003467197, 4.633996E-05, 0.0002615578
 122640924, -0.002637815, 0.003623291, -9.607285E-05, 0.0002593962
 122740884, -0.002622562, 0.003482287, -0.0001265115, 0.0002593962
 122840844, -0.002725195, 0.003566006, 5.633963E-06, 0.0002593962
 122940804, -0.002854283, 0.003444059, -0.0001069309, 0.0002593962
 123040764, -0.002740243, 0.003391651, 6.088681E-05, 0.0002593962
 123140724, -0.0025172, 0.003523455, 3.732141E-05, 0.0002593962
 123240684, -0.002725185, 0.003367932, -4.399447E-05, 0.0002593962
 123340644, -0.002699928, 0.003467191, -7.207847E-05, 0.0002593962
 123440604, -0.002821928, 0.003422875, -7.714999E-05, 0.0002593962
 123540564, -0.00274434, 0.003501243, 4.677808E-05, 0.0002593962
 123640524, -0.002878773, 0.003408129, -8.761714E-05, 0.0002593962
 123740484, -0.002820814, 0.003362871, 0.0001601246, 0.0002593962
 123840444, -0.002667434, 0.003338981, -7.806515E-05, 0.0002593962
 123940404, -0.00271282, 0.003297949, -8.047699E-05, 0.0002593962
 124040364, -0.002628924, 0.003594885, -5.993352E-05, 0.0002593962
 124140324, -0.002808897, 0.003441579, 3.481426E-05, 0.0002593962
 124240284, -0.002695211, 0.003413246, 3.860836E-06, 0.0002593962
 124340244, -0.00259821, 0.003391608, -6.61204E-05, 0.0002593962
 124440204, -0.002772028, 0.00333904, -2.978087E-05, 0.0002593962
 124540164, -0.002712917, 0.003460426, 7.847507E-05, 0.0002593962
 124640957, -0.002739436, 0.003463684, 3.590736E-06, 0.0002615578
 124740917, -0.002698704, 0.003319548, -2.228799E-05, 0.0002593962
 124840877, -0.002922545, 0.003533502, -9.916152E-05, 0.0002593962
 124940837, -0.002602696, 0.003561191, 1.71974E-05, 0.0002593962
 125040797, -0.002837095, 0.00337343, -7.612997E-05, 0.0002593962
 125140757, -0.002749644, 0.003608195, 3.089622E-05, 0.0002593962
 125240717, -0.002686349, 0.003627137, 6.277434E-05, 0.0002593962
 125340677, -0.002841122, 0.003514206, 1.751199E-05, 0.0002593962
 125440637, -0.002778628, 0.003420673, 7.19736E-06, 0.0002593962
 125540597, -0.00276987, 0.003497597, 5.438536E-05, 0.0002593962
 125640557, -0.00276346, 0.003513564, 1.509063E-05, 0.0002593962
 125740517, -0.002876867, 0.003367482, -0.0001251769, 0.0002593962
 125840477, -0.002751903, 0.003577619, 0.0001325363, 0.0002593962
 125940437, -0.002884559, 0.003358572, 3.481426E-05, 0.0002593962
 126040397, -0.002633897, 0.00357143, -7.509087E-05, 0.0002593962
 126140357, -0.002748454, 0.003565307, 0.0001707157, 0.0002593962
 126240317, -0.00289079, 0.003310335, 3.06579E-05, 0.0002593962
 126340277, -0.002762918, 0.003440169, -0.00012593, 0.0002593962
 126440237, -0.002759492, 0.003396778, -0.0001158441, 0.0002593962
 126540197, -0.002688501, 0.00344357, -4.40326E-05, 0.0002593962
 126640157, -0.002784878, 0.003469712, 6.318426E-05, 0.0002593962
 126740950, -0.002697748, 0.003568978, -2.100104E-05, 0.0002615578
 126840910, -0.0027929, 0.003363979, 4.288865E-05, 0.0002593962
 126940870, -0.00277734, 0.003441362, 7.148743E-05, 0.0002593962
 127040830, -0.002652501, 0.003479268, 4.215461E-05, 0.0002593962
 127140790, -0.002460447, 0.003507221, -8.252656E-05, 0.0002593962
 127240750, -0.002677724, 0.003443664, -3.541483E-05, 0.0002593962
 127340710, -0.00268537, 0.003311247, -5.796021E-06, 0.0002593962
 127440670, -0.002733003, 0.003447409, 3.306973E-05, 0.0002593962
 127540630, -0.002781457, 0.003400949, 4.344156E-05, 0.0002593962
 127640590, -0.002767839, 0.003509073, -1.852248E-05, 0.0002593962
 127740550, -0.002748504, 0.003543399, 8.082017E-05, 0.0002593962
 127840510, -0.002755669, 0.003275269, -8.829398E-05, 0.0002593962
 127940470, -0.002829288, 0.00336255, -1.40706E-05, 0.0002593962
 128040430, -0.002781615, 0.003410606, -6.615855E-06, 0.0002593962
 128140390, -0.002631357, 0.003452594, -3.001919E-05, 0.0002593962
 128240350, -0.002647284, 0.00345153, 2.381325E-05, 0.0002593962
 128340310, -0.002723185, 0.003435187, -8.072483E-05, 0.0002593962
 128440270, -0.002574504, 0.003396113, 2.601536E-05, 0.0002593962
 128540230, -0.002673459, 0.003382508, -6.84083E-05, 0.0002593962
 128640190, -0.002816002, 0.003348355, 5.25169E-05, 0.0002593962
 128740150, -0.002963354, 0.003548758, -3.020032E-05, 0.0002593962
 128840943, -0.002643418, 0.00349883, -0.0001491391, 0.0002615578
 128940903, -0.002776295, 0.003350819, -8.754088E-05, 0.0002593962
 129040863, -0.002698591, 0.003452025, -8.244077E-05, 0.0002593962
 129140823, -0.002692917, 0.003327856, -8.293619E-07, 0.0002593962
 129240783, -0.002777725, 0.003556387, 4.274565E-05, 0.0002593962
 129340743, -0.002753695, 0.003379962, 5.336534E-05, 0.0002593962
 129440703, -0.002688884, 0.003334316, -4.162077E-05, 0.0002593962
 129540663, -0.002819286, 0.003459602, 1.089614E-05, 0.0002593962
 129640623, -0.002836865, 0.003503559, -5.057218E-05, 0.0002593962
 129740583, -0.002703099, 0.003367339, 9.782692E-05, 0.0002593962
 129840543, -0.002696833, 0.00337769, -2.263118E-05, 0.0002593962
 129940503, -0.002810894, 0.003525276, -1.08866E-05, 0.0002593962
 130040463, -0.002768616, 0.003535178, 7.253606E-05, 0.0002593962
 130140423, -0.002719281, 0.003485888, -4.521469E-05, 0.0002593962
 130240383, -0.002809834, 0.003440191, 2.067692E-05, 0.0002593962
 130340343, -0.00277515, 0.003474147, -0.0002166358, 0.0002593962
 130440303, -0.002773098, 0.003501681, 0.0001097335, 0.0002593962
 130540263, -0.002706339, 0.0033769, -0.0001012111, 0.0002593962
 130640223, -0.002622084, 0.003447674, -0.00014389, 0.0002593962
 130740183, -0.002775532, 0.003658192, -0.0001124409, 0.0002593962
 130840976, -0.002717804, 0.003436201, -3.897061E-05, 0.0002593962
 130940936, -0.002828967, 0.003551642, 0.0001027467, 0.0002615578
 131040896, -0.002638186, 0.003448049, -2.633948E-05, 0.0002593962
 131140856, -0.002807371, 0.00354499, -4.115365E-05, 0.0002593962
 131240816, -0.002703398, 0.003409992, -4.383241E-05, 0.0002593962
 131340776, -0.002868798, 0.003505304, -5.669233E-05, 0.0002593962
 131440736, -0.002684124, 0.003445525, -9.406141E-05, 0.0002593962
 131540696, -0.002724984, 0.003575106, -9.167816E-05, 0.0002593962
 131640656, -0.002841648, 0.003374434, -1.401341E-06, 0.0002593962
 131740616, -0.002780189, 0.003473681, 3.398489E-05, 0.0002593962
 131840576, -0.002733166, 0.003375639, 0.0001275029, 0.0002593962
 131940536, -0.002595392, 0.003471124, -2.571031E-05, 0.0002593962
 132040496, -0.002759983, 0.003391552, -2.678753E-06, 0.0002593962
 132140456, -0.002615118, 0.00342783, 0.0001281226, 0.0002593962
 132240416, -0.002808148, 0.003427491, -2.652061E-05, 0.0002593962
 132340376, -0.002769927, 0.00341256, -5.194492E-05, 0.0002593962
 132440336, -0.002513816, 0.003336742, -3.192578E-05, 0.0002593962
 132540296, -0.002737977, 0.003544218, 2.141096E-05, 0.0002593962
 132640256, -0.002615311, 0.003462823, 4.440438E-05, 0.0002593962
 132740216, -0.002808183, 0.003447331, 0.0001128222, 0.0002593962
 132840176, -0.002731977, 0.003359105, -0.00019818, 0.0002593962
 132940969, -0.002814719, 0.003419917, -3.733532E-05, 0.0002615578
 133040929, -0.002901536, 0.003481013, 1.555774E-05, 0.0002593962
 133140889, -0.002735581, 0.003347287, -2.168741E-05, 0.0002593962
 133240849, -0.002883006, 0.003390958, -5.056265E-05, 0.0002593962
 133340809, -0.002622982, 0.003421812, -0.0001028508, 0.0002593962
 133440769, -0.002699418, 0.003544496, 7.204034E-05, 0.0002593962
 133540729, -0.002849447, 0.003389035, 0.0001364925, 0.0002593962
 133640689, -0.002651282, 0.003369495, 9.483357E-05, 0.0002593962
 133740649, -0.002731137, 0.003473772, 6.359417E-05, 0.0002593962
 133840609, -0.00267587, 0.003451372, -8.484306E-05, 0.0002593962
 133940569, -0.002621717, 0.003700018, -2.400391E-05, 0.0002593962
 134040529, -0.002709514, 0.003465332, 1.984756E-05, 0.0002593962
 134140489, -0.002729245, 0.003372222, -1.362256E-05, 0.0002593962
 134240449, -0.002691423, 0.003430876, -3.652065E-05, 0.0002593962
 134340409, -0.002780793, 0.00341017, -6.673072E-07, 0.0002593962
 134440369, -0.002695879, 0.003540155, 0.0001801819, 0.0002593962
 134540329, -0.002807417, 0.003531142, -0.0001341188, 0.0002593962
 134640289, -0.002688976, 0.003396306, 2.469027E-06, 0.0002593962
 134740249, -0.002786677, 0.003470649, -0.000177179, 0.0002593962
 134840209, -0.002632545, 0.003409996, -5.666373E-05, 0.0002593962
 134940169, -0.002707181, 0.003551217, -8.779827E-06, 0.0002593962
 135040962, -0.002863192, 0.003592469, 9.242171E-06, 0.0002615578
 135140922, -0.00273732, 0.003481131, 0.000130992, 0.0002593962
 135240882, -0.002769893, 0.003376889, 3.795059E-05, 0.0002593962
 135340842, -0.002861463, 0.003512776, -4.190675E-05, 0.0002593962
 135440802, -0.002829385, 0.003686039, -4.2412E-05, 0.0002593962
 135540762, -0.002626291, 0.003556866, -0.0001674745, 0.0002593962
 135640722, -0.002616379, 0.003526498, -9.351803E-06, 0.0002593962
 135740682, -0.002725409, 0.003482631, -0.0001103627, 0.0002593962
 135840642, -0.002860294, 0.003432758, -0.0001002101, 0.0002593962
 135940602, -0.002810562, 0.003596833, 3.36989E-05, 0.0002593962
 136040562, -0.002705076, 0.003377888, -6.666377E-05, 0.0002593962
 136140522, -0.002613295, 0.003421421, 4.999067E-05, 0.0002593962
 136240482, -0.002794127, 0.003505351, -2.066739E-05, 0.0002593962
 136340442, -0.002616921, 0.003398885, -0.0001525269, 0.0002593962
 136440402, -0.002769889, 0.003422425, -2.890384E-05, 0.0002593962
 136540362, -0.002732203, 0.003487861, -7.759804E-06, 0.0002593962
 136640322, -0.002765912, 0.003501553, 7.45475E-06, 0.0002593962
 136740282, -0.002585601, 0.003428623, 8.545318E-05, 0.0002593962
 136840242, -0.002719913, 0.003337346, -8.43664E-06, 0.0002593962
 136940202, -0.002672281, 0.003664402, -4.121085E-05, 0.0002593962
 137040162, -0.002784267, 0.003459336, -0.0001103722, 0.0002593962
 137140955, -0.002769769, 0.003454828, -0.0001162918, 0.0002615578
 137240915, -0.002631795, 0.003459823, -7.507181E-05, 0.0002593962
 137340875, -0.002624535, 0.003467043, -1.73118E-05, 0.0002593962
 137440835, -0.002644987, 0.003536371, -7.421385E-05, 0.0002593962
 137540795, -0.002545906, 0.003428518, -8.148747E-05, 0.0002593962
 137640755, -0.002698341, 0.003459405, 6.310798E-05, 0.0002593962
 137740715, -0.002582477, 0.003492403, -3.243102E-05, 0.0002593962
 137840675, -0.002712724, 0.003533323, -2.454729E-05, 0.0002593962
 137940635, -0.002738433, 0.003504418, 7.191641E-05, 0.0002593962
 138040595, -0.002757941, 0.003469626, -2.478573E-07, 0.0002593962
 138140555, -0.002817681, 0.003401057, 1.274553E-05, 0.0002593962
 138240515, -0.002685063, 0.003487387, 3.85321E-05, 0.0002593962
 138340475, -0.002698805, 0.003410331, 0.0001175601, 0.0002593962
 138440435, -0.002667058, 0.003353231, -7.531013E-05, 0.0002593962
 138540395, -0.002749597, 0.003433247, 4.640629E-05, 0.0002593962
 138640355, -0.0027186, 0.003267356, -0.0001055009, 0.0002593962
 138740315, -0.002585937, 0.003354735, -0.0001034704, 0.0002593962
 138840275, -0.002712579, 0.003500559, -2.556731E-05, 0.0002593962
 138940235, -0.002581917, 0.00349786, 0.0001514878, 0.0002593962
 139040195, -0.002585892, 0.003312021, 5.528146E-05, 0.0002593962
 139140155, -0.002735742, 0.003482244, -0.0001133179, 0.0002593962
 139240948, -0.002726683, 0.00344798, -4.804477E-05, 0.0002615578
 139340908, -0.002740618, 0.003567119, 2.27837E-05, 0.0002593962
 139440868, -0.002669947, 0.003405062, 9.825589E-05, 0.0002593962
 139540828, -0.002721395, 0.003540862, -7.32987E-05, 0.0002593962
 139640788, -0.002761261, 0.003387761, -4.747399E-06, 0.0002593962
 139740748, -0.002788335, 0.003287211, 4.494776E-05, 0.0002593962
 139840708, -0.002828747, 0.003452925, 0.0001739759, 0.0002593962
 139940668, -0.002739894, 0.003485939, -8.423295E-05, 0.0002593962
 140040628, -0.002805596, 0.003500828, 3.852256E-05, 0.0002593962
 140140588, -0.002822233, 0.003516784, 9.480498E-05, 0.0002593962
 140240548, -0.002662797, 0.003505462, -4.804596E-05, 0.0002593962
 140340508, -0.002622797, 0.003632976, 8.075344E-05, 0.0002593962
 140440468, -0.002775989, 0.00360535, -0.0001954346, 0.0002593962
 140540428, -0.002711901, 0.003600887, 5.458555E-05, 0.0002593962
 140640388, -0.002759178, 0.003337812, -6.245975E-05, 0.0002593962
 140740348, -0.002758902, 0.003480334, -0.0001178746, 0.0002593962
 140840308, -0.002857859, 0.003514184, 8.511952E-05, 0.0002593962
 140940268, -0.002968635, 0.003408671, 0.000132746, 0.0002593962
 141040228, -0.002726944, 0.003290413, -8.052465E-05, 0.0002593962
 141140188, -0.002846126, 0.003507597, 5.663513E-05, 0.0002593962
 141240148, -0.002727936, 0.003532676, 2.43185E-05, 0.0002593962
 141340941, -0.002783103, 0.003627738, -1.588901E-05, 0.0002615578
 141440901, -0.002657591, 0.003560064, 1.956157E-05, 0.0002593962
 141540861, 0.01101703, 0.001938897, -6.205938E-06, 0.0002593962
 141640821, 0.07390021, -0.005115159, -0.0001356059, 0.0002593962
 141740781, 0.1657359, -0.01483289, 0.000627934, 0.0002593962
 141840741, 0.2688141, -0.02619087, 0.003831265, 0.0002593962
 141940701, 0.3768637, -0.03671334, 0.006866959, 0.0002593962
 142040661, 0.482693, -0.05068259, 0.009706409, 0.0002593962
 142140621, 0.5858258, -0.05989604, 0.01200861, 0.0002593962
 142240581, 0.6855134, -0.06976549, 0.01398046, 0.0002593962
 142340541, 0.7839885, -0.08141262, 0.0165055, 0.0002593962
 142440501, 0.8704112, -0.09300365, 0.01863687, 0.0002593962
 142540461, 0.9431013, -0.09813064, 0.02097138, 0.0002593962
 142640421, 0.9568681, -0.1018041, 0.02258044, 0.0002593962
 142740381, 0.9394063, -0.09920359, 0.02345259, 0.0002593962
 142840341, 0.9025942, -0.09888089, 0.02293592, 0.0002593962
 142940301, 0.8579798, -0.08883689, 0.02212033, 0.0002593962
 143040261, 0.8134974, -0.08247113, 0.02097464, 0.0002593962
 143140221, 0.7620394, -0.08120123, -0.004769724, 0.0002593962
 143240181, 0.7116218, -0.07852307, -0.04726477, 0.0002593962
 143340974, 0.6592989, -0.06875695, -0.01404097, 0.0002593962
 143440934, 0.6155164, -0.06375397, 0.0200527, 0.0002615578
 143540894, 0.5645801, -0.06163562, 0.03485874, 0.0002593962
 143640854, 0.8195314, -0.07997483, -0.1941004, 0.0002593962
 143740814, 0.8383943, -0.0942632, -0.7760715, 0.0002593962
 143840774, 0.734607, -0.08145972, -0.9138566, 0.0002593962
 143940734, 0.6367011, -0.07808439, -0.7670261, 0.0002593962
 144040694, 0.5905554, -0.0819475, -0.4986624, 0.0002593962
 144140654, 0.5859528, -0.08171926, -0.232094, 0.0002593962
 144240614, 0.5939648, -0.07359229, -0.01199547, 0.0002593962
 144340574, 0.5919111, -0.0779373, 0.1013947, 0.0002593962
 144440534, 0.5615025, -0.06832121, 0.07411125, 0.0002593962
 144540494, 0.5269493, -0.05605984, 0.01901563, 0.0002593962
 144640454, 0.4809783, -0.04611671, -0.0978975, 0.0002593962
 144740414, 0.4309761, -0.04934824, -0.2077831, 0.0002593962
 144840374, 0.3807801, -0.03980614, -0.2451621, 0.0002593962
 144940334, 0.3434891, -0.04197333, -0.2612488, 0.0002593962
 145040294, 0.3131985, -0.03513385, -0.2407754, 0.0002593962
 145140254, 0.2862176, -0.03543723, -0.2233129, 0.0002593962
 145240214, 0.2759404, -0.02781136, -0.1584571, 0.0002593962
 145340174, 0.2483577, -0.03626802, -0.1460363, 0.0002593962
 145440967, 0.2479614, -0.01839614, -0.08648039, 0.0002615578
 145540927, 0.2292277, -0.01523571, -0.05217409, 0.0002593962
 145640887, 0.2250364, -0.0212403, -0.01866338, 0.0002593962
 145740847, 0.2092787, -0.01786251, -0.02129268, 0.0002593962
 145840807, 0.1929176, -0.02061049, -0.03692738, 0.0002593962
 145940767, 0.160373, -0.01053301, -0.0685873, 0.0002593962
 146040727, 0.1524188, -0.007442998, -0.09251216, 0.0002593962
 146140687, 0.1182057, -0.01333047, -0.1179917, 0.0002593962
 146240647, 0.07702314, -0.01533608, -0.1634775, 0.0002593962
 146340607, 0.06462559, -0.01345238, -0.215367, 0.0002593962
 146440567, 0.05017796, -0.006101338, -0.2326542, 0.0002593962
 146540527, 0.04897387, -0.00173425, -0.1864224, 0.0002593962
 146640487, 0.04830246, -0.01334479, -0.1221732, 0.0002593962
 146740447, 0.05755212, -0.005810698, -0.04677867, 0.0002593962
 146840407, 0.07021766, 0.001199607, 0.006488797, 0.0002593962
 146940367, 0.0722663, 0.005871872, 0.01211836, 0.0002593962
 147040327, 0.05307967, -0.01421898, -0.02270009, 0.0002593962
 147140287, 0.04808261, -0.01831054, -0.02847204, 0.0002593962
 147240247, 0.05864491, -0.01044529, 0.01112643, 0.0002593962
 147340207, 0.05278205, -0.009743296, 0.0237411, 0.0002593962
 147440167, 0.04507907, -0.006939741, 0.003179031, 0.0002593962
 147540960, 0.04301314, -0.005536334, 0.0004170941, 0.0002615578
 147640920, 0.03285979, -0.006829715, -0.005139135, 0.0002593962
 147740880, 0.04910485, -0.003953783, 0.05610698, 0.0002593962
 147840840, 0.0535062, -0.002826551, 0.0773883, 0.0002593962
 147940800, 0.06659295, -0.004488585, 0.1188517, 0.0002593962
 148040760, 0.07893333, -0.006563987, 0.1596736, 0.0002593962
 148140720, 0.07604738, 0.001457814, 0.1528628, 0.0002593962
 148240680, 0.06663635, 0.00305142, 0.1124015, 0.0002593962
 148340640, 0.05635023, -0.004348976, 0.05281212, 0.0002593962
 148440600, 0.03623601, 0.006567863, -0.03049355, 0.0002593962
 148540560, 0.02063253, -0.0003774682, -0.05251517, 0.0002593962
 148640520, 0.01112493, -0.003262899, -0.06418829, 0.0002593962
 148740480, 0.007585071, -0.0008529145, -0.08075542, 0.0002593962
 148840440, -0.003025751, 0.007892756, -0.0902982, 0.0002593962
 148940400, -0.002897927, 0.002808153, -0.01059188, 0.0002593962
 149040360, -0.00879032, 0.004328547, 0.0285393, 0.0002593962
 149140320, -0.02508833, 0.004604794, 0.03693522, 0.0002593962
 149240280, -0.03437706, -0.002787676, 0.07261723, 0.0002593962
 149340240, -0.04390929, 0.001829677, 0.09606452, 0.0002593962
 149440200, -0.02690923, 0.005309617, 0.223167, 0.0002593962
 149540160, 0.02997377, 0.001695405, 0.5470154, 0.0002593962
 149640953, 0.05789276, 0.01343453, 0.7304773, 0.0002615578
 149740913, 0.05590458, 0.01582783, 0.7471111, 0.0002593962
 149840873, 0.02689729, 0.02028847, 0.5999775, 0.0002593962
 149940833, 0.003358603, 0.02142009, 0.4177616, 0.0002593962
 150040793, -0.007886085, 0.0313194, 0.2419694, 0.0002593962
 150140753, -0.01333044, 0.04308427, 0.09424764, 0.0002593962
 150240713, -0.02497176, 0.03720161, -0.05476372, 0.0002593962
 150340673, -0.02446441, 0.02912591, -0.03536239, 0.0002593962
 150440633, -0.01111299, 0.01519007, 0.04680756, 0.0002593962
 150540593, -0.001660858, 0.0106836, 0.09153989, 0.0002593962
 150640553, 0.006557432, 0.01832977, 0.1347385, 0.0002593962
 150740513, 0.009394223, 0.01762388, 0.1632673, 0.0002593962
 150840473, 0.01579513, 0.0143261, 0.2049318, 0.0002593962
 150940433, 0.01308239, 0.01340184, 0.1938952, 0.0002593962
 151040393, 0.01297892, 0.008215135, 0.1697332, 0.0002593962
 151140353, -0.004426873, 0.01280712, 0.113831, 0.0002593962
 151240313, -0.06987015, 0.03431007, 0.002151963, 0.0002593962
 151340273, -0.1626865, 0.0516828, -0.1355461, 0.0002593962
 151440233, -0.2697034, 0.06173757, -0.2325485, 0.0002593962
 151540193, -0.328617, 0.06091016, -0.2015438, 0.0002593962
 151640153, -0.3111745, 0.05086068, -0.09198627, 0.0002593962
 151740946, -0.2633163, 0.03721565, 0.06674397, 0.0002615578
 151840906, -0.2005379, 0.03219953, 0.2364101, 0.0002593962
 151940866, -0.1606124, 0.02909387, 0.3156278, 0.0002593962
 152040826, -0.129442, 0.02822682, 0.3503447, 0.0002593962
 152140786, -0.1075911, 0.02753485, 0.3250318, 0.0002593962
 152240746, -0.08805583, 0.02127192, 0.2607515, 0.0002593962
 152340706, -0.0791406, 0.0153288, 0.2057657, 0.0002593962
 152440666, -0.06934287, 0.01458544, 0.1594009, 0.0002593962
 152540626, -0.05559519, 0.01471726, 0.1395465, 0.0002593962
 152640586, -0.04154978, 0.01520381, 0.1085692, 0.0002593962
 152740546, -0.03105313, 0.01394378, 0.06696561, 0.0002593962
 152840506, -0.02050914, 0.01345464, 0.02694024, 0.0002593962
 152940466, -0.01646383, 0.01153052, 0.03235918, 0.0002593962
 153040426, -0.01016474, 0.008317106, 0.04567965, 0.0002593962
 153140386, -0.00269856, 0.003694919, 0.03981186, 0.0002593962
 153240346, -0.0004430716, 0.01348126, 0.06182959, 0.0002593962
 153340306, 0.005438465, 0.01928401, 0.08008711, 0.0002593962
 153440266, 0.009600507, 0.01633539, 0.07703542, 0.0002593962
 153540226, 0.01240166, 0.01914285, 0.075801, 0.0002593962
 153640186, 0.01863485, 0.01954398, 0.06143112, 0.0002593962
 153740146, 0.02420262, 0.01832177, 0.0350468, 0.0002593962
 153840939, 0.02268844, 0.01199474, 0.01995114, 0.0002615578
 153940899, 0.02418925, 0.0006562611, 0.0312184, 0.0002593962
 154040859, 0.02789919, 0.005084339, 0.0160654, 0.0002593962
 154140819, 0.02932023, 0.004085955, -0.01775869, 0.0002593962
 154240779, 0.02970282, 0.004691075, -0.00141726, 0.0002593962
 154340739, 0.02698399, 0.005304196, -0.01127403, 0.0002593962
 154440699, 0.02856047, -0.001208254, -0.05734784, 0.0002593962
 154540659, 0.03249518, 0.001754853, -0.05939008, 0.0002593962
 154640619, 0.02602437, 0.009661734, -0.03294928, 0.0002593962
 154740579, 0.02714015, 0.008124029, -0.0004204878, 0.0002593962
 154840539, 0.02970358, 0.003917792, 0.02111532, 0.0002593962
 154940499, 0.03305705, 0.007220411, 0.02194609, 0.0002593962
 155040459, 0.03435098, 0.006771031, 0.006575366, 0.0002593962
 155140419, 0.03001504, 0.003170436, -0.01275494, 0.0002593962
 155240379, 0.0263539, 0.002905262, -0.01338526, 0.0002593962
 155340339, 0.02569776, 0.006029204, -0.002329076, 0.0002593962
 155440299, 0.0263123, -0.0006684836, -0.03003467, 0.0002593962
 155540259, 0.0304831, 0.00115068, -0.006057233, 0.0002593962
 155640219, 0.02998424, 0.006539162, -0.008512952, 0.0002593962
 155740179, 0.0301293, 0.0001437172, -0.002266473, 0.0002593962
 155840972, 0.02752236, 0.0001886826, -0.02644268, 0.0002593962
 155940932, 0.03086282, 0.0004687682, -0.01466563, 0.0002615578
 156040892, 0.02658835, 0.008159722, -0.03055158, 0.0002593962
 156140852, 0.03276772, 0.003094621, -0.05342228, 0.0002593962
 156240812, 0.03229391, 0.002428145, -0.009563042, 0.0002593962
 156340772, 0.03039349, 0.0004054728, 0.004705816, 0.0002593962
 156440732, 0.02781365, 0.007605693, 0.0005894875, 0.0002593962
 156540692, 0.02664275, 0.006868588, 0.02405514, 0.0002593962
 156640652, 0.03249528, 0.006405788, -0.01645519, 0.0002593962
 156740612, 0.03044664, 0.0002664792, -0.06371949, 0.0002593962
 156840572, 0.03263697, 0.002565871, -0.06443618, 0.0002593962
 156940532, 0.02719447, 0.003080224, -0.06728923, 0.0002593962
 157040492, 0.02326175, 0.0021858, -0.05062198, 0.0002593962
 157140452, 0.01966381, 0.005739463, -0.01129082, 0.0002593962
 157240412, 0.02130738, 0.007898494, 0.02105125, 0.0002593962
 157340372, 0.02621409, 0.0121284, 0.002775569, 0.0002593962
 157440332, 0.02767476, 0.01678572, -0.02256554, 0.0002593962
 157540292, 0.02423793, 0.01586176, -0.01027437, 0.0002593962
 157640252, 0.01877118, 0.01478266, -0.01706967, 0.0002593962
 157740212, 0.02420727, 0.01030699, -0.01020983, 0.0002593962
 157840172, 0.02416221, 0.004294426, 0.02061752, 0.0002593962
 157940965, 0.02861131, 0.0004195561, 0.01308987, 0.0002615578
 158040925, 0.0330211, 0.005691849, 0.01263195, 0.0002593962
 158140885, 0.0319773, 0.004204884, -0.01898032, 0.0002593962
 158240845, 0.02893927, -0.0002041618, -0.02493883, 0.0002593962
 158340805, 0.02953475, 0.002606567, -0.01967492, 0.0002593962
 158440765, 0.02772837, 0.007927138, -0.05607645, 0.0002593962
 158540725, 0.0247518, 0.009465624, -0.06635794, 0.0002593962
 158640685, 0.02652668, 0.005511589, -0.03111241, 0.0002593962
 158740645, 0.02625201, 0.002105735, -0.02708505, 0.0002593962
 158840605, 0.02081171, -0.006769805, -0.02947885, 0.0002593962
 158940565, 0.01865987, 0.0005154571, -0.009453414, 0.0002593962
 159040525, 0.01989431, 0.002144469, -0.01995904, 0.0002593962
 159140485, 0.01447163, 0.004204764, -0.02837705, 0.0002593962
 159240445, 0.01159268, 0.008978728, -0.06129625, 0.0002593962
 159340405, 0.01307829, 0.007267782, -0.05965318, 0.0002593962
 159440365, 0.01727823, -0.002095448, -0.0457727, 0.0002593962
 159540325, 0.01402287, -0.004512542, -0.02013223, 0.0002593962
 159640285, 0.01213057, 0.003655639, 0.03309758, 0.0002593962
 159740245, 0.01647014, 0.003947913, 0.02334809, 0.0002593962
 159840205, 0.0100818, 0.002143993, -0.003004865, 0.0002593962
 159940165, 0.0128661, 0.001971351, 0.002400276, 0.0002593962
 160040958, 0.009973653, 0.007852854, -0.04999973, 0.0002615578
 160140918, 0.01354515, 0.00365312, -0.03043331, 0.0002593962
 160240878, 0.01693055, 0.002289666, -0.0322924, 0.0002593962
 160340838, 0.01490775, 0.007792044, -0.03530188, 0.0002593962
 160440798, 0.01468671, 0.01269102, 0.01612122, 0.0002593962
 160540758, 0.01480569, 0.007758771, 0.008273037, 0.0002593962
 160640718, 0.01222488, 5.281717E-05, -0.02117164, 0.0002593962
 160740678, 0.01198471, 0.001523845, -0.05332362, 0.0002593962
 160840638, 0.01460631, 0.008358197, -0.03150702, 0.0002593962
 160940598, 0.0123761, 0.01345063, -0.007438945, 0.0002593962
 161040558, 0.01651976, 0.01236601, 0.01256392, 0.0002593962
 161140518, 0.01606202, 0.01270472, 0.03077475, 0.0002593962
 161240478, 0.01725263, 0.008714309, 0.01047792, 0.0002593962
 161340438, 0.0150421, 0.01417214, -0.01318764, 0.0002593962
 161440398, 0.01433173, 0.007995945, -0.02735997, 0.0002593962
 161540358, 0.01312718, 0.008283838, 0.005448631, 0.0002593962
 161640318, 0.008783056, 0.01926121, -0.01100623, 0.0002593962
 161740278, 0.005654966, 0.009254154, -0.02714015, 0.0002593962
 161840238, 0.009058971, -0.003505068, -0.03849335, 0.0002593962
 161940198, 0.008864855, -0.006217547, -0.05372018, 0.0002593962
 162040158, 0.01041885, -0.001388024, -0.01365179, 0.0002593962
 162140951, 0.006910758, 0.005973896, 0.001004355, 0.0002615578
 162240911, 0.009643228, 0.01224073, 0.02993208, 0.0002593962
 162340871, 0.01163148, 0.01079097, -0.002757295, 0.0002593962
 162440831, 0.008007214, -0.001747411, -0.01566588, 0.0002593962
 162540791, 0.009296087, -0.004480014, -0.03134166, 0.0002593962
 162640751, 0.007996581, 0.01438802, -0.01334962, 0.0002593962
 162740711, 0.001328573, 0.00909098, -0.01465408, 0.0002593962
 162840671, 0.005943565, 0.01294539, -0.01239807, 0.0002593962
 162940631, 0.00700198, 0.01338435, -0.01707195, 0.0002593962
 163040591, 0.001387561, 0.004817625, -0.01051364, 0.0002593962
 163140551, 0.004672742, 0.009148452, 0.01170033, 0.0002593962
 163240511, 0.008909444, 0.0106714, 0.0131299, 0.0002593962
 163340471, 0.008491034, 0.01307401, 0.04447715, 0.0002593962
 163440431, 0.01478335, 0.01742785, 0.01579293, 0.0002593962
 163540391, 0.007809419, 0.01733623, -0.0001516119, 0.0002593962
 163640351, 0.005383729, 0.01074704, -0.02752768, 0.0002593962
 163740311, 0.01006836, 0.01551225, -0.02000367, 0.0002593962
 163840271, 0.006865026, 0.02031782, -0.04691739, 0.0002593962
 163940231, 0.007905602, 0.0267772, -0.02758117, 0.0002593962
 164040191, 0.00330334, 0.03551259, -0.01285554, 0.0002593962
 164140151, 0.009610046, 0.0282778, 0.01904614, 0.0002593962
 164240944, 0.00670531, 0.01419969, 0.03730099, 0.0002615578
 164340904, 0.004765653, 0.005991825, -0.004081399, 0.0002593962
 164440864, 0.005002135, 0.007918391, -0.02479833, 0.0002593962
 164540824, 0.002854353, 0.01821813, -0.01736412, 0.0002593962
 164640784, 0.007668618, 0.03078129, -0.008649207, 0.0002593962
 164740744, 0.0113296, 0.0329503, -0.03481345, 0.0002593962
 164840704, 0.01439378, 0.06991525, -0.02273806, 0.0002593962
 164940664, 0.01884244, 0.1175011, -0.01033082, 0.0002593962
 165040624, 0.01932608, 0.1123415, 0.008555507, 0.0002593962
 165140584, 0.0136661, 0.07279601, 0.02491506, 0.0002593962
 165240544, 0.009719953, 0.05437291, 0.02385867, 0.0002593962
 165340504, 0.01131018, 0.0441213, 0.03349862, 0.0002593962
 165440464, 0.01089621, 0.0400463, 0.01185835, 0.0002593962
 165540424, 0.009475176, 0.03908025, -0.02402178, 0.0002593962
 165640384, 0.004751256, 0.05048586, -0.01226211, 0.0002593962
 165740344, 0.01117025, 0.05143931, -0.0403825, 0.0002593962
 165840304, 0.006609332, 0.05026459, -0.05106447, 0.0002593962
 165940264, 0.002485905, 0.04886036, -0.04926214, 0.0002593962
 166040224, 0.002100765, 0.04247422, 0.002268751, 0.0002593962
 166140184, 0.0002612832, 0.04861119, -0.01187618, 0.0002593962
 166240977, 0.002615048, 0.04255062, 0.01525251, 0.0002593962
 166340937, 0.001798761, 0.05545534, 0.02908505, 0.0002615578
 166440897, 0.001515829, 0.05270761, 0.04616202, 0.0002593962
 166540857, 0.005112165, 0.04623887, 0.06710818, 0.0002593962
 166640817, 0.006249918, 0.03891228, 0.02783763, 0.0002593962
 166740777, 0.004020181, 0.04035221, -0.02019763, 0.0002593962
 166840737, 0.00863039, 0.03317473, -0.009412547, 0.0002593962
 166940697, 0.01261907, 0.03847213, -0.06069977, 0.0002593962
 167040657, 0.007508016, 0.04357088, -0.06958674, 0.0002593962
 167140617, 0.006607318, 0.03283268, 0.01599787, 0.0002593962
 167240577, -0.001749716, 0.0332664, -0.01672979, 0.0002593962
 167340537, -0.003587675, 0.0240664, -0.01661456, 0.0002593962
 167440497, -0.001514641, 0.02878512, 0.004485281, 0.0002593962
 167540457, 0.001782223, 0.02541837, -0.001231855, 0.0002593962
 167640417, 0.0005788548, 0.02775726, 0.003438184, 0.0002593962
 167740377, 0.002677132, 0.02696749, 0.01540563, 0.0002593962
 167840337, 0.0007239531, 0.02660229, 0.002493461, 0.0002593962
 167940297, 0.002106404, 0.02929515, -0.003619091, 0.0002593962
 168040257, 0.004680952, 0.02869069, 0.006245079, 0.0002593962
 168140217, 0.003455965, 0.02182885, 0.02202451, 0.0002593962
 168240177, 0.007339524, 0.02840619, -0.02795064, 0.0002593962
 168340970, -0.002880794, 0.03085765, 0.02416204, 0.0002593962
 168440930, -0.003995706, 0.02990609, 0.008633355, 0.0002615578
 168540890, -0.005392464, 0.02720075, -0.02199988, 0.0002593962
 168640850, -0.002609985, 0.02294841, -0.00657201, 0.0002593962
 168740810, 0.004252463, 0.02916286, 0.03244675, 0.0002593962
 168840770, 0.006598436, 0.02333043, -0.000904589, 0.0002593962
 168940730, 0.005821647, 0.01778459, 0.0202211, 0.0002593962
 169040690, 0.005459454, 0.01777492, 0.04697203, 0.0002593962
 169140650, -0.003389954, 0.02163069, 0.01360014, 0.0002593962
 169240610, -0.002777337, 0.02736147, -0.03235935, 0.0002593962
 169340570, -0.005291857, 0.02285725, -0.04114407, 0.0002593962
 169440530, -0.005008288, 0.02450585, -0.02603456, 0.0002593962
 169540490, -0.000319815, 0.02330104, -0.01697018, 0.0002593962
 169640450, -7.747061E-05, 0.01315214, 0.01176808, 0.0002593962
 169740410, -0.0005275351, 0.002488139, 0.008528186, 0.0002593962
 169840370, -0.0009951147, 0.003809196, 0.02824522, 0.0002593962
 169940330, -0.000537758, 0.009731566, -0.03880513, 0.0002593962
 170040290, -0.001892149, 0.01071654, -0.03285282, 0.0002593962
 170140250, -0.00300653, 0.01632564, 0.005385456, 0.0002593962
 170240210, 0.004173497, 0.009435416, 0.04433035, 0.0002593962
 170340170, 0.007561659, 0.003902794, 0.0513662, 0.0002593962
 170440963, 0.007207857, -0.002770739, 0.04089203, 0.0002615578
 170540923, 0.00400894, 0.004112301, 0.02568039, 0.0002593962
