TimeUS,CAN,CAE,CAD,CAe,NAN,NAE,NAD,NAe,m10,m00,Gye
 77693910, -2.145682E-06, 4.865555E-05, -5.600596E-08, 6.484905E-06, 0, 0, 0, 0, -0.9999962, -0.002227414, 0.8457913
 77806365, -0.05221637, 1.436443, -0.01798209, 0.2019074, -0.02671567, 1.408834, 0.0195264, 0.201901, -0.9999962, -0.002215416, 30.49256
 78006285, -0.02672356, 1.416125, 0.01954386, 0.2024261, -0.0001099605, 0.004194531, -5.336414E-05, 0.0005187925, -0.9999962, -0.002192747, 67.93536
 78206205, -8.892051E-05, 0.01162125, -0.0001900306, 0.00104407, 7.584241E-05, 0.004111476, 5.112748E-05, 0.0005187925, -0.9999963, -0.002170643, 0.3503954
 78406125, 4.212871E-05, 0.01172372, -3.014192E-05, 0.00104407, -8.552524E-05, 0.004445141, 0.0003255018, 0.0005187925, -0.9999963, -0.002149597, 0.3503954
 78606045, -0.0002006775, 0.01185517, 0.0003730962, 0.00104407, -0.0001045253, 0.004209924, -0.0001577485, 0.0005187925, -0.9999963, -0.002127128, 0.3503954
 78805965, -0.000374154, 0.01164856, -4.252163E-05, 0.00104407, -0.0003728922, 0.004044283, 4.157192E-05, 0.0005187925, -0.9999964, -0.002104638, 0.3503954
 79005885, -0.0002997198, 0.01152228, 0.0001518453, 0.00104407, 9.55244E-05, 0.004202762, -0.0001421812, 0.0005187925, -0.9999964, -0.002082945, 0.3503954
 79205805, 0.0001273545, 0.01169378, -0.0002731053, 0.00104407, -4.511073E-05, 0.004137297, -7.680561E-05, 0.0005187925, -0.9999964, -0.002061312, 0.3503954
 79406558, -0.0001186366, 0.01186338, 8.409673E-05, 0.001046232, -0.0002575046, 0.00442378, 0.0001853034, 0.0005209541, -0.9999964, -0.002039803, 0.3511209
 79606478, -0.0006146322, 0.01208993, 0.0002143431, 0.001046232, 2.760167E-05, 0.004278466, 0.0002143479, 0.0005187925, -0.9999965, -0.002023012, 0.3511209
 79806398, -3.949045E-05, 0.01208561, 0.0002631673, 0.00104407, 5.551947E-05, 0.004429299, 0.0002598438, 0.0005187925, -0.9999967, -0.00200478, 0.3503954
 80006318, 0.0001901413, 0.01205135, 0.0003766578, 0.00104407, -4.730112E-05, 0.004026356, -0.0001119237, 0.0005187925, -0.9999967, -0.001984575, 0.3503954
 80206238, -0.0001781915, 0.01139254, -7.653513E-05, 0.00104407, -0.0001381501, 0.004129903, -0.0001766034, 0.0005187925, -0.9999968, -0.001963817, 0.3503954
 80406158, -0.0001538876, 0.01168709, 1.238685E-05, 0.00104407, 4.298038E-05, 0.004026879, 0.0001040007, 0.0005187925, -0.9999968, -0.001943349, 0.3503954
 80606078, -0.0001787915, 0.01164692, 0.0002670245, 0.00104407, -0.000255378, 0.00423748, 0.0002175665, 0.0005187925, -0.9999968, -0.001923104, 0.3503954
 80805998, -0.000288894, 0.01178077, 0.0001362255, 0.00104407, -0.0001028063, 0.003974617, 5.355599E-05, 0.0005187925, -0.9999969, -0.001902143, 0.3503954
 81005918, -0.0001016621, 0.01133619, 0.0001684624, 0.00104407, -9.257177E-05, 0.003746465, -0.0001517988, 0.0005187925, -0.9999969, -0.001880793, 0.3503954
 81205838, -0.0001902226, 0.01122279, -0.0002884354, 0.00104407, -0.0001232371, 0.003981557, -0.0001316795, 0.0005187925, -0.9999969, -0.001858448, 0.3503954
 81406591, -0.0003918562, 0.01164208, -1.283014E-05, 0.001046232, -0.0004655205, 0.004280635, -0.0001508439, 0.0005209541, -0.999997, -0.001837279, 0.3511209
 81606511, -0.0004636731, 0.01176951, -0.0001027122, 0.001046232, 7.714547E-05, 0.003999038, 3.859287E-05, 0.0005187925, -0.999997, -0.001815408, 0.3511209
 81806431, -0.0001090909, 0.0114535, 2.20747E-05, 0.00104407, -0.000192991, 0.004013662, 7.120501E-05, 0.0005187925, -0.999997, -0.001793216, 0.3503954
 82006351, -0.0006227762, 0.01153594, 0.0002041679, 0.00104407, -0.0001723, 0.004029653, 9.938078E-06, 0.0005187925, -0.9999971, -0.001771055, 0.3503954
 82206271, -0.0003305248, 0.01158608, -1.516451E-05, 0.00104407, 0.0003011745, 0.004291146, -0.0001460302, 0.0005187925, -0.9999971, -0.001748226, 0.3503954
 82406191, 4.799525E-05, 0.01170873, -5.022897E-05, 0.00104407, -0.0001376117, 0.004000072, 8.315812E-05, 0.0005187925, -0.9999971, -0.00172597, 0.3503954
 82606111, -0.0001365614, 0.01126878, 0.0002134125, 0.00104407, -0.0001497569, 0.003900688, 0.0001395788, 0.0005187925, -0.9999973, -0.001703412, 0.3503954
 82806031, -0.0002954553, 0.01150296, 7.958565E-05, 0.00104407, 0.0001013247, 0.004171374, 3.607857E-05, 0.0005187925, -0.9999973, -0.001680753, 0.3503954
 83005951, 8.570667E-06, 0.01176001, -3.480704E-06, 0.00104407, 8.003547E-05, 0.003884818, -5.026951E-05, 0.0005187925, -0.9999974, -0.001657887, 0.3503954
 83205871, -0.0001493213, 0.01135234, -4.139079E-05, 0.00104407, -0.0002021931, 0.004245771, -0.0001105141, 0.0005187925, -0.9999974, -0.001634019, 0.3503954
 83405791, -0.0002467342, 0.01169955, -0.0002236389, 0.00104407, -0.0001011159, 0.004174871, 0.0002038307, 0.0005187925, -0.9999974, -0.001610685, 0.3503954
 83606544, -0.0003678564, 0.01161534, 0.000133583, 0.001046232, -0.0002113856, 0.003943558, -6.30631E-05, 0.0005209541, -0.9999974, -0.001587942, 0.3511209
 83806464, -0.0003297877, 0.01153073, -0.0001814478, 0.001046232, -9.767772E-05, 0.004026283, -0.0002079144, 0.0005187925, -0.9999975, -0.001563563, 0.3511209
 84006384, -7.969518E-05, 0.01147128, 7.175557E-05, 0.00104407, -0.0001634052, 0.003942412, -3.062215E-05, 0.0005187925, -0.9999975, -0.001539599, 0.3503954
 84206304, -0.0003067059, 0.01153364, 0.0001579356, 0.00104407, 7.06084E-05, 0.003857646, 3.376087E-05, 0.0005187925, -0.9999975, -0.001515527, 0.3503954
 84406224, 5.08716E-05, 0.01142907, 0.0004138887, 0.00104407, 0.0001526059, 0.004358226, 2.061138E-05, 0.0005187925, -0.9999976, -0.001492438, 0.3503954
 84606144, 0.0001470837, 0.01185898, 0.0001979596, 0.00104407, 3.581572E-05, 0.004221921, 8.637548E-05, 0.0005187925, -0.9999976, -0.001469428, 0.3503954
 84806064, 2.949002E-05, 0.01155001, 0.0001819216, 0.00104407, -0.0001707638, 0.004130848, -0.0002394564, 0.0005187925, -0.9999976, -0.001455682, 0.3503954
 85005984, -0.0002025028, 0.01146651, -0.0002701156, 0.00104407, -0.0001372395, 0.003780338, -3.029922E-05, 0.0005187925, -0.9999976, -0.001440992, 0.3503954
 85205904, -0.0001711425, 0.01138179, -9.816533E-05, 0.00104407, -6.107245E-05, 0.004408779, -0.0002395375, 0.0005187925, -0.9999976, -0.001424242, 0.3503954
 85405824, 7.273456E-05, 0.0120235, -0.0001249159, 0.00104407, -9.80847E-05, 0.0038988, 4.058525E-05, 0.0005187925, -0.9999977, -0.001408262, 0.3503954
 85606577, -8.96049E-05, 0.011385, -0.0001005684, 0.001046232, 0.0001520103, 0.004148049, -0.0002642047, 0.0005209541, -0.9999977, -0.00139211, 0.3511209
 85806497, 4.155434E-05, 0.01166398, -9.808029E-05, 0.001046232, -9.01589E-05, 0.004335366, 0.0001155141, 0.0005187925, -0.9999977, -0.001375334, 0.3511209
 86006417, -0.0002085001, 0.01196897, 0.0002236806, 0.00104407, 3.219086E-05, 0.004225824, 0.0002790419, 0.0005187925, -0.9999977, -0.001358223, 0.3503954
 86206337, -1.302647E-06, 0.01166627, 0.000374724, 0.00104407, 4.489315E-05, 0.0041922, 0.0001578236, 0.0005187925, -0.9999979, -0.001340404, 0.3503954
 86406257, 3.51685E-05, 0.0115135, 8.001112E-05, 0.00104407, -0.0002142523, 0.004059373, -2.369052E-05, 0.0005187925, -0.9999979, -0.00132195, 0.3503954
 86606177, -0.0004004746, 0.01149658, -0.0001366366, 0.00104407, 8.051553E-05, 0.003874543, -0.0002864287, 0.0005187925, -0.9999979, -0.001303851, 0.3503954
 86806097, -8.323486E-05, 0.01130905, -0.0002612475, 0.00104407, 5.021328E-05, 0.004208567, 0.0001025815, 0.0005187925, -0.9999979, -0.001285893, 0.3503954
 87006017, -0.0001862115, 0.01160029, 0.0002322329, 0.00104407, -0.0002361522, 0.004120854, 1.727962E-05, 0.0005187925, -0.999998, -0.001266858, 0.3503954
 87205937, -0.0004030218, 0.01156084, 9.955358E-05, 0.00104407, -0.0001546719, 0.003967008, 2.205681E-05, 0.0005187925, -0.999998, -0.001246623, 0.3503954
 87405857, -0.0002887655, 0.01118745, 0.0001410421, 0.00104407, 2.897906E-05, 0.004098482, -0.0001599887, 0.0005187925, -0.999998, -0.001227821, 0.3503954
 87605777, -0.0001600204, 0.01147973, -0.0001613603, 0.00104407, -0.0002337674, 0.003887252, -0.0001190925, 0.0005187925, -0.999998, -0.001208168, 0.3503954
 87806530, -0.0006902018, 0.01139805, -4.232781E-05, 0.001046232, -0.0004132296, 0.004187044, -0.000168852, 0.0005209541, -0.9999981, -0.00118984, 0.3511209
 88006450, -0.0003940941, 0.01132553, -3.431139E-05, 0.001046232, 0.0001315858, 0.003860567, 0.0001278318, 0.0005187925, -0.9999981, -0.001169785, 0.3511209
 88206370, -0.0001178173, 0.01118124, 3.153849E-05, 0.00104407, -3.862924E-05, 0.003810287, -3.960336E-05, 0.0005187925, -0.9999981, -0.001149609, 0.3503954
 88406290, -0.0002071854, 0.01113591, 0.000179828, 0.00104407, 7.606446E-05, 0.004114507, 0.0002642981, 0.0005187925, -0.9999981, -0.001129691, 0.3503954
 88606210, -0.0001327808, 0.01138827, 0.000284441, 0.00104407, -4.804539E-06, 0.004001339, 4.291367E-05, 0.0005187925, -0.9999981, -0.001109401, 0.3503954
 88806130, -0.0002504535, 0.01157508, 0.0002804421, 0.00104407, -0.0003191028, 0.004122681, -5.792564E-05, 0.0005187925, -0.9999981, -0.001090678, 0.3503954
 89006050, -0.0004173582, 0.01173279, -0.0001354701, 0.00104407, -0.0001847802, 0.004118866, -0.00014879, 0.0005187925, -0.9999981, -0.001071564, 0.3503954
 89205970, -0.0002600535, 0.01153249, -0.0002492741, 0.00104407, -0.0003071715, 0.003990273, 0.0002248985, 0.0005187925, -0.9999981, -0.001052243, 0.3503954
 89405890, -0.0004640261, 0.01149973, 0.0003606164, 0.00104407, -0.0005109846, 0.004067692, 0.0001518798, 0.0005187925, -0.9999982, -0.001032393, 0.3503954
 89605810, -0.0006173614, 0.01144579, 0.0003115409, 0.00104407, -1.750687E-05, 0.004044143, 0.0002255539, 0.0005187925, -0.9999982, -0.001011128, 0.3503954
 89806563, -0.0001862265, 0.01158436, 0.0003585779, 0.001046232, -8.269284E-05, 0.004345282, 8.452174E-05, 0.0005209541, -0.9999982, -0.0009919159, 0.3511209
 90006483, -7.693688E-05, 0.01202117, 0.0002151383, 0.001046232, -2.453095E-05, 0.004157863, -0.0001532287, 0.0005187925, -0.9999982, -0.0009858274, 0.3511209
 90206403, -0.0002054132, 0.01149455, -0.0001137743, 0.00104407, 1.524237E-05, 0.004144446, 2.003345E-05, 0.0005187925, -0.9999982, -0.0009788665, 0.3503954
 90406323, -0.0003953158, 0.01167843, -6.768856E-05, 0.00104407, 7.022895E-05, 0.00431912, -8.819746E-05, 0.0005187925, -0.9999982, -0.0009717184, 0.3503954
 90606243, -0.0002296355, 0.01173412, 6.428888E-05, 0.00104407, -0.0001720208, 0.004177602, 0.0002037497, 0.0005187925, -0.9999983, -0.0009634547, 0.3503954
 90806163, -0.000389081, 0.01153417, 0.0003561919, 0.00104407, -0.0001968254, 0.004004832, -0.0001168642, 0.0005187925, -0.9999983, -0.0009546238, 0.3503954
 91006083, -0.0004086443, 0.01141419, -0.0001905775, 0.00104407, -8.758492E-05, 0.004151683, -7.999199E-05, 0.0005187925, -0.9999983, -0.0009455787, 0.3503954
 91206003, -0.0003214206, 0.01135441, 0.0002018991, 0.00104407, -0.0001566073, 0.004052262, 2.920651E-06, 0.0005187925, -0.9999983, -0.0009346555, 0.3503954
 91405923, -0.000421376, 0.01153893, 0.0001229843, 0.00104407, 1.958384E-05, 0.003981463, 3.147296E-05, 0.0005187925, -0.9999983, -0.0009228216, 0.3503954
 91605843, -0.0003378328, 0.01126814, 6.324383E-05, 0.00104407, 6.992619E-05, 0.003825523, 0.0001439413, 0.0005187925, -0.9999983, -0.0009112633, 0.3503954
 91805763, -8.413343E-05, 0.01102511, 0.0004066879, 0.00104407, -9.757105E-05, 0.003708914, -5.876932E-05, 0.0005187925, -0.9999983, -0.0008986734, 0.3503954
 92006516, -0.0003749223, 0.01096237, 6.591462E-05, 0.001046232, 1.27928E-05, 0.00396419, 8.88739E-05, 0.0005209541, -0.9999983, -0.0008869254, 0.3511209
 92206436, -0.0003065615, 0.01125419, 4.656318E-05, 0.001046232, -0.0001692854, 0.003887691, -8.521009E-05, 0.0005187925, -0.9999983, -0.0008742921, 0.3511209
 92406356, -0.0005717303, 0.01126541, 1.563994E-05, 0.00104407, -0.000264153, 0.004213894, 0.0002487927, 0.0005187925, -0.9999983, -0.0008620114, 0.3503954
 92606276, -0.0004723665, 0.01148767, 0.0002958509, 0.00104407, -0.0001546787, 0.003990786, 8.260879E-05, 0.0005187925, -0.9999983, -0.0008484127, 0.3503954
 92806196, -0.0004568048, 0.01140251, 0.0001832527, 0.00104407, -0.0003064501, 0.003660262, 0.0001746706, 0.0005187925, -0.9999983, -0.0008356911, 0.3503954
 93006116, -0.0004180566, 0.01110097, -2.510974E-05, 0.00104407, -5.317781E-05, 0.004020143, -0.0002484388, 0.0005187925, -0.9999985, -0.0008223937, 0.3503954
 93206036, -9.366E-05, 0.01149691, -0.0002219993, 0.00104407, 0.0001393536, 0.003718924, 2.818172E-05, 0.0005187925, -0.9999985, -0.0008086783, 0.3503954
 93405956, -0.0001187848, 0.01107121, 0.0002514691, 0.00104407, -0.0004557951, 0.003952499, 0.0003414135, 0.0005187925, -0.9999985, -0.0007948003, 0.3503954
 93605876, -0.0009716012, 0.01146837, 0.0004333538, 0.00104407, -2.191325E-05, 0.00380935, 6.938304E-05, 0.0005187925, -0.9999985, -0.0007816426, 0.3503954
 93805796, -0.0002010294, 0.01135796, 0.0002008016, 0.00104407, -7.914157E-06, 0.004033361, 0.0003657177, 0.0005187925, -0.9999985, -0.0007679103, 0.3503954
 94006549, -0.0002315496, 0.01156268, 0.0004796232, 0.001046232, -0.0002956913, 0.004133983, 0.0001544934, 0.0005209541, -0.9999985, -0.000753382, 0.3511209
 94206469, -0.0005345405, 0.0116336, 3.568335E-05, 0.001046232, -0.0002304352, 0.004053486, 0.0002660426, 0.0005187925, -0.9999985, -0.0007390001, 0.3511209
 94406389, -0.0005329491, 0.01142739, 0.0003516732, 0.00104407, -0.0005287322, 0.004009783, -0.0001340556, 0.0005187925, -0.9999985, -0.000724353, 0.3503954
 94606309, -0.0004411359, 0.01148977, -0.0002169684, 0.00104407, 0.0001421084, 0.003746596, 0.0002419469, 0.0005187925, -0.9999985, -0.0007115667, 0.3503954
 94806229, 0.0001724166, 0.01113575, 0.0001860815, 0.00104407, -7.203891E-05, 0.003951824, 7.192713E-05, 0.0005187925, -0.9999985, -0.0006972835, 0.3503954
 95006149, -0.0001648283, 0.01131202, 0.0003344281, 0.00104407, 0.0001734889, 0.004291071, -0.0001150303, 0.0005187925, -0.9999985, -0.0006829363, 0.3503954
 95206069, 0.0002239382, 0.01199529, 9.155308E-05, 0.00104407, 0.0002997692, 0.00422151, 0.0001402806, 0.0005187925, -0.9999985, -0.0006862167, 0.3503954
 95405989, 0.0001195676, 0.01167981, 0.0003638588, 0.00104407, -0.0001163759, 0.004068621, 5.871807E-05, 0.0005187925, -0.9999985, -0.0006877538, 0.3503954
 95605909, -0.00030627, 0.01136207, 7.875512E-05, 0.00104407, -0.000258994, 0.004029833, -7.483825E-05, 0.0005187925, -0.9999985, -0.0006879459, 0.3503954
 95805829, -0.0002799697, 0.01144916, 9.022558E-05, 0.00104407, -0.0003852525, 0.003885617, 9.019461E-05, 0.0005187925, -0.9999986, -0.0006885119, 0.3503954
 96006582, -0.0004111706, 0.01151491, -4.53672E-05, 0.001046232, -2.133522E-05, 0.00424698, 0.0001151192, 0.0005209541, -0.9999986, -0.0006864064, 0.3511209
 96206502, -0.0002141884, 0.01163771, -8.073359E-05, 0.001046232, -0.0001630552, 0.004049309, -0.0002072316, 0.0005187925, -0.9999986, -0.0006850679, 0.3511209
 96406422, -0.0005001227, 0.0112924, -8.708333E-05, 0.00104407, -0.0001756611, 0.004047737, -1.97284E-05, 0.0005187925, -0.9999986, -0.0006828928, 0.3503954
 96606342, -0.0004161296, 0.0114556, -1.451983E-05, 0.00104407, -0.0003698154, 0.004151316, 8.831069E-06, 0.0005187925, -0.9999986, -0.0006812143, 0.3503954
 96806262, -0.0003627358, 0.01150497, -8.901968E-05, 0.00104407, -0.0001839108, 0.003843124, -5.30424E-05, 0.0005187925, -0.9999986, -0.0006773702, 0.3503954
 97006182, -0.0004390306, 0.01108786, 9.750514E-05, 0.00104407, -0.0002815904, 0.004437573, 9.972992E-05, 0.0005187925, -0.9999986, -0.0006740371, 0.3503954
 97206102, -0.0003879625, 0.01166014, 7.894458E-05, 0.00104407, -8.97413E-05, 0.003812304, -4.827834E-05, 0.0005187925, -0.9999986, -0.0006706828, 0.3503954
 97406022, -0.0004133929, 0.01121738, 1.837589E-05, 0.00104407, -0.0003248103, 0.004038657, 9.344652E-05, 0.0005187925, -0.9999986, -0.0006655854, 0.3503954
 97605942, -0.000417049, 0.0114599, 4.200088E-05, 0.00104407, 0.0001859381, 0.00373532, -0.0001182464, 0.0005187925, -0.9999986, -0.0006589163, 0.3503954
 97805862, -6.340073E-06, 0.01111362, -0.0002032064, 0.00104407, -0.0001378359, 0.004123325, 5.303168E-05, 0.0005187925, -0.9999986, -0.0006538187, 0.3503954
 98005782, -0.0002497946, 0.01146703, 0.0002408125, 0.00104407, -9.314362E-05, 0.003977489, 5.107266E-05, 0.0005187925, -0.9999986, -0.0006480249, 0.3503954
 98206535, -6.403508E-05, 0.01147511, 0.0001784123, 0.001046232, -0.0001348394, 0.003888241, 0.0001117648, 0.0005209541, -0.9999986, -0.0006403235, 0.3511209
 98406455, -0.0001189919, 0.01137237, 0.0001911682, 0.001046232, -4.197279E-06, 0.004135935, 1.412303E-05, 0.0005187925, -0.9999986, -0.000633987, 0.3511209
 98606375, -0.0004286722, 0.01146907, 6.654103E-05, 0.00104407, -0.000405033, 0.004079734, 0.0001090198, 0.0005187925, -0.9999986, -0.0006267546, 0.3503954
 98806295, -0.0007237337, 0.01138318, 0.0001654856, 0.00104407, -0.0001252707, 0.004458039, -0.0001379701, 0.0005187925, -0.9999986, -0.0006198233, 0.3503954
 99006215, -0.000235886, 0.01203743, 6.077256E-06, 0.00104407, -9.511442E-05, 0.004122998, 3.532308E-05, 0.0005187925, -0.9999986, -0.0006118239, 0.3503954
 99206135, -0.0004172875, 0.01161398, -9.271727E-05, 0.00104407, -0.0002943853, 0.003806498, -0.00015777, 0.0005187925, -0.9999985, -0.0006045832, 0.3503954
 99406055, -0.0006073454, 0.01120243, -0.000111851, 0.00104407, -0.0004082092, 0.004006525, -0.0001050004, 0.0005187925, -0.9999985, -0.0005970412, 0.3503954
 99605975, -0.00073277, 0.01143581, 0.0001254045, 0.00104407, 0.0001510749, 0.003955127, 0.0003335929, 0.0005187925, -0.9999986, -0.0005893986, 0.3503954
 99805895, 0.0002395185, 0.01146167, 0.0005463977, 0.00104407, 0.0001072692, 0.003915386, 0.0004651914, 0.0005187925, -0.9999986, -0.0005800883, 0.3503954
 100005815, -5.604274E-06, 0.01148189, 0.0005090035, 0.00104407, 1.700063E-05, 0.003921273, 1.974984E-05, 0.0005187925, -0.9999986, -0.0005713796, 0.3503954
 100206568, -5.251285E-05, 0.01154337, -6.776443E-05, 0.001046232, -0.0002101994, 0.004019469, -0.0001643263, 0.0005209541, -0.9999986, -0.0005614505, 0.3511209
 100406488, -0.0004207504, 0.01157978, -6.286137E-05, 0.001046232, -0.000285842, 0.004267379, 4.575328E-05, 0.0005187925, -0.9999986, -0.0005730026, 0.3511209
 100606408, -0.0004266448, 0.01169918, 1.728914E-05, 0.00104407, -0.0001287799, 0.003820015, 4.437578E-05, 0.0005187925, -0.9999986, -0.0005840474, 0.3503954
 100806328, -0.0001870376, 0.01105251, 0.0001750484, 0.00104407, 4.137465E-05, 0.00392396, 0.000109276, 0.0005187925, -0.9999986, -0.0005924443, 0.3503954
 101006248, -0.0001947918, 0.01126637, 0.0001415724, 0.00104407, -0.0001551992, 0.004069244, -0.0001062921, 0.0005187925, -0.9999986, -0.0005998201, 0.3503954
 101206168, -0.0004089936, 0.01165568, -0.0001166008, 0.00104407, -0.0003425868, 0.003804009, -0.0001258347, 0.0005187925, -0.9999986, -0.0006059273, 0.3503954
 101406088, -0.0004212875, 0.0110241, -0.0001678641, 0.00104407, -0.0002159961, 0.003818472, 0.0001100017, 0.0005187925, -0.9999986, -0.0006117687, 0.3503954
 101606008, -0.000515429, 0.01111816, 0.0001314722, 0.00104407, -0.0001308457, 0.003919126, 0.0005276429, 0.0005187925, -0.9999986, -0.0006157826, 0.3503954
 101805928, -0.0005790042, 0.01142416, 0.0004681646, 0.00104407, -0.0002115828, 0.004296338, 5.850954E-05, 0.0005187925, -0.9999986, -0.000619382, 0.3503954
 102005848, -0.0005782074, 0.01154121, 0.0001909529, 0.00104407, -0.0001343325, 0.003925035, -5.988705E-05, 0.0005187925, -0.9999986, -0.0006235339, 0.3503954
 102205768, -0.0005935106, 0.01152782, 0.0001105617, 0.00104407, -0.0003331723, 0.004233325, -0.0001415485, 0.0005187925, -0.9999986, -0.0006267919, 0.3503954
 102406521, -0.0005702769, 0.01181414, -1.613091E-05, 0.001046232, -0.0002955322, 0.004247556, -4.889479E-05, 0.0005209541, -0.9999986, -0.0006276066, 0.3511209
 102606441, -0.0003632206, 0.0116386, -0.0001613869, 0.001046232, 2.206276E-05, 0.003654953, -0.0003482378, 0.0005187925, -0.9999986, -0.000628475, 0.3511209
 102806361, -0.0003047592, 0.01103847, -0.00030097, 0.00104407, -5.834537E-05, 0.003992475, 0.000263234, 0.0005187925, -0.9999986, -0.0006294015, 0.3503954
 103006281, -0.000238855, 0.01130513, 0.0003035357, 0.00104407, -0.0001961766, 0.003703775, 9.721798E-05, 0.0005187925, -0.9999986, -0.0006297932, 0.3503954
 103206201, -0.0006227315, 0.01105117, 2.227722E-05, 0.00104407, -0.0002729838, 0.003820479, 0.0002435246, 0.0005187925, -0.9999986, -0.0006301022, 0.3503954
 103406121, -0.0004075529, 0.01111405, 0.0003549181, 0.00104407, 5.028585E-05, 0.004170971, 0.0001568393, 0.0005187925, -0.9999986, -0.0006296132, 0.3503954
 103606041, -0.0002440761, 0.01153521, 0.0001245882, 0.00104407, -0.0002206749, 0.004044899, 1.203294E-05, 0.0005187925, -0.9999986, -0.0006286807, 0.3503954
 103805961, -0.0005158521, 0.01128263, 0.0001593036, 0.00104407, -0.0003857956, 0.003861509, 0.0003580734, 0.0005187925, -0.9999986, -0.0006258292, 0.3503954
 104005881, -0.0005149486, 0.01126977, 0.0004622458, 0.00104407, -0.0002288177, 0.004030478, 0.0002391395, 0.0005187925, -0.9999986, -0.0006237701, 0.3503954
 104205801, -0.0004797474, 0.01142163, 0.0003362287, 0.00104407, -0.0003812021, 0.00387737, 0.0001645252, 0.0005187925, -0.9999986, -0.0006209634, 0.3503954
 104406554, -0.0004670711, 0.01111105, 0.0001482438, 0.001046232, -8.146329E-05, 0.003954548, 7.962936E-05, 0.0005209541, -0.9999986, -0.0006173974, 0.3511209
 104606474, -0.0003323617, 0.01131113, 6.151681E-05, 0.001046232, -0.0003593115, 0.00418, -6.655176E-06, 0.0005187925, -0.9999985, -0.0006136124, 0.3511209
 104806394, -0.0005648226, 0.01196267, -0.000385221, 0.00104407, 9.367158E-05, 0.003827056, -8.385403E-06, 0.0005187925, -0.9999985, -0.0006093064, 0.3503954
 105006314, -0.0002752656, 0.01106927, 8.837978E-05, 0.00104407, -0.0004040238, 0.003963876, 0.0001935244, 0.0005187925, -0.9999985, -0.0006050412, 0.3503954
 105206234, -0.0007056461, 0.01137337, 0.0003096605, 0.00104407, -0.0002927066, 0.003693358, -0.0001268118, 0.0005187925, -0.9999985, -0.0006015401, 0.3503954
 105406154, -0.0004964755, 0.01134233, 9.324874E-05, 0.00104407, -0.0002043446, 0.004370698, -3.424942E-05, 0.0005187925, -0.9999985, -0.0005969019, 0.3503954
 105606074, -0.0002146756, 0.01181076, 6.395165E-05, 0.00104407, 0.0001454058, 0.003899288, 6.847026E-05, 0.0005187925, -0.9999985, -0.0006125997, 0.3503954
 105805994, -0.0002190351, 0.01133519, 0.0001871278, 0.00104407, 3.410521E-06, 0.004115202, -0.0001143213, 0.0005187925, -0.9999985, -0.0006275811, 0.3503954
 106005914, -0.0001283546, 0.01166589, 8.724059E-05, 0.00104407, -6.14187E-05, 0.004075381, 0.0002000557, 0.0005187925, -0.9999985, -0.0006398734, 0.3503954
 106205834, -0.0001640205, 0.01127877, 0.0004685459, 0.00104407, 0.0002242434, 0.003863631, 0.0004213602, 0.0005187925, -0.9999986, -0.0006526281, 0.3503954
 106406587, -0.000116444, 0.01114949, 0.0006137692, 0.001046232, -0.0003374422, 0.003406136, 0.00019892, 0.0005209541, -0.9999986, -0.0006637651, 0.3511209
 106606507, -0.0006035803, 0.01093349, 0.0002997546, 0.001046232, 5.680281E-05, 0.003793156, -6.253602E-06, 0.0005187925, -0.9999986, -0.0006730906, 0.3511209
 106806427, -0.0003744254, 0.01133865, 0.0003676184, 0.00104407, -0.0001079103, 0.004296266, 0.0001728225, 0.0005187925, -0.9999986, -0.0006817126, 0.3503954
 107006347, -0.0001061379, 0.01159439, 0.0001794919, 0.00104407, 0.0001022778, 0.003922106, -6.486085E-05, 0.0005187925, -0.9999986, -0.0006896388, 0.3503954
 107206267, -0.0001186264, 0.01127853, -3.247869E-05, 0.00104407, -0.000392621, 0.004359746, 4.005022E-05, 0.0005187925, -0.9999986, -0.00069656, 0.3503954
 107406187, -0.0005349076, 0.0115392, 1.394788E-05, 0.00104407, 2.782895E-05, 0.003660074, 0.0001117533, 0.0005187925, -0.9999986, -0.0007027577, 0.3503954
 107606107, -2.483063E-05, 0.01086613, -3.610953E-05, 0.00104407, 1.70253E-05, 0.003899877, -0.0001114781, 0.0005187925, -0.9999986, -0.0007089851, 0.3503954
 107806027, -9.697392E-05, 0.01120978, -7.812116E-05, 0.00104407, -0.0001914302, 0.00388373, -3.941866E-05, 0.0005187925, -0.9999986, -0.0007137975, 0.3503954
 108005947, -0.0003891024, 0.01136928, -7.59058E-06, 0.00104407, -0.0003753782, 0.004069231, 5.635033E-05, 0.0005187925, -0.9999985, -0.0007170846, 0.3503954
 108205867, -0.0003723169, 0.01157301, -6.967975E-05, 0.00104407, 3.423932E-05, 0.00409108, -1.631799E-05, 0.0005187925, -0.9999985, -0.0007210204, 0.3503954
 108405787, -0.0001503773, 0.01147653, -0.0001010252, 0.00104407, -5.964733E-05, 0.00402542, -3.166005E-05, 0.0005187925, -0.9999985, -0.0007245675, 0.3503954
 108606540, -0.0005693956, 0.011467, 3.737819E-05, 0.001046232, -0.0001737315, 0.003883061, 0.0002709616, 0.0005209541, -0.9999985, -0.0007285131, 0.3511209
 108806460, -0.000358437, 0.01137827, 0.0003169281, 0.001046232, -0.0002444022, 0.004375583, 0.0001005509, 0.0005187925, -0.9999985, -0.0007306564, 0.3511209
 109006380, -0.0004985555, 0.01204256, 3.119052E-05, 0.00104407, 2.151794E-05, 0.004324777, -0.0002167609, 0.0005187925, -0.9999985, -0.0007319065, 0.3503954
 109206300, -0.0003139673, 0.01194287, -0.0001161087, 0.00104407, -0.0002838769, 0.004160447, 0.0001330892, 0.0005187925, -0.9999985, -0.000733697, 0.3503954
 109406220, -0.0004133093, 0.01162947, 6.191755E-05, 0.00104407, -0.0001444773, 0.004171027, -3.217006E-05, 0.0005187925, -0.9999985, -0.0007350039, 0.3503954
 109606140, -0.0004518284, 0.01155966, -0.0001819455, 0.00104407, -0.0001069743, 0.003692285, -0.0001879572, 0.0005187925, -0.9999985, -0.000734881, 0.3503954
 109806060, -0.0005464928, 0.01123118, -0.0001962198, 0.00104407, -0.0002079201, 0.004287629, 1.851652E-05, 0.0005187925, -0.9999985, -0.0007359706, 0.3503954
 110005980, -0.0004823988, 0.01184601, 0.0001750317, 0.00104407, 0.0001786802, 0.00410339, -2.015024E-05, 0.0005187925, -0.9999985, -0.000734452, 0.3503954
 110205900, 0.0003844851, 0.01180173, 1.629177E-05, 0.00104407, -0.0001163745, 0.004120747, 2.732733E-05, 0.0005187925, -0.9999983, -0.0007320807, 0.3503954
 110405820, -0.0004634502, 0.01167739, 6.180794E-05, 0.00104407, -0.0003868178, 0.003905993, -9.374445E-05, 0.0005187925, -0.9999983, -0.0007320963, 0.3503954
 110606573, -0.0004919061, 0.01161735, 3.49203E-05, 0.001046232, -1.350619E-05, 0.004207011, 0.0001797815, 0.0005209541, -0.9999983, -0.0007303467, 0.3511209
 110806493, -0.0002669056, 0.01192008, 9.348113E-05, 0.001046232, -2.502283E-05, 0.004339237, 9.969061E-06, 0.0005187925, -0.9999983, -0.0007486438, 0.3511209
 111006413, -0.0002561191, 0.01191547, 9.951781E-05, 0.00104407, 5.610651E-07, 0.004186222, 0.0003608511, 0.0005187925, -0.9999983, -0.0007649589, 0.3503954
 111206333, 2.407372E-05, 0.01143758, 0.0003163442, 0.00104407, -0.0003438594, 0.003853849, -9.919488E-05, 0.0005187925, -0.9999983, -0.0007795631, 0.3503954
 111406253, -0.0004733207, 0.01133605, 4.004067E-05, 0.00104407, -1.145165E-05, 0.003975054, 0.0001891452, 0.0005187925, -0.9999983, -0.0007939366, 0.3503954
 111606173, -0.0001191785, 0.01140558, 8.785546E-05, 0.00104407, 0.0003303821, 0.004050718, 0.0001080808, 0.0005187925, -0.9999983, -0.0008072586, 0.3503954
 111806093, 0.000281087, 0.0113147, 0.0001686184, 0.00104407, 5.515392E-05, 0.003793958, -0.0005389298, 0.0005187925, -0.9999983, -0.0008188175, 0.3503954
 112006013, -0.0001525095, 0.01137787, -0.0003670869, 0.00104407, 5.294112E-05, 0.004217837, -4.287435E-06, 0.0005187925, -0.9999983, -0.0008298715, 0.3503954
 112205933, -0.0002233846, 0.01176959, 0.0002009863, 0.00104407, -0.0003024221, 0.004389375, 0.0002404133, 0.0005187925, -0.9999983, -0.0008393381, 0.3503954
 112405853, -0.0006282205, 0.01191839, 0.0002311961, 0.00104407, -0.0004971469, 0.00383775, -7.590356E-05, 0.0005187925, -0.9999983, -0.0008490616, 0.3503954
 112605773, -0.0007258495, 0.01106897, -4.849758E-05, 0.00104407, -0.0001794213, 0.003978014, -0.0003717913, 0.0005187925, -0.9999983, -0.0008570771, 0.3503954
 112806526, -0.0002369882, 0.01129749, -0.0002946318, 0.001046232, -0.0001240507, 0.004037328, -0.0001774765, 0.0005209541, -0.9999983, -0.0008651124, 0.3511209
 113006446, -0.0003085051, 0.01148433, -4.998195E-05, 0.001046232, 6.145662E-05, 0.004048866, 8.057112E-05, 0.0005187925, -0.9999983, -0.0008724247, 0.3511209
 113206366, -5.012489E-05, 0.01157997, 0.0001355809, 0.00104407, -0.0001370123, 0.004084831, 8.888264E-06, 0.0005187925, -0.9999983, -0.0008793755, 0.3503954
 113406286, -0.0004203895, 0.01136758, 0.0002384912, 0.00104407, -0.0002203095, 0.003834786, 0.0001575078, 0.0005187925, -0.9999983, -0.0008842968, 0.3503954
 113606206, -0.0007222625, 0.01138562, 0.0001395454, 0.00104407, -0.0003221991, 0.004140126, 0.0001399756, 0.0005187925, -0.9999983, -0.0008886966, 0.3503954
 113806126, -0.0006056767, 0.01162435, 0.0003391684, 0.00104407, 3.167735E-05, 0.004213095, 0.0001930203, 0.0005187925, -0.9999983, -0.000893769, 0.3503954
 114006046, -0.0002122977, 0.01180122, 0.000280019, 0.00104407, 7.546948E-06, 0.004296022, 0.0001032321, 0.0005187925, -0.9999983, -0.0008965774, 0.3503954
 114205966, -0.0001354066, 0.01161742, 0.0001828261, 0.00104407, 0.0001139401, 0.004103803, 4.174588E-05, 0.0005187925, -0.9999983, -0.0008984723, 0.3503954
 114405886, -9.325999E-06, 0.01154778, 6.43985E-05, 0.00104407, -0.0001148513, 0.003781674, 0.0002742147, 0.0005187925, -0.9999983, -0.0009009303, 0.3503954
 114605806, -0.0001868537, 0.01113073, 0.000102952, 0.00104407, -0.0001702413, 0.003827756, -0.0001005915, 0.0005187925, -0.9999983, -0.0009023168, 0.3503954
 114806559, -0.0003951436, 0.01136476, -0.0001544894, 0.001046232, -4.492708E-05, 0.003997999, 0.0001657594, 0.0005209541, -0.9999983, -0.0009037218, 0.3511209
 115006479, -0.0002430265, 0.01140564, 0.0001813172, 0.001046232, -0.0002670868, 0.003919563, 2.856304E-05, 0.0005187925, -0.9999983, -0.0009043808, 0.3511209
 115206399, -0.0004447814, 0.01146732, 0.0002379979, 0.00104407, -2.313194E-05, 0.004073488, 5.218563E-05, 0.0005187925, -0.9999982, -0.0009050226, 0.3503954
 115406319, -0.0002382133, 0.01159892, 0.0001034966, 0.00104407, 0.0001158875, 0.003978883, 0.0001828273, 0.0005187925, -0.9999982, -0.000905082, 0.3503954
 115606239, -3.590299E-06, 0.01137571, 0.000133411, 0.00104407, 6.527866E-05, 0.003794712, 9.668058E-05, 0.0005187925, -0.9999982, -0.0009049549, 0.3503954
 115806159, -2.7031E-05, 0.01125523, 0.0001037659, 0.00104407, -0.0001534736, 0.004076252, 8.083925E-06, 0.0005187925, -0.9999982, -0.0009026437, 0.3503954
 116006079, -0.0003055068, 0.01154188, 0.000139518, 0.00104407, -4.095799E-05, 0.003976363, 0.0003117875, 0.0005187925, -0.9999982, -0.0009199231, 0.3503954
 116205999, -0.0003602529, 0.01153158, 0.0002843101, 0.00104407, 0.000166648, 0.004172001, 1.485945E-05, 0.0005187925, -0.9999982, -0.0009348993, 0.3503954
 116405919, -0.0001452392, 0.01161762, 9.501827E-05, 0.00104407, 0.0001622358, 0.004183799, -0.0002157743, 0.0005187925, -0.9999982, -0.0009486182, 0.3503954
 116605839, -0.0001731089, 0.01142983, 5.44206E-06, 0.00104407, -0.0001908378, 0.003885584, 0.0002697676, 0.0005187925, -0.9999982, -0.0009608195, 0.3503954
 116806592, -0.0004374759, 0.01141064, 0.0002596214, 0.001046232, -0.0004306866, 0.004211714, 0.0001160849, 0.0005187925, -0.9999982, -0.0009735068, 0.3511209
 117006512, -0.0007508321, 0.01197102, 7.499714E-05, 0.001046232, -0.0002536379, 0.004298071, 0.0002879178, 0.0005209541, -0.9999982, -0.0009847032, 0.3511209
 117206432, -0.0005941306, 0.01179216, 0.0003658579, 0.001046232, -8.372674E-05, 0.003915962, -0.0001578343, 0.0005187925, -0.9999982, -0.0009944327, 0.3511209
 117406352, -0.0002136067, 0.01121013, -0.0001211659, 0.00104407, -0.0001192227, 0.004019903, -0.0001357501, 0.0005187925, -0.9999982, -0.001003161, 0.3503954
 117606272, -0.0003462798, 0.01144411, 6.850481E-05, 0.00104407, -0.0001661459, 0.00416828, 0.0001385694, 0.0005187925, -0.9999982, -0.001010802, 0.3503954
 117806192, -0.0006792744, 0.01153827, 0.0001753177, 0.00104407, -8.952327E-06, 0.004184639, -2.528729E-05, 0.0005187925, -0.9999982, -0.001018502, 0.3503954
 118006112, -0.0001501954, 0.01164318, 0.0002413642, 0.00104407, -0.0001300788, 0.003685083, 0.0002619994, 0.0005187925, -0.9999982, -0.001025405, 0.3503954
 118206032, -0.000391859, 0.01091533, 0.0003563254, 0.00104407, 2.908817E-05, 0.004098176, 0.0003315755, 0.0005187925, -0.9999982, -0.001031041, 0.3503954
 118405952, -0.0002793777, 0.011467, 0.0003102815, 0.00104407, -0.0002629941, 0.00371937, -5.792684E-05, 0.0005187925, -0.9999982, -0.001034567, 0.3503954
 118605872, -0.0004976952, 0.01106929, 6.816402E-05, 0.00104407, -0.000178924, 0.003966345, -8.842268E-05, 0.0005187925, -0.9999982, -0.001038558, 0.3503954
 118805792, -0.0003634465, 0.01133242, -6.222262E-05, 0.00104407, -1.696085E-05, 0.003919888, -1.289924E-05, 0.0005187925, -0.9999982, -0.001041132, 0.3503954
 119006545, -0.0001372829, 0.01147386, -6.221189E-05, 0.001046232, -1.659258E-05, 0.004070317, 0.0001560783, 0.0005209541, -0.9999982, -0.001043857, 0.3511209
 119206465, -0.0003592138, 0.01157687, 0.000275589, 0.001046232, -0.0003221862, 0.004108233, -9.45595E-05, 0.0005187925, -0.9999982, -0.001044961, 0.3511209
 119406385, -0.0004148725, 0.01149095, 8.347273E-06, 0.00104407, -8.915458E-05, 0.004143184, 0.0002342395, 0.0005187925, -0.9999982, -0.001046077, 0.3503954
 119606305, -0.0003598741, 0.01144547, 0.0002939919, 0.00104407, -9.291693E-05, 0.003799789, -4.293154E-05, 0.0005187925, -0.9999982, -0.001047271, 0.3503954
 119806225, -0.0005195144, 0.01113701, 6.080579E-05, 0.00104407, -0.000106212, 0.004175641, 0.0002622187, 0.0005187925, -0.9999982, -0.001048591, 0.3503954
 120006145, -0.0002462261, 0.01157895, 0.0004101627, 0.00104407, -0.0001158207, 0.004049083, 0.0001339448, 0.0005187925, -0.9999982, -0.001048149, 0.3503954
 120206065, -0.0003460565, 0.01133318, 0.0001622742, 0.00104407, -3.116808E-05, 0.003653979, 0.0002326308, 0.0005187925, -0.9999982, -0.00104788, 0.3503954
 120405985, -0.0004983463, 0.01107494, 0.0003525336, 0.00104407, -0.000207795, 0.004400878, -0.0001851712, 0.0005187925, -0.9999982, -0.001046762, 0.3503954
 120605905, -0.000475288, 0.01154692, -0.00019693, 0.00104407, -0.0001737919, 0.003870247, 0.0001421753, 0.0005187925, -0.9999982, -0.001044028, 0.3503954
 120805825, -0.0002957511, 0.01132833, 0.0001763937, 0.00104407, -0.0002891057, 0.004218459, -0.0001041127, 0.0005187925, -0.9999982, -0.001042746, 0.3503954
 121006578, -0.0001569877, 0.01166424, 4.782119E-05, 0.001046232, 2.432754E-05, 0.003902196, 0.0004724019, 0.0005209541, -0.9999982, -0.001041645, 0.3511209
 121206498, 5.504589E-07, 0.01138901, 0.0002977694, 0.001046232, -0.0001056125, 0.004214015, -5.369063E-05, 0.0005187925, -0.9999982, -0.001055653, 0.3511209
 121406418, -0.000315532, 0.01162866, -1.741189E-05, 0.00104407, -0.0001271076, 0.004164729, -1.627152E-05, 0.0005187925, -0.9999982, -0.001068382, 0.3503954
 121606338, -0.0001740027, 0.0115072, 8.270054E-05, 0.00104407, -0.0002800382, 0.004184988, -8.618959E-05, 0.0005187925, -0.9999982, -0.001079213, 0.3503954
 121806258, -0.0004164608, 0.01182506, -7.686159E-05, 0.00104407, -9.171812E-05, 0.004354727, -8.440932E-05, 0.0005187925, -0.9999982, -0.00108878, 0.3503954
 122006178, -0.0001376074, 0.01150472, 7.389209E-05, 0.00104407, -3.965846E-05, 0.003863944, 0.0001573017, 0.0005187925, -0.9999982, -0.001097293, 0.3503954
 122206098, -0.0003356416, 0.01124415, 8.914364E-05, 0.00104407, -0.0001925875, 0.004118281, -0.000225822, 0.0005187925, -0.9999982, -0.001106239, 0.3503954
 122406018, -0.0003036403, 0.01148016, -0.0001882967, 0.00104407, -0.000195463, 0.003935548, 0.0001093963, 0.0005187925, -0.9999982, -0.001114029, 0.3503954
 122605938, -0.0004107201, 0.01130517, 0.0002280849, 0.00104407, -0.0004275901, 0.003888858, 8.691647E-05, 0.0005187925, -0.9999981, -0.001120725, 0.3503954
 122805858, -0.0005320188, 0.01127676, 0.0001096466, 0.00104407, -0.0002649904, 0.003838625, -0.0001848638, 0.0005187925, -0.9999981, -0.001126945, 0.3503954
 123005778, -0.0005118262, 0.01118722, -0.0001429486, 0.00104407, -0.0001261806, 0.004080368, 0.0002847879, 0.0005187925, -0.9999981, -0.001132974, 0.3503954
 123206531, -0.0002701839, 0.01139779, 0.0004137938, 0.001046232, -0.0004038189, 0.004267764, 1.375363E-05, 0.0005209541, -0.9999981, -0.001139205, 0.3511209
 123406451, -0.0003882433, 0.011798, 0.0002479468, 0.001046232, 0.000301469, 0.004141928, -8.20928E-05, 0.0005187925, -0.9999981, -0.001143693, 0.3511209
 123606371, -0.0002484253, 0.01168916, -0.0002052201, 0.00104407, -0.0005606956, 0.004249333, -0.0002299473, 0.0005187925, -0.9999981, -0.001147402, 0.3503954
 123806291, -0.000745767, 0.01159566, -5.540062E-05, 0.00104407, -0.0004724851, 0.003678655, 0.0002702943, 0.0005187925, -0.9999981, -0.001148334, 0.3503954
 124006211, -0.0006359372, 0.01108772, 0.0003332091, 0.00104407, -0.0001483482, 0.004210273, -0.000160388, 0.0005187925, -0.9999981, -0.001149563, 0.3503954
 124206131, -0.0003331623, 0.01162378, -0.0001510076, 0.00104407, 0.0001983902, 0.003950012, 0.0001365663, 0.0005187925, -0.9999981, -0.001150942, 0.3503954
 124406051, -9.839281E-05, 0.01131817, 0.0001204295, 0.00104407, -1.16476E-05, 0.004033376, 5.448068E-06, 0.0005187925, -0.9999981, -0.001151969, 0.3503954
 124605971, -0.000192448, 0.01152152, 8.867412E-05, 0.00104407, -6.252327E-05, 0.004038209, -0.0001548016, 0.0005187925, -0.9999981, -0.001152707, 0.3503954
 124805891, -0.0002179118, 0.01145224, -0.0001722672, 0.00104407, -0.000322836, 0.00388555, -2.333065E-05, 0.0005187925, -0.9999981, -0.001151396, 0.3503954
 125005811, -0.0005442526, 0.01122368, 9.607406E-05, 0.00104407, -4.904885E-05, 0.003946218, 2.431254E-05, 0.0005187925, -0.9999981, -0.001150695, 0.3503954
 125206564, -3.695586E-05, 0.01169569, 0.0002810231, 0.001046232, 1.419394E-05, 0.004489767, 9.191094E-05, 0.0005209541, -0.9999981, -0.001150952, 0.3511209
 125406484, -0.0001682121, 0.01185228, 0.0001603121, 0.001046232, 8.003257E-05, 0.003941332, -5.804362E-05, 0.0005187925, -0.999998, -0.001149182, 0.3511209
 125606404, -9.59843E-05, 0.01134082, 3.703541E-05, 0.00104407, -0.0001553483, 0.00406428, -0.0001914391, 0.0005187925, -0.999998, -0.001147968, 0.3503954
 125806324, -0.0003704482, 0.01155964, -0.0002745315, 0.00104407, -5.796192E-06, 0.003904453, 0.0002579789, 0.0005187925, -0.999998, -0.001146603, 0.3503954
 126006244, -0.0001362902, 0.01160663, 0.0001681537, 0.00104407, -0.0001022392, 0.004124566, -0.0001421181, 0.0005187925, -0.999998, -0.001144246, 0.3503954
 126206164, -0.000255523, 0.01194221, -0.0001911315, 0.00104407, -1.562247E-05, 0.004369653, -0.0002787964, 0.0005187925, -0.999998, -0.001141665, 0.3503954
 126406084, 1.522579E-05, 0.01189502, -0.0002179859, 0.00104407, 0.000236254, 0.004469156, 5.21475E-05, 0.0005187925, -0.999998, -0.00115449, 0.3503954
 126606004, 0.0002605967, 0.01217696, 0.0002458161, 0.00104407, 0.0001120291, 0.004288104, 0.0001129783, 0.0005187925, -0.999998, -0.001166136, 0.3503954
 126805924, -0.0001994966, 0.01177878, 0.0001154509, 0.00104407, -3.595078E-05, 0.004287176, 0.0001210491, 0.0005187925, -0.999998, -0.001175801, 0.3503954
 127005844, -0.000281148, 0.01163578, -0.000144972, 0.00104407, -0.0002520766, 0.004144395, 8.432947E-05, 0.0005187925, -0.999998, -0.001185126, 0.3503954
 127205764, -0.0005909565, 0.01164171, 0.0002874726, 0.00104407, -0.0003302284, 0.004357142, -0.0002619161, 0.0005187925, -0.999998, -0.001193728, 0.3503954
 127406517, -0.0004439728, 0.01182759, -0.0001154299, 0.001046232, -0.0003026654, 0.004044574, 0.0002094865, 0.0005209541, -0.999998, -0.001202144, 0.3511209
 127606437, -0.0004181531, 0.01155991, 0.0001912679, 0.001046232, -0.0001097648, 0.003769019, 0.0001882991, 0.0005187925, -0.999998, -0.001208081, 0.3511209
 127806357, -0.0001372198, 0.01110143, 0.000339912, 0.00104407, -6.614488E-05, 0.004115762, 0.0001637483, 0.0005187925, -0.999998, -0.001213673, 0.3503954
 128006277, -0.0001394767, 0.01148945, 0.0002774535, 0.00104407, -3.314894E-05, 0.004106139, 3.339385E-05, 0.0005187925, -0.999998, -0.001218535, 0.3503954
 128206197, -0.0001765675, 0.01154845, 7.867884E-05, 0.00104407, 6.166787E-05, 0.004140718, 1.956633E-05, 0.0005187925, -0.999998, -0.001222677, 0.3503954
 128406117, -4.390924E-05, 0.01173853, -7.27577E-05, 0.00104407, 4.320773E-05, 0.003863887, -4.668872E-05, 0.0005187925, -0.999998, -0.001226733, 0.3503954
 128606037, -0.0001112913, 0.01110152, -9.525898E-05, 0.00104407, 0.0002587175, 0.004058661, 0.0001154902, 0.0005187925, -0.999998, -0.001229103, 0.3503954
 128805957, 0.0001704408, 0.01141963, 6.83356E-05, 0.00104407, 9.562338E-05, 0.00403777, 5.531482E-05, 0.0005187925, -0.999998, -0.001230126, 0.3503954
 129005877, -7.201198E-05, 0.0114144, 0.0001358371, 0.00104407, -8.696844E-05, 0.003911903, -8.055326E-06, 0.0005187925, -0.999998, -0.001231135, 0.3503954
 129205797, -0.0004420381, 0.01136285, -6.77398E-05, 0.00104407, -0.0002062399, 0.003841962, 3.076872E-05, 0.0005187925, -0.999998, -0.00123232, 0.3503954
 129406550, -0.0003474834, 0.01139792, 0.0001782554, 0.001046232, -9.127143E-07, 0.003931522, 8.515804E-05, 0.0005209541, -0.999998, -0.001232841, 0.3511209
 129606470, -9.870532E-05, 0.01121069, 8.445141E-05, 0.001046232, -1.891087E-05, 0.003948666, 1.108918E-05, 0.0005187925, -0.999998, -0.001231736, 0.3511209
 129806390, -0.0002948574, 0.01120896, 0.000147273, 0.00104407, 0.0001206917, 0.003878653, 0.0004089542, 0.0005187925, -0.999998, -0.001230569, 0.3503954
 130006310, 0.0001822869, 0.01116221, 0.0004636863, 0.00104407, 0.0002013339, 0.004031833, 2.932925E-05, 0.0005187925, -0.999998, -0.001229258, 0.3503954
 130206230, 1.331143E-05, 0.01153487, 4.513846E-06, 0.00104407, -0.0001966218, 0.003785101, -7.00122E-05, 0.0005187925, -0.999998, -0.001227199, 0.3503954
 130406150, -0.0002522, 0.01111769, -1.167666E-05, 0.00104407, -5.570595E-05, 0.004046079, -0.000139568, 0.0005187925, -0.999998, -0.001224556, 0.3503954
 130606070, -0.0002647162, 0.01138814, -7.796506E-05, 0.00104407, -1.002844E-05, 0.004007261, 2.465692E-05, 0.0005187925, -0.999998, -0.001221944, 0.3503954
 130805990, -0.0002568433, 0.01131408, 0.0001006117, 0.00104407, -0.0003038493, 0.003982517, -0.0001335277, 0.0005187925, -0.999998, -0.001218965, 0.3503954
 131005910, -0.000682375, 0.01134681, -9.167084E-06, 0.00104407, -0.0003114693, 0.004507766, 0.0001475507, 0.0005187925, -0.999998, -0.001215337, 0.3503954
 131205830, -0.0004270397, 0.01225312, 0.0003492387, 0.00104407, 9.628307E-05, 0.00459409, 0.0002498711, 0.0005187925, -0.999998, -0.001211987, 0.3503954
 131406583, 8.908327E-05, 0.01234997, 0.0003325956, 0.001046232, 0.0001157174, 0.00456423, -0.0001132238, 0.0005209541, -0.9999979, -0.00120857, 0.3511209
 131606503, 0.0001073801, 0.01193925, -7.448792E-05, 0.001046232, 0.0001223186, 0.004018949, -0.0003281925, 0.0005187925, -0.999998, -0.001218746, 0.3511209
 131806423, 1.022969E-05, 0.01148073, -0.0003714827, 0.00104407, 6.311593E-05, 0.004004433, -7.544956E-05, 0.0005187925, -0.999998, -0.001227999, 0.3503954
 132006343, 4.710778E-05, 0.01132971, -0.0001753845, 0.00104407, -0.000330727, 0.003921254, -8.393743E-06, 0.0005187925, -0.999998, -0.00123668, 0.3503954
 132206263, -0.0004556702, 0.01115826, 0.0001489734, 0.00104407, -0.0002241706, 0.004143028, -8.607042E-05, 0.0005187925, -0.999998, -0.001242863, 0.3503954
 132406183, -0.0004367341, 0.0118382, -4.982625E-05, 0.00104407, -0.0001307602, 0.003781278, -3.303875E-05, 0.0005187925, -0.999998, -0.001249632, 0.3503954
 132606103, -0.0002138167, 0.0112251, 0.0001061813, 0.00104407, -0.0004412792, 0.003975699, 0.0003178469, 0.0005187925, -0.999998, -0.001255773, 0.3503954
 132806023, -0.0003769578, 0.01149452, 0.0004132608, 0.00104407, 0.0001384491, 0.004197935, 0.0002542372, 0.0005187925, -0.999998, -0.001260017, 0.3503954
 133005943, -5.687708E-05, 0.01174712, 0.000267413, 0.00104407, 0.0001032625, 0.004116125, 0.0003439767, 0.0005187925, -0.999998, -0.001262467, 0.3503954
 133205863, -0.000191905, 0.01127798, 0.0004134395, 0.00104407, -4.408306E-06, 0.003909701, -5.630744E-05, 0.0005187925, -0.999998, -0.001264348, 0.3503954
 133405783, -0.0003365683, 0.01112477, -8.357878E-05, 0.00104407, -8.372455E-05, 0.003869154, 7.190211E-06, 0.0005187925, -0.999998, -0.001265558, 0.3503954
 133606536, -0.000374634, 0.01139112, 0.0001301169, 0.001046232, -7.45706E-05, 0.004241521, 0.0003404947, 0.0005209541, -0.999998, -0.001265457, 0.3511209
 133806456, 6.072588E-05, 0.01149304, 0.0002972533, 0.001046232, -7.384153E-05, 0.004208937, -0.0002006979, 0.0005187925, -0.999998, -0.001266778, 0.3511209
 134006376, -0.0003007732, 0.01160226, -0.0003191482, 0.00104407, -3.613436E-06, 0.003714287, 7.916024E-05, 0.0005187925, -0.999998, -0.001266776, 0.3503954
 134206296, -0.0004159593, 0.01108514, 0.0002954302, 0.00104407, -0.0002229032, 0.003885002, -4.064722E-05, 0.0005187925, -0.999998, -0.001267348, 0.3503954
 134406216, -0.0003721252, 0.01113744, 0.0001461314, 0.00104407, -2.552082E-05, 0.00404709, 6.762302E-05, 0.0005187925, -0.999998, -0.001266906, 0.3503954
 134606136, -0.0002259537, 0.01148683, 0.0003590065, 0.00104407, -0.0001984184, 0.004196162, 0.0001305749, 0.0005187925, -0.999998, -0.001265768, 0.3503954
 134806056, -0.0002624092, 0.01189396, 0.0003534966, 0.00104407, 9.959312E-05, 0.004227669, 0.000319968, 0.0005187925, -0.999998, -0.001263749, 0.3503954
 135005976, -0.0003715232, 0.01167547, 0.0004315212, 0.00104407, -0.0003263658, 0.004001318, 0.0005037807, 0.0005187925, -0.999998, -0.00126068, 0.3503954
 135205896, -0.000363071, 0.01172531, 0.000391776, 0.00104407, 0.0001479326, 0.004146389, -0.0004496968, 0.0005187925, -0.999998, -0.001256585, 0.3503954
 135405816, -9.274489E-05, 0.01151879, -0.0004094633, 0.00104407, -0.0003069638, 0.004057521, 0.0001165484, 0.0005187925, -0.999998, -0.001252742, 0.3503954
 135606569, -0.0001848804, 0.01152939, 0.0002566925, 0.001046232, 0.0002734635, 0.004000018, -0.0001550336, 0.0005209541, -0.999998, -0.001247436, 0.3511209
 135806489, 0.0003314097, 0.01120158, -0.0002166235, 0.001046232, -3.068481E-05, 0.004041862, 0.0001566474, 0.0005187925, -0.999998, -0.001242154, 0.3511209
 136006409, -0.0001664206, 0.01137734, 0.0002013771, 0.00104407, 0.0002535745, 0.003832678, 2.965217E-05, 0.0005187925, -0.999998, -0.00123688, 0.3503954
 136206329, 9.94728E-05, 0.01119042, 0.0001872327, 0.00104407, -0.0002457512, 0.003962171, 9.84394E-05, 0.0005187925, -0.999998, -0.00123276, 0.3503954
 136406249, -0.0004044439, 0.01160601, 0.0002408018, 0.00104407, 8.646791E-05, 0.004180484, 0.0001124325, 0.0005187925, -0.999998, -0.001227969, 0.3503954
 136606169, -4.454949E-05, 0.01181622, 0.0001239519, 0.00104407, -0.0002812749, 0.004373651, 3.740602E-05, 0.0005187925, -0.999998, -0.001223115, 0.3503954
 136806089, -0.0005147056, 0.01193419, -7.762545E-05, 0.00104407, -0.0003523421, 0.0042331, -1.404081E-05, 0.0005187925, -0.999998, -0.001231144, 0.3503954
 137006009, -0.0004594169, 0.01144146, 0.0002215441, 0.00104407, 7.785473E-05, 0.003954011, -7.412805E-05, 0.0005187925, -0.999998, -0.001238118, 0.3503954
 137205929, 6.178743E-07, 0.01159063, -2.859283E-05, 0.00104407, -0.0003161704, 0.00436338, 0.0002210281, 0.0005187925, -0.999998, -0.001244381, 0.3503954
 137405849, -0.0003667761, 0.01178191, 0.0003125061, 0.00104407, -0.0003559334, 0.003947158, 2.772175E-05, 0.0005187925, -0.999998, -0.001249892, 0.3503954
 137605769, -0.0004898497, 0.01149843, 0.0004377068, 0.00104407, -0.0003577343, 0.00393743, 0.0002113236, 0.0005187925, -0.999998, -0.001254588, 0.3503954
 137806522, -0.0005690755, 0.01157153, 0.0002476238, 0.001046232, -6.155514E-05, 0.004258794, -8.260681E-05, 0.0005209541, -0.9999979, -0.001257232, 0.3511209
 138006442, -0.0001004399, 0.01156191, 5.083274E-05, 0.001046232, -5.459775E-05, 0.004085448, 2.716527E-05, 0.0005187925, -0.9999979, -0.001260521, 0.3511209
 138206362, -0.0002077427, 0.01153114, 0.0001123122, 0.00104407, -0.00013129, 0.004003988, -0.0001973304, 0.0005187925, -0.9999979, -0.001262842, 0.3503954
 138406282, -0.0002713899, 0.01116141, -5.958197E-05, 0.00104407, -0.0002570337, 0.003714568, 6.867283E-06, 0.0005187925, -0.9999979, -0.00126408, 0.3503954
 138606202, -0.0004155718, 0.01112446, 0.0001531715, 0.00104407, 8.519701E-05, 0.004118468, 0.0002712738, 0.0005187925, -0.9999979, -0.001266125, 0.3503954
 138806122, -1.039601E-05, 0.01160734, 0.0003856534, 0.00104407, -5.976023E-06, 0.003799372, 4.921017E-05, 0.0005187925, -0.999998, -0.001267681, 0.3503954
 139006042, -0.0002266592, 0.01125135, 6.025402E-05, 0.00104407, -0.0002027874, 0.003959849, 0.0001745741, 0.0005187925, -0.999998, -0.001267651, 0.3503954
 139205962, -0.0001964632, 0.01131138, 0.0002375034, 0.00104407, 0.0001316487, 0.004087726, -0.0001784004, 0.0005187925, -0.999998, -0.001264606, 0.3503954
 139405882, -0.0001934589, 0.01145079, -9.781741E-05, 0.00104407, -0.0004211071, 0.004126497, 0.0001586744, 0.0005187925, -0.999998, -0.00126352, 0.3503954
 139605802, -0.0006904287, 0.01161231, 0.0001742513, 0.00104407, 2.564753E-05, 0.003971928, 0.0001063124, 0.0005187925, -0.999998, -0.001262385, 0.3503954
 139806555, -0.0001062334, 0.01134679, 9.655746E-05, 0.001046232, -0.0002189969, 0.004059494, -3.642174E-05, 0.0005209541, -0.999998, -0.001259642, 0.3511209
 140006475, -0.0006247312, 0.01148373, -0.0001441593, 0.001046232, -0.0002225753, 0.003816349, -0.0003334058, 0.0005187925, -0.9999979, -0.001257605, 0.3511209
 140206395, -0.0004011098, 0.01131882, -0.0005357874, 0.00104407, 0.0001984773, 0.00414001, 8.222628E-05, 0.0005187925, -0.9999979, -0.001254803, 0.3503954
 140406315, 0.0001036596, 0.01165488, 9.025301E-05, 0.00104407, 0.0002850857, 0.004239931, 5.374069E-05, 0.0005187925, -0.9999979, -0.001251078, 0.3503954
 140606235, 0.0001516118, 0.0117094, -3.487742E-05, 0.00104407, -0.0001559331, 0.003988856, -8.189739E-05, 0.0005187925, -0.9999979, -0.001246788, 0.3503954
 140806155, -0.000269758, 0.01149272, -0.0002436485, 0.00104407, -0.0001797378, 0.004357159, 0.0002532637, 0.0005187925, -0.9999979, -0.001243121, 0.3503954
 141006075, -0.0004142262, 0.01188733, 0.0005460019, 0.00104407, 0.0001589053, 0.004133978, 0.0002495387, 0.0005187925, -0.9999979, -0.001239898, 0.3503954
 141205995, 7.683002E-05, 0.01162847, 0.0001824734, 0.00104407, -0.0002378549, 0.004168474, 5.934367E-05, 0.0005187925, -0.9999979, -0.001235426, 0.3503954
 141405915, -0.0004863444, 0.01160227, 0.0001965786, 0.00104407, -4.62541E-05, 0.004128359, 0.0001929262, 0.0005187925, -0.9999979, -0.001230448, 0.3503954
 141605835, -9.760394E-05, 0.01141933, 0.0001936769, 0.00104407, 0.0001409643, 0.003867086, 0.0001366247, 0.0005187925, -0.9999979, -0.001225286, 0.3503954
 141806588, -0.0001597912, 0.01145172, 0.0003259086, 0.001046232, -0.0004142415, 0.004128397, 3.900239E-05, 0.0005209541, -0.9999979, -0.001218629, 0.3511209
 142006508, -0.0005087057, 0.01173169, 9.41051E-05, 0.001046232, -0.0001067398, 0.004351466, 0.0001800722, 0.0005187925, -0.9999979, -0.001226914, 0.3511209
 142206428, -0.0001304874, 0.01167993, 8.635641E-05, 0.00104407, -0.0001795213, 0.003951301, -0.0001584003, 0.0005187925, -0.9999979, -0.001234333, 0.3503954
 142406348, -0.0003704023, 0.01141079, -0.0002100462, 0.00104407, -0.0005092145, 0.00425476, -9.454281E-05, 0.0005187925, -0.9999979, -0.00124106, 0.3503954
 142606268, -0.0008853173, 0.01174473, -9.38469E-05, 0.00104407, -0.0003405099, 0.004111909, -0.0001454475, 0.0005187925, -0.9999979, -0.001247194, 0.3503954
 142806188, -0.000525943, 0.01167104, -5.90029E-05, 0.00104407, -3.920637E-05, 0.003909552, -7.903512E-05, 0.0005187925, -0.9999979, -0.001251481, 0.3503954
 143006108, -0.000154665, 0.01148597, 4.324385E-06, 0.00104407, 0.0004194698, 0.004095571, -0.000291194, 0.0005187925, -0.9999979, -0.001256741, 0.3503954
 143206028, 0.0002286441, 0.0113833, -0.000303414, 0.00104407, -0.0002651795, 0.003815502, -0.0001690987, 0.0005187925, -0.9999979, -0.001259492, 0.3503954
 143405948, -0.0005279859, 0.0111508, -0.0001798041, 0.00104407, -7.89368E-05, 0.004013709, -2.096053E-05, 0.0005187925, -0.999998, -0.001261008, 0.3503954
 143605868, -0.0003397228, 0.01129367, 7.836426E-05, 0.00104407, -0.0002302012, 0.003876159, 0.0003718986, 0.0005187925, -0.999998, -0.001262604, 0.3503954
 143805788, -0.0004072802, 0.01131508, 0.0003409355, 0.00104407, -9.252728E-05, 0.00395494, -0.0001889069, 0.0005187925, -0.999998, -0.001263965, 0.3503954
 144006541, -0.0002115157, 0.01157595, -0.0002949298, 0.001046232, -0.000189149, 0.004232378, -0.000276561, 0.0005209541, -0.999998, -0.001263349, 0.3511209
 144206461, -0.0005652569, 0.01154913, -0.0002004393, 0.001046232, -0.0006408824, 0.004005427, 0.0002850214, 0.0005187925, -0.999998, -0.001262705, 0.3511209
 144406381, -0.0007660047, 0.01109333, 0.000373257, 0.00104407, -0.0002154939, 0.003826064, 7.23299E-05, 0.0005187925, -0.999998, -0.001261133, 0.3503954
 144606301, -0.0004596259, 0.01127548, 0.0001459861, 0.00104407, -0.0002468313, 0.004126294, 9.33786E-05, 0.0005187925, -0.999998, -0.001259566, 0.3503954
 144806221, -0.0004457328, 0.01159108, 0.0003070699, 0.00104407, -5.512975E-05, 0.003599901, -0.000109065, 0.0005187925, -0.999998, -0.001258061, 0.3503954
 145006141, -6.012112E-05, 0.01109544, 0.0001746945, 0.00104407, -0.0001299229, 0.004571569, 0.0001506941, 0.0005187925, -0.999998, -0.001255674, 0.3503954
 145206061, -0.0004175067, 0.01201625, -0.03139039, 0.00104407, -0.0001540276, 0.004327746, -0.07970077, 0.0005187925, -0.999998, -0.001252303, 0.3503954
 145405981, 0.0007892503, 0.01258041, -0.729951, 0.00104407, 0.0002224988, 0.004696754, -0.1980633, 0.0005187925, -0.999998, -0.001248833, 0.3503954
 145605901, -0.0009148518, 0.01142044, -1.148014, 0.00104407, -0.001989145, 0.002722022, -0.9179466, 0.0005187925, -0.9999991, -0.001279234, 0.3503954
 145805821, -0.009179586, 0.004569784, -2.404618, 0.00104407, -0.005331558, 0.000155007, -0.632106, 0.0005187925, -0.9999977, -0.001309749, 0.3503954
 146006574, -0.01693364, -0.001087659, -1.450121, 0.001046232, -0.007214877, -0.001095182, -0.3730689, 0.0005209541, -0.9999966, -0.001342266, 0.3511209
 146206494, -0.01873012, -0.00288162, -1.046073, 0.001046232, -0.0062611, -0.0008489304, -0.3685759, 0.0005187925, -0.9999965, -0.001371968, 0.3511209
 146406414, -0.01723403, -0.001491069, -1.017755, 0.00104407, -0.005647274, -0.000367463, -0.3341689, 0.0005187925, -0.9999967, -0.001410948, 0.3503954
 146606334, -0.01544646, 3.520956E-05, -0.8828053, 0.00104407, -0.005255764, 0.0002089736, -0.2747872, 0.0005187925, -0.9999968, -0.001442243, 0.3503954
 146806254, -0.01373486, 0.001246819, -0.7275553, 0.00104407, -0.004254891, 0.0006235093, -0.2283138, 0.0005187925, -0.9999971, -0.001469457, 0.3503954
 147006174, -0.01155179, 0.002590365, -0.6069855, 0.00104407, -0.003873169, 0.001289341, -0.1910132, 0.0005187925, -0.9999972, -0.001495752, 0.3503954
 147206094, -0.01028809, 0.003922023, -0.5056353, 0.00104407, -0.003262901, 0.001826734, -0.1580189, 0.0005187925, -0.9999973, -0.001536131, 0.3503954
 147406014, -0.008615046, 0.00507686, -0.4166245, 0.00104407, -0.002704813, 0.002320295, -0.1295556, 0.0005187925, -0.9999974, -0.001574375, 0.3503954
 147605934, -0.006282541, 0.006549194, 0.2469326, 0.00104407, -0.001657507, 0.002698679, 0.389728, 0.0005187925, -0.9999977, -0.001610593, 0.3503954
 147805854, -0.004753916, 0.007510661, 1.033712, 0.00104407, -0.001628639, 0.002787683, 0.3257038, 0.0005187925, -0.9999976, -0.001667314, 0.3503954
 148005774, -0.004588008, 0.00768389, 0.8708064, 0.00104407, -0.001781784, 0.002748099, 0.2775229, 0.0005187925, -0.9999973, -0.001773412, 0.3503954
 148206527, -0.004117496, 0.007980125, 1.811363, 0.001046232, -0.0009708154, 0.002700015, 1.046475, 0.0005209541, -0.9999928, -0.001929826, 0.3511209
 148406447, 0.008275213, 0.007056469, 2.563739, 0.001046232, 0.009729199, 0.002696109, 0.6860411, 0.0005187925, -0.999997, -0.002048345, 0.3511209
 148606367, 0.03950432, 0.01269885, 1.66613, 0.00104407, 0.0210518, 0.008322569, 0.4462362, 0.0005187925, -0.9999664, -0.002152001, 0.3503954
 148806287, 0.07231668, 0.03348156, 1.10086, 0.00104407, 0.03027544, 0.01722476, 0.3026178, 0.0005187925, -0.9998394, -0.00225375, 0.3503954
 149006207, 0.08956099, 0.05314673, 0.7379224, 0.00104407, 0.03589704, 0.01849392, 0.1958976, 0.0005187925, -0.999862, -0.002765015, 0.3503954
 149206127, 0.1267244, 0.04622101, 0.4667458, 0.00104407, 0.05997832, 0.01742318, 0.1175031, 0.0005187925, -0.9998453, -0.002607975, 0.3503954
 149406047, 0.2034162, 0.06142277, 0.2722635, 0.00104407, 0.08906186, 0.01985384, 0.06433908, 0.0005187925, -0.9998922, -0.002964683, 0.3503954
 149605967, 0.277732, 0.01845644, 0.143798, 0.00104407, 0.1114041, -0.01402621, 0.03166408, 0.0005187925, -0.9997893, 0.008173681, 0.3503954
 149805887, 0.3413921, -0.05796171, 0.06786796, 0.00104407, 0.134691, -0.02412674, 0.01392874, 0.0005187925, -0.9926669, 0.1139113, 0.3503954
 150005807, 0.4078957, -0.05178552, 0.02932576, 0.00104407, 0.1575096, -0.01075272, 0.006057917, 0.0005187925, -0.9403937, 0.3325967, 0.3503954
 150206560, 0.4704677, -0.02840788, 0.01559468, 0.001046232, 0.1763054, -0.006299193, 0.005061561, 0.0005209541, -0.796667, 0.5913193, 0.3511209
 150406480, 0.5086869, 0.00613131, 0.01773127, 0.001046232, 0.1834671, 0.02054694, 0.009061281, 0.0005187925, -0.567636, 0.8062347, 0.3511209
 150606400, 0.5311225, 0.1042272, 0.03215181, 0.00104407, 0.1931295, 0.05624005, 0.01534723, 0.0005187925, -0.3125736, 0.9262292, 0.3503954
 150806320, 0.5648172, 0.1612426, 0.04722948, 0.00104407, 0.2083076, 0.05385534, 0.01894226, 0.0005187925, -0.08841407, 0.961376, 0.3503954
 151006240, 0.6104953, 0.1406258, 0.0563783, 0.00104407, 0.2250733, 0.04427436, 0.02147847, 0.0005187925, 0.09275609, 0.9500192, 0.3503954
 151206160, 0.6541764, 0.1310396, 0.06075121, 0.00104407, 0.237835, 0.05240729, 0.02144269, 0.0005187925, 0.2292833, 0.9174007, 0.3503954
 151406080, 0.6800175, 0.1708148, 0.05936833, 0.00104407, 0.2412006, 0.06777809, 0.01976694, 0.0005187925, 0.2818677, 0.8948002, 0.3503954
 151606000, 0.6852589, 0.185437, 0.05392736, 0.00104407, 0.2394032, 0.05954115, 0.01742339, 0.0005187925, 0.2525461, 0.8975909, 0.3503954
 151805920, 0.6716273, 0.1549882, 0.04850958, 0.00104407, 0.2323766, 0.04526981, 0.01664982, 0.0005187925, 0.1752401, 0.9103218, 0.3503954
 152005840, 0.6596897, 0.1090851, 0.04636818, 0.00104407, 0.2318888, 0.02970523, 0.01521938, 0.0005187925, 0.09470858, 0.9148912, 0.3503954
 152205760, 0.6583509, 0.07943761, 0.04417501, 0.00104407, 0.2352726, 0.02675771, 0.01687582, 0.0005187925, 0.04709796, 0.9079065, 0.3503954
 152406513, 0.6939451, 0.07795203, 0.04545685, 0.001046232, 0.2541704, 0.02799941, 0.01377836, 0.0005209541, 0.04265966, 0.893772, 0.3511209
 152606433, 0.7177111, 0.07679664, 0.03688596, 0.001046232, 0.2517015, 0.02562794, 0.01320461, 0.0005187925, 0.0693642, 0.8812258, 0.3511209
 152806353, 0.7224597, 0.0739976, 0.03646531, 0.00104407, 0.2562172, 0.0287599, 0.01158793, 0.0005187925, 0.1040582, 0.8652766, 0.3503954
 153006273, 0.7089109, 0.09116896, 0.02894637, 0.00104407, 0.2363898, 0.03258747, 0.008224646, 0.0005187925, 0.1275196, 0.8585176, 0.3503954
 153206193, 0.6400025, 0.07314282, 0.02249524, 0.00104407, 0.2056032, 0.01485527, 0.007404801, 0.0005187925, 0.1329849, 0.859499, 0.3503954
 153406113, 0.5413833, 0.03110004, 0.01958882, 0.00104407, 0.1691151, 0.005999576, 0.007058075, 0.0005187925, 0.1244848, 0.8635545, 0.3503954
 153606033, 0.457912, 0.01595332, 0.0214951, 0.00104407, 0.1493108, 0.006385946, 0.007341973, 0.0005187925, 0.1093024, 0.8640186, 0.3503954
 153805953, 0.4063257, 0.02434991, 0.0198102, 0.00104407, 0.134171, 0.0135859, 0.007393558, 0.0005187925, 0.09545685, 0.8628429, 0.3503954
 154005873, 0.3669206, 0.05264955, 0.01662531, 0.00104407, 0.1202299, 0.02575232, 0.003755933, 0.0005187925, 0.08708818, 0.8619131, 0.3503954
 154205793, 0.3236104, 0.07666222, 0.008368876, 0.00104407, 0.1039014, 0.02597366, 0.00155198, 0.0005187925, 0.08492468, 0.862057, 0.3503954
 154406546, 0.2795481, 0.0627501, 0.004329794, 0.001046232, 0.08977887, 0.01994601, 0.0009329178, 0.0005209541, 0.08853278, 0.8616079, 0.3511209
 154606466, 0.2375493, 0.06772894, 0.001516845, 0.001046232, 0.07400339, 0.02751437, -0.0008571318, 0.0005187925, 0.09364159, 0.8621694, 0.3511209
