TimeUS,CGpN,CGpE,CGpD,CGpe,PGpN,PGpE,PGpD,PGpe
 77701407, 0, 0, 0, 0.01, 0, 0, 0, 0
 77806365, 0, 0, 0, 0.01, 0, 0, 0, 0.01
 78006285, 0, 0, 0, 0.01, 0, 0, 0, 0.01
 78206205, 0, 0, 0, 0.01, 0, 0, 0, 0.01
 78406125, 0, 0, 0, 0.01, 0, 0, 0, 0.01
 78606045, 0, 0, 0, 0.01, 0, 0, 0, 0.01
 78805965, 0, 0, 0, 0.01, 0, 0, 0, 0.01
 79005885, 0, 0, 0, 0.01, 0, 0, 0, 0.01
 79205805, 0, 0, 0, 0.01, 0, 0, 0, 0.01
 79406558, 0, 0, 0, 0.01, 0, 0, 0, 0.01
 79606478, 0, 0, 0, 0.01, 0, 0, 0, 0.01
 79806398, 0, 0, 0, 0.01, 0, 0, 0, 0.01
 80006318, 0, 0, 0, 0.01, 0, 0, 0, 0.01
 80206238, 0, 0, 0, 0.01, 0, 0, 0, 0.01
 80406158, 0, 0, 0, 0.01, 0, 0, 0, 0.01
 80606078, 0, 0, 0, 0.01, 0, 0, 0, 0.01
 80805998, 0, 0, 0, 0.01, 0, 0, 0, 0.01
 81005918, 0, 0, 0, 0.01, 0, 0, 0, 0.01
 81205838, 0, 0, 0, 0.01, 0, 0, 0, 0.01
 81406591, 0, 0, 0, 0.01, 0, 0, 0, 0.01
 81606511, 0, 0, 0, 0.01, 0, 0, 0, 0.01
 81806431, 0, 0, 0, 0.01, 0, 0, 0, 0.01
 82006351, 0, 0, 0, 0.01, 0, 0, 0, 0.01
 82206271, 0, 0, 0, 0.01, 0, 0, 0, 0.01
 82406191, 0, 0, 0, 0.01, 0, 0, 0, 0.01
 82606111, 0, 0, 0, 0.01, 0, 0, 0, 0.01
 82806031, 0, 0, 0, 0.01, 0, 0, 0, 0.01
 83005951, 0, 0, 0, 0.01, 0, 0, 0, 0.01
 83205871, 0, 0, 0, 0.01, 0, 0, 0, 0.01
 83405791, 0, 0, 0, 0.01, 0, 0, 0, 0.01
 83606544, 0, 0, 0, 0.01, 0, 0, 0, 0.01
 83806464, 0, 0, 0, 0.01, 0, 0, 0, 0.01
 84006384, 0, 0, 0, 0.01, 0, 0, 0, 0.01
 84206304, 0, 0, 0, 0.01, 0, 0, 0, 0.01
 84406224, 0, 0, 0, 0.01, 0, 0, 0, 0.01
 84606144, 0, 0, 0, 0.01, 0, 0, 0, 0.01
 84806064, 0, 0, 0, 0.01, 0, 0, 0, 0.01
 85005984, 0, 0, 0, 0.01, 0, 0, 0, 0.01
 85205904, 0, 0, 0, 0.01, 0, 0, 0, 0.01
 85405824, 0, 0, 0, 0.01, 0, 0, 0, 0.01
 85606577, 0, 0, 0, 0.01, 0, 0, 0, 0.01
 85806497, 0, 0, 0, 0.01, 0, 0, 0, 0.01
 86006417, 0, 0, 0, 0.01, 0, 0, 0, 0.01
 86206337, 0, 0, 0, 0.01, 0, 0, 0, 0.01
 86406257, 0, 0, 0, 0.01, 0, 0, 0, 0.01
 86606177, 0, 0, 0, 0.01, 0, 0, 0, 0.01
 86806097, 0, 0, 0, 0.01, 0, 0, 0, 0.01
 87006017, 0, 0, 0, 0.01, 0, 0, 0, 0.01
 87205937, 0, 0, 0, 0.01, 0, 0, 0, 0.01
 87405857, 0, 0, 0, 0.01, 0, 0, 0, 0.01
 87605777, 0, 0, 0, 0.01, 0, 0, 0, 0.01
 87806530, 0, 0, 0, 0.01, 0, 0, 0, 0.01
 88006450, 0, 0, 0, 0.01, 0, 0, 0, 0.01
 88206370, 0, 0, 0, 0.01, 0, 0, 0, 0.01
 88406290, 0, 0, 0, 0.01, 0, 0, 0, 0.01
 88606210, 0, 0, 0, 0.01, 0, 0, 0, 0.01
 88806130, 0, 0, 0, 0.01, 0, 0, 0, 0.01
 89006050, 0, 0, 0, 0.01, 0, 0, 0, 0.01
 89205970, 0, 0, 0, 0.01, 0, 0, 0, 0.01
 89405890, 0, 0, 0, 0.01, 0, 0, 0, 0.01
 89605810, 0, 0, 0, 0.01, 0, 0, 0, 0.01
 89806563, 0, 0, 0, 0.01, 0, 0, 0, 0.01
 90006483, 0, 0, 0, 0.01, 0, 0, 0, 0.01
 90206403, 0, 0, 0, 0.01, 0, 0, 0, 0.01
 90406323, 0, 0, 0, 0.01, 0, 0, 0, 0.01
 90606243, 0, 0, 0, 0.01, 0, 0, 0, 0.01
 90806163, 0, 0, 0, 0.01, 0, 0, 0, 0.01
 91006083, 0, 0, 0, 0.01, 0, 0, 0, 0.01
 91206003, 0, 0, 0, 0.01, 0, 0, 0, 0.01
 91405923, 0, 0, 0, 0.01, 0, 0, 0, 0.01
 91605843, 0, 0, 0, 0.01, 0, 0, 0, 0.01
 91805763, 0, 0, 0, 0.01, 0, 0, 0, 0.01
 92006516, 0, 0, 0, 0.01, 0, 0, 0, 0.01
 92206436, 0, 0, 0, 0.01, 0, 0, 0, 0.01
 92406356, 0, 0, 0, 0.01, 0, 0, 0, 0.01
 92606276, 0, 0, 0, 0.01, 0, 0, 0, 0.01
 92806196, 0, 0, 0, 0.01, 0, 0, 0, 0.01
 93006116, 0, 0, 0, 0.01, 0, 0, 0, 0.01
 93206036, 0, 0, 0, 0.01, 0, 0, 0, 0.01
 93405956, 0, 0, 0, 0.01, 0, 0, 0, 0.01
 93605876, 0, 0, 0, 0.01, 0, 0, 0, 0.01
 93805796, 0, 0, 0, 0.01, 0, 0, 0, 0.01
 94006549, 0, 0, 0, 0.01, 0, 0, 0, 0.01
 94206469, 0, 0, 0, 0.01, 0, 0, 0, 0.01
 94406389, 0, 0, 0, 0.01, 0, 0, 0, 0.01
 94606309, 0, 0, 0, 0.01, 0, 0, 0, 0.01
 94806229, 0, 0, 0, 0.01, 0, 0, 0, 0.01
 95006149, 0, 0, 0, 0.01, 0, 0, 0, 0.01
 95206069, 0, 0, 0, 0.01, 0, 0, 0, 0.01
 95405989, 0, 0, 0, 0.01, 0, 0, 0, 0.01
 95605909, 0, 0, 0, 0.01, 0, 0, 0, 0.01
 95805829, 0, 0, 0, 0.01, 0, 0, 0, 0.01
 96006582, 0, 0, 0, 0.01, 0, 0, 0, 0.01
 96206502, 0, 0, 0, 0.01, 0, 0, 0, 0.01
 96406422, 0, 0, 0, 0.01, 0, 0, 0, 0.01
 96606342, 0, 0, 0, 0.01, 0, 0, 0, 0.01
 96806262, 0, 0, 0, 0.01, 0, 0, 0, 0.01
 97006182, 0, 0, 0, 0.01, 0, 0, 0, 0.01
 97206102, 0, 0, 0, 0.01, 0, 0, 0, 0.01
 97406022, 0, 0, 0, 0.01, 0, 0, 0, 0.01
 97605942, 0, 0, 0, 0.01, 0, 0, 0, 0.01
 97805862, 0, 0, 0, 0.01, 0, 0, 0, 0.01
 98005782, 0, 0, 0, 0.01, 0, 0, 0, 0.01
 98206535, 0, 0, 0, 0.01, 0, 0, 0, 0.01
 98406455, 0, 0, 0, 0.01, 0, 0, 0, 0.01
 98606375, 0, 0, 0, 0.01, 0, 0, 0, 0.01
 98806295, 0, 0, 0, 0.01, 0, 0, 0, 0.01
 99006215, 0, 0, 0, 0.01, 0, 0, 0, 0.01
 99206135, 0, 0, 0, 0.01, 0, 0, 0, 0.01
 99406055, 0, 0, 0, 0.01, 0, 0, 0, 0.01
 99605975, 0, 0, 0, 0.01, 0, 0, 0, 0.01
 99805895, 0, 0, 0, 0.01, 0, 0, 0, 0.01
 100005815, 0, 0, 0, 0.01, 0, 0, 0, 0.01
 100206568, 0, 0, 0, 0.01, 0, 0, 0, 0.01
 100406488, 0, 0, 0, 0.01, 0, 0, 0, 0.01
 100606408, 0, 0, 0, 0.01, 0, 0, 0, 0.01
 100806328, 0, 0, 0, 0.01, 0, 0, 0, 0.01
 101006248, 0, 0, 0, 0.01, 0, 0, 0, 0.01
 101206168, 0, 0, 0, 0.01, 0, 0, 0, 0.01
 101406088, 0, 0, 0, 0.01, 0, 0, 0, 0.01
 101606008, 0, 0, 0, 0.01, 0, 0, 0, 0.01
 101805928, 0, 0, 0, 0.01, 0, 0, 0, 0.01
 102005848, 0, 0, 0, 0.01, 0, 0, 0, 0.01
 102205768, 0, 0, 0, 0.01, 0, 0, 0, 0.01
 102406521, 0, 0, 0, 0.01, 0, 0, 0, 0.01
 102606441, 0, 0, 0, 0.01, 0, 0, 0, 0.01
 102806361, 0, 0, 0, 0.01, 0, 0, 0, 0.01
 103006281, 0, 0, 0, 0.01, 0, 0, 0, 0.01
 103206201, 0, 0, 0, 0.01, 0, 0, 0, 0.01
 103406121, 0, 0, 0, 0.01, 0, 0, 0, 0.01
 103606041, 0, 0, 0, 0.01, 0, 0, 0, 0.01
 103805961, 0, 0, 0, 0.01, 0, 0, 0, 0.01
 104005881, 0, 0, 0, 0.01, 0, 0, 0, 0.01
 104205801, 0, 0, 0, 0.01, 0, 0, 0, 0.01
 104406554, 0, 0, 0, 0.01, 0, 0, 0, 0.01
 104606474, 0, 0, 0, 0.01, 0, 0, 0, 0.01
 104806394, 0, 0, 0, 0.01, 0, 0, 0, 0.01
 105006314, 0, 0, 0, 0.01, 0, 0, 0, 0.01
 105206234, 0, 0, 0, 0.01, 0, 0, 0, 0.01
 105406154, 0, 0, 0, 0.01, 0, 0, 0, 0.01
 105606074, 0, 0, 0, 0.01, 0, 0, 0, 0.01
 105805994, 0, 0, 0, 0.01, 0, 0, 0, 0.01
 106005914, 0, 0, 0, 0.01, 0, 0, 0, 0.01
 106205834, 0, 0, 0, 0.01, 0, 0, 0, 0.01
 106406587, 0, 0, 0, 0.01, 0, 0, 0, 0.01
 106606507, 0, 0, 0, 0.01, 0, 0, 0, 0.01
 106806427, 0, 0, 0, 0.01, 0, 0, 0, 0.01
 107006347, 0, 0, 0, 0.01, 0, 0, 0, 0.01
 107206267, 0, 0, 0, 0.01, 0, 0, 0, 0.01
 107406187, 0, 0, 0, 0.01, 0, 0, 0, 0.01
 107606107, 0, 0, 0, 0.01, 0, 0, 0, 0.01
 107806027, 0, 0, 0, 0.01, 0, 0, 0, 0.01
 108005947, 0, 0, 0, 0.01, 0, 0, 0, 0.01
 108205867, 0, 0, 0, 0.01, 0, 0, 0, 0.01
 108405787, 0, 0, 0, 0.01, 0, 0, 0, 0.01
 108606540, 0, 0, 0, 0.01, 0, 0, 0, 0.01
 108806460, 0, 0, 0, 0.01, 0, 0, 0, 0.01
 109006380, 0, 0, 0, 0.01, 0, 0, 0, 0.01
 109206300, 0, 0, 0, 0.01, 0, 0, 0, 0.01
 109406220, 0, 0, 0, 0.01, 0, 0, 0, 0.01
 109606140, 0, 0, 0, 0.01, 0, 0, 0, 0.01
 109806060, 0, 0, 0, 0.01, 0, 0, 0, 0.01
 110005980, 0, 0, 0, 0.01, 0, 0, 0, 0.01
 110205900, 0, 0, 0, 0.01, 0, 0, 0, 0.01
 110405820, 0, 0, 0, 0.01, 0, 0, 0, 0.01
 110606573, 0, 0, 0, 0.01, 0, 0, 0, 0.01
 110806493, 0, 0, 0, 0.01, 0, 0, 0, 0.01
 111006413, 0, 0, 0, 0.01, 0, 0, 0, 0.01
 111206333, 0, 0, 0, 0.01, 0, 0, 0, 0.01
 111406253, 0, 0, 0, 0.01, 0, 0, 0, 0.01
 111606173, 0, 0, 0, 0.01, 0, 0, 0, 0.01
 111806093, 0, 0, 0, 0.01, 0, 0, 0, 0.01
 112006013, 0, 0, 0, 0.01, 0, 0, 0, 0.01
 112205933, 0, 0, 0, 0.01, 0, 0, 0, 0.01
 112405853, 0, 0, 0, 0.01, 0, 0, 0, 0.01
 112605773, 0, 0, 0, 0.01, 0, 0, 0, 0.01
 112806526, 0, 0, 0, 0.01, 0, 0, 0, 0.01
 113006446, 0, 0, 0, 0.01, 0, 0, 0, 0.01
 113206366, 0, 0, 0, 0.01, 0, 0, 0, 0.01
 113406286, 0, 0, 0, 0.01, 0, 0, 0, 0.01
 113606206, 0, 0, 0, 0.01, 0, 0, 0, 0.01
 113806126, 0, 0, 0, 0.01, 0, 0, 0, 0.01
 114006046, 0, 0, 0, 0.01, 0, 0, 0, 0.01
 114205966, 0, 0, 0, 0.01, 0, 0, 0, 0.01
 114405886, 0, 0, 0, 0.01, 0, 0, 0, 0.01
 114605806, 0, 0, 0, 0.01, 0, 0, 0, 0.01
 114806559, 0, 0, 0, 0.01, 0, 0, 0, 0.01
 115006479, 0, 0, 0, 0.01, 0, 0, 0, 0.01
 115206399, 0, 0, 0, 0.01, 0, 0, 0, 0.01
 115406319, 0, 0, 0, 0.01, 0, 0, 0, 0.01
 115606239, 0, 0, 0, 0.01, 0, 0, 0, 0.01
 115806159, 0, 0, 0, 0.01, 0, 0, 0, 0.01
 116006079, 0, 0, 0, 0.01, 0, 0, 0, 0.01
 116205999, 0, 0, 0, 0.01, 0, 0, 0, 0.01
 116405919, 0, 0, 0, 0.01, 0, 0, 0, 0.01
 116605839, 0, 0, 0, 0.01, 0, 0, 0, 0.01
 116806592, 0, 0, 0, 0.01, 0, 0, 0, 0.01
 117006512, 0, 0, 0, 0.01, 0, 0, 0, 0.01
 117206432, 0, 0, 0, 0.01, 0, 0, 0, 0.01
 117406352, 0, 0, 0, 0.01, 0, 0, 0, 0.01
 117606272, 0, 0, 0, 0.01, 0, 0, 0, 0.01
 117806192, 0, 0, 0, 0.01, 0, 0, 0, 0.01
 118006112, 0, 0, 0, 0.01, 0, 0, 0, 0.01
 118206032, 0, 0, 0, 0.01, 0, 0, 0, 0.01
 118405952, 0, 0, 0, 0.01, 0, 0, 0, 0.01
 118605872, 0, 0, 0, 0.01, 0, 0, 0, 0.01
 118805792, 0, 0, 0, 0.01, 0, 0, 0, 0.01
 119006545, 0, 0, 0, 0.01, 0, 0, 0, 0.01
 119206465, 0, 0, 0, 0.01, 0, 0, 0, 0.01
 119406385, 0, 0, 0, 0.01, 0, 0, 0, 0.01
 119606305, 0, 0, 0, 0.01, 0, 0, 0, 0.01
 119806225, 0, 0, 0, 0.01, 0, 0, 0, 0.01
 120006145, 0, 0, 0, 0.01, 0, 0, 0, 0.01
 120206065, 0, 0, 0, 0.01, 0, 0, 0, 0.01
 120405985, 0, 0, 0, 0.01, 0, 0, 0, 0.01
 120605905, 0, 0, 0, 0.01, 0, 0, 0, 0.01
 120805825, 0, 0, 0, 0.01, 0, 0, 0, 0.01
 121006578, 0, 0, 0, 0.01, 0, 0, 0, 0.01
 121206498, 0, 0, 0, 0.01, 0, 0, 0, 0.01
 121406418, 0, 0, 0, 0.01, 0, 0, 0, 0.01
 121606338, 0, 0, 0, 0.01, 0, 0, 0, 0.01
 121806258, 0, 0, 0, 0.01, 0, 0, 0, 0.01
 122006178, 0, 0, 0, 0.01, 0, 0, 0, 0.01
 122206098, 0, 0, 0, 0.01, 0, 0, 0, 0.01
 122406018, 0, 0, 0, 0.01, 0, 0, 0, 0.01
 122605938, 0, 0, 0, 0.01, 0, 0, 0, 0.01
 122805858, 0, 0, 0, 0.01, 0, 0, 0, 0.01
 123005778, 0, 0, 0, 0.01, 0, 0, 0, 0.01
 123206531, 0, 0, 0, 0.01, 0, 0, 0, 0.01
 123406451, 0, 0, 0, 0.01, 0, 0, 0, 0.01
 123606371, 0, 0, 0, 0.01, 0, 0, 0, 0.01
 123806291, 0, 0, 0, 0.01, 0, 0, 0, 0.01
 124006211, 0, 0, 0, 0.01, 0, 0, 0, 0.01
 124206131, 0, 0, 0, 0.01, 0, 0, 0, 0.01
 124406051, 0, 0, 0, 0.01, 0, 0, 0, 0.01
 124605971, 0, 0, 0, 0.01, 0, 0, 0, 0.01
 124805891, 0, 0, 0, 0.01, 0, 0, 0, 0.01
 125005811, 0, 0, 0, 0.01, 0, 0, 0, 0.01
 125206564, 0, 0, 0, 0.01, 0, 0, 0, 0.01
 125406484, 0, 0, 0, 0.01, 0, 0, 0, 0.01
 125606404, 0, 0, 0, 0.01, 0, 0, 0, 0.01
 125806324, 0, 0, 0, 0.01, 0, 0, 0, 0.01
 126006244, 0, 0, 0, 0.01, 0, 0, 0, 0.01
 126206164, 0, 0, 0, 0.01, 0, 0, 0, 0.01
 126406084, 0, 0, 0, 0.01, 0, 0, 0, 0.01
 126606004, 0, 0, 0, 0.01, 0, 0, 0, 0.01
 126805924, 0, 0, 0, 0.01, 0, 0, 0, 0.01
 127005844, 0, 0, 0, 0.01, 0, 0, 0, 0.01
 127205764, 0, 0, 0, 0.01, 0, 0, 0, 0.01
 127406517, 0, 0, 0, 0.01, 0, 0, 0, 0.01
 127606437, 0, 0, 0, 0.01, 0, 0, 0, 0.01
 127806357, 0, 0, 0, 0.01, 0, 0, 0, 0.01
 128006277, 0, 0, 0, 0.01, 0, 0, 0, 0.01
 128206197, 0, 0, 0, 0.01, 0, 0, 0, 0.01
 128406117, 0, 0, 0, 0.01, 0, 0, 0, 0.01
 128606037, 0, 0, 0, 0.01, 0, 0, 0, 0.01
 128805957, 0, 0, 0, 0.01, 0, 0, 0, 0.01
 129005877, 0, 0, 0, 0.01, 0, 0, 0, 0.01
 129205797, 0, 0, 0, 0.01, 0, 0, 0, 0.01
 129406550, 0, 0, 0, 0.01, 0, 0, 0, 0.01
 129606470, 0, 0, 0, 0.01, 0, 0, 0, 0.01
 129806390, 0, 0, 0, 0.01, 0, 0, 0, 0.01
 130006310, 0, 0, 0, 0.01, 0, 0, 0, 0.01
 130206230, 0, 0, 0, 0.01, 0, 0, 0, 0.01
 130406150, 0, 0, 0, 0.01, 0, 0, 0, 0.01
 130606070, 0, 0, 0, 0.01, 0, 0, 0, 0.01
 130805990, 0, 0, 0, 0.01, 0, 0, 0, 0.01
 131005910, 0, 0, 0, 0.01, 0, 0, 0, 0.01
 131205830, 0, 0, 0, 0.01, 0, 0, 0, 0.01
 131406583, 0, 0, 0, 0.01, 0, 0, 0, 0.01
 131606503, 0, 0, 0, 0.01, 0, 0, 0, 0.01
 131806423, 0, 0, 0, 0.01, 0, 0, 0, 0.01
 132006343, 0, 0, 0, 0.01, 0, 0, 0, 0.01
 132206263, 0, 0, 0, 0.01, 0, 0, 0, 0.01
 132406183, 0, 0, 0, 0.01, 0, 0, 0, 0.01
 132606103, 0, 0, 0, 0.01, 0, 0, 0, 0.01
 132806023, 0, 0, 0, 0.01, 0, 0, 0, 0.01
 133005943, 0, 0, 0, 0.01, 0, 0, 0, 0.01
 133205863, 0, 0, 0, 0.01, 0, 0, 0, 0.01
 133405783, 0, 0, 0, 0.01, 0, 0, 0, 0.01
 133606536, 0, 0, 0, 0.01, 0, 0, 0, 0.01
 133806456, 0, 0, 0, 0.01, 0, 0, 0, 0.01
 134006376, 0, 0, 0, 0.01, 0, 0, 0, 0.01
 134206296, 0, 0, 0, 0.01, 0, 0, 0, 0.01
 134406216, 0, 0, 0, 0.01, 0, 0, 0, 0.01
 134606136, 0, 0, 0, 0.01, 0, 0, 0, 0.01
 134806056, 0, 0, 0, 0.01, 0, 0, 0, 0.01
 135005976, 0, 0, 0, 0.01, 0, 0, 0, 0.01
 135205896, 0, 0, 0, 0.01, 0, 0, 0, 0.01
 135405816, 0, 0, 0, 0.01, 0, 0, 0, 0.01
 135606569, 0, 0, 0, 0.01, 0, 0, 0, 0.01
 135806489, 0, 0, 0, 0.01, 0, 0, 0, 0.01
 136006409, 0, 0, 0, 0.01, 0, 0, 0, 0.01
 136206329, 0, 0, 0, 0.01, 0, 0, 0, 0.01
 136406249, 0, 0, 0, 0.01, 0, 0, 0, 0.01
 136606169, 0, 0, 0, 0.01, 0, 0, 0, 0.01
 136806089, 0, 0, 0, 0.01, 0, 0, 0, 0.01
 137006009, 0, 0, 0, 0.01, 0, 0, 0, 0.01
 137205929, 0, 0, 0, 0.01, 0, 0, 0, 0.01
 137405849, 0, 0, 0, 0.01, 0, 0, 0, 0.01
 137605769, 0, 0, 0, 0.01, 0, 0, 0, 0.01
 137806522, 0, 0, 0, 0.01, 0, 0, 0, 0.01
 138006442, 0, 0, 0, 0.01, 0, 0, 0, 0.01
 138206362, 0, 0, 0, 0.01, 0, 0, 0, 0.01
 138406282, 0, 0, 0, 0.01, 0, 0, 0, 0.01
 138606202, 0, 0, 0, 0.01, 0, 0, 0, 0.01
 138806122, 0, 0, 0, 0.01, 0, 0, 0, 0.01
 139006042, 0, 0, 0, 0.01, 0, 0, 0, 0.01
 139205962, 0, 0, 0, 0.01, 0, 0, 0, 0.01
 139405882, 0, 0, 0, 0.01, 0, 0, 0, 0.01
 139605802, 0, 0, 0, 0.01, 0, 0, 0, 0.01
 139806555, 0, 0, 0, 0.01, 0, 0, 0, 0.01
 140006475, 0, 0, 0, 0.01, 0, 0, 0, 0.01
 140206395, 0, 0, 0, 0.01, 0, 0, 0, 0.01
 140406315, 0, 0, 0, 0.01, 0, 0, 0, 0.01
 140606235, 0, 0, 0, 0.01, 0, 0, 0, 0.01
 140806155, 0, 0, 0, 0.01, 0, 0, 0, 0.01
 141006075, 0, 0, 0, 0.01, 0, 0, 0, 0.01
 141205995, 0, 0, 0, 0.01, 0, 0, 0, 0.01
 141405915, 0, 0, 0, 0.01, 0, 0, 0, 0.01
 141605835, 0, 0, 0, 0.01, 0, 0, 0, 0.01
 141806588, 0, 0, 0, 0.01, 0, 0, 0, 0.01
 142006508, 0, 0, 0, 0.01, 0, 0, 0, 0.01
 142206428, 0, 0, 0, 0.01, 0, 0, 0, 0.01
 142406348, 0, 0, 0, 0.01, 0, 0, 0, 0.01
 142606268, 0, 0, 0, 0.01, 0, 0, 0, 0.01
 142806188, 0, 0, 0, 0.01, 0, 0, 0, 0.01
 143006108, 0, 0, 0, 0.01, 0, 0, 0, 0.01
 143206028, 0, 0, 0, 0.01, 0, 0, 0, 0.01
 143405948, 0, 0, 0, 0.01, 0, 0, 0, 0.01
 143605868, 0, 0, 0, 0.01, 0, 0, 0, 0.01
 143805788, 0, 0, 0, 0.01, 0, 0, 0, 0.01
 144006541, 0, 0, 0, 0.01, 0, 0, 0, 0.01
 144206461, 0, 0, 0, 0.01, 0, 0, 0, 0.01
 144406381, 0, 0, 0, 0.01, 0, 0, 0, 0.01
 144606301, 0, 0, 0, 0.01, 0, 0, 0, 0.01
 144806221, 0, 0, 0, 0.01, 0, 0, 0, 0.01
 145006141, 0, 0, 0, 0.01, 0, 0, 0, 0.01
 145206061, 0, 0, 0, 0.01, 0, 0, 0, 0.01
 145405981, 0, 0, -0.038, 0.01, 0, 0, 0, 0.01
 145605901, 0, 0, -0.6810001, 0.01, 0, 0, -0.038, 0.01
 145805821, -0.001, -0.001, -1.658, 0.01, 0, 0, -0.6810001, 0.01
 146006574, -0.007, -0.006, -3.109, 0.01, -0.001, -0.001, -1.658, 0.01
 146206494, -0.015, -0.013, -3.901, 0.01, -0.007, -0.006, -3.109, 0.01
 146406414, -0.023, -0.019, -4.566, 0.01, -0.015, -0.013, -3.901, 0.01
 146606334, -0.031, -0.026, -5.205, 0.01, -0.023, -0.019, -4.566, 0.01
 146806254, -0.037, -0.032, -5.744, 0.01, -0.031, -0.026, -5.205, 0.01
 147006174, -0.044, -0.037, -6.189, 0.01, -0.037, -0.032, -5.744, 0.01
 147206094, -0.049, -0.041, -6.561, 0.01, -0.044, -0.037, -6.189, 0.01
 147406014, -0.054, -0.046, -6.87, 0.01, -0.049, -0.041, -6.561, 0.01
 147605934, -0.059, -0.05, -7.124001, 0.01, -0.054, -0.046, -6.87, 0.01
 147805854, -0.061, -0.052, -6.716001, 0.01, -0.059, -0.05, -7.124001, 0.01
 148005774, -0.062, -0.053, -6.084, 0.01, -0.061, -0.052, -6.716001, 0.01
 148206527, -0.063, -0.055, -5.547, 0.01, -0.062, -0.053, -6.084, 0.01
 148406447, -0.062, -0.055, -4.062, 0.01, -0.063, -0.055, -5.547, 0.01
 148606367, -0.056, -0.052, -2.568, 0.01, -0.062, -0.055, -4.062, 0.01
 148806287, -0.023, -0.043, -1.604, 0.01, -0.056, -0.052, -2.568, 0.01
 149006207, 0.046, -0.028, -0.96, 0.01, -0.023, -0.043, -1.604, 0.01
 149206127, 0.149, -0.008, -0.529, 0.01, 0.046, -0.028, -0.96, 0.01
 149406047, 0.278, 0.013, -0.261, 0.01, 0.149, -0.008, -0.529, 0.01
 149605967, 0.43, 0.036, -0.107, 0.01, 0.278, 0.013, -0.261, 0.01
 149805887, 0.6, 0.06, -0.028, 0.01, 0.43, 0.036, -0.107, 0.01
 150005807, 0.789, 0.083, 0.007, 0.01, 0.6, 0.06, -0.028, 0.01
 150206560, 1, 0.107, 0.022, 0.01, 0.789, 0.083, 0.007, 0.01
 150406480, 1.232, 0.134, 0.03, 0.01, 1, 0.107, 0.022, 0.01
 150606400, 1.489, 0.165, 0.04, 0.01, 1.232, 0.134, 0.03, 0.01
 150806320, 1.77, 0.204, 0.058, 0.01, 1.489, 0.165, 0.04, 0.01
 151006240, 2.076, 0.247, 0.086, 0.01, 1.77, 0.204, 0.058, 0.01
 151206160, 2.41, 0.291, 0.121, 0.01, 2.076, 0.247, 0.086, 0.01
 151406080, 2.776, 0.332, 0.159, 0.01, 2.41, 0.291, 0.121, 0.01
 151606000, 3.173, 0.375, 0.197, 0.01, 2.776, 0.332, 0.159, 0.01
 151805920, 3.582, 0.418, 0.231, 0.01, 3.173, 0.375, 0.197, 0.01
 152005840, 3.988, 0.464, 0.263, 0.01, 3.582, 0.418, 0.231, 0.01
 152205760, 4.395, 0.516, 0.292, 0.01, 3.988, 0.464, 0.263, 0.01
 152406513, 4.811, 0.575, 0.319, 0.01, 4.395, 0.516, 0.292, 0.01
 152606433, 5.232, 0.636, 0.344, 0.01, 4.811, 0.575, 0.319, 0.01
 152806353, 5.658, 0.696, 0.367, 0.01, 5.232, 0.636, 0.344, 0.01
 153006273, 6.088, 0.7500001, 0.39, 0.01, 5.658, 0.696, 0.367, 0.01
 153206193, 6.52, 0.799, 0.41, 0.01, 6.088, 0.7500001, 0.39, 0.01
 153406113, 6.939, 0.844, 0.428, 0.01, 6.52, 0.799, 0.41, 0.01
 153606033, 7.324, 0.881, 0.444, 0.01, 6.939, 0.844, 0.428, 0.01
 153805953, 7.676001, 0.914, 0.459, 0.01, 7.324, 0.881, 0.444, 0.01
 154005873, 7.996, 0.946, 0.472, 0.01, 7.676001, 0.914, 0.459, 0.01
 154205793, 8.284, 0.979, 0.483, 0.01, 7.996, 0.946, 0.472, 0.01
 154406546, 8.54, 1.01, 0.49, 0.01, 8.284, 0.979, 0.483, 0.01
 154606466, 8.761001, 1.038, 0.495, 0.01, 8.54, 1.01, 0.49, 0.01
 154806386, 8.951, 1.063, 0.499, 0.01, 8.761001, 1.038, 0.495, 0.01
 155006306, 9.112, 1.085, 0.5, 0.01, 8.951, 1.063, 0.499, 0.01
 155206226, 9.249001, 1.108, 0.5, 0.01, 9.112, 1.085, 0.5, 0.01
 155406146, 9.359, 1.123, 0.497, 0.01, 9.249001, 1.108, 0.5, 0.01
 155606066, 9.440001, 1.126, 0.492, 0.01, 9.359, 1.123, 0.497, 0.01
 155805986, 9.490001, 1.124, 0.486, 0.01, 9.440001, 1.126, 0.492, 0.01
 156005906, 9.513, 1.119, 0.481, 0.01, 9.490001, 1.124, 0.486, 0.01
 156205826, 9.533, 1.114, 0.478, 0.01, 9.513, 1.119, 0.481, 0.01
 156406579, 9.555, 1.111, 0.476, 0.01, 9.533, 1.114, 0.478, 0.01
 156606499, 9.578, 1.103, 0.472, 0.01, 9.555, 1.111, 0.476, 0.01
 156806419, 9.596001, 1.089, 0.469, 0.01, 9.578, 1.103, 0.472, 0.01
 157006339, 9.613001, 1.071, 0.467, 0.01, 9.596001, 1.089, 0.469, 0.01
 157206259, 9.627001, 1.055, 0.466, 0.01, 9.613001, 1.071, 0.467, 0.01
 157406179, 9.639001, 1.043, 0.466, 0.01, 9.627001, 1.055, 0.466, 0.01
 157606099, 9.647, 1.039, 0.468, 0.01, 9.639001, 1.043, 0.466, 0.01
 157806019, 9.657001, 1.039, 0.471, 0.01, 9.647, 1.039, 0.468, 0.01
 158005939, 9.67, 1.04, 0.474, 0.01, 9.657001, 1.039, 0.471, 0.01
 158205859, 9.682, 1.045, 0.478, 0.01, 9.67, 1.04, 0.474, 0.01
 158405779, 9.693001, 1.056, 0.482, 0.01, 9.682, 1.045, 0.478, 0.01
 158606532, 9.707001, 1.071, 0.486, 0.01, 9.693001, 1.056, 0.482, 0.01
 158806452, 9.717, 1.09, 0.489, 0.01, 9.707001, 1.071, 0.486, 0.01
 159006372, 9.728001, 1.111, 0.492, 0.01, 9.717, 1.09, 0.489, 0.01
 159206292, 9.737, 1.125, 0.495, 0.01, 9.728001, 1.111, 0.492, 0.01
 159406212, 9.748, 1.13, 0.497, 0.01, 9.737, 1.125, 0.495, 0.01
 159606132, 9.758, 1.128, 0.498, 0.01, 9.748, 1.13, 0.497, 0.01
 159806052, 9.767, 1.126, 0.5, 0.01, 9.758, 1.128, 0.498, 0.01
 160005972, 9.778001, 1.126, 0.502, 0.01, 9.767, 1.126, 0.5, 0.01
 160205892, 9.789001, 1.129, 0.505, 0.01, 9.778001, 1.126, 0.502, 0.01
 160405812, 9.801001, 1.13, 0.507, 0.01, 9.789001, 1.129, 0.505, 0.01
 160606565, 9.813001, 1.13, 0.508, 0.01, 9.801001, 1.13, 0.507, 0.01
 160806485, 9.823001, 1.131, 0.509, 0.01, 9.813001, 1.13, 0.508, 0.01
 161006405, 9.830001, 1.135, 0.511, 0.01, 9.823001, 1.131, 0.509, 0.01
 161206325, 9.835, 1.142, 0.512, 0.01, 9.830001, 1.135, 0.511, 0.01
 161406245, 9.836, 1.151, 0.514, 0.01, 9.835, 1.142, 0.512, 0.01
 161606165, 9.84, 1.154, 0.516, 0.01, 9.836, 1.151, 0.514, 0.01
 161806085, 9.846001, 1.149, 0.517, 0.01, 9.84, 1.154, 0.516, 0.01
 162006005, 9.853001, 1.139, 0.518, 0.01, 9.846001, 1.149, 0.517, 0.01
 162205925, 9.862, 1.125, 0.516, 0.01, 9.853001, 1.139, 0.518, 0.01
 162405845, 9.870001, 1.109, 0.5100001, 0.01, 9.862, 1.125, 0.516, 0.01
 162605765, 9.877001, 1.09, 0.504, 0.01, 9.870001, 1.109, 0.5100001, 0.01
 162806518, 9.887, 1.062, 0.494, 0.01, 9.877001, 1.09, 0.504, 0.01
 163006438, 9.896001, 1.025, 0.481, 0.01, 9.887, 1.062, 0.494, 0.01
 163206358, 9.905001, 0.983, 0.467, 0.01, 9.896001, 1.025, 0.481, 0.01
 163406278, 9.914001, 0.9390001, 0.449, 0.01, 9.905001, 0.983, 0.467, 0.01
 163606198, 9.924001, 0.896, 0.43, 0.01, 9.914001, 0.9390001, 0.449, 0.01
 163806118, 9.933001, 0.854, 0.408, 0.01, 9.924001, 0.896, 0.43, 0.01
 164006038, 9.942, 0.809, 0.384, 0.01, 9.933001, 0.854, 0.408, 0.01
 164205958, 9.950001, 0.7600001, 0.358, 0.01, 9.942, 0.809, 0.384, 0.01
 164405878, 9.957001, 0.707, 0.33, 0.01, 9.950001, 0.7600001, 0.358, 0.01
 164605798, 9.96, 0.655, 0.301, 0.01, 9.957001, 0.707, 0.33, 0.01
 164806551, 9.963, 0.6070001, 0.274, 0.01, 9.96, 0.655, 0.301, 0.01
 165006471, 9.971001, 0.562, 0.246, 0.01, 9.963, 0.6070001, 0.274, 0.01
 165206391, 9.98, 0.52, 0.218, 0.01, 9.971001, 0.562, 0.246, 0.01
 165406311, 9.988001, 0.479, 0.191, 0.01, 9.98, 0.52, 0.218, 0.01
 165606231, 10, 0.438, 0.164, 0.01, 9.988001, 0.479, 0.191, 0.01
 165806151, 10.013, 0.398, 0.136, 0.01, 10, 0.438, 0.164, 0.01
 166006071, 10.025, 0.348, 0.11, 0.01, 10.013, 0.398, 0.136, 0.01
 166205991, 10.035, 0.289, 0.087, 0.01, 10.025, 0.348, 0.11, 0.01
 166405911, 10.043, 0.225, 0.067, 0.01, 10.035, 0.289, 0.087, 0.01
 166605831, 10.046, 0.16, 0.049, 0.01, 10.043, 0.225, 0.067, 0.01
 166806584, 10.044, 0.09900001, 0.033, 0.01, 10.046, 0.16, 0.049, 0.01
 167006504, 10.041, 0.045, 0.021, 0.01, 10.044, 0.09900001, 0.033, 0.01
 167206424, 10.036, 0, 0.01, 0.01, 10.041, 0.045, 0.021, 0.01
 167406344, 10.03, -0.036, 0.001, 0.01, 10.036, 0, 0.01, 0.01
 167606264, 10.022, -0.063, -0.004, 0.01, 10.03, -0.036, 0.001, 0.01
 167806184, 10.015, -0.08000001, -0.007, 0.01, 10.022, -0.063, -0.004, 0.01
 168006104, 10.011, -0.089, -0.009000001, 0.01, 10.015, -0.08000001, -0.007, 0.01
 168206024, 10.007, -0.09100001, -0.009000001, 0.01, 10.011, -0.089, -0.009000001, 0.01
 168405944, 10.001, -0.087, -0.008, 0.01, 10.007, -0.09100001, -0.009000001, 0.01
 168605864, 9.992001, -0.081, -0.006, 0.01, 10.001, -0.087, -0.008, 0.01
 168805784, 9.983001, -0.07600001, -0.004, 0.01, 9.992001, -0.081, -0.006, 0.01
 169006537, 9.979, -0.07, 0, 0.01, 9.983001, -0.07600001, -0.004, 0.01
 169206457, 9.977, -0.064, 0, 0.01, 9.979, -0.07, 0, 0.01
 169406377, 9.975, -0.055, 0.001, 0.01, 9.977, -0.064, 0, 0.01
 169606297, 9.972, -0.046, 0.002, 0.01, 9.975, -0.055, 0.001, 0.01
 169806217, 9.972, -0.037, 0.003, 0.01, 9.972, -0.046, 0.002, 0.01
 170006137, 9.974001, -0.029, 0.003, 0.01, 9.972, -0.037, 0.003, 0.01
 170206057, 9.977, -0.022, 0.003, 0.01, 9.974001, -0.029, 0.003, 0.01
 170405977, 9.979, -0.017, 0.003, 0.01, 9.977, -0.022, 0.003, 0.01
 170605897, 9.981001, -0.012, 0.003, 0.01, 9.979, -0.017, 0.003, 0.01
 170805817, 9.979, -0.008, 0.004, 0.01, 9.981001, -0.012, 0.003, 0.01
 171006570, 9.974001, -0.005, 0.004, 0.01, 9.979, -0.008, 0.004, 0.01
 171206490, 9.971001, -0.003, 0.005, 0.01, 9.974001, -0.005, 0.004, 0.01
 171406410, 9.97, -0.002, 0.006, 0.01, 9.971001, -0.003, 0.005, 0.01
 171606330, 9.971001, -0.002, 0.006, 0.01, 9.97, -0.002, 0.006, 0.01
 171806250, 9.971001, -0.002, 0.006, 0.01, 9.971001, -0.002, 0.006, 0.01
 172006170, 9.972, -0.002, 0.007, 0.01, 9.971001, -0.002, 0.006, 0.01
 172206090, 9.973001, -0.001, 0.007, 0.01, 9.972, -0.002, 0.007, 0.01
 172406010, 9.977, -0.001, 0.007, 0.01, 9.973001, -0.001, 0.007, 0.01
 172605930, 9.982, -0.001, 0.008, 0.01, 9.977, -0.001, 0.007, 0.01
 172805850, 9.987, 0, 0.007, 0.01, 9.982, -0.001, 0.008, 0.01
 173005770, 9.990001, 0, 0.007, 0.01, 9.987, 0, 0.007, 0.01
 173206523, 9.996, 0, 0.007, 0.01, 9.990001, 0, 0.007, 0.01
 173406443, 9.999001, 0, 0.006, 0.01, 9.996, 0, 0.007, 0.01
 173606363, 10, 0, 0.006, 0.01, 9.999001, 0, 0.006, 0.01
 173806283, 9.999001, 0, 0.005, 0.01, 10, 0, 0.006, 0.01
 174006203, 9.997001, 0, 0.006, 0.01, 9.999001, 0, 0.005, 0.01
 174206123, 9.994, 0, 0.007, 0.01, 9.997001, 0, 0.006, 0.01
 174406043, 9.993, 0, 0.007, 0.01, 9.994, 0, 0.007, 0.01
 174605963, 9.993, 0, 0.008, 0.01, 9.993, 0, 0.007, 0.01
 174805883, 9.993, -0.001, 0.008, 0.01, 9.993, 0, 0.008, 0.01
 175005803, 9.990001, -0.002, 0.008, 0.01, 9.993, -0.001, 0.008, 0.01
 175206556, 9.988001, -0.003, 0.007, 0.01, 9.990001, -0.002, 0.008, 0.01
 175406476, 9.986, -0.004, 0.006, 0.01, 9.988001, -0.003, 0.007, 0.01
 175606396, 9.979, -0.004, 0.005, 0.01, 9.986, -0.004, 0.006, 0.01
 175806316, 9.974001, -0.004, 0.005, 0.01, 9.979, -0.004, 0.005, 0.01
 176006236, 9.972, -0.004, 0.006, 0.01, 9.974001, -0.004, 0.005, 0.01
 176206156, 9.972, -0.004, 0.005, 0.01, 9.972, -0.004, 0.006, 0.01
 176406076, 9.976001, -0.004, 0.005, 0.01, 9.972, -0.004, 0.005, 0.01
 176605996, 9.983001, -0.004, 0.006, 0.01, 9.976001, -0.004, 0.005, 0.01
 176805916, 9.990001, -0.003, 0.005, 0.01, 9.983001, -0.004, 0.006, 0.01
 177005836, 9.993, -0.002, 0.004, 0.01, 9.990001, -0.003, 0.005, 0.01
 177206589, 9.995001, -0.001, 0.003, 0.01, 9.993, -0.002, 0.004, 0.01
 177406509, 9.996, -0.001, 0.003, 0.01, 9.995001, -0.001, 0.003, 0.01
 177606429, 9.998, -0.002, 0.004, 0.01, 9.996, -0.001, 0.003, 0.01
 177806349, 10.004, -0.003, 0.005, 0.01, 9.998, -0.002, 0.004, 0.01
 178006269, 10.013, -0.003, 0.004, 0.01, 10.004, -0.003, 0.005, 0.01
 178206189, 10.022, -0.003, 0.004, 0.01, 10.013, -0.003, 0.004, 0.01
 178406109, 10.03, -0.003, 0.004, 0.01, 10.022, -0.003, 0.004, 0.01
 178606029, 10.035, -0.004, 0.004, 0.01, 10.03, -0.003, 0.004, 0.01
 178805949, 10.04, -0.005, 0.003, 0.01, 10.035, -0.004, 0.004, 0.01
 179005869, 10.041, -0.006, 0.003, 0.01, 10.04, -0.005, 0.003, 0.01
 179205789, 10.04, -0.006, 0.003, 0.01, 10.041, -0.006, 0.003, 0.01
 179406542, 10.04, -0.007, 0.003, 0.01, 10.04, -0.006, 0.003, 0.01
 179606462, 10.039, -0.008, 0.003, 0.01, 10.04, -0.007, 0.003, 0.01
 179806382, 10.036, -0.007, 0.003, 0.01, 10.039, -0.008, 0.003, 0.01
 180006302, 10.032, -0.007, 0.003, 0.01, 10.036, -0.007, 0.003, 0.01
 180206222, 10.029, -0.007, 0.003, 0.01, 10.032, -0.007, 0.003, 0.01
 180406142, 10.027, -0.006, 0.003, 0.01, 10.029, -0.007, 0.003, 0.01
 180606062, 10.026, -0.003, 0.003, 0.01, 10.027, -0.006, 0.003, 0.01
 180805982, 10.025, -0.001, 0.003, 0.01, 10.026, -0.003, 0.003, 0.01
 181005902, 10.023, 0, 0.002, 0.01, 10.025, -0.001, 0.003, 0.01
 181205822, 10.018, 0.003, 0.001, 0.01, 10.023, 0, 0.002, 0.01
 181406575, 10.014, 0.005, 0.001, 0.01, 10.018, 0.003, 0.001, 0.01
 181606495, 10.011, 0.006, 0.001, 0.01, 10.014, 0.005, 0.001, 0.01
 181806415, 10.006, 0.006, 0.001, 0.01, 10.011, 0.006, 0.001, 0.01
 182006335, 9.999001, 0.006, 0.001, 0.01, 10.006, 0.006, 0.001, 0.01
 182206255, 9.988001, 0.006, 0, 0.01, 9.999001, 0.006, 0.001, 0.01
 182406175, 9.952001, 0.005, -0.002, 0.01, 9.988001, 0.006, 0, 0.01
 182606095, 9.873, 0.006, -0.006, 0.01, 9.952001, 0.005, -0.002, 0.01
 182806015, 9.757001, 0.007, -0.006, 0.01, 9.873, 0.006, -0.006, 0.01
 183005935, 9.606001, 0.01, -0.006, 0.01, 9.757001, 0.007, -0.006, 0.01
 183205855, 9.418, 0.014, -0.005, 0.01, 9.606001, 0.01, -0.006, 0.01
 183405775, 9.191, 0.019, -0.002, 0.01, 9.418, 0.014, -0.005, 0.01
 183606528, 8.928, 0.024, 0, 0.01, 9.191, 0.019, -0.002, 0.01
 183806448, 8.623, 0.029, 0.004, 0.01, 8.928, 0.024, 0, 0.01
 184006368, 8.277, 0.034, 0.009000001, 0.01, 8.623, 0.029, 0.004, 0.01
 184206288, 7.887001, 0.038, 0.014, 0.01, 8.277, 0.034, 0.009000001, 0.01
 184406208, 7.455, 0.043, 0.02, 0.01, 7.887001, 0.038, 0.014, 0.01
 184606128, 6.981, 0.044, 0.025, 0.01, 7.455, 0.043, 0.02, 0.01
 184806048, 6.476, 0.021, 0.028, 0.01, 6.981, 0.044, 0.025, 0.01
 185005968, 5.963, -0.046, 0.029, 0.01, 6.476, 0.021, 0.028, 0.01
 185205888, 5.443, -0.16, 0.026, 0.01, 5.963, -0.046, 0.029, 0.01
 185405808, 4.913, -0.318, 0.022, 0.01, 5.443, -0.16, 0.026, 0.01
 185606561, 4.371, -0.522, 0.017, 0.01, 4.913, -0.318, 0.022, 0.01
 185806481, 3.824, -0.771, 0.013, 0.01, 4.371, -0.522, 0.017, 0.01
 186006401, 3.27, -1.066, 0.01, 0.01, 3.824, -0.771, 0.013, 0.01
 186206321, 2.714, -1.406, 0.009000001, 0.01, 3.27, -1.066, 0.01, 0.01
 186406241, 2.182, -1.791, 0.009000001, 0.01, 2.714, -1.406, 0.009000001, 0.01
 186606161, 1.691, -2.221, 0.011, 0.01, 2.182, -1.791, 0.009000001, 0.01
 186806081, 1.246, -2.694, 0.014, 0.01, 1.691, -2.221, 0.011, 0.01
 187006001, 0.853, -3.205, 0.018, 0.01, 1.246, -2.694, 0.014, 0.01
 187205921, 0.515, -3.733, 0.021, 0.01, 0.853, -3.205, 0.018, 0.01
 187405841, 0.233, -4.253, 0.023, 0.01, 0.515, -3.733, 0.021, 0.01
 187605761, 0.005, -4.762, 0.024, 0.01, 0.233, -4.253, 0.023, 0.01
 187806514, -0.171, -5.262, 0.025, 0.01, 0.005, -4.762, 0.024, 0.01
 188006434, -0.303, -5.752, 0.025, 0.01, -0.171, -5.262, 0.025, 0.01
 188206354, -0.392, -6.231, 0.023, 0.01, -0.303, -5.752, 0.025, 0.01
 188406274, -0.435, -6.704, 0.022, 0.01, -0.392, -6.231, 0.023, 0.01
 188606194, -0.431, -7.166, 0.018, 0.01, -0.435, -6.704, 0.022, 0.01
 188806114, -0.393, -7.599, 0.013, 0.01, -0.431, -7.166, 0.018, 0.01
 189006034, -0.347, -7.984, 0.007, 0.01, -0.393, -7.599, 0.013, 0.01
 189205954, -0.303, -8.327001, 0.003, 0.01, -0.347, -7.984, 0.007, 0.01
 189405874, -0.265, -8.63, -0.001, 0.01, -0.303, -8.327001, 0.003, 0.01
 189605794, -0.23, -8.889001, -0.005, 0.01, -0.265, -8.63, -0.001, 0.01
 189806547, -0.196, -9.115001, -0.009000001, 0.01, -0.23, -8.889001, -0.005, 0.01
 190006467, -0.165, -9.308001, -0.013, 0.01, -0.196, -9.115001, -0.009000001, 0.01
 190206387, -0.137, -9.471001, -0.016, 0.01, -0.165, -9.308001, -0.013, 0.01
 190406307, -0.111, -9.598001, -0.02, 0.01, -0.137, -9.471001, -0.016, 0.01
 190606227, -0.09, -9.695001, -0.023, 0.01, -0.111, -9.598001, -0.02, 0.01
 190806147, -0.07300001, -9.766001, -0.025, 0.01, -0.09, -9.695001, -0.023, 0.01
 191006067, -0.061, -9.803, -0.028, 0.01, -0.07300001, -9.766001, -0.025, 0.01
 191205987, -0.052, -9.81, -0.028, 0.01, -0.061, -9.803, -0.028, 0.01
 191405907, -0.045, -9.813001, -0.025, 0.01, -0.052, -9.81, -0.028, 0.01
 191605827, -0.041, -9.824, -0.021, 0.01, -0.045, -9.813001, -0.025, 0.01
 191806580, -0.039, -9.838, -0.02, 0.01, -0.041, -9.824, -0.021, 0.01
 192006500, -0.036, -9.854, -0.018, 0.01, -0.039, -9.838, -0.02, 0.01
 192206420, -0.035, -9.869, -0.017, 0.01, -0.036, -9.854, -0.018, 0.01
 192406340, -0.035, -9.889001, -0.015, 0.01, -0.035, -9.869, -0.017, 0.01
 192606260, -0.035, -9.904, -0.014, 0.01, -0.035, -9.889001, -0.015, 0.01
 192806180, -0.038, -9.917001, -0.013, 0.01, -0.035, -9.904, -0.014, 0.01
 193006100, -0.041, -9.931001, -0.012, 0.01, -0.038, -9.917001, -0.013, 0.01
 193206020, -0.044, -9.941001, -0.011, 0.01, -0.041, -9.931001, -0.012, 0.01
 193405940, -0.048, -9.946, -0.011, 0.01, -0.044, -9.941001, -0.011, 0.01
 193605860, -0.05, -9.945001, -0.01, 0.01, -0.048, -9.946, -0.011, 0.01
 193805780, -0.05, -9.948001, -0.008, 0.01, -0.05, -9.945001, -0.01, 0.01
 194006533, -0.05, -9.948001, -0.007, 0.01, -0.05, -9.948001, -0.008, 0.01
 194206453, -0.049, -9.947001, -0.006, 0.01, -0.05, -9.948001, -0.007, 0.01
 194406373, -0.047, -9.944, -0.006, 0.01, -0.049, -9.947001, -0.006, 0.01
 194606293, -0.045, -9.941001, -0.005, 0.01, -0.047, -9.944, -0.006, 0.01
 194806213, -0.043, -9.938001, -0.005, 0.01, -0.045, -9.941001, -0.005, 0.01
 195006133, -0.041, -9.936001, -0.005, 0.01, -0.043, -9.938001, -0.005, 0.01
 195206053, -0.04, -9.936001, -0.004, 0.01, -0.041, -9.936001, -0.005, 0.01
 195405973, -0.039, -9.938001, -0.003, 0.01, -0.04, -9.936001, -0.004, 0.01
 195605893, -0.037, -9.943001, -0.003, 0.01, -0.039, -9.938001, -0.003, 0.01
 195805813, -0.037, -9.945001, -0.003, 0.01, -0.037, -9.943001, -0.003, 0.01
 196006566, -0.036, -9.947001, -0.003, 0.01, -0.037, -9.945001, -0.003, 0.01
 196206486, -0.035, -9.947001, -0.004, 0.01, -0.036, -9.947001, -0.003, 0.01
 196406406, -0.033, -9.943001, -0.004, 0.01, -0.035, -9.947001, -0.004, 0.01
 196606326, -0.031, -9.946, -0.003, 0.01, -0.033, -9.943001, -0.004, 0.01
 196806246, -0.029, -9.949, -0.003, 0.01, -0.031, -9.946, -0.003, 0.01
 197006166, -0.029, -9.955001, -0.003, 0.01, -0.029, -9.949, -0.003, 0.01
 197206086, -0.029, -9.962001, -0.002, 0.01, -0.029, -9.955001, -0.003, 0.01
 197406006, -0.028, -9.97, -0.002, 0.01, -0.029, -9.962001, -0.002, 0.01
 197605926, -0.027, -9.975, -0.003, 0.01, -0.028, -9.97, -0.002, 0.01
 197805846, -0.026, -9.975, -0.004, 0.01, -0.027, -9.975, -0.003, 0.01
 198005766, -0.024, -9.969001, -0.004, 0.01, -0.026, -9.975, -0.004, 0.01
 198206519, -0.021, -9.962001, -0.003, 0.01, -0.024, -9.969001, -0.004, 0.01
 198406439, -0.019, -9.961, -0.002, 0.01, -0.021, -9.962001, -0.003, 0.01
 198606359, -0.017, -9.966001, -0.002, 0.01, -0.019, -9.961, -0.002, 0.01
 198806279, -0.015, -9.97, -0.002, 0.01, -0.017, -9.966001, -0.002, 0.01
 199006199, -0.013, -9.973001, -0.002, 0.01, -0.015, -9.97, -0.002, 0.01
 199206119, -0.012, -9.976001, -0.002, 0.01, -0.013, -9.973001, -0.002, 0.01
 199406039, -0.011, -9.977, -0.003, 0.01, -0.012, -9.976001, -0.002, 0.01
 199605959, -0.01, -9.976001, -0.003, 0.01, -0.011, -9.977, -0.003, 0.01
 199805879, -0.01, -9.969001, -0.003, 0.01, -0.01, -9.976001, -0.003, 0.01
 200005799, -0.009000001, -9.964001, -0.002, 0.01, -0.01, -9.969001, -0.003, 0.01
 200206552, -0.008, -9.969001, -0.001, 0.01, -0.009000001, -9.964001, -0.002, 0.01
 200406472, -0.008, -9.974001, -0.001, 0.01, -0.008, -9.969001, -0.001, 0.01
 200606392, -0.008, -9.978001, -0.001, 0.01, -0.008, -9.974001, -0.001, 0.01
 200806312, -0.008, -9.979, -0.002, 0.01, -0.008, -9.978001, -0.001, 0.01
 201006232, -0.007, -9.979, -0.003, 0.01, -0.008, -9.979, -0.002, 0.01
 201206152, -0.007, -9.977, -0.002, 0.01, -0.007, -9.979, -0.003, 0.01
 201406072, -0.006, -9.979, -0.001, 0.01, -0.007, -9.977, -0.002, 0.01
 201605992, -0.006, -9.988001, 0, 0.01, -0.006, -9.979, -0.001, 0.01
 201805912, -0.005, -10.001, 0, 0.01, -0.006, -9.988001, 0, 0.01
 202005832, -0.004, -10.009, -0.001, 0.01, -0.005, -10.001, 0, 0.01
 202206585, -0.002, -10.012, -0.001, 0.01, -0.004, -10.009, -0.001, 0.01
 202406505, -0.001, -10.013, -0.001, 0.01, -0.002, -10.012, -0.001, 0.01
 202606425, 0, -10.007, -0.002, 0.01, -0.001, -10.013, -0.001, 0.01
 202806345, 0, -10.004, -0.002, 0.01, 0, -10.007, -0.002, 0.01
 203006265, 0, -9.996, -0.001, 0.01, 0, -10.004, -0.002, 0.01
 203206185, 0.001, -9.990001, 0, 0.01, 0, -9.996, -0.001, 0.01
 203406105, 0, -9.984, 0, 0.01, 0.001, -9.990001, 0, 0.01
 203606025, 0, -9.979, 0, 0.01, 0, -9.984, 0, 0.01
 203805945, 0, -9.979, 0, 0.01, 0, -9.979, 0, 0.01
 204005865, 0.001, -9.978001, 0, 0.01, 0, -9.979, 0, 0.01
 204205785, 0.001, -9.982, 0, 0.01, 0.001, -9.978001, 0, 0.01
 204406538, 0.002, -9.985001, 0, 0.01, 0.001, -9.982, 0, 0.01
 204606458, 0.002, -9.987, 0, 0.01, 0.002, -9.985001, 0, 0.01
 204806378, 0.003, -9.988001, 0, 0.01, 0.002, -9.987, 0, 0.01
 205006298, 0.003, -9.989, 0, 0.01, 0.003, -9.988001, 0, 0.01
 205206218, 0.002, -9.986, -0.001, 0.01, 0.003, -9.989, 0, 0.01
 205406138, 0.001, -9.951, -0.006, 0.01, 0.002, -9.986, -0.001, 0.01
 205606058, 0, -9.875, -0.008, 0.01, 0.001, -9.951, -0.006, 0.01
 205805978, 0, -9.757001, -0.01, 0.01, 0, -9.875, -0.008, 0.01
 206005898, -0.002, -9.601001, -0.009000001, 0.01, 0, -9.757001, -0.01, 0.01
 206205818, -0.004, -9.405001, -0.007, 0.01, -0.002, -9.601001, -0.009000001, 0.01
 206406571, -0.006, -9.17, -0.004, 0.01, -0.004, -9.405001, -0.007, 0.01
 206606491, -0.009000001, -8.897, 0, 0.01, -0.006, -9.17, -0.004, 0.01
 206806411, -0.011, -8.583, 0.003, 0.01, -0.009000001, -8.897, 0, 0.01
 207006331, -0.013, -8.232, 0.008, 0.01, -0.011, -8.583, 0.003, 0.01
 207206251, -0.015, -7.836, 0.013, 0.01, -0.013, -8.232, 0.008, 0.01
 207406171, -0.016, -7.396, 0.019, 0.01, -0.015, -7.836, 0.013, 0.01
 207606091, -0.024, -6.915, 0.024, 0.01, -0.016, -7.396, 0.019, 0.01
 207806011, -0.062, -6.413, 0.027, 0.01, -0.024, -6.915, 0.024, 0.01
 208005931, -0.143, -5.898, 0.028, 0.01, -0.062, -6.413, 0.027, 0.01
 208205851, -0.267, -5.371, 0.026, 0.01, -0.143, -5.898, 0.028, 0.01
 208405771, -0.432, -4.829, 0.022, 0.01, -0.267, -5.371, 0.026, 0.01
 208606524, -0.64, -4.278, 0.018, 0.01, -0.432, -4.829, 0.022, 0.01
 208806444, -0.8880001, -3.728, 0.015, 0.01, -0.64, -4.278, 0.018, 0.01
 209006364, -1.18, -3.176, 0.013, 0.01, -0.8880001, -3.728, 0.015, 0.01
 209206284, -1.512, -2.623, 0.013, 0.01, -1.18, -3.176, 0.013, 0.01
 209406204, -1.885, -2.096, 0.014, 0.01, -1.512, -2.623, 0.013, 0.01
 209606124, -2.3, -1.613, 0.016, 0.01, -1.885, -2.096, 0.014, 0.01
 209806044, -2.754, -1.175, 0.02, 0.01, -2.3, -1.613, 0.016, 0.01
 210005964, -3.245, -0.785, 0.024, 0.01, -2.754, -1.175, 0.02, 0.01
 210205884, -3.758, -0.446, 0.026, 0.01, -3.245, -0.785, 0.024, 0.01
 210405804, -4.27, -0.164, 0.028, 0.01, -3.758, -0.446, 0.026, 0.01
 210606557, -4.779, 0.061, 0.03, 0.01, -4.27, -0.164, 0.028, 0.01
 210806477, -5.279, 0.233, 0.03, 0.01, -4.779, 0.061, 0.03, 0.01
 211006397, -5.772, 0.352, 0.029, 0.01, -5.279, 0.233, 0.03, 0.01
 211206317, -6.259, 0.421, 0.026, 0.01, -5.772, 0.352, 0.029, 0.01
 211406237, -6.737, 0.44, 0.022, 0.01, -6.259, 0.421, 0.026, 0.01
 211606157, -7.201, 0.412, 0.016, 0.01, -6.737, 0.44, 0.022, 0.01
 211806077, -7.630001, 0.358, 0.009000001, 0.01, -7.201, 0.412, 0.016, 0.01
 212005997, -8.015, 0.302, 0.004, 0.01, -7.630001, 0.358, 0.009000001, 0.01
 212205917, -8.356, 0.25, 0, 0.01, -8.015, 0.302, 0.004, 0.01
 212405837, -8.653001, 0.207, -0.002, 0.01, -8.356, 0.25, 0, 0.01
 212606590, -8.910001, 0.17, -0.005, 0.01, -8.653001, 0.207, -0.002, 0.01
 212806510, -9.131001, 0.14, -0.007, 0.01, -8.910001, 0.17, -0.005, 0.01
 213006430, -9.318001, 0.119, -0.008, 0.01, -9.131001, 0.14, -0.007, 0.01
 213206350, -9.475, 0.104, -0.01, 0.01, -9.318001, 0.119, -0.008, 0.01
 213406270, -9.603001, 0.093, -0.012, 0.01, -9.475, 0.104, -0.01, 0.01
 213606190, -9.704, 0.086, -0.014, 0.01, -9.603001, 0.093, -0.012, 0.01
 213806110, -9.774, 0.082, -0.017, 0.01, -9.704, 0.086, -0.014, 0.01
 214006030, -9.81, 0.081, -0.02, 0.01, -9.774, 0.082, -0.017, 0.01
 214205950, -9.821, 0.083, -0.021, 0.01, -9.81, 0.081, -0.02, 0.01
 214405870, -9.824, 0.086, -0.019, 0.01, -9.821, 0.083, -0.021, 0.01
 214605790, -9.831, 0.09200001, -0.018, 0.01, -9.824, 0.086, -0.019, 0.01
 214806543, -9.84, 0.096, -0.017, 0.01, -9.831, 0.09200001, -0.018, 0.01
 215006463, -9.846001, 0.09900001, -0.017, 0.01, -9.84, 0.096, -0.017, 0.01
 215206383, -9.851001, 0.1, -0.017, 0.01, -9.846001, 0.09900001, -0.017, 0.01
 215406303, -9.855, 0.1, -0.016, 0.01, -9.851001, 0.1, -0.017, 0.01
 215606223, -9.856001, 0.09900001, -0.015, 0.01, -9.855, 0.1, -0.016, 0.01
 215806143, -9.860001, 0.098, -0.014, 0.01, -9.856001, 0.09900001, -0.015, 0.01
 216006063, -9.865001, 0.09500001, -0.013, 0.01, -9.860001, 0.098, -0.014, 0.01
 216205983, -9.871, 0.09200001, -0.011, 0.01, -9.865001, 0.09500001, -0.013, 0.01
 216405903, -9.877001, 0.087, -0.011, 0.01, -9.871, 0.09200001, -0.011, 0.01
 216605823, -9.879001, 0.082, -0.01, 0.01, -9.877001, 0.087, -0.011, 0.01
 216806576, -9.881001, 0.078, -0.008, 0.01, -9.879001, 0.082, -0.01, 0.01
 217006496, -9.884001, 0.074, -0.008, 0.01, -9.881001, 0.078, -0.008, 0.01
 217206416, -9.884001, 0.07, -0.007, 0.01, -9.884001, 0.074, -0.008, 0.01
 217406336, -9.884001, 0.066, -0.006, 0.01, -9.884001, 0.07, -0.007, 0.01
 217606256, -9.884001, 0.062, -0.005, 0.01, -9.884001, 0.066, -0.006, 0.01
 217806176, -9.884001, 0.058, -0.005, 0.01, -9.884001, 0.062, -0.005, 0.01
 218006096, -9.887, 0.053, -0.004, 0.01, -9.884001, 0.058, -0.005, 0.01
 218206016, -9.893001, 0.047, -0.004, 0.01, -9.887, 0.053, -0.004, 0.01
 218405936, -9.901, 0.042, -0.004, 0.01, -9.893001, 0.047, -0.004, 0.01
 218605856, -9.909, 0.037, -0.004, 0.01, -9.901, 0.042, -0.004, 0.01
 218805776, -9.916, 0.032, -0.004, 0.01, -9.909, 0.037, -0.004, 0.01
 219006529, -9.925, 0.029, -0.004, 0.01, -9.916, 0.032, -0.004, 0.01
 219206449, -9.935, 0.026, -0.003, 0.01, -9.925, 0.029, -0.004, 0.01
 219406369, -9.948001, 0.024, -0.003, 0.01, -9.935, 0.026, -0.003, 0.01
 219606289, -9.961, 0.022, -0.003, 0.01, -9.948001, 0.024, -0.003, 0.01
 219806209, -9.976001, 0.019, -0.002, 0.01, -9.961, 0.022, -0.003, 0.01
 220006129, -9.992001, 0.017, -0.003, 0.01, -9.976001, 0.019, -0.002, 0.01
 220206049, -10.006, 0.014, -0.003, 0.01, -9.992001, 0.017, -0.003, 0.01
 220405969, -10.017, 0.013, -0.003, 0.01, -10.006, 0.014, -0.003, 0.01
 220605889, -10.025, 0.011, -0.003, 0.01, -10.017, 0.013, -0.003, 0.01
 220805809, -10.028, 0.009000001, -0.005, 0.01, -10.025, 0.011, -0.003, 0.01
 221006562, -10.027, 0.008, -0.005, 0.01, -10.028, 0.009000001, -0.005, 0.01
 221206482, -10.028, 0.007, -0.004, 0.01, -10.027, 0.008, -0.005, 0.01
 221406402, -10.028, 0.006, -0.004, 0.01, -10.028, 0.007, -0.004, 0.01
 221606322, -10.026, 0.005, -0.004, 0.01, -10.028, 0.006, -0.004, 0.01
 221806242, -10.026, 0.005, -0.003, 0.01, -10.026, 0.005, -0.004, 0.01
 222006162, -10.028, 0.005, -0.003, 0.01, -10.026, 0.005, -0.003, 0.01
 222206082, -10.029, 0.005, -0.002, 0.01, -10.028, 0.005, -0.003, 0.01
 222406002, -10.028, 0.007, -0.002, 0.01, -10.029, 0.005, -0.002, 0.01
 222605922, -10.028, 0.008, -0.002, 0.01, -10.028, 0.007, -0.002, 0.01
 222805842, -10.026, 0.009000001, -0.002, 0.01, -10.028, 0.008, -0.002, 0.01
 223005762, -10.022, 0.008, -0.002, 0.01, -10.026, 0.009000001, -0.002, 0.01
 223206515, -10.02, 0.007, -0.002, 0.01, -10.022, 0.008, -0.002, 0.01
 223406435, -10.018, 0.008, -0.002, 0.01, -10.02, 0.007, -0.002, 0.01
 223606355, -10.015, 0.009000001, -0.003, 0.01, -10.018, 0.008, -0.002, 0.01
 223806275, -10.008, 0.009000001, -0.003, 0.01, -10.015, 0.009000001, -0.003, 0.01
 224006195, -10.003, 0.009000001, -0.003, 0.01, -10.008, 0.009000001, -0.003, 0.01
 224206115, -9.997001, 0.008, -0.002, 0.01, -10.003, 0.009000001, -0.003, 0.01
 224406035, -9.991, 0.008, -0.002, 0.01, -9.997001, 0.008, -0.002, 0.01
 224605955, -9.985001, 0.008, -0.001, 0.01, -9.991, 0.008, -0.002, 0.01
 224805875, -9.98, 0.008, -0.001, 0.01, -9.985001, 0.008, -0.001, 0.01
 225005795, -9.975, 0.007, 0, 0.01, -9.98, 0.008, -0.001, 0.01
 225206548, -9.973001, 0.006, 0, 0.01, -9.975, 0.007, 0, 0.01
 225406468, -9.973001, 0.005, 0, 0.01, -9.973001, 0.006, 0, 0.01
 225606388, -9.974001, 0.004, 0, 0.01, -9.973001, 0.005, 0, 0.01
 225806308, -9.975, 0.003, 0, 0.01, -9.974001, 0.004, 0, 0.01
 226006228, -9.976001, 0.002, 0, 0.01, -9.975, 0.003, 0, 0.01
 226206148, -9.979, 0.001, 0, 0.01, -9.976001, 0.002, 0, 0.01
 226406068, -9.979, 0.001, 0, 0.01, -9.979, 0.001, 0, 0.01
 226605988, -9.979, 0.002, 0, 0.01, -9.979, 0.001, 0, 0.01
 226805908, -9.98, 0.002, 0, 0.01, -9.979, 0.002, 0, 0.01
 227005828, -9.982, 0.002, 0, 0.01, -9.98, 0.002, 0, 0.01
 227206581, -9.982, 0.001, 0, 0.01, -9.982, 0.002, 0, 0.01
 227406501, -9.983001, 0.001, 0, 0.01, -9.982, 0.001, 0, 0.01
 227606421, -9.975, 0.002, -0.002, 0.01, -9.983001, 0.001, 0, 0.01
 227806341, -9.935, 0.003, -0.006, 0.01, -9.975, 0.002, -0.002, 0.01
 228006261, -9.855, 0.005, -0.008, 0.01, -9.935, 0.003, -0.006, 0.01
 228206181, -9.738001, 0.006, -0.009000001, 0.01, -9.855, 0.005, -0.008, 0.01
 228406101, -9.584001, 0.007, -0.009000001, 0.01, -9.738001, 0.006, -0.009000001, 0.01
 228606021, -9.395, 0.007, -0.007, 0.01, -9.584001, 0.007, -0.009000001, 0.01
 228805941, -9.172001, 0.006, -0.004, 0.01, -9.395, 0.007, -0.007, 0.01
 229005861, -8.908, 0.006, -0.001, 0.01, -9.172001, 0.006, -0.004, 0.01
 229205781, -8.601001, 0.006, 0.002, 0.01, -8.908, 0.006, -0.001, 0.01
 229406534, -8.251, 0.007, 0.007, 0.01, -8.601001, 0.006, 0.002, 0.01
 229606454, -7.861001, 0.007, 0.013, 0.01, -8.251, 0.007, 0.007, 0.01
 229806374, -7.427001, 0.008, 0.018, 0.01, -7.861001, 0.007, 0.013, 0.01
 230006294, -6.946, 0.014, 0.024, 0.01, -7.427001, 0.008, 0.018, 0.01
 230206214, -6.439, 0.047, 0.027, 0.01, -6.946, 0.014, 0.024, 0.01
 230406134, -5.925, 0.123, 0.028, 0.01, -6.439, 0.047, 0.027, 0.01
 230606054, -5.406, 0.242, 0.025, 0.01, -5.925, 0.123, 0.028, 0.01
 230805974, -4.879, 0.401, 0.021, 0.01, -5.406, 0.242, 0.025, 0.01
 231005894, -4.343, 0.603, 0.017, 0.01, -4.879, 0.401, 0.021, 0.01
 231205814, -3.797, 0.846, 0.014, 0.01, -4.343, 0.603, 0.017, 0.01
 231406567, -3.242, 1.134, 0.012, 0.01, -3.797, 0.846, 0.014, 0.01
 231606487, -2.687, 1.464, 0.011, 0.01, -3.242, 1.134, 0.012, 0.01
 231806407, -2.157, 1.832, 0.012, 0.01, -2.687, 1.464, 0.011, 0.01
 232006327, -1.667, 2.237, 0.014, 0.01, -2.157, 1.832, 0.012, 0.01
 232206247, -1.225, 2.681, 0.018, 0.01, -1.667, 2.237, 0.014, 0.01
 232406167, -0.8340001, 3.166, 0.022, 0.01, -1.225, 2.681, 0.018, 0.01
 232606087, -0.496, 3.68, 0.024, 0.01, -0.8340001, 3.166, 0.022, 0.01
 232806007, -0.212, 4.199, 0.025, 0.01, -0.496, 3.68, 0.024, 0.01
 233005927, 0.018, 4.708, 0.026, 0.01, -0.212, 4.199, 0.025, 0.01
 233205847, 0.198, 5.207, 0.027, 0.01, 0.018, 4.708, 0.026, 0.01
 233405767, 0.331, 5.698, 0.027, 0.01, 0.198, 5.207, 0.027, 0.01
 233606520, 0.416, 6.189, 0.026, 0.01, 0.331, 5.698, 0.027, 0.01
 233806440, 0.45, 6.671, 0.023, 0.01, 0.416, 6.189, 0.026, 0.01
 234006360, 0.439, 7.14, 0.02, 0.01, 0.45, 6.671, 0.023, 0.01
 234206280, 0.396, 7.579, 0.015, 0.01, 0.439, 7.14, 0.02, 0.01
 234406200, 0.346, 7.976, 0.011, 0.01, 0.396, 7.579, 0.015, 0.01
 234606120, 0.296, 8.326, 0.008, 0.01, 0.346, 7.976, 0.011, 0.01
 234806040, 0.249, 8.628, 0.005, 0.01, 0.296, 8.326, 0.008, 0.01
 235005960, 0.208, 8.888, 0.003, 0.01, 0.249, 8.628, 0.005, 0.01
 235205880, 0.175, 9.111, 0.001, 0.01, 0.208, 8.888, 0.003, 0.01
 235405800, 0.149, 9.298, -0.001, 0.01, 0.175, 9.111, 0.001, 0.01
 235606553, 0.127, 9.46, -0.005, 0.01, 0.149, 9.298, -0.001, 0.01
 235806473, 0.109, 9.594001, -0.009000001, 0.01, 0.127, 9.46, -0.005, 0.01
 236006393, 0.096, 9.697001, -0.014, 0.01, 0.109, 9.594001, -0.009000001, 0.01
 236206313, 0.086, 9.764001, -0.019, 0.01, 0.096, 9.697001, -0.014, 0.01
 236406233, 0.079, 9.801001, -0.022, 0.01, 0.086, 9.764001, -0.019, 0.01
 236606153, 0.07700001, 9.814, -0.023, 0.01, 0.079, 9.801001, -0.022, 0.01
 236806073, 0.078, 9.816001, -0.022, 0.01, 0.07700001, 9.814, -0.023, 0.01
 237005993, 0.082, 9.822001, -0.019, 0.01, 0.078, 9.816001, -0.022, 0.01
 237205913, 0.087, 9.827001, -0.019, 0.01, 0.082, 9.822001, -0.019, 0.01
 237405833, 0.093, 9.828, -0.019, 0.01, 0.087, 9.827001, -0.019, 0.01
 237606586, 0.097, 9.833, -0.017, 0.01, 0.093, 9.828, -0.019, 0.01
 237806506, 0.09900001, 9.842, -0.017, 0.01, 0.097, 9.833, -0.017, 0.01
 238006426, 0.09900001, 9.849001, -0.016, 0.01, 0.09900001, 9.842, -0.017, 0.01
 238206346, 0.098, 9.851001, -0.015, 0.01, 0.09900001, 9.849001, -0.016, 0.01
 238406266, 0.09500001, 9.851001, -0.014, 0.01, 0.098, 9.851001, -0.015, 0.01
 238606186, 0.089, 9.848001, -0.014, 0.01, 0.09500001, 9.851001, -0.014, 0.01
 238806106, 0.079, 9.843, -0.013, 0.01, 0.089, 9.848001, -0.014, 0.01
 239006026, 0.067, 9.845, -0.01, 0.01, 0.079, 9.843, -0.013, 0.01
 239205946, 0.053, 9.852, -0.009000001, 0.01, 0.067, 9.845, -0.01, 0.01
 239405866, 0.039, 9.860001, -0.008, 0.01, 0.053, 9.852, -0.009000001, 0.01
 239605786, 0.026, 9.864, -0.008, 0.01, 0.039, 9.860001, -0.008, 0.01
 239806539, 0.016, 9.868, -0.006, 0.01, 0.026, 9.864, -0.008, 0.01
 240006459, 0.007, 9.878, -0.005, 0.01, 0.016, 9.868, -0.006, 0.01
 240206379, 0, 9.884001, -0.005, 0.01, 0.007, 9.878, -0.005, 0.01
 240406299, -0.003, 9.889001, -0.005, 0.01, 0, 9.884001, -0.005, 0.01
 240606219, -0.007, 9.894, -0.005, 0.01, -0.003, 9.889001, -0.005, 0.01
 240806139, -0.009000001, 9.902, -0.004, 0.01, -0.007, 9.894, -0.005, 0.01
 241006059, -0.01, 9.908001, -0.004, 0.01, -0.009000001, 9.902, -0.004, 0.01
 241205979, -0.01, 9.915001, -0.004, 0.01, -0.01, 9.908001, -0.004, 0.01
 241405899, -0.009000001, 9.928, -0.003, 0.01, -0.01, 9.915001, -0.004, 0.01
 241605819, -0.008, 9.936001, -0.005, 0.01, -0.009000001, 9.928, -0.003, 0.01
 241806572, -0.006, 9.943001, -0.004, 0.01, -0.008, 9.936001, -0.005, 0.01
 242006492, -0.003, 9.952001, -0.004, 0.01, -0.006, 9.943001, -0.004, 0.01
 242206412, 0, 9.956, -0.005, 0.01, -0.003, 9.952001, -0.004, 0.01
 242406332, 0.001, 9.955001, -0.005, 0.01, 0, 9.956, -0.005, 0.01
 242606252, 0.003, 9.952001, -0.004, 0.01, 0.001, 9.955001, -0.005, 0.01
 242806172, 0.003, 9.959001, -0.002, 0.01, 0.003, 9.952001, -0.004, 0.01
 243006092, 0.004, 9.965, -0.003, 0.01, 0.003, 9.959001, -0.002, 0.01
 243206012, 0.006, 9.971001, -0.002, 0.01, 0.004, 9.965, -0.003, 0.01
 243405932, 0.007, 9.979, -0.003, 0.01, 0.006, 9.971001, -0.002, 0.01
 243605852, 0.008, 9.984, -0.004, 0.01, 0.007, 9.979, -0.003, 0.01
 243805772, 0.011, 9.984, -0.004, 0.01, 0.008, 9.984, -0.004, 0.01
 244006525, 0.012, 9.984, -0.004, 0.01, 0.011, 9.984, -0.004, 0.01
 244206445, 0.012, 9.989, -0.003, 0.01, 0.012, 9.984, -0.004, 0.01
 244406365, 0.011, 9.992001, -0.004, 0.01, 0.012, 9.989, -0.003, 0.01
 244606285, 0.01, 9.995001, -0.003, 0.01, 0.011, 9.992001, -0.004, 0.01
 244806205, 0.01, 9.999001, -0.003, 0.01, 0.01, 9.995001, -0.003, 0.01
 245006125, 0.011, 10.003, -0.003, 0.01, 0.01, 9.999001, -0.003, 0.01
 245206045, 0.011, 10.003, -0.003, 0.01, 0.011, 10.003, -0.003, 0.01
 245405965, 0.011, 10.003, -0.002, 0.01, 0.011, 10.003, -0.003, 0.01
 245605885, 0.012, 9.998, -0.003, 0.01, 0.011, 10.003, -0.002, 0.01
 245805805, 0.013, 9.987, -0.003, 0.01, 0.012, 9.998, -0.003, 0.01
 246006558, 0.015, 9.975, -0.002, 0.01, 0.013, 9.987, -0.003, 0.01
 246206478, 0.015, 9.969001, -0.001, 0.01, 0.015, 9.975, -0.002, 0.01
 246406398, 0.015, 9.968, 0, 0.01, 0.015, 9.969001, -0.001, 0.01
 246606318, 0.014, 9.969001, -0.001, 0.01, 0.015, 9.968, 0, 0.01
 246806238, 0.013, 9.972, -0.001, 0.01, 0.014, 9.969001, -0.001, 0.01
 247006158, 0.012, 9.975, -0.001, 0.01, 0.013, 9.972, -0.001, 0.01
 247206078, 0.011, 9.975, -0.002, 0.01, 0.012, 9.975, -0.001, 0.01
 247405998, 0.01, 9.974001, -0.001, 0.01, 0.011, 9.975, -0.002, 0.01
 247605918, 0.008, 9.977, -0.001, 0.01, 0.01, 9.974001, -0.001, 0.01
 247805838, 0.006, 9.975, -0.002, 0.01, 0.008, 9.977, -0.001, 0.01
 248006591, 0.004, 9.974001, -0.001, 0.01, 0.006, 9.975, -0.002, 0.01
 248206511, 0.002, 9.978001, 0, 0.01, 0.004, 9.974001, -0.001, 0.01
 248406431, 0, 9.986, 0, 0.01, 0.002, 9.978001, 0, 0.01
 248606351, 0, 9.997001, 0, 0.01, 0, 9.986, 0, 0.01
 248806271, 0, 10.005, 0, 0.01, 0, 9.997001, 0, 0.01
 249006191, -0.001, 10.017, 0.001, 0.01, 0, 10.005, 0, 0.01
 249206111, -0.003, 10.025, 0, 0.01, -0.001, 10.017, 0.001, 0.01
 249406031, -0.004, 10.032, 0, 0.01, -0.003, 10.025, 0, 0.01
 249605951, -0.005, 10.04, 0, 0.01, -0.004, 10.032, 0, 0.01
 249805871, -0.006, 10.046, 0, 0.01, -0.005, 10.04, 0, 0.01
 250005791, -0.007, 10.049, 0, 0.01, -0.006, 10.046, 0, 0.01
 250206544, -0.008, 10.051, 0, 0.01, -0.007, 10.049, 0, 0.01
 250406464, -0.008, 10.054, 0, 0.01, -0.008, 10.051, 0, 0.01
 250606384, -0.007, 10.043, -0.001, 0.01, -0.008, 10.054, 0, 0.01
 250806304, -0.006, 9.999001, -0.005, 0.01, -0.007, 10.043, -0.001, 0.01
 251006224, -0.005, 9.914001, -0.008, 0.01, -0.006, 9.999001, -0.005, 0.01
 251206144, -0.003, 9.789001, -0.009000001, 0.01, -0.005, 9.914001, -0.008, 0.01
 251406064, -0.001, 9.624001, -0.009000001, 0.01, -0.003, 9.789001, -0.009000001, 0.01
 251605984, 0, 9.421, -0.007, 0.01, -0.001, 9.624001, -0.009000001, 0.01
 251805904, 0.001, 9.186001, -0.004, 0.01, 0, 9.421, -0.007, 0.01
 252005824, 0.002, 8.908, -0.001, 0.01, 0.001, 9.186001, -0.004, 0.01
 252206577, 0.003, 8.59, 0.002, 0.01, 0.002, 8.908, -0.001, 0.01
 252406497, 0.006, 8.233001, 0.007, 0.01, 0.003, 8.59, 0.002, 0.01
 252606417, 0.009000001, 7.831, 0.013, 0.01, 0.006, 8.233001, 0.007, 0.01
 252806337, 0.011, 7.387001, 0.019, 0.01, 0.009000001, 7.831, 0.013, 0.01
 253006257, 0.013, 6.895, 0.025, 0.01, 0.011, 7.387001, 0.019, 0.01
 253206177, 0.015, 6.378, 0.028, 0.01, 0.013, 6.895, 0.025, 0.01
 253406097, 0.017, 5.856, 0.028, 0.01, 0.015, 6.378, 0.028, 0.01
 253606017, 0.02, 5.329, 0.027, 0.01, 0.017, 5.856, 0.028, 0.01
 253805937, 0.023, 4.798, 0.023, 0.01, 0.02, 5.329, 0.027, 0.01
 254005857, 0.026, 4.259, 0.019, 0.01, 0.023, 4.798, 0.023, 0.01
 254205777, 0.027, 3.712, 0.016, 0.01, 0.026, 4.259, 0.019, 0.01
 254406530, 0.029, 3.156, 0.014, 0.01, 0.027, 3.712, 0.016, 0.01
 254606450, 0.03, 2.608, 0.014, 0.01, 0.029, 3.156, 0.014, 0.01
 254806370, 0.029, 2.087, 0.015, 0.01, 0.03, 2.608, 0.014, 0.01
 255006290, 0.027, 1.606, 0.018, 0.01, 0.029, 2.087, 0.015, 0.01
 255206210, 0.024, 1.17, 0.022, 0.01, 0.027, 1.606, 0.018, 0.01
 255406130, 0.02, 0.779, 0.025, 0.01, 0.024, 1.17, 0.022, 0.01
 255606050, 0.016, 0.468, 0.015, 0.01, 0.02, 0.779, 0.025, 0.01
 255805970, 0.011, 0.229, -0.024, 0.01, 0.016, 0.468, 0.015, 0.01
 256005890, 0.006, 0.055, -0.09900001, 0.01, 0.011, 0.229, -0.024, 0.01
 256205810, 0.001, -0.063, -0.208, 0.01, 0.006, 0.055, -0.09900001, 0.01
 256406563, -0.003, -0.133, -0.35, 0.01, 0.001, -0.063, -0.208, 0.01
 256606483, -0.006, -0.16, -0.522, 0.01, -0.003, -0.133, -0.35, 0.01
 256806403, -0.008, -0.153, -0.706, 0.01, -0.006, -0.16, -0.522, 0.01
 257006323, -0.008, -0.121, -0.891, 0.01, -0.008, -0.153, -0.706, 0.01
 257206243, -0.008, -0.074, -1.072, 0.01, -0.008, -0.121, -0.891, 0.01
 257406163, -0.009000001, -0.017, -1.245, 0.01, -0.008, -0.074, -1.072, 0.01
 257606083, -0.009000001, 0.04, -1.392, 0.01, -0.009000001, -0.017, -1.245, 0.01
 257806003, -0.009000001, 0.098, -1.504, 0.01, -0.009000001, 0.04, -1.392, 0.01
 258005923, -0.009000001, 0.15, -1.579, 0.01, -0.009000001, 0.098, -1.504, 0.01
 258205843, -0.009000001, 0.195, -1.615, 0.01, -0.009000001, 0.15, -1.579, 0.01
 258405763, -0.009000001, 0.23, -1.613, 0.01, -0.009000001, 0.195, -1.615, 0.01
 258606516, -0.009000001, 0.256, -1.591, 0.01, -0.009000001, 0.23, -1.613, 0.01
 258806436, -0.012, 0.272, -1.561, 0.01, -0.009000001, 0.256, -1.591, 0.01
 259006356, -0.04, 0.277, -1.512, 0.01, -0.012, 0.272, -1.561, 0.01
 259206276, -0.106, 0.27, -1.433, 0.01, -0.04, 0.277, -1.512, 0.01
 259406196, -0.212, 0.253, -1.319, 0.01, -0.106, 0.27, -1.433, 0.01
 259606116, -0.353, 0.227, -1.17, 0.01, -0.212, 0.253, -1.319, 0.01
 259806036, -0.53, 0.194, -0.984, 0.01, -0.353, 0.227, -1.17, 0.01
 260005956, -0.744, 0.154, -0.78, 0.01, -0.53, 0.194, -0.984, 0.01
 260205876, -0.9960001, 0.108, -0.573, 0.01, -0.744, 0.154, -0.78, 0.01
 260405796, -1.287, 0.055, -0.369, 0.01, -0.9960001, 0.108, -0.573, 0.01
 260606549, -1.619, -0.003, -0.178, 0.01, -1.287, 0.055, -0.369, 0.01
 260806469, -1.992, -0.068, -0.024, 0.01, -1.619, -0.003, -0.178, 0.01
 261006389, -2.404, -0.138, 0.085, 0.01, -1.992, -0.068, -0.024, 0.01
 261206309, -2.853, -0.212, 0.15, 0.01, -2.404, -0.138, 0.085, 0.01
 261406229, -3.335, -0.29, 0.17, 0.01, -2.853, -0.212, 0.15, 0.01
 261606149, -3.827, -0.368, 0.154, 0.01, -3.335, -0.29, 0.17, 0.01
 261806069, -4.304, -0.445, 0.125, 0.01, -3.827, -0.368, 0.154, 0.01
 262005989, -4.767, -0.52, 0.097, 0.01, -4.304, -0.445, 0.125, 0.01
 262205909, -5.22, -0.592, 0.074, 0.01, -4.767, -0.52, 0.097, 0.01
 262405829, -5.664, -0.664, 0.057, 0.01, -5.22, -0.592, 0.074, 0.01
 262606582, -6.104, -0.735, 0.047, 0.01, -5.664, -0.664, 0.057, 0.01
 262806502, -6.542, -0.8060001, 0.041, 0.01, -6.104, -0.735, 0.047, 0.01
 263006422, -6.973001, -0.876, 0.038, 0.01, -6.542, -0.8060001, 0.041, 0.01
 263206342, -7.379, -0.942, 0.035, 0.01, -6.973001, -0.876, 0.038, 0.01
 263406262, -7.747, -1.004, 0.033, 0.01, -7.379, -0.942, 0.035, 0.01
 263606182, -8.081, -1.06, 0.033, 0.01, -7.747, -1.004, 0.033, 0.01
 263806102, -8.384001, -1.107, 0.033, 0.01, -8.081, -1.06, 0.033, 0.01
 264006022, -8.656, -1.144, 0.032, 0.01, -8.384001, -1.107, 0.033, 0.01
 264205942, -8.896001, -1.174, 0.03, 0.01, -8.656, -1.144, 0.032, 0.01
 264405862, -9.102, -1.198, 0.027, 0.01, -8.896001, -1.174, 0.03, 0.01
 264605782, -9.276, -1.217, 0.023, 0.01, -9.102, -1.198, 0.027, 0.01
 264806535, -9.422001, -1.235, 0.019, 0.01, -9.276, -1.217, 0.023, 0.01
 265006455, -9.535001, -1.251, 0.014, 0.01, -9.422001, -1.235, 0.019, 0.01
 265206375, -9.614, -1.254, 0.009000001, 0.01, -9.535001, -1.251, 0.014, 0.01
 265406295, -9.660001, -1.245, 0.005, 0.01, -9.614, -1.254, 0.009000001, 0.01
 265606215, -9.677, -1.229, 0.002, 0.01, -9.660001, -1.245, 0.005, 0.01
 265806135, -9.681001, -1.212, 0.002, 0.01, -9.677, -1.229, 0.002, 0.01
 266006055, -9.687, -1.2, 0.003, 0.01, -9.681001, -1.212, 0.002, 0.01
 266205975, -9.698001, -1.19, 0.004, 0.01, -9.687, -1.2, 0.003, 0.01
 266405895, -9.71, -1.18, 0.002, 0.01, -9.698001, -1.19, 0.004, 0.01
 266605815, -9.716001, -1.172, 0.001, 0.01, -9.71, -1.18, 0.002, 0.01
 266806568, -9.721001, -1.169, 0, 0.01, -9.716001, -1.172, 0.001, 0.01
 267006488, -9.727, -1.172, 0, 0.01, -9.721001, -1.169, 0, 0.01
 267206408, -9.73, -1.181, 0, 0.01, -9.727, -1.172, 0, 0.01
 267406328, -9.73, -1.194, 0, 0.01, -9.73, -1.181, 0, 0.01
 267606248, -9.732, -1.201, 0, 0.01, -9.73, -1.194, 0, 0.01
 267806168, -9.738001, -1.202, 0, 0.01, -9.732, -1.201, 0, 0.01
 268006088, -9.743, -1.201, 0, 0.01, -9.738001, -1.202, 0, 0.01
 268206008, -9.748, -1.2, 0, 0.01, -9.743, -1.201, 0, 0.01
 268405928, -9.755, -1.201, 0, 0.01, -9.748, -1.2, 0, 0.01
 268605848, -9.76, -1.194, 0, 0.01, -9.755, -1.201, 0, 0.01
 268805768, -9.764001, -1.181, 0, 0.01, -9.76, -1.194, 0, 0.01
 269006521, -9.773001, -1.166, 0, 0.01, -9.764001, -1.181, 0, 0.01
 269206441, -9.782001, -1.153, 0, 0.01, -9.773001, -1.166, 0, 0.01
 269406361, -9.790001, -1.145, -0.001, 0.01, -9.782001, -1.153, 0, 0.01
 269606281, -9.795, -1.139, -0.001, 0.01, -9.790001, -1.145, -0.001, 0.01
 269806201, -9.801001, -1.136, -0.001, 0.01, -9.795, -1.139, -0.001, 0.01
 270006121, -9.809, -1.136, -0.002, 0.01, -9.801001, -1.136, -0.001, 0.01
 270206041, -9.818001, -1.142, -0.002, 0.01, -9.809, -1.136, -0.002, 0.01
 270405961, -9.825001, -1.154, -0.002, 0.01, -9.818001, -1.142, -0.002, 0.01
 270605881, -9.831, -1.172, -0.002, 0.01, -9.825001, -1.154, -0.002, 0.01
 270805801, -9.835, -1.193, -0.003, 0.01, -9.831, -1.172, -0.002, 0.01
 271006554, -9.841001, -1.207, -0.003, 0.01, -9.835, -1.193, -0.003, 0.01
 271206474, -9.849001, -1.214, -0.004, 0.01, -9.841001, -1.207, -0.003, 0.01
 271406394, -9.855, -1.217, -0.004, 0.01, -9.849001, -1.214, -0.004, 0.01
 271606314, -9.863001, -1.218, -0.004, 0.01, -9.855, -1.217, -0.004, 0.01
 271806234, -9.872001, -1.222, -0.004, 0.01, -9.863001, -1.218, -0.004, 0.01
 272006154, -9.879001, -1.229, -0.004, 0.01, -9.872001, -1.222, -0.004, 0.01
 272206074, -9.868, -1.233, -0.007, 0.01, -9.879001, -1.229, -0.004, 0.01
 272405994, -9.814, -1.23, -0.011, 0.01, -9.868, -1.233, -0.007, 0.01
 272605914, -9.717, -1.223, -0.013, 0.01, -9.814, -1.23, -0.011, 0.01
 272805834, -9.581, -1.212, -0.013, 0.01, -9.717, -1.223, -0.013, 0.01
 273006587, -9.408, -1.199, -0.011, 0.01, -9.581, -1.212, -0.013, 0.01
 273206507, -9.196, -1.183, -0.008, 0.01, -9.408, -1.199, -0.011, 0.01
 273406427, -8.944, -1.156, -0.004, 0.01, -9.196, -1.183, -0.008, 0.01
 273606347, -8.653001, -1.114, 0, 0.01, -8.944, -1.156, -0.004, 0.01
 273806267, -8.323, -1.063, 0.004, 0.01, -8.653001, -1.114, 0, 0.01
 274006187, -7.957, -1.006, 0.009000001, 0.01, -8.323, -1.063, 0.004, 0.01
 274206107, -7.548, -0.9440001, 0.013, 0.01, -7.957, -1.006, 0.009000001, 0.01
 274406027, -7.096, -0.869, 0.018, 0.01, -7.548, -0.9440001, 0.013, 0.01
 274605947, -6.606, -0.7820001, 0.021, 0.01, -7.096, -0.869, 0.018, 0.01
 274805867, -6.101, -0.692, 0.021, 0.01, -6.606, -0.7820001, 0.021, 0.01
 275005787, -5.591, -0.605, 0.018, 0.01, -6.101, -0.692, 0.021, 0.01
 275206540, -5.073, -0.523, 0.014, 0.01, -5.591, -0.605, 0.018, 0.01
 275406460, -4.549, -0.448, 0.008, 0.01, -5.073, -0.523, 0.014, 0.01
 275606380, -4.015, -0.382, 0.003, 0.01, -4.549, -0.448, 0.008, 0.01
 275806300, -3.472, -0.318, 0, 0.01, -4.015, -0.382, 0.003, 0.01
 276006220, -2.924, -0.255, -0.003, 0.01, -3.472, -0.318, 0, 0.01
 276206140, -2.389, -0.197, -0.004, 0.01, -2.924, -0.255, -0.003, 0.01
 276406060, -1.89, -0.145, -0.004, 0.01, -2.389, -0.197, -0.004, 0.01
 276605980, -1.433, -0.103, -0.003, 0.01, -1.89, -0.145, -0.004, 0.01
 276805900, -1.019, -0.067, 0, 0.01, -1.433, -0.103, -0.003, 0.01
 277005820, -0.649, -0.037, 0.001, 0.01, -1.019, -0.067, 0, 0.01
 277206573, -0.324, -0.014, 0.002, 0.01, -0.649, -0.037, 0.001, 0.01
 277406493, -0.049, 0.003, 0.002, 0.01, -0.324, -0.014, 0.002, 0.01
 277606413, 0.175, 0.017, 0.001, 0.01, -0.049, 0.003, 0.002, 0.01
 277806333, 0.349, 0.025, -0.001, 0.01, 0.175, 0.017, 0.001, 0.01
 278006253, 0.468, 0.03, -0.004, 0.01, 0.349, 0.025, -0.001, 0.01
 278206173, 0.5330001, 0.031, -0.009000001, 0.01, 0.468, 0.03, -0.004, 0.01
