TimeUS,COFN,COFE,COFD,CNe,CEe,CDe,POFN,POFE,POFD,PNe,PEe,PDe
 77980462, -0.0568045, 0.01396791, 0.01973503, 0.08574068, 0.06934086, 0.0001464538, 0, 0, 0, 0, 0, 0
 78020446, -0.004136577, 0.001019823, 7.98746E-06, 0.08754028, 0.06720208, 1.000014, -0.0568045, 0.01396791, 0.01973503, 0.08574068, 0.06934086, 0.0001464538
 78220366, 0.003870358, 0.002778404, 1.088465E-07, 0.08880591, 0.06817392, 1.000015, -0.004136577, 0.001019823, 7.98746E-06, 0.08754028, 0.06720208, 1.000014
 78420286, -0.007238084, 0.003887767, 1.83076E-05, 0.08870677, 0.06817818, 1.000015, 0.003870358, 0.002778404, 1.088465E-07, 0.08880591, 0.06817392, 1.000015
 78620206, -0.009406665, 0.0008662235, 1.531588E-05, 0.0886934, 0.06814439, 1.000015, -0.007238084, 0.003887767, 1.83076E-05, 0.08870677, 0.06817818, 1.000015
 78820959, 0.00219198, -0.005422344, -1.429266E-05, 0.08880261, 0.06808294, 1.000014, -0.009406665, 0.0008662235, 1.531588E-05, 0.0886934, 0.06814439, 1.000015
 79020879, -0.0072494, -0.002360431, 5.631682E-06, 0.0887158, 0.0681124, 1.000015, 0.00219198, -0.005422344, -1.429266E-05, 0.08880261, 0.06808294, 1.000014
 79220799, -0.002072526, 0.003857447, 1.086585E-05, 0.08875628, 0.06817474, 1.000015, -0.0072494, -0.002360431, 5.631682E-06, 0.0887158, 0.0681124, 1.000015
 79420719, 0.001016391, -5.197864E-05, -1.569836E-06, 0.08878724, 0.06815096, 1.000014, -0.002072526, 0.003857447, 1.086585E-05, 0.08875628, 0.06817474, 1.000015
 79620639, -0.002856348, -0.0001393702, 3.827387E-06, 0.08875, 0.06815811, 1.000013, 0.001016391, -5.197864E-05, -1.569836E-06, 0.08878724, 0.06815096, 1.000014
 79820559, -0.002815984, -0.006173781, -8.427412E-06, 0.08874441, 0.06810869, 1.000013, -0.002856348, -0.0001393702, 3.827387E-06, 0.08875, 0.06815811, 1.000013
 80020479, -0.005732434, 0.003171676, 1.45825E-05, 0.08871417, 0.06819589, 1.000014, -0.002815984, -0.006173781, -8.427412E-06, 0.08874441, 0.06810869, 1.000013
 80220399, -0.002070609, 0.004534133, 1.209621E-05, 0.08873831, 0.06820574, 1.000015, -0.005732434, 0.003171676, 1.45825E-05, 0.08871417, 0.06819589, 1.000014
 80420319, 0.0001063627, 0.004166197, 8.257948E-06, 0.08874957, 0.06820372, 1.000015, -0.002070609, 0.004534133, 1.209621E-05, 0.08873831, 0.06820574, 1.000015
 80620239, 0.0005873792, 0.0003366024, -1.488229E-07, 0.08874895, 0.06817373, 1.000015, 0.0001063627, 0.004166197, 8.257948E-06, 0.08874957, 0.06820372, 1.000015
 80820159, -0.00839495, -0.002709999, 6.340339E-06, 0.08866508, 0.06815064, 1.000015, 0.0005873792, 0.0003366024, -1.488229E-07, 0.08874895, 0.06817373, 1.000015
 81020912, -0.001884987, -0.005213116, -7.795838E-06, 0.08872467, 0.06813334, 1.000015, -0.00839495, -0.002709999, 6.340339E-06, 0.08866508, 0.06815064, 1.000015
 81220832, 0.005900562, -0.005023554, -1.836934E-05, 0.08880131, 0.06813787, 1.000014, -0.001884987, -0.005213116, -7.795838E-06, 0.08872467, 0.06813334, 1.000015
 81420752, -0.006990347, -0.008000859, -6.073163E-06, 0.08868766, 0.06811839, 1.000013, 0.005900562, -0.005023554, -1.836934E-05, 0.08880131, 0.06813787, 1.000014
 81620672, -0.008218491, 0.003083561, 1.785349E-05, 0.08868593, 0.06821939, 1.000013, -0.006990347, -0.008000859, -6.073163E-06, 0.08868766, 0.06811839, 1.000013
 81820592, 0.0008689031, 0.0003270271, -5.925896E-07, 0.08877462, 0.06819623, 1.000012, -0.008218491, 0.003083561, 1.785349E-05, 0.08868593, 0.06821939, 1.000013
 82020512, -0.007680791, 0.002658963, 1.632447E-05, 0.08870165, 0.06821992, 1.000011, 0.0008689031, 0.0003270271, -5.925896E-07, 0.08877462, 0.06819623, 1.000012
 82220432, -0.001696991, -0.0008553383, 7.386169E-07, 0.08875847, 0.06818514, 1.000011, -0.007680791, 0.002658963, 1.632447E-05, 0.08870165, 0.06821992, 1.000011
 82420352, 0.007948812, 0.0003972545, -1.066938E-05, 0.08885045, 0.06819142, 1.000011, -0.001696991, -0.0008553383, 7.386169E-07, 0.08875847, 0.06818514, 1.000011
 82620272, -0.003422896, -0.001715735, 1.485985E-06, 0.08873965, 0.0681697, 1.000012, 0.007948812, 0.0003972545, -1.066938E-05, 0.08885045, 0.06819142, 1.000011
 82820192, 0.002827018, 0.003743478, 3.446905E-06, 0.08879706, 0.06821682, 1.000012, -0.003422896, -0.001715735, 1.485985E-06, 0.08873965, 0.0681697, 1.000012
 83020945, 0.002075571, -0.005680529, -1.443689E-05, 0.08879397, 0.06812421, 1.000012, 0.002827018, 0.003743478, 3.446905E-06, 0.08879706, 0.06821682, 1.000012
 83220865, 0.004675117, 0.0002683941, -6.241342E-06, 0.08882582, 0.0681728, 1.000012, 0.002075571, -0.005680529, -1.443689E-05, 0.08879397, 0.06812421, 1.000012
 83420785, -0.001025511, -0.0008938463, -3.143327E-07, 0.0887775, 0.0681603, 1.000012, 0.004675117, 0.0002683941, -6.241342E-06, 0.08882582, 0.0681728, 1.000012
 83620705, 0.008883223, -0.004081014, -2.125241E-05, 0.08887562, 0.0681259, 1.000011, -0.001025511, -0.0008938463, -3.143327E-07, 0.0887775, 0.0681603, 1.000012
 83820625, 0.001078942, 0.005815676, 1.027478E-05, 0.08880498, 0.06820821, 1.000012, 0.008883223, -0.004081014, -2.125241E-05, 0.08887562, 0.0681259, 1.000011
 84020545, 0.002537787, -0.004023025, -1.197764E-05, 0.08882535, 0.06810766, 1.000012, 0.001078942, 0.005815676, 1.027478E-05, 0.08880498, 0.06820821, 1.000012
 84220465, -0.002043525, -0.001331342, 2.976151E-07, 0.08878984, 0.0681335, 1.000011, 0.002537787, -0.004023025, -1.197764E-05, 0.08882535, 0.06810766, 1.000012
 84420385, -0.004574613, 0.004774135, 1.648506E-05, 0.08876389, 0.06819671, 1.000011, -0.002043525, -0.001331342, 2.976151E-07, 0.08878984, 0.0681335, 1.000011
 84620305, 0.00519735, -0.001021384, -9.690879E-06, 0.08884414, 0.06814916, 1.000011, -0.004574613, 0.004774135, 1.648506E-05, 0.08876389, 0.06819671, 1.000011
 84820225, 0.002098875, -0.003618734, -1.038501E-05, 0.08881021, 0.06813511, 1.000011, 0.00519735, -0.001021384, -9.690879E-06, 0.08884414, 0.06814916, 1.000011
 85020145, -0.005788776, 0.002535447, 1.354665E-05, 0.08873425, 0.06819429, 1.000012, 0.002098875, -0.003618734, -1.038501E-05, 0.08881021, 0.06813511, 1.000011
 85220898, -0.005849367, 0.003357622, 1.522852E-05, 0.08872491, 0.06820625, 1.000012, -0.005788776, 0.002535447, 1.354665E-05, 0.08873425, 0.06819429, 1.000012
 85420818, -0.007222353, -0.004822537, 6.743394E-07, 0.08870242, 0.06813581, 1.000013, -0.005849367, 0.003357622, 1.522852E-05, 0.08872491, 0.06820625, 1.000012
 85620738, 0.003758648, 0.004917986, 4.508881E-06, 0.08879467, 0.06822804, 1.000013, -0.007222353, -0.004822537, 6.743394E-07, 0.08870242, 0.06813581, 1.000013
 85820658, 0.0006904318, -0.0002448348, -1.478506E-06, 0.08876653, 0.06818113, 1.000013, 0.003758648, 0.004917986, 4.508881E-06, 0.08879467, 0.06822804, 1.000013
 86020578, 0.004052538, -0.006431937, -1.868989E-05, 0.08880165, 0.06813017, 1.000012, 0.0006904318, -0.0002448348, -1.478506E-06, 0.08876653, 0.06818113, 1.000013
 86220498, 0.0007207546, 0.002666342, 4.298628E-06, 0.0887678, 0.06821718, 1.000012, 0.004052538, -0.006431937, -1.868989E-05, 0.08880165, 0.06813017, 1.000012
 86420418, -0.002419882, -0.002864731, -2.25552E-06, 0.08873603, 0.06817195, 1.000012, 0.0007207546, 0.002666342, 4.298628E-06, 0.0887678, 0.06821718, 1.000012
 86620338, -0.001288303, -0.008374148, -1.482941E-05, 0.08874357, 0.06812722, 1.000012, -0.002419882, -0.002864731, -2.25552E-06, 0.08873603, 0.06817195, 1.000012
 86820258, -8.361365E-05, -0.004268411, -8.380296E-06, 0.0887508, 0.06816256, 1.000013, -0.001288303, -0.008374148, -1.482941E-05, 0.08874357, 0.06812722, 1.000012
 87020178, -0.004098444, 0.005384212, 1.657294E-05, 0.08871501, 0.06824809, 1.000013, -8.361365E-05, -0.004268411, -8.380296E-06, 0.0887508, 0.06816256, 1.000013
 87220931, 0.001639868, -0.007411249, -1.713736E-05, 0.08876686, 0.06812932, 1.000013, -0.004098444, 0.005384212, 1.657294E-05, 0.08871501, 0.06824809, 1.000013
 87420851, 0.006865779, -0.000715529, -1.11959E-05, 0.08881499, 0.06818418, 1.000013, 0.001639868, -0.007411249, -1.713736E-05, 0.08876686, 0.06812932, 1.000013
 87620771, -0.002878469, 0.00315277, 1.043271E-05, 0.08872747, 0.06821627, 1.000013, 0.006865779, -0.000715529, -1.11959E-05, 0.08881499, 0.06818418, 1.000013
 87820691, -0.009114289, -0.002582106, 7.84473E-06, 0.08867557, 0.06816424, 1.000013, -0.002878469, 0.00315277, 1.043271E-05, 0.08872747, 0.06821627, 1.000013
 88020611, -0.00636297, -0.002079004, 4.949889E-06, 0.08870293, 0.06817101, 1.000013, -0.009114289, -0.002582106, 7.84473E-06, 0.08867557, 0.06816424, 1.000013
 88220531, -0.0005479491, -0.004611225, -8.468371E-06, 0.08875909, 0.06814703, 1.000012, -0.00636297, -0.002079004, 4.949889E-06, 0.08870293, 0.06817101, 1.000013
 88420451, -0.0008902102, 0.006690875, 1.477134E-05, 0.0887595, 0.06824367, 1.000013, -0.0005479491, -0.004611225, -8.468371E-06, 0.08875909, 0.06814703, 1.000012
 88620371, -0.002775146, -0.006017228, -8.129003E-06, 0.08875594, 0.06812087, 1.000012, -0.0008902102, 0.006690875, 1.477134E-05, 0.0887595, 0.06824367, 1.000013
 88820291, 0.007867926, -0.00117181, -1.39202E-05, 0.08886705, 0.06815977, 1.000011, -0.002775146, -0.006017228, -8.129003E-06, 0.08875594, 0.06812087, 1.000012
 89020211, 0.0001264425, -0.000679355, -1.571146E-06, 0.08879828, 0.06815329, 1.000011, 0.007867926, -0.00117181, -1.39202E-05, 0.08886705, 0.06815977, 1.000011
 89220964, 0.004785655, 0.0025978, -1.745019E-06, 0.08884484, 0.06817608, 1.000012, 0.0001264425, -0.000679355, -1.571146E-06, 0.08879828, 0.06815329, 1.000011
 89420884, 0.001149714, -0.002665813, -7.135332E-06, 0.0888043, 0.0681309, 1.000012, 0.004785655, 0.0025978, -1.745019E-06, 0.08884484, 0.06817608, 1.000012
 89620804, 0.0003222497, -0.002273044, -5.090898E-06, 0.0887872, 0.06814399, 1.000012, 0.001149714, -0.002665813, -7.135332E-06, 0.0888043, 0.0681309, 1.000012
 89820724, 0.003999444, 0.0001634539, -5.465959E-06, 0.08881234, 0.0681779, 1.000012, 0.0003222497, -0.002273044, -5.090898E-06, 0.0887872, 0.06814399, 1.000012
 90020644, -0.000620659, 0.004948264, 1.084449E-05, 0.08876213, 0.06823217, 1.000012, 0.003999444, 0.0001634539, -5.465959E-06, 0.08881234, 0.0681779, 1.000012
 90220564, 0.002336114, 0.0006630534, -2.025602E-06, 0.08878356, 0.06819931, 1.000012, -0.000620659, 0.004948264, 1.084449E-05, 0.08876213, 0.06823217, 1.000012
 90420484, 0.006280422, 0.001116521, -6.758574E-06, 0.08881615, 0.06821189, 1.000012, 0.002336114, 0.0006630534, -2.025602E-06, 0.08878356, 0.06819931, 1.000012
 90620404, -0.0017035, 0.007095561, 1.655396E-05, 0.08873729, 0.06827243, 1.000012, 0.006280422, 0.001116521, -6.758574E-06, 0.08881615, 0.06821189, 1.000012
 90820324, -0.005244584, 0.000833251, 9.112778E-06, 0.08870121, 0.06821866, 1.000012, -0.0017035, 0.007095561, 1.655396E-05, 0.08873729, 0.06827243, 1.000012
 91020244, -0.004919684, 0.001375417, 9.723277E-06, 0.08870302, 0.06822304, 1.000012, -0.005244584, 0.000833251, 9.112778E-06, 0.08870121, 0.06821866, 1.000012
 91220164, -0.003278644, -0.005992807, -7.228011E-06, 0.08872222, 0.06815652, 1.000012, -0.004919684, 0.001375417, 9.723277E-06, 0.08870302, 0.06822304, 1.000012
 91420917, 0.002451912, 0.009138728, 1.45866E-05, 0.08878066, 0.06830347, 1.000011, -0.003278644, -0.005992807, -7.228011E-06, 0.08872222, 0.06815652, 1.000012
 91620837, -0.0059917, 0.007361122, 2.313358E-05, 0.08870625, 0.06829059, 1.000011, 0.002451912, 0.009138728, 1.45866E-05, 0.08878066, 0.06830347, 1.000011
 91820757, 0.001066817, 0.006101746, 1.052424E-05, 0.0887668, 0.06827974, 1.000011, -0.0059917, 0.007361122, 2.313358E-05, 0.08870625, 0.06829059, 1.000011
 92020677, -0.007826085, -0.002050457, 7.121863E-06, 0.08868235, 0.06820492, 1.000011, 0.001066817, 0.006101746, 1.052424E-05, 0.0887668, 0.06827974, 1.000011
 92220597, 0.003488273, -0.001631067, -8.190478E-06, 0.08878243, 0.06820936, 1.000011, -0.007826085, -0.002050457, 7.121863E-06, 0.08868235, 0.06820492, 1.000011
 92420517, 0.007505072, 0.004827992, -1.151354E-06, 0.0888199, 0.06826779, 1.000011, 0.003488273, -0.001631067, -8.190478E-06, 0.08878243, 0.06820936, 1.000011
 92620437, 0.0009880718, 0.001742766, 2.040676E-06, 0.08875939, 0.0682357, 1.000011, 0.007505072, 0.004827992, -1.151354E-06, 0.0888199, 0.06826779, 1.000011
 92820357, 0.001900579, 0.000621179, -1.480292E-06, 0.08876842, 0.06822185, 1.000012, 0.0009880718, 0.001742766, 2.040676E-06, 0.08875939, 0.0682357, 1.000011
 93020277, -0.0003020167, -0.004243318, -8.005102E-06, 0.0887496, 0.06817347, 1.000012, 0.001900579, 0.000621179, -1.480292E-06, 0.08876842, 0.06822185, 1.000012
 93220197, -0.001810869, 0.001183077, 4.947253E-06, 0.08873624, 0.06821842, 1.000012, -0.0003020167, -0.004243318, -8.005102E-06, 0.0887496, 0.06817347, 1.000012
 93420950, 0.003246523, 0.0007794955, -3.095981E-06, 0.08878586, 0.06821113, 1.000012, -0.001810869, 0.001183077, 4.947253E-06, 0.08873624, 0.06821842, 1.000012
 93620870, -0.001415927, -0.0001273994, 1.781157E-06, 0.08874735, 0.06819779, 1.000012, 0.003246523, 0.0007794955, -3.095981E-06, 0.08878586, 0.06821113, 1.000012
 93820790, -0.0001038317, -0.005440469, -1.077953E-05, 0.08876281, 0.06814396, 1.000012, -0.001415927, -0.0001273994, 1.781157E-06, 0.08874735, 0.06819779, 1.000012
 94020710, -0.008585657, 0.008691221, 2.990409E-05, 0.08869286, 0.06827293, 1.000012, -0.0001038317, -0.005440469, -1.077953E-05, 0.08876281, 0.06814396, 1.000012
 94220630, -0.004107873, -0.006191227, -6.506255E-06, 0.08873735, 0.06813208, 1.000011, -0.008585657, 0.008691221, 2.990409E-05, 0.08869286, 0.06827293, 1.000012
 94420550, -0.007783548, -0.0009500162, 9.415664E-06, 0.0887072, 0.06817397, 1.000012, -0.004107873, -0.006191227, -6.506255E-06, 0.08873735, 0.06813208, 1.000011
 94620470, -0.0001292091, 0.006438892, 1.313675E-05, 0.08878474, 0.06825308, 1.00001, -0.007783548, -0.0009500162, 9.415664E-06, 0.0887072, 0.06817397, 1.000012
 94820390, 0.007609249, 0.00304867, -5.07847E-06, 0.08886094, 0.06823297, 1.000009, -0.0001292091, 0.006438892, 1.313675E-05, 0.08878474, 0.06825308, 1.00001
 95020310, 0.0009147514, -0.002810374, -6.922416E-06, 0.08878939, 0.06818844, 1.000009, 0.007609249, 0.00304867, -5.07847E-06, 0.08886094, 0.06823297, 1.000009
 95220230, -0.006104336, 0.001162251, 1.114999E-05, 0.08871651, 0.06823231, 1.00001, 0.0009147514, -0.002810374, -6.922416E-06, 0.08878939, 0.06818844, 1.000009
 95420150, -0.002726879, 0.001585896, 7.068339E-06, 0.08874121, 0.06824204, 1.00001, -0.006104336, 0.001162251, 1.114999E-05, 0.08871651, 0.06823231, 1.00001
 95620903, -0.0005738955, 0.0005815852, 1.969683E-06, 0.08875591, 0.06823991, 1.00001, -0.002726879, 0.001585896, 7.068339E-06, 0.08874121, 0.06824204, 1.00001
 95820823, 0.008316302, -0.0007136619, -1.331306E-05, 0.08883391, 0.06823544, 1.000009, -0.0005738955, 0.0005815852, 1.969683E-06, 0.08875591, 0.06823991, 1.00001
 96020743, 0.002851561, -0.006591978, -1.69771E-05, 0.0887771, 0.06818422, 1.00001, 0.008316302, -0.0007136619, -1.331306E-05, 0.08883391, 0.06823544, 1.000009
 96220663, -0.005773528, 0.0005506596, 9.299543E-06, 0.0886943, 0.0682497, 1.00001, 0.002851561, -0.006591978, -1.69771E-05, 0.0887771, 0.06818422, 1.00001
 96420583, 0.002429255, -0.003630885, -1.056527E-05, 0.08876876, 0.06821151, 1.00001, -0.005773528, 0.0005506596, 9.299543E-06, 0.0886943, 0.0682497, 1.00001
 96620503, -0.009044128, -0.006534487, 3.931382E-08, 0.08866308, 0.06818137, 1.000011, 0.002429255, -0.003630885, -1.056527E-05, 0.08876876, 0.06821151, 1.00001
 96820423, 0.0007882098, 0.004428506, 7.594869E-06, 0.08874667, 0.06827626, 1.000011, -0.009044128, -0.006534487, 3.931382E-08, 0.08866308, 0.06818137, 1.000011
 97020343, 0.005554816, -0.009341579, -2.625783E-05, 0.08879088, 0.06815039, 1.000011, 0.0007882098, 0.004428506, 7.594869E-06, 0.08874667, 0.06827626, 1.000011
 97220263, -0.00329399, 9.373887E-05, 4.85122E-06, 0.08870786, 0.06823358, 1.000012, 0.005554816, -0.009341579, -2.625783E-05, 0.08879088, 0.06815039, 1.000011
 97420183, -0.0008389251, -0.003412535, -5.532826E-06, 0.08873115, 0.06820216, 1.000011, -0.00329399, 9.373887E-05, 4.85122E-06, 0.08870786, 0.06823358, 1.000012
 97620936, 0.003720866, 0.0009021322, -3.50337E-06, 0.08877409, 0.06824327, 1.000011, -0.0008389251, -0.003412535, -5.532826E-06, 0.08873115, 0.06820216, 1.000011
 97820856, 0.005975918, 0.002390851, -3.77805E-06, 0.08879646, 0.06825677, 1.000011, 0.003720866, 0.0009021322, -3.50337E-06, 0.08877409, 0.06824327, 1.000011
 98020776, 0.005522415, 0.004361317, 7.563422E-07, 0.08879199, 0.06827324, 1.000011, 0.005975918, 0.002390851, -3.77805E-06, 0.08879646, 0.06825677, 1.000011
 98220696, 0.00446061, -0.007333364, -2.083239E-05, 0.08878234, 0.06816172, 1.000012, 0.005522415, 0.004361317, 7.563422E-07, 0.08879199, 0.06827324, 1.000011
 98420616, -0.002022801, -0.002919801, -2.904111E-06, 0.08872657, 0.06819607, 1.000012, 0.00446061, -0.007333364, -2.083239E-05, 0.08878234, 0.06816172, 1.000012
 98620536, 0.002211396, 0.001059777, -1.055118E-06, 0.08876939, 0.06822705, 1.000012, -0.002022801, -0.002919801, -2.904111E-06, 0.08872657, 0.06819607, 1.000012
 98820456, -0.003482571, 0.007535825, 2.003832E-05, 0.08871953, 0.06827948, 1.000012, 0.002211396, 0.001059777, -1.055118E-06, 0.08876939, 0.06822705, 1.000012
 99020376, -0.0008921347, -0.00460348, -7.954649E-06, 0.08874331, 0.06815892, 1.000013, -0.003482571, 0.007535825, 2.003832E-05, 0.08871953, 0.06827948, 1.000012
 99220296, 0.0006781833, 0.002092303, 3.232532E-06, 0.08875812, 0.06821626, 1.000013, -0.0008921347, -0.00460348, -7.954649E-06, 0.08874331, 0.06815892, 1.000013
 99420216, -0.0007369015, -0.007892067, -1.484646E-05, 0.08874601, 0.06812131, 1.000013, 0.0006781833, 0.002092303, 3.232532E-06, 0.08875812, 0.06821626, 1.000013
 99620969, 0.0007190628, 0.002455644, 3.919386E-06, 0.08876558, 0.06821197, 1.000013, -0.0007369015, -0.007892067, -1.484646E-05, 0.08874601, 0.06812131, 1.000013
 99820889, 0.0006818609, -0.001445769, -3.891452E-06, 0.08876091, 0.06817967, 1.000013, 0.0007190628, 0.002455644, 3.919386E-06, 0.08876558, 0.06821197, 1.000013
 100020809, -0.009363035, 0.001294074, 1.596362E-05, 0.08866277, 0.06820966, 1.000013, 0.0006818609, -0.001445769, -3.891452E-06, 0.08876091, 0.06817967, 1.000013
 100220729, -0.002070426, -0.003282275, -3.619745E-06, 0.08872083, 0.06817657, 1.000013, -0.009363035, 0.001294074, 1.596362E-05, 0.08866277, 0.06820966, 1.000013
 100420649, 0.009476182, 0.00782432, 2.209435E-06, 0.08882122, 0.0682869, 1.000014, -0.002070426, -0.003282275, -3.619745E-06, 0.08872083, 0.06817657, 1.000013
 100620569, 0.002639286, -0.004927792, -1.350421E-05, 0.08874996, 0.06817222, 1.000014, 0.009476182, 0.00782432, 2.209435E-06, 0.08882122, 0.0682869, 1.000014
 100820489, 0.001119717, -0.007796699, -1.704833E-05, 0.08873007, 0.06814872, 1.000014, 0.002639286, -0.004927792, -1.350421E-05, 0.08874996, 0.06817222, 1.000014
 101020409, 0.005215399, 0.007623321, 7.809083E-06, 0.08876577, 0.06829631, 1.000014, 0.001119717, -0.007796699, -1.704833E-05, 0.08873007, 0.06814872, 1.000014
 101220329, -0.003397418, -0.003976347, -3.112963E-06, 0.08868137, 0.06819563, 1.000014, 0.005215399, 0.007623321, 7.809083E-06, 0.08876577, 0.06829631, 1.000014
 101420249, 0.002152154, -0.004341792, -1.152044E-05, 0.0887317, 0.06820063, 1.000013, -0.003397418, -0.003976347, -3.112963E-06, 0.08868137, 0.06819563, 1.000014
 101620169, 0.002209075, -0.001488692, -5.981903E-06, 0.08873042, 0.06823414, 1.000013, 0.002152154, -0.004341792, -1.152044E-05, 0.0887317, 0.06820063, 1.000013
 101820922, 0.003985108, 0.007991031, 1.008788E-05, 0.08874685, 0.06832455, 1.000013, 0.002209075, -0.001488692, -5.981903E-06, 0.08873042, 0.06823414, 1.000013
 102020842, 0.002204605, -0.002703868, -8.345195E-06, 0.08872909, 0.06822553, 1.000013, 0.003985108, 0.007991031, 1.008788E-05, 0.08874685, 0.06832455, 1.000013
 102220762, -0.003235802, -0.0002906835, 3.921623E-06, 0.0886777, 0.0682475, 1.000013, 0.002204605, -0.002703868, -8.345195E-06, 0.08872909, 0.06822553, 1.000013
 102420682, -0.008153092, -0.003968622, 3.575159E-06, 0.08863701, 0.06821309, 1.000013, -0.003235802, -0.0002906835, 3.921623E-06, 0.0886777, 0.0682475, 1.000013
 102620602, 0.001084914, -0.0008619068, -3.20088E-06, 0.08872484, 0.06824057, 1.000013, -0.008153092, -0.003968622, 3.575159E-06, 0.08863701, 0.06821309, 1.000013
 102820522, 0.004426967, -0.008872396, -2.356471E-05, 0.0887622, 0.06816979, 1.000012, 0.001084914, -0.0008619068, -3.20088E-06, 0.08872484, 0.06824057, 1.000013
 103020442, 0.003306829, 0.004651324, 4.460489E-06, 0.08875303, 0.06829276, 1.000012, 0.004426967, -0.008872396, -2.356471E-05, 0.0887622, 0.06816979, 1.000012
 103220362, 0.005302791, -0.0007627946, -8.965275E-06, 0.08877701, 0.06824352, 1.000011, 0.003306829, 0.004651324, 4.460489E-06, 0.08875303, 0.06829276, 1.000012
 103420282, -0.004034719, 0.005126269, 1.573167E-05, 0.08869276, 0.0682971, 1.000011, 0.005302791, -0.0007627946, -8.965275E-06, 0.08877701, 0.06824352, 1.000011
 103620202, 0.005015831, 0.005606629, 3.91882E-06, 0.08877508, 0.0682992, 1.000012, -0.004034719, 0.005126269, 1.573167E-05, 0.08869276, 0.0682971, 1.000011
 103820955, 0.0004894675, 0.001344684, 1.951498E-06, 0.0887333, 0.06825531, 1.000012, 0.005015831, 0.005606629, 3.91882E-06, 0.08877508, 0.0682992, 1.000012
 104020875, 0.0100003, -0.005437841, -2.483985E-05, 0.08882355, 0.06818641, 1.000012, 0.0004894675, 0.001344684, 1.951498E-06, 0.0887333, 0.06825531, 1.000012
 104220795, -0.005164862, 0.002426255, 1.210533E-05, 0.08868203, 0.0682491, 1.000013, 0.0100003, -0.005437841, -2.483985E-05, 0.08882355, 0.06818641, 1.000012
 104420715, 0.003208163, -0.007972173, -2.039734E-05, 0.08876397, 0.06815013, 1.000013, -0.005164862, 0.002426255, 1.210533E-05, 0.08868203, 0.0682491, 1.000013
 104620635, 2.504757E-05, 0.005819184, 1.157514E-05, 0.08874302, 0.06826939, 1.000013, 0.003208163, -0.007972173, -2.039734E-05, 0.08876397, 0.06815013, 1.000013
 104820555, 0.005073161, -0.00956762, -2.642997E-05, 0.0887979, 0.06812336, 1.000012, 2.504757E-05, 0.005819184, 1.157514E-05, 0.08874302, 0.06826939, 1.000013
 105020475, 0.001315679, 0.004606785, 7.326668E-06, 0.0887593, 0.06825387, 1.000012, 0.005073161, -0.00956762, -2.642997E-05, 0.0887979, 0.06812336, 1.000012
 105220395, -4.404693E-05, 1.190424E-05, 8.654706E-08, 0.0887427, 0.06821986, 1.000012, 0.001315679, 0.004606785, 7.326668E-06, 0.0887593, 0.06825387, 1.000012
 105420315, -0.001607078, 0.003644493, 9.492715E-06, 0.08872207, 0.06826419, 1.000012, -4.404693E-05, 1.190424E-05, 8.654706E-08, 0.0887427, 0.06821986, 1.000012
 105620235, 0.002738852, -0.004852532, -1.341963E-05, 0.08875503, 0.06819603, 1.000012, -0.001607078, 0.003644493, 9.492715E-06, 0.08872207, 0.06826419, 1.000012
 105820155, 0.002333444, 0.004549833, 5.651082E-06, 0.08874246, 0.06828849, 1.000012, 0.002738852, -0.004852532, -1.341963E-05, 0.08875503, 0.06819603, 1.000012
 106020908, -0.003901541, -0.002807219, -3.587593E-08, 0.08868027, 0.06822568, 1.000012, 0.002333444, 0.004549833, 5.651082E-06, 0.08874246, 0.06828849, 1.000012
 106220828, 0.0008000162, -0.00163615, -4.310077E-06, 0.08871862, 0.06823976, 1.000013, -0.003901541, -0.002807219, -3.587593E-08, 0.08868027, 0.06822568, 1.000012
 106420748, -0.001135683, 0.0009964183, 3.519765E-06, 0.0886957, 0.06826672, 1.000013, 0.0008000162, -0.00163615, -4.310077E-06, 0.08871862, 0.06823976, 1.000013
 106620668, -0.001180037, -0.004217375, -6.577643E-06, 0.08869391, 0.06822125, 1.000013, -0.001135683, 0.0009964183, 3.519765E-06, 0.0886957, 0.06826672, 1.000013
 106820588, -0.001857559, -0.004449137, -6.071532E-06, 0.0886915, 0.06822168, 1.000012, -0.001180037, -0.004217375, -6.577643E-06, 0.08869391, 0.06822125, 1.000013
 107020508, -0.006531116, 0.005039827, 1.890102E-05, 0.08864841, 0.06830457, 1.000013, -0.001857559, -0.004449137, -6.071532E-06, 0.0886915, 0.06822168, 1.000012
 107220428, -0.003229818, 0.001602872, 7.608257E-06, 0.08867372, 0.06826849, 1.000013, -0.006531116, 0.005039827, 1.890102E-05, 0.08864841, 0.06830457, 1.000013
 107420348, 3.468519E-05, -0.004401342, -8.653437E-06, 0.08870001, 0.06821287, 1.000014, -0.003229818, 0.001602872, 7.608257E-06, 0.08867372, 0.06826849, 1.000013
 107620268, 0.006062566, 0.0009611906, -6.490877E-06, 0.08875384, 0.06826542, 1.000014, 3.468519E-05, -0.004401342, -8.653437E-06, 0.08870001, 0.06821287, 1.000014
 107820188, -0.003754729, -0.001151497, 2.944003E-06, 0.08866471, 0.06824754, 1.000013, 0.006062566, 0.0009611906, -6.490877E-06, 0.08875384, 0.06826542, 1.000014
 108020941, 0.002540384, -0.002577315, -8.558237E-06, 0.08872893, 0.06823365, 1.000013, -0.003754729, -0.001151497, 2.944003E-06, 0.08866471, 0.06824754, 1.000013
 108220861, 0.002708613, -0.004034458, -1.166253E-05, 0.08873039, 0.06821416, 1.000013, 0.002540384, -0.002577315, -8.558237E-06, 0.08872893, 0.06823365, 1.000013
 108420781, 0.006136381, 0.003273527, -2.074678E-06, 0.08876071, 0.06827315, 1.000014, 0.002708613, -0.004034458, -1.166253E-05, 0.08873039, 0.06821416, 1.000013
 108620701, -0.007817378, -0.003289995, 4.399303E-06, 0.0886381, 0.06820817, 1.000014, 0.006136381, 0.003273527, -2.074678E-06, 0.08876071, 0.06827315, 1.000014
 108820621, -0.009481837, -0.002274421, 8.730224E-06, 0.0886253, 0.06821473, 1.000014, -0.007817378, -0.003289995, 4.399303E-06, 0.0886381, 0.06820817, 1.000014
 109020541, 0.005167414, 0.006257107, 5.174455E-06, 0.08875848, 0.06829035, 1.000014, -0.009481837, -0.002274421, 8.730224E-06, 0.0886253, 0.06821473, 1.000014
 109220461, 0.003384496, -0.00140354, -7.526055E-06, 0.08874772, 0.06821519, 1.000014, 0.005167414, 0.006257107, 5.174455E-06, 0.08875848, 0.06829035, 1.000014
 109420381, 0.006561422, 0.003220123, -2.834425E-06, 0.08878276, 0.06825513, 1.000014, 0.003384496, -0.00140354, -7.526055E-06, 0.08874772, 0.06821519, 1.000014
 109620301, -0.00365922, -0.001130218, 2.903962E-06, 0.0886901, 0.06820793, 1.000014, 0.006561422, 0.003220123, -2.834425E-06, 0.08878276, 0.06825513, 1.000014
 109820221, -0.0008606066, 0.002616347, 6.458578E-06, 0.08872405, 0.06823405, 1.000014, -0.00365922, -0.001130218, 2.903962E-06, 0.0886901, 0.06820793, 1.000014
 110020974, 0.004389541, -0.002613906, -1.152434E-05, 0.08878215, 0.06817643, 1.000013, -0.0008606066, 0.002616347, 6.458578E-06, 0.08872405, 0.06823405, 1.000014
 110220894, -0.007464904, 0.006890103, 2.457923E-05, 0.08868051, 0.06826116, 1.000014, 0.004389541, -0.002613906, -1.152434E-05, 0.08878215, 0.06817643, 1.000013
 110420814, 0.001370768, -0.005412688, -1.28327E-05, 0.08875849, 0.06815338, 1.000013, -0.007464904, 0.006890103, 2.457923E-05, 0.08868051, 0.06826116, 1.000014
 110620734, -0.003033176, -0.002780298, -1.223329E-06, 0.0887144, 0.0681882, 1.000013, 0.001370768, -0.005412688, -1.28327E-05, 0.08875849, 0.06815338, 1.000013
 110820654, -0.00387308, 0.0008766779, 7.239136E-06, 0.08870126, 0.06823404, 1.000012, -0.003033176, -0.002780298, -1.223329E-06, 0.0887144, 0.0681882, 1.000013
 111020574, -0.002025088, 0.0002753033, 3.406579E-06, 0.08871137, 0.06823371, 1.000013, -0.00387308, 0.0008766779, 7.239136E-06, 0.08870126, 0.06823404, 1.000012
 111220494, 0.003397971, 0.0007138492, -3.369843E-06, 0.08875416, 0.06824429, 1.000013, -0.002025088, 0.0002753033, 3.406579E-06, 0.08871137, 0.06823371, 1.000013
 111420414, -0.007297797, 0.003124346, 1.634927E-05, 0.08865327, 0.06827692, 1.000013, 0.003397971, 0.0007138492, -3.369843E-06, 0.08875416, 0.06824429, 1.000013
 111620334, -0.003334657, -0.004646719, -4.416881E-06, 0.0886817, 0.06821421, 1.000012, -0.007297797, 0.003124346, 1.634927E-05, 0.08865327, 0.06827692, 1.000013
 111820254, -0.00461445, 0.006192303, 1.846921E-05, 0.08866606, 0.06831893, 1.000013, -0.003334657, -0.004646719, -4.416881E-06, 0.0886817, 0.06821421, 1.000012
 112020174, 0.004703242, 0.002096544, -2.45298E-06, 0.08874872, 0.06828438, 1.000012, -0.00461445, 0.006192303, 1.846921E-05, 0.08866606, 0.06831893, 1.000013
 112220927, 0.0003476988, 0.0043308, 7.924951E-06, 0.08870416, 0.06830726, 1.000013, 0.004703242, 0.002096544, -2.45298E-06, 0.08874872, 0.06828438, 1.000012
 112420847, -0.007414318, -0.001524801, 7.270281E-06, 0.08862973, 0.06825555, 1.000013, 0.0003476988, 0.0043308, 7.924951E-06, 0.08870416, 0.06830726, 1.000013
 112620767, -0.003422402, 0.003809062, 1.207837E-05, 0.08866107, 0.06830817, 1.000013, -0.007414318, -0.001524801, 7.270281E-06, 0.08862973, 0.06825555, 1.000013
 112820687, -0.0008956253, -0.002337056, -3.291803E-06, 0.0886831, 0.06825171, 1.000013, -0.003422402, 0.003809062, 1.207837E-05, 0.08866107, 0.06830817, 1.000013
 113020607, -0.002965997, -0.003217641, -2.150908E-06, 0.08866549, 0.06824247, 1.000013, -0.0008956253, -0.002337056, -3.291803E-06, 0.0886831, 0.06825171, 1.000013
 113220527, 0.0003039484, 0.003469504, 6.306529E-06, 0.08869674, 0.06830297, 1.000013, -0.002965997, -0.003217641, -2.150908E-06, 0.08866549, 0.06824247, 1.000013
 113420447, 0.003084707, -0.003494342, -1.104066E-05, 0.0887252, 0.06823681, 1.000013, 0.0003039484, 0.003469504, 6.306529E-06, 0.08869674, 0.06830297, 1.000013
 113620367, -0.00345923, -0.003588012, -2.193422E-06, 0.08866833, 0.06823133, 1.000013, 0.003084707, -0.003494342, -1.104066E-05, 0.0887252, 0.06823681, 1.000013
 113820287, 0.001915711, -0.006653753, -1.565906E-05, 0.0887185, 0.06819574, 1.000013, -0.00345923, -0.003588012, -2.193422E-06, 0.08866833, 0.06823133, 1.000013
 114020207, -0.009304372, -0.002714874, 7.59779E-06, 0.0886218, 0.06822128, 1.000014, 0.001915711, -0.006653753, -1.565906E-05, 0.0887185, 0.06819574, 1.000013
 114220960, -0.002846309, 0.0007600236, 5.47754E-06, 0.08868549, 0.06824193, 1.000014, -0.009304372, -0.002714874, 7.59779E-06, 0.0886218, 0.06822128, 1.000014
 114420880, -0.005072764, -0.006882529, -6.538821E-06, 0.08867155, 0.06816551, 1.000014, -0.002846309, 0.0007600236, 5.47754E-06, 0.08868549, 0.06824193, 1.000014
 114620800, -0.0009102167, 0.002958327, 7.191379E-06, 0.08871464, 0.0682416, 1.000014, -0.005072764, -0.006882529, -6.538821E-06, 0.08867155, 0.06816551, 1.000014
 114820720, -0.007563847, 0.004007891, 1.871531E-05, 0.08865834, 0.06824363, 1.000015, -0.0009102167, 0.002958327, 7.191379E-06, 0.08871464, 0.0682416, 1.000014
 115020640, 0.005455357, -0.003406348, -1.458608E-05, 0.0887811, 0.06816665, 1.000015, -0.007563847, 0.004007891, 1.871531E-05, 0.08865834, 0.06824363, 1.000015
 115220560, -0.003778575, 0.003239143, 1.19365E-05, 0.08870152, 0.06821623, 1.000015, 0.005455357, -0.003406348, -1.458608E-05, 0.0887811, 0.06816665, 1.000015
 115420480, 0.004741891, -0.001308535, -9.370299E-06, 0.08877691, 0.06817887, 1.000015, -0.003778575, 0.003239143, 1.19365E-05, 0.08870152, 0.06821623, 1.000015
 115620400, -0.0005877822, -0.00775142, -1.475221E-05, 0.08872128, 0.06813104, 1.000015, 0.004741891, -0.001308535, -9.370299E-06, 0.08877691, 0.06817887, 1.000015
 115820320, 0.006259871, 0.003841349, -1.120255E-06, 0.08878127, 0.06824449, 1.000015, -0.0005877822, -0.00775142, -1.475221E-05, 0.08872128, 0.06813104, 1.000015
 116020240, 0.007190258, -0.004215742, -1.846464E-05, 0.08878488, 0.06817915, 1.000014, 0.006259871, 0.003841349, -1.120255E-06, 0.08878127, 0.06824449, 1.000015
 116220160, -0.005808553, -0.003314126, 1.515773E-06, 0.08865628, 0.06819586, 1.000015, 0.007190258, -0.004215742, -1.846464E-05, 0.08878488, 0.06817915, 1.000014
 116420913, -0.002900586, 0.001046779, 6.086264E-06, 0.08867556, 0.06824108, 1.000015, -0.005808553, -0.003314126, 1.515773E-06, 0.08865628, 0.06819586, 1.000015
 116620833, 0.004577308, 0.003191943, -3.355854E-08, 0.08874161, 0.06826659, 1.000015, -0.002900586, 0.001046779, 6.086264E-06, 0.08867556, 0.06824108, 1.000015
 116820753, -0.002142847, -0.001371444, 2.634972E-07, 0.08867893, 0.06822902, 1.000015, 0.004577308, 0.003191943, -3.355854E-08, 0.08874161, 0.06826659, 1.000015
 117020673, -0.0007789112, -0.001497606, -1.865131E-06, 0.08868866, 0.06823124, 1.000015, -0.002142847, -0.001371444, 2.634972E-07, 0.08867893, 0.06822902, 1.000015
 117220593, 0.003162616, 0.001415863, -1.579014E-06, 0.08872402, 0.06825965, 1.000014, -0.0007789112, -0.001497606, -1.865131E-06, 0.08868866, 0.06823124, 1.000015
 117420513, -0.009104988, 0.006977316, 2.621037E-05, 0.08861518, 0.06831396, 1.000015, 0.003162616, 0.001415863, -1.579014E-06, 0.08872402, 0.06825965, 1.000014
 117620433, 0.007850368, -0.006442594, -2.34173E-05, 0.08877424, 0.06819804, 1.000013, -0.009104988, 0.006977316, 2.621037E-05, 0.08861518, 0.06831396, 1.000015
 117820353, 0.005747346, 0.002072755, -3.917822E-06, 0.08875583, 0.06827777, 1.000013, 0.007850368, -0.006442594, -2.34173E-05, 0.08877424, 0.06819804, 1.000013
 118020273, 0.001231291, 0.005602101, 9.213122E-06, 0.08871239, 0.06831151, 1.000013, 0.005747346, 0.002072755, -3.917822E-06, 0.08875583, 0.06827777, 1.000013
 118220193, 0.003089041, 0.004026148, 3.57649E-06, 0.08872645, 0.06829786, 1.000013, 0.001231291, 0.005602101, 9.213122E-06, 0.08871239, 0.06831151, 1.000013
 118420946, 0.007325454, 0.0002337337, -9.623505E-06, 0.0887621, 0.06825544, 1.000014, 0.003089041, 0.004026148, 3.57649E-06, 0.08872645, 0.06829786, 1.000013
 118620866, -0.001944874, 0.002565377, 7.715078E-06, 0.08867571, 0.06826859, 1.000015, 0.007325454, 0.0002337337, -9.623505E-06, 0.0887621, 0.06825544, 1.000014
 118820786, 0.0001697261, -0.001314738, -2.821658E-06, 0.08869618, 0.06822832, 1.000015, -0.001944874, 0.002565377, 7.715078E-06, 0.08867571, 0.06826859, 1.000015
 119020706, -1.064583E-05, 0.002675075, 5.294901E-06, 0.08870042, 0.06825982, 1.000015, 0.0001697261, -0.001314738, -2.821658E-06, 0.08869618, 0.06822832, 1.000015
 119220626, -0.007547876, 0.001518633, 1.34901E-05, 0.08863749, 0.06824325, 1.000015, -1.064583E-05, 0.002675075, 5.294901E-06, 0.08870042, 0.06825982, 1.000015
 119420546, -0.007107463, 0.00259348, 1.504846E-05, 0.08864485, 0.06824773, 1.000015, -0.007547876, 0.001518633, 1.34901E-05, 0.08863749, 0.06824325, 1.000015
 119620466, 0.002163046, -0.002655728, -8.318104E-06, 0.08873488, 0.06819312, 1.000015, -0.007107463, 0.00259348, 1.504846E-05, 0.08864485, 0.06824773, 1.000015
 119820386, -0.006795907, 0.004943562, 1.94474E-05, 0.08866296, 0.06825818, 1.000014, 0.002163046, -0.002655728, -8.318104E-06, 0.08873488, 0.06819312, 1.000015
 120020306, 0.002363683, -0.009236122, -2.186145E-05, 0.08875585, 0.06812409, 1.000014, -0.006795907, 0.004943562, 1.94474E-05, 0.08866296, 0.06825818, 1.000014
 120220226, -0.002967395, 0.006755821, 1.783677E-05, 0.08871622, 0.06826114, 1.000014, 0.002363683, -0.009236122, -2.186145E-05, 0.08875585, 0.06812409, 1.000014
 120420146, -0.003252442, 0.006706837, 1.820112E-05, 0.08871838, 0.06825494, 1.000014, -0.002967395, 0.006755821, 1.783677E-05, 0.08871622, 0.06826114, 1.000014
 120620899, -0.005658685, 0.003676529, 1.548799E-05, 0.08869344, 0.06823127, 1.000014, -0.003252442, 0.006706837, 1.820112E-05, 0.08871838, 0.06825494, 1.000014
 120820819, 0.004235263, 0.001652958, -2.70465E-06, 0.08877584, 0.06822132, 1.000014, -0.005658685, 0.003676529, 1.548799E-05, 0.08869344, 0.06823127, 1.000014
 121020739, -0.001045858, -0.001722219, -1.966625E-06, 0.08871581, 0.06819525, 1.000014, 0.004235263, 0.001652958, -2.70465E-06, 0.08877584, 0.06822132, 1.000014
 121220659, -0.004869613, 0.0006823342, 8.176765E-06, 0.08867344, 0.06822352, 1.000015, -0.001045858, -0.001722219, -1.966625E-06, 0.08871581, 0.06819525, 1.000014
 121420579, 0.0004720942, 0.002410508, 4.138768E-06, 0.0887202, 0.06823868, 1.000015, -0.004869613, 0.0006823342, 8.176765E-06, 0.08867344, 0.06822352, 1.000015
 121620499, -0.007735096, -0.005661692, -4.519352E-07, 0.08864506, 0.06816821, 1.000015, 0.0004720942, 0.002410508, 4.138768E-06, 0.0887202, 0.06823868, 1.000015
 121820419, -0.008817832, -0.005938078, 5.182756E-07, 0.08863356, 0.06817027, 1.000015, -0.007735096, -0.005661692, -4.519352E-07, 0.08864506, 0.06816821, 1.000015
 122020339, -0.008503271, -0.004098007, 3.686761E-06, 0.08863027, 0.06818908, 1.000015, -0.008817832, -0.005938078, 5.182756E-07, 0.08863356, 0.06817027, 1.000015
 122220259, 0.0008089707, 0.007936385, 1.457123E-05, 0.08871075, 0.06830375, 1.000015, -0.008503271, -0.004098007, 3.686761E-06, 0.08863027, 0.06818908, 1.000015
 122420179, 0.001070941, -0.002077739, -5.584258E-06, 0.08871119, 0.06821147, 1.000015, 0.0008089707, 0.007936385, 1.457123E-05, 0.08871075, 0.06830375, 1.000015
 122620932, -0.001500778, -0.00197834, -1.827007E-06, 0.0886864, 0.06821615, 1.000015, 0.001070941, -0.002077739, -5.584258E-06, 0.08871119, 0.06821147, 1.000015
 122820852, 0.005395994, -0.001893496, -1.117545E-05, 0.08875072, 0.06822137, 1.000015, -0.001500778, -0.00197834, -1.827007E-06, 0.0886864, 0.06821615, 1.000015
 123020772, 0.006795702, -0.006771025, -2.269233E-05, 0.08876687, 0.0681811, 1.000014, 0.005395994, -0.001893496, -1.117545E-05, 0.08875072, 0.06822137, 1.000015
 123220692, -0.005130234, 0.001318837, 9.705085E-06, 0.08865965, 0.06825408, 1.000014, 0.006795702, -0.006771025, -2.269233E-05, 0.08876687, 0.0681811, 1.000014
 123420612, -0.00103162, 0.00139304, 4.168687E-06, 0.08869805, 0.0682544, 1.000014, -0.005130234, 0.001318837, 9.705085E-06, 0.08865965, 0.06825408, 1.000014
 123620532, 0.006214677, -0.004110525, -1.672708E-05, 0.08876928, 0.06820369, 1.000013, -0.00103162, 0.00139304, 4.168687E-06, 0.08869805, 0.0682544, 1.000014
 123820452, 0.00221736, 0.0003335178, -2.45111E-06, 0.08873993, 0.06824405, 1.000013, 0.006214677, -0.004110525, -1.672708E-05, 0.08876928, 0.06820369, 1.000013
 124020372, 0.007443515, -0.002407759, -1.522357E-05, 0.08879807, 0.06821857, 1.000012, 0.00221736, 0.0003335178, -2.45111E-06, 0.08873993, 0.06824405, 1.000013
 124220292, 0.005656349, 0.002043481, -3.973454E-06, 0.08878576, 0.06825406, 1.000012, 0.007443515, -0.002407759, -1.522357E-05, 0.08879807, 0.06821857, 1.000012
 124420212, 0.006115038, 0.00123289, -6.228626E-06, 0.08879294, 0.06823856, 1.000012, 0.005656349, 0.002043481, -3.973454E-06, 0.08878576, 0.06825406, 1.000012
 124620965, -0.001025352, -0.006883, -1.218479E-05, 0.08873142, 0.06816322, 1.000012, 0.006115038, 0.00123289, -6.228626E-06, 0.08879294, 0.06823856, 1.000012
 124820885, 0.005243436, -0.006338508, -2.008332E-05, 0.08879583, 0.06816395, 1.000011, -0.001025352, -0.006883, -1.218479E-05, 0.08873142, 0.06816322, 1.000012
 125020805, 0.001567782, 0.009595429, 1.687432E-05, 0.0887657, 0.06830648, 1.000012, 0.005243436, -0.006338508, -2.008332E-05, 0.08879583, 0.06816395, 1.000011
 125220725, -0.006387312, -0.005046394, -8.642655E-07, 0.08870143, 0.06816609, 1.000011, 0.001567782, 0.009595429, 1.687432E-05, 0.0887657, 0.06830648, 1.000012
 125420645, -0.00184408, -0.00332556, -3.986338E-06, 0.08875069, 0.06817492, 1.000011, -0.006387312, -0.005046394, -8.642655E-07, 0.08870143, 0.06816609, 1.000011
 125620565, -0.003198793, -0.008073761, -1.151426E-05, 0.08874671, 0.06813193, 1.00001, -0.00184408, -0.00332556, -3.986338E-06, 0.08875069, 0.06817492, 1.000011
 125820485, -0.01011399, -0.001868752, 1.103901E-05, 0.08868849, 0.06819248, 1.00001, -0.003198793, -0.008073761, -1.151426E-05, 0.08874671, 0.06813193, 1.00001
 126020405, -0.002063413, -0.001956322, -8.852026E-07, 0.08875494, 0.06820077, 1.000009, -0.01011399, -0.001868752, 1.103901E-05, 0.08868849, 0.06819248, 1.00001
 126220325, -0.004202761, -0.001186326, 3.729114E-06, 0.08872724, 0.06821394, 1.00001, -0.002063413, -0.001956322, -8.852026E-07, 0.08875494, 0.06820077, 1.000009
 126420245, -0.004505079, 0.001791549, 1.002296E-05, 0.08871859, 0.06824773, 1.00001, -0.004202761, -0.001186326, 3.729114E-06, 0.08872724, 0.06821394, 1.00001
 126620165, 0.001756192, 0.009211818, 1.560394E-05, 0.08877468, 0.06832408, 1.00001, -0.004505079, 0.001791549, 1.002296E-05, 0.08871859, 0.06824773, 1.00001
 126820918, -0.007382849, -0.002148192, 6.371415E-06, 0.0886884, 0.06821996, 1.00001, 0.001756192, 0.009211818, 1.560394E-05, 0.08877468, 0.06832408, 1.00001
 127020838, 0.00410061, -0.002216038, -1.020104E-05, 0.08878755, 0.06822474, 1.00001, -0.007382849, -0.002148192, 6.371415E-06, 0.0886884, 0.06821996, 1.00001
 127220758, 0.002298601, 0.00168311, 1.305716E-08, 0.08876546, 0.06826707, 1.00001, 0.00410061, -0.002216038, -1.020104E-05, 0.08878755, 0.06822474, 1.00001
 127420678, 0.007956163, 0.002543801, -6.340813E-06, 0.08881604, 0.06827689, 1.00001, 0.002298601, 0.00168311, 1.305716E-08, 0.08876546, 0.06826707, 1.00001
 127620598, -0.001696285, 0.002195989, 6.696043E-06, 0.08872791, 0.06827439, 1.00001, 0.007956163, 0.002543801, -6.340813E-06, 0.08881604, 0.06827689, 1.00001
 127820518, -4.109359E-05, -0.001450146, -2.767209E-06, 0.08874431, 0.06824227, 1.000009, -0.001696285, 0.002195989, 6.696043E-06, 0.08872791, 0.06827439, 1.00001
 128020438, 0.003028198, 0.0003836509, -3.55904E-06, 0.08877014, 0.06825989, 1.00001, -4.109359E-05, -0.001450146, -2.767209E-06, 0.08874431, 0.06824227, 1.000009
 128220358, -0.003722937, -0.001598158, 2.17367E-06, 0.08870827, 0.0682367, 1.00001, 0.003028198, 0.0003836509, -3.55904E-06, 0.08877014, 0.06825989, 1.00001
 128420278, -0.003178953, -0.0001523387, 4.220998E-06, 0.08871236, 0.06824555, 1.00001, -0.003722937, -0.001598158, 2.17367E-06, 0.08870827, 0.0682367, 1.00001
 128620198, -0.003943618, 0.003459503, 1.238713E-05, 0.08870725, 0.06827886, 1.00001, -0.003178953, -0.0001523387, 4.220998E-06, 0.08871236, 0.06824555, 1.00001
 128820951, 0.004303536, -0.002840494, -1.171115E-05, 0.08878727, 0.06821912, 1.00001, -0.003943618, 0.003459503, 1.238713E-05, 0.08870725, 0.06827886, 1.00001
 129020871, -0.003915256, 0.0009843291, 7.531234E-06, 0.08871336, 0.0682501, 1.00001, 0.004303536, -0.002840494, -1.171115E-05, 0.08878727, 0.06821912, 1.00001
 129220791, -0.0001032989, -0.002900277, -5.552351E-06, 0.08874791, 0.06821381, 1.00001, -0.003915256, 0.0009843291, 7.531234E-06, 0.08871336, 0.0682501, 1.00001
 129420711, 0.004951687, 0.002964888, -1.264649E-06, 0.08879858, 0.06826571, 1.00001, -0.0001032989, -0.002900277, -5.552351E-06, 0.08874791, 0.06821381, 1.00001
 129620631, 0.00936644, -0.002445346, -1.830694E-05, 0.08884657, 0.06820869, 1.00001, 0.004951687, 0.002964888, -1.264649E-06, 0.08879858, 0.06826571, 1.00001
 129820551, -0.00802692, -0.006053365, -4.245385E-07, 0.08868879, 0.06816924, 1.00001, 0.00936644, -0.002445346, -1.830694E-05, 0.08884657, 0.06820869, 1.00001
 130020471, -0.001051248, 0.004985405, 1.142965E-05, 0.08875141, 0.06826532, 1.000011, -0.00802692, -0.006053365, -4.245385E-07, 0.08868879, 0.06816924, 1.00001
 130220391, -0.003131341, -0.003892162, -3.239443E-06, 0.08873379, 0.06817738, 1.000011, -0.001051248, 0.004985405, 1.142965E-05, 0.08875141, 0.06826532, 1.000011
 130420311, 0.003183978, 0.002758226, 9.312671E-07, 0.08879106, 0.06822848, 1.000012, -0.003131341, -0.003892162, -3.239443E-06, 0.08873379, 0.06817738, 1.000011
 130620231, 0.0006866723, 0.008042118, 1.520589E-05, 0.08877216, 0.06826958, 1.000012, 0.003183978, 0.002758226, 9.312671E-07, 0.08879106, 0.06822848, 1.000012
 130820151, -0.006863427, 0.006469379, 2.293156E-05, 0.08870117, 0.06825583, 1.000012, 0.0006866723, 0.008042118, 1.520589E-05, 0.08877216, 0.06826958, 1.000012
 131020904, -0.006745486, 0.007556562, 2.483759E-05, 0.08869407, 0.0682721, 1.000013, -0.006863427, 0.006469379, 2.293156E-05, 0.08870117, 0.06825583, 1.000012
 131220824, 0.008788648, 0.001216607, -1.013385E-05, 0.08883201, 0.06821736, 1.000012, -0.006745486, 0.007556562, 2.483759E-05, 0.08869407, 0.0682721, 1.000013
 131420744, 0.004305651, -0.001857416, -9.824287E-06, 0.08878259, 0.0681969, 1.000013, 0.008788648, 0.001216607, -1.013385E-05, 0.08883201, 0.06821736, 1.000012
 131620664, -0.00562787, -0.001005924, 5.972549E-06, 0.08868469, 0.06821238, 1.000013, 0.004305651, -0.001857416, -9.824287E-06, 0.08878259, 0.0681969, 1.000013
 131820584, 0.003275017, 0.004162835, 3.606703E-06, 0.08876086, 0.06826708, 1.000013, -0.00562787, -0.001005924, 5.972549E-06, 0.08868469, 0.06821238, 1.000013
 132020504, -0.002175013, -0.000255356, 2.560957E-06, 0.08870891, 0.06823342, 1.000012, 0.003275017, 0.004162835, 3.606703E-06, 0.08876086, 0.06826708, 1.000013
 132220424, 0.001292515, -0.003453545, -8.593497E-06, 0.08874266, 0.06821174, 1.000012, -0.002175013, -0.000255356, 2.560957E-06, 0.08870891, 0.06823342, 1.000012
 132420344, -0.002430613, -0.001180796, 1.115139E-06, 0.08870757, 0.06823625, 1.000011, 0.001292515, -0.003453545, -8.593497E-06, 0.08874266, 0.06821174, 1.000012
 132620264, 0.004151404, 0.005321883, 4.563127E-06, 0.08876652, 0.06829837, 1.000011, -0.002430613, -0.001180796, 1.115139E-06, 0.08870757, 0.06823625, 1.000011
 132820184, -0.002497556, -0.009041642, -1.415716E-05, 0.08870495, 0.06816889, 1.000011, 0.004151404, 0.005321883, 4.563127E-06, 0.08876652, 0.06829837, 1.000011
 133020937, -0.009509983, -0.005019475, 3.578407E-06, 0.08864486, 0.06820153, 1.000011, -0.002497556, -0.009041642, -1.415716E-05, 0.08870495, 0.06816889, 1.000011
 133220857, -0.006196933, 0.0004548057, 9.640815E-06, 0.08867641, 0.06824593, 1.000012, -0.009509983, -0.005019475, 3.578407E-06, 0.08864486, 0.06820153, 1.000011
 133420777, -0.003087796, 0.005518693, 1.521334E-05, 0.08870483, 0.06828918, 1.000012, -0.006196933, 0.0004548057, 9.640815E-06, 0.08867641, 0.06824593, 1.000012
 133620697, -0.0007425562, 0.002552024, 6.080201E-06, 0.08872519, 0.06825603, 1.000012, -0.003087796, 0.005518693, 1.521334E-05, 0.08870483, 0.06828918, 1.000012
 133820617, -0.001583948, 0.0008046542, 3.823579E-06, 0.08871709, 0.06823846, 1.000012, -0.0007425562, 0.002552024, 6.080201E-06, 0.08872519, 0.06825603, 1.000012
 134020537, -0.007994848, 0.008288195, 2.765203E-05, 0.08866075, 0.0683077, 1.000013, -0.001583948, 0.0008046542, 3.823579E-06, 0.08871709, 0.06823846, 1.000012
 134220457, 0.0002167606, 6.697173E-06, -2.933825E-07, 0.08873618, 0.06822705, 1.000012, -0.007994848, 0.008288195, 2.765203E-05, 0.08866075, 0.0683077, 1.000013
 134420377, 0.001901041, -0.002657737, -7.958504E-06, 0.08875546, 0.06820066, 1.000012, 0.0002167606, 6.697173E-06, -2.933825E-07, 0.08873618, 0.06822705, 1.000012
 134620297, -0.002976588, 0.005101756, 1.43481E-05, 0.08871396, 0.06826984, 1.000012, 0.001901041, -0.002657737, -7.958504E-06, 0.08875546, 0.06820066, 1.000012
 134820217, 0.003150498, -0.004018543, -1.248514E-05, 0.08877296, 0.06817876, 1.000012, -0.002976588, 0.005101756, 1.43481E-05, 0.08871396, 0.06826984, 1.000012
 135020970, -0.003338322, -0.008424584, -1.210625E-05, 0.08871241, 0.06812949, 1.000013, 0.003150498, -0.004018543, -1.248514E-05, 0.08877296, 0.06817876, 1.000012
 135220890, 0.008017834, 0.0009358238, -9.532916E-06, 0.08881792, 0.0682058, 1.000014, -0.003338322, -0.008424584, -1.210625E-05, 0.08871241, 0.06812949, 1.000013
 135420810, 0.0003241064, -0.005741423, -1.206906E-05, 0.08874826, 0.06813283, 1.000014, 0.008017834, 0.0009358238, -9.532916E-06, 0.08881792, 0.0682058, 1.000014
 135620730, 0.0009285901, -0.007192786, -1.593417E-05, 0.0887586, 0.06811128, 1.000014, 0.0003241064, -0.005741423, -1.206906E-05, 0.08874826, 0.06813283, 1.000014
 135820650, -0.003689364, -0.001450081, 2.330574E-06, 0.08871282, 0.06816737, 1.000014, 0.0009285901, -0.007192786, -1.593417E-05, 0.0887586, 0.06811128, 1.000014
 136020570, 0.005355136, -0.0009604959, -9.550101E-06, 0.08879163, 0.06818157, 1.000014, -0.003689364, -0.001450081, 2.330574E-06, 0.08871282, 0.06816737, 1.000014
 136220490, 0.005438335, -0.004552358, -1.681999E-05, 0.0887856, 0.06815764, 1.000014, 0.005355136, -0.0009604959, -9.550101E-06, 0.08879163, 0.06818157, 1.000014
 136420410, 0.0007987748, -0.0006380436, -2.397501E-06, 0.08873057, 0.06819631, 1.000015, 0.005438335, -0.004552358, -1.681999E-05, 0.0887856, 0.06815764, 1.000014
 136620330, 0.005456785, -0.001134413, -9.876513E-06, 0.08876704, 0.06819599, 1.000015, 0.0007987748, -0.0006380436, -2.397501E-06, 0.08873057, 0.06819631, 1.000015
 136820250, 0.00529962, -0.001089118, -9.537231E-06, 0.08876121, 0.06820035, 1.000015, 0.005456785, -0.001134413, -9.876513E-06, 0.08876704, 0.06819599, 1.000015
 137020170, -0.006500848, 0.003136853, 1.524626E-05, 0.08864867, 0.06824156, 1.000016, 0.00529962, -0.001089118, -9.537231E-06, 0.08876121, 0.06820035, 1.000015
 137220923, 0.001787617, -0.002956136, -8.334415E-06, 0.08872045, 0.0681912, 1.000016, -0.006500848, 0.003136853, 1.524626E-05, 0.08864867, 0.06824156, 1.000016
 137420843, -0.008588395, 0.0009960545, 1.383566E-05, 0.08862706, 0.06823255, 1.000015, 0.001787617, -0.002956136, -8.334415E-06, 0.08872045, 0.0681912, 1.000016
 137620763, 0.007495086, 0.004526694, -1.403003E-06, 0.08877183, 0.06827052, 1.000015, -0.008588395, 0.0009960545, 1.383566E-05, 0.08862706, 0.06823255, 1.000015
 137820683, 0.005342996, -0.003580006, -1.441218E-05, 0.08875043, 0.06819972, 1.000015, 0.007495086, 0.004526694, -1.403003E-06, 0.08877183, 0.06827052, 1.000015
 138020603, -0.003095804, 0.007730995, 1.948681E-05, 0.08867249, 0.0683058, 1.000015, 0.005342996, -0.003580006, -1.441218E-05, 0.08875043, 0.06819972, 1.000015
 138220523, -0.005413729, -0.00144358, 4.629467E-06, 0.08865316, 0.06821947, 1.000015, -0.003095804, 0.007730995, 1.948681E-05, 0.08867249, 0.0683058, 1.000015
 138420443, 0.001459459, -0.004289578, -1.044894E-05, 0.08871473, 0.06819665, 1.000015, -0.005413729, -0.00144358, 4.629467E-06, 0.08865316, 0.06821947, 1.000015
 138620363, 0.0004952612, 0.004508452, 8.180793E-06, 0.08871356, 0.06827755, 1.000014, 0.001459459, -0.004289578, -1.044894E-05, 0.08871473, 0.06819665, 1.000015
 138820283, 0.002767936, 0.008005889, 1.188943E-05, 0.08874508, 0.06831016, 1.000013, 0.0004952612, 0.004508452, 8.180793E-06, 0.08871356, 0.06827755, 1.000014
 139020203, 0.004311647, 0.0004344934, -5.205592E-06, 0.08876731, 0.06823479, 1.000013, 0.002767936, 0.008005889, 1.188943E-05, 0.08874508, 0.06831016, 1.000013
 139220956, 0.0006289185, 0.00317336, 5.385416E-06, 0.08873828, 0.06825589, 1.000013, 0.004311647, 0.0004344934, -5.205592E-06, 0.08876731, 0.06823479, 1.000013
 139420876, -0.007831695, -0.006354643, -1.490007E-06, 0.08866709, 0.06816609, 1.000012, 0.0006289185, 0.00317336, 5.385416E-06, 0.08873828, 0.06825589, 1.000013
 139620796, 0.003271521, 0.002383948, 9.136375E-08, 0.08877056, 0.06823917, 1.000013, -0.007831695, -0.006354643, -1.490007E-06, 0.08866709, 0.06816609, 1.000012
 139820716, -0.004296897, -0.001026784, 4.06465E-06, 0.08870335, 0.06820183, 1.000013, 0.003271521, 0.002383948, 9.136375E-08, 0.08877056, 0.06823917, 1.000013
 140020636, -0.00129797, -0.001306858, -7.617732E-07, 0.08873536, 0.06819174, 1.000013, -0.004296897, -0.001026784, 4.06465E-06, 0.08870335, 0.06820183, 1.000013
 140220556, 1.625325E-05, 0.001605171, 3.20097E-06, 0.08875012, 0.06821083, 1.000013, -0.00129797, -0.001306858, -7.617732E-07, 0.08873536, 0.06819174, 1.000013
 140420476, 0.002227252, -0.001430135, -6.085343E-06, 0.08877716, 0.06817472, 1.000013, 1.625325E-05, 0.001605171, 3.20097E-06, 0.08875012, 0.06821083, 1.000013
 140620396, 0.007417934, -0.002348858, -1.545941E-05, 0.08883242, 0.06815878, 1.000013, 0.002227252, -0.001430135, -6.085343E-06, 0.08877716, 0.06817472, 1.000013
 140820316, -0.008214382, 0.007842174, 2.782902E-05, 0.08869346, 0.06824618, 1.000013, 0.007417934, -0.002348858, -1.545941E-05, 0.08883242, 0.06815878, 1.000013
 141020236, -0.001097217, 0.007957219, 1.774159E-05, 0.08875402, 0.06824962, 1.000013, -0.008214382, 0.007842174, 2.782902E-05, 0.08869346, 0.06824618, 1.000013
 141220156, 0.002200683, 0.002611243, 2.121932E-06, 0.08877432, 0.06820724, 1.000014, -0.001097217, 0.007957219, 1.774159E-05, 0.08875402, 0.06824962, 1.000013
 141420909, 0.0006008328, -0.0001142442, -1.084142E-06, 0.08874796, 0.06818809, 1.000014, 0.002200683, 0.002611243, 2.121932E-06, 0.08877432, 0.06820724, 1.000014
 141620829, -0.0002673811, -0.004109554, -7.870979E-06, 0.0887304, 0.06815796, 1.000015, 0.0006008328, -0.0001142442, -1.084142E-06, 0.08874796, 0.06818809, 1.000014
 141820749, 0.02282327, 8.232985E-05, -3.181794E-05, 0.08895005, 0.06820321, 1.000015, -0.0002673811, -0.004109554, -7.870979E-06, 0.0887304, 0.06815796, 1.000015
 142020669, 0.1210367, -0.009170545, -0.0002276593, 0.09065805, 0.0680259, 0.9999859, 0.02282327, 8.232985E-05, -3.181794E-05, 0.08895005, 0.06820321, 1.000015
 142220589, 0.2651722, -0.03750934, -0.0007323059, 0.09465317, 0.06744669, 0.999918, 0.1210367, -0.009170545, -0.0002276593, 0.09065805, 0.0680259, 0.9999859
 142420509, 0.4973274, -0.05180224, -0.001628803, 0.103508, 0.06653085, 0.9998437, 0.2651722, -0.03750934, -0.0007323059, 0.09465317, 0.06744669, 0.999918
 142620429, 0.7931867, -0.0865482, -0.002910039, 0.1200883, 0.06464895, 0.9997526, 0.4973274, -0.05180224, -0.001628803, 0.103508, 0.06653085, 0.9998437
 142820349, 1.210018, -0.1264642, -0.00513026, 0.1544732, 0.06087306, 0.9995522, 0.7931867, -0.0865482, -0.002910039, 0.1200883, 0.06464895, 0.9997526
 143020269, 1.725252, -0.1941652, -0.008308934, 0.2156754, 0.05403672, 0.9991871, 1.210018, -0.1264642, -0.00513026, 0.1544732, 0.06087306, 0.9995522
 143220189, 2.418812, -0.2675847, -0.01236475, 0.3319528, 0.0413614, 0.9985401, 1.725252, -0.1941652, -0.008308934, 0.2156754, 0.05403672, 0.9991871
 143420942, 3.311707, -0.3602225, 0.1464036, 0.5363696, 0.02067626, 0.9974567, 2.418812, -0.2675847, -0.01236475, 0.3319528, 0.0413614, 0.9985401
 143620862, 4.42426, -0.47892, 0.01457934, 0.8938096, -0.01729855, 0.99552, 3.311707, -0.3602225, 0.1464036, 0.5363696, 0.02067626, 0.9974567
 143820782, 6.373318, -0.7003441, 0.1686212, 1.818761, -0.1181341, 0.9025272, 4.42426, -0.47892, 0.01457934, 0.8938096, -0.01729855, 0.99552
 144020702, 5.263359, -0.611954, 1.437428, 1.072428, -0.02196553, 0.8822269, 6.373318, -0.7003441, 0.1686212, 1.818761, -0.1181341, 0.9025272
 144220622, 4.059539, -0.4777053, 3.045319, 0.5896797, 0.06100214, 0.9359599, 5.263359, -0.611954, 1.437428, 1.072428, -0.02196553, 0.8822269
 144420542, 3.741505, -0.4416295, 3.461407, 0.4956894, 0.1107144, 0.9572879, 4.059539, -0.4777053, 3.045319, 0.5896797, 0.06100214, 0.9359599
 144620462, 3.736945, -0.4121865, 3.45226, 0.4912313, 0.1528471, 0.9617842, 3.741505, -0.4416295, 3.461407, 0.4956894, 0.1107144, 0.9572879
 144820382, 3.815917, -0.4487289, 3.757153, 0.5193664, 0.1881122, 0.9547641, 3.736945, -0.4121865, 3.45226, 0.4912313, 0.1528471, 0.9617842
 145020302, 3.922591, -0.4420749, 3.907866, 0.7469378, 0.2103291, 2.432285, 3.815917, -0.4487289, 3.757153, 0.5193664, 0.1881122, 0.9547641
 145220222, 4.127243, -0.5057586, 4.577743, 0.8151821, 0.2487153, 2.41935, 3.922591, -0.4420749, 3.907866, 0.7469378, 0.2103291, 2.432285
 145420975, 4.224941, -0.4845679, 5.051423, 0.8725453, 0.2939066, 2.410016, 4.127243, -0.5057586, 4.577743, 0.8151821, 0.2487153, 2.41935
 145620895, 4.346158, -0.4916347, 5.218671, 0.9246728, 0.3462206, 2.405025, 4.224941, -0.4845679, 5.051423, 0.8725453, 0.2939066, 2.410016
 145820815, 4.355202, -0.4629235, 5.336113, 0.9756783, 0.4005231, 2.400352, 4.346158, -0.4916347, 5.218671, 0.9246728, 0.3462206, 2.405025
 146020735, 4.420826, -0.4391403, 5.34773, 1.040978, 0.460299, 2.389833, 4.355202, -0.4629235, 5.336113, 0.9756783, 0.4005231, 2.400352
 146220655, 4.530448, -0.5163581, 5.360259, 1.122101, 0.5160624, 2.373499, 4.420826, -0.4391403, 5.34773, 1.040978, 0.460299, 2.389833
 146420575, 4.674529, -0.438484, 5.754916, 1.224622, 0.5725987, 2.346026, 4.530448, -0.5163581, 5.360259, 1.122101, 0.5160624, 2.373499
 146620495, 4.943421, -0.5227045, 6.284646, 1.327414, 0.6297511, 2.319975, 4.674529, -0.438484, 5.754916, 1.224622, 0.5725987, 2.346026
 146820415, 4.854453, -0.5051118, 6.27999, 1.401643, 0.6933662, 2.30702, 4.943421, -0.5227045, 6.284646, 1.327414, 0.6297511, 2.319975
 147020335, 4.875553, -0.5539582, 6.4458, 1.472468, 0.751071, 2.299674, 4.854453, -0.5051118, 6.27999, 1.401643, 0.6933662, 2.30702
 147220255, 4.946543, -0.5084285, 6.07036, 1.552611, 0.8111126, 2.287145, 4.875553, -0.5539582, 6.4458, 1.472468, 0.751071, 2.299674
 147420175, 4.969294, -0.5366483, 6.19855, 1.622423, 0.879754, 2.277749, 4.946543, -0.5084285, 6.07036, 1.552611, 0.8111126, 2.287145
 147620928, 4.893838, -0.6949735, 6.422125, 1.69446, 0.9363961, 2.270171, 4.969294, -0.5366483, 6.19855, 1.622423, 0.879754, 2.277749
 147820848, 4.90975, -0.5527458, 6.129492, 1.761793, 0.9954574, 2.268727, 4.893838, -0.6949735, 6.422125, 1.69446, 0.9363961, 2.270171
 148020768, 4.783931, -0.5588713, 6.202998, 1.814146, 1.055568, 2.277189, 4.90975, -0.5527458, 6.129492, 1.761793, 0.9954574, 2.268727
 148220688, 4.805889, -0.7384921, 5.842486, 1.86263, 1.119999, 2.28795, 4.783931, -0.5588713, 6.202998, 1.814146, 1.055568, 2.277189
 148420608, 4.706389, -0.5671329, 5.796509, 1.921785, 1.181773, 2.28544, 4.805889, -0.7384921, 5.842486, 1.86263, 1.119999, 2.28795
 148620528, 4.705889, -0.5524502, 5.537579, 1.999937, 1.236953, 2.269646, 4.706389, -0.5671329, 5.796509, 1.921785, 1.181773, 2.28544
 148820448, 4.806656, -0.4924439, 5.719792, 2.083079, 1.291792, 2.249773, 4.705889, -0.5524502, 5.537579, 1.999937, 1.236953, 2.269646
 149020368, 4.880872, -0.5298183, 5.735621, 2.158531, 1.346999, 2.238722, 4.806656, -0.4924439, 5.719792, 2.083079, 1.291792, 2.249773
 149220288, 4.840424, -0.4463873, 5.8778, 2.225426, 1.410028, 2.231401, 4.880872, -0.5298183, 5.735621, 2.158531, 1.346999, 2.238722
 149420208, 4.692557, -0.653214, 5.8586, 2.277994, 1.474896, 2.235684, 4.840424, -0.4463873, 5.8778, 2.225426, 1.410028, 2.231401
 149620961, 4.400726, -0.5380011, 5.444677, 2.245521, 1.513391, 2.340893, 4.692557, -0.653214, 5.8586, 2.277994, 1.474896, 2.235684
 149820881, 4.016836, -0.484223, 4.296855, 2.165327, 1.502829, 2.500987, 4.400726, -0.5380011, 5.444677, 2.245521, 1.513391, 2.340893
 150020801, 3.988028, -0.6777825, 2.931285, 2.137198, 1.504272, 2.58296, 4.016836, -0.484223, 4.296855, 2.165327, 1.502829, 2.500987
 150220721, 3.799937, -0.7021847, 2.301665, 2.148429, 1.535671, 2.594958, 3.988028, -0.6777825, 2.931285, 2.137198, 1.504272, 2.58296
 150420641, 3.723331, -0.5395901, 1.909188, 2.175521, 1.575637, 2.580891, 3.799937, -0.7021847, 2.301665, 2.148429, 1.535671, 2.594958
 150620561, 4.045568, -0.5787575, 1.881873, 2.178863, 1.621939, 2.581644, 3.723331, -0.5395901, 1.909188, 2.175521, 1.575637, 2.580891
 150820481, 3.778888, -0.5442705, 1.299061, 2.156216, 1.657243, 2.599426, 4.045568, -0.5787575, 1.881873, 2.178863, 1.621939, 2.581644
 151020401, 4.008676, -0.4511409, 1.186446, 2.13428, 1.676624, 2.62698, 3.778888, -0.5442705, 1.299061, 2.156216, 1.657243, 2.599426
 151220321, 4.181727, -0.3477072, 0.757743, 2.122364, 1.694456, 2.640208, 4.008676, -0.4511409, 1.186446, 2.13428, 1.676624, 2.62698
 151420241, 3.934883, -0.3901043, 0.8154594, 2.153536, 1.699178, 2.618581, 4.181727, -0.3477072, 0.757743, 2.122364, 1.694456, 2.640208
 151620161, 3.762665, -0.4146426, 0.7190655, 2.200815, 1.705983, 2.583042, 3.934883, -0.3901043, 0.8154594, 2.153536, 1.699178, 2.618581
 151820914, 3.763393, -0.4778926, 0.9900615, 2.195683, 1.722596, 2.592867, 3.762665, -0.4146426, 0.7190655, 2.200815, 1.705983, 2.583042
 152020834, 3.422706, -0.3722745, 0.9419402, 2.130769, 1.747918, 2.643179, 3.763393, -0.4778926, 0.9900615, 2.195683, 1.722596, 2.592867
 152220754, 3.64712, -0.181269, 0.3694433, 2.067377, 1.766637, 2.690228, 3.422706, -0.3722745, 0.9419402, 2.130769, 1.747918, 2.643179
 152420674, 3.452584, -0.3151021, -0.3469919, 2.019539, 1.776789, 2.714793, 3.64712, -0.181269, 0.3694433, 2.067377, 1.766637, 2.690228
 152620594, 3.499273, -0.3184673, -0.4332826, 1.981246, 1.781205, 2.730572, 3.452584, -0.3151021, -0.3469919, 2.019539, 1.776789, 2.714793
 152820514, 3.561468, -0.1647543, -0.8996123, 1.955658, 1.778471, 2.735304, 3.499273, -0.3184673, -0.4332826, 1.981246, 1.781205, 2.730572
 153020434, 3.824396, -0.1824224, -0.7876721, 1.938625, 1.769435, 2.737048, 3.561468, -0.1647543, -0.8996123, 1.955658, 1.778471, 2.735304
 153220354, 3.650832, -0.3257588, -1.172926, 1.909694, 1.760955, 2.740462, 3.824396, -0.1824224, -0.7876721, 1.938625, 1.769435, 2.737048
 153420274, 3.771687, -0.2239651, -0.9258159, 1.872995, 1.75065, 2.752494, 3.650832, -0.3257588, -1.172926, 1.909694, 1.760955, 2.740462
 153620194, 3.64515, -0.456979, -1.446246, 1.833989, 1.74037, 2.75958, 3.771687, -0.2239651, -0.9258159, 1.872995, 1.75065, 2.752494
