TimeUS,CAN,CAE,CAD,CAe
 76960870, 0, 0, 0, 0
 77040838, -1.343579, 1.457462, 0.001491825, 0.1998691
 77140798, -0.002697164, 0.003664591, -7.134443E-05, 0.0002593962
 77240758, -0.002830149, 0.003574582, -8.776967E-05, 0.0002593962
 77340718, -0.002821821, 0.003375156, -0.0001061873, 0.0002593962
 77440678, -0.00269364, 0.003565838, 4.556739E-06, 0.0002593962
 77540638, -0.002606566, 0.00354299, -0.0001083322, 0.0002593962
 77640598, -0.002719543, 0.00357668, 1.221168E-05, 0.0002593962
 77740558, -0.002818432, 0.003486724, 0.0001163208, 0.0002593962
 77840518, -0.002854559, 0.003447504, 8.865618E-07, 0.0002593962
 77940478, -0.002680564, 0.003477407, 8.798896E-06, 0.0002593962
 78040438, -0.00274408, 0.003413065, -4.125851E-05, 0.0002593962
 78140398, -0.00276163, 0.003519842, -4.029569E-05, 0.0002593962
 78240358, -0.002625917, 0.003474968, -5.796974E-05, 0.0002593962
 78340318, -0.002766491, 0.003482481, 6.077242E-05, 0.0002593962
 78440278, -0.002754026, 0.003410893, -0.0001130701, 0.0002593962
 78540238, -0.002705157, 0.003573823, -0.0001256154, 0.0002593962
 78640198, -0.002624786, 0.003511053, 0.000169505, 0.0002593962
 78740158, -0.002806347, 0.003489517, 2.081038E-05, 0.0002593962
 78840951, -0.002816969, 0.003466605, -0.0001141346, 0.0002615578
 78940911, -0.002709381, 0.003641335, 5.219279E-05, 0.0002593962
 79040871, -0.002722546, 0.003509125, -0.0001168165, 0.0002593962
 79140831, -0.002666115, 0.003644911, 5.602502E-05, 0.0002593962
 79240791, -0.002982699, 0.003565056, -3.799825E-05, 0.0002593962
 79340751, -0.002700954, 0.003489343, -9.257426E-05, 0.0002593962
 79440711, -0.002724141, 0.003467335, 1.287899E-05, 0.0002593962
 79540671, -0.002861178, 0.003495306, -4.270751E-06, 0.0002593962
 79640631, -0.002702818, 0.00355517, 1.792191E-05, 0.0002593962
 79740591, -0.002826041, 0.003494376, -3.071509E-05, 0.0002593962
 79840551, -0.002861883, 0.003609278, 1.405153E-05, 0.0002593962
 79940511, -0.00273421, 0.003333326, -6.902794E-05, 0.0002593962
 80040471, -0.002762397, 0.003585999, 0.0001536899, 0.0002593962
 80140431, -0.002881712, 0.003464882, -5.141108E-05, 0.0002593962
 80240391, -0.002599389, 0.003558963, 5.138249E-06, 0.0002593962
 80340351, -0.002665665, 0.003491218, 0.0001228699, 0.0002593962
 80440311, -0.002679508, 0.003465328, -2.147769E-05, 0.0002593962
 80540271, -0.002735531, 0.003494167, -6.624432E-05, 0.0002593962
 80640231, -0.002759679, 0.003443137, 0.0001062159, 0.0002593962
 80740191, -0.002617201, 0.003449642, -0.0001619644, 0.0002593962
 80840151, -0.002679118, 0.003469892, 0.0001007345, 0.0002593962
 80940944, -0.002668734, 0.003504287, -8.037649E-05, 0.0002615578
 81040904, -0.002870371, 0.003653708, -3.224036E-05, 0.0002593962
 81140864, -0.002719084, 0.003609382, -1.853201E-05, 0.0002593962
 81240824, -0.002715362, 0.003466086, -3.727375E-05, 0.0002593962
 81340784, -0.002732155, 0.003565765, 1.545287E-05, 0.0002593962
 81440744, -0.002667024, 0.003472849, -0.0001331464, 0.0002593962
 81540704, -0.002679914, 0.003450844, -2.170648E-05, 0.0002593962
 81640664, -0.002747113, 0.003510628, 2.104871E-05, 0.0002593962
 81740624, -0.002748954, 0.003513343, 1.276459E-05, 0.0002593962
 81840584, -0.002683982, 0.003392512, -9.053422E-05, 0.0002593962
 81940544, -0.002746758, 0.00338004, -9.936171E-05, 0.0002593962
 82040504, -0.002746612, 0.003405058, 3.282187E-05, 0.0002593962
 82140464, -0.002872419, 0.003449998, -1.495717E-05, 0.0002593962
 82240424, -0.00280737, 0.003422185, -5.835106E-05, 0.0002593962
 82340384, -0.002762907, 0.00331436, 2.511927E-05, 0.0002593962
 82440344, -0.00277374, 0.003484992, 1.65587E-05, 0.0002593962
 82540304, -0.002690912, 0.003614643, 4.935197E-05, 0.0002593962
 82640264, -0.002733187, 0.003551957, -0.0001222407, 0.0002593962
 82740224, -0.00256884, 0.003433024, -4.88372E-05, 0.0002593962
 82840184, -0.003043906, 0.003479921, -3.200204E-05, 0.0002593962
 82940977, -0.002789725, 0.003510931, 4.955216E-05, 0.0002593962
 83040937, -0.002805969, 0.003654754, 7.67782E-05, 0.0002615578
 83140897, -0.002806995, 0.003544485, 5.673999E-05, 0.0002593962
 83240857, -0.002722296, 0.003584607, 0.0001428795, 0.0002593962
 83340817, -0.002858615, 0.003501331, -4.963795E-05, 0.0002593962
 83440777, -0.002797933, 0.003514735, 7.566286E-05, 0.0002593962
 83540737, -0.002567719, 0.003444667, 1.63013E-06, 0.0002593962
 83640697, -0.002726834, 0.003366234, 9.914229E-07, 0.0002593962
 83740657, -0.002683992, 0.00345025, 4.80555E-05, 0.0002593962
 83840617, -0.002710274, 0.003430948, 6.918046E-05, 0.0002593962
 83940577, -0.00289077, 0.003453146, 7.012422E-05, 0.0002593962
 84040537, -0.002757327, 0.003520758, -0.0001095715, 0.0002593962
 84140497, -0.002826751, 0.003508548, 2.182087E-05, 0.0002593962
 84240457, -0.002734336, 0.003509373, 1.64443E-05, 0.0002593962
 84340417, -0.002848404, 0.003554391, 0.0001265115, 0.0002593962
 84440377, -0.00276501, 0.003567949, 8.369911E-06, 0.0002593962
 84540337, -0.002736012, 0.003490626, -0.0001051482, 0.0002593962
 84640297, -0.002785106, 0.003514981, -9.267913E-05, 0.0002593962
 84740257, -0.002786026, 0.003584217, -5.033386E-05, 0.0002593962
 84840217, -0.002859541, 0.003435149, -0.0001111349, 0.0002593962
 84940177, -0.00280501, 0.003540232, -7.29269E-06, 0.0002593962
 85040970, -0.002794765, 0.003487807, -6.308893E-05, 0.0002593962
 85140930, -0.002924739, 0.003476926, -0.0001178357, 0.0002615578
 85240890, -0.002821995, 0.00346308, 5.639681E-05, 0.0002593962
 85340850, -0.002835573, 0.003443431, -7.612996E-05, 0.0002593962
 85440810, -0.002832678, 0.003502903, 2.394672E-05, 0.0002593962
 85540770, -0.002673084, 0.003495049, -8.610141E-05, 0.0002593962
 85640730, -0.002767918, 0.003506253, 3.337478E-05, 0.0002593962
 85740690, -0.002794547, 0.003513534, 1.345096E-05, 0.0002593962
 85840650, -0.002760086, 0.003349104, 0.0001752629, 0.0002593962
 85940610, -0.002695334, 0.003557273, 1.063875E-05, 0.0002593962
 86040570, -0.002783394, 0.003575871, 0.0001359396, 0.0002593962
 86140530, -0.00268147, 0.003438075, -0.0001047859, 0.0002593962
 86240490, -0.002829182, 0.003523543, -1.062922E-05, 0.0002593962
 86340450, -0.00279429, 0.003301186, -0.0001876843, 0.0002593962
 86440410, -0.002818422, 0.003443828, -6.685443E-05, 0.0002593962
 86540370, -0.002756523, 0.003566905, -4.604405E-05, 0.0002593962
 86640330, -0.002865823, 0.00337809, -1.265973E-05, 0.0002593962
 86740290, -0.002802084, 0.003462254, -7.812235E-05, 0.0002593962
 86840250, -0.002800843, 0.003389927, -0.0001165401, 0.0002593962
 86940210, -0.002687871, 0.003480623, -5.533865E-05, 0.0002593962
 87040170, -0.002665329, 0.003453034, -0.0001361207, 0.0002593962
 87140963, -0.002794713, 0.003503575, -6.935603E-06, 0.0002615578
 87240923, -0.002760124, 0.003542081, 5.172567E-05, 0.0002593962
 87340883, -0.002782505, 0.00352605, -0.0001589997, 0.0002593962
 87440843, -0.002671498, 0.003505507, 9.618725E-05, 0.0002593962
 87540803, -0.002732314, 0.003714229, -1.692095E-05, 0.0002593962
 87640763, -0.00270152, 0.00341361, -1.477605E-06, 0.0002593962
 87740723, -0.002680398, 0.003374684, -3.934239E-05, 0.0002593962
 87840683, -0.002652649, 0.003660924, -9.311765E-05, 0.0002593962
 87940643, -0.002711975, 0.003337226, 0.0001308394, 0.0002593962
 88040603, -0.00279124, 0.003278917, -2.945675E-06, 0.0002593962
 88140563, -0.002771896, 0.003407575, 0.0001094952, 0.0002593962
 88240523, -0.002733357, 0.00350372, -8.276488E-05, 0.0002593962
 88340483, -0.002856457, 0.003448588, -4.114411E-05, 0.0002593962
 88440443, -0.00293535, 0.003578383, -8.739789E-05, 0.0002593962
 88540403, -0.002793694, 0.003520166, 4.718799E-05, 0.0002593962
 88640363, -0.002873531, 0.003526098, -0.0001305535, 0.0002593962
 88740323, -0.002797649, 0.003531056, 3.566268E-05, 0.0002593962
 88840283, -0.002890879, 0.003518738, -6.002884E-05, 0.0002593962
 88940243, -0.002805992, 0.003519018, 0.0001143475, 0.0002593962
 89040203, -0.002912902, 0.003560338, -2.816027E-05, 0.0002593962
 89140163, -0.002676568, 0.003538798, -0.0001182178, 0.0002593962
 89240956, -0.00276496, 0.003563325, -6.558972E-05, 0.0002615578
 89340916, -0.002801511, 0.003596604, 6.500504E-05, 0.0002593962
 89440876, -0.002825309, 0.003546074, -0.0001055486, 0.0002593962
 89540836, -0.002838505, 0.003534376, 0.0001257775, 0.0002593962
 89640796, -0.002616418, 0.003530734, -4.330809E-05, 0.0002593962
 89740756, -0.002888859, 0.003431968, -6.262181E-05, 0.0002593962
 89840716, -0.002664041, 0.003506893, -6.439493E-05, 0.0002593962
 89940676, -0.002688712, 0.003495591, -0.000113194, 0.0002593962
 90040636, -0.002689976, 0.00348254, -1.071501E-05, 0.0002593962
 90140596, -0.002701384, 0.003464937, 5.921855E-05, 0.0002593962
 90240556, -0.002812846, 0.003454156, -0.000128399, 0.0002593962
 90340516, -0.002787031, 0.003406801, 5.717851E-05, 0.0002593962
 90440476, -0.002678956, 0.003557992, -3.542436E-05, 0.0002593962
 90540436, -0.002689278, 0.003561114, -1.686375E-05, 0.0002593962
 90640396, -0.002746953, 0.003482459, 6.244067E-06, 0.0002593962
 90740356, -0.002676091, 0.003479086, 1.031463E-05, 0.0002593962
 90840316, -0.00269058, 0.003429502, -6.216422E-05, 0.0002593962
 90940276, -0.002605909, 0.003586333, 6.776005E-05, 0.0002593962
 91040236, -0.002713806, 0.003469651, 5.243105E-07, 0.0002593962
 91140196, -0.002759087, 0.003488529, 7.536734E-05, 0.0002593962
 91240156, -0.002653868, 0.003579747, -6.491925E-06, 0.0002593962
 91340949, -0.002748813, 0.003559115, 7.418088E-05, 0.0002615578
 91440909, -0.002712779, 0.003618942, 1.234514E-05, 0.0002593962
 91540869, -0.002896537, 0.003600004, -9.817009E-05, 0.0002593962
 91640829, -0.002741991, 0.003300783, -8.058183E-05, 0.0002593962
 91740789, -0.002799812, 0.003487397, -0.0002270648, 0.0002593962
 91840749, -0.002676843, 0.003414033, -0.0001459396, 0.0002593962
 91940709, -0.00273337, 0.003387493, 5.879911E-05, 0.0002593962
 92040669, -0.002812715, 0.003551278, 6.612992E-05, 0.0002593962
 92140629, -0.002802343, 0.003454631, -7.562472E-05, 0.0002593962
 92240589, -0.002692692, 0.003502836, 0.0001164066, 0.0002593962
 92340549, -0.002686189, 0.003376539, -1.42136E-05, 0.0002593962
 92440509, -0.002786863, 0.003364126, 1.106773E-05, 0.0002593962
 92540469, -0.002671196, 0.003446738, 7.132537E-05, 0.0002593962
 92640429, -0.002794654, 0.003476869, 0.000193957, 0.0002593962
 92740389, -0.002793303, 0.003422405, -2.808401E-05, 0.0002593962
 92840349, -0.002722848, 0.003434878, 2.248818E-05, 0.0002593962
 92940309, -0.002766493, 0.003426798, 2.732137E-05, 0.0002593962
 93040269, -0.002621234, 0.003563586, -9.019104E-05, 0.0002593962
 93140229, -0.002773293, 0.003517763, -2.292669E-05, 0.0002593962
 93240189, -0.00270571, 0.003451036, -7.014329E-05, 0.0002593962
 93340149, -0.002850545, 0.003479674, -2.348914E-05, 0.0002593962
 93440942, -0.002715211, 0.00343986, -7.85283E-05, 0.0002615578
 93540902, -0.002763737, 0.003407279, 6.310799E-05, 0.0002593962
 93640862, -0.002778389, 0.003552384, -3.807452E-05, 0.0002593962
 93740822, -0.002766383, 0.003478308, -3.749301E-05, 0.0002593962
 93840782, -0.002762266, 0.003518701, -0.0001406679, 0.0002593962
 93940742, -0.002815804, 0.003502323, 0.0001753963, 0.0002593962
 94040702, -0.002821812, 0.003544395, -2.416597E-05, 0.0002593962
 94140662, -0.002589273, 0.003539802, 1.026696E-05, 0.0002593962
 94240622, -0.002724315, 0.003453502, -0.0001039375, 0.0002593962
 94340582, -0.002646083, 0.003434784, -7.723579E-05, 0.0002593962
 94440542, -0.002752515, 0.003608073, 1.58342E-05, 0.0002593962
 94540502, -0.002736248, 0.003602233, 3.746442E-06, 0.0002593962
 94640462, -0.002967803, 0.003457372, -3.708309E-05, 0.0002593962
 94740422, -0.002927112, 0.003391538, -0.0001228699, 0.0002593962
 94840382, -0.002888888, 0.003402846, -8.119195E-05, 0.0002593962
 94940342, -0.00272589, 0.003408161, -8.526251E-05, 0.0002593962
 95040302, -0.002693424, 0.003540392, 7.77029E-05, 0.0002593962
 95140262, -0.002726595, 0.003386543, -1.118212E-05, 0.0002593962
 95240222, -0.002876614, 0.003491654, 1.627271E-05, 0.0002593962
 95340182, -0.002718489, 0.003492927, -4.458551E-05, 0.0002593962
 95440975, -0.002834144, 0.003485581, -1.798863E-05, 0.0002593962
 95540935, -0.002888591, 0.003516491, -8.297611E-07, 0.0002615578
 95640895, -0.002702091, 0.003706446, 5.224045E-06, 0.0002593962
 95740855, -0.002714165, 0.003497652, 2.011447E-06, 0.0002593962
 95840815, -0.002736339, 0.00341548, -8.598702E-05, 0.0002593962
 95940775, -0.002773891, 0.003453403, 0.0001066067, 0.0002593962
 96040735, -0.002849472, 0.003638063, -9.368962E-05, 0.0002593962
 96140695, -0.002773697, 0.003405542, 4.957123E-05, 0.0002593962
 96240655, -0.0028004, 0.003180412, 4.022895E-06, 0.0002593962
 96340615, -0.002767369, 0.003334445, -8.660665E-05, 0.0002593962
 96440575, -0.00265493, 0.003367137, -1.928512E-05, 0.0002593962
 96540535, -0.002745661, 0.003509291, 0.0002403823, 0.0002593962
 96640495, -0.002686557, 0.003419574, 2.836046E-05, 0.0002593962
 96740455, -0.002699701, 0.003372363, 8.382305E-05, 0.0002593962
 96840415, -0.002871113, 0.003412477, 7.152556E-05, 0.0002593962
 96940375, -0.002811913, 0.00343099, -1.996195E-05, 0.0002593962
 97040335, -0.002795719, 0.003638698, 5.488106E-05, 0.0002593962
 97140295, -0.002701138, 0.003410866, 1.671122E-05, 0.0002593962
 97240255, -0.002771983, 0.003458599, -1.95997E-05, 0.0002593962
 97340215, -0.002661073, 0.003314626, -1.691141E-05, 0.0002593962
 97440175, -0.002820929, 0.003540505, 2.918029E-05, 0.0002593962
 97540968, -0.002712104, 0.003567815, 1.90885E-05, 0.0002615578
 97640928, -0.002767002, 0.003315517, -4.193535E-05, 0.0002593962
 97740888, -0.002817767, 0.003528772, -3.77218E-05, 0.0002593962
 97840848, -0.002649165, 0.003574674, 1.88752E-06, 0.0002593962
 97940808, -0.002757634, 0.003491668, -9.874208E-05, 0.0002593962
 98040768, -0.00255332, 0.003644495, -3.704496E-05, 0.0002593962
 98140728, -0.002725615, 0.003438361, -3.38419E-06, 0.0002593962
 98240688, -0.002722913, 0.00338327, 7.890405E-05, 0.0002593962
 98340648, -0.002720769, 0.00349253, -8.813192E-05, 0.0002593962
 98440608, -0.00287366, 0.003442215, 8.133495E-05, 0.0002593962
 98540568, -0.002801276, 0.003450467, 3.817938E-05, 0.0002593962
 98640528, -0.002792809, 0.00335274, 3.241203E-07, 0.0002593962
 98740488, -0.002914452, 0.003425756, -0.0001312494, 0.0002593962
 98840448, -0.002646199, 0.003651628, -0.0001152531, 0.0002593962
 98940408, -0.002813062, 0.003432295, -1.322217E-05, 0.0002593962
 99040368, -0.002754364, 0.003487622, 0.000104357, 0.0002593962
 99140328, -0.002719382, 0.003481111, 6.491922E-06, 0.0002593962
 99240288, -0.002668594, 0.003540309, -1.360349E-05, 0.0002593962
 99340248, -0.002638195, 0.003598743, -2.125842E-06, 0.0002593962
 99440208, -0.002759417, 0.003629552, 0.0001460349, 0.0002593962
 99540168, -0.002811221, 0.003548336, 2.265024E-05, 0.0002593962
 99640961, -0.002834925, 0.003519846, -5.900089E-05, 0.0002615578
 99740921, -0.002841944, 0.003586662, -7.389926E-05, 0.0002593962
 99840881, -0.002803894, 0.003595136, -7.064853E-05, 0.0002593962
 99940841, -0.002781576, 0.003504438, 7.898032E-05, 0.0002593962
 100040801, -0.002789284, 0.003645435, 1.515736E-05, 0.0002593962
 100140761, -0.002616409, 0.00343332, 8.990505E-05, 0.0002593962
 100240721, -0.002782446, 0.003500971, 6.726434E-05, 0.0002593962
 100340681, -0.002876415, 0.003593723, -7.939976E-05, 0.0002593962
 100440641, -0.002508629, 0.003480047, -8.350849E-06, 0.0002593962
 100540601, -0.002618432, 0.003650428, 3.275514E-05, 0.0002593962
 100640561, -0.002689712, 0.003497012, 6.13444E-05, 0.0002593962
 100740521, -0.00273271, 0.003388564, 6.14016E-05, 0.0002593962
 100840481, -0.002743817, 0.003533887, 0.0001405916, 0.0002593962
 100940441, -0.002743464, 0.003534206, 1.775031E-05, 0.0002593962
 101040401, -0.002641236, 0.003524763, -8.230731E-05, 0.0002593962
 101140361, -0.002661496, 0.003484505, -0.0002055681, 0.0002593962
 101240321, -0.002745507, 0.00350047, 0.0001017068, 0.0002593962
 101340281, -0.002737498, 0.003527042, 3.689243E-06, 0.0002593962
 101440241, -0.002769951, 0.003478535, -0.00015287, 0.0002593962
 101540201, -0.002809616, 0.003388153, 5.045779E-05, 0.0002593962
 101640161, -0.002701824, 0.003414634, -0.0001127555, 0.0002593962
 101740954, -0.002626666, 0.003520077, -3.445757E-05, 0.0002615578
 101840914, -0.002824569, 0.003374378, -3.21927E-05, 0.0002593962
 101940874, -0.002869701, 0.00347849, -2.787428E-05, 0.0002593962
 102040834, -0.002714741, 0.003497331, 0.0001402866, 0.0002593962
 102140794, -0.002685723, 0.003557871, 3.926613E-05, 0.0002593962
 102240754, -0.00275086, 0.003491511, 6.67305E-06, 0.0002593962
 102340714, -0.002616684, 0.003459223, 7.37944E-05, 0.0002593962
 102440674, -0.002640822, 0.003507084, -2.91803E-05, 0.0002593962
 102540634, -0.002648211, 0.00353645, 9.021963E-05, 0.0002593962
 102640594, -0.002805955, 0.003363904, 0.0001844145, 0.0002593962
 102740554, -0.002732972, 0.003448778, 7.008609E-05, 0.0002593962
 102840514, -0.002676018, 0.003390212, -0.0002034232, 0.0002593962
 102940474, -0.002825432, 0.003586383, -6.324144E-05, 0.0002593962
 103040434, -0.002661968, 0.003387249, 8.051511E-05, 0.0002593962
 103140394, -0.002688703, 0.003512505, 0.0002591622, 0.0002593962
 103240354, -0.002809215, 0.003476066, -4.289818E-05, 0.0002593962
 103340314, -0.002792922, 0.003494428, 0.0001612209, 0.0002593962
 103440274, -0.002803785, 0.003345024, -0.0001282084, 0.0002593962
 103540234, -0.002738733, 0.003459365, -1.593905E-05, 0.0002593962
 103640194, -0.002597176, 0.003438363, -6.291733E-05, 0.0002593962
 103740154, -0.002703593, 0.003464159, -0.0001188947, 0.0002593962
 103840947, -0.002645813, 0.003641309, -4.033581E-05, 0.0002615578
 103940907, -0.002699597, 0.003535205, 0.0001026887, 0.0002593962
 104040867, -0.002785577, 0.003397863, 9.615865E-05, 0.0002593962
 104140827, -0.002822174, 0.003517857, 3.585334E-05, 0.0002593962
 104240787, -0.002605107, 0.003401247, -7.181155E-05, 0.0002593962
 104340747, -0.002693599, 0.003611106, -3.131567E-05, 0.0002593962
 104440707, -0.002839038, 0.003530432, 5.240251E-05, 0.0002593962
 104540667, -0.002672416, 0.00349721, -3.224036E-05, 0.0002593962
 104640627, -0.002627925, 0.003378501, -4.510982E-05, 0.0002593962
 104740587, -0.002849457, 0.003512888, -5.722617E-05, 0.0002593962
 104840547, -0.002681454, 0.003490876, -9.435692E-05, 0.0002593962
 104940507, -0.002750172, 0.003516083, -3.622514E-06, 0.0002593962
 105040467, -0.00282622, 0.003574839, -4.540534E-05, 0.0002593962
 105140427, -0.002770218, 0.003526292, -6.76838E-06, 0.0002593962
 105240387, -0.002716726, 0.003579057, 8.240264E-05, 0.0002593962
 105340347, -0.002862095, 0.003501417, -8.143028E-05, 0.0002593962
 105440307, -0.002798214, 0.003377682, 6.332724E-05, 0.0002593962
 105540267, -0.002647154, 0.003392573, -3.681617E-05, 0.0002593962
 105640227, -0.002704597, 0.003478753, -8.751229E-05, 0.0002593962
 105740187, -0.002739532, 0.003328045, -4.30221E-05, 0.0002593962
 105840147, -0.002767594, 0.003530892, 2.643481E-05, 0.0002593962
 105940940, -0.002624079, 0.003349301, 8.142312E-05, 0.0002615578
 106040900, -0.002780043, 0.00344356, -8.61872E-05, 0.0002593962
 106140860, -0.002697847, 0.00344081, -8.536738E-05, 0.0002593962
 106240820, -0.002656533, 0.003385808, 3.984764E-06, 0.0002593962
 106340780, -0.002661095, 0.003528141, -9.242174E-05, 0.0002593962
 106440740, -0.002822876, 0.003530618, -3.662551E-05, 0.0002593962
 106540700, -0.002786682, 0.003500932, 0.0001025648, 0.0002593962
 106640660, -0.002796806, 0.003413284, 2.042907E-05, 0.0002593962
 106740620, -0.002724649, 0.003412602, 0.0001099814, 0.0002593962
 106840580, -0.002781202, 0.003532903, 2.087712E-06, 0.0002593962
 106940540, -0.002836518, 0.003371349, -0.0001250148, 0.0002593962
 107040500, -0.002718675, 0.003394394, -0.0001820885, 0.0002593962
 107140460, -0.002745749, 0.003530759, 6.89898E-05, 0.0002593962
 107240420, -0.002738086, 0.003505921, -0.0001260921, 0.0002593962
 107340380, -0.002692769, 0.003436549, 0.0001139185, 0.0002593962
 107440340, -0.0027679, 0.003387747, -0.0001339186, 0.0002593962
 107540300, -0.002581404, 0.003428098, -6.777912E-06, 0.0002593962
 107640260, -0.002565937, 0.003508245, 2.634902E-05, 0.0002593962
 107740220, -0.002612188, 0.003601367, 2.538619E-05, 0.0002593962
 107840180, -0.002739319, 0.003385479, -7.723579E-05, 0.0002593962
 107940973, -0.00252286, 0.003464985, 5.678766E-05, 0.0002593962
 108040933, -0.002780611, 0.003497517, 0.0001259971, 0.0002615578
 108140893, -0.00251872, 0.003349028, -2.440429E-06, 0.0002593962
 108240853, -0.002606862, 0.003436499, -2.148722E-05, 0.0002593962
 108340813, -0.002738815, 0.003515729, -8.718816E-05, 0.0002593962
 108440773, -0.002812231, 0.00356752, 9.833215E-05, 0.0002593962
 108540733, -0.002743488, 0.003422323, -5.10965E-05, 0.0002593962
 108640693, -0.00267998, 0.003375809, -2.24977E-06, 0.0002593962
 108740653, -0.002669629, 0.003387244, 0.0001386088, 0.0002593962
 108840613, -0.002786906, 0.00352656, 2.75883E-05, 0.0002593962
 108940573, -0.002702234, 0.003455849, -8.282208E-05, 0.0002593962
 109040533, -0.00282748, 0.003445268, -9.389934E-06, 0.0002593962
 109140493, -0.002768072, 0.003392017, 1.906574E-07, 0.0002593962
 109240453, -0.002751737, 0.003490518, 0.0001116115, 0.0002593962
 109340413, -0.002887603, 0.003397703, -5.363226E-05, 0.0002593962
 109440373, -0.002842617, 0.003480187, -4.766464E-06, 0.0002593962
 109540333, -0.002798493, 0.003371245, 4.954263E-05, 0.0002593962
 109640293, -0.002735577, 0.003475849, 1.361302E-05, 0.0002593962
 109740253, -0.002694133, 0.003523961, -7.733112E-05, 0.0002593962
 109840213, -0.0027547, 0.003505796, -2.081991E-05, 0.0002593962
 109940173, -0.002699708, 0.003436319, 7.70356E-05, 0.0002593962
 110040966, -0.002715847, 0.003509166, -0.0001041695, 0.0002615578
 110140926, -0.002718373, 0.003389592, -8.007646E-07, 0.0002593962
 110240886, -0.002559579, 0.003560406, 8.401371E-05, 0.0002593962
 110340846, -0.002748092, 0.003475413, -0.0001530893, 0.0002593962
 110440806, -0.002907048, 0.003637591, -3.241195E-06, 0.0002593962
 110540766, -0.002815094, 0.003445753, 4.108692E-05, 0.0002593962
 110640726, -0.002667286, 0.003568553, 9.669249E-05, 0.0002593962
 110740686, -0.002704622, 0.00360517, -0.0001629177, 0.0002593962
 110840646, -0.002815599, 0.003518129, 1.938044E-05, 0.0002593962
 110940606, -0.002545733, 0.003601334, -4.320323E-05, 0.0002593962
 111040566, -0.002771758, 0.003560889, 3.347965E-05, 0.0002593962
 111140526, -0.002830058, 0.003404338, 1.168737E-05, 0.0002593962
 111240486, -0.002691622, 0.003552661, 2.074365E-05, 0.0002593962
 111340446, -0.002841889, 0.003533441, 7.588211E-05, 0.0002593962
 111440406, -0.002754063, 0.003525844, 0.0001318404, 0.0002593962
 111540366, -0.002751795, 0.003553083, 9.250754E-05, 0.0002593962
 111640326, -0.002798481, 0.003449792, -0.0001049003, 0.0002593962
 111740286, -0.002824681, 0.003450336, -5.397544E-05, 0.0002593962
 111840246, -0.002782827, 0.003355922, 1.704488E-05, 0.0002593962
 111940206, -0.002693051, 0.003415749, -0.0001573124, 0.0002593962
 112040166, -0.002712943, 0.00355953, -0.0001149385, 0.0002593962
 112140959, -0.002700151, 0.003451665, -2.888358E-05, 0.0002615578
 112240919, -0.002809653, 0.003526104, 8.230731E-05, 0.0002593962
 112340879, -0.002658553, 0.003321493, -3.091529E-05, 0.0002593962
 112440839, -0.002710321, 0.003375356, 4.86084E-05, 0.0002593962
 112540799, -0.002728085, 0.003457666, 5.177334E-05, 0.0002593962
 112640759, -0.002709339, 0.003397617, 3.939959E-05, 0.0002593962
 112740719, -0.002641201, 0.003361914, -5.877051E-05, 0.0002593962
 112840679, -0.002667821, 0.003461802, 0.0001273695, 0.0002593962
 112940639, -0.002713294, 0.003403284, 3.895154E-05, 0.0002593962
 113040599, -0.002616715, 0.003388827, 0.0001427651, 0.0002593962
 113140559, -0.002714179, 0.003629273, 5.212605E-05, 0.0002593962
 113240519, -0.002796409, 0.003429649, -9.19165E-05, 0.0002593962
 113340479, -0.002703774, 0.003497307, -0.0001257965, 0.0002593962
 113440439, -0.002787107, 0.003432099, 0.0001459396, 0.0002593962
 113540399, -0.002674464, 0.003490021, 5.004788E-05, 0.0002593962
 113640359, -0.002655759, 0.00338971, -5.910415E-05, 0.0002593962
 113740319, -0.002598337, 0.003445767, 1.612018E-05, 0.0002593962
 113840279, -0.002849637, 0.003419881, 8.093457E-05, 0.0002593962
 113940239, -0.002566282, 0.003462287, 9.27268E-05, 0.0002593962
 114040199, -0.002717799, 0.003410512, 9.955237E-05, 0.0002593962
 114140159, -0.00269748, 0.003406081, -6.622526E-05, 0.0002593962
 114240952, -0.002771291, 0.003471515, 2.144869E-05, 0.0002615578
 114340912, -0.00271006, 0.003503344, -0.0001368452, 0.0002593962
 114440872, -0.002766358, 0.003537064, -9.180211E-06, 0.0002593962
 114540832, -0.002769111, 0.003433416, 2.305062E-05, 0.0002593962
 114640792, -0.002744583, 0.00339174, -6.115373E-05, 0.0002593962
 114740752, -0.002595501, 0.00352215, -5.612989E-05, 0.0002593962
 114840712, -0.002814739, 0.003445894, 0.0001480845, 0.0002593962
 114940672, -0.002745512, 0.003561954, -4.751212E-05, 0.0002593962
 115040632, -0.002752256, 0.003506967, -0.0001861304, 0.0002593962
 115140592, -0.002787311, 0.003502697, -3.001919E-05, 0.0002593962
 115240552, -0.002593684, 0.003455098, 1.067689E-06, 0.0002593962
 115340512, -0.002829445, 0.003561559, -0.0001541093, 0.0002593962
 115440472, -0.002574251, 0.00344204, -1.368928E-05, 0.0002593962
 115540432, -0.002750783, 0.003535056, -0.0001162541, 0.0002593962
 115640392, -0.002763247, 0.003497904, 2.159208E-05, 0.0002593962
 115740352, -0.002804703, 0.003612198, -6.663517E-05, 0.0002593962
 115840312, -0.002808142, 0.003424025, 2.544338E-05, 0.0002593962
 115940272, -0.002834024, 0.003484247, -0.000138952, 0.0002593962
 116040232, -0.002650466, 0.003473694, 1.877987E-05, 0.0002593962
 116140192, -0.002692488, 0.003530454, -1.825556E-05, 0.0002593962
 116240152, -0.002609931, 0.00342637, -5.109649E-06, 0.0002593962
 116340945, -0.002545366, 0.003563792, -1.53917E-06, 0.0002615578
 116440905, -0.002633665, 0.003433077, -7.832254E-05, 0.0002593962
 116540865, -0.002642343, 0.003258918, -6.084868E-05, 0.0002593962
 116640825, -0.002714347, 0.003510647, -2.493814E-05, 0.0002593962
 116740785, -0.002681687, 0.003368767, -4.081047E-05, 0.0002593962
 116840745, -0.00272336, 0.003457158, 0.0001171978, 0.0002593962
 116940705, -0.002676448, 0.003588681, 5.665419E-05, 0.0002593962
 117040665, -0.002689963, 0.00343275, 3.545296E-05, 0.0002593962
 117140625, -0.002877692, 0.003468285, -7.016235E-05, 0.0002593962
 117240585, -0.002809273, 0.003548215, -6.321285E-05, 0.0002593962
 117340545, -0.002602982, 0.003325804, -7.483349E-05, 0.0002593962
 117440505, -0.002684455, 0.00339988, 7.22024E-05, 0.0002593962
 117540465, -0.002768374, 0.003444905, -2.080085E-05, 0.0002593962
 117640425, -0.002696784, 0.003401933, -0.0001157584, 0.0002593962
 117740385, -0.002817016, 0.00349211, 6.34893E-06, 0.0002593962
 117840345, -0.002679746, 0.003419452, 0.0001182464, 0.0002593962
 117940305, -0.002732097, 0.003429274, -0.0001472456, 0.0002593962
 118040265, -0.002558942, 0.003447617, 1.037183E-05, 0.0002593962
 118140225, -0.002597433, 0.003452929, -0.000142155, 0.0002593962
 118240185, -0.002761344, 0.003265706, 4.540534E-05, 0.0002593962
 118340145, -0.00278494, 0.003441727, -0.0001095429, 0.0002593962
 118440938, -0.002704991, 0.003555057, -4.141501E-05, 0.0002615578
 118540898, -0.002699653, 0.003349756, -4.911365E-05, 0.0002593962
 118640858, -0.002718695, 0.003561318, -8.7865E-05, 0.0002593962
 118740818, -0.002608626, 0.003538599, -2.841766E-05, 0.0002593962
 118840778, -0.002844891, 0.003388538, -0.0001023741, 0.0002593962
 118940738, -0.002757929, 0.003391834, -4.340342E-05, 0.0002593962
 119040698, -0.002595989, 0.003475892, 4.929477E-05, 0.0002593962
 119140658, -0.002620412, 0.00348634, 3.921847E-05, 0.0002593962
 119240618, -0.002802099, 0.003516307, -0.0001570645, 0.0002593962
 119340578, -0.002724798, 0.003480938, -4.107739E-05, 0.0002593962
 119440538, -0.002723157, 0.003456055, -7.912331E-06, 0.0002593962
 119540498, -0.002629524, 0.003499234, -4.031476E-05, 0.0002593962
 119640458, -0.002776552, 0.003614375, 0.000115663, 0.0002593962
 119740418, -0.002690663, 0.00351797, 4.492869E-05, 0.0002593962
 119840378, -0.002754799, 0.003476136, -1.208775E-05, 0.0002593962
 119940338, -0.002818042, 0.003510332, -8.63016E-05, 0.0002593962
 120040298, -0.002772732, 0.003577165, 2.767409E-05, 0.0002593962
 120140258, -0.002575625, 0.003382367, 0.0001414401, 0.0002593962
 120240218, -0.002930977, 0.003631592, 0.0001603915, 0.0002593962
 120340178, -0.002852584, 0.003575893, 4.537673E-06, 0.0002593962
 120440971, -0.00278942, 0.003337913, 3.190671E-05, 0.0002593962
 120540931, -0.002694987, 0.003535429, -8.543886E-06, 0.0002615578
 120640891, -0.00261797, 0.00348695, 4.379427E-05, 0.0002593962
 120740851, -0.002721186, 0.00345357, -2.219265E-05, 0.0002593962
 120840811, -0.002719986, 0.00356477, 1.470931E-05, 0.0002593962
 120940771, -0.002588979, 0.003445817, 4.137291E-05, 0.0002593962
 121040731, -0.002658096, 0.003541103, 4.773137E-05, 0.0002593962
 121140691, -0.002687331, 0.003388536, -0.0001067402, 0.0002593962
 121240651, -0.002585114, 0.003541607, -0.0001038231, 0.0002593962
 121340611, -0.002629831, 0.003454103, 7.116331E-05, 0.0002593962
 121440571, -0.002727004, 0.00346694, 0.0001046144, 0.0002593962
 121540531, -0.002774283, 0.003498658, 0.000181526, 0.0002593962
 121640491, -0.002775967, 0.003393321, -5.42233E-05, 0.0002593962
 121740451, -0.002540548, 0.003423522, -4.54816E-05, 0.0002593962
 121840411, -0.002836036, 0.003501866, 4.69878E-05, 0.0002593962
 121940371, -0.002645319, 0.003418428, 2.689239E-05, 0.0002593962
 122040331, -0.002781884, 0.003477906, 1.525268E-06, 0.0002593962
 122140291, -0.002702233, 0.003638951, -0.0001784659, 0.0002593962
 122240251, -0.002673072, 0.003388028, -6.827483E-05, 0.0002593962
 122340211, -0.002631636, 0.003571134, -3.217363E-05, 0.0002593962
 122440171, -0.002651752, 0.003417072, 3.085809E-05, 0.0002593962
 122540964, -0.002619171, 0.00347267, 4.469474E-05, 0.0002615578
 122640924, -0.002642587, 0.003628714, -9.770298E-05, 0.0002593962
 122740884, -0.002627334, 0.00348771, -0.0001281416, 0.0002593962
 122840844, -0.002729967, 0.003571429, 4.003829E-06, 0.0002593962
 122940804, -0.002859054, 0.003449482, -0.000108561, 0.0002593962
 123040764, -0.002745015, 0.003397073, 5.925669E-05, 0.0002593962
 123140724, -0.002521972, 0.003528878, 3.569129E-05, 0.0002593962
 123240684, -0.002729957, 0.003373355, -4.562459E-05, 0.0002593962
 123340644, -0.0027047, 0.003472614, -7.370861E-05, 0.0002593962
 123440604, -0.0028267, 0.003428298, -7.878013E-05, 0.0002593962
 123540564, -0.002749112, 0.003506666, 4.514795E-05, 0.0002593962
 123640524, -0.002883545, 0.003413552, -8.924727E-05, 0.0002593962
 123740484, -0.002825586, 0.003368294, 0.0001584945, 0.0002593962
 123840444, -0.002672206, 0.003344404, -7.969528E-05, 0.0002593962
 123940404, -0.002717592, 0.003303372, -8.210711E-05, 0.0002593962
 124040364, -0.002633696, 0.003600308, -6.156365E-05, 0.0002593962
 124140324, -0.002813669, 0.003447002, 3.318412E-05, 0.0002593962
 124240284, -0.002699982, 0.003418669, 2.230707E-06, 0.0002593962
 124340244, -0.002602983, 0.003397031, -6.775052E-05, 0.0002593962
 124440204, -0.0027768, 0.003344463, -3.1411E-05, 0.0002593962
 124540164, -0.002717689, 0.003465849, 7.684493E-05, 0.0002593962
 124640957, -0.002744252, 0.003469158, 1.945512E-06, 0.0002615578
 124740917, -0.002703476, 0.003324971, -2.391812E-05, 0.0002593962
 124840877, -0.002927317, 0.003538925, -0.0001007917, 0.0002593962
 124940837, -0.002607468, 0.003566614, 1.556728E-05, 0.0002593962
 125040797, -0.002841867, 0.003378853, -7.77601E-05, 0.0002593962
 125140757, -0.002754416, 0.003613618, 2.926609E-05, 0.0002593962
 125240717, -0.002691121, 0.00363256, 6.11442E-05, 0.0002593962
 125340677, -0.002845894, 0.003519629, 1.588186E-05, 0.0002593962
 125440637, -0.0027834, 0.003426095, 5.567231E-06, 0.0002593962
 125540597, -0.002774642, 0.00350302, 5.275523E-05, 0.0002593962
 125640557, -0.002768232, 0.003518987, 1.346049E-05, 0.0002593962
 125740517, -0.002881638, 0.003372905, -0.000126807, 0.0002593962
 125840477, -0.002756675, 0.003583042, 0.0001309062, 0.0002593962
 125940437, -0.00288933, 0.003363994, 3.318412E-05, 0.0002593962
 126040397, -0.002638669, 0.003576853, -7.672101E-05, 0.0002593962
 126140357, -0.002753225, 0.00357073, 0.0001690856, 0.0002593962
 126240317, -0.002895562, 0.003315757, 2.902777E-05, 0.0002593962
 126340277, -0.00276769, 0.003445592, -0.0001275601, 0.0002593962
 126440237, -0.002764264, 0.0034022, -0.0001174743, 0.0002593962
 126540197, -0.002693273, 0.003448993, -4.566273E-05, 0.0002593962
 126640157, -0.00278965, 0.003475134, 6.155412E-05, 0.0002593962
 126740950, -0.002702564, 0.003574451, -2.264627E-05, 0.0002615578
 126840910, -0.002797672, 0.003369402, 4.125851E-05, 0.0002593962
 126940870, -0.002782112, 0.003446785, 6.98573E-05, 0.0002593962
 127040830, -0.002657273, 0.003484691, 4.052448E-05, 0.0002593962
 127140790, -0.002465219, 0.003512644, -8.415669E-05, 0.0002593962
 127240750, -0.002682496, 0.003449087, -3.704496E-05, 0.0002593962
 127340710, -0.002690142, 0.00331667, -7.42615E-06, 0.0002593962
 127440670, -0.002737775, 0.003452832, 3.14396E-05, 0.0002593962
 127540630, -0.002786228, 0.003406372, 4.181142E-05, 0.0002593962
 127640590, -0.002772611, 0.003514496, -2.015261E-05, 0.0002593962
 127740550, -0.002753276, 0.003548822, 7.919004E-05, 0.0002593962
 127840510, -0.002760441, 0.003280692, -8.992411E-05, 0.0002593962
 127940470, -0.00283406, 0.003367973, -1.570073E-05, 0.0002593962
 128040430, -0.002786387, 0.003416029, -8.245979E-06, 0.0002593962
 128140390, -0.002636129, 0.003458017, -3.164932E-05, 0.0002593962
 128240350, -0.002652056, 0.003456953, 2.218312E-05, 0.0002593962
 128340310, -0.002727957, 0.00344061, -8.235497E-05, 0.0002593962
 128440270, -0.002579276, 0.003401536, 2.438523E-05, 0.0002593962
 128540230, -0.002678231, 0.003387931, -7.003843E-05, 0.0002593962
 128640190, -0.002820774, 0.003353778, 5.088677E-05, 0.0002593962
 128740150, -0.002968126, 0.003554181, -3.183045E-05, 0.0002593962
 128840943, -0.002648234, 0.003504303, -0.0001507843, 0.0002615578
 128940903, -0.002781066, 0.003356241, -8.917101E-05, 0.0002593962
 129040863, -0.002703363, 0.003457448, -8.407089E-05, 0.0002593962
 129140823, -0.002697689, 0.003333279, -2.459496E-06, 0.0002593962
 129240783, -0.002782497, 0.00356181, 4.111552E-05, 0.0002593962
 129340743, -0.002758467, 0.003385385, 5.17352E-05, 0.0002593962
 129440703, -0.002693656, 0.003339739, -4.325089E-05, 0.0002593962
 129540663, -0.002824058, 0.003465025, 9.266007E-06, 0.0002593962
 129640623, -0.002841637, 0.003508982, -5.220231E-05, 0.0002593962
 129740583, -0.002707871, 0.003372762, 9.619677E-05, 0.0002593962
 129840543, -0.002701605, 0.003383114, -2.42613E-05, 0.0002593962
 129940503, -0.002815666, 0.003530699, -1.251674E-05, 0.0002593962
 130040463, -0.002773388, 0.003540601, 7.090592E-05, 0.0002593962
 130140423, -0.002724053, 0.00349131, -4.684481E-05, 0.0002593962
 130240383, -0.002814606, 0.003445614, 1.904679E-05, 0.0002593962
 130340343, -0.002779923, 0.00347957, -0.0002182659, 0.0002593962
 130440303, -0.00277787, 0.003507104, 0.0001081034, 0.0002593962
 130540263, -0.002711111, 0.003382323, -0.0001028412, 0.0002593962
 130640223, -0.002626856, 0.003453097, -0.0001455202, 0.0002593962
 130740183, -0.002780304, 0.003663614, -0.000114071, 0.0002593962
 130840976, -0.002722576, 0.003441624, -4.060075E-05, 0.0002593962
 130940936, -0.002833762, 0.00355709, 0.000101109, 0.0002615578
 131040896, -0.002642957, 0.003453472, -2.796961E-05, 0.0002593962
 131140856, -0.002812143, 0.003550412, -4.278378E-05, 0.0002593962
 131240816, -0.00270817, 0.003415415, -4.546253E-05, 0.0002593962
 131340776, -0.00287357, 0.003510728, -5.832245E-05, 0.0002593962
 131440736, -0.002688896, 0.003450948, -9.569155E-05, 0.0002593962
 131540696, -0.002729756, 0.003580529, -9.330831E-05, 0.0002593962
 131640656, -0.00284642, 0.003379857, -3.03147E-06, 0.0002593962
 131740616, -0.002784961, 0.003479104, 3.235476E-05, 0.0002593962
 131840576, -0.002737938, 0.003381061, 0.0001258728, 0.0002593962
 131940536, -0.002600164, 0.003476547, -2.734044E-05, 0.0002593962
 132040496, -0.002764754, 0.003396975, -4.308883E-06, 0.0002593962
 132140456, -0.00261989, 0.003433253, 0.0001264924, 0.0002593962
 132240416, -0.00281292, 0.003432914, -2.815074E-05, 0.0002593962
 132340376, -0.002774699, 0.003417983, -5.357506E-05, 0.0002593962
 132440336, -0.002518588, 0.003342165, -3.355591E-05, 0.0002593962
 132540296, -0.002742749, 0.00354964, 1.978083E-05, 0.0002593962
 132640256, -0.002620083, 0.003468246, 4.277425E-05, 0.0002593962
 132740216, -0.002812955, 0.003452753, 0.0001111921, 0.0002593962
 132840176, -0.002736749, 0.003364528, -0.0001998102, 0.0002593962
 132940969, -0.002819536, 0.00342539, -3.898054E-05, 0.0002615578
 133040929, -0.002906308, 0.003486436, 1.392761E-05, 0.0002593962
 133140889, -0.002740352, 0.00335271, -2.331754E-05, 0.0002593962
 133240849, -0.002887778, 0.00339638, -5.219279E-05, 0.0002593962
 133340809, -0.002627754, 0.003427235, -0.0001044809, 0.0002593962
 133440769, -0.00270419, 0.003549919, 7.041021E-05, 0.0002593962
 133540729, -0.002854218, 0.003394458, 0.0001348623, 0.0002593962
 133640689, -0.002656054, 0.003374918, 9.320345E-05, 0.0002593962
 133740649, -0.002735909, 0.003479195, 6.196403E-05, 0.0002593962
 133840609, -0.002680642, 0.003456795, -8.647319E-05, 0.0002593962
 133940569, -0.002626489, 0.003705441, -2.563404E-05, 0.0002593962
 134040529, -0.002714286, 0.003470755, 1.821743E-05, 0.0002593962
 134140489, -0.002734017, 0.003377645, -1.525268E-05, 0.0002593962
 134240449, -0.002696194, 0.003436299, -3.815078E-05, 0.0002593962
 134340409, -0.002785565, 0.003415593, -2.297435E-06, 0.0002593962
 134440369, -0.00270065, 0.003545577, 0.0001785518, 0.0002593962
 134540329, -0.002812189, 0.003536565, -0.0001357489, 0.0002593962
 134640289, -0.002693748, 0.003401729, 8.388961E-07, 0.0002593962
 134740249, -0.002791449, 0.003476073, -0.0001788091, 0.0002593962
 134840209, -0.002637317, 0.003415419, -5.829386E-05, 0.0002593962
 134940169, -0.002711952, 0.00355664, -1.040996E-05, 0.0002593962
 135040962, -0.002868008, 0.003597942, 7.59695E-06, 0.0002615578
 135140922, -0.002742092, 0.003486554, 0.0001293619, 0.0002593962
 135240882, -0.002774665, 0.003382312, 3.632046E-05, 0.0002593962
 135340842, -0.002866235, 0.003518199, -4.353689E-05, 0.0002593962
 135440802, -0.002834157, 0.003691462, -4.404213E-05, 0.0002593962
 135540762, -0.002631063, 0.00356229, -0.0001691046, 0.0002593962
 135640722, -0.002621151, 0.003531921, -1.098193E-05, 0.0002593962
 135740682, -0.002730181, 0.003488054, -0.0001119928, 0.0002593962
 135840642, -0.002865066, 0.003438181, -0.0001018403, 0.0002593962
 135940602, -0.002815334, 0.003602256, 3.206877E-05, 0.0002593962
 136040562, -0.002709848, 0.003383311, -6.82939E-05, 0.0002593962
 136140522, -0.002618067, 0.003426844, 4.836055E-05, 0.0002593962
 136240482, -0.002798898, 0.003510774, -2.229752E-05, 0.0002593962
 136340442, -0.002621693, 0.003404308, -0.000154157, 0.0002593962
 136440402, -0.002774661, 0.003427848, -3.053397E-05, 0.0002593962
 136540362, -0.002736975, 0.003493284, -9.389934E-06, 0.0002593962
 136640322, -0.002770684, 0.003506976, 5.824615E-06, 0.0002593962
 136740282, -0.002590373, 0.003434045, 8.382303E-05, 0.0002593962
 136840242, -0.002724685, 0.003342768, -1.006677E-05, 0.0002593962
 136940202, -0.002677052, 0.003669825, -4.284098E-05, 0.0002593962
 137040162, -0.002789038, 0.003464759, -0.0001120024, 0.0002593962
 137140955, -0.002774585, 0.003460301, -0.000117937, 0.0002615578
 137240915, -0.002636567, 0.003465245, -7.670194E-05, 0.0002593962
 137340875, -0.002629308, 0.003472466, -1.894193E-05, 0.0002593962
 137440835, -0.002649759, 0.003541794, -7.584398E-05, 0.0002593962
 137540795, -0.002550678, 0.003433941, -8.31176E-05, 0.0002593962
 137640755, -0.002703113, 0.003464828, 6.147785E-05, 0.0002593962
 137740715, -0.002587249, 0.003497826, -3.406115E-05, 0.0002593962
 137840675, -0.002717496, 0.003538745, -2.617742E-05, 0.0002593962
 137940635, -0.002743205, 0.00350984, 7.028628E-05, 0.0002593962
 138040595, -0.002762713, 0.003475049, -1.877988E-06, 0.0002593962
 138140555, -0.002822452, 0.00340648, 1.111539E-05, 0.0002593962
 138240515, -0.002689835, 0.003492811, 3.690197E-05, 0.0002593962
 138340475, -0.002703577, 0.003415754, 0.0001159299, 0.0002593962
 138440435, -0.00267183, 0.003358654, -7.694027E-05, 0.0002593962
 138540395, -0.00275437, 0.00343867, 4.477616E-05, 0.0002593962
 138640355, -0.002723372, 0.003272779, -0.000107131, 0.0002593962
 138740315, -0.002590709, 0.003360157, -0.0001051005, 0.0002593962
 138840275, -0.002717351, 0.003505982, -2.719745E-05, 0.0002593962
 138940235, -0.002586689, 0.003503283, 0.0001498576, 0.0002593962
 139040195, -0.002590664, 0.003317444, 5.365132E-05, 0.0002593962
 139140155, -0.002740514, 0.003487667, -0.0001149481, 0.0002593962
 139240948, -0.002731499, 0.003453453, -4.968999E-05, 0.0002615578
 139340908, -0.002745389, 0.003572542, 2.115357E-05, 0.0002593962
 139440868, -0.002674719, 0.003410485, 9.662576E-05, 0.0002593962
 139540828, -0.002726167, 0.003546285, -7.492882E-05, 0.0002593962
 139640788, -0.002766033, 0.003393184, -6.377531E-06, 0.0002593962
 139740748, -0.002793106, 0.003292634, 4.331762E-05, 0.0002593962
 139840708, -0.002833519, 0.003458347, 0.0001723458, 0.0002593962
 139940668, -0.002744666, 0.003491361, -8.586308E-05, 0.0002593962
 140040628, -0.002810368, 0.003506251, 3.689243E-05, 0.0002593962
 140140588, -0.002827005, 0.003522207, 9.317484E-05, 0.0002593962
 140240548, -0.002667569, 0.003510885, -4.96761E-05, 0.0002593962
 140340508, -0.002627569, 0.003638399, 7.912331E-05, 0.0002593962
 140440468, -0.002780761, 0.003610773, -0.0001970647, 0.0002593962
 140540428, 0.01085119, 0.002145827, 3.043864E-05, 0.0002593962
 140640388, 0.07332312, -0.004978138, -0.0001908206, 0.0002593962
 140740348, 0.1655134, -0.01467784, 0.0005352167, 0.0002593962
 140840308, 0.2682526, -0.02578175, 0.003954373, 0.0002593962
 140940268, 0.3772748, -0.0375842, 0.006997274, 0.0002593962
 141040228, 0.483093, -0.05052124, 0.009612081, 0.0002593962
 141140188, 0.5883236, -0.06156619, 0.01197111, 0.0002593962
 141240148, 0.6873257, -0.07168327, 0.0141826, 0.0002593962
 141340941, 0.7883555, -0.08211666, 0.01674234, 0.0002615578
 141440901, 0.8743761, -0.09059696, 0.01872708, 0.0002593962
 141540861, 0.946107, -0.09576811, 0.02078367, 0.0002593962
 141640821, 0.9603763, -0.104972, 0.02252675, 0.0002593962
 141740781, 0.9390308, -0.09865316, 0.02326728, 0.0002593962
 141840741, 0.9027669, -0.09448941, 0.02295892, 0.0002593962
 141940701, 0.8593978, -0.08593147, 0.02203504, 0.0002593962
 142040661, 0.8076927, -0.08784285, 0.0208826, 0.0002593962
 142140621, 0.7560024, -0.07844146, -0.005823456, 0.0002593962
 142240581, 0.704609, -0.07054074, -0.043948, 0.0002593962
 142340541, 0.6595942, -0.06686193, -0.01735838, 0.0002593962
 142440501, 0.6080989, -0.06418873, 0.02209467, 0.0002593962
 142540461, 0.5670653, -0.05657583, 0.04003965, 0.0002593962
 142640421, 0.8939542, -0.0922799, -0.2920473, 0.0002593962
 142740381, 0.8261986, -0.08382932, -0.8240128, 0.0002593962
 142840341, 0.7157978, -0.0873967, -0.9181649, 0.0002593962
 142940301, 0.6317717, -0.07674016, -0.7142746, 0.0002593962
 143040261, 0.6010194, -0.06478962, -0.422146, 0.0002593962
 143140221, 0.5926672, -0.0643615, -0.1935111, 0.0002593962
 143240181, 0.6007568, -0.07452285, -0.001783248, 0.0002593962
 143340974, 0.5930005, -0.07471353, 0.09748946, 0.0002593962
 143440934, 0.569383, -0.06601825, 0.07896997, 0.0002615578
 143540894, 0.5236347, -0.05376674, 0.0008363333, 0.0002593962
 143640854, 0.4649688, -0.04074954, -0.1437324, 0.0002593962
 143740814, 0.4196283, -0.05282743, -0.2242715, 0.0002593962
 143840774, 0.3760619, -0.04486736, -0.2651308, 0.0002593962
 143940734, 0.3288737, -0.04511451, -0.2958421, 0.0002593962
 144040694, 0.3047192, -0.0468558, -0.2590097, 0.0002593962
 144140654, 0.2900311, -0.0456133, -0.1915314, 0.0002593962
 144240614, 0.2799709, -0.03741065, -0.09830904, 0.0002593962
 144340574, 0.2684038, -0.03939441, -0.0494645, 0.0002593962
 144440534, 0.2438461, -0.02850465, -0.06717569, 0.0002593962
 144540494, 0.23334, -0.01945301, -0.03973228, 0.0002593962
 144640454, 0.214319, -0.01348795, -0.06723059, 0.0002593962
 144740414, 0.1964854, -0.02295285, -0.08354603, 0.0002593962
 144840374, 0.1785948, -0.01731439, -0.05822191, 0.0002593962
 144940334, 0.1655401, -0.02066814, -0.05853283, 0.0002593962
 145040294, 0.1513641, -0.01513356, -0.05845221, 0.0002593962
 145140254, 0.1193067, -0.01533203, -0.09720418, 0.0002593962
 145240214, 0.08690388, -0.002958687, -0.1570069, 0.0002593962
 145340174, 0.04661972, -0.00852982, -0.2782296, 0.0002593962
 145440967, 0.0421274, 0.01132681, -0.2668986, 0.0002615578
 145540927, 0.0344658, 0.01164283, -0.2144658, 0.0002593962
 145640887, 0.05268402, 0.001284485, -0.1181533, 0.0002593962
 145740847, 0.06397261, 0.0009624074, -0.04398378, 0.0002593962
 145840807, 0.07412393, -0.005136955, 0.009305825, 0.0002593962
 145940767, 0.06383398, 0.002532992, 0.02820202, 0.0002593962
 146040727, 0.07333314, 0.003481972, 0.03134837, 0.0002593962
 146140687, 0.06179857, -0.005224256, 0.01264933, 0.0002593962
 146240647, 0.05040539, -0.01036726, 0.0100086, 0.0002593962
 146340607, 0.05409392, -0.0100484, 0.01723268, 0.0002593962
 146440567, 0.05044596, -0.003679075, 0.008314172, 0.0002593962
 146540527, 0.05080689, 0.0003045588, 0.0189526, 0.0002593962
 146640487, 0.04723846, -0.01288512, 0.03779489, 0.0002593962
 146740447, 0.05477412, -0.005504937, 0.08117057, 0.0002593962
 146840407, 0.06860987, 0.001704698, 0.119949, 0.0002593962
 146940367, 0.07512327, 0.00554019, 0.125167, 0.0002593962
 147040327, 0.06045539, -0.01570154, 0.08705676, 0.0002593962
 147140287, 0.05498863, -0.01944195, 0.06030024, 0.0002593962
 147240247, 0.06018766, -0.01054559, 0.06761386, 0.0002593962
 147340207, 0.04791973, -0.00928393, 0.04496974, 0.0002593962
 147440167, 0.03440335, -0.005951823, -0.007901435, 0.0002593962
 147540960, 0.02643502, -0.00379996, -0.03609759, 0.0002615578
 147640920, 0.009874887, -0.004332334, -0.06681032, 0.0002593962
 147740880, 0.01603495, -1.448119E-05, -0.03550414, 0.0002593962
 147840840, 0.00721277, 0.002889925, -0.04536219, 0.0002593962
 147940800, 5.642348E-05, 0.003725296, -0.02019874, 0.0002593962
 148040760, -0.01148553, 0.004347844, 0.02548121, 0.0002593962
 148140720, -0.02992493, 0.0138873, 0.05036859, 0.0002593962
 148240680, -0.04831531, 0.01606345, 0.06135625, 0.0002593962
 148340640, -0.05657884, 0.008802004, 0.07782358, 0.0002593962
 148440600, -0.02999509, -0.003688952, 0.2432971, 0.0002593962
 148540560, 0.02523035, -0.004750516, 0.5507092, 0.0002593962
 148640520, 0.0539672, 0.04830237, 0.7221075, 0.0002593962
 148740480, 0.05120137, 0.08557568, 0.7097624, 0.0002593962
 148840440, 0.02973901, 0.1067446, 0.569178, 0.0002593962
 148940400, 0.01129809, 0.1008846, 0.4252276, 0.0002593962
 149040360, 0.001946823, 0.1075536, 0.2446611, 0.0002593962
 149140320, -0.006798943, 0.1101276, 0.08579567, 0.0002593962
 149240280, -0.006170447, 0.09202383, 0.02458785, 0.0002593962
 149340240, -0.003075844, 0.07937834, 0.01143524, 0.0002593962
 149440200, -0.005686155, 0.08266614, -0.02072828, 0.0002593962
 149540160, -0.001926702, 0.06612151, 0.05552967, 0.0002593962
 149640953, 0.003761563, 0.05826795, 0.1156991, 0.0002615578
 149740913, 0.01218385, 0.04586775, 0.1789357, 0.0002593962
 149840873, 0.01338282, 0.04529418, 0.1783596, 0.0002593962
 149940833, 0.01128157, 0.04476136, 0.1838917, 0.0002593962
 150040793, 0.01155638, 0.0534638, 0.1799777, 0.0002593962
 150140753, 0.0009448268, 0.06722103, 0.1481237, 0.0002593962
 150240713, -0.06480046, 0.0783064, 0.007056246, 0.0002593962
 150340673, -0.1608903, 0.0954309, -0.1047923, 0.0002593962
 150440633, -0.2633071, 0.1059233, -0.1815602, 0.0002593962
 150540593, -0.3254982, 0.1102854, -0.1992389, 0.0002593962
 150640553, -0.31691, 0.1023044, -0.1178404, 0.0002593962
 150740513, -0.2720291, 0.07788838, 0.02092512, 0.0002593962
 150840473, -0.212964, 0.05032884, 0.1879232, 0.0002593962
 150940433, -0.1674795, 0.03134226, 0.3043933, 0.0002593962
 151040393, -0.1314767, 0.01700462, 0.3645134, 0.0002593962
 151140353, -0.1079654, 0.01684759, 0.3541598, 0.0002593962
 151240313, -0.09035688, 0.02842908, 0.2944542, 0.0002593962
 151340273, -0.07345942, 0.03598456, 0.2310663, 0.0002593962
 151440233, -0.05899577, 0.03886917, 0.1588574, 0.0002593962
 151540193, -0.04868926, 0.03654152, 0.1153487, 0.0002593962
 151640153, -0.03331022, 0.03261535, 0.0829884, 0.0002593962
 151740946, -0.02241625, 0.02904303, 0.07167776, 0.0002615578
 151840906, -0.01489822, 0.03463431, 0.09075, 0.0002593962
 151940866, -0.01375504, 0.04081083, 0.06064456, 0.0002593962
 152040826, -0.005408003, 0.04411192, 0.04733561, 0.0002593962
 152140786, 0.00240683, 0.04436264, 0.0328858, 0.0002593962
 152240746, 0.009453536, 0.03604777, 0.02112466, 0.0002593962
 152340706, 0.008921909, 0.02587649, 0.03783637, 0.0002593962
 152440666, 0.01231366, 0.02200904, 0.05949007, 0.0002593962
 152540626, 0.01591959, 0.02055166, 0.09030049, 0.0002593962
 152640586, 0.02013718, 0.02163097, 0.08363593, 0.0002593962
 152740546, 0.02175875, 0.02220216, 0.04017193, 0.0002593962
 152840506, 0.02379465, 0.0239546, -0.01772304, 0.0002593962
 152940466, 0.02428608, 0.02272834, -0.03181813, 0.0002593962
 153040426, 0.02614217, 0.01983077, -0.03467332, 0.0002593962
 153140386, 0.02596853, 0.01575641, -0.0488841, 0.0002593962
 153240346, 0.02391621, 0.02539783, -0.02297997, 0.0002593962
 153340306, 0.02852641, 0.03111824, 0.006678493, 0.0002593962
 153440266, 0.03053191, 0.02667494, 0.01786707, 0.0002593962
 153540226, 0.02697646, 0.02887197, 0.03319787, 0.0002593962
 153640186, 0.02621062, 0.0282891, 0.03219641, 0.0002593962
 153740146, 0.02812201, 0.02662006, 0.01346766, 0.0002593962
 153840939, 0.02485471, 0.01962242, 0.001175226, 0.0002615578
 153940899, 0.02275961, 0.008001884, 0.01048331, 0.0002593962
 154040859, 0.024062, 0.01362968, -0.009902006, 0.0002593962
 154140819, 0.02707723, 0.0125416, -0.04562534, 0.0002593962
 154240779, 0.02773317, 0.01265966, -0.02517812, 0.0002593962
 154340739, 0.02775094, 0.01261924, -0.03045088, 0.0002593962
 154440699, 0.0303124, 0.005911473, -0.07078776, 0.0002593962
 154540659, 0.03108886, 0.009361466, -0.06620099, 0.0002593962
 154640619, 0.02588567, 0.01660427, -0.03313789, 0.0002593962
 154740579, 0.02818207, 0.01449952, 0.00433752, 0.0002593962
 154840539, 0.02857791, 0.009977088, 0.02723835, 0.0002593962
 154940499, 0.03074761, 0.01413272, 0.02613278, 0.0002593962
 155040459, 0.03162198, 0.01430381, 0.01077027, 0.0002593962
 155140419, 0.03052527, 0.01082391, -0.009141078, 0.0002593962
 155240379, 0.03141924, 0.01085922, -0.01159884, 0.0002593962
 155340339, 0.02929875, 0.01428493, -0.005342978, 0.0002593962
 155440299, 0.02633398, 0.007811445, -0.0400562, 0.0002593962
 155540259, 0.0286921, 0.01001367, -0.02119135, 0.0002593962
 155640219, 0.02655094, 0.01552604, -0.02560567, 0.0002593962
 155740179, 0.02640007, 0.008448595, -0.01527918, 0.0002593962
 155840972, 0.02300726, 0.008025243, -0.03401875, 0.0002593962
 155940932, 0.02639825, 0.008237533, -0.01496846, 0.0002615578
 156040892, 0.02156606, 0.01586373, -0.02812243, 0.0002593962
 156140852, 0.02844557, 0.01083556, -0.04935815, 0.0002593962
 156240812, 0.02877672, 0.009266985, -0.002939564, 0.0002593962
 156340772, 0.02754576, 0.0064506, 0.01097969, 0.0002593962
 156440732, 0.02470735, 0.01314947, 0.005444961, 0.0002593962
 156540692, 0.02410917, 0.01202622, 0.02871641, 0.0002593962
 156640652, 0.0301078, 0.0112425, -0.01668322, 0.0002593962
 156740612, 0.02821743, 0.004144058, -0.06668861, 0.0002593962
 156840572, 0.03038175, 0.005756919, -0.06939209, 0.0002593962
 156940532, 0.02479384, 0.005512684, -0.07443436, 0.0002593962
 157040492, 0.02094445, 0.004216811, -0.05516895, 0.0002593962
 157140452, 0.01727472, 0.007571669, -0.01221461, 0.0002593962
 157240412, 0.01905236, 0.009141624, 0.02351901, 0.0002593962
 157340372, 0.02378223, 0.01387692, 0.005643704, 0.0002593962
 157440332, 0.02492487, 0.01794401, -0.02058931, 0.0002593962
 157540292, 0.02178698, 0.01580458, -0.01281394, 0.0002593962
 157640252, 0.01623582, 0.01286174, -0.02374259, 0.0002593962
 157740212, 0.02204659, 0.008541985, -0.01638284, 0.0002593962
 157840172, 0.02257037, 0.002455194, 0.01753518, 0.0002593962
 157940965, 0.02400995, -0.0007389117, 0.01064019, 0.0002615578
 158040925, 0.02369143, 0.005581435, 0.01007506, 0.0002593962
 158140885, 0.02401217, 0.003959015, -0.02105775, 0.0002593962
 158240845, 0.02528082, -0.000751227, -0.02512875, 0.0002593962
 158340805, 0.02775903, 0.002419985, -0.01916422, 0.0002593962
 158440765, 0.02622212, 0.007587112, -0.05531531, 0.0002593962
 158540725, 0.02035004, 0.008864431, -0.06360053, 0.0002593962
 158640685, 0.01870025, 0.005157458, -0.02571432, 0.0002593962
 158740645, 0.01731176, 0.001547978, -0.02304687, 0.0002593962
 158840605, 0.01221592, -0.007837962, -0.02761544, 0.0002593962
 158940565, 0.009931135, -0.0004048396, -0.005315905, 0.0002593962
 159040525, 0.01475083, 0.001298157, -0.01258005, 0.0002593962
 159140485, 0.01422218, 0.003026587, -0.01745767, 0.0002593962
 159240445, 0.01334025, 0.007494841, -0.04798213, 0.0002593962
 159340405, 0.01321283, 0.005740972, -0.04788033, 0.0002593962
 159440365, 0.01448051, -0.003439523, -0.03958049, 0.0002593962
 159540325, 0.009916156, -0.005951231, -0.01828469, 0.0002593962
 159640285, 0.01022656, 0.002510476, 0.03335643, 0.0002593962
 159740245, 0.01881893, 0.00305241, 0.02245759, 0.0002593962
 159840205, 0.01411893, 0.0005210825, -0.002375987, 0.0002593962
 159940165, 0.01780519, 0.0006414885, 0.007579441, 0.0002593962
 160040958, 0.014547, 0.006449126, -0.043387, 0.0002615578
 160140918, 0.01544769, 0.002691421, -0.02422872, 0.0002593962
 160240878, 0.01448716, 0.001765218, -0.02727825, 0.0002593962
 160340838, 0.01005961, 0.007426837, -0.03615768, 0.0002593962
 160440798, 0.008842739, 0.01261114, 0.01045613, 0.0002593962
 160540758, 0.008897058, 0.007526602, -0.001921829, 0.0002593962
 160640718, 0.006501713, -0.0006029303, -0.03358203, 0.0002593962
 160740678, 0.002702603, 0.0006324901, -0.06480264, 0.0002593962
 160840638, 0.003759115, 0.007677286, -0.03987879, 0.0002593962
 160940598, 0.004171191, 0.01260526, -0.01303612, 0.0002593962
 161040558, 0.010188, 0.01177841, 0.0121821, 0.0002593962
 161140518, 0.01094604, 0.01213744, 0.0367425, 0.0002593962
 161240478, 0.01326788, 0.008132832, 0.0217454, 0.0002593962
 161340438, 0.01134415, 0.01341539, -0.0002441099, 0.0002593962
 161440398, 0.01176233, 0.006887967, -0.01458508, 0.0002593962
 161540358, 0.01131284, 0.00699082, 0.0179986, 0.0002593962
 161640318, 0.006469398, 0.01766555, -0.003480253, 0.0002593962
 161740278, 0.004197562, 0.007179286, -0.02453402, 0.0002593962
 161840238, 0.008677532, -0.005485516, -0.03732497, 0.0002593962
 161940198, 0.00547879, -0.008230778, -0.05421922, 0.0002593962
 162040158, 0.002575423, -0.003192757, -0.01100307, 0.0002593962
 162140951, 0.0002477866, 0.003535936, 0.005378032, 0.0002615578
 162240911, 0.00682385, 0.009564598, 0.03472411, 0.0002593962
 162340871, 0.01086648, 0.007700948, 0.002558162, 0.0002593962
 162440831, 0.009141549, -0.005607321, -0.01012484, 0.0002593962
 162540791, 0.01110768, -0.008659701, -0.02671546, 0.0002593962
 162640751, 0.00874586, 0.01014571, -0.008241188, 0.0002593962
 162740711, 0.002608037, 0.004047592, -0.008311446, 0.0002593962
 162840671, 0.007180281, 0.007462651, -0.005057037, 0.0002593962
 162940631, 0.008297346, 0.007621588, -0.01217381, 0.0002593962
 163040591, 0.003219963, -0.001342028, -0.008718959, 0.0002593962
 163140551, 0.006057144, 0.003418205, 0.01029118, 0.0002593962
 163240511, 0.006757346, 0.004951051, 0.009538762, 0.0002593962
 163340471, 0.001577994, 0.007132344, 0.04021362, 0.0002593962
 163440431, 0.005582273, 0.01101351, 0.01088244, 0.0002593962
 163540391, 0.001201969, 0.01025928, -0.002698638, 0.0002593962
 163640351, 0.003704981, 0.001980419, -0.02617389, 0.0002593962
 163740311, 0.01039906, 0.00617335, -0.01223534, 0.0002593962
 163840271, 0.008045757, 0.009408133, -0.03502812, 0.0002593962
 163940231, 0.009427073, 0.015669, -0.0149324, 0.0002593962
 164040191, 0.004501668, 0.02377727, -0.005079259, 0.0002593962
 164140151, 0.01145326, 0.01669418, 0.02480094, 0.0002593962
 164240944, 0.009480886, 0.001943659, 0.04230003, 0.0002615578
 164340904, 0.007837774, -0.008395332, -0.002229457, 0.0002593962
 164440864, 0.007654054, -0.006751895, -0.02648409, 0.0002593962
 164540824, 0.004397713, 0.0007664692, -0.02334467, 0.0002593962
 164640784, 0.004724456, 0.008476609, -0.01646656, 0.0002593962
 164740744, 0.003454777, 0.005545684, -0.04214745, 0.0002593962
 164840704, 0.00193794, 0.001426798, -0.02868626, 0.0002593962
 164940664, 0.002659219, -0.001011887, -0.0192838, 0.0002593962
 165040624, 0.003713069, -0.002533935, 0.001674278, 0.0002593962
 165140584, 0.001339297, -0.01642219, 0.02815806, 0.0002593962
 165240544, -0.0003266929, -0.009963831, 0.03299513, 0.0002593962
 165340504, 0.002830228, -0.0007446386, 0.04235885, 0.0002593962
 165440464, 0.003441904, 0.0045758, 0.01949996, 0.0002593962
 165540424, 0.002624071, 0.00513519, -0.01987379, 0.0002593962
 165640384, 0.0009509815, 0.01604906, -0.01154466, 0.0002593962
 165740344, 0.01220364, 0.01278542, -0.03801381, 0.0002593962
 165840304, 0.009954287, 0.006938002, -0.04498746, 0.0002593962
 165940264, 0.00695359, 0.003747282, -0.04039268, 0.0002593962
 166040224, 0.007253275, 0.000295333, 0.0116846, 0.0002593962
 166140184, 0.005267801, 0.005399863, -0.004297263, 0.0002593962
 166240977, 0.007696418, 0.001046689, 0.02022908, 0.0002593962
 166340937, 0.002828648, 0.0149288, 0.02814397, 0.0002615578
 166440897, -0.002283635, 0.01417299, 0.03901408, 0.0002593962
 166540857, -0.003917815, 0.00942089, 0.05774881, 0.0002593962
 166640817, -0.004720678, 0.001663782, 0.01643435, 0.0002593962
 166740777, -0.004727053, 0.003995333, -0.03215483, 0.0002593962
 166840737, 0.001294401, 6.160967E-05, -0.01878975, 0.0002593962
 166940697, 0.005851149, 0.00306111, -0.06655574, 0.0002593962
 167040657, 0.001259978, 0.00758974, -0.07148235, 0.0002593962
 167140617, 0.001311202, 0.00198856, 0.01743083, 0.0002593962
 167240577, -0.0032327, 0.003207942, -0.009747019, 0.0002593962
 167340537, 0.0002814191, -0.005175947, -0.004644071, 0.0002593962
 167440497, 0.001555532, 0.002167521, 0.01751257, 0.0002593962
 167540457, 0.001573423, 0.0004839341, 0.01073076, 0.0002593962
 167640417, -0.001150821, 0.005538826, 0.01004077, 0.0002593962
 167740377, 0.000327923, 0.00693162, 0.01719713, 0.0002593962
 167840337, -0.001885747, 0.007031968, 0.0007041402, 0.0002593962
 167940297, -0.0006366431, 0.009990921, -0.007696257, 0.0002593962
 168040257, 0.001846157, 0.01015168, -0.0002995437, 0.0002593962
 168140217, 0.0006398011, 0.005016001, 0.01550377, 0.0002593962
 168240177, 0.004598629, 0.01209969, -0.03130492, 0.0002593962
 168340970, -0.002184263, 0.01709041, 0.02539751, 0.0002593962
 168440930, 0.001473536, 0.01587822, 0.01352536, 0.0002615578
 168540890, -0.0009947419, 0.0126097, -0.01221747, 0.0002593962
 168640850, -0.001613682, 0.009319656, 0.004627999, 0.0002593962
 168740810, 0.003642762, 0.01736318, 0.03855451, 0.0002593962
 168840770, 0.005329071, 0.01175843, 0.0004078759, 0.0002593962
 168940730, 0.004213867, 0.007503543, 0.0186982, 0.0002593962
 169040690, 0.006900652, 0.008794043, 0.04580523, 0.0002593962
 169140650, 0.002470833, 0.01286487, 0.01297065, 0.0002593962
 169240610, 0.004941285, 0.01871175, -0.0315752, 0.0002593962
 169340570, -0.000160108, 0.01493725, -0.03902052, 0.0002593962
 169440530, -0.004342888, 0.01785415, -0.02579769, 0.0002593962
 169540490, 0.001459929, 0.01733072, -0.01820271, 0.0002593962
