TimeUS,CGpN,CGpE,CGpD,CGpe,PGpN,PGpE,PGpD,PGpe
 77698908, 0, 0, 0, 2.5, 0, 0, 0, 0
 77806365, 0, 0, 0, 2.5, 0, 0, 0, 2.5
 78006285, 0, 0, 0, 2.5, 0, 0, 0, 2.5
 78206205, 0, 0, 0, 2.5, 0, 0, 0, 2.5
 78406125, 0, 0, 0, 2.5, 0, 0, 0, 2.5
 78606045, 0, 0, 0, 2.5, 0, 0, 0, 2.5
 78805965, 0, 0, 0, 2.5, 0, 0, 0, 2.5
 79005885, 0, 0, 0, 2.5, 0, 0, 0, 2.5
 79205805, 0, 0, 0, 2.5, 0, 0, 0, 2.5
 79406558, 0, 0, 0, 2.5, 0, 0, 0, 2.5
 79606478, 0, 0, 0, 2.5, 0, 0, 0, 2.5
 79806398, 0, 0, 0, 2.5, 0, 0, 0, 2.5
 80006318, 0, 0, 0, 2.5, 0, 0, 0, 2.5
 80206238, 0, 0, 0, 2.5, 0, 0, 0, 2.5
 80406158, 0, 0, 0, 2.5, 0, 0, 0, 2.5
 80606078, 0, 0, 0, 2.5, 0, 0, 0, 2.5
 80805998, 0, 0, 0, 2.5, 0, 0, 0, 2.5
 81005918, 0, 0, 0, 2.5, 0, 0, 0, 2.5
 81205838, 0, 0, 0, 2.5, 0, 0, 0, 2.5
 81406591, 0, 0, 0, 2.5, 0, 0, 0, 2.5
 81606511, 0, 0, 0, 2.5, 0, 0, 0, 2.5
 81806431, 0, 0, 0, 2.5, 0, 0, 0, 2.5
 82006351, 0, 0, 0, 2.5, 0, 0, 0, 2.5
 82206271, 0, 0, 0, 2.5, 0, 0, 0, 2.5
 82406191, 0, 0, 0, 2.5, 0, 0, 0, 2.5
 82606111, 0, 0, 0, 2.5, 0, 0, 0, 2.5
 82806031, 0, 0, 0, 2.5, 0, 0, 0, 2.5
 83005951, 0, 0, 0, 2.5, 0, 0, 0, 2.5
 83205871, 0, 0, 0, 2.5, 0, 0, 0, 2.5
 83405791, 0, 0, 0, 2.5, 0, 0, 0, 2.5
 83606544, 0, 0, 0, 2.5, 0, 0, 0, 2.5
 83806464, 0, 0, 0, 2.5, 0, 0, 0, 2.5
 84006384, 0, 0, 0, 2.5, 0, 0, 0, 2.5
 84206304, 0, 0, 0, 2.5, 0, 0, 0, 2.5
 84406224, 0, 0, 0, 2.5, 0, 0, 0, 2.5
 84606144, 0, 0, 0, 2.5, 0, 0, 0, 2.5
 84806064, 0, 0, 0, 2.5, 0, 0, 0, 2.5
 85005984, 0, 0, 0, 2.5, 0, 0, 0, 2.5
 85205904, 0, 0, 0, 2.5, 0, 0, 0, 2.5
 85405824, 0, 0, 0, 2.5, 0, 0, 0, 2.5
 85606577, 0, 0, 0, 2.5, 0, 0, 0, 2.5
 85806497, 0, 0, 0, 2.5, 0, 0, 0, 2.5
 86006417, 0, 0, 0, 2.5, 0, 0, 0, 2.5
 86206337, 0, 0, 0, 2.5, 0, 0, 0, 2.5
 86406257, 0, 0, 0, 2.5, 0, 0, 0, 2.5
 86606177, 0, 0, 0, 2.5, 0, 0, 0, 2.5
 86806097, 0, 0, 0, 2.5, 0, 0, 0, 2.5
 87006017, 0, 0, 0, 2.5, 0, 0, 0, 2.5
 87205937, 0, 0, 0, 2.5, 0, 0, 0, 2.5
 87405857, 0, 0, 0, 2.5, 0, 0, 0, 2.5
 87605777, 0, 0, 0, 2.5, 0, 0, 0, 2.5
 87806530, 0, 0, 0, 2.5, 0, 0, 0, 2.5
 88006450, 0, 0, 0, 2.5, 0, 0, 0, 2.5
 88206370, 0, 0, 0, 2.5, 0, 0, 0, 2.5
 88406290, 0, 0, 0, 2.5, 0, 0, 0, 2.5
 88606210, 0, 0, 0, 2.5, 0, 0, 0, 2.5
 88806130, 0, 0, 0, 2.5, 0, 0, 0, 2.5
 89006050, 0, 0, 0, 2.5, 0, 0, 0, 2.5
 89205970, 0, 0, 0, 2.5, 0, 0, 0, 2.5
 89405890, 0, 0, 0, 2.5, 0, 0, 0, 2.5
 89605810, 0, 0, 0, 2.5, 0, 0, 0, 2.5
 89806563, 0, 0, 0, 2.5, 0, 0, 0, 2.5
 90006483, 0, 0, 0, 2.5, 0, 0, 0, 2.5
 90206403, 0, 0, 0, 2.5, 0, 0, 0, 2.5
 90406323, 0, 0, 0, 2.5, 0, 0, 0, 2.5
 90606243, 0, 0, 0, 2.5, 0, 0, 0, 2.5
 90806163, 0, 0, 0, 2.5, 0, 0, 0, 2.5
 91006083, 0, 0, 0, 2.5, 0, 0, 0, 2.5
 91206003, 0, 0, 0, 2.5, 0, 0, 0, 2.5
 91405923, 0, 0, 0, 2.5, 0, 0, 0, 2.5
 91605843, 0, 0, 0, 2.5, 0, 0, 0, 2.5
 91805763, 0, 0, 0, 2.5, 0, 0, 0, 2.5
 92006516, 0, 0, 0, 2.5, 0, 0, 0, 2.5
 92206436, 0, 0, 0, 2.5, 0, 0, 0, 2.5
 92406356, 0, 0, 0, 2.5, 0, 0, 0, 2.5
 92606276, 0, 0, 0, 2.5, 0, 0, 0, 2.5
 92806196, 0, 0, 0, 2.5, 0, 0, 0, 2.5
 93006116, 0, 0, 0, 2.5, 0, 0, 0, 2.5
 93206036, 0, 0, 0, 2.5, 0, 0, 0, 2.5
 93405956, 0, 0, 0, 2.5, 0, 0, 0, 2.5
 93605876, 0, 0, 0, 2.5, 0, 0, 0, 2.5
 93805796, 0, 0, 0, 2.5, 0, 0, 0, 2.5
 94006549, 0, 0, 0, 2.5, 0, 0, 0, 2.5
 94206469, 0, 0, 0, 2.5, 0, 0, 0, 2.5
 94406389, 0, 0, 0, 2.5, 0, 0, 0, 2.5
 94606309, 0, 0, 0, 2.5, 0, 0, 0, 2.5
 94806229, 0, 0, 0, 2.5, 0, 0, 0, 2.5
 95006149, 0, 0, 0, 2.5, 0, 0, 0, 2.5
 95206069, 0, 0, 0, 2.5, 0, 0, 0, 2.5
 95405989, 0, 0, 0, 2.5, 0, 0, 0, 2.5
 95605909, 0, 0, 0, 2.5, 0, 0, 0, 2.5
 95805829, 0, 0, 0, 2.5, 0, 0, 0, 2.5
 96006582, 0, 0, 0, 2.5, 0, 0, 0, 2.5
 96206502, 0, 0, 0, 2.5, 0, 0, 0, 2.5
 96406422, 0, 0, 0, 2.5, 0, 0, 0, 2.5
 96606342, 0, 0, 0, 2.5, 0, 0, 0, 2.5
 96806262, 0, 0, 0, 2.5, 0, 0, 0, 2.5
 97006182, 0, 0, 0, 2.5, 0, 0, 0, 2.5
 97206102, 0, 0, 0, 2.5, 0, 0, 0, 2.5
 97406022, 0, 0, 0, 2.5, 0, 0, 0, 2.5
 97605942, 0, 0, 0, 2.5, 0, 0, 0, 2.5
 97805862, 0, 0, 0, 2.5, 0, 0, 0, 2.5
 98005782, 0, 0, 0, 2.5, 0, 0, 0, 2.5
 98206535, 0, 0, 0, 2.5, 0, 0, 0, 2.5
 98406455, 0, 0, 0, 2.5, 0, 0, 0, 2.5
 98606375, 0, 0, 0, 2.5, 0, 0, 0, 2.5
 98806295, 0, 0, 0, 2.5, 0, 0, 0, 2.5
 99006215, 0, 0, 0, 2.5, 0, 0, 0, 2.5
 99206135, 0, 0, 0, 2.5, 0, 0, 0, 2.5
 99406055, 0, 0, 0, 2.5, 0, 0, 0, 2.5
 99605975, 0, 0, 0, 2.5, 0, 0, 0, 2.5
 99805895, 0, 0, 0, 2.5, 0, 0, 0, 2.5
 100005815, 0, 0, 0, 2.5, 0, 0, 0, 2.5
 100206568, 0, 0, 0, 2.5, 0, 0, 0, 2.5
 100406488, 0, 0, 0, 2.5, 0, 0, 0, 2.5
 100606408, 0, 0, 0, 2.5, 0, 0, 0, 2.5
 100806328, 0, 0, 0, 2.5, 0, 0, 0, 2.5
 101006248, 0, 0, 0, 2.5, 0, 0, 0, 2.5
 101206168, 0, 0, 0, 2.5, 0, 0, 0, 2.5
 101406088, 0, 0, 0, 2.5, 0, 0, 0, 2.5
 101606008, 0, 0, 0, 2.5, 0, 0, 0, 2.5
 101805928, 0, 0, 0, 2.5, 0, 0, 0, 2.5
 102005848, 0, 0, 0, 2.5, 0, 0, 0, 2.5
 102205768, 0, 0, 0, 2.5, 0, 0, 0, 2.5
 102406521, 0, 0, 0, 2.5, 0, 0, 0, 2.5
 102606441, 0, 0, 0, 2.5, 0, 0, 0, 2.5
 102806361, 0, 0, 0, 2.5, 0, 0, 0, 2.5
 103006281, 0, 0, 0, 2.5, 0, 0, 0, 2.5
 103206201, 0, 0, 0, 2.5, 0, 0, 0, 2.5
 103406121, 0, 0, 0, 2.5, 0, 0, 0, 2.5
 103606041, 0, 0, 0, 2.5, 0, 0, 0, 2.5
 103805961, 0, 0, 0, 2.5, 0, 0, 0, 2.5
 104005881, 0, 0, 0, 2.5, 0, 0, 0, 2.5
 104205801, 0, 0, 0, 2.5, 0, 0, 0, 2.5
 104406554, 0, 0, 0, 2.5, 0, 0, 0, 2.5
 104606474, 0, 0, 0, 2.5, 0, 0, 0, 2.5
 104806394, 0, 0, 0, 2.5, 0, 0, 0, 2.5
 105006314, 0, 0, 0, 2.5, 0, 0, 0, 2.5
 105206234, 0, 0, 0, 2.5, 0, 0, 0, 2.5
 105406154, 0, 0, 0, 2.5, 0, 0, 0, 2.5
 105606074, 0, 0, 0, 2.5, 0, 0, 0, 2.5
 105805994, 0, 0, 0, 2.5, 0, 0, 0, 2.5
 106005914, 0, 0, 0, 2.5, 0, 0, 0, 2.5
 106205834, 0, 0, 0, 2.5, 0, 0, 0, 2.5
 106406587, 0, 0, 0, 2.5, 0, 0, 0, 2.5
 106606507, 0, 0, 0, 2.5, 0, 0, 0, 2.5
 106806427, 0, 0, 0, 2.5, 0, 0, 0, 2.5
 107006347, 0, 0, 0, 2.5, 0, 0, 0, 2.5
 107206267, 0, 0, 0, 2.5, 0, 0, 0, 2.5
 107406187, 0, 0, 0, 2.5, 0, 0, 0, 2.5
 107606107, 0, 0, 0, 2.5, 0, 0, 0, 2.5
 107806027, 0, 0, 0, 2.5, 0, 0, 0, 2.5
 108005947, 0, 0, 0, 2.5, 0, 0, 0, 2.5
 108205867, 0, 0, 0, 2.5, 0, 0, 0, 2.5
 108405787, 0, 0, 0, 2.5, 0, 0, 0, 2.5
 108606540, 0, 0, 0, 2.5, 0, 0, 0, 2.5
 108806460, 0, 0, 0, 2.5, 0, 0, 0, 2.5
 109006380, 0, 0, 0, 2.5, 0, 0, 0, 2.5
 109206300, 0, 0, 0, 2.5, 0, 0, 0, 2.5
 109406220, 0, 0, 0, 2.5, 0, 0, 0, 2.5
 109606140, 0, 0, 0, 2.5, 0, 0, 0, 2.5
 109806060, 0, 0, 0, 2.5, 0, 0, 0, 2.5
 110005980, 0, 0, 0, 2.5, 0, 0, 0, 2.5
 110205900, 0, 0, 0, 2.5, 0, 0, 0, 2.5
 110405820, 0, 0, 0, 2.5, 0, 0, 0, 2.5
 110606573, 0, 0, 0, 2.5, 0, 0, 0, 2.5
 110806493, 0, 0, 0, 2.5, 0, 0, 0, 2.5
 111006413, 0, 0, 0, 2.5, 0, 0, 0, 2.5
 111206333, 0, 0, 0, 2.5, 0, 0, 0, 2.5
 111406253, 0, 0, 0, 2.5, 0, 0, 0, 2.5
 111606173, 0, 0, 0, 2.5, 0, 0, 0, 2.5
 111806093, 0, 0, 0, 2.5, 0, 0, 0, 2.5
 112006013, 0, 0, 0, 2.5, 0, 0, 0, 2.5
 112205933, 0, 0, 0, 2.5, 0, 0, 0, 2.5
 112405853, 0, 0, 0, 2.5, 0, 0, 0, 2.5
 112605773, 0, 0, 0, 2.5, 0, 0, 0, 2.5
 112806526, 0, 0, 0, 2.5, 0, 0, 0, 2.5
 113006446, 0, 0, 0, 2.5, 0, 0, 0, 2.5
 113206366, 0, 0, 0, 2.5, 0, 0, 0, 2.5
 113406286, 0, 0, 0, 2.5, 0, 0, 0, 2.5
 113606206, 0, 0, 0, 2.5, 0, 0, 0, 2.5
 113806126, 0, 0, 0, 2.5, 0, 0, 0, 2.5
 114006046, 0, 0, 0, 2.5, 0, 0, 0, 2.5
 114205966, 0, 0, 0, 2.5, 0, 0, 0, 2.5
 114405886, 0, 0, 0, 2.5, 0, 0, 0, 2.5
 114605806, 0, 0, 0, 2.5, 0, 0, 0, 2.5
 114806559, 0, 0, 0, 2.5, 0, 0, 0, 2.5
 115006479, 0, 0, 0, 2.5, 0, 0, 0, 2.5
 115206399, 0, 0, 0, 2.5, 0, 0, 0, 2.5
 115406319, 0, 0, 0, 2.5, 0, 0, 0, 2.5
 115606239, 0, 0, 0, 2.5, 0, 0, 0, 2.5
 115806159, 0, 0, 0, 2.5, 0, 0, 0, 2.5
 116006079, 0, 0, 0, 2.5, 0, 0, 0, 2.5
 116205999, 0, 0, 0, 2.5, 0, 0, 0, 2.5
 116405919, 0, 0, 0, 2.5, 0, 0, 0, 2.5
 116605839, 0, 0, 0, 2.5, 0, 0, 0, 2.5
 116806592, 0, 0, 0, 2.5, 0, 0, 0, 2.5
 117006512, 0, 0, 0, 2.5, 0, 0, 0, 2.5
 117206432, 0, 0, 0, 2.5, 0, 0, 0, 2.5
 117406352, 0, 0, 0, 2.5, 0, 0, 0, 2.5
 117606272, 0, 0, 0, 2.5, 0, 0, 0, 2.5
 117806192, 0, 0, 0, 2.5, 0, 0, 0, 2.5
 118006112, 0, 0, 0, 2.5, 0, 0, 0, 2.5
 118206032, 0, 0, 0, 2.5, 0, 0, 0, 2.5
 118405952, 0, 0, 0, 2.5, 0, 0, 0, 2.5
 118605872, 0, 0, 0, 2.5, 0, 0, 0, 2.5
 118805792, 0, 0, 0, 2.5, 0, 0, 0, 2.5
 119006545, 0, 0, 0, 2.5, 0, 0, 0, 2.5
 119206465, 0, 0, 0, 2.5, 0, 0, 0, 2.5
 119406385, 0, 0, 0, 2.5, 0, 0, 0, 2.5
 119606305, 0, 0, 0, 2.5, 0, 0, 0, 2.5
 119806225, 0, 0, 0, 2.5, 0, 0, 0, 2.5
 120006145, 0, 0, 0, 2.5, 0, 0, 0, 2.5
 120206065, 0, 0, 0, 2.5, 0, 0, 0, 2.5
 120405985, 0, 0, 0, 2.5, 0, 0, 0, 2.5
 120605905, 0, 0, 0, 2.5, 0, 0, 0, 2.5
 120805825, 0, 0, 0, 2.5, 0, 0, 0, 2.5
 121006578, 0, 0, 0, 2.5, 0, 0, 0, 2.5
 121206498, 0, 0, 0, 2.5, 0, 0, 0, 2.5
 121406418, 0, 0, 0, 2.5, 0, 0, 0, 2.5
 121606338, 0, 0, 0, 2.5, 0, 0, 0, 2.5
 121806258, 0, 0, 0, 2.5, 0, 0, 0, 2.5
 122006178, 0, 0, 0, 2.5, 0, 0, 0, 2.5
 122206098, 0, 0, 0, 2.5, 0, 0, 0, 2.5
 122406018, 0, 0, 0, 2.5, 0, 0, 0, 2.5
 122605938, 0, 0, 0, 2.5, 0, 0, 0, 2.5
 122805858, 0, 0, 0, 2.5, 0, 0, 0, 2.5
 123005778, 0, 0, 0, 2.5, 0, 0, 0, 2.5
 123206531, 0, 0, 0, 2.5, 0, 0, 0, 2.5
 123406451, 0, 0, 0, 2.5, 0, 0, 0, 2.5
 123606371, 0, 0, 0, 2.5, 0, 0, 0, 2.5
 123806291, 0, 0, 0, 2.5, 0, 0, 0, 2.5
 124006211, 0, 0, 0, 2.5, 0, 0, 0, 2.5
 124206131, 0, 0, 0, 2.5, 0, 0, 0, 2.5
 124406051, 0, 0, 0, 2.5, 0, 0, 0, 2.5
 124605971, 0, 0, 0, 2.5, 0, 0, 0, 2.5
 124805891, 0, 0, 0, 2.5, 0, 0, 0, 2.5
 125005811, 0, 0, 0, 2.5, 0, 0, 0, 2.5
 125206564, 0, 0, 0, 2.5, 0, 0, 0, 2.5
 125406484, 0, 0, 0, 2.5, 0, 0, 0, 2.5
 125606404, 0, 0, 0, 2.5, 0, 0, 0, 2.5
 125806324, 0, 0, 0, 2.5, 0, 0, 0, 2.5
 126006244, 0, 0, 0, 2.5, 0, 0, 0, 2.5
 126206164, 0, 0, 0, 2.5, 0, 0, 0, 2.5
 126406084, 0, 0, 0, 2.5, 0, 0, 0, 2.5
 126606004, 0, 0, 0, 2.5, 0, 0, 0, 2.5
 126805924, 0, 0, 0, 2.5, 0, 0, 0, 2.5
 127005844, 0, 0, 0, 2.5, 0, 0, 0, 2.5
 127205764, 0, 0, 0, 2.5, 0, 0, 0, 2.5
 127406517, 0, 0, 0, 2.5, 0, 0, 0, 2.5
 127606437, 0, 0, 0, 2.5, 0, 0, 0, 2.5
 127806357, 0, 0, 0, 2.5, 0, 0, 0, 2.5
 128006277, 0, 0, 0, 2.5, 0, 0, 0, 2.5
 128206197, 0, 0, 0, 2.5, 0, 0, 0, 2.5
 128406117, 0, 0, 0, 2.5, 0, 0, 0, 2.5
 128606037, 0, 0, 0, 2.5, 0, 0, 0, 2.5
 128805957, 0, 0, 0, 2.5, 0, 0, 0, 2.5
 129005877, 0, 0, 0, 2.5, 0, 0, 0, 2.5
 129205797, 0, 0, 0, 2.5, 0, 0, 0, 2.5
 129406550, 0, 0, 0, 2.5, 0, 0, 0, 2.5
 129606470, 0, 0, 0, 2.5, 0, 0, 0, 2.5
 129806390, 0, 0, 0, 2.5, 0, 0, 0, 2.5
 130006310, 0, 0, 0, 2.5, 0, 0, 0, 2.5
 130206230, 0, 0, 0, 2.5, 0, 0, 0, 2.5
 130406150, 0, 0, 0, 2.5, 0, 0, 0, 2.5
 130606070, 0, 0, 0, 2.5, 0, 0, 0, 2.5
 130805990, 0, 0, 0, 2.5, 0, 0, 0, 2.5
 131005910, 0, 0, 0, 2.5, 0, 0, 0, 2.5
 131205830, 0, 0, 0, 2.5, 0, 0, 0, 2.5
 131406583, 0, 0, 0, 2.5, 0, 0, 0, 2.5
 131606503, 0, 0, 0, 2.5, 0, 0, 0, 2.5
 131806423, 0, 0, 0, 2.5, 0, 0, 0, 2.5
 132006343, 0, 0, 0, 2.5, 0, 0, 0, 2.5
 132206263, 0, 0, 0, 2.5, 0, 0, 0, 2.5
 132406183, 0, 0, 0, 2.5, 0, 0, 0, 2.5
 132606103, 0, 0, 0, 2.5, 0, 0, 0, 2.5
 132806023, 0, 0, 0, 2.5, 0, 0, 0, 2.5
 133005943, 0, 0, 0, 2.5, 0, 0, 0, 2.5
 133205863, 0, 0, 0, 2.5, 0, 0, 0, 2.5
 133405783, 0, 0, 0, 2.5, 0, 0, 0, 2.5
 133606536, 0, 0, 0, 2.5, 0, 0, 0, 2.5
 133806456, 0, 0, 0, 2.5, 0, 0, 0, 2.5
 134006376, 0, 0, 0, 2.5, 0, 0, 0, 2.5
 134206296, 0, 0, 0, 2.5, 0, 0, 0, 2.5
 134406216, 0, 0, 0, 2.5, 0, 0, 0, 2.5
 134606136, 0, 0, 0, 2.5, 0, 0, 0, 2.5
 134806056, 0, 0, 0, 2.5, 0, 0, 0, 2.5
 135005976, 0, 0, 0, 2.5, 0, 0, 0, 2.5
 135205896, 0, 0, 0, 2.5, 0, 0, 0, 2.5
 135405816, 0, 0, 0, 2.5, 0, 0, 0, 2.5
 135606569, 0, 0, 0, 2.5, 0, 0, 0, 2.5
 135806489, 0, 0, 0, 2.5, 0, 0, 0, 2.5
 136006409, 0, 0, 0, 2.5, 0, 0, 0, 2.5
 136206329, 0, 0, 0, 2.5, 0, 0, 0, 2.5
 136406249, 0, 0, 0, 2.5, 0, 0, 0, 2.5
 136606169, 0, 0, 0, 2.5, 0, 0, 0, 2.5
 136806089, 0, 0, 0, 2.5, 0, 0, 0, 2.5
 137006009, 0, 0, 0, 2.5, 0, 0, 0, 2.5
 137205929, 0, 0, 0, 2.5, 0, 0, 0, 2.5
 137405849, 0, 0, 0, 2.5, 0, 0, 0, 2.5
 137605769, 0, 0, 0, 2.5, 0, 0, 0, 2.5
 137806522, 0, 0, 0, 2.5, 0, 0, 0, 2.5
 138006442, 0, 0, 0, 2.5, 0, 0, 0, 2.5
 138206362, 0, 0, 0, 2.5, 0, 0, 0, 2.5
 138406282, 0, 0, 0, 2.5, 0, 0, 0, 2.5
 138606202, 0, 0, 0, 2.5, 0, 0, 0, 2.5
 138806122, 0, 0, 0, 2.5, 0, 0, 0, 2.5
 139006042, 0, 0, 0, 2.5, 0, 0, 0, 2.5
 139205962, 0, 0, 0, 2.5, 0, 0, 0, 2.5
 139405882, 0, 0, 0, 2.5, 0, 0, 0, 2.5
 139605802, 0, 0, 0, 2.5, 0, 0, 0, 2.5
 139806555, 0, 0, 0, 2.5, 0, 0, 0, 2.5
 140006475, 0, 0, 0, 2.5, 0, 0, 0, 2.5
 140206395, 0, 0, 0, 2.5, 0, 0, 0, 2.5
 140406315, 0, 0, 0, 2.5, 0, 0, 0, 2.5
 140606235, 0, 0, 0, 2.5, 0, 0, 0, 2.5
 140806155, 0, 0, 0, 2.5, 0, 0, 0, 2.5
 141006075, 0, 0, 0, 2.5, 0, 0, 0, 2.5
 141205995, 0, 0, 0, 2.5, 0, 0, 0, 2.5
 141405915, 0, 0, 0, 2.5, 0, 0, 0, 2.5
 141605835, 0, 0, 0, 2.5, 0, 0, 0, 2.5
 141806588, 0, 0, 0, 2.5, 0, 0, 0, 2.5
 142006508, 0, 0, 0, 2.5, 0, 0, 0, 2.5
 142206428, 0, 0, 0, 2.5, 0, 0, 0, 2.5
 142406348, 0, 0, 0, 2.5, 0, 0, 0, 2.5
 142606268, 0, 0, 0, 2.5, 0, 0, 0, 2.5
 142806188, 0, 0, 0, 2.5, 0, 0, 0, 2.5
 143006108, 0, 0, 0, 2.5, 0, 0, 0, 2.5
 143206028, 0, 0, 0, 2.5, 0, 0, 0, 2.5
 143405948, 0, 0, 0, 2.5, 0, 0, 0, 2.5
 143605868, 0, 0, 0, 2.5, 0, 0, 0, 2.5
 143805788, 0, 0, 0, 2.5, 0, 0, 0, 2.5
 144006541, 0, 0, 0, 2.5, 0, 0, 0, 2.5
 144206461, 0, 0, 0, 2.5, 0, 0, 0, 2.5
 144406381, 0, 0, 0, 2.5, 0, 0, 0, 2.5
 144606301, 0, 0, 0, 2.5, 0, 0, 0, 2.5
 144806221, 0, 0, 0, 2.5, 0, 0, 0, 2.5
 145006141, 0, 0, 0, 2.5, 0, 0, 0, 2.5
 145206061, 0, 0, 0, 2.5, 0, 0, 0, 2.5
 145405981, 0, 0, -0.033, 2.5, 0, 0, 0, 2.5
 145605901, 0, 0, -0.677, 2.5, 0, 0, -0.033, 2.5
 145805821, -0.002, -0.001, -1.63, 2.5, 0, 0, -0.677, 2.5
 146006574, -0.011, -0.009000001, -3.095, 2.5, -0.002, -0.001, -1.63, 2.5
 146206494, -0.024, -0.019, -3.893, 2.5, -0.011, -0.009000001, -3.095, 2.5
 146406414, -0.036, -0.029, -4.557, 2.5, -0.024, -0.019, -3.893, 2.5
 146606334, -0.048, -0.039, -5.197, 2.5, -0.036, -0.029, -4.557, 2.5
 146806254, -0.058, -0.047, -5.737, 2.5, -0.048, -0.039, -5.197, 2.5
 147006174, -0.068, -0.054, -6.183, 2.5, -0.058, -0.047, -5.737, 2.5
 147206094, -0.07600001, -0.06, -6.556, 2.5, -0.068, -0.054, -6.183, 2.5
 147406014, -0.082, -0.066, -6.866, 2.5, -0.07600001, -0.06, -6.556, 2.5
 147605934, -0.08800001, -0.07, -7.12, 2.5, -0.082, -0.066, -6.866, 2.5
 147805854, -0.09100001, -0.07300001, -6.714, 2.5, -0.08800001, -0.07, -7.12, 2.5
 148005774, -0.09200001, -0.074, -6.084, 2.5, -0.09100001, -0.07300001, -6.714, 2.5
 148206527, -0.094, -0.07600001, -5.547, 2.5, -0.09200001, -0.074, -6.084, 2.5
 148406447, -0.094, -0.07600001, -4.043, 2.5, -0.094, -0.07600001, -5.547, 2.5
 148606367, -0.082, -0.075, -2.553, 2.5, -0.094, -0.07600001, -4.043, 2.5
 148806287, -0.052, -0.063, -1.594, 2.5, -0.082, -0.075, -2.553, 2.5
 149006207, 0.002, -0.021, -0.9620001, 2.5, -0.052, -0.063, -1.594, 2.5
 149206127, 0.07700001, 0.048, -0.566, 2.5, 0.002, -0.021, -0.9620001, 2.5
 149406047, 0.195, 0.127, -0.358, 2.5, 0.07700001, 0.048, -0.566, 2.5
 149605967, 0.378, 0.238, -0.289, 2.5, 0.195, 0.127, -0.358, 2.5
 149805887, 0.614, 0.317, -0.317, 2.5, 0.378, 0.238, -0.289, 2.5
 150005807, 0.896, 0.363, -0.405, 2.5, 0.614, 0.317, -0.317, 2.5
 150206560, 1.222, 0.436, -0.531, 2.5, 0.896, 0.363, -0.405, 2.5
 150406480, 1.585, 0.528, -0.6760001, 2.5, 1.222, 0.436, -0.531, 2.5
 150606400, 1.968, 0.661, -0.8330001, 2.5, 1.585, 0.528, -0.6760001, 2.5
 150806320, 2.363, 0.877, -0.997, 2.5, 1.968, 0.661, -0.8330001, 2.5
 151006240, 2.776, 1.119, -1.167, 2.5, 2.363, 0.877, -0.997, 2.5
 151206160, 3.195, 1.338, -1.339, 2.5, 2.776, 1.119, -1.167, 2.5
 151406080, 3.59, 1.542, -1.502, 2.5, 3.195, 1.338, -1.339, 2.5
 151606000, 3.947, 1.758, -1.65, 2.5, 3.59, 1.542, -1.502, 2.5
 151805920, 4.273, 1.949, -1.781, 2.5, 3.947, 1.758, -1.65, 2.5
 152005840, 4.554, 2.096, -1.897, 2.5, 4.273, 1.949, -1.781, 2.5
 152205760, 4.797, 2.192, -1.994, 2.5, 4.554, 2.096, -1.897, 2.5
 152406513, 5.004, 2.264, -2.077, 2.5, 4.797, 2.192, -1.994, 2.5
 152606433, 5.214, 2.337, -2.142, 2.5, 5.004, 2.264, -2.077, 2.5
 152806353, 5.4, 2.404, -2.198, 2.5, 5.214, 2.337, -2.142, 2.5
 153006273, 5.568, 2.463, -2.24, 2.5, 5.4, 2.404, -2.198, 2.5
 153206193, 5.705, 2.527, -2.273, 2.5, 5.568, 2.463, -2.24, 2.5
 153406113, 5.796, 2.554, -2.294, 2.5, 5.705, 2.527, -2.273, 2.5
 153606033, 5.823, 2.54, -2.303, 2.5, 5.796, 2.554, -2.294, 2.5
 153805953, 5.807, 2.51, -2.297, 2.5, 5.823, 2.54, -2.303, 2.5
 154005873, 5.78, 2.486, -2.282, 2.5, 5.807, 2.51, -2.297, 2.5
 154205793, 5.775, 2.492, -2.263, 2.5, 5.78, 2.486, -2.282, 2.5
 154406546, 5.783, 2.506, -2.239, 2.5, 5.775, 2.492, -2.263, 2.5
 154606466, 5.805, 2.494, -2.272, 2.5, 5.783, 2.506, -2.239, 2.5
 154806386, 5.841, 2.481, -2.229, 2.5, 5.805, 2.494, -2.272, 2.5
 155006306, 5.862, 2.445, -2.149, 2.5, 5.841, 2.481, -2.229, 2.5
 155206226, 5.875, 2.418, -2.047, 2.5, 5.862, 2.445, -2.149, 2.5
 155406146, 5.873, 2.398, -1.935, 2.5, 5.875, 2.418, -2.047, 2.5
 155606066, 5.88, 2.358, -1.815, 2.5, 5.873, 2.398, -1.935, 2.5
 155805986, 5.889, 2.311, -1.689, 2.5, 5.88, 2.358, -1.815, 2.5
 156005906, 5.896, 2.213, -1.556, 2.5, 5.889, 2.311, -1.689, 2.5
 156205826, 5.929, 2.062, -1.411, 2.5, 5.896, 2.213, -1.556, 2.5
 156406579, 5.972, 1.901, -1.254, 2.5, 5.929, 2.062, -1.411, 2.5
 156606499, 6.035, 1.723, -1.086, 2.5, 5.972, 1.901, -1.254, 2.5
 156806419, 6.119, 1.513, -0.914, 2.5, 6.035, 1.723, -1.086, 2.5
 157006339, 6.22, 1.254, -0.7450001, 2.5, 6.119, 1.513, -0.914, 2.5
 157206259, 6.328, 0.96, -0.591, 2.5, 6.22, 1.254, -0.7450001, 2.5
 157406179, 6.438, 0.663, -0.451, 2.5, 6.328, 0.96, -0.591, 2.5
 157606099, 6.554, 0.373, -0.328, 2.5, 6.438, 0.663, -0.451, 2.5
 157806019, 6.744, 0.126, -0.219, 2.5, 6.554, 0.373, -0.328, 2.5
 158005939, 7.007, -0.061, -0.129, 2.5, 6.744, 0.126, -0.219, 2.5
 158205859, 7.317, -0.186, -0.058, 2.5, 7.007, -0.061, -0.129, 2.5
 158405779, 7.653, -0.24, -0.005, 2.5, 7.317, -0.186, -0.058, 2.5
 158606532, 7.961, -0.258, 0.03, 2.5, 7.653, -0.24, -0.005, 2.5
 158806452, 8.236, -0.277, 0.056, 2.5, 7.961, -0.258, 0.03, 2.5
 159006372, 8.512, -0.313, 0.071, 2.5, 8.236, -0.277, 0.056, 2.5
 159206292, 8.766001, -0.296, 0.06900001, 2.5, 8.512, -0.313, 0.071, 2.5
 159406212, 9.007, -0.246, 0.058, 2.5, 8.766001, -0.296, 0.06900001, 2.5
 159606132, 9.223001, -0.192, 0.043, 2.5, 9.007, -0.246, 0.058, 2.5
 159806052, 9.410001, -0.121, 0.028, 2.5, 9.223001, -0.192, 0.043, 2.5
 160005972, 9.570001, -0.051, 0.016, 2.5, 9.410001, -0.121, 0.028, 2.5
 160205892, 9.707001, 0.004, 0.006, 2.5, 9.570001, -0.051, 0.016, 2.5
 160405812, 9.825001, 0.042, -0.001, 2.5, 9.707001, 0.004, 0.006, 2.5
 160606565, 9.924001, 0.07, -0.008, 2.5, 9.825001, 0.042, -0.001, 2.5
 160806485, 9.986, 0.094, -0.016, 2.5, 9.924001, 0.07, -0.008, 2.5
 161006405, 10.009, 0.119, -0.022, 2.5, 9.986, 0.094, -0.016, 2.5
 161206325, 10.017, 0.128, -0.022, 2.5, 10.009, 0.119, -0.022, 2.5
 161406245, 10.034, 0.09, -0.022, 2.5, 10.017, 0.128, -0.022, 2.5
 161606165, 10.032, 0.033, -0.025, 2.5, 10.034, 0.09, -0.022, 2.5
 161806085, 10.028, -0.017, -0.023, 2.5, 10.032, 0.033, -0.025, 2.5
 162006005, 10.03, -0.057, -0.023, 2.5, 10.028, -0.017, -0.023, 2.5
 162205925, 10.04, -0.079, -0.021, 2.5, 10.03, -0.057, -0.023, 2.5
 162405845, 10.075, -0.13, -0.019, 2.5, 10.04, -0.079, -0.021, 2.5
 162605765, 10.108, -0.209, -0.02, 2.5, 10.075, -0.13, -0.019, 2.5
 162806518, 10.137, -0.266, -0.02, 2.5, 10.108, -0.209, -0.02, 2.5
 163006438, 10.174, -0.313, -0.02, 2.5, 10.137, -0.266, -0.02, 2.5
 163206358, 10.19, -0.348, -0.025, 2.5, 10.174, -0.313, -0.02, 2.5
 163406278, 10.176, -0.353, -0.027, 2.5, 10.19, -0.348, -0.025, 2.5
 163606198, 10.151, -0.346, -0.027, 2.5, 10.176, -0.353, -0.027, 2.5
 163806118, 10.124, -0.329, -0.026, 2.5, 10.151, -0.346, -0.027, 2.5
 164006038, 10.09, -0.275, -0.025, 2.5, 10.124, -0.329, -0.026, 2.5
 164205958, 10.054, -0.204, -0.025, 2.5, 10.09, -0.275, -0.025, 2.5
 164405878, 9.988001, -0.165, -0.028, 2.5, 10.054, -0.204, -0.025, 2.5
 164605798, 9.891001, -0.139, -0.025, 2.5, 9.988001, -0.165, -0.028, 2.5
 164806551, 9.862, -0.09200001, -0.015, 2.5, 9.891001, -0.139, -0.025, 2.5
 165006471, 9.849001, -0.027, -0.017, 2.5, 9.862, -0.09200001, -0.015, 2.5
 165206391, 9.832001, 0.037, -0.015, 2.5, 9.849001, -0.027, -0.017, 2.5
 165406311, 9.844001, 0.062, -0.011, 2.5, 9.832001, 0.037, -0.015, 2.5
 165606231, 9.902, 0.071, -0.008, 2.5, 9.844001, 0.062, -0.011, 2.5
 165806151, 9.967, 0.112, -0.011, 2.5, 9.902, 0.071, -0.008, 2.5
 166006071, 10.007, 0.164, -0.016, 2.5, 9.967, 0.112, -0.011, 2.5
 166205991, 10.013, 0.202, -0.02, 2.5, 10.007, 0.164, -0.016, 2.5
 166405911, 10.012, 0.193, -0.019, 2.5, 10.013, 0.202, -0.02, 2.5
 166605831, 10, 0.136, -0.019, 2.5, 10.012, 0.193, -0.019, 2.5
 166806584, 9.981001, 0.058, -0.016, 2.5, 10, 0.136, -0.019, 2.5
 167006504, 9.973001, -0.04, -0.012, 2.5, 9.981001, 0.058, -0.016, 2.5
 167206424, 9.993, -0.133, -0.008, 2.5, 9.973001, -0.04, -0.012, 2.5
 167406344, 10.018, -0.2, -0.01, 2.5, 9.993, -0.133, -0.008, 2.5
 167606264, 10.007, -0.229, -0.014, 2.5, 10.018, -0.2, -0.01, 2.5
 167806184, 10, -0.203, -0.011, 2.5, 10.007, -0.229, -0.014, 2.5
 168006104, 10.003, -0.16, -0.009000001, 2.5, 10, -0.203, -0.011, 2.5
 168206024, 10.009, -0.102, -0.01, 2.5, 10.003, -0.16, -0.009000001, 2.5
 168405944, 9.976001, -0.057, -0.013, 2.5, 10.009, -0.102, -0.01, 2.5
 168605864, 9.954, -0.058, -0.007, 2.5, 9.976001, -0.057, -0.013, 2.5
 168805784, 9.959001, -0.102, -0.004, 2.5, 9.954, -0.058, -0.007, 2.5
 169006537, 9.981001, -0.171, -0.003, 2.5, 9.959001, -0.102, -0.004, 2.5
 169206457, 10, -0.195, -0.004, 2.5, 9.981001, -0.171, -0.003, 2.5
 169406377, 10.041, -0.182, -0.001, 2.5, 10, -0.195, -0.004, 2.5
 169606297, 10.09, -0.176, -0.003, 2.5, 10.041, -0.182, -0.001, 2.5
 169806217, 10.135, -0.144, -0.004, 2.5, 10.09, -0.176, -0.003, 2.5
 170006137, 10.174, -0.105, -0.005, 2.5, 10.135, -0.144, -0.004, 2.5
 170206057, 10.193, -0.08000001, -0.008, 2.5, 10.174, -0.105, -0.005, 2.5
 170405977, 10.176, -0.02, -0.01, 2.5, 10.193, -0.08000001, -0.008, 2.5
 170605897, 10.146, 0.045, -0.008, 2.5, 10.176, -0.02, -0.01, 2.5
 170805817, 10.11, 0.089, -0.008, 2.5, 10.146, 0.045, -0.008, 2.5
 171006570, 10.036, 0.117, -0.008, 2.5, 10.11, 0.089, -0.008, 2.5
 171206490, 9.97, 0.139, -0.003, 2.5, 10.036, 0.117, -0.008, 2.5
 171406410, 9.915001, 0.137, 0, 2.5, 9.97, 0.139, -0.003, 2.5
 171606330, 9.908001, 0.124, 0.005, 2.5, 9.915001, 0.137, 0, 2.5
 171806250, 9.884001, 0.113, 0, 2.5, 9.908001, 0.124, 0.005, 2.5
 172006170, 9.844001, 0.105, 0.001, 2.5, 9.884001, 0.113, 0, 2.5
 172206090, 9.822001, 0.09200001, 0.003, 2.5, 9.844001, 0.105, 0.001, 2.5
 172406010, 9.817, 0.063, 0.005, 2.5, 9.822001, 0.09200001, 0.003, 2.5
 172605930, 9.816001, 0.07300001, 0.005, 2.5, 9.817, 0.063, 0.005, 2.5
 172805850, 9.856001, 0.093, 0.009000001, 2.5, 9.816001, 0.07300001, 0.005, 2.5
 173005770, 9.918, 0.132, 0.008, 2.5, 9.856001, 0.093, 0.009000001, 2.5
 173206523, 9.982, 0.158, 0.005, 2.5, 9.918, 0.132, 0.008, 2.5
 173406443, 10.015, 0.188, 0, 2.5, 9.982, 0.158, 0.005, 2.5
 173606363, 10.046, 0.212, 0, 2.5, 10.015, 0.188, 0, 2.5
 173806283, 10.072, 0.214, -0.002, 2.5, 10.046, 0.212, 0, 2.5
 174006203, 10.057, 0.2, -0.006, 2.5, 10.072, 0.214, -0.002, 2.5
 174206123, 10.022, 0.182, -0.004, 2.5, 10.057, 0.2, -0.006, 2.5
 174406043, 9.993, 0.15, -0.002, 2.5, 10.022, 0.182, -0.004, 2.5
 174605963, 9.937, 0.1, -0.003, 2.5, 9.993, 0.15, -0.002, 2.5
 174805883, 9.883, 0.035, 0, 2.5, 9.937, 0.1, -0.003, 2.5
 175005803, 9.844001, -0.026, 0.004, 2.5, 9.883, 0.035, 0, 2.5
 175206556, 9.862, -0.078, 0.009000001, 2.5, 9.844001, -0.026, 0.004, 2.5
 175406476, 9.884001, -0.11, 0.005, 2.5, 9.862, -0.078, 0.009000001, 2.5
 175606396, 9.891001, -0.121, 0.003, 2.5, 9.884001, -0.11, 0.005, 2.5
 175806316, 9.913, -0.133, 0.004, 2.5, 9.891001, -0.121, 0.003, 2.5
 176006236, 9.949, -0.107, 0.004, 2.5, 9.913, -0.133, 0.004, 2.5
 176206156, 9.995001, -0.054, 0.003, 2.5, 9.949, -0.107, 0.004, 2.5
 176406076, 10.042, 0.002, 0.002, 2.5, 9.995001, -0.054, 0.003, 2.5
 176605996, 10.076, 0.061, 0.001, 2.5, 10.042, 0.002, 0.002, 2.5
 176805916, 10.114, 0.12, 0.002, 2.5, 10.076, 0.061, 0.001, 2.5
 177005836, 10.153, 0.167, 0.001, 2.5, 10.114, 0.12, 0.002, 2.5
 177206589, 10.189, 0.19, 0.002, 2.5, 10.153, 0.167, 0.001, 2.5
 177406509, 10.221, 0.197, 0.002, 2.5, 10.189, 0.19, 0.002, 2.5
 177606429, 10.245, 0.195, 0.001, 2.5, 10.221, 0.197, 0.002, 2.5
 177806349, 10.26, 0.157, 0.001, 2.5, 10.245, 0.195, 0.001, 2.5
 178006269, 10.255, 0.13, -0.001, 2.5, 10.26, 0.157, 0.001, 2.5
 178206189, 10.219, 0.102, -0.002, 2.5, 10.255, 0.13, -0.001, 2.5
 178406109, 10.168, 0.071, -0.001, 2.5, 10.219, 0.102, -0.002, 2.5
 178606029, 10.123, 0.035, 0.001, 2.5, 10.168, 0.071, -0.001, 2.5
 178805949, 10.101, 0.006, 0.005, 2.5, 10.123, 0.035, 0.001, 2.5
 179005869, 10.102, -0.021, 0.007, 2.5, 10.101, 0.006, 0.005, 2.5
 179205789, 10.09, -0.051, 0.003, 2.5, 10.102, -0.021, 0.007, 2.5
 179406542, 10.069, -0.113, 0.003, 2.5, 10.09, -0.051, 0.003, 2.5
 179606462, 10.068, -0.178, 0.005, 2.5, 10.069, -0.113, 0.003, 2.5
 179806382, 10.059, -0.226, 0.002, 2.5, 10.068, -0.178, 0.005, 2.5
 180006302, 10.036, -0.283, 0.001, 2.5, 10.059, -0.226, 0.002, 2.5
 180206222, 10.006, -0.3, 0, 2.5, 10.036, -0.283, 0.001, 2.5
 180406142, 9.968, -0.256, 0, 2.5, 10.006, -0.3, 0, 2.5
 180606062, 9.929001, -0.177, 0.001, 2.5, 9.968, -0.256, 0, 2.5
 180805982, 9.908001, -0.082, 0.004, 2.5, 9.929001, -0.177, 0.001, 2.5
 181005902, 9.897, 0.014, 0.004, 2.5, 9.908001, -0.082, 0.004, 2.5
 181205822, 9.892, 0.09500001, 0.004, 2.5, 9.897, 0.014, 0.004, 2.5
 181406575, 9.869, 0.186, 0.002, 2.5, 9.892, 0.09500001, 0.004, 2.5
 181606495, 9.867001, 0.257, 0.006, 2.5, 9.869, 0.186, 0.002, 2.5
 181806415, 9.881001, 0.293, 0.006, 2.5, 9.867001, 0.257, 0.006, 2.5
 182006335, 9.888, 0.322, 0.003, 2.5, 9.881001, 0.293, 0.006, 2.5
 182206255, 9.863001, 0.331, 0, 2.5, 9.888, 0.322, 0.003, 2.5
 182406175, 9.854, 0.292, 0.003, 2.5, 9.863001, 0.331, 0, 2.5
 182606095, 9.871, 0.215, 0.004, 2.5, 9.854, 0.292, 0.003, 2.5
 182806015, 9.883, 0.125, 0.002, 2.5, 9.871, 0.215, 0.004, 2.5
 183005935, 9.884001, 0.072, 0.001, 2.5, 9.883, 0.125, 0.002, 2.5
 183205855, 9.877001, 0.034, 0, 2.5, 9.884001, 0.072, 0.001, 2.5
 183405775, 9.869, -0.008, 0.001, 2.5, 9.877001, 0.034, 0, 2.5
 183606528, 9.872001, -0.038, 0.001, 2.5, 9.869, -0.008, 0.001, 2.5
 183806448, 9.846001, -0.067, -0.001, 2.5, 9.872001, -0.038, 0.001, 2.5
 184006368, 9.816001, -0.109, 0, 2.5, 9.846001, -0.067, -0.001, 2.5
 184206288, 9.804001, -0.151, 0.003, 2.5, 9.816001, -0.109, 0, 2.5
 184406208, 9.795, -0.176, 0.002, 2.5, 9.804001, -0.151, 0.003, 2.5
 184606128, 9.766001, -0.177, 0, 2.5, 9.795, -0.176, 0.002, 2.5
 184806048, 9.714001, -0.128, -0.001, 2.5, 9.766001, -0.177, 0, 2.5
 185005968, 9.650001, -0.094, -0.003, 2.5, 9.714001, -0.128, -0.001, 2.5
 185205888, 9.506001, -0.07300001, -0.008, 2.5, 9.650001, -0.094, -0.003, 2.5
 185405808, 9.331, -0.056, -0.004, 2.5, 9.506001, -0.07300001, -0.008, 2.5
 185606561, 9.124001, -0.041, -0.002, 2.5, 9.331, -0.056, -0.004, 2.5
 185806481, 8.898001, -0.049, 0, 2.5, 9.124001, -0.041, -0.002, 2.5
 186006401, 8.623, -0.07600001, 0.001, 2.5, 8.898001, -0.049, 0, 2.5
 186206321, 8.293, -0.127, 0.004, 2.5, 8.623, -0.07600001, 0.001, 2.5
 186406241, 7.888, -0.162, 0.009000001, 2.5, 8.293, -0.127, 0.004, 2.5
 186606161, 7.447001, -0.204, 0.016, 2.5, 7.888, -0.162, 0.009000001, 2.5
 186806081, 6.958, -0.232, 0.021, 2.5, 7.447001, -0.204, 0.016, 2.5
 187006001, 6.408, -0.245, 0.026, 2.5, 6.958, -0.232, 0.021, 2.5
 187205921, 5.855, -0.207, 0.027, 2.5, 6.408, -0.245, 0.026, 2.5
 187405841, 5.323, -0.159, 0.024, 2.5, 5.855, -0.207, 0.027, 2.5
 187605761, 4.82, -0.127, 0.018, 2.5, 5.323, -0.159, 0.024, 2.5
 187806514, 4.341, -0.085, 0.014, 2.5, 4.82, -0.127, 0.018, 2.5
 188006434, 3.852, 0.005, 0.011, 2.5, 4.341, -0.085, 0.014, 2.5
 188206354, 3.325, 0.09100001, 0.008, 2.5, 3.852, 0.005, 0.011, 2.5
 188406274, 2.768, 0.139, 0.006, 2.5, 3.325, 0.09100001, 0.008, 2.5
 188606194, 2.232, 0.168, 0.005, 2.5, 2.768, 0.139, 0.006, 2.5
 188806114, 1.736, 0.178, 0.006, 2.5, 2.232, 0.168, 0.005, 2.5
 189006034, 1.283, 0.146, 0.009000001, 2.5, 1.736, 0.178, 0.006, 2.5
 189205954, 0.89, 0.098, 0.012, 2.5, 1.283, 0.146, 0.009000001, 2.5
 189405874, 0.568, 0.045, 0.015, 2.5, 0.89, 0.098, 0.012, 2.5
 189605794, 0.292, 0.028, 0.017, 2.5, 0.568, 0.045, 0.015, 2.5
 189806547, 0.053, 0.061, 0.018, 2.5, 0.292, 0.028, 0.017, 2.5
 190006467, -0.17, 0.107, 0.018, 2.5, 0.053, 0.061, 0.018, 2.5
 190206387, -0.344, 0.18, 0.016, 2.5, -0.17, 0.107, 0.018, 2.5
 190406307, -0.443, 0.237, 0.014, 2.5, -0.344, 0.18, 0.016, 2.5
 190606227, -0.48, 0.266, 0.013, 2.5, -0.443, 0.237, 0.014, 2.5
 190806147, -0.489, 0.253, 0.011, 2.5, -0.48, 0.266, 0.013, 2.5
 191006067, -0.457, 0.204, 0.009000001, 2.5, -0.489, 0.253, 0.011, 2.5
 191205987, -0.379, 0.151, 0.005, 2.5, -0.457, 0.204, 0.009000001, 2.5
 191405907, -0.221, 0.07, 0.002, 2.5, -0.379, 0.151, 0.005, 2.5
 191605827, -0.063, -0.014, 0, 2.5, -0.221, 0.07, 0.002, 2.5
 191806580, 0.096, -0.046, -0.001, 2.5, -0.063, -0.014, 0, 2.5
 192006500, 0.228, -0.083, -0.001, 2.5, 0.096, -0.046, -0.001, 2.5
 192206420, 0.31, -0.12, -0.001, 2.5, 0.228, -0.083, -0.001, 2.5
 192406340, 0.395, -0.152, 0, 2.5, 0.31, -0.12, -0.001, 2.5
 192606260, 0.451, -0.144, 0, 2.5, 0.395, -0.152, 0, 2.5
 192806180, 0.399, -0.114, 0, 2.5, 0.451, -0.144, 0, 2.5
 193006100, 0.283, -0.087, 0.001, 2.5, 0.399, -0.114, 0, 2.5
 193206020, 0.135, -0.03, 0.002, 2.5, 0.283, -0.087, 0.001, 2.5
 193405940, 0.005, 0.046, 0.002, 2.5, 0.135, -0.03, 0.002, 2.5
 193605860, -0.07700001, 0.097, 0.004, 2.5, 0.005, 0.046, 0.002, 2.5
 193805780, -0.098, 0.124, 0.006, 2.5, -0.07700001, 0.097, 0.004, 2.5
 194006533, -0.09900001, 0.171, 0.01, 2.5, -0.098, 0.124, 0.006, 2.5
 194206453, -0.105, 0.203, 0.012, 2.5, -0.09900001, 0.171, 0.01, 2.5
 194406373, -0.087, 0.212, 0.014, 2.5, -0.105, 0.203, 0.012, 2.5
 194606293, -0.05, 0.196, 0.015, 2.5, -0.087, 0.212, 0.014, 2.5
 194806213, 0.012, 0.155, 0.014, 2.5, -0.05, 0.196, 0.015, 2.5
 195006133, 0.06, 0.09900001, 0.013, 2.5, 0.012, 0.155, 0.014, 2.5
 195206053, 0.078, 0.046, 0.013, 2.5, 0.06, 0.09900001, 0.013, 2.5
 195405973, 0.103, -0.012, 0.012, 2.5, 0.078, 0.046, 0.013, 2.5
 195605893, 0.103, -0.093, 0.011, 2.5, 0.103, -0.012, 0.012, 2.5
 195805813, 0.058, -0.155, 0.011, 2.5, 0.103, -0.093, 0.011, 2.5
 196006566, 0.008, -0.187, 0.01, 2.5, 0.058, -0.155, 0.011, 2.5
 196206486, -0.005, -0.182, 0.009000001, 2.5, 0.008, -0.187, 0.01, 2.5
 196406406, 0.022, -0.129, 0.009000001, 2.5, -0.005, -0.182, 0.009000001, 2.5
 196606326, 0.009000001, -0.103, 0.008, 2.5, 0.022, -0.129, 0.009000001, 2.5
 196806246, -0.029, -0.057, 0.008, 2.5, 0.009000001, -0.103, 0.008, 2.5
 197006166, -0.097, -0.001, 0.007, 2.5, -0.029, -0.057, 0.008, 2.5
 197206086, -0.168, 0.018, 0.006, 2.5, -0.097, -0.001, 0.007, 2.5
 197406006, -0.209, 0.041, 0.006, 2.5, -0.168, 0.018, 0.006, 2.5
 197605926, -0.252, 0.06500001, 0.005, 2.5, -0.209, 0.041, 0.006, 2.5
 197805846, -0.274, 0.086, 0.005, 2.5, -0.252, 0.06500001, 0.005, 2.5
 198005766, -0.27, 0.1, 0.004, 2.5, -0.274, 0.086, 0.005, 2.5
 198206519, -0.246, 0.125, 0.004, 2.5, -0.27, 0.1, 0.004, 2.5
 198406439, -0.208, 0.122, 0.004, 2.5, -0.246, 0.125, 0.004, 2.5
 198606359, -0.123, 0.101, 0.004, 2.5, -0.208, 0.122, 0.004, 2.5
 198806279, -0.03, 0.11, 0.004, 2.5, -0.123, 0.101, 0.004, 2.5
 199006199, 0.028, 0.128, 0.003, 2.5, -0.03, 0.11, 0.004, 2.5
 199206119, 0.037, 0.12, 0.003, 2.5, 0.028, 0.128, 0.003, 2.5
 199406039, 0.034, 0.078, 0.003, 2.5, 0.037, 0.12, 0.003, 2.5
 199605959, 0.004, 0.06500001, 0.003, 2.5, 0.034, 0.078, 0.003, 2.5
 199805879, -0.027, 0.107, 0.002, 2.5, 0.004, 0.06500001, 0.003, 2.5
 200005799, -0.047, 0.135, 0.001, 2.5, -0.027, 0.107, 0.002, 2.5
 200206552, -0.05, 0.159, 0.002, 2.5, -0.047, 0.135, 0.001, 2.5
 200406472, -0.052, 0.193, 0.002, 2.5, -0.05, 0.159, 0.002, 2.5
 200606392, -0.061, 0.173, 0.002, 2.5, -0.052, 0.193, 0.002, 2.5
 200806312, -0.102, 0.122, 0.002, 2.5, -0.061, 0.173, 0.002, 2.5
 201006232, -0.171, 0.055, 0.002, 2.5, -0.102, 0.122, 0.002, 2.5
 201206152, -0.214, 0.005, 0.001, 2.5, -0.171, 0.055, 0.002, 2.5
 201406072, -0.23, -0.053, 0, 2.5, -0.214, 0.005, 0.001, 2.5
 201605992, -0.232, -0.113, 0, 2.5, -0.23, -0.053, 0, 2.5
 201805912, -0.242, -0.16, 0, 2.5, -0.232, -0.113, 0, 2.5
 202005832, -0.226, -0.196, -0.001, 2.5, -0.242, -0.16, 0, 2.5
 202206585, -0.198, -0.213, -0.002, 2.5, -0.226, -0.196, -0.001, 2.5
 202406505, -0.166, -0.188, -0.002, 2.5, -0.198, -0.213, -0.002, 2.5
 202606425, -0.135, -0.134, -0.003, 2.5, -0.166, -0.188, -0.002, 2.5
 202806345, -0.082, -0.127, -0.003, 2.5, -0.135, -0.134, -0.003, 2.5
 203006265, -0.034, -0.141, -0.003, 2.5, -0.082, -0.127, -0.003, 2.5
 203206185, 0.002, -0.146, -0.002, 2.5, -0.034, -0.141, -0.003, 2.5
 203406105, -0.011, -0.102, -0.002, 2.5, 0.002, -0.146, -0.002, 2.5
 203606025, -0.035, -0.032, -0.002, 2.5, -0.011, -0.102, -0.002, 2.5
 203805945, -0.021, 0.057, -0.001, 2.5, -0.035, -0.032, -0.002, 2.5
 204005865, -0.008, 0.097, 0, 2.5, -0.021, 0.057, -0.001, 2.5
 204205785, -0.009000001, 0.103, 0, 2.5, -0.008, 0.097, 0, 2.5
 204406538, -0.005, 0.075, 0, 2.5, -0.009000001, 0.103, 0, 2.5
 204606458, 0.002, 0.034, 0, 2.5, -0.005, 0.075, 0, 2.5
 204806378, -0.025, 0, 0, 2.5, 0.002, 0.034, 0, 2.5
 205006298, -0.093, -0.01, 0, 2.5, -0.025, 0, 0, 2.5
 205206218, -0.15, -0.051, 0, 2.5, -0.093, -0.01, 0, 2.5
 205406138, -0.179, -0.115, 0, 2.5, -0.15, -0.051, 0, 2.5
 205606058, -0.211, -0.17, -0.001, 2.5, -0.179, -0.115, 0, 2.5
 205805978, -0.241, -0.186, -0.001, 2.5, -0.211, -0.17, -0.001, 2.5
 206005898, -0.273, -0.19, -0.001, 2.5, -0.241, -0.186, -0.001, 2.5
 206205818, -0.305, -0.228, -0.001, 2.5, -0.273, -0.19, -0.001, 2.5
 206406571, -0.35, -0.261, -0.001, 2.5, -0.305, -0.228, -0.001, 2.5
 206606491, -0.4, -0.313, -0.001, 2.5, -0.35, -0.261, -0.001, 2.5
 206806411, -0.411, -0.352, -0.001, 2.5, -0.4, -0.313, -0.001, 2.5
 207006331, -0.42, -0.349, -0.001, 2.5, -0.411, -0.352, -0.001, 2.5
 207206251, -0.409, -0.309, -0.001, 2.5, -0.42, -0.349, -0.001, 2.5
 207406171, -0.37, -0.265, -0.002, 2.5, -0.409, -0.309, -0.001, 2.5
 207606091, -0.34, -0.223, -0.002, 2.5, -0.37, -0.265, -0.002, 2.5
 207806011, -0.306, -0.181, -0.002, 2.5, -0.34, -0.223, -0.002, 2.5
 208005931, -0.256, -0.122, -0.002, 2.5, -0.306, -0.181, -0.002, 2.5
 208205851, -0.193, -0.082, -0.002, 2.5, -0.256, -0.122, -0.002, 2.5
 208405771, -0.134, -0.033, -0.002, 2.5, -0.193, -0.082, -0.002, 2.5
 208606524, -0.061, -0.006, -0.002, 2.5, -0.134, -0.033, -0.002, 2.5
 208806444, -0.019, 0.02, -0.002, 2.5, -0.061, -0.006, -0.002, 2.5
 209006364, 0.045, 0.039, -0.001, 2.5, -0.019, 0.02, -0.002, 2.5
 209206284, 0.12, 0.013, -0.001, 2.5, 0.045, 0.039, -0.001, 2.5
 209406204, 0.175, -0.013, 0, 2.5, 0.12, 0.013, -0.001, 2.5
 209606124, 0.203, -0.015, 0, 2.5, 0.175, -0.013, 0, 2.5
 209806044, 0.191, -0.015, 0, 2.5, 0.203, -0.015, 0, 2.5
 210005964, 0.179, -0.018, 0, 2.5, 0.191, -0.015, 0, 2.5
 210205884, 0.161, 0, 0, 2.5, 0.179, -0.018, 0, 2.5
 210405804, 0.133, 0.007, 0, 2.5, 0.161, 0, 0, 2.5
 210606557, 0.11, 0.006, 0, 2.5, 0.133, 0.007, 0, 2.5
 210806477, 0.062, 0, 0, 2.5, 0.11, 0.006, 0, 2.5
 211006397, 0.009000001, -0.014, 0, 2.5, 0.062, 0, 0, 2.5
 211206317, -0.02, -0.008, 0, 2.5, 0.009000001, -0.014, 0, 2.5
 211406237, -0.03, -0.02, -0.001, 2.5, -0.02, -0.008, 0, 2.5
 211606157, -0.026, -0.014, -0.001, 2.5, -0.03, -0.02, -0.001, 2.5
 211806077, -0.01, 0.019, -0.001, 2.5, -0.026, -0.014, -0.001, 2.5
 212005997, 0.012, 0.043, -0.001, 2.5, -0.01, 0.019, -0.001, 2.5
 212205917, 0.038, 0.043, -0.001, 2.5, 0.012, 0.043, -0.001, 2.5
 212405837, 0.079, 0.041, -0.001, 2.5, 0.038, 0.043, -0.001, 2.5
 212606590, 0.121, 0.032, -0.001, 2.5, 0.079, 0.041, -0.001, 2.5
 212806510, 0.149, 0.022, -0.001, 2.5, 0.121, 0.032, -0.001, 2.5
 213006430, 0.13, 0.063, -0.001, 2.5, 0.149, 0.022, -0.001, 2.5
 213206350, 0.109, 0.114, -0.001, 2.5, 0.13, 0.063, -0.001, 2.5
 213406270, 0.107, 0.151, -0.001, 2.5, 0.109, 0.114, -0.001, 2.5
 213606190, 0.07600001, 0.163, -0.001, 2.5, 0.107, 0.151, -0.001, 2.5
 213806110, 0.046, 0.153, -0.001, 2.5, 0.07600001, 0.163, -0.001, 2.5
 214006030, 0.058, 0.121, -0.001, 2.5, 0.046, 0.153, -0.001, 2.5
 214205950, 0.116, 0.045, -0.001, 2.5, 0.058, 0.121, -0.001, 2.5
 214405870, 0.169, -0.036, -0.001, 2.5, 0.116, 0.045, -0.001, 2.5
 214605790, 0.199, -0.093, -0.002, 2.5, 0.169, -0.036, -0.001, 2.5
 214806543, 0.208, -0.166, -0.001, 2.5, 0.199, -0.093, -0.002, 2.5
 215006463, 0.204, -0.258, -0.001, 2.5, 0.208, -0.166, -0.001, 2.5
 215206383, 0.196, -0.322, -0.002, 2.5, 0.204, -0.258, -0.001, 2.5
 215406303, 0.197, -0.349, -0.001, 2.5, 0.196, -0.322, -0.002, 2.5
 215606223, 0.238, -0.342, -0.001, 2.5, 0.197, -0.349, -0.001, 2.5
 215806143, 0.276, -0.348, -0.001, 2.5, 0.238, -0.342, -0.001, 2.5
 216006063, 0.289, -0.351, -0.001, 2.5, 0.276, -0.348, -0.001, 2.5
 216205983, 0.272, -0.324, -0.002, 2.5, 0.289, -0.351, -0.001, 2.5
 216405903, 0.237, -0.287, -0.002, 2.5, 0.272, -0.324, -0.002, 2.5
 216605823, 0.202, -0.268, -0.002, 2.5, 0.237, -0.287, -0.002, 2.5
 216806576, 0.184, -0.199, -0.003, 2.5, 0.202, -0.268, -0.002, 2.5
 217006496, 0.189, -0.113, -0.002, 2.5, 0.184, -0.199, -0.003, 2.5
 217206416, 0.215, -0.032, -0.002, 2.5, 0.189, -0.113, -0.002, 2.5
 217406336, 0.228, 0.05, -0.001, 2.5, 0.215, -0.032, -0.002, 2.5
 217606256, 0.231, 0.116, 0, 2.5, 0.228, 0.05, -0.001, 2.5
 217806176, 0.239, 0.171, 0, 2.5, 0.231, 0.116, 0, 2.5
 218006096, 0.24, 0.197, 0, 2.5, 0.239, 0.171, 0, 2.5
 218206016, 0.229, 0.182, 0, 2.5, 0.24, 0.197, 0, 2.5
 218405936, 0.221, 0.141, 0, 2.5, 0.229, 0.182, 0, 2.5
 218605856, 0.214, 0.097, 0, 2.5, 0.221, 0.141, 0, 2.5
 218805776, 0.224, 0.075, 0, 2.5, 0.214, 0.097, 0, 2.5
 219006529, 0.232, 0.059, 0, 2.5, 0.224, 0.075, 0, 2.5
 219206449, 0.216, 0.06, 0, 2.5, 0.232, 0.059, 0, 2.5
 219406369, 0.18, 0.031, 0, 2.5, 0.216, 0.06, 0, 2.5
 219606289, 0.127, -0.004, 0, 2.5, 0.18, 0.031, 0, 2.5
 219806209, 0.042, -0.025, 0, 2.5, 0.127, -0.004, 0, 2.5
 220006129, -0.066, -0.038, 0, 2.5, 0.042, -0.025, 0, 2.5
 220206049, -0.156, -0.056, 0, 2.5, -0.066, -0.038, 0, 2.5
 220405969, -0.203, -0.068, 0, 2.5, -0.156, -0.056, 0, 2.5
 220605889, -0.224, -0.102, 0, 2.5, -0.203, -0.068, 0, 2.5
 220805809, -0.232, -0.127, 0, 2.5, -0.224, -0.102, 0, 2.5
 221006562, -0.226, -0.141, 0, 2.5, -0.232, -0.127, 0, 2.5
 221206482, -0.216, -0.172, 0, 2.5, -0.226, -0.141, 0, 2.5
 221406402, -0.208, -0.191, 0, 2.5, -0.216, -0.172, 0, 2.5
 221606322, -0.202, -0.205, 0, 2.5, -0.208, -0.191, 0, 2.5
 221806242, -0.182, -0.217, 0, 2.5, -0.202, -0.205, 0, 2.5
 222006162, -0.147, -0.218, 0, 2.5, -0.182, -0.217, 0, 2.5
 222206082, -0.106, -0.181, 0, 2.5, -0.147, -0.218, 0, 2.5
 222406002, -0.037, -0.098, 0, 2.5, -0.106, -0.181, 0, 2.5
 222605922, 0.024, -0.015, 0, 2.5, -0.037, -0.098, 0, 2.5
 222805842, 0.032, 0.031, 0, 2.5, 0.024, -0.015, 0, 2.5
 223005762, 0.035, 0.071, 0, 2.5, 0.032, 0.031, 0, 2.5
 223206515, 0.03, 0.097, 0, 2.5, 0.035, 0.071, 0, 2.5
 223406435, -0.008, 0.139, 0, 2.5, 0.03, 0.097, 0, 2.5
 223606355, -0.037, 0.172, 0, 2.5, -0.008, 0.139, 0, 2.5
 223806275, -0.032, 0.15, 0, 2.5, -0.037, 0.172, 0, 2.5
 224006195, 0, 0.12, 0, 2.5, -0.032, 0.15, 0, 2.5
 224206115, 0.018, 0.09900001, 0, 2.5, 0, 0.12, 0, 2.5
 224406035, 0.032, 0.12, 0, 2.5, 0.018, 0.09900001, 0, 2.5
 224605955, 0.061, 0.163, 0, 2.5, 0.032, 0.12, 0, 2.5
 224805875, 0.121, 0.184, 0, 2.5, 0.061, 0.163, 0, 2.5
 225005795, 0.131, 0.181, 0, 2.5, 0.121, 0.184, 0, 2.5
 225206548, 0.119, 0.15, 0, 2.5, 0.131, 0.181, 0, 2.5
 225406468, 0.116, 0.158, 0, 2.5, 0.119, 0.15, 0, 2.5
 225606388, 0.108, 0.168, 0, 2.5, 0.116, 0.158, 0, 2.5
 225806308, 0.053, 0.17, 0, 2.5, 0.108, 0.168, 0, 2.5
 226006228, -0.034, 0.171, -0.001, 2.5, 0.053, 0.17, 0, 2.5
 226206148, -0.094, 0.154, -0.001, 2.5, -0.034, 0.171, -0.001, 2.5
 226406068, -0.126, 0.17, -0.001, 2.5, -0.094, 0.154, -0.001, 2.5
 226605988, -0.128, 0.207, -0.001, 2.5, -0.126, 0.17, -0.001, 2.5
 226805908, -0.119, 0.234, -0.001, 2.5, -0.128, 0.207, -0.001, 2.5
 227005828, -0.114, 0.203, -0.001, 2.5, -0.119, 0.234, -0.001, 2.5
 227206581, -0.07300001, 0.152, -0.001, 2.5, -0.114, 0.203, -0.001, 2.5
 227406501, -0.004, 0.15, -0.001, 2.5, -0.07300001, 0.152, -0.001, 2.5
 227606421, 0.081, 0.202, 0, 2.5, -0.004, 0.15, -0.001, 2.5
 227806341, 0.153, 0.242, -0.001, 2.5, 0.081, 0.202, 0, 2.5
 228006261, 0.194, 0.255, -0.001, 2.5, 0.153, 0.242, -0.001, 2.5
 228206181, 0.207, 0.285, -0.001, 2.5, 0.194, 0.255, -0.001, 2.5
 228406101, 0.207, 0.278, -0.001, 2.5, 0.207, 0.285, -0.001, 2.5
 228606021, 0.189, 0.236, -0.001, 2.5, 0.207, 0.278, -0.001, 2.5
 228805941, 0.158, 0.155, -0.001, 2.5, 0.189, 0.236, -0.001, 2.5
 229005861, 0.127, 0.114, -0.001, 2.5, 0.158, 0.155, -0.001, 2.5
 229205781, 0.104, 0.097, -0.001, 2.5, 0.127, 0.114, -0.001, 2.5
 229406534, 0.09200001, 0.045, -0.001, 2.5, 0.104, 0.097, -0.001, 2.5
 229606454, 0.071, -0.011, -0.001, 2.5, 0.09200001, 0.045, -0.001, 2.5
 229806374, 0.046, -0.047, -0.001, 2.5, 0.071, -0.011, -0.001, 2.5
 230006294, 0.029, -0.045, -0.001, 2.5, 0.046, -0.047, -0.001, 2.5
 230206214, -0.007, -0.042, -0.001, 2.5, 0.029, -0.045, -0.001, 2.5
 230406134, -0.026, -0.048, -0.001, 2.5, -0.007, -0.042, -0.001, 2.5
 230606054, -0.032, -0.057, 0, 2.5, -0.026, -0.048, -0.001, 2.5
 230805974, -0.031, -0.089, 0, 2.5, -0.032, -0.057, 0, 2.5
 231005894, -0.036, -0.127, 0, 2.5, -0.031, -0.089, 0, 2.5
 231205814, -0.049, -0.142, 0, 2.5, -0.036, -0.127, 0, 2.5
 231406567, -0.044, -0.159, 0, 2.5, -0.049, -0.142, 0, 2.5
 231606487, 0.004, -0.193, 0, 2.5, -0.044, -0.159, 0, 2.5
 231806407, 0.07300001, -0.197, 0, 2.5, 0.004, -0.193, 0, 2.5
 232006327, 0.144, -0.196, 0, 2.5, 0.07300001, -0.197, 0, 2.5
 232206247, 0.196, -0.194, 0, 2.5, 0.144, -0.196, 0, 2.5
 232406167, 0.227, -0.203, 0.035, 2.5, 0.196, -0.194, 0, 2.5
 232606087, 0.228, -0.187, 0.197, 2.5, 0.227, -0.203, 0.035, 2.5
 232806007, 0.206, -0.178, 0.405, 2.5, 0.228, -0.187, 0.197, 2.5
 233005927, 0.179, -0.168, 0.6300001, 2.5, 0.206, -0.178, 0.405, 2.5
 233205847, 0.129, -0.137, 0.858, 2.5, 0.179, -0.168, 0.6300001, 2.5
 233405767, 0.078, -0.121, 1.082, 2.5, 0.129, -0.137, 0.858, 2.5
 233606520, 0.032, -0.109, 1.3, 2.5, 0.078, -0.121, 1.082, 2.5
 233806440, -0.035, -0.06900001, 1.482, 2.5, 0.032, -0.109, 1.3, 2.5
 234006360, -0.085, 0.02, 1.567, 2.5, -0.035, -0.06900001, 1.482, 2.5
 234206280, -0.106, 0.12, 1.588, 2.5, -0.085, 0.02, 1.567, 2.5
 234406200, -0.141, 0.211, 1.574, 2.5, -0.106, 0.12, 1.588, 2.5
 234606120, -0.209, 0.242, 1.545, 2.5, -0.141, 0.211, 1.574, 2.5
 234806040, -0.238, 0.248, 1.513, 2.5, -0.209, 0.242, 1.545, 2.5
 235005960, -0.223, 0.211, 1.485, 2.5, -0.238, 0.248, 1.513, 2.5
 235205880, -0.169, 0.159, 1.463, 2.5, -0.223, 0.211, 1.485, 2.5
 235405800, -0.122, 0.105, 1.446, 2.5, -0.169, 0.159, 1.463, 2.5
 235606553, -0.061, 0.045, 1.436, 2.5, -0.122, 0.105, 1.446, 2.5
 235806473, 0.028, -0.019, 1.429, 2.5, -0.061, 0.045, 1.436, 2.5
 236006393, 0.082, -0.061, 1.426, 2.5, 0.028, -0.019, 1.429, 2.5
 236206313, 0.098, -0.067, 1.424, 2.5, 0.082, -0.061, 1.426, 2.5
 236406233, 0.063, -0.079, 1.424, 2.5, 0.098, -0.067, 1.424, 2.5
 236606153, 0.02, -0.061, 1.424, 2.5, 0.063, -0.079, 1.424, 2.5
 236806073, 0.001, -0.016, 1.425, 2.5, 0.02, -0.061, 1.424, 2.5
 237005993, 0.009000001, 0.02, 1.425, 2.5, 0.001, -0.016, 1.425, 2.5
 237205913, 0.053, 0.039, 1.426, 2.5, 0.009000001, 0.02, 1.425, 2.5
 237405833, 0.098, 0.08800001, 1.426, 2.5, 0.053, 0.039, 1.426, 2.5
 237606586, 0.122, 0.141, 1.425, 2.5, 0.098, 0.08800001, 1.426, 2.5
 237806506, 0.135, 0.164, 1.424, 2.5, 0.122, 0.141, 1.425, 2.5
 238006426, 0.132, 0.156, 1.424, 2.5, 0.135, 0.164, 1.424, 2.5
 238206346, 0.113, 0.129, 1.423, 2.5, 0.132, 0.156, 1.424, 2.5
 238406266, 0.056, 0.11, 1.423, 2.5, 0.113, 0.129, 1.423, 2.5
 238606186, 0.005, 0.097, 1.422, 2.5, 0.056, 0.11, 1.423, 2.5
 238806106, -0.018, 0.075, 1.422, 2.5, 0.005, 0.097, 1.422, 2.5
 239006026, -0.018, 0.045, 1.422, 2.5, -0.018, 0.075, 1.422, 2.5
 239205946, -0.011, 0.026, 1.422, 2.5, -0.018, 0.045, 1.422, 2.5
 239405866, -0.003, 0.009000001, 1.422, 2.5, -0.011, 0.026, 1.422, 2.5
 239605786, 0.019, -0.023, 1.421, 2.5, -0.003, 0.009000001, 1.422, 2.5
 239806539, 0.032, -0.054, 1.421, 2.5, 0.019, -0.023, 1.421, 2.5
 240006459, 0.029, -0.066, 1.419, 2.5, 0.032, -0.054, 1.421, 2.5
 240206379, 0.054, -0.09, 1.418, 2.5, 0.029, -0.066, 1.419, 2.5
 240406299, 0.082, -0.128, 1.416, 2.5, 0.054, -0.09, 1.418, 2.5
 240606219, 0.094, -0.154, 1.415, 2.5, 0.082, -0.128, 1.416, 2.5
 240806139, 0.075, -0.165, 1.414, 2.5, 0.094, -0.154, 1.415, 2.5
 241006059, 0.051, -0.165, 1.414, 2.5, 0.075, -0.165, 1.414, 2.5
 241205979, 0.034, -0.132, 1.414, 2.5, 0.051, -0.165, 1.414, 2.5
 241405899, 0.025, -0.09, 1.414, 2.5, 0.034, -0.132, 1.414, 2.5
 241605819, 0.004, -0.053, 1.414, 2.5, 0.025, -0.09, 1.414, 2.5
 241806572, -0.03, -0.028, 1.414, 2.5, 0.004, -0.053, 1.414, 2.5
 242006492, -0.056, -0.004, 1.414, 2.5, -0.03, -0.028, 1.414, 2.5
 242206412, -0.06500001, 0.017, 1.413, 2.5, -0.056, -0.004, 1.414, 2.5
 242406332, -0.07300001, 0.025, 1.413, 2.5, -0.06500001, 0.017, 1.413, 2.5
 242606252, -0.06900001, 0.027, 1.413, 2.5, -0.07300001, 0.025, 1.413, 2.5
 242806172, -0.054, 0.064, 1.414, 2.5, -0.06900001, 0.027, 1.413, 2.5
 243006092, -0.04, 0.123, 1.414, 2.5, -0.054, 0.064, 1.414, 2.5
 243206012, -0.029, 0.137, 1.415, 2.5, -0.04, 0.123, 1.414, 2.5
 243405932, -0.019, 0.09, 1.416, 2.5, -0.029, 0.137, 1.415, 2.5
 243605852, 0.032, 0.027, 1.416, 2.5, -0.019, 0.09, 1.416, 2.5
 243805772, 0.102, -0.023, 1.417, 2.5, 0.032, 0.027, 1.416, 2.5
 244006525, 0.139, -0.052, 1.417, 2.5, 0.102, -0.023, 1.417, 2.5
 244206445, 0.116, -0.035, 1.418, 2.5, 0.139, -0.052, 1.417, 2.5
 244406365, 0.075, -0.005, 1.419, 2.5, 0.116, -0.035, 1.418, 2.5
 244606285, 0.035, 0.019, 1.421, 2.5, 0.075, -0.005, 1.419, 2.5
 244806205, 0.004, 0.044, 1.423, 2.5, 0.035, 0.019, 1.421, 2.5
 245006125, -0.008, 0.067, 1.425, 2.5, 0.004, 0.044, 1.423, 2.5
 245206045, -0.047, 0.085, 1.426, 2.5, -0.008, 0.067, 1.425, 2.5
 245405965, -0.06500001, 0.09200001, 1.428, 2.5, -0.047, 0.085, 1.426, 2.5
 245605885, -0.036, 0.078, 1.429, 2.5, -0.06500001, 0.09200001, 1.428, 2.5
 245805805, -0.003, 0.06500001, 1.429, 2.5, -0.036, 0.078, 1.429, 2.5
 246006558, 0.022, 0.064, 1.429, 2.5, -0.003, 0.06500001, 1.429, 2.5
 246206478, 0.035, 0.057, 1.429, 2.5, 0.022, 0.064, 1.429, 2.5
 246406398, 0.042, 0.013, 1.429, 2.5, 0.035, 0.057, 1.429, 2.5
 246606318, 0.052, -0.037, 1.429, 2.5, 0.042, 0.013, 1.429, 2.5
 246806238, 0.085, -0.067, 1.429, 2.5, 0.052, -0.037, 1.429, 2.5
 247006158, 0.117, -0.113, 1.429, 2.5, 0.085, -0.067, 1.429, 2.5
 247206078, 0.157, -0.163, 1.407, 2.5, 0.117, -0.113, 1.429, 2.5
 247405998, 0.157, -0.201, 1.293, 2.5, 0.157, -0.163, 1.407, 2.5
 247605918, 0.134, -0.218, 1.102, 2.5, 0.157, -0.201, 1.293, 2.5
 247805838, 0.102, -0.217, 0.8850001, 2.5, 0.134, -0.218, 1.102, 2.5
 248006591, 0.042, -0.186, 0.66, 2.5, 0.102, -0.217, 0.8850001, 2.5
 248206511, -0.014, -0.193, 0.475, 2.5, 0.042, -0.186, 0.66, 2.5
 248406431, -0.04, -0.192, 0.386, 2.5, -0.014, -0.193, 0.475, 2.5
 248606351, -0.048, -0.151, 0.358, 2.5, -0.04, -0.192, 0.386, 2.5
 248806271, -0.066, -0.11, 0.364, 2.5, -0.048, -0.151, 0.358, 2.5
 249006191, -0.089, -0.081, 0.387, 2.5, -0.066, -0.11, 0.364, 2.5
 249206111, -0.121, -0.052, 0.413, 2.5, -0.089, -0.081, 0.387, 2.5
 249406031, -0.19, -0.028, 0.438, 2.5, -0.121, -0.052, 0.413, 2.5
 249605951, -0.245, -0.028, 0.458, 2.5, -0.19, -0.028, 0.438, 2.5
 249805871, -0.253, -0.029, 0.472, 2.5, -0.245, -0.028, 0.458, 2.5
 250005791, -0.261, -0.012, 0.481, 2.5, -0.253, -0.029, 0.472, 2.5
 250206544, -0.261, 0.011, 0.486, 2.5, -0.261, -0.012, 0.481, 2.5
 250406464, -0.258, 0.047, 0.487, 2.5, -0.261, 0.011, 0.486, 2.5
 250606384, -0.255, 0.06500001, 0.488, 2.5, -0.258, 0.047, 0.487, 2.5
 250806304, -0.262, 0.08400001, 0.487, 2.5, -0.255, 0.06500001, 0.488, 2.5
 251006224, -0.26, 0.135, 0.486, 2.5, -0.262, 0.08400001, 0.487, 2.5
 251206144, -0.239, 0.208, 0.484, 2.5, -0.26, 0.135, 0.486, 2.5
 251406064, -0.2, 0.269, 0.483, 2.5, -0.239, 0.208, 0.484, 2.5
 251605984, -0.184, 0.301, 0.483, 2.5, -0.2, 0.269, 0.483, 2.5
 251805904, -0.176, 0.309, 0.483, 2.5, -0.184, 0.301, 0.483, 2.5
 252005824, -0.19, 0.297, 0.483, 2.5, -0.176, 0.309, 0.483, 2.5
 252206577, -0.204, 0.296, 0.483, 2.5, -0.19, 0.297, 0.483, 2.5
 252406497, -0.194, 0.264, 0.483, 2.5, -0.204, 0.296, 0.483, 2.5
 252606417, -0.162, 0.236, 0.483, 2.5, -0.194, 0.264, 0.483, 2.5
 252806337, -0.152, 0.248, 0.482, 2.5, -0.162, 0.236, 0.483, 2.5
 253006257, -0.188, 0.214, 0.482, 2.5, -0.152, 0.248, 0.482, 2.5
 253206177, -0.216, 0.153, 0.482, 2.5, -0.188, 0.214, 0.482, 2.5
 253406097, -0.209, 0.117, 0.482, 2.5, -0.216, 0.153, 0.482, 2.5
 253606017, -0.178, 0.07, 0.482, 2.5, -0.209, 0.117, 0.482, 2.5
 253805937, -0.09900001, 0.064, 0.482, 2.5, -0.178, 0.07, 0.482, 2.5
 254005857, -0.035, 0.067, 0.483, 2.5, -0.09900001, 0.064, 0.482, 2.5
 254205777, 0.003, 0.068, 0.483, 2.5, -0.035, 0.067, 0.483, 2.5
 254406530, 0.074, 0.056, 0.483, 2.5, 0.003, 0.068, 0.483, 2.5
 254606450, 0.147, 0.042, 0.482, 2.5, 0.074, 0.056, 0.483, 2.5
 254806370, 0.214, 0.022, 0.482, 2.5, 0.147, 0.042, 0.482, 2.5
 255006290, 0.257, -0.041, 0.482, 2.5, 0.214, 0.022, 0.482, 2.5
 255206210, 0.276, -0.101, 0.482, 2.5, 0.257, -0.041, 0.482, 2.5
 255406130, 0.277, -0.144, 0.482, 2.5, 0.276, -0.101, 0.482, 2.5
 255606050, 0.263, -0.163, 0.482, 2.5, 0.277, -0.144, 0.482, 2.5
 255805970, 0.213, -0.168, 0.481, 2.5, 0.263, -0.163, 0.482, 2.5
 256005890, 0.149, -0.16, 0.481, 2.5, 0.213, -0.168, 0.481, 2.5
 256205810, 0.081, -0.151, 0.48, 2.5, 0.149, -0.16, 0.481, 2.5
 256406563, 0.023, -0.135, 0.48, 2.5, 0.081, -0.151, 0.48, 2.5
 256606483, -0.021, -0.126, 0.479, 2.5, 0.023, -0.135, 0.48, 2.5
 256806403, -0.045, -0.1, 0.479, 2.5, -0.021, -0.126, 0.479, 2.5
 257006323, -0.052, -0.07700001, 0.479, 2.5, -0.045, -0.1, 0.479, 2.5
 257206243, -0.067, -0.05, 0.479, 2.5, -0.052, -0.07700001, 0.479, 2.5
 257406163, -0.112, -0.032, 0.479, 2.5, -0.067, -0.05, 0.479, 2.5
 257606083, -0.161, -0.018, 0.479, 2.5, -0.112, -0.032, 0.479, 2.5
 257806003, -0.185, 0.024, 0.479, 2.5, -0.161, -0.018, 0.479, 2.5
 258005923, -0.194, 0.072, 0.479, 2.5, -0.185, 0.024, 0.479, 2.5
 258205843, -0.18, 0.117, 0.479, 2.5, -0.194, 0.072, 0.479, 2.5
 258405763, -0.152, 0.139, 0.479, 2.5, -0.18, 0.117, 0.479, 2.5
 258606516, -0.119, 0.1, 0.48, 2.5, -0.152, 0.139, 0.479, 2.5
 258806436, -0.103, 0.005, 0.481, 2.5, -0.119, 0.1, 0.48, 2.5
 259006356, -0.114, -0.083, 0.481, 2.5, -0.103, 0.005, 0.481, 2.5
 259206276, -0.122, -0.164, 0.481, 2.5, -0.114, -0.083, 0.481, 2.5
 259406196, -0.11, -0.211, 0.481, 2.5, -0.122, -0.164, 0.481, 2.5
 259606116, -0.08000001, -0.222, 0.482, 2.5, -0.11, -0.211, 0.481, 2.5
 259806036, -0.052, -0.215, 0.481, 2.5, -0.08000001, -0.222, 0.482, 2.5
 260005956, -0.015, -0.178, 0.482, 2.5, -0.052, -0.215, 0.481, 2.5
 260205876, 0.029, -0.139, 0.482, 2.5, -0.015, -0.178, 0.482, 2.5
 260405796, 0.06900001, -0.119, 0.481, 2.5, 0.029, -0.139, 0.482, 2.5
 260606549, 0.109, -0.11, 0.481, 2.5, 0.06900001, -0.119, 0.481, 2.5
 260806469, 0.173, -0.111, 0.481, 2.5, 0.109, -0.11, 0.481, 2.5
 261006389, 0.233, -0.109, 0.481, 2.5, 0.173, -0.111, 0.481, 2.5
 261206309, 0.25, -0.097, 0.48, 2.5, 0.233, -0.109, 0.481, 2.5
 261406229, 0.241, -0.05, 0.48, 2.5, 0.25, -0.097, 0.48, 2.5
 261606149, 0.209, -0.034, 0.48, 2.5, 0.241, -0.05, 0.48, 2.5
 261806069, 0.15, -0.018, 0.48, 2.5, 0.209, -0.034, 0.48, 2.5
 262005989, 0.071, 0.04, 0.48, 2.5, 0.15, -0.018, 0.48, 2.5
 262205909, -0.006, 0.102, 0.479, 2.5, 0.071, 0.04, 0.48, 2.5
 262405829, -0.059, 0.145, 0.479, 2.5, -0.006, 0.102, 0.479, 2.5
 262606582, -0.051, 0.16, 0.479, 2.5, -0.059, 0.145, 0.479, 2.5
 262806502, 0.004, 0.159, 0.479, 2.5, -0.051, 0.16, 0.479, 2.5
 263006422, 0.036, 0.148, 0.479, 2.5, 0.004, 0.159, 0.479, 2.5
 263206342, 0.074, 0.162, 0.479, 2.5, 0.036, 0.148, 0.479, 2.5
 263406262, 0.111, 0.169, 0.479, 2.5, 0.074, 0.162, 0.479, 2.5
 263606182, 0.129, 0.167, 0.481, 2.5, 0.111, 0.169, 0.479, 2.5
 263806102, 0.097, 0.161, 0.481, 2.5, 0.129, 0.167, 0.481, 2.5
 264006022, 0.042, 0.171, 0.48, 2.5, 0.097, 0.161, 0.481, 2.5
 264205942, -0.013, 0.154, 0.479, 2.5, 0.042, 0.171, 0.48, 2.5
 264405862, -0.062, 0.128, 0.479, 2.5, -0.013, 0.154, 0.479, 2.5
 264605782, -0.121, 0.136, 0.478, 2.5, -0.062, 0.128, 0.479, 2.5
 264806535, -0.177, 0.118, 0.478, 2.5, -0.121, 0.136, 0.478, 2.5
 265006455, -0.238, 0.114, 0.477, 2.5, -0.177, 0.118, 0.478, 2.5
 265206375, -0.24, 0.1, 0.477, 2.5, -0.238, 0.114, 0.477, 2.5
 265406295, -0.213, 0.089, 0.477, 2.5, -0.24, 0.1, 0.477, 2.5
 265606215, -0.154, 0.083, 0.478, 2.5, -0.213, 0.089, 0.477, 2.5
 265806135, -0.1, 0.058, 0.478, 2.5, -0.154, 0.083, 0.478, 2.5
 266006055, -0.015, -0.017, 0.479, 2.5, -0.1, 0.058, 0.478, 2.5
 266205975, 0.07300001, -0.117, 0.479, 2.5, -0.015, -0.017, 0.479, 2.5
 266405895, 0.145, -0.204, 0.479, 2.5, 0.07300001, -0.117, 0.479, 2.5
 266605815, 0.233, -0.257, 0.479, 2.5, 0.145, -0.204, 0.479, 2.5
 266806568, 0.297, -0.301, 0.479, 2.5, 0.233, -0.257, 0.479, 2.5
 267006488, 0.312, -0.324, 0.479, 2.5, 0.297, -0.301, 0.479, 2.5
 267206408, 0.348, -0.327, 0.478, 2.5, 0.312, -0.324, 0.479, 2.5
 267406328, 0.391, -0.307, 0.478, 2.5, 0.348, -0.327, 0.478, 2.5
 267606248, 0.403, -0.274, 0.477, 2.5, 0.391, -0.307, 0.478, 2.5
 267806168, 0.348, -0.225, 0.477, 2.5, 0.403, -0.274, 0.477, 2.5
 268006088, 0.263, -0.181, 0.476, 2.5, 0.348, -0.225, 0.477, 2.5
 268206008, 0.052, -0.042, 0.128, 2.5, 0.263, -0.181, 0.476, 2.5
 268405928, -0.055, 0.045, -0.13, 2.5, 0.052, -0.042, 0.128, 2.5
 268605848, 0, 0, -0.001, 2.5, -0.055, 0.045, -0.13, 2.5
 268805768, 0.007, -0.006, 0.017, 2.5, 0, 0, -0.001, 2.5
 269006521, 0, 0, -0.001, 2.5, 0.007, -0.006, 0.017, 2.5
 269206441, 0, 0, -0.002, 2.5, 0, 0, -0.001, 2.5
 269406361, 0, 0, 0, 2.5, 0, 0, -0.002, 2.5
 269606281, 0, 0, 0, 2.5, 0, 0, 0, 2.5
 269806201, 0, 0, 0, 2.5, 0, 0, 0, 2.5
 270006121, 0, 0, 0, 2.5, 0, 0, 0, 2.5
 270206041, 0, 0, 0, 2.5, 0, 0, 0, 2.5
