TimeUS,CAN,CAE,CAD,CAe
 77698908, 0, 0, 0, 0
 77756385, -0.02884947, 1.404426, -0.016939, 0.2017713
 77856345, -6.19966E-05, 0.003620256, 2.050414E-05, 0.0002593961
 77956305, -2.069706E-05, 0.0034835, 1.537543E-05, 0.0002593961
 78056265, 3.878359E-05, 0.003604844, -3.20509E-05, 0.0002593961
 78156225, -3.389672E-05, 0.003674043, -5.731792E-05, 0.0002593961
 78256185, 3.120867E-05, 0.003624746, -2.803157E-05, 0.0002593961
 78356145, 4.381112E-05, 0.003712797, -0.000121857, 0.0002593961
 78456105, -0.0001058055, 0.003733319, 6.348931E-05, 0.0002593961
 78556065, -2.023303E-05, 0.003553499, 6.94891E-05, 0.0002593961
 78656025, -0.0001011653, 0.003668994, 5.580934E-05, 0.0002593961
 78755985, -0.0001101015, 0.003632074, 3.14384E-05, 0.0002593961
 78855945, -7.36656E-05, 0.003646944, -0.0001188732, 0.0002593961
 78955905, 8.264083E-06, 0.003658592, 0.0001152305, 0.0002593961
 79055865, 3.428428E-05, 0.003684637, 8.992889E-05, 0.0002593961
 79155825, 0.0001035457, 0.003627288, -0.0001248468, 0.0002593961
 79255785, -2.45478E-05, 0.003683952, -7.7063E-05, 0.0002593961
 79356578, -4.317316E-05, 0.003794534, 0.0001275999, 0.0002615578
 79456538, -0.0001100534, 0.003746628, 4.89361E-05, 0.0002593961
 79561496, -0.0002386636, 0.003863386, 2.449367E-05, 0.000272366
 79661456, -8.868471E-05, 0.003859745, -3.443715E-07, 0.0002593961
 79761416, -0.0001303775, 0.003841036, 9.807001E-06, 0.0002593961
 79861376, 0.0001657598, 0.003802208, 9.807358E-05, 0.0002593961
 79961336, -2.012161E-05, 0.00367527, 0.0001412578, 0.0002593961
 80061296, -2.443161E-05, 0.003613814, -2.704963E-06, 0.0002593961
 80161256, -8.374204E-06, 0.003561328, -8.042694E-05, 0.0002593961
 80261216, -4.10219E-05, 0.003637693, 0.0001295406, 0.0002593961
 80361176, 1.205525E-05, 0.003727191, 6.653865E-05, 0.0002593961
 80461136, 3.158952E-05, 0.003664381, 5.799834E-05, 0.0002593961
 80561096, -0.0002032974, 0.003717628, 3.085929E-05, 0.0002593961
 80661056, -1.820305E-05, 0.003792786, -4.227855E-05, 0.0002593961
 80761016, -1.08192E-05, 0.003659458, 4.231785E-05, 0.0002593961
 80860976, 4.306327E-05, 0.003618975, 0.0001259133, 0.0002593961
 80960936, -6.980704E-05, 0.003548898, 5.942231E-05, 0.0002593961
 81060896, 5.790195E-05, 0.003606196, -0.0001239996, 0.0002593961
 81160856, -0.0001483731, 0.00366779, -9.10395E-06, 0.0002593961
 81260816, -0.0001020189, 0.003673488, -8.582376E-05, 0.0002593961
 81360776, -0.0001206568, 0.003692461, 0.0001757347, 0.0002593961
 81461569, -5.727191E-05, 0.003748449, 1.825555E-05, 0.0002615578
 81561529, -1.560652E-05, 0.003620329, 3.873826E-05, 0.0002593961
 81666487, -5.988079E-05, 0.003815077, -2.645507E-05, 0.000272366
 81766447, -2.751205E-05, 0.003624836, -2.248699E-05, 0.0002593961
 81866407, -0.0002165125, 0.003654113, 0.0001360694, 0.0002593961
 81966367, -0.0002122334, 0.003688751, -1.319476E-05, 0.0002593961
 82066327, -9.397505E-05, 0.003715944, 6.235011E-05, 0.0002593961
 82166287, -0.0001884466, 0.003642165, -3.21939E-05, 0.0002593961
 82266247, -3.345456E-05, 0.003737562, 1.073646E-05, 0.0002593961
 82366207, -0.0001229504, 0.00358295, 6.196405E-06, 0.0002593961
 82466167, -7.915753E-05, 0.003538487, 3.886098E-05, 0.0002593961
 82566127, 0.000106713, 0.00356506, 3.890626E-05, 0.0002593961
 82666087, -9.746729E-05, 0.003609644, 4.816631E-05, 0.0002593961
 82766047, -0.0001325267, 0.003720797, -3.874658E-05, 0.0002593961
 82866007, -1.58904E-05, 0.003801763, -6.35191E-05, 0.0002593961
 82965967, -0.0001380548, 0.003697254, 1.804344E-05, 0.0002593961
 83065927, 1.063652E-05, 0.003560856, 6.399574E-05, 0.0002593961
 83165887, -0.0001026495, 0.003687192, 1.464019E-05, 0.0002593961
 83265847, 3.846645E-05, 0.003615351, -0.0001576556, 0.0002593961
 83365807, -0.0001761789, 0.003657985, -5.699858E-05, 0.0002593961
 83465767, 4.209621E-05, 0.003603137, 0.0001617119, 0.0002593961
 83566560, -0.0002428409, 0.003713263, -6.535061E-05, 0.0002615578
 83666520, -0.0001539808, 0.003612792, -6.148262E-05, 0.0002593961
 83771478, -2.447829E-06, 0.003882122, -0.0001008, 0.000272366
 83871438, 0.0001573369, 0.003556044, -2.802919E-05, 0.0002593961
 83971398, -0.000101531, 0.003712918, 0.0003168555, 0.0002593961
 84071358, -6.094299E-05, 0.003674699, -5.984058E-05, 0.0002593961
 84171318, -8.239746E-05, 0.003729287, 0.0001809314, 0.0002593961
 84271278, -5.93518E-05, 0.003548347, 0.0002248568, 0.0002593961
 84371238, 1.870551E-05, 0.003752578, 0.0001574387, 0.0002593961
 84471198, 2.339754E-06, 0.003798271, 5.825572E-05, 0.0002593961
 84571158, 5.54265E-05, 0.003592157, 7.8114E-05, 0.0002593961
 84671118, -0.0001262557, 0.003572456, 0.0001128317, 0.0002593961
 84771078, 0.0001141631, 0.003548176, -1.870481E-05, 0.0002593961
 84871038, 2.189024E-05, 0.003619798, -1.638353E-05, 0.0002593961
 84970998, -4.050229E-05, 0.003618777, 1.537182E-06, 0.0002593961
 85070958, -8.384794E-05, 0.003650012, 2.609043E-05, 0.0002593961
 85170918, 2.410485E-05, 0.00360937, -6.456533E-05, 0.0002593961
 85270878, -5.952633E-05, 0.003784379, -8.724535E-05, 0.0002593961
 85370838, 0.000194502, 0.003698852, 0.0001505011, 0.0002593961
 85470798, 1.56602E-05, 0.003601148, -7.647553E-05, 0.0002593961
 85571591, -3.180611E-05, 0.003621951, -6.66352E-06, 0.0002615578
 85671551, 5.536218E-05, 0.00367113, -0.0001273778, 0.0002593961
 85771511, -0.0001169125, 0.003681487, 0.0001877045, 0.0002593961
 85876469, -0.0001930725, 0.003884585, 0.0001723398, 0.000272366
 85976429, 2.89469E-05, 0.003751471, -1.169335E-05, 0.0002593961
 86076389, -1.217296E-05, 0.003602706, 2.709378E-05, 0.0002593961
 86176349, -4.373806E-05, 0.003664265, 5.847378E-05, 0.0002593961
 86276309, -6.737419E-06, 0.003611656, 2.547915E-05, 0.0002593961
 86376269, 6.874448E-05, 0.003607192, -1.746195E-05, 0.0002593961
 86476229, -6.944187E-05, 0.003602912, -0.0001073777, 0.0002593961
 86576189, -0.0001291853, 0.003655956, 2.053512E-05, 0.0002593961
 86676149, -4.721599E-05, 0.003651546, 3.911361E-05, 0.0002593961
 86776109, -0.000129556, 0.00362769, -5.197948E-05, 0.0002593961
 86876069, -8.53093E-05, 0.003650526, 9.522082E-05, 0.0002593961
 86976029, -8.50738E-05, 0.003557894, 7.315807E-05, 0.0002593961
 87075989, -4.643387E-05, 0.003712488, 2.525749E-05, 0.0002593961
 87175949, -0.0001450757, 0.003597567, 7.029103E-05, 0.0002593961
 87275909, 1.1308E-05, 0.003510618, 9.91484E-05, 0.0002593961
 87375869, -0.000155235, 0.003520504, 3.543271E-05, 0.0002593961
 87475829, -5.114284E-05, 0.00358138, -8.365141E-06, 0.0002593961
 87575789, -8.062051E-05, 0.003636886, 2.535758E-06, 0.0002593961
 87676582, -0.0001298173, 0.003561257, 4.055466E-05, 0.0002615578
 87776542, -0.0002531912, 0.003733488, -8.881117E-06, 0.0002593961
 87876502, -0.0001087264, 0.003514533, 2.367146E-05, 0.0002593961
 87981460, 4.193349E-05, 0.00367571, 7.805562E-05, 0.000272366
 88081420, -0.0002144418, 0.003563304, -6.964758E-05, 0.0002593961
 88181380, 2.967885E-06, 0.00355494, -1.523482E-05, 0.0002593961
 88281340, -8.509423E-05, 0.003575639, 5.178048E-05, 0.0002593961
 88381300, -0.00011101, 0.003526098, 0.0001057023, 0.0002593961
 88481260, -0.0002060346, 0.003437707, 9.46608E-05, 0.0002593961
 88581220, -6.795511E-06, 0.003604635, -6.16709E-05, 0.0002593961
 88681180, -5.382991E-05, 0.003591664, 0.0001114042, 0.0002593961
 88781140, -0.0001544667, 0.003735684, 0.0001648232, 0.0002593961
 88881100, -3.686429E-05, 0.003724098, 7.461661E-05, 0.0002593961
 88981060, -3.597002E-05, 0.003740787, -0.0001127614, 0.0002593961
 89081020, -6.962538E-05, 0.003529735, -9.721442E-05, 0.0002593961
 89180980, -4.418454E-05, 0.003700738, -7.094881E-06, 0.0002593961
 89280940, -0.0001086521, 0.003532108, -5.3326E-05, 0.0002593961
 89380900, -1.133292E-05, 0.003733298, 0.000177633, 0.0002593961
 89480860, -6.798242E-05, 0.003603292, 3.731308E-05, 0.0002593961
 89580820, -7.705081E-05, 0.003588549, 0.000129711, 0.0002593961
 89680780, 1.259094E-05, 0.00367626, -4.015151E-05, 0.0002593961
 89781573, -0.0001467776, 0.003664805, 0.0001658301, 0.0002615578
 89881533, -7.997935E-05, 0.003744961, 5.640634E-05, 0.0002593961
 89986491, 8.593281E-05, 0.003937827, 6.429483E-05, 0.000272366
 90086451, -1.591301E-05, 0.003582942, 3.238818E-06, 0.0002593961
 90186411, -0.0001602119, 0.003572389, 3.914101E-05, 0.0002593961
 90286371, -0.0002524301, 0.00360063, 2.368455E-05, 0.0002593961
 90386331, -0.0001708585, 0.003700107, -0.0001213494, 0.0002593961
 90486291, -6.244438E-05, 0.003621456, 0.0001158096, 0.0002593961
 90586251, -0.000211988, 0.003624566, -3.053278E-05, 0.0002593961
 90686211, -8.107183E-05, 0.003474002, 0.0001254653, 0.0002593961
 90786171, -0.000142289, 0.003636926, 6.522071E-05, 0.0002593961
 90886131, -0.0001818754, 0.003646879, -4.027662E-05, 0.0002593961
 90986091, -1.113603E-05, 0.003592648, -1.430773E-05, 0.0002593961
 91086051, -9.677642E-05, 0.003494382, -5.330933E-05, 0.0002593961
 91186011, -9.947042E-05, 0.003531949, 0.0002476071, 0.0002593961
 91285971, -0.0002386339, 0.003749142, 4.948787E-06, 0.0002593961
 91385931, -3.838004E-05, 0.003545649, 8.047937E-05, 0.0002593961
 91485891, -0.0001511247, 0.003501545, 2.078655E-05, 0.0002593961
 91585851, -0.0002185936, 0.003600594, -8.423536E-06, 0.0002593961
 91685811, 4.454199E-05, 0.003506389, 0.0001907682, 0.0002593961
 91785771, -0.0001626149, 0.003500032, 0.00011598, 0.0002593961
 91886564, -5.050223E-05, 0.003519458, 6.317829E-05, 0.0002615578
 91986524, -0.0001993392, 0.003529623, 4.254427E-05, 0.0002593961
 92091482, -0.0001292211, 0.003729125, -6.922931E-05, 0.000272366
 92191442, -0.0001498503, 0.00355891, 7.465354E-05, 0.0002593961
 92291402, -0.0002580437, 0.003504696, 7.086779E-05, 0.0002593961
 92391362, -0.0001280276, 0.003662583, 4.803405E-05, 0.0002593961
 92491322, -0.0001710867, 0.003591493, 1.5578E-05, 0.0002593961
 92591282, -6.039659E-05, 0.003509351, 2.506922E-05, 0.0002593961
 92691242, -9.07856E-05, 0.00355542, 2.68066E-05, 0.0002593961
 92791202, -0.0001955039, 0.003728739, 5.352144E-05, 0.0002593961
 92891162, -5.926659E-05, 0.003597295, 5.610125E-06, 0.0002593961
 92991122, -9.584316E-05, 0.00361087, -0.0001843716, 0.0002593961
 93091082, -1.271312E-05, 0.003702407, -7.235136E-05, 0.0002593961
 93191042, -1.132276E-05, 0.003605961, 8.396961E-05, 0.0002593961
 93291002, -0.0001282665, 0.003480996, 3.835097E-05, 0.0002593961
 93390962, -9.795548E-05, 0.00365467, 0.0001109073, 0.0002593961
 93490922, -0.0002729957, 0.003809773, 0.00011751, 0.0002593961
 93590882, -0.0002757055, 0.003601704, -2.204488E-06, 0.0002593961
 93690842, -0.0001345678, 0.003595502, -4.644562E-05, 0.0002593961
 93790802, -2.922927E-05, 0.003695226, 0.0001246669, 0.0002593961
 93890762, 2.307761E-05, 0.003521012, 0.0001103008, 0.0002593961
 93991555, -0.0001853251, 0.003816984, -8.359591E-06, 0.0002615578
 94091515, -0.0002065532, 0.003601325, -2.115238E-05, 0.0002593961
 94196473, -5.622325E-05, 0.003843159, -0.0001052149, 0.000272366
 94296433, -8.437981E-05, 0.003606106, 7.589284E-05, 0.0002593961
 94396393, -0.0002228323, 0.003613392, -9.961882E-07, 0.0002593961
 94496353, 4.633822E-05, 0.003567239, -9.433428E-05, 0.0002593961
 94596313, 6.609981E-06, 0.003725229, -1.08866E-05, 0.0002593961
 94696273, -0.0001309252, 0.003589179, -5.037081E-05, 0.0002593961
 94796233, 0.0001407358, 0.003634004, -3.223322E-05, 0.0002593961
 94896193, -5.558032E-05, 0.003492202, 0.00021576, 0.0002593961
 94996153, -6.304157E-05, 0.003647249, 6.227504E-05, 0.0002593961
 95096113, 2.832165E-05, 0.00373109, 6.885515E-05, 0.0002593961
 95196073, 2.293405E-05, 0.003744909, 9.04663E-05, 0.0002593961
 95296033, -2.497812E-05, 0.003747471, 0.0001311612, 0.0002593961
 95395993, -0.0001402376, 0.003572586, 9.593702E-05, 0.0002593961
 95495953, -1.981805E-05, 0.003502385, 6.658753E-05, 0.0002593961
 95595913, -0.0001776308, 0.00366155, -3.306616E-05, 0.0002593961
 95695873, -8.723581E-06, 0.00359937, 8.057825E-05, 0.0002593961
 95795833, -3.412437E-05, 0.003658465, 0.0001096144, 0.0002593961
 95895793, -0.0001044339, 0.003719237, -5.666848E-05, 0.0002593961
 95996586, 5.215415E-05, 0.003704891, -6.161172E-05, 0.0002615578
 96096546, -8.511451E-05, 0.003648554, -7.968813E-05, 0.0002593961
 96196506, -0.000116846, 0.003591443, -0.0001166413, 0.0002593961
 96301464, -0.0001582896, 0.003716817, 0.0001440961, 0.000272366
 96401424, -0.0001690523, 0.003521811, -2.693052E-05, 0.0002593961
 96501384, -0.0001261988, 0.003551374, 3.008711E-05, 0.0002593961
 96601344, -0.0001339099, 0.003691575, -2.39789E-05, 0.0002593961
 96701304, 3.743032E-05, 0.003587897, -3.415887E-05, 0.0002593961
 96801264, -1.220664E-05, 0.003552771, -3.535286E-05, 0.0002593961
 96901224, -6.942792E-05, 0.003418967, -5.204622E-05, 0.0002593961
 97001184, -0.0001537859, 0.003632054, 0.0001951176, 0.0002593961
 97101144, -0.0001068957, 0.003450307, 2.301487E-05, 0.0002593961
 97201104, -3.90497E-05, 0.003580166, -4.557932E-05, 0.0002593961
 97301064, -2.844807E-05, 0.003419197, 5.290656E-05, 0.0002593961
 97401024, -0.0002306146, 0.003787732, -1.24167E-06, 0.0002593961
 97500984, -0.0001224613, 0.003584451, 5.742994E-05, 0.0002593961
 97600944, 1.547112E-05, 0.003623207, -0.0001003412, 0.0002593961
 97700904, -6.076728E-05, 0.00364766, -6.412325E-05, 0.0002593961
 97800864, -0.0001005081, 0.003585283, -2.608209E-05, 0.0002593961
 97900824, -0.0001651073, 0.003531695, 2.835995E-07, 0.0002593961
 98000784, 4.854651E-05, 0.003639514, 0.0001534742, 0.0002593961
 98101577, -5.623601E-05, 0.003635809, 4.27381E-05, 0.0002615578
 98201537, 8.120031E-05, 0.003648977, 6.444258E-05, 0.0002593961
 98306495, 9.079331E-05, 0.003803852, -1.028483E-05, 0.000272366
 98406455, -7.46369E-05, 0.003681227, 6.103695E-05, 0.0002593961
 98506415, -0.0001674012, 0.003592676, 6.130388E-05, 0.0002593961
 98606375, -0.0002530433, 0.003537344, -4.773614E-05, 0.0002593961
 98706335, -0.0001684752, 0.003520721, 1.450435E-05, 0.0002593961
 98806295, -0.000125608, 0.003629108, -4.265976E-07, 0.0002593961
 98906255, -9.661256E-05, 0.003751324, 0.0001511958, 0.0002593961
 99006215, -3.510732E-05, 0.003612022, -2.500606E-05, 0.0002593961
 99106175, -0.0001986699, 0.003794811, -5.516467E-05, 0.0002593961
 99206135, -0.0001162541, 0.00353469, -4.719872E-05, 0.0002593961
 99306095, -0.000171445, 0.003545871, 7.062708E-05, 0.0002593961
 99406055, -0.0001713603, 0.00361671, -2.111186E-05, 0.0002593961
 99506015, -0.0002106899, 0.003682737, 0.0001222955, 0.0002593961
 99605975, -0.0001179182, 0.003576746, 0.0001032202, 0.0002593961
 99705935, 4.884532E-05, 0.003693622, 0.0001252043, 0.0002593961
 99805895, 3.459089E-05, 0.003617801, 8.904947E-05, 0.0002593961
 99905855, -0.0001369958, 0.003702217, 1.866428E-05, 0.0002593961
 100005815, 3.977518E-06, 0.003665711, 1.787454E-08, 0.0002593961
 100105775, 8.116473E-05, 0.003647937, -0.0001177341, 0.0002593961
 100206568, -0.0001852043, 0.003780976, 6.558536E-05, 0.0002615578
 100306528, 5.758469E-05, 0.003717643, 2.542903E-06, 0.0002593961
 100411486, -0.0002956871, 0.003837258, 8.533044E-05, 0.000272366
 100511446, -3.302918E-05, 0.003675381, -1.740594E-05, 0.0002593961
 100611406, -0.0001365134, 0.00357634, 9.242179E-06, 0.0002593961
 100711366, 3.426737E-05, 0.003504107, 8.896963E-05, 0.0002593961
 100811326, -0.0001228551, 0.003558191, 6.251456E-05, 0.0002593961
 100911286, -0.0002085206, 0.003602554, 8.022555E-05, 0.0002593961
 101011246, -1.050704E-05, 0.003581339, -9.618129E-05, 0.0002593961
 101111206, -0.0001652256, 0.003736049, 1.403605E-05, 0.0002593961
 101211166, -4.340414E-05, 0.003631414, -2.691741E-05, 0.0002593961
 101311126, -3.203548E-05, 0.00354203, -0.000116173, 0.0002593961
 101411086, -0.0001049119, 0.003482413, 7.026482E-05, 0.0002593961
 101511046, -0.0001297485, 0.003527066, -6.310792E-06, 0.0002593961
 101611006, -0.0001751702, 0.003611716, 3.990604E-05, 0.0002593961
 101710966, -0.0002901667, 0.003648911, -6.382773E-05, 0.0002593961
 101810926, -0.000154768, 0.003710316, 3.556973E-06, 0.0002593961
 101910886, -0.0001300401, 0.003522255, 3.729877E-05, 0.0002593961
 102010846, -0.0002003533, 0.003546196, 6.079267E-05, 0.0002593961
 102110806, -0.0002143623, 0.003740976, 6.113586E-05, 0.0002593961
 102210766, -0.0002635299, 0.003676195, 0.0001212207, 0.0002593961
 102311559, -7.318816E-05, 0.003573689, 0.0001509559, 0.0002615578
 102411519, -0.0001361031, 0.003821513, -2.728086E-05, 0.0002593961
 102516477, -0.0001490238, 0.003839396, -0.0001040019, 0.000272366
 102616437, 7.247191E-05, 0.003496161, 1.940785E-05, 0.0002593961
 102716397, -0.0001124476, 0.003684985, 3.714745E-05, 0.0002593961
 102816357, -0.0002167838, 0.003543915, -1.440902E-05, 0.0002593961
 102916317, -6.031794E-05, 0.003480771, -6.107628E-05, 0.0002593961
 103016277, -0.0001485445, 0.003630903, 0.0001294226, 0.0002593961
 103116237, -0.0001585698, 0.003619961, -8.817955E-06, 0.0002593961
 103216197, -0.0002544787, 0.00351182, -6.615853E-05, 0.0002593961
 103316157, 1.568384E-05, 0.003454933, 2.376439E-05, 0.0002593961
 103416117, -0.0001111733, 0.003675453, 7.574627E-05, 0.0002593961
 103516077, -0.0001586453, 0.003485647, 6.875863E-05, 0.0002593961
 103616037, -0.0001469974, 0.0037261, -5.997047E-05, 0.0002593961
 103715997, -0.0001224202, 0.003564746, 1.404558E-05, 0.0002593961
 103815957, -0.0001200694, 0.003493454, 0.0001539532, 0.0002593961
 103915917, -1.267066E-05, 0.003651445, 2.719267E-05, 0.0002593961
 104015877, -0.0001081766, 0.003612828, 0.0001061027, 0.0002593961
 104115837, -6.901317E-05, 0.003501883, 8.436644E-06, 0.0002593961
 104215797, -0.0001768558, 0.003669131, 0.000100402, 0.0002593961
 104316590, -0.0001348421, 0.003643029, -1.676206E-05, 0.0002615578
 104416550, 5.240793E-05, 0.003409267, -1.195667E-05, 0.0002593961
 104516510, -3.644888E-05, 0.003447145, -2.705087E-05, 0.0002593961
 104621468, -0.0002576209, 0.003974951, -1.644434E-06, 0.000272366
 104721428, -0.0001513387, 0.003868069, -0.0002607125, 0.0002593961
 104821388, -4.703454E-05, 0.003687773, -7.831538E-05, 0.0002593961
 104921348, -0.0001175067, 0.003532809, 8.094647E-06, 0.0002593961
 105021308, -0.0002651831, 0.003515294, 9.656856E-05, 0.0002593961
 105121268, -9.740659E-05, 0.003695134, 0.0001224314, 0.0002593961
 105221228, -0.0002208208, 0.003547334, -1.42982E-05, 0.0002593961
 105321188, -5.428892E-05, 0.00370305, 5.353932E-05, 0.0002593961
 105421148, -8.78215E-05, 0.003774958, 0.0001808242, 0.0002593961
 105521108, -9.906403E-05, 0.003690655, 4.958315E-05, 0.0002593961
 105621068, 6.503405E-05, 0.003557049, 2.179823E-05, 0.0002593961
 105721028, -0.000190735, 0.003691697, 0.0001097347, 0.0002593961
 105820988, -0.0001731356, 0.003568317, -1.683515E-05, 0.0002593961
 105920948, -6.237138E-06, 0.003719548, 0.0001517833, 0.0002593961
 106020908, -0.0001278179, 0.003640483, 0.0001319083, 0.0002593961
 106120868, -5.434956E-05, 0.003550203, 8.183304E-05, 0.0002593961
 106220828, -2.543445E-05, 0.003532677, 0.000185114, 0.0002593961
 106320788, -0.000155242, 0.003632941, 3.003231E-05, 0.0002593961
 106421581, -0.0001781108, 0.003473514, 0.0001565541, 0.0002615578
 106521541, -0.0001790885, 0.003785643, 2.80852E-05, 0.0002593961
 106621501, -6.035525E-05, 0.003553734, 7.729179E-05, 0.0002593961
 106726459, -0.0002564254, 0.003727207, 0.0002218873, 0.000272366
 106826419, -0.0001647951, 0.003813816, 0.0001779369, 0.0002593961
 106926379, 5.380978E-05, 0.00351016, 1.073169E-05, 0.0002593961
 107026339, -6.130031E-05, 0.003612451, 1.754059E-06, 0.0002593961
 107126299, -7.436646E-05, 0.003543823, -2.545888E-05, 0.0002593961
 107226259, -0.0001687375, 0.003583714, -4.491201E-06, 0.0002593961
 107326219, -0.0001157466, 0.003558417, 9.515768E-05, 0.0002593961
 107426179, -2.078259E-05, 0.003446785, -6.69557E-05, 0.0002593961
 107526139, 5.152649E-06, 0.003477504, -0.0001559361, 0.0002593961
 107626099, -8.559225E-05, 0.003511403, 9.613952E-06, 0.0002593961
 107726059, -3.869963E-05, 0.003707439, -1.137993E-05, 0.0002593961
 107826019, -7.052778E-05, 0.003579566, 4.358926E-06, 0.0002593961
 107925979, -5.84127E-05, 0.003611346, 7.173649E-05, 0.0002593961
 108025939, -0.000114286, 0.00361147, -2.371674E-05, 0.0002593961
 108125899, -9.829841E-05, 0.003620552, -9.036621E-05, 0.0002593961
 108225859, 0.0001314316, 0.003671443, -1.109394E-05, 0.0002593961
 108325819, -0.0001349199, 0.003617789, -2.604992E-05, 0.0002593961
 108425779, -7.917394E-05, 0.0035993, -9.69499E-06, 0.0002593961
 108526572, -0.0002354964, 0.00366507, 1.219103E-05, 0.0002615578
 108626532, -0.0003155983, 0.003610708, 0.0001223504, 0.0002593961
 108731490, 5.466257E-05, 0.003883168, -5.753119E-06, 0.000272366
 108831450, -0.000132696, 0.003745785, 4.54363E-06, 0.0002593961
 108931410, -0.00010816, 0.003694574, 6.679603E-05, 0.0002593961
 109031370, -0.0001171516, 0.00373327, -0.0001184454, 0.0002593961
 109131330, -0.0002526884, 0.003677609, 9.895657E-05, 0.0002593961
 109231290, -9.673719E-05, 0.003711867, 7.745507E-08, 0.0002593961
 109331250, 2.462206E-05, 0.003679602, -9.541628E-05, 0.0002593961
 109431210, -0.0002705629, 0.003596458, 1.136086E-05, 0.0002593961
 109531170, -3.206045E-05, 0.00370415, -5.676263E-05, 0.0002593961
 109631130, -0.0001612877, 0.003523297, -1.821862E-05, 0.0002593961
 109731090, -0.0001221306, 0.003706061, -1.472838E-06, 0.0002593961
 109831050, -0.0003665681, 0.003589075, -1.825079E-05, 0.0002593961
 109931010, -0.0002076475, 0.003653571, 8.332256E-05, 0.0002593961
 110030970, 3.802617E-05, 0.003806562, 9.203089E-05, 0.0002593961
 110130930, 0.0001558214, 0.003750351, 1.546479E-05, 0.0002593961
 110230890, 3.239985E-05, 0.003721618, -3.839268E-05, 0.0002593961
 110330850, -0.0001459493, 0.003751266, 9.940699E-05, 0.0002593961
 110430810, -0.0002211868, 0.003606362, -8.821651E-05, 0.0002593961
 110530770, -4.668103E-05, 0.003740067, 0.0001082595, 0.0002593961
 110631563, -5.031783E-05, 0.003822546, -4.754944E-06, 0.0002615578
 110731523, -0.00014113, 0.003656862, 7.107275E-05, 0.0002593961
 110836481, -0.0001734862, 0.004025689, -8.147317E-05, 0.000272366
 110936441, -0.0001478185, 0.003612547, -4.150041E-05, 0.0002593961
 111036401, 2.466965E-05, 0.00370452, 0.0001919336, 0.0002593961
 111136361, 6.33219E-05, 0.003471332, -7.807944E-05, 0.0002593961
 111236321, -0.0001327812, 0.003513936, -7.564381E-06, 0.0002593961
 111336281, -4.233405E-05, 0.003673543, 0.0001209884, 0.0002593961
 111436241, -4.223069E-05, 0.003670649, -3.28755E-05, 0.0002593961
 111536201, -0.0001444906, 0.003623125, -2.826037E-05, 0.0002593961
 111636161, 8.662255E-05, 0.00370743, 3.319247E-05, 0.0002593961
 111736121, -1.762919E-05, 0.003467765, 0.0001118653, 0.0002593961
 111836081, -7.718124E-05, 0.003647177, -0.00013088, 0.0002593961
 111936041, -5.21154E-05, 0.003618068, 0.000126819, 0.0002593961
 112036001, -8.588906E-05, 0.003734807, 6.422811E-05, 0.0002593961
 112135961, -0.0001323786, 0.003559449, 6.307701E-05, 0.0002593961
 112235921, -0.0001751545, 0.003797619, 9.433309E-05, 0.0002593961
 112335881, -0.000143607, 0.003688672, 6.180794E-05, 0.0002593961
 112435841, -0.000205979, 0.003605658, 1.137159E-05, 0.0002593961
 112535801, -0.0001116965, 0.003561305, -5.667326E-05, 0.0002593961
 112635761, -0.0001345774, 0.003454716, 7.057942E-05, 0.0002593961
 112736554, 3.804776E-05, 0.003620202, -3.768645E-05, 0.0002615578
 112836514, -0.0001614497, 0.003542754, 8.110496E-05, 0.0002593961
 112941472, -0.0001638673, 0.003783121, 0.0001274767, 0.000272366
 113041432, 8.464366E-05, 0.003665513, 1.995719E-05, 0.0002593961
 113141392, -0.0001298375, 0.003641726, 7.115136E-06, 0.0002593961
 113241352, -4.167825E-05, 0.003675526, 5.350476E-05, 0.0002593961
 113341312, -0.0002061078, 0.003572267, 0.0001382727, 0.0002593961
 113441272, -0.0001275352, 0.003598777, 5.98811E-05, 0.0002593961
 113541232, -0.0002343635, 0.003775324, -1.6772E-05, 0.0002593961
 113641192, -0.0002088289, 0.003559706, 1.614642E-06, 0.0002593961
 113741152, -0.0001760857, 0.003631821, 0.000125022, 0.0002593961
 113841112, -0.0001092884, 0.003761483, 7.143262E-05, 0.0002593961
 113941072, -0.0001276968, 0.003572392, 5.046733E-05, 0.0002593961
 114041032, -0.0001387937, 0.0037321, 2.647651E-05, 0.0002593961
 114140992, -3.504208E-05, 0.003632908, -0.0001191997, 0.0002593961
 114240952, -1.27946E-05, 0.003610264, 0.0001488245, 0.0002593961
 114340912, -9.932444E-05, 0.003641591, 4.705693E-06, 0.0002593961
 114440872, 1.478292E-05, 0.003571074, 7.501581E-05, 0.0002593961
 114540832, -3.696583E-05, 0.003595578, -0.0001091997, 0.0002593961
 114640792, -0.0001322208, 0.003512394, -8.091432E-05, 0.0002593961
 114741585, -0.0001084904, 0.003788461, -1.346328E-05, 0.0002615578
 114841545, -7.13813E-05, 0.003557457, -8.545793E-05, 0.0002593961
 114941505, -0.0001001835, 0.003682655, 6.574264E-05, 0.0002593961
 115046463, -0.0001130786, 0.0038127, 1.587113E-05, 0.000272366
 115146423, -0.0001269754, 0.003667247, 4.097491E-05, 0.0002593961
 115246383, -0.0001435619, 0.003664274, 0.0002202547, 0.0002593961
 115346343, -4.180543E-05, 0.003704984, -3.885621E-05, 0.0002593961
 115446303, -1.039825E-05, 0.003600241, -0.0001057607, 0.0002593961
 115546263, -0.0001369848, 0.003607195, 1.986662E-05, 0.0002593961
 115646223, -2.04776E-05, 0.003585067, 9.116936E-05, 0.0002593961
 115746183, -0.000112693, 0.003734466, -8.891003E-05, 0.0002593961
 115846143, -5.706949E-05, 0.003577167, 5.549356E-05, 0.0002593961
 115946103, 1.565697E-05, 0.003586847, 2.183279E-05, 0.0002593961
 116046063, -0.0002355227, 0.003671376, 0.0001154295, 0.0002593961
 116146023, -0.0001120828, 0.003677334, -0.0001150541, 0.0002593961
 116245983, -6.883155E-05, 0.003720911, 0.0002020981, 0.0002593961
 116345943, -0.0002283601, 0.003551381, 3.238808E-06, 0.0002593961
 116445903, -7.677534E-05, 0.003624684, -3.5049E-05, 0.0002593961
 116545863, -0.0001837516, 0.00355195, 4.643131E-05, 0.0002593961
 116645823, -4.671405E-05, 0.003541987, 8.531971E-05, 0.0002593961
 116745783, -0.0001556722, 0.003657454, 1.102602E-05, 0.0002593961
 116846576, -0.0002000794, 0.003717314, -7.953679E-05, 0.0002615578
 116946536, -0.0001484877, 0.003735468, 3.195913E-05, 0.0002593961
 117051494, -0.0001372482, 0.003951586, 5.156124E-05, 0.000272366
 117151454, -0.0002502742, 0.003642944, 5.810558E-05, 0.0002593961
 117251414, -9.46795E-05, 0.003575076, 7.235493E-05, 0.0002593961
 117351374, -9.707888E-05, 0.00357185, 4.608933E-05, 0.0002593961
 117451334, -6.032687E-06, 0.003619137, -3.392531E-05, 0.0002593961
 117551294, -0.0001604703, 0.00360281, 0.0001053698, 0.0002593961
 117651254, -0.0001312139, 0.003604933, 0.0001057047, 0.0002593961
 117751214, -0.0003082432, 0.003573172, 0.0001141759, 0.0002593961
 117851174, -8.892641E-05, 0.003621874, -2.242621E-05, 0.0002593961
 117951134, -3.030534E-05, 0.003748601, 0.0001144618, 0.0002593961
 118051094, -0.0001647988, 0.003391389, 0.0001743812, 0.0002593961
 118151054, -0.0001180446, 0.003545118, -7.553653E-05, 0.0002593961
 118251014, -9.40245E-05, 0.003632276, 0.0001881943, 0.0002593961
 118350974, -5.695049E-05, 0.003676792, -0.0001120119, 0.0002593961
 118450934, -0.0002092945, 0.003472313, 9.274586E-05, 0.0002593961
 118550894, -6.207946E-05, 0.003604706, 9.810575E-06, 0.0002593961
 118650854, -0.0001240964, 0.003544113, 4.445204E-05, 0.0002593961
 118750814, -0.0001185767, 0.003637695, 8.707144E-06, 0.0002593961
 118850774, -7.599935E-06, 0.003643559, -3.987148E-05, 0.0002593961
 118951567, -1.240989E-05, 0.003677846, -6.034265E-05, 0.0002615578
 119051527, -0.0002644323, 0.003646394, 5.553288E-05, 0.0002593961
 119156485, -0.0001073678, 0.003847083, 0.0001610791, 0.000272366
 119256445, -0.0001215437, 0.003623588, -0.0001093141, 0.0002593961
 119356405, -7.422557E-05, 0.003519912, 6.025645E-05, 0.0002593961
 119456365, -0.0001609394, 0.003608435, 0.0001211039, 0.0002593961
 119556325, -0.0001493572, 0.00357005, 4.132525E-05, 0.0002593961
 119656285, -0.0001441608, 0.003558181, -3.215456E-05, 0.0002593961
 119756245, -0.0001341158, 0.003593071, 2.617982E-05, 0.0002593961
 119856205, -0.000227013, 0.003573199, 0.0002133755, 0.0002593961
 119956165, 1.72662E-05, 0.003651941, -3.443815E-07, 0.0002593961
 120056125, -0.0001724215, 0.003571833, 8.614075E-05, 0.0002593961
 120156085, -0.0001337817, 0.003572716, -3.355233E-05, 0.0002593961
 120256045, -0.0001188231, 0.003512291, 6.232149E-06, 0.0002593961
 120356005, -0.0002890762, 0.003629428, 0.0001258644, 0.0002593961
 120455965, -0.0001682642, 0.003593258, 5.51599E-05, 0.0002593961
 120555925, -9.619958E-05, 0.003423397, -3.55471E-05, 0.0002593961
 120655885, -9.504274E-06, 0.003627059, -6.036012E-05, 0.0002593961
 120755845, -0.0001280468, 0.003584003, 0.0001125303, 0.0002593961
 120855805, 6.474079E-06, 0.003684391, -3.539457E-05, 0.0002593961
 120955765, 8.30843E-06, 0.003650005, 4.720824E-05, 0.0002593961
 121056558, 3.044458E-05, 0.003547693, 6.507414E-05, 0.0002615578
 121156518, -1.484997E-06, 0.003806835, -0.0001380511, 0.0002593961
 121261476, 7.482976E-05, 0.003715034, 0.0001164447, 0.000272366
 121361436, -0.0001723154, 0.003590437, -4.941393E-05, 0.0002593961
 121461396, -0.0001915122, 0.003641135, 6.630152E-05, 0.0002593961
 121561356, 8.503444E-05, 0.003564137, -2.281588E-05, 0.0002593961
 121661316, 9.77369E-06, 0.003580685, 5.387296E-06, 0.0002593961
 121761276, -0.000132534, 0.003764945, 2.364523E-05, 0.0002593961
 121861236, -0.0001381995, 0.003720762, -1.368095E-05, 0.0002593961
 121961196, 2.924431E-05, 0.003399435, 0.0001203222, 0.0002593961
 122061156, -5.62383E-06, 0.003648773, 0.0001225494, 0.0002593961
 122161116, -0.0001906076, 0.00349821, -5.868351E-05, 0.0002593961
 122261076, -8.04462E-05, 0.003583326, -7.41638E-05, 0.0002593961
 122361036, -3.691421E-05, 0.003606346, -1.039564E-05, 0.0002593961
 122460996, -6.090292E-05, 0.003654742, 0.0001538102, 0.0002593961
 122560956, -0.0001128001, 0.003568514, -8.675919E-05, 0.0002593961
 122660916, -0.0002017458, 0.00353624, 0.0001617988, 0.0002593961
 122760876, 2.025635E-05, 0.003658612, 1.46688E-05, 0.0002593961
 122860836, -0.0001369409, 0.003566254, 1.243689E-05, 0.0002593961
 122960796, -0.000154552, 0.003596822, -0.0001424863, 0.0002593961
 123061589, -5.549658E-05, 0.003585177, 2.078655E-05, 0.0002615578
 123161549, -6.901128E-05, 0.003459001, 0.0001577557, 0.0002593961
 123261509, -6.383273E-05, 0.003733141, 0.0001073432, 0.0002593961
 123366467, -3.337481E-05, 0.003832039, 0.0001270275, 0.000272366
 123466427, -0.0001173513, 0.003636362, -0.0001352461, 0.0002593961
 123566387, -0.0002646255, 0.003692149, 7.971077E-05, 0.0002593961
 123666347, -0.0001451724, 0.003672256, -3.786957E-06, 0.0002593961
 123766307, -5.039722E-05, 0.003632249, 2.385735E-05, 0.0002593961
 123866267, -0.0002671232, 0.003548857, 0.0001538472, 0.0002593961
 123966227, 4.194656E-05, 0.003556457, 3.785884E-05, 0.0002593961
 124066187, -0.0001288685, 0.003670539, -7.348338E-05, 0.0002593961
 124166147, -0.000145425, 0.003639264, 2.950918E-05, 0.0002593961
 124266107, -9.352517E-05, 0.00358951, 7.971912E-06, 0.0002593961
 124366067, -0.0001681556, 0.003545799, -1.973316E-05, 0.0002593961
 124466027, -8.082455E-05, 0.003704306, 3.214502E-05, 0.0002593961
 124565987, -9.69499E-05, 0.003597881, 0.0001147979, 0.0002593961
 124665947, -3.079052E-05, 0.003601272, 2.369886E-05, 0.0002593961
 124765907, -9.511939E-06, 0.003618116, -4.492154E-05, 0.0002593961
 124865867, -0.0001264476, 0.003575848, 5.842613E-05, 0.0002593961
 124965827, -0.0001337083, 0.003585604, 6.666973E-05, 0.0002593961
 125065787, -9.720409E-05, 0.003730196, 3.7381E-05, 0.0002593961
 125166580, 4.273936E-05, 0.003686226, 0.0002568175, 0.0002615578
 125266540, 3.884954E-05, 0.003737126, 2.793149E-06, 0.0002593961
 125366500, -0.000140127, 0.003561775, 4.850354E-05, 0.0002593961
 125471458, -0.0001290712, 0.0035679, -2.900512E-05, 0.000272366
 125571418, 1.637796E-05, 0.003745874, 0.0001491772, 0.0002593961
 125671378, -3.54819E-05, 0.003684109, -0.0001115317, 0.0002593961
 125771338, -0.0001792105, 0.003706289, -7.355249E-05, 0.0002593961
 125871298, -9.597585E-05, 0.003610286, -1.444241E-06, 0.0002593961
 125971258, -1.643878E-05, 0.003781454, -3.360119E-05, 0.0002593961
 126071218, 1.245397E-05, 0.003764576, -0.0001095965, 0.0002593961
 126171178, -0.0002109523, 0.003851913, 0.0001060669, 0.0002593961
 126271138, 7.577773E-05, 0.003746294, -2.226773E-05, 0.0002593961
 126371098, -6.837893E-05, 0.003585217, 9.224302E-06, 0.0002593961
 126471058, 3.147702E-05, 0.003846158, 0.0001301721, 0.0002593961
 126571018, 9.536105E-06, 0.003722719, 7.397195E-05, 0.0002593961
 126670978, -0.0001110762, 0.003779667, -7.428892E-05, 0.0002593961
 126770938, -0.0001415912, 0.003555131, 8.598583E-05, 0.0002593961
 126870898, -7.901443E-05, 0.003691337, -0.0001365854, 0.0002593961
 126970858, -9.423879E-05, 0.003463815, -0.0001462756, 0.0002593961
 127070818, -0.0001070536, 0.003726843, 8.429496E-06, 0.0002593961
 127170778, -0.0002452678, 0.003590198, 0.0002458256, 0.0002593961
 127271571, -8.106203E-05, 0.00368289, 5.756142E-05, 0.0002615578
 127371531, -1.487168E-05, 0.00365037, 1.884303E-05, 0.0002593961
 127476489, -0.0001227785, 0.003797256, -5.024927E-05, 0.000272366
 127576449, -4.540758E-05, 0.003757214, 1.90897E-05, 0.0002593961
 127676409, -0.0001081481, 0.003514996, 0.0001095822, 0.0002593961
 127776369, 7.061172E-05, 0.003600637, 4.491677E-05, 0.0002593961
 127876329, -0.0001152084, 0.003602521, 0.0001075839, 0.0002593961
 127976289, 5.111148E-05, 0.003583008, 3.202467E-05, 0.0002593961
 128076249, -5.627691E-05, 0.003705156, -1.370119E-05, 0.0002593961
 128176209, -0.0001102847, 0.003598038, 6.148023E-05, 0.0002593961
 128276169, -4.097485E-05, 0.003710197, -8.639932E-05, 0.0002593961
 128376129, -6.676455E-05, 0.00375296, 1.259896E-05, 0.0002593961
 128476089, -2.28767E-05, 0.003574589, -6.656368E-05, 0.0002593961
 128576049, -0.0001723323, 0.003440389, -4.667562E-06, 0.0002593961
 128676009, -2.520858E-05, 0.003593935, 1.985589E-05, 0.0002593961
 128775969, -4.777754E-05, 0.003641558, -4.916012E-05, 0.0002593961
 128875929, -5.681743E-06, 0.003617089, 0.0001234181, 0.0002593961
 128975889, -8.613027E-05, 0.003580251, -2.960689E-05, 0.0002593961
 129075849, -0.0002317409, 0.003579041, -2.912667E-05, 0.0002593961
 129175809, -7.794359E-05, 0.003668994, -1.656704E-05, 0.0002593961
 129275769, -0.0001378562, 0.003617733, 0.0001375387, 0.0002593961
 129376562, -4.294612E-05, 0.003718768, -4.39039E-05, 0.0002615578
 129476522, -6.347704E-05, 0.003574462, 9.029351E-05, 0.0002593961
 129581480, -9.604923E-06, 0.003712174, -6.952365E-05, 0.000272366
 129681440, -0.0002416822, 0.003658266, -4.998948E-05, 0.0002593961
 129781400, -8.351891E-05, 0.003473929, 0.0001005617, 0.0002593961
 129881360, 3.803126E-05, 0.00361975, 0.0001463983, 0.0002593961
 129981320, 1.849042E-05, 0.003473155, -7.806395E-05, 0.0002593961
 130081280, -9.86201E-05, 0.003631239, -1.977249E-05, 0.0002593961
 130181240, -5.076052E-05, 0.003726805, 2.156944E-05, 0.0002593961
 130281200, -0.0001633666, 0.003603054, -5.967971E-05, 0.0002593961
 130381160, 7.203805E-05, 0.003544041, 8.604184E-05, 0.0002593961
 130481120, -1.766789E-05, 0.003635244, 6.949268E-05, 0.0002593961
 130581080, -0.0002028093, 0.003577704, -1.893597E-05, 0.0002593961
 130681040, -7.729488E-05, 0.00352993, 0.0001076589, 0.0002593961
 130781000, -8.450757E-05, 0.003587246, -3.317935E-05, 0.0002593961
 130880960, -0.0002106971, 0.003676722, 0.0001217713, 0.0002593961
 130980920, -0.0001895625, 0.003454793, -9.420915E-06, 0.0002593961
 131080880, -0.0001655926, 0.003823099, 7.255155E-05, 0.0002593961
 131180840, -8.570453E-05, 0.003761442, 3.665649E-05, 0.0002593961
 131280800, -4.998487E-06, 0.00387504, 0.0003066552, 0.0002593961
 131380760, 1.378468E-05, 0.003700467, -0.0001300661, 0.0002593961
 131481553, 9.163139E-05, 0.003658709, 0.0001141723, 0.0002615578
 131581513, -0.0001258915, 0.003616869, -1.340806E-05, 0.0002593961
 131686471, -4.594685E-05, 0.003881233, -5.952717E-05, 0.000272366
 131786431, -4.415549E-05, 0.003645741, -1.981777E-05, 0.0002593961
 131886391, -2.545931E-05, 0.003454268, -4.466892E-05, 0.0002593961
 131986351, 6.070748E-05, 0.00366613, -7.111209E-05, 0.0002593961
 132086311, -8.728711E-05, 0.00351467, 9.307238E-05, 0.0002593961
 132186271, -3.055254E-05, 0.003508385, 6.468807E-05, 0.0002593961
 132286231, -0.0001257414, 0.003752041, -6.307221E-06, 0.0002593961
 132386191, -0.0001114918, 0.003814079, 2.369529E-05, 0.0002593961
 132486151, -8.084691E-05, 0.003616486, 0.000110719, 0.0002593961
 132586111, 1.243099E-05, 0.003641534, -9.641375E-06, 0.0002593961
 132686071, -6.064713E-05, 0.003624937, 3.075679E-05, 0.0002593961
 132786031, 4.922125E-05, 0.003676902, 5.91125E-05, 0.0002593961
 132885991, -5.834911E-05, 0.003755227, 4.528021E-05, 0.0002593961
 132985951, -0.0001261557, 0.003696433, -2.82115E-05, 0.0002593961
 133085911, -0.0001139936, 0.003476291, 0.0001174242, 0.0002593961
 133185871, -0.0001355194, 0.003547093, -2.131801E-05, 0.0002593961
 133285831, -0.0001770808, 0.003498811, -3.256925E-05, 0.0002593961
 133385791, -0.0001882582, 0.003537248, -4.681855E-06, 0.0002593961
 133486584, -0.0001304789, 0.003616378, 8.905341E-06, 0.0002615578
 133586544, -0.0001649843, 0.003682849, 9.104304E-05, 0.0002593961
 133686504, 0.0001141111, 0.003501631, 3.616196E-05, 0.0002593961
 133791462, 3.878755E-05, 0.003750821, -0.0001000398, 0.000272366
 133891422, -0.0002059829, 0.003673245, -2.19305E-05, 0.0002593961
 133991382, -3.79303E-05, 0.003566035, -0.0001033739, 0.0002593961
 134091342, -0.0002146062, 0.003635244, 1.440188E-05, 0.0002593961
 134191302, -0.0001704079, 0.003540991, 0.0002187056, 0.0002593961
 134291262, -0.0002261329, 0.003547268, 5.623952E-05, 0.0002593961
 134391222, 4.295018E-05, 0.003521094, 0.0001186683, 0.0002593961
 134491182, 6.61905E-05, 0.0035322, 0.0001892, 0.0002593961
 134591142, -0.0002016292, 0.003703533, 0.0001034382, 0.0002593961
 134691102, -0.0001664407, 0.003700863, 0.0001415652, 0.0002593961
 134791062, 3.661901E-05, 0.00378326, 5.127286E-05, 0.0002593961
 134891022, -0.000262584, 0.003761487, 1.094619E-05, 0.0002593961
 134990982, -0.0001837139, 0.003535279, 7.528988E-05, 0.0002593961
 135090942, -0.0001060162, 0.00379207, -1.739879E-05, 0.0002593961
 135190902, 8.797868E-05, 0.003754437, -4.329022E-05, 0.0002593961
 135290862, -0.0001067928, 0.003585344, -0.0001007845, 0.0002593961
 135390822, -0.0001159677, 0.00357793, 8.183305E-05, 0.0002593961
 135490782, -4.271355E-05, 0.003596372, 0.0001041627, 0.0002593961
 135591575, 0.0001197758, 0.003693057, 6.655653E-05, 0.0002615578
 135691535, 9.845481E-05, 0.003477997, -3.024917E-05, 0.0002593961
 135796493, -3.542766E-05, 0.00370814, -1.413256E-05, 0.000272366
 135896453, -0.0001257556, 0.003674536, 5.222258E-05, 0.0002593961
 135996413, 3.299348E-06, 0.003511596, -8.57964E-06, 0.0002593961
 136096373, -9.382999E-05, 0.003559994, 0.0001292021, 0.0002593961
 136196333, -6.095544E-05, 0.003560714, 1.678032E-05, 0.0002593961
 136296293, -0.0001404015, 0.003745188, 4.863583E-05, 0.0002593961
 136396253, -3.201199E-05, 0.003752301, 7.743597E-05, 0.0002593961
 136496213, -7.533273E-06, 0.00353443, 5.672331E-05, 0.0002593961
 136596173, -9.518387E-05, 0.003856806, -3.949373E-05, 0.0002593961
 136696133, -7.552563E-05, 0.003664251, -8.512785E-05, 0.0002593961
 136796093, -0.000172491, 0.003729917, -2.301129E-05, 0.0002593961
 136896053, -3.103218E-05, 0.003563804, 7.847268E-05, 0.0002593961
 136996013, -0.0001081373, 0.00352497, 0.0001384432, 0.0002593961
 137095973, -1.56979E-05, 0.003666735, -3.561026E-05, 0.0002593961
 137195933, -3.771382E-05, 0.003750624, 6.133486E-05, 0.0002593961
 137295893, -6.591232E-05, 0.003647279, 7.246457E-05, 0.0002593961
 137395853, 2.176604E-05, 0.003577187, 2.793149E-06, 0.0002593961
 137495813, 2.010844E-05, 0.003689792, 0.0002749404, 0.0002593961
 137595773, -0.0001743417, 0.003679578, 0.0001339591, 0.0002593961
 137696566, -0.0001207425, 0.003721088, 1.199918E-05, 0.0002615578
 137796526, -7.900999E-05, 0.003713702, 1.344142E-06, 0.0002593961
 137901484, -9.754796E-05, 0.00367557, 0.0001388698, 0.000272366
 138001444, 2.709557E-05, 0.003651144, 1.930418E-05, 0.0002593961
 138101404, -8.85973E-06, 0.003645776, 0.0001331869, 0.0002593961
 138201364, -0.000139006, 0.003595307, -6.36323E-05, 0.0002593961
 138301324, -6.606853E-05, 0.003487687, 0.0001531251, 0.0002593961
 138401284, -6.321565E-05, 0.003482421, -1.624053E-05, 0.0002593961
 138501244, -6.32159E-05, 0.003532583, 2.307565E-05, 0.0002593961
 138601204, -5.254682E-05, 0.003678746, 9.22156E-05, 0.0002593961
 138701164, 9.246834E-06, 0.003682985, 9.13636E-05, 0.0002593961
 138801124, -7.63829E-05, 0.003621859, 1.143594E-05, 0.0002593961
 138901084, -8.956346E-05, 0.003596658, 0.000109668, 0.0002593961
 139001044, -0.0001346029, 0.003694345, -8.805681E-05, 0.0002593961
 139101004, -4.275644E-05, 0.003574096, 7.805085E-05, 0.0002593961
 139200964, 5.028505E-05, 0.003610915, -1.205081E-05, 0.0002593961
 139300924, -0.0001143936, 0.00351275, 1.887282E-05, 0.0002593961
 139400884, -0.00022643, 0.003602644, 5.381696E-05, 0.0002593961
 139500844, -5.459888E-05, 0.003784444, 1.098431E-05, 0.0002593961
 139600804, -0.0001937508, 0.003542481, 1.851294E-05, 0.0002593961
 139700764, -0.0001293167, 0.00352003, -3.580329E-05, 0.0002593961
 139801557, 2.126005E-05, 0.003660296, 3.709064E-05, 0.0002615578
 139901517, -0.0003156004, 0.003679202, -9.46036E-05, 0.0002593961
 140006475, -0.0001368714, 0.003727841, 2.116191E-05, 0.000272366
 140106435, -0.0001071075, 0.003579384, -0.0001806609, 0.0002593961
 140206395, -4.681105E-05, 0.00375567, -6.089181E-07, 0.0002593961
 140306355, -9.646865E-05, 0.003683327, -5.034935E-05, 0.0002593961
 140406315, 2.575461E-05, 0.003629932, 4.076638E-05, 0.0002593961
 140506275, -3.945858E-05, 0.003584586, -2.688167E-05, 0.0002593961
 140606235, -0.0001041038, 0.003698554, -4.630619E-05, 0.0002593961
 140706195, -5.239133E-05, 0.003635742, -7.838809E-05, 0.0002593961
 140806155, -6.225054E-05, 0.003668247, -8.474418E-05, 0.0002593961
 140906115, -0.0001635199, 0.003723182, 9.252066E-05, 0.0002593961
 141006075, -6.158619E-05, 0.003624226, 0.0002024961, 0.0002593961
 141106035, -9.008097E-05, 0.003640138, -0.000140364, 0.0002593961
 141205995, 2.111493E-05, 0.003677526, 6.375981E-05, 0.0002593961
 141305955, -0.0001675634, 0.003610666, 7.891478E-05, 0.0002593961
 141405915, -8.123364E-05, 0.003639977, 6.80234E-05, 0.0002593961
 141505875, -2.427202E-05, 0.003645224, -4.941632E-05, 0.0002593961
 141605835, -4.28358E-06, 0.003503854, 5.561034E-05, 0.0002593961
 141705795, -0.0001046174, 0.003695647, 7.110611E-05, 0.0002593961
 141806588, -0.0001673418, 0.003715684, 0.0001454884, 0.0002615578
 141906548, 4.388909E-06, 0.003659128, 0.0001028329, 0.0002593961
 142006508, -7.27271E-05, 0.003741601, -5.510271E-05, 0.0002593961
 142111466, 1.572499E-05, 0.003817926, -4.079498E-05, 0.000272366
 142211426, -3.669889E-05, 0.003503206, -1.423385E-05, 0.0002593961
 142311386, -1.576408E-05, 0.003604976, -7.347505E-06, 0.0002593961
 142411346, -0.0001781344, 0.003683291, -4.167319E-05, 0.0002593961
 142511306, -0.0001408762, 0.003587336, -1.009537E-05, 0.0002593961
 142611266, -0.0001957798, 0.0036754, 1.229391E-05, 0.0002593961
 142711226, -3.961178E-05, 0.003729668, 9.612171E-05, 0.0002593961
 142811186, -0.0001068691, 0.00363938, -7.862282E-06, 0.0002593961
 142911146, -5.723842E-05, 0.003730481, 5.995855E-05, 0.0002593961
 143011106, -7.455856E-06, 0.003625329, 6.393021E-06, 0.0002593961
 143111066, -0.0001499998, 0.003586291, 7.833802E-05, 0.0002593961
 143211026, -3.544713E-05, 0.003526974, -8.231923E-05, 0.0002593961
 143310986, -0.0001098964, 0.003573654, 2.283732E-05, 0.0002593961
 143410946, -0.0001579691, 0.003615496, -1.951629E-05, 0.0002593961
 143510906, -0.0001810031, 0.003583736, -0.0001383502, 0.0002593961
 143610866, -9.351288E-05, 0.003488774, 0.000233776, 0.0002593961
 143710826, -0.0001320366, 0.003681821, 3.31889E-05, 0.0002593961
 143810786, 2.040319E-05, 0.003584882, -8.538645E-05, 0.0002593961
 143911579, -4.594781E-05, 0.003646229, 1.315028E-05, 0.0002615578
 144011539, -5.473845E-05, 0.00382616, -0.0001150994, 0.0002593961
 144111499, -0.0002415844, 0.003528337, -1.568165E-06, 0.0002593961
 144216457, -0.0001530607, 0.00373036, 0.0001242963, 0.000272366
 144316417, -0.0001148669, 0.003456231, -2.218431E-05, 0.0002593961
 144416377, 4.533107E-06, 0.00350685, 9.631117E-05, 0.0002593961
 144516337, -0.0001256653, 0.003617859, 9.559503E-05, 0.0002593961
 144616297, -0.0001071632, 0.003632613, 7.48931E-06, 0.0002593961
 144716257, -0.0001514667, 0.003742054, 9.905786E-05, 0.0002593961
 144816217, -1.890852E-05, 0.003504644, 0.0001305761, 0.0002593961
 144916177, 0.0001611289, 0.003583617, 6.228696E-05, 0.0002593961
 145016137, -0.0001964248, 0.003759146, 0.0002012866, 0.0002593961
 145116097, -6.707126E-05, 0.00370663, 0.000106882, 0.0002593961
 145216057, -0.0002248678, 0.003595555, -0.04671962, 0.0002593961
 145316017, 0.0006110884, 0.004059109, -0.3878604, 0.0002593961
 145415977, 0.0003104694, 0.004051186, -0.2443773, 0.0002593961
 145515937, 0.0001051497, 0.003741137, -0.2424595, 0.0002593961
 145615897, -0.0002347671, 0.003212607, -0.757798, 0.0002593961
 145715857, -0.001226144, 0.002315198, -0.8029347, 0.0002593961
 145815817, -0.002229828, 0.001656829, -0.6124483, 0.0002593961
 145915777, -0.002988663, 0.001410426, -0.4312904, 0.0002593961
 146016570, -0.003678448, 0.00105314, -0.346876, 0.0002615578
 146116530, -0.003288471, 0.001079316, -0.3267415, 0.0002593961
 146221488, -0.003306172, 0.0009709875, -0.347033, 0.000272366
 146321448, -0.003108183, 0.001040631, -0.3240013, 0.0002593961
 146421408, -0.003008575, 0.0009109837, -0.3037741, 0.0002593961
 146521368, -0.002683984, 0.001048548, -0.2767473, 0.0002593961
 146621328, -0.00263469, 0.0008851067, -0.2505938, 0.0002593961
 146721288, -0.002571712, 0.001049197, -0.2276438, 0.0002593961
 146821248, -0.002288922, 0.001070628, -0.208096, 0.0002593961
 146921208, -0.002211849, 0.001241478, -0.1904863, 0.0002593961
 147021168, -0.002230301, 0.00140731, -0.1740386, 0.0002593961
 147121128, -0.002082685, 0.001487667, -0.1586136, 0.0002593961
 147221088, -0.002194116, 0.001493803, -0.1439184, 0.0002593961
 147321048, -0.00201861, 0.001684564, -0.130403, 0.0002593961
 147421008, -0.001705002, 0.001663212, -0.1181052, 0.0002593961
 147520968, -0.001517573, 0.001840991, 0.07791331, 0.0002593961
 147620928, -0.001498079, 0.002482618, 0.3561831, 0.0002593961
 147720888, -0.001583755, 0.002539935, 0.3242284, 0.0002593961
 147820848, -0.001259024, 0.002779645, 0.2966891, 0.0002593961
 147920808, -0.001118281, 0.002733581, 0.2730161, 0.0002593961
 148020768, -0.00108002, 0.00290791, 0.2525362, 0.0002593961
 148121561, -0.001185696, 0.002799487, 0.5829763, 0.0002615578
 148221521, -0.001360216, 0.002542232, 0.9540226, 0.0002593961
 148326479, 0.0003388984, 0.003377387, 0.8412123, 0.000272366
 148426439, 0.005268559, 0.004762421, 0.641263, 0.0002593961
 148526399, 0.01375681, 0.006504816, 0.5150236, 0.0002593961
 148626359, 0.02511918, 0.008062791, 0.4177588, 0.0002593961
 148726319, 0.03766204, 0.009320027, 0.3440064, 0.0002593961
 148826279, 0.05066463, 0.01056738, 0.2821563, 0.0002593961
 148926239, 0.06365982, 0.0113648, 0.2273033, 0.0002593961
 149026199, 0.07643793, 0.0120648, 0.1776611, 0.0002593961
 149126159, 0.0886244, 0.0126631, 0.1348005, 0.0002593961
 149226119, 0.0994914, 0.01359201, 0.09735174, 0.0002593961
 149326079, 0.1095301, 0.01413938, 0.06605939, 0.0002593961
 149426039, 0.1183393, 0.01401763, 0.04009409, 0.0002593961
 149525999, 0.126415, 0.01389148, 0.01910588, 0.0002593961
 149625959, 0.1335782, 0.01347913, 0.002589458, 0.0002593961
 149725919, 0.1399611, 0.0130984, -0.01006995, 0.0002593961
 149825879, 0.1464388, 0.01281158, -0.01941154, 0.0002593961
 149925839, 0.1533294, 0.01309383, -0.02627222, 0.0002593961
 150025799, 0.1599243, 0.01366117, -0.03097667, 0.0002593961
 150126592, 0.1667535, 0.0143681, -0.0340571, 0.0002593961
 150226552, 0.1737835, 0.01573129, -0.03620928, 0.0002615578
 150326512, 0.1792683, 0.01718272, -0.03734763, 0.0002593961
 150431470, 0.1947421, 0.01950974, -0.0399007, 0.000272366
 150531430, 0.1912892, 0.01934914, -0.03882856, 0.0002593961
 150631390, 0.1971566, 0.0190138, -0.03875367, 0.0002593961
 150731350, 0.2049033, 0.01814322, -0.03933822, 0.0002593961
 150831310, 0.2125217, 0.01648877, -0.03941355, 0.0002593961
 150931270, 0.2198019, 0.01532684, -0.03998553, 0.0002593961
 151031230, 0.2247262, 0.01451129, -0.03997875, 0.0002593961
 151131190, 0.2262314, 0.01421035, -0.04023916, 0.0002593961
 151231150, 0.2246196, 0.0146388, -0.03926095, 0.0002593961
 151331110, 0.2228871, 0.0155415, -0.03888069, 0.0002593961
 151431070, 0.2209406, 0.01662474, -0.03835397, 0.0002593961
 151531030, 0.2196455, 0.01783074, -0.03780411, 0.0002593961
 151630990, 0.2182844, 0.01969558, -0.03722616, 0.0002593961
 151730950, 0.2184972, 0.02140346, -0.03690813, 0.0002593961
 151830910, 0.2184694, 0.02315998, -0.03643858, 0.0002593961
 151930870, 0.2196065, 0.02423301, -0.03611652, 0.0002593961
 152030830, 0.2210668, 0.02422334, -0.03582871, 0.0002593961
 152130790, 0.2227456, 0.02357938, -0.03576409, 0.0002593961
 152231583, 0.2256223, 0.02273305, -0.03606556, 0.0002615578
 152331543, 0.2246898, 0.02096827, -0.03611702, 0.0002593961
 152431503, 0.2246573, 0.01927389, -0.03600637, 0.0002593961
 152536461, 0.2342017, 0.01812601, -0.03807899, 0.000272366
 152636421, 0.2166537, 0.01529515, -0.03623757, 0.0002593961
 152736381, 0.2075534, 0.01365546, -0.03540707, 0.0002593961
 152836341, 0.1976635, 0.01261025, -0.03384656, 0.0002593961
 152936301, 0.1882154, 0.01232204, -0.03250351, 0.0002593961
 153036261, 0.1784333, 0.01253037, -0.03084487, 0.0002593961
 153136221, 0.169534, 0.01281275, -0.02925888, 0.0002593961
 153236181, 0.16054, 0.0136525, -0.02764544, 0.0002593961
 153336141, 0.1516545, 0.01487736, -0.02636443, 0.0002593961
 153436101, 0.1438451, 0.0158636, -0.02456713, 0.0002593961
 153536061, 0.1364672, 0.01681513, -0.02327341, 0.0002593961
 153636021, 0.1281237, 0.01635522, -0.02185806, 0.0002593961
 153735981, 0.1196371, 0.01447097, -0.02073955, 0.0002593961
 153835941, 0.1111921, 0.01238159, -0.01909588, 0.0002593961
 153935901, 0.1021979, 0.01034629, -0.01745857, 0.0002593961
 154035861, 0.09376994, 0.008403569, -0.01584679, 0.0002593961
 154135821, 0.08590452, 0.006307278, -0.01478593, 0.0002593961
 154235781, 0.07735719, 0.00473554, -0.01306579, 0.0002593961
 154336574, 0.06977884, 0.003441928, -0.01183802, 0.0002615578
 154436534, 0.05999778, 0.002746132, -0.01058736, 0.0002593961
 154541492, 0.0540976, 0.002858107, -0.009131716, 0.000272366
 154641452, 0.04349081, 0.002791407, -0.006862609, 0.0002593961
 154741412, 0.03526994, 0.003005664, -0.005455277, 0.0002593961
 154841372, 0.02743817, 0.00370011, -0.003537977, 0.0002593961
 154941332, 0.02054109, 0.004494042, -0.0021733, 0.0002593961
 155041292, 0.01297226, 0.00561677, -0.0007239603, 0.0002593961
 155141252, 0.00588134, 0.006467855, 0.0006352089, 0.0002593961
 155241212, 0.002005325, 0.007820785, 0.002283282, 0.0002593961
 155341172, 0.002251051, 0.009243116, 0.003534269, 0.0002593961
 155441132, 0.004101004, 0.01015687, 0.003565202, 0.0002593961
 155541092, 0.005975849, 0.01066863, 0.003585335, 0.0002593961
 155641052, 0.007130754, 0.01104966, 0.002874853, 0.0002593961
 155741012, 0.006661191, 0.01083322, 0.001552949, 0.0002593961
 155840972, 0.006089812, 0.01058029, 0.001281394, 0.0002593961
 155940932, 0.005373983, 0.01003986, 0.001097307, 0.0002593961
 156040892, 0.0039, 0.007569664, 0.0005738537, 0.0002593961
 156140852, 0.002730979, 0.003868813, 0.0008203288, 0.0002593961
 156240812, 0.001141334, -0.0002576508, 0.001674339, 0.0002593961
 156340772, -0.0006521622, -0.003612895, 0.003404335, 0.0002593961
 156441565, 0.01553723, -0.005972635, -0.04288847, 0.0002615578
 156541525, -0.0006056073, -0.008795739, -0.01355245, 0.0002593961
 156646483, -0.01060638, -0.01096707, 0.00705768, 0.000272366
 156746443, -0.01217785, -0.01179902, 0.01951146, 0.0002593961
 156846403, -0.01250227, -0.0124635, 0.02781268, 0.0002593961
 156946363, -0.01121345, -0.01235223, 0.03342295, 0.0002593961
 157046323, -0.009544595, -0.01208738, 0.03659486, 0.0002593961
 157146283, -0.008981929, -0.01165168, 0.03881018, 0.0002593961
 157246243, -0.008650734, -0.01072565, 0.04013188, 0.0002593961
 157346203, -0.008690871, -0.009910916, 0.04186317, 0.0002593961
 157446163, -0.00727177, -0.008702158, 0.0428662, 0.0002593961
 157546123, -0.005730357, -0.007159132, 0.04410423, 0.0002593961
 157646083, -0.003549675, -0.006238287, 0.04535105, 0.0002593961
 157746043, -0.002696789, -0.005223238, 0.04609232, 0.0002593961
 157846003, -0.002496884, -0.004168317, 0.04688931, 0.0002593961
 157945963, -0.002849349, -0.003822999, 0.04866315, 0.0002593961
 158045923, -0.003738636, -0.005226532, 0.0501581, 0.0002593961
 158145883, -0.003806073, -0.00763483, 0.05218831, 0.0002593961
 158245843, -0.003400381, -0.01076297, 0.05394919, 0.0002593961
 158345803, -0.00300626, -0.01332412, 0.0560246, 0.0002593961
 158445763, -0.002631245, -0.01545491, 0.05829842, 0.0002593961
 158546556, -0.002684698, -0.01736388, 0.06080556, 0.0002615578
 158646516, -0.003211424, -0.01812036, 0.06287442, 0.0002593961
 158751474, -0.002815487, -0.0199262, 0.06810033, 0.000272366
 158851434, -0.002530357, -0.01894796, 0.06561553, 0.0002593961
 158951394, -0.002785447, -0.01809439, 0.06583937, 0.0002593961
 159051354, -0.002037517, -0.01716327, 0.06632049, 0.0002593961
 159151314, -0.0008627209, -0.01613089, 0.06690399, 0.0002593961
 159251274, 0.000125682, -0.01505002, 0.06629395, 0.0002593961
 159351234, 0.0004562467, -0.01375713, 0.06620102, 0.0002593961
 159451194, 0.0003044246, -0.01268144, 0.0657066, 0.0002593961
 159551154, -0.0003586688, -0.01146086, 0.06570168, 0.0002593961
 159651114, -0.0002099132, -0.01019593, 0.0656781, 0.0002593961
 159751074, 0.001311084, -0.00922578, 0.06573219, 0.0002593961
 159851034, 0.001945879, -0.008206883, 0.06526675, 0.0002593961
 159950994, 0.001716662, -0.007228975, 0.06498231, 0.0002593961
 160050954, 0.001879504, -0.006640566, 0.06486402, 0.0002593961
 160150914, 0.001642212, -0.006184131, 0.06419392, 0.0002593961
 160250874, 0.0004601137, -0.005231947, 0.06310353, 0.0002593961
 160350834, -0.0004227445, -0.004801968, 0.06094657, 0.0002593961
 160450794, -0.001793258, -0.003719565, 0.05868651, 0.0002593961
 160551587, -0.002746371, -0.002863098, 0.05654883, 0.0002615578
 160651547, -0.003883171, -0.001909647, 0.05365342, 0.0002593961
 160751507, -0.004373266, -0.001170853, 0.05009934, 0.0002593961
 160856465, -0.005432424, -0.0006672529, 0.05007394, 0.000272366
 160956425, -0.005625919, -0.0004049859, 0.04494275, 0.0002593961
 161056385, -0.005498365, -0.0005239426, 0.0414927, 0.0002593961
 161156345, -0.005533698, -0.0005176648, 0.03868934, 0.0002593961
 161256305, -0.005553738, -0.0004761821, 0.03580483, 0.0002593961
 161356265, -0.005445552, -0.0002613817, 0.03298645, 0.0002593961
 161456225, -0.005150508, 0.0003414882, 0.02987584, 0.0002593961
 161556185, -0.005335119, 0.0002657392, 0.02773212, 0.0002593961
 161656145, -0.004671155, 0.0008188636, 0.02456132, 0.0002593961
 161756105, -0.004252206, 0.0009278073, 0.02193326, 0.0002593961
 161856065, -0.003801567, 0.001048265, 0.01980055, 0.0002593961
 161956025, -0.003269103, 0.001732991, 0.01660484, 0.0002593961
 162055985, -0.002442729, 0.001907147, 0.01391555, 0.0002593961
 162155945, -0.001809265, 0.001649702, 0.01108768, 0.0002593961
 162255905, -0.001107716, 0.001795371, 0.008139562, 0.0002593961
 162355865, -0.0004931985, 0.001768623, 0.005510553, 0.0002593961
 162455825, 0.0001526253, 0.001867238, 0.003143442, 0.0002593961
 162555785, 0.001027229, 0.002551333, 0.0004212446, 0.0002593961
 162656578, 0.002021792, 0.003062007, -0.002138146, 0.0002615578
 162756538, 0.002462, 0.003138216, -0.004382723, 0.0002593961
 162861496, 0.002668674, 0.003442211, -0.00503687, 0.000272366
 162961456, 0.002749718, 0.002980223, -0.005764931, 0.0002593961
 163061416, 0.002449105, 0.00287701, -0.005417265, 0.0002593961
 163161376, 0.002050889, 0.002807332, -0.005497457, 0.0002593961
 163261336, 0.001683546, 0.002571254, -0.005100911, 0.0002593961
 163361296, 0.001079396, 0.002314596, -0.004516695, 0.0002593961
 163461256, 0.0006560045, 0.002006596, -0.004035079, 0.0002593961
 163561216, 0.0004212966, 0.001929834, -0.003425685, 0.0002593961
 163661176, -4.435957E-05, 0.002353786, -0.002980757, 0.0002593961
 163761136, -0.0005506719, 0.002480552, -0.002292328, 0.0002593961
 163861096, -0.0009259976, 0.002636924, -0.002112366, 0.0002593961
 163961056, -0.001064374, 0.00294929, -0.002134953, 0.0002593961
 164061016, -0.001335576, 0.002955335, -0.001769501, 0.0002593961
 164160976, -0.001700831, 0.0025117, -0.001786398, 0.0002593961
 164260936, -0.002052849, 0.002040666, -0.0008047854, 0.0002593961
 164360896, -0.001777499, 0.001772066, -0.001252375, 0.0002593961
 164460856, -0.001751177, 0.001761669, -0.0007301045, 0.0002593961
 164560816, -0.001768087, 0.001661064, -0.0006893916, 0.0002593961
 164660776, -0.001778684, 0.001998057, -0.0007817001, 0.0002593961
 164761569, -0.001876473, 0.002164751, -0.0005671091, 0.0002615578
 164861529, -0.002026229, 0.00231499, -0.0006097726, 0.0002593961
 164966487, -0.002452907, 0.00266876, -0.0005098067, 0.000272366
 165066447, -0.002338109, 0.002495858, -0.0003027789, 0.0002593961
 165166407, -0.002241445, 0.002667017, -0.0004267106, 0.0002593961
 165266367, -0.002490585, 0.002729, -0.0005207518, 0.0002593961
 165366327, -0.00239494, 0.00234137, -0.0008286891, 0.0002593961
 165466287, -0.002756953, 0.002559702, -0.0002393849, 0.0002593961
 165566247, -0.002686798, 0.002846342, -0.0004161599, 0.0002593961
 165666207, -0.002614584, 0.002911987, -0.0002711034, 0.0002593961
 165766167, -0.002496236, 0.002790983, -0.0005062378, 0.0002593961
 165866127, -0.002782846, 0.002854382, -0.000113735, 0.0002593961
 165966087, -0.002801172, 0.002914845, -0.0002715991, 0.0002593961
 166066047, -0.002917609, 0.002756589, -0.0001292975, 0.0002593961
 166166007, -0.003079434, 0.002320973, -0.0004862413, 0.0002593961
 166265967, -0.002712365, 0.002167851, -0.001095238, 0.0002593961
 166365927, -0.00249888, 0.001901788, -0.001823953, 0.0002593961
 166465887, -0.001631835, 0.001771733, -0.004069289, 0.0002593961
 166565847, -0.0005630199, 0.001808123, -0.006849596, 0.0002593961
 166665807, 0.0004377344, 0.002167239, -0.01017721, 0.0002593961
 166765767, 7.178305E-05, 0.002091801, -0.01418471, 0.0002593961
 166866560, -0.003006823, 0.000548167, -0.01867598, 0.0002615578
 166966520, -0.00781552, -0.00134281, -0.02250936, 0.0002593961
 167071478, -0.0124252, -0.003149533, -0.02718906, 0.000272366
 167171438, -0.01507678, -0.00459087, -0.02968074, 0.0002593961
 167271398, -0.01926198, -0.00535522, -0.03345972, 0.0002593961
 167371358, -0.02209379, -0.005657014, -0.03711485, 0.0002593961
 167471318, -0.02513902, -0.005870747, -0.04069402, 0.0002593961
 167571278, -0.02772405, -0.005801901, -0.04451604, 0.0002593961
 167671238, -0.03055976, -0.00565317, -0.04823283, 0.0002593961
 167771198, -0.03304326, -0.005226807, -0.05197104, 0.0002593961
 167871158, -0.03562121, -0.004452868, -0.0556445, 0.0002593961
 167971118, -0.03841628, -0.003642133, -0.05929151, 0.0002593961
 168071078, -0.04057835, -0.002767415, -0.06279103, 0.0002593961
 168171038, -0.04305479, -0.00184606, -0.06656846, 0.0002593961
 168270998, -0.04495208, -0.001274072, -0.06995326, 0.0002593961
 168370958, -0.04605752, -0.0006406684, -0.07344971, 0.0002593961
 168470918, -0.04836678, 8.308273E-05, -0.07701853, 0.0002593961
 168570878, -0.04949125, 0.0008601847, -0.08059487, 0.0002593961
 168670838, -0.04829544, 0.001869778, -0.08315601, 0.0002593961
 168770798, -0.04304947, 0.002898982, -0.08554355, 0.0002593961
 168871591, -0.03476919, 0.003951939, -0.08866145, 0.0002615578
 168971551, -0.0250135, 0.0048722, -0.09060366, 0.0002593961
 169071511, -0.01802666, 0.005715561, -0.09266192, 0.0002593961
