TimeUS,CGpN,CGpE,CGpD,CGpe,PGpN,PGpE,PGpD,PGpe
 76960870, 0, 0, 0, 0.01, 0, 0, 0, 0
 77020846, 0, 0, 0, 0.01, 0, 0, 0, 0.01
 77220766, 0, 0, 0, 0.01, 0, 0, 0, 0.01
 77420686, 0, 0, 0, 0.01, 0, 0, 0, 0.01
 77620606, 0, 0, 0, 0.01, 0, 0, 0, 0.01
 77820526, 0, 0, 0, 0.01, 0, 0, 0, 0.01
 78020446, 0, 0, 0, 0.01, 0, 0, 0, 0.01
 78220366, 0, 0, 0, 0.01, 0, 0, 0, 0.01
 78420286, 0, 0, 0, 0.01, 0, 0, 0, 0.01
 78620206, 0, 0, 0, 0.01, 0, 0, 0, 0.01
 78820959, 0, 0, 0, 0.01, 0, 0, 0, 0.01
 79020879, 0, 0, 0, 0.01, 0, 0, 0, 0.01
 79220799, 0, 0, 0, 0.01, 0, 0, 0, 0.01
 79420719, 0, 0, 0, 0.01, 0, 0, 0, 0.01
 79620639, 0, 0, 0, 0.01, 0, 0, 0, 0.01
 79820559, 0, 0, 0, 0.01, 0, 0, 0, 0.01
 80020479, 0, 0, 0, 0.01, 0, 0, 0, 0.01
 80220399, 0, 0, 0, 0.01, 0, 0, 0, 0.01
 80420319, 0, 0, 0, 0.01, 0, 0, 0, 0.01
 80620239, 0, 0, 0, 0.01, 0, 0, 0, 0.01
 80820159, 0, 0, 0, 0.01, 0, 0, 0, 0.01
 81020912, 0, 0, 0, 0.01, 0, 0, 0, 0.01
 81220832, 0, 0, 0, 0.01, 0, 0, 0, 0.01
 81420752, 0, 0, 0, 0.01, 0, 0, 0, 0.01
 81620672, 0, 0, 0, 0.01, 0, 0, 0, 0.01
 81820592, 0, 0, 0, 0.01, 0, 0, 0, 0.01
 82020512, 0, 0, 0, 0.01, 0, 0, 0, 0.01
 82220432, 0, 0, 0, 0.01, 0, 0, 0, 0.01
 82420352, 0, 0, 0, 0.01, 0, 0, 0, 0.01
 82620272, 0, 0, 0, 0.01, 0, 0, 0, 0.01
 82820192, 0, 0, 0, 0.01, 0, 0, 0, 0.01
 83020945, 0, 0, 0, 0.01, 0, 0, 0, 0.01
 83220865, 0, 0, 0, 0.01, 0, 0, 0, 0.01
 83420785, 0, 0, 0, 0.01, 0, 0, 0, 0.01
 83620705, 0, 0, 0, 0.01, 0, 0, 0, 0.01
 83820625, 0, 0, 0, 0.01, 0, 0, 0, 0.01
 84020545, 0, 0, 0, 0.01, 0, 0, 0, 0.01
 84220465, 0, 0, 0, 0.01, 0, 0, 0, 0.01
 84420385, 0, 0, 0, 0.01, 0, 0, 0, 0.01
 84620305, 0, 0, 0, 0.01, 0, 0, 0, 0.01
 84820225, 0, 0, 0, 0.01, 0, 0, 0, 0.01
 85020145, 0, 0, 0, 0.01, 0, 0, 0, 0.01
 85220898, 0, 0, 0, 0.01, 0, 0, 0, 0.01
 85420818, 0, 0, 0, 0.01, 0, 0, 0, 0.01
 85620738, 0, 0, 0, 0.01, 0, 0, 0, 0.01
 85820658, 0, 0, 0, 0.01, 0, 0, 0, 0.01
 86020578, 0, 0, 0, 0.01, 0, 0, 0, 0.01
 86220498, 0, 0, 0, 0.01, 0, 0, 0, 0.01
 86420418, 0, 0, 0, 0.01, 0, 0, 0, 0.01
 86620338, 0, 0, 0, 0.01, 0, 0, 0, 0.01
 86820258, 0, 0, 0, 0.01, 0, 0, 0, 0.01
 87020178, 0, 0, 0, 0.01, 0, 0, 0, 0.01
 87220931, 0, 0, 0, 0.01, 0, 0, 0, 0.01
 87420851, 0, 0, 0, 0.01, 0, 0, 0, 0.01
 87620771, 0, 0, 0, 0.01, 0, 0, 0, 0.01
 87820691, 0, 0, 0, 0.01, 0, 0, 0, 0.01
 88020611, 0, 0, 0, 0.01, 0, 0, 0, 0.01
 88220531, 0, 0, 0, 0.01, 0, 0, 0, 0.01
 88420451, 0, 0, 0, 0.01, 0, 0, 0, 0.01
 88620371, 0, 0, 0, 0.01, 0, 0, 0, 0.01
 88820291, 0, 0, 0, 0.01, 0, 0, 0, 0.01
 89020211, 0, 0, 0, 0.01, 0, 0, 0, 0.01
 89220964, 0, 0, 0, 0.01, 0, 0, 0, 0.01
 89420884, 0, 0, 0, 0.01, 0, 0, 0, 0.01
 89620804, 0, 0, 0, 0.01, 0, 0, 0, 0.01
 89820724, 0, 0, 0, 0.01, 0, 0, 0, 0.01
 90020644, 0, 0, 0, 0.01, 0, 0, 0, 0.01
 90220564, 0, 0, 0, 0.01, 0, 0, 0, 0.01
 90420484, 0, 0, 0, 0.01, 0, 0, 0, 0.01
 90620404, 0, 0, 0, 0.01, 0, 0, 0, 0.01
 90820324, 0, 0, 0, 0.01, 0, 0, 0, 0.01
 91020244, 0, 0, 0, 0.01, 0, 0, 0, 0.01
 91220164, 0, 0, 0, 0.01, 0, 0, 0, 0.01
 91420917, 0, 0, 0, 0.01, 0, 0, 0, 0.01
 91620837, 0, 0, 0, 0.01, 0, 0, 0, 0.01
 91820757, 0, 0, 0, 0.01, 0, 0, 0, 0.01
 92020677, 0, 0, 0, 0.01, 0, 0, 0, 0.01
 92220597, 0, 0, 0, 0.01, 0, 0, 0, 0.01
 92420517, 0, 0, 0, 0.01, 0, 0, 0, 0.01
 92620437, 0, 0, 0, 0.01, 0, 0, 0, 0.01
 92820357, 0, 0, 0, 0.01, 0, 0, 0, 0.01
 93020277, 0, 0, 0, 0.01, 0, 0, 0, 0.01
 93220197, 0, 0, 0, 0.01, 0, 0, 0, 0.01
 93420950, 0, 0, 0, 0.01, 0, 0, 0, 0.01
 93620870, 0, 0, 0, 0.01, 0, 0, 0, 0.01
 93820790, 0, 0, 0, 0.01, 0, 0, 0, 0.01
 94020710, 0, 0, 0, 0.01, 0, 0, 0, 0.01
 94220630, 0, 0, 0, 0.01, 0, 0, 0, 0.01
 94420550, 0, 0, 0, 0.01, 0, 0, 0, 0.01
 94620470, 0, 0, 0, 0.01, 0, 0, 0, 0.01
 94820390, 0, 0, 0, 0.01, 0, 0, 0, 0.01
 95020310, 0, 0, 0, 0.01, 0, 0, 0, 0.01
 95220230, 0, 0, 0, 0.01, 0, 0, 0, 0.01
 95420150, 0, 0, 0, 0.01, 0, 0, 0, 0.01
 95620903, 0, 0, 0, 0.01, 0, 0, 0, 0.01
 95820823, 0, 0, 0, 0.01, 0, 0, 0, 0.01
 96020743, 0, 0, 0, 0.01, 0, 0, 0, 0.01
 96220663, 0, 0, 0, 0.01, 0, 0, 0, 0.01
 96420583, 0, 0, 0, 0.01, 0, 0, 0, 0.01
 96620503, 0, 0, 0, 0.01, 0, 0, 0, 0.01
 96820423, 0, 0, 0, 0.01, 0, 0, 0, 0.01
 97020343, 0, 0, 0, 0.01, 0, 0, 0, 0.01
 97220263, 0, 0, 0, 0.01, 0, 0, 0, 0.01
 97420183, 0, 0, 0, 0.01, 0, 0, 0, 0.01
 97620936, 0, 0, 0, 0.01, 0, 0, 0, 0.01
 97820856, 0, 0, 0, 0.01, 0, 0, 0, 0.01
 98020776, 0, 0, 0, 0.01, 0, 0, 0, 0.01
 98220696, 0, 0, 0, 0.01, 0, 0, 0, 0.01
 98420616, 0, 0, 0, 0.01, 0, 0, 0, 0.01
 98620536, 0, 0, 0, 0.01, 0, 0, 0, 0.01
 98820456, 0, 0, 0, 0.01, 0, 0, 0, 0.01
 99020376, 0, 0, 0, 0.01, 0, 0, 0, 0.01
 99220296, 0, 0, 0, 0.01, 0, 0, 0, 0.01
 99420216, 0, 0, 0, 0.01, 0, 0, 0, 0.01
 99620969, 0, 0, 0, 0.01, 0, 0, 0, 0.01
 99820889, 0, 0, 0, 0.01, 0, 0, 0, 0.01
 100020809, 0, 0, 0, 0.01, 0, 0, 0, 0.01
 100220729, 0, 0, 0, 0.01, 0, 0, 0, 0.01
 100420649, 0, 0, 0, 0.01, 0, 0, 0, 0.01
 100620569, 0, 0, 0, 0.01, 0, 0, 0, 0.01
 100820489, 0, 0, 0, 0.01, 0, 0, 0, 0.01
 101020409, 0, 0, 0, 0.01, 0, 0, 0, 0.01
 101220329, 0, 0, 0, 0.01, 0, 0, 0, 0.01
 101420249, 0, 0, 0, 0.01, 0, 0, 0, 0.01
 101620169, 0, 0, 0, 0.01, 0, 0, 0, 0.01
 101820922, 0, 0, 0, 0.01, 0, 0, 0, 0.01
 102020842, 0, 0, 0, 0.01, 0, 0, 0, 0.01
 102220762, 0, 0, 0, 0.01, 0, 0, 0, 0.01
 102420682, 0, 0, 0, 0.01, 0, 0, 0, 0.01
 102620602, 0, 0, 0, 0.01, 0, 0, 0, 0.01
 102820522, 0, 0, 0, 0.01, 0, 0, 0, 0.01
 103020442, 0, 0, 0, 0.01, 0, 0, 0, 0.01
 103220362, 0, 0, 0, 0.01, 0, 0, 0, 0.01
 103420282, 0, 0, 0, 0.01, 0, 0, 0, 0.01
 103620202, 0, 0, 0, 0.01, 0, 0, 0, 0.01
 103820955, 0, 0, 0, 0.01, 0, 0, 0, 0.01
 104020875, 0, 0, 0, 0.01, 0, 0, 0, 0.01
 104220795, 0, 0, 0, 0.01, 0, 0, 0, 0.01
 104420715, 0, 0, 0, 0.01, 0, 0, 0, 0.01
 104620635, 0, 0, 0, 0.01, 0, 0, 0, 0.01
 104820555, 0, 0, 0, 0.01, 0, 0, 0, 0.01
 105020475, 0, 0, 0, 0.01, 0, 0, 0, 0.01
 105220395, 0, 0, 0, 0.01, 0, 0, 0, 0.01
 105420315, 0, 0, 0, 0.01, 0, 0, 0, 0.01
 105620235, 0, 0, 0, 0.01, 0, 0, 0, 0.01
 105820155, 0, 0, 0, 0.01, 0, 0, 0, 0.01
 106020908, 0, 0, 0, 0.01, 0, 0, 0, 0.01
 106220828, 0, 0, 0, 0.01, 0, 0, 0, 0.01
 106420748, 0, 0, 0, 0.01, 0, 0, 0, 0.01
 106620668, 0, 0, 0, 0.01, 0, 0, 0, 0.01
 106820588, 0, 0, 0, 0.01, 0, 0, 0, 0.01
 107020508, 0, 0, 0, 0.01, 0, 0, 0, 0.01
 107220428, 0, 0, 0, 0.01, 0, 0, 0, 0.01
 107420348, 0, 0, 0, 0.01, 0, 0, 0, 0.01
 107620268, 0, 0, 0, 0.01, 0, 0, 0, 0.01
 107820188, 0, 0, 0, 0.01, 0, 0, 0, 0.01
 108020941, 0, 0, 0, 0.01, 0, 0, 0, 0.01
 108220861, 0, 0, 0, 0.01, 0, 0, 0, 0.01
 108420781, 0, 0, 0, 0.01, 0, 0, 0, 0.01
 108620701, 0, 0, 0, 0.01, 0, 0, 0, 0.01
 108820621, 0, 0, 0, 0.01, 0, 0, 0, 0.01
 109020541, 0, 0, 0, 0.01, 0, 0, 0, 0.01
 109220461, 0, 0, 0, 0.01, 0, 0, 0, 0.01
 109420381, 0, 0, 0, 0.01, 0, 0, 0, 0.01
 109620301, 0, 0, 0, 0.01, 0, 0, 0, 0.01
 109820221, 0, 0, 0, 0.01, 0, 0, 0, 0.01
 110020974, 0, 0, 0, 0.01, 0, 0, 0, 0.01
 110220894, 0, 0, 0, 0.01, 0, 0, 0, 0.01
 110420814, 0, 0, 0, 0.01, 0, 0, 0, 0.01
 110620734, 0, 0, 0, 0.01, 0, 0, 0, 0.01
 110820654, 0, 0, 0, 0.01, 0, 0, 0, 0.01
 111020574, 0, 0, 0, 0.01, 0, 0, 0, 0.01
 111220494, 0, 0, 0, 0.01, 0, 0, 0, 0.01
 111420414, 0, 0, 0, 0.01, 0, 0, 0, 0.01
 111620334, 0, 0, 0, 0.01, 0, 0, 0, 0.01
 111820254, 0, 0, 0, 0.01, 0, 0, 0, 0.01
 112020174, 0, 0, 0, 0.01, 0, 0, 0, 0.01
 112220927, 0, 0, 0, 0.01, 0, 0, 0, 0.01
 112420847, 0, 0, 0, 0.01, 0, 0, 0, 0.01
 112620767, 0, 0, 0, 0.01, 0, 0, 0, 0.01
 112820687, 0, 0, 0, 0.01, 0, 0, 0, 0.01
 113020607, 0, 0, 0, 0.01, 0, 0, 0, 0.01
 113220527, 0, 0, 0, 0.01, 0, 0, 0, 0.01
 113420447, 0, 0, 0, 0.01, 0, 0, 0, 0.01
 113620367, 0, 0, 0, 0.01, 0, 0, 0, 0.01
 113820287, 0, 0, 0, 0.01, 0, 0, 0, 0.01
 114020207, 0, 0, 0, 0.01, 0, 0, 0, 0.01
 114220960, 0, 0, 0, 0.01, 0, 0, 0, 0.01
 114420880, 0, 0, 0, 0.01, 0, 0, 0, 0.01
 114620800, 0, 0, 0, 0.01, 0, 0, 0, 0.01
 114820720, 0, 0, 0, 0.01, 0, 0, 0, 0.01
 115020640, 0, 0, 0, 0.01, 0, 0, 0, 0.01
 115220560, 0, 0, 0, 0.01, 0, 0, 0, 0.01
 115420480, 0, 0, 0, 0.01, 0, 0, 0, 0.01
 115620400, 0, 0, 0, 0.01, 0, 0, 0, 0.01
 115820320, 0, 0, 0, 0.01, 0, 0, 0, 0.01
 116020240, 0, 0, 0, 0.01, 0, 0, 0, 0.01
 116220160, 0, 0, 0, 0.01, 0, 0, 0, 0.01
 116420913, 0, 0, 0, 0.01, 0, 0, 0, 0.01
 116620833, 0, 0, 0, 0.01, 0, 0, 0, 0.01
 116820753, 0, 0, 0, 0.01, 0, 0, 0, 0.01
 117020673, 0, 0, 0, 0.01, 0, 0, 0, 0.01
 117220593, 0, 0, 0, 0.01, 0, 0, 0, 0.01
 117420513, 0, 0, 0, 0.01, 0, 0, 0, 0.01
 117620433, 0, 0, 0, 0.01, 0, 0, 0, 0.01
 117820353, 0, 0, 0, 0.01, 0, 0, 0, 0.01
 118020273, 0, 0, 0, 0.01, 0, 0, 0, 0.01
 118220193, 0, 0, 0, 0.01, 0, 0, 0, 0.01
 118420946, 0, 0, 0, 0.01, 0, 0, 0, 0.01
 118620866, 0, 0, 0, 0.01, 0, 0, 0, 0.01
 118820786, 0, 0, 0, 0.01, 0, 0, 0, 0.01
 119020706, 0, 0, 0, 0.01, 0, 0, 0, 0.01
 119220626, 0, 0, 0, 0.01, 0, 0, 0, 0.01
 119420546, 0, 0, 0, 0.01, 0, 0, 0, 0.01
 119620466, 0, 0, 0, 0.01, 0, 0, 0, 0.01
 119820386, 0, 0, 0, 0.01, 0, 0, 0, 0.01
 120020306, 0, 0, 0, 0.01, 0, 0, 0, 0.01
 120220226, 0, 0, 0, 0.01, 0, 0, 0, 0.01
 120420146, 0, 0, 0, 0.01, 0, 0, 0, 0.01
 120620899, 0, 0, 0, 0.01, 0, 0, 0, 0.01
 120820819, 0, 0, 0, 0.01, 0, 0, 0, 0.01
 121020739, 0, 0, 0, 0.01, 0, 0, 0, 0.01
 121220659, 0, 0, 0, 0.01, 0, 0, 0, 0.01
 121420579, 0, 0, 0, 0.01, 0, 0, 0, 0.01
 121620499, 0, 0, 0, 0.01, 0, 0, 0, 0.01
 121820419, 0, 0, 0, 0.01, 0, 0, 0, 0.01
 122020339, 0, 0, 0, 0.01, 0, 0, 0, 0.01
 122220259, 0, 0, 0, 0.01, 0, 0, 0, 0.01
 122420179, 0, 0, 0, 0.01, 0, 0, 0, 0.01
 122620932, 0, 0, 0, 0.01, 0, 0, 0, 0.01
 122820852, 0, 0, 0, 0.01, 0, 0, 0, 0.01
 123020772, 0, 0, 0, 0.01, 0, 0, 0, 0.01
 123220692, 0, 0, 0, 0.01, 0, 0, 0, 0.01
 123420612, 0, 0, 0, 0.01, 0, 0, 0, 0.01
 123620532, 0, 0, 0, 0.01, 0, 0, 0, 0.01
 123820452, 0, 0, 0, 0.01, 0, 0, 0, 0.01
 124020372, 0, 0, 0, 0.01, 0, 0, 0, 0.01
 124220292, 0, 0, 0, 0.01, 0, 0, 0, 0.01
 124420212, 0, 0, 0, 0.01, 0, 0, 0, 0.01
 124620965, 0, 0, 0, 0.01, 0, 0, 0, 0.01
 124820885, 0, 0, 0, 0.01, 0, 0, 0, 0.01
 125020805, 0, 0, 0, 0.01, 0, 0, 0, 0.01
 125220725, 0, 0, 0, 0.01, 0, 0, 0, 0.01
 125420645, 0, 0, 0, 0.01, 0, 0, 0, 0.01
 125620565, 0, 0, 0, 0.01, 0, 0, 0, 0.01
 125820485, 0, 0, 0, 0.01, 0, 0, 0, 0.01
 126020405, 0, 0, 0, 0.01, 0, 0, 0, 0.01
 126220325, 0, 0, 0, 0.01, 0, 0, 0, 0.01
 126420245, 0, 0, 0, 0.01, 0, 0, 0, 0.01
 126620165, 0, 0, 0, 0.01, 0, 0, 0, 0.01
 126820918, 0, 0, 0, 0.01, 0, 0, 0, 0.01
 127020838, 0, 0, 0, 0.01, 0, 0, 0, 0.01
 127220758, 0, 0, 0, 0.01, 0, 0, 0, 0.01
 127420678, 0, 0, 0, 0.01, 0, 0, 0, 0.01
 127620598, 0, 0, 0, 0.01, 0, 0, 0, 0.01
 127820518, 0, 0, 0, 0.01, 0, 0, 0, 0.01
 128020438, 0, 0, 0, 0.01, 0, 0, 0, 0.01
 128220358, 0, 0, 0, 0.01, 0, 0, 0, 0.01
 128420278, 0, 0, 0, 0.01, 0, 0, 0, 0.01
 128620198, 0, 0, 0, 0.01, 0, 0, 0, 0.01
 128820951, 0, 0, 0, 0.01, 0, 0, 0, 0.01
 129020871, 0, 0, 0, 0.01, 0, 0, 0, 0.01
 129220791, 0, 0, 0, 0.01, 0, 0, 0, 0.01
 129420711, 0, 0, 0, 0.01, 0, 0, 0, 0.01
 129620631, 0, 0, 0, 0.01, 0, 0, 0, 0.01
 129820551, 0, 0, 0, 0.01, 0, 0, 0, 0.01
 130020471, 0, 0, 0, 0.01, 0, 0, 0, 0.01
 130220391, 0, 0, 0, 0.01, 0, 0, 0, 0.01
 130420311, 0, 0, 0, 0.01, 0, 0, 0, 0.01
 130620231, 0, 0, 0, 0.01, 0, 0, 0, 0.01
 130820151, 0, 0, 0, 0.01, 0, 0, 0, 0.01
 131020904, 0, 0, 0, 0.01, 0, 0, 0, 0.01
 131220824, 0, 0, 0, 0.01, 0, 0, 0, 0.01
 131420744, 0, 0, 0, 0.01, 0, 0, 0, 0.01
 131620664, 0, 0, 0, 0.01, 0, 0, 0, 0.01
 131820584, 0, 0, 0, 0.01, 0, 0, 0, 0.01
 132020504, 0, 0, 0, 0.01, 0, 0, 0, 0.01
 132220424, 0, 0, 0, 0.01, 0, 0, 0, 0.01
 132420344, 0, 0, 0, 0.01, 0, 0, 0, 0.01
 132620264, 0, 0, 0, 0.01, 0, 0, 0, 0.01
 132820184, 0, 0, 0, 0.01, 0, 0, 0, 0.01
 133020937, 0, 0, 0, 0.01, 0, 0, 0, 0.01
 133220857, 0, 0, 0, 0.01, 0, 0, 0, 0.01
 133420777, 0, 0, 0, 0.01, 0, 0, 0, 0.01
 133620697, 0, 0, 0, 0.01, 0, 0, 0, 0.01
 133820617, 0, 0, 0, 0.01, 0, 0, 0, 0.01
 134020537, 0, 0, 0, 0.01, 0, 0, 0, 0.01
 134220457, 0, 0, 0, 0.01, 0, 0, 0, 0.01
 134420377, 0, 0, 0, 0.01, 0, 0, 0, 0.01
 134620297, 0, 0, 0, 0.01, 0, 0, 0, 0.01
 134820217, 0, 0, 0, 0.01, 0, 0, 0, 0.01
 135020970, 0, 0, 0, 0.01, 0, 0, 0, 0.01
 135220890, 0, 0, 0, 0.01, 0, 0, 0, 0.01
 135420810, 0, 0, 0, 0.01, 0, 0, 0, 0.01
 135620730, 0, 0, 0, 0.01, 0, 0, 0, 0.01
 135820650, 0, 0, 0, 0.01, 0, 0, 0, 0.01
 136020570, 0, 0, 0, 0.01, 0, 0, 0, 0.01
 136220490, 0, 0, 0, 0.01, 0, 0, 0, 0.01
 136420410, 0, 0, 0, 0.01, 0, 0, 0, 0.01
 136620330, 0, 0, 0, 0.01, 0, 0, 0, 0.01
 136820250, 0, 0, 0, 0.01, 0, 0, 0, 0.01
 137020170, 0, 0, 0, 0.01, 0, 0, 0, 0.01
 137220923, 0, 0, 0, 0.01, 0, 0, 0, 0.01
 137420843, 0, 0, 0, 0.01, 0, 0, 0, 0.01
 137620763, 0, 0, 0, 0.01, 0, 0, 0, 0.01
 137820683, 0, 0, 0, 0.01, 0, 0, 0, 0.01
 138020603, 0, 0, 0, 0.01, 0, 0, 0, 0.01
 138220523, 0, 0, 0, 0.01, 0, 0, 0, 0.01
 138420443, 0, 0, 0, 0.01, 0, 0, 0, 0.01
 138620363, 0, 0, 0, 0.01, 0, 0, 0, 0.01
 138820283, 0, 0, 0, 0.01, 0, 0, 0, 0.01
 139020203, 0, 0, 0, 0.01, 0, 0, 0, 0.01
 139220956, 0, 0, 0, 0.01, 0, 0, 0, 0.01
 139420876, 0, 0, 0, 0.01, 0, 0, 0, 0.01
 139620796, 0, 0, 0, 0.01, 0, 0, 0, 0.01
 139820716, 0, 0, 0, 0.01, 0, 0, 0, 0.01
 140020636, 0, 0, 0, 0.01, 0, 0, 0, 0.01
 140220556, 0, 0, 0, 0.01, 0, 0, 0, 0.01
 140420476, 0, 0, 0, 0.01, 0, 0, 0, 0.01
 140620396, 0, 0, 0, 0.01, 0, 0, 0, 0.01
 140820316, 0.083, -0.008, 0, 0.01, 0, 0, 0, 0.01
 141020236, 0.539, -0.056, 0.005, 0.01, 0.083, -0.008, 0, 0.01
 141220156, 1.469, -0.154, 0.024, 0.01, 0.539, -0.056, 0.005, 0.01
 141420909, 2.863, -0.301, 0.056, 0.01, 1.469, -0.154, 0.024, 0.01
 141620829, 4.68, -0.491, 0.1, 0.01, 2.863, -0.301, 0.056, 0.01
 141820749, 6.797, -0.714, 0.155, 0.01, 4.68, -0.491, 0.1, 0.01
 142020669, 8.873, -0.932, 0.215, 0.01, 6.797, -0.714, 0.155, 0.01
 142220589, 10.75, -1.129, 0.271, 0.01, 8.873, -0.932, 0.215, 0.01
 142420509, 12.401, -1.306, 0.23, 0.01, 10.75, -1.129, 0.271, 0.01
 142620429, 13.834, -1.454, 0.229, 0.01, 12.401, -1.306, 0.23, 0.01
 142820349, 15.407, -1.618, 0.043, 0.01, 13.834, -1.454, 0.229, 0.01
 143020269, 17.182, -1.815, -1.834, 0.01, 15.407, -1.618, 0.043, 0.01
 143220189, 18.582, -1.985, -3.176, 0.01, 17.182, -1.815, -1.834, 0.01
 143420942, 19.908, -2.14, -3.447, 0.01, 18.582, -1.985, -3.176, 0.01
 143620862, 21.206, -2.297, -3.254, 0.01, 19.908, -2.14, -3.447, 0.01
 143820782, 22.333, -2.41, -3.368, 0.01, 21.206, -2.297, -3.254, 0.01
 144020702, 23.248, -2.526, -3.899, 0.01, 22.333, -2.41, -3.368, 0.01
 144220622, 23.971, -2.637, -4.516, 0.01, 23.248, -2.526, -3.899, 0.01
 144420542, 24.612, -2.738, -4.863, 0.01, 23.971, -2.637, -4.516, 0.01
 144620462, 25.19, -2.822, -4.996, 0.01, 24.612, -2.738, -4.863, 0.01
 144820382, 25.697, -2.867, -5.108, 0.01, 25.19, -2.822, -4.996, 0.01
 145020302, 26.122, -2.916, -5.27, 0.01, 25.697, -2.867, -5.108, 0.01
 145220222, 26.487, -2.969, -5.395, 0.01, 26.122, -2.916, -5.27, 0.01
 145420975, 26.733, -3.002, -5.656, 0.01, 26.487, -2.969, -5.395, 0.01
 145620895, 26.838, -3.018, -6.254, 0.01, 26.733, -3.002, -5.656, 0.01
 145820815, 26.936, -3.012, -6.644001, 0.01, 26.838, -3.018, -6.254, 0.01
 146020735, 27.088, -3.024, -6.705, 0.01, 26.936, -3.012, -6.644001, 0.01
 146220655, 27.247, -3.025, -6.64, 0.01, 27.088, -3.024, -6.705, 0.01
 146420575, 27.381, -3.046, -6.611001, 0.01, 27.247, -3.025, -6.64, 0.01
 146620495, 27.504, -3.071, -6.586, 0.01, 27.381, -3.046, -6.611001, 0.01
 146820415, 27.619, -3.09, -6.528, 0.01, 27.504, -3.071, -6.586, 0.01
 147020335, 27.76, -3.101, -6.315001, 0.01, 27.619, -3.09, -6.528, 0.01
 147220255, 27.913, -3.117, -6.07, 0.01, 27.76, -3.101, -6.315001, 0.01
 147420175, 28.045, -3.164, -5.925, 0.01, 27.913, -3.117, -6.07, 0.01
 147620928, 28.145, -3.191, -5.873, 0.01, 28.045, -3.164, -5.925, 0.01
 147820848, 28.196, -3.203, -5.977, 0.01, 28.145, -3.191, -5.873, 0.01
 148020768, 28.227, -3.211, -6.065, 0.01, 28.196, -3.203, -5.977, 0.01
 148220688, 28.221, -3.211, -6.075, 0.01, 28.227, -3.211, -6.065, 0.01
 148420608, 28.143, -3.192, -5.957, 0.01, 28.221, -3.211, -6.075, 0.01
 148620528, 28.044, -3.189, -5.647, 0.01, 28.143, -3.192, -5.957, 0.01
 148820448, 28.127, -3.162, -4.288, 0.01, 28.044, -3.189, -5.647, 0.01
 149020368, 28.223, -2.964, -2.836, 0.01, 28.127, -3.162, -4.288, 0.01
 149220288, 28.243, -2.738, -2.043, 0.01, 28.223, -2.964, -2.836, 0.01
 149420208, 28.238, -2.514, -1.899, 0.01, 28.243, -2.738, -2.043, 0.01
 149620961, 28.232, -2.336, -1.903, 0.01, 28.238, -2.514, -1.899, 0.01
 149820881, 28.239, -2.198, -1.734, 0.01, 28.232, -2.336, -1.903, 0.01
 150020801, 28.27, -2.103, -1.341, 0.01, 28.239, -2.198, -1.734, 0.01
 150220721, 28.3, -2, -0.937, 0.01, 28.27, -2.103, -1.341, 0.01
 150420641, 28.25, -1.852, -0.733, 0.01, 28.3, -2, -0.937, 0.01
 150620561, 27.816, -1.644, -1.027, 0.01, 28.25, -1.852, -0.733, 0.01
 150820481, 27.111, -1.42, -1.401, 0.01, 27.816, -1.644, -1.027, 0.01
 151020401, 26.557, -1.28, -1.22, 0.01, 27.111, -1.42, -1.401, 0.01
 151220321, 26.215, -1.23, -0.496, 0.01, 26.557, -1.28, -1.22, 0.01
 151420241, 25.993, -1.192, 0.242, 0.01, 26.215, -1.23, -0.496, 0.01
 151620161, 25.842, -1.118, 0.694, 0.01, 25.993, -1.192, 0.242, 0.01
 151820914, 25.75, -1.046, 0.9250001, 0.01, 25.842, -1.118, 0.694, 0.01
 152020834, 25.71, -0.9860001, 1.101, 0.01, 25.75, -1.046, 0.9250001, 0.01
 152220754, 25.692, -0.8980001, 1.225, 0.01, 25.71, -0.9860001, 1.101, 0.01
 152420674, 25.708, -0.816, 1.291, 0.01, 25.692, -0.8980001, 1.225, 0.01
 152620594, 25.734, -0.77, 1.393, 0.01, 25.708, -0.816, 1.291, 0.01
 152820514, 25.778, -0.7320001, 1.586, 0.01, 25.734, -0.77, 1.393, 0.01
 153020434, 25.836, -0.688, 1.629, 0.01, 25.778, -0.7320001, 1.586, 0.01
 153220354, 25.899, -0.65, 1.553, 0.01, 25.836, -0.688, 1.629, 0.01
 153420274, 25.962, -0.611, 1.469, 0.01, 25.899, -0.65, 1.553, 0.01
 153620194, 26.033, -0.554, 1.493, 0.01, 25.962, -0.611, 1.469, 0.01
 153820947, 26.097, -0.5, 1.564, 0.01, 26.033, -0.554, 1.493, 0.01
 154020867, 26.16, -0.455, 1.584, 0.01, 26.097, -0.5, 1.564, 0.01
 154220787, 26.219, -0.439, 1.59, 0.01, 26.16, -0.455, 1.584, 0.01
 154420707, 26.286, -0.419, 1.508, 0.01, 26.219, -0.439, 1.59, 0.01
 154620627, 26.358, -0.406, 1.404, 0.01, 26.286, -0.419, 1.508, 0.01
 154820547, 26.426, -0.389, 1.284, 0.01, 26.358, -0.406, 1.404, 0.01
 155020467, 26.495, -0.371, 1.31, 0.01, 26.426, -0.389, 1.284, 0.01
 155220387, 26.566, -0.35, 1.355, 0.01, 26.495, -0.371, 1.31, 0.01
 155420307, 26.642, -0.336, 1.333, 0.01, 26.566, -0.35, 1.355, 0.01
 155620227, 26.712, -0.321, 1.29, 0.01, 26.642, -0.336, 1.333, 0.01
 155820147, 26.779, -0.306, 1.233, 0.01, 26.712, -0.321, 1.29, 0.01
 156020900, 26.842, -0.293, 1.178, 0.01, 26.779, -0.306, 1.233, 0.01
 156220820, 26.902, -0.279, 1.136, 0.01, 26.842, -0.293, 1.178, 0.01
 156420740, 26.968, -0.262, 1.07, 0.01, 26.902, -0.279, 1.136, 0.01
 156620660, 27.034, -0.251, 1.088, 0.01, 26.968, -0.262, 1.07, 0.01
 156820580, 27.098, -0.235, 1.114, 0.01, 27.034, -0.251, 1.088, 0.01
 157020500, 27.168, -0.231, 0.965, 0.01, 27.098, -0.235, 1.114, 0.01
 157220420, 27.229, -0.227, 0.8190001, 0.01, 27.168, -0.231, 0.965, 0.01
 157420340, 27.274, -0.217, 0.8190001, 0.01, 27.229, -0.227, 0.8190001, 0.01
 157620260, 27.333, -0.191, 0.808, 0.01, 27.274, -0.217, 0.8190001, 0.01
 157820180, 27.386, -0.168, 0.765, 0.01, 27.333, -0.191, 0.808, 0.01
 158020933, 27.44, -0.166, 0.7600001, 0.01, 27.386, -0.168, 0.765, 0.01
 158220853, 27.5, -0.174, 0.788, 0.01, 27.44, -0.166, 0.7600001, 0.01
 158420773, 27.559, -0.178, 0.744, 0.01, 27.5, -0.174, 0.788, 0.01
 158620693, 27.621, -0.176, 0.666, 0.01, 27.559, -0.178, 0.744, 0.01
 158820613, 27.677, -0.167, 0.559, 0.01, 27.621, -0.176, 0.666, 0.01
 159020533, 27.716, -0.183, 0.502, 0.01, 27.677, -0.167, 0.559, 0.01
 159220453, 27.748, -0.191, 0.482, 0.01, 27.716, -0.183, 0.502, 0.01
 159420373, 27.786, -0.189, 0.416, 0.01, 27.748, -0.191, 0.482, 0.01
 159620293, 27.825, -0.195, 0.319, 0.01, 27.786, -0.189, 0.416, 0.01
 159820213, 27.855, -0.209, 0.321, 0.01, 27.825, -0.195, 0.319, 0.01
 160020966, 27.896, -0.215, 0.351, 0.01, 27.855, -0.209, 0.321, 0.01
 160220886, 27.94, -0.218, 0.321, 0.01, 27.896, -0.215, 0.351, 0.01
 160420806, 27.979, -0.225, 0.259, 0.01, 27.94, -0.218, 0.321, 0.01
 160620726, 28.007, -0.213, 0.223, 0.01, 27.979, -0.225, 0.259, 0.01
 160820646, 28.034, -0.212, 0.195, 0.01, 28.007, -0.213, 0.223, 0.01
 161020566, 28.049, -0.218, 0.07600001, 0.01, 28.034, -0.212, 0.195, 0.01
 161220486, 28.069, -0.201, 0.07, 0.01, 28.049, -0.218, 0.07600001, 0.01
 161420406, 28.099, -0.189, 0.135, 0.01, 28.069, -0.201, 0.07, 0.01
 161620326, 28.13, -0.177, 0.121, 0.01, 28.099, -0.189, 0.135, 0.01
 161820246, 28.155, -0.161, 0.137, 0.01, 28.13, -0.177, 0.121, 0.01
 162020166, 28.179, -0.166, 0.071, 0.01, 28.155, -0.161, 0.137, 0.01
 162220919, 28.193, -0.19, -0.002, 0.01, 28.179, -0.166, 0.071, 0.01
 162420839, 28.207, -0.186, 0.034, 0.01, 28.193, -0.19, -0.002, 0.01
 162620759, 28.237, -0.19, 0.032, 0.01, 28.207, -0.186, 0.034, 0.01
 162820679, 28.263, -0.199, -0.007, 0.01, 28.237, -0.19, 0.032, 0.01
 163020599, 28.282, -0.197, -0.022, 0.01, 28.263, -0.199, -0.007, 0.01
 163220519, 28.301, -0.196, -0.045, 0.01, 28.282, -0.197, -0.022, 0.01
 163420439, 28.321, -0.2, -0.027, 0.01, 28.301, -0.196, -0.045, 0.01
 163620359, 28.335, -0.188, 0.03, 0.01, 28.321, -0.2, -0.027, 0.01
 163820279, 28.348, -0.181, 0.003, 0.01, 28.335, -0.188, 0.03, 0.01
 164020199, 28.368, -0.179, -0.043, 0.01, 28.348, -0.181, 0.003, 0.01
 164220952, 28.391, -0.147, -0.075, 0.01, 28.368, -0.179, -0.043, 0.01
 164420872, 28.42, -0.13, 0, 0.01, 28.391, -0.147, -0.075, 0.01
 164620792, 28.444, -0.15, -0.019, 0.01, 28.42, -0.13, 0, 0.01
 164820712, 28.463, -0.15, -0.06900001, 0.01, 28.444, -0.15, -0.019, 0.01
 165020632, 28.473, -0.153, -0.143, 0.01, 28.463, -0.15, -0.06900001, 0.01
 165220552, 28.485, -0.168, -0.167, 0.01, 28.473, -0.153, -0.143, 0.01
 165420472, 28.494, -0.208, -0.106, 0.01, 28.485, -0.168, -0.167, 0.01
 165620392, 28.505, -0.214, -0.029, 0.01, 28.494, -0.208, -0.106, 0.01
 165820312, 28.52, -0.204, -0.063, 0.01, 28.505, -0.214, -0.029, 0.01
 166020232, 28.548, -0.192, -0.149, 0.01, 28.52, -0.204, -0.063, 0.01
 166220152, 28.569, -0.194, -0.19, 0.01, 28.548, -0.192, -0.149, 0.01
 166420905, 28.591, -0.197, -0.179, 0.01, 28.569, -0.194, -0.19, 0.01
 166620825, 28.599, -0.174, -0.108, 0.01, 28.591, -0.197, -0.179, 0.01
 166820745, 28.6, -0.168, -0.014, 0.01, 28.599, -0.174, -0.108, 0.01
 167020665, 28.601, -0.171, -0.068, 0.01, 28.6, -0.168, -0.014, 0.01
 167220585, 28.616, -0.172, -0.219, 0.01, 28.601, -0.171, -0.068, 0.01
 167420505, 28.621, -0.176, -0.214, 0.01, 28.616, -0.172, -0.219, 0.01
 167620425, 28.629, -0.189, -0.202, 0.01, 28.621, -0.176, -0.214, 0.01
 167820345, 28.64, -0.19, -0.178, 0.01, 28.629, -0.189, -0.202, 0.01
 168020265, 28.645, -0.184, -0.157, 0.01, 28.64, -0.19, -0.178, 0.01
 168220185, 28.652, -0.171, -0.168, 0.01, 28.645, -0.184, -0.157, 0.01
 168420938, 28.661, -0.164, -0.186, 0.01, 28.652, -0.171, -0.168, 0.01
 168620858, 28.668, -0.136, -0.144, 0.01, 28.661, -0.164, -0.186, 0.01
 168820778, 28.671, -0.122, -0.158, 0.01, 28.668, -0.136, -0.144, 0.01
 169020698, 28.684, -0.1, -0.107, 0.01, 28.671, -0.122, -0.158, 0.01
 169220618, 28.698, -0.09100001, -0.042, 0.01, 28.684, -0.1, -0.107, 0.01
 169420538, 28.708, -0.06500001, -0.05, 0.01, 28.698, -0.09100001, -0.042, 0.01
 169620458, 28.714, -0.038, -0.121, 0.01, 28.708, -0.06500001, -0.05, 0.01
 169820378, 28.726, -0.018, -0.129, 0.01, 28.714, -0.038, -0.121, 0.01
 170020298, 28.737, -0.025, -0.093, 0.01, 28.726, -0.018, -0.129, 0.01
 170220218, 28.736, -0.016, -0.18, 0.01, 28.737, -0.025, -0.093, 0.01
 170420971, 28.744, 0.006, -0.151, 0.01, 28.736, -0.016, -0.18, 0.01
 170620891, 28.759, 0.002, -0.06900001, 0.01, 28.744, 0.006, -0.151, 0.01
 170820811, 28.762, 0, -0.046, 0.01, 28.759, 0.002, -0.06900001, 0.01
 171020731, 28.763, -0.009000001, -0.019, 0.01, 28.762, 0, -0.046, 0.01
 171220651, 28.771, -0.019, -0.047, 0.01, 28.763, -0.009000001, -0.019, 0.01
 171420571, 28.788, -0.028, -0.049, 0.01, 28.771, -0.019, -0.047, 0.01
 171620491, 28.809, -0.021, -0.105, 0.01, 28.788, -0.028, -0.049, 0.01
 171820411, 28.805, -0.021, -0.127, 0.01, 28.809, -0.021, -0.105, 0.01
 172020331, 28.813, -0.007, -0.142, 0.01, 28.805, -0.021, -0.127, 0.01
 172220251, 28.827, -0.008, -0.125, 0.01, 28.813, -0.007, -0.142, 0.01
 172420171, 28.851, -0.02, -0.129, 0.01, 28.827, -0.008, -0.125, 0.01
 172620924, 28.851, -0.022, -0.11, 0.01, 28.851, -0.02, -0.129, 0.01
 172820844, 28.858, -0.017, -0.141, 0.01, 28.851, -0.022, -0.11, 0.01
 173020764, 28.868, -0.02, -0.09900001, 0.01, 28.858, -0.017, -0.141, 0.01
 173220684, 28.868, -0.02, -0.081, 0.01, 28.868, -0.02, -0.09900001, 0.01
 173420604, 28.878, -0.03, -0.089, 0.01, 28.868, -0.02, -0.081, 0.01
 173620524, 28.882, -0.043, -0.09, 0.01, 28.878, -0.03, -0.089, 0.01
 173820444, 28.89, -0.03, -0.09500001, 0.01, 28.882, -0.043, -0.09, 0.01
 174020364, 28.888, -0.027, -0.146, 0.01, 28.89, -0.03, -0.09500001, 0.01
 174220284, 28.894, -0.035, -0.07, 0.01, 28.888, -0.027, -0.146, 0.01
 174420204, 28.884, -0.045, -0.119, 0.01, 28.894, -0.035, -0.07, 0.01
 174620957, 28.882, -0.039, -0.182, 0.01, 28.884, -0.045, -0.119, 0.01
 174820877, 28.881, -0.019, -0.151, 0.01, 28.882, -0.039, -0.182, 0.01
 175020797, 28.883, -0.002, -0.162, 0.01, 28.881, -0.019, -0.151, 0.01
 175220717, 28.883, 0.004, -0.123, 0.01, 28.883, -0.002, -0.162, 0.01
 175420637, 28.887, -0.003, -0.104, 0.01, 28.883, 0.004, -0.123, 0.01
 175620557, 28.894, -0.005, -0.071, 0.01, 28.887, -0.003, -0.104, 0.01
 175820477, 28.897, -0.022, -0.122, 0.01, 28.894, -0.005, -0.071, 0.01
 176020397, 28.898, -0.019, -0.17, 0.01, 28.897, -0.022, -0.122, 0.01
 176220317, 28.9, 0, -0.128, 0.01, 28.898, -0.019, -0.17, 0.01
 176420237, 28.899, 0.011, -0.09900001, 0.01, 28.9, 0, -0.128, 0.01
 176620157, 28.894, 0.019, -0.147, 0.01, 28.899, 0.011, -0.09900001, 0.01
 176820910, 28.894, 0.032, -0.09100001, 0.01, 28.894, 0.019, -0.147, 0.01
 177020830, 28.899, 0.024, -0.047, 0.01, 28.894, 0.032, -0.09100001, 0.01
 177220750, 28.903, 0.022, -0.064, 0.01, 28.899, 0.024, -0.047, 0.01
 177420670, 28.91, 0.016, -0.097, 0.01, 28.903, 0.022, -0.064, 0.01
 177620590, 28.912, 0.014, -0.055, 0.01, 28.91, 0.016, -0.097, 0.01
 177820510, 28.914, -0.004, -0.041, 0.01, 28.912, 0.014, -0.055, 0.01
 178020430, 28.914, -0.002, -0.081, 0.01, 28.914, -0.004, -0.041, 0.01
 178220350, 28.913, 0.006, -0.1, 0.01, 28.914, -0.002, -0.081, 0.01
 178420270, 28.91, 0.008, -0.111, 0.01, 28.913, 0.006, -0.1, 0.01
 178620190, 28.915, 0.032, -0.053, 0.01, 28.91, 0.008, -0.111, 0.01
 178820943, 28.92, 0.023, -0.016, 0.01, 28.915, 0.032, -0.053, 0.01
 179020863, 28.927, 0.004, -0.007, 0.01, 28.92, 0.023, -0.016, 0.01
 179220783, 28.93, 0.015, -0.006, 0.01, 28.927, 0.004, -0.007, 0.01
 179420703, 28.932, 0.021, -0.1, 0.01, 28.93, 0.015, -0.006, 0.01
 179620623, 28.939, 0.012, -0.133, 0.01, 28.932, 0.021, -0.1, 0.01
 179820543, 28.946, 0.001, -0.102, 0.01, 28.939, 0.012, -0.133, 0.01
 180020463, 28.95, -0.018, -0.036, 0.01, 28.946, 0.001, -0.102, 0.01
 180220383, 28.952, -0.033, -0.017, 0.01, 28.95, -0.018, -0.036, 0.01
 180420303, 28.959, -0.042, 0.02, 0.01, 28.952, -0.033, -0.017, 0.01
 180620223, 28.966, -0.024, -0.047, 0.01, 28.959, -0.042, 0.02, 0.01
 180820976, 28.955, -0.04, -0.103, 0.01, 28.966, -0.024, -0.047, 0.01
 181020896, 28.953, -0.018, -0.112, 0.01, 28.955, -0.04, -0.103, 0.01
 181220816, 28.956, 0.002, -0.06900001, 0.01, 28.953, -0.018, -0.112, 0.01
 181420736, 28.953, 0.044, 0.01, 0.01, 28.956, 0.002, -0.06900001, 0.01
 181620656, 28.952, -0.113, -0.059, 0.01, 28.953, 0.044, 0.01, 0.01
 181820576, 28.933, -1.032, -0.001, 0.01, 28.952, -0.113, -0.059, 0.01
 182020496, 28.919, -2.44, 0.29, 0.01, 28.933, -1.032, -0.001, 0.01
 182220416, 28.876, -4.59, 0.688, 0.01, 28.919, -2.44, 0.29, 0.01
 182420336, 28.631, -7.523, 0.8650001, 0.01, 28.876, -4.59, 0.688, 0.01
 182620256, 27.746, -11.246, 0.341, 0.01, 28.631, -7.523, 0.8650001, 0.01
 182820176, 26.324, -14.75, -0.472, 0.01, 27.746, -11.246, 0.341, 0.01
 183020929, 24.801, -17.413, -0.979, 0.01, 26.324, -14.75, -0.472, 0.01
 183220849, 23.253, -19.367, -1.176, 0.01, 24.801, -17.413, -0.979, 0.01
 183420769, 21.747, -20.858, -1.143, 0.01, 23.253, -19.367, -1.176, 0.01
 183620689, 20.291, -22.079, -0.964, 0.01, 21.747, -20.858, -1.143, 0.01
 183820609, 18.824, -23.159, -0.775, 0.01, 20.291, -22.079, -0.964, 0.01
 184020529, 17.363, -24.11, -0.572, 0.01, 18.824, -23.159, -0.775, 0.01
 184220449, 15.875, -24.966, -0.376, 0.01, 17.363, -24.11, -0.572, 0.01
 184420369, 14.309, -25.762, -0.272, 0.01, 15.875, -24.966, -0.376, 0.01
 184620289, 12.785, -26.438, -0.079, 0.01, 14.309, -25.762, -0.272, 0.01
 184820209, 11.326, -26.996, 0.121, 0.01, 12.785, -26.438, -0.079, 0.01
 185020962, 9.775001, -27.506, 0.244, 0.01, 11.326, -26.996, 0.121, 0.01
 185220882, 8.242001, -27.922, 0.339, 0.01, 9.775001, -27.506, 0.244, 0.01
 185420802, 6.802001, -28.241, 0.458, 0.01, 8.242001, -27.922, 0.339, 0.01
 185620722, 5.381, -28.481, 0.56, 0.01, 6.802001, -28.241, 0.458, 0.01
 185820642, 4.006, -28.644, 0.6530001, 0.01, 5.381, -28.481, 0.56, 0.01
 186020562, 2.656, -28.732, 0.708, 0.01, 4.006, -28.644, 0.6530001, 0.01
 186220482, 1.363, -28.751, 0.7270001, 0.01, 2.656, -28.732, 0.708, 0.01
 186420402, 0.168, -28.715, 0.725, 0.01, 1.363, -28.751, 0.7270001, 0.01
 186620322, -0.873, -28.633, 0.77, 0.01, 0.168, -28.715, 0.725, 0.01
 186820242, -1.849, -28.518, 0.814, 0.01, -0.873, -28.633, 0.77, 0.01
 187020162, -2.724, -28.372, 0.863, 0.01, -1.849, -28.518, 0.814, 0.01
 187220915, -3.554, -28.225, 0.853, 0.01, -2.724, -28.372, 0.863, 0.01
 187420835, -4.282, -28.074, 0.835, 0.01, -3.554, -28.225, 0.853, 0.01
 187620755, -4.905, -27.94, 0.841, 0.01, -4.282, -28.074, 0.835, 0.01
 187820675, -5.432, -27.814, 0.8880001, 0.01, -4.905, -27.94, 0.841, 0.01
 188020595, -5.907, -27.683, 0.8470001, 0.01, -5.432, -27.814, 0.8880001, 0.01
 188220515, -6.306, -27.57, 0.845, 0.01, -5.907, -27.683, 0.8470001, 0.01
 188420435, -6.664001, -27.477, 0.7730001, 0.01, -6.306, -27.57, 0.845, 0.01
 188620355, -6.934, -27.409, 0.7590001, 0.01, -6.664001, -27.477, 0.7730001, 0.01
 188820275, -7.153, -27.365, 0.72, 0.01, -6.934, -27.409, 0.7590001, 0.01
 189020195, -7.302001, -27.335, 0.668, 0.01, -7.153, -27.365, 0.72, 0.01
 189220948, -7.393, -27.316, 0.617, 0.01, -7.302001, -27.335, 0.668, 0.01
 189420868, -7.436, -27.321, 0.5840001, 0.01, -7.393, -27.316, 0.617, 0.01
 189620788, -7.440001, -27.337, 0.524, 0.01, -7.436, -27.321, 0.5840001, 0.01
 189820708, -7.396, -27.38, 0.427, 0.01, -7.440001, -27.337, 0.524, 0.01
 190020628, -7.305, -27.439, 0.416, 0.01, -7.396, -27.38, 0.427, 0.01
 190220548, -7.184, -27.497, 0.394, 0.01, -7.305, -27.439, 0.416, 0.01
 190420468, -7.015, -27.567, 0.38, 0.01, -7.184, -27.497, 0.394, 0.01
 190620388, -6.848001, -27.632, 0.334, 0.01, -7.015, -27.567, 0.38, 0.01
 190820308, -6.648, -27.697, 0.258, 0.01, -6.848001, -27.632, 0.334, 0.01
 191020228, -6.438, -27.776, 0.258, 0.01, -6.648, -27.697, 0.258, 0.01
 191220148, -6.203, -27.847, 0.177, 0.01, -6.438, -27.776, 0.258, 0.01
 191420901, -5.929, -27.918, 0.079, 0.01, -6.203, -27.847, 0.177, 0.01
 191620821, -5.656, -27.983, 0.046, 0.01, -5.929, -27.918, 0.079, 0.01
 191820741, -5.397, -28.05, 0.089, 0.01, -5.656, -27.983, 0.046, 0.01
 192020661, -5.131, -28.122, 0.102, 0.01, -5.397, -28.05, 0.089, 0.01
 192220581, -4.838, -28.186, 0.027, 0.01, -5.131, -28.122, 0.102, 0.01
 192420501, -4.536, -28.251, -0.025, 0.01, -4.838, -28.186, 0.027, 0.01
 192620421, -4.232, -28.318, -0.049, 0.01, -4.536, -28.251, -0.025, 0.01
 192820341, -3.923, -28.37, -0.112, 0.01, -4.232, -28.318, -0.049, 0.01
 193020261, -3.638, -28.416, -0.148, 0.01, -3.923, -28.37, -0.112, 0.01
 193220181, -3.37, -28.457, -0.173, 0.01, -3.638, -28.416, -0.148, 0.01
 193420934, -3.115, -28.485, -0.194, 0.01, -3.37, -28.457, -0.173, 0.01
 193620854, -2.853, -28.518, -0.203, 0.01, -3.115, -28.485, -0.194, 0.01
 193820774, -2.616, -28.548, -0.18, 0.01, -2.853, -28.518, -0.203, 0.01
 194020694, -2.381, -28.595, -0.151, 0.01, -2.616, -28.548, -0.18, 0.01
 194220614, -2.138, -28.639, -0.214, 0.01, -2.381, -28.595, -0.151, 0.01
 194420534, -1.897, -28.673, -0.295, 0.01, -2.138, -28.639, -0.214, 0.01
 194620454, -1.658, -28.683, -0.308, 0.01, -1.897, -28.673, -0.295, 0.01
 194820374, -1.461, -28.693, -0.33, 0.01, -1.658, -28.683, -0.308, 0.01
 195020294, -1.278, -28.714, -0.354, 0.01, -1.461, -28.693, -0.33, 0.01
 195220214, -1.106, -28.73, -0.326, 0.01, -1.278, -28.714, -0.354, 0.01
 195420967, -0.9310001, -28.742, -0.356, 0.01, -1.106, -28.73, -0.326, 0.01
 195620887, -0.7780001, -28.746, -0.429, 0.01, -0.9310001, -28.742, -0.356, 0.01
 195820807, -0.66, -28.748, -0.411, 0.01, -0.7780001, -28.746, -0.429, 0.01
 196020727, -0.545, -28.756, -0.423, 0.01, -0.66, -28.748, -0.411, 0.01
 196220647, -0.424, -28.767, -0.398, 0.01, -0.545, -28.756, -0.423, 0.01
 196420567, -0.326, -28.766, -0.392, 0.01, -0.424, -28.767, -0.398, 0.01
 196620487, -0.229, -28.756, -0.43, 0.01, -0.326, -28.766, -0.392, 0.01
 196820407, -0.139, -28.761, -0.417, 0.01, -0.229, -28.756, -0.43, 0.01
 197020327, -0.082, -28.765, -0.443, 0.01, -0.139, -28.761, -0.417, 0.01
 197220247, -0.005, -28.765, -0.4, 0.01, -0.082, -28.765, -0.443, 0.01
 197420167, 0.071, -28.769, -0.405, 0.01, -0.005, -28.765, -0.4, 0.01
 197620920, 0.116, -28.765, -0.348, 0.01, 0.071, -28.769, -0.405, 0.01
 197820840, 0.156, -28.758, -0.329, 0.01, 0.116, -28.765, -0.348, 0.01
 198020760, 0.181, -28.765, -0.302, 0.01, 0.156, -28.758, -0.329, 0.01
 198220680, 0.21, -28.769, -0.344, 0.01, 0.181, -28.765, -0.302, 0.01
 198420600, 0.244, -28.754, -0.349, 0.01, 0.21, -28.769, -0.344, 0.01
 198620520, 0.282, -28.752, -0.361, 0.01, 0.244, -28.754, -0.349, 0.01
 198820440, 0.312, -28.753, -0.308, 0.01, 0.282, -28.752, -0.361, 0.01
 199020360, 0.339, -28.742, -0.281, 0.01, 0.312, -28.753, -0.308, 0.01
 199220280, 0.35, -28.742, -0.36, 0.01, 0.339, -28.742, -0.281, 0.01
 199420200, 0.341, -28.743, -0.354, 0.01, 0.35, -28.742, -0.36, 0.01
 199620953, 0.35, -28.73, -0.3, 0.01, 0.341, -28.743, -0.354, 0.01
 199820873, 0.354, -28.728, -0.252, 0.01, 0.35, -28.73, -0.3, 0.01
 200020793, 0.329, -28.727, -0.253, 0.01, 0.354, -28.728, -0.252, 0.01
 200220713, 0.325, -28.72, -0.206, 0.01, 0.329, -28.727, -0.253, 0.01
 200420633, 0.297, -28.719, -0.148, 0.01, 0.325, -28.72, -0.206, 0.01
 200620553, 0.294, -28.732, -0.175, 0.01, 0.297, -28.719, -0.148, 0.01
 200820473, 0.269, -28.747, -0.227, 0.01, 0.294, -28.732, -0.175, 0.01
 201020393, 0.264, -28.762, -0.21, 0.01, 0.269, -28.747, -0.227, 0.01
 201220313, 0.252, -28.776, -0.06, 0.01, 0.264, -28.762, -0.21, 0.01
 201420233, 0.234, -28.786, -0.09200001, 0.01, 0.252, -28.776, -0.06, 0.01
 201620153, 0.218, -28.786, -0.129, 0.01, 0.234, -28.786, -0.09200001, 0.01
 201820906, 0.187, -28.792, -0.139, 0.01, 0.218, -28.786, -0.129, 0.01
 202020826, 0.162, -28.793, -0.18, 0.01, 0.187, -28.792, -0.139, 0.01
 202220746, 0.131, -28.792, -0.156, 0.01, 0.162, -28.793, -0.18, 0.01
 202420666, 0.115, -28.803, -0.117, 0.01, 0.131, -28.792, -0.156, 0.01
 202620586, 0.078, -28.806, -0.055, 0.01, 0.115, -28.803, -0.117, 0.01
 202820506, 0.064, -28.8, -0.058, 0.01, 0.078, -28.806, -0.055, 0.01
 203020426, 0.06900001, -28.811, -0.147, 0.01, 0.064, -28.8, -0.058, 0.01
 203220346, 0.054, -28.812, -0.137, 0.01, 0.06900001, -28.811, -0.147, 0.01
 203420266, 0.039, -28.809, -0.11, 0.01, 0.054, -28.812, -0.137, 0.01
 203620186, 0.043, -28.816, -0.068, 0.01, 0.039, -28.809, -0.11, 0.01
 203820939, 0.031, -28.828, -0.062, 0.01, 0.043, -28.816, -0.068, 0.01
 204020859, 0, -28.821, -0.097, 0.01, 0.031, -28.828, -0.062, 0.01
 204220779, -0.017, -28.822, -0.131, 0.01, 0, -28.821, -0.097, 0.01
 204420699, -0.029, -28.835, -0.108, 0.01, -0.017, -28.822, -0.131, 0.01
 204620619, -0.02, -28.849, 0.015, 0.01, -0.029, -28.835, -0.108, 0.01
 204820539, 0.005, -28.868, 0.012, 0.01, -0.02, -28.849, 0.015, 0.01
 205020459, 0.013, -28.876, -0.08400001, 0.01, 0.005, -28.868, 0.012, 0.01
 205220379, 0.006, -28.888, -0.08800001, 0.01, 0.013, -28.876, -0.08400001, 0.01
 205420299, 0.007, -28.893, -0.024, 0.01, 0.006, -28.888, -0.08800001, 0.01
 205620219, 0.016, -28.899, -0.034, 0.01, 0.007, -28.893, -0.024, 0.01
 205820972, 0, -28.912, -0.072, 0.01, 0.016, -28.899, -0.034, 0.01
 206020892, -0.001, -28.905, -0.066, 0.01, 0, -28.912, -0.072, 0.01
 206220812, 0.005, -28.902, -0.119, 0.01, -0.001, -28.905, -0.066, 0.01
 206420732, 0.017, -28.891, -0.09, 0.01, 0.005, -28.902, -0.119, 0.01
 206620652, 0.032, -28.896, -0.06900001, 0.01, 0.017, -28.891, -0.09, 0.01
 206820572, 0.062, -28.899, -0.041, 0.01, 0.032, -28.896, -0.06900001, 0.01
 207020492, 0.078, -28.906, 0.02, 0.01, 0.062, -28.899, -0.041, 0.01
 207220412, 0.07300001, -28.913, -0.059, 0.01, 0.078, -28.906, 0.02, 0.01
 207420332, 0.056, -28.909, -0.167, 0.01, 0.07300001, -28.913, -0.059, 0.01
 207620252, 0.039, -28.901, -0.19, 0.01, 0.056, -28.909, -0.167, 0.01
 207820172, 0.029, -28.906, -0.06500001, 0.01, 0.039, -28.901, -0.19, 0.01
 208020925, 0.053, -28.917, 0.005, 0.01, 0.029, -28.906, -0.06500001, 0.01
 208220845, 0.08800001, -28.918, -0.041, 0.01, 0.053, -28.917, 0.005, 0.01
 208420765, 0.09100001, -28.917, -0.049, 0.01, 0.08800001, -28.918, -0.041, 0.01
 208620685, 0.096, -28.915, -0.09900001, 0.01, 0.09100001, -28.917, -0.049, 0.01
 208820605, 0.1, -28.913, -0.094, 0.01, 0.096, -28.915, -0.09900001, 0.01
 209020525, 0.115, -28.921, -0.032, 0.01, 0.1, -28.913, -0.094, 0.01
 209220445, 0.137, -28.921, -0.049, 0.01, 0.115, -28.921, -0.032, 0.01
 209420365, 0.159, -28.923, -0.04, 0.01, 0.137, -28.921, -0.049, 0.01
 209620285, 0.16, -28.922, -0.066, 0.01, 0.159, -28.923, -0.04, 0.01
 209820205, 0.173, -28.921, -0.075, 0.01, 0.16, -28.922, -0.066, 0.01
 210020958, 0.181, -28.919, -0.07700001, 0.01, 0.173, -28.921, -0.075, 0.01
 210220878, 0.181, -28.918, -0.064, 0.01, 0.181, -28.919, -0.07700001, 0.01
 210420798, 0.195, -28.923, -0.042, 0.01, 0.181, -28.918, -0.064, 0.01
 210620718, 0.194, -28.92, -0.039, 0.01, 0.195, -28.923, -0.042, 0.01
 210820638, 0.2, -28.924, -0.051, 0.01, 0.194, -28.92, -0.039, 0.01
 211020558, 0.185, -28.921, -0.11, 0.01, 0.2, -28.924, -0.051, 0.01
 211220478, 0.181, -28.921, -0.115, 0.01, 0.185, -28.921, -0.11, 0.01
 211420398, 0.16, -28.928, -0.068, 0.01, 0.181, -28.921, -0.115, 0.01
 211620318, 0.129, -28.927, -0.08400001, 0.01, 0.16, -28.928, -0.068, 0.01
 211820238, 0.119, -28.923, -0.078, 0.01, 0.129, -28.927, -0.08400001, 0.01
 212020158, 0.102, -28.923, -0.09500001, 0.01, 0.119, -28.923, -0.078, 0.01
 212220911, 0.07600001, -28.926, -0.039, 0.01, 0.102, -28.923, -0.09500001, 0.01
 212420831, 0.117, -28.929, -0.103, 0.01, 0.07600001, -28.926, -0.039, 0.01
 212620751, -0.072, -28.92, -0.167, 0.01, 0.117, -28.929, -0.103, 0.01
 212820671, -0.993, -28.907, -0.049, 0.01, -0.072, -28.92, -0.167, 0.01
 213020591, -2.341, -28.896, 0.347, 0.01, -0.993, -28.907, -0.049, 0.01
 213220511, -4.42, -28.876, 0.802, 0.01, -2.341, -28.896, 0.347, 0.01
 213420431, -7.532001, -28.599, 0.868, 0.01, -4.42, -28.876, 0.802, 0.01
 213620351, -11.194, -27.742, 0.396, 0.01, -7.532001, -28.599, 0.868, 0.01
 213820271, -14.734, -26.318, -0.422, 0.01, -11.194, -27.742, 0.396, 0.01
 214020191, -17.434, -24.771, -0.9760001, 0.01, -14.734, -26.318, -0.422, 0.01
 214220944, -19.409, -23.214, -1.141, 0.01, -17.434, -24.771, -0.9760001, 0.01
 214420864, -20.95, -21.648, -1.12, 0.01, -19.409, -23.214, -1.141, 0.01
 214620784, -22.24, -20.092, -1.002, 0.01, -20.95, -21.648, -1.12, 0.01
 214820704, -23.356, -18.541, -0.848, 0.01, -22.24, -20.092, -1.002, 0.01
 215020624, -24.34, -16.974, -0.705, 0.01, -23.356, -18.541, -0.848, 0.01
 215220544, -25.192, -15.409, -0.551, 0.01, -24.34, -16.974, -0.705, 0.01
 215420464, -25.915, -13.892, -0.356, 0.01, -25.192, -15.409, -0.551, 0.01
 215620384, -26.511, -12.434, -0.155, 0.01, -25.915, -13.892, -0.356, 0.01
 215820304, -27.029, -10.945, -0.011, 0.01, -26.511, -12.434, -0.155, 0.01
 216020224, -27.452, -9.516001, 0.196, 0.01, -27.029, -10.945, -0.011, 0.01
 216220977, -27.815, -8.043, 0.335, 0.01, -27.452, -9.516001, 0.196, 0.01
 216420897, -28.104, -6.607, 0.448, 0.01, -27.815, -8.043, 0.335, 0.01
 216620817, -28.315, -5.269, 0.591, 0.01, -28.104, -6.607, 0.448, 0.01
 216820737, -28.469, -3.947, 0.6990001, 0.01, -28.315, -5.269, 0.591, 0.01
 217020657, -28.552, -2.674, 0.758, 0.01, -28.469, -3.947, 0.6990001, 0.01
 217220577, -28.576, -1.416, 0.8, 0.01, -28.552, -2.674, 0.758, 0.01
 217420497, -28.544, -0.262, 0.808, 0.01, -28.576, -1.416, 0.8, 0.01
 217620417, -28.479, 0.7830001, 0.8240001, 0.01, -28.544, -0.262, 0.808, 0.01
 217820337, -28.373, 1.759, 0.8100001, 0.01, -28.479, 0.7830001, 0.8240001, 0.01
 218020257, -28.238, 2.652, 0.793, 0.01, -28.373, 1.759, 0.8100001, 0.01
 218220177, -28.098, 3.401, 0.8560001, 0.01, -28.238, 2.652, 0.793, 0.01
 218420930, -27.968, 4.066, 0.914, 0.01, -28.098, 3.401, 0.8560001, 0.01
 218620850, -27.834, 4.679, 0.9170001, 0.01, -27.968, 4.066, 0.914, 0.01
 218820770, -27.702, 5.237, 0.8200001, 0.01, -27.834, 4.679, 0.9170001, 0.01
 219020690, -27.58, 5.709, 0.817, 0.01, -27.702, 5.237, 0.8200001, 0.01
 219220610, -27.47, 6.108, 0.776, 0.01, -27.58, 5.709, 0.817, 0.01
 219420530, -27.392, 6.405, 0.8, 0.01, -27.47, 6.108, 0.776, 0.01
 219620450, -27.344, 6.647, 0.762, 0.01, -27.392, 6.405, 0.8, 0.01
 219820370, -27.299, 6.862, 0.724, 0.01, -27.344, 6.647, 0.762, 0.01
 220020290, -27.271, 6.993001, 0.766, 0.01, -27.299, 6.862, 0.724, 0.01
 220220210, -27.267, 7.076, 0.677, 0.01, -27.271, 6.993001, 0.766, 0.01
 220420963, -27.282, 7.11, 0.534, 0.01, -27.267, 7.076, 0.677, 0.01
 220620883, -27.306, 7.095, 0.476, 0.01, -27.282, 7.11, 0.534, 0.01
 220820803, -27.351, 7.053, 0.477, 0.01, -27.306, 7.095, 0.476, 0.01
 221020723, -27.401, 6.98, 0.468, 0.01, -27.351, 7.053, 0.477, 0.01
 221220643, -27.461, 6.856, 0.436, 0.01, -27.401, 6.98, 0.468, 0.01
 221420563, -27.531, 6.712, 0.398, 0.01, -27.461, 6.856, 0.436, 0.01
 221620483, -27.612, 6.537, 0.36, 0.01, -27.531, 6.712, 0.398, 0.01
 221820403, -27.689, 6.344, 0.309, 0.01, -27.612, 6.537, 0.36, 0.01
 222020323, -27.768, 6.12, 0.246, 0.01, -27.689, 6.344, 0.309, 0.01
 222220243, -27.855, 5.885, 0.226, 0.01, -27.768, 6.12, 0.246, 0.01
 222420163, -27.931, 5.652, 0.142, 0.01, -27.855, 5.885, 0.226, 0.01
 222620916, -28, 5.43, 0.153, 0.01, -27.931, 5.652, 0.142, 0.01
 222820836, -28.06, 5.2, 0.156, 0.01, -28, 5.43, 0.153, 0.01
 223020756, -28.129, 4.924, 0.04, 0.01, -28.06, 5.2, 0.156, 0.01
 223220676, -28.183, 4.636, -0.064, 0.01, -28.129, 4.924, 0.04, 0.01
 223420596, -28.243, 4.354, -0.104, 0.01, -28.183, 4.636, -0.064, 0.01
 223620516, -28.286, 4.121, -0.029, 0.01, -28.243, 4.354, -0.104, 0.01
 223820436, -28.334, 3.892, 0.014, 0.01, -28.286, 4.121, -0.029, 0.01
 224020356, -28.381, 3.633, -0.068, 0.01, -28.334, 3.892, 0.014, 0.01
 224220276, -28.421, 3.383, -0.121, 0.01, -28.381, 3.633, -0.068, 0.01
 224420196, -28.462, 3.127, -0.231, 0.01, -28.421, 3.383, -0.121, 0.01
 224620949, -28.488, 2.899, -0.292, 0.01, -28.462, 3.127, -0.231, 0.01
 224820869, -28.513, 2.69, -0.226, 0.01, -28.488, 2.899, -0.292, 0.01
 225020789, -28.54, 2.467, -0.198, 0.01, -28.513, 2.69, -0.226, 0.01
 225220709, -28.561, 2.247, -0.186, 0.01, -28.54, 2.467, -0.198, 0.01
 225420629, -28.581, 2.049, -0.239, 0.01, -28.561, 2.247, -0.186, 0.01
 225620549, -28.604, 1.838, -0.318, 0.01, -28.581, 2.049, -0.239, 0.01
 225820469, -28.63, 1.633, -0.351, 0.01, -28.604, 1.838, -0.318, 0.01
 226020389, -28.644, 1.457, -0.328, 0.01, -28.63, 1.633, -0.351, 0.01
 226220309, -28.651, 1.304, -0.287, 0.01, -28.644, 1.457, -0.328, 0.01
 226420229, -28.653, 1.131, -0.281, 0.01, -28.651, 1.304, -0.287, 0.01
 226620149, -28.656, 0.965, -0.33, 0.01, -28.653, 1.131, -0.281, 0.01
 226820902, -28.656, 0.8060001, -0.371, 0.01, -28.656, 0.965, -0.33, 0.01
 227020822, -28.664, 0.673, -0.331, 0.01, -28.656, 0.8060001, -0.371, 0.01
 227220742, -28.666, 0.551, -0.313, 0.01, -28.664, 0.673, -0.331, 0.01
 227420662, -28.662, 0.435, -0.327, 0.01, -28.666, 0.551, -0.313, 0.01
 227620582, -28.658, 0.315, -0.357, 0.01, -28.662, 0.435, -0.327, 0.01
 227820502, -28.653, 0.208, -0.336, 0.01, -28.658, 0.315, -0.357, 0.01
 228020422, -28.651, 0.14, -0.323, 0.01, -28.653, 0.208, -0.336, 0.01
 228220342, -28.669, 0.072, -0.371, 0.01, -28.651, 0.14, -0.323, 0.01
 228420262, -28.68, 0.002, -0.38, 0.01, -28.669, 0.072, -0.371, 0.01
 228620182, -28.681, -0.06, -0.353, 0.01, -28.68, 0.002, -0.38, 0.01
 228820935, -28.678, -0.115, -0.317, 0.01, -28.681, -0.06, -0.353, 0.01
 229020855, -28.677, -0.165, -0.268, 0.01, -28.678, -0.115, -0.317, 0.01
 229220775, -28.673, -0.205, -0.242, 0.01, -28.677, -0.165, -0.268, 0.01
 229420695, -28.677, -0.264, -0.243, 0.01, -28.673, -0.205, -0.242, 0.01
 229620615, -28.673, -0.295, -0.272, 0.01, -28.677, -0.264, -0.243, 0.01
 229820535, -28.671, -0.324, -0.289, 0.01, -28.673, -0.295, -0.272, 0.01
 230020455, -28.666, -0.333, -0.339, 0.01, -28.671, -0.324, -0.289, 0.01
 230220375, -28.665, -0.344, -0.305, 0.01, -28.666, -0.333, -0.339, 0.01
 230420295, -28.662, -0.335, -0.301, 0.01, -28.665, -0.344, -0.305, 0.01
 230620215, -28.664, -0.31, -0.335, 0.01, -28.662, -0.335, -0.301, 0.01
 230820968, -28.661, -0.298, -0.291, 0.01, -28.664, -0.31, -0.335, 0.01
 231020888, -28.663, -0.294, -0.247, 0.01, -28.661, -0.298, -0.291, 0.01
 231220808, -28.663, -0.297, -0.214, 0.01, -28.663, -0.294, -0.247, 0.01
 231420728, -28.665, -0.29, -0.19, 0.01, -28.663, -0.297, -0.214, 0.01
 231620648, -28.673, -0.266, -0.205, 0.01, -28.665, -0.29, -0.19, 0.01
 231820568, -28.692, -0.268, -0.186, 0.01, -28.673, -0.266, -0.205, 0.01
 232020488, -28.698, -0.249, -0.174, 0.01, -28.692, -0.268, -0.186, 0.01
 232220408, -28.706, -0.242, -0.131, 0.01, -28.698, -0.249, -0.174, 0.01
 232420328, -28.727, -0.248, -0.045, 0.01, -28.706, -0.242, -0.131, 0.01
 232620248, -28.75, -0.256, -0.026, 0.01, -28.727, -0.248, -0.045, 0.01
 232820168, -28.754, -0.257, -0.078, 0.01, -28.75, -0.256, -0.026, 0.01
 233020921, -28.752, -0.038, -0.159, 0.01, -28.754, -0.257, -0.078, 0.01
 233220841, -28.734, 0.933, -0.098, 0.01, -28.752, -0.038, -0.159, 0.01
 233420761, -28.719, 2.413, 0.204, 0.01, -28.734, 0.933, -0.098, 0.01
 233620681, -28.69, 4.564, 0.669, 0.01, -28.719, 2.413, 0.204, 0.01
 233820601, -28.431, 7.617001, 0.813, 0.01, -28.69, 4.564, 0.669, 0.01
 234020521, -27.516, 11.42, 0.276, 0.01, -28.431, 7.617001, 0.813, 0.01
 234220441, -26.063, 14.955, -0.52, 0.01, -27.516, 11.42, 0.276, 0.01
 234420361, -24.528, 17.622, -1.04, 0.01, -26.063, 14.955, -0.52, 0.01
 234620281, -23.041, 19.538, -1.2, 0.01, -24.528, 17.622, -1.04, 0.01
 234820201, -21.609, 20.974, -1.109, 0.01, -23.041, 19.538, -1.2, 0.01
 235020954, -20.189, 22.189, -0.9120001, 0.01, -21.609, 20.974, -1.109, 0.01
 235220874, -18.641, 23.33, -0.7730001, 0.01, -20.189, 22.189, -0.9120001, 0.01
 235420794, -17.065, 24.35, -0.64, 0.01, -18.641, 23.33, -0.7730001, 0.01
 235620714, -15.455, 25.259, -0.527, 0.01, -17.065, 24.35, -0.64, 0.01
 235820634, -13.848, 26.05, -0.425, 0.01, -15.455, 25.259, -0.527, 0.01
 236020554, -12.309, 26.689, -0.298, 0.01, -13.848, 26.05, -0.425, 0.01
 236220474, -10.811, 27.216, -0.158, 0.01, -12.309, 26.689, -0.298, 0.01
 236420394, -9.324, 27.633, -0.01, 0.01, -10.811, 27.216, -0.158, 0.01
 236620314, -7.894001, 27.961, 0.129, 0.01, -9.324, 27.633, -0.01, 0.01
 236820234, -6.47, 28.231, 0.224, 0.01, -7.894001, 27.961, 0.129, 0.01
 237020154, -5.099, 28.413, 0.302, 0.01, -6.47, 28.231, 0.224, 0.01
 237220907, -3.742, 28.526, 0.349, 0.01, -5.099, 28.413, 0.302, 0.01
 237420827, -2.528, 28.568, 0.428, 0.01, -3.742, 28.526, 0.349, 0.01
 237620747, -1.406, 28.576, 0.534, 0.01, -2.528, 28.568, 0.428, 0.01
 237820667, -0.338, 28.538, 0.6070001, 0.01, -1.406, 28.576, 0.534, 0.01
 238020587, 0.671, 28.47, 0.66, 0.01, -0.338, 28.538, 0.6070001, 0.01
 238220507, 1.542, 28.367, 0.762, 0.01, 0.671, 28.47, 0.66, 0.01
 238420427, 2.43, 28.244, 0.71, 0.01, 1.542, 28.367, 0.762, 0.01
 238620347, 3.214, 28.116, 0.738, 0.01, 2.43, 28.244, 0.71, 0.01
 238820267, 3.915, 27.999, 0.737, 0.01, 3.214, 28.116, 0.738, 0.01
 239020187, 4.501, 27.876, 0.762, 0.01, 3.915, 27.999, 0.737, 0.01
 239220940, 4.995, 27.754, 0.756, 0.01, 4.501, 27.876, 0.762, 0.01
 239420860, 5.453, 27.64, 0.688, 0.01, 4.995, 27.754, 0.756, 0.01
 239620780, 5.818, 27.55, 0.694, 0.01, 5.453, 27.64, 0.688, 0.01
 239820700, 6.136, 27.478, 0.7270001, 0.01, 5.818, 27.55, 0.694, 0.01
 240020620, 6.405, 27.423, 0.683, 0.01, 6.136, 27.478, 0.7270001, 0.01
 240220540, 6.589, 27.384, 0.671, 0.01, 6.405, 27.423, 0.683, 0.01
 240420460, 6.733, 27.353, 0.711, 0.01, 6.589, 27.384, 0.671, 0.01
 240620380, 6.839, 27.35, 0.634, 0.01, 6.733, 27.353, 0.711, 0.01
 240820300, 6.895, 27.353, 0.496, 0.01, 6.839, 27.35, 0.634, 0.01
 241020220, 6.894001, 27.378, 0.448, 0.01, 6.895, 27.353, 0.496, 0.01
 241220973, 6.862, 27.413, 0.443, 0.01, 6.894001, 27.378, 0.448, 0.01
 241420893, 6.806, 27.447, 0.44, 0.01, 6.862, 27.413, 0.443, 0.01
 241620813, 6.702, 27.492, 0.343, 0.01, 6.806, 27.447, 0.44, 0.01
 241820733, 6.584, 27.539, 0.283, 0.01, 6.702, 27.492, 0.343, 0.01
 242020653, 6.443, 27.598, 0.287, 0.01, 6.584, 27.539, 0.283, 0.01
 242220573, 6.255, 27.667, 0.245, 0.01, 6.443, 27.598, 0.287, 0.01
 242420493, 6.015, 27.756, 0.185, 0.01, 6.255, 27.667, 0.245, 0.01
 242620413, 5.82, 27.837, 0.161, 0.01, 6.015, 27.756, 0.185, 0.01
 242820333, 5.603, 27.925, 0.229, 0.01, 5.82, 27.837, 0.161, 0.01
 243020253, 5.405, 27.996, 0.191, 0.01, 5.603, 27.925, 0.229, 0.01
 243220173, 5.155, 28.064, 0.114, 0.01, 5.405, 27.996, 0.191, 0.01
 243420926, 4.898, 28.125, 0.026, 0.01, 5.155, 28.064, 0.114, 0.01
 243620846, 4.633, 28.169, -0.037, 0.01, 4.898, 28.125, 0.026, 0.01
 243820766, 4.374, 28.232, -0.045, 0.01, 4.633, 28.169, -0.037, 0.01
 244020686, 4.124, 28.278, -0.102, 0.01, 4.374, 28.232, -0.045, 0.01
 244220606, 3.871, 28.312, -0.155, 0.01, 4.124, 28.278, -0.102, 0.01
 244420526, 3.612, 28.36, -0.256, 0.01, 3.871, 28.312, -0.155, 0.01
 244620446, 3.369, 28.383, -0.208, 0.01, 3.612, 28.36, -0.256, 0.01
 244820366, 3.107, 28.419, -0.216, 0.01, 3.369, 28.383, -0.208, 0.01
 245020286, 2.881, 28.453, -0.238, 0.01, 3.107, 28.419, -0.216, 0.01
 245220206, 2.649, 28.483, -0.26, 0.01, 2.881, 28.453, -0.238, 0.01
 245420959, 2.454, 28.51, -0.25, 0.01, 2.649, 28.483, -0.26, 0.01
 245620879, 2.264, 28.539, -0.163, 0.01, 2.454, 28.51, -0.25, 0.01
 245820799, 2.036, 28.568, -0.233, 0.01, 2.264, 28.539, -0.163, 0.01
 246020719, 1.82, 28.576, -0.334, 0.01, 2.036, 28.568, -0.233, 0.01
 246220639, 1.663, 28.584, -0.334, 0.01, 1.82, 28.576, -0.334, 0.01
 246420559, 1.511, 28.597, -0.314, 0.01, 1.663, 28.584, -0.334, 0.01
 246620479, 1.376, 28.603, -0.323, 0.01, 1.511, 28.597, -0.314, 0.01
 246820399, 1.229, 28.608, -0.336, 0.01, 1.376, 28.603, -0.323, 0.01
 247020319, 1.076, 28.613, -0.339, 0.01, 1.229, 28.608, -0.336, 0.01
 247220239, 0.96, 28.621, -0.325, 0.01, 1.076, 28.613, -0.339, 0.01
 247420159, 0.846, 28.624, -0.344, 0.01, 0.96, 28.621, -0.325, 0.01
 247620912, 0.701, 28.623, -0.455, 0.01, 0.846, 28.624, -0.344, 0.01
 247820832, 0.566, 28.619, -0.426, 0.01, 0.701, 28.623, -0.455, 0.01
 248020752, 0.488, 28.616, -0.353, 0.01, 0.566, 28.619, -0.426, 0.01
 248220672, 0.42, 28.624, -0.257, 0.01, 0.488, 28.616, -0.353, 0.01
 248420592, 0.354, 28.633, -0.235, 0.01, 0.42, 28.624, -0.257, 0.01
 248620512, 0.283, 28.634, -0.343, 0.01, 0.354, 28.633, -0.235, 0.01
 248820432, 0.223, 28.633, -0.367, 0.01, 0.283, 28.634, -0.343, 0.01
 249020352, 0.141, 28.627, -0.41, 0.01, 0.223, 28.633, -0.367, 0.01
 249220272, 0.09100001, 28.613, -0.349, 0.01, 0.141, 28.627, -0.41, 0.01
 249420192, 0.057, 28.594, -0.298, 0.01, 0.09100001, 28.613, -0.349, 0.01
 249620945, 0.009000001, 28.599, -0.209, 0.01, 0.057, 28.594, -0.298, 0.01
 249820865, -0.047, 28.615, -0.178, 0.01, 0.009000001, 28.599, -0.209, 0.01
 250020785, -0.09, 28.63, -0.216, 0.01, -0.047, 28.615, -0.178, 0.01
 250220705, -0.086, 28.641, -0.239, 0.01, -0.09, 28.63, -0.216, 0.01
 250420625, -0.133, 28.632, -0.276, 0.01, -0.086, 28.641, -0.239, 0.01
 250620545, -0.157, 28.618, -0.201, 0.01, -0.133, 28.632, -0.276, 0.01
 250820465, -0.182, 28.622, -0.186, 0.01, -0.157, 28.618, -0.201, 0.01
 251020385, -0.215, 28.623, -0.185, 0.01, -0.182, 28.622, -0.186, 0.01
 251220305, -0.227, 28.635, -0.167, 0.01, -0.215, 28.623, -0.185, 0.01
 251420225, -0.234, 28.64, -0.118, 0.01, -0.227, 28.635, -0.167, 0.01
 251620145, -0.242, 28.644, -0.106, 0.01, -0.234, 28.64, -0.118, 0.01
 251820898, -0.247, 28.656, -0.146, 0.01, -0.242, 28.644, -0.106, 0.01
 252020818, -0.238, 28.658, -0.172, 0.01, -0.247, 28.656, -0.146, 0.01
 252220738, -0.237, 28.673, -0.14, 0.01, -0.238, 28.658, -0.172, 0.01
 252420658, -0.258, 28.678, -0.191, 0.01, -0.237, 28.673, -0.14, 0.01
 252620578, -0.25, 28.681, -0.193, 0.01, -0.258, 28.678, -0.191, 0.01
 252820498, -0.263, 28.672, -0.179, 0.01, -0.25, 28.681, -0.193, 0.01
 253020418, -0.271, 28.652, -0.089, 0.01, -0.263, 28.672, -0.179, 0.01
 253220338, -0.284, 28.651, -0.071, 0.01, -0.271, 28.652, -0.089, 0.01
 253420258, -0.273, 28.663, -0.129, 0.01, -0.284, 28.651, -0.071, 0.01
 253620178, -0.257, 28.672, -0.146, 0.01, -0.273, 28.663, -0.129, 0.01
 253820931, -0.258, 28.671, -0.134, 0.01, -0.257, 28.672, -0.146, 0.01
 254020851, -0.254, 28.678, -0.079, 0.01, -0.258, 28.671, -0.134, 0.01
 254220771, -0.269, 28.683, -0.07700001, 0.01, -0.254, 28.678, -0.079, 0.01
 254420691, -0.259, 28.686, -0.096, 0.01, -0.269, 28.683, -0.07700001, 0.01
 254620611, -0.216, 28.7, -0.051, 0.01, -0.259, 28.686, -0.096, 0.01
 254820531, -0.202, 28.712, -0.049, 0.01, -0.216, 28.7, -0.051, 0.01
 255020451, -0.197, 28.722, -0.024, 0.01, -0.202, 28.712, -0.049, 0.01
 255220371, -0.16, 28.731, -0.022, 0.01, -0.197, 28.722, -0.024, 0.01
 255420291, -0.159, 28.741, -0.018, 0.01, -0.16, 28.731, -0.022, 0.01
 255620211, -0.151, 28.747, -0.072, 0.01, -0.159, 28.741, -0.018, 0.01
 255820964, -0.141, 28.753, -0.04, 0.01, -0.151, 28.747, -0.072, 0.01
 256020884, -0.135, 28.761, 0.018, 0.01, -0.141, 28.753, -0.04, 0.01
 256220804, -0.121, 28.765, -0.042, 0.01, -0.135, 28.761, 0.018, 0.01
 256420724, -0.136, 28.757, -0.132, 0.01, -0.121, 28.765, -0.042, 0.01
 256620644, -0.147, 28.747, -0.133, 0.01, -0.136, 28.757, -0.132, 0.01
 256820564, -0.131, 28.748, -0.001, 0.01, -0.147, 28.747, -0.133, 0.01
 257020484, -0.109, 28.754, 0.016, 0.01, -0.131, 28.748, -0.001, 0.01
 257220404, -0.082, 28.762, -0.007, 0.01, -0.109, 28.754, 0.016, 0.01
 257420324, -0.098, 28.767, -0.094, 0.01, -0.082, 28.762, -0.007, 0.01
 257620244, -0.103, 28.763, 0.019, 0.01, -0.098, 28.767, -0.094, 0.01
 257820164, -0.097, 28.768, 0.048, 0.01, -0.103, 28.763, 0.019, 0.01
 258020917, -0.09500001, 28.771, -0.042, 0.01, -0.097, 28.768, 0.048, 0.01
 258220837, -0.098, 28.763, -0.083, 0.01, -0.09500001, 28.771, -0.042, 0.01
 258420757, -0.09900001, 28.779, -0.048, 0.01, -0.098, 28.763, -0.083, 0.01
 258620677, -0.09900001, 28.783, 0.039, 0.01, -0.09900001, 28.779, -0.048, 0.01
 258820597, -0.09, 28.786, 0.041, 0.01, -0.09900001, 28.783, 0.039, 0.01
 259020517, -0.08000001, 28.798, -0.029, 0.01, -0.09, 28.786, 0.041, 0.01
 259220437, -0.08400001, 28.81, -0.014, 0.01, -0.08000001, 28.798, -0.029, 0.01
 259420357, -0.081, 28.812, -0.048, 0.01, -0.08400001, 28.81, -0.014, 0.01
 259620277, -0.07700001, 28.804, -0.053, 0.01, -0.081, 28.812, -0.048, 0.01
 259820197, -0.066, 28.811, -0.008, 0.01, -0.07700001, 28.804, -0.053, 0.01
 260020950, -0.059, 28.819, -0.004, 0.01, -0.066, 28.811, -0.008, 0.01
 260220870, -0.055, 28.818, -0.059, 0.01, -0.059, 28.819, -0.004, 0.01
 260420790, -0.059, 28.831, -0.024, 0.01, -0.055, 28.818, -0.059, 0.01
 260620710, -0.064, 28.845, -0.036, 0.01, -0.059, 28.831, -0.024, 0.01
 260820630, -0.047, 28.848, 0, 0.01, -0.064, 28.845, -0.036, 0.01
 261020550, -0.039, 28.862, -0.028, 0.01, -0.047, 28.848, 0, 0.01
 261220470, -0.035, 28.876, -0.047, 0.01, -0.039, 28.862, -0.028, 0.01
 261420390, -0.047, 28.89, 0.022, 0.01, -0.035, 28.876, -0.047, 0.01
 261620310, -0.041, 28.903, 0.108, 0.01, -0.047, 28.89, 0.022, 0.01
 261820230, -0.039, 28.899, 0.031, 0.01, -0.041, 28.903, 0.108, 0.01
 262020150, -0.029, 28.889, -0.087, 0.01, -0.039, 28.899, 0.031, 0.01
 262220903, -0.036, 28.883, -0.129, 0.01, -0.029, 28.889, -0.087, 0.01
 262420823, -0.048, 28.886, -0.106, 0.01, -0.036, 28.883, -0.129, 0.01
 262620743, -0.039, 28.891, -0.107, 0.01, -0.048, 28.886, -0.106, 0.01
 262820663, -0.03, 28.886, -0.035, 0.01, -0.039, 28.891, -0.107, 0.01
 263020583, -0.025, 28.886, -0.042, 0.01, -0.03, 28.886, -0.035, 0.01
 263220503, -0.034, 28.893, -0.014, 0.01, -0.025, 28.886, -0.042, 0.01
 263420423, -0.09, 28.902, -0.026, 0.01, -0.034, 28.893, -0.014, 0.01
 263620343, 0.517, 28.884, -0.108, 0.01, -0.09, 28.902, -0.026, 0.01
 263820263, 1.681, 28.849, 0.075, 0.01, 0.517, 28.884, -0.108, 0.01
 264020183, 3.387, 28.818, 0.47, 0.01, 1.681, 28.849, 0.075, 0.01
 264220936, 5.95, 28.719, 0.825, 0.01, 3.387, 28.818, 0.47, 0.01
 264420856, 9.386001, 28.187, 0.673, 0.01, 5.95, 28.719, 0.825, 0.01
 264620776, 13.212, 26.941, -0.108, 0.01, 9.386001, 28.187, 0.673, 0.01
 264820696, 16.325, 25.406, -0.831, 0.01, 13.212, 26.941, -0.108, 0.01
 265020616, 18.63, 23.828, -1.193, 0.01, 16.325, 25.406, -0.831, 0.01
 265220536, 20.275, 22.315, -1.236, 0.01, 18.63, 23.828, -1.193, 0.01
 265420456, 21.616, 20.814, -1.127, 0.01, 20.275, 22.315, -1.236, 0.01
 265620376, 22.736, 19.359, -0.937, 0.01, 21.616, 20.814, -1.127, 0.01
 265820296, 23.732, 17.886, -0.768, 0.01, 22.736, 19.359, -0.937, 0.01
 266020216, 24.64, 16.355, -0.629, 0.01, 23.732, 17.886, -0.768, 0.01
 266220969, 25.41, 14.87, -0.445, 0.01, 24.64, 16.355, -0.629, 0.01
 266420889, 26.093, 13.369, -0.267, 0.01, 25.41, 14.87, -0.445, 0.01
 266620809, 26.738, 11.768, -0.182, 0.01, 26.093, 13.369, -0.267, 0.01
 266820729, 27.252, 10.251, -0.041, 0.01, 26.738, 11.768, -0.182, 0.01
 267020649, 27.683, 8.756001, 0.06900001, 0.01, 27.252, 10.251, -0.041, 0.01
 267220569, 28.017, 7.316, 0.2, 0.01, 27.683, 8.756001, 0.06900001, 0.01
 267420489, 28.244, 5.959, 0.334, 0.01, 28.017, 7.316, 0.2, 0.01
 267620409, 28.409, 4.581, 0.422, 0.01, 28.244, 5.959, 0.334, 0.01
 267820329, 28.503, 3.276, 0.509, 0.01, 28.409, 4.581, 0.422, 0.01
 268020249, 28.542, 2.019, 0.599, 0.01, 28.503, 3.276, 0.509, 0.01
 268220169, 28.534, 0.777, 0.586, 0.01, 28.542, 2.019, 0.599, 0.01
 268420922, 28.471, -0.377, 0.539, 0.01, 28.534, 0.777, 0.586, 0.01
 268620842, 28.363, -1.344, 0.627, 0.01, 28.471, -0.377, 0.539, 0.01
 268820762, 28.24, -2.208, 0.723, 0.01, 28.363, -1.344, 0.627, 0.01
 269020682, 28.093, -3.018, 0.774, 0.01, 28.24, -2.208, 0.723, 0.01
 269220602, 27.945, -3.761, 0.8100001, 0.01, 28.093, -3.018, 0.774, 0.01
 269420522, 27.791, -4.45, 0.8050001, 0.01, 27.945, -3.761, 0.8100001, 0.01
 269620442, 27.643, -5.047, 0.7590001, 0.01, 27.791, -4.45, 0.8050001, 0.01
 269820362, 27.518, -5.543, 0.772, 0.01, 27.643, -5.047, 0.7590001, 0.01
 270020282, 27.42, -5.959, 0.7870001, 0.01, 27.518, -5.543, 0.772, 0.01
 270220202, 27.334, -6.314, 0.74, 0.01, 27.42, -5.959, 0.7870001, 0.01
 270420955, 27.264, -6.591, 0.771, 0.01, 27.334, -6.314, 0.74, 0.01
 270620875, 27.199, -6.842, 0.717, 0.01, 27.264, -6.591, 0.771, 0.01
 270820795, 27.142, -7.042, 0.6070001, 0.01, 27.199, -6.842, 0.717, 0.01
 271020715, 27.117, -7.173, 0.613, 0.01, 27.142, -7.042, 0.6070001, 0.01
 271220635, 27.105, -7.257, 0.636, 0.01, 27.117, -7.173, 0.613, 0.01
 271420555, 27.137, -7.261, 0.634, 0.01, 27.105, -7.257, 0.636, 0.01
 271620475, 27.181, -7.208, 0.622, 0.01, 27.137, -7.261, 0.634, 0.01
 271820395, 27.233, -7.126, 0.551, 0.01, 27.181, -7.208, 0.622, 0.01
 272020315, 27.284, -7.052001, 0.478, 0.01, 27.233, -7.126, 0.551, 0.01
 272220235, 27.348, -6.947001, 0.41, 0.01, 27.284, -7.052001, 0.478, 0.01
 272420155, 27.415, -6.807, 0.377, 0.01, 27.348, -6.947001, 0.41, 0.01
 272620908, 27.488, -6.63, 0.386, 0.01, 27.415, -6.807, 0.377, 0.01
 272820828, 27.57, -6.417, 0.318, 0.01, 27.488, -6.63, 0.386, 0.01
 273020748, 27.656, -6.198, 0.249, 0.01, 27.57, -6.417, 0.318, 0.01
 273220668, 27.73, -5.977, 0.227, 0.01, 27.656, -6.198, 0.249, 0.01
