TimeUS,COFN,COFE,COFD,CNe,CEe,CDe,POFN,POFE,POFD,PNe,PEe,PDe
 77701407, -0.02512503, -0.01650192, 0.006621061, 0.02634742, -0.02734198, 0.000132458, 0, 0, 0, 0, 0, 0
 77806365, -0.001216589, -0.002974478, -7.244342E-06, 0.02643007, -0.02806059, 0.4000039, -0.02512503, -0.01650192, 0.006621061, 0.02634742, -0.02734198, 0.000132458
 78006285, -0.001141424, -0.001985032, -5.458228E-06, 0.02680251, -0.02841162, 0.400004, -0.001216589, -0.002974478, -7.244342E-06, 0.02643007, -0.02806059, 0.4000039
 78206205, -0.001010812, 0.003857228, 4.575101E-06, 0.02680663, -0.02828546, 0.400004, -0.001141424, -0.001985032, -5.458228E-06, 0.02680251, -0.02841162, 0.400004
 78406125, -0.0004240588, -0.0001831675, -1.102067E-06, 0.02681975, -0.02837356, 0.4000038, -0.001010812, 0.003857228, 4.575101E-06, 0.02680663, -0.02828546, 0.400004
 78606045, 0.001456953, 0.001218448, 4.776641E-06, 0.02686181, -0.02834225, 0.400004, -0.0004240588, -0.0001831675, -1.102067E-06, 0.02681975, -0.02837356, 0.4000038
 78805965, 0.001942253, 0.002342735, 7.591351E-06, 0.02687261, -0.0283196, 0.4000039, 0.001456953, 0.001218448, 4.776641E-06, 0.02686181, -0.02834225, 0.400004
 79005885, -0.002385504, 0.004530898, 3.172651E-06, 0.02677542, -0.02827453, 0.4000039, 0.001942253, 0.002342735, 7.591351E-06, 0.02687261, -0.0283196, 0.4000039
 79205805, -0.0009026984, 0.001590898, 9.976054E-07, 0.02680724, -0.02833883, 0.4000037, -0.002385504, 0.004530898, 3.172651E-06, 0.02677542, -0.02827453, 0.4000039
 79406558, -0.002110169, -0.0004887024, -4.812544E-06, 0.02678067, -0.02838548, 0.4000035, -0.0009026984, 0.001590898, 9.976054E-07, 0.02680724, -0.02833883, 0.4000037
 79606478, -0.00348872, -0.002291621, -1.046855E-05, 0.02675104, -0.02842231, 0.4000037, -0.002110169, -0.0004887024, -4.812544E-06, 0.02678067, -0.02838548, 0.4000035
 79806398, -0.0003068848, 0.003833137, 5.864321E-06, 0.0268219, -0.02828293, 0.4000043, -0.00348872, -0.002291621, -1.046855E-05, 0.02675104, -0.02842231, 0.4000037
 80006318, -0.0005691628, 0.001994677, 2.256267E-06, 0.02681973, -0.02831612, 0.4000044, -0.0003068848, 0.003833137, 5.864321E-06, 0.0268219, -0.02828293, 0.4000043
 80206238, -0.0006650095, 0.002820317, 3.429357E-06, 0.0268205, -0.02829397, 0.4000045, -0.0005691628, 0.001994677, 2.256267E-06, 0.02681973, -0.02831612, 0.4000044
 80406158, 0.000398488, -0.001070839, -1.024903E-06, 0.02684707, -0.02837584, 0.4000044, -0.0006650095, 0.002820317, 3.429357E-06, 0.0268205, -0.02829397, 0.4000045
 80606078, 0.001586788, -0.002477956, -1.128569E-06, 0.02687704, -0.02840419, 0.4000044, 0.000398488, -0.001070839, -1.024903E-06, 0.02684707, -0.02837584, 0.4000044
 80805998, -0.0009941369, -0.001203518, -3.811919E-06, 0.02682282, -0.02837246, 0.4000044, 0.001586788, -0.002477956, -1.128569E-06, 0.02687704, -0.02840419, 0.4000044
 81005918, -0.0001698979, 0.001199253, 1.643422E-06, 0.02684363, -0.02831659, 0.4000046, -0.0009941369, -0.001203518, -3.811919E-06, 0.02682282, -0.02837246, 0.4000044
 81205838, 0.0002002891, -0.0008669293, -1.043948E-06, 0.0268557, -0.02836012, 0.4000044, -0.0001698979, 0.001199253, 1.643422E-06, 0.02684363, -0.02831659, 0.4000046
 81406591, 0.00183822, 0.0006485925, 4.428966E-06, 0.02689407, -0.02832657, 0.4000043, 0.0002002891, -0.0008669293, -1.043948E-06, 0.0268557, -0.02836012, 0.4000044
 81606511, 0.000625545, 0.001222008, 3.133845E-06, 0.02686931, -0.02831258, 0.4000043, 0.00183822, 0.0006485925, 4.428966E-06, 0.02689407, -0.02832657, 0.4000043
 81806431, -0.001138121, 0.002904785, 2.662328E-06, 0.02683042, -0.02827834, 0.4000041, 0.000625545, 0.001222008, 3.133845E-06, 0.02686931, -0.02831258, 0.4000043
 82006351, 0.001542936, 0.001541402, 5.350041E-06, 0.02688824, -0.02830616, 0.4000044, -0.001138121, 0.002904785, 2.662328E-06, 0.02683042, -0.02827834, 0.4000041
 82206271, 0.002373996, 0.000396953, 5.0214E-06, 0.02690515, -0.02832906, 0.4000047, 0.001542936, 0.001541402, 5.350041E-06, 0.02688824, -0.02830616, 0.4000044
 82406191, -0.0003776002, 0.002055485, 2.645244E-06, 0.02684425, -0.02829123, 0.4000047, 0.002373996, 0.000396953, 5.0214E-06, 0.02690515, -0.02832906, 0.4000047
 82606111, 0.001425763, 0.00461479, 1.013053E-05, 0.02688448, -0.02823593, 0.4000049, -0.0003776002, 0.002055485, 2.645244E-06, 0.02684425, -0.02829123, 0.4000047
 82806031, 0.001016998, 0.002813876, 6.451038E-06, 0.02687699, -0.02827416, 0.4000047, 0.001425763, 0.00461479, 1.013053E-05, 0.02688448, -0.02823593, 0.4000049
 83005951, 0.000914463, 0.002386968, 5.577208E-06, 0.02687377, -0.02828368, 0.4000047, 0.001016998, 0.002813876, 6.451038E-06, 0.02687699, -0.02827416, 0.4000047
 83205871, -0.0008853977, 0.00139479, 6.379202E-07, 0.02683403, -0.02830493, 0.4000046, 0.000914463, 0.002386968, 5.577208E-06, 0.02687377, -0.02828368, 0.4000047
 83405791, -0.001103844, -0.001286328, -4.141218E-06, 0.02682872, -0.02836348, 0.4000046, -0.0008853977, 0.00139479, 6.379202E-07, 0.02683403, -0.02830493, 0.4000046
 83606544, 0.001058511, 0.001896106, 5.060562E-06, 0.0268747, -0.02829359, 0.4000049, -0.001103844, -0.001286328, -4.141218E-06, 0.02682872, -0.02836348, 0.4000046
 83806464, -0.0002237907, 0.001860581, 2.626051E-06, 0.02682937, -0.02830823, 0.4081682, 0.001058511, 0.001896106, 5.060562E-06, 0.0268747, -0.02829359, 0.4000049
 84006384, 0.001053516, -0.000651529, 8.994627E-07, 0.02687153, -0.02835073, 0.4000049, -0.0002237907, 0.001860581, 2.626051E-06, 0.02682937, -0.02830823, 0.4081682
 84206304, -0.000315934, 0.0007353131, 6.162059E-07, 0.02684044, -0.02832066, 0.400005, 0.001053516, -0.000651529, 8.994627E-07, 0.02687153, -0.02835073, 0.4000049
 84406224, 0.001138086, -0.002051045, -1.233541E-06, 0.02687104, -0.02838199, 0.400005, -0.000315934, 0.0007353131, 6.162059E-07, 0.02684044, -0.02832066, 0.400005
 84606144, 0.001782281, 0.000191016, 3.667154E-06, 0.02688432, -0.02833307, 0.4000051, 0.001138086, -0.002051045, -1.233541E-06, 0.02687104, -0.02838199, 0.400005
 84806064, -0.0008581776, 0.0007665524, -3.564107E-07, 0.02682792, -0.02831613, 0.4000052, 0.001782281, 0.000191016, 3.667154E-06, 0.02688432, -0.02833307, 0.4000051
 85005984, -0.001990387, 0.0001976122, -3.403703E-06, 0.02680605, -0.02832392, 0.4000053, -0.0008581776, 0.0007665524, -3.564107E-07, 0.02682792, -0.02831613, 0.4000052
 85205904, -0.0005735621, -0.0001645297, -1.33349E-06, 0.02684174, -0.02832871, 0.4000053, -0.001990387, 0.0001976122, -3.403703E-06, 0.02680605, -0.02832392, 0.4000053
 85405824, -0.0006718084, 0.002683526, 3.091853E-06, 0.02684442, -0.02826471, 0.4000052, -0.0005735621, -0.0001645297, -1.33349E-06, 0.02684174, -0.02832871, 0.4000053
 85606577, 0.001053238, 0.0003815473, 2.562802E-06, 0.02688307, -0.02831322, 0.4000052, -0.0006718084, 0.002683526, 3.091853E-06, 0.02684442, -0.02826471, 0.4000052
 85806497, -0.000647641, -0.001654278, -3.857181E-06, 0.02684902, -0.02835698, 0.400005, 0.001053238, 0.0003815473, 2.562802E-06, 0.02688307, -0.02831322, 0.4000052
 86006417, -0.001441986, 0.001268485, -6.106716E-07, 0.02683534, -0.02828904, 0.400005, -0.000647641, -0.001654278, -3.857181E-06, 0.02684902, -0.02835698, 0.400005
 86206337, -0.001627378, 0.0006521069, -1.940085E-06, 0.02683267, -0.02829902, 0.4000052, -0.001441986, 0.001268485, -6.106716E-07, 0.02683534, -0.02828904, 0.400005
 86406257, -0.0003378889, -0.001014889, -2.231112E-06, 0.02686277, -0.02833293, 0.4000052, -0.001627378, 0.0006521069, -1.940085E-06, 0.02683267, -0.02829902, 0.4000052
 86606177, -0.003333806, 0.001445205, -3.795776E-06, 0.02679849, -0.02827848, 0.4000052, -0.0003378889, -0.001014889, -2.231112E-06, 0.02686277, -0.02833293, 0.4000052
 86806097, 0.0015808, 0.003151319, 7.882867E-06, 0.02690765, -0.02823979, 0.4000054, -0.003333806, 0.001445205, -3.795776E-06, 0.02679849, -0.02827848, 0.4000052
 87006017, 0.003021696, -0.0005151588, 4.688877E-06, 0.02694105, -0.02832105, 0.4000052, 0.0015808, 0.003151319, 7.882867E-06, 0.02690765, -0.02823979, 0.4000054
 87205937, 0.002511052, 0.0003558062, 5.146263E-06, 0.02692975, -0.02830153, 0.4000052, 0.003021696, -0.0005151588, 4.688877E-06, 0.02694105, -0.02832105, 0.4000052
 87405857, -0.001169534, -3.937551E-05, -2.19535E-06, 0.02684889, -0.02830888, 0.4000051, 0.002511052, 0.0003558062, 5.146263E-06, 0.02692975, -0.02830153, 0.4000052
 87605777, 0.002388788, -0.000345017, 3.807356E-06, 0.02692815, -0.02831546, 0.4000052, -0.001169534, -3.937551E-05, -2.19535E-06, 0.02684889, -0.02830888, 0.4000051
 87806530, 0.001364129, -0.0001534322, 2.244096E-06, 0.02690558, -0.02831065, 0.4000052, 0.002388788, -0.000345017, 3.807356E-06, 0.02692815, -0.02831546, 0.4000052
 88006450, 0.002430546, -0.001311302, 2.357418E-06, 0.02692804, -0.02833631, 0.4000053, 0.001364129, -0.0001534322, 2.244096E-06, 0.02690558, -0.02831065, 0.4000052
 88206370, 0.003428889, -0.0001010403, 6.108075E-06, 0.02695136, -0.02831127, 0.4000053, 0.002430546, -0.001311302, 2.357418E-06, 0.02692804, -0.02833631, 0.4000053
 88406290, -7.206509E-05, 0.0009445017, 1.383395E-06, 0.0268729, -0.02829032, 0.400005, 0.003428889, -0.0001010403, 6.108075E-06, 0.02695136, -0.02831127, 0.4000053
 88606210, -0.0003504567, 0.0006588706, 4.188542E-07, 0.02686603, -0.02829868, 0.4000049, -7.206509E-05, 0.0009445017, 1.383395E-06, 0.0268729, -0.02829032, 0.400005
 88806130, 0.002232715, 0.001947994, 7.252518E-06, 0.02692325, -0.02827351, 0.4000048, -0.0003504567, 0.0006588706, 4.188542E-07, 0.02686603, -0.02829868, 0.4000049
 89006050, -9.577869E-05, -0.002317022, -3.934419E-06, 0.02687095, -0.02836802, 0.4000046, 0.002232715, 0.001947994, 7.252518E-06, 0.02692325, -0.02827351, 0.4000048
 89205970, -0.00166844, -0.003283845, -8.407827E-06, 0.0268366, -0.02839082, 0.4000044, -9.577869E-05, -0.002317022, -3.934419E-06, 0.02687095, -0.02836802, 0.4000046
 89405890, -0.001725656, -0.003445488, -8.786713E-06, 0.02683059, -0.02839253, 0.4000049, -0.00166844, -0.003283845, -8.407827E-06, 0.0268366, -0.02839082, 0.4000044
 89605810, -0.001795778, -0.003192642, -8.529089E-06, 0.0268265, -0.02838728, 0.400005, -0.001725656, -0.003445488, -8.786713E-06, 0.02683059, -0.02839253, 0.4000049
 89806563, -0.001774819, -0.0004942977, -4.116999E-06, 0.02684031, -0.02831641, 0.3921619, -0.001795778, -0.003192642, -8.529089E-06, 0.0268265, -0.02838728, 0.400005
 90006483, -1.370007E-05, 0.003095523, 5.002062E-06, 0.02686699, -0.02824776, 0.4000052, -0.001774819, -0.0004942977, -4.116999E-06, 0.02684031, -0.02831641, 0.3921619
 90206403, 0.01988746, 0.01901661, 6.734187E-05, 0.02735092, -0.02792841, 0.4000067, -1.370007E-05, 0.003095523, 5.002062E-06, 0.02686699, -0.02824776, 0.4000052
 90406323, -0.01554624, 0.01889626, 1.779148E-06, 0.02655897, -0.02792777, 0.4000051, 0.01988746, 0.01901661, 6.734187E-05, 0.02735092, -0.02792841, 0.4000067
 90606243, 0.01535833, -0.01185328, 9.240965E-06, 0.02724032, -0.0285779, 0.4000055, -0.01554624, 0.01889626, 1.779148E-06, 0.02655897, -0.02792777, 0.4000051
 90806163, -0.02130477, -0.008558786, -5.262464E-05, 0.02645626, -0.02849539, 0.4000044, 0.01535833, -0.01185328, 9.240965E-06, 0.02724032, -0.0285779, 0.4000055
 91006083, -0.01887347, 0.009738875, -1.907856E-05, 0.02650226, -0.02809207, 0.4000051, -0.02130477, -0.008558786, -5.262464E-05, 0.02645626, -0.02849539, 0.4000044
 91206003, -0.01286375, -0.01815881, -5.207748E-05, 0.02661686, -0.02872801, 0.4000044, -0.01887347, 0.009738875, -1.907856E-05, 0.02650226, -0.02809207, 0.4000051
 91405923, -0.01725927, -0.0106187, -4.814498E-05, 0.02653585, -0.02854035, 0.4000044, -0.01286375, -0.01815881, -5.207748E-05, 0.02661686, -0.02872801, 0.4000044
 91605843, -0.005803015, 0.01467221, 1.254499E-05, 0.02676216, -0.02799168, 0.4000057, -0.01725927, -0.0106187, -4.814498E-05, 0.02653585, -0.02854035, 0.4000044
 91805763, -0.01674368, -0.009849644, -4.585087E-05, 0.02654816, -0.0285189, 0.4000044, -0.005803015, 0.01467221, 1.254499E-05, 0.02676216, -0.02799168, 0.4000057
 92006516, -0.01388133, 0.01191619, -6.356444E-06, 0.02660307, -0.02804564, 0.4000051, -0.01674368, -0.009849644, -4.585087E-05, 0.02654816, -0.0285189, 0.4000044
 92206436, -0.007017681, 0.005426833, -4.179735E-06, 0.02673774, -0.02817737, 0.4000052, -0.01388133, 0.01191619, -6.356444E-06, 0.02660307, -0.02804564, 0.4000051
 92406356, -0.009984107, -0.004158352, -2.471601E-05, 0.02667773, -0.02838735, 0.4000047, -0.007017681, 0.005426833, -4.179735E-06, 0.02673774, -0.02817737, 0.4000052
 92606276, 0.01496495, 0.01605102, 5.264983E-05, 0.02724063, -0.02796988, 0.4000062, -0.009984107, -0.004158352, -2.471601E-05, 0.02667773, -0.02838735, 0.4000047
 92806196, -0.01812598, -0.01119906, -5.069932E-05, 0.02652386, -0.0285567, 0.4000039, 0.01496495, 0.01605102, 5.264983E-05, 0.02724063, -0.02796988, 0.4000062
 93006116, -0.003006189, -0.01705943, -3.259033E-05, 0.02682392, -0.0287022, 0.4000042, -0.01812598, -0.01119906, -5.069932E-05, 0.02652386, -0.0285567, 0.4000039
 93206036, -0.004756379, -0.001768248, -1.143768E-05, 0.02678785, -0.02833576, 0.4000047, -0.003006189, -0.01705943, -3.259033E-05, 0.02682392, -0.0287022, 0.4000042
 93405956, -0.005658841, 0.01602575, 1.530291E-05, 0.0267706, -0.02797129, 0.400005, -0.004756379, -0.001768248, -1.143768E-05, 0.02678785, -0.02833576, 0.4000047
 93605876, -0.005652537, -0.001538144, -1.270548E-05, 0.02676982, -0.02833204, 0.4000045, -0.005658841, 0.01602575, 1.530291E-05, 0.0267706, -0.02797129, 0.400005
 93805796, -0.01516256, -0.01052098, -4.440871E-05, 0.02657857, -0.02854132, 0.4000039, -0.005652537, -0.001538144, -1.270548E-05, 0.02676982, -0.02833204, 0.4000045
 94006549, -0.01477632, 0.008226559, -1.37433E-05, 0.02658546, -0.0281257, 0.4000045, -0.01516256, -0.01052098, -4.440871E-05, 0.02657857, -0.02854132, 0.4000039
 94206469, 0.01373798, -0.01964933, -6.305101E-06, 0.02718971, -0.02878534, 0.4081683, -0.01477632, 0.008226559, -1.37433E-05, 0.02658546, -0.0281257, 0.4000045
 94406389, 0.00518268, -0.01095996, -8.119832E-06, 0.02699606, -0.02855713, 0.400005, 0.01373798, -0.01964933, -6.305101E-06, 0.02718971, -0.02878534, 0.4081683
 94606309, 0.001774659, 0.01301609, 2.437871E-05, 0.02691625, -0.02803674, 0.4000056, 0.00518268, -0.01095996, -8.119832E-06, 0.02699606, -0.02855713, 0.400005
 94806229, 0.02199454, -0.00333779, 3.546272E-05, 0.02740909, -0.0283794, 0.4000062, 0.001774659, 0.01301609, 2.437871E-05, 0.02691625, -0.02803674, 0.4000056
 95006149, 0.005815037, 0.007483053, 2.301663E-05, 0.02700512, -0.02814912, 0.4000057, 0.02199454, -0.00333779, 3.546272E-05, 0.02740909, -0.0283794, 0.4000062
 95206069, 0.01056663, -0.01676632, -7.583354E-06, 0.02712206, -0.02870253, 0.400005, 0.005815037, 0.007483053, 2.301663E-05, 0.02700512, -0.02814912, 0.4000057
 95405989, 0.02314736, -0.009235108, 2.782886E-05, 0.02744506, -0.02851394, 0.4000058, 0.01056663, -0.01676632, -7.583354E-06, 0.02712206, -0.02870253, 0.400005
 95605909, 0.01453911, -0.01981204, -4.94179E-06, 0.02722178, -0.02877511, 0.4000053, 0.02314736, -0.009235108, 2.782886E-05, 0.02744506, -0.02851394, 0.4000058
 95805829, 0.0004312615, 0.002428527, 4.679492E-06, 0.02689156, -0.02824409, 0.4000055, 0.01453911, -0.01981204, -4.94179E-06, 0.02722178, -0.02877511, 0.4000053
 96006582, -0.0117371, -0.003909053, -2.779618E-05, 0.02663931, -0.02838059, 0.400005, 0.0004312615, 0.002428527, 4.679492E-06, 0.02689156, -0.02824409, 0.4000055
 96206502, -0.02209557, 0.003303879, -3.495594E-05, 0.02645461, -0.02822292, 0.4000043, -0.0117371, -0.003909053, -2.779618E-05, 0.02663931, -0.02838059, 0.400005
 96406422, 0.002072225, -0.003127049, -1.217427E-06, 0.02693968, -0.02836313, 0.4000049, -0.02209557, 0.003303879, -3.495594E-05, 0.02645461, -0.02822292, 0.4000043
 96606342, -0.01097492, -0.004633843, -2.726028E-05, 0.02666478, -0.0283967, 0.4000044, 0.002072225, -0.003127049, -1.217427E-06, 0.02693968, -0.02836313, 0.4000049
 96806262, 0.01146821, -0.002514743, 1.680278E-05, 0.02715995, -0.0283466, 0.4000055, -0.01097492, -0.004633843, -2.726028E-05, 0.02666478, -0.0283967, 0.4000044
 97006182, -0.01153202, 0.004811419, -1.33296E-05, 0.02665333, -0.02818471, 0.400005, 0.01146821, -0.002514743, 1.680278E-05, 0.02715995, -0.0283466, 0.4000055
 97206102, -0.00306439, -0.008533929, -1.903296E-05, 0.02682846, -0.02848376, 0.4000047, -0.01153202, 0.004811419, -1.33296E-05, 0.02665333, -0.02818471, 0.400005
 97406022, -0.01559799, 0.006676288, -1.761305E-05, 0.02657876, -0.02814677, 0.4000046, -0.00306439, -0.008533929, -1.903296E-05, 0.02682846, -0.02848376, 0.4000047
 97605942, 0.004857099, -0.01851027, -2.057165E-05, 0.02700611, -0.0287329, 0.4000044, -0.01559799, 0.006676288, -1.761305E-05, 0.02657876, -0.02814677, 0.4000046
 97805862, 0.019321, -0.01780086, 6.607941E-06, 0.02735946, -0.02871744, 0.4000049, 0.004857099, -0.01851027, -2.057165E-05, 0.02700611, -0.0287329, 0.4000044
 98005782, 0.01601586, 0.0009503735, 3.056493E-05, 0.02727323, -0.0282729, 0.4000055, 0.019321, -0.01780086, 6.607941E-06, 0.02735946, -0.02871744, 0.4000049
 98206535, -0.005396503, -0.01368076, -3.159941E-05, 0.02678021, -0.0286142, 0.400004, 0.01601586, 0.0009503735, 3.056493E-05, 0.02727323, -0.0282729, 0.4000055
 98406455, 0.0154572, -0.01219681, 8.482593E-06, 0.02726192, -0.02857736, 0.4000048, -0.005396503, -0.01368076, -3.159941E-05, 0.02678021, -0.0286142, 0.400004
 98606375, 0.01516142, -0.01107418, 9.671316E-06, 0.02725592, -0.02855054, 0.4000047, 0.0154572, -0.01219681, 8.482593E-06, 0.02726192, -0.02857736, 0.4000048
 98806295, 0.01695047, -0.008515654, 1.70989E-05, 0.02729811, -0.02849018, 0.400005, 0.01516142, -0.01107418, 9.671316E-06, 0.02725592, -0.02855054, 0.4000047
 99006215, 0.01795921, -0.005816868, 2.338987E-05, 0.02731985, -0.02843004, 0.4000052, 0.01695047, -0.008515654, 1.70989E-05, 0.02729811, -0.02849018, 0.400005
 99206135, 0.01616096, -0.006793511, 1.844451E-05, 0.02727492, -0.02845641, 0.4000048, 0.01795921, -0.005816868, 2.338987E-05, 0.02731985, -0.02843004, 0.4000052
 99406055, 0.01712812, -0.008015138, 1.830521E-05, 0.02729781, -0.02848519, 0.4000049, 0.01616096, -0.006793511, 1.844451E-05, 0.02727492, -0.02845641, 0.4000048
 99605975, 0.01929984, -0.00765491, 2.297219E-05, 0.02735105, -0.02847765, 0.4000051, 0.01712812, -0.008015138, 1.830521E-05, 0.02729781, -0.02848519, 0.4000049
 99805895, 0.01706164, -0.007711568, 1.888961E-05, 0.02729009, -0.02848083, 0.4000051, 0.01929984, -0.00765491, 2.297219E-05, 0.02735105, -0.02847765, 0.4000051
 100005815, 0.01522904, -0.009216904, 1.308224E-05, 0.02724248, -0.02851786, 0.400005, 0.01706164, -0.007711568, 1.888961E-05, 0.02729009, -0.02848083, 0.4000051
 100206568, 0.01751118, -0.006159168, 2.239245E-05, 0.02731224, -0.02843401, 0.3921622, 0.01522904, -0.009216904, 1.308224E-05, 0.02724248, -0.02851786, 0.400005
 100406488, 0.01768899, -0.008285932, 1.910412E-05, 0.0269319, -0.02812371, 0.4000049, 0.01751118, -0.006159168, 2.239245E-05, 0.02731224, -0.02843401, 0.3921622
 100606408, 0.01306876, -0.007012095, 1.255117E-05, 0.02719359, -0.02846428, 0.4000047, 0.01768899, -0.008285932, 1.910412E-05, 0.0269319, -0.02812371, 0.4000049
 100806328, 0.01671769, -0.007485363, 1.84115E-05, 0.02728782, -0.02847204, 0.4000049, 0.01306876, -0.007012095, 1.255117E-05, 0.02719359, -0.02846428, 0.4000047
 101006248, 0.01593839, -0.01111401, 1.100738E-05, 0.0272719, -0.02855714, 0.4000046, 0.01671769, -0.007485363, 1.84115E-05, 0.02728782, -0.02847204, 0.4000049
 101206168, 0.01895851, -0.007490081, 2.220917E-05, 0.02735237, -0.02846904, 0.4000047, 0.01593839, -0.01111401, 1.100738E-05, 0.0272719, -0.02855714, 0.4000046
 101406088, 0.01879315, -0.01043394, 1.709574E-05, 0.02735092, -0.02853692, 0.4000047, 0.01895851, -0.007490081, 2.220917E-05, 0.02735237, -0.02846904, 0.4000047
 101606008, 0.0146511, -0.007481852, 1.430216E-05, 0.02724781, -0.02846583, 0.4000044, 0.01879315, -0.01043394, 1.709574E-05, 0.02735092, -0.02853692, 0.4000047
 101805928, 0.0176595, -0.007388217, 1.979624E-05, 0.02732545, -0.02846285, 0.4000045, 0.0146511, -0.007481852, 1.430216E-05, 0.02724781, -0.02846583, 0.4000044
 102005848, 0.01818596, -0.01119634, 1.468575E-05, 0.02733913, -0.02855227, 0.4000045, 0.0176595, -0.007388217, 1.979624E-05, 0.02732545, -0.02846285, 0.4000045
 102205768, 0.01677022, -0.00962837, 1.470107E-05, 0.02730246, -0.02851311, 0.4000046, 0.01818596, -0.01119634, 1.468575E-05, 0.02733913, -0.02855227, 0.4000045
 102406521, 0.01598928, -0.00895533, 1.44204E-05, 0.02729622, -0.02848328, 0.3921616, 0.01677022, -0.00962837, 1.470107E-05, 0.02730246, -0.02851311, 0.4000046
 102606441, 0.01764988, -0.0109177, 1.428737E-05, 0.02732449, -0.02854252, 0.4000047, 0.01598928, -0.00895533, 1.44204E-05, 0.02729622, -0.02848328, 0.3921616
 102806361, 0.01403044, -0.009461995, 9.930143E-06, 0.02723612, -0.02851073, 0.4000042, 0.01764988, -0.0109177, 1.428737E-05, 0.02732449, -0.02854252, 0.4000047
 103006281, 0.01507337, -0.008070745, 1.38925E-05, 0.02726437, -0.02847929, 0.4000041, 0.01403044, -0.009461995, 9.930143E-06, 0.02723612, -0.02851073, 0.4000042
 103206201, 0.01553712, -0.01009949, 1.15579E-05, 0.02727393, -0.02852757, 0.4000041, 0.01507337, -0.008070745, 1.38925E-05, 0.02726437, -0.02847929, 0.4000041
 103406121, 0.01535162, -0.008630211, 1.365358E-05, 0.02726718, -0.02849252, 0.4000043, 0.01553712, -0.01009949, 1.15579E-05, 0.02727393, -0.02852757, 0.4000041
 103606041, 0.01473277, -0.005083232, 1.831713E-05, 0.02724911, -0.02840913, 0.4000046, 0.01535162, -0.008630211, 1.365358E-05, 0.02726718, -0.02849252, 0.4000043
 103805961, 0.01385838, -0.007143985, 1.354887E-05, 0.02722474, -0.02845679, 0.4000047, 0.01473277, -0.005083232, 1.831713E-05, 0.02724911, -0.02840913, 0.4000046
 104005881, 0.01460172, -0.004057655, 1.985853E-05, 0.02724184, -0.02838669, 0.4000049, 0.01385838, -0.007143985, 1.354887E-05, 0.02722474, -0.02845679, 0.4000047
 104205801, 0.01653982, -0.009081929, 1.530911E-05, 0.02729042, -0.02850471, 0.4000047, 0.01460172, -0.004057655, 1.985853E-05, 0.02724184, -0.02838669, 0.4000049
 104406554, 0.01864607, -0.01193117, 1.458295E-05, 0.02735727, -0.02856177, 0.3921616, 0.01653982, -0.009081929, 1.530911E-05, 0.02729042, -0.02850471, 0.4000047
 104606474, 0.01771592, -0.008843667, 1.78369E-05, 0.02731819, -0.02850269, 0.4000047, 0.01864607, -0.01193117, 1.458295E-05, 0.02735727, -0.02856177, 0.3921616
 104806394, 0.01804812, -0.007664571, 2.036247E-05, 0.0273252, -0.02847732, 0.4000047, 0.01771592, -0.008843667, 1.78369E-05, 0.02731819, -0.02850269, 0.4000047
 105006314, 0.0199703, -0.007729635, 2.382086E-05, 0.02737302, -0.0284804, 0.4000048, 0.01804812, -0.007664571, 2.036247E-05, 0.0273252, -0.02847732, 0.4000047
 105206234, 0.01641758, -0.01021284, 1.336556E-05, 0.02727857, -0.02854267, 0.4000045, 0.0199703, -0.007729635, 2.382086E-05, 0.02737302, -0.0284804, 0.4000048
 105406154, 0.01637518, -0.009881841, 1.385723E-05, 0.02727446, -0.02853862, 0.4000045, 0.01641758, -0.01021284, 1.336556E-05, 0.02727857, -0.02854267, 0.4000045
 105606074, 0.01685273, -0.01014508, 1.427295E-05, 0.02728728, -0.02854484, 0.4000044, 0.01637518, -0.009881841, 1.385723E-05, 0.02727446, -0.02853862, 0.4000045
 105805994, 0.0146877, -0.01063894, 9.445548E-06, 0.02723612, -0.02855348, 0.4000043, 0.01685273, -0.01014508, 1.427295E-05, 0.02728728, -0.02854484, 0.4000044
 106005914, 0.01697181, -0.01194236, 1.146884E-05, 0.02729626, -0.02858215, 0.4000044, 0.0146877, -0.01063894, 9.445548E-06, 0.02723612, -0.02855348, 0.4000043
 106205834, 0.01734078, -0.006832171, 2.041485E-05, 0.02730695, -0.02845718, 0.4000047, 0.01697181, -0.01194236, 1.146884E-05, 0.02729626, -0.02858215, 0.4000044
 106406587, 0.01619938, -0.005691189, 2.023436E-05, 0.02727744, -0.0284281, 0.4000049, 0.01734078, -0.006832171, 2.041485E-05, 0.02730695, -0.02845718, 0.4000047
 106606507, 0.01512136, -0.005634459, 1.839966E-05, 0.02725013, -0.0284245, 0.400005, 0.01619938, -0.005691189, 2.023436E-05, 0.02727744, -0.0284281, 0.4000049
 106806427, 0.01924609, -0.007961399, 2.215538E-05, 0.0273562, -0.02847671, 0.4000053, 0.01512136, -0.005634459, 1.839966E-05, 0.02725013, -0.0284245, 0.400005
 107006347, 0.01680501, -0.008516511, 1.692657E-05, 0.02729292, -0.02848698, 0.4000054, 0.01924609, -0.007961399, 2.215538E-05, 0.0273562, -0.02847671, 0.4000053
 107206267, 0.01627953, -0.006711528, 1.876143E-05, 0.02728105, -0.02844529, 0.4000053, 0.01680501, -0.008516511, 1.692657E-05, 0.02729292, -0.02848698, 0.4000054
 107406187, 0.01775531, -0.007129082, 2.07467E-05, 0.02731916, -0.02845466, 0.4000053, 0.01627953, -0.006711528, 1.876143E-05, 0.02728105, -0.02844529, 0.4000053
 107606107, 0.01781034, -0.009983474, 1.627836E-05, 0.0273216, -0.02852192, 0.4000052, 0.01775531, -0.007129082, 2.07467E-05, 0.02731916, -0.02845466, 0.4000053
 107806027, 0.01775177, -0.008599275, 1.823893E-05, 0.02732277, -0.02848915, 0.400005, 0.01781034, -0.009983474, 1.627836E-05, 0.0273216, -0.02852192, 0.4000052
 108005947, 0.01725107, -0.007732368, 1.860513E-05, 0.02731155, -0.0284706, 0.4000048, 0.01775177, -0.008599275, 1.823893E-05, 0.02732277, -0.02848915, 0.400005
 108205867, 0.01483793, -0.01083793, 9.274685E-06, 0.02725063, -0.02854702, 0.4000044, 0.01725107, -0.007732368, 1.860513E-05, 0.02731155, -0.0284706, 0.4000048
 108405787, 0.01269128, -0.008439201, 9.104181E-06, 0.0271995, -0.02849353, 0.4000039, 0.01483793, -0.01083793, 9.274685E-06, 0.02725063, -0.02854702, 0.4000044
 108606540, 0.01289225, -0.008446037, 9.389121E-06, 0.02721878, -0.02848346, 0.3921607, 0.01269128, -0.008439201, 9.104181E-06, 0.0271995, -0.02849353, 0.4000039
 108806460, 0.01343055, -0.008479422, 1.03985E-05, 0.0272006, -0.0285097, 0.4081672, 0.01289225, -0.008446037, 9.389121E-06, 0.02721878, -0.02848346, 0.3921607
 109006380, 0.01608785, -0.007253729, 1.723627E-05, 0.02727883, -0.02846836, 0.4000043, 0.01343055, -0.008479422, 1.03985E-05, 0.0272006, -0.0285097, 0.4081672
 109206300, 0.0158583, -0.006225097, 1.857007E-05, 0.02727102, -0.02844372, 0.4000045, 0.01608785, -0.007253729, 1.723627E-05, 0.02727883, -0.02846836, 0.4000043
 109406220, 0.01656853, -0.007588416, 1.774667E-05, 0.02728718, -0.02847474, 0.4000047, 0.0158583, -0.006225097, 1.857007E-05, 0.02727102, -0.02844372, 0.4000045
 109606140, 0.01833091, -0.007833412, 2.05506E-05, 0.02733149, -0.0284817, 0.4000047, 0.01656853, -0.007588416, 1.774667E-05, 0.02728718, -0.02847474, 0.4000047
 109806060, 0.01816398, -0.009667134, 1.726499E-05, 0.02732658, -0.02852766, 0.4000045, 0.01833091, -0.007833412, 2.05506E-05, 0.02733149, -0.0284817, 0.4000047
 110005980, 0.01844054, -0.008088854, 2.044459E-05, 0.02733047, -0.02849125, 0.4000047, 0.01816398, -0.009667134, 1.726499E-05, 0.02732658, -0.02852766, 0.4000045
 110205900, 0.01499487, -0.005885543, 1.765475E-05, 0.02724312, -0.02844512, 0.4000042, 0.01844054, -0.008088854, 2.044459E-05, 0.02733047, -0.02849125, 0.4000047
 110405820, 0.01310006, -0.01064294, 6.342305E-06, 0.02719539, -0.02856193, 0.4000038, 0.01499487, -0.005885543, 1.765475E-05, 0.02724312, -0.02844512, 0.4000042
 110606573, 0.01503734, -0.01192106, 7.889381E-06, 0.02723972, -0.02859381, 0.4000039, 0.01310006, -0.01064294, 6.342305E-06, 0.02719539, -0.02856193, 0.4000038
 110806493, 0.01714274, -0.01056097, 1.394757E-05, 0.02729418, -0.02856, 0.4000041, 0.01503734, -0.01192106, 7.889381E-06, 0.02723972, -0.02859381, 0.4000039
 111006413, 0.01693428, -0.01024146, 1.403389E-05, 0.02729269, -0.02854791, 0.4000041, 0.01714274, -0.01056097, 1.394757E-05, 0.02729418, -0.02856, 0.4000041
 111206333, 0.01509464, -0.01157084, 8.474901E-06, 0.02724967, -0.02857711, 0.400004, 0.01693428, -0.01024146, 1.403389E-05, 0.02729269, -0.02854791, 0.4000041
 111406253, 0.01472729, -0.00920923, 1.168102E-05, 0.02724092, -0.0285176, 0.4000042, 0.01509464, -0.01157084, 8.474901E-06, 0.02724967, -0.02857711, 0.400004
 111606173, 0.01309709, -0.01209302, 4.114916E-06, 0.02720176, -0.02858468, 0.4000041, 0.01472729, -0.00920923, 1.168102E-05, 0.02724092, -0.0285176, 0.4000042
 111806093, 0.01761178, -0.01165509, 1.287831E-05, 0.02731843, -0.02857136, 0.4000043, 0.01309709, -0.01209302, 4.114916E-06, 0.02720176, -0.02858468, 0.4000041
 112006013, 0.01768294, -0.009229125, 1.6765E-05, 0.02732221, -0.02851418, 0.4000042, 0.01761178, -0.01165509, 1.287831E-05, 0.02731843, -0.02857136, 0.4000043
 112205933, 0.02043406, -0.005853853, 2.701991E-05, 0.02739476, -0.02843447, 0.4000044, 0.01768294, -0.009229125, 1.6765E-05, 0.02732221, -0.02851418, 0.4000042
 112405853, 0.01850113, -0.007034196, 2.168421E-05, 0.02734505, -0.02846014, 0.4000043, 0.02043406, -0.005853853, 2.701991E-05, 0.02739476, -0.02843447, 0.4000044
 112605773, 0.01560212, -0.005102645, 1.957614E-05, 0.02727175, -0.02841551, 0.4000042, 0.01850113, -0.007034196, 2.168421E-05, 0.02734505, -0.02846014, 0.4000043
 112806526, 0.01768317, -0.00505133, 2.329587E-05, 0.0273256, -0.0284152, 0.4000042, 0.01560212, -0.005102645, 1.957614E-05, 0.02727175, -0.02841551, 0.4000042
 113006446, 0.01929603, -0.007087489, 2.297128E-05, 0.02735095, -0.02847608, 0.4081676, 0.01768317, -0.00505133, 2.329587E-05, 0.0273256, -0.0284152, 0.4000042
 113206366, 0.01431586, -0.005993178, 1.588322E-05, 0.02723796, -0.02843786, 0.4000041, 0.01929603, -0.007087489, 2.297128E-05, 0.02735095, -0.02847608, 0.4081676
 113406286, 0.01617107, -0.009074626, 1.422239E-05, 0.02728451, -0.02851181, 0.4000039, 0.01431586, -0.005993178, 1.588322E-05, 0.02723796, -0.02843786, 0.4000041
 113606206, 0.016127, -0.006349784, 1.849718E-05, 0.02728325, -0.02844872, 0.400004, 0.01617107, -0.009074626, 1.422239E-05, 0.02728451, -0.02851181, 0.4000039
 113806126, 0.01755179, -0.005813176, 2.198891E-05, 0.02731753, -0.02843544, 0.4000042, 0.016127, -0.006349784, 1.849718E-05, 0.02728325, -0.02844872, 0.400004
 114006046, 0.02082107, -0.008556019, 2.352533E-05, 0.02740038, -0.02849973, 0.4000045, 0.01755179, -0.005813176, 2.198891E-05, 0.02731753, -0.02843544, 0.4000042
 114205966, 0.0199558, -0.01221749, 1.613957E-05, 0.0273767, -0.02858868, 0.4000043, 0.02082107, -0.008556019, 2.352533E-05, 0.02740038, -0.02849973, 0.4000045
 114405886, 0.0176747, -0.01128278, 1.357487E-05, 0.02731656, -0.02856685, 0.4000043, 0.0199558, -0.01221749, 1.613957E-05, 0.0273767, -0.02858868, 0.4000043
 114605806, 0.01633649, -0.01131043, 1.112392E-05, 0.0272814, -0.02856921, 0.4000041, 0.0176747, -0.01128278, 1.357487E-05, 0.02731656, -0.02856685, 0.4000043
 114806559, 0.01824498, -0.008159576, 1.963956E-05, 0.02732881, -0.02849599, 0.4000042, 0.01633649, -0.01131043, 1.112392E-05, 0.0272814, -0.02856921, 0.4000041
 115006479, 0.01486595, -0.008797544, 1.253582E-05, 0.02724203, -0.02851234, 0.400004, 0.01824498, -0.008159576, 1.963956E-05, 0.02732881, -0.02849599, 0.4000042
 115206399, 0.01643699, -0.008375476, 1.606867E-05, 0.02728045, -0.02850378, 0.4000042, 0.01486595, -0.008797544, 1.253582E-05, 0.02724203, -0.02851234, 0.400004
 115406319, 0.01855585, -0.006990729, 2.226908E-05, 0.02733143, -0.02847241, 0.4000044, 0.01643699, -0.008375476, 1.606867E-05, 0.02728045, -0.02850378, 0.4000042
 115606239, 0.01775383, -0.005231405, 2.376154E-05, 0.0273084, -0.02843314, 0.4000045, 0.01855585, -0.006990729, 2.226908E-05, 0.02733143, -0.02847241, 0.4000044
 115806159, 0.01798544, -0.006032838, 2.290471E-05, 0.02731287, -0.02845423, 0.4000044, 0.01775383, -0.005231405, 2.376154E-05, 0.0273084, -0.02843314, 0.4000045
 116006079, 0.01480365, -0.007291986, 1.497947E-05, 0.0272348, -0.02848148, 0.4000041, 0.01798544, -0.006032838, 2.290471E-05, 0.02731287, -0.02845423, 0.4000044
 116205999, 0.01353799, -0.009572876, 8.921927E-06, 0.02720674, -0.02853222, 0.400004, 0.01480365, -0.007291986, 1.497947E-05, 0.0272348, -0.02848148, 0.4000041
 116405919, 0.01508322, -0.008958496, 1.268484E-05, 0.02724745, -0.02851464, 0.4000042, 0.01353799, -0.009572876, 8.921927E-06, 0.02720674, -0.02853222, 0.400004
 116605839, 0.01484995, -0.006897545, 1.560507E-05, 0.02724171, -0.02846442, 0.4000043, 0.01508322, -0.008958496, 1.268484E-05, 0.02724745, -0.02851464, 0.4000042
 116806592, 0.01475095, -0.006830876, 1.552215E-05, 0.02723958, -0.0284624, 0.4000044, 0.01484995, -0.006897545, 1.560507E-05, 0.02724171, -0.02846442, 0.4000043
 117006512, 0.01632635, -0.008050902, 1.638199E-05, 0.02728025, -0.02848932, 0.4000044, 0.01475095, -0.006830876, 1.552215E-05, 0.02723958, -0.0284624, 0.4000044
 117206432, 0.01804855, -0.009875452, 1.658173E-05, 0.02732463, -0.02853052, 0.4000046, 0.01632635, -0.008050902, 1.638199E-05, 0.02728025, -0.02848932, 0.4000044
 117406352, 0.01586977, -0.01025202, 1.218813E-05, 0.02726772, -0.02853727, 0.4000047, 0.01804855, -0.009875452, 1.658173E-05, 0.02732463, -0.02853052, 0.4000046
 117606272, 0.01590531, -0.007017805, 1.735074E-05, 0.02726972, -0.02845976, 0.4000048, 0.01586977, -0.01025202, 1.218813E-05, 0.02726772, -0.02853727, 0.4000047
 117806192, 0.0201168, -0.008810874, 2.206321E-05, 0.02737799, -0.02850117, 0.400005, 0.01590531, -0.007017805, 1.735074E-05, 0.02726972, -0.02845976, 0.4000048
 118006112, 0.0171854, -0.0100759, 1.487881E-05, 0.02730146, -0.02853001, 0.400005, 0.0201168, -0.008810874, 2.206321E-05, 0.02737799, -0.02850117, 0.400005
 118206032, 0.01480606, -0.008547005, 1.30382E-05, 0.02724142, -0.02849274, 0.400005, 0.0171854, -0.0100759, 1.487881E-05, 0.02730146, -0.02853001, 0.400005
 118405952, 0.0186518, -0.008343464, 2.020732E-05, 0.0273398, -0.02848845, 0.4000051, 0.01480606, -0.008547005, 1.30382E-05, 0.02724142, -0.02849274, 0.400005
 118605872, 0.01802233, -0.00690769, 2.141859E-05, 0.02732202, -0.02845434, 0.4000053, 0.0186518, -0.008343464, 2.020732E-05, 0.0273398, -0.02848845, 0.4000051
 118805792, 0.01380665, -0.009644048, 9.597978E-06, 0.02721257, -0.0285211, 0.400005, 0.01802233, -0.00690769, 2.141859E-05, 0.02732202, -0.02845434, 0.4000053
 119006545, 0.01626643, -0.007263549, 1.792667E-05, 0.02728446, -0.02845361, 0.3921623, 0.01380665, -0.009644048, 9.597978E-06, 0.02721257, -0.0285211, 0.400005
 119206465, 0.01771015, -0.007620302, 2.000765E-05, 0.02730654, -0.02847385, 0.4000055, 0.01626643, -0.007263549, 1.792667E-05, 0.02728446, -0.02845361, 0.3921623
 119406385, 0.01625541, -0.00828234, 1.632893E-05, 0.02726875, -0.02849064, 0.4000054, 0.01771015, -0.007620302, 2.000765E-05, 0.02730654, -0.02847385, 0.4000055
 119606305, 0.01772138, -0.01064008, 1.515995E-05, 0.0273062, -0.02855021, 0.4000052, 0.01625541, -0.00828234, 1.632893E-05, 0.02726875, -0.02849064, 0.4000054
 119806225, 0.02163307, -0.007485259, 2.746722E-05, 0.02740471, -0.02847459, 0.4000057, 0.01772138, -0.01064008, 1.515995E-05, 0.0273062, -0.02855021, 0.4000052
 120006145, 0.02060241, -0.009221235, 2.300086E-05, 0.0273736, -0.02851697, 0.4000058, 0.02163307, -0.007485259, 2.746722E-05, 0.02740471, -0.02847459, 0.4000057
 120206065, 0.01844919, -0.007055966, 2.252534E-05, 0.0273168, -0.02846711, 0.4000057, 0.02060241, -0.009221235, 2.300086E-05, 0.0273736, -0.02851697, 0.4000058
 120405985, 0.01619486, -0.008536043, 1.606525E-05, 0.02725713, -0.02850412, 0.4000055, 0.01844919, -0.007055966, 2.252534E-05, 0.0273168, -0.02846711, 0.4000057
 120605905, 0.01582204, -0.007822395, 1.666707E-05, 0.02724333, -0.0284889, 0.4000057, 0.01619486, -0.008536043, 1.606525E-05, 0.02725713, -0.02850412, 0.4000055
 120805825, 0.01584028, -0.00871006, 1.536043E-05, 0.02723961, -0.02851354, 0.4000057, 0.01582204, -0.007822395, 1.666707E-05, 0.02724333, -0.0284889, 0.4000057
 121006578, 0.01833156, -0.007945616, 2.128843E-05, 0.02730077, -0.02849809, 0.4000058, 0.01584028, -0.00871006, 1.536043E-05, 0.02723961, -0.02851354, 0.4000057
 121206498, 0.01498897, -0.009606402, 1.245694E-05, 0.02721524, -0.02853396, 0.4000059, 0.01833156, -0.007945616, 2.128843E-05, 0.02730077, -0.02849809, 0.4000058
 121406418, 0.0120663, -0.007855949, 9.829961E-06, 0.02714588, -0.02848739, 0.400006, 0.01498897, -0.009606402, 1.245694E-05, 0.02721524, -0.02853396, 0.4000059
 121606338, 0.01499561, -0.006662794, 1.712649E-05, 0.02722116, -0.02845632, 0.4000062, 0.0120663, -0.007855949, 9.829961E-06, 0.02714588, -0.02848739, 0.400006
 121806258, 0.01904879, -0.01053438, 1.832495E-05, 0.02732823, -0.02854639, 0.4000061, 0.01499561, -0.006662794, 1.712649E-05, 0.02722116, -0.02845632, 0.4000062
 122006178, 0.01612658, -0.007675528, 1.725716E-05, 0.02725922, -0.02847757, 0.4000058, 0.01904879, -0.01053438, 1.832495E-05, 0.02732823, -0.02854639, 0.4000061
 122206098, 0.01862571, -0.008772323, 1.992004E-05, 0.02732652, -0.02850333, 0.4000056, 0.01612658, -0.007675528, 1.725716E-05, 0.02725922, -0.02847757, 0.4000058
 122406018, 0.01697489, -0.009126601, 1.650373E-05, 0.02728226, -0.02850884, 0.4000058, 0.01862571, -0.008772323, 1.992004E-05, 0.02732652, -0.02850333, 0.4000056
 122605938, 0.01770042, -0.0090778, 1.780963E-05, 0.02730092, -0.0285113, 0.4000056, 0.01697489, -0.009126601, 1.650373E-05, 0.02728226, -0.02850884, 0.4000058
 122805858, 0.01641592, -0.008104881, 1.69526E-05, 0.02726819, -0.02849102, 0.4000054, 0.01770042, -0.0090778, 1.780963E-05, 0.02730092, -0.0285113, 0.4000056
 123005778, 0.01637118, -0.008136907, 1.68531E-05, 0.02726575, -0.02849264, 0.4000054, 0.01641592, -0.008104881, 1.69526E-05, 0.02726819, -0.02849102, 0.4000054
 123206531, 0.01559039, -0.01132874, 1.032783E-05, 0.02724645, -0.0285691, 0.4000052, 0.01637118, -0.008136907, 1.68531E-05, 0.02726575, -0.02849264, 0.4000054
 123406451, 0.01883011, -0.007834244, 2.180613E-05, 0.02732892, -0.02848514, 0.4000055, 0.01559039, -0.01132874, 1.032783E-05, 0.02724645, -0.0285691, 0.4000052
 123606371, 0.01519493, -0.005351271, 1.925024E-05, 0.02723419, -0.02842463, 0.4000058, 0.01883011, -0.007834244, 2.180613E-05, 0.02732892, -0.02848514, 0.4000055
 123806291, 0.01454486, -0.005470327, 1.801602E-05, 0.02721477, -0.02842533, 0.4000061, 0.01519493, -0.005351271, 1.925024E-05, 0.02723419, -0.02842463, 0.4000058
 124006211, 0.0167635, -0.005628027, 2.186238E-05, 0.02726989, -0.02842931, 0.4000063, 0.01454486, -0.005470327, 1.801602E-05, 0.02721477, -0.02842533, 0.4000061
 124206131, 0.01946229, -0.01041697, 1.909689E-05, 0.0273412, -0.02854461, 0.4000059, 0.0167635, -0.005628027, 2.186238E-05, 0.02726989, -0.02842931, 0.4000063
 124406051, 0.01699919, -0.01124298, 1.301634E-05, 0.02728137, -0.02856847, 0.4000052, 0.01946229, -0.01041697, 1.909689E-05, 0.0273412, -0.02854461, 0.4000059
 124605971, 0.01674566, -0.009366084, 1.55453E-05, 0.02727462, -0.0285239, 0.4000053, 0.01699919, -0.01124298, 1.301634E-05, 0.02728137, -0.02856847, 0.4000052
 124805891, 0.02023502, -0.008654459, 2.317026E-05, 0.0273618, -0.02850758, 0.4000056, 0.01674566, -0.009366084, 1.55453E-05, 0.02727462, -0.0285239, 0.4000053
 125005811, 0.02098423, -0.005956386, 2.896729E-05, 0.02737889, -0.02844577, 0.4000058, 0.02023502, -0.008654459, 2.317026E-05, 0.0273618, -0.02850758, 0.4000056
 125206564, 0.01767422, -0.009584623, 1.712649E-05, 0.02730496, -0.02852104, 0.3921624, 0.02098423, -0.005956386, 2.896729E-05, 0.02737889, -0.02844577, 0.4000058
 125406484, 0.01637628, -0.009169518, 1.562353E-05, 0.02725056, -0.02852643, 0.4000058, 0.01767422, -0.009584623, 1.712649E-05, 0.02730496, -0.02852104, 0.3921624
 125606404, 0.0195541, -0.008737217, 2.236652E-05, 0.0273278, -0.02851976, 0.4000059, 0.01637628, -0.009169518, 1.562353E-05, 0.02725056, -0.02852643, 0.4000058
 125806324, 0.01631238, -0.007316284, 1.862707E-05, 0.02724329, -0.02848821, 0.4000058, 0.0195541, -0.008737217, 2.236652E-05, 0.0273278, -0.02851976, 0.4000059
 126006244, 0.01579585, -0.00784367, 1.687582E-05, 0.02722714, -0.02850302, 0.4000058, 0.01631238, -0.007316284, 1.862707E-05, 0.02724329, -0.02848821, 0.4000058
 126206164, 0.01474786, -0.01040627, 1.051826E-05, 0.02720239, -0.02856937, 0.4000052, 0.01579585, -0.00784367, 1.687582E-05, 0.02722714, -0.02850302, 0.4000058
 126406084, 0.01516459, -0.01030732, 1.13253E-05, 0.0272171, -0.02856596, 0.400005, 0.01474786, -0.01040627, 1.051826E-05, 0.02720239, -0.02856937, 0.4000052
 126606004, 0.01521523, -0.009158583, 1.322626E-05, 0.02722151, -0.02853665, 0.4000049, 0.01516459, -0.01030732, 1.13253E-05, 0.0272171, -0.02856596, 0.400005
 126805924, 0.01539955, -0.008550574, 1.455864E-05, 0.02722743, -0.02852001, 0.400005, 0.01521523, -0.009158583, 1.322626E-05, 0.02722151, -0.02853665, 0.4000049
 127005844, 0.0144648, -0.008618848, 1.271425E-05, 0.02720535, -0.02851919, 0.400005, 0.01539955, -0.008550574, 1.455864E-05, 0.02722743, -0.02852001, 0.400005
 127205764, 0.01540288, -0.01050505, 1.137146E-05, 0.02723057, -0.02856203, 0.4000051, 0.0144648, -0.008618848, 1.271425E-05, 0.02720535, -0.02851919, 0.400005
 127406517, 0.01333125, -0.006391879, 1.423236E-05, 0.02717976, -0.02846158, 0.4000053, 0.01540288, -0.01050505, 1.137146E-05, 0.02723057, -0.02856203, 0.4000051
 127606437, 0.01509307, -0.005656298, 1.863036E-05, 0.02722521, -0.02844244, 0.4000054, 0.01333125, -0.006391879, 1.423236E-05, 0.02717976, -0.02846158, 0.4000053
 127806357, 0.01478612, -0.005963703, 1.756516E-05, 0.02721829, -0.02844788, 0.4000055, 0.01509307, -0.005656298, 1.863036E-05, 0.02722521, -0.02844244, 0.4000054
 128006277, 0.0137343, -0.009565796, 9.866251E-06, 0.02719258, -0.02853172, 0.4000054, 0.01478612, -0.005963703, 1.756516E-05, 0.02721829, -0.02844788, 0.4000055
 128206197, 0.01673365, -0.006806887, 1.968652E-05, 0.02727065, -0.02846516, 0.4000055, 0.0137343, -0.009565796, 9.866251E-06, 0.02719258, -0.02853172, 0.4000054
 128406117, 0.01944904, -0.004740661, 2.781395E-05, 0.02734274, -0.0284188, 0.4000054, 0.01673365, -0.006806887, 1.968652E-05, 0.02727065, -0.02846516, 0.4000055
 128606037, 0.01753671, -0.008147812, 1.885806E-05, 0.02729356, -0.02849886, 0.4000052, 0.01944904, -0.004740661, 2.781395E-05, 0.02734274, -0.0284188, 0.4000054
 128805957, 0.01655746, -0.01007055, 1.395029E-05, 0.02726912, -0.02854563, 0.400005, 0.01753671, -0.008147812, 1.885806E-05, 0.02729356, -0.02849886, 0.4000052
 129005877, 0.01571536, -0.008506704, 1.505475E-05, 0.02724569, -0.02850613, 0.4000053, 0.01655746, -0.01007055, 1.395029E-05, 0.02726912, -0.02854563, 0.400005
 129205797, 0.01608994, -0.006311293, 1.925944E-05, 0.02725495, -0.02845422, 0.4000054, 0.01571536, -0.008506704, 1.505475E-05, 0.02724569, -0.02850613, 0.4000053
 129406550, 0.01643356, -0.007165335, 1.854672E-05, 0.02726308, -0.02847409, 0.4000054, 0.01608994, -0.006311293, 1.925944E-05, 0.02725495, -0.02845422, 0.4000054
 129606470, 0.01528841, -0.008586255, 1.411775E-05, 0.02722047, -0.02852179, 0.4081684, 0.01643356, -0.007165335, 1.854672E-05, 0.02726308, -0.02847409, 0.4000054
 129806390, 0.01530536, -0.0081103, 1.486166E-05, 0.02723618, -0.02849909, 0.400005, 0.01528841, -0.008586255, 1.411775E-05, 0.02722047, -0.02852179, 0.4081684
 130006310, 0.01609353, -0.009117438, 1.464624E-05, 0.02725576, -0.02852515, 0.4000049, 0.01530536, -0.0081103, 1.486166E-05, 0.02723618, -0.02849909, 0.400005
 130206230, 0.01746341, -0.00931656, 1.69581E-05, 0.02728708, -0.02853074, 0.4000052, 0.01609353, -0.009117438, 1.464624E-05, 0.02725576, -0.02852515, 0.4000049
 130406150, 0.01370554, -0.008711055, 1.106839E-05, 0.02719146, -0.02851704, 0.400005, 0.01746341, -0.00931656, 1.69581E-05, 0.02728708, -0.02853074, 0.4000052
 130606070, 0.01657988, -0.007049483, 1.912722E-05, 0.02726057, -0.02847912, 0.4000053, 0.01370554, -0.008711055, 1.106839E-05, 0.02719146, -0.02851704, 0.400005
 130805990, 0.01864384, -0.007164479, 2.277322E-05, 0.02731191, -0.02848423, 0.4000053, 0.01657988, -0.007049483, 1.912722E-05, 0.02726057, -0.02847912, 0.4000053
 131005910, 0.01911098, -0.008722751, 2.117051E-05, 0.02732155, -0.02852354, 0.4000053, 0.01864384, -0.007164479, 2.277322E-05, 0.02731191, -0.02848423, 0.4000053
 131205830, 0.01427619, -0.0081029, 1.329397E-05, 0.02719526, -0.02851145, 0.4000051, 0.01911098, -0.008722751, 2.117051E-05, 0.02732155, -0.02852354, 0.4000053
 131406583, 0.01632914, -0.006919819, 1.907938E-05, 0.02724492, -0.02848674, 0.4000052, 0.01427619, -0.0081029, 1.329397E-05, 0.02719526, -0.02851145, 0.4000051
 131606503, 0.01834103, -0.009012392, 1.935077E-05, 0.02729853, -0.02853324, 0.4000053, 0.01632914, -0.006919819, 1.907938E-05, 0.02724492, -0.02848674, 0.4000052
 131806423, 0.01443225, -0.007088843, 1.510572E-05, 0.02720415, -0.02848482, 0.400005, 0.01834103, -0.009012392, 1.935077E-05, 0.02729853, -0.02853324, 0.4000053
 132006343, -0.008985458, -0.0027836, -2.102336E-05, 0.02667934, -0.02838257, 0.4000042, 0.01443225, -0.007088843, 1.510572E-05, 0.02720415, -0.02848482, 0.400005
 132206263, -0.01072141, 0.001732608, -1.679933E-05, 0.02664839, -0.02828013, 0.4000042, -0.008985458, -0.0027836, -2.102336E-05, 0.02667934, -0.02838257, 0.4000042
 132406183, -0.02170325, 0.003522964, -3.383349E-05, 0.02644597, -0.02824041, 0.4000038, -0.01072141, 0.001732608, -1.679933E-05, 0.02664839, -0.02828013, 0.4000042
 132606103, -0.0158591, 0.006876843, -1.785975E-05, 0.02655224, -0.02816583, 0.4000044, -0.02170325, 0.003522964, -3.383349E-05, 0.02644597, -0.02824041, 0.4000038
 132806023, -0.01842752, -0.003813674, -3.957155E-05, 0.02650525, -0.02839534, 0.4000041, -0.0158591, 0.006876843, -1.785975E-05, 0.02655224, -0.02816583, 0.4000044
 133005943, 0.01938415, -0.00924696, 2.034759E-05, 0.0273446, -0.02852169, 0.4000052, -0.01842752, -0.003813674, -3.957155E-05, 0.02650525, -0.02839534, 0.4000041
 133205863, -0.006709636, -0.00734456, -2.381763E-05, 0.0267334, -0.0284735, 0.4000046, 0.01938415, -0.00924696, 2.034759E-05, 0.0273446, -0.02852169, 0.4000052
 133405783, 0.02206422, 0.0006980796, 4.120182E-05, 0.02741152, -0.02829149, 0.4000061, -0.006709636, -0.00734456, -2.381763E-05, 0.0267334, -0.0284735, 0.4000046
 133606536, 0.0151904, -0.006964133, 1.669351E-05, 0.02723089, -0.0284646, 0.4000058, 0.02206422, 0.0006980796, 4.120182E-05, 0.02741152, -0.02829149, 0.4000061
 133806456, 0.007060391, 0.01388925, 3.494156E-05, 0.02703422, -0.02802281, 0.4000059, 0.0151904, -0.006964133, 1.669351E-05, 0.02723089, -0.0284646, 0.4000058
 134006376, 0.02001024, -0.002450622, 3.257154E-05, 0.02735508, -0.02836566, 0.4000058, 0.007060391, 0.01388925, 3.494156E-05, 0.02703422, -0.02802281, 0.4000059
 134206296, -0.001200072, 0.01637827, 2.39636E-05, 0.02684628, -0.02797884, 0.4000055, 0.02001024, -0.002450622, 3.257154E-05, 0.02735508, -0.02836566, 0.4000058
 134406216, -0.01959074, 0.005656425, -2.682923E-05, 0.02647908, -0.02819005, 0.4000047, -0.001200072, 0.01637827, 2.39636E-05, 0.02684628, -0.02797884, 0.4000055
 134606136, -0.006057074, 0.01778798, 1.721685E-05, 0.02673757, -0.02795164, 0.4000058, -0.01959074, 0.005656425, -2.682923E-05, 0.02647908, -0.02819005, 0.4000047
 134806056, 0.02168195, 0.01316912, 6.115445E-05, 0.0273884, -0.02804045, 0.400007, -0.006057074, 0.01778798, 1.721685E-05, 0.02673757, -0.02795164, 0.4000058
 135005976, 0.01251353, 0.0227756, 5.943575E-05, 0.02715449, -0.02786219, 0.400007, 0.02168195, 0.01316912, 6.115445E-05, 0.0273884, -0.02804045, 0.400007
 135205896, -0.003579573, 0.004530567, 5.743841E-07, 0.02678289, -0.02821277, 0.4000059, 0.01251353, 0.0227756, 5.943575E-05, 0.02715449, -0.02786219, 0.400007
 135405816, 0.02049517, -0.00808478, 2.519041E-05, 0.02735456, -0.02849406, 0.4000066, -0.003579573, 0.004530567, 5.743841E-07, 0.02678289, -0.02821277, 0.4000059
 135606569, -0.01227516, -0.00662413, -3.340656E-05, 0.02661915, -0.02844848, 0.3921622, 0.02049517, -0.00808478, 2.519041E-05, 0.02735456, -0.02849406, 0.4000066
 135806489, 0.01298358, -0.01797085, -4.614962E-06, 0.0271621, -0.02874144, 0.4000057, -0.01227516, -0.00662413, -3.340656E-05, 0.02661915, -0.02844848, 0.3921622
 136006409, 0.01034039, -0.02148112, -1.534682E-05, 0.02709794, -0.02883621, 0.4000052, 0.01298358, -0.01797085, -4.614962E-06, 0.0271621, -0.02874144, 0.4000057
 136206329, 0.002817411, -0.0173619, -2.289285E-05, 0.02692075, -0.02873346, 0.4000048, 0.01034039, -0.02148112, -1.534682E-05, 0.02709794, -0.02883621, 0.4000052
 136406249, 0.009240856, 0.02083532, 5.117347E-05, 0.02706868, -0.02790896, 0.4000064, 0.002817411, -0.0173619, -2.289285E-05, 0.02692075, -0.02873346, 0.4000048
 136606169, 0.01216135, 0.02261332, 5.97305E-05, 0.02713829, -0.02788066, 0.4000064, 0.009240856, 0.02083532, 5.117347E-05, 0.02706868, -0.02790896, 0.4000064
 136806089, 0.0140173, 0.001087351, 2.783913E-05, 0.02718836, -0.02829657, 0.4000059, 0.01216135, 0.02261332, 5.97305E-05, 0.02713829, -0.02788066, 0.4000064
 137006009, -0.012363, -0.02039139, -5.581444E-05, 0.02660778, -0.02881017, 0.4000038, 0.0140173, 0.001087351, 2.783913E-05, 0.02718836, -0.02829657, 0.4000059
 137205929, 0.007880375, -0.009036125, -9.216819E-08, 0.02704764, -0.0285252, 0.4000049, -0.012363, -0.02039139, -5.581444E-05, 0.02660778, -0.02881017, 0.4000038
 137405849, -0.01876652, -0.004054249, -4.094137E-05, 0.02649325, -0.02840877, 0.4000039, 0.007880375, -0.009036125, -9.216819E-08, 0.02704764, -0.0285252, 0.4000049
 137605769, -0.00466149, 0.01673755, 1.841203E-05, 0.02677297, -0.02797633, 0.400005, -0.01876652, -0.004054249, -4.094137E-05, 0.02649325, -0.02840877, 0.4000039
 137806522, 0.00385543, 0.01459601, 3.060745E-05, 0.02696047, -0.02801966, 0.400005, -0.00466149, 0.01673755, 1.841203E-05, 0.02677297, -0.02797633, 0.400005
 138006442, 0.01711082, -0.02318644, -6.223749E-06, 0.02728042, -0.02888367, 0.4000043, 0.00385543, 0.01459601, 3.060745E-05, 0.02696047, -0.02801966, 0.400005
 138206362, -0.008053174, -0.0144248, -3.783987E-05, 0.02670506, -0.02865495, 0.4000036, 0.01711082, -0.02318644, -6.223749E-06, 0.02728042, -0.02888367, 0.4000043
 138406282, -0.02114431, 0.01822531, -9.1863E-06, 0.0264571, -0.02794701, 0.4000044, -0.008053174, -0.0144248, -3.783987E-05, 0.02670506, -0.02865495, 0.4000036
 138606202, -0.01427778, -0.006545057, -3.649824E-05, 0.02658107, -0.02846276, 0.4000039, -0.02114431, 0.01822531, -9.1863E-06, 0.0264571, -0.02794701, 0.4000044
 138806122, -0.01009492, -0.005604162, -2.730877E-05, 0.0266641, -0.02843907, 0.4000041, -0.01427778, -0.006545057, -3.649824E-05, 0.02658107, -0.02846276, 0.4000039
 139006042, 0.01986193, -0.01835999, 6.782184E-06, 0.02735423, -0.02874942, 0.400005, -0.01009492, -0.005604162, -2.730877E-05, 0.0266641, -0.02843907, 0.4000041
 139205962, -0.01267414, -0.02314041, -5.98576E-05, 0.02661484, -0.02887449, 0.4000034, 0.01986193, -0.01835999, 6.782184E-06, 0.02735423, -0.02874942, 0.400005
 139405882, 0.01622008, -0.01203342, 9.990665E-06, 0.0272652, -0.02859324, 0.4000045, -0.01267414, -0.02314041, -5.98576E-05, 0.02661484, -0.02887449, 0.4000034
 139605802, -0.01945966, 0.018832, -4.934102E-06, 0.02649002, -0.0279377, 0.4000042, 0.01622008, -0.01203342, 9.990665E-06, 0.0272652, -0.02859324, 0.4000045
 139806555, -0.01244429, -0.02094878, -5.623283E-05, 0.02662068, -0.02882237, 0.400003, -0.01945966, 0.018832, -4.934102E-06, 0.02649002, -0.0279377, 0.4000042
 140006475, 0.003521141, 0.01742428, 3.44035E-05, 0.0269424, -0.02797693, 0.4081683, -0.01244429, -0.02094878, -5.623283E-05, 0.02662068, -0.02882237, 0.400003
 140206395, 0.004868878, 0.0131477, 3.005354E-05, 0.02698541, -0.02804609, 0.400005, 0.003521141, 0.01742428, 3.44035E-05, 0.0269424, -0.02797693, 0.4081683
 140406315, -0.000530924, 0.01763683, 2.758391E-05, 0.02686166, -0.02796392, 0.4000049, 0.004868878, 0.0131477, 3.005354E-05, 0.02698541, -0.02804609, 0.400005
 140606235, 0.002571071, 0.01718801, 3.25267E-05, 0.02693054, -0.02797227, 0.400005, -0.000530924, 0.01763683, 2.758391E-05, 0.02686166, -0.02796392, 0.4000049
 140806155, 0.003022303, 0.01556095, 3.090599E-05, 0.02693836, -0.02800694, 0.4000049, 0.002571071, 0.01718801, 3.25267E-05, 0.02693054, -0.02797227, 0.400005
 141006075, 0.001994782, 0.01580016, 2.96135E-05, 0.02691134, -0.02800689, 0.4000048, 0.003022303, 0.01556095, 3.090599E-05, 0.02693836, -0.02800694, 0.4000049
 141205995, 0.0004937281, 0.01377175, 2.356866E-05, 0.02687553, -0.0280466, 0.4000047, 0.001994782, 0.01580016, 2.96135E-05, 0.02691134, -0.02800689, 0.4000048
 141405915, -0.0001684891, 0.01765913, 2.880375E-05, 0.02685955, -0.02797487, 0.4000048, 0.0004937281, 0.01377175, 2.356866E-05, 0.02687553, -0.0280466, 0.4000047
 141605835, 0.000438179, 0.01708278, 2.90684E-05, 0.0268704, -0.02798745, 0.4000049, -0.0001684891, 0.01765913, 2.880375E-05, 0.02685955, -0.02797487, 0.4000048
 141806588, 0.001872674, 0.01217841, 2.372445E-05, 0.02690133, -0.02808367, 0.4000046, 0.000438179, 0.01708278, 2.90684E-05, 0.0268704, -0.02798745, 0.4000049
 142006508, 0.001868583, 0.01272783, 2.455872E-05, 0.02690338, -0.02807132, 0.4000046, 0.001872674, 0.01217841, 2.372445E-05, 0.02690133, -0.02808367, 0.4000046
 142206428, 0.001440385, 0.01455235, 2.675052E-05, 0.02650827, -0.02767734, 0.4081678, 0.001868583, 0.01272783, 2.455872E-05, 0.02690338, -0.02807132, 0.4000046
 142406348, 0.00267696, 0.01519163, 3.001279E-05, 0.02692655, -0.02802202, 0.4000045, 0.001440385, 0.01455235, 2.675052E-05, 0.02650827, -0.02767734, 0.4081678
 142606268, 0.003402059, 0.01451697, 3.018003E-05, 0.02694675, -0.02803442, 0.4000043, 0.00267696, 0.01519163, 3.001279E-05, 0.02692655, -0.02802202, 0.4000045
 142806188, 0.00189228, 0.01252354, 2.407115E-05, 0.02691488, -0.0280715, 0.4000041, 0.003402059, 0.01451697, 3.018003E-05, 0.02694675, -0.02803442, 0.4000043
 143006108, 0.002529659, 0.01333298, 2.646611E-05, 0.02693067, -0.02805323, 0.4000043, 0.00189228, 0.01252354, 2.407115E-05, 0.02691488, -0.0280715, 0.4000041
 143206028, 0.001542034, 0.01461163, 2.661793E-05, 0.02691046, -0.02802511, 0.4000044, 0.002529659, 0.01333298, 2.646611E-05, 0.02693067, -0.02805323, 0.4000043
 143405948, 0.002131535, 0.01772474, 3.263475E-05, 0.02692561, -0.02796432, 0.4000046, 0.001542034, 0.01461163, 2.661793E-05, 0.02691046, -0.02802511, 0.4000044
 143605868, 0.001585569, 0.01668593, 2.990857E-05, 0.02691514, -0.0279825, 0.4000045, 0.002131535, 0.01772474, 3.263475E-05, 0.02692561, -0.02796432, 0.4000046
 143805788, 0.003893362, 0.01192738, 2.63365E-05, 0.02696873, -0.02807276, 0.4000044, 0.001585569, 0.01668593, 2.990857E-05, 0.02691514, -0.0279825, 0.4000045
 144006541, 0.003862475, 0.01490112, 3.106888E-05, 0.02696886, -0.02801502, 0.4000044, 0.003893362, 0.01192738, 2.63365E-05, 0.02696873, -0.02807276, 0.4000044
 144206461, 0.0005948904, 0.01817941, 2.966941E-05, 0.02689609, -0.02795277, 0.4000044, 0.003862475, 0.01490112, 3.106888E-05, 0.02696886, -0.02801502, 0.4000044
 144406381, 0.0007671976, 0.01941015, 3.186193E-05, 0.02690154, -0.02792827, 0.4000045, 0.0005948904, 0.01817941, 2.966941E-05, 0.02689609, -0.02795277, 0.4000044
 144606301, 0.0009721848, 0.0153363, 2.565428E-05, 0.02690646, -0.02800296, 0.4000044, 0.0007671976, 0.01941015, 3.186193E-05, 0.02690154, -0.02792827, 0.4000045
 144806221, 0.001663898, 0.01572428, 2.758833E-05, 0.02692198, -0.02799734, 0.4000043, 0.0009721848, 0.0153363, 2.565428E-05, 0.02690646, -0.02800296, 0.4000044
 145006141, 0.003127251, 0.01526879, 2.950854E-05, 0.02695424, -0.02800647, 0.4000044, 0.001663898, 0.01572428, 2.758833E-05, 0.02692198, -0.02799734, 0.4000043
 145206061, 0.003575732, 0.01601091, 3.149343E-05, 0.02696354, -0.02799174, 0.4000045, 0.003127251, 0.01526879, 2.950854E-05, 0.02695424, -0.02800647, 0.4000044
 145405981, 0.0004287451, 0.01519346, 2.448486E-05, 0.02689172, -0.0280062, 0.4000045, 0.003575732, 0.01601091, 3.149343E-05, 0.02696354, -0.02799174, 0.4000045
 145605901, 0.001477693, 0.01714359, 0.4088789, 0.02974664, -0.03038527, 0.4000039, 0.0004287451, 0.01519346, 2.448486E-05, 0.02689172, -0.0280062, 0.4000045
 145805821, -0.001297586, 0.01867761, 1.035176, 0.03814588, -0.03777339, 0.399996, 0.001477693, 0.01714359, 0.4088789, 0.02974664, -0.03038527, 0.4000039
 146006574, 0.004785194, 0.02573708, 1.895988, 0.05499197, -0.0540175, 0.3999853, -0.001297586, 0.01867761, 1.035176, 0.03814588, -0.03777339, 0.399996
 146206494, 0.005140031, 0.04634707, 2.927958, 0.08167365, -0.08059348, 0.399979, 0.004785194, 0.02573708, 1.895988, 0.05499197, -0.0540175, 0.3999853
 146406414, 0.02212906, 0.06940582, 3.605709, 0.1163753, -0.1152477, 0.3999714, 0.005140031, 0.04634707, 2.927958, 0.08167365, -0.08059348, 0.399979
 146606334, 0.02584948, 0.07737975, 4.38835, 0.1591083, -0.1581439, 0.3999638, 0.02212906, 0.06940582, 3.605709, 0.1163753, -0.1152477, 0.3999714
 146806254, 0.01633505, 0.1169014, 4.975376, 0.208138, -0.2073237, 0.3999559, 0.02584948, 0.07737975, 4.38835, 0.1591083, -0.1581439, 0.3999638
 147006174, 0.02125695, 0.1548888, 5.53612, 0.2651083, -0.2632913, 0.6999454, 0.01633505, 0.1169014, 4.975376, 0.208138, -0.2073237, 0.3999559
 147206094, 0.07555395, 0.1887191, 5.922045, 0.3265921, -0.3239385, 0.9999349, 0.02125695, 0.1548888, 5.53612, 0.2651083, -0.2632913, 0.6999454
 147406014, 0.1024158, 0.1872468, 6.439054, 0.3920859, -0.3895924, 0.999925, 0.07555395, 0.1887191, 5.922045, 0.3265921, -0.3239385, 0.9999349
 147605934, 0.02735207, 0.2182495, 6.790588, 0.4600625, -0.4583934, 0.9999713, 0.1024158, 0.1872468, 6.439054, 0.3920859, -0.3895924, 0.999925
 147805854, 0.01384202, 0.3243265, 6.661889, 0.5291652, -0.5284786, 1.00017, 0.02735207, 0.2182495, 6.790588, 0.4600625, -0.4583934, 0.9999713
 148005774, 0.06987046, 0.4225476, 6.330362, 0.5964443, -0.5964985, 1.000184, 0.01384202, 0.3243265, 6.661889, 0.5291652, -0.5284786, 1.00017
 148206527, 0.1278506, 0.3888761, 5.980266, 0.6607933, -0.6610106, 1.000157, 0.06987046, 0.4225476, 6.330362, 0.5964443, -0.5964985, 1.000184
 148406447, 0.1139316, 0.4391799, 5.655861, 0.7206913, -0.7209233, 1.020497, 0.1278506, 0.3888761, 5.980266, 0.6607933, -0.6610106, 1.000157
 148606367, 0.06396712, 0.4714943, 5.16952, 0.7757088, -0.7761288, 1.000019, 0.1139316, 0.4391799, 5.655861, 0.7206913, -0.7209233, 1.020497
 148806287, 0.07240479, 0.5729662, 4.854337, 0.8274987, -0.8276851, 0.999921, 0.06396712, 0.4714943, 5.16952, 0.7757088, -0.7761288, 1.000019
 149006207, 0.1341058, 0.4628048, 4.444099, 0.8754053, -0.8752442, 0.9998267, 0.07240479, 0.5729662, 4.854337, 0.8274987, -0.8276851, 0.999921
 149206127, 0.08090637, 0.4392834, 4.172184, 0.9199559, -0.9199085, 0.9997174, 0.1341058, 0.4628048, 4.444099, 0.8754053, -0.8752442, 0.9998267
 149406047, 0.102051, 0.4682191, 3.874347, 0.9616442, -0.9612706, 0.9995998, 0.08090637, 0.4392834, 4.172184, 0.9199559, -0.9199085, 0.9997174
 149605967, 0.02334044, 0.566201, 3.625308, 0.9997158, -0.9999211, 0.9994971, 0.102051, 0.4682191, 3.874347, 0.9616442, -0.9612706, 0.9995998
 149805887, 0.06200134, 0.6289982, 3.308842, 1.035113, -1.036488, 0.9996532, 0.02334044, 0.566201, 3.625308, 0.9997158, -0.9999211, 0.9994971
 150005807, 0.06593703, 0.5623412, 3.305859, 1.068556, -1.071502, 1.000211, 0.06200134, 0.6289982, 3.308842, 1.035113, -1.036488, 0.9996532
 150206560, 0.08800148, 0.5471612, 3.0284, 1.099848, -1.104523, 1.000537, 0.06593703, 0.5623412, 3.305859, 1.068556, -1.071502, 1.000211
 150406480, 0.133151, 0.5363554, 2.874853, 1.128967, -1.13886, 0.9973016, 0.08800148, 0.5471612, 3.0284, 1.099848, -1.104523, 1.000537
 150606400, 0.09015127, 0.6847537, 2.568806, 1.1632, -1.169577, 0.9837674, 0.133151, 0.5363554, 2.874853, 1.128967, -1.13886, 0.9973016
 150806320, 0.1540749, 0.8080754, 2.066811, 1.201626, -1.194209, 0.9629417, 0.09015127, 0.6847537, 2.568806, 1.1632, -1.169577, 0.9837674
 151006240, 0.2031665, 0.6388142, 1.640634, 1.240732, -1.212019, 0.9371276, 0.1540749, 0.8080754, 2.066811, 1.201626, -1.194209, 0.9629417
 151206160, 0.2498876, 0.6143396, 1.197569, 1.278526, -1.223984, 0.9078965, 0.2031665, 0.6388142, 1.640634, 1.240732, -1.212019, 0.9371276
 151406080, 0.3809839, 0.6510858, 0.9561285, 1.312453, -1.230788, 0.8797729, 0.2498876, 0.6143396, 1.197569, 1.278526, -1.223984, 0.9078965
 151606000, 0.2944092, 0.6143979, 0.6754728, 1.342954, -1.23246, 0.852686, 0.3809839, 0.6510858, 0.9561285, 1.312453, -1.230788, 0.8797729
 151805920, 0.1745806, 0.6871738, 0.3417015, 1.371546, -1.22856, 0.8258139, 0.2944092, 0.6143979, 0.6754728, 1.342954, -1.23246, 0.852686
 152005840, 0.2745986, 0.8301727, 0.1935197, 1.400479, -1.220492, 0.800055, 0.1745806, 0.6871738, 0.3417015, 1.371546, -1.22856, 0.8258139
 152205760, 0.3541978, 0.8267738, 0.03200077, 1.429563, -1.208282, 0.7739949, 0.2745986, 0.8301727, 0.1935197, 1.400479, -1.220492, 0.800055
