TimeUS,COFN,COFE,COFD,CNe,CEe,CDe,POFN,POFE,POFD,PNe,PEe,PDe
 76960870, -0.05699629, -0.05345211, 0.01985778, 0.0857286, 0.0688393, 0.0001486273, 0, 0, 0, 0, 0, 0
 77040838, -0.05436639, -0.05795022, -4.057683E-05, 0.08714364, 0.06680353, 1.000016, -0.05699629, -0.05345211, 0.01985778, 0.0857286, 0.0688393, 0.0001486273
 77140798, 0.0224113, 0.05920606, 8.771048E-05, 0.08777902, 0.06787276, 1.000016, -0.05436639, -0.05795022, -4.057683E-05, 0.08714364, 0.06680353, 1.000016
 77240758, -0.01022929, -0.01091994, -7.567076E-06, 0.08746596, 0.06711484, 1.000015, 0.0224113, 0.05920606, 8.771048E-05, 0.08777902, 0.06787276, 1.000016
 77340718, 0.01807597, 0.04875971, 7.259036E-05, 0.08773956, 0.06773865, 1.000015, -0.01022929, -0.01091994, -7.567076E-06, 0.08746596, 0.06711484, 1.000015
 77440678, -0.04531214, -0.02926846, 5.232228E-06, 0.08721341, 0.06697331, 1.000014, 0.01807597, 0.04875971, 7.259036E-05, 0.08773956, 0.06773865, 1.000015
 77540638, 0.07344841, -0.02019597, -0.0001451322, 0.08842929, 0.0670047, 1.000013, -0.04531214, -0.02926846, 5.232228E-06, 0.08721341, 0.06697331, 1.000014
 77640598, -0.02499895, -0.02833171, -2.160467E-05, 0.08736516, 0.06697288, 1.000014, 0.07344841, -0.02019597, -0.0001451322, 0.08842929, 0.0670047, 1.000013
 77740558, -0.03796057, 0.004456781, 6.312892E-05, 0.08727532, 0.06723483, 1.000015, -0.02499895, -0.02833171, -2.160467E-05, 0.08736516, 0.06697288, 1.000014
 77840518, 0.04067566, 0.007681089, -4.246928E-05, 0.08799834, 0.06726618, 1.000014, -0.03796057, 0.004456781, 6.312892E-05, 0.08727532, 0.06723483, 1.000015
 77940478, -0.05683254, 0.0140078, 0.0001096257, 0.08716949, 0.06731249, 1.000015, 0.04067566, 0.007681089, -4.246928E-05, 0.08799834, 0.06726618, 1.000014
 78040438, 0.008603496, -0.009321661, -3.124934E-05, 0.08766007, 0.06710919, 1.000014, -0.05683254, 0.0140078, 0.0001096257, 0.08716949, 0.06731249, 1.000015
 78140398, 0.04518333, 0.0468151, 3.050971E-05, 0.08805329, 0.06770033, 1.000015, 0.008603496, -0.009321661, -3.124934E-05, 0.08766007, 0.06710919, 1.000014
 78240358, -0.06853579, -0.02416928, 4.896194E-05, 0.08709948, 0.06698488, 1.000015, 0.04518333, 0.0468151, 3.050971E-05, 0.08805329, 0.06770033, 1.000015
 78340318, -0.03589414, 0.07585067, 0.0002061853, 0.08733485, 0.0680408, 1.000017, -0.06853579, -0.02416928, 4.896194E-05, 0.08709948, 0.06698488, 1.000015
 78440278, -0.0717614, 0.04138989, 0.000187631, 0.08712161, 0.06757536, 1.000016, -0.03589414, 0.07585067, 0.0002061853, 0.08733485, 0.0680408, 1.000017
 78540238, -0.06272548, -0.02647125, 3.614856E-05, 0.0871344, 0.06696131, 1.000015, -0.0717614, 0.04138989, 0.000187631, 0.08712161, 0.06757536, 1.000016
 78640198, 0.001908266, -0.02649869, -5.703848E-05, 0.08760887, 0.06695787, 1.000014, -0.06272548, -0.02647125, 3.614856E-05, 0.0871344, 0.06696131, 1.000015
 78740158, 0.02833529, -0.04990967, -0.0001433501, 0.08789462, 0.06678683, 1.000013, 0.001908266, -0.02649869, -5.703848E-05, 0.08760887, 0.06695787, 1.000014
 78840951, -0.02496484, -0.01258856, 1.027428E-05, 0.08738308, 0.06706394, 1.000014, 0.02833529, -0.04990967, -0.0001433501, 0.08789462, 0.06678683, 1.000013
 78940911, -0.07646291, -0.0207401, 6.79187E-05, 0.08707507, 0.06699528, 1.000015, -0.02496484, -0.01258856, 1.027428E-05, 0.08738308, 0.06706394, 1.000014
 79040871, -0.03864498, 0.03476486, 0.0001268588, 0.0872966, 0.06752074, 1.000015, -0.07646291, -0.0207401, 6.79187E-05, 0.08707507, 0.06699528, 1.000015
 79140831, 0.007360763, 0.0207447, 3.182037E-05, 0.08765332, 0.06738593, 1.000015, -0.03864498, 0.03476486, 0.0001268588, 0.0872966, 0.06752074, 1.000015
 79240791, -0.023733, -0.01870338, -4.078745E-06, 0.08738231, 0.06702739, 1.000014, 0.007360763, 0.0207447, 3.182037E-05, 0.08765332, 0.06738593, 1.000015
 79340751, 0.03596647, 0.01662706, -1.803987E-05, 0.08795457, 0.06735546, 1.000013, -0.023733, -0.01870338, -4.078745E-06, 0.08738231, 0.06702739, 1.000014
 79440711, 0.004623062, 0.006683676, 6.860495E-06, 0.08763196, 0.06726309, 1.000013, 0.03596647, 0.01662706, -1.803987E-05, 0.08795457, 0.06735546, 1.000013
 79540671, -0.04352166, -0.008109929, 4.620571E-05, 0.08724757, 0.06712686, 1.000013, 0.004623062, 0.006683676, 6.860495E-06, 0.08763196, 0.06726309, 1.000013
 79640631, 0.0248129, -0.03886486, -0.0001141822, 0.08783986, 0.06688857, 1.000012, -0.04352166, -0.008109929, 4.620571E-05, 0.08724757, 0.06712686, 1.000013
 79740591, -0.06170117, -0.04877306, -1.005059E-05, 0.08713071, 0.06685117, 1.000013, 0.0248129, -0.03886486, -0.0001141822, 0.08783986, 0.06688857, 1.000012
 79840551, -0.01027999, 0.07599729, 0.0001678951, 0.08751328, 0.0680866, 1.000015, -0.06170117, -0.04877306, -1.005059E-05, 0.08713071, 0.06685117, 1.000013
 79940511, -0.0692242, -0.02685559, 4.473692E-05, 0.08709078, 0.06698719, 1.000014, -0.01027999, 0.07599729, 0.0001678951, 0.08751328, 0.0680866, 1.000015
 80040471, -0.03983153, 0.05280463, 0.0001632923, 0.08728474, 0.0677605, 1.000015, -0.0692242, -0.02685559, 4.473692E-05, 0.08709078, 0.06698719, 1.000014
 80140431, 0.00848607, 0.01332139, 1.485139E-05, 0.08764541, 0.06733406, 1.000015, -0.03983153, 0.05280463, 0.0001632923, 0.08728474, 0.0677605, 1.000015
 80240391, 0.04915491, 0.0539709, 3.953198E-05, 0.08808324, 0.06780639, 1.000015, 0.00848607, 0.01332139, 1.485139E-05, 0.08764541, 0.06733406, 1.000015
 80340351, -0.04411398, 0.007198096, 7.679411E-05, 0.08722059, 0.06726605, 1.000016, 0.04915491, 0.0539709, 3.953198E-05, 0.08808324, 0.06780639, 1.000015
 80440311, -0.005208536, -0.06433646, -0.0001223456, 0.0875221, 0.06676088, 1.000014, -0.04411398, 0.007198096, 7.679411E-05, 0.08722059, 0.06726605, 1.000016
 80540271, 0.01289577, 0.06427796, 0.0001112253, 0.08768639, 0.06794191, 1.000016, -0.005208536, -0.06433646, -0.0001223456, 0.0875221, 0.06676088, 1.000014
 80640231, -0.06943011, -0.01980213, 5.77456E-05, 0.08706772, 0.06704334, 1.000015, 0.01289577, 0.06427796, 0.0001112253, 0.08768639, 0.06794191, 1.000016
 80740191, -0.05096361, -0.01885312, 3.366804E-05, 0.08716408, 0.06705683, 1.000015, -0.06943011, -0.01980213, 5.77456E-05, 0.08706772, 0.06704334, 1.000015
 80840151, 0.0110879, -0.0423381, -0.0001004935, 0.08766326, 0.06688836, 1.000014, -0.05096361, -0.01885312, 3.366804E-05, 0.08716408, 0.06705683, 1.000015
 80940944, -0.03617196, -0.03234842, -1.397117E-05, 0.08725994, 0.06696702, 1.000015, 0.0110879, -0.0423381, -0.0001004935, 0.08766326, 0.06688836, 1.000014
 81040904, 0.009010605, -0.0531637, -0.0001191291, 0.08765172, 0.06682795, 1.000013, -0.03617196, -0.03234842, -1.397117E-05, 0.08725994, 0.06696702, 1.000015
 81140864, 0.0727305, -0.01971787, -0.0001419808, 0.08840327, 0.06703059, 1.000013, 0.009010605, -0.0531637, -0.0001191291, 0.08765172, 0.06682795, 1.000013
 81240824, -0.0333116, -0.06736077, -8.764063E-05, 0.08729257, 0.06677578, 1.000013, 0.0727305, -0.01971787, -0.0001419808, 0.08840327, 0.06703059, 1.000013
 81340784, -0.06514764, -0.04747928, -2.555338E-06, 0.08709303, 0.06688361, 1.000013, -0.0333116, -0.06736077, -8.764063E-05, 0.08729257, 0.06677578, 1.000013
 81440744, -0.07624719, -0.04228304, 2.392744E-05, 0.08704431, 0.06691463, 1.000013, -0.06514764, -0.04747928, -2.555338E-06, 0.08709303, 0.06688361, 1.000013
 81540704, -0.04222452, 0.08160269, 0.0002228761, 0.08728926, 0.06816462, 1.000015, -0.07624719, -0.04228304, 2.392744E-05, 0.08704431, 0.06691463, 1.000013
 81640664, -0.02148972, -0.05647397, -8.196587E-05, 0.0873962, 0.06683032, 1.000011, -0.04222452, 0.08160269, 0.0002228761, 0.08728926, 0.06816462, 1.000015
 81740624, 0.03185914, 0.05685652, 6.767991E-05, 0.0879007, 0.06787223, 1.000012, -0.02148972, -0.05647397, -8.196587E-05, 0.0873962, 0.06683032, 1.000011
 81840584, -0.04622182, 0.02802553, 0.0001221908, 0.08723854, 0.06750159, 1.000012, 0.03185914, 0.05685652, 6.767991E-05, 0.0879007, 0.06787223, 1.000012
 81940544, -0.06267003, 0.01053645, 0.0001109787, 0.0871404, 0.06732015, 1.000012, -0.04622182, 0.02802553, 0.0001221908, 0.08723854, 0.06750159, 1.000012
 82040504, -0.04730793, -0.04958281, -3.077948E-05, 0.08721584, 0.06687719, 1.000011, -0.06267003, 0.01053645, 0.0001109787, 0.0871404, 0.06732015, 1.000012
 82140464, 0.02054861, 0.03421309, 3.863316E-05, 0.08778419, 0.06759048, 1.000011, -0.04730793, -0.04958281, -3.077948E-05, 0.08721584, 0.06687719, 1.000011
 82240424, 0.05971214, -0.06622519, -0.000218417, 0.0882902, 0.06672964, 1.000009, 0.02054861, 0.03421309, 3.863316E-05, 0.08778419, 0.06759048, 1.000011
 82340384, 0.05384666, 0.06687807, 5.609959E-05, 0.0881657, 0.06800747, 1.000012, 0.05971214, -0.06622519, -0.000218417, 0.0882902, 0.06672964, 1.000009
 82440344, -0.03201064, -0.0101635, 2.57553E-05, 0.08732159, 0.06713825, 1.000012, 0.05384666, 0.06687807, 5.609959E-05, 0.0881657, 0.06800747, 1.000012
 82540304, -0.01732937, -0.01413807, -3.397536E-06, 0.08743029, 0.06710634, 1.000012, -0.03201064, -0.0101635, 2.57553E-05, 0.08732159, 0.06713825, 1.000012
 82640264, 0.07261278, 0.0444928, -1.513077E-05, 0.08840178, 0.06770641, 1.000012, -0.01732937, -0.01413807, -3.397536E-06, 0.08743029, 0.06710634, 1.000012
 82740224, -0.02846476, 0.01016841, 6.136316E-05, 0.08734848, 0.06731566, 1.000013, 0.07261278, 0.0444928, -1.513077E-05, 0.08840178, 0.06770641, 1.000012
 82840184, -0.02584876, 0.002172507, 4.161837E-05, 0.08736797, 0.0672392, 1.000012, -0.02846476, 0.01016841, 6.136316E-05, 0.08734848, 0.06731566, 1.000013
 82940977, 0.05249237, -0.08008153, -0.0002370469, 0.08820543, 0.06665498, 1.00001, -0.02584876, 0.002172507, 4.161837E-05, 0.08736797, 0.0672392, 1.000012
 83040937, 0.01379813, -0.06813574, -0.0001574072, 0.08774205, 0.06673717, 1.000011, 0.05249237, -0.08008153, -0.0002370469, 0.08820543, 0.06665498, 1.00001
 83140897, 0.05142161, 0.06687304, 6.046832E-05, 0.08814307, 0.06798934, 1.000013, 0.01379813, -0.06813574, -0.0001574072, 0.08774205, 0.06673717, 1.000011
 83240857, 0.03666849, 0.005517225, -4.21908E-05, 0.08797213, 0.06725993, 1.000011, 0.05142161, 0.06687304, 6.046832E-05, 0.08814307, 0.06798934, 1.000013
 83340817, -0.04808881, -0.01739088, 3.485696E-05, 0.08722847, 0.06706138, 1.000012, 0.03666849, 0.005517225, -4.21908E-05, 0.08797213, 0.06725993, 1.000011
 83440777, 0.0658692, -0.06537997, -0.0002283289, 0.08838569, 0.06670517, 1.000009, -0.04808881, -0.01739088, 3.485696E-05, 0.08722847, 0.06706138, 1.000012
 83540737, 0.0609917, 0.004542862, -7.988001E-05, 0.08827735, 0.06723832, 1.000011, 0.0658692, -0.06537997, -0.0002283289, 0.08838569, 0.06670517, 1.000009
 83640697, -0.06439925, 0.03881719, 0.0001731199, 0.08717215, 0.06757279, 1.000013, 0.0609917, 0.004542862, -7.988001E-05, 0.08827735, 0.06723832, 1.000011
 83740657, 0.07453433, 0.04389558, -1.972476E-05, 0.08845396, 0.06766826, 1.000011, -0.06439925, 0.03881719, 0.0001731199, 0.08717215, 0.06757279, 1.000013
 83840617, 0.03527795, -0.05226888, -0.0001586647, 0.08799201, 0.06678415, 1.00001, 0.07453433, 0.04389558, -1.972476E-05, 0.08845396, 0.06766826, 1.000011
 83940577, 0.002147955, -0.006798789, -1.708966E-05, 0.08763032, 0.06712598, 1.000012, 0.03527795, -0.05226888, -0.0001586647, 0.08799201, 0.06678415, 1.00001
 84040537, 0.05242393, 0.02721921, -2.158601E-05, 0.08817739, 0.06745958, 1.000011, 0.002147955, -0.006798789, -1.708966E-05, 0.08763032, 0.06712598, 1.000012
 84140497, -0.07670677, -0.04353027, 2.436032E-05, 0.08709653, 0.0668606, 1.000011, 0.05242393, 0.02721921, -2.158601E-05, 0.08817739, 0.06745958, 1.000011
 84240457, -0.06783925, 0.05816811, 0.000219233, 0.08718897, 0.06778819, 1.000013, -0.07670677, -0.04353027, 2.436032E-05, 0.08709653, 0.0668606, 1.000011
 84340417, 2.811104E-05, 0.01165042, 2.37199E-05, 0.08761445, 0.06730551, 1.000011, -0.06783925, 0.05816811, 0.000219233, 0.08718897, 0.06778819, 1.000013
 84440377, 0.04226616, 0.02458815, -1.205023E-05, 0.08804906, 0.06744428, 1.000011, 2.811104E-05, 0.01165042, 2.37199E-05, 0.08761445, 0.06730551, 1.000011
 84540337, 0.03219781, -0.03682709, -0.0001220326, 0.08794501, 0.06689674, 1.00001, 0.04226616, 0.02458815, -1.205023E-05, 0.08804906, 0.06744428, 1.000011
 84640297, 0.04612186, -0.02437836, -0.0001168047, 0.08810014, 0.06698646, 1.00001, 0.03219781, -0.03682709, -0.0001220326, 0.08794501, 0.06689674, 1.00001
 84740257, -0.01392632, -0.02709641, -3.44811E-05, 0.08747904, 0.06698962, 1.000011, 0.04612186, -0.02437836, -0.0001168047, 0.08810014, 0.06698646, 1.00001
 84840217, -0.03866457, -0.02081429, 1.438129E-05, 0.08729094, 0.06704021, 1.000011, -0.01392632, -0.02709641, -3.44811E-05, 0.08747904, 0.06698962, 1.000011
 84940177, -0.04366584, 0.05413347, 0.000172894, 0.08728567, 0.06777907, 1.000013, -0.03866457, -0.02081429, 1.438129E-05, 0.08729094, 0.06704021, 1.000011
 85040970, -0.02426279, 0.07481149, 0.0001863719, 0.08742278, 0.06806353, 1.000014, -0.04366584, 0.05413347, 0.000172894, 0.08728567, 0.06777907, 1.000013
 85140930, -0.05785249, -0.02320772, 3.691416E-05, 0.08716155, 0.06702352, 1.000012, -0.02426279, 0.07481149, 0.0001863719, 0.08742278, 0.06806353, 1.000014
 85240890, -0.05248529, -0.05435777, -3.375985E-05, 0.08718541, 0.06683524, 1.000012, -0.05785249, -0.02320772, 3.691416E-05, 0.08716155, 0.06702352, 1.000012
 85340850, -0.05054873, -0.01585138, 4.072616E-05, 0.08719435, 0.06708352, 1.000013, -0.05248529, -0.05435777, -3.375985E-05, 0.08718541, 0.06683524, 1.000012
 85440810, 0.0689733, 0.03377293, -3.092047E-05, 0.08834804, 0.06757233, 1.000012, -0.05054873, -0.01585138, 4.072616E-05, 0.08719435, 0.06708352, 1.000013
 85540770, -0.01229858, 0.03623303, 9.035908E-05, 0.08746902, 0.06759419, 1.000014, 0.0689733, 0.03377293, -3.092047E-05, 0.08834804, 0.06757233, 1.000012
 85640730, 0.0616425, -0.01915471, -0.0001264308, 0.08826327, 0.06704053, 1.000012, -0.01229858, 0.03623303, 9.035908E-05, 0.08746902, 0.06759419, 1.000014
 85740690, -0.04765565, 0.01439567, 9.702484E-05, 0.08721362, 0.06735135, 1.000014, 0.0616425, -0.01915471, -0.0001264308, 0.08826327, 0.06704053, 1.000012
 85840650, 0.003266359, -0.04674179, -9.84604E-05, 0.08761098, 0.06687079, 1.000012, -0.04765565, 0.01439567, 9.702484E-05, 0.08721362, 0.06735135, 1.000014
 85940610, 0.05264657, -0.04501162, -0.0001655969, 0.08816724, 0.06685862, 1.000011, 0.003266359, -0.04674179, -9.84604E-05, 0.08761098, 0.06687079, 1.000012
 86040570, -0.04174203, 0.06323288, 0.0001862103, 0.08728027, 0.06791651, 1.000014, 0.05264657, -0.04501162, -0.0001655969, 0.08816724, 0.06685862, 1.000011
 86140530, 0.04860654, -0.02198793, -0.0001135014, 0.08810008, 0.06703397, 1.000011, -0.04174203, 0.06323288, 0.0001862103, 0.08728027, 0.06791651, 1.000014
 86240490, -0.03810271, -0.06832249, -8.203689E-05, 0.08726958, 0.06678157, 1.000012, 0.04860654, -0.02198793, -0.0001135014, 0.08810008, 0.06703397, 1.000011
 86340450, 0.00208836, 0.02396108, 4.478724E-05, 0.08758789, 0.06747838, 1.000012, -0.03810271, -0.06832249, -8.203689E-05, 0.08726958, 0.06678157, 1.000012
 86440410, -0.03158282, -0.04750884, -4.948039E-05, 0.08730946, 0.06689317, 1.000011, 0.00208836, 0.02396108, 4.478724E-05, 0.08758789, 0.06747838, 1.000012
 86540370, 0.01158312, -0.07101069, -0.0001578318, 0.08769914, 0.06675439, 1.000011, -0.03158282, -0.04750884, -4.948039E-05, 0.08730946, 0.06689317, 1.000011
 86640330, -0.07084934, -0.03399802, 3.320843E-05, 0.08706946, 0.06697509, 1.000012, 0.01158312, -0.07101069, -0.0001578318, 0.08769914, 0.06675439, 1.000011
 86740290, 0.06454436, -0.02710384, -0.0001457546, 0.08830084, 0.06699315, 1.000011, -0.07084934, -0.03399802, 3.320843E-05, 0.08706946, 0.06697509, 1.000012
 86840250, 0.01486344, 0.04891064, 7.633556E-05, 0.08770708, 0.06777261, 1.000013, 0.06454436, -0.02710384, -0.0001457546, 0.08830084, 0.06699315, 1.000011
 86940210, -0.07011474, 0.02861273, 0.0001568429, 0.08709802, 0.06749675, 1.000014, 0.01486344, 0.04891064, 7.633556E-05, 0.08770708, 0.06777261, 1.000013
 87040170, -0.04919112, -0.02890692, 1.23123E-05, 0.08718628, 0.0670054, 1.000013, -0.07011474, 0.02861273, 0.0001568429, 0.08709802, 0.06749675, 1.000014
 87140963, 0.06817226, -0.07502493, -0.0002468528, 0.08839067, 0.06668244, 1.00001, -0.04919112, -0.02890692, 1.23123E-05, 0.08718628, 0.0670054, 1.000013
 87240923, 0.01982215, -0.05317805, -0.0001344688, 0.08777043, 0.06683491, 1.000012, 0.06817226, -0.07502493, -0.0002468528, 0.08839067, 0.06668244, 1.00001
 87340883, 0.07595717, 0.03947189, -2.894732E-05, 0.08842963, 0.06765024, 1.000013, 0.01982215, -0.05317805, -0.0001344688, 0.08777043, 0.06683491, 1.000012
 87440843, 0.01268548, 0.004065041, -9.894914E-06, 0.08768061, 0.06726732, 1.000013, 0.07595717, 0.03947189, -2.894732E-05, 0.08842963, 0.06765024, 1.000013
 87540803, -0.05131299, 0.039534, 0.0001525181, 0.08719949, 0.06761719, 1.000014, 0.01268548, 0.004065041, -9.894914E-06, 0.08768061, 0.06726732, 1.000013
 87640763, -0.07251461, -0.04795702, 7.262897E-06, 0.08706193, 0.06687803, 1.000013, -0.05131299, 0.039534, 0.0001525181, 0.08719949, 0.06761719, 1.000014
 87740723, -0.05799599, 0.008991376, 0.0001009401, 0.08715022, 0.06730013, 1.000014, -0.07251461, -0.04795702, 7.262897E-06, 0.08706193, 0.06687803, 1.000013
 87840683, -0.03091186, 0.009759413, 6.382071E-05, 0.08731848, 0.06731748, 1.000013, -0.05799599, 0.008991376, 0.0001009401, 0.08715022, 0.06730013, 1.000014
 87940643, -0.0587457, -0.03760724, 8.774397E-06, 0.08713761, 0.06694201, 1.000013, -0.03091186, 0.009759413, 6.382071E-05, 0.08731848, 0.06731748, 1.000013
 88040603, 0.05697744, 0.004332264, -7.307751E-05, 0.08819621, 0.0672636, 1.000011, -0.0587457, -0.03760724, 8.774397E-06, 0.08713761, 0.06694201, 1.000013
 88140563, -0.0603565, -0.06739624, -4.852175E-05, 0.08713362, 0.06678531, 1.000012, 0.05697744, 0.004332264, -7.307751E-05, 0.08819621, 0.0672636, 1.000011
 88240523, 0.003863917, 0.06133403, 0.0001177108, 0.08762448, 0.06791423, 1.000013, -0.0603565, -0.06739624, -4.852175E-05, 0.08713362, 0.06678531, 1.000012
 88340483, -0.01580433, 0.03504914, 9.343572E-05, 0.08744847, 0.06757815, 1.000013, 0.003863917, 0.06133403, 0.0001177108, 0.08762448, 0.06791423, 1.000013
 88440443, -0.000730228, -0.02104734, -4.148657E-05, 0.08757432, 0.06704055, 1.000012, -0.01580433, 0.03504914, 9.343572E-05, 0.08744847, 0.06757815, 1.000013
 88540403, -0.03744105, -0.0631588, -7.322582E-05, 0.08729494, 0.06678574, 1.000011, -0.000730228, -0.02104734, -4.148657E-05, 0.08757432, 0.06704055, 1.000012
 88640363, 0.03460052, -0.05253223, -0.0001569843, 0.08797634, 0.06680879, 1.00001, -0.03744105, -0.0631588, -7.322582E-05, 0.08729494, 0.06678574, 1.000011
 88740323, 0.07602419, 0.03260293, -4.546913E-05, 0.08847428, 0.06754687, 1.00001, 0.03460052, -0.05253223, -0.0001569843, 0.08797634, 0.06680879, 1.00001
 88840283, 0.0421561, -0.0752378, -0.0002147374, 0.08808945, 0.06667758, 1.000009, 0.07602419, 0.03260293, -4.546913E-05, 0.08847428, 0.06754687, 1.00001
 88940243, -0.03734771, 0.06040858, 0.0001781412, 0.08733962, 0.06785096, 1.000013, 0.0421561, -0.0752378, -0.0002147374, 0.08808945, 0.06667758, 1.000009
 89040203, 0.04802453, -0.003124692, -7.719799E-05, 0.0881231, 0.06715923, 1.00001, -0.03734771, 0.06040858, 0.0001781412, 0.08733962, 0.06785096, 1.000013
 89140163, 0.02120726, 0.03857889, 4.766482E-05, 0.08781788, 0.06760041, 1.000012, 0.04802453, -0.003124692, -7.719799E-05, 0.0881231, 0.06715923, 1.00001
 89240956, 0.04975772, 0.03544821, -8.655406E-07, 0.08813783, 0.06756573, 1.000011, 0.02120726, 0.03857889, 4.766482E-05, 0.08781788, 0.06760041, 1.000012
 89340916, -0.03034019, -0.06952067, -9.746896E-05, 0.08736137, 0.0667351, 1.000011, 0.04975772, 0.03544821, -8.655406E-07, 0.08813783, 0.06756573, 1.000011
 89440876, -0.0253294, 0.004010637, 4.521048E-05, 0.08738634, 0.06723545, 1.000013, -0.03034019, -0.06952067, -9.746896E-05, 0.08736137, 0.0667351, 1.000011
 89540836, 0.02791188, -0.03493775, -0.0001117442, 0.08788439, 0.06691801, 1.000011, -0.0253294, 0.004010637, 4.521048E-05, 0.08738634, 0.06723545, 1.000013
 89640796, 0.01312277, 0.07539115, 0.0001337167, 0.08773133, 0.06809529, 1.000013, 0.02791188, -0.03493775, -0.0001117442, 0.08788439, 0.06691801, 1.000011
 89740756, 0.04277449, -0.06763471, -0.0001986491, 0.08807105, 0.06672263, 1.00001, 0.01312277, 0.07539115, 0.0001337167, 0.08773133, 0.06809529, 1.000013
 89840716, 0.06119004, 0.006213626, -7.583159E-05, 0.08825833, 0.06727275, 1.000011, 0.04277449, -0.06763471, -0.0001986491, 0.08807105, 0.06672263, 1.00001
 89940676, -0.06527814, 0.06221636, 0.0002192093, 0.08716171, 0.06787767, 1.000014, 0.06119004, 0.006213626, -7.583159E-05, 0.08825833, 0.06727275, 1.000011
 90040636, 0.02862594, -0.0006311366, -4.246486E-05, 0.0878625, 0.06722388, 1.000012, -0.06527814, 0.06221636, 0.0002192093, 0.08716171, 0.06787767, 1.000014
 90140596, 0.005542116, 0.009690333, 1.145488E-05, 0.0876222, 0.06732742, 1.000012, 0.02862594, -0.0006311366, -4.246486E-05, 0.0878625, 0.06722388, 1.000012
 90240556, 0.01549679, 0.06027712, 9.829727E-05, 0.08772528, 0.06791603, 1.000013, 0.005542116, 0.009690333, 1.145488E-05, 0.0876222, 0.06732742, 1.000012
 90340516, 0.07194116, -0.04053611, -0.0001837813, 0.08841842, 0.06688827, 1.00001, 0.01549679, 0.06027712, 9.829727E-05, 0.08772528, 0.06791603, 1.000013
 90440476, 0.01055461, 0.05049446, 8.549473E-05, 0.08767043, 0.06779546, 1.000013, 0.07194116, -0.04053611, -0.0001837813, 0.08841842, 0.06688827, 1.00001
 90540436, -0.03318373, 0.05065408, 0.0001481581, 0.08731546, 0.06777786, 1.000013, 0.01055461, 0.05049446, 8.549473E-05, 0.08767043, 0.06779546, 1.000013
 90640396, -0.06256705, 0.07180601, 0.0002318853, 0.08716545, 0.06802692, 1.000014, -0.03318373, 0.05065408, 0.0001481581, 0.08731546, 0.06777786, 1.000013
 90740356, -0.01405335, -0.05511952, -8.94357E-05, 0.08744248, 0.06685544, 1.000011, -0.06256705, 0.07180601, 0.0002318853, 0.08716545, 0.06802692, 1.000014
 90840316, -0.06188709, -0.002689923, 8.261253E-05, 0.08711599, 0.06722058, 1.000013, -0.01405335, -0.05511952, -8.94357E-05, 0.08744248, 0.06685544, 1.000011
 90940276, -0.01020865, 0.02138619, 5.697993E-05, 0.08746955, 0.06746099, 1.000013, -0.06188709, -0.002689923, 8.261253E-05, 0.08711599, 0.06722058, 1.000013
 91040236, 0.03335997, -0.03539405, -0.0001177946, 0.08791082, 0.06695634, 1.000011, -0.01020865, 0.02138619, 5.697993E-05, 0.08746955, 0.06746099, 1.000013
 91140196, -0.0759999, -0.04950484, 1.004006E-05, 0.08704249, 0.06689256, 1.000012, 0.03335997, -0.03539405, -0.0001177946, 0.08791082, 0.06695634, 1.000011
 91240156, 0.05987569, 0.06898209, 5.133618E-05, 0.0882215, 0.06806175, 1.000012, -0.0759999, -0.04950484, 1.004006E-05, 0.08704249, 0.06689256, 1.000012
 91340949, -0.02182058, 0.06161888, 0.0001532624, 0.08740651, 0.06793399, 1.000012, 0.05987569, 0.06898209, 5.133618E-05, 0.0882215, 0.06806175, 1.000012
 91440909, -0.01592456, 0.06295791, 0.000147326, 0.08745416, 0.0679583, 1.000012, -0.02182058, 0.06161888, 0.0001532624, 0.08740651, 0.06793399, 1.000012
 91540869, -0.06756476, 0.04275354, 0.0001813431, 0.0871272, 0.0676768, 1.000012, -0.01592456, 0.06295791, 0.000147326, 0.08745416, 0.0679583, 1.000012
 91640829, -0.02871137, 0.05317902, 0.0001461598, 0.08735368, 0.06782869, 1.000012, -0.06756476, 0.04275354, 0.0001813431, 0.0871272, 0.0676768, 1.000012
 91740789, 0.0412753, 0.03450887, 9.07603E-06, 0.08799408, 0.06762468, 1.000011, -0.02871137, 0.05317902, 0.0001461598, 0.08735368, 0.06782869, 1.000012
 91840749, -0.04830628, 0.04092051, 0.0001497794, 0.08721709, 0.06767095, 1.000012, 0.0412753, 0.03450887, 9.07603E-06, 0.08799408, 0.06762468, 1.000011
 91940709, -0.06272934, -0.06614175, -4.103667E-05, 0.08710873, 0.06682596, 1.000011, -0.04830628, 0.04092051, 0.0001497794, 0.08721709, 0.06767095, 1.000012
 92040669, -0.0350646, -0.06024046, -6.889479E-05, 0.08728072, 0.06684858, 1.00001, -0.06272934, -0.06614175, -4.103667E-05, 0.08710873, 0.06682596, 1.000011
 92140629, 0.08047073, 0.03342543, -4.870103E-05, 0.08849409, 0.0676092, 1.00001, -0.0350646, -0.06024046, -6.889479E-05, 0.08728072, 0.06684858, 1.00001
 92240589, 0.06667386, 0.02953816, -3.671496E-05, 0.0883048, 0.06756613, 1.00001, 0.08047073, 0.03342543, -4.870103E-05, 0.08849409, 0.0676092, 1.00001
 92340549, 0.04128528, 0.03892575, 1.810511E-05, 0.0879866, 0.06767727, 1.000011, 0.06667386, 0.02953816, -3.671496E-05, 0.0883048, 0.06756613, 1.00001
 92440509, 0.02768512, -0.01374279, -6.659918E-05, 0.08783799, 0.06713875, 1.000011, 0.04128528, 0.03892575, 1.810511E-05, 0.0879866, 0.06767727, 1.000011
 92540469, -0.01209724, 0.03668001, 8.986121E-05, 0.08746151, 0.06763693, 1.000012, 0.02768512, -0.01374279, -6.659918E-05, 0.08783799, 0.06713875, 1.000011
 92640429, 0.008481209, 0.01823235, 2.402194E-05, 0.08764036, 0.06743833, 1.000011, -0.01209724, 0.03668001, 8.986121E-05, 0.08746151, 0.06763693, 1.000012
 92740389, 0.01823704, -0.008373646, -4.263522E-05, 0.08773818, 0.06718204, 1.000011, 0.008481209, 0.01823235, 2.402194E-05, 0.08764036, 0.06743833, 1.000011
 92840349, -0.06465388, -0.02834526, 3.59866E-05, 0.08709823, 0.06702501, 1.000012, 0.01823704, -0.008373646, -4.263522E-05, 0.08773818, 0.06718204, 1.000011
 92940309, 0.05579625, -0.03199742, -0.0001433552, 0.08818848, 0.06697164, 1.00001, -0.06465388, -0.02834526, 3.59866E-05, 0.08709823, 0.06702501, 1.000012
 93040269, 0.009832885, 0.05469385, 9.480145E-05, 0.08766314, 0.06785388, 1.000013, 0.05579625, -0.03199742, -0.0001433552, 0.08818848, 0.06697164, 1.00001
 93140229, -0.03398653, -0.03444952, -2.006249E-05, 0.08728652, 0.06697989, 1.000012, 0.009832885, 0.05469385, 9.480145E-05, 0.08766314, 0.06785388, 1.000013
 93240189, 0.01484881, -0.003205128, -2.763968E-05, 0.08770515, 0.06721735, 1.000012, -0.03398653, -0.03444952, -2.006249E-05, 0.08728652, 0.06697989, 1.000012
 93340149, 0.030819, 0.0136763, -1.685516E-05, 0.08787504, 0.06737754, 1.000012, 0.01484881, -0.003205128, -2.763968E-05, 0.08770515, 0.06721735, 1.000012
 93440942, -0.06617638, -0.02736405, 4.030734E-05, 0.08709797, 0.06702001, 1.000012, 0.030819, 0.0136763, -1.685516E-05, 0.08787504, 0.06737754, 1.000012
 93540902, 0.04188894, 0.02362245, -1.293816E-05, 0.08800515, 0.06747748, 1.000012, -0.06617638, -0.02736405, 4.030734E-05, 0.08709797, 0.06702001, 1.000012
 93640862, 0.01699122, -0.07252535, -0.0001699711, 0.08776478, 0.06673753, 1.00001, 0.04188894, 0.02362245, -1.293816E-05, 0.08800515, 0.06747748, 1.000012
 93740822, -0.01718353, -0.007512148, 9.684907E-06, 0.08742465, 0.06716867, 1.000012, 0.01699122, -0.07252535, -0.0001699711, 0.08776478, 0.06673753, 1.00001
 93840782, -0.05770871, 0.07357773, 0.0002312104, 0.08720413, 0.06803894, 1.000014, -0.01718353, -0.007512148, 9.684907E-06, 0.08742465, 0.06716867, 1.000012
 93940742, -0.06447219, 0.05119105, 0.0001962544, 0.08715677, 0.06774762, 1.000013, -0.05770871, 0.07357773, 0.0002312104, 0.08720413, 0.06803894, 1.000014
 94040702, -0.0007344109, -0.01936667, -3.789985E-05, 0.08757613, 0.06706855, 1.000011, -0.06447219, 0.05119105, 0.0001962544, 0.08715677, 0.06774762, 1.000013
 94140662, -0.05575178, -0.06711709, -5.422311E-05, 0.08717063, 0.06678454, 1.000011, -0.0007344109, -0.01936667, -3.789985E-05, 0.08757613, 0.06706855, 1.000011
 94240622, -0.0406421, -0.01912274, 2.052977E-05, 0.08726428, 0.06706523, 1.000012, -0.05575178, -0.06711709, -5.422311E-05, 0.08717063, 0.06678454, 1.000011
 94340582, -0.0692582, 0.004688505, 0.0001103366, 0.08711314, 0.0672508, 1.000012, -0.0406421, -0.01912274, 2.052977E-05, 0.08726428, 0.06706523, 1.000012
 94440542, -0.01077785, 0.04349983, 0.0001035839, 0.08750345, 0.06768122, 1.000012, -0.0692582, 0.004688505, 0.0001103366, 0.08711314, 0.0672508, 1.000012
 94540502, 0.008220786, 0.0481149, 8.470657E-05, 0.08767843, 0.06775298, 1.000011, -0.01077785, 0.04349983, 0.0001035839, 0.08750345, 0.06768122, 1.000012
 94640462, 0.03660219, -0.005015903, -6.385057E-05, 0.08797922, 0.06719196, 1.000008, 0.008220786, 0.0481149, 8.470657E-05, 0.08767843, 0.06775298, 1.000011
 94740422, 0.07060383, 0.04653342, -1.066494E-05, 0.08839442, 0.06775305, 1.000009, 0.03660219, -0.005015903, -6.385057E-05, 0.08797922, 0.06719196, 1.000008
 94840382, 0.05407051, -0.06348588, -0.0002057991, 0.08822341, 0.06676729, 1.000007, 0.07060383, 0.04653342, -1.066494E-05, 0.08839442, 0.06775305, 1.000009
 94940342, -0.03755334, 0.02024352, 9.505029E-05, 0.0872997, 0.06744406, 1.00001, 0.05407051, -0.06348588, -0.0002057991, 0.08822341, 0.06676729, 1.000007
 95040302, -0.03046305, 0.0197658, 8.346626E-05, 0.08734149, 0.06744673, 1.00001, -0.03755334, 0.02024352, 9.505029E-05, 0.0872997, 0.06744406, 1.00001
 95140262, -0.05561, -0.002362505, 7.593157E-05, 0.08717334, 0.06723387, 1.00001, -0.03046305, 0.0197658, 8.346626E-05, 0.08734149, 0.06744673, 1.00001
 95240222, -0.005957109, 0.06568641, 0.0001385274, 0.087543, 0.06800455, 1.000011, -0.05561, -0.002362505, 7.593157E-05, 0.08717334, 0.06723387, 1.00001
 95340182, -0.03192385, -0.03909989, -3.109362E-05, 0.08731498, 0.06696959, 1.000009, -0.005957109, 0.06568641, 0.0001385274, 0.087543, 0.06800455, 1.000011
 95440975, -0.003455314, -0.07005733, -0.0001330224, 0.08755872, 0.06679713, 1.000008, -0.03192385, -0.03909989, -3.109362E-05, 0.08731498, 0.06696959, 1.000009
 95540935, -0.004676642, 0.07295012, 0.0001502099, 0.08755124, 0.06811514, 1.000011, -0.003455314, -0.07005733, -0.0001330224, 0.08755872, 0.06679713, 1.000008
 95640895, 0.03855637, -0.03997951, -0.0001338536, 0.08798412, 0.06695093, 1.000008, -0.004676642, 0.07295012, 0.0001502099, 0.08755124, 0.06811514, 1.000011
 95740855, 0.0785231, 0.02726087, -5.909761E-05, 0.08847331, 0.06755513, 1.000009, 0.03855637, -0.03997951, -0.0001338536, 0.08798412, 0.06695093, 1.000008
 95840815, 0.02203367, -0.03092142, -9.201615E-05, 0.08778714, 0.06702953, 1.000008, 0.0785231, 0.02726087, -5.909761E-05, 0.08847331, 0.06755513, 1.000009
 95940775, 0.0187304, -0.06188671, -0.0001479023, 0.08776411, 0.06683627, 1.000008, 0.02203367, -0.03092142, -9.201615E-05, 0.08778714, 0.06702953, 1.000008
 96040735, -0.05500948, -0.02192336, 3.549385E-05, 0.08714828, 0.06710088, 1.00001, 0.0187304, -0.06188671, -0.0001479023, 0.08776411, 0.06683627, 1.000008
 96140695, -0.02830349, 0.02789062, 9.488082E-05, 0.08733111, 0.06755838, 1.000011, -0.05500948, -0.02192336, 3.549385E-05, 0.08714828, 0.06710088, 1.00001
 96240655, -0.02964336, 0.01834237, 7.80424E-05, 0.08731674, 0.06745971, 1.000011, -0.02830349, 0.02789062, 9.488082E-05, 0.08733111, 0.06755838, 1.000011
 96340615, 0.06088082, -0.06690163, -0.0002176285, 0.08827659, 0.06677882, 1.000008, -0.02964336, 0.01834237, 7.80424E-05, 0.08731674, 0.06745971, 1.000011
 96440575, -0.07478286, -0.04437279, 1.957438E-05, 0.08704263, 0.06695304, 1.00001, 0.06088082, -0.06690163, -0.0002176285, 0.08827659, 0.06677882, 1.000008
 96540535, -0.05492489, -0.04862642, -1.730699E-05, 0.08714269, 0.06692735, 1.00001, -0.07478286, -0.04437279, 1.957438E-05, 0.08704263, 0.06695304, 1.00001
 96640495, 0.06296219, -0.005487, -0.0001001527, 0.08825777, 0.0672155, 1.00001, -0.05492489, -0.04862642, -1.730699E-05, 0.08714269, 0.06692735, 1.00001
 96740455, -0.04753955, 0.06593121, 0.0001971087, 0.0872256, 0.06798992, 1.000013, 0.06296219, -0.005487, -0.0001001527, 0.08825777, 0.0672155, 1.00001
 96840415, 0.02320595, -0.07311304, -0.0001768713, 0.08780767, 0.06676747, 1.00001, -0.04753955, 0.06593121, 0.0001971087, 0.0872256, 0.06798992, 1.000013
 96940375, 0.05479299, -0.06056391, -0.0001968407, 0.08818168, 0.06680783, 1.00001, 0.02320595, -0.07311304, -0.0001768713, 0.08780767, 0.06676747, 1.00001
 97040335, -0.01055929, -0.04376056, -7.116603E-05, 0.08745888, 0.06694336, 1.000011, 0.05479299, -0.06056391, -0.0001968407, 0.08818168, 0.06680783, 1.00001
 97140295, -0.0354534, 0.04185809, 0.0001326874, 0.08728065, 0.06769895, 1.000013, -0.01055929, -0.04376056, -7.116603E-05, 0.08745888, 0.06694336, 1.000011
 97240255, 0.01518037, -0.0487792, -0.0001176597, 0.08770727, 0.06690034, 1.00001, -0.0354534, 0.04185809, 0.0001326874, 0.08728065, 0.06769895, 1.000013
 97340215, -0.02559808, -0.001648527, 3.304887E-05, 0.08733521, 0.06725872, 1.000012, 0.01518037, -0.0487792, -0.0001176597, 0.08770727, 0.06690034, 1.00001
 97440175, 0.02871449, -0.04991968, -0.0001390411, 0.08785661, 0.06688843, 1.00001, -0.02559808, -0.001648527, 3.304887E-05, 0.08733521, 0.06725872, 1.000012
 97540968, 0.02448074, 0.05869113, 8.079736E-05, 0.08779588, 0.0679358, 1.000012, 0.02871449, -0.04991968, -0.0001390411, 0.08785661, 0.06688843, 1.00001
 97640928, 0.05149276, 0.007249696, -5.882925E-05, 0.08810417, 0.06733964, 1.00001, 0.02448074, 0.05869113, 8.079736E-05, 0.08779588, 0.0679358, 1.000012
 97740888, 0.03434188, 0.02611188, 2.651665E-06, 0.08789843, 0.06754097, 1.000011, 0.05149276, 0.007249696, -5.882925E-05, 0.08810417, 0.06733964, 1.00001
 97840848, 0.04224499, 0.01683383, -2.682878E-05, 0.08799014, 0.06743891, 1.000011, 0.03434188, 0.02611188, 2.651665E-06, 0.08789843, 0.06754097, 1.000011
 97940808, 0.03668191, 0.04429854, 3.5249E-05, 0.08792561, 0.06775213, 1.000012, 0.04224499, 0.01683383, -2.682878E-05, 0.08799014, 0.06743891, 1.000011
 98040768, 0.03871067, -0.03447063, -0.0001229726, 0.0879643, 0.0669824, 1.00001, 0.03668191, 0.04429854, 3.5249E-05, 0.08792561, 0.06775213, 1.000012
 98140728, 0.0253729, -0.06878881, -0.0001720199, 0.08783162, 0.06678131, 1.00001, 0.03871067, -0.03447063, -0.0001229726, 0.0879643, 0.0669824, 1.00001
 98240688, 0.03668886, 0.01567194, -2.112864E-05, 0.08792675, 0.06741786, 1.000012, 0.0253729, -0.06878881, -0.0001720199, 0.08783162, 0.06678131, 1.00001
 98340648, -0.06181713, -0.0546557, -2.021422E-05, 0.08710548, 0.06687846, 1.000011, 0.03668886, 0.01567194, -2.112864E-05, 0.08792675, 0.06741786, 1.000012
 98440608, -0.04378069, -0.03535316, -7.61175E-06, 0.08721578, 0.06698652, 1.000011, -0.06181713, -0.0546557, -2.021422E-05, 0.08710548, 0.06687846, 1.000011
 98540568, 0.07099327, 0.04734359, -7.38832E-06, 0.08835943, 0.06777597, 1.000011, -0.04378069, -0.03535316, -7.61175E-06, 0.08721578, 0.06698652, 1.000011
 98640528, -0.0333615, 0.05411565, 0.0001555366, 0.08731441, 0.06782869, 1.000013, 0.07099327, 0.04734359, -7.38832E-06, 0.08835943, 0.06777597, 1.000011
 98740488, -0.0168973, 0.05334599, 0.0001307442, 0.08743173, 0.06782324, 1.000013, -0.0333615, 0.05411565, 0.0001555366, 0.08731441, 0.06782869, 1.000013
 98840448, -0.0001180619, -0.04043383, -8.077251E-05, 0.08756484, 0.06693098, 1.000012, -0.0168973, 0.05334599, 0.0001307442, 0.08743173, 0.06782324, 1.000013
 98940408, -0.0121431, -0.02573846, -3.422125E-05, 0.08745486, 0.06703157, 1.000012, -0.0001180619, -0.04043383, -8.077251E-05, 0.08756484, 0.06693098, 1.000012
 99040368, 0.05803189, -0.03971295, -0.0001629384, 0.08822221, 0.06690059, 1.000011, -0.0121431, -0.02573846, -3.422125E-05, 0.08745486, 0.06703157, 1.000012
 99140328, -0.044478, 0.06557827, 0.0001955644, 0.08725528, 0.06794975, 1.000015, 0.05803189, -0.03971295, -0.0001629384, 0.08822221, 0.06690059, 1.000011
 99240288, -0.07284925, -0.06485589, -2.604637E-05, 0.08705681, 0.06680284, 1.000013, -0.044478, 0.06557827, 0.0001955644, 0.08725528, 0.06794975, 1.000015
 99340248, 0.05741586, -0.04830253, -0.0001797178, 0.08822113, 0.06683718, 1.000011, -0.07284925, -0.06485589, -2.604637E-05, 0.08705681, 0.06680284, 1.000013
 99440208, 0.03899256, 0.004302317, -4.735982E-05, 0.0879686, 0.06726851, 1.000012, 0.05741586, -0.04830253, -0.0001797178, 0.08822113, 0.06683718, 1.000011
 99540168, -0.02627455, 0.02973511, 9.788507E-05, 0.08735909, 0.06752347, 1.000013, 0.03899256, 0.004302317, -4.735982E-05, 0.0879686, 0.06726851, 1.000012
 99640961, 0.02605123, 0.02699137, 1.68695E-05, 0.087828, 0.06750537, 1.000013, -0.02627455, 0.02973511, 9.788507E-05, 0.08735909, 0.06752347, 1.000013
 99740921, -0.01479041, -0.04489028, -6.915715E-05, 0.08743934, 0.06689601, 1.000012, 0.02605123, 0.02699137, 1.68695E-05, 0.087828, 0.06750537, 1.000013
 99840881, -0.0756788, -0.06092997, -1.413702E-05, 0.08704136, 0.06682219, 1.000013, -0.01479041, -0.04489028, -6.915715E-05, 0.08743934, 0.06689601, 1.000012
 99940841, -0.05849048, 0.07427328, 0.0002326324, 0.08718266, 0.06805449, 1.000015, -0.0756788, -0.06092997, -1.413702E-05, 0.08704136, 0.06682219, 1.000013
 100040801, 0.00448652, -0.02834458, -6.3215E-05, 0.08759671, 0.06700959, 1.000013, -0.05849048, 0.07427328, 0.0002326324, 0.08718266, 0.06805449, 1.000015
 100140761, -0.03259597, -0.0187968, 8.733627E-06, 0.08728343, 0.06709009, 1.000013, 0.00448652, -0.02834458, -6.3215E-05, 0.08759671, 0.06700959, 1.000013
 100240721, 0.06795568, 0.05630894, 1.595607E-05, 0.08830667, 0.06788681, 1.000013, -0.03259597, -0.0187968, 8.733627E-06, 0.08728343, 0.06709009, 1.000013
 100340681, 0.0671917, 0.05529773, 1.5305E-05, 0.08829071, 0.06787529, 1.000014, 0.06795568, 0.05630894, 1.595607E-05, 0.08830667, 0.06788681, 1.000013
 100440641, 0.02566526, -0.04675324, -0.0001291173, 0.08780705, 0.06689056, 1.000013, 0.0671917, 0.05529773, 1.5305E-05, 0.08829071, 0.06787529, 1.000014
 100540601, 0.01245028, -0.0243346, -6.586739E-05, 0.08765704, 0.06705353, 1.000013, 0.02566526, -0.04675324, -0.0001291173, 0.08780705, 0.06689056, 1.000013
 100640561, 0.05935425, -0.0552419, -0.0001929248, 0.08822232, 0.06681985, 1.000012, 0.01245028, -0.0243346, -6.586739E-05, 0.08765704, 0.06705353, 1.000013
 100740521, -0.0396297, -0.05589587, -5.553086E-05, 0.08721637, 0.06686549, 1.000014, 0.05935425, -0.0552419, -0.0001929248, 0.08822232, 0.06681985, 1.000012
 100840481, -0.002772976, 0.0615578, 0.0001260726, 0.08751723, 0.06794637, 1.000015, -0.0396297, -0.05589587, -5.553086E-05, 0.08721637, 0.06686549, 1.000014
 100940441, 0.07424212, 0.04765901, -9.333606E-06, 0.08837164, 0.06778651, 1.000014, -0.002772976, 0.0615578, 0.0001260726, 0.08751723, 0.06794637, 1.000015
 101040401, -0.005836213, -0.0103782, -1.235643E-05, 0.08747236, 0.06717992, 1.000014, 0.07424212, 0.04765901, -9.333606E-06, 0.08837164, 0.06778651, 1.000014
 101140361, -0.04125195, -0.04499845, -3.132358E-05, 0.08719665, 0.0669388, 1.000014, -0.005836213, -0.0103782, -1.235643E-05, 0.08747236, 0.06717992, 1.000014
 101240321, 0.05399059, -0.04469915, -0.0001629813, 0.0881307, 0.06690703, 1.000012, -0.04125195, -0.04499845, -3.132358E-05, 0.08719665, 0.0669388, 1.000014
 101340281, -0.02048036, -0.01819045, -7.227114E-06, 0.08734616, 0.06712875, 1.000013, 0.05399059, -0.04469915, -0.0001629813, 0.0881307, 0.06690703, 1.000012
 101440241, 0.06495612, -0.05662816, -0.000201321, 0.08828877, 0.06683265, 1.000011, -0.02048036, -0.01819045, -7.227114E-06, 0.08734616, 0.06712875, 1.000013
 101540201, -0.02985035, 0.03204428, 0.0001041634, 0.08728566, 0.06760589, 1.000014, 0.06495612, -0.05662816, -0.000201321, 0.08828877, 0.06683265, 1.000011
 101640161, -0.02308335, 0.04607509, 0.0001221347, 0.08733956, 0.06777143, 1.000014, -0.02985035, 0.03204428, 0.0001041634, 0.08728566, 0.06760589, 1.000014
 101740954, 0.07617752, 0.06708049, 2.531549E-05, 0.08839044, 0.06807345, 1.000013, -0.02308335, 0.04607509, 0.0001221347, 0.08733956, 0.06777143, 1.000014
 101840914, 0.03450238, -0.04117348, -0.0001284624, 0.08788875, 0.06695603, 1.000012, 0.07617752, 0.06708049, 2.531549E-05, 0.08839044, 0.06807345, 1.000013
 101940874, -0.001708578, 0.001037014, 4.399145E-06, 0.08750185, 0.06730195, 1.000013, 0.03450238, -0.04117348, -0.0001284624, 0.08788875, 0.06695603, 1.000012
 102040834, -0.02911936, 0.05895903, 0.0001556116, 0.08730289, 0.06792895, 1.000014, -0.001708578, 0.001037014, 4.399145E-06, 0.08750185, 0.06730195, 1.000013
 102140794, -0.01744318, -0.05866518, -9.045401E-05, 0.08737379, 0.0668769, 1.000012, -0.02911936, 0.05895903, 0.0001556116, 0.08730289, 0.06792895, 1.000014
 102240754, -0.03244791, 0.006949644, 5.860834E-05, 0.08725604, 0.06735262, 1.000013, -0.01744318, -0.05866518, -9.045401E-05, 0.08737379, 0.0668769, 1.000012
 102340714, -0.08194475, -0.0609825, -5.327885E-06, 0.08697423, 0.06687466, 1.000013, -0.03244791, 0.006949644, 5.860834E-05, 0.08725604, 0.06735262, 1.000013
 102440674, 0.06896517, -0.05539394, -0.0002044937, 0.08834413, 0.06683972, 1.000011, -0.08194475, -0.0609825, -5.327885E-06, 0.08697423, 0.06687466, 1.000013
 102540634, -0.04901244, 0.03951171, 0.0001457271, 0.08717366, 0.06767973, 1.000014, 0.06896517, -0.05539394, -0.0002044937, 0.08834413, 0.06683972, 1.000011
 102640594, 0.06715924, -0.07555944, -0.0002418477, 0.08834356, 0.06673343, 1.00001, -0.04901244, 0.03951171, 0.0001457271, 0.08717366, 0.06767973, 1.000014
 102740554, -0.001427589, -0.05184761, -9.944556E-05, 0.08752622, 0.06690688, 1.000011, 0.06715924, -0.07555944, -0.0002418477, 0.08834356, 0.06673343, 1.00001
 102840514, -0.03635412, -0.003292875, 4.459868E-05, 0.08724226, 0.06725826, 1.000012, -0.001427589, -0.05184761, -9.944556E-05, 0.08752622, 0.06690688, 1.000011
 102940474, 0.07916951, 0.06698175, 1.994017E-05, 0.08844452, 0.06807259, 1.000012, -0.03635412, -0.003292875, 4.459868E-05, 0.08724226, 0.06725826, 1.000012
 103040434, 0.05506418, -5.851639E-05, -7.748934E-05, 0.08813475, 0.06728175, 1.000011, 0.07916951, 0.06698175, 1.994017E-05, 0.08844452, 0.06807259, 1.000012
 103140394, 0.02178854, -0.0104234, -5.109542E-05, 0.08775243, 0.06719797, 1.000011, 0.05506418, -5.851639E-05, -7.748934E-05, 0.08813475, 0.06728175, 1.000011
 103240354, -0.04719145, 0.04762383, 0.000159805, 0.08720468, 0.06777754, 1.000012, 0.02178854, -0.0104234, -5.109542E-05, 0.08775243, 0.06719797, 1.000011
 103340314, -0.01166876, 0.02625413, 6.787301E-05, 0.08744054, 0.06755092, 1.000012, -0.04719145, 0.04762383, 0.000159805, 0.08720468, 0.06777754, 1.000012
 103440274, -0.01336976, 0.03151754, 8.064023E-05, 0.08742767, 0.06760602, 1.000012, -0.01166876, 0.02625413, 6.787301E-05, 0.08744054, 0.06755092, 1.000012
 103540234, 0.08133925, 0.04779178, -2.103447E-05, 0.08848201, 0.06780975, 1.000011, -0.01336976, 0.03151754, 8.064023E-05, 0.08742767, 0.06760602, 1.000012
 103640194, 0.04921441, 0.03087295, -8.85842E-06, 0.08806068, 0.06760409, 1.000011, 0.08133925, 0.04779178, -2.103447E-05, 0.08848201, 0.06780975, 1.000011
 103740154, -0.03890341, -0.010154, 3.49749E-05, 0.08723016, 0.0671941, 1.000012, 0.04921441, 0.03087295, -8.85842E-06, 0.08806068, 0.06760409, 1.000011
 103840947, 0.06705101, -0.06919636, -0.0002308226, 0.08834651, 0.06675745, 1.00001, -0.03890341, -0.010154, 3.49749E-05, 0.08723016, 0.0671941, 1.000012
 103940907, 0.0752693, -0.01056004, -0.0001270611, 0.08841611, 0.0671613, 1.000011, 0.06705101, -0.06919636, -0.0002308226, 0.08834651, 0.06675745, 1.00001
 104040867, -0.01376339, -0.05152788, -8.248405E-05, 0.08742264, 0.06689513, 1.000012, 0.0752693, -0.01056004, -0.0001270611, 0.08841611, 0.0671613, 1.000011
 104140827, -0.05820229, 0.08113737, 0.0002430571, 0.0871735, 0.06817809, 1.000015, -0.01376339, -0.05152788, -8.248405E-05, 0.08742264, 0.06689513, 1.000012
 104240787, 0.06760132, -0.03775206, -0.0001706147, 0.08832901, 0.06693262, 1.000011, -0.05820229, 0.08113737, 0.0002430571, 0.0871735, 0.06817809, 1.000015
 104340747, -0.01858274, -0.07454444, -0.0001218388, 0.08739739, 0.06677524, 1.000012, 0.06760132, -0.03775206, -0.0001706147, 0.08832901, 0.06693262, 1.000011
 104440707, 0.03614213, 0.03306046, 1.441552E-05, 0.08791567, 0.06760471, 1.000013, -0.01858274, -0.07454444, -0.0001218388, 0.08739739, 0.06677524, 1.000012
 104540667, -0.03316758, 0.04927802, 0.0001456654, 0.08730493, 0.06777013, 1.000014, 0.03614213, 0.03306046, 1.441552E-05, 0.08791567, 0.06760471, 1.000013
 104640627, 0.05198174, -0.08035757, -0.0002351381, 0.08817234, 0.06668943, 1.00001, -0.03316758, 0.04927802, 0.0001456654, 0.08730493, 0.06777013, 1.000014
 104740587, 0.02149326, -0.05695895, -0.0001448505, 0.08779056, 0.06682628, 1.000011, 0.05198174, -0.08035757, -0.0002351381, 0.08817234, 0.06668943, 1.00001
 104840547, 0.06999031, 0.02208608, -5.62207E-05, 0.08835147, 0.0674643, 1.000011, 0.02149326, -0.05695895, -0.0001448505, 0.08779056, 0.06682628, 1.000011
 104940507, -0.04680426, 0.04279315, 0.0001525752, 0.0872207, 0.0676809, 1.000013, 0.06999031, 0.02208608, -5.62207E-05, 0.08835147, 0.0674643, 1.000011
 105040467, -0.009439032, -0.02791595, -4.221295E-05, 0.08747181, 0.06702898, 1.000012, -0.04680426, 0.04279315, 0.0001525752, 0.0872207, 0.0676809, 1.000013
 105140427, 0.008146863, 0.02604613, 4.019142E-05, 0.08762981, 0.06752345, 1.000012, -0.009439032, -0.02791595, -4.221295E-05, 0.08747181, 0.06702898, 1.000012
 105240387, -0.01457494, 0.008867376, 3.836158E-05, 0.08742514, 0.06734908, 1.000012, 0.008146863, 0.02604613, 4.019142E-05, 0.08762981, 0.06752345, 1.000012
 105340347, -0.008555223, 0.0418355, 9.491739E-05, 0.08747903, 0.06770884, 1.000013, -0.01457494, 0.008867376, 3.836158E-05, 0.08742514, 0.06734908, 1.000012
 105440307, -0.01109631, -0.01609357, -1.604557E-05, 0.08744395, 0.06713994, 1.000012, -0.008555223, 0.0418355, 9.491739E-05, 0.08747903, 0.06770884, 1.000013
 105540267, 0.04791888, -0.05173207, -0.0001695099, 0.08807775, 0.06687084, 1.00001, -0.01109631, -0.01609357, -1.604557E-05, 0.08744395, 0.06713994, 1.000012
 105640227, -0.02540946, 0.05302096, 0.0001399484, 0.08734343, 0.06784952, 1.000013, 0.04791888, -0.05173207, -0.0001695099, 0.08807775, 0.06687084, 1.00001
 105740187, 0.05562286, 0.01333529, -5.191733E-05, 0.08813532, 0.06741165, 1.000011, -0.02540946, 0.05302096, 0.0001399484, 0.08734343, 0.06784952, 1.000013
 105840147, -0.05850567, -0.06644557, -4.829559E-05, 0.08709666, 0.0668488, 1.000012, 0.05562286, 0.01333529, -5.191733E-05, 0.08813532, 0.06741165, 1.000011
 105940940, 0.0006452684, 0.02301108, 4.41179E-05, 0.08753239, 0.06752097, 1.000013, -0.05850567, -0.06644557, -4.829559E-05, 0.08709666, 0.0668488, 1.000012
 106040900, 0.03180009, 0.04115587, 3.601112E-05, 0.08784481, 0.06773406, 1.000013, 0.0006452684, 0.02301108, 4.41179E-05, 0.08753239, 0.06752097, 1.000013
 106140860, -0.01849839, -0.06065009, -9.2649E-05, 0.08736981, 0.0668717, 1.000012, 0.03180009, 0.04115587, 3.601112E-05, 0.08784481, 0.06773406, 1.000013
 106240820, 0.01642504, 0.05814093, 9.05573E-05, 0.08768336, 0.06794771, 1.000013, -0.01849839, -0.06065009, -9.2649E-05, 0.08736981, 0.0668717, 1.000012
 106340780, -0.03082534, -0.04020735, -3.558932E-05, 0.08726329, 0.06699255, 1.000012, 0.01642504, 0.05814093, 9.05573E-05, 0.08768336, 0.06794771, 1.000013
 106440740, 0.04759105, -0.07172912, -0.0002058505, 0.08806508, 0.06677983, 1.000011, -0.03082534, -0.04020735, -3.558932E-05, 0.08726329, 0.06699255, 1.000012
 106540700, -0.06034438, 0.008554364, 0.0001003673, 0.08708589, 0.06736647, 1.000013, 0.04759105, -0.07172912, -0.0002058505, 0.08806508, 0.06677983, 1.000011
 106640660, -0.02580553, -0.04044723, -4.292959E-05, 0.08729917, 0.06699398, 1.000012, -0.06034438, 0.008554364, 0.0001003673, 0.08708589, 0.06736647, 1.000013
 106740620, -0.001584982, -0.02360741, -4.372119E-05, 0.08750482, 0.06710722, 1.000012, -0.02580553, -0.04044723, -4.292959E-05, 0.08729917, 0.06699398, 1.000012
 106840580, -0.06736033, 0.04028892, 0.0001723254, 0.08707819, 0.06768852, 1.000013, -0.001584982, -0.02360741, -4.372119E-05, 0.08750482, 0.06710722, 1.000012
 106940540, -0.02728276, 0.03186724, 0.0001000409, 0.08730057, 0.06761497, 1.000013, -0.06736033, 0.04028892, 0.0001723254, 0.08707819, 0.06768852, 1.000013
 107040500, -0.005822952, 0.03259239, 7.171322E-05, 0.08746447, 0.06762774, 1.000014, -0.02728276, 0.03186724, 0.0001000409, 0.08730057, 0.06761497, 1.000013
 107140460, -0.03896143, -0.008202946, 3.796832E-05, 0.08720436, 0.06722097, 1.000013, -0.005822952, 0.03259239, 7.171322E-05, 0.08746447, 0.06762774, 1.000014
 107240420, 0.01580855, -0.05097687, -0.0001215902, 0.08767921, 0.0669072, 1.000012, -0.03896143, -0.008202946, 3.796832E-05, 0.08720436, 0.06722097, 1.000013
 107340380, -0.01418184, -0.01319208, -6.184941E-06, 0.08738507, 0.06718107, 1.000013, 0.01580855, -0.05097687, -0.0001215902, 0.08767921, 0.0669072, 1.000012
 107440340, 0.0355543, 0.007067952, -3.526147E-05, 0.08787093, 0.06735932, 1.000013, -0.01418184, -0.01319208, -6.184941E-06, 0.08738507, 0.06718107, 1.000013
 107540300, 0.05031036, 0.00664416, -5.646469E-05, 0.08804642, 0.06735549, 1.000013, 0.0355543, 0.007067952, -3.526147E-05, 0.08787093, 0.06735932, 1.000013
 107640260, 0.01328146, -0.006131701, -3.029075E-05, 0.08763387, 0.06724501, 1.000013, 0.05031036, 0.00664416, -5.646469E-05, 0.08804642, 0.06735549, 1.000013
 107740220, -0.06390981, -0.01012465, 6.858939E-05, 0.08705477, 0.0672034, 1.000014, 0.01328146, -0.006131701, -3.029075E-05, 0.08763387, 0.06724501, 1.000013
 107840180, -0.03282722, -0.02138371, 3.730238E-06, 0.08724313, 0.06712142, 1.000013, -0.06390981, -0.01012465, 6.858939E-05, 0.08705477, 0.0672034, 1.000014
 107940973, 0.06536018, -0.01557231, -0.0001211726, 0.0882591, 0.06714353, 1.000011, -0.03282722, -0.02138371, 3.730238E-06, 0.08724313, 0.06712142, 1.000013
 108040933, 0.007090346, 0.01781883, 2.492021E-05, 0.08758333, 0.06747276, 1.000013, 0.06536018, -0.01557231, -0.0001211726, 0.0882591, 0.06714353, 1.000011
 108140893, 0.03062484, -0.07196889, -0.0001834671, 0.08785889, 0.06678544, 1.000012, 0.007090346, 0.01781883, 2.492021E-05, 0.08758333, 0.06747276, 1.000013
 108240853, 0.014618, 0.02054652, 2.007697E-05, 0.08765203, 0.06749053, 1.000014, 0.03062484, -0.07196889, -0.0001834671, 0.08785889, 0.06678544, 1.000012
 108340813, 0.0707579, 0.02590486, -4.721267E-05, 0.08831394, 0.06754188, 1.000013, 0.014618, 0.02054652, 2.007697E-05, 0.08765203, 0.06749053, 1.000014
 108440773, -0.03357711, 0.008415624, 6.317553E-05, 0.08724523, 0.06735613, 1.000014, 0.0707579, 0.02590486, -4.721267E-05, 0.08831394, 0.06754188, 1.000013
 108540733, -0.07627598, -0.05300832, 1.705121E-06, 0.08699725, 0.06690197, 1.000014, -0.03357711, 0.008415624, 6.317553E-05, 0.08724523, 0.06735613, 1.000014
 108640693, -0.07611016, -0.06593557, -2.396782E-05, 0.08699977, 0.06684051, 1.000013, -0.07627598, -0.05300832, 1.705121E-06, 0.08699725, 0.06690197, 1.000014
 108740653, -0.05972161, 0.02985844, 0.0001422234, 0.0871054, 0.06755417, 1.000015, -0.07611016, -0.06593557, -2.396782E-05, 0.08699977, 0.06684051, 1.000013
 108840613, 0.05788412, 0.01879008, -4.358382E-05, 0.08815163, 0.06745759, 1.000013, -0.05972161, 0.02985844, 0.0001422234, 0.0871054, 0.06755417, 1.000015
 108940573, 0.01731988, 0.06855071, 0.0001115075, 0.08769797, 0.06806235, 1.000015, 0.05788412, 0.01879008, -4.358382E-05, 0.08815163, 0.06745759, 1.000013
 109040533, 0.06486177, -0.05480842, -0.0001992582, 0.08828606, 0.06682713, 1.000012, 0.01731988, 0.06855071, 0.0001115075, 0.08769797, 0.06806235, 1.000015
 109140493, -0.01361752, 0.03152801, 8.159412E-05, 0.08741346, 0.06758675, 1.000014, 0.06486177, -0.05480842, -0.0001992582, 0.08828606, 0.06682713, 1.000012
 109240453, 0.0733349, 0.05975216, 1.544916E-05, 0.08836238, 0.06794958, 1.000013, -0.01361752, 0.03152801, 8.159412E-05, 0.08741346, 0.06758675, 1.000014
 109340413, 0.02215363, -0.0111456, -5.32961E-05, 0.08775035, 0.06716612, 1.000013, 0.0733349, 0.05975216, 1.544916E-05, 0.08836238, 0.06794958, 1.000013
 109440373, -0.02785863, 0.00166179, 4.252762E-05, 0.08730258, 0.06727739, 1.000014, 0.02215363, -0.0111456, -5.32961E-05, 0.08775035, 0.06716612, 1.000013
 109540333, -0.02442437, -0.01706191, 4.119647E-07, 0.08732738, 0.06711566, 1.000014, -0.02785863, 0.00166179, 4.252762E-05, 0.08730258, 0.06727739, 1.000014
 109640293, -0.05329746, -0.0007253932, 7.378891E-05, 0.08714108, 0.06724106, 1.000014, -0.02442437, -0.01706191, 4.119647E-07, 0.08732738, 0.06711566, 1.000014
 109740253, 0.037585, 0.03661223, 2.000223E-05, 0.0879269, 0.06763662, 1.000014, -0.05329746, -0.0007253932, 7.378891E-05, 0.08714108, 0.06724106, 1.000014
 109840213, -0.005048641, -0.07353666, -0.0001403854, 0.0875205, 0.06675612, 1.000012, 0.037585, 0.03661223, 2.000223E-05, 0.0879269, 0.06763662, 1.000014
 109940173, 0.06498715, 0.03223911, -2.79095E-05, 0.08827315, 0.06757414, 1.000013, -0.005048641, -0.07353666, -0.0001403854, 0.0875205, 0.06675612, 1.000012
 110040966, -0.03261237, 0.06530987, 0.0001783287, 0.08732026, 0.06795426, 1.000015, 0.06498715, 0.03223911, -2.79095E-05, 0.08827315, 0.06757414, 1.000013
 110140926, -0.07233843, 0.0341033, 0.0001723667, 0.0870875, 0.06755231, 1.000014, -0.03261237, 0.06530987, 0.0001783287, 0.08732026, 0.06795426, 1.000015
 110240886, 0.02064646, -0.05052345, -0.0001313282, 0.08777688, 0.06685314, 1.000012, -0.07233843, 0.0341033, 0.0001723667, 0.0870875, 0.06755231, 1.000014
 110340846, -0.0003183603, -0.02750215, -5.478158E-05, 0.08755453, 0.06701829, 1.000012, 0.02064646, -0.05052345, -0.0001313282, 0.08777688, 0.06685314, 1.000012
 110440806, -0.0131032, -0.06607127, -0.000113639, 0.08744995, 0.06679549, 1.000012, -0.0003183603, -0.02750215, -5.478158E-05, 0.08755453, 0.06701829, 1.000012
 110540766, -0.02951215, 0.02304174, 8.809679E-05, 0.08731654, 0.06747527, 1.000013, -0.0131032, -0.06607127, -0.000113639, 0.08744995, 0.06679549, 1.000012
 110640726, 0.008224999, 0.06359679, 0.000114824, 0.08763922, 0.06797936, 1.000013, -0.02951215, 0.02304174, 8.809679E-05, 0.08731654, 0.06747527, 1.000013
 110740686, -0.06083548, -0.04691088, -6.621172E-06, 0.08710209, 0.06692298, 1.000012, 0.008224999, 0.06359679, 0.000114824, 0.08763922, 0.06797936, 1.000013
 110840646, -0.007627097, 0.07678454, 0.000162645, 0.08750066, 0.0681635, 1.000014, -0.06083548, -0.04691088, -6.621172E-06, 0.08710209, 0.06692298, 1.000012
 110940606, -0.02073755, -0.06740291, -0.0001039686, 0.08737257, 0.0668167, 1.000012, -0.007627097, 0.07678454, 0.000162645, 0.08750066, 0.0681635, 1.000014
 111040566, 0.04652435, 0.009332771, -4.715355E-05, 0.0880288, 0.06736021, 1.000012, -0.02073755, -0.06740291, -0.0001039686, 0.08737257, 0.0668167, 1.000012
 111140526, 0.003537968, 0.00114889, -2.709468E-06, 0.08756402, 0.06729046, 1.000012, 0.04652435, 0.009332771, -4.715355E-05, 0.0880288, 0.06736021, 1.000012
 111240486, -0.06116565, 0.06673554, 0.0002169314, 0.08713634, 0.06799624, 1.000014, 0.003537968, 0.00114889, -2.709468E-06, 0.08756402, 0.06729046, 1.000012
 111340446, -0.04355228, -0.01893959, 2.391882E-05, 0.08718825, 0.06712981, 1.000012, -0.06116565, 0.06673554, 0.0002169314, 0.08713634, 0.06799624, 1.000014
 111440406, 0.02718102, -0.003013768, -4.393019E-05, 0.08779848, 0.06726542, 1.000011, -0.04355228, -0.01893959, 2.391882E-05, 0.08718825, 0.06712981, 1.000012
 111540366, -0.07103379, -0.06105749, -2.007448E-05, 0.0870254, 0.06688145, 1.000012, 0.02718102, -0.003013768, -4.393019E-05, 0.08779848, 0.06726542, 1.000011
 111640326, -0.03711979, 0.05885127, 0.0001663489, 0.08725163, 0.06793033, 1.000014, -0.07103379, -0.06105749, -2.007448E-05, 0.0870254, 0.06688145, 1.000012
 111740286, -0.02896318, 0.03049482, 9.962734E-05, 0.08728878, 0.06760245, 1.000013, -0.03711979, 0.05885127, 0.0001663489, 0.08725163, 0.06793033, 1.000014
 111840246, 0.03201816, -0.02720316, -9.738666E-05, 0.08785001, 0.06707102, 1.000011, -0.02896318, 0.03049482, 9.962734E-05, 0.08728878, 0.06760245, 1.000013
 111940206, 0.03491168, 0.05403695, 5.653399E-05, 0.08787196, 0.06790756, 1.000013, 0.03201816, -0.02720316, -9.738666E-05, 0.08785001, 0.06707102, 1.000011
 112040166, -0.05166575, -0.01107411, 5.006974E-05, 0.08712416, 0.06720785, 1.000013, 0.03491168, 0.05403695, 5.653399E-05, 0.08787196, 0.06790756, 1.000013
 112140959, 0.05268075, 0.06979951, 6.258185E-05, 0.08807795, 0.06812683, 1.000013, -0.05166575, -0.01107411, 5.006974E-05, 0.08712416, 0.06720785, 1.000013
 112240919, -0.0573263, 0.05244677, 0.0001809588, 0.08712196, 0.06784463, 1.000014, 0.05268075, 0.06979951, 6.258185E-05, 0.08807795, 0.06812683, 1.000013
 112340879, -0.04871073, -0.06960785, -6.774146E-05, 0.08713596, 0.06685442, 1.000012, -0.0573263, 0.05244677, 0.0001809588, 0.08712196, 0.06784463, 1.000014
 112440839, -0.06139206, -0.02169232, 4.249647E-05, 0.0870592, 0.06712931, 1.000013, -0.04871073, -0.06960785, -6.774146E-05, 0.08713596, 0.06685442, 1.000012
 112540799, 0.009902926, 0.07247541, 0.000126646, 0.08761071, 0.06815483, 1.000014, -0.06139206, -0.02169232, 4.249647E-05, 0.0870592, 0.06712931, 1.000013
 112640759, 0.03072594, -0.0310061, -0.0001021722, 0.08782104, 0.06705481, 1.000012, 0.009902926, 0.07247541, 0.000126646, 0.08761071, 0.06815483, 1.000014
 112740719, -0.04079197, -0.003347524, 4.95967E-05, 0.08718167, 0.06728081, 1.000013, 0.03072594, -0.0310061, -0.0001021722, 0.08782104, 0.06705481, 1.000012
 112840679, 0.02573577, 0.01193421, -1.229736E-05, 0.08775651, 0.0674281, 1.000013, -0.04079197, -0.003347524, 4.95967E-05, 0.08718167, 0.06728081, 1.000013
 112940639, -0.06462157, -0.0552814, -1.815135E-05, 0.08703808, 0.06692441, 1.000013, 0.02573577, 0.01193421, -1.229736E-05, 0.08775651, 0.0674281, 1.000013
 113040599, -0.05557153, 0.04589796, 0.0001654814, 0.08712073, 0.06777094, 1.000014, -0.06462157, -0.0552814, -1.815135E-05, 0.08703808, 0.06692441, 1.000013
 113140559, 0.05569441, 0.00509793, -6.685627E-05, 0.08811169, 0.06735258, 1.000012, -0.05557153, 0.04589796, 0.0001654814, 0.08712073, 0.06777094, 1.000014
 113240519, -0.01095472, -0.04654058, -7.510198E-05, 0.08741394, 0.06696279, 1.000012, 0.05569441, 0.00509793, -6.685627E-05, 0.08811169, 0.06735258, 1.000012
 113340479, 0.05253644, -0.004850377, -8.194747E-05, 0.08807749, 0.06725653, 1.000012, -0.01095472, -0.04654058, -7.510198E-05, 0.08741394, 0.06696279, 1.000012
 113440439, 0.03258197, 0.01120272, -2.323697E-05, 0.08783602, 0.06741536, 1.000013, 0.05253644, -0.004850377, -8.194747E-05, 0.08807749, 0.06725653, 1.000012
 113540399, -0.07776382, -0.0596974, -8.518276E-06, 0.08698203, 0.06689539, 1.000013, 0.03258197, 0.01120272, -2.323697E-05, 0.08783602, 0.06741536, 1.000013
 113640359, 0.02925505, -0.0782314, -0.0001930917, 0.0878446, 0.06676805, 1.000011, -0.07776382, -0.0596974, -8.518276E-06, 0.08698203, 0.06689539, 1.000013
 113740319, -0.000816585, -0.01889309, -3.579657E-05, 0.08750319, 0.06713714, 1.000013, 0.02925505, -0.0782314, -0.0001930917, 0.0878446, 0.06676805, 1.000011
 113840279, -0.07693375, -0.02695365, 5.3747E-05, 0.08699096, 0.06706815, 1.000014, -0.000816585, -0.01889309, -3.579657E-05, 0.08750319, 0.06713714, 1.000013
 113940239, -0.05651481, -0.0122891, 5.440175E-05, 0.08709879, 0.06717639, 1.000014, -0.07693375, -0.02695365, 5.3747E-05, 0.08699096, 0.06706815, 1.000014
 114040199, 0.02808012, -0.01554326, -6.975671E-05, 0.08780345, 0.06714318, 1.000013, -0.05651481, -0.0122891, 5.440175E-05, 0.08709879, 0.06717639, 1.000014
 114140159, -0.0651619, 0.02485316, 0.0001401278, 0.08707767, 0.06749796, 1.000015, 0.02808012, -0.01554326, -6.975671E-05, 0.08780345, 0.06714318, 1.000013
 114240952, -0.06820796, -0.06404898, -3.146341E-05, 0.08704226, 0.06684036, 1.000014, -0.0651619, 0.02485316, 0.0001401278, 0.08707767, 0.06749796, 1.000015
 114340912, -0.006455474, -0.035178, -6.074367E-05, 0.08747213, 0.06699038, 1.000013, -0.06820796, -0.06404898, -3.146341E-05, 0.08704226, 0.06684036, 1.000014
 114440872, -0.07501427, -0.01983271, 6.604894E-05, 0.08702151, 0.06709069, 1.000014, -0.006455474, -0.035178, -6.074367E-05, 0.08747213, 0.06699038, 1.000013
 114540832, 0.0570243, 0.05905268, 3.761345E-05, 0.08815189, 0.06792641, 1.000014, -0.07501427, -0.01983271, 6.604894E-05, 0.08702151, 0.06709069, 1.000014
 114640792, -0.03674388, 0.05539756, 0.0001629034, 0.08726786, 0.06783534, 1.000016, 0.0570243, 0.05905268, 3.761345E-05, 0.08815189, 0.06792641, 1.000014
 114740752, -0.06985694, 0.003698123, 0.0001060432, 0.08705897, 0.06726547, 1.000015, -0.03674388, 0.05539756, 0.0001629034, 0.08726786, 0.06783534, 1.000016
 114840712, 0.05504989, 0.0301768, -1.724449E-05, 0.08813209, 0.06755491, 1.000014, -0.06985694, 0.003698123, 0.0001060432, 0.08705897, 0.06726547, 1.000015
 114940672, 0.02389108, -0.07480527, -0.0001845012, 0.08780897, 0.06672461, 1.000013, 0.05504989, 0.0301768, -1.724449E-05, 0.08813209, 0.06755491, 1.000014
 115040632, -0.03252914, -0.007839812, 3.029956E-05, 0.08727731, 0.06716313, 1.000015, 0.02389108, -0.07480527, -0.0001845012, 0.08780897, 0.06672461, 1.000013
