TimeUS,COFN,COFE,COFD,CNe,CEe,CDe,POFN,POFE,POFD,PNe,PEe,PDe
 77693910, -0.02512502, -0.0165019, 0.006621065, 0.02634739, -0.02734199, 0.0001324584, 0, 0, 0, 0, 0, 0
 77806365, -0.001216588, -0.002974477, -7.24434E-06, 0.02643006, -0.02806057, 0.4000039, -0.02512502, -0.0165019, 0.006621065, 0.02634739, -0.02734199, 0.0001324584
 78006285, -0.001141423, -0.001985031, -5.458226E-06, 0.02680251, -0.0284116, 0.400004, -0.001216588, -0.002974477, -7.24434E-06, 0.02643006, -0.02806057, 0.4000039
 78206205, -0.001010814, 0.003857225, 5.338035E-06, 0.02680662, -0.02828544, 0.400004, -0.001141423, -0.001985031, -5.458226E-06, 0.02680251, -0.0284116, 0.400004
 78406125, -0.0004240602, -0.0001831688, -3.391301E-07, 0.02681975, -0.02837355, 0.4000038, -0.001010814, 0.003857225, 5.338035E-06, 0.02680662, -0.02828544, 0.400004
 78606045, 0.001456951, 0.001218447, 5.539579E-06, 0.02686182, -0.02834226, 0.400004, -0.0004240602, -0.0001831688, -3.391301E-07, 0.02681975, -0.02837355, 0.4000038
 78805965, 0.001942253, 0.002342737, 7.591355E-06, 0.02687262, -0.02831961, 0.4000039, 0.001456951, 0.001218447, 5.539579E-06, 0.02686182, -0.02834226, 0.400004
 79005885, -0.002385505, 0.0045309, 3.172652E-06, 0.02677544, -0.02827454, 0.4000039, 0.001942253, 0.002342737, 7.591355E-06, 0.02687262, -0.02831961, 0.4000039
 79205805, -0.0009026991, 0.001590899, 9.976056E-07, 0.02680726, -0.02833884, 0.4000037, -0.002385505, 0.0045309, 3.172652E-06, 0.02677544, -0.02827454, 0.4000039
 79406558, -0.00211017, -0.000488703, -4.812547E-06, 0.02678069, -0.02838549, 0.4000035, -0.0009026991, 0.001590899, 9.976056E-07, 0.02680726, -0.02833884, 0.4000037
 79606478, -0.003488721, -0.002291622, -1.046855E-05, 0.02675106, -0.02842232, 0.4000037, -0.00211017, -0.000488703, -4.812547E-06, 0.02678069, -0.02838549, 0.4000035
 79806398, -0.0003068856, 0.003833138, 5.864324E-06, 0.02682192, -0.02828294, 0.4000043, -0.003488721, -0.002291622, -1.046855E-05, 0.02675106, -0.02842232, 0.4000037
 80006318, -0.0005691635, 0.001994678, 2.256268E-06, 0.02681975, -0.02831612, 0.4000044, -0.0003068856, 0.003833138, 5.864324E-06, 0.02682192, -0.02828294, 0.4000043
 80206238, -0.0006650102, 0.002820318, 3.429358E-06, 0.02682052, -0.02829398, 0.4000045, -0.0005691635, 0.001994678, 2.256268E-06, 0.02681975, -0.02831612, 0.4000044
 80406158, 0.0003984885, -0.001070839, -1.024904E-06, 0.02684709, -0.02837585, 0.4000044, -0.0006650102, 0.002820318, 3.429358E-06, 0.02682052, -0.02829398, 0.4000045
 80606078, 0.001586789, -0.002477958, -1.12857E-06, 0.02687706, -0.0284042, 0.4000044, 0.0003984885, -0.001070839, -1.024904E-06, 0.02684709, -0.02837585, 0.4000044
 80805998, -0.0009941375, -0.001203519, -3.811922E-06, 0.02682284, -0.02837248, 0.4000044, 0.001586789, -0.002477958, -1.12857E-06, 0.02687706, -0.0284042, 0.4000044
 81005918, -0.0001698983, 0.001199254, 1.643423E-06, 0.02684365, -0.0283166, 0.4000046, -0.0009941375, -0.001203519, -3.811922E-06, 0.02682284, -0.02837248, 0.4000044
 81205838, 0.0002002894, -0.0008669298, -1.043949E-06, 0.02685572, -0.02836013, 0.4000044, -0.0001698983, 0.001199254, 1.643423E-06, 0.02684365, -0.0283166, 0.4000046
 81406591, 0.001838221, 0.0006485933, 4.42897E-06, 0.02689409, -0.02832659, 0.4000043, 0.0002002894, -0.0008669298, -1.043949E-06, 0.02685572, -0.02836013, 0.4000044
 81606511, 0.0006255453, 0.001222009, 3.133847E-06, 0.02686933, -0.02831259, 0.4000043, 0.001838221, 0.0006485933, 4.42897E-06, 0.02689409, -0.02832659, 0.4000043
 81806431, -0.001138123, 0.002904787, 2.66233E-06, 0.02683044, -0.02827835, 0.4000041, 0.0006255453, 0.001222009, 3.133847E-06, 0.02686933, -0.02831259, 0.4000043
 82006351, 0.001542937, 0.001541404, 5.350045E-06, 0.02688826, -0.02830618, 0.4000044, -0.001138123, 0.002904787, 2.66233E-06, 0.02683044, -0.02827835, 0.4000041
 82206271, 0.002373998, 0.0003969537, 5.021405E-06, 0.02690518, -0.02832907, 0.4000047, 0.001542937, 0.001541404, 5.350045E-06, 0.02688826, -0.02830618, 0.4000044
 82406191, -0.0003776008, 0.002055486, 2.645247E-06, 0.02684428, -0.02829125, 0.4000047, 0.002373998, 0.0003969537, 5.021405E-06, 0.02690518, -0.02832907, 0.4000047
 82606111, 0.001425764, 0.004614795, 1.013054E-05, 0.02688451, -0.02823595, 0.4000049, -0.0003776008, 0.002055486, 2.645247E-06, 0.02684428, -0.02829125, 0.4000047
 82806031, 0.001016997, 0.002813878, 7.213981E-06, 0.02687703, -0.02827418, 0.4000047, 0.001425764, 0.004614795, 1.013054E-05, 0.02688451, -0.02823595, 0.4000049
 83005951, 0.0009144634, 0.002386971, 5.577213E-06, 0.0268738, -0.0282837, 0.4000047, 0.001016997, 0.002813878, 7.213981E-06, 0.02687703, -0.02827418, 0.4000047
 83205871, -0.0008853988, 0.001394792, 6.379213E-07, 0.02683407, -0.02830496, 0.4000046, 0.0009144634, 0.002386971, 5.577213E-06, 0.0268738, -0.0282837, 0.4000047
 83405791, -0.001103845, -0.00128633, -4.141222E-06, 0.02682875, -0.02836351, 0.4000046, -0.0008853988, 0.001394792, 6.379213E-07, 0.02683407, -0.02830496, 0.4000046
 83606544, 0.001058512, 0.001896108, 5.060568E-06, 0.02687474, -0.02829362, 0.4000049, -0.001103845, -0.00128633, -4.141222E-06, 0.02682875, -0.02836351, 0.4000046
 83806464, -0.0002237912, 0.001860583, 2.626055E-06, 0.02682941, -0.02830826, 0.4081682, 0.001058512, 0.001896108, 5.060568E-06, 0.02687474, -0.02829362, 0.4000049
 84006384, 0.001053517, -0.0006515295, 8.994634E-07, 0.02687156, -0.02835075, 0.4000049, -0.0002237912, 0.001860583, 2.626055E-06, 0.02682941, -0.02830826, 0.4081682
 84206304, -0.0003159345, 0.0007353138, 6.162066E-07, 0.02684047, -0.02832068, 0.400005, 0.001053517, -0.0006515295, 8.994634E-07, 0.02687156, -0.02835075, 0.4000049
 84406224, 0.001138088, -0.002051047, -1.233542E-06, 0.02687107, -0.02838202, 0.400005, -0.0003159345, 0.0007353138, 6.162066E-07, 0.02684047, -0.02832068, 0.400005
 84606144, 0.001782283, 0.0001910165, 3.667158E-06, 0.02688436, -0.0283331, 0.4000051, 0.001138088, -0.002051047, -1.233542E-06, 0.02687107, -0.02838202, 0.400005
 84806064, -0.0008581787, 0.000766553, -3.564113E-07, 0.02682795, -0.02831616, 0.4000052, 0.001782283, 0.0001910165, 3.667158E-06, 0.02688436, -0.0283331, 0.4000051
 85005984, -0.001990389, 0.0001976121, -3.403706E-06, 0.02680608, -0.02832394, 0.4000053, -0.0008581787, 0.000766553, -3.564113E-07, 0.02682795, -0.02831616, 0.4000052
 85205904, -0.0005735626, -0.0001645299, -1.333491E-06, 0.02684177, -0.02832873, 0.4000052, -0.001990389, 0.0001976121, -3.403706E-06, 0.02680608, -0.02832394, 0.4000053
 85405824, -0.000671808, 0.002683529, 2.328918E-06, 0.02684444, -0.02826473, 0.4000052, -0.0005735626, -0.0001645299, -1.333491E-06, 0.02684177, -0.02832873, 0.4000052
 85606577, 0.00105324, 0.0003815489, 1.799867E-06, 0.02688308, -0.02831323, 0.4000052, -0.000671808, 0.002683529, 2.328918E-06, 0.02684444, -0.02826473, 0.4000052
 85806497, -0.0006476396, -0.001654277, -4.620118E-06, 0.02684903, -0.02835699, 0.400005, 0.00105324, 0.0003815489, 1.799867E-06, 0.02688308, -0.02831323, 0.4000052
 86006417, -0.001441986, 0.001268485, -6.106716E-07, 0.02683535, -0.02828904, 0.400005, -0.0006476396, -0.001654277, -4.620118E-06, 0.02684903, -0.02835699, 0.400005
 86206337, -0.001627378, 0.0006521066, -1.940085E-06, 0.02683267, -0.02829902, 0.4000051, -0.001441986, 0.001268485, -6.106716E-07, 0.02683535, -0.02828904, 0.400005
 86406257, -0.0003378887, -0.001014889, -2.231112E-06, 0.02686277, -0.02833293, 0.4000052, -0.001627378, 0.0006521066, -1.940085E-06, 0.02683267, -0.02829902, 0.4000051
 86606177, -0.003333806, 0.001445204, -3.795775E-06, 0.0267985, -0.02827848, 0.4000052, -0.0003378887, -0.001014889, -2.231112E-06, 0.02686277, -0.02833293, 0.4000052
 86806097, 0.001580799, 0.003151319, 7.882866E-06, 0.02690765, -0.02823978, 0.4000054, -0.003333806, 0.001445204, -3.795775E-06, 0.0267985, -0.02827848, 0.4000052
 87006017, 0.003021695, -0.0005151581, 4.688874E-06, 0.02694104, -0.02832104, 0.4000052, 0.001580799, 0.003151319, 7.882866E-06, 0.02690765, -0.02823978, 0.4000054
 87205937, 0.002511051, 0.0003558076, 4.383322E-06, 0.02692974, -0.02830151, 0.4000052, 0.003021695, -0.0005151581, 4.688874E-06, 0.02694104, -0.02832104, 0.4000052
 87405857, -0.001169533, -3.937567E-05, -2.195348E-06, 0.02684888, -0.02830886, 0.4000051, 0.002511051, 0.0003558076, 4.383322E-06, 0.02692974, -0.02830151, 0.4000052
 87605777, 0.002388787, -0.0003450163, 3.807353E-06, 0.02692814, -0.02831543, 0.4000052, -0.001169533, -3.937567E-05, -2.195348E-06, 0.02684888, -0.02830886, 0.4000051
 87806530, 0.001364128, -0.0001534319, 2.244094E-06, 0.02690556, -0.02831063, 0.4000052, 0.002388787, -0.0003450163, 3.807353E-06, 0.02692814, -0.02831543, 0.4000052
 88006450, 0.002430544, -0.0013113, 2.357417E-06, 0.02692802, -0.02833628, 0.4000053, 0.001364128, -0.0001534319, 2.244094E-06, 0.02690556, -0.02831063, 0.4000052
 88206370, 0.003428887, -0.0001010396, 6.10807E-06, 0.02695134, -0.02831125, 0.4000053, 0.002430544, -0.0013113, 2.357417E-06, 0.02692802, -0.02833628, 0.4000053
 88406290, -7.20666E-05, 0.0009444999, 2.146331E-06, 0.02687289, -0.0282903, 0.400005, 0.003428887, -0.0001010396, 6.10807E-06, 0.02695134, -0.02831125, 0.4000053
 88606210, -0.0003504566, 0.0006588701, 4.188537E-07, 0.02686602, -0.02829866, 0.4000049, -7.20666E-05, 0.0009444999, 2.146331E-06, 0.02687289, -0.0282903, 0.400005
 88806130, 0.002232713, 0.001947993, 7.252512E-06, 0.02692324, -0.02827349, 0.4000048, -0.0003504566, 0.0006588701, 4.188537E-07, 0.02686602, -0.02829866, 0.4000049
 89006050, -9.577825E-05, -0.00231702, -3.934415E-06, 0.02687094, -0.028368, 0.4000046, 0.002232713, 0.001947993, 7.252512E-06, 0.02692324, -0.02827349, 0.4000048
 89205970, -0.001668439, -0.003283843, -8.407821E-06, 0.02683658, -0.02839079, 0.4000044, -9.577825E-05, -0.00231702, -3.934415E-06, 0.02687094, -0.028368, 0.4000046
 89405890, -0.001725654, -0.003445486, -8.786706E-06, 0.02683058, -0.02839251, 0.4000049, -0.001668439, -0.003283843, -8.407821E-06, 0.02683658, -0.02839079, 0.4000044
 89605810, -0.001795776, -0.00319264, -8.529083E-06, 0.02682649, -0.02838726, 0.400005, -0.001725654, -0.003445486, -8.786706E-06, 0.02683058, -0.02839251, 0.4000049
 89806563, -0.001774818, -0.0004942977, -4.116996E-06, 0.0268403, -0.02831638, 0.3921619, -0.001795776, -0.00319264, -8.529083E-06, 0.02682649, -0.02838726, 0.400005
 90006483, -1.370056E-05, 0.00309552, 5.002058E-06, 0.02686697, -0.02824774, 0.4000052, -0.001774818, -0.0004942977, -4.116996E-06, 0.0268403, -0.02831638, 0.3921619
 90206403, 0.01988744, 0.0190166, 6.73418E-05, 0.02735091, -0.02792838, 0.4000067, -1.370056E-05, 0.00309552, 5.002058E-06, 0.02686697, -0.02824774, 0.4000052
 90406323, -0.01554622, 0.01889624, 1.016205E-06, 0.02655895, -0.02792774, 0.4000051, 0.01988744, 0.0190166, 6.73418E-05, 0.02735091, -0.02792838, 0.4000067
 90606243, 0.01535831, -0.01185327, 9.240955E-06, 0.02724029, -0.02857787, 0.4000055, -0.01554622, 0.01889624, 1.016205E-06, 0.02655895, -0.02792774, 0.4000051
 90806163, -0.02130474, -0.008558777, -5.262456E-05, 0.02645623, -0.02849535, 0.4000044, 0.01535831, -0.01185327, 9.240955E-06, 0.02724029, -0.02857787, 0.4000055
 91006083, -0.01887345, 0.009738859, -1.907853E-05, 0.02650223, -0.02809202, 0.4000051, -0.02130474, -0.008558777, -5.262456E-05, 0.02645623, -0.02849535, 0.4000044
 91206003, -0.01286373, -0.01815879, -5.20774E-05, 0.02661683, -0.02872797, 0.4000044, -0.01887345, 0.009738859, -1.907853E-05, 0.02650223, -0.02809202, 0.4000051
 91405923, -0.01725925, -0.01061869, -4.814492E-05, 0.02653582, -0.02854031, 0.4000044, -0.01286373, -0.01815879, -5.20774E-05, 0.02661683, -0.02872797, 0.4000044
 91605843, -0.005803009, 0.01467219, 1.254497E-05, 0.02676212, -0.02799164, 0.4000057, -0.01725925, -0.01061869, -4.814492E-05, 0.02653582, -0.02854031, 0.4000044
 91805763, -0.01674365, -0.009849633, -4.585081E-05, 0.02654812, -0.02851886, 0.4000044, -0.005803009, 0.01467219, 1.254497E-05, 0.02676212, -0.02799164, 0.4000057
 92006516, -0.01388131, 0.01191617, -6.35644E-06, 0.02660304, -0.02804559, 0.4000051, -0.01674365, -0.009849633, -4.585081E-05, 0.02654812, -0.02851886, 0.4000044
 92206436, -0.007017673, 0.005426825, -4.179732E-06, 0.02673771, -0.02817732, 0.4000052, -0.01388131, 0.01191617, -6.35644E-06, 0.02660304, -0.02804559, 0.4000051
 92406356, -0.009984091, -0.004158347, -2.471598E-05, 0.02667769, -0.02838731, 0.4000047, -0.007017673, 0.005426825, -4.179732E-06, 0.02673771, -0.02817732, 0.4000052
 92606276, 0.01496492, 0.016051, 5.264975E-05, 0.02724059, -0.02796984, 0.4000062, -0.009984091, -0.004158347, -2.471598E-05, 0.02667769, -0.02838731, 0.4000047
 92806196, -0.01812595, -0.01119904, -5.069924E-05, 0.02652382, -0.02855665, 0.4000039, 0.01496492, 0.016051, 5.264975E-05, 0.02724059, -0.02796984, 0.4000062
 93006116, -0.003006182, -0.01705941, -3.259028E-05, 0.02682388, -0.02870215, 0.4000042, -0.01812595, -0.01119904, -5.069924E-05, 0.02652382, -0.02855665, 0.4000039
 93206036, -0.004756371, -0.001768246, -1.143766E-05, 0.02678781, -0.02833571, 0.4000047, -0.003006182, -0.01705941, -3.259028E-05, 0.02682388, -0.02870215, 0.4000042
 93405956, -0.005658836, 0.01602572, 1.530287E-05, 0.02677056, -0.02797125, 0.400005, -0.004756371, -0.001768246, -1.143766E-05, 0.02678781, -0.02833571, 0.4000047
 93605876, -0.005652529, -0.001538143, -1.270546E-05, 0.02676979, -0.028332, 0.4000045, -0.005658836, 0.01602572, 1.530287E-05, 0.02677056, -0.02797125, 0.400005
 93805796, -0.01516254, -0.01052097, -4.364571E-05, 0.02657854, -0.02854128, 0.4000039, -0.005652529, -0.001538143, -1.270546E-05, 0.02676979, -0.028332, 0.4000045
 94006549, -0.0147763, 0.008226546, -1.374329E-05, 0.02658543, -0.02812566, 0.4000045, -0.01516254, -0.01052097, -4.364571E-05, 0.02657854, -0.02854128, 0.4000039
 94206469, 0.01373797, -0.0196493, -6.305079E-06, 0.02718968, -0.0287853, 0.4081683, -0.0147763, 0.008226546, -1.374329E-05, 0.02658543, -0.02812566, 0.4000045
 94406389, 0.005182675, -0.01095995, -8.119814E-06, 0.02699604, -0.02855709, 0.400005, 0.01373797, -0.0196493, -6.305079E-06, 0.02718968, -0.0287853, 0.4081683
 94606309, 0.001774655, 0.01301607, 2.437868E-05, 0.02691622, -0.02803671, 0.4000056, 0.005182675, -0.01095995, -8.119814E-06, 0.02699604, -0.02855709, 0.400005
 94806229, 0.02199452, -0.003337783, 3.546269E-05, 0.02740906, -0.02837937, 0.4000062, 0.001774655, 0.01301607, 2.437868E-05, 0.02691622, -0.02803671, 0.4000056
 95006149, 0.005815028, 0.007483046, 2.377955E-05, 0.0270051, -0.02814909, 0.4000057, 0.02199452, -0.003337783, 3.546269E-05, 0.02740906, -0.02837937, 0.4000062
 95206069, 0.01056662, -0.0167663, -7.583334E-06, 0.02712204, -0.0287025, 0.400005, 0.005815028, 0.007483046, 2.377955E-05, 0.0270051, -0.02814909, 0.4000057
 95405989, 0.02314735, -0.009235099, 2.859178E-05, 0.02744505, -0.02851392, 0.4000058, 0.01056662, -0.0167663, -7.583334E-06, 0.02712204, -0.0287025, 0.400005
 95605909, 0.01453911, -0.01981202, -4.941772E-06, 0.02722177, -0.02877509, 0.4000053, 0.02314735, -0.009235099, 2.859178E-05, 0.02744505, -0.02851392, 0.4000058
 95805829, 0.000431261, 0.002428527, 4.67949E-06, 0.02689156, -0.02824407, 0.4000055, 0.01453911, -0.01981202, -4.941772E-06, 0.02722177, -0.02877509, 0.4000053
 96006582, -0.01173709, -0.003909054, -2.779617E-05, 0.02663931, -0.02838057, 0.400005, 0.000431261, 0.002428527, 4.67949E-06, 0.02689156, -0.02824407, 0.4000055
 96206502, -0.02209555, 0.003303875, -3.571887E-05, 0.0264546, -0.0282229, 0.4000044, -0.01173709, -0.003909054, -2.779617E-05, 0.02663931, -0.02838057, 0.400005
 96406422, 0.002072225, -0.003127046, -1.980361E-06, 0.02693966, -0.02836311, 0.4000049, -0.02209555, 0.003303875, -3.571887E-05, 0.0264546, -0.0282229, 0.4000044
 96606342, -0.0109749, -0.00463384, -2.726026E-05, 0.02666475, -0.02839667, 0.4000044, 0.002072225, -0.003127046, -1.980361E-06, 0.02693966, -0.02836311, 0.4000049
 96806262, 0.0114682, -0.002514738, 1.680277E-05, 0.02715992, -0.02834656, 0.4000055, -0.0109749, -0.00463384, -2.726026E-05, 0.02666475, -0.02839667, 0.4000044
 97006182, -0.011532, 0.004811413, -1.332959E-05, 0.0266533, -0.02818468, 0.400005, 0.0114682, -0.002514738, 1.680277E-05, 0.02715992, -0.02834656, 0.4000055
 97206102, -0.003064385, -0.008533921, -1.903294E-05, 0.02682843, -0.02848373, 0.4000047, -0.011532, 0.004811413, -1.332959E-05, 0.0266533, -0.02818468, 0.400005
 97406022, -0.01559797, 0.006676279, -1.761304E-05, 0.02657874, -0.02814674, 0.4000046, -0.003064385, -0.008533921, -1.903294E-05, 0.02682843, -0.02848373, 0.4000047
 97605942, 0.004857096, -0.01851025, -2.057161E-05, 0.02700608, -0.02873286, 0.4000044, -0.01559797, 0.006676279, -1.761304E-05, 0.02657874, -0.02814674, 0.4000046
 97805862, 0.01932098, -0.01780084, 6.607952E-06, 0.02735944, -0.02871741, 0.4000049, 0.004857096, -0.01851025, -2.057161E-05, 0.02700608, -0.02873286, 0.4000044
 98005782, 0.01601584, 0.0009503751, 3.056491E-05, 0.0272732, -0.02827287, 0.4000055, 0.01932098, -0.01780084, 6.607952E-06, 0.02735944, -0.02871741, 0.4000049
 98206535, -0.005396497, -0.01368074, -3.159938E-05, 0.0267802, -0.02861417, 0.400004, 0.01601584, 0.0009503751, 3.056491E-05, 0.0272732, -0.02827287, 0.4000055
 98406455, 0.01545719, -0.0121968, 8.482592E-06, 0.02726191, -0.02857734, 0.4000048, -0.005396497, -0.01368074, -3.159938E-05, 0.0267802, -0.02861417, 0.400004
 98606375, 0.01516141, -0.01107417, 9.671317E-06, 0.0272559, -0.02855052, 0.4000047, 0.01545719, -0.0121968, 8.482592E-06, 0.02726191, -0.02857734, 0.4000048
 98806295, 0.01695046, -0.008515645, 1.709889E-05, 0.02729809, -0.02849015, 0.400005, 0.01516141, -0.01107417, 9.671317E-06, 0.0272559, -0.02855052, 0.4000047
 99006215, 0.0179592, -0.00581686, 2.338986E-05, 0.02731983, -0.02843002, 0.4000052, 0.01695046, -0.008515645, 1.709889E-05, 0.02729809, -0.02849015, 0.400005
 99206135, 0.01616095, -0.006793503, 1.84445E-05, 0.0272749, -0.02845638, 0.4000048, 0.0179592, -0.00581686, 2.338986E-05, 0.02731983, -0.02843002, 0.4000052
 99406055, 0.01712811, -0.00801513, 1.83052E-05, 0.0272978, -0.02848516, 0.4000049, 0.01616095, -0.006793503, 1.84445E-05, 0.0272749, -0.02845638, 0.4000048
 99605975, 0.01929982, -0.0076549, 2.297217E-05, 0.02735104, -0.02847762, 0.4000051, 0.01712811, -0.00801513, 1.83052E-05, 0.0272978, -0.02848516, 0.4000049
 99805895, 0.01706163, -0.00771156, 1.88896E-05, 0.02729007, -0.0284808, 0.4000051, 0.01929982, -0.0076549, 2.297217E-05, 0.02735104, -0.02847762, 0.4000051
 100005815, 0.01522903, -0.009216894, 1.308224E-05, 0.02724246, -0.02851783, 0.400005, 0.01706163, -0.00771156, 1.88896E-05, 0.02729007, -0.0284808, 0.4000051
 100206568, 0.01751116, -0.00615916, 2.239244E-05, 0.02731222, -0.02843398, 0.3921622, 0.01522903, -0.009216894, 1.308224E-05, 0.02724246, -0.02851783, 0.400005
 100406488, 0.01768897, -0.008285923, 1.910411E-05, 0.02693189, -0.02812368, 0.4000049, 0.01751116, -0.00615916, 2.239244E-05, 0.02731222, -0.02843398, 0.3921622
 100606408, 0.01306875, -0.007012088, 1.255117E-05, 0.02719357, -0.02846425, 0.4000047, 0.01768897, -0.008285923, 1.910411E-05, 0.02693189, -0.02812368, 0.4000049
 100806328, 0.01671768, -0.007485355, 1.841149E-05, 0.02728781, -0.02847202, 0.4000049, 0.01306875, -0.007012088, 1.255117E-05, 0.02719357, -0.02846425, 0.4000047
 101006248, 0.01593838, -0.011114, 1.100738E-05, 0.02727188, -0.02855711, 0.4000046, 0.01671768, -0.007485355, 1.841149E-05, 0.02728781, -0.02847202, 0.4000049
 101206168, 0.0189585, -0.007490073, 2.220917E-05, 0.02735236, -0.02846901, 0.4000047, 0.01593838, -0.011114, 1.100738E-05, 0.02727188, -0.02855711, 0.4000046
 101406088, 0.01879313, -0.01043393, 1.709574E-05, 0.02735091, -0.02853689, 0.4000047, 0.0189585, -0.007490073, 2.220917E-05, 0.02735236, -0.02846901, 0.4000047
 101606008, 0.01465109, -0.007481845, 1.430215E-05, 0.02724779, -0.0284658, 0.4000044, 0.01879313, -0.01043393, 1.709574E-05, 0.02735091, -0.02853689, 0.4000047
 101805928, 0.01765949, -0.007388209, 1.979623E-05, 0.02732544, -0.02846283, 0.4000045, 0.01465109, -0.007481845, 1.430215E-05, 0.02724779, -0.0284658, 0.4000044
 102005848, 0.01818595, -0.01119633, 1.468575E-05, 0.02733912, -0.02855224, 0.4000045, 0.01765949, -0.007388209, 1.979623E-05, 0.02732544, -0.02846283, 0.4000045
 102205768, 0.01677021, -0.009628361, 1.470107E-05, 0.02730244, -0.02851309, 0.4000046, 0.01818595, -0.01119633, 1.468575E-05, 0.02733912, -0.02855224, 0.4000045
 102406521, 0.01598927, -0.008955318, 1.367241E-05, 0.0272962, -0.02848325, 0.3921616, 0.01677021, -0.009628361, 1.470107E-05, 0.02730244, -0.02851309, 0.4000046
 102606441, 0.01764986, -0.01091769, 1.428736E-05, 0.02732447, -0.02854249, 0.4000047, 0.01598927, -0.008955318, 1.367241E-05, 0.0272962, -0.02848325, 0.3921616
 102806361, 0.01403042, -0.009461981, 9.930135E-06, 0.02723609, -0.0285107, 0.4000042, 0.01764986, -0.01091769, 1.428736E-05, 0.02732447, -0.02854249, 0.4000047
 103006281, 0.01507335, -0.008070732, 1.389249E-05, 0.02726434, -0.02847926, 0.4000041, 0.01403042, -0.009461981, 9.930135E-06, 0.02723609, -0.0285107, 0.4000042
 103206201, 0.01553711, -0.01009948, 1.155789E-05, 0.0272739, -0.02852753, 0.4000041, 0.01507335, -0.008070732, 1.389249E-05, 0.02726434, -0.02847926, 0.4000041
 103406121, 0.01535161, -0.008630198, 1.365357E-05, 0.02726716, -0.02849249, 0.4000043, 0.01553711, -0.01009948, 1.155789E-05, 0.0272739, -0.02852753, 0.4000041
 103606041, 0.01473276, -0.005083224, 1.831711E-05, 0.02724908, -0.0284091, 0.4000046, 0.01535161, -0.008630198, 1.365357E-05, 0.02726716, -0.02849249, 0.4000043
 103805961, 0.01385836, -0.007143975, 1.354886E-05, 0.02722471, -0.02845676, 0.4000047, 0.01473276, -0.005083224, 1.831711E-05, 0.02724908, -0.0284091, 0.4000046
 104005881, 0.0146017, -0.004057648, 1.98585E-05, 0.02724181, -0.02838665, 0.4000049, 0.01385836, -0.007143975, 1.354886E-05, 0.02722471, -0.02845676, 0.4000047
 104205801, 0.01653981, -0.009081916, 1.530909E-05, 0.02729039, -0.02850468, 0.4000047, 0.0146017, -0.004057648, 1.98585E-05, 0.02724181, -0.02838665, 0.4000049
 104406554, 0.01864604, -0.01193116, 1.458293E-05, 0.02735724, -0.02856173, 0.3921616, 0.01653981, -0.009081916, 1.530909E-05, 0.02729039, -0.02850468, 0.4000047
 104606474, 0.0177159, -0.008843657, 1.859983E-05, 0.02731817, -0.02850265, 0.4000047, 0.01864604, -0.01193116, 1.458293E-05, 0.02735724, -0.02856173, 0.3921616
 104806394, 0.0180481, -0.007664561, 2.036245E-05, 0.02732518, -0.02847729, 0.4000047, 0.0177159, -0.008843657, 1.859983E-05, 0.02731817, -0.02850265, 0.4000047
 105006314, 0.01997029, -0.007729625, 2.382085E-05, 0.027373, -0.02848038, 0.4000048, 0.0180481, -0.007664561, 2.036245E-05, 0.02732518, -0.02847729, 0.4000047
 105206234, 0.01641756, -0.01021283, 1.336555E-05, 0.02727855, -0.02854265, 0.4000045, 0.01997029, -0.007729625, 2.382085E-05, 0.027373, -0.02848038, 0.4000048
 105406154, 0.01637517, -0.009881831, 1.385722E-05, 0.02727444, -0.02853859, 0.4000045, 0.01641756, -0.01021283, 1.336555E-05, 0.02727855, -0.02854265, 0.4000045
 105606074, 0.01685272, -0.01014507, 1.427294E-05, 0.02728727, -0.02854482, 0.4000044, 0.01637517, -0.009881831, 1.385722E-05, 0.02727444, -0.02853859, 0.4000045
 105805994, 0.01468769, -0.01063893, 9.445544E-06, 0.0272361, -0.02855345, 0.4000043, 0.01685272, -0.01014507, 1.427294E-05, 0.02728727, -0.02854482, 0.4000044
 106005914, 0.01697179, -0.01194235, 1.146883E-05, 0.02729625, -0.02858213, 0.4000044, 0.01468769, -0.01063893, 9.445544E-06, 0.0272361, -0.02855345, 0.4000043
 106205834, 0.01734077, -0.006832164, 2.041485E-05, 0.02730693, -0.02845716, 0.4000047, 0.01697179, -0.01194235, 1.146883E-05, 0.02729625, -0.02858213, 0.4000044
 106406587, 0.01619937, -0.005691183, 2.023434E-05, 0.02727742, -0.02842808, 0.4000049, 0.01734077, -0.006832164, 2.041485E-05, 0.02730693, -0.02845716, 0.4000047
 106606507, 0.01512135, -0.005634453, 1.839965E-05, 0.02725011, -0.02842448, 0.4000051, 0.01619937, -0.005691183, 2.023434E-05, 0.02727742, -0.02842808, 0.4000049
 106806427, 0.01924607, -0.007961392, 2.29183E-05, 0.02735618, -0.0284767, 0.4000053, 0.01512135, -0.005634453, 1.839965E-05, 0.02725011, -0.02842448, 0.4000051
 107006347, 0.016805, -0.008516503, 1.692657E-05, 0.02729291, -0.02848696, 0.4000054, 0.01924607, -0.007961392, 2.29183E-05, 0.02735618, -0.0284767, 0.4000053
 107206267, 0.01627952, -0.006711525, 1.952436E-05, 0.02728103, -0.02844528, 0.4000053, 0.016805, -0.008516503, 1.692657E-05, 0.02729291, -0.02848696, 0.4000054
 107406187, 0.01775531, -0.00712908, 2.150963E-05, 0.02731916, -0.02845466, 0.4000053, 0.01627952, -0.006711525, 1.952436E-05, 0.02728103, -0.02844528, 0.4000053
 107606107, 0.01781033, -0.009983471, 1.627836E-05, 0.0273216, -0.02852192, 0.4000052, 0.01775531, -0.00712908, 2.150963E-05, 0.02731916, -0.02845466, 0.4000053
 107806027, 0.01775177, -0.008599271, 1.823892E-05, 0.02732276, -0.02848915, 0.400005, 0.01781033, -0.009983471, 1.627836E-05, 0.0273216, -0.02852192, 0.4000052
 108005947, 0.01725107, -0.007732363, 1.860513E-05, 0.02731155, -0.02847059, 0.4000047, 0.01775177, -0.008599271, 1.823892E-05, 0.02732276, -0.02848915, 0.400005
 108205867, 0.01483793, -0.01083793, 9.274683E-06, 0.02725062, -0.02854702, 0.4000044, 0.01725107, -0.007732363, 1.860513E-05, 0.02731155, -0.02847059, 0.4000047
 108405787, 0.01269128, -0.008439197, 9.104178E-06, 0.02719949, -0.02849352, 0.4000039, 0.01483793, -0.01083793, 9.274683E-06, 0.02725062, -0.02854702, 0.4000044
 108606540, 0.01289225, -0.008446034, 9.389121E-06, 0.02721878, -0.02848346, 0.3921607, 0.01269128, -0.008439197, 9.104178E-06, 0.02719949, -0.02849352, 0.4000039
 108806460, 0.01343055, -0.00847942, 1.03985E-05, 0.0272006, -0.0285097, 0.4081672, 0.01289225, -0.008446034, 9.389121E-06, 0.02721878, -0.02848346, 0.3921607
 109006380, 0.01608785, -0.007253726, 1.723627E-05, 0.02727883, -0.02846836, 0.4000043, 0.01343055, -0.00847942, 1.03985E-05, 0.0272006, -0.0285097, 0.4081672
 109206300, 0.0158583, -0.006225095, 1.857007E-05, 0.02727102, -0.02844372, 0.4000045, 0.01608785, -0.007253726, 1.723627E-05, 0.02727883, -0.02846836, 0.4000043
 109406220, 0.01656853, -0.007588414, 1.774667E-05, 0.02728719, -0.02847473, 0.4000047, 0.0158583, -0.006225095, 1.857007E-05, 0.02727102, -0.02844372, 0.4000045
 109606140, 0.01833091, -0.007833412, 2.131353E-05, 0.0273315, -0.02848171, 0.4000047, 0.01656853, -0.007588414, 1.774667E-05, 0.02728719, -0.02847473, 0.4000047
 109806060, 0.01816399, -0.009667134, 1.7265E-05, 0.02732659, -0.02852766, 0.4000045, 0.01833091, -0.007833412, 2.131353E-05, 0.0273315, -0.02848171, 0.4000047
 110005980, 0.01844055, -0.008088854, 2.04446E-05, 0.02733048, -0.02849125, 0.4000047, 0.01816399, -0.009667134, 1.7265E-05, 0.02732659, -0.02852766, 0.4000045
 110205900, 0.01499487, -0.005885542, 1.765475E-05, 0.02724313, -0.02844512, 0.4000042, 0.01844055, -0.008088854, 2.04446E-05, 0.02733048, -0.02849125, 0.4000047
 110405820, 0.01310006, -0.01064295, 6.342309E-06, 0.0271954, -0.02856193, 0.4000037, 0.01499487, -0.005885542, 1.765475E-05, 0.02724313, -0.02844512, 0.4000042
 110606573, 0.01503735, -0.01192106, 7.889381E-06, 0.02723973, -0.02859381, 0.4000039, 0.01310006, -0.01064295, 6.342309E-06, 0.0271954, -0.02856193, 0.4000037
 110806493, 0.01714275, -0.01056097, 1.394758E-05, 0.02729419, -0.02856, 0.4000041, 0.01503735, -0.01192106, 7.889381E-06, 0.02723973, -0.02859381, 0.4000039
 111006413, 0.01693429, -0.01024146, 1.40339E-05, 0.02729271, -0.02854791, 0.4000041, 0.01714275, -0.01056097, 1.394758E-05, 0.02729419, -0.02856, 0.4000041
 111206333, 0.01509464, -0.01157085, 8.474903E-06, 0.02724968, -0.02857712, 0.400004, 0.01693429, -0.01024146, 1.40339E-05, 0.02729271, -0.02854791, 0.4000041
 111406253, 0.01472729, -0.009209229, 1.168102E-05, 0.02724093, -0.0285176, 0.4000042, 0.01509464, -0.01157085, 8.474903E-06, 0.02724968, -0.02857712, 0.400004
 111606173, 0.0130971, -0.01209302, 4.114918E-06, 0.02720178, -0.02858468, 0.4000041, 0.01472729, -0.009209229, 1.168102E-05, 0.02724093, -0.0285176, 0.4000042
 111806093, 0.01761178, -0.01165509, 1.287831E-05, 0.02731845, -0.02857136, 0.4000043, 0.0130971, -0.01209302, 4.114918E-06, 0.02720178, -0.02858468, 0.4000041
 112006013, 0.01768295, -0.009229123, 1.6765E-05, 0.02732223, -0.02851419, 0.4000041, 0.01761178, -0.01165509, 1.287831E-05, 0.02731845, -0.02857136, 0.4000043
 112205933, 0.02043407, -0.005853852, 2.701992E-05, 0.02739478, -0.02843448, 0.4000044, 0.01768295, -0.009229123, 1.6765E-05, 0.02732223, -0.02851419, 0.4000041
 112405853, 0.01850113, -0.007034195, 2.168422E-05, 0.02734507, -0.02846014, 0.4000043, 0.02043407, -0.005853852, 2.701992E-05, 0.02739478, -0.02843448, 0.4000044
 112605773, 0.01560212, -0.005102645, 1.957615E-05, 0.02727176, -0.02841552, 0.4000042, 0.01850113, -0.007034195, 2.168422E-05, 0.02734507, -0.02846014, 0.4000043
 112806526, 0.01768318, -0.00505133, 2.329588E-05, 0.02732562, -0.02841521, 0.4000042, 0.01560212, -0.005102645, 1.957615E-05, 0.02727176, -0.02841552, 0.4000042
 113006446, 0.01929604, -0.007087489, 2.297129E-05, 0.02735097, -0.02847609, 0.4081676, 0.01768318, -0.00505133, 2.329588E-05, 0.02732562, -0.02841521, 0.4000042
 113206366, 0.01431587, -0.005993179, 1.588322E-05, 0.02723798, -0.02843787, 0.4000041, 0.01929604, -0.007087489, 2.297129E-05, 0.02735097, -0.02847609, 0.4081676
 113406286, 0.01617108, -0.009074628, 1.42224E-05, 0.02728453, -0.02851182, 0.4000039, 0.01431587, -0.005993179, 1.588322E-05, 0.02723798, -0.02843787, 0.4000041
 113606206, 0.01612701, -0.006349784, 1.849719E-05, 0.02728326, -0.02844872, 0.400004, 0.01617108, -0.009074628, 1.42224E-05, 0.02728453, -0.02851182, 0.4000039
 113806126, 0.0175518, -0.005813175, 2.198892E-05, 0.02731755, -0.02843545, 0.4000042, 0.01612701, -0.006349784, 1.849719E-05, 0.02728326, -0.02844872, 0.400004
 114006046, 0.02082109, -0.00855602, 2.352533E-05, 0.0274004, -0.02849974, 0.4000045, 0.0175518, -0.005813175, 2.198892E-05, 0.02731755, -0.02843545, 0.4000042
 114205966, 0.01995581, -0.01221749, 1.613958E-05, 0.02737672, -0.02858868, 0.4000043, 0.02082109, -0.00855602, 2.352533E-05, 0.0274004, -0.02849974, 0.4000045
 114405886, 0.01767471, -0.01128278, 1.357487E-05, 0.02731658, -0.02856686, 0.4000043, 0.01995581, -0.01221749, 1.613958E-05, 0.02737672, -0.02858868, 0.4000043
 114605806, 0.0163365, -0.01131044, 1.112392E-05, 0.02728142, -0.02856922, 0.4000041, 0.01767471, -0.01128278, 1.357487E-05, 0.02731658, -0.02856686, 0.4000043
 114806559, 0.01824499, -0.008159577, 1.963957E-05, 0.02732883, -0.028496, 0.4000042, 0.0163365, -0.01131044, 1.112392E-05, 0.02728142, -0.02856922, 0.4000041
 115006479, 0.01486596, -0.008797545, 1.253582E-05, 0.02724204, -0.02851234, 0.400004, 0.01824499, -0.008159577, 1.963957E-05, 0.02732883, -0.028496, 0.4000042
 115206399, 0.016437, -0.008375476, 1.606868E-05, 0.02728046, -0.02850379, 0.4000042, 0.01486596, -0.008797545, 1.253582E-05, 0.02724204, -0.02851234, 0.400004
 115406319, 0.01855586, -0.006990728, 2.226909E-05, 0.02733144, -0.02847242, 0.4000044, 0.016437, -0.008375476, 1.606868E-05, 0.02728046, -0.02850379, 0.4000042
 115606239, 0.01775383, -0.005231403, 2.376154E-05, 0.0273084, -0.02843314, 0.4000045, 0.01855586, -0.006990728, 2.226909E-05, 0.02733144, -0.02847242, 0.4000044
 115806159, 0.01798545, -0.006032834, 2.214177E-05, 0.02731288, -0.02845423, 0.4000044, 0.01775383, -0.005231403, 2.376154E-05, 0.0273084, -0.02843314, 0.4000045
 116006079, 0.01480365, -0.007291981, 1.421653E-05, 0.0272348, -0.02848148, 0.4000041, 0.01798545, -0.006032834, 2.214177E-05, 0.02731288, -0.02845423, 0.4000044
 116205999, 0.01353799, -0.00957287, 8.158988E-06, 0.02720674, -0.02853221, 0.400004, 0.01480365, -0.007291981, 1.421653E-05, 0.0272348, -0.02848148, 0.4000041
 116405919, 0.01508321, -0.00895849, 1.268483E-05, 0.02724745, -0.02851462, 0.4000042, 0.01353799, -0.00957287, 8.158988E-06, 0.02720674, -0.02853221, 0.400004
 116605839, 0.01484994, -0.006897539, 1.560506E-05, 0.0272417, -0.0284644, 0.4000043, 0.01508321, -0.00895849, 1.268483E-05, 0.02724745, -0.02851462, 0.4000042
 116806592, 0.01475094, -0.006830871, 1.552214E-05, 0.02723957, -0.02846238, 0.4000044, 0.01484994, -0.006897539, 1.560506E-05, 0.0272417, -0.0284644, 0.4000043
 117006512, 0.01632634, -0.008050896, 1.638198E-05, 0.02728024, -0.0284893, 0.4000044, 0.01475094, -0.006830871, 1.552214E-05, 0.02723957, -0.02846238, 0.4000044
 117206432, 0.01804855, -0.009875445, 1.658171E-05, 0.02732462, -0.0285305, 0.4000046, 0.01632634, -0.008050896, 1.638198E-05, 0.02728024, -0.0284893, 0.4000044
 117406352, 0.01586976, -0.01025201, 1.218812E-05, 0.02726771, -0.02853725, 0.4000047, 0.01804855, -0.009875445, 1.658171E-05, 0.02732462, -0.0285305, 0.4000046
 117606272, 0.0159053, -0.007017799, 1.735073E-05, 0.02726972, -0.02845974, 0.4000048, 0.01586976, -0.01025201, 1.218812E-05, 0.02726771, -0.02853725, 0.4000047
 117806192, 0.02011679, -0.008810867, 2.20632E-05, 0.02737799, -0.02850115, 0.400005, 0.0159053, -0.007017799, 1.735073E-05, 0.02726972, -0.02845974, 0.4000048
 118006112, 0.0171854, -0.01007589, 1.48788E-05, 0.02730145, -0.02853, 0.400005, 0.02011679, -0.008810867, 2.20632E-05, 0.02737799, -0.02850115, 0.400005
 118206032, 0.01480605, -0.008546999, 1.303819E-05, 0.02724141, -0.02849272, 0.400005, 0.0171854, -0.01007589, 1.48788E-05, 0.02730145, -0.02853, 0.400005
 118405952, 0.01865179, -0.008343457, 2.020731E-05, 0.02733979, -0.02848843, 0.4000051, 0.01480605, -0.008546999, 1.303819E-05, 0.02724141, -0.02849272, 0.400005
 118605872, 0.01802232, -0.006907684, 2.141858E-05, 0.02732201, -0.02845432, 0.4000053, 0.01865179, -0.008343457, 2.020731E-05, 0.02733979, -0.02848843, 0.4000051
 118805792, 0.01380665, -0.009644043, 1.036091E-05, 0.02721257, -0.02852109, 0.400005, 0.01802232, -0.006907684, 2.141858E-05, 0.02732201, -0.02845432, 0.4000053
 119006545, 0.01626643, -0.007263544, 1.792666E-05, 0.02728445, -0.02845359, 0.3921623, 0.01380665, -0.009644043, 1.036091E-05, 0.02721257, -0.02852109, 0.400005
 119206465, 0.01771015, -0.007620296, 2.000763E-05, 0.02730653, -0.02847383, 0.4000055, 0.01626643, -0.007263544, 1.792666E-05, 0.02728445, -0.02845359, 0.3921623
 119406385, 0.0162554, -0.008282335, 1.632892E-05, 0.02726875, -0.02849063, 0.4000054, 0.01771015, -0.007620296, 2.000763E-05, 0.02730653, -0.02847383, 0.4000055
 119606305, 0.01772138, -0.01064007, 1.515995E-05, 0.0273062, -0.02855019, 0.4000052, 0.0162554, -0.008282335, 1.632892E-05, 0.02726875, -0.02849063, 0.4000054
 119806225, 0.02163306, -0.007485253, 2.746721E-05, 0.02740471, -0.02847457, 0.4000057, 0.01772138, -0.01064007, 1.515995E-05, 0.0273062, -0.02855019, 0.4000052
 120006145, 0.02060241, -0.009221229, 2.300085E-05, 0.0273736, -0.02851696, 0.4000058, 0.02163306, -0.007485253, 2.746721E-05, 0.02740471, -0.02847457, 0.4000057
 120206065, 0.01844919, -0.007055961, 2.252533E-05, 0.0273168, -0.02846709, 0.4000057, 0.02060241, -0.009221229, 2.300085E-05, 0.0273736, -0.02851696, 0.4000058
 120405985, 0.01619486, -0.008536037, 1.606523E-05, 0.02725712, -0.02850411, 0.4000055, 0.01844919, -0.007055961, 2.252533E-05, 0.0273168, -0.02846709, 0.4000057
 120605905, 0.01582204, -0.007822391, 1.666706E-05, 0.02724333, -0.02848889, 0.4000057, 0.01619486, -0.008536037, 1.606523E-05, 0.02725712, -0.02850411, 0.4000055
 120805825, 0.01584028, -0.008710056, 1.536042E-05, 0.0272396, -0.02851353, 0.4000057, 0.01582204, -0.007822391, 1.666706E-05, 0.02724333, -0.02848889, 0.4000057
 121006578, 0.01833156, -0.007945612, 2.128843E-05, 0.02730077, -0.02849809, 0.4000058, 0.01584028, -0.008710056, 1.536042E-05, 0.0272396, -0.02851353, 0.4000057
 121206498, 0.01498897, -0.009606401, 1.321987E-05, 0.02721525, -0.02853395, 0.4000059, 0.01833156, -0.007945612, 2.128843E-05, 0.02730077, -0.02849809, 0.4000058
 121406418, 0.0120663, -0.007855947, 9.829961E-06, 0.02714589, -0.02848738, 0.400006, 0.01498897, -0.009606401, 1.321987E-05, 0.02721525, -0.02853395, 0.4000059
 121606338, 0.01499561, -0.006662794, 1.788944E-05, 0.02722116, -0.02845632, 0.4000062, 0.0120663, -0.007855947, 9.829961E-06, 0.02714589, -0.02848738, 0.400006
 121806258, 0.01904879, -0.01053437, 1.832495E-05, 0.02732824, -0.02854639, 0.4000061, 0.01499561, -0.006662794, 1.788944E-05, 0.02722116, -0.02845632, 0.4000062
 122006178, 0.01612659, -0.007675529, 1.725717E-05, 0.02725923, -0.02847758, 0.4000058, 0.01904879, -0.01053437, 1.832495E-05, 0.02732824, -0.02854639, 0.4000061
 122206098, 0.01862571, -0.008772323, 1.992004E-05, 0.02732654, -0.02850333, 0.4000056, 0.01612659, -0.007675529, 1.725717E-05, 0.02725923, -0.02847758, 0.4000058
 122406018, 0.0169749, -0.009126601, 1.650373E-05, 0.02728228, -0.02850884, 0.4000058, 0.01862571, -0.008772323, 1.992004E-05, 0.02732654, -0.02850333, 0.4000056
 122605938, 0.01770043, -0.009077801, 1.780963E-05, 0.02730094, -0.0285113, 0.4000056, 0.0169749, -0.009126601, 1.650373E-05, 0.02728228, -0.02850884, 0.4000058
 122805858, 0.01641593, -0.008104882, 1.69526E-05, 0.02726821, -0.02849103, 0.4000054, 0.01770043, -0.009077801, 1.780963E-05, 0.02730094, -0.0285113, 0.4000056
 123005778, 0.01637119, -0.008136909, 1.68531E-05, 0.02726577, -0.02849265, 0.4000054, 0.01641593, -0.008104882, 1.69526E-05, 0.02726821, -0.02849103, 0.4000054
 123206531, 0.0155904, -0.01132875, 1.109077E-05, 0.02724648, -0.02856911, 0.4000052, 0.01637119, -0.008136909, 1.68531E-05, 0.02726577, -0.02849265, 0.4000054
 123406451, 0.01883013, -0.007834246, 2.180614E-05, 0.02732895, -0.02848516, 0.4000055, 0.0155904, -0.01132875, 1.109077E-05, 0.02724648, -0.02856911, 0.4000052
 123606371, 0.01519495, -0.005351274, 1.925025E-05, 0.02723421, -0.02842465, 0.4000058, 0.01883013, -0.007834246, 2.180614E-05, 0.02732895, -0.02848516, 0.4000055
 123806291, 0.01454488, -0.005470329, 1.801604E-05, 0.02721479, -0.02842534, 0.4000061, 0.01519495, -0.005351274, 1.925025E-05, 0.02723421, -0.02842465, 0.4000058
 124006211, 0.01676352, -0.005628028, 2.186239E-05, 0.02726992, -0.02842933, 0.4000063, 0.01454488, -0.005470329, 1.801604E-05, 0.02721479, -0.02842534, 0.4000061
 124206131, 0.01946231, -0.01041698, 1.90969E-05, 0.02734123, -0.02854463, 0.4000059, 0.01676352, -0.005628028, 2.186239E-05, 0.02726992, -0.02842933, 0.4000063
 124406051, 0.01699921, -0.01124298, 1.301635E-05, 0.0272814, -0.02856848, 0.4000052, 0.01946231, -0.01041698, 1.90969E-05, 0.02734123, -0.02854463, 0.4000059
 124605971, 0.01674568, -0.009366089, 1.554531E-05, 0.02727465, -0.02852392, 0.4000053, 0.01699921, -0.01124298, 1.301635E-05, 0.0272814, -0.02856848, 0.4000052
 124805891, 0.02023504, -0.008654462, 2.317028E-05, 0.02736184, -0.0285076, 0.4000056, 0.01674568, -0.009366089, 1.554531E-05, 0.02727465, -0.02852392, 0.4000053
 125005811, 0.02098425, -0.005956387, 2.896731E-05, 0.02737892, -0.02844579, 0.4000058, 0.02023504, -0.008654462, 2.317028E-05, 0.02736184, -0.0285076, 0.4000056
 125206564, 0.01767424, -0.009584628, 1.71265E-05, 0.02730499, -0.02852106, 0.3921624, 0.02098425, -0.005956387, 2.896731E-05, 0.02737892, -0.02844579, 0.4000058
 125406484, 0.0163763, -0.009169523, 1.562354E-05, 0.02725059, -0.02852645, 0.4000058, 0.01767424, -0.009584628, 1.71265E-05, 0.02730499, -0.02852106, 0.3921624
 125606404, 0.01955412, -0.008737221, 2.236653E-05, 0.02732782, -0.02851978, 0.4000059, 0.0163763, -0.009169523, 1.562354E-05, 0.02725059, -0.02852645, 0.4000058
 125806324, 0.0163124, -0.007316288, 1.862708E-05, 0.02724332, -0.02848822, 0.4000058, 0.01955412, -0.008737221, 2.236653E-05, 0.02732782, -0.02851978, 0.4000059
 126006244, 0.01579586, -0.007843672, 1.687583E-05, 0.02722716, -0.02850304, 0.4000058, 0.0163124, -0.007316288, 1.862708E-05, 0.02724332, -0.02848822, 0.4000058
 126206164, 0.01474787, -0.01040627, 9.755326E-06, 0.02720241, -0.02856938, 0.4000052, 0.01579586, -0.007843672, 1.687583E-05, 0.02722716, -0.02850304, 0.4000058
 126406084, 0.0151646, -0.01030732, 1.13253E-05, 0.02721712, -0.02856597, 0.400005, 0.01474787, -0.01040627, 9.755326E-06, 0.02720241, -0.02856938, 0.4000052
 126606004, 0.01521524, -0.009158587, 1.322627E-05, 0.02722153, -0.02853666, 0.4000049, 0.0151646, -0.01030732, 1.13253E-05, 0.02721712, -0.02856597, 0.400005
 126805924, 0.01539956, -0.008550577, 1.455865E-05, 0.02722745, -0.02852002, 0.400005, 0.01521524, -0.009158587, 1.322627E-05, 0.02722153, -0.02853666, 0.4000049
 127005844, 0.01446481, -0.008618851, 1.271426E-05, 0.02720537, -0.0285192, 0.400005, 0.01539956, -0.008550577, 1.455865E-05, 0.02722745, -0.02852002, 0.400005
 127205764, 0.01540289, -0.01050505, 1.137147E-05, 0.02723058, -0.02856204, 0.4000051, 0.01446481, -0.008618851, 1.271426E-05, 0.02720537, -0.0285192, 0.400005
 127406517, 0.01333126, -0.00639188, 1.423237E-05, 0.02717978, -0.0284616, 0.4000053, 0.01540289, -0.01050505, 1.137147E-05, 0.02723058, -0.02856204, 0.4000051
 127606437, 0.01509308, -0.005656299, 1.863037E-05, 0.02722524, -0.02844245, 0.4000054, 0.01333126, -0.00639188, 1.423237E-05, 0.02717978, -0.0284616, 0.4000053
 127806357, 0.01478613, -0.005963704, 1.756517E-05, 0.02721831, -0.02844789, 0.4000055, 0.01509308, -0.005656299, 1.863037E-05, 0.02722524, -0.02844245, 0.4000054
 128006277, 0.01373431, -0.009565799, 9.866257E-06, 0.0271926, -0.02853174, 0.4000054, 0.01478613, -0.005963704, 1.756517E-05, 0.02721831, -0.02844789, 0.4000055
 128206197, 0.01673366, -0.006806889, 1.968653E-05, 0.02727067, -0.02846518, 0.4000055, 0.01373431, -0.009565799, 9.866257E-06, 0.0271926, -0.02853174, 0.4000054
 128406117, 0.01944905, -0.004740661, 2.781396E-05, 0.02734276, -0.02841881, 0.4000054, 0.01673366, -0.006806889, 1.968653E-05, 0.02727067, -0.02846518, 0.4000055
 128606037, 0.01753672, -0.008147813, 1.885806E-05, 0.02729357, -0.02849887, 0.4000052, 0.01944905, -0.004740661, 2.781396E-05, 0.02734276, -0.02841881, 0.4000054
 128805957, 0.01655747, -0.01007055, 1.39503E-05, 0.02726914, -0.02854564, 0.400005, 0.01753672, -0.008147813, 1.885806E-05, 0.02729357, -0.02849887, 0.4000052
 129005877, 0.01571538, -0.008506707, 1.505476E-05, 0.02724571, -0.02850614, 0.4000053, 0.01655747, -0.01007055, 1.39503E-05, 0.02726914, -0.02854564, 0.400005
 129205797, 0.01608995, -0.006311295, 1.925945E-05, 0.02725498, -0.02845423, 0.4000054, 0.01571538, -0.008506707, 1.505476E-05, 0.02724571, -0.02850614, 0.4000053
 129406550, 0.01643357, -0.007165337, 1.854673E-05, 0.0272631, -0.0284741, 0.4000054, 0.01608995, -0.006311295, 1.925945E-05, 0.02725498, -0.02845423, 0.4000054
 129606470, 0.01528842, -0.008586257, 1.411775E-05, 0.0272205, -0.0285218, 0.4081684, 0.01643357, -0.007165337, 1.854673E-05, 0.0272631, -0.0284741, 0.4000054
 129806390, 0.01530537, -0.008110303, 1.486166E-05, 0.02723621, -0.02849911, 0.400005, 0.01528842, -0.008586257, 1.411775E-05, 0.0272205, -0.0285218, 0.4081684
 130006310, 0.01609354, -0.00911744, 1.464624E-05, 0.02725578, -0.02852516, 0.4000049, 0.01530537, -0.008110303, 1.486166E-05, 0.02723621, -0.02849911, 0.400005
 130206230, 0.01746342, -0.009316559, 1.619517E-05, 0.02728709, -0.02853075, 0.4000052, 0.01609354, -0.00911744, 1.464624E-05, 0.02725578, -0.02852516, 0.4000049
 130406150, 0.01370554, -0.008711055, 1.106839E-05, 0.02719147, -0.02851704, 0.400005, 0.01746342, -0.009316559, 1.619517E-05, 0.02728709, -0.02853075, 0.4000052
 130606070, 0.01657989, -0.00704948, 1.836428E-05, 0.02726058, -0.02847912, 0.4000053, 0.01370554, -0.008711055, 1.106839E-05, 0.02719147, -0.02851704, 0.400005
 130805990, 0.01864384, -0.007164476, 2.277321E-05, 0.02731192, -0.02848423, 0.4000053, 0.01657989, -0.00704948, 1.836428E-05, 0.02726058, -0.02847912, 0.4000053
 131005910, 0.01911098, -0.008722748, 2.11705E-05, 0.02732155, -0.02852353, 0.4000053, 0.01864384, -0.007164476, 2.277321E-05, 0.02731192, -0.02848423, 0.4000053
 131205830, 0.01427619, -0.008102898, 1.329397E-05, 0.02719526, -0.02851145, 0.4000051, 0.01911098, -0.008722748, 2.11705E-05, 0.02732155, -0.02852353, 0.4000053
 131406583, 0.01632914, -0.006919819, 1.984232E-05, 0.02724493, -0.02848674, 0.4000052, 0.01427619, -0.008102898, 1.329397E-05, 0.02719526, -0.02851145, 0.4000051
 131606503, 0.01834104, -0.009012393, 2.011372E-05, 0.02729855, -0.02853324, 0.4000053, 0.01632914, -0.006919819, 1.984232E-05, 0.02724493, -0.02848674, 0.4000052
 131806423, 0.01443226, -0.007088845, 1.510572E-05, 0.02720417, -0.02848483, 0.400005, 0.01834104, -0.009012393, 2.011372E-05, 0.02729855, -0.02853324, 0.4000053
 132006343, -0.008985463, -0.002783603, -2.102337E-05, 0.02667936, -0.02838258, 0.4000042, 0.01443226, -0.007088845, 1.510572E-05, 0.02720417, -0.02848483, 0.400005
 132206263, -0.01072142, 0.001732606, -1.60364E-05, 0.02664842, -0.02828014, 0.4000042, -0.008985463, -0.002783603, -2.102337E-05, 0.02667936, -0.02838258, 0.4000042
 132406183, -0.02170327, 0.003522963, -3.38335E-05, 0.02644599, -0.02824042, 0.4000038, -0.01072142, 0.001732606, -1.60364E-05, 0.02664842, -0.02828014, 0.4000042
 132606103, -0.01585912, 0.006876846, -1.785976E-05, 0.02655227, -0.02816585, 0.4000044, -0.02170327, 0.003522963, -3.38335E-05, 0.02644599, -0.02824042, 0.4000038
 132806023, -0.01842753, -0.00381368, -3.957159E-05, 0.02650528, -0.02839536, 0.4000041, -0.01585912, 0.006876846, -1.785976E-05, 0.02655227, -0.02816585, 0.4000044
 133005943, 0.01938417, -0.009246964, 2.03476E-05, 0.02734462, -0.0285217, 0.4000052, -0.01842753, -0.00381368, -3.957159E-05, 0.02650528, -0.02839536, 0.4000041
 133205863, -0.006709641, -0.007344567, -2.381765E-05, 0.02673343, -0.02847352, 0.4000046, 0.01938417, -0.009246964, 2.03476E-05, 0.02734462, -0.0285217, 0.4000052
 133405783, 0.02206424, 0.0006980837, 4.120186E-05, 0.02741155, -0.02829151, 0.4000061, -0.006709641, -0.007344567, -2.381765E-05, 0.02673343, -0.02847352, 0.4000046
 133606536, 0.01519041, -0.006964136, 1.669352E-05, 0.02723092, -0.02846462, 0.4000058, 0.02206424, 0.0006980837, 4.120186E-05, 0.02741155, -0.02829151, 0.4000061
 133806456, 0.007060396, 0.01388926, 3.494159E-05, 0.02703425, -0.02802283, 0.4000059, 0.01519041, -0.006964136, 1.669352E-05, 0.02723092, -0.02846462, 0.4000058
 134006376, 0.02001026, -0.002450621, 3.257157E-05, 0.02735511, -0.02836568, 0.4000058, 0.007060396, 0.01388926, 3.494159E-05, 0.02703425, -0.02802283, 0.4000059
 134206296, -0.001200075, 0.01637829, 2.396363E-05, 0.02684631, -0.02797886, 0.4000055, 0.02001026, -0.002450621, 3.257157E-05, 0.02735511, -0.02836568, 0.4000058
 134406216, -0.01959076, 0.005656426, -2.682925E-05, 0.02647911, -0.02819007, 0.4000047, -0.001200075, 0.01637829, 2.396363E-05, 0.02684631, -0.02797886, 0.4000055
 134606136, -0.006057082, 0.01778799, 1.721686E-05, 0.0267376, -0.02795165, 0.4000058, -0.01959076, 0.005656426, -2.682925E-05, 0.02647911, -0.02819007, 0.4000047
 134806056, 0.02168197, 0.01316914, 6.11545E-05, 0.02738843, -0.02804047, 0.400007, -0.006057082, 0.01778799, 1.721686E-05, 0.0267376, -0.02795165, 0.4000058
 135005976, 0.01251354, 0.02277562, 5.94358E-05, 0.02715452, -0.02786221, 0.400007, 0.02168197, 0.01316914, 6.11545E-05, 0.02738843, -0.02804047, 0.400007
 135205896, -0.003579575, 0.004530572, -1.885525E-07, 0.02678291, -0.02821279, 0.4000059, 0.01251354, 0.02277562, 5.94358E-05, 0.02715452, -0.02786221, 0.400007
 135405816, 0.02049518, -0.00808478, 2.442749E-05, 0.02735458, -0.02849407, 0.4000066, -0.003579575, 0.004530572, -1.885525E-07, 0.02678291, -0.02821279, 0.4000059
 135606569, -0.01227517, -0.006624136, -3.340658E-05, 0.02661917, -0.0284485, 0.3921622, 0.02049518, -0.00808478, 2.442749E-05, 0.02735458, -0.02849407, 0.4000066
 135806489, 0.01298359, -0.01797086, -4.61496E-06, 0.02716212, -0.02874145, 0.4000057, -0.01227517, -0.006624136, -3.340658E-05, 0.02661917, -0.0284485, 0.3921622
 136006409, 0.01034039, -0.02148113, -1.534683E-05, 0.02709796, -0.02883622, 0.4000052, 0.01298359, -0.01797086, -4.61496E-06, 0.02716212, -0.02874145, 0.4000057
 136206329, 0.002817415, -0.01736191, -2.289286E-05, 0.02692076, -0.02873347, 0.4000048, 0.01034039, -0.02148113, -1.534683E-05, 0.02709796, -0.02883622, 0.4000052
 136406249, 0.009240858, 0.02083533, 5.11735E-05, 0.02706871, -0.02790897, 0.4000064, 0.002817415, -0.01736191, -2.289286E-05, 0.02692076, -0.02873347, 0.4000048
 136606169, 0.01216136, 0.02261334, 5.973054E-05, 0.02713831, -0.02788067, 0.4000064, 0.009240858, 0.02083533, 5.11735E-05, 0.02706871, -0.02790897, 0.4000064
 136806089, 0.01401731, 0.001087354, 2.783915E-05, 0.02718838, -0.02829658, 0.4000059, 0.01216136, 0.02261334, 5.973054E-05, 0.02713831, -0.02788067, 0.4000064
 137006009, -0.01236301, -0.0203914, -5.581447E-05, 0.0266078, -0.02881018, 0.4000038, 0.01401731, 0.001087354, 2.783915E-05, 0.02718838, -0.02829658, 0.4000059
 137205929, 0.00788038, -0.009036127, -8.55109E-07, 0.02704765, -0.02852521, 0.4000049, -0.01236301, -0.0203914, -5.581447E-05, 0.0266078, -0.02881018, 0.4000038
 137405849, -0.01876652, -0.004054253, -4.094138E-05, 0.02649326, -0.02840878, 0.4000039, 0.00788038, -0.009036127, -8.55109E-07, 0.02704765, -0.02852521, 0.4000049
 137605769, -0.004661492, 0.01673756, 1.76491E-05, 0.02677298, -0.02797633, 0.400005, -0.01876652, -0.004054253, -4.094138E-05, 0.02649326, -0.02840878, 0.4000039
 137806522, 0.003855429, 0.01459601, 2.984452E-05, 0.02696048, -0.02801966, 0.400005, -0.004661492, 0.01673756, 1.76491E-05, 0.02677298, -0.02797633, 0.400005
 138006442, 0.01711082, -0.02318643, -6.223749E-06, 0.02728042, -0.02888366, 0.4000043, 0.003855429, 0.01459601, 2.984452E-05, 0.02696048, -0.02801966, 0.400005
 138206362, -0.00805317, -0.0144248, -3.783986E-05, 0.02670506, -0.02865493, 0.4000036, 0.01711082, -0.02318643, -6.223749E-06, 0.02728042, -0.02888366, 0.4000043
 138406282, -0.0211443, 0.0182253, -9.186298E-06, 0.0264571, -0.027947, 0.4000044, -0.00805317, -0.0144248, -3.783986E-05, 0.02670506, -0.02865493, 0.4000036
 138606202, -0.01427778, -0.006545058, -3.649823E-05, 0.02658107, -0.02846275, 0.4000039, -0.0211443, 0.0182253, -9.186298E-06, 0.0264571, -0.027947, 0.4000044
 138806122, -0.01009492, -0.005604161, -2.730875E-05, 0.02666409, -0.02843905, 0.4000041, -0.01427778, -0.006545058, -3.649823E-05, 0.02658107, -0.02846275, 0.4000039
 139006042, 0.01986192, -0.01835997, 6.019241E-06, 0.02735422, -0.0287494, 0.400005, -0.01009492, -0.005604161, -2.730875E-05, 0.02666409, -0.02843905, 0.4000041
 139205962, -0.01267412, -0.02314039, -6.062048E-05, 0.02661481, -0.02887446, 0.4000034, 0.01986192, -0.01835997, 6.019241E-06, 0.02735422, -0.0287494, 0.400005
 139405882, 0.01622007, -0.0120334, 9.227719E-06, 0.02726516, -0.0285932, 0.4000045, -0.01267412, -0.02314039, -6.062048E-05, 0.02661481, -0.02887446, 0.4000034
 139605802, -0.01945963, 0.01883197, -5.697032E-06, 0.02648998, -0.02793766, 0.4000042, 0.01622007, -0.0120334, 9.227719E-06, 0.02726516, -0.0285932, 0.4000045
 139806555, -0.01244426, -0.02094875, -5.699566E-05, 0.02662064, -0.02882232, 0.400003, -0.01945963, 0.01883197, -5.697032E-06, 0.02648998, -0.02793766, 0.4000042
 140006475, 0.003521131, 0.01742425, 3.440344E-05, 0.02694235, -0.02797688, 0.4081683, -0.01244426, -0.02094875, -5.699566E-05, 0.02662064, -0.02882232, 0.400003
 140206395, 0.004868866, 0.01314768, 3.005348E-05, 0.02698535, -0.02804604, 0.400005, 0.003521131, 0.01742425, 3.440344E-05, 0.02694235, -0.02797688, 0.4081683
 140406315, -0.0005309259, 0.0176368, 2.758385E-05, 0.02686161, -0.02796386, 0.4000049, 0.004868866, 0.01314768, 3.005348E-05, 0.02698535, -0.02804604, 0.400005
 140606235, 0.002571064, 0.01718798, 3.252664E-05, 0.02693049, -0.02797221, 0.400005, -0.0005309259, 0.0176368, 2.758385E-05, 0.02686161, -0.02796386, 0.4000049
 140806155, 0.003022294, 0.01556092, 3.090593E-05, 0.02693831, -0.02800688, 0.4000049, 0.002571064, 0.01718798, 3.252664E-05, 0.02693049, -0.02797221, 0.400005
 141006075, 0.001994775, 0.01580012, 2.961344E-05, 0.02691129, -0.02800683, 0.4000047, 0.003022294, 0.01556092, 3.090593E-05, 0.02693831, -0.02800688, 0.4000049
 141205995, 0.0004937249, 0.01377172, 2.356861E-05, 0.02687548, -0.02804654, 0.4000047, 0.001994775, 0.01580012, 2.961344E-05, 0.02691129, -0.02800683, 0.4000047
 141405915, -0.0001684916, 0.01765909, 2.88037E-05, 0.0268595, -0.02797482, 0.4000048, 0.0004937249, 0.01377172, 2.356861E-05, 0.02687548, -0.02804654, 0.4000047
 141605835, 0.0004381754, 0.01708274, 2.906835E-05, 0.02687035, -0.02798739, 0.4000049, -0.0001684916, 0.01765909, 2.88037E-05, 0.0268595, -0.02797482, 0.4000048
 141806588, 0.001872669, 0.01217839, 2.296146E-05, 0.02690127, -0.02808361, 0.4000046, 0.0004381754, 0.01708274, 2.906835E-05, 0.02687035, -0.02798739, 0.4000049
 142006508, 0.001868577, 0.0127278, 2.455867E-05, 0.02690332, -0.02807126, 0.4000046, 0.001872669, 0.01217839, 2.296146E-05, 0.02690127, -0.02808361, 0.4000046
 142206428, 0.00144038, 0.01455232, 2.597196E-05, 0.02650821, -0.02767727, 0.4081678, 0.001868577, 0.0127278, 2.455867E-05, 0.02690332, -0.02807126, 0.4000046
 142406348, 0.002676952, 0.01519159, 2.924978E-05, 0.02692648, -0.02802195, 0.4000045, 0.00144038, 0.01455232, 2.597196E-05, 0.02650821, -0.02767727, 0.4081678
 142606268, 0.003402048, 0.01451693, 3.017996E-05, 0.02694668, -0.02803434, 0.4000043, 0.002676952, 0.01519159, 2.924978E-05, 0.02692648, -0.02802195, 0.4000045
 142806188, 0.001892273, 0.01252351, 2.407109E-05, 0.02691481, -0.02807143, 0.4000041, 0.003402048, 0.01451693, 3.017996E-05, 0.02694668, -0.02803434, 0.4000043
 143006108, 0.00252965, 0.01333294, 2.646604E-05, 0.0269306, -0.02805316, 0.4000043, 0.001892273, 0.01252351, 2.407109E-05, 0.02691481, -0.02807143, 0.4000041
 143206028, 0.001542027, 0.01461159, 2.661786E-05, 0.02691039, -0.02802504, 0.4000044, 0.00252965, 0.01333294, 2.646604E-05, 0.0269306, -0.02805316, 0.4000043
 143405948, 0.002131527, 0.0177247, 3.187172E-05, 0.02692553, -0.02796424, 0.4000046, 0.001542027, 0.01461159, 2.661786E-05, 0.02691039, -0.02802504, 0.4000044
 143605868, 0.001585562, 0.01668587, 2.914554E-05, 0.02691506, -0.02798241, 0.4000045, 0.002131527, 0.0177247, 3.187172E-05, 0.02692553, -0.02796424, 0.4000046
 143805788, 0.003893348, 0.01192734, 2.557348E-05, 0.02696864, -0.02807266, 0.4000044, 0.001585562, 0.01668587, 2.914554E-05, 0.02691506, -0.02798241, 0.4000045
 144006541, 0.00386246, 0.01490106, 3.030584E-05, 0.02696877, -0.02801492, 0.4000044, 0.003893348, 0.01192734, 2.557348E-05, 0.02696864, -0.02807266, 0.4000044
 144206461, 0.0005948866, 0.01817935, 2.890636E-05, 0.02689599, -0.02795266, 0.4000044, 0.00386246, 0.01490106, 3.030584E-05, 0.02696877, -0.02801492, 0.4000044
 144406381, 0.0007671912, 0.01941007, 3.18618E-05, 0.02690143, -0.02792815, 0.4000045, 0.0005948866, 0.01817935, 2.890636E-05, 0.02689599, -0.02795266, 0.4000044
 144606301, 0.0009721779, 0.01533623, 2.565416E-05, 0.02690634, -0.02800283, 0.4000044, 0.0007671912, 0.01941007, 3.18618E-05, 0.02690143, -0.02792815, 0.4000045
 144806221, 0.001663888, 0.01572421, 2.758821E-05, 0.02692187, -0.02799722, 0.4000043, 0.0009721779, 0.01533623, 2.565416E-05, 0.02690634, -0.02800283, 0.4000044
 145006141, 0.003127233, 0.01526872, 2.950907E-05, 0.02695411, -0.02800635, 0.4000044, 0.001663888, 0.01572421, 2.758821E-05, 0.02692187, -0.02799722, 0.4000043
 145206061, 0.003575706, 0.01601085, 3.149398E-05, 0.0269634, -0.02799162, 0.4000045, 0.003127233, 0.01526872, 2.950907E-05, 0.02695411, -0.02800635, 0.4000044
 145405981, 0.0004287433, 0.01519338, 2.372234E-05, 0.02689158, -0.02800608, 0.4000045, 0.003575706, 0.01601085, 3.149398E-05, 0.0269634, -0.02799162, 0.4000045
 145605901, 0.001637834, 0.01725459, 0.4088762, 0.02991114, -0.03028419, 0.3999993, 0.0004287433, 0.01519338, 2.372234E-05, 0.02689158, -0.02800608, 0.4000045
 145805821, 1.326064E-05, 0.01971754, 1.035164, 0.03867001, -0.03739267, 0.3999812, 0.001637834, 0.01725459, 0.4088762, 0.02991114, -0.03028419, 0.3999993
 146006574, 0.007873993, 0.0278999, 1.895949, 0.05563033, -0.05356109, 0.3999585, 1.326064E-05, 0.01971754, 1.035164, 0.03867001, -0.03739267, 0.3999812
 146206494, 0.01079847, 0.04999757, 2.927879, 0.08238537, -0.08007215, 0.3999388, 0.007873993, 0.0278999, 1.895949, 0.05563033, -0.05356109, 0.3999585
 146406414, 0.0294425, 0.07408302, 3.605555, 0.1170828, -0.1146922, 0.399927, 0.01079847, 0.04999757, 2.927879, 0.08238537, -0.08007215, 0.3999388
 146606334, 0.03434481, 0.08243079, 4.371671, 0.1600057, -0.1579154, 0.3999187, 0.0294425, 0.07408302, 3.605555, 0.1170828, -0.1146922, 0.399927
 146806254, 0.02548343, 0.1219129, 4.949457, 0.2091036, -0.207301, 0.3999153, 0.03434481, 0.08243079, 4.371671, 0.1600057, -0.1579154, 0.3999187
 147006174, 0.03083678, 0.1596041, 5.521547, 0.266183, -0.2627925, 0.6999157, 0.02548343, 0.1219129, 4.949457, 0.2091036, -0.207301, 0.3999153
 147206094, 0.08558871, 0.1934092, 6.076645, 0.3281706, -0.3235317, 0.9999233, 0.03083678, 0.1596041, 5.521547, 0.266183, -0.2627925, 0.6999157
 147406014, 0.1119423, 0.1910652, 6.420029, 0.3932199, -0.3890554, 0.9999457, 0.08558871, 0.1934092, 6.076645, 0.3281706, -0.3235317, 0.9999233
 147605934, 0.03699728, 0.2216981, 6.741265, 0.4616043, -0.4584752, 0.9999864, 0.1119423, 0.1910652, 6.420029, 0.3932199, -0.3890554, 0.9999457
 147805854, 0.02540233, 0.3290524, 7.065169, 0.5330018, -0.5302877, 1.000038, 0.03699728, 0.2216981, 6.741265, 0.4616043, -0.4584752, 0.9999864
 148005774, 0.08189254, 0.4330173, 7.217249, 0.6076314, -0.6050553, 1.000087, 0.02540233, 0.3290524, 7.065169, 0.5330018, -0.5302877, 1.000038
 148206527, 0.1471672, 0.4052205, 7.449129, 0.6847386, -0.6819322, 0.9996128, 0.08189254, 0.4330173, 7.217249, 0.6076314, -0.6050553, 1.000087
 148406447, 0.1364631, 0.4661085, 7.710631, 0.7629901, -0.7610005, 1.019655, 0.1471672, 0.4052205, 7.449129, 0.6847386, -0.6819322, 0.9996128
 148606367, 0.08462109, 0.5107837, 7.599964, 0.8417608, -0.8413223, 0.9989463, 0.1364631, 0.4661085, 7.710631, 0.7629901, -0.7610005, 1.019655
 148806287, 0.09568986, 0.6383451, 7.768742, 0.9219002, -0.922335, 0.9988891, 0.08462109, 0.5107837, 7.599964, 0.8417608, -0.8413223, 0.9989463
 149006207, 0.1686977, 0.536741, 7.884481, 1.003246, -1.003808, 0.9993892, 0.09568986, 0.6383451, 7.768742, 0.9219002, -0.922335, 0.9988891
 149206127, 0.1119855, 0.5282447, 7.949187, 1.085335, -1.086156, 0.9993455, 0.1686977, 0.536741, 7.884481, 1.003246, -1.003808, 0.9993892
 149406047, 0.1408183, 0.5807989, 7.985105, 1.168061, -1.169112, 0.9993321, 0.1119855, 0.5282447, 7.949187, 1.085335, -1.086156, 0.9993455
 149605967, 0.04510194, 0.7199056, 7.842366, 1.249831, -1.252182, 0.9992378, 0.1408183, 0.5807989, 7.985105, 1.168061, -1.169112, 0.9993321
 149805887, 0.09377201, 0.8183269, 7.372861, 1.327729, -1.331614, 0.9994479, 0.04510194, 0.7199056, 7.842366, 1.249831, -1.252182, 0.9992378
 150005807, 0.09910799, 0.7454659, 6.963742, 1.40082, -1.407703, 0.9994454, 0.09377201, 0.8183269, 7.372861, 1.327729, -1.331614, 0.9994479
 150206560, 0.07289408, 0.7359816, 6.508809, 1.459924, -1.478878, 1.012534, 0.09910799, 0.7454659, 6.963742, 1.40082, -1.407703, 0.9994454
 150406480, 0.04064336, 0.7606365, 6.24776, 1.507515, -1.542791, 1.043322, 0.07289408, 0.7359816, 6.508809, 1.459924, -1.478878, 1.012534
 150606400, -0.01192309, 0.814406, 5.858099, 1.574864, -1.631443, 0.9929715, 0.04064336, 0.7606365, 6.24776, 1.507515, -1.542791, 1.043322
 150806320, 0.04610226, 0.9979897, 5.219192, 1.632762, -1.69128, 0.9865806, -0.01192309, 0.814406, 5.858099, 1.574864, -1.631443, 0.9929715
 151006240, 0.07528645, 0.8580929, 4.603084, 1.681173, -1.729595, 1.011221, 0.04610226, 0.9979897, 5.219192, 1.632762, -1.69128, 0.9865806
 151206160, 0.1248431, 0.8532023, 3.981575, 1.726874, -1.77251, 1.01178, 0.07528645, 0.8580929, 4.603084, 1.681173, -1.729595, 1.011221
 151406080, 0.2815529, 0.8550402, 3.369358, 1.765836, -1.828197, 0.9767577, 0.1248431, 0.8532023, 3.981575, 1.726874, -1.77251, 1.01178
 151606000, 0.1211697, 0.8351789, 2.778482, 1.793477, -1.85653, 0.9861714, 0.2815529, 0.8550402, 3.369358, 1.765836, -1.828197, 0.9767577
 151805920, -0.05138752, 1.009086, 2.253068, 1.824502, -1.86669, 1.001126, 0.1211697, 0.8351789, 2.778482, 1.793477, -1.85653, 0.9861714
 152005840, 0.05534472, 1.291911, 1.937488, 1.849511, -1.862707, 1.039883, -0.05138752, 1.009086, 2.253068, 1.824502, -1.86669, 1.001126
 152205760, 0.1451634, 1.312967, 1.600282, 1.87627, -1.871024, 1.042462, 0.05534472, 1.291911, 1.937488, 1.849511, -1.862707, 1.039883
