TimeUS,COFN,COFE,COFD,CNe,CEe,CDe,POFN,POFE,POFD,PNe,PEe,PDe
 76940878, -0.05699627, -0.05345206, 0.01986293, 0.08572858, 0.06883922, 0.00014867, 0, 0, 0, 0, 0, 0
 77020846, -0.004150936, -0.003887506, -2.019043E-06, 0.08751133, 0.06717208, 1.000016, -0.05699627, -0.05345206, 0.01986293, 0.08572858, 0.06883922, 0.00014867
 77220766, -0.002037663, 0.0003986972, 3.660919E-06, 0.08872529, 0.06816902, 1.000016, -0.004150936, -0.003887506, -2.019043E-06, 0.08751133, 0.06717208, 1.000016
 77420686, 0.0006254896, 0.002812113, 4.774879E-06, 0.08875722, 0.06819292, 1.000015, -0.002037663, 0.0003986972, 3.660919E-06, 0.08872529, 0.06816902, 1.000016
 77620606, 0.002285565, -0.003446052, -2.570626E-06, 0.08878244, 0.06813069, 1.000014, 0.0006254896, 0.002812113, 4.774879E-06, 0.08875722, 0.06819292, 1.000015
 77820526, -0.004451465, -0.001588162, 1.076153E-05, 0.08872443, 0.06814232, 1.000014, 0.002285565, -0.003446052, -2.570626E-06, 0.08878244, 0.06813069, 1.000014
 78020446, -0.001390836, 0.0015385, 5.108327E-06, 0.08875504, 0.06816646, 1.000015, -0.004451465, -0.001588162, 1.076153E-05, 0.08872443, 0.06814232, 1.000014
 78220366, 0.00387037, 0.002778391, 7.738217E-06, 0.08880594, 0.06817397, 1.000015, -0.001390836, 0.0015385, 5.108327E-06, 0.08875504, 0.06816646, 1.000015
 78420286, -0.007238089, 0.003887768, 1.830761E-05, 0.08870681, 0.06817824, 1.000015, 0.00387037, 0.002778391, 7.738217E-06, 0.08880594, 0.06817397, 1.000015
 78620206, -0.009406672, 0.0008662224, 1.531589E-05, 0.08869344, 0.06814445, 1.000015, -0.007238089, 0.003887768, 1.830761E-05, 0.08870681, 0.06817824, 1.000015
 78820959, 0.002191995, -0.005422365, -6.663302E-06, 0.08880267, 0.06808302, 1.000015, -0.009406672, 0.0008662224, 1.531589E-05, 0.08869344, 0.06814445, 1.000015
 79020879, -0.007249407, -0.002360435, 5.631688E-06, 0.08871587, 0.06811249, 1.000015, 0.002191995, -0.005422365, -6.663302E-06, 0.08880267, 0.06808302, 1.000015
 79220799, -0.002072529, 0.003857451, 1.086586E-05, 0.08875637, 0.06817483, 1.000015, -0.007249407, -0.002360435, 5.631688E-06, 0.08871587, 0.06811249, 1.000015
 79420719, 0.001016392, -5.19785E-05, -1.569838E-06, 0.08878731, 0.06815104, 1.000014, -0.002072529, 0.003857451, 1.086586E-05, 0.08875637, 0.06817483, 1.000015
 79620639, -0.002856351, -0.0001393709, 3.827392E-06, 0.08875009, 0.0681582, 1.000013, 0.001016392, -5.19785E-05, -1.569838E-06, 0.08878731, 0.06815104, 1.000014
 79820559, -0.002815987, -0.006173789, -8.427423E-06, 0.08874451, 0.0681088, 1.000013, -0.002856351, -0.0001393709, 3.827392E-06, 0.08875009, 0.0681582, 1.000013
 80020479, -0.005732442, 0.00317168, 1.458252E-05, 0.08871427, 0.06819598, 1.000014, -0.002815987, -0.006173789, -8.427423E-06, 0.08874451, 0.0681088, 1.000013
 80220399, -0.002070613, 0.004534139, 1.209623E-05, 0.08873842, 0.06820585, 1.000015, -0.005732442, 0.00317168, 1.458252E-05, 0.08871427, 0.06819598, 1.000014
 80420319, 0.0001063621, 0.004166203, 8.25796E-06, 0.08874967, 0.06820386, 1.000015, -0.002070613, 0.004534139, 1.209623E-05, 0.08873842, 0.06820585, 1.000015
 80620239, 0.0005873799, 0.0003366029, -1.488232E-07, 0.08874904, 0.06817383, 1.000015, 0.0001063621, 0.004166203, 8.25796E-06, 0.08874967, 0.06820386, 1.000015
 80820159, -0.00839496, -0.002710004, 6.340346E-06, 0.08866517, 0.06815075, 1.000015, 0.0005873799, 0.0003366029, -1.488232E-07, 0.08874904, 0.06817383, 1.000015
 81020912, -0.001884988, -0.005213123, -7.795849E-06, 0.08872477, 0.06813344, 1.000015, -0.00839496, -0.002710004, 6.340346E-06, 0.08866517, 0.06815075, 1.000015
 81220832, 0.005900572, -0.005023559, -1.836936E-05, 0.08880141, 0.06813797, 1.000014, -0.001884988, -0.005213123, -7.795849E-06, 0.08872477, 0.06813344, 1.000015
 81420752, -0.006990354, -0.00800087, -6.073171E-06, 0.08868776, 0.06811849, 1.000013, 0.005900572, -0.005023559, -1.836936E-05, 0.08880141, 0.06813797, 1.000014
 81620672, -0.008218501, 0.003083562, 1.785351E-05, 0.08868601, 0.06821948, 1.000013, -0.006990354, -0.00800087, -6.073171E-06, 0.08868776, 0.06811849, 1.000013
 81820592, 0.0008689038, 0.0003270276, -5.925901E-07, 0.08877471, 0.06819632, 1.000012, -0.008218501, 0.003083562, 1.785351E-05, 0.08868601, 0.06821948, 1.000013
 82020512, -0.007680799, 0.002658964, 1.632448E-05, 0.08870173, 0.06822, 1.000011, 0.0008689038, 0.0003270276, -5.925901E-07, 0.08877471, 0.06819632, 1.000012
 82220432, -0.001696992, -0.0008553393, 7.386178E-07, 0.08875851, 0.06818523, 1.000011, -0.007680799, 0.002658964, 1.632448E-05, 0.08870173, 0.06822, 1.000011
 82420352, 0.007948819, 0.0003972565, -1.066939E-05, 0.08885051, 0.0681915, 1.000011, -0.001696992, -0.0008553393, 7.386178E-07, 0.08875851, 0.06818523, 1.000011
 82620272, -0.003422898, -0.001715737, 1.485986E-06, 0.08873969, 0.06816976, 1.000012, 0.007948819, 0.0003972565, -1.066939E-05, 0.08885051, 0.0681915, 1.000011
 82820192, 0.002827018, 0.003743481, 3.446907E-06, 0.08879709, 0.06821688, 1.000012, -0.003422898, -0.001715737, 1.485986E-06, 0.08873969, 0.06816976, 1.000012
 83020945, 0.002075573, -0.00568053, -1.44369E-05, 0.08879398, 0.06812423, 1.000012, 0.002827018, 0.003743481, 3.446907E-06, 0.08879709, 0.06821688, 1.000012
 83220865, 0.004675116, 0.0002683949, -6.241342E-06, 0.08882578, 0.06817281, 1.000012, 0.002075573, -0.00568053, -1.44369E-05, 0.08879398, 0.06812423, 1.000012
 83420785, -0.001025511, -0.0008938459, -3.143326E-07, 0.08877744, 0.06816027, 1.000012, 0.004675116, 0.0002683949, -6.241342E-06, 0.08882578, 0.06817281, 1.000012
 83620705, 0.008883219, -0.00408101, -2.12524E-05, 0.08887558, 0.06812589, 1.000011, -0.001025511, -0.0008938459, -3.143326E-07, 0.08877744, 0.06816027, 1.000012
 83820625, 0.001078941, 0.005815673, 1.027477E-05, 0.08880491, 0.06820819, 1.000012, 0.008883219, -0.00408101, -2.12524E-05, 0.08887558, 0.06812589, 1.000011
 84020545, 0.002537773, -0.004023004, -1.9607E-05, 0.08882521, 0.0681076, 1.000012, 0.001078941, 0.005815673, 1.027477E-05, 0.08880491, 0.06820819, 1.000012
 84220465, -0.002043521, -0.00133134, 2.976149E-07, 0.08878969, 0.06813341, 1.000011, 0.002537773, -0.004023004, -1.9607E-05, 0.08882521, 0.0681076, 1.000012
 84420385, -0.004574606, 0.004774126, 1.648503E-05, 0.08876372, 0.06819661, 1.000011, -0.002043521, -0.00133134, 2.976149E-07, 0.08878969, 0.06813341, 1.000011
 84620305, 0.005197342, -0.001021381, -9.690862E-06, 0.08884396, 0.06814906, 1.000012, -0.004574606, 0.004774126, 1.648503E-05, 0.08876372, 0.06819661, 1.000011
 84820225, 0.002098872, -0.003618727, -1.038499E-05, 0.08881006, 0.068135, 1.000011, 0.005197342, -0.001021381, -9.690862E-06, 0.08884396, 0.06814906, 1.000012
 85020145, -0.005788767, 0.002535442, 1.354663E-05, 0.08873411, 0.0681942, 1.000012, 0.002098872, -0.003618727, -1.038499E-05, 0.08881006, 0.068135, 1.000011
 85220898, -0.005849359, 0.003357616, 1.522849E-05, 0.08872478, 0.06820616, 1.000012, -0.005788767, 0.002535442, 1.354663E-05, 0.08873411, 0.0681942, 1.000012
 85420818, -0.007222344, -0.004822532, 6.743385E-07, 0.08870231, 0.06813573, 1.000013, -0.005849359, 0.003357616, 1.522849E-05, 0.08872478, 0.06820616, 1.000012
 85620738, 0.00375863, 0.004917994, -3.120496E-06, 0.08879451, 0.06822795, 1.000013, -0.007222344, -0.004822532, 6.743385E-07, 0.08870231, 0.06813573, 1.000013
 85820658, 0.0006904195, -0.0002448189, -9.107875E-06, 0.08876634, 0.068181, 1.000013, 0.00375863, 0.004917994, -3.120496E-06, 0.08879451, 0.06822795, 1.000013
 86020578, 0.004052529, -0.006431921, -1.868984E-05, 0.08880141, 0.06813002, 1.000012, 0.0006904195, -0.0002448189, -9.107875E-06, 0.08876634, 0.068181, 1.000013
 86220498, 0.0007207521, 0.002666335, 4.298616E-06, 0.08876755, 0.06821702, 1.000012, 0.004052529, -0.006431921, -1.868984E-05, 0.08880141, 0.06813002, 1.000012
 86420418, -0.002419874, -0.002864724, -2.255515E-06, 0.08873579, 0.06817178, 1.000012, 0.0007207521, 0.002666335, 4.298616E-06, 0.08876755, 0.06821702, 1.000012
 86620338, -0.001288298, -0.008374125, -1.482937E-05, 0.08874333, 0.06812707, 1.000012, -0.002419874, -0.002864724, -2.255515E-06, 0.08873579, 0.06817178, 1.000012
 86820258, -8.36126E-05, -0.0042684, -8.380273E-06, 0.08875056, 0.0681624, 1.000013, -0.001288298, -0.008374125, -1.482937E-05, 0.08874333, 0.06812707, 1.000012
 87020178, -0.004098436, 0.0053842, 1.657291E-05, 0.0887148, 0.06824796, 1.000013, -8.36126E-05, -0.0042684, -8.380273E-06, 0.08875056, 0.0681624, 1.000013
 87220931, 0.001639867, -0.007411236, -1.713733E-05, 0.08876669, 0.06812921, 1.000013, -0.004098436, 0.0053842, 1.657291E-05, 0.0887148, 0.06824796, 1.000013
 87420851, 0.006865781, -0.0007155421, -3.566511E-06, 0.08881486, 0.06818411, 1.000013, 0.001639867, -0.007411236, -1.713733E-05, 0.08876669, 0.06812921, 1.000013
 87620771, -0.002878466, 0.003152765, 1.04327E-05, 0.08872735, 0.06821621, 1.000013, 0.006865781, -0.0007155421, -3.566511E-06, 0.08881486, 0.06818411, 1.000013
 87820691, -0.009114277, -0.002582105, 7.84472E-06, 0.08867544, 0.06816417, 1.000013, -0.002878466, 0.003152765, 1.04327E-05, 0.08872735, 0.06821621, 1.000013
 88020611, -0.006362963, -0.002079003, 4.949884E-06, 0.08870283, 0.06817094, 1.000013, -0.009114277, -0.002582105, 7.84472E-06, 0.08867544, 0.06816417, 1.000013
 88220531, -0.0005479584, -0.004611203, -1.609773E-05, 0.08875896, 0.06814695, 1.000012, -0.006362963, -0.002079003, 4.949884E-06, 0.08870283, 0.06817094, 1.000013
 88420451, -0.0008902101, 0.006690865, 1.477132E-05, 0.08875935, 0.06824358, 1.000013, -0.0005479584, -0.004611203, -1.609773E-05, 0.08875896, 0.06814695, 1.000012
 88620371, -0.002775141, -0.006017218, -8.128989E-06, 0.08875578, 0.06812079, 1.000012, -0.0008902101, 0.006690865, 1.477132E-05, 0.08875935, 0.06824358, 1.000013
 88820291, 0.007867913, -0.001171806, -1.392018E-05, 0.08886688, 0.06815967, 1.000011, -0.002775141, -0.006017218, -8.128989E-06, 0.08875578, 0.06812079, 1.000012
 89020211, 0.0001264424, -0.0006793538, -1.571144E-06, 0.08879813, 0.0681532, 1.000011, 0.007867913, -0.001171806, -1.392018E-05, 0.08886688, 0.06815967, 1.000011
 89220964, 0.00478566, 0.002597782, 5.884353E-06, 0.08884471, 0.06817602, 1.000012, 0.0001264424, -0.0006793538, -1.571144E-06, 0.08879813, 0.0681532, 1.000011
 89420884, 0.001149714, -0.00266581, -7.135325E-06, 0.0888042, 0.06813085, 1.000012, 0.00478566, 0.002597782, 5.884353E-06, 0.08884471, 0.06817602, 1.000012
 89620804, 0.0003222498, -0.002273042, -5.090893E-06, 0.08878709, 0.06814393, 1.000012, 0.001149714, -0.00266581, -7.135325E-06, 0.0888042, 0.06813085, 1.000012
 89820724, 0.003999427, 0.0001634699, -1.309532E-05, 0.08881224, 0.06817783, 1.000012, 0.0003222498, -0.002273042, -5.090893E-06, 0.08878709, 0.06814393, 1.000012
 90020644, -0.0006206697, 0.004948269, 3.215093E-06, 0.08876193, 0.06823203, 1.000012, 0.003999427, 0.0001634699, -1.309532E-05, 0.08881224, 0.06817783, 1.000012
 90220564, 0.002336096, 0.000663067, -9.654967E-06, 0.08878328, 0.06819911, 1.000012, -0.0006206697, 0.004948269, 3.215093E-06, 0.08876193, 0.06823203, 1.000012
 90420484, 0.006280384, 0.001116533, -1.438792E-05, 0.08881576, 0.06821161, 1.000012, 0.002336096, 0.000663067, -9.654967E-06, 0.08878328, 0.06819911, 1.000012
 90620404, -0.001703504, 0.007095539, 8.924496E-06, 0.08873683, 0.06827208, 1.000012, 0.006280384, 0.001116533, -1.438792E-05, 0.08881576, 0.06821161, 1.000012
 90820324, -0.005244555, 0.0008332454, 9.112728E-06, 0.08870071, 0.0682183, 1.000012, -0.001703504, 0.007095539, 8.924496E-06, 0.08873683, 0.06827208, 1.000012
 91020244, -0.004919659, 0.001375409, 9.723225E-06, 0.08870255, 0.06822269, 1.000013, -0.005244555, 0.0008332454, 9.112728E-06, 0.08870071, 0.0682183, 1.000012
 91220164, -0.003278624, -0.005992775, -7.227972E-06, 0.08872174, 0.06815615, 1.000012, -0.004919659, 0.001375409, 9.723225E-06, 0.08870255, 0.06822269, 1.000013
 91420917, 0.002451909, 0.009138666, 2.22159E-05, 0.08878021, 0.06830313, 1.000011, -0.003278624, -0.005992775, -7.227972E-06, 0.08872174, 0.06815615, 1.000012
 91620837, -0.005991665, 0.007361074, 3.076286E-05, 0.08870587, 0.06829032, 1.000011, 0.002451909, 0.009138666, 2.22159E-05, 0.08878021, 0.06830313, 1.000011
 91820757, 0.001066811, 0.006101723, 1.05242E-05, 0.08876646, 0.06827949, 1.000011, -0.005991665, 0.007361074, 3.076286E-05, 0.08870587, 0.06829032, 1.000011
 92020677, -0.007826048, -0.002050467, 1.475121E-05, 0.08868204, 0.0682047, 1.000011, 0.001066811, 0.006101723, 1.05242E-05, 0.08876646, 0.06827949, 1.000011
 92220597, 0.003488262, -0.001631061, -8.190451E-06, 0.08878213, 0.06820915, 1.000011, -0.007826048, -0.002050467, 1.475121E-05, 0.08868204, 0.0682047, 1.000011
 92420517, 0.007505048, 0.004827979, -1.15135E-06, 0.08881961, 0.06826758, 1.000011, 0.003488262, -0.001631061, -8.190451E-06, 0.08878213, 0.06820915, 1.000011
 92620437, 0.0009880684, 0.00174276, 2.040669E-06, 0.08875909, 0.06823549, 1.000012, 0.007505048, 0.004827979, -1.15135E-06, 0.08881961, 0.06826758, 1.000011
 92820357, 0.001900573, 0.0006211775, -1.480287E-06, 0.08876812, 0.06822164, 1.000012, 0.0009880684, 0.00174276, 2.040669E-06, 0.08875909, 0.06823549, 1.000012
 93020277, -0.0003020257, -0.004243286, -1.563444E-05, 0.08874925, 0.06817322, 1.000012, 0.001900573, 0.0006211775, -1.480287E-06, 0.08876812, 0.06822164, 1.000012
 93220197, -0.001810861, 0.001183072, 4.947231E-06, 0.08873585, 0.06821815, 1.000012, -0.0003020257, -0.004243286, -1.563444E-05, 0.08874925, 0.06817322, 1.000012
 93420950, 0.003246508, 0.0007794927, -3.095967E-06, 0.08878546, 0.06821084, 1.000012, -0.001810861, 0.001183072, 4.947231E-06, 0.08873585, 0.06821815, 1.000012
 93620870, -0.001415921, -0.0001273992, 1.781149E-06, 0.08874696, 0.06819751, 1.000012, 0.003246508, 0.0007794927, -3.095967E-06, 0.08878546, 0.06821084, 1.000012
 93820790, -0.0001038301, -0.005440445, -1.077948E-05, 0.08876241, 0.06814367, 1.000012, -0.001415921, -0.0001273992, 1.781149E-06, 0.08874696, 0.06819751, 1.000012
 94020710, -0.008585622, 0.00869118, 2.990397E-05, 0.08869249, 0.06827265, 1.000012, -0.0001038301, -0.005440445, -1.077948E-05, 0.08876241, 0.06814367, 1.000012
 94220630, -0.004107856, -0.006191202, -6.506229E-06, 0.08873698, 0.0681318, 1.000011, -0.008585622, 0.00869118, 2.990397E-05, 0.08869249, 0.06827265, 1.000012
 94420550, -0.007783519, -0.0009500141, 9.415629E-06, 0.08870685, 0.06817373, 1.000012, -0.004107856, -0.006191202, -6.506229E-06, 0.08873698, 0.0681318, 1.000011
 94620470, -0.0001292099, 0.006438868, 1.313671E-05, 0.08878441, 0.06825285, 1.00001, -0.007783519, -0.0009500141, 9.415629E-06, 0.08870685, 0.06817373, 1.000012
 94820390, 0.007609237, 0.003048646, 2.550914E-06, 0.08886066, 0.06823278, 1.000009, -0.0001292099, 0.006438868, 1.313671E-05, 0.08878441, 0.06825285, 1.00001
 95020310, 0.0009147493, -0.002810367, -6.922399E-06, 0.08878915, 0.06818826, 1.000009, 0.007609237, 0.003048646, 2.550914E-06, 0.08886066, 0.06823278, 1.000009
 95220230, -0.006104322, 0.001162247, 1.114997E-05, 0.0887163, 0.06823216, 1.00001, 0.0009147493, -0.002810367, -6.922399E-06, 0.08878915, 0.06818826, 1.000009
 95420150, -0.002726874, 0.001585893, 7.068325E-06, 0.08874103, 0.06824192, 1.00001, -0.006104322, 0.001162247, 1.114997E-05, 0.0887163, 0.06823216, 1.00001
 95620903, -0.0005738946, 0.0005815841, 1.969679E-06, 0.08875575, 0.06823982, 1.000009, -0.002726874, 0.001585893, 7.068325E-06, 0.08874103, 0.06824192, 1.00001
 95820823, 0.00831629, -0.0007136591, -1.331304E-05, 0.08883375, 0.06823535, 1.000009, -0.0005738946, 0.0005815841, 1.969679E-06, 0.08875575, 0.06823982, 1.000009
 96020743, 0.002851557, -0.006591967, -1.697708E-05, 0.08877695, 0.06818414, 1.00001, 0.00831629, -0.0007136591, -1.331304E-05, 0.08883375, 0.06823535, 1.000009
 96220663, -0.005773519, 0.0005506575, 9.299529E-06, 0.08869414, 0.06824959, 1.00001, 0.002851557, -0.006591967, -1.697708E-05, 0.08877695, 0.06818414, 1.00001
 96420583, 0.002429252, -0.003630879, -1.056525E-05, 0.08876862, 0.06821142, 1.00001, -0.005773519, 0.0005506575, 9.299529E-06, 0.08869414, 0.06824959, 1.00001
 96620503, -0.009044108, -0.006534498, 7.668683E-06, 0.08866298, 0.06818133, 1.000011, 0.002429252, -0.003630879, -1.056525E-05, 0.08876862, 0.06821142, 1.00001
 96820423, 0.0007882089, 0.004428505, 7.594868E-06, 0.08874663, 0.06827626, 1.000011, -0.009044108, -0.006534498, 7.668683E-06, 0.08866298, 0.06818133, 1.000011
 97020343, 0.005554831, -0.009341596, -1.862846E-05, 0.08879091, 0.06815043, 1.000011, 0.0007882089, 0.004428505, 7.594868E-06, 0.08874663, 0.06827626, 1.000011
 97220263, -0.003293981, 9.372325E-05, 1.24806E-05, 0.0887079, 0.06823364, 1.000012, 0.005554831, -0.009341596, -1.862846E-05, 0.08879091, 0.06815043, 1.000011
 97420183, -0.0008389251, -0.003412537, -5.53283E-06, 0.08873121, 0.06820222, 1.000012, -0.003293981, 9.372325E-05, 1.24806E-05, 0.0887079, 0.06823364, 1.000012
 97620936, 0.003720869, 0.0009021338, -3.503372E-06, 0.08877416, 0.06824335, 1.000011, -0.0008389251, -0.003412537, -5.53283E-06, 0.08873121, 0.06820222, 1.000012
 97820856, 0.005975924, 0.002390854, -3.778053E-06, 0.08879655, 0.06825686, 1.000011, 0.003720869, 0.0009021338, -3.503372E-06, 0.08877416, 0.06824335, 1.000011
 98020776, 0.005522419, 0.004361322, 7.563422E-07, 0.08879206, 0.06827332, 1.000011, 0.005975924, 0.002390854, -3.778053E-06, 0.08879655, 0.06825686, 1.000011
 98220696, 0.004460616, -0.007333371, -2.083241E-05, 0.08878241, 0.0681618, 1.000012, 0.005522419, 0.004361322, 7.563422E-07, 0.08879206, 0.06827332, 1.000011
 98420616, -0.002022802, -0.002919805, -2.904113E-06, 0.08872664, 0.06819617, 1.000012, 0.004460616, -0.007333371, -2.083241E-05, 0.08878241, 0.0681618, 1.000012
 98620536, 0.002211398, 0.001059779, -1.055119E-06, 0.08876948, 0.06822714, 1.000012, -0.002022802, -0.002919805, -2.904113E-06, 0.08872664, 0.06819617, 1.000012
 98820456, -0.003482576, 0.007535832, 2.003834E-05, 0.0887196, 0.06827957, 1.000012, 0.002211398, 0.001059779, -1.055119E-06, 0.08876948, 0.06822714, 1.000012
 99020376, -0.0008921347, -0.004603485, -7.954655E-06, 0.08874338, 0.06815901, 1.000013, -0.003482576, 0.007535832, 2.003834E-05, 0.0887196, 0.06827957, 1.000012
 99220296, 0.0006781835, 0.002092305, 3.232535E-06, 0.08875819, 0.06821635, 1.000013, -0.0008921347, -0.004603485, -7.954655E-06, 0.08874338, 0.06815901, 1.000013
 99420216, -0.0007369007, -0.007892071, -1.484647E-05, 0.08874606, 0.06812137, 1.000013, 0.0006781835, 0.002092305, 3.232535E-06, 0.08875819, 0.06821635, 1.000013
 99620969, 0.0007190625, 0.002455645, 3.919387E-06, 0.0887656, 0.06821201, 1.000013, -0.0007369007, -0.007892071, -1.484647E-05, 0.08874606, 0.06812137, 1.000013
 99820889, 0.0006818502, -0.001445753, -1.152082E-05, 0.0887609, 0.06817967, 1.000013, 0.0007190625, 0.002455645, 3.919387E-06, 0.0887656, 0.06821201, 1.000013
 100020809, -0.00936303, 0.001294072, 1.596361E-05, 0.0886627, 0.06820964, 1.000013, 0.0006818502, -0.001445753, -1.152082E-05, 0.0887609, 0.06817967, 1.000013
 100220729, -0.002070424, -0.003282272, -3.619741E-06, 0.08872073, 0.06817652, 1.000013, -0.00936303, 0.001294072, 1.596361E-05, 0.0886627, 0.06820964, 1.000013
 100420649, 0.009476168, 0.007824312, 2.209435E-06, 0.0888211, 0.06828683, 1.000014, -0.002070424, -0.003282272, -3.619741E-06, 0.08872073, 0.06817652, 1.000013
 100620569, 0.002639272, -0.004927768, -2.113356E-05, 0.08874981, 0.06817212, 1.000014, 0.009476168, 0.007824312, 2.209435E-06, 0.0888211, 0.06828683, 1.000014
 100820489, 0.001119705, -0.007796665, -2.467765E-05, 0.08872984, 0.06814858, 1.000014, 0.002639272, -0.004927768, -2.113356E-05, 0.08874981, 0.06817212, 1.000014
 101020409, 0.00521537, 0.007623312, 1.796857E-07, 0.08876546, 0.0682961, 1.000014, 0.001119705, -0.007796665, -2.467765E-05, 0.08872984, 0.06814858, 1.000014
 101220329, -0.003397414, -0.003976316, -1.074232E-05, 0.08868098, 0.06819534, 1.000014, 0.00521537, 0.007623312, 1.796857E-07, 0.08876546, 0.0682961, 1.000014
 101420249, 0.002152132, -0.004341754, -1.914975E-05, 0.08873123, 0.06820028, 1.000013, -0.003397414, -0.003976316, -1.074232E-05, 0.08868098, 0.06819534, 1.000014
 101620169, 0.00220905, -0.001488667, -1.361124E-05, 0.08872987, 0.06823373, 1.000013, 0.002152132, -0.004341754, -1.914975E-05, 0.08873123, 0.06820028, 1.000013
 101820922, 0.00398508, 0.007990978, 1.008781E-05, 0.08874626, 0.06832409, 1.000013, 0.00220905, -0.001488667, -1.361124E-05, 0.08872987, 0.06823373, 1.000013
 102020842, 0.00220459, -0.00270385, -8.345136E-06, 0.08872849, 0.06822507, 1.000013, 0.00398508, 0.007990978, 1.008781E-05, 0.08874626, 0.06832409, 1.000013
 102220762, -0.003235772, -0.0002906973, 1.155097E-05, 0.08867717, 0.0682471, 1.000013, 0.00220459, -0.00270385, -8.345136E-06, 0.08872849, 0.06822507, 1.000013
 102420682, -0.008153039, -0.003968618, 1.120451E-05, 0.08863653, 0.06821274, 1.000013, -0.003235772, -0.0002906973, 1.155097E-05, 0.08867717, 0.0682471, 1.000013
 102620602, 0.00108492, -0.0008619177, 4.428508E-06, 0.08872445, 0.06824028, 1.000013, -0.008153039, -0.003968618, 1.120451E-05, 0.08863653, 0.06821274, 1.000013
 102820522, 0.004426962, -0.008872376, -1.593524E-05, 0.08876184, 0.06816954, 1.000012, 0.00108492, -0.0008619177, 4.428508E-06, 0.08872445, 0.06824028, 1.000013
 103020442, 0.003306827, 0.004651294, 1.208985E-05, 0.08875272, 0.06829255, 1.000012, 0.004426962, -0.008872376, -1.593524E-05, 0.08876184, 0.06816954, 1.000012
 103220362, 0.005302774, -0.0007627913, -8.965244E-06, 0.08877672, 0.06824331, 1.000011, 0.003306827, 0.004651294, 1.208985E-05, 0.08875272, 0.06829255, 1.000012
 103420282, -0.00403471, 0.005126254, 1.573162E-05, 0.08869252, 0.06829692, 1.000011, 0.005302774, -0.0007627913, -8.965244E-06, 0.08877672, 0.06824331, 1.000011
 103620202, 0.005015818, 0.005606616, 3.918811E-06, 0.08877485, 0.06829904, 1.000012, -0.00403471, 0.005126254, 1.573162E-05, 0.08869252, 0.06829692, 1.000011
 103820955, 0.0004894662, 0.001344681, 1.951494E-06, 0.08873309, 0.06825517, 1.000012, 0.005015818, 0.005606616, 3.918811E-06, 0.08877485, 0.06829904, 1.000012
 104020875, 0.01000028, -0.005437828, -2.483979E-05, 0.08882334, 0.06818628, 1.000012, 0.0004894662, 0.001344681, 1.951494E-06, 0.08873309, 0.06825517, 1.000012
 104220795, -0.005164851, 0.002426248, 1.21053E-05, 0.08868182, 0.06824896, 1.000013, 0.01000028, -0.005437828, -2.483979E-05, 0.08882334, 0.06818628, 1.000012
 104420715, 0.003208156, -0.007972153, -2.039728E-05, 0.08876375, 0.06814996, 1.000013, -0.005164851, 0.002426248, 1.21053E-05, 0.08868182, 0.06824896, 1.000013
 104620635, 2.504647E-05, 0.005819168, 1.157511E-05, 0.08874278, 0.06826922, 1.000013, 0.003208156, -0.007972153, -2.039728E-05, 0.08876375, 0.06814996, 1.000013
 104820555, 0.005073149, -0.009567591, -2.642989E-05, 0.08879765, 0.06812317, 1.000012, 2.504647E-05, 0.005819168, 1.157511E-05, 0.08874278, 0.06826922, 1.000013
 105020475, 0.001315674, 0.004606771, 7.326647E-06, 0.08875904, 0.06825368, 1.000012, 0.005073149, -0.009567591, -2.642989E-05, 0.08879765, 0.06812317, 1.000012
 105220395, -4.404681E-05, 1.19042E-05, 8.654679E-08, 0.08874244, 0.06821969, 1.000012, 0.001315674, 0.004606771, 7.326647E-06, 0.08875904, 0.06825368, 1.000012
 105420315, -0.001607075, 0.003644483, 9.492687E-06, 0.08872183, 0.06826402, 1.000012, -4.404681E-05, 1.19042E-05, 8.654679E-08, 0.08874244, 0.06821969, 1.000012
 105620235, 0.002738847, -0.004852521, -1.34196E-05, 0.08875484, 0.06819588, 1.000012, -0.001607075, 0.003644483, 9.492687E-06, 0.08872183, 0.06826402, 1.000012
 105820155, 0.002333439, 0.004549825, 5.651072E-06, 0.08874229, 0.06828837, 1.000012, 0.002738847, -0.004852521, -1.34196E-05, 0.08875484, 0.06819588, 1.000012
 106020908, -0.003901533, -0.002807214, -3.587684E-08, 0.0886801, 0.06822557, 1.000012, 0.002333439, 0.004549825, 5.651072E-06, 0.08874229, 0.06828837, 1.000012
 106220828, 0.0008000151, -0.001636146, -4.310069E-06, 0.08871845, 0.06823964, 1.000013, -0.003901533, -0.002807214, -3.587684E-08, 0.0886801, 0.06822557, 1.000012
 106420748, -0.001135681, 0.0009964163, 3.519759E-06, 0.08869555, 0.06826662, 1.000013, 0.0008000151, -0.001636146, -4.310069E-06, 0.08871845, 0.06823964, 1.000013
 106620668, -0.001180034, -0.004217368, -6.577632E-06, 0.08869374, 0.06822115, 1.000013, -0.001135681, 0.0009964163, 3.519759E-06, 0.08869555, 0.06826662, 1.000013
 106820588, -0.001857555, -0.00444913, -6.071523E-06, 0.08869133, 0.06822158, 1.000012, -0.001180034, -0.004217368, -6.577632E-06, 0.08869374, 0.06822115, 1.000013
 107020508, -0.006531104, 0.005039817, 1.890099E-05, 0.08864825, 0.06830446, 1.000013, -0.001857555, -0.00444913, -6.071523E-06, 0.08869133, 0.06822158, 1.000012
 107220428, -0.003229813, 0.001602869, 7.608244E-06, 0.08867356, 0.06826839, 1.000013, -0.006531104, 0.005039817, 1.890099E-05, 0.08864825, 0.06830446, 1.000013
 107420348, 3.469647E-05, -0.004401352, -1.024054E-06, 0.08869989, 0.0682128, 1.000014, -0.003229813, 0.001602869, 7.608244E-06, 0.08867356, 0.06826839, 1.000013
 107620268, 0.006062559, 0.0009611905, -6.490868E-06, 0.08875372, 0.06826535, 1.000014, 3.469647E-05, -0.004401352, -1.024054E-06, 0.08869989, 0.0682128, 1.000014
 107820188, -0.003754725, -0.001151496, 2.943999E-06, 0.0886646, 0.06824748, 1.000013, 0.006062559, 0.0009611905, -6.490868E-06, 0.08875372, 0.06826535, 1.000014
 108020941, 0.002540382, -0.002577312, -8.558226E-06, 0.08872882, 0.06823359, 1.000013, -0.003754725, -0.001151496, 2.943999E-06, 0.0886646, 0.06824748, 1.000013
 108220861, 0.002708612, -0.004034453, -1.166252E-05, 0.0887303, 0.0682141, 1.000013, 0.002540382, -0.002577312, -8.558226E-06, 0.08872882, 0.06823359, 1.000013
 108420781, 0.006136374, 0.003273524, -2.074673E-06, 0.0887606, 0.06827308, 1.000014, 0.002708612, -0.004034453, -1.166252E-05, 0.0887303, 0.0682141, 1.000013
 108620701, -0.00781737, -0.003289992, 4.399295E-06, 0.08863799, 0.06820811, 1.000014, 0.006136374, 0.003273524, -2.074673E-06, 0.0887606, 0.06827308, 1.000014
 108820621, -0.009481829, -0.002274421, 8.730212E-06, 0.08862522, 0.06821468, 1.000014, -0.00781737, -0.003289992, 4.399295E-06, 0.08863799, 0.06820811, 1.000014
 109020541, 0.005167411, 0.006257105, 5.174452E-06, 0.08875842, 0.06829032, 1.000014, -0.009481829, -0.002274421, 8.730212E-06, 0.08862522, 0.06821468, 1.000014
 109220461, 0.003384495, -0.001403539, -7.526052E-06, 0.0887477, 0.06821519, 1.000014, 0.005167411, 0.006257105, 5.174452E-06, 0.08875842, 0.06829032, 1.000014
 109420381, 0.006561422, 0.003220124, -2.834423E-06, 0.08878275, 0.06825515, 1.000014, 0.003384495, -0.001403539, -7.526052E-06, 0.0887477, 0.06821519, 1.000014
 109620301, -0.003659219, -0.001130219, 2.90396E-06, 0.08869008, 0.06820793, 1.000014, 0.006561422, 0.003220124, -2.834423E-06, 0.08878275, 0.06825515, 1.000014
 109820221, -0.0008606069, 0.002616347, 6.458577E-06, 0.08872402, 0.06823405, 1.000014, -0.003659219, -0.001130219, 2.90396E-06, 0.08869008, 0.06820793, 1.000014
 110020974, 0.004389541, -0.002613905, -1.152434E-05, 0.08878213, 0.06817646, 1.000013, -0.0008606069, 0.002616347, 6.458577E-06, 0.08872402, 0.06823405, 1.000014
 110220894, -0.007464903, 0.006890101, 2.457923E-05, 0.08868048, 0.06826118, 1.000014, 0.004389541, -0.002613905, -1.152434E-05, 0.08878213, 0.06817646, 1.000013
 110420814, 0.001370769, -0.005412688, -1.28327E-05, 0.08875848, 0.0681534, 1.000013, -0.007464903, 0.006890101, 2.457923E-05, 0.08868048, 0.06826118, 1.000014
 110620734, -0.003033175, -0.002780298, -1.223329E-06, 0.08871438, 0.06818821, 1.000013, 0.001370769, -0.005412688, -1.28327E-05, 0.08875848, 0.0681534, 1.000013
 110820654, -0.003873079, 0.000876677, 7.239132E-06, 0.08870123, 0.06823404, 1.000012, -0.003033175, -0.002780298, -1.223329E-06, 0.08871438, 0.06818821, 1.000013
 111020574, -0.002025087, 0.0002753029, 3.406576E-06, 0.08871132, 0.06823371, 1.000013, -0.003873079, 0.000876677, 7.239132E-06, 0.08870123, 0.06823404, 1.000012
 111220494, 0.003397969, 0.0007138493, -3.36984E-06, 0.0887541, 0.06824426, 1.000013, -0.002025087, 0.0002753029, 3.406576E-06, 0.08871132, 0.06823371, 1.000013
 111420414, -0.0072978, 0.003124356, 8.719871E-06, 0.08865315, 0.06827687, 1.000012, 0.003397969, 0.0007138493, -3.36984E-06, 0.0887541, 0.06824426, 1.000013
 111620334, -0.003334661, -0.004646696, -1.204625E-05, 0.08868153, 0.06821409, 1.000012, -0.0072978, 0.003124356, 8.719871E-06, 0.08865315, 0.06827687, 1.000012
 111820254, -0.00461445, 0.006192301, 1.083979E-05, 0.08866581, 0.06831876, 1.000013, -0.003334661, -0.004646696, -1.204625E-05, 0.08868153, 0.06821409, 1.000012
 112020174, 0.004703214, 0.002096551, -1.008234E-05, 0.0887484, 0.06828414, 1.000012, -0.00461445, 0.006192301, 1.083979E-05, 0.08866581, 0.06831876, 1.000013
 112220927, 0.0003476858, 0.004330795, 2.955426E-07, 0.08870374, 0.06830696, 1.000013, 0.004703214, 0.002096551, -1.008234E-05, 0.0887484, 0.06828414, 1.000012
 112420847, -0.007414292, -0.00152478, -3.591299E-07, 0.0886293, 0.06825522, 1.000013, 0.0003476858, 0.004330795, 2.955426E-07, 0.08870374, 0.06830696, 1.000013
 112620767, -0.003422385, 0.003809042, 1.20783E-05, 0.08866062, 0.06830783, 1.000013, -0.007414292, -0.00152478, -3.591299E-07, 0.0886293, 0.06825522, 1.000013
 112820687, -0.0008956202, -0.002337044, -3.291786E-06, 0.08868264, 0.06825136, 1.000013, -0.003422385, 0.003809042, 1.20783E-05, 0.08866062, 0.06830783, 1.000013
 113020607, -0.002965981, -0.003217625, -2.150897E-06, 0.08866504, 0.06824213, 1.000013, -0.0008956202, -0.002337044, -3.291786E-06, 0.08868264, 0.06825136, 1.000013
 113220527, 0.0003039462, 0.003469486, 6.306497E-06, 0.08869629, 0.06830262, 1.000013, -0.002965981, -0.003217625, -2.150897E-06, 0.08866504, 0.06824213, 1.000013
 113420447, 0.003084691, -0.003494323, -1.10406E-05, 0.08872474, 0.06823647, 1.000013, 0.0003039462, 0.003469486, 6.306497E-06, 0.08869629, 0.06830262, 1.000013
 113620367, -0.003459203, -0.003588012, 5.43596E-06, 0.08866791, 0.06823102, 1.000013, 0.003084691, -0.003494323, -1.10406E-05, 0.08872474, 0.06823647, 1.000013
 113820287, 0.001915716, -0.006653743, -8.02963E-06, 0.08871818, 0.0681955, 1.000013, -0.003459203, -0.003588012, 5.43596E-06, 0.08866791, 0.06823102, 1.000013
 114020207, -0.009304336, -0.002714883, 1.522714E-05, 0.08862157, 0.06822111, 1.000014, 0.001915716, -0.006653743, -8.02963E-06, 0.08871818, 0.0681955, 1.000013
 114220960, -0.002846305, 0.0007600216, 5.47753E-06, 0.08868531, 0.06824182, 1.000014, -0.009304336, -0.002714883, 1.522714E-05, 0.08862157, 0.06822111, 1.000014
 114420880, -0.005072745, -0.006882537, 1.090557E-06, 0.08867143, 0.06816544, 1.000014, -0.002846305, 0.0007600216, 5.47753E-06, 0.08868531, 0.06824182, 1.000014
 114620800, -0.0009102162, 0.002958323, 7.191371E-06, 0.08871454, 0.06824154, 1.000014, -0.005072745, -0.006882537, 1.090557E-06, 0.08867143, 0.06816544, 1.000014
 114820720, -0.007563842, 0.004007886, 1.871529E-05, 0.08865824, 0.06824359, 1.000015, -0.0009102162, 0.002958323, 7.191371E-06, 0.08871454, 0.06824154, 1.000014
 115020640, 0.005455364, -0.00340636, -6.956701E-06, 0.08878104, 0.06816662, 1.000015, -0.007563842, 0.004007886, 1.871529E-05, 0.08865824, 0.06824359, 1.000015
 115220560, -0.003778573, 0.00323914, 1.193649E-05, 0.08870146, 0.0682162, 1.000015, 0.005455364, -0.00340636, -6.956701E-06, 0.08878104, 0.06816662, 1.000015
 115420480, 0.004741888, -0.001308533, -9.370293E-06, 0.08877684, 0.06817883, 1.000015, -0.003778573, 0.00323914, 1.193649E-05, 0.08870146, 0.0682162, 1.000015
 115620400, -0.0005877801, -0.007751412, -1.47522E-05, 0.08872117, 0.06813098, 1.000015, 0.004741888, -0.001308533, -9.370293E-06, 0.08877684, 0.06817883, 1.000015
 115820320, 0.006259859, 0.003841343, -1.120252E-06, 0.08878111, 0.06824439, 1.000015, -0.0005877801, -0.007751412, -1.47522E-05, 0.08872117, 0.06813098, 1.000015
 116020240, 0.007190233, -0.004215717, -2.609397E-05, 0.08878468, 0.068179, 1.000014, 0.006259859, 0.003841343, -1.120252E-06, 0.08878111, 0.06824439, 1.000015
 116220160, -0.00580854, -0.00331412, 1.515768E-06, 0.08865608, 0.06819572, 1.000015, 0.007190233, -0.004215717, -2.609397E-05, 0.08878468, 0.068179, 1.000014
 116420913, -0.00290058, 0.001046776, 6.08625E-06, 0.08867536, 0.06824094, 1.000015, -0.00580854, -0.00331412, 1.515768E-06, 0.08865608, 0.06819572, 1.000015
 116620833, 0.004577297, 0.003191937, -3.355808E-08, 0.0887414, 0.06826647, 1.000015, -0.00290058, 0.001046776, 6.08625E-06, 0.08867536, 0.06824094, 1.000015
 116820753, -0.002142842, -0.001371441, 2.634958E-07, 0.08867873, 0.06822889, 1.000015, 0.004577297, 0.003191937, -3.355808E-08, 0.0887414, 0.06826647, 1.000015
 117020673, -0.0007789091, -0.001497603, -1.865126E-06, 0.08868844, 0.06823111, 1.000014, -0.002142842, -0.001371441, 2.634958E-07, 0.08867873, 0.06822889, 1.000015
 117220593, 0.003162608, 0.001415861, -1.57901E-06, 0.08872382, 0.06825951, 1.000014, -0.0007789091, -0.001497603, -1.865126E-06, 0.08868844, 0.06823111, 1.000014
 117420513, -0.009104976, 0.006977313, 1.858094E-05, 0.08861496, 0.06831381, 1.000015, 0.003162608, 0.001415861, -1.57901E-06, 0.08872382, 0.06825951, 1.000014
 117620433, 0.007850352, -0.006442579, -2.341725E-05, 0.08877403, 0.0681979, 1.000013, -0.009104976, 0.006977313, 1.858094E-05, 0.08861496, 0.06831381, 1.000015
 117820353, 0.005747329, 0.002072751, -3.917811E-06, 0.08875559, 0.0682776, 1.000013, 0.007850352, -0.006442579, -2.341725E-05, 0.08877403, 0.0681979, 1.000013
 118020273, 0.001231275, 0.005602101, 1.583724E-06, 0.08871213, 0.06831135, 1.000013, 0.005747329, 0.002072751, -3.917811E-06, 0.08875559, 0.0682776, 1.000013
 118220193, 0.00308902, 0.004026152, -4.052893E-06, 0.08872618, 0.06829766, 1.000013, 0.001231275, 0.005602101, 1.583724E-06, 0.08871213, 0.06831135, 1.000013
 118420946, 0.007325432, 0.0002337344, -9.623476E-06, 0.08876183, 0.06825525, 1.000014, 0.00308902, 0.004026152, -4.052893E-06, 0.08872618, 0.06829766, 1.000013
 118620866, -0.001944868, 0.002565369, 7.715053E-06, 0.08867542, 0.06826837, 1.000015, 0.007325432, 0.0002337344, -9.623476E-06, 0.08876183, 0.06825525, 1.000014
 118820786, 0.0001697258, -0.001314734, -2.821649E-06, 0.08869587, 0.0682281, 1.000015, -0.001944868, 0.002565369, 7.715053E-06, 0.08867542, 0.06826837, 1.000015
 119020706, -1.063574E-05, 0.002675052, 1.292426E-05, 0.08870015, 0.06825963, 1.000015, 0.0001697258, -0.001314734, -2.821649E-06, 0.08869587, 0.0682281, 1.000015
 119220626, -0.007547846, 0.001518612, 2.111944E-05, 0.08863725, 0.06824308, 1.000015, -1.063574E-05, 0.002675052, 1.292426E-05, 0.08870015, 0.06825963, 1.000015
 119420546, -0.007107447, 0.002593472, 1.504842E-05, 0.08864463, 0.06824758, 1.000015, -0.007547846, 0.001518612, 2.111944E-05, 0.08863725, 0.06824308, 1.000015
 119620466, 0.002163042, -0.002655721, -8.318086E-06, 0.08873466, 0.06819298, 1.000015, -0.007107447, 0.002593472, 1.504842E-05, 0.08864463, 0.06824758, 1.000015
 119820386, -0.006795894, 0.00494355, 1.944736E-05, 0.08866275, 0.06825804, 1.000015, 0.002163042, -0.002655721, -8.318086E-06, 0.08873466, 0.06819298, 1.000015
 120020306, 0.002363669, -0.009236087, -2.949078E-05, 0.08875564, 0.06812395, 1.000014, -0.006795894, 0.00494355, 1.944736E-05, 0.08866275, 0.06825804, 1.000015
 120220226, -0.002967399, 0.006755815, 1.020735E-05, 0.08871594, 0.06826094, 1.000014, 0.002363669, -0.009236087, -2.949078E-05, 0.08875564, 0.06812395, 1.000014
 120420146, -0.003252441, 0.006706825, 1.057168E-05, 0.08871802, 0.06825467, 1.000014, -0.002967399, 0.006755815, 1.020735E-05, 0.08871594, 0.06826094, 1.000014
 120620899, -0.005658662, 0.003676512, 1.548792E-05, 0.08869305, 0.06823099, 1.000014, -0.003252441, 0.006706825, 1.057168E-05, 0.08871802, 0.06825467, 1.000014
 120820819, 0.004235245, 0.001652951, -2.704641E-06, 0.08877546, 0.06822103, 1.000014, -0.005658662, 0.003676512, 1.548792E-05, 0.08869305, 0.06823099, 1.000014
 121020739, -0.001045853, -0.001722212, -1.966615E-06, 0.08871543, 0.06819496, 1.000014, 0.004235245, 0.001652951, -2.704641E-06, 0.08877546, 0.06822103, 1.000014
 121220659, -0.004869594, 0.0006823308, 8.176735E-06, 0.08867307, 0.06822326, 1.000015, -0.001045853, -0.001722212, -1.966615E-06, 0.08871543, 0.06819496, 1.000014
 121420579, 0.0004721029, 0.002410484, 1.176813E-05, 0.08871989, 0.06823844, 1.000015, -0.004869594, 0.0006823308, 8.176735E-06, 0.08867307, 0.06822326, 1.000015
 121620499, -0.00773507, -0.005661675, -4.519325E-07, 0.08864477, 0.06816798, 1.000015, 0.0004721029, 0.002410484, 1.176813E-05, 0.08871989, 0.06823844, 1.000015
 121820419, -0.0088178, -0.00593806, 5.182792E-07, 0.08863325, 0.06817005, 1.000015, -0.00773507, -0.005661675, -4.519325E-07, 0.08864477, 0.06816798, 1.000015
 122020339, -0.008503242, -0.004097994, 3.686753E-06, 0.08862998, 0.06818888, 1.000015, -0.0088178, -0.00593806, 5.182792E-07, 0.08863325, 0.06817005, 1.000015
 122220259, 0.0008089665, 0.007936359, 1.457118E-05, 0.08871046, 0.06830353, 1.000015, -0.008503242, -0.004097994, 3.686753E-06, 0.08862998, 0.06818888, 1.000015
 122420179, 0.001070937, -0.002077732, -5.58424E-06, 0.0887109, 0.06821126, 1.000015, 0.0008089665, 0.007936359, 1.457118E-05, 0.08871046, 0.06830353, 1.000015
 122620932, -0.001500772, -0.001978334, -1.827E-06, 0.0886861, 0.06821593, 1.000015, 0.001070937, -0.002077732, -5.58424E-06, 0.0887109, 0.06821126, 1.000015
 122820852, 0.005395976, -0.001893489, -1.117542E-05, 0.08875042, 0.06822117, 1.000015, -0.001500772, -0.001978334, -1.827E-06, 0.0886861, 0.06821593, 1.000015
 123020772, 0.00679568, -0.006771, -2.269225E-05, 0.08876655, 0.06818087, 1.000014, 0.005395976, -0.001893489, -1.117542E-05, 0.08875042, 0.06822117, 1.000015
 123220692, -0.005130216, 0.001318831, 9.705053E-06, 0.08865932, 0.06825384, 1.000014, 0.00679568, -0.006771, -2.269225E-05, 0.08876655, 0.06818087, 1.000014
 123420612, -0.001031617, 0.001393035, 4.168673E-06, 0.08869772, 0.06825416, 1.000014, -0.005130216, 0.001318831, 9.705053E-06, 0.08865932, 0.06825384, 1.000014
 123620532, 0.006214671, -0.004110527, -9.097657E-06, 0.088769, 0.06820349, 1.000013, -0.001031617, 0.001393035, 4.168673E-06, 0.08869772, 0.06825416, 1.000014
 123820452, 0.002217367, 0.0003335026, 5.178266E-06, 0.08873976, 0.06824394, 1.000013, 0.006214671, -0.004110527, -9.097657E-06, 0.088769, 0.06820349, 1.000013
 124020372, 0.007443519, -0.00240777, -7.594183E-06, 0.08879797, 0.06821853, 1.000012, 0.002217367, 0.0003335026, 5.178266E-06, 0.08873976, 0.06824394, 1.000013
 124220292, 0.005656356, 0.002043467, 3.655917E-06, 0.08878569, 0.06825405, 1.000012, 0.007443519, -0.00240777, -7.594183E-06, 0.08879797, 0.06821853, 1.000012
 124420212, 0.006115036, 0.001232891, -6.228627E-06, 0.08879288, 0.06823854, 1.000012, 0.005656356, 0.002043467, 3.655917E-06, 0.08878569, 0.06825405, 1.000012
 124620965, -0.00102535, -0.006882997, -1.218479E-05, 0.08873138, 0.06816322, 1.000012, 0.006115036, 0.001232891, -6.228627E-06, 0.08879288, 0.06823854, 1.000012
 124820885, 0.005243436, -0.006338505, -2.008332E-05, 0.08879578, 0.06816394, 1.000012, -0.00102535, -0.006882997, -1.218479E-05, 0.08873138, 0.06816322, 1.000012
 125020805, 0.001567779, 0.009595425, 1.687432E-05, 0.08876564, 0.06830648, 1.000012, 0.005243436, -0.006338505, -2.008332E-05, 0.08879578, 0.06816394, 1.000012
 125220725, -0.006387307, -0.005046392, -8.642628E-07, 0.08870137, 0.06816606, 1.000011, 0.001567779, 0.009595425, 1.687432E-05, 0.08876564, 0.06830648, 1.000012
 125420645, -0.001844079, -0.003325558, -3.986334E-06, 0.08875064, 0.0681749, 1.000011, -0.006387307, -0.005046392, -8.642628E-07, 0.08870137, 0.06816606, 1.000011
 125620565, -0.003198789, -0.008073756, -1.151425E-05, 0.08874664, 0.0681319, 1.00001, -0.001844079, -0.003325558, -3.986334E-06, 0.08875064, 0.0681749, 1.000011
 125820485, -0.01011398, -0.001868753, 1.103901E-05, 0.08868843, 0.06819247, 1.00001, -0.003198789, -0.008073756, -1.151425E-05, 0.08874664, 0.0681319, 1.00001
 126020405, -0.002063401, -0.001956337, 6.744171E-06, 0.0887549, 0.06820077, 1.000009, -0.01011398, -0.001868753, 1.103901E-05, 0.08868843, 0.06819247, 1.00001
 126220325, -0.004202749, -0.001186342, 1.135849E-05, 0.08872722, 0.06821395, 1.00001, -0.002063401, -0.001956337, 6.744171E-06, 0.0887549, 0.06820077, 1.000009
 126420245, -0.00450508, 0.001791548, 1.002297E-05, 0.08871859, 0.06824776, 1.00001, -0.004202749, -0.001186342, 1.135849E-05, 0.08872722, 0.06821395, 1.00001
 126620165, 0.001756203, 0.00921181, 2.323332E-05, 0.08877471, 0.06832415, 1.00001, -0.00450508, 0.001791548, 1.002297E-05, 0.08871859, 0.06824776, 1.00001
 126820918, -0.007382855, -0.002148196, 6.371425E-06, 0.08868846, 0.06822005, 1.00001, 0.001756203, 0.00921181, 2.323332E-05, 0.08877471, 0.06832415, 1.00001
 127020838, 0.004100614, -0.002216039, -1.020106E-05, 0.08878761, 0.06822482, 1.00001, -0.007382855, -0.002148196, 6.371425E-06, 0.08868846, 0.06822005, 1.00001
 127220758, 0.002298603, 0.001683112, 1.305557E-08, 0.08876555, 0.06826715, 1.00001, 0.004100614, -0.002216039, -1.020106E-05, 0.08878761, 0.06822482, 1.00001
 127420678, 0.007956171, 0.002543804, -6.340826E-06, 0.08881612, 0.06827697, 1.00001, 0.002298603, 0.001683112, 1.305557E-08, 0.08876555, 0.06826715, 1.00001
 127620598, -0.001696286, 0.002195991, 6.696051E-06, 0.08872799, 0.06827448, 1.00001, 0.007956171, 0.002543804, -6.340826E-06, 0.08881612, 0.06827697, 1.00001
 127820518, -4.109337E-05, -0.001450148, -2.767212E-06, 0.08874439, 0.06824235, 1.000009, -0.001696286, 0.002195991, 6.696051E-06, 0.08872799, 0.06827448, 1.00001
 128020438, 0.003028201, 0.0003836518, -3.559046E-06, 0.08877021, 0.06825998, 1.00001, -4.109337E-05, -0.001450148, -2.767212E-06, 0.08874439, 0.06824235, 1.000009
 128220358, -0.003722941, -0.001598161, 2.173676E-06, 0.08870837, 0.06823681, 1.00001, 0.003028201, 0.0003836518, -3.559046E-06, 0.08877021, 0.06825998, 1.00001
 128420278, -0.003178957, -0.0001523395, 4.221005E-06, 0.08871248, 0.06824565, 1.00001, -0.003722941, -0.001598161, 2.173676E-06, 0.08870837, 0.06823681, 1.00001
 128620198, -0.003943625, 0.003459506, 1.238715E-05, 0.08870737, 0.06827897, 1.00001, -0.003178957, -0.0001523395, 4.221005E-06, 0.08871248, 0.06824565, 1.00001
 128820951, 0.004303543, -0.002840498, -1.171117E-05, 0.08878738, 0.06821924, 1.00001, -0.003943625, 0.003459506, 1.238715E-05, 0.08870737, 0.06827897, 1.00001
 129020871, -0.003915261, 0.0009843296, 7.531246E-06, 0.08871346, 0.06825021, 1.00001, 0.004303543, -0.002840498, -1.171117E-05, 0.08878738, 0.06821924, 1.00001
 129220791, -0.0001032984, -0.002900281, -5.552358E-06, 0.08874802, 0.06821392, 1.00001, -0.003915261, 0.0009843296, 7.531246E-06, 0.08871346, 0.06825021, 1.00001
 129420711, 0.004951693, 0.002964893, -1.264653E-06, 0.08879867, 0.06826581, 1.00001, -0.0001032984, -0.002900281, -5.552358E-06, 0.08874802, 0.06821392, 1.00001
 129620631, 0.009366452, -0.002445347, -1.830697E-05, 0.08884667, 0.06820881, 1.00001, 0.004951693, 0.002964893, -1.264653E-06, 0.08879867, 0.06826581, 1.00001
 129820551, -0.00802693, -0.006053375, -4.245348E-07, 0.0886889, 0.06816934, 1.00001, 0.009366452, -0.002445347, -1.830697E-05, 0.08884667, 0.06820881, 1.00001
 130020471, -0.00105125, 0.004985412, 1.142967E-05, 0.08875152, 0.06826543, 1.000011, -0.00802693, -0.006053375, -4.245348E-07, 0.0886889, 0.06816934, 1.00001
 130220391, -0.003131344, -0.003892168, -3.239446E-06, 0.0887339, 0.0681775, 1.000011, -0.00105125, 0.004985412, 1.142967E-05, 0.08875152, 0.06826543, 1.000011
 130420311, 0.003183981, 0.002758231, 9.312666E-07, 0.08879115, 0.0682286, 1.000012, -0.003131344, -0.003892168, -3.239446E-06, 0.0887339, 0.0681775, 1.000011
 130620231, 0.0006866718, 0.00804213, 1.520591E-05, 0.08877226, 0.06826968, 1.000012, 0.003183981, 0.002758231, 9.312666E-07, 0.08879115, 0.0682286, 1.000012
 130820151, -0.006863438, 0.006469386, 2.293159E-05, 0.08870128, 0.06825595, 1.000012, 0.0006866718, 0.00804213, 1.520591E-05, 0.08877226, 0.06826968, 1.000012
 131020904, -0.006745494, 0.007556568, 2.483762E-05, 0.08869415, 0.06827217, 1.000013, -0.006863438, 0.006469386, 2.293159E-05, 0.08870128, 0.06825595, 1.000012
 131220824, 0.008788654, 0.001216609, -1.013386E-05, 0.08883206, 0.06821743, 1.000012, -0.006745494, 0.007556568, 2.483762E-05, 0.08869415, 0.06827217, 1.000013
 131420744, 0.004305652, -0.001857416, -9.824291E-06, 0.08878261, 0.06819694, 1.000012, 0.008788654, 0.001216609, -1.013386E-05, 0.08883206, 0.06821743, 1.000012
 131620664, -0.00562788, -0.00100591, -1.65682E-06, 0.08868468, 0.06821239, 1.000013, 0.004305652, -0.001857416, -9.824291E-06, 0.08878261, 0.06819694, 1.000012
 131820584, 0.003275005, 0.004162849, -4.022671E-06, 0.08876081, 0.06826706, 1.000013, -0.00562788, -0.00100591, -1.65682E-06, 0.08868468, 0.06821239, 1.000013
 132020504, -0.002175012, -0.0002553563, 2.560957E-06, 0.08870886, 0.06823339, 1.000012, 0.003275005, 0.004162849, -4.022671E-06, 0.08876081, 0.06826706, 1.000013
 132220424, 0.001292503, -0.003453527, -1.622286E-05, 0.08874256, 0.06821169, 1.000011, -0.002175012, -0.0002553563, 2.560957E-06, 0.08870886, 0.06823339, 1.000012
 132420344, -0.00243061, -0.001180795, 1.115139E-06, 0.08870745, 0.06823619, 1.000011, 0.001292503, -0.003453527, -1.622286E-05, 0.08874256, 0.06821169, 1.000011
 132620264, 0.004151384, 0.005321889, -3.066255E-06, 0.08876634, 0.06829827, 1.000011, -0.00243061, -0.001180795, 1.115139E-06, 0.08870745, 0.06823619, 1.000011
 132820184, -0.002497548, -0.009041622, -1.415712E-05, 0.08870473, 0.06816874, 1.000011, 0.004151384, 0.005321889, -3.066255E-06, 0.08876634, 0.06829827, 1.000011
 133020937, -0.009509956, -0.005019463, 3.578403E-06, 0.08864461, 0.06820136, 1.000011, -0.002497548, -0.009041622, -1.415712E-05, 0.08870473, 0.06816874, 1.000011
 133220857, -0.006196923, 0.0004548179, 2.011414E-06, 0.08867611, 0.06824571, 1.000012, -0.009509956, -0.005019463, 3.578403E-06, 0.08864461, 0.06820136, 1.000011
 133420777, -0.003087796, 0.005518685, 7.583906E-06, 0.08870446, 0.06828893, 1.000012, -0.006196923, 0.0004548179, 2.011414E-06, 0.08867611, 0.06824571, 1.000012
 133620697, -0.000742564, 0.002552028, -1.549197E-06, 0.08872477, 0.06825573, 1.000012, -0.003087796, 0.005518685, 7.583906E-06, 0.08870446, 0.06828893, 1.000012
 133820617, -0.00158394, 0.00080465, 3.823562E-06, 0.08871665, 0.06823814, 1.000012, -0.000742564, 0.002552028, -1.549197E-06, 0.08872477, 0.06825573, 1.000012
 134020537, -0.007994809, 0.008288153, 2.765189E-05, 0.08866029, 0.06830737, 1.000013, -0.00158394, 0.00080465, 3.823562E-06, 0.08871665, 0.06823814, 1.000012
 134220457, 0.0002167595, 6.697182E-06, -2.933812E-07, 0.08873573, 0.06822674, 1.000012, -0.007994809, 0.008288153, 2.765189E-05, 0.08866029, 0.06830737, 1.000013
 134420377, 0.001901032, -0.002657723, -7.958466E-06, 0.08875501, 0.06820031, 1.000012, 0.0002167595, 6.697182E-06, -2.933812E-07, 0.08873573, 0.06822674, 1.000012
 134620297, -0.002976575, 0.005101731, 1.434804E-05, 0.08871353, 0.06826953, 1.000012, 0.001901032, -0.002657723, -7.958466E-06, 0.08875501, 0.06820031, 1.000012
 134820217, 0.003150484, -0.004018524, -1.248508E-05, 0.08877254, 0.06817845, 1.000012, -0.002976575, 0.005101731, 1.434804E-05, 0.08871353, 0.06826953, 1.000012
 135020970, -0.003338314, -0.008424528, -1.973556E-05, 0.08871195, 0.06812917, 1.000013, 0.003150484, -0.004018524, -1.248508E-05, 0.08877254, 0.06817845, 1.000012
 135220890, 0.008017777, 0.0009358354, -1.716223E-05, 0.08881741, 0.06820542, 1.000014, -0.003338314, -0.008424528, -1.973556E-05, 0.08871195, 0.06812917, 1.000013
 135420810, 0.0003240945, -0.00574137, -1.969835E-05, 0.08874769, 0.06813239, 1.000014, 0.008017777, 0.0009358354, -1.716223E-05, 0.08881741, 0.06820542, 1.000014
 135620730, 0.0009285854, -0.007192737, -1.593406E-05, 0.08875801, 0.06811082, 1.000014, 0.0003240945, -0.00574137, -1.969835E-05, 0.08874769, 0.06813239, 1.000014
 135820650, -0.003689339, -0.001450072, 2.33056E-06, 0.08871222, 0.06816693, 1.000014, 0.0009285854, -0.007192737, -1.593406E-05, 0.08875801, 0.06811082, 1.000014
 136020570, 0.005355101, -0.0009604886, -9.550042E-06, 0.08879104, 0.06818112, 1.000014, -0.003689339, -0.001450072, 2.33056E-06, 0.08871222, 0.06816693, 1.000014
 136220490, 0.0054383, -0.004552327, -1.681989E-05, 0.08878502, 0.0681572, 1.000014, 0.005355101, -0.0009604886, -9.550042E-06, 0.08879104, 0.06818112, 1.000014
 136420410, 0.0007987696, -0.0006380393, -2.397486E-06, 0.08872999, 0.06819587, 1.000015, 0.0054383, -0.004552327, -1.681989E-05, 0.08878502, 0.0681572, 1.000014
 136620330, 0.005456751, -0.001134405, -9.876454E-06, 0.08876649, 0.06819557, 1.000015, 0.0007987696, -0.0006380393, -2.397486E-06, 0.08872999, 0.06819587, 1.000015
 136820250, 0.005299601, -0.001089126, -1.907807E-06, 0.08876072, 0.06819997, 1.000015, 0.005456751, -0.001134405, -9.876454E-06, 0.08876649, 0.06819557, 1.000015
 137020170, -0.006500805, 0.003136821, 2.287556E-05, 0.08864822, 0.06824123, 1.000016, 0.005299601, -0.001089126, -1.907807E-06, 0.08876072, 0.06819997, 1.000015
 137220923, 0.001787609, -0.002956122, -8.334378E-06, 0.08872002, 0.06819088, 1.000016, -0.006500805, 0.003136821, 2.287556E-05, 0.08864822, 0.06824123, 1.000016
 137420843, -0.008588349, 0.0009960333, 2.146498E-05, 0.08862668, 0.06823227, 1.000015, 0.001787609, -0.002956122, -8.334378E-06, 0.08872002, 0.06819088, 1.000016
 137620763, 0.007495071, 0.004526665, 6.226371E-06, 0.08877153, 0.0682703, 1.000015, -0.008588349, 0.0009960333, 2.146498E-05, 0.08862668, 0.06823227, 1.000015
 137820683, 0.005342993, -0.003580011, -6.782772E-06, 0.08875018, 0.06819956, 1.000015, 0.007495071, 0.004526665, 6.226371E-06, 0.08877153, 0.0682703, 1.000015
 138020603, -0.003095788, 0.007730962, 2.711614E-05, 0.08867227, 0.06830564, 1.000015, 0.005342993, -0.003580011, -6.782772E-06, 0.08875018, 0.06819956, 1.000015
 138220523, -0.005413719, -0.001443578, 4.629459E-06, 0.08865298, 0.06821935, 1.000015, -0.003095788, 0.007730962, 2.711614E-05, 0.08867227, 0.06830564, 1.000015
 138420443, 0.001459457, -0.00428957, -1.044893E-05, 0.08871456, 0.06819653, 1.000015, -0.005413719, -0.001443578, 4.629459E-06, 0.08865298, 0.06821935, 1.000015
 138620363, 0.0004952595, 0.004508445, 8.180778E-06, 0.08871339, 0.06827745, 1.000014, 0.001459457, -0.00428957, -1.044893E-05, 0.08871456, 0.06819653, 1.000015
 138820283, 0.00276793, 0.008005878, 1.188941E-05, 0.08874493, 0.06831007, 1.000013, 0.0004952595, 0.004508445, 8.180778E-06, 0.08871339, 0.06827745, 1.000014
 139020203, 0.004311653, 0.0004344787, 2.423784E-06, 0.08876719, 0.06823473, 1.000013, 0.00276793, 0.008005878, 1.188941E-05, 0.08874493, 0.06831007, 1.000013
 139220956, 0.0006289172, 0.003173357, 5.38541E-06, 0.08873818, 0.06825582, 1.000013, 0.004311653, 0.0004344787, 2.423784E-06, 0.08876719, 0.06823473, 1.000013
 139420876, -0.007831685, -0.006354638, -1.490002E-06, 0.088667, 0.06816604, 1.000012, 0.0006289172, 0.003173357, 5.38541E-06, 0.08873818, 0.06825582, 1.000013
 139620796, 0.003271507, 0.002383962, -7.538011E-06, 0.08877046, 0.06823912, 1.000013, -0.007831685, -0.006354638, -1.490002E-06, 0.088667, 0.06816604, 1.000012
 139820716, -0.00429689, -0.001026783, 4.064646E-06, 0.08870319, 0.06820174, 1.000013, 0.003271507, 0.002383962, -7.538011E-06, 0.08877046, 0.06823912, 1.000013
 140020636, -0.001297979, -0.001306841, -8.391143E-06, 0.0887352, 0.06819164, 1.000013, -0.00429689, -0.001026783, 4.064646E-06, 0.08870319, 0.06820174, 1.000013
 140220556, 1.62529E-05, 0.001605168, 3.200963E-06, 0.08874992, 0.06821071, 1.000013, -0.001297979, -0.001306841, -8.391143E-06, 0.0887352, 0.06819164, 1.000013
 140420476, 0.002227247, -0.001430131, -6.085332E-06, 0.08877695, 0.06817457, 1.000013, 1.62529E-05, 0.001605168, 3.200963E-06, 0.08874992, 0.06821071, 1.000013
 140620396, 0.007417918, -0.002348851, -1.545938E-05, 0.08883221, 0.06815864, 1.000013, 0.002227247, -0.001430131, -6.085332E-06, 0.08877695, 0.06817457, 1.000013
 140820316, 0.0008069114, 0.006874321, 1.280875E-05, 0.08877389, 0.06823719, 1.000013, 0.007417918, -0.002348851, -1.545938E-05, 0.08883221, 0.06815864, 1.000013
 141020236, 0.06278391, 0.0009572171, -9.494607E-05, 0.08957014, 0.06816277, 1.000004, 0.0008069114, 0.006874321, 1.280875E-05, 0.08877389, 0.06823719, 1.000013
 141220156, 0.1853128, -0.01725527, -0.0004218765, 0.09227702, 0.0678246, 0.9999546, 0.06278391, 0.0009572171, -9.494607E-05, 0.08957014, 0.06816277, 1.000004
 141420909, 0.3719844, -0.04039244, -0.001083067, 0.09819101, 0.06711669, 0.9998916, 0.1853128, -0.01725527, -0.0004218765, 0.09227702, 0.0678246, 0.9999546
 141620829, 0.634536, -0.07303442, -0.002129633, 0.1103028, 0.06570332, 0.9998187, 0.3719844, -0.04039244, -0.001083067, 0.09819101, 0.06711669, 0.9998916
 141820749, 0.9939602, -0.1052126, -0.003884763, 0.1349667, 0.06299503, 0.9996744, 0.634536, -0.07303442, -0.002129633, 0.1103028, 0.06570332, 0.9998187
 142020669, 1.475316, -0.1561224, -0.006747332, 0.1833142, 0.05768435, 0.9993784, 0.9939602, -0.1052126, -0.003884763, 0.1349667, 0.06299503, 0.9996744
 142220589, 2.041707, -0.2300185, -0.01021371, 0.2637547, 0.04876297, 0.9989143, 1.475316, -0.1561224, -0.006747332, 0.1833142, 0.05768435, 0.9993784
 142420509, 2.852673, -0.3078363, 0.3246629, 0.4241731, 0.03171529, 0.9980521, 2.041707, -0.2300185, -0.01021371, 0.2637547, 0.04876297, 0.9989143
 142620429, 3.739047, -0.4058957, 0.05958028, 0.6584187, 0.007979874, 0.9968504, 2.852673, -0.3078363, 0.3246629, 0.4241731, 0.03171529, 0.9980521
 142820349, 5.421884, -0.6011587, 0.06811693, 1.333488, -0.0665505, 0.9503632, 3.739047, -0.4058957, 0.05958028, 0.6584187, 0.007979874, 0.9968504
 143020269, 5.347859, -0.6064514, 1.004578, 1.17108, -0.03658538, 0.8833386, 5.421884, -0.6011587, 0.06811693, 1.333488, -0.0665505, 0.9503632
 143220189, 4.149878, -0.472535, 2.577508, 0.6353197, 0.04728296, 0.929988, 5.347859, -0.6064514, 1.004578, 1.17108, -0.03658538, 0.8833386
 143420942, 3.763199, -0.4423647, 3.389941, 0.5048664, 0.09510113, 0.9548674, 4.149878, -0.472535, 2.577508, 0.6353197, 0.04728296, 0.929988
 143620862, 3.694679, -0.4295765, 3.440891, 0.4848551, 0.1354195, 0.9628305, 3.763199, -0.4423647, 3.389941, 0.5048664, 0.09510113, 0.9548674
 143820782, 3.762025, -0.427139, 3.402165, 0.5095865, 0.1717741, 0.9575599, 3.694679, -0.4295765, 3.440891, 0.4848551, 0.1354195, 0.9628305
 144020702, 3.923904, -0.4900315, 3.674021, 0.7419904, 0.1879759, 2.433189, 3.762025, -0.427139, 3.402165, 0.5095865, 0.1717741, 0.9575599
 144220622, 4.070161, -0.4929013, 4.57073, 0.8000563, 0.2334694, 2.421341, 3.923904, -0.4900315, 3.674021, 0.7419904, 0.1879759, 2.433189
 144420542, 4.149052, -0.4947911, 4.690058, 0.8484049, 0.289143, 2.414212, 4.070161, -0.4929013, 4.57073, 0.8000563, 0.2334694, 2.421341
 144620462, 4.26912, -0.458569, 4.891633, 0.9010656, 0.3433409, 2.407501, 4.149052, -0.4947911, 4.690058, 0.8484049, 0.289143, 2.414212
 144820382, 4.307259, -0.509965, 5.258883, 0.9582545, 0.392844, 2.39967, 4.26912, -0.458569, 4.891633, 0.9010656, 0.3433409, 2.407501
 145020302, 4.395301, -0.4764897, 5.652939, 1.017471, 0.45209, 2.391187, 4.307259, -0.509965, 5.258883, 0.9582545, 0.392844, 2.39967
 145220222, 4.470856, -0.5612513, 5.363397, 1.09086, 0.5005389, 2.380396, 4.395301, -0.4764897, 5.652939, 1.017471, 0.45209, 2.391187
 145420975, 4.575725, -0.5147363, 5.551188, 1.190379, 0.5467231, 2.3567, 4.470856, -0.5612513, 5.363397, 1.09086, 0.5005389, 2.380396
 145620895, 4.898827, -0.5487961, 6.231131, 1.302181, 0.6000503, 2.326585, 4.575725, -0.5147363, 5.551188, 1.190379, 0.5467231, 2.3567
 145820815, 4.923374, -0.4993036, 6.500265, 1.387393, 0.6632133, 2.308192, 4.898827, -0.5487961, 6.231131, 1.302181, 0.6000503, 2.326585
 146020735, 4.931018, -0.46066, 6.460183, 1.457077, 0.7359464, 2.297451, 4.923374, -0.4993036, 6.500265, 1.387393, 0.6632133, 2.308192
 146220655, 4.927386, -0.560992, 6.173274, 1.527865, 0.8031242, 2.287914, 4.931018, -0.46066, 6.460183, 1.457077, 0.7359464, 2.297451
 146420575, 4.89847, -0.4157361, 6.284864, 1.596395, 0.8708979, 2.278621, 4.927386, -0.560992, 6.173274, 1.527865, 0.8031242, 2.287914
 146620495, 4.993711, -0.5071619, 6.14469, 1.668785, 0.9340571, 2.270058, 4.89847, -0.4157361, 6.284864, 1.596395, 0.8708979, 2.278621
 146820415, 4.805237, -0.4733605, 6.080282, 1.728433, 0.9994189, 2.267343, 4.993711, -0.5071619, 6.14469, 1.668785, 0.9340571, 2.270058
 147020335, 4.718829, -0.5208088, 5.875367, 1.785491, 1.056446, 2.27141, 4.805237, -0.4733605, 6.080282, 1.728433, 0.9994189, 2.267343
 147220255, 4.85288, -0.4565008, 5.976756, 1.844894, 1.114739, 2.274735, 4.718829, -0.5208088, 5.875367, 1.785491, 1.056446, 2.27141
 147420175, 4.752131, -0.4931262, 5.487809, 1.896386, 1.177571, 2.278253, 4.85288, -0.4565008, 5.976756, 1.844894, 1.114739, 2.274735
 147620928, 4.601878, -0.6876398, 5.405871, 1.963859, 1.225265, 2.273506, 4.752131, -0.4931262, 5.487809, 1.896386, 1.177571, 2.278253
 147820848, 4.735003, -0.516578, 5.40329, 2.040679, 1.272781, 2.26333, 4.601878, -0.6876398, 5.405871, 1.963859, 1.225265, 2.273506
 148020768, 4.708521, -0.5378343, 5.861282, 2.113321, 1.320961, 2.253992, 4.735003, -0.516578, 5.40329, 2.040679, 1.272781, 2.26333
 148220688, 4.829311, -0.774507, 5.696674, 2.179454, 1.377812, 2.250331, 4.708521, -0.5378343, 5.861282, 2.113321, 1.320961, 2.253992
 148420608, 4.657266, -0.564445, 5.427892, 2.239719, 1.436287, 2.247034, 4.829311, -0.774507, 5.696674, 2.179454, 1.377812, 2.250331
 148620528, 4.5544, -0.5961637, 5.79559, 2.259034, 1.471026, 2.302089, 4.657266, -0.564445, 5.427892, 2.239719, 1.436287, 2.247034
 148820448, 4.149278, -0.8828245, 4.834678, 2.169683, 1.293325, 2.568275, 4.5544, -0.5961637, 5.79559, 2.259034, 1.471026, 2.302089
 149020368, 3.905227, -1.155616, 3.685879, 2.092259, 1.066862, 2.789948, 4.149278, -0.8828245, 4.834678, 2.169683, 1.293325, 2.568275
 149220288, 3.780049, -0.9711603, 2.721949, 2.084242, 1.036058, 2.851937, 3.905227, -1.155616, 3.685879, 2.092259, 1.066862, 2.789948
 149420208, 3.724465, -1.023686, 2.087971, 2.10831, 1.150344, 2.824955, 3.780049, -0.9711603, 2.721949, 2.084242, 1.036058, 2.851937
 149620961, 3.807048, -0.6691954, 1.591297, 2.121746, 1.283388, 2.783245, 3.724465, -1.023686, 2.087971, 2.10831, 1.150344, 2.824955
 149820881, 3.801765, -0.4495673, 1.521772, 2.103278, 1.380434, 2.773647, 3.807048, -0.6691954, 1.591297, 2.121746, 1.283388, 2.783245
 150020801, 3.921469, -0.5724068, 1.233725, 2.073723, 1.436309, 2.787618, 3.801765, -0.4495673, 1.521772, 2.103278, 1.380434, 2.773647
 150220721, 3.742943, -0.5917438, 1.135169, 2.039418, 1.470879, 2.807306, 3.921469, -0.5724068, 1.233725, 2.073723, 1.436309, 2.787618
 150420641, 3.67967, -0.3849513, 0.6734176, 2.022693, 1.494171, 2.815638, 3.742943, -0.5917438, 1.135169, 2.039418, 1.470879, 2.807306
 150620561, 4.018953, -0.3927987, 0.4765756, 2.048478, 1.531496, 2.785282, 3.67967, -0.3849513, 0.6734176, 2.022693, 1.494171, 2.815638
 150820481, 3.685959, -0.4261358, 0.898354, 2.08722, 1.580782, 2.733482, 4.018953, -0.3927987, 0.4765756, 2.048478, 1.531496, 2.785282
 151020401, 3.830948, -0.2981256, 0.9281865, 2.08204, 1.634426, 2.720166, 3.685959, -0.4261358, 0.898354, 2.08722, 1.580782, 2.733482
 151220321, 3.910744, -0.1563601, 0.7762945, 2.022375, 1.693931, 2.742684, 3.830948, -0.2981256, 0.9281865, 2.08204, 1.634426, 2.720166
 151420241, 3.656392, -0.1610907, 0.3889328, 1.94241, 1.735249, 2.778374, 3.910744, -0.1563601, 0.7762945, 2.022375, 1.693931, 2.742684
 151620161, 3.574719, -0.1552592, -0.1332073, 1.882095, 1.755733, 2.802115, 3.656392, -0.1610907, 0.3889328, 1.94241, 1.735249, 2.778374
 151820914, 3.717404, -0.1873844, -0.5320766, 1.84323, 1.760193, 2.814189, 3.574719, -0.1552592, -0.1332073, 1.882095, 1.755733, 2.802115
 152020834, 3.471899, -0.09473529, -0.660694, 1.809189, 1.7587, 2.818046, 3.717404, -0.1873844, -0.5320766, 1.84323, 1.760193, 2.814189
 152220754, 3.72793, 0.1058014, -0.8828027, 1.790971, 1.755579, 2.814829, 3.471899, -0.09473529, -0.660694, 1.809189, 1.7587, 2.818046
 152420674, 3.534637, -0.04808674, -1.014647, 1.76263, 1.757666, 2.80904, 3.72793, 0.1058014, -0.8828027, 1.790971, 1.755579, 2.814829
 152620594, 3.628021, -0.04155029, -1.238795, 1.719056, 1.764398, 2.811215, 3.534637, -0.04808674, -1.014647, 1.76263, 1.757666, 2.80904
