TimeUS,COFN,COFE,COFD,CNe,CEe,CDe,POFN,POFE,POFD,PNe,PEe,PDe
 77960470, -0.05680449, 0.01396796, 0.01974002, 0.08574072, 0.06934079, 0.0001464671, 0, 0, 0, 0, 0, 0
 78040438, 0.008603496, -0.009321662, -3.124934E-05, 0.08766008, 0.06710919, 1.000014, -0.05680449, 0.01396796, 0.01974002, 0.08574072, 0.06934079, 0.0001464671
 78140398, 0.04518333, 0.0468151, 3.050971E-05, 0.08805329, 0.06770034, 1.000015, 0.008603496, -0.009321662, -3.124934E-05, 0.08766008, 0.06710919, 1.000014
 78240358, -0.0685358, -0.02416929, 4.896195E-05, 0.08709949, 0.06698489, 1.000015, 0.04518333, 0.0468151, 3.050971E-05, 0.08805329, 0.06770034, 1.000015
 78340318, -0.03589415, 0.07585067, 0.0002061853, 0.08733486, 0.06804082, 1.000017, -0.0685358, -0.02416929, 4.896195E-05, 0.08709949, 0.06698489, 1.000015
 78440278, -0.07176141, 0.0413899, 0.000187631, 0.08712161, 0.06757536, 1.000016, -0.03589415, 0.07585067, 0.0002061853, 0.08733486, 0.06804082, 1.000017
 78540238, -0.06272549, -0.02647125, 3.614857E-05, 0.08713441, 0.06696132, 1.000015, -0.07176141, 0.0413899, 0.000187631, 0.08712161, 0.06757536, 1.000016
 78640198, 0.001908266, -0.0264987, -5.703848E-05, 0.08760888, 0.06695787, 1.000014, -0.06272549, -0.02647125, 3.614857E-05, 0.08713441, 0.06696132, 1.000015
 78740158, 0.0283353, -0.04990967, -0.0001433501, 0.08789463, 0.06678683, 1.000013, 0.001908266, -0.0264987, -5.703848E-05, 0.08760888, 0.06695787, 1.000014
 78840951, -0.02496484, -0.01258857, 1.027428E-05, 0.08738308, 0.06706394, 1.000014, 0.0283353, -0.04990967, -0.0001433501, 0.08789463, 0.06678683, 1.000013
 78940911, -0.07646291, -0.0207401, 6.791869E-05, 0.08707508, 0.06699528, 1.000015, -0.02496484, -0.01258857, 1.027428E-05, 0.08738308, 0.06706394, 1.000014
 79040871, -0.03864499, 0.03476486, 0.0001268588, 0.08729661, 0.06752075, 1.000015, -0.07646291, -0.0207401, 6.791869E-05, 0.08707508, 0.06699528, 1.000015
 79140831, 0.007360764, 0.0207447, 3.182037E-05, 0.08765333, 0.06738592, 1.000015, -0.03864499, 0.03476486, 0.0001268588, 0.08729661, 0.06752075, 1.000015
 79240791, -0.023733, -0.01870339, -4.078749E-06, 0.08738232, 0.0670274, 1.000014, 0.007360764, 0.0207447, 3.182037E-05, 0.08765333, 0.06738592, 1.000015
 79340751, 0.03596648, 0.01662706, -1.803987E-05, 0.08795458, 0.06735547, 1.000013, -0.023733, -0.01870339, -4.078749E-06, 0.08738232, 0.0670274, 1.000014
 79440711, 0.004623062, 0.006683677, 6.860495E-06, 0.08763196, 0.0672631, 1.000013, 0.03596648, 0.01662706, -1.803987E-05, 0.08795458, 0.06735547, 1.000013
 79540671, -0.04352167, -0.00810993, 4.620571E-05, 0.08724757, 0.06712687, 1.000013, 0.004623062, 0.006683677, 6.860495E-06, 0.08763196, 0.0672631, 1.000013
 79640631, 0.02481291, -0.03886487, -0.0001141822, 0.08783986, 0.06688857, 1.000012, -0.04352167, -0.00810993, 4.620571E-05, 0.08724757, 0.06712687, 1.000013
 79740591, -0.06170117, -0.04877306, -1.005059E-05, 0.08713072, 0.06685118, 1.000013, 0.02481291, -0.03886487, -0.0001141822, 0.08783986, 0.06688857, 1.000012
 79840551, -0.01027999, 0.0759973, 0.0001678951, 0.08751328, 0.0680866, 1.000015, -0.06170117, -0.04877306, -1.005059E-05, 0.08713072, 0.06685118, 1.000013
 79940511, -0.06922421, -0.0268556, 4.473692E-05, 0.08709078, 0.0669872, 1.000014, -0.01027999, 0.0759973, 0.0001678951, 0.08751328, 0.0680866, 1.000015
 80040471, -0.03983154, 0.05280464, 0.0001632923, 0.08728474, 0.06776052, 1.000015, -0.06922421, -0.0268556, 4.473692E-05, 0.08709078, 0.0669872, 1.000014
 80140431, 0.008486071, 0.01332139, 1.485139E-05, 0.08764542, 0.06733406, 1.000015, -0.03983154, 0.05280464, 0.0001632923, 0.08728474, 0.06776052, 1.000015
 80240391, 0.04915491, 0.05397091, 3.953199E-05, 0.08808325, 0.06780641, 1.000015, 0.008486071, 0.01332139, 1.485139E-05, 0.08764542, 0.06733406, 1.000015
 80340351, -0.04411398, 0.007198097, 7.679411E-05, 0.0872206, 0.06726606, 1.000016, 0.04915491, 0.05397091, 3.953199E-05, 0.08808325, 0.06780641, 1.000015
 80440311, -0.005208537, -0.06433646, -0.0001223456, 0.08752211, 0.06676089, 1.000014, -0.04411398, 0.007198097, 7.679411E-05, 0.0872206, 0.06726606, 1.000016
 80540271, 0.01289577, 0.06427797, 0.0001112254, 0.0876864, 0.0679419, 1.000016, -0.005208537, -0.06433646, -0.0001223456, 0.08752211, 0.06676089, 1.000014
 80640231, -0.06943012, -0.01980213, 5.774562E-05, 0.08706773, 0.06704334, 1.000015, 0.01289577, 0.06427797, 0.0001112254, 0.0876864, 0.0679419, 1.000016
 80740191, -0.05096361, -0.01885313, 3.366805E-05, 0.0871641, 0.06705684, 1.000015, -0.06943012, -0.01980213, 5.774562E-05, 0.08706773, 0.06704334, 1.000015
 80840151, 0.0110879, -0.04233811, -0.0001004935, 0.08766326, 0.06688838, 1.000014, -0.05096361, -0.01885313, 3.366805E-05, 0.0871641, 0.06705684, 1.000015
 80940944, -0.03617196, -0.03234842, -1.397117E-05, 0.08725995, 0.06696703, 1.000015, 0.0110879, -0.04233811, -0.0001004935, 0.08766326, 0.06688838, 1.000014
 81040904, 0.009010606, -0.0531637, -0.0001191291, 0.08765173, 0.06682796, 1.000013, -0.03617196, -0.03234842, -1.397117E-05, 0.08725995, 0.06696703, 1.000015
 81140864, 0.07273051, -0.01971787, -0.0001419808, 0.08840328, 0.0670306, 1.000013, 0.009010606, -0.0531637, -0.0001191291, 0.08765173, 0.06682796, 1.000013
 81240824, -0.0333116, -0.06736077, -8.764064E-05, 0.08729257, 0.0667758, 1.000013, 0.07273051, -0.01971787, -0.0001419808, 0.08840328, 0.0670306, 1.000013
 81340784, -0.06514765, -0.04747929, -2.555331E-06, 0.08709305, 0.06688362, 1.000013, -0.0333116, -0.06736077, -8.764064E-05, 0.08729257, 0.0667758, 1.000013
 81440744, -0.07624719, -0.04228305, 2.392744E-05, 0.08704431, 0.06691463, 1.000013, -0.06514765, -0.04747929, -2.555331E-06, 0.08709305, 0.06688362, 1.000013
 81540704, -0.04222452, 0.08160269, 0.0002228762, 0.08728927, 0.06816462, 1.000015, -0.07624719, -0.04228305, 2.392744E-05, 0.08704431, 0.06691463, 1.000013
 81640664, -0.02148973, -0.05647397, -8.196588E-05, 0.0873962, 0.06683033, 1.000011, -0.04222452, 0.08160269, 0.0002228762, 0.08728927, 0.06816462, 1.000015
 81740624, 0.03185914, 0.05685653, 6.767992E-05, 0.08790071, 0.06787224, 1.000012, -0.02148973, -0.05647397, -8.196588E-05, 0.0873962, 0.06683033, 1.000011
 81840584, -0.04622183, 0.02802553, 0.0001221908, 0.08723855, 0.0675016, 1.000012, 0.03185914, 0.05685653, 6.767992E-05, 0.08790071, 0.06787224, 1.000012
 81940544, -0.06267004, 0.01053645, 0.0001109787, 0.08714041, 0.06732015, 1.000012, -0.04622183, 0.02802553, 0.0001221908, 0.08723855, 0.0675016, 1.000012
 82040504, -0.04730794, -0.04958281, -3.077948E-05, 0.08721584, 0.06687719, 1.000011, -0.06267004, 0.01053645, 0.0001109787, 0.08714041, 0.06732015, 1.000012
 82140464, 0.02054861, 0.0342131, 3.863317E-05, 0.0877842, 0.06759049, 1.000011, -0.04730794, -0.04958281, -3.077948E-05, 0.08721584, 0.06687719, 1.000011
 82240424, 0.05971214, -0.06622519, -0.000218417, 0.0882902, 0.06672965, 1.000009, 0.02054861, 0.0342131, 3.863317E-05, 0.0877842, 0.06759049, 1.000011
 82340384, 0.05384667, 0.06687807, 5.60996E-05, 0.0881657, 0.06800748, 1.000012, 0.05971214, -0.06622519, -0.000218417, 0.0882902, 0.06672965, 1.000009
 82440344, -0.03201064, -0.0101635, 2.57553E-05, 0.0873216, 0.06713825, 1.000012, 0.05384667, 0.06687807, 5.60996E-05, 0.0881657, 0.06800748, 1.000012
 82540304, -0.01732938, -0.01413808, -3.397536E-06, 0.0874303, 0.06710634, 1.000012, -0.03201064, -0.0101635, 2.57553E-05, 0.0873216, 0.06713825, 1.000012
 82640264, 0.07261279, 0.0444928, -1.513078E-05, 0.08840179, 0.06770641, 1.000012, -0.01732938, -0.01413808, -3.397536E-06, 0.0874303, 0.06710634, 1.000012
 82740224, -0.02846476, 0.01016841, 6.136316E-05, 0.08734848, 0.06731567, 1.000013, 0.07261279, 0.0444928, -1.513078E-05, 0.08840179, 0.06770641, 1.000012
 82840184, -0.02584876, 0.002172508, 4.161838E-05, 0.08736798, 0.06723921, 1.000012, -0.02846476, 0.01016841, 6.136316E-05, 0.08734848, 0.06731567, 1.000013
 82940977, 0.05249237, -0.08008154, -0.000237047, 0.08820543, 0.066655, 1.00001, -0.02584876, 0.002172508, 4.161838E-05, 0.08736798, 0.06723921, 1.000012
 83040937, 0.01379813, -0.06813574, -0.0001574072, 0.08774205, 0.06673717, 1.000011, 0.05249237, -0.08008154, -0.000237047, 0.08820543, 0.066655, 1.00001
 83140897, 0.05142162, 0.06687305, 6.046832E-05, 0.08814308, 0.06798935, 1.000013, 0.01379813, -0.06813574, -0.0001574072, 0.08774205, 0.06673717, 1.000011
 83240857, 0.03666849, 0.005517226, -4.21908E-05, 0.08797215, 0.06725993, 1.000011, 0.05142162, 0.06687305, 6.046832E-05, 0.08814308, 0.06798935, 1.000013
 83340817, -0.04808881, -0.01739088, 3.485697E-05, 0.08722848, 0.06706139, 1.000012, 0.03666849, 0.005517226, -4.21908E-05, 0.08797215, 0.06725993, 1.000011
 83440777, 0.0658692, -0.06537998, -0.000228329, 0.08838569, 0.06670518, 1.000009, -0.04808881, -0.01739088, 3.485697E-05, 0.08722848, 0.06706139, 1.000012
 83540737, 0.0609917, 0.004542862, -7.988002E-05, 0.08827735, 0.06723832, 1.000011, 0.0658692, -0.06537998, -0.000228329, 0.08838569, 0.06670518, 1.000009
 83640697, -0.06439926, 0.0388172, 0.0001731199, 0.08717216, 0.06757279, 1.000013, 0.0609917, 0.004542862, -7.988002E-05, 0.08827735, 0.06723832, 1.000011
 83740657, 0.07453433, 0.04389558, -1.972476E-05, 0.08845395, 0.06766825, 1.000011, -0.06439926, 0.0388172, 0.0001731199, 0.08717216, 0.06757279, 1.000013
 83840617, 0.03527796, -0.05226889, -0.0001586647, 0.08799201, 0.06678415, 1.00001, 0.07453433, 0.04389558, -1.972476E-05, 0.08845395, 0.06766825, 1.000011
 83940577, 0.002147955, -0.006798789, -1.708966E-05, 0.08763032, 0.06712598, 1.000012, 0.03527796, -0.05226889, -0.0001586647, 0.08799201, 0.06678415, 1.00001
 84040537, 0.05242393, 0.02721921, -2.158601E-05, 0.08817739, 0.0674596, 1.000011, 0.002147955, -0.006798789, -1.708966E-05, 0.08763032, 0.06712598, 1.000012
 84140497, -0.07670677, -0.04353027, 2.436031E-05, 0.08709653, 0.06686061, 1.000011, 0.05242393, 0.02721921, -2.158601E-05, 0.08817739, 0.0674596, 1.000011
 84240457, -0.06783925, 0.05816811, 0.000219233, 0.08718897, 0.0677882, 1.000013, -0.07670677, -0.04353027, 2.436031E-05, 0.08709653, 0.06686061, 1.000011
 84340417, 2.811104E-05, 0.01165042, 2.37199E-05, 0.08761446, 0.06730551, 1.000011, -0.06783925, 0.05816811, 0.000219233, 0.08718897, 0.0677882, 1.000013
 84440377, 0.04226616, 0.02458815, -1.205023E-05, 0.08804908, 0.06744429, 1.000011, 2.811104E-05, 0.01165042, 2.37199E-05, 0.08761446, 0.06730551, 1.000011
 84540337, 0.03219781, -0.03682709, -0.0001220326, 0.08794501, 0.06689674, 1.00001, 0.04226616, 0.02458815, -1.205023E-05, 0.08804908, 0.06744429, 1.000011
 84640297, 0.04612186, -0.02437836, -0.0001168047, 0.08810014, 0.06698646, 1.00001, 0.03219781, -0.03682709, -0.0001220326, 0.08794501, 0.06689674, 1.00001
 84740257, -0.01392633, -0.02709642, -3.44811E-05, 0.08747905, 0.06698962, 1.000011, 0.04612186, -0.02437836, -0.0001168047, 0.08810014, 0.06698646, 1.00001
 84840217, -0.03866457, -0.02081429, 1.438129E-05, 0.08729094, 0.06704023, 1.000011, -0.01392633, -0.02709642, -3.44811E-05, 0.08747905, 0.06698962, 1.000011
 84940177, -0.04366585, 0.05413347, 0.000172894, 0.08728568, 0.06777908, 1.000013, -0.03866457, -0.02081429, 1.438129E-05, 0.08729094, 0.06704023, 1.000011
 85040970, -0.02426279, 0.0748115, 0.0001863719, 0.08742279, 0.06806354, 1.000014, -0.04366585, 0.05413347, 0.000172894, 0.08728568, 0.06777908, 1.000013
 85140930, -0.0578525, -0.02320772, 3.691416E-05, 0.08716156, 0.06702353, 1.000012, -0.02426279, 0.0748115, 0.0001863719, 0.08742279, 0.06806354, 1.000014
 85240890, -0.05248529, -0.05435777, -3.375986E-05, 0.08718543, 0.06683525, 1.000012, -0.0578525, -0.02320772, 3.691416E-05, 0.08716156, 0.06702353, 1.000012
 85340850, -0.05054873, -0.01585138, 4.072617E-05, 0.08719436, 0.06708352, 1.000013, -0.05248529, -0.05435777, -3.375986E-05, 0.08718543, 0.06683525, 1.000012
 85440810, 0.0689733, 0.03377293, -3.092048E-05, 0.08834805, 0.06757234, 1.000012, -0.05054873, -0.01585138, 4.072617E-05, 0.08719436, 0.06708352, 1.000013
 85540770, -0.01229858, 0.03623303, 9.035908E-05, 0.08746903, 0.06759421, 1.000014, 0.0689733, 0.03377293, -3.092048E-05, 0.08834805, 0.06757234, 1.000012
 85640730, 0.06164251, -0.01915471, -0.0001264308, 0.08826327, 0.06704053, 1.000012, -0.01229858, 0.03623303, 9.035908E-05, 0.08746903, 0.06759421, 1.000014
 85740690, -0.04765566, 0.01439567, 9.702485E-05, 0.08721363, 0.06735136, 1.000014, 0.06164251, -0.01915471, -0.0001264308, 0.08826327, 0.06704053, 1.000012
 85840650, 0.003266358, -0.04674179, -9.84604E-05, 0.08761099, 0.06687079, 1.000012, -0.04765566, 0.01439567, 9.702485E-05, 0.08721363, 0.06735136, 1.000014
 85940610, 0.05264657, -0.04501162, -0.0001655969, 0.08816725, 0.06685862, 1.000011, 0.003266358, -0.04674179, -9.84604E-05, 0.08761099, 0.06687079, 1.000012
 86040570, -0.04174203, 0.06323289, 0.0001862103, 0.08728028, 0.06791653, 1.000014, 0.05264657, -0.04501162, -0.0001655969, 0.08816725, 0.06685862, 1.000011
 86140530, 0.04860654, -0.02198794, -0.0001135014, 0.08810008, 0.06703398, 1.000011, -0.04174203, 0.06323289, 0.0001862103, 0.08728028, 0.06791653, 1.000014
 86240490, -0.03810272, -0.0683225, -8.203688E-05, 0.08726959, 0.06678157, 1.000012, 0.04860654, -0.02198794, -0.0001135014, 0.08810008, 0.06703398, 1.000011
 86340450, 0.00208836, 0.02396108, 4.478725E-05, 0.0875879, 0.06747839, 1.000012, -0.03810272, -0.0683225, -8.203688E-05, 0.08726959, 0.06678157, 1.000012
 86440410, -0.03158282, -0.04750885, -4.94804E-05, 0.08730946, 0.06689317, 1.000011, 0.00208836, 0.02396108, 4.478725E-05, 0.0875879, 0.06747839, 1.000012
 86540370, 0.01158312, -0.07101069, -0.0001578318, 0.08769914, 0.06675439, 1.000011, -0.03158282, -0.04750885, -4.94804E-05, 0.08730946, 0.06689317, 1.000011
 86640330, -0.07084934, -0.03399802, 3.320845E-05, 0.08706947, 0.0669751, 1.000012, 0.01158312, -0.07101069, -0.0001578318, 0.08769914, 0.06675439, 1.000011
 86740290, 0.06454436, -0.02710384, -0.0001457546, 0.08830084, 0.06699316, 1.000011, -0.07084934, -0.03399802, 3.320845E-05, 0.08706947, 0.0669751, 1.000012
 86840250, 0.01486344, 0.04891065, 7.633557E-05, 0.08770709, 0.06777261, 1.000013, 0.06454436, -0.02710384, -0.0001457546, 0.08830084, 0.06699316, 1.000011
 86940210, -0.07011475, 0.02861273, 0.000156843, 0.08709802, 0.06749676, 1.000014, 0.01486344, 0.04891065, 7.633557E-05, 0.08770709, 0.06777261, 1.000013
 87040170, -0.04919112, -0.02890693, 1.23123E-05, 0.08718629, 0.06700542, 1.000013, -0.07011475, 0.02861273, 0.000156843, 0.08709802, 0.06749676, 1.000014
 87140963, 0.06817226, -0.07502493, -0.0002468529, 0.08839069, 0.06668246, 1.00001, -0.04919112, -0.02890693, 1.23123E-05, 0.08718629, 0.06700542, 1.000013
 87240923, 0.01982215, -0.05317806, -0.0001344688, 0.08777043, 0.06683492, 1.000012, 0.06817226, -0.07502493, -0.0002468529, 0.08839069, 0.06668246, 1.00001
 87340883, 0.07595718, 0.03947189, -2.894732E-05, 0.08842962, 0.06765025, 1.000013, 0.01982215, -0.05317806, -0.0001344688, 0.08777043, 0.06683492, 1.000012
 87440843, 0.01268548, 0.004065041, -9.894915E-06, 0.08768062, 0.06726733, 1.000013, 0.07595718, 0.03947189, -2.894732E-05, 0.08842962, 0.06765025, 1.000013
 87540803, -0.051313, 0.03953401, 0.0001525181, 0.08719951, 0.06761719, 1.000014, 0.01268548, 0.004065041, -9.894915E-06, 0.08768062, 0.06726733, 1.000013
 87640763, -0.07251461, -0.04795703, 7.26289E-06, 0.08706193, 0.06687803, 1.000013, -0.051313, 0.03953401, 0.0001525181, 0.08719951, 0.06761719, 1.000014
 87740723, -0.057996, 0.008991376, 0.0001009401, 0.08715023, 0.06730013, 1.000014, -0.07251461, -0.04795703, 7.26289E-06, 0.08706193, 0.06687803, 1.000013
 87840683, -0.03091186, 0.009759414, 6.382072E-05, 0.08731848, 0.06731748, 1.000013, -0.057996, 0.008991376, 0.0001009401, 0.08715023, 0.06730013, 1.000014
 87940643, -0.05874571, -0.03760724, 8.774397E-06, 0.08713762, 0.06694202, 1.000013, -0.03091186, 0.009759414, 6.382072E-05, 0.08731848, 0.06731748, 1.000013
 88040603, 0.05697744, 0.004332265, -7.307752E-05, 0.08819623, 0.06726361, 1.000011, -0.05874571, -0.03760724, 8.774397E-06, 0.08713762, 0.06694202, 1.000013
 88140563, -0.06035651, -0.06739625, -4.852176E-05, 0.08713363, 0.06678531, 1.000012, 0.05697744, 0.004332265, -7.307752E-05, 0.08819623, 0.06726361, 1.000011
 88240523, 0.003863918, 0.06133403, 0.0001177108, 0.08762449, 0.06791424, 1.000013, -0.06035651, -0.06739625, -4.852176E-05, 0.08713363, 0.06678531, 1.000012
 88340483, -0.01580433, 0.03504914, 9.343572E-05, 0.08744847, 0.06757815, 1.000013, 0.003863918, 0.06133403, 0.0001177108, 0.08762449, 0.06791424, 1.000013
 88440443, -0.0007302281, -0.02104734, -4.148658E-05, 0.08757433, 0.06704055, 1.000012, -0.01580433, 0.03504914, 9.343572E-05, 0.08744847, 0.06757815, 1.000013
 88540403, -0.03744105, -0.0631588, -7.322583E-05, 0.08729494, 0.06678575, 1.000011, -0.0007302281, -0.02104734, -4.148658E-05, 0.08757433, 0.06704055, 1.000012
 88640363, 0.03460052, -0.05253223, -0.0001569843, 0.08797634, 0.0668088, 1.00001, -0.03744105, -0.0631588, -7.322583E-05, 0.08729494, 0.06678575, 1.000011
 88740323, 0.0760242, 0.03260294, -4.546913E-05, 0.08847429, 0.06754687, 1.00001, 0.03460052, -0.05253223, -0.0001569843, 0.08797634, 0.0668088, 1.00001
 88840283, 0.0421561, -0.0752378, -0.0002147375, 0.08808944, 0.06667758, 1.000009, 0.0760242, 0.03260294, -4.546913E-05, 0.08847429, 0.06754687, 1.00001
 88940243, -0.03734771, 0.06040858, 0.0001781412, 0.08733962, 0.06785097, 1.000013, 0.0421561, -0.0752378, -0.0002147375, 0.08808944, 0.06667758, 1.000009
 89040203, 0.04802454, -0.003124692, -7.7198E-05, 0.08812311, 0.06715924, 1.00001, -0.03734771, 0.06040858, 0.0001781412, 0.08733962, 0.06785097, 1.000013
 89140163, 0.02120726, 0.03857889, 4.766482E-05, 0.08781789, 0.06760041, 1.000012, 0.04802454, -0.003124692, -7.7198E-05, 0.08812311, 0.06715924, 1.00001
 89240956, 0.04975773, 0.03544822, -8.655334E-07, 0.08813784, 0.06756575, 1.000011, 0.02120726, 0.03857889, 4.766482E-05, 0.08781789, 0.06760041, 1.000012
 89340916, -0.03034019, -0.06952068, -9.746897E-05, 0.08736138, 0.0667351, 1.000011, 0.04975773, 0.03544822, -8.655334E-07, 0.08813784, 0.06756575, 1.000011
 89440876, -0.0253294, 0.004010637, 4.521049E-05, 0.08738634, 0.06723545, 1.000013, -0.03034019, -0.06952068, -9.746897E-05, 0.08736138, 0.0667351, 1.000011
 89540836, 0.02791189, -0.03493776, -0.0001117442, 0.08788439, 0.06691802, 1.000011, -0.0253294, 0.004010637, 4.521049E-05, 0.08738634, 0.06723545, 1.000013
 89640796, 0.01312277, 0.07539116, 0.0001337167, 0.08773134, 0.0680953, 1.000013, 0.02791189, -0.03493776, -0.0001117442, 0.08788439, 0.06691802, 1.000011
 89740756, 0.0427745, -0.06763472, -0.0001986491, 0.08807106, 0.06672264, 1.00001, 0.01312277, 0.07539116, 0.0001337167, 0.08773134, 0.0680953, 1.000013
 89840716, 0.06119005, 0.006213626, -7.58316E-05, 0.08825833, 0.06727275, 1.000011, 0.0427745, -0.06763472, -0.0001986491, 0.08807106, 0.06672264, 1.00001
 89940676, -0.06527814, 0.06221637, 0.0002192093, 0.08716171, 0.06787768, 1.000014, 0.06119005, 0.006213626, -7.58316E-05, 0.08825833, 0.06727275, 1.000011
 90040636, 0.02862594, -0.0006311366, -4.246486E-05, 0.08786251, 0.06722388, 1.000012, -0.06527814, 0.06221637, 0.0002192093, 0.08716171, 0.06787768, 1.000014
 90140596, 0.005542116, 0.009690334, 1.145488E-05, 0.08762221, 0.06732743, 1.000012, 0.02862594, -0.0006311366, -4.246486E-05, 0.08786251, 0.06722388, 1.000012
 90240556, 0.01549679, 0.06027713, 9.829728E-05, 0.08772529, 0.06791604, 1.000013, 0.005542116, 0.009690334, 1.145488E-05, 0.08762221, 0.06732743, 1.000012
 90340516, 0.07194117, -0.04053611, -0.0001837813, 0.08841842, 0.06688827, 1.00001, 0.01549679, 0.06027713, 9.829728E-05, 0.08772529, 0.06791604, 1.000013
 90440476, 0.01055461, 0.05049447, 8.549474E-05, 0.08767044, 0.06779545, 1.000013, 0.07194117, -0.04053611, -0.0001837813, 0.08841842, 0.06688827, 1.00001
 90540436, -0.03318373, 0.05065408, 0.0001481581, 0.08731546, 0.06777786, 1.000013, 0.01055461, 0.05049447, 8.549474E-05, 0.08767044, 0.06779545, 1.000013
 90640396, -0.06256705, 0.07180602, 0.0002318853, 0.08716545, 0.06802692, 1.000014, -0.03318373, 0.05065408, 0.0001481581, 0.08731546, 0.06777786, 1.000013
 90740356, -0.01405336, -0.05511953, -8.943571E-05, 0.08744249, 0.06685544, 1.000011, -0.06256705, 0.07180602, 0.0002318853, 0.08716545, 0.06802692, 1.000014
 90840316, -0.06188709, -0.002689923, 8.261255E-05, 0.087116, 0.06722058, 1.000013, -0.01405336, -0.05511953, -8.943571E-05, 0.08744249, 0.06685544, 1.000011
 90940276, -0.01020865, 0.0213862, 5.697994E-05, 0.08746956, 0.06746099, 1.000013, -0.06188709, -0.002689923, 8.261255E-05, 0.087116, 0.06722058, 1.000013
 91040236, 0.03335997, -0.03539405, -0.0001177946, 0.08791082, 0.06695633, 1.000011, -0.01020865, 0.0213862, 5.697994E-05, 0.08746956, 0.06746099, 1.000013
 91140196, -0.07599991, -0.04950484, 1.004006E-05, 0.0870425, 0.06689257, 1.000012, 0.03335997, -0.03539405, -0.0001177946, 0.08791082, 0.06695633, 1.000011
 91240156, 0.05987569, 0.06898209, 5.13362E-05, 0.0882215, 0.06806176, 1.000012, -0.07599991, -0.04950484, 1.004006E-05, 0.0870425, 0.06689257, 1.000012
 91340949, -0.02182059, 0.06161888, 0.0001532624, 0.08740652, 0.06793401, 1.000012, 0.05987569, 0.06898209, 5.13362E-05, 0.0882215, 0.06806176, 1.000012
 91440909, -0.01592456, 0.06295791, 0.000147326, 0.08745417, 0.06795831, 1.000012, -0.02182059, 0.06161888, 0.0001532624, 0.08740652, 0.06793401, 1.000012
 91540869, -0.06756476, 0.04275354, 0.0001813431, 0.0871272, 0.0676768, 1.000012, -0.01592456, 0.06295791, 0.000147326, 0.08745417, 0.06795831, 1.000012
 91640829, -0.02871138, 0.05317902, 0.0001461599, 0.08735369, 0.0678287, 1.000012, -0.06756476, 0.04275354, 0.0001813431, 0.0871272, 0.0676768, 1.000012
 91740789, 0.04127531, 0.03450888, 9.07603E-06, 0.08799408, 0.0676247, 1.000011, -0.02871138, 0.05317902, 0.0001461599, 0.08735369, 0.0678287, 1.000012
 91840749, -0.04830628, 0.04092051, 0.0001497794, 0.08721709, 0.06767096, 1.000012, 0.04127531, 0.03450888, 9.07603E-06, 0.08799408, 0.0676247, 1.000011
 91940709, -0.06272935, -0.06614175, -4.103666E-05, 0.08710874, 0.06682596, 1.000011, -0.04830628, 0.04092051, 0.0001497794, 0.08721709, 0.06767096, 1.000012
 92040669, -0.0350646, -0.06024047, -6.88948E-05, 0.08728073, 0.06684858, 1.00001, -0.06272935, -0.06614175, -4.103666E-05, 0.08710874, 0.06682596, 1.000011
 92140629, 0.08047073, 0.03342543, -4.870104E-05, 0.08849408, 0.06760921, 1.00001, -0.0350646, -0.06024047, -6.88948E-05, 0.08728073, 0.06684858, 1.00001
 92240589, 0.06667387, 0.02953816, -3.671496E-05, 0.0883048, 0.06756613, 1.00001, 0.08047073, 0.03342543, -4.870104E-05, 0.08849408, 0.06760921, 1.00001
 92340549, 0.04128529, 0.03892575, 1.810511E-05, 0.0879866, 0.06767728, 1.000011, 0.06667387, 0.02953816, -3.671496E-05, 0.0883048, 0.06756613, 1.00001
 92440509, 0.02768512, -0.0137428, -6.65992E-05, 0.087838, 0.06713876, 1.000011, 0.04128529, 0.03892575, 1.810511E-05, 0.0879866, 0.06767728, 1.000011
 92540469, -0.01209724, 0.03668001, 8.986121E-05, 0.08746152, 0.06763694, 1.000012, 0.02768512, -0.0137428, -6.65992E-05, 0.087838, 0.06713876, 1.000011
 92640429, 0.00848121, 0.01823235, 2.402194E-05, 0.08764037, 0.06743835, 1.000011, -0.01209724, 0.03668001, 8.986121E-05, 0.08746152, 0.06763694, 1.000012
 92740389, 0.01823704, -0.008373647, -4.263523E-05, 0.08773819, 0.06718205, 1.000011, 0.00848121, 0.01823235, 2.402194E-05, 0.08764037, 0.06743835, 1.000011
 92840349, -0.06465389, -0.02834526, 3.59866E-05, 0.08709823, 0.06702501, 1.000012, 0.01823704, -0.008373647, -4.263523E-05, 0.08773819, 0.06718205, 1.000011
 92940309, 0.05579625, -0.03199742, -0.0001433552, 0.08818848, 0.06697165, 1.00001, -0.06465389, -0.02834526, 3.59866E-05, 0.08709823, 0.06702501, 1.000012
 93040269, 0.009832886, 0.05469386, 9.480146E-05, 0.08766314, 0.06785389, 1.000013, 0.05579625, -0.03199742, -0.0001433552, 0.08818848, 0.06697165, 1.00001
 93140229, -0.03398653, -0.03444952, -2.006249E-05, 0.08728652, 0.06697991, 1.000012, 0.009832886, 0.05469386, 9.480146E-05, 0.08766314, 0.06785389, 1.000013
 93240189, 0.01484881, -0.003205128, -2.763968E-05, 0.08770516, 0.06721736, 1.000012, -0.03398653, -0.03444952, -2.006249E-05, 0.08728652, 0.06697991, 1.000012
 93340149, 0.030819, 0.0136763, -1.685517E-05, 0.08787505, 0.06737755, 1.000012, 0.01484881, -0.003205128, -2.763968E-05, 0.08770516, 0.06721736, 1.000012
 93440942, -0.06617639, -0.02736405, 4.030734E-05, 0.08709798, 0.06702001, 1.000012, 0.030819, 0.0136763, -1.685517E-05, 0.08787505, 0.06737755, 1.000012
 93540902, 0.04188894, 0.02362245, -1.293816E-05, 0.08800516, 0.06747749, 1.000012, -0.06617639, -0.02736405, 4.030734E-05, 0.08709798, 0.06702001, 1.000012
 93640862, 0.01699122, -0.07252536, -0.0001699711, 0.08776478, 0.06673755, 1.00001, 0.04188894, 0.02362245, -1.293816E-05, 0.08800516, 0.06747749, 1.000012
 93740822, -0.01718353, -0.007512148, 9.684907E-06, 0.08742466, 0.06716868, 1.000012, 0.01699122, -0.07252536, -0.0001699711, 0.08776478, 0.06673755, 1.00001
 93840782, -0.05770871, 0.07357773, 0.0002312104, 0.08720414, 0.06803896, 1.000014, -0.01718353, -0.007512148, 9.684907E-06, 0.08742466, 0.06716868, 1.000012
 93940742, -0.0644722, 0.05119105, 0.0001962545, 0.08715679, 0.06774762, 1.000013, -0.05770871, 0.07357773, 0.0002312104, 0.08720414, 0.06803896, 1.000014
 94040702, -0.0007344111, -0.01936667, -3.789986E-05, 0.08757614, 0.06706856, 1.000011, -0.0644722, 0.05119105, 0.0001962545, 0.08715679, 0.06774762, 1.000013
 94140662, -0.05575179, -0.0671171, -5.422311E-05, 0.08717064, 0.06678455, 1.000011, -0.0007344111, -0.01936667, -3.789986E-05, 0.08757614, 0.06706856, 1.000011
 94240622, -0.04064211, -0.01912274, 2.052978E-05, 0.08726428, 0.06706524, 1.000012, -0.05575179, -0.0671171, -5.422311E-05, 0.08717064, 0.06678455, 1.000011
 94340582, -0.06925821, 0.004688506, 0.0001103366, 0.08711315, 0.0672508, 1.000012, -0.04064211, -0.01912274, 2.052978E-05, 0.08726428, 0.06706524, 1.000012
 94440542, -0.01077786, 0.04349983, 0.0001035839, 0.08750346, 0.06768122, 1.000012, -0.06925821, 0.004688506, 0.0001103366, 0.08711315, 0.0672508, 1.000012
 94540502, 0.008220786, 0.0481149, 8.470657E-05, 0.08767844, 0.06775299, 1.000011, -0.01077786, 0.04349983, 0.0001035839, 0.08750346, 0.06768122, 1.000012
 94640462, 0.0366022, -0.005015904, -6.385057E-05, 0.08797923, 0.06719196, 1.000008, 0.008220786, 0.0481149, 8.470657E-05, 0.08767844, 0.06775299, 1.000011
 94740422, 0.07060383, 0.04653342, -1.066493E-05, 0.08839442, 0.06775305, 1.000009, 0.0366022, -0.005015904, -6.385057E-05, 0.08797923, 0.06719196, 1.000008
 94840382, 0.05407052, -0.06348588, -0.0002057991, 0.08822341, 0.0667673, 1.000007, 0.07060383, 0.04653342, -1.066493E-05, 0.08839442, 0.06775305, 1.000009
 94940342, -0.03755334, 0.02024352, 9.50503E-05, 0.0872997, 0.06744407, 1.00001, 0.05407052, -0.06348588, -0.0002057991, 0.08822341, 0.0667673, 1.000007
 95040302, -0.03046305, 0.0197658, 8.346626E-05, 0.08734149, 0.06744673, 1.00001, -0.03755334, 0.02024352, 9.50503E-05, 0.0872997, 0.06744407, 1.00001
 95140262, -0.05561, -0.002362505, 7.593158E-05, 0.08717335, 0.06723388, 1.00001, -0.03046305, 0.0197658, 8.346626E-05, 0.08734149, 0.06744673, 1.00001
 95240222, -0.00595711, 0.06568641, 0.0001385274, 0.08754301, 0.06800456, 1.000011, -0.05561, -0.002362505, 7.593158E-05, 0.08717335, 0.06723388, 1.00001
 95340182, -0.03192385, -0.03909989, -3.109362E-05, 0.08731498, 0.0669696, 1.000009, -0.00595711, 0.06568641, 0.0001385274, 0.08754301, 0.06800456, 1.000011
 95440975, -0.003455315, -0.07005734, -0.0001330224, 0.08755872, 0.06679714, 1.000008, -0.03192385, -0.03909989, -3.109362E-05, 0.08731498, 0.0669696, 1.000009
 95540935, -0.004676642, 0.07295012, 0.0001502099, 0.08755125, 0.06811514, 1.000011, -0.003455315, -0.07005734, -0.0001330224, 0.08755872, 0.06679714, 1.000008
 95640895, 0.03855637, -0.03997952, -0.0001338536, 0.08798413, 0.06695094, 1.000008, -0.004676642, 0.07295012, 0.0001502099, 0.08755125, 0.06811514, 1.000011
 95740855, 0.07852311, 0.02726087, -5.90976E-05, 0.08847331, 0.06755513, 1.000009, 0.03855637, -0.03997952, -0.0001338536, 0.08798413, 0.06695094, 1.000008
 95840815, 0.02203367, -0.03092143, -9.201615E-05, 0.08778714, 0.06702954, 1.000008, 0.07852311, 0.02726087, -5.90976E-05, 0.08847331, 0.06755513, 1.000009
 95940775, 0.01873041, -0.06188672, -0.0001479023, 0.08776411, 0.06683627, 1.000008, 0.02203367, -0.03092143, -9.201615E-05, 0.08778714, 0.06702954, 1.000008
 96040735, -0.05500948, -0.02192336, 3.549385E-05, 0.08714829, 0.06710088, 1.00001, 0.01873041, -0.06188672, -0.0001479023, 0.08776411, 0.06683627, 1.000008
 96140695, -0.0283035, 0.02789062, 9.488083E-05, 0.08733112, 0.06755839, 1.000011, -0.05500948, -0.02192336, 3.549385E-05, 0.08714829, 0.06710088, 1.00001
 96240655, -0.02964336, 0.01834237, 7.80424E-05, 0.08731674, 0.06745972, 1.000011, -0.0283035, 0.02789062, 9.488083E-05, 0.08733112, 0.06755839, 1.000011
 96340615, 0.06088082, -0.06690164, -0.0002176286, 0.08827659, 0.06677883, 1.000008, -0.02964336, 0.01834237, 7.80424E-05, 0.08731674, 0.06745972, 1.000011
 96440575, -0.07478286, -0.0443728, 1.957437E-05, 0.08704264, 0.06695305, 1.00001, 0.06088082, -0.06690164, -0.0002176286, 0.08827659, 0.06677883, 1.000008
 96540535, -0.0549249, -0.04862643, -1.730699E-05, 0.08714269, 0.06692735, 1.00001, -0.07478286, -0.0443728, 1.957437E-05, 0.08704264, 0.06695305, 1.00001
 96640495, 0.06296219, -0.005487, -0.0001001527, 0.08825779, 0.06721551, 1.00001, -0.0549249, -0.04862643, -1.730699E-05, 0.08714269, 0.06692735, 1.00001
 96740455, -0.04753955, 0.06593122, 0.0001971088, 0.08722561, 0.06798992, 1.000013, 0.06296219, -0.005487, -0.0001001527, 0.08825779, 0.06721551, 1.00001
 96840415, 0.02320596, -0.07311305, -0.0001768713, 0.08780768, 0.06676748, 1.00001, -0.04753955, 0.06593122, 0.0001971088, 0.08722561, 0.06798992, 1.000013
 96940375, 0.054793, -0.06056391, -0.0001968407, 0.08818169, 0.06680783, 1.00001, 0.02320596, -0.07311305, -0.0001768713, 0.08780768, 0.06676748, 1.00001
 97040335, -0.01055929, -0.04376056, -7.116603E-05, 0.08745889, 0.06694337, 1.000011, 0.054793, -0.06056391, -0.0001968407, 0.08818169, 0.06680783, 1.00001
 97140295, -0.0354534, 0.0418581, 0.0001326874, 0.08728066, 0.06769896, 1.000013, -0.01055929, -0.04376056, -7.116603E-05, 0.08745889, 0.06694337, 1.000011
 97240255, 0.01518037, -0.0487792, -0.0001176597, 0.08770728, 0.06690035, 1.00001, -0.0354534, 0.0418581, 0.0001326874, 0.08728066, 0.06769896, 1.000013
 97340215, -0.02559808, -0.001648527, 3.304887E-05, 0.08733521, 0.06725872, 1.000012, 0.01518037, -0.0487792, -0.0001176597, 0.08770728, 0.06690035, 1.00001
 97440175, 0.02871449, -0.04991968, -0.0001390411, 0.08785661, 0.06688843, 1.00001, -0.02559808, -0.001648527, 3.304887E-05, 0.08733521, 0.06725872, 1.000012
 97540968, 0.02448074, 0.05869113, 8.079738E-05, 0.08779588, 0.06793579, 1.000012, 0.02871449, -0.04991968, -0.0001390411, 0.08785661, 0.06688843, 1.00001
 97640928, 0.05149276, 0.007249697, -5.882926E-05, 0.08810417, 0.06733964, 1.00001, 0.02448074, 0.05869113, 8.079738E-05, 0.08779588, 0.06793579, 1.000012
 97740888, 0.03434188, 0.02611188, 2.651661E-06, 0.08789844, 0.06754098, 1.000011, 0.05149276, 0.007249697, -5.882926E-05, 0.08810417, 0.06733964, 1.00001
 97840848, 0.04224499, 0.01683384, -2.682878E-05, 0.08799015, 0.06743891, 1.000011, 0.03434188, 0.02611188, 2.651661E-06, 0.08789844, 0.06754098, 1.000011
 97940808, 0.03668191, 0.04429854, 3.5249E-05, 0.08792561, 0.06775214, 1.000012, 0.04224499, 0.01683384, -2.682878E-05, 0.08799015, 0.06743891, 1.000011
 98040768, 0.03871067, -0.03447063, -0.0001229726, 0.0879643, 0.06698241, 1.00001, 0.03668191, 0.04429854, 3.5249E-05, 0.08792561, 0.06775214, 1.000012
 98140728, 0.02537291, -0.06878882, -0.0001720199, 0.08783162, 0.06678132, 1.00001, 0.03871067, -0.03447063, -0.0001229726, 0.0879643, 0.06698241, 1.00001
 98240688, 0.03668886, 0.01567194, -2.112864E-05, 0.08792675, 0.06741786, 1.000012, 0.02537291, -0.06878882, -0.0001720199, 0.08783162, 0.06678132, 1.00001
 98340648, -0.06181713, -0.0546557, -2.021422E-05, 0.08710549, 0.06687846, 1.000011, 0.03668886, 0.01567194, -2.112864E-05, 0.08792675, 0.06741786, 1.000012
 98440608, -0.0437807, -0.03535316, -7.61175E-06, 0.0872158, 0.06698652, 1.000011, -0.06181713, -0.0546557, -2.021422E-05, 0.08710549, 0.06687846, 1.000011
 98540568, 0.07099328, 0.04734359, -7.38832E-06, 0.08835944, 0.06777598, 1.000011, -0.0437807, -0.03535316, -7.61175E-06, 0.0872158, 0.06698652, 1.000011
 98640528, -0.03336151, 0.05411565, 0.0001555366, 0.08731442, 0.06782869, 1.000013, 0.07099328, 0.04734359, -7.38832E-06, 0.08835944, 0.06777598, 1.000011
 98740488, -0.0168973, 0.05334599, 0.0001307442, 0.08743174, 0.06782325, 1.000013, -0.03336151, 0.05411565, 0.0001555366, 0.08731442, 0.06782869, 1.000013
 98840448, -0.0001180619, -0.04043384, -8.077252E-05, 0.08756486, 0.06693098, 1.000012, -0.0168973, 0.05334599, 0.0001307442, 0.08743174, 0.06782325, 1.000013
 98940408, -0.0121431, -0.02573846, -3.422125E-05, 0.08745486, 0.06703157, 1.000012, -0.0001180619, -0.04043384, -8.077252E-05, 0.08756486, 0.06693098, 1.000012
 99040368, 0.0580319, -0.03971296, -0.0001629384, 0.08822221, 0.06690059, 1.000011, -0.0121431, -0.02573846, -3.422125E-05, 0.08745486, 0.06703157, 1.000012
 99140328, -0.044478, 0.06557827, 0.0001955644, 0.08725529, 0.06794976, 1.000015, 0.0580319, -0.03971296, -0.0001629384, 0.08822221, 0.06690059, 1.000011
 99240288, -0.07284926, -0.06485589, -2.604636E-05, 0.08705682, 0.06680284, 1.000013, -0.044478, 0.06557827, 0.0001955644, 0.08725529, 0.06794976, 1.000015
 99340248, 0.05741586, -0.04830254, -0.0001797178, 0.08822115, 0.06683718, 1.000011, -0.07284926, -0.06485589, -2.604636E-05, 0.08705682, 0.06680284, 1.000013
 99440208, 0.03899256, 0.004302318, -4.735983E-05, 0.0879686, 0.06726851, 1.000012, 0.05741586, -0.04830254, -0.0001797178, 0.08822115, 0.06683718, 1.000011
 99540168, -0.02627455, 0.02973511, 9.788508E-05, 0.08735909, 0.06752348, 1.000013, 0.03899256, 0.004302318, -4.735983E-05, 0.0879686, 0.06726851, 1.000012
 99640961, 0.02605123, 0.02699137, 1.68695E-05, 0.087828, 0.06750537, 1.000013, -0.02627455, 0.02973511, 9.788508E-05, 0.08735909, 0.06752348, 1.000013
 99740921, -0.01479041, -0.04489029, -6.915716E-05, 0.08743935, 0.06689602, 1.000012, 0.02605123, 0.02699137, 1.68695E-05, 0.087828, 0.06750537, 1.000013
 99840881, -0.0756788, -0.06092997, -1.413702E-05, 0.08704136, 0.06682219, 1.000013, -0.01479041, -0.04489029, -6.915716E-05, 0.08743935, 0.06689602, 1.000012
 99940841, -0.05849049, 0.07427329, 0.0002326324, 0.08718267, 0.0680545, 1.000015, -0.0756788, -0.06092997, -1.413702E-05, 0.08704136, 0.06682219, 1.000013
 100040801, 0.004486521, -0.02834459, -6.3215E-05, 0.08759671, 0.06700959, 1.000013, -0.05849049, 0.07427329, 0.0002326324, 0.08718267, 0.0680545, 1.000015
 100140761, -0.03259597, -0.0187968, 8.733627E-06, 0.08728343, 0.0670901, 1.000013, 0.004486521, -0.02834459, -6.3215E-05, 0.08759671, 0.06700959, 1.000013
 100240721, 0.06795568, 0.05630894, 1.595608E-05, 0.08830669, 0.06788681, 1.000013, -0.03259597, -0.0187968, 8.733627E-06, 0.08728343, 0.0670901, 1.000013
 100340681, 0.06719171, 0.05529774, 1.530501E-05, 0.08829072, 0.06787528, 1.000014, 0.06795568, 0.05630894, 1.595608E-05, 0.08830669, 0.06788681, 1.000013
 100440641, 0.02566526, -0.04675325, -0.0001291173, 0.08780706, 0.06689057, 1.000013, 0.06719171, 0.05529774, 1.530501E-05, 0.08829072, 0.06787528, 1.000014
 100540601, 0.01245028, -0.02433461, -6.58674E-05, 0.08765705, 0.06705354, 1.000013, 0.02566526, -0.04675325, -0.0001291173, 0.08780706, 0.06689057, 1.000013
 100640561, 0.05935426, -0.05524191, -0.0001929249, 0.08822233, 0.06681986, 1.000012, 0.01245028, -0.02433461, -6.58674E-05, 0.08765705, 0.06705354, 1.000013
 100740521, -0.0396297, -0.05589587, -5.553087E-05, 0.08721638, 0.0668655, 1.000014, 0.05935426, -0.05524191, -0.0001929249, 0.08822233, 0.06681986, 1.000012
 100840481, -0.002772976, 0.0615578, 0.0001260726, 0.08751724, 0.06794637, 1.000015, -0.0396297, -0.05589587, -5.553087E-05, 0.08721638, 0.0668655, 1.000014
 100940441, 0.07424212, 0.04765901, -9.333598E-06, 0.08837166, 0.06778651, 1.000014, -0.002772976, 0.0615578, 0.0001260726, 0.08751724, 0.06794637, 1.000015
 101040401, -0.005836213, -0.0103782, -1.235643E-05, 0.08747236, 0.06717992, 1.000014, 0.07424212, 0.04765901, -9.333598E-06, 0.08837166, 0.06778651, 1.000014
 101140361, -0.04125196, -0.04499846, -3.132358E-05, 0.08719666, 0.06693881, 1.000014, -0.005836213, -0.0103782, -1.235643E-05, 0.08747236, 0.06717992, 1.000014
 101240321, 0.0539906, -0.04469916, -0.0001629813, 0.08813071, 0.06690704, 1.000012, -0.04125196, -0.04499846, -3.132358E-05, 0.08719666, 0.06693881, 1.000014
 101340281, -0.02048036, -0.01819045, -7.227118E-06, 0.08734616, 0.06712876, 1.000013, 0.0539906, -0.04469916, -0.0001629813, 0.08813071, 0.06690704, 1.000012
 101440241, 0.06495613, -0.05662817, -0.000201321, 0.08828878, 0.06683265, 1.000011, -0.02048036, -0.01819045, -7.227118E-06, 0.08734616, 0.06712876, 1.000013
 101540201, -0.02985035, 0.03204428, 0.0001041634, 0.08728568, 0.0676059, 1.000014, 0.06495613, -0.05662817, -0.000201321, 0.08828878, 0.06683265, 1.000011
 101640161, -0.02308335, 0.04607509, 0.0001221347, 0.08733956, 0.06777143, 1.000014, -0.02985035, 0.03204428, 0.0001041634, 0.08728568, 0.0676059, 1.000014
 101740954, 0.07617752, 0.0670805, 2.531549E-05, 0.08839045, 0.06807346, 1.000013, -0.02308335, 0.04607509, 0.0001221347, 0.08733956, 0.06777143, 1.000014
 101840914, 0.03450238, -0.04117348, -0.0001284624, 0.08788875, 0.06695603, 1.000012, 0.07617752, 0.0670805, 2.531549E-05, 0.08839045, 0.06807346, 1.000013
 101940874, -0.001708578, 0.001037015, 4.399146E-06, 0.08750185, 0.06730195, 1.000013, 0.03450238, -0.04117348, -0.0001284624, 0.08788875, 0.06695603, 1.000012
 102040834, -0.02911936, 0.05895903, 0.0001556116, 0.08730289, 0.06792895, 1.000014, -0.001708578, 0.001037015, 4.399146E-06, 0.08750185, 0.06730195, 1.000013
 102140794, -0.01744318, -0.05866519, -9.045402E-05, 0.08737379, 0.06687691, 1.000012, -0.02911936, 0.05895903, 0.0001556116, 0.08730289, 0.06792895, 1.000014
 102240754, -0.03244791, 0.006949645, 5.860835E-05, 0.08725605, 0.06735262, 1.000013, -0.01744318, -0.05866519, -9.045402E-05, 0.08737379, 0.06687691, 1.000012
 102340714, -0.08194476, -0.0609825, -5.327893E-06, 0.08697424, 0.06687466, 1.000013, -0.03244791, 0.006949645, 5.860835E-05, 0.08725605, 0.06735262, 1.000013
 102440674, 0.06896518, -0.05539394, -0.0002044937, 0.08834413, 0.06683972, 1.000011, -0.08194476, -0.0609825, -5.327893E-06, 0.08697424, 0.06687466, 1.000013
 102540634, -0.04901244, 0.03951171, 0.0001457271, 0.08717367, 0.06767973, 1.000014, 0.06896518, -0.05539394, -0.0002044937, 0.08834413, 0.06683972, 1.000011
 102640594, 0.06715924, -0.07555944, -0.0002418477, 0.08834356, 0.06673344, 1.00001, -0.04901244, 0.03951171, 0.0001457271, 0.08717367, 0.06767973, 1.000014
 102740554, -0.001427589, -0.05184761, -9.944558E-05, 0.08752623, 0.06690688, 1.000011, 0.06715924, -0.07555944, -0.0002418477, 0.08834356, 0.06673344, 1.00001
 102840514, -0.03635412, -0.003292875, 4.459869E-05, 0.08724227, 0.06725827, 1.000012, -0.001427589, -0.05184761, -9.944558E-05, 0.08752623, 0.06690688, 1.000011
 102940474, 0.07916952, 0.06698176, 1.994017E-05, 0.08844452, 0.0680726, 1.000012, -0.03635412, -0.003292875, 4.459869E-05, 0.08724227, 0.06725827, 1.000012
 103040434, 0.05506418, -5.851639E-05, -7.748935E-05, 0.08813474, 0.06728175, 1.000011, 0.07916952, 0.06698176, 1.994017E-05, 0.08844452, 0.0680726, 1.000012
 103140394, 0.02178854, -0.0104234, -5.109542E-05, 0.08775244, 0.06719797, 1.000011, 0.05506418, -5.851639E-05, -7.748935E-05, 0.08813474, 0.06728175, 1.000011
 103240354, -0.04719146, 0.04762384, 0.000159805, 0.08720468, 0.06777754, 1.000012, 0.02178854, -0.0104234, -5.109542E-05, 0.08775244, 0.06719797, 1.000011
 103340314, -0.01166876, 0.02625413, 6.787301E-05, 0.08744054, 0.06755093, 1.000012, -0.04719146, 0.04762384, 0.000159805, 0.08720468, 0.06777754, 1.000012
 103440274, -0.01336976, 0.03151754, 8.064024E-05, 0.08742768, 0.06760601, 1.000012, -0.01166876, 0.02625413, 6.787301E-05, 0.08744054, 0.06755093, 1.000012
 103540234, 0.08133926, 0.04779179, -2.103447E-05, 0.08848201, 0.06780975, 1.000011, -0.01336976, 0.03151754, 8.064024E-05, 0.08742768, 0.06760601, 1.000012
 103640194, 0.04921442, 0.03087295, -8.85842E-06, 0.08806069, 0.06760409, 1.000011, 0.08133926, 0.04779179, -2.103447E-05, 0.08848201, 0.06780975, 1.000011
 103740154, -0.03890341, -0.010154, 3.49749E-05, 0.08723018, 0.0671941, 1.000012, 0.04921442, 0.03087295, -8.85842E-06, 0.08806069, 0.06760409, 1.000011
 103840947, 0.06705102, -0.06919637, -0.0002308226, 0.0883465, 0.06675746, 1.00001, -0.03890341, -0.010154, 3.49749E-05, 0.08723018, 0.0671941, 1.000012
 103940907, 0.07526931, -0.01056004, -0.0001270611, 0.08841612, 0.06716131, 1.000011, 0.06705102, -0.06919637, -0.0002308226, 0.0883465, 0.06675746, 1.00001
 104040867, -0.01376339, -0.05152788, -8.248406E-05, 0.08742265, 0.06689513, 1.000012, 0.07526931, -0.01056004, -0.0001270611, 0.08841612, 0.06716131, 1.000011
 104140827, -0.05820229, 0.08113738, 0.0002430571, 0.08717351, 0.06817809, 1.000015, -0.01376339, -0.05152788, -8.248406E-05, 0.08742265, 0.06689513, 1.000012
 104240787, 0.06760132, -0.03775206, -0.0001706148, 0.08832902, 0.06693263, 1.000011, -0.05820229, 0.08113738, 0.0002430571, 0.08717351, 0.06817809, 1.000015
 104340747, -0.01858274, -0.07454444, -0.0001218388, 0.0873974, 0.06677524, 1.000012, 0.06760132, -0.03775206, -0.0001706148, 0.08832902, 0.06693263, 1.000011
 104440707, 0.03614213, 0.03306046, 1.441553E-05, 0.08791568, 0.06760471, 1.000013, -0.01858274, -0.07454444, -0.0001218388, 0.0873974, 0.06677524, 1.000012
 104540667, -0.03316759, 0.04927803, 0.0001456654, 0.08730494, 0.06777012, 1.000014, 0.03614213, 0.03306046, 1.441553E-05, 0.08791568, 0.06760471, 1.000013
 104640627, 0.05198174, -0.08035758, -0.0002351381, 0.08817235, 0.06668944, 1.00001, -0.03316759, 0.04927803, 0.0001456654, 0.08730494, 0.06777012, 1.000014
 104740587, 0.02149326, -0.05695895, -0.0001448505, 0.08779057, 0.06682628, 1.000011, 0.05198174, -0.08035758, -0.0002351381, 0.08817235, 0.06668944, 1.00001
 104840547, 0.06999031, 0.02208608, -5.62207E-05, 0.08835148, 0.06746431, 1.000011, 0.02149326, -0.05695895, -0.0001448505, 0.08779057, 0.06682628, 1.000011
 104940507, -0.04680427, 0.04279316, 0.0001525752, 0.0872207, 0.0676809, 1.000013, 0.06999031, 0.02208608, -5.62207E-05, 0.08835148, 0.06746431, 1.000011
 105040467, -0.009439033, -0.02791596, -4.221295E-05, 0.08747182, 0.06702899, 1.000012, -0.04680427, 0.04279316, 0.0001525752, 0.0872207, 0.0676809, 1.000013
 105140427, 0.008146863, 0.02604613, 4.019142E-05, 0.08762982, 0.06752346, 1.000012, -0.009439033, -0.02791596, -4.221295E-05, 0.08747182, 0.06702899, 1.000012
 105240387, -0.01457494, 0.008867377, 3.836158E-05, 0.08742514, 0.06734909, 1.000012, 0.008146863, 0.02604613, 4.019142E-05, 0.08762982, 0.06752346, 1.000012
 105340347, -0.008555224, 0.04183551, 9.49174E-05, 0.08747903, 0.06770884, 1.000013, -0.01457494, 0.008867377, 3.836158E-05, 0.08742514, 0.06734909, 1.000012
 105440307, -0.01109631, -0.01609357, -1.604557E-05, 0.08744396, 0.06713995, 1.000012, -0.008555224, 0.04183551, 9.49174E-05, 0.08747903, 0.06770884, 1.000013
 105540267, 0.04791889, -0.05173207, -0.0001695099, 0.08807775, 0.06687085, 1.00001, -0.01109631, -0.01609357, -1.604557E-05, 0.08744396, 0.06713995, 1.000012
 105640227, -0.02540946, 0.05302097, 0.0001399484, 0.08734343, 0.06784954, 1.000013, 0.04791889, -0.05173207, -0.0001695099, 0.08807775, 0.06687085, 1.00001
 105740187, 0.05562287, 0.0133353, -5.191732E-05, 0.08813533, 0.06741165, 1.000011, -0.02540946, 0.05302097, 0.0001399484, 0.08734343, 0.06784954, 1.000013
 105840147, -0.05850567, -0.06644557, -4.829559E-05, 0.08709667, 0.0668488, 1.000012, 0.05562287, 0.0133353, -5.191732E-05, 0.08813533, 0.06741165, 1.000011
 105940940, 0.0006452685, 0.02301108, 4.41179E-05, 0.0875324, 0.06752098, 1.000013, -0.05850567, -0.06644557, -4.829559E-05, 0.08709667, 0.0668488, 1.000012
 106040900, 0.03180009, 0.04115588, 3.601112E-05, 0.08784482, 0.06773407, 1.000013, 0.0006452685, 0.02301108, 4.41179E-05, 0.0875324, 0.06752098, 1.000013
 106140860, -0.01849839, -0.06065009, -9.2649E-05, 0.08736982, 0.0668717, 1.000012, 0.03180009, 0.04115588, 3.601112E-05, 0.08784482, 0.06773407, 1.000013
 106240820, 0.01642505, 0.05814093, 9.055731E-05, 0.08768338, 0.06794771, 1.000013, -0.01849839, -0.06065009, -9.2649E-05, 0.08736982, 0.0668717, 1.000012
 106340780, -0.03082535, -0.04020735, -3.558932E-05, 0.08726329, 0.06699255, 1.000012, 0.01642505, 0.05814093, 9.055731E-05, 0.08768338, 0.06794771, 1.000013
 106440740, 0.04759105, -0.07172913, -0.0002058505, 0.08806509, 0.06677983, 1.000011, -0.03082535, -0.04020735, -3.558932E-05, 0.08726329, 0.06699255, 1.000012
 106540700, -0.06034438, 0.008554365, 0.0001003673, 0.0870859, 0.06736647, 1.000013, 0.04759105, -0.07172913, -0.0002058505, 0.08806509, 0.06677983, 1.000011
 106640660, -0.02580553, -0.04044723, -4.29296E-05, 0.08729918, 0.06699399, 1.000012, -0.06034438, 0.008554365, 0.0001003673, 0.0870859, 0.06736647, 1.000013
 106740620, -0.001584982, -0.02360742, -4.372119E-05, 0.08750483, 0.06710722, 1.000012, -0.02580553, -0.04044723, -4.29296E-05, 0.08729918, 0.06699399, 1.000012
 106840580, -0.06736034, 0.04028892, 0.0001723254, 0.0870782, 0.06768853, 1.000013, -0.001584982, -0.02360742, -4.372119E-05, 0.08750483, 0.06710722, 1.000012
 106940540, -0.02728276, 0.03186724, 0.0001000409, 0.08730058, 0.06761498, 1.000013, -0.06736034, 0.04028892, 0.0001723254, 0.0870782, 0.06768853, 1.000013
 107040500, -0.005822953, 0.03259239, 7.171323E-05, 0.08746449, 0.06762774, 1.000014, -0.02728276, 0.03186724, 0.0001000409, 0.08730058, 0.06761498, 1.000013
 107140460, -0.03896143, -0.008202946, 3.796833E-05, 0.08720437, 0.06722097, 1.000013, -0.005822953, 0.03259239, 7.171323E-05, 0.08746449, 0.06762774, 1.000014
 107240420, 0.01580855, -0.05097687, -0.0001215902, 0.08767922, 0.0669072, 1.000012, -0.03896143, -0.008202946, 3.796833E-05, 0.08720437, 0.06722097, 1.000013
 107340380, -0.01418184, -0.01319209, -6.184941E-06, 0.08738507, 0.06718107, 1.000013, 0.01580855, -0.05097687, -0.0001215902, 0.08767922, 0.0669072, 1.000012
 107440340, 0.0355543, 0.007067952, -3.526148E-05, 0.08787094, 0.06735933, 1.000013, -0.01418184, -0.01319209, -6.184941E-06, 0.08738507, 0.06718107, 1.000013
 107540300, 0.05031037, 0.00664416, -5.64647E-05, 0.08804642, 0.0673555, 1.000013, 0.0355543, 0.007067952, -3.526148E-05, 0.08787094, 0.06735933, 1.000013
 107640260, 0.01328147, -0.006131702, -3.029075E-05, 0.08763388, 0.06724501, 1.000013, 0.05031037, 0.00664416, -5.64647E-05, 0.08804642, 0.0673555, 1.000013
 107740220, -0.06390981, -0.01012465, 6.858939E-05, 0.08705477, 0.0672034, 1.000014, 0.01328147, -0.006131702, -3.029075E-05, 0.08763388, 0.06724501, 1.000013
 107840180, -0.03282722, -0.02138371, 3.730238E-06, 0.08724313, 0.06712143, 1.000013, -0.06390981, -0.01012465, 6.858939E-05, 0.08705477, 0.0672034, 1.000014
 107940973, 0.06536019, -0.01557231, -0.0001211727, 0.08825909, 0.06714354, 1.000011, -0.03282722, -0.02138371, 3.730238E-06, 0.08724313, 0.06712143, 1.000013
 108040933, 0.007090346, 0.01781883, 2.492022E-05, 0.08758333, 0.06747276, 1.000013, 0.06536019, -0.01557231, -0.0001211727, 0.08825909, 0.06714354, 1.000011
 108140893, 0.03062485, -0.07196889, -0.0001834671, 0.08785889, 0.06678544, 1.000012, 0.007090346, 0.01781883, 2.492022E-05, 0.08758333, 0.06747276, 1.000013
 108240853, 0.014618, 0.02054652, 2.007698E-05, 0.08765204, 0.06749054, 1.000014, 0.03062485, -0.07196889, -0.0001834671, 0.08785889, 0.06678544, 1.000012
 108340813, 0.07075792, 0.02590486, -4.721268E-05, 0.08831395, 0.06754189, 1.000013, 0.014618, 0.02054652, 2.007698E-05, 0.08765204, 0.06749054, 1.000014
 108440773, -0.03357712, 0.008415624, 6.317554E-05, 0.08724524, 0.06735613, 1.000014, 0.07075792, 0.02590486, -4.721268E-05, 0.08831395, 0.06754189, 1.000013
 108540733, -0.07627598, -0.05300833, 1.705106E-06, 0.08699725, 0.06690198, 1.000014, -0.03357712, 0.008415624, 6.317554E-05, 0.08724524, 0.06735613, 1.000014
 108640693, -0.07611017, -0.06593557, -2.396783E-05, 0.08699977, 0.06684052, 1.000013, -0.07627598, -0.05300833, 1.705106E-06, 0.08699725, 0.06690198, 1.000014
 108740653, -0.05972161, 0.02985845, 0.0001422234, 0.0871054, 0.06755418, 1.000015, -0.07611017, -0.06593557, -2.396783E-05, 0.08699977, 0.06684052, 1.000013
 108840613, 0.05788413, 0.01879008, -4.358383E-05, 0.08815164, 0.06745759, 1.000013, -0.05972161, 0.02985845, 0.0001422234, 0.0871054, 0.06755418, 1.000015
 108940573, 0.01731988, 0.06855071, 0.0001115075, 0.08769797, 0.06806234, 1.000015, 0.05788413, 0.01879008, -4.358383E-05, 0.08815164, 0.06745759, 1.000013
 109040533, 0.06486177, -0.05480842, -0.0001992582, 0.08828606, 0.06682713, 1.000012, 0.01731988, 0.06855071, 0.0001115075, 0.08769797, 0.06806234, 1.000015
 109140493, -0.01361752, 0.03152801, 8.159413E-05, 0.08741347, 0.06758675, 1.000014, 0.06486177, -0.05480842, -0.0001992582, 0.08828606, 0.06682713, 1.000012
 109240453, 0.07333491, 0.05975217, 1.544916E-05, 0.08836237, 0.06794958, 1.000013, -0.01361752, 0.03152801, 8.159413E-05, 0.08741347, 0.06758675, 1.000014
 109340413, 0.02215363, -0.0111456, -5.329611E-05, 0.08775035, 0.06716613, 1.000013, 0.07333491, 0.05975217, 1.544916E-05, 0.08836237, 0.06794958, 1.000013
 109440373, -0.02785863, 0.00166179, 4.252762E-05, 0.08730259, 0.0672774, 1.000014, 0.02215363, -0.0111456, -5.329611E-05, 0.08775035, 0.06716613, 1.000013
 109540333, -0.02442437, -0.01706191, 4.119611E-07, 0.08732738, 0.06711567, 1.000014, -0.02785863, 0.00166179, 4.252762E-05, 0.08730259, 0.0672774, 1.000014
 109640293, -0.05329747, -0.0007253932, 7.378892E-05, 0.08714109, 0.06724107, 1.000014, -0.02442437, -0.01706191, 4.119611E-07, 0.08732738, 0.06711567, 1.000014
 109740253, 0.037585, 0.03661223, 2.000223E-05, 0.0879269, 0.06763662, 1.000014, -0.05329747, -0.0007253932, 7.378892E-05, 0.08714109, 0.06724107, 1.000014
 109840213, -0.005048642, -0.07353667, -0.0001403854, 0.0875205, 0.06675613, 1.000012, 0.037585, 0.03661223, 2.000223E-05, 0.0879269, 0.06763662, 1.000014
 109940173, 0.06498715, 0.03223911, -2.790949E-05, 0.08827315, 0.06757414, 1.000013, -0.005048642, -0.07353667, -0.0001403854, 0.0875205, 0.06675613, 1.000012
 110040966, -0.03261237, 0.06530988, 0.0001783287, 0.08732027, 0.06795427, 1.000015, 0.06498715, 0.03223911, -2.790949E-05, 0.08827315, 0.06757414, 1.000013
 110140926, -0.07233844, 0.0341033, 0.0001723667, 0.08708751, 0.06755231, 1.000014, -0.03261237, 0.06530988, 0.0001783287, 0.08732027, 0.06795427, 1.000015
 110240886, 0.02064646, -0.05052345, -0.0001313282, 0.08777688, 0.06685314, 1.000012, -0.07233844, 0.0341033, 0.0001723667, 0.08708751, 0.06755231, 1.000014
 110340846, -0.0003183605, -0.02750216, -5.478159E-05, 0.08755454, 0.0670183, 1.000012, 0.02064646, -0.05052345, -0.0001313282, 0.08777688, 0.06685314, 1.000012
 110440806, -0.0131032, -0.06607128, -0.000113639, 0.08744995, 0.0667955, 1.000012, -0.0003183605, -0.02750216, -5.478159E-05, 0.08755454, 0.0670183, 1.000012
 110540766, -0.02951215, 0.02304174, 8.80968E-05, 0.08731654, 0.06747528, 1.000013, -0.0131032, -0.06607128, -0.000113639, 0.08744995, 0.0667955, 1.000012
 110640726, 0.008225, 0.0635968, 0.000114824, 0.08763923, 0.06797936, 1.000013, -0.02951215, 0.02304174, 8.80968E-05, 0.08731654, 0.06747528, 1.000013
 110740686, -0.06083548, -0.04691088, -6.621172E-06, 0.08710209, 0.06692299, 1.000012, 0.008225, 0.0635968, 0.000114824, 0.08763923, 0.06797936, 1.000013
 110840646, -0.007627098, 0.07678454, 0.000162645, 0.08750066, 0.0681635, 1.000014, -0.06083548, -0.04691088, -6.621172E-06, 0.08710209, 0.06692299, 1.000012
 110940606, -0.02073755, -0.06740291, -0.0001039687, 0.08737257, 0.06681672, 1.000012, -0.007627098, 0.07678454, 0.000162645, 0.08750066, 0.0681635, 1.000014
 111040566, 0.04652435, 0.009332772, -4.715355E-05, 0.0880288, 0.06736021, 1.000012, -0.02073755, -0.06740291, -0.0001039687, 0.08737257, 0.06681672, 1.000012
 111140526, 0.003537968, 0.00114889, -2.709468E-06, 0.08756403, 0.06729046, 1.000012, 0.04652435, 0.009332772, -4.715355E-05, 0.0880288, 0.06736021, 1.000012
 111240486, -0.06116565, 0.06673554, 0.0002169314, 0.08713635, 0.06799623, 1.000014, 0.003537968, 0.00114889, -2.709468E-06, 0.08756403, 0.06729046, 1.000012
 111340446, -0.04355228, -0.01893959, 2.391882E-05, 0.08718826, 0.06712982, 1.000012, -0.06116565, 0.06673554, 0.0002169314, 0.08713635, 0.06799623, 1.000014
 111440406, 0.02718103, -0.003013768, -4.393019E-05, 0.08779849, 0.06726543, 1.000011, -0.04355228, -0.01893959, 2.391882E-05, 0.08718826, 0.06712982, 1.000012
 111540366, -0.07103379, -0.0610575, -2.00745E-05, 0.0870254, 0.06688146, 1.000012, 0.02718103, -0.003013768, -4.393019E-05, 0.08779849, 0.06726543, 1.000011
 111640326, -0.03711979, 0.05885128, 0.0001663489, 0.08725163, 0.06793033, 1.000014, -0.07103379, -0.0610575, -2.00745E-05, 0.0870254, 0.06688146, 1.000012
 111740286, -0.02896318, 0.03049482, 9.962735E-05, 0.08728878, 0.06760246, 1.000013, -0.03711979, 0.05885128, 0.0001663489, 0.08725163, 0.06793033, 1.000014
 111840246, 0.03201816, -0.02720316, -9.738667E-05, 0.08785001, 0.06707103, 1.000011, -0.02896318, 0.03049482, 9.962735E-05, 0.08728878, 0.06760246, 1.000013
 111940206, 0.03491168, 0.05403695, 5.653399E-05, 0.08787197, 0.06790756, 1.000013, 0.03201816, -0.02720316, -9.738667E-05, 0.08785001, 0.06707103, 1.000011
 112040166, -0.05166575, -0.01107411, 5.006975E-05, 0.08712416, 0.06720787, 1.000013, 0.03491168, 0.05403695, 5.653399E-05, 0.08787197, 0.06790756, 1.000013
 112140959, 0.05268075, 0.06979952, 6.258186E-05, 0.08807795, 0.06812684, 1.000013, -0.05166575, -0.01107411, 5.006975E-05, 0.08712416, 0.06720787, 1.000013
 112240919, -0.05732631, 0.05244678, 0.0001809588, 0.08712196, 0.06784463, 1.000014, 0.05268075, 0.06979952, 6.258186E-05, 0.08807795, 0.06812684, 1.000013
 112340879, -0.04871073, -0.06960785, -6.774146E-05, 0.08713596, 0.06685442, 1.000012, -0.05732631, 0.05244678, 0.0001809588, 0.08712196, 0.06784463, 1.000014
 112440839, -0.06139207, -0.02169232, 4.249647E-05, 0.08705921, 0.06712932, 1.000013, -0.04871073, -0.06960785, -6.774146E-05, 0.08713596, 0.06685442, 1.000012
 112540799, 0.009902927, 0.07247542, 0.0001266461, 0.08761073, 0.06815484, 1.000014, -0.06139207, -0.02169232, 4.249647E-05, 0.08705921, 0.06712932, 1.000013
 112640759, 0.03072594, -0.0310061, -0.0001021722, 0.08782105, 0.06705482, 1.000012, 0.009902927, 0.07247542, 0.0001266461, 0.08761073, 0.06815484, 1.000014
 112740719, -0.04079197, -0.003347525, 4.95967E-05, 0.08718167, 0.06728081, 1.000013, 0.03072594, -0.0310061, -0.0001021722, 0.08782105, 0.06705482, 1.000012
 112840679, 0.02573578, 0.01193421, -1.229737E-05, 0.08775651, 0.0674281, 1.000013, -0.04079197, -0.003347525, 4.95967E-05, 0.08718167, 0.06728081, 1.000013
 112940639, -0.06462158, -0.05528141, -1.815135E-05, 0.08703808, 0.06692442, 1.000013, 0.02573578, 0.01193421, -1.229737E-05, 0.08775651, 0.0674281, 1.000013
 113040599, -0.05557153, 0.04589796, 0.0001654814, 0.08712073, 0.06777095, 1.000014, -0.06462158, -0.05528141, -1.815135E-05, 0.08703808, 0.06692442, 1.000013
 113140559, 0.05569442, 0.00509793, -6.685629E-05, 0.08811168, 0.06735259, 1.000012, -0.05557153, 0.04589796, 0.0001654814, 0.08712073, 0.06777095, 1.000014
 113240519, -0.01095473, -0.04654059, -7.510198E-05, 0.08741395, 0.06696279, 1.000012, 0.05569442, 0.00509793, -6.685629E-05, 0.08811168, 0.06735259, 1.000012
 113340479, 0.05253645, -0.004850378, -8.194748E-05, 0.08807751, 0.06725653, 1.000012, -0.01095473, -0.04654059, -7.510198E-05, 0.08741395, 0.06696279, 1.000012
 113440439, 0.03258197, 0.01120272, -2.323697E-05, 0.08783602, 0.06741536, 1.000013, 0.05253645, -0.004850378, -8.194748E-05, 0.08807751, 0.06725653, 1.000012
 113540399, -0.07776383, -0.05969741, -8.518276E-06, 0.08698204, 0.06689539, 1.000013, 0.03258197, 0.01120272, -2.323697E-05, 0.08783602, 0.06741536, 1.000013
 113640359, 0.02925505, -0.07823141, -0.0001930917, 0.08784461, 0.06676806, 1.000011, -0.07776383, -0.05969741, -8.518276E-06, 0.08698204, 0.06689539, 1.000013
 113740319, -0.0008165849, -0.01889309, -3.579657E-05, 0.0875032, 0.06713715, 1.000013, 0.02925505, -0.07823141, -0.0001930917, 0.08784461, 0.06676806, 1.000011
 113840279, -0.07693376, -0.02695365, 5.374701E-05, 0.08699097, 0.06706816, 1.000014, -0.0008165849, -0.01889309, -3.579657E-05, 0.0875032, 0.06713715, 1.000013
 113940239, -0.05651482, -0.01228911, 5.440175E-05, 0.0870988, 0.06717639, 1.000014, -0.07693376, -0.02695365, 5.374701E-05, 0.08699097, 0.06706816, 1.000014
 114040199, 0.02808012, -0.01554327, -6.975672E-05, 0.08780345, 0.06714319, 1.000013, -0.05651482, -0.01228911, 5.440175E-05, 0.0870988, 0.06717639, 1.000014
 114140159, -0.06516191, 0.02485316, 0.0001401278, 0.08707768, 0.06749797, 1.000015, 0.02808012, -0.01554327, -6.975672E-05, 0.08780345, 0.06714319, 1.000013
 114240952, -0.06820796, -0.06404899, -3.14634E-05, 0.08704226, 0.06684036, 1.000014, -0.06516191, 0.02485316, 0.0001401278, 0.08707768, 0.06749797, 1.000015
 114340912, -0.006455475, -0.035178, -6.074367E-05, 0.08747214, 0.06699038, 1.000013, -0.06820796, -0.06404899, -3.14634E-05, 0.08704226, 0.06684036, 1.000014
 114440872, -0.07501427, -0.01983271, 6.604893E-05, 0.08702151, 0.0670907, 1.000014, -0.006455475, -0.035178, -6.074367E-05, 0.08747214, 0.06699038, 1.000013
 114540832, 0.0570243, 0.05905268, 3.761345E-05, 0.08815189, 0.06792642, 1.000014, -0.07501427, -0.01983271, 6.604893E-05, 0.08702151, 0.0670907, 1.000014
 114640792, -0.03674388, 0.05539757, 0.0001629034, 0.08726786, 0.06783533, 1.000016, 0.0570243, 0.05905268, 3.761345E-05, 0.08815189, 0.06792642, 1.000014
 114740752, -0.06985695, 0.003698123, 0.0001060432, 0.08705898, 0.06726548, 1.000015, -0.03674388, 0.05539757, 0.0001629034, 0.08726786, 0.06783533, 1.000016
 114840712, 0.0550499, 0.0301768, -1.724449E-05, 0.08813208, 0.06755492, 1.000014, -0.06985695, 0.003698123, 0.0001060432, 0.08705898, 0.06726548, 1.000015
 114940672, 0.02389108, -0.07480528, -0.0001845013, 0.08780898, 0.06672462, 1.000013, 0.0550499, 0.0301768, -1.724449E-05, 0.08813208, 0.06755492, 1.000014
 115040632, -0.03252915, -0.007839813, 3.029956E-05, 0.08727731, 0.06716314, 1.000015, 0.02389108, -0.07480528, -0.0001845013, 0.08780898, 0.06672462, 1.000013
 115140592, -0.02173355, 0.05176743, 0.000135792, 0.08737947, 0.06777863, 1.000016, -0.03252915, -0.007839813, 3.029956E-05, 0.08727731, 0.06716314, 1.000015
 115240552, 0.03419022, 0.000303199, -4.806857E-05, 0.08789684, 0.06722548, 1.000014, -0.02173355, 0.05176743, 0.000135792, 0.08737947, 0.06777863, 1.000016
 115340512, 0.0334281, -0.01825185, -8.429706E-05, 0.0878885, 0.06706908, 1.000014, 0.03419022, 0.000303199, -4.806857E-05, 0.08789684, 0.06722548, 1.000014
 115440472, 0.01054265, -0.04996867, -0.0001155504, 0.08764932, 0.06686008, 1.000014, 0.0334281, -0.01825185, -8.429706E-05, 0.0878885, 0.06706908, 1.000014
 115540432, -0.01785114, -0.06016299, -9.574147E-05, 0.08739031, 0.06681945, 1.000014, 0.01054265, -0.04996867, -0.0001155504, 0.08764932, 0.06686008, 1.000014
 115640392, 0.07654255, -0.0007026233, -0.0001093064, 0.08842608, 0.0672205, 1.000013, -0.01785114, -0.06016299, -9.574147E-05, 0.08739031, 0.06681945, 1.000014
 115740352, 0.01505451, 0.05341956, 8.571515E-05, 0.08768237, 0.06783792, 1.000015, 0.07654255, -0.0007026233, -0.0001093064, 0.08842608, 0.0672205, 1.000013
 115840312, 0.06874303, -0.02760073, -0.0001515816, 0.08832707, 0.06699878, 1.000013, 0.01505451, 0.05341956, 8.571515E-05, 0.08768237, 0.06783792, 1.000015
 115940272, 0.03505668, -0.03231131, -0.0001134362, 0.08789741, 0.06698639, 1.000013, 0.06874303, -0.02760073, -0.0001515816, 0.08832707, 0.06699878, 1.000013
 116040232, -0.03978897, 0.01917835, 9.369654E-05, 0.08721772, 0.06744029, 1.000015, 0.03505668, -0.03231131, -0.0001134362, 0.08789741, 0.06698639, 1.000013
