TimeUS,CAN,CAE,CAD,CAe
 77860510, 0, 0, 0, 0
 77940478, -1.229543, 1.540432, 0.03887039, 0.2022037
 78040438, -0.002739588, 0.003408345, -3.970465E-05, 0.0002593962
 78140398, -0.002757138, 0.003515122, -3.874182E-05, 0.0002593962
 78240358, -0.002621424, 0.003470247, -5.644447E-05, 0.0002593962
 78340318, -0.002761999, 0.003477761, 6.229769E-05, 0.0002593962
 78440278, -0.002749534, 0.003406173, -0.0001115162, 0.0002593962
 78540238, -0.002700665, 0.003569103, -0.0001241569, 0.0002593962
 78640198, -0.002620293, 0.003506333, 0.0001710112, 0.0002593962
 78740158, -0.002801855, 0.003484797, 2.240238E-05, 0.0002593962
 78840951, -0.002812435, 0.003461841, -0.000112624, 0.0002615578
 78940911, -0.002704889, 0.003636614, 5.378479E-05, 0.0002593962
 79040871, -0.002718053, 0.003504405, -0.0001152722, 0.0002593962
 79140831, -0.002661623, 0.003640191, 5.757889E-05, 0.0002593962
 79240791, -0.002978207, 0.003560336, -3.646345E-05, 0.0002593962
 79340751, -0.002696461, 0.003484622, -9.106807E-05, 0.0002593962
 79440711, -0.002719649, 0.003462615, 1.443285E-05, 0.0002593962
 79540671, -0.002856686, 0.003490586, -2.688284E-06, 0.0002593962
 79640631, -0.002698326, 0.00355045, 1.946624E-05, 0.0002593962
 79740591, -0.002821549, 0.003489655, -2.919936E-05, 0.0002593962
 79840551, -0.002857391, 0.003604558, 1.556727E-05, 0.0002593962
 79940511, -0.002729718, 0.003328606, -6.746453E-05, 0.0002593962
 80040471, -0.002757905, 0.003581279, 0.0001552437, 0.0002593962
 80140431, -0.00287722, 0.003460162, -4.984769E-05, 0.0002593962
 80240391, -0.002594897, 0.003554242, 6.692113E-06, 0.0002593962
 80340351, -0.002661172, 0.003486498, 0.0001243952, 0.0002593962
 80440311, -0.002675016, 0.003460608, -1.993335E-05, 0.0002593962
 80540271, -0.002731039, 0.003489447, -6.469998E-05, 0.0002593962
 80640231, -0.002755187, 0.003438417, 0.0001077507, 0.0002593962
 80740191, -0.002612708, 0.003444922, -0.0001604201, 0.0002593962
 80840151, -0.002674626, 0.003465172, 0.0001022788, 0.0002593962
 80940944, -0.0026642, 0.003499524, -7.883692E-05, 0.0002615578
 81040904, -0.002865878, 0.003648988, -3.069603E-05, 0.0002593962
 81140864, -0.002714592, 0.003604662, -1.698768E-05, 0.0002593962
 81240824, -0.002710869, 0.003461366, -3.574849E-05, 0.0002593962
 81340784, -0.002727663, 0.003561045, 1.704487E-05, 0.0002593962
 81440744, -0.002662532, 0.003468129, -0.000131583, 0.0002593962
 81540704, -0.002675422, 0.003446124, -2.014308E-05, 0.0002593962
 81640664, -0.002742621, 0.003505908, 2.26121E-05, 0.0002593962
 81740624, -0.002744461, 0.003508623, 1.434706E-05, 0.0002593962
 81840584, -0.00267949, 0.003387791, -8.898988E-05, 0.0002593962
 81940544, -0.002742265, 0.00337532, -9.781738E-05, 0.0002593962
 82040504, -0.00274212, 0.003400338, 3.436621E-05, 0.0002593962
 82140464, -0.002867927, 0.003445277, -1.341283E-05, 0.0002593962
 82240424, -0.002802878, 0.003417465, -5.680672E-05, 0.0002593962
 82340384, -0.002758415, 0.00330964, 2.66636E-05, 0.0002593962
 82440344, -0.002769248, 0.003480271, 1.810303E-05, 0.0002593962
 82540304, -0.00268642, 0.003609923, 5.090584E-05, 0.0002593962
 82640264, -0.002728694, 0.003547237, -0.0001206869, 0.0002593962
 82740224, -0.002564347, 0.003428304, -4.726426E-05, 0.0002593962
 82840184, -0.003039414, 0.003475201, -3.047677E-05, 0.0002593962
 82940977, -0.002785232, 0.003506211, 5.107744E-05, 0.0002593962
 83040937, -0.002801456, 0.003650013, 7.834876E-05, 0.0002615578
 83140897, -0.002802502, 0.003539765, 5.822712E-05, 0.0002593962
 83240857, -0.002717803, 0.003579887, 0.0001443857, 0.0002593962
 83340817, -0.002854122, 0.003496611, -4.810316E-05, 0.0002593962
 83440777, -0.002793441, 0.003510014, 7.719765E-05, 0.0002593962
 83540737, -0.002563227, 0.003439947, 3.193529E-06, 0.0002593962
 83640697, -0.002722342, 0.003361513, 2.564359E-06, 0.0002593962
 83740657, -0.002679499, 0.00344553, 4.959029E-05, 0.0002593962
 83840617, -0.002705781, 0.003426228, 7.07248E-05, 0.0002593962
 83940577, -0.002886278, 0.003448426, 7.166855E-05, 0.0002593962
 84040537, -0.002752835, 0.003516038, -0.0001080462, 0.0002593962
 84140497, -0.002822259, 0.003503828, 2.336521E-05, 0.0002593962
 84240457, -0.002729844, 0.003504653, 1.80077E-05, 0.0002593962
 84340417, -0.002843912, 0.00354967, 0.0001280558, 0.0002593962
 84440377, -0.002760517, 0.003563229, 9.866582E-06, 0.0002593962
 84540337, -0.002731519, 0.003485906, -0.0001035943, 0.0002593962
 84640297, -0.002780613, 0.003510261, -9.118245E-05, 0.0002593962
 84740257, -0.002781534, 0.003579497, -4.879906E-05, 0.0002593962
 84840217, -0.002855049, 0.003430429, -0.000109581, 0.0002593962
 84940177, -0.002800518, 0.003535512, -5.834152E-06, 0.0002593962
 85040970, -0.002790272, 0.003483086, -6.157318E-05, 0.0002593962
 85140930, -0.002920225, 0.003472184, -0.0001163128, 0.0002615578
 85240890, -0.002817502, 0.00345836, 5.796021E-05, 0.0002593962
 85340850, -0.002831081, 0.003438711, -7.457609E-05, 0.0002593962
 85440810, -0.002828186, 0.003498182, 2.548152E-05, 0.0002593962
 85540770, -0.002668591, 0.003490329, -8.459521E-05, 0.0002593962
 85640730, -0.002763426, 0.003501533, 3.491912E-05, 0.0002593962
 85740690, -0.002790054, 0.003508814, 1.49953E-05, 0.0002593962
 85840650, -0.002755594, 0.003344384, 0.0001768072, 0.0002593962
 85940610, -0.002690842, 0.003552553, 1.218308E-05, 0.0002593962
 86040570, -0.002778902, 0.00357115, 0.0001374839, 0.0002593962
 86140530, -0.002676978, 0.003433355, -0.0001032416, 0.0002593962
 86240490, -0.002824689, 0.003518823, -9.08488E-06, 0.0002593962
 86340450, -0.002789797, 0.003296466, -0.0001861304, 0.0002593962
 86440410, -0.00281393, 0.003439108, -6.529103E-05, 0.0002593962
 86540370, -0.002752031, 0.003562184, -4.451878E-05, 0.0002593962
 86640330, -0.002861331, 0.00337337, -1.111539E-05, 0.0002593962
 86740290, -0.002797591, 0.003457534, -7.655895E-05, 0.0002593962
 86840250, -0.00279635, 0.003385207, -0.0001150052, 0.0002593962
 86940210, -0.002683379, 0.003475903, -5.370852E-05, 0.0002593962
 87040170, -0.002660837, 0.003448314, -0.0001345192, 0.0002593962
 87140963, -0.002790179, 0.003498812, -5.329306E-06, 0.0002615578
 87240923, -0.002755631, 0.003537361, 5.327E-05, 0.0002593962
 87340883, -0.002778012, 0.003521329, -0.0001574363, 0.0002593962
 87440843, -0.002667005, 0.003500787, 9.773158E-05, 0.0002593962
 87540803, -0.002727821, 0.003709509, -1.537661E-05, 0.0002593962
 87640763, -0.002697027, 0.003408889, 6.672781E-08, 0.0002593962
 87740723, -0.002675905, 0.003369964, -3.779806E-05, 0.0002593962
 87840683, -0.002648157, 0.003656204, -9.157331E-05, 0.0002593962
 87940643, -0.002707483, 0.003332505, 0.0001323838, 0.0002593962
 88040603, -0.002786747, 0.003274196, -1.401342E-06, 0.0002593962
 88140563, -0.002767404, 0.003402855, 0.0001110586, 0.0002593962
 88240523, -0.002728864, 0.003499, -8.121102E-05, 0.0002593962
 88340483, -0.002851965, 0.003443867, -3.960932E-05, 0.0002593962
 88440443, -0.002930858, 0.003573662, -8.579636E-05, 0.0002593962
 88540403, -0.002789202, 0.003515446, 4.86942E-05, 0.0002593962
 88640363, -0.002869038, 0.003521377, -0.0001289996, 0.0002593962
 88740323, -0.002793157, 0.003526335, 3.723562E-05, 0.0002593962
 88840283, -0.002886387, 0.003514017, -5.851311E-05, 0.0002593962
 88940243, -0.002801499, 0.003514298, 0.0001159013, 0.0002593962
 89040203, -0.002908409, 0.003555618, -2.661593E-05, 0.0002593962
 89140163, -0.002672075, 0.003534078, -0.0001166926, 0.0002593962
 89240956, -0.002760426, 0.003558561, -6.400209E-05, 0.0002615578
 89340916, -0.002797019, 0.003591883, 6.652077E-05, 0.0002593962
 89440876, -0.002820817, 0.003541354, -0.0001039947, 0.0002593962
 89540836, -0.002834012, 0.003529655, 0.0001273504, 0.0002593962
 89640796, -0.002611925, 0.003526014, -4.178282E-05, 0.0002593962
 89740756, -0.002884367, 0.003427248, -6.106794E-05, 0.0002593962
 89840716, -0.002659549, 0.003502172, -6.282199E-05, 0.0002593962
 89940676, -0.002684219, 0.003490871, -0.0001116306, 0.0002593962
 90040636, -0.002685484, 0.003477819, -9.161145E-06, 0.0002593962
 90140596, -0.002696892, 0.003460217, 6.080102E-05, 0.0002593962
 90240556, -0.002808354, 0.003449436, -0.0001268547, 0.0002593962
 90340516, -0.002782539, 0.00340208, 5.872285E-05, 0.0002593962
 90440476, -0.002674463, 0.003553272, -3.386096E-05, 0.0002593962
 90540436, -0.002684786, 0.003556394, -1.528129E-05, 0.0002593962
 90640396, -0.002742461, 0.003477738, 7.788403E-06, 0.0002593962
 90740356, -0.002671598, 0.003474365, 1.185896E-05, 0.0002593962
 90840316, -0.002686088, 0.003424781, -6.059129E-05, 0.0002593962
 90940276, -0.002601417, 0.003581613, 6.928533E-05, 0.0002593962
 91040236, -0.002709313, 0.00346493, 2.040047E-06, 0.0002593962
 91140196, -0.002754595, 0.003483809, 7.68926E-05, 0.0002593962
 91240156, -0.002649375, 0.003575027, -4.928524E-06, 0.0002593962
 91340949, -0.002744279, 0.003554352, 7.575897E-05, 0.0002615578
 91440909, -0.002708287, 0.003614221, 1.387994E-05, 0.0002593962
 91540869, -0.002892045, 0.003595284, -9.656857E-05, 0.0002593962
 91640829, -0.002737499, 0.003296063, -7.900891E-05, 0.0002593962
 91740789, -0.00279532, 0.003482677, -0.0002255396, 0.0002593962
 91840749, -0.002672351, 0.003409313, -0.0001444048, 0.0002593962
 91940709, -0.002728878, 0.003382773, 6.03339E-05, 0.0002593962
 92040669, -0.002808223, 0.003546557, 6.770286E-05, 0.0002593962
 92140629, -0.002797851, 0.00344991, -7.405179E-05, 0.0002593962
 92240589, -0.002688199, 0.003498116, 0.0001179033, 0.0002593962
 92340549, -0.002681697, 0.003371818, -1.265019E-05, 0.0002593962
 92440509, -0.00278237, 0.003359405, 1.26216E-05, 0.0002593962
 92540469, -0.002666704, 0.003442019, 7.287924E-05, 0.0002593962
 92640429, -0.002790162, 0.003472149, 0.0001954727, 0.0002593962
 92740389, -0.002788811, 0.003417684, -2.653967E-05, 0.0002593962
 92840349, -0.002718356, 0.003430158, 2.405158E-05, 0.0002593962
 92940309, -0.002762001, 0.003422078, 2.885617E-05, 0.0002593962
 93040269, -0.002616742, 0.003558866, -8.862764E-05, 0.0002593962
 93140229, -0.002768801, 0.003513043, -2.138236E-05, 0.0002593962
 93240189, -0.002701217, 0.003446315, -6.859895E-05, 0.0002593962
 93340149, -0.002846052, 0.003474954, -2.19448E-05, 0.0002593962
 93440942, -0.002710677, 0.003435096, -7.696966E-05, 0.0002615578
 93540902, -0.002759245, 0.003402559, 6.465232E-05, 0.0002593962
 93640862, -0.002773896, 0.003547663, -3.653971E-05, 0.0002593962
 93740822, -0.00276189, 0.003473587, -3.594867E-05, 0.0002593962
 93840782, -0.002757774, 0.003513981, -0.0001391045, 0.0002593962
 93940742, -0.002811312, 0.003497602, 0.0001769407, 0.0002593962
 94040702, -0.00281732, 0.003539675, -2.261211E-05, 0.0002593962
 94140662, -0.002584781, 0.003535081, 1.185896E-05, 0.0002593962
 94240622, -0.002719822, 0.003448781, -0.0001024599, 0.0002593962
 94340582, -0.002641591, 0.003430063, -7.567238E-05, 0.0002593962
 94440542, -0.002748023, 0.003603353, 1.7369E-05, 0.0002593962
 94540502, -0.002731756, 0.003597512, 5.367041E-06, 0.0002593962
 94640462, -0.002963311, 0.003452652, -3.54911E-05, 0.0002593962
 94740422, -0.002922619, 0.003386818, -0.000121316, 0.0002593962
 94840382, -0.002884395, 0.003398126, -7.959996E-05, 0.0002593962
 94940342, -0.002721397, 0.003403441, -8.369912E-05, 0.0002593962
 95040302, -0.002688932, 0.003535673, 7.924723E-05, 0.0002593962
 95140262, -0.002722102, 0.003381822, -9.637788E-06, 0.0002593962
 95240222, -0.002872122, 0.003486933, 1.780751E-05, 0.0002593962
 95340182, -0.002713996, 0.003488207, -4.300304E-05, 0.0002593962
 95440975, -0.002829651, 0.003480861, -1.64443E-05, 0.0002593962
 95540935, -0.002884079, 0.003511749, 7.316521E-07, 0.0002615578
 95640895, -0.002697598, 0.003701726, 6.796978E-06, 0.0002593962
 95740855, -0.002709672, 0.003492932, 3.546249E-06, 0.0002593962
 95840815, -0.002731846, 0.00341076, -8.449035E-05, 0.0002593962
 95940775, -0.002769398, 0.003448683, 0.0001080843, 0.0002593962
 96040735, -0.002844979, 0.003633342, -9.209762E-05, 0.0002593962
 96140695, -0.002769204, 0.003400822, 5.117276E-05, 0.0002593962
 96240655, -0.002795907, 0.003175692, 5.529095E-06, 0.0002593962
 96340615, -0.002762876, 0.003329725, -8.509092E-05, 0.0002593962
 96440575, -0.002650437, 0.003362417, -1.770265E-05, 0.0002593962
 96540535, -0.002741168, 0.003504571, 0.0002419171, 0.0002593962
 96640495, -0.002682065, 0.003414854, 2.9962E-05, 0.0002593962
 96740455, -0.002695208, 0.003367643, 8.536738E-05, 0.0002593962
 96840415, -0.002866621, 0.003407757, 7.308896E-05, 0.0002593962
 96940375, -0.00280742, 0.003426269, -1.837949E-05, 0.0002593962
 97040335, -0.002791226, 0.003633979, 5.643494E-05, 0.0002593962
 97140295, -0.002696645, 0.003406145, 1.826509E-05, 0.0002593962
 97240255, -0.002767491, 0.003453878, -1.80649E-05, 0.0002593962
 97340215, -0.002656581, 0.003309906, -1.539568E-05, 0.0002593962
 97440175, -0.002816436, 0.003535785, 3.06865E-05, 0.0002593962
 97540968, -0.002707569, 0.003563051, 2.068566E-05, 0.0002615578
 97640928, -0.00276251, 0.003310797, -4.038148E-05, 0.0002593962
 97740888, -0.002813275, 0.003524052, -3.622513E-05, 0.0002593962
 97840848, -0.002644673, 0.003569955, 3.450919E-06, 0.0002593962
 97940808, -0.002753141, 0.003486948, -9.723587E-05, 0.0002593962
 98040768, -0.002548827, 0.003639774, -3.547203E-05, 0.0002593962
 98140728, -0.002721122, 0.003433641, -1.839855E-06, 0.0002593962
 98240688, -0.00271842, 0.003378549, 8.043885E-05, 0.0002593962
 98340648, -0.002716276, 0.00348781, -8.655899E-05, 0.0002593962
 98440608, -0.002869167, 0.003437495, 8.289835E-05, 0.0002593962
 98540568, -0.002796784, 0.003445747, 3.970465E-05, 0.0002593962
 98640528, -0.002788317, 0.003348019, 1.868455E-06, 0.0002593962
 98740488, -0.00290996, 0.003421035, -0.0001297241, 0.0002593962
 98840448, -0.002641706, 0.003646908, -0.0001137088, 0.0002593962
 98940408, -0.002808569, 0.003427575, -1.167784E-05, 0.0002593962
 99040368, -0.002749872, 0.003482902, 0.0001059108, 0.0002593962
 99140328, -0.002714889, 0.003476391, 8.064857E-06, 0.0002593962
 99240288, -0.002664101, 0.003535589, -1.205915E-05, 0.0002593962
 99340248, -0.002633702, 0.003594022, -5.910419E-07, 0.0002593962
 99440208, -0.002754924, 0.003624832, 0.0001475888, 0.0002593962
 99540168, -0.002806729, 0.003543616, 2.417551E-05, 0.0002593962
 99640961, -0.002830391, 0.003515082, -5.742279E-05, 0.0002615578
 99740921, -0.002837452, 0.003581942, -7.234539E-05, 0.0002593962
 99840881, -0.002799402, 0.003590416, -6.91328E-05, 0.0002593962
 99940841, -0.002777083, 0.003499718, 8.052465E-05, 0.0002593962
 100040801, -0.002784792, 0.003640715, 1.670169E-05, 0.0002593962
 100140761, -0.002611916, 0.0034286, 9.144939E-05, 0.0002593962
 100240721, -0.002777954, 0.003496251, 6.880867E-05, 0.0002593962
 100340681, -0.002871923, 0.003589002, -7.78745E-05, 0.0002593962
 100440641, -0.002504136, 0.003475328, -6.796978E-06, 0.0002593962
 100540601, -0.00261394, 0.003645708, 3.430901E-05, 0.0002593962
 100640561, -0.00268522, 0.003492292, 6.286966E-05, 0.0002593962
 100740521, -0.002728217, 0.003383843, 6.293639E-05, 0.0002593962
 100840481, -0.002739324, 0.003529167, 0.0001421264, 0.0002593962
 100940441, -0.002738971, 0.003529486, 1.928511E-05, 0.0002593962
 101040401, -0.002636744, 0.003520043, -8.08011E-05, 0.0002593962
 101140361, -0.002657003, 0.003479785, -0.0002039761, 0.0002593962
 101240321, -0.002741014, 0.00349575, 0.0001032797, 0.0002593962
 101340281, -0.002733005, 0.003522322, 5.262176E-06, 0.0002593962
 101440241, -0.002765459, 0.003473815, -0.0001513352, 0.0002593962
 101540201, -0.002805124, 0.003383433, 5.201166E-05, 0.0002593962
 101640161, -0.002697331, 0.003409914, -0.0001112779, 0.0002593962
 101740954, -0.002622131, 0.003515312, -3.291839E-05, 0.0002615578
 101840914, -0.002820076, 0.003369657, -3.06293E-05, 0.0002593962
 101940874, -0.002865209, 0.00347377, -2.631088E-05, 0.0002593962
 102040834, -0.002710248, 0.00349261, 0.0001418404, 0.0002593962
 102140794, -0.002681231, 0.00355315, 4.08486E-05, 0.0002593962
 102240754, -0.002746367, 0.00348679, 8.188787E-06, 0.0002593962
 102340714, -0.002612191, 0.003454503, 7.53006E-05, 0.0002593962
 102440674, -0.002636329, 0.003502364, -2.767409E-05, 0.0002593962
 102540634, -0.002643719, 0.00353173, 9.17449E-05, 0.0002593962
 102640594, -0.002801462, 0.003359183, 0.0001859589, 0.0002593962
 102740554, -0.002728479, 0.003444057, 7.15637E-05, 0.0002593962
 102840514, -0.002671525, 0.003385491, -0.0002018884, 0.0002593962
 102940474, -0.002820939, 0.003581663, -6.170665E-05, 0.0002593962
 103040434, -0.002657475, 0.003382529, 8.210712E-05, 0.0002593962
 103140394, -0.00268421, 0.003507784, 0.0002607161, 0.0002593962
 103240354, -0.002804722, 0.003471345, -4.130618E-05, 0.0002593962
 103340314, -0.002788429, 0.003489708, 0.0001627843, 0.0002593962
 103440274, -0.002799292, 0.003340303, -0.0001267117, 0.0002593962
 103540234, -0.00273424, 0.003454644, -1.438519E-05, 0.0002593962
 103640194, -0.002592683, 0.003433642, -6.137299E-05, 0.0002593962
 103740154, -0.002699101, 0.003459438, -0.0001173599, 0.0002593962
 103840947, -0.002641279, 0.003636545, -3.87875E-05, 0.0002615578
 103940907, -0.002695104, 0.003530485, 0.0001042807, 0.0002593962
 104040867, -0.002781084, 0.003393142, 9.769345E-05, 0.0002593962
 104140827, -0.002817682, 0.003513137, 3.735002E-05, 0.0002593962
 104240787, -0.002600614, 0.003396527, -7.024815E-05, 0.0002593962
 104340747, -0.002689106, 0.003606386, -2.978087E-05, 0.0002593962
 104440707, -0.002834545, 0.003525712, 5.394685E-05, 0.0002593962
 104540667, -0.002667923, 0.003492489, -3.07151E-05, 0.0002593962
 104640627, -0.002623433, 0.003373781, -4.356548E-05, 0.0002593962
 104740587, -0.002844964, 0.003508167, -5.568183E-05, 0.0002593962
 104840547, -0.002676961, 0.003486156, -9.28126E-05, 0.0002593962
 104940507, -0.002745679, 0.003511363, -2.078177E-06, 0.0002593962
 105040467, -0.002821727, 0.003570119, -4.3861E-05, 0.0002593962
 105140427, -0.002765725, 0.003521572, -5.24311E-06, 0.0002593962
 105240387, -0.002712233, 0.003574336, 8.39851E-05, 0.0002593962
 105340347, -0.002857602, 0.003496697, -7.990501E-05, 0.0002593962
 105440307, -0.002793721, 0.003372962, 6.491924E-05, 0.0002593962
 105540267, -0.002642661, 0.003387853, -3.52623E-05, 0.0002593962
 105640227, -0.002700104, 0.003474033, -8.594889E-05, 0.0002593962
 105740187, -0.002735039, 0.003323324, -4.150637E-05, 0.0002593962
 105840147, -0.002763101, 0.003526172, 2.797915E-05, 0.0002593962
 105940940, -0.002619545, 0.003344537, 8.298216E-05, 0.0002615578
 106040900, -0.00277555, 0.00343884, -8.467148E-05, 0.0002593962
 106140860, -0.002693354, 0.00343609, -8.383257E-05, 0.0002593962
 106240820, -0.00265204, 0.003381088, 5.53863E-06, 0.0002593962
 106340780, -0.002656603, 0.003523421, -9.08774E-05, 0.0002593962
 106440740, -0.002818383, 0.003525898, -3.510024E-05, 0.0002593962
 106540700, -0.002782189, 0.003496211, 0.0001041282, 0.0002593962
 106640660, -0.002792313, 0.003408564, 2.19734E-05, 0.0002593962
 106740620, -0.002720156, 0.003407882, 0.0001115257, 0.0002593962
 106840580, -0.002776709, 0.003528183, 3.679714E-06, 0.0002593962
 106940540, -0.002832025, 0.003366629, -0.00012348, 0.0002593962
 107040500, -0.002714182, 0.003389673, -0.0001805727, 0.0002593962
 107140460, -0.002741256, 0.003526038, 7.057227E-05, 0.0002593962
 107240420, -0.002733593, 0.003501201, -0.0001245477, 0.0002593962
 107340380, -0.002688276, 0.003431828, 0.0001154628, 0.0002593962
 107440340, -0.002763407, 0.003383027, -0.0001323838, 0.0002593962
 107540300, -0.002576911, 0.003423377, -5.233577E-06, 0.0002593962
 107640260, -0.002561444, 0.003503525, 2.789335E-05, 0.0002593962
 107740220, -0.002607695, 0.003596646, 2.693052E-05, 0.0002593962
 107840180, -0.002734826, 0.003380759, -7.570098E-05, 0.0002593962
 107940973, -0.002518367, 0.003460265, 5.828432E-05, 0.0002593962
 108040933, -0.002776098, 0.003492774, 0.0001276157, 0.0002615578
 108140893, -0.002514226, 0.003344308, -8.579591E-07, 0.0002593962
 108240853, -0.002602369, 0.003431779, -1.994289E-05, 0.0002593962
 108340813, -0.002734322, 0.003511008, -8.567243E-05, 0.0002593962
 108440773, -0.002807738, 0.0035628, 9.993369E-05, 0.0002593962
 108540733, -0.002738996, 0.003417603, -4.95045E-05, 0.0002593962
 108640693, -0.002675487, 0.003371089, -6.673035E-07, 0.0002593962
 108740653, -0.002665136, 0.003382524, 0.0001401054, 0.0002593962
 108840613, -0.002782413, 0.00352184, 2.916123E-05, 0.0002593962
 108940573, -0.002697741, 0.003451129, -8.127775E-05, 0.0002593962
 109040533, -0.002822987, 0.003440548, -7.77887E-06, 0.0002593962
 109140493, -0.00276358, 0.003387296, 1.687328E-06, 0.0002593962
 109240453, -0.002747244, 0.003485798, 0.0001131082, 0.0002593962
 109340413, -0.00288311, 0.003392982, -5.208792E-05, 0.0002593962
 109440373, -0.002838124, 0.003475466, -3.174464E-06, 0.0002593962
 109540333, -0.002794001, 0.003366525, 5.107743E-05, 0.0002593962
 109640293, -0.002731084, 0.003471129, 1.512876E-05, 0.0002593962
 109740253, -0.002689641, 0.003519241, -7.576772E-05, 0.0002593962
 109840213, -0.002750207, 0.003501076, -1.925651E-05, 0.0002593962
 109940173, -0.002695215, 0.003431599, 7.857993E-05, 0.0002593962
 110040966, -0.002711313, 0.003504402, -0.0001025918, 0.0002615578
 110140926, -0.002713881, 0.003384872, 7.721674E-07, 0.0002593962
 110240886, -0.002555086, 0.003555686, 8.554851E-05, 0.0002593962
 110340846, -0.002743599, 0.003470693, -0.0001515736, 0.0002593962
 110440806, -0.002902556, 0.00363287, -1.696861E-06, 0.0002593962
 110540766, -0.002810601, 0.003441032, 4.263125E-05, 0.0002593962
 110640726, -0.002662793, 0.003563833, 9.81987E-05, 0.0002593962
 110740686, -0.002700129, 0.00360045, -0.0001614115, 0.0002593962
 110840646, -0.002811106, 0.003513409, 2.089618E-05, 0.0002593962
 110940606, -0.00254124, 0.003596613, -4.166843E-05, 0.0002593962
 111040566, -0.002767265, 0.003556169, 3.501445E-05, 0.0002593962
 111140526, -0.002825565, 0.003399618, 1.322217E-05, 0.0002593962
 111240486, -0.002687129, 0.003547941, 2.224032E-05, 0.0002593962
 111340446, -0.002837396, 0.00352872, 7.743598E-05, 0.0002593962
 111440406, -0.00274957, 0.003521123, 0.0001334419, 0.0002593962
 111540366, -0.002747302, 0.003548362, 9.405187E-05, 0.0002593962
 111640326, -0.002793989, 0.003445071, -0.000103356, 0.0002593962
 111740286, -0.002820189, 0.003445616, -5.246924E-05, 0.0002593962
 111840246, -0.002778334, 0.003351202, 1.857014E-05, 0.0002593962
 111940206, -0.002688559, 0.003411029, -0.0001557681, 0.0002593962
 112040166, -0.00270845, 0.003554809, -0.0001133942, 0.0002593962
 112140959, -0.002695617, 0.003446901, -2.732495E-05, 0.0002615578
 112240919, -0.002805161, 0.003521384, 8.385164E-05, 0.0002593962
 112340879, -0.00265406, 0.003316773, -2.937095E-05, 0.0002593962
 112440839, -0.002705829, 0.003370636, 5.015274E-05, 0.0002593962
 112540799, -0.002723592, 0.003452946, 5.327953E-05, 0.0002593962
 112640759, -0.002704846, 0.003392897, 4.094393E-05, 0.0002593962
 112740719, -0.002636708, 0.003357193, -5.722617E-05, 0.0002593962
 112840679, -0.002663329, 0.003457081, 0.0001289233, 0.0002593962
 112940639, -0.002708801, 0.003398564, 4.047681E-05, 0.0002593962
 113040599, -0.002612222, 0.003384107, 0.0001443285, 0.0002593962
 113140559, -0.002709687, 0.003624553, 5.363226E-05, 0.0002593962
 113240519, -0.002791916, 0.003424928, -9.034356E-05, 0.0002593962
 113340479, -0.002699282, 0.003492586, -0.0001242522, 0.0002593962
 113440439, -0.002782614, 0.003427379, 0.0001474839, 0.0002593962
 113540399, -0.002669971, 0.0034853, 5.159221E-05, 0.0002593962
 113640359, -0.002651267, 0.003384989, -5.755982E-05, 0.0002593962
 113740319, -0.002593844, 0.003441047, 1.768358E-05, 0.0002593962
 113840279, -0.002845144, 0.00341516, 8.24503E-05, 0.0002593962
 113940239, -0.002561789, 0.003457567, 9.43188E-05, 0.0002593962
 114040199, -0.002713307, 0.003405792, 0.0001010967, 0.0002593962
 114140159, -0.002692987, 0.003401361, -6.468092E-05, 0.0002593962
 114240952, -0.002766757, 0.003466751, 2.300733E-05, 0.0002615578
 114340912, -0.002705568, 0.003498623, -0.0001353104, 0.0002593962
 114440872, -0.002761866, 0.003532344, -7.635874E-06, 0.0002593962
 114540832, -0.002764618, 0.003428696, 2.459495E-05, 0.0002593962
 114640792, -0.002740091, 0.003387019, -5.959987E-05, 0.0002593962
 114740752, -0.002591008, 0.00351743, -5.459508E-05, 0.0002593962
 114840712, -0.002810246, 0.003441174, 0.0001496098, 0.0002593962
 114940672, -0.002741019, 0.003557235, -4.596778E-05, 0.0002593962
 115040632, -0.002747763, 0.003502247, -0.000184567, 0.0002593962
 115140592, -0.002782818, 0.003497978, -2.849392E-05, 0.0002593962
 115240552, -0.002589192, 0.003450377, 2.631086E-06, 0.0002593962
 115340512, -0.002824952, 0.003556838, -0.0001525745, 0.0002593962
 115440472, -0.002569759, 0.00343732, -1.214495E-05, 0.0002593962
 115540432, -0.002746291, 0.003530336, -0.0001147097, 0.0002593962
 115640392, -0.002758754, 0.003493184, 2.313642E-05, 0.0002593962
 115740352, -0.00280021, 0.003607478, -6.507177E-05, 0.0002593962
 115840312, -0.002803649, 0.003419304, 2.700679E-05, 0.0002593962
 115940272, -0.002829531, 0.003479527, -0.0001374553, 0.0002593962
 116040232, -0.002645973, 0.003468974, 2.03242E-05, 0.0002593962
 116140192, -0.002687995, 0.003525734, -1.668263E-05, 0.0002593962
 116240152, -0.002605438, 0.003421649, -3.546248E-06, 0.0002593962
 116340945, -0.002540831, 0.003559028, 3.852983E-08, 0.0002615578
 116440905, -0.002629172, 0.003428357, -7.678774E-05, 0.0002593962
 116540865, -0.002637851, 0.003254198, -5.934248E-05, 0.0002593962
 116640825, -0.002709855, 0.003505926, -2.343194E-05, 0.0002593962
 116740785, -0.002677195, 0.003364047, -3.924707E-05, 0.0002593962
 116840745, -0.002718867, 0.003452438, 0.0001187231, 0.0002593962
 116940705, -0.002671955, 0.003583961, 5.818899E-05, 0.0002593962
 117040665, -0.00268547, 0.003428029, 3.702589E-05, 0.0002593962
 117140625, -0.002873199, 0.003463565, -6.863708E-05, 0.0002593962
 117240585, -0.002804781, 0.003543495, -6.168758E-05, 0.0002593962
 117340545, -0.00259849, 0.003321084, -7.330822E-05, 0.0002593962
 117440505, -0.002679962, 0.00339516, 7.372767E-05, 0.0002593962
 117540465, -0.002763882, 0.003440185, -1.925651E-05, 0.0002593962
 117640425, -0.002692291, 0.003397213, -0.000114214, 0.0002593962
 117740385, -0.002812523, 0.00348739, 7.893266E-06, 0.0002593962
 117840345, -0.002675253, 0.003414732, 0.0001197908, 0.0002593962
 117940305, -0.002727604, 0.003424554, -0.0001457013, 0.0002593962
 118040265, -0.002554449, 0.003442897, 1.191616E-05, 0.0002593962
 118140225, -0.002592941, 0.003448209, -0.0001406107, 0.0002593962
 118240185, -0.002756852, 0.003260986, 4.694967E-05, 0.0002593962
 118340145, -0.002780447, 0.003437007, -0.0001079986, 0.0002593962
 118440938, -0.002700457, 0.003550293, -3.987544E-05, 0.0002615578
 118540898, -0.002695161, 0.003345036, -4.758838E-05, 0.0002593962
 118640858, -0.002714203, 0.003556598, -8.63016E-05, 0.0002593962
 118740818, -0.002604133, 0.003533879, -2.68066E-05, 0.0002593962
 118840778, -0.002840398, 0.003383818, -0.000100887, 0.0002593962
 118940738, -0.002753436, 0.003387114, -4.182095E-05, 0.0002593962
 119040698, -0.002591497, 0.003471172, 5.082958E-05, 0.0002593962
 119140658, -0.00261592, 0.00348162, 4.074374E-05, 0.0002593962
 119240618, -0.002797606, 0.003511586, -0.0001554916, 0.0002593962
 119340578, -0.002720305, 0.003476218, -3.949492E-05, 0.0002593962
 119440538, -0.002718665, 0.003451335, -6.348931E-06, 0.0002593962
 119540498, -0.002625031, 0.003494513, -3.882761E-05, 0.0002593962
 119640458, -0.00277206, 0.003609654, 0.0001171597, 0.0002593962
 119740418, -0.00268617, 0.003513249, 4.647303E-05, 0.0002593962
 119840378, -0.002750306, 0.003471416, -1.056248E-05, 0.0002593962
 119940338, -0.002813549, 0.003505612, -8.475727E-05, 0.0002593962
 120040298, -0.00276824, 0.003572445, 2.921842E-05, 0.0002593962
 120140258, -0.002571132, 0.003377647, 0.0001429844, 0.0002593962
 120240218, -0.002926485, 0.003626872, 0.0001619168, 0.0002593962
 120340178, -0.002848091, 0.003571173, 6.062943E-06, 0.0002593962
 120440971, -0.002784928, 0.003333193, 3.348917E-05, 0.0002593962
 120540931, -0.002690474, 0.003530687, -7.021399E-06, 0.0002615578
 120640891, -0.002613478, 0.00348223, 4.533861E-05, 0.0002593962
 120740851, -0.002716695, 0.00344885, -2.064831E-05, 0.0002593962
 120840811, -0.002715493, 0.00356005, 1.627271E-05, 0.0002593962
 120940771, -0.002584487, 0.003441097, 4.293631E-05, 0.0002593962
 121040731, -0.002653603, 0.003536382, 4.929477E-05, 0.0002593962
 121140691, -0.002682839, 0.003383816, -0.0001051768, 0.0002593962
 121240651, -0.002580622, 0.003536887, -0.0001022788, 0.0002593962
 121340611, -0.002625339, 0.003449382, 7.272671E-05, 0.0002593962
 121440571, -0.002722513, 0.00346222, 0.0001061587, 0.0002593962
 121540531, -0.002769791, 0.003493938, 0.0001830894, 0.0002593962
 121640491, -0.002771475, 0.003388601, -5.264083E-05, 0.0002593962
 121740451, -0.002536056, 0.003418802, -4.392774E-05, 0.0002593962
 121840411, -0.002831544, 0.003497146, 4.848447E-05, 0.0002593962
 121940371, -0.002640827, 0.003413707, 2.841766E-05, 0.0002593962
 122040331, -0.002777392, 0.003473185, 3.050538E-06, 0.0002593962
 122140291, -0.002697741, 0.003634231, -0.0001769026, 0.0002593962
 122240251, -0.00266858, 0.003383308, -6.67019E-05, 0.0002593962
 122340211, -0.002627144, 0.003566414, -3.061023E-05, 0.0002593962
 122440171, -0.00264726, 0.003412352, 3.238336E-05, 0.0002593962
 122540964, -0.002614637, 0.003467906, 4.624384E-05, 0.0002615578
 122640924, -0.002638095, 0.003623994, -9.613959E-05, 0.0002593962
 122740884, -0.002622842, 0.00348299, -0.0001265973, 0.0002593962
 122840844, -0.002725475, 0.003566709, 5.557697E-06, 0.0002593962
 122940804, -0.002854562, 0.003444762, -0.0001070167, 0.0002593962
 123040764, -0.002740523, 0.003392353, 6.081055E-05, 0.0002593962
 123140724, -0.00251748, 0.003524158, 3.723562E-05, 0.0002593962
 123240684, -0.002725465, 0.003368635, -4.409932E-05, 0.0002593962
 123340644, -0.002700208, 0.003467894, -7.218333E-05, 0.0002593962
 123440604, -0.002822208, 0.003423577, -7.723579E-05, 0.0002593962
 123540564, -0.00274462, 0.003501946, 4.666368E-05, 0.0002593962
 123640524, -0.002879053, 0.003408832, -8.769341E-05, 0.0002593962
 123740484, -0.002821094, 0.003363574, 0.0001600579, 0.0002593962
 123840444, -0.002667714, 0.003339684, -7.814141E-05, 0.0002593962
 123940404, -0.0027131, 0.003298652, -8.056278E-05, 0.0002593962
 124040364, -0.002629204, 0.003595588, -6.000026E-05, 0.0002593962
 124140324, -0.002809177, 0.003442281, 3.478566E-05, 0.0002593962
 124240284, -0.002695491, 0.003413949, 3.77504E-06, 0.0002593962
 124340244, -0.002598491, 0.003392311, -6.622525E-05, 0.0002593962
 124440204, -0.002772308, 0.003339742, -2.986666E-05, 0.0002593962
 124540164, -0.002713197, 0.003461129, 7.84274E-05, 0.0002593962
 124640957, -0.002739718, 0.003464394, 3.551811E-06, 0.0002615578
 124740917, -0.002698984, 0.003320251, -2.239285E-05, 0.0002593962
 124840877, -0.002922825, 0.003534204, -9.926638E-05, 0.0002593962
 124940837, -0.002602976, 0.003561893, 1.712114E-05, 0.0002593962
 125040797, -0.002837375, 0.003374133, -7.621577E-05, 0.0002593962
 125140757, -0.002749923, 0.003608898, 3.081042E-05, 0.0002593962
 125240717, -0.002686629, 0.00362784, 6.269808E-05, 0.0002593962
 125340677, -0.002841402, 0.003514908, 1.747386E-05, 0.0002593962
 125440637, -0.002778909, 0.003421375, 7.092498E-06, 0.0002593962
 125540597, -0.00277015, 0.0034983, 5.427096E-05, 0.0002593962
 125640557, -0.00276374, 0.003514267, 1.501436E-05, 0.0002593962
 125740517, -0.002877146, 0.003368184, -0.0001252436, 0.0002593962
 125840477, -0.002752183, 0.003578322, 0.000132441, 0.0002593962
 125940437, -0.002884839, 0.003359274, 3.470939E-05, 0.0002593962
 126040397, -0.002634177, 0.003572133, -7.517668E-05, 0.0002593962
 126140357, -0.002748734, 0.00356601, 0.0001706299, 0.0002593962
 126240317, -0.00289107, 0.003311038, 3.05149E-05, 0.0002593962
 126340277, -0.002763199, 0.003440872, -0.0001260158, 0.0002593962
 126440237, -0.002759772, 0.00339748, -0.0001159109, 0.0002593962
 126540197, -0.002688781, 0.003444273, -4.413746E-05, 0.0002593962
 126640157, -0.002785158, 0.003470414, 6.307939E-05, 0.0002593962
 126740950, -0.002698031, 0.003569687, -2.108763E-05, 0.0002615578
 126840910, -0.00279318, 0.003364682, 4.281238E-05, 0.0002593962
 126940870, -0.00277762, 0.003442065, 7.140164E-05, 0.0002593962
 127040830, -0.002652781, 0.003479971, 4.204975E-05, 0.0002593962
 127140790, -0.002460727, 0.003507924, -8.259329E-05, 0.0002593962
 127240750, -0.002678004, 0.003444367, -3.550063E-05, 0.0002593962
 127340710, -0.00268565, 0.00331195, -5.881817E-06, 0.0002593962
 127440670, -0.002733283, 0.003448112, 3.298393E-05, 0.0002593962
 127540630, -0.002781736, 0.003401652, 4.330809E-05, 0.0002593962
 127640590, -0.00276812, 0.003509776, -1.861781E-05, 0.0002593962
 127740550, -0.002748784, 0.003544101, 8.071531E-05, 0.0002593962
 127840510, -0.002755948, 0.003275972, -8.833212E-05, 0.0002593962
 127940470, -0.002829568, 0.003363252, -1.411826E-05, 0.0002593962
 128040430, -0.002781895, 0.003411309, -6.70165E-06, 0.0002593962
 128140390, -0.002631637, 0.003453297, -3.009545E-05, 0.0002593962
 128240350, -0.002647564, 0.003452233, 2.37084E-05, 0.0002593962
 128340310, -0.002723465, 0.00343589, -8.081063E-05, 0.0002593962
 128440270, -0.002574784, 0.003396816, 2.592957E-05, 0.0002593962
 128540230, -0.002673739, 0.003383211, -6.853222E-05, 0.0002593962
 128640190, -0.002816282, 0.003349058, 5.245017E-05, 0.0002593962
 128740150, -0.002963634, 0.003549461, -3.024798E-05, 0.0002593962
 128840943, -0.0026437, 0.003499539, -0.0001492066, 0.0002615578
 128940903, -0.002776575, 0.003351521, -8.766481E-05, 0.0002593962
 129040863, -0.002698871, 0.003452728, -8.254562E-05, 0.0002593962
 129140823, -0.002693197, 0.003328559, -8.8656E-07, 0.0002593962
 129240783, -0.002778006, 0.00355709, 4.269799E-05, 0.0002593962
 129340743, -0.002753975, 0.003380665, 5.329861E-05, 0.0002593962
 129440703, -0.002689164, 0.003335019, -4.170656E-05, 0.0002593962
 129540663, -0.002819566, 0.003460305, 1.075314E-05, 0.0002593962
 129640623, -0.002837145, 0.003504262, -5.063892E-05, 0.0002593962
 129740583, -0.002703379, 0.003368042, 9.771251E-05, 0.0002593962
 129840543, -0.002697113, 0.003378394, -2.273604E-05, 0.0002593962
 129940503, -0.002811174, 0.003525979, -1.09724E-05, 0.0002593962
 130040463, -0.002768896, 0.003535881, 7.245025E-05, 0.0002593962
 130140423, -0.002719561, 0.00348659, -4.530048E-05, 0.0002593962
 130240383, -0.002810115, 0.003440894, 2.059113E-05, 0.0002593962
 130340343, -0.002775431, 0.00347485, -0.0002167216, 0.0002593962
 130440303, -0.002773379, 0.003502383, 0.0001096287, 0.0002593962
 130540263, -0.002706619, 0.003377603, -0.0001012778, 0.0002593962
 130640223, -0.002622365, 0.003448377, -0.0001439758, 0.0002593962
 130740183, -0.002775812, 0.003658894, -0.0001125172, 0.0002593962
 130840976, -0.002718084, 0.003436904, -3.903734E-05, 0.0002593962
 130940936, -0.002829249, 0.003552348, 0.0001026605, 0.0002615578
 131040896, -0.002638466, 0.003448752, -2.642528E-05, 0.0002593962
 131140856, -0.002807651, 0.003545692, -4.123945E-05, 0.0002593962
 131240816, -0.002703678, 0.003410695, -4.39182E-05, 0.0002593962
 131340776, -0.002869078, 0.003506007, -5.675906E-05, 0.0002593962
 131440736, -0.002684404, 0.003446227, -9.412814E-05, 0.0002593962
 131540696, -0.002725264, 0.003575809, -9.179257E-05, 0.0002593962
 131640656, -0.002841928, 0.003375137, -1.487137E-06, 0.0002593962
 131740616, -0.002780469, 0.003474384, 3.391816E-05, 0.0002593962
 131840576, -0.002733446, 0.003376341, 0.0001274076, 0.0002593962
 131940536, -0.002595672, 0.003471827, -2.587237E-05, 0.0002593962
 132040496, -0.002760263, 0.003392255, -2.755017E-06, 0.0002593962
 132140456, -0.002615399, 0.003428533, 0.0001280654, 0.0002593962
 132240416, -0.002808428, 0.003428194, -2.656827E-05, 0.0002593962
 132340376, -0.002770207, 0.003413263, -5.202119E-05, 0.0002593962
 132440336, -0.002514096, 0.003337445, -3.204971E-05, 0.0002593962
 132540296, -0.002738257, 0.00354492, 2.133469E-05, 0.0002593962
 132640256, -0.002615591, 0.003463526, 4.432812E-05, 0.0002593962
 132740216, -0.002808463, 0.003448034, 0.0001127173, 0.0002593962
 132840176, -0.002732257, 0.003359808, -0.0001982945, 0.0002593962
 132940969, -0.002815002, 0.003420627, -3.740284E-05, 0.0002615578
 133040929, -0.002901816, 0.003481716, 1.549101E-05, 0.0002593962
 133140889, -0.002735861, 0.00334799, -2.181134E-05, 0.0002593962
 133240849, -0.002883285, 0.00339166, -5.077238E-05, 0.0002593962
 133340809, -0.002623262, 0.003422515, -0.0001029747, 0.0002593962
 133440769, -0.002699698, 0.003545198, 7.196408E-05, 0.0002593962
 133540729, -0.002849727, 0.003389737, 0.0001363876, 0.0002593962
 133640689, -0.002651562, 0.003370197, 9.471918E-05, 0.0002593962
 133740649, -0.002731417, 0.003474475, 6.347978E-05, 0.0002593962
 133840609, -0.00267615, 0.003452075, -8.495746E-05, 0.0002593962
 133940569, -0.002621997, 0.003700721, -2.406111E-05, 0.0002593962
 134040529, -0.002709794, 0.003466035, 1.97141E-05, 0.0002593962
 134140489, -0.002729525, 0.003372925, -1.370835E-05, 0.0002593962
 134240449, -0.002691702, 0.003431579, -3.662551E-05, 0.0002593962
 134340409, -0.002781074, 0.003410873, -7.721665E-07, 0.0002593962
 134440369, -0.002696159, 0.003540857, 0.000180058, 0.0002593962
 134540329, -0.002807697, 0.003531845, -0.0001342141, 0.0002593962
 134640289, -0.002689256, 0.003397009, 2.383229E-06, 0.0002593962
 134740249, -0.002786957, 0.003471353, -0.0001772839, 0.0002593962
 134840209, -0.002632825, 0.003410699, -5.67114E-05, 0.0002593962
 134940169, -0.00270746, 0.00355192, -8.827496E-06, 0.0002593962
 135040962, -0.002863474, 0.003593178, 9.155585E-06, 0.0002615578
 135140922, -0.0027376, 0.003481834, 0.0001309062, 0.0002593962
 135240882, -0.002770173, 0.003377592, 3.786479E-05, 0.0002593962
 135340842, -0.002861743, 0.003513479, -4.198302E-05, 0.0002593962
 135440802, -0.002829665, 0.003686741, -4.245966E-05, 0.0002593962
 135540762, -0.002626571, 0.003557569, -0.0001675603, 0.0002593962
 135640722, -0.002616659, 0.003527201, -9.447139E-06, 0.0002593962
 135740682, -0.002725689, 0.003483334, -0.000110458, 0.0002593962
 135840642, -0.002860573, 0.003433461, -0.0001003055, 0.0002593962
 135940602, -0.002810842, 0.003597535, 3.361311E-05, 0.0002593962
 136040562, -0.002705356, 0.003378591, -6.674956E-05, 0.0002593962
 136140522, -0.002613575, 0.003422123, 4.990488E-05, 0.0002593962
 136240482, -0.002794407, 0.003506054, -2.075318E-05, 0.0002593962
 136340442, -0.002617201, 0.003399588, -0.0001526127, 0.0002593962
 136440402, -0.002770169, 0.003423128, -2.90087E-05, 0.0002593962
 136540362, -0.002732484, 0.003488563, -7.845601E-06, 0.0002593962
 136640322, -0.002766192, 0.003502256, 7.388018E-06, 0.0002593962
 136740282, -0.002585881, 0.003429325, 8.537691E-05, 0.0002593962
 136840242, -0.002720193, 0.003338049, -8.493837E-06, 0.0002593962
 136940202, -0.002672561, 0.003665105, -4.128711E-05, 0.0002593962
 137040162, -0.002784546, 0.003460039, -0.0001104104, 0.0002593962
 137140955, -0.002770051, 0.003455537, -0.0001163494, 0.0002615578
 137240915, -0.002632075, 0.003460526, -7.517668E-05, 0.0002593962
 137340875, -0.002624816, 0.003467746, -1.742619E-05, 0.0002593962
 137440835, -0.002645267, 0.003537074, -7.429964E-05, 0.0002593962
 137540795, -0.002546186, 0.003429221, -8.15542E-05, 0.0002593962
 137640755, -0.002698621, 0.003460108, 6.304125E-05, 0.0002593962
 137740715, -0.002582757, 0.003493106, -3.253588E-05, 0.0002593962
 137840675, -0.002713004, 0.003534025, -2.458542E-05, 0.0002593962
 137940635, -0.002738713, 0.003505121, 7.183061E-05, 0.0002593962
 138040595, -0.002758221, 0.003470329, -3.241184E-07, 0.0002593962
 138140555, -0.00281796, 0.00340176, 1.268832E-05, 0.0002593962
 138240515, -0.002685343, 0.00348809, 3.84463E-05, 0.0002593962
 138340475, -0.002699085, 0.003411034, 0.0001174361, 0.0002593962
 138440435, -0.002667338, 0.003353934, -7.5415E-05, 0.0002593962
 138540395, -0.002749878, 0.00343395, 4.633957E-05, 0.0002593962
 138640355, -0.00271888, 0.003268059, -0.0001055772, 0.0002593962
 138740315, -0.002586216, 0.003355437, -0.0001035467, 0.0002593962
 138840275, -0.00271286, 0.003501262, -2.561498E-05, 0.0002593962
 138940235, -0.002582197, 0.003498563, 0.000151402, 0.0002593962
 139040195, -0.002586171, 0.003312724, 5.519565E-05, 0.0002593962
 139140155, -0.002736022, 0.003482947, -0.0001134418, 0.0002593962
 139240948, -0.002726965, 0.003448689, -4.813096E-05, 0.0002615578
 139340908, -0.002740897, 0.003567822, 2.271697E-05, 0.0002593962
 139440868, -0.002670227, 0.003405765, 9.81701E-05, 0.0002593962
 139540828, -0.002721675, 0.003541564, -7.339401E-05, 0.0002593962
 139640788, -0.002761541, 0.003388464, -4.852262E-06, 0.0002593962
 139740748, -0.002788615, 0.003287914, 4.488103E-05, 0.0002593962
 139840708, -0.002829027, 0.003453627, 0.0001738901, 0.0002593962
 139940668, -0.002740175, 0.003486641, -8.431875E-05, 0.0002593962
 140040628, -0.002805876, 0.003501531, 3.843677E-05, 0.0002593962
 140140588, -0.002822513, 0.003517487, 9.471918E-05, 0.0002593962
 140240548, -0.002663077, 0.003506165, -4.81127E-05, 0.0002593962
 140340508, -0.002623077, 0.003633679, 8.066764E-05, 0.0002593962
 140440468, -0.00277627, 0.003606053, -0.0001955299, 0.0002593962
 140540428, -0.002712182, 0.00360159, 5.448068E-05, 0.0002593962
 140640388, -0.002759458, 0.003338515, -6.255507E-05, 0.0002593962
 140740348, -0.002759182, 0.003481037, -0.0001180367, 0.0002593962
 140840308, -0.002858139, 0.003514886, 8.503372E-05, 0.0002593962
 140940268, -0.002968915, 0.003409374, 0.0001326412, 0.0002593962
 141040228, -0.002727224, 0.003291116, -8.059138E-05, 0.0002593962
 141140188, -0.002846406, 0.0035083, 5.652074E-05, 0.0002593962
 141240148, -0.002728215, 0.003533378, 2.419457E-05, 0.0002593962
 141340941, -0.002783386, 0.003628448, -1.599466E-05, 0.0002615578
 141440901, -0.002657871, 0.003560767, 1.947577E-05, 0.0002593962
 141540861, 0.01101675, 0.001939602, -6.291733E-06, 0.0002593962
 141640821, 0.07389992, -0.005114448, -0.0001357108, 0.0002593962
 141740781, 0.1657356, -0.01483227, 0.0006278672, 0.0002593962
 141840741, 0.2688137, -0.02619084, 0.003831179, 0.0002593962
 141940701, 0.3768629, -0.03671566, 0.006866873, 0.0002593962
 142040661, 0.4826924, -0.05068936, 0.009706275, 0.0002593962
 142140621, 0.5858239, -0.05991174, 0.01200849, 0.0002593962
 142240581, 0.6855073, -0.06979282, 0.01398034, 0.0002593962
 142340541, 0.7839851, -0.08144896, 0.01650539, 0.0002593962
 142440501, 0.8704087, -0.09304629, 0.01863666, 0.0002593962
 142540461, 0.943099, -0.09817846, 0.02097118, 0.0002593962
 142640421, 0.9568641, -0.1018491, 0.02258022, 0.0002593962
 142740381, 0.9394063, -0.09923492, 0.02345242, 0.0002593962
 142840341, 0.9025984, -0.09882385, 0.02293589, 0.0002593962
 142940301, 0.8579953, -0.08864794, 0.02211991, 0.0002593962
 143040261, 0.8135087, -0.08230078, 0.02097469, 0.0002593962
 143140221, 0.762047, -0.0810391, -0.004808294, 0.0002593962
 143240181, 0.7116273, -0.07841046, -0.04730237, 0.0002593962
 143340974, 0.6592984, -0.06876656, -0.0140523, 0.0002593962
 143440934, 0.6154767, -0.06380898, 0.020055, 0.0002615578
 143540894, 0.5645373, -0.06166408, 0.03486088, 0.0002593962
 143640854, 0.8194107, -0.08001179, -0.1948182, 0.0002593962
 143740814, 0.8376895, -0.09304576, -0.7813364, 0.0002593962
 143840774, 0.7329199, -0.07806239, -0.9221793, 0.0002593962
 143940734, 0.6345354, -0.07330571, -0.7737309, 0.0002593962
 144040694, 0.5888857, -0.07742166, -0.5014793, 0.0002593962
 144140654, 0.5853143, -0.07859569, -0.2309261, 0.0002593962
 144240614, 0.5941085, -0.07165816, -0.008750732, 0.0002593962
 144340574, 0.5922445, -0.07648106, 0.1042439, 0.0002593962
 144440534, 0.5617417, -0.06670003, 0.07579644, 0.0002593962
 144540494, 0.5270056, -0.05414519, 0.01935328, 0.0002593962
 144640454, 0.4806942, -0.04377004, -0.09923029, 0.0002593962
 144740414, 0.4302142, -0.04662531, -0.211102, 0.0002593962
 144840374, 0.3797007, -0.0369087, -0.2491056, 0.0002593962
 144940334, 0.3424435, -0.03853023, -0.2644435, 0.0002593962
 145040294, 0.312419, -0.03255641, -0.2419736, 0.0002593962
 145140254, 0.2854899, -0.03685179, -0.2225232, 0.0002593962
 145240214, 0.2749366, -0.03265053, -0.1579391, 0.0002593962
 145340174, 0.2468518, -0.04252844, -0.1472105, 0.0002593962
 145440967, 0.2461536, -0.02436809, -0.08932882, 0.0002615578
 145540927, 0.2272184, -0.01980085, -0.05656414, 0.0002593962
 145640887, 0.223279, -0.02501612, -0.02218484, 0.0002593962
 145740847, 0.207904, -0.02112814, -0.02310956, 0.0002593962
 145840807, 0.1918598, -0.02313774, -0.03760902, 0.0002593962
 145940767, 0.1597338, -0.01240069, -0.06764547, 0.0002593962
 146040727, 0.1528362, -0.00968281, -0.08722038, 0.0002593962
 146140687, 0.1191735, -0.01598753, -0.1110611, 0.0002593962
 146240647, 0.07768308, -0.01817778, -0.1586652, 0.0002593962
 146340607, 0.06541161, -0.01646665, -0.2106789, 0.0002593962
 146440567, 0.05098742, -0.009177779, -0.22864, 0.0002593962
 146540527, 0.04957874, -0.00462569, -0.1839806, 0.0002593962
 146640487, 0.04915452, -0.01602857, -0.119406, 0.0002593962
 146740447, 0.05921777, -0.008134757, -0.04167392, 0.0002593962
 146840407, 0.07304773, -0.0008880437, 0.01521569, 0.0002593962
 146940367, 0.07577426, 0.003748683, 0.02254479, 0.0002593962
 147040327, 0.05702204, -0.01661589, -0.01160372, 0.0002593962
 147140287, 0.05156284, -0.02076389, -0.02010883, 0.0002593962
 147240247, 0.0612793, -0.01266776, 0.01589917, 0.0002593962
 147340207, 0.05535173, -0.01178897, 0.02823606, 0.0002593962
 147440167, 0.0475226, -0.008975453, 0.006851354, 0.0002593962
 147540960, 0.0450214, -0.007550688, 0.002393494, 0.0002615578
 147640920, 0.03465201, -0.008720888, -0.003803381, 0.0002593962
 147740880, 0.05084007, -0.005604423, 0.05790021, 0.0002593962
 147840840, 0.05500836, -0.004386661, 0.07863881, 0.0002593962
 147940800, 0.06840381, -0.006019647, 0.122105, 0.0002593962
 148040760, 0.08083621, -0.008142473, 0.1639227, 0.0002593962
 148140720, 0.07752889, -0.000239072, 0.1553366, 0.0002593962
 148240680, 0.06787974, 0.00121887, 0.1136894, 0.0002593962
 148340640, 0.05798402, -0.006422818, 0.05558886, 0.0002593962
 148440600, 0.03822182, 0.004009011, -0.02694015, 0.0002593962
 148540560, 0.02235521, -0.003016621, -0.05033299, 0.0002593962
 148640520, 0.01284366, -0.005604656, -0.06224069, 0.0002593962
 148740480, 0.009821019, -0.003024731, -0.07690161, 0.0002593962
 148840440, -0.0001457935, 0.005753868, -0.0842071, 0.0002593962
 148940400, -0.0002602172, 0.001107041, -0.005028707, 0.0002593962
 149040360, -0.00605056, 0.002887132, 0.03465471, 0.0002593962
 149140320, -0.02245344, 0.003594834, 0.04215537, 0.0002593962
 149240280, -0.03201512, -0.00341184, 0.07712843, 0.0002593962
 149340240, -0.04628266, 0.001778279, 0.08012909, 0.0002593962
 149440200, -0.07353735, 0.01577512, 0.02509912, 0.0002593962
 149540160, -0.03786486, 0.005240678, 0.2604393, 0.0002593962
 149640953, 0.02541635, 0.001725104, 0.5903376, 0.0002615578
 149740913, 0.06329335, 0.01025543, 0.7925989, 0.0002593962
 149840873, 0.05056971, 0.02057293, 0.7715198, 0.0002593962
 149940833, 0.02415144, 0.0240333, 0.6425064, 0.0002593962
 150040793, 0.00669883, 0.03419746, 0.4533513, 0.0002593962
 150140753, -0.001725394, 0.04873084, 0.2484722, 0.0002593962
 150240713, -0.01163216, 0.04768159, 0.02569868, 0.0002593962
 150340673, -0.01442764, 0.04104486, -0.02715602, 0.0002593962
 150440633, -0.006488015, 0.02527319, 0.004505462, 0.0002593962
 150540593, 0.00177614, 0.01792314, 0.02619896, 0.0002593962
 150640553, 0.008541616, 0.02259891, 0.06902952, 0.0002593962
 150740513, 0.01405459, 0.01975991, 0.113421, 0.0002593962
 150840473, 0.02182362, 0.01599581, 0.1757792, 0.0002593962
 150940433, 0.01713287, 0.01546638, 0.1863646, 0.0002593962
 151040393, 0.01968493, 0.009980736, 0.1806307, 0.0002593962
 151140353, 0.006725364, 0.014513, 0.1315648, 0.0002593962
 151240313, -0.05661058, 0.03490009, 0.01757311, 0.0002593962
 151340273, -0.1484538, 0.05287098, -0.1317131, 0.0002593962
 151440233, -0.2570406, 0.06365446, -0.2427635, 0.0002593962
 151540193, -0.3249775, 0.06294885, -0.2190847, 0.0002593962
 151640153, -0.3160205, 0.0527708, -0.1107034, 0.0002593962
 151740946, -0.2677601, 0.03736157, 0.05123172, 0.0002615578
 151840906, -0.2043318, 0.03172737, 0.2258729, 0.0002593962
 151940866, -0.1639161, 0.02908883, 0.3073405, 0.0002593962
 152040826, -0.1324091, 0.02878812, 0.3438247, 0.0002593962
 152140786, -0.1101607, 0.02852577, 0.3215636, 0.0002593962
 152240746, -0.09022049, 0.02256238, 0.2612866, 0.0002593962
 152340706, -0.07779577, 0.01658844, 0.2092421, 0.0002593962
 152440666, -0.0632755, 0.0156904, 0.1627823, 0.0002593962
 152540626, -0.05071233, 0.01602444, 0.141109, 0.0002593962
 152640586, -0.03721964, 0.01668076, 0.1080302, 0.0002593962
 152740546, -0.02715693, 0.01563091, 0.06346498, 0.0002593962
 152840506, -0.02000747, 0.01573113, 0.01904639, 0.0002593962
 152940466, -0.01458183, 0.01378859, 0.02080365, 0.0002593962
 153040426, -0.008030191, 0.01069093, 0.03159532, 0.0002593962
 153140386, -0.0006699646, 0.006320403, 0.02607927, 0.0002593962
 153240346, 0.004203693, 0.01597155, 0.05302339, 0.0002593962
 153340306, 0.01102445, 0.02185583, 0.07666585, 0.0002593962
 153440266, 0.01542535, 0.01891786, 0.07768746, 0.0002593962
 153540226, 0.01493095, 0.02205145, 0.07938899, 0.0002593962
 153640186, 0.01666982, 0.02290468, 0.06555769, 0.0002593962
 153740146, 0.02361483, 0.02158693, 0.03748887, 0.0002593962
 153840939, 0.02595189, 0.01527078, 0.01928099, 0.0002615578
 153940899, 0.02587131, 0.003392819, 0.02490884, 0.0002593962
 154040859, 0.02554763, 0.006475722, 0.004302296, 0.0002593962
 154140819, 0.02485937, 0.003562715, -0.03345306, 0.0002593962
 154240779, 0.02727387, 0.003122898, -0.01696339, 0.0002593962
 154340739, 0.02822706, 0.00358264, -0.02329569, 0.0002593962
 154440699, 0.02799512, -0.002566946, -0.06508478, 0.0002593962
 154540659, 0.03114194, 0.0005602759, -0.06369414, 0.0002593962
 154640619, 0.02745481, 0.008738641, -0.03560719, 0.0002593962
 154740579, 0.02677895, 0.00817993, -0.002832509, 0.0002593962
 154840539, 0.02547708, 0.00462263, 0.01885403, 0.0002593962
 154940499, 0.02724173, 0.008568812, 0.01893716, 0.0002593962
 155040459, 0.02798558, 0.009087526, 0.003010117, 0.0002593962
 155140419, 0.02353721, 0.005797997, -0.01649734, 0.0002593962
 155240379, 0.02321121, 0.005397507, -0.01812194, 0.0002593962
 155340339, 0.02405452, 0.008632463, -0.009674655, 0.0002593962
 155440299, 0.02209779, 0.00246945, -0.03868869, 0.0002593962
 155540259, 0.02528371, 0.004580763, -0.01810973, 0.0002593962
 155640219, 0.02737353, 0.01015082, -0.01980347, 0.0002593962
 155740179, 0.0285011, 0.003942655, -0.008343086, 0.0002593962
 155840972, 0.02313055, 0.004411129, -0.0259175, 0.0002593962
 155940932, 0.02563812, 0.005353023, -0.00978143, 0.0002615578
 156040892, 0.02126816, 0.01379449, -0.02225677, 0.0002593962
 156140852, 0.02782275, 0.008995234, -0.04358746, 0.0002593962
 156240812, 0.02810046, 0.007843683, -0.0005064465, 0.0002593962
 156340772, 0.02683426, 0.005529142, 0.01114267, 0.0002593962
 156440732, 0.02465347, 0.01239688, 0.006129835, 0.0002593962
 156540692, 0.02708944, 0.01113179, 0.02938807, 0.0002593962
 156640652, 0.03446783, 0.01017697, -0.01339035, 0.0002593962
 156740612, 0.02990467, 0.003931445, -0.06246685, 0.0002593962
 156840572, 0.03102337, 0.005887669, -0.06487012, 0.0002593962
 156940532, 0.02510696, 0.006152901, -0.06938197, 0.0002593962
 157040492, 0.02417057, 0.004714851, -0.05223739, 0.0002593962
 157140452, 0.02183638, 0.008008705, -0.01205956, 0.0002593962
 157240412, 0.02088761, 0.009673854, 0.02076405, 0.0002593962
 157340372, 0.0245667, 0.01378337, 0.00258676, 0.0002593962
 157440332, 0.02551171, 0.018939, -0.02361211, 0.0002593962
 157540292, 0.02200997, 0.01856396, -0.0146459, 0.0002593962
 157640252, 0.01964134, 0.01806206, -0.02091677, 0.0002593962
 157740212, 0.02639857, 0.01441627, -0.0110965, 0.0002593962
 157840172, 0.02397966, 0.009090478, 0.02240577, 0.0002593962
 157940965, 0.02414933, 0.005595435, 0.01398482, 0.0002615578
 158040925, 0.02684764, 0.009415675, 0.01026138, 0.0002593962
 158140885, 0.02816255, 0.007208187, -0.02179614, 0.0002593962
 158240845, 0.02629517, 0.001930669, -0.02787373, 0.0002593962
 158340805, 0.02745559, 0.004246726, -0.02341932, 0.0002593962
 158440765, 0.02556884, 0.007347656, -0.05908221, 0.0002593962
 158540725, 0.01930606, 0.005943471, -0.06897885, 0.0002593962
 158640685, 0.01989436, -0.0006235009, -0.03242776, 0.0002593962
 158740645, 0.02233461, -0.005853884, -0.02663155, 0.0002593962
 158840605, 0.01832499, -0.01545921, -0.02689459, 0.0002593962
 158940565, 0.01703671, -0.007615946, -0.006525118, 0.0002593962
 159040525, 0.01867269, -0.005917141, -0.01790194, 0.0002593962
 159140485, 0.01341153, -0.004192717, -0.02712751, 0.0002593962
 159240445, 0.01049098, -1.702085E-05, -0.05967872, 0.0002593962
 159340405, 0.008934528, -0.001812573, -0.05779699, 0.0002593962
 159440365, 0.01210149, -0.01100944, -0.04345921, 0.0002593962
 159540325, 0.01175434, -0.01318386, -0.0176751, 0.0002593962
 159640285, 0.01138659, -0.004553921, 0.03544538, 0.0002593962
 159740245, 0.01645363, -0.00296642, 0.02592044, 0.0002593962
 159840205, 0.01053732, -0.002179861, -0.0003140718, 0.0002593962
 159940165, 0.01362866, -0.0009919822, 0.005506982, 0.0002593962
 160040958, 0.01091411, 0.007143712, -0.04522425, 0.0002615578
 160140918, 0.01156501, 0.004051416, -0.02564614, 0.0002593962
 160240878, 0.01065335, 0.002882364, -0.02833969, 0.0002593962
 160340838, 0.006988247, 0.008083316, -0.03099606, 0.0002593962
 160440798, 0.009673681, 0.0123897, 0.02017511, 0.0002593962
 160540758, 0.01430135, 0.006983039, 0.01105252, 0.0002593962
 160640718, 0.0137092, -0.0009157942, -0.02171718, 0.0002593962
 160740678, 0.01105856, 0.0003480525, -0.05399605, 0.0002593962
 160840638, 0.009595419, 0.007095074, -0.03110263, 0.0002593962
 160940598, 0.005784933, 0.0119383, -0.006439159, 0.0002593962
 161040558, 0.009432701, 0.009961722, 0.0153062, 0.0002593962
 161140518, 0.009155244, 0.009429074, 0.03730413, 0.0002593962
 161240478, 0.01089641, 0.005102238, 0.02302357, 0.0002593962
 161340438, 0.009367307, 0.009076877, 0.00188526, 0.0002593962
 161440398, 0.01254868, 0.0004870308, -0.009823577, 0.0002593962
 161540358, 0.01632307, -0.00313845, 0.02392349, 0.0002593962
 161640318, 0.01431066, 0.005848246, 0.004298283, 0.0002593962
 161740278, 0.01223891, -0.00380422, -0.01619945, 0.0002593962
 161840238, 0.01600578, -0.01609798, -0.0286329, 0.0002593962
 161940198, 0.01579208, -0.01910616, -0.04523439, 0.0002593962
 162040158, 0.01709963, -0.01382647, -0.005212138, 0.0002593962
 162140951, 0.01333412, -0.006860537, 0.009035615, 0.0002615578
 162240911, 0.01564534, -0.0006938851, 0.03795882, 0.0002593962
 162340871, 0.01735291, -0.003558885, 0.003953725, 0.0002593962
 162440831, 0.01322772, -0.0179778, -0.01268025, 0.0002593962
 162540791, 0.01380507, -0.02339789, -0.03341935, 0.0002593962
 162640751, 0.01183465, -0.005354218, -0.01768086, 0.0002593962
 162740711, 0.004578152, -0.01085675, -0.01817007, 0.0002593962
 162840671, 0.008688889, -0.007385314, -0.015808, 0.0002593962
 162940631, 0.009281281, -0.007165707, -0.02118313, 0.0002593962
 163040591, 0.003286642, -0.01407015, -0.01545488, 0.0002593962
 163140551, 0.006532127, -0.004375234, 0.00482554, 0.0002593962
 163240511, 0.007629923, 0.002513847, 0.00654752, 0.0002593962
 163340471, 0.002747852, 0.008447943, 0.03827301, 0.0002593962
 163440431, 0.007133928, 0.01345254, 0.009279219, 0.0002593962
 163540391, 0.002686424, 0.01302047, -0.005122976, 0.0002593962
 163640351, 0.007924769, 0.007981742, -0.02953163, 0.0002593962
 163740311, 0.01627615, 0.01598444, -0.015594, 0.0002593962
 163840271, 0.01216562, 0.02703036, -0.03688197, 0.0002593962
 163940231, 0.01316798, 0.04017452, -0.01603063, 0.0002593962
 164040191, 0.008659385, 0.05326803, -0.003545172, 0.0002593962
 164140151, 0.01486185, 0.04920074, 0.02553733, 0.0002593962
 164240944, 0.01187697, 0.03869427, 0.03931772, 0.0002615578
 164340904, 0.01031127, 0.03834702, -0.005153988, 0.0002593962
 164440864, 0.01095746, 0.04946204, -0.02881929, 0.0002593962
 164540824, 0.008792579, 0.06645229, -0.02543966, 0.0002593962
 164640784, 0.01012639, 0.08353871, -0.01690957, 0.0002593962
 164740744, 0.01234255, 0.08769392, -0.04399816, 0.0002593962
 164840704, 0.02232012, 0.2101302, -0.0209222, 0.0002593962
 164940664, 0.0305285, 0.3350168, 0.02548221, 0.0002593962
 165040624, 0.02890738, 0.240246, 0.01806216, 0.0002593962
 165140584, 0.01880165, 0.08451249, -0.02913296, 0.0002593962
 165240544, 0.007353981, -0.0162595, -0.03995476, 0.0002593962
 165340504, 0.004445158, -0.06462523, 0.01340293, 0.0002593962
 165440464, 0.004822039, -0.06652639, 0.03595279, 0.0002593962
 165540424, 0.005919959, -0.04494772, 0.01606135, 0.0002593962
 165640384, 0.003511534, -0.001485742, 0.02050424, 0.0002593962
 165740344, 0.01167021, 0.02944648, -0.02414827, 0.0002593962
 165840304, 0.00811889, 0.05243044, -0.04853209, 0.0002593962
 165940264, 0.004153179, 0.06415313, -0.05663838, 0.0002593962
 166040224, 0.003068871, 0.06007621, -0.01313668, 0.0002593962
 166140184, 0.0002697255, 0.06138169, -0.0297394, 0.0002593962
 166240977, 0.00183222, 0.04545956, 0.002911824, 0.0002593962
 166340937, 0.0002851289, 0.04534776, 0.02210935, 0.0002615578
 166440897, 0.002978167, 0.03336056, 0.04439445, 0.0002593962
 166540857, 0.007804435, 0.02202035, 0.07052438, 0.0002593962
 166640817, 0.006572638, 0.01358071, 0.03347973, 0.0002593962
 166740777, 0.003459897, 0.01678799, -0.01569078, 0.0002593962
 166840737, 0.007736323, 0.01283438, -0.007513234, 0.0002593962
 166940697, 0.01157139, 0.01843256, -0.06101842, 0.0002593962
 167040657, 0.00633004, 0.02376229, -0.07210455, 0.0002593962
 167140617, 0.00538176, 0.01779619, 0.0124632, 0.0002593962
 167240577, 0.0002158122, 0.0206449, -0.02017089, 0.0002593962
 167340537, 0.002811823, 0.01262695, -0.01899869, 0.0002593962
 167440497, 0.003429817, 0.01967962, 0.002400734, 0.0002593962
 167540457, 0.002799276, 0.0173248, -0.003305733, 0.0002593962
 167640417, -0.003489194, 0.01968786, -1.144042E-06, 0.0002593962
 167740377, -0.00668294, 0.01856939, 0.01067118, 0.0002593962
 167840337, -0.007534639, 0.0174291, -0.002529429, 0.0002593962
 167940297, -0.002402991, 0.01994049, -0.009833358, 0.0002593962
 168040257, 0.001804145, 0.01881894, -0.002949126, 0.0002593962
 168140217, 0.001302605, 0.01178475, 0.01422174, 0.0002593962
 168240177, 0.002409002, 0.01808552, -0.03136535, 0.0002593962
 168340970, -0.008605178, 0.02194227, 0.02300792, 0.0002593962
 168440930, -0.006822119, 0.02072959, 0.009221174, 0.0002615578
 168540890, -0.009842448, 0.01782556, -0.01699195, 0.0002593962
 168640850, -0.007169484, 0.01436554, 0.002498238, 0.0002593962
 168740810, 0.002967042, 0.02223776, 0.03916212, 0.0002593962
 168840770, 0.006851139, 0.01729461, 0.003606717, 0.0002593962
 168940730, 0.00674016, 0.013854, 0.0218184, 0.0002593962
 169040690, 0.009755358, 0.01505622, 0.04570348, 0.0002593962
 169140650, 0.005313485, 0.02051822, 0.01178816, 0.0002593962
 169240610, 0.007652889, 0.02686497, -0.03188553, 0.0002593962
 169340570, 0.002341446, 0.02287779, -0.03909491, 0.0002593962
 169440530, -0.001989844, 0.02526597, -0.0260473, 0.0002593962
 169540490, 0.0004995004, 0.02423509, -0.01810957, 0.0002593962
 169640450, -0.0003708712, 0.01448209, 0.01001865, 0.0002593962
 169740410, -0.001438507, 0.005113585, 0.004036032, 0.0002593962
 169840370, -0.00215788, 0.007188846, 0.02394954, 0.0002593962
 169940330, -0.001721211, 0.01508607, -0.03995695, 0.0002593962
 170040290, 0.0002176525, 0.01791732, -0.03054844, 0.0002593962
 170140250, 0.003637472, 0.02365444, 0.007704179, 0.0002593962
 170240210, 0.006248193, 0.01586766, 0.04646166, 0.0002593962
 170340170, 0.004545036, 0.009843548, 0.05198755, 0.0002593962
 170440963, 0.00494303, 0.00325966, 0.03801648, 0.0002615578
