TimeUS,COFN,COFE,COFD,CNe,CEe,CDe,POFN,POFE,POFD,PNe,PEe,PDe
 77693910, -0.02512502, -0.0165019, 0.006621065, 0.02634739, -0.02734199, 0.0001324584, 0, 0, 0, 0, 0, 0
 77756385, 0.006559351, -0.02558193, -3.044184E-05, 0.02623303, -0.02824612, 0.4000032, -0.02512502, -0.0165019, 0.006621065, 0.02634739, -0.02734199, 0.0001324584
 77856345, -0.01656541, -0.01272808, -5.229881E-05, 0.02575058, -0.0279166, 0.4000028, 0.006559351, -0.02558193, -3.044184E-05, 0.02623303, -0.02824612, 0.4000032
 77956305, -0.005959957, 0.006514257, -2.766828E-07, 0.02595846, -0.02748378, 0.4000039, -0.01656541, -0.01272808, -5.229881E-05, 0.02575058, -0.0279166, 0.4000028
 78056265, 0.008392317, 0.02354834, 5.513344E-05, 0.0262759, -0.02716283, 0.400005, -0.005959957, 0.006514257, -2.766828E-07, 0.02595846, -0.02748378, 0.4000039
 78156225, -0.01654326, 0.02557016, 1.266315E-05, 0.02575215, -0.02712928, 0.400004, 0.008392317, 0.02354834, 5.513344E-05, 0.0262759, -0.02716283, 0.400005
 78256185, -0.01363316, -0.01923679, -5.705142E-05, 0.02580708, -0.02808112, 0.4000024, -0.01654326, 0.02557016, 1.266315E-05, 0.02575215, -0.02712928, 0.400004
 78356145, 0.02104274, -0.006651541, 2.900438E-05, 0.02659089, -0.02777377, 0.4000044, -0.01363316, -0.01923679, -5.705142E-05, 0.02580708, -0.02808112, 0.4000024
 78456105, -0.02010533, 0.01906337, -4.853993E-06, 0.02568809, -0.02724326, 0.4000036, 0.02104274, -0.006651541, 2.900438E-05, 0.02659089, -0.02777377, 0.4000044
 78556065, 0.02057035, 0.004782566, 4.73361E-05, 0.02657897, -0.02752125, 0.4000048, -0.02010533, 0.01906337, -4.853993E-06, 0.02568809, -0.02724326, 0.4000036
 78656025, 0.004001971, 0.00974693, 2.465738E-05, 0.02617626, -0.0274203, 0.4000042, 0.02057035, 0.004782566, 4.73361E-05, 0.02657897, -0.02752125, 0.4000048
 78755985, 0.005287233, 0.01903185, 4.199784E-05, 0.02620534, -0.02724521, 0.4000045, 0.004001971, 0.00974693, 2.465738E-05, 0.02617626, -0.0274203, 0.4000042
 78855945, -0.02160727, 0.0225566, -2.47782E-06, 0.02566045, -0.02718377, 0.4000035, 0.005287233, 0.01903185, 4.199784E-05, 0.02620534, -0.02724521, 0.4000045
 78955905, -0.01728708, 0.02498317, 9.714167E-06, 0.02573692, -0.02714257, 0.4000038, -0.02160727, 0.0225566, -2.47782E-06, 0.02566045, -0.02718377, 0.4000035
 79055865, -0.0130096, -0.003924859, -3.11578E-05, 0.02581697, -0.02771472, 0.400003, -0.01728708, 0.02498317, 9.714167E-06, 0.02573692, -0.02714257, 0.4000038
 79155825, 0.01452327, 0.00402567, 3.419597E-05, 0.02642306, -0.02754178, 0.4000043, -0.0130096, -0.003924859, -3.11578E-05, 0.02581697, -0.02771472, 0.400003
 79255785, -0.02501656, 0.009821669, -3.047509E-05, 0.02560025, -0.02742361, 0.400003, 0.01452327, 0.00402567, 3.419597E-05, 0.02642306, -0.02754178, 0.4000043
 79356578, -0.0182898, -0.01928595, -6.730666E-05, 0.02571757, -0.02808809, 0.400002, -0.02501656, 0.009821669, -3.047509E-05, 0.02560025, -0.02742361, 0.400003
 79456538, -0.0203292, -0.02593622, -8.245223E-05, 0.02568045, -0.02826278, 0.4000017, -0.0182898, -0.01928595, -6.730666E-05, 0.02571757, -0.02808809, 0.400002
 79561496, -0.01335541, 0.009131455, -9.75508E-06, 0.02581003, -0.02743461, 0.4000036, -0.0203292, -0.02593622, -8.245223E-05, 0.02568045, -0.02826278, 0.4000017
 79661456, 0.0143861, 0.02582343, 7.071408E-05, 0.02641971, -0.02712528, 0.4000053, -0.01335541, 0.009131455, -9.75508E-06, 0.02581003, -0.02743461, 0.4000036
 79761416, -0.006070671, 0.02087609, 2.364876E-05, 0.02595716, -0.0272074, 0.4000044, 0.0143861, 0.02582343, 7.071408E-05, 0.02641971, -0.02712528, 0.4000053
 79861376, -0.02570922, -0.009942209, -6.499916E-05, 0.02559152, -0.02784466, 0.4000028, -0.006070671, 0.02087609, 2.364876E-05, 0.02595716, -0.0272074, 0.4000044
 79961336, 0.02123223, 0.01868032, 7.097999E-05, 0.02659861, -0.02724088, 0.4000058, -0.02570922, -0.009942209, -6.499916E-05, 0.02559152, -0.02784466, 0.4000028
 80061296, -0.002108329, 0.003992629, 2.681807E-06, 0.0260458, -0.02752589, 0.4000043, 0.02123223, 0.01868032, 7.097999E-05, 0.02659861, -0.02724088, 0.4000058
 80161256, -0.02543981, 0.01898375, -1.613889E-05, 0.02560111, -0.0272307, 0.400004, -0.002108329, 0.003992629, 2.681807E-06, 0.0260458, -0.02752589, 0.4000043
 80261216, 0.003100009, -0.01147659, -1.318084E-05, 0.02616273, -0.02787188, 0.400004, -0.02543981, 0.01898375, -1.613889E-05, 0.02560111, -0.0272307, 0.400004
 80361176, 0.02446844, -0.02038841, 1.195955E-05, 0.02669051, -0.02809381, 0.4000046, 0.003100009, -0.01147659, -1.318084E-05, 0.02616273, -0.02787188, 0.400004
 80461136, 0.02255402, -0.01838036, 1.166833E-05, 0.02664162, -0.0280406, 0.4000046, 0.02446844, -0.02038841, 1.195955E-05, 0.02669051, -0.02809381, 0.4000046
 80561096, -0.02013774, 0.0005243508, -3.652999E-05, 0.02569961, -0.0275923, 0.4000035, 0.02255402, -0.01838036, 1.166833E-05, 0.02664162, -0.0280406, 0.4000046
 80661056, 0.02336377, 0.001947691, 4.650697E-05, 0.02666605, -0.02756005, 0.4000054, -0.02013774, 0.0005243508, -3.652999E-05, 0.02569961, -0.0275923, 0.4000035
 80761016, -0.01800387, -0.01879186, -6.411385E-05, 0.02574066, -0.02804664, 0.4000029, 0.02336377, 0.001947691, 4.650697E-05, 0.02666605, -0.02756005, 0.4000054
 80860976, -0.0002725892, 0.02455965, 3.964355E-05, 0.02609727, -0.02712213, 0.4000051, -0.01800387, -0.01879186, -6.411385E-05, 0.02574066, -0.02804664, 0.4000029
 80960936, 0.01339359, 0.009863417, 4.082133E-05, 0.02641539, -0.02739169, 0.4000053, -0.0002725892, 0.02455965, 3.964355E-05, 0.02609727, -0.02712213, 0.4000051
 81060896, -0.0007144269, -0.0009288355, -2.829674E-06, 0.02609128, -0.02761677, 0.4000042, 0.01339359, 0.009863417, 4.082133E-05, 0.02641539, -0.02739169, 0.4000053
 81160856, -0.008099054, -0.01953144, -4.669635E-05, 0.02593813, -0.02806068, 0.4000032, -0.0007144269, -0.0009288355, -2.829674E-06, 0.02609128, -0.02761677, 0.4000042
 81260816, 0.01062683, 0.01585476, 4.53264E-05, 0.02635355, -0.027274, 0.4000051, -0.008099054, -0.01953144, -4.669635E-05, 0.02593813, -0.02806068, 0.4000032
 81360776, 0.02236688, 0.01099531, 5.894842E-05, 0.02664942, -0.0273674, 0.4000054, 0.01062683, 0.01585476, 4.53264E-05, 0.02635355, -0.027274, 0.4000051
 81461569, -0.02169504, 0.004505093, -3.241023E-05, 0.02569895, -0.02748564, 0.3921604, 0.02236688, 0.01099531, 5.894842E-05, 0.02664942, -0.0273674, 0.4000054
 81561529, 0.009478916, 0.003153177, 2.248058E-05, 0.02632904, -0.02752611, 0.4000046, -0.02169504, 0.004505093, -3.241023E-05, 0.02569895, -0.02748564, 0.3921604
 81666487, -0.01213056, 0.02081039, 1.173718E-05, 0.02584788, -0.02719649, 0.4081675, 0.009478916, 0.003153177, 2.248058E-05, 0.02632904, -0.02752611, 0.4000046
 81766447, -0.01253388, 0.01790091, 6.292194E-06, 0.02585447, -0.02723672, 0.4000041, -0.01213056, 0.02081039, 1.173718E-05, 0.02584788, -0.02719649, 0.4081675
 81866407, 0.02138739, 0.001842094, 4.224712E-05, 0.02662525, -0.02755604, 0.400005, -0.01253388, 0.01790091, 6.292194E-06, 0.02585447, -0.02723672, 0.4000041
 81966367, 0.01214475, 0.004076572, 2.896325E-05, 0.02639156, -0.02750717, 0.4000047, 0.02138739, 0.001842094, 4.224712E-05, 0.02662525, -0.02755604, 0.400005
 82066327, -0.0001713272, -0.0235659, -3.873402E-05, 0.02610679, -0.02816409, 0.4000033, 0.01214475, 0.004076572, 2.896325E-05, 0.02639156, -0.02750717, 0.4000047
 82166287, 0.0223343, 0.02379801, 7.991421E-05, 0.0266474, -0.02712903, 0.4000061, -0.0001713272, -0.0235659, -3.873402E-05, 0.02610679, -0.02816409, 0.4000033
 82266247, -0.01559456, -0.0163604, -5.536242E-05, 0.02579293, -0.02797584, 0.4000032, 0.0223343, 0.02379801, 7.991421E-05, 0.0266474, -0.02712903, 0.4000061
 82366207, -0.009919821, 0.02296129, 1.903608E-05, 0.02590289, -0.02714136, 0.4000048, -0.01559456, -0.0163604, -5.536242E-05, 0.02579293, -0.02797584, 0.4000032
 82466167, 0.02368093, 0.02044718, 7.690028E-05, 0.02668349, -0.0271853, 0.4000062, -0.009919821, 0.02296129, 1.903608E-05, 0.02590289, -0.02714136, 0.4000048
 82566127, 0.006165375, 0.02471451, 5.154203E-05, 0.02624863, -0.02711075, 0.4000055, 0.02368093, 0.02044718, 7.690028E-05, 0.02668349, -0.0271853, 0.4000062
 82666087, 0.004531467, 0.01223606, 2.901098E-05, 0.02621215, -0.02733756, 0.4000051, 0.006165375, 0.02471451, 5.154203E-05, 0.02624863, -0.02711075, 0.4000055
 82766047, 0.004465268, 0.006067976, 1.885972E-05, 0.0262114, -0.02746113, 0.4000048, 0.004531467, 0.01223606, 2.901098E-05, 0.02621215, -0.02733756, 0.4000051
 82866007, -0.01030319, 0.00865859, -4.129761E-06, 0.02589731, -0.02740829, 0.4000043, 0.004465268, 0.006067976, 1.885972E-05, 0.0262114, -0.02746113, 0.4000048
 82965967, 0.0182786, 0.01954435, 6.558628E-05, 0.02654354, -0.02720148, 0.4000059, -0.01030319, 0.00865859, -4.129761E-06, 0.02589731, -0.02740829, 0.4000043
 83065927, -0.007198094, 0.009185852, 1.679436E-06, 0.02595849, -0.02739822, 0.4000045, 0.0182786, 0.01954435, 6.558628E-05, 0.02654354, -0.02720148, 0.4000059
 83165887, -0.02120334, -0.006156434, -4.922038E-05, 0.02569201, -0.02772871, 0.4000035, -0.007198094, 0.009185852, 1.679436E-06, 0.02595849, -0.02739822, 0.4000045
 83265847, -0.01717886, -0.01855046, -6.20252E-05, 0.02576418, -0.02803003, 0.4000031, -0.02120334, -0.006156434, -4.922038E-05, 0.02569201, -0.02772871, 0.4000035
 83365807, 0.01898943, 0.004820898, 4.301195E-05, 0.02656117, -0.02748691, 0.4000055, -0.01717886, -0.01855046, -6.20252E-05, 0.02576418, -0.02803003, 0.4000031
 83465767, 0.02328729, 0.01622582, 6.963832E-05, 0.02667245, -0.02726167, 0.4000061, 0.01898943, 0.004820898, 4.301195E-05, 0.02656117, -0.02748691, 0.4000055
 83566560, -0.02337394, 0.006854162, -3.220576E-05, 0.02565211, -0.02744474, 0.400004, 0.02328729, 0.01622582, 6.963832E-05, 0.02667245, -0.02726167, 0.4000061
 83666520, -0.005496389, 0.0225875, 2.66788E-05, 0.02599047, -0.02714704, 0.4000052, -0.02337394, 0.006854162, -3.220576E-05, 0.02565211, -0.02744474, 0.400004
 83771478, 0.02211665, -0.001270749, 3.911956E-05, 0.02662378, -0.02763171, 0.4081689, -0.005496389, 0.0225875, 2.66788E-05, 0.02599047, -0.02714704, 0.4000052
 83871438, -2.455351E-05, -0.02112109, -3.462586E-05, 0.02610551, -0.02809692, 0.4000039, 0.02211665, -0.001270749, 3.911956E-05, 0.02662378, -0.02763171, 0.4081689
 83971398, -0.004511707, 0.01171914, 1.078572E-05, 0.02600887, -0.0273488, 0.4000049, -2.455351E-05, -0.02112109, -3.462586E-05, 0.02610551, -0.02809692, 0.4000039
 84071358, 0.009535683, -0.01016212, 1.154815E-06, 0.0263224, -0.02782394, 0.4000048, -0.004511707, 0.01171914, 1.078572E-05, 0.02600887, -0.0273488, 0.4000049
 84171318, -0.009301251, 0.009446756, -1.893981E-06, 0.02590993, -0.02739413, 0.4000047, 0.009535683, -0.01016212, 1.154815E-06, 0.0263224, -0.02782394, 0.4000048
 84271278, 0.002873665, -0.02446801, -3.481318E-05, 0.0261676, -0.02818627, 0.4000039, -0.009301251, 0.009446756, -1.893981E-06, 0.02590993, -0.02739413, 0.4000047
 84371238, 0.02097064, -0.01361919, 1.698332E-05, 0.02660537, -0.02790754, 0.4000053, 0.002873665, -0.02446801, -3.481318E-05, 0.0261676, -0.02818627, 0.4000039
 84471198, -0.006644918, 0.009795712, 3.619707E-06, 0.02596151, -0.02738716, 0.400005, 0.02097064, -0.01361919, 1.698332E-05, 0.02660537, -0.02790754, 0.4000053
 84571158, 0.01262005, 0.005246853, 3.237854E-05, 0.02639364, -0.02748035, 0.4000056, -0.006644918, 0.009795712, 3.619707E-06, 0.02596151, -0.02738716, 0.400005
 84671118, -0.008890802, -0.003854839, -2.304365E-05, 0.02591626, -0.02767616, 0.4000045, 0.01262005, 0.005246853, 3.237854E-05, 0.02639364, -0.02748035, 0.4000056
 84771078, -0.01439276, 0.009591281, -1.132099E-05, 0.02580998, -0.02738745, 0.4000048, -0.008890802, -0.003854839, -2.304365E-05, 0.02591626, -0.02767616, 0.4000045
 84871038, 0.009592993, -0.0129602, -3.16269E-06, 0.02632408, -0.0278856, 0.4000051, -0.01439276, 0.009591281, -1.132099E-05, 0.02580998, -0.02738745, 0.4000048
 84970998, -0.02387308, 0.00648379, -3.413586E-05, 0.02564156, -0.02744577, 0.4000046, 0.009592993, -0.0129602, -3.16269E-06, 0.02632408, -0.0278856, 0.4000051
 85070958, -0.00029193, -0.008706021, -1.466906E-05, 0.02610248, -0.02777939, 0.4000049, -0.02387308, 0.00648379, -3.413586E-05, 0.02564156, -0.02744577, 0.4000046
 85170918, 0.01290532, 0.0002386785, 2.439606E-05, 0.02641013, -0.0275749, 0.4000056, -0.00029193, -0.008706021, -1.466906E-05, 0.02610248, -0.02777939, 0.4000049
 85270878, -0.02121174, 0.01515011, -1.561427E-05, 0.02569505, -0.02727071, 0.4000048, 0.01290532, 0.0002386785, 2.439606E-05, 0.02641013, -0.0275749, 0.4000056
 85370838, -0.0006611727, 0.02261709, 3.454462E-05, 0.02610179, -0.02713462, 0.4000056, -0.02121174, 0.01515011, -1.561427E-05, 0.02569505, -0.02727071, 0.4000048
 85470798, 0.01471526, -0.01502177, 2.194343E-06, 0.0264602, -0.02792804, 0.400005, -0.0006611727, 0.02261709, 3.454462E-05, 0.02610179, -0.02713462, 0.4000056
 85571591, 0.00139206, -0.0002673242, 1.379899E-06, 0.02614749, -0.02758246, 0.400005, 0.01471526, -0.01502177, 2.194343E-06, 0.0264602, -0.02792804, 0.400005
 85671551, 0.009944366, -0.01888165, -1.20779E-05, 0.02634546, -0.02802432, 0.4000047, 0.00139206, -0.0002673242, 1.379899E-06, 0.02614749, -0.02758246, 0.400005
 85771511, -0.01931847, -0.004988562, -4.437427E-05, 0.02573521, -0.02768691, 0.400004, 0.009944366, -0.01888165, -1.20779E-05, 0.02634546, -0.02802432, 0.4000047
 85876469, 0.01559695, 0.01090229, 4.541739E-05, 0.02648729, -0.02734734, 0.4000059, -0.01931847, -0.004988562, -4.437427E-05, 0.02573521, -0.02768691, 0.400004
 85976429, -0.0176658, 0.01160285, -1.379322E-05, 0.02576893, -0.02733163, 0.4000046, 0.01559695, 0.01090229, 4.541739E-05, 0.02648729, -0.02734734, 0.4000059
 86076389, -0.008959398, 0.002678551, -1.289247E-05, 0.02593703, -0.02751224, 0.4000047, -0.0176658, 0.01160285, -1.379322E-05, 0.02576893, -0.02733163, 0.4000046
 86176349, 0.00113938, -0.003501075, -3.499583E-06, 0.02615028, -0.0276461, 0.4000049, -0.008959398, 0.002678551, -1.289247E-05, 0.02593703, -0.02751224, 0.4000047
 86276309, 0.005406639, 0.01583415, 3.434345E-05, 0.0262472, -0.02724573, 0.4000058, 0.00113938, -0.003501075, -3.499583E-06, 0.02615028, -0.0276461, 0.4000049
 86376269, -0.01063365, -0.0256245, -6.017538E-05, 0.02590592, -0.0281913, 0.4000037, 0.005406639, 0.01583415, 3.434345E-05, 0.0262472, -0.02724573, 0.4000058
 86476229, -0.02496437, 0.01801999, -1.698795E-05, 0.02564408, -0.02720343, 0.4000048, -0.01063365, -0.0256245, -6.017538E-05, 0.02590592, -0.0281913, 0.4000037
 86576189, -0.0135151, 0.02517553, 1.532654E-05, 0.02585054, -0.02707789, 0.4000054, -0.02496437, 0.01801999, -1.698795E-05, 0.02564408, -0.02720343, 0.4000048
 86676149, 0.01602904, 0.01128468, 4.644065E-05, 0.0265045, -0.02733058, 0.4000061, -0.0135151, 0.02517553, 1.532654E-05, 0.02585054, -0.02707789, 0.4000054
 86776109, 0.01847501, 0.01118957, 5.1454E-05, 0.02656741, -0.02733119, 0.4000062, 0.01602904, 0.01128468, 4.644065E-05, 0.0265045, -0.02733058, 0.4000061
 86876069, 1.769565E-05, -0.004425136, -7.756127E-06, 0.02613056, -0.0276621, 0.4000049, 0.01847501, 0.01118957, 5.1454E-05, 0.02656741, -0.02733119, 0.4000062
 86976029, 0.02562353, -0.01259209, 2.667202E-05, 0.02675631, -0.0278558, 0.4000056, 1.769565E-05, -0.004425136, -7.756127E-06, 0.02613056, -0.0276621, 0.4000049
 87075989, 0.01420984, 0.001254358, 2.713485E-05, 0.0264617, -0.02753742, 0.4000055, 0.02562353, -0.01259209, 2.667202E-05, 0.02675631, -0.0278558, 0.4000056
 87175949, -0.0006992497, 0.01454911, 2.112539E-05, 0.02611555, -0.02726753, 0.4000053, 0.01420984, 0.001254358, 2.713485E-05, 0.0264617, -0.02753742, 0.4000055
 87275909, -0.01231617, -0.001275782, -2.449245E-05, 0.025877, -0.02759187, 0.4000044, -0.0006992497, 0.01454911, 2.112539E-05, 0.02611555, -0.02726753, 0.4000053
 87375869, -0.004042033, -0.01186384, -2.623526E-05, 0.02604468, -0.02783647, 0.4000044, -0.01231617, -0.001275782, -2.449245E-05, 0.025877, -0.02759187, 0.4000044
 87475829, 0.01313491, -0.003517007, 1.75962E-05, 0.02643601, -0.02764099, 0.4000054, -0.004042033, -0.01186384, -2.623526E-05, 0.02604468, -0.02783647, 0.4000044
 87575789, 0.02411943, 0.008720811, 5.786045E-05, 0.02671716, -0.02738007, 0.4000063, 0.01313491, -0.003517007, 1.75962E-05, 0.02643601, -0.02764099, 0.4000054
 87676582, -0.0002126064, -0.007149422, -1.175985E-05, 0.02614165, -0.02771143, 0.3921616, 0.02411943, 0.008720811, 5.786045E-05, 0.02671716, -0.02738007, 0.4000063
 87776542, -0.001789824, -0.002975277, -7.99788E-06, 0.02609348, -0.02762831, 0.4000048, -0.0002126064, -0.007149422, -1.175985E-05, 0.02614165, -0.02771143, 0.3921616
 87876502, 0.02146304, -0.01317702, 1.821854E-05, 0.02664698, -0.02786764, 0.4000055, -0.001789824, -0.002975277, -7.99788E-06, 0.02609348, -0.02762831, 0.4000048
 87981460, 0.01503082, -0.003234925, 2.233972E-05, 0.02648192, -0.02763418, 0.4000056, 0.02146304, -0.01317702, 1.821854E-05, 0.02664698, -0.02786764, 0.4000055
 88081420, 0.01229836, -0.01004873, 6.47114E-06, 0.02641497, -0.02779276, 0.4000052, 0.01503082, -0.003234925, 2.233972E-05, 0.02648192, -0.02763418, 0.4000056
 88181380, 0.02278205, 0.01071034, 5.877139E-05, 0.02668129, -0.02734167, 0.4000063, 0.01229836, -0.01004873, 6.47114E-06, 0.02641497, -0.02779276, 0.4000052
 88281340, -0.01372013, -0.009184143, -3.979585E-05, 0.02585061, -0.02777437, 0.4000039, 0.02278205, 0.01071034, 5.877139E-05, 0.02668129, -0.02734167, 0.4000063
 88381300, -0.007844402, 0.01228075, 6.107297E-06, 0.02596605, -0.02731279, 0.4000049, -0.01372013, -0.009184143, -3.979585E-05, 0.02585061, -0.02777437, 0.4000039
 88481260, -0.02314467, -0.01606032, -6.822679E-05, 0.02567824, -0.02794419, 0.4000033, -0.007844402, 0.01228075, 6.107297E-06, 0.02596605, -0.02731279, 0.4000049
 88581220, 0.02339134, 0.0133819, 6.445087E-05, 0.02669641, -0.02729382, 0.4000062, -0.02314467, -0.01606032, -6.822679E-05, 0.02567824, -0.02794419, 0.4000033
 88681180, 0.008113563, 0.02370116, 5.316371E-05, 0.0263142, -0.02710759, 0.4000057, 0.02339134, 0.0133819, 6.445087E-05, 0.02669641, -0.02729382, 0.4000062
 88781140, 0.003043565, -0.006711737, -5.283854E-06, 0.02619789, -0.02772236, 0.4000044, 0.008113563, 0.02370116, 5.316371E-05, 0.0263142, -0.02710759, 0.4000057
 88881100, 0.01274535, -0.01799168, -5.753116E-06, 0.02642507, -0.02799691, 0.4000043, 0.003043565, -0.006711737, -5.283854E-06, 0.02619789, -0.02772236, 0.4000044
 88981060, -0.0157516, -0.009374827, -4.415767E-05, 0.02581029, -0.02778543, 0.4000036, 0.01274535, -0.01799168, -5.753116E-06, 0.02642507, -0.02799691, 0.4000043
 89081020, -0.01018586, -0.0177522, -4.754884E-05, 0.0259175, -0.02799152, 0.4000034, -0.0157516, -0.009374827, -4.415767E-05, 0.02581029, -0.02778543, 0.4000036
 89180980, 6.792023E-05, -0.02059346, -3.335612E-05, 0.02613128, -0.02806513, 0.4000036, -0.01018586, -0.0177522, -4.754884E-05, 0.0259175, -0.02799152, 0.4000034
 89280940, -0.01424539, -0.02060348, -5.976407E-05, 0.02583656, -0.02806484, 0.4000033, 6.792023E-05, -0.02059346, -3.335612E-05, 0.02613128, -0.02806513, 0.4000036
 89380900, -0.01055293, -0.01052812, -3.663104E-05, 0.02590548, -0.02781194, 0.4000041, -0.01424539, -0.02060348, -5.976407E-05, 0.02583656, -0.02806484, 0.4000033
 89480860, -0.01767044, -0.02065848, -6.634882E-05, 0.0257683, -0.02806504, 0.4000035, -0.01055293, -0.01052812, -3.663104E-05, 0.02590548, -0.02781194, 0.4000041
 89580820, 0.0007874884, -0.01565301, -2.397039E-05, 0.02613971, -0.02793782, 0.4000044, -0.01767044, -0.02065848, -6.634882E-05, 0.0257683, -0.02806504, 0.4000035
 89680780, 0.00046808, 0.003607077, 6.747831E-06, 0.02613179, -0.02749502, 0.4000051, 0.0007874884, -0.01565301, -2.397039E-05, 0.02613971, -0.02793782, 0.4000044
 89781573, -0.02550404, 0.003320034, -4.214934E-05, 0.02564312, -0.02748937, 0.392161, 0.00046808, 0.003607077, 6.747831E-06, 0.02613179, -0.02749502, 0.4000051
 89881533, -0.001651505, 0.01932089, 2.839964E-05, 0.02608628, -0.02718715, 0.4000055, -0.02550404, 0.003320034, -4.214934E-05, 0.02564312, -0.02748937, 0.392161
 89986491, 0.02326595, 0.02176156, 7.858304E-05, 0.02668648, -0.02714184, 0.4000067, -0.001651505, 0.01932089, 2.839964E-05, 0.02608628, -0.02718715, 0.4000055
 90086451, 0.01926005, -0.02040623, 2.650871E-06, 0.02658487, -0.0280551, 0.400005, 0.02326595, 0.02176156, 7.858304E-05, 0.02668648, -0.02714184, 0.4000067
 90186411, -0.01936409, 0.0232011, 1.664517E-06, 0.02574375, -0.02711144, 0.400005, 0.01926005, -0.02040623, 2.650871E-06, 0.02658487, -0.0280551, 0.400005
 90286371, -0.006405429, -0.003579678, -1.830919E-05, 0.02599554, -0.02764292, 0.4000046, -0.01936409, 0.0232011, 1.664517E-06, 0.02574375, -0.02711144, 0.400005
 90386331, 0.02102028, -0.01101719, 2.016338E-05, 0.02663659, -0.02781522, 0.4000054, -0.006405429, -0.003579678, -1.830919E-05, 0.02599554, -0.02764292, 0.4000046
 90486291, -0.01578264, -0.02378101, -6.777421E-05, 0.02581389, -0.02813655, 0.4000035, 0.02102028, -0.01101719, 2.016338E-05, 0.02663659, -0.02781522, 0.4000054
 90586251, -0.02255507, -0.01067434, -5.836712E-05, 0.02569251, -0.02780275, 0.4000039, -0.01578264, -0.02378101, -6.777421E-05, 0.02581389, -0.02813655, 0.4000035
 90686211, -0.007103506, -0.005043235, -2.180618E-05, 0.02598491, -0.02766916, 0.4000047, -0.02255507, -0.01067434, -5.836712E-05, 0.02569251, -0.02780275, 0.4000039
 90786171, -0.01972569, 0.0131543, -1.52564E-05, 0.02574301, -0.0272845, 0.400005, -0.007103506, -0.005043235, -2.180618E-05, 0.02598491, -0.02766916, 0.4000047
 90886131, -0.01283367, -0.0005868591, -2.440594E-05, 0.02587258, -0.02756613, 0.4000048, -0.01972569, 0.0131543, -1.52564E-05, 0.02574301, -0.0272845, 0.400005
 90986091, -0.01441516, -0.02099939, -5.953822E-05, 0.02584332, -0.02805501, 0.400004, -0.01283367, -0.0005868591, -2.440594E-05, 0.02587258, -0.02756613, 0.4000048
 91086051, 0.0140202, 0.01346237, 4.683716E-05, 0.02646468, -0.02727466, 0.4000064, -0.01441516, -0.02099939, -5.953822E-05, 0.02584332, -0.02805501, 0.400004
 91186011, -0.01949113, -0.01397569, -5.756074E-05, 0.02575149, -0.02787489, 0.4000041, 0.0140202, 0.01346237, 4.683716E-05, 0.02646468, -0.02727466, 0.4000064
 91285971, -0.002864522, 0.002986843, -5.018237E-07, 0.02607912, -0.02748561, 0.4000053, -0.01949113, -0.01397569, -5.756074E-05, 0.02575149, -0.02787489, 0.4000041
 91385931, -0.004280675, 0.0163855, 1.808866E-05, 0.02605012, -0.027219, 0.4000055, -0.002864522, 0.002986843, -5.018237E-07, 0.02607912, -0.02748561, 0.4000053
 91485891, -0.01062319, 0.02061274, 1.319834E-05, 0.02592159, -0.02714109, 0.4000055, -0.004280675, 0.0163855, 1.808866E-05, 0.02605012, -0.027219, 0.4000055
 91585851, -0.01931106, -0.01104223, -5.243667E-05, 0.0257581, -0.02780138, 0.4000042, -0.01062319, 0.02061274, 1.319834E-05, 0.02592159, -0.02714109, 0.4000055
 91685811, 0.01322581, -0.01737358, -3.338331E-06, 0.02645053, -0.0279574, 0.4000052, -0.01931106, -0.01104223, -5.243667E-05, 0.0257581, -0.02780138, 0.4000042
 91785771, -0.01424992, 0.01120049, -8.211788E-06, 0.02585339, -0.0273152, 0.400005, 0.01322581, -0.01737358, -3.338331E-06, 0.02645053, -0.0279574, 0.4000052
 91886564, -0.014953, 0.02583916, 1.359636E-05, 0.02585473, -0.02703726, 0.3921623, -0.01424992, 0.01120049, -8.211788E-06, 0.02585339, -0.0273152, 0.400005
 91986524, -0.008535835, 0.007469873, -3.68406E-06, 0.02596613, -0.02739093, 0.400005, -0.014953, 0.02583916, 1.359636E-05, 0.02585473, -0.02703726, 0.3921623
 92091482, 0.01876783, -0.005839975, 2.483598E-05, 0.02657508, -0.02769279, 0.408169, -0.008535835, 0.007469873, -3.68406E-06, 0.02596613, -0.02739093, 0.400005
 92191442, -0.0130005, -0.008241866, -3.663042E-05, 0.02587644, -0.02773604, 0.4000044, 0.01876783, -0.005839975, 2.483598E-05, 0.02657508, -0.02769279, 0.408169
 92291402, -0.004429155, 0.02262109, 2.691007E-05, 0.02604891, -0.02710549, 0.4000057, -0.0130005, -0.008241866, -3.663042E-05, 0.02587644, -0.02773604, 0.4000044
 92391362, 0.02046906, 0.01923611, 6.760132E-05, 0.02663297, -0.02716594, 0.4000066, -0.004429155, 0.02262109, 2.691007E-05, 0.02604891, -0.02710549, 0.4000057
 92491322, -0.01503108, 0.006577832, -1.688256E-05, 0.02583839, -0.02741112, 0.4000047, 0.02046906, 0.01923611, 6.760132E-05, 0.02663297, -0.02716594, 0.4000066
 92591282, -0.02214727, -0.01273842, -6.042621E-05, 0.02570978, -0.02784667, 0.4000036, -0.01503108, 0.006577832, -1.688256E-05, 0.02583839, -0.02741112, 0.4000047
 92691242, 0.0190184, 0.01798683, 6.310437E-05, 0.02659707, -0.02719168, 0.4000062, -0.02214727, -0.01273842, -6.042621E-05, 0.02570978, -0.02784667, 0.4000036
 92791202, -0.00514416, -0.02009328, -4.129409E-05, 0.02603589, -0.02803223, 0.4000038, 0.0190184, 0.01798683, 6.310437E-05, 0.02659707, -0.02719168, 0.4000062
 92891162, 0.02519951, 0.005293732, 5.415562E-05, 0.02675984, -0.0274397, 0.4000061, -0.00514416, -0.02009328, -4.129409E-05, 0.02603589, -0.02803223, 0.4000038
 92991122, -0.003905032, -0.002002367, -1.027267E-05, 0.02606195, -0.02759651, 0.4000046, 0.02519951, 0.005293732, 5.415562E-05, 0.02675984, -0.0274397, 0.4000061
 93091082, -0.01249459, -0.02005433, -5.456394E-05, 0.02588865, -0.02803062, 0.4000035, -0.003905032, -0.002002367, -1.027267E-05, 0.02606195, -0.02759651, 0.4000046
 93191042, -0.007634163, 0.01794867, 1.470156E-05, 0.02598575, -0.0271917, 0.400005, -0.01249459, -0.02005433, -5.456394E-05, 0.02588865, -0.02803062, 0.4000035
 93291002, 0.01715197, 0.01086479, 4.8367E-05, 0.02655188, -0.02732659, 0.4000058, -0.007634163, 0.01794867, 1.470156E-05, 0.02598575, -0.0271917, 0.400005
 93390962, -0.003484044, -0.001872914, -9.292846E-06, 0.02607349, -0.02759432, 0.4000044, 0.01715197, 0.01086479, 4.8367E-05, 0.02655188, -0.02732659, 0.4000058
 93490922, -0.02158858, 0.01358436, -1.74308E-05, 0.02572271, -0.02727498, 0.4000042, -0.003484044, -0.001872914, -9.292846E-06, 0.02607349, -0.02759432, 0.4000044
 93590882, -0.01649116, -0.0116058, -4.842761E-05, 0.02581412, -0.02782051, 0.4000036, -0.02158858, 0.01358436, -1.74308E-05, 0.02572271, -0.02727498, 0.4000042
 93690842, 0.005890077, -0.02199714, -2.442212E-05, 0.02627853, -0.02808262, 0.400004, -0.01649116, -0.0116058, -4.842761E-05, 0.02581412, -0.02782051, 0.4000036
 93790802, -0.01901393, 0.01291637, -1.320253E-05, 0.02576572, -0.02728817, 0.4000044, 0.005890077, -0.02199714, -2.442212E-05, 0.02627853, -0.02808262, 0.400004
 93890762, 0.008031282, -0.02042486, -1.805148E-05, 0.02632682, -0.02804255, 0.4000042, -0.01901393, 0.01291637, -1.320253E-05, 0.02576572, -0.02728817, 0.4000044
 93991555, 0.0140636, -0.02056834, -7.330804E-06, 0.02647192, -0.02804698, 0.4000044, 0.008031282, -0.02042486, -1.805148E-05, 0.02632682, -0.02804255, 0.4000042
 94091515, 0.01683956, -0.01377824, 8.698717E-06, 0.02653885, -0.02787549, 0.400005, 0.0140636, -0.02056834, -7.330804E-06, 0.02647192, -0.02804698, 0.4000044
 94196473, 0.007016934, -0.01425063, -9.982767E-06, 0.0262829, -0.02790055, 0.408168, 0.01683956, -0.01377824, 8.698717E-06, 0.02653885, -0.02787549, 0.400005
 94296433, -0.01198844, 0.002098985, -1.869596E-05, 0.02589004, -0.02751195, 0.4000045, 0.007016934, -0.01425063, -9.982767E-06, 0.0262829, -0.02790055, 0.408168
 94396393, -0.0005521739, 0.01576325, 2.442282E-05, 0.02612377, -0.02723935, 0.4000055, -0.01198844, 0.002098985, -1.869596E-05, 0.02589004, -0.02751195, 0.4000045
 94496353, 0.008002743, -0.004609563, 7.350933E-06, 0.02631592, -0.02766302, 0.4000051, -0.0005521739, 0.01576325, 2.442282E-05, 0.02612377, -0.02723935, 0.4000055
 94596313, 0.02348777, -0.003053317, 3.858501E-05, 0.02670192, -0.02762895, 0.4000059, 0.008002743, -0.004609563, 7.350933E-06, 0.02631592, -0.02766302, 0.4000051
 94696273, 0.01897101, -0.0198144, 3.097564E-06, 0.0265835, -0.02803317, 0.4000051, 0.02348777, -0.003053317, 3.858501E-05, 0.02670192, -0.02762895, 0.4000059
 94796233, 0.007185728, 0.008568801, 2.722222E-05, 0.02629417, -0.02738033, 0.4000058, 0.01897101, -0.0198144, 3.097564E-06, 0.0265835, -0.02803317, 0.4000051
 94896193, -0.01559619, 0.02223341, 7.055918E-06, 0.02581444, -0.02712487, 0.4000053, 0.007185728, 0.008568801, 2.722222E-05, 0.02629417, -0.02738033, 0.4000058
 94996153, 0.009486024, -0.01900571, -1.24997E-05, 0.02634654, -0.02801497, 0.4000047, -0.01559619, 0.02223341, 7.055918E-06, 0.02581444, -0.02712487, 0.4000053
 95096113, 0.00984618, 0.003589654, 2.412475E-05, 0.0263572, -0.02748493, 0.4000055, 0.009486024, -0.01900571, -1.24997E-05, 0.02634654, -0.02801497, 0.4000047
 95196073, 0.02400237, -0.009223973, 2.951736E-05, 0.02671683, -0.02777038, 0.4000057, 0.00984618, 0.003589654, 2.412475E-05, 0.0263572, -0.02748493, 0.4000055
 95296033, 0.01823214, 0.004909445, 4.164677E-05, 0.02656754, -0.02745415, 0.4000059, 0.02400237, -0.009223973, 2.951736E-05, 0.02671683, -0.02777038, 0.4000057
 95395993, 0.01761607, -0.02249241, -2.993782E-06, 0.02655326, -0.0280996, 0.4000049, 0.01823214, 0.004909445, 4.164677E-05, 0.02656754, -0.02745415, 0.4000059
 95495953, -0.01084448, -0.00879886, -3.417525E-05, 0.02591171, -0.02775603, 0.4000044, 0.01761607, -0.02249241, -2.993782E-06, 0.02655326, -0.0280996, 0.4000049
 95595913, 0.001776136, 0.001584801, 5.823581E-06, 0.02617585, -0.02752003, 0.4000054, -0.01084448, -0.00879886, -3.417525E-05, 0.02591171, -0.02775603, 0.4000044
 95695873, -0.003090143, 0.01908267, 2.562981E-05, 0.02607077, -0.02717247, 0.4000058, 0.001776136, 0.001584801, 5.823581E-06, 0.02617585, -0.02752003, 0.4000054
 95795833, -0.0121825, -0.003044769, -2.731294E-05, 0.02588712, -0.02761991, 0.4000047, -0.003090143, 0.01908267, 2.562981E-05, 0.02607077, -0.02717247, 0.4000058
 95895793, 0.007870573, -0.02521625, -2.573762E-05, 0.0263175, -0.02816519, 0.4000047, -0.0121825, -0.003044769, -2.731294E-05, 0.02588712, -0.02761991, 0.4000047
 95996586, -0.02467572, 0.005626122, -3.642533E-05, 0.0256613, -0.02742872, 0.4000047, 0.007870573, -0.02521625, -2.573762E-05, 0.0263175, -0.02816519, 0.4000047
 96096546, -0.01699128, -0.02004936, -6.301145E-05, 0.02580071, -0.02802758, 0.4000038, -0.02467572, 0.005626122, -3.642533E-05, 0.0256613, -0.02742872, 0.4000047
 96196506, 0.00358971, -0.002464941, 1.842982E-06, 0.02622711, -0.02760446, 0.4000049, -0.01699128, -0.02004936, -6.301145E-05, 0.02580071, -0.02802758, 0.4000038
 96301464, -0.001909561, -0.009750007, -1.9756E-05, 0.02610768, -0.02777193, 0.4000044, 0.00358971, -0.002464941, 1.842982E-06, 0.02622711, -0.02760446, 0.4000049
 96401424, -0.01215194, -0.004803652, -3.044303E-05, 0.02589929, -0.02765613, 0.4000041, -0.001909561, -0.009750007, -1.9756E-05, 0.02610768, -0.02777193, 0.4000044
 96501384, -0.02536745, -0.005733348, -5.5869E-05, 0.02565994, -0.02767691, 0.4000037, -0.01215194, -0.004803652, -3.044303E-05, 0.02589929, -0.02765613, 0.4000041
 96601344, 0.01624762, -0.001609576, 2.689718E-05, 0.02653191, -0.02758348, 0.4000054, -0.02536745, -0.005733348, -5.5869E-05, 0.02565994, -0.02767691, 0.4000037
 96701304, -0.023071, -0.02451521, -8.070593E-05, 0.02569934, -0.02814289, 0.4000031, 0.01624762, -0.001609576, 2.689718E-05, 0.02653191, -0.02758348, 0.4000054
 96801264, -0.01290988, 0.007181137, -1.202141E-05, 0.02588511, -0.02739431, 0.4000047, -0.023071, -0.02451521, -8.070593E-05, 0.02569934, -0.02814289, 0.4000031
 96901224, -0.002822542, -0.007682762, -1.727229E-05, 0.02608933, -0.02771872, 0.4000046, -0.01290988, 0.007181137, -1.202141E-05, 0.02588511, -0.02739431, 0.4000047
 97001184, -0.003346211, -0.0115777, -2.435217E-05, 0.02607792, -0.02781013, 0.4000046, -0.002822542, -0.007682762, -1.727229E-05, 0.02608933, -0.02771872, 0.4000046
 97101144, 0.01667486, 0.01032887, 4.655589E-05, 0.02654268, -0.02732896, 0.4000061, -0.003346211, -0.0115777, -2.435217E-05, 0.02607792, -0.02781013, 0.4000046
 97201104, -0.01804165, 0.009899812, -1.703478E-05, 0.02578956, -0.02733743, 0.4000047, 0.01667486, 0.01032887, 4.655589E-05, 0.02654268, -0.02732896, 0.4000061
 97301064, -0.003266588, -0.005131891, -1.401993E-05, 0.02608222, -0.02765907, 0.4000046, -0.01804165, 0.009899812, -1.703478E-05, 0.02578956, -0.02733743, 0.4000047
 97401024, 0.001796105, -0.02043042, -2.907087E-05, 0.02619311, -0.02803282, 0.4000041, -0.003266588, -0.005131891, -1.401993E-05, 0.02608222, -0.02765907, 0.4000046
 97500984, 0.02538963, 0.00821671, 5.886817E-05, 0.02677291, -0.02737232, 0.4000061, 0.001796105, -0.02043042, -2.907087E-05, 0.02619311, -0.02803282, 0.4000041
 97600944, 0.02198371, -0.02065006, 6.986738E-06, 0.02668212, -0.02803986, 0.4000049, 0.02538963, 0.00821671, 5.886817E-05, 0.02677291, -0.02737232, 0.4000061
 97700904, -0.01434474, -0.003018991, -3.07363E-05, 0.02585998, -0.02761434, 0.400004, 0.02198371, -0.02065006, 6.986738E-06, 0.02668212, -0.02803986, 0.4000049
 97800864, 0.01913748, 0.002095463, 3.796985E-05, 0.02660733, -0.02750346, 0.4000055, -0.01434474, -0.003018991, -3.07363E-05, 0.02585998, -0.02761434, 0.400004
 97900824, 0.004179195, 0.003330398, 1.287523E-05, 0.02624495, -0.02747704, 0.4000049, 0.01913748, 0.002095463, 3.796985E-05, 0.02660733, -0.02750346, 0.4000055
 98000784, -0.009829571, -0.01477969, -4.139474E-05, 0.02594577, -0.02789408, 0.4000037, 0.004179195, 0.003330398, 1.287523E-05, 0.02624495, -0.02747704, 0.4000049
 98101577, 0.02250336, -0.003089439, 3.585634E-05, 0.0267083, -0.02760533, 0.3921624, -0.009829571, -0.01477969, -4.139474E-05, 0.02594577, -0.02789408, 0.4000037
 98201537, 0.02108108, -0.01053203, 2.136332E-05, 0.02665764, -0.02779075, 0.4000051, 0.02250336, -0.003089439, 3.585634E-05, 0.0267083, -0.02760533, 0.3921624
 98306495, -0.01941065, -0.01866146, -6.49002E-05, 0.02576629, -0.02799218, 0.4000031, 0.02108108, -0.01053203, 2.136332E-05, 0.02665764, -0.02779075, 0.4000051
 98406455, -0.01854863, -0.02587277, -7.481229E-05, 0.02578254, -0.02818174, 0.4000028, -0.01941065, -0.01866146, -6.49002E-05, 0.02576629, -0.02799218, 0.4000031
 98506415, -0.01603924, 0.004969944, -2.103384E-05, 0.02582968, -0.02744329, 0.400004, -0.01854863, -0.02587277, -7.481229E-05, 0.02578254, -0.02818174, 0.4000028
 98606375, 0.008329955, -0.019185, -1.561377E-05, 0.02634419, -0.02800591, 0.4000039, -0.01603924, 0.004969944, -2.103384E-05, 0.02582968, -0.02744329, 0.400004
 98706335, -0.003676154, 0.005476319, 2.105729E-06, 0.02607473, -0.02743354, 0.4000044, 0.008329955, -0.019185, -1.561377E-05, 0.02634419, -0.02800591, 0.4000039
 98806295, -0.001684172, 0.00973736, 1.253223E-05, 0.0261156, -0.02734756, 0.4000047, -0.003676154, 0.005476319, 2.105729E-06, 0.02607473, -0.02743354, 0.4000044
 98906255, 0.01266684, 0.01203082, 4.23336E-05, 0.02644298, -0.02730393, 0.4000054, -0.001684172, 0.00973736, 1.253223E-05, 0.0261156, -0.02734756, 0.4000047
 99006215, 0.005609781, 0.01586262, 3.575492E-05, 0.02627377, -0.02723252, 0.4000053, 0.01266684, 0.01203082, 4.23336E-05, 0.02644298, -0.02730393, 0.4000054
 99106175, 0.009069896, 0.001200753, 1.847356E-05, 0.02635477, -0.02752985, 0.4000048, 0.005609781, 0.01586262, 3.575492E-05, 0.02627377, -0.02723252, 0.4000053
 99206135, -0.02200872, 0.007223791, -2.84011E-05, 0.0257162, -0.02740509, 0.4000036, 0.009069896, 0.001200753, 1.847356E-05, 0.02635477, -0.02752985, 0.4000048
 99306095, -0.001744115, 0.005998485, 6.528508E-06, 0.02611057, -0.02743009, 0.4000044, -0.02200872, 0.007223791, -2.84011E-05, 0.0257162, -0.02740509, 0.4000036
 99406055, 0.02504749, -0.00657648, 3.509949E-05, 0.02675744, -0.02770588, 0.4000052, -0.001744115, 0.005998485, 6.528508E-06, 0.02611057, -0.02743009, 0.4000044
 99506015, 0.003201937, 0.0006276522, 6.876407E-06, 0.02621701, -0.02754452, 0.4000045, 0.02504749, -0.00657648, 3.509949E-05, 0.02675744, -0.02770588, 0.4000052
 99605975, 0.009804185, 0.01521418, 4.26594E-05, 0.02636844, -0.02724934, 0.4000053, 0.003201937, 0.0006276522, 6.876407E-06, 0.02621701, -0.02754452, 0.4000045
 99705935, -0.008892604, 0.001195631, -1.440865E-05, 0.02595627, -0.0275336, 0.4000042, 0.009804185, 0.01521418, 4.26594E-05, 0.02636844, -0.02724934, 0.4000053
 99805895, 0.003405395, -0.004825421, -1.578101E-06, 0.02621683, -0.02766841, 0.4000045, -0.008892604, 0.001195631, -1.440865E-05, 0.02595627, -0.0275336, 0.4000042
 99905855, 2.479754E-05, -0.02237272, -3.64101E-05, 0.0261411, -0.02810028, 0.4000036, 0.003405395, -0.004825421, -1.578101E-06, 0.02621683, -0.02766841, 0.4000045
 100005815, -0.02452321, 0.01357219, -2.313759E-05, 0.02566393, -0.02728366, 0.4000041, 2.479754E-05, -0.02237272, -3.64101E-05, 0.0261411, -0.02810028, 0.4000036
 100105775, 0.01852686, 0.007891863, 4.715271E-05, 0.02657798, -0.027396, 0.4000056, -0.02452321, 0.01357219, -2.313759E-05, 0.02566393, -0.02728366, 0.4000041
 100206568, 0.0136514, 0.01168937, 4.441442E-05, 0.02646883, -0.02730835, 0.3921625, 0.01852686, 0.007891863, 4.715271E-05, 0.02657798, -0.027396, 0.4000056
 100306528, -0.01858359, -0.0003146336, -3.48076E-05, 0.02576877, -0.02756976, 0.4000037, 0.0136514, 0.01168937, 4.441442E-05, 0.02646883, -0.02730835, 0.3921625
 100411486, -0.01615614, -0.006095568, -3.963329E-05, 0.02581664, -0.02769972, 0.4000034, -0.01858359, -0.0003146336, -3.48076E-05, 0.02576877, -0.02756976, 0.4000037
 100511446, -0.02026401, 0.02490247, 3.369736E-06, 0.02574297, -0.02707794, 0.4000043, -0.01615614, -0.006095568, -3.963329E-05, 0.02581664, -0.02769972, 0.4000034
 100611406, 0.02013415, 0.003851184, 4.386114E-05, 0.02662659, -0.02747562, 0.4000054, -0.02026401, 0.02490247, 3.369736E-06, 0.02574297, -0.02707794, 0.4000043
 100711366, -0.002376513, -0.01249823, -2.456459E-05, 0.02609636, -0.02784592, 0.4000038, 0.02013415, 0.003851184, 4.386114E-05, 0.02662659, -0.02747562, 0.4000054
 100811326, -0.02068952, -0.009395239, -5.285352E-05, 0.02574, -0.02777035, 0.4000032, -0.002376513, -0.01249823, -2.456459E-05, 0.02609636, -0.02784592, 0.4000038
 100911286, 0.00939766, -0.01790053, -1.181952E-05, 0.0263658, -0.02797871, 0.4000039, -0.02068952, -0.009395239, -5.285352E-05, 0.02574, -0.02777035, 0.4000032
 101011246, 0.004346171, 0.01135907, 2.617952E-05, 0.02625034, -0.02731952, 0.4000046, 0.00939766, -0.01790053, -1.181952E-05, 0.0263658, -0.02797871, 0.4000039
 101111206, 0.01750738, 0.01726343, 5.942667E-05, 0.02656798, -0.02720647, 0.4000054, 0.004346171, 0.01135907, 2.617952E-05, 0.02625034, -0.02731952, 0.4000046
 101211166, -0.008185558, -0.02588919, -5.636496E-05, 0.02598355, -0.02818582, 0.4000028, 0.01750738, 0.01726343, 5.942667E-05, 0.02656798, -0.02720647, 0.4000054
 101311126, 0.0198948, -0.01886718, 5.557675E-06, 0.026632, -0.02799962, 0.4000042, -0.008185558, -0.02588919, -5.636496E-05, 0.02598355, -0.02818582, 0.4000028
 101411086, -0.02470182, 0.01556501, -1.944804E-05, 0.02567981, -0.02723498, 0.4000037, 0.0198948, -0.01886718, 5.557675E-06, 0.026632, -0.02799962, 0.4000042
 101511046, -0.02370455, 0.01430894, -1.961125E-05, 0.02569775, -0.02725868, 0.4000036, -0.02470182, 0.01556501, -1.944804E-05, 0.02567981, -0.02723498, 0.4000037
 101611006, 0.01568343, 0.00973082, 4.36634E-05, 0.02652829, -0.02734761, 0.4000049, -0.02370455, 0.01430894, -1.961125E-05, 0.02569775, -0.02725868, 0.4000036
 101710966, 0.01762694, -0.007512915, 1.953855E-05, 0.02657764, -0.02772008, 0.4000044, 0.01568343, 0.00973082, 4.36634E-05, 0.02652829, -0.02734761, 0.4000049
 101810926, -0.01726109, -0.01066961, -4.791669E-05, 0.02581427, -0.02779426, 0.4000029, 0.01762694, -0.007512915, 1.953855E-05, 0.02657764, -0.02772008, 0.4000044
 101910886, 0.01987545, -0.02213411, 2.66351E-07, 0.02663539, -0.02808129, 0.400004, -0.01726109, -0.01066961, -4.791669E-05, 0.02581427, -0.02779426, 0.4000029
 102010846, 0.002771268, 0.02389628, 4.298039E-05, 0.0262225, -0.02708176, 0.400005, 0.01987545, -0.02213411, 2.66351E-07, 0.02663539, -0.02808129, 0.400004
 102110806, -0.02006148, -0.02008016, -6.786475E-05, 0.02576261, -0.02802652, 0.4000026, 0.002771268, 0.02389628, 4.298039E-05, 0.0262225, -0.02708176, 0.400005
 102210766, 0.005192172, 0.009421123, 2.351768E-05, 0.02627751, -0.02735026, 0.4000046, -0.02006148, -0.02008016, -6.786475E-05, 0.02576261, -0.02802652, 0.4000026
 102311559, 0.001306099, 0.0008134185, 2.883054E-06, 0.02620336, -0.02751585, 0.3921612, 0.005192172, 0.009421123, 2.351768E-05, 0.02627751, -0.02735026, 0.4000046
 102411519, 0.01912593, -0.01402597, 1.129072E-05, 0.02661459, -0.02787107, 0.4000046, 0.001306099, 0.0008134185, 2.883054E-06, 0.02620336, -0.02751585, 0.3921612
 102516477, -0.007185788, -0.02235548, -4.834269E-05, 0.02600868, -0.02808417, 0.4000031, 0.01912593, -0.01402597, 1.129072E-05, 0.02661459, -0.02787107, 0.4000046
 102616437, -0.01467614, -0.01769831, -5.437702E-05, 0.02586203, -0.02796458, 0.400003, -0.007185788, -0.02235548, -4.834269E-05, 0.02600868, -0.02808417, 0.4000031
 102716397, -0.0182212, 0.02095967, 9.34233E-07, 0.02579852, -0.02713451, 0.4000038, -0.01467614, -0.01769831, -5.437702E-05, 0.02586203, -0.02796458, 0.400003
 102816357, 0.002499508, -0.01075608, -1.276212E-05, 0.0262212, -0.02779741, 0.4000033, -0.0182212, 0.02095967, 9.34233E-07, 0.02579852, -0.02713451, 0.4000038
 102916317, -0.0103449, -0.003598378, -2.414577E-05, 0.02595043, -0.02763052, 0.4000031, 0.002499508, -0.01075608, -1.276212E-05, 0.0262212, -0.02779741, 0.4000033
 103016277, -0.01939463, -0.01954451, -6.574966E-05, 0.02577901, -0.02801595, 0.4000022, -0.0103449, -0.003598378, -2.414577E-05, 0.02595043, -0.02763052, 0.4000031
 103116237, 0.009546326, -0.002205986, 1.349497E-05, 0.0263815, -0.02759912, 0.400004, -0.01939463, -0.01954451, -6.574966E-05, 0.02577901, -0.02801595, 0.4000022
 103216197, -0.01192362, -0.009752925, -3.688429E-05, 0.02591611, -0.02777294, 0.400003, 0.009546326, -0.002205986, 1.349497E-05, 0.0263815, -0.02759912, 0.400004
 103316157, -0.01702426, 0.007696615, -1.813747E-05, 0.02581849, -0.02738822, 0.4000035, -0.01192362, -0.009752925, -3.688429E-05, 0.02591611, -0.02777294, 0.400003
 103416117, -0.01483647, 0.02530655, 1.39132E-05, 0.02585872, -0.02706119, 0.4000041, -0.01702426, 0.007696615, -1.813747E-05, 0.02581849, -0.02738822, 0.4000035
 103516077, 2.513293E-05, 0.01540098, 2.465704E-05, 0.02615968, -0.02723719, 0.4000045, -0.01483647, 0.02530655, 1.39132E-05, 0.02585872, -0.02706119, 0.4000041
 103616037, -0.02110352, -0.02170575, -7.263335E-05, 0.02574041, -0.02807132, 0.4000026, 2.513293E-05, 0.01540098, 2.465704E-05, 0.02615968, -0.02723719, 0.4000045
 103715997, -0.02083237, 0.02405708, 9.086434E-07, 0.0257445, -0.02708167, 0.4000042, -0.02110352, -0.02170575, -7.263335E-05, 0.02574041, -0.02807132, 0.4000026
 103815957, -0.01662178, 0.01392049, -7.731594E-06, 0.02581968, -0.02726545, 0.4000041, -0.02083237, 0.02405708, 9.086434E-07, 0.0257445, -0.02708167, 0.4000042
 103915917, 0.003149605, 0.025991, 4.729851E-05, 0.02622493, -0.02705042, 0.4000052, -0.01662178, 0.01392049, -7.731594E-06, 0.02581968, -0.02726545, 0.4000041
 104015877, -0.02066959, -0.02195922, -7.251783E-05, 0.02574562, -0.02808012, 0.4000026, 0.003149605, 0.025991, 4.729851E-05, 0.02622493, -0.02705042, 0.4000052
 104115837, 0.01288418, -0.01142382, 4.953496E-06, 0.02645306, -0.02781465, 0.4000043, -0.02066959, -0.02195922, -7.251783E-05, 0.02574562, -0.02808012, 0.4000026
 104215797, -0.005668434, -0.02485971, -5.011025E-05, 0.02603376, -0.02815729, 0.4000031, 0.01288418, -0.01142382, 4.953496E-06, 0.02645306, -0.02781465, 0.4000043
 104316590, 0.01951579, -0.0157105, 1.008967E-05, 0.02663236, -0.02790818, 0.3921614, -0.005668434, -0.02485971, -5.011025E-05, 0.02603376, -0.02815729, 0.4000031
 104416550, -0.01464125, -0.0002648979, -2.695537E-05, 0.02585389, -0.02755969, 0.4000037, 0.01951579, -0.0157105, 1.008967E-05, 0.02663236, -0.02790818, 0.3921614
 104516510, 0.009370527, 0.007572149, 2.995165E-05, 0.02636619, -0.02739586, 0.4000047, -0.01464125, -0.0002648979, -2.695537E-05, 0.02585389, -0.02755969, 0.4000037
 104621468, -0.005256719, 0.002104486, -5.364072E-06, 0.02604019, -0.02751164, 0.4000039, 0.009370527, 0.007572149, 2.995165E-05, 0.02636619, -0.02739586, 0.4000047
 104721428, 0.01394565, 0.001550957, 2.78356E-05, 0.02647532, -0.02752457, 0.4000047, -0.005256719, 0.002104486, -5.364072E-06, 0.02604019, -0.02751164, 0.4000039
 104821388, 0.02153623, 0.02356149, 7.814402E-05, 0.02666698, -0.02709952, 0.4000057, 0.01394565, 0.001550957, 2.78356E-05, 0.02647532, -0.02752457, 0.4000047
 104921348, 0.0115433, -0.01405062, -1.788358E-06, 0.02641472, -0.02788654, 0.400004, 0.02153623, 0.02356149, 7.814402E-05, 0.02666698, -0.02709952, 0.4000057
 105021308, 0.006353642, 0.008402588, 2.525304E-05, 0.02629096, -0.02738418, 0.4000046, 0.0115433, -0.01405062, -1.788358E-06, 0.02641472, -0.02788654, 0.400004
 105121268, -0.02106839, -0.02069929, -7.230292E-05, 0.02572977, -0.02805811, 0.4000025, 0.006353642, 0.008402588, 2.525304E-05, 0.02629096, -0.02738418, 0.4000046
 105221228, -0.002129981, 0.01317332, 1.765865E-05, 0.0260982, -0.02729437, 0.4000044, -0.02106839, -0.02069929, -7.230292E-05, 0.02572977, -0.02805811, 0.4000025
 105321188, 0.01425366, -0.01486175, 1.785886E-06, 0.02647491, -0.0279136, 0.400004, -0.002129981, 0.01317332, 1.765865E-05, 0.0260982, -0.02729437, 0.4000044
 105421148, -0.01841963, 0.00761293, -2.13556E-05, 0.02577331, -0.02740762, 0.4000035, 0.01425366, -0.01486175, 1.785886E-06, 0.02647491, -0.0279136, 0.400004
 105521108, 0.005546671, -0.01833631, -1.99087E-05, 0.02626807, -0.02800095, 0.4000035, -0.01841963, 0.00761293, -2.13556E-05, 0.02577331, -0.02740762, 0.4000035
 105621068, -0.02364362, 0.003247444, -3.796225E-05, 0.02568416, -0.02749525, 0.4000032, 0.005546671, -0.01833631, -1.99087E-05, 0.02626807, -0.02800095, 0.4000035
 105721028, -0.01183943, -0.0180807, -5.110215E-05, 0.02590245, -0.02799118, 0.4000028, -0.02364362, 0.003247444, -3.796225E-05, 0.02568416, -0.02749525, 0.4000032
 105820988, 0.01296232, -0.01797327, -5.653794E-06, 0.0264494, -0.02798664, 0.4000038, -0.01183943, -0.0180807, -5.110215E-05, 0.02590245, -0.02799118, 0.4000028
 105920948, 0.0005227664, -0.01651729, -2.585705E-05, 0.02616118, -0.02794854, 0.4000034, 0.01296232, -0.01797327, -5.653794E-06, 0.0264494, -0.02798664, 0.4000038
 106020908, -0.009086381, 0.0255034, 2.480198E-05, 0.02596007, -0.02706632, 0.4000045, 0.0005227664, -0.01651729, -2.585705E-05, 0.02616118, -0.02794854, 0.4000034
 106120868, 0.01540412, 0.01201744, 4.735111E-05, 0.02651136, -0.02730938, 0.4000051, -0.009086381, 0.0255034, 2.480198E-05, 0.02596007, -0.02706632, 0.4000045
 106220828, -0.0149184, 0.02294637, 9.93605E-06, 0.02584763, -0.02710694, 0.4000043, 0.01540412, 0.01201744, 4.735111E-05, 0.02651136, -0.02730938, 0.4000051
 106320788, -0.007642442, 0.005526373, -4.976088E-06, 0.02598937, -0.02743734, 0.4000042, -0.0149184, 0.02294637, 9.93605E-06, 0.02584763, -0.02710694, 0.4000043
 106421581, -0.02247755, 0.01642433, -1.444578E-05, 0.02572348, -0.02720878, 0.3921611, -0.007642442, 0.005526373, -4.976088E-06, 0.02598937, -0.02743734, 0.4000042
 106521541, 0.004376583, 0.01793126, 3.666118E-05, 0.02624799, -0.02719291, 0.4000052, -0.02247755, 0.01642433, -1.444578E-05, 0.02572348, -0.02720878, 0.3921611
 106621501, 0.02602082, 0.001706981, 4.98887E-05, 0.02678724, -0.02751505, 0.4000057, 0.004376583, 0.01793126, 3.666118E-05, 0.02624799, -0.02719291, 0.4000052
 106726459, 0.005692517, -0.01104167, -6.54574E-06, 0.02627885, -0.02780403, 0.4000044, 0.02602082, 0.001706981, 4.98887E-05, 0.02678724, -0.02751505, 0.4000057
 106826419, -0.006750623, 0.002340006, -8.498248E-06, 0.0260084, -0.02749835, 0.4000045, 0.005692517, -0.01104167, -6.54574E-06, 0.02627885, -0.02780403, 0.4000044
 106926379, 0.001445344, 0.005653326, 1.159613E-05, 0.0261825, -0.0274273, 0.400005, -0.006750623, 0.002340006, -8.498248E-06, 0.0260084, -0.02749835, 0.4000045
 107026339, -0.003579486, 0.02291397, 2.985662E-05, 0.02607369, -0.02709844, 0.4000054, 0.001445344, 0.005653326, 1.159613E-05, 0.0261825, -0.0274273, 0.400005
 107126299, -0.005051799, -0.002976262, -1.31004E-05, 0.02604431, -0.02761444, 0.4000044, -0.003579486, 0.02291397, 2.985662E-05, 0.02607369, -0.02709844, 0.4000054
 107226259, 0.0165152, 0.02179054, 6.52462E-05, 0.02654134, -0.02712038, 0.4000059, -0.005051799, -0.002976262, -1.31004E-05, 0.02604431, -0.02761444, 0.4000044
 107326219, 0.002152396, -0.0002497613, 4.253792E-06, 0.02620018, -0.02755356, 0.4000047, 0.0165152, 0.02179054, 6.52462E-05, 0.02654134, -0.02712038, 0.4000059
 107426179, -0.008082015, -0.0198526, -4.607707E-05, 0.02598238, -0.02802049, 0.4000036, 0.002152396, -0.0002497613, 4.253792E-06, 0.02620018, -0.02755356, 0.4000047
 107526139, 0.01952431, -0.003189402, 3.014635E-05, 0.02661851, -0.02761828, 0.4000053, -0.008082015, -0.0198526, -4.607707E-05, 0.02598238, -0.02802049, 0.4000036
 107626099, -0.01513757, 0.01688185, -4.618996E-07, 0.02584727, -0.02720683, 0.4000045, 0.01952431, -0.003189402, 3.014635E-05, 0.02661851, -0.02761828, 0.4000053
 107726059, 0.01032618, -0.01570821, -6.377473E-06, 0.02639271, -0.0279158, 0.4000042, -0.01513757, 0.01688185, -4.618996E-07, 0.02584727, -0.02720683, 0.4000045
 107826019, -0.01160813, 0.01976408, 1.057118E-05, 0.02591706, -0.02715547, 0.4000045, 0.01032618, -0.01570821, -6.377473E-06, 0.02639271, -0.0279158, 0.4000042
 107925979, 0.008088294, 0.004288222, 2.131622E-05, 0.02634127, -0.02745795, 0.4000046, -0.01160813, 0.01976408, 1.057118E-05, 0.02591706, -0.02715547, 0.4000045
 108025939, -0.01791296, -0.02123926, -6.594836E-05, 0.02579852, -0.02806043, 0.4000026, 0.008088294, 0.004288222, 2.131622E-05, 0.02634127, -0.02745795, 0.4000046
 108125899, -0.01726069, -0.0175392, -5.891933E-05, 0.02581047, -0.02796612, 0.4000027, -0.01791296, -0.02123926, -6.594836E-05, 0.02579852, -0.02806043, 0.4000026
 108225859, -0.02430442, 0.004934552, -3.561795E-05, 0.02568609, -0.02744766, 0.4000032, -0.01726069, -0.0175392, -5.891933E-05, 0.02581047, -0.02796612, 0.4000027
 108325819, -0.0190186, 0.009900054, -1.805502E-05, 0.02578066, -0.02734943, 0.4000032, -0.02430442, 0.004934552, -3.561795E-05, 0.02568609, -0.02744766, 0.4000032
 108425779, -0.01534226, -0.02302256, -6.368889E-05, 0.0258497, -0.02811455, 0.4000019, -0.0190186, 0.009900054, -1.805502E-05, 0.02578066, -0.02734943, 0.4000032
 108526572, -0.0230547, 0.01213343, -2.15787E-05, 0.02572368, -0.02729529, 0.3921599, -0.01534226, -0.02302256, -6.368889E-05, 0.0258497, -0.02811455, 0.4000019
 108626532, -0.01632435, -0.02587986, -7.088434E-05, 0.02582924, -0.028191, 0.4000019, -0.0230547, 0.01213343, -2.15787E-05, 0.02572368, -0.02729529, 0.3921599
 108731490, -0.01128, 0.01240012, -2.293691E-07, 0.02590931, -0.02731555, 0.4081669, -0.01632435, -0.02587986, -7.088434E-05, 0.02582924, -0.028191, 0.4000019
 108831450, 0.0224497, 0.002411373, 4.419591E-05, 0.02669708, -0.02750613, 0.4000047, -0.01128, 0.01240012, -2.293691E-07, 0.02590931, -0.02731555, 0.4081669
 108931410, -0.02087104, 0.00278577, -3.304542E-05, 0.02574208, -0.02749876, 0.4000031, 0.0224497, 0.002411373, 4.419591E-05, 0.02669708, -0.02750613, 0.4000047
 109031370, 0.01937751, 0.01487505, 5.8892E-05, 0.02661476, -0.02725584, 0.4000051, -0.02087104, 0.00278577, -3.304542E-05, 0.02574208, -0.02749876, 0.4000031
 109131330, -0.01293078, 0.0136232, -1.36973E-06, 0.02588692, -0.027279, 0.4000039, 0.01937751, 0.01487505, 5.8892E-05, 0.02661476, -0.02725584, 0.4000051
 109231290, 0.00954318, 0.003091655, 2.221341E-05, 0.02636947, -0.02749123, 0.4000045, -0.01293078, 0.0136232, -1.36973E-06, 0.02588692, -0.027279, 0.4000039
 109331250, -0.0008920465, -0.003490251, -7.228283E-06, 0.02613161, -0.02763485, 0.4000039, 0.00954318, 0.003091655, 2.221341E-05, 0.02636947, -0.02749123, 0.4000045
 109431210, 0.01188474, 0.01243351, 4.150801E-05, 0.02642417, -0.02730096, 0.4000051, -0.0008920465, -0.003490251, -7.228283E-06, 0.02613161, -0.02763485, 0.4000039
 109531170, 0.01076705, -0.0008039615, 1.895408E-05, 0.02639714, -0.02757619, 0.4000045, 0.01188474, 0.01243351, 4.150801E-05, 0.02642417, -0.02730096, 0.4000051
 109631130, 0.004035171, 0.001633646, 9.94081E-06, 0.02624011, -0.02752433, 0.4000042, 0.01076705, -0.0008039615, 1.895408E-05, 0.02639714, -0.02757619, 0.4000045
 109731090, 0.005730778, -0.01828376, -1.919523E-05, 0.02627815, -0.02799385, 0.4000035, 0.004035171, 0.001633646, 9.94081E-06, 0.02624011, -0.02752433, 0.4000042
 109831050, 0.01844889, -0.004458782, 2.702189E-05, 0.02658551, -0.0276611, 0.4000046, 0.005730778, -0.01828376, -1.919523E-05, 0.02627815, -0.02799385, 0.4000035
 109931010, 0.0004949376, 0.02407696, 3.992027E-05, 0.02615719, -0.02709352, 0.4000049, 0.01844889, -0.004458782, 2.702189E-05, 0.02658551, -0.0276611, 0.4000046
 110030970, -0.01048846, 0.02277861, 1.785515E-05, 0.02592682, -0.02711683, 0.4000044, 0.0004949376, 0.02407696, 3.992027E-05, 0.02615719, -0.02709352, 0.4000049
 110130930, -0.01545556, -0.007324983, -4.008565E-05, 0.02583268, -0.02773304, 0.4000028, -0.01048846, 0.02277861, 1.785515E-05, 0.02592682, -0.02711683, 0.4000044
 110230890, -0.01388009, -0.01554706, -5.076126E-05, 0.02586358, -0.02793509, 0.4000022, -0.01545556, -0.007324983, -4.008565E-05, 0.02583268, -0.02773304, 0.4000028
 110330850, -0.02461972, -0.01014262, -6.149928E-05, 0.02566831, -0.02780365, 0.4000022, -0.01388009, -0.01554706, -5.076126E-05, 0.02586358, -0.02793509, 0.4000022
 110430810, 0.01854968, -0.01835019, 3.655019E-06, 0.02658407, -0.02800668, 0.4000036, -0.02461972, -0.01014262, -6.149928E-05, 0.02566831, -0.02780365, 0.4000022
 110530770, -0.02021921, -0.02268138, -7.435585E-05, 0.02574092, -0.02811965, 0.400002, 0.01854968, -0.01835019, 3.655019E-06, 0.02658407, -0.02800668, 0.4000036
 110631563, 0.01938174, 0.01392397, 5.845302E-05, 0.02660222, -0.02728752, 0.400005, -0.02021921, -0.02268138, -7.435585E-05, 0.02574092, -0.02811965, 0.400002
 110731523, 0.004130469, -0.0231573, -3.053003E-05, 0.02623536, -0.02813136, 0.4000028, 0.01938174, 0.01392397, 5.845302E-05, 0.02660222, -0.02728752, 0.400005
 110836481, -0.01373026, 0.01900388, 6.154931E-06, 0.02584967, -0.02720371, 0.408167, 0.004130469, -0.0231573, -3.053003E-05, 0.02623536, -0.02813136, 0.4000028
 110936441, 0.01104027, -0.02306421, -1.759591E-05, 0.02640071, -0.02812449, 0.4000032, -0.01373026, 0.01900388, 6.154931E-06, 0.02584967, -0.02720371, 0.408167
 111036401, -0.01179457, -0.0098587, -3.739956E-05, 0.02590479, -0.02779037, 0.4000029, 0.01104027, -0.02306421, -1.759591E-05, 0.02640071, -0.02812449, 0.4000032
 111136361, -0.02194363, -0.01462511, -6.337352E-05, 0.02571904, -0.02790535, 0.4000023, -0.01179457, -0.0098587, -3.739956E-05, 0.02590479, -0.02779037, 0.4000029
 111236321, 0.01761648, 0.02290973, 6.887239E-05, 0.02656798, -0.02711483, 0.4000051, -0.02194363, -0.01462511, -6.337352E-05, 0.02571904, -0.02790535, 0.4000023
 111336281, -0.02590983, -0.01982239, -7.877192E-05, 0.02565164, -0.02803434, 0.4000021, 0.01761648, 0.02290973, 6.887239E-05, 0.02656798, -0.02711483, 0.4000051
 111436241, -0.01856276, -0.01701647, -6.091364E-05, 0.02577969, -0.02796124, 0.4000026, -0.02590983, -0.01982239, -7.877192E-05, 0.02565164, -0.02803434, 0.4000021
 111536201, -0.01132537, -0.01793942, -4.923591E-05, 0.02591782, -0.02798331, 0.4000028, -0.01856276, -0.01701647, -6.091364E-05, 0.02577969, -0.02796124, 0.4000026
 111636161, 0.009523097, -0.009237636, 2.273736E-06, 0.02637131, -0.02776803, 0.4000039, -0.01132537, -0.01793942, -4.923591E-05, 0.02591782, -0.02798331, 0.4000028
 111736121, 0.01206973, -0.02075353, -1.161465E-05, 0.02643406, -0.028053, 0.4000036, 0.009523097, -0.009237636, 2.273736E-06, 0.02637131, -0.02776803, 0.4000039
 111836081, -0.01214159, -0.003659575, -2.75625E-05, 0.02590618, -0.02763769, 0.4000032, 0.01206973, -0.02075353, -1.161465E-05, 0.02643406, -0.028053, 0.4000036
 111936041, 0.01302313, 0.009806894, 3.897811E-05, 0.02645922, -0.02735309, 0.4000045, -0.01214159, -0.003659575, -2.75625E-05, 0.02590618, -0.02763769, 0.4000032
 112036001, 0.02503144, 0.02049166, 7.752856E-05, 0.02676809, -0.02715274, 0.4000053, 0.01302313, 0.009806894, 3.897811E-05, 0.02645922, -0.02735309, 0.4000045
 112135961, 0.01548926, 0.007505659, 3.962115E-05, 0.0265214, -0.02739917, 0.4000045, 0.02503144, 0.02049166, 7.752856E-05, 0.02676809, -0.02715274, 0.4000053
 112235921, 0.02179932, -0.002001482, 3.559424E-05, 0.02668342, -0.02760074, 0.4000045, 0.01548926, 0.007505659, 3.962115E-05, 0.0265214, -0.02739917, 0.4000045
 112335881, -0.01014974, 0.0141275, 4.505679E-06, 0.02594795, -0.0272668, 0.4000038, 0.02179932, -0.002001482, 3.559424E-05, 0.02668342, -0.02760074, 0.4000045
 112435841, -0.02268064, 0.01261386, -2.020451E-05, 0.02571528, -0.02729545, 0.4000033, -0.01014974, 0.0141275, 4.505679E-06, 0.02594795, -0.0272668, 0.4000038
 112535801, 0.01333947, 0.0214201, 5.792204E-05, 0.02646938, -0.02713355, 0.4000048, -0.02268064, 0.01261386, -2.020451E-05, 0.02571528, -0.02729545, 0.4000033
 112635761, -0.02397951, 0.01725269, -1.500082E-05, 0.02569387, -0.027209, 0.4000033, 0.01333947, 0.0214201, 5.792204E-05, 0.02646938, -0.02713355, 0.4000048
 112736554, 0.02291353, 0.01155749, 5.913208E-05, 0.0267143, -0.02731764, 0.4000048, -0.02397951, 0.01725269, -1.500082E-05, 0.02569387, -0.027209, 0.4000033
 112836514, 0.01633155, -0.01708076, 1.663218E-06, 0.02654433, -0.02795961, 0.4000035, 0.02291353, 0.01155749, 5.913208E-05, 0.0267143, -0.02731764, 0.4000048
 112941472, -0.0005548897, 0.0239083, 3.725887E-05, 0.0261327, -0.02710472, 0.4081676, 0.01633155, -0.01708076, 1.663218E-06, 0.02654433, -0.02795961, 0.4000035
 113041432, -0.02600009, -0.01314381, -6.730708E-05, 0.02565745, -0.02786216, 0.4000022, -0.0005548897, 0.0239083, 3.725887E-05, 0.0261327, -0.02710472, 0.4081676
 113141392, -0.009486763, 0.02468447, 2.261875E-05, 0.02596026, -0.0270788, 0.400004, -0.02600009, -0.01314381, -6.730708E-05, 0.02565745, -0.02786216, 0.4000022
 113241352, -0.003951719, -0.02277134, -4.348426E-05, 0.02607393, -0.02810759, 0.4000025, -0.009486763, 0.02468447, 2.261875E-05, 0.02596026, -0.0270788, 0.400004
 113341312, 0.003224223, -0.009390638, -9.319133E-06, 0.02623006, -0.02777312, 0.4000033, -0.003951719, -0.02277134, -4.348426E-05, 0.02607393, -0.02810759, 0.4000025
 113441272, -7.68779E-05, 0.01349224, 2.151629E-05, 0.02615668, -0.02728304, 0.4000039, 0.003224223, -0.009390638, -9.319133E-06, 0.02623006, -0.02777312, 0.4000033
 113541232, -0.01190071, 0.02370791, 1.689713E-05, 0.02591243, -0.02709799, 0.4000037, -7.68779E-05, 0.01349224, 2.151629E-05, 0.02615668, -0.02728304, 0.4000039
 113641192, 0.002460197, -0.009605694, -1.104048E-05, 0.02621212, -0.02777928, 0.4000032, -0.01190071, 0.02370791, 1.689713E-05, 0.02591243, -0.02709799, 0.4000037
 113741152, 0.01830293, 0.02405121, 7.121715E-05, 0.02658978, -0.02709146, 0.4000051, 0.002460197, -0.009605694, -1.104048E-05, 0.02621212, -0.02777928, 0.4000032
 113841112, 0.01965725, -0.007635127, 2.287394E-05, 0.02662376, -0.02773171, 0.4000042, 0.01830293, 0.02405121, 7.121715E-05, 0.02658978, -0.02709146, 0.4000051
 113941072, 0.02124878, -0.01574923, 1.27597E-05, 0.02666399, -0.0279283, 0.4000041, 0.01965725, -0.007635127, 2.287394E-05, 0.02662376, -0.02773171, 0.4000042
 114041032, 0.006096142, -0.01931745, -2.007241E-05, 0.02629046, -0.02801931, 0.4000033, 0.02124878, -0.01574923, 1.27597E-05, 0.02666399, -0.0279283, 0.4000041
 114140992, 0.01941874, -0.02099589, 1.094824E-06, 0.02661553, -0.02806281, 0.4000038, 0.006096142, -0.01931745, -2.007241E-05, 0.02629046, -0.02801931, 0.4000033
 114240952, -0.007867699, 0.0003660481, -1.351025E-05, 0.02598727, -0.02755239, 0.4000035, 0.01941874, -0.02099589, 1.094824E-06, 0.02661553, -0.02806281, 0.4000038
 114340912, 0.002642847, -0.02190526, -3.045494E-05, 0.02621073, -0.02808761, 0.400003, -0.007867699, 0.0003660481, -1.351025E-05, 0.02598727, -0.02755239, 0.4000035
 114440872, -0.01547504, -0.0007121648, -2.893236E-05, 0.02583713, -0.02757725, 0.4000032, 0.002642847, -0.02190526, -3.045494E-05, 0.02621073, -0.02808761, 0.400003
 114540832, 0.005749736, -0.0205019, -2.269681E-05, 0.02628021, -0.02805266, 0.4000032, -0.01547504, -0.0007121648, -2.893236E-05, 0.02583713, -0.02757725, 0.4000032
 114640792, 0.01166868, -0.002332445, 1.721283E-05, 0.0264192, -0.02761557, 0.4000041, 0.005749736, -0.0205019, -2.269681E-05, 0.02628021, -0.02805266, 0.4000032
