TimeUS,CAN,CAE,CAD,CAe,NAN,NAE,NAD,NAe,m10,m00,Gye
 77698908, -9.279314E-07, 4.510536E-05, -5.445685E-07, 6.484905E-06, 0, 0, 0, 0, -0.9999962, -0.002227054, 0.8458458
 77806365, 0.001296429, 1.394793, -0.03761726, 0.2019074, -0.02671697, 1.408844, 0.01956351, 0.201901, -0.9999962, -0.002215576, 28.79853
 78006285, -0.02672487, 1.416134, 0.01958116, 0.2024261, -0.000109964, 0.004194558, -5.325928E-05, 0.0005187925, -0.9999962, -0.002192907, 67.93536
 78206205, -8.893068E-05, 0.01162133, -0.000189735, 0.00104407, 7.583873E-05, 0.004111503, 5.123233E-05, 0.0005187925, -0.9999963, -0.002170803, 0.3503954
 78406125, 4.211842E-05, 0.0117238, -2.984402E-05, 0.00104407, -8.552892E-05, 0.004445169, 0.0003256067, 0.0005187925, -0.9999963, -0.002149757, 0.3503954
 78606045, -0.0002006879, 0.01185525, 0.0003734192, 0.00104407, -0.0001045286, 0.004209951, -0.0001577295, 0.0005187925, -0.9999963, -0.002127288, 0.3503954
 78805965, -0.0003741638, 0.01164864, -4.230113E-05, 0.00104407, -0.0003728959, 0.00404431, 4.167797E-05, 0.0005187925, -0.9999963, -0.002104798, 0.3503954
 79005885, -0.0002997302, 0.01152235, 0.0001521384, 0.00104407, 9.552092E-05, 0.004202788, -0.0001420764, 0.0005187925, -0.9999964, -0.002083105, 0.3503954
 79205805, 0.0001273444, 0.01169386, -0.0002728073, 0.00104407, -4.51144E-05, 0.004137324, -7.670075E-05, 0.0005187925, -0.9999964, -0.002061472, 0.3503954
 79406558, -0.0001186469, 0.01186346, 8.439539E-05, 0.001046232, -0.0002575082, 0.004423807, 0.0001854087, 0.0005209541, -0.9999965, -0.002039965, 0.3511209
 79606478, -0.0006146428, 0.01209, 0.0002146366, 0.001046232, 2.759819E-05, 0.004278493, 0.0002144527, 0.0005187925, -0.9999965, -0.002023174, 0.3511209
 79806398, -3.95005E-05, 0.01208569, 0.000263477, 0.00104407, 5.551579E-05, 0.004429325, 0.0002599475, 0.0005187925, -0.9999965, -0.002004942, 0.3503954
 80006318, 0.0001901311, 0.01205142, 0.0003769534, 0.00104407, -4.730459E-05, 0.004026383, -0.0001118189, 0.0005187925, -0.9999967, -0.001984737, 0.3503954
 80206238, -0.0001782013, 0.01139261, -7.621337E-05, 0.00104407, -0.0001381535, 0.004129931, -0.000176501, 0.0005187925, -0.9999967, -0.00196398, 0.3503954
 80406158, -0.0001538974, 0.01168716, 1.267286E-05, 0.00104407, 4.297692E-05, 0.004026906, 0.0001041079, 0.0005187925, -0.9999968, -0.00194351, 0.3503954
 80606078, -0.0001788011, 0.011647, 0.0002673248, 0.00104407, -0.0002553813, 0.004237507, 0.0002176713, 0.0005187925, -0.9999968, -0.001923265, 0.3503954
 80805998, -0.0002889035, 0.01178085, 0.0001365235, 0.00104407, -0.0001028098, 0.003974644, 5.366086E-05, 0.0005187925, -0.9999969, -0.001902304, 0.3503954
 81005918, -0.0001016718, 0.01133626, 0.0001687578, 0.00104407, -9.257506E-05, 0.003746492, -0.0001516939, 0.0005187925, -0.9999969, -0.001880954, 0.3503954
 81205838, -0.0001902319, 0.01122287, -0.0002881375, 0.00104407, -0.0001232406, 0.003981584, -0.0001315747, 0.0005187925, -0.999997, -0.001858608, 0.3503954
 81406591, -0.0003918658, 0.01164216, -1.252908E-05, 0.001046232, -0.0004655239, 0.004280662, -0.0001507382, 0.0005209541, -0.999997, -0.00183744, 0.3511209
 81606511, -0.0004636828, 0.01176959, -0.0001024135, 0.001046232, 7.714218E-05, 0.003999064, 3.870012E-05, 0.0005187925, -0.999997, -0.001815569, 0.3511209
 81806431, -0.0001091005, 0.01145358, 2.237735E-05, 0.00104407, -0.0001929941, 0.004013689, 7.130988E-05, 0.0005187925, -0.999997, -0.001793376, 0.3503954
 82006351, -0.0006227856, 0.01153601, 0.0002044658, 0.00104407, -0.0001723033, 0.004029681, 1.004294E-05, 0.0005187925, -0.9999971, -0.001771216, 0.3503954
 82206271, -0.0003305342, 0.01158615, -1.486661E-05, 0.00104407, 0.0003011713, 0.004291173, -0.0001459253, 0.0005187925, -0.9999971, -0.001748387, 0.3503954
 82406191, 4.798585E-05, 0.0117088, -4.993107E-05, 0.00104407, -0.000137615, 0.0040001, 8.326297E-05, 0.0005187925, -0.9999971, -0.001726132, 0.3503954
 82606111, -0.000136571, 0.01126886, 0.0002137104, 0.00104407, -0.0001497602, 0.003900715, 0.0001396836, 0.0005187925, -0.9999973, -0.001703572, 0.3503954
 82806031, -0.0002954648, 0.01150303, 7.988357E-05, 0.00104407, 0.0001013216, 0.004171401, 3.618342E-05, 0.0005187925, -0.9999973, -0.001680914, 0.3503954
 83005951, 8.561401E-06, 0.01176009, -3.182796E-06, 0.00104407, 8.003201E-05, 0.003884845, -5.016466E-05, 0.0005187925, -0.9999974, -0.001658048, 0.3503954
 83205871, -0.000149331, 0.01135242, -4.109288E-05, 0.00104407, -0.0002021965, 0.004245798, -0.0001104092, 0.0005187925, -0.9999974, -0.00163418, 0.3503954
 83405791, -0.0002467436, 0.01169962, -0.000223341, 0.00104407, -0.0001011192, 0.004174897, 0.0002039355, 0.0005187925, -0.9999974, -0.001610846, 0.3503954
 83606544, -0.0003678659, 0.01161542, 0.000133884, 0.001046232, -0.0002113891, 0.003943584, -6.295784E-05, 0.0005209541, -0.9999974, -0.001588103, 0.3511209
 83806464, -0.0003297975, 0.01153081, -0.0001811518, 0.001046232, -9.7681E-05, 0.00402631, -0.0002078095, 0.0005187925, -0.9999974, -0.001563723, 0.3511209
 84006384, -7.970455E-05, 0.01147135, 7.205347E-05, 0.00104407, -0.0001634085, 0.003942439, -3.051729E-05, 0.0005187925, -0.9999975, -0.001539759, 0.3503954
 84206304, -0.0003067154, 0.01153372, 0.0001582335, 0.00104407, 7.060511E-05, 0.003857673, 3.386573E-05, 0.0005187925, -0.9999975, -0.001515687, 0.3503954
 84406224, 5.086221E-05, 0.01142915, 0.0004141866, 0.00104407, 0.0001526028, 0.004358253, 2.071625E-05, 0.0005187925, -0.9999976, -0.001492599, 0.3503954
 84606144, 0.0001470745, 0.01185906, 0.0001982575, 0.00104407, 3.581259E-05, 0.004221947, 8.648035E-05, 0.0005187925, -0.9999976, -0.001469588, 0.3503954
 84806064, 2.948067E-05, 0.01155008, 0.0001822195, 0.00104407, -0.0001707672, 0.004130874, -0.0002393516, 0.0005187925, -0.9999976, -0.001455842, 0.3503954
 85005984, -0.0002025125, 0.01146659, -0.0002698176, 0.00104407, -0.0001372429, 0.003780365, -3.019436E-05, 0.0005187925, -0.9999976, -0.001441151, 0.3503954
 85205904, -0.000171152, 0.01138186, -9.786979E-05, 0.00104407, -6.107593E-05, 0.004408805, -0.0002394326, 0.0005187925, -0.9999977, -0.001424403, 0.3503954
 85405824, 7.272501E-05, 0.01202357, -0.000124618, 0.00104407, -9.808798E-05, 0.003898827, 4.069011E-05, 0.0005187925, -0.9999977, -0.001408424, 0.3503954
 85606577, -8.961435E-05, 0.01138509, -0.0001002697, 0.001046232, 0.0001520071, 0.004148077, -0.0002640994, 0.0005209541, -0.9999977, -0.001392271, 0.3511209
 85806497, 4.154507E-05, 0.01166406, -9.778206E-05, 0.001046232, -9.016201E-05, 0.004335392, 0.0001156189, 0.0005187925, -0.9999977, -0.001375496, 0.3511209
 86006417, -0.0002085091, 0.01196905, 0.0002239786, 0.00104407, 3.218779E-05, 0.004225852, 0.0002791468, 0.0005187925, -0.9999977, -0.001358385, 0.3503954
 86206337, -1.311504E-06, 0.01166635, 0.0003749694, 0.00104407, 4.488991E-05, 0.004192227, 0.0001581, 0.0005187925, -0.9999979, -0.001340566, 0.3503954
 86406257, 3.515958E-05, 0.01151358, 8.049005E-05, 0.00104407, -0.0002142554, 0.0040594, -2.358566E-05, 0.0005187925, -0.9999979, -0.001322111, 0.3503954
 86606177, -0.0004004833, 0.01149666, -0.0001363387, 0.00104407, 8.05123E-05, 0.003874571, -0.0002863239, 0.0005187925, -0.9999979, -0.001304011, 0.3503954
 86806097, -8.324379E-05, 0.01130913, -0.000260952, 0.00104407, 5.02102E-05, 0.004208594, 0.0001026863, 0.0005187925, -0.9999979, -0.001286053, 0.3503954
 87006017, -0.0001862203, 0.01160037, 0.0002325284, 0.00104407, -0.0002361553, 0.004120881, 1.738449E-05, 0.0005187925, -0.999998, -0.001267018, 0.3503954
 87205937, -0.0004030307, 0.01156092, 9.984909E-05, 0.00104407, -0.0001546749, 0.003967036, 2.216167E-05, 0.0005187925, -0.999998, -0.001246784, 0.3503954
 87405857, -0.0002887742, 0.01118753, 0.0001413423, 0.00104407, 2.897599E-05, 0.004098509, -0.0001598839, 0.0005187925, -0.999998, -0.001227982, 0.3503954
 87605777, -0.0001600292, 0.01147981, -0.0001610623, 0.00104407, -0.0002337704, 0.00388728, -0.0001189876, 0.0005187925, -0.999998, -0.001208329, 0.3503954
 87806530, -0.0006902107, 0.01139813, -4.202668E-05, 0.001046232, -0.0004132328, 0.004187072, -0.0001687468, 0.0005209541, -0.9999981, -0.001190001, 0.3511209
 88006450, -0.0003941034, 0.01132561, -3.401549E-05, 0.001046232, 0.0001315826, 0.003860594, 0.0001279367, 0.0005187925, -0.9999981, -0.001169946, 0.3511209
 88206370, -0.0001178266, 0.01118132, 3.183644E-05, 0.00104407, -3.86325E-05, 0.003810315, -3.94985E-05, 0.0005187925, -0.9999981, -0.001149771, 0.3503954
 88406290, -0.0002071946, 0.01113599, 0.0001801258, 0.00104407, 7.606135E-05, 0.004114534, 0.0002644053, 0.0005187925, -0.9999981, -0.001129853, 0.3503954
 88606210, -0.0001327899, 0.01138835, 0.0002847414, 0.00104407, -4.807815E-06, 0.004001367, 4.301854E-05, 0.0005187925, -0.9999981, -0.001109563, 0.3503954
 88806130, -0.0002504627, 0.01157516, 0.00028074, 0.00104407, -0.0003191061, 0.004122708, -5.782078E-05, 0.0005187925, -0.9999981, -0.00109084, 0.3503954
 89006050, -0.0004173673, 0.01173287, -0.0001351721, 0.00104407, -0.0001847834, 0.004118894, -0.0001486851, 0.0005187925, -0.9999981, -0.001071725, 0.3503954
 89205970, -0.0002600626, 0.01153257, -0.0002489763, 0.00104407, -0.0003071748, 0.0039903, 0.0002250033, 0.0005187925, -0.9999981, -0.001052404, 0.3503954
 89405890, -0.0004640352, 0.0114998, 0.0003609143, 0.00104407, -0.0005109879, 0.004067719, 0.0001519847, 0.0005187925, -0.9999982, -0.001032554, 0.3503954
 89605810, -0.000617371, 0.01144587, 0.0003118388, 0.00104407, -1.751012E-05, 0.004044171, 0.0002256587, 0.0005187925, -0.9999982, -0.00101129, 0.3503954
 89806563, -0.0001862357, 0.01158444, 0.0003588765, 0.001046232, -8.269597E-05, 0.004345309, 8.462698E-05, 0.0005209541, -0.9999982, -0.0009920778, 0.3511209
 90006483, -7.694596E-05, 0.01202125, 0.0002154367, 0.001046232, -2.453422E-05, 0.004157891, -0.0001531238, 0.0005187925, -0.9999982, -0.0009859893, 0.3511209
 90206403, -0.0002054224, 0.01149462, -0.0001134764, 0.00104407, 1.52391E-05, 0.004144473, 2.013831E-05, 0.0005187925, -0.9999982, -0.0009790283, 0.3503954
 90406323, -0.0003953251, 0.01167851, -6.739065E-05, 0.00104407, 7.022586E-05, 0.004319147, -8.809259E-05, 0.0005187925, -0.9999982, -0.00097188, 0.3503954
 90606243, -0.0002296445, 0.0117342, 6.461061E-05, 0.00104407, -0.0001720239, 0.00417763, 0.0002036829, 0.0005187925, -0.9999982, -0.0009636158, 0.3503954
 90806163, -0.0003890902, 0.01153425, 0.0003563111, 0.00104407, -0.0001968287, 0.004004859, -0.0001167593, 0.0005187925, -0.9999983, -0.0009547847, 0.3503954
 91006083, -0.0004086537, 0.01141427, -0.0001902796, 0.00104407, -8.758823E-05, 0.004151711, -7.988714E-05, 0.0005187925, -0.9999983, -0.0009457404, 0.3503954
 91206003, -0.0003214301, 0.01135449, 0.000202197, 0.00104407, -0.0001566108, 0.00405229, 3.025513E-06, 0.0005187925, -0.9999983, -0.0009348172, 0.3503954
 91405923, -0.0004213858, 0.01153901, 0.0001232941, 0.00104407, 1.958055E-05, 0.00398149, 3.157782E-05, 0.0005187925, -0.9999983, -0.0009229835, 0.3503954
 91605843, -0.0003378422, 0.01126822, 6.354173E-05, 0.00104407, 6.992288E-05, 0.003825551, 0.0001440461, 0.0005187925, -0.9999983, -0.0009114252, 0.3503954
 91805763, -8.414292E-05, 0.01102518, 0.0004069857, 0.00104407, -9.757451E-05, 0.003708941, -5.866445E-05, 0.0005187925, -0.9999983, -0.0008988352, 0.3503954
 92006516, -0.0003749319, 0.01096245, 6.621333E-05, 0.001046232, 1.27895E-05, 0.003964218, 8.897917E-05, 0.0005209541, -0.9999983, -0.0008870873, 0.3511209
 92206436, -0.000306571, 0.01125427, 4.68615E-05, 0.001046232, -0.0001692888, 0.003887719, -8.510522E-05, 0.0005187925, -0.9999983, -0.0008744539, 0.3511209
 92406356, -0.00057174, 0.01126549, 1.594024E-05, 0.00104407, -0.0002641562, 0.004213921, 0.0002488976, 0.0005187925, -0.9999983, -0.0008621733, 0.3503954
 92606276, -0.0004723757, 0.01148775, 0.0002961488, 0.00104407, -0.0001546821, 0.003990813, 8.271365E-05, 0.0005187925, -0.9999983, -0.0008485747, 0.3503954
 92806196, -0.0004568143, 0.01140259, 0.0001835506, 0.00104407, -0.0003064536, 0.00366029, 0.0001747755, 0.0005187925, -0.9999983, -0.0008358528, 0.3503954
 93006116, -0.0004180661, 0.01110104, -2.481179E-05, 0.00104407, -5.318143E-05, 0.004020171, -0.000248334, 0.0005187925, -0.9999985, -0.0008225549, 0.3503954
 93206036, -9.366964E-05, 0.01149699, -0.0002217013, 0.00104407, 0.00013935, 0.003718952, 2.828658E-05, 0.0005187925, -0.9999985, -0.0008088389, 0.3503954
 93405956, -0.0001187945, 0.01107129, 0.000251767, 0.00104407, -0.0004557983, 0.003952526, 0.0003415183, 0.0005187925, -0.9999985, -0.0007949604, 0.3503954
 93605876, -0.0009716108, 0.01146845, 0.0004336541, 0.00104407, -2.191654E-05, 0.003809377, 6.94879E-05, 0.0005187925, -0.9999985, -0.000781803, 0.3503954
 93805796, -0.0002010388, 0.01135803, 0.0002010995, 0.00104407, -7.917449E-06, 0.004033389, 0.0003658225, 0.0005187925, -0.9999985, -0.0007680712, 0.3503954
 94006549, -0.0002315591, 0.01156276, 0.0004799217, 0.001046232, -0.0002956947, 0.00413401, 0.0001545987, 0.0005209541, -0.9999985, -0.0007535429, 0.3511209
 94206469, -0.0005345505, 0.01163369, 3.598402E-05, 0.001046232, -0.0002304387, 0.004053512, 0.0002661474, 0.0005187925, -0.9999985, -0.0007391607, 0.3511209
 94406389, -0.0005329589, 0.01142747, 0.0003519712, 0.00104407, -0.0005287356, 0.004009811, -0.0001339508, 0.0005187925, -0.9999985, -0.0007245132, 0.3503954
 94606309, -0.0004411457, 0.01148984, -0.0002166704, 0.00104407, 0.0001421051, 0.003746623, 0.0002420518, 0.0005187925, -0.9999985, -0.0007117268, 0.3503954
 94806229, 0.000172407, 0.01113583, 0.0001863795, 0.00104407, -7.204238E-05, 0.003951851, 7.203199E-05, 0.0005187925, -0.9999985, -0.0006974443, 0.3503954
 95006149, -0.0001648382, 0.0113121, 0.000334726, 0.00104407, 0.0001734854, 0.0042911, -0.0001149254, 0.0005187925, -0.9999985, -0.0006830974, 0.3503954
 95206069, 0.0002239283, 0.01199537, 9.185095E-05, 0.00104407, 0.0002997657, 0.004221538, 0.0001403855, 0.0005187925, -0.9999985, -0.0006863773, 0.3503954
 95405989, 0.0001195577, 0.01167989, 0.0003641567, 0.00104407, -0.0001163794, 0.004068649, 5.882293E-05, 0.0005187925, -0.9999985, -0.0006879141, 0.3503954
 95605909, -0.0003062798, 0.01136215, 7.9053E-05, 0.00104407, -0.0002589975, 0.004029861, -7.47334E-05, 0.0005187925, -0.9999985, -0.0006881062, 0.3503954
 95805829, -0.0002799796, 0.01144923, 9.052351E-05, 0.00104407, -0.0003852559, 0.003885645, 9.029948E-05, 0.0005187925, -0.9999985, -0.0006886725, 0.3503954
 96006582, -0.0004111804, 0.01151499, -4.50685E-05, 0.001046232, -2.133852E-05, 0.004247009, 0.0001152245, 0.0005209541, -0.9999985, -0.0006865669, 0.3511209
 96206502, -0.000214198, 0.01163779, -8.04091E-05, 0.001046232, -0.0001630585, 0.004049337, -0.0002072983, 0.0005187925, -0.9999985, -0.000685228, 0.3511209
 96406422, -0.0005001324, 0.01129247, -8.694504E-05, 0.00104407, -0.0001756646, 0.004047764, -1.962353E-05, 0.0005187925, -0.9999985, -0.0006830528, 0.3503954
 96606342, -0.0004161395, 0.01145568, -1.422194E-05, 0.00104407, -0.000369819, 0.004151344, 8.935927E-06, 0.0005187925, -0.9999985, -0.000681374, 0.3503954
 96806262, -0.0003627455, 0.01150504, -8.872178E-05, 0.00104407, -0.0001839144, 0.003843152, -5.293754E-05, 0.0005187925, -0.9999986, -0.000677529, 0.3503954
 97006182, -0.0004390406, 0.01108793, 9.780307E-05, 0.00104407, -0.0002815939, 0.0044376, 9.983478E-05, 0.0005187925, -0.9999986, -0.0006741951, 0.3503954
 97206102, -0.0003879722, 0.01166022, 7.924246E-05, 0.00104407, -8.974512E-05, 0.003812332, -4.817345E-05, 0.0005187925, -0.9999986, -0.0006708406, 0.3503954
 97406022, -0.0004134028, 0.01121745, 1.866786E-05, 0.00104407, -0.0003248139, 0.004038684, 9.363719E-05, 0.0005187925, -0.9999986, -0.0006657427, 0.3503954
 97605942, -0.0004170586, 0.01145998, 4.236551E-05, 0.00104407, 0.0001859343, 0.003735348, -0.0001180558, 0.0005187925, -0.9999986, -0.0006590731, 0.3503954
 97805862, -6.349943E-06, 0.01111371, -0.0002028166, 0.00104407, -0.0001378393, 0.004123353, 5.313655E-05, 0.0005187925, -0.9999986, -0.0006539748, 0.3503954
 98005782, -0.0002498041, 0.01146711, 0.0002411105, 0.00104407, -9.314724E-05, 0.003977516, 5.117753E-05, 0.0005187925, -0.9999986, -0.0006481806, 0.3503954
 98206535, -6.404481E-05, 0.01147519, 0.000178711, 0.001046232, -0.0001348429, 0.003888268, 0.0001118701, 0.0005209541, -0.9999986, -0.000640479, 0.3511209
 98406455, -0.0001190015, 0.01137245, 0.0001914665, 0.001046232, -4.200572E-06, 0.004135962, 1.42279E-05, 0.0005187925, -0.9999986, -0.0006341426, 0.3511209
 98606375, -0.0004286818, 0.01146915, 6.683898E-05, 0.00104407, -0.0004050362, 0.004079763, 0.0001091246, 0.0005187925, -0.9999986, -0.0006269104, 0.3503954
 98806295, -0.0007237427, 0.01138326, 0.0001657836, 0.00104407, -0.0001252739, 0.004458067, -0.0001378652, 0.0005187925, -0.9999986, -0.0006199789, 0.3503954
 99006215, -0.0002358955, 0.01203751, 6.375144E-06, 0.00104407, -9.51179E-05, 0.004123026, 3.542794E-05, 0.0005187925, -0.9999986, -0.0006119795, 0.3503954
 99206135, -0.000417297, 0.01161405, -9.241937E-05, 0.00104407, -0.0002943887, 0.003806526, -0.0001576651, 0.0005187925, -0.9999985, -0.0006047389, 0.3503954
 99406055, -0.0006073549, 0.0112025, -0.0001115532, 0.00104407, -0.0004082127, 0.004006553, -0.0001048956, 0.0005187925, -0.9999985, -0.000597197, 0.3503954
 99605975, -0.0007327796, 0.01143588, 0.0001257024, 0.00104407, 0.0001510714, 0.003955156, 0.0003336978, 0.0005187925, -0.9999986, -0.0005895545, 0.3503954
 99805895, 0.0002395087, 0.01146175, 0.0005466955, 0.00104407, 0.0001072659, 0.003915414, 0.0004652963, 0.0005187925, -0.9999986, -0.0005802442, 0.3503954
 100005815, -5.613744E-06, 0.01148198, 0.0005093014, 0.00104407, 1.699715E-05, 0.0039213, 1.985471E-05, 0.0005187925, -0.9999986, -0.0005715351, 0.3503954
 100206568, -5.252248E-05, 0.01154345, -6.746573E-05, 0.001046232, -0.0002102029, 0.004019497, -0.000164221, 0.0005209541, -0.9999986, -0.0005616061, 0.3511209
 100406488, -0.00042076, 0.01157986, -6.256305E-05, 0.001046232, -0.0002858453, 0.004267407, 4.585815E-05, 0.0005187925, -0.9999986, -0.0005731584, 0.3511209
 100606408, -0.0004266539, 0.01169926, 1.758705E-05, 0.00104407, -0.0001287832, 0.003820044, 4.448065E-05, 0.0005187925, -0.9999986, -0.0005842031, 0.3503954
 100806328, -0.0001870468, 0.01105259, 0.0001753463, 0.00104407, 4.137139E-05, 0.003923988, 0.0001093808, 0.0005187925, -0.9999986, -0.0005925999, 0.3503954
 101006248, -0.000194801, 0.01126645, 0.0001418703, 0.00104407, -0.0001552025, 0.004069272, -0.0001061873, 0.0005187925, -0.9999986, -0.0005999757, 0.3503954
 101206168, -0.0004090028, 0.01165576, -0.0001163029, 0.00104407, -0.00034259, 0.003804036, -0.0001257298, 0.0005187925, -0.9999986, -0.0006060834, 0.3503954
 101406088, -0.0004212968, 0.01102418, -0.0001675663, 0.00104407, -0.0002159994, 0.0038185, 0.0001101065, 0.0005187925, -0.9999986, -0.0006119246, 0.3503954
 101606008, -0.000515438, 0.01111824, 0.0001317701, 0.00104407, -0.000130849, 0.003919154, 0.0005277477, 0.0005187925, -0.9999986, -0.0006159387, 0.3503954
 101805928, -0.0005790137, 0.01142424, 0.0004684625, 0.00104407, -0.0002115861, 0.004296366, 5.86144E-05, 0.0005187925, -0.9999986, -0.000619538, 0.3503954
 102005848, -0.0005782165, 0.01154129, 0.0001912579, 0.00104407, -0.0001343356, 0.003925063, -5.978219E-05, 0.0005187925, -0.9999986, -0.0006236895, 0.3503954
 102205768, -0.0005935194, 0.0115279, 0.0001108596, 0.00104407, -0.0003331755, 0.004233353, -0.0001414436, 0.0005187925, -0.9999986, -0.0006269476, 0.3503954
 102406521, -0.000570286, 0.01181423, -1.583222E-05, 0.001046232, -0.0002955353, 0.004247583, -4.878953E-05, 0.0005209541, -0.9999986, -0.0006277626, 0.3511209
 102606441, -0.0003632295, 0.01163868, -0.0001610886, 0.001046232, 2.205949E-05, 0.003654981, -0.000348133, 0.0005187925, -0.9999986, -0.000628631, 0.3511209
 102806361, -0.0003047683, 0.01103855, -0.0003006723, 0.00104407, -5.834862E-05, 0.003992503, 0.0002633387, 0.0005187925, -0.9999986, -0.0006295576, 0.3503954
 103006281, -0.0002388642, 0.01130521, 0.0003038333, 0.00104407, -0.0001961799, 0.003703803, 9.732287E-05, 0.0005187925, -0.9999986, -0.0006299486, 0.3503954
 103206201, -0.0006227408, 0.01105125, 2.257517E-05, 0.00104407, -0.0002729871, 0.003820507, 0.0002436295, 0.0005187925, -0.9999986, -0.0006302577, 0.3503954
 103406121, -0.0004075623, 0.01111412, 0.000355216, 0.00104407, 5.02826E-05, 0.004170998, 0.0001569442, 0.0005187925, -0.9999986, -0.0006297686, 0.3503954
 103606041, -0.0002440853, 0.01153529, 0.0001248861, 0.00104407, -0.000220678, 0.004044926, 1.21378E-05, 0.0005187925, -0.9999986, -0.0006288361, 0.3503954
 103805961, -0.0005158612, 0.01128271, 0.0001596015, 0.00104407, -0.0003857988, 0.003861537, 0.0003581784, 0.0005187925, -0.9999986, -0.0006259845, 0.3503954
 104005881, -0.0005149576, 0.01126985, 0.0004625461, 0.00104407, -0.000228821, 0.004030506, 0.0002392443, 0.0005187925, -0.9999986, -0.0006239253, 0.3503954
 104205801, -0.0004797567, 0.01142171, 0.000336541, 0.00104407, -0.0003812054, 0.003877398, 0.0001646361, 0.0005187925, -0.9999986, -0.0006211188, 0.3503954
 104406554, -0.0004670804, 0.01111113, 0.0001485508, 0.001046232, -8.146656E-05, 0.003954576, 7.973459E-05, 0.0005209541, -0.9999986, -0.0006175528, 0.3511209
 104606474, -0.0003323709, 0.01131121, 6.181508E-05, 0.001046232, -0.0003593147, 0.004180028, -6.550314E-06, 0.0005187925, -0.9999985, -0.000613768, 0.3511209
 104806394, -0.0005648318, 0.01196275, -0.0003849231, 0.00104407, 9.36683E-05, 0.003827083, -8.28054E-06, 0.0005187925, -0.9999985, -0.0006094624, 0.3503954
 105006314, -0.0002752748, 0.01106935, 8.867768E-05, 0.00104407, -0.0004040269, 0.003963903, 0.0001936293, 0.0005187925, -0.9999985, -0.0006051972, 0.3503954
 105206234, -0.000705655, 0.01137345, 0.0003099584, 0.00104407, -0.0002927099, 0.003693385, -0.0001267069, 0.0005187925, -0.9999985, -0.0006016959, 0.3503954
 105406154, -0.0004964847, 0.01134241, 9.354662E-05, 0.00104407, -0.0002043478, 0.004370726, -3.414457E-05, 0.0005187925, -0.9999985, -0.0005970572, 0.3503954
 105606074, -0.0002146846, 0.01181084, 6.424957E-05, 0.00104407, 0.0001454025, 0.003899316, 6.857512E-05, 0.0005187925, -0.9999985, -0.0006127547, 0.3503954
 105805994, -0.0002190443, 0.01133527, 0.0001874233, 0.00104407, 3.407256E-06, 0.00411523, -0.0001142164, 0.0005187925, -0.9999985, -0.0006277362, 0.3503954
 106005914, -0.0001283637, 0.01166597, 8.753851E-05, 0.00104407, -6.142198E-05, 0.004075408, 0.0002001605, 0.0005187925, -0.9999985, -0.0006400286, 0.3503954
 106205834, -0.0001640297, 0.01127885, 0.0004688436, 0.00104407, 0.0002242403, 0.003863659, 0.0004214651, 0.0005187925, -0.9999985, -0.0006527831, 0.3503954
 106406587, -0.000116453, 0.01114957, 0.0006140678, 0.001046232, -0.0003374455, 0.003406164, 0.0001990257, 0.0005209541, -0.9999985, -0.0006639195, 0.3511209
 106606507, -0.0006035896, 0.01093357, 0.0003001892, 0.001046232, 5.679954E-05, 0.003793183, -6.129673E-06, 0.0005187925, -0.9999985, -0.0006732445, 0.3511209
 106806427, -0.0003744345, 0.01133872, 0.0003679781, 0.00104407, -0.0001079135, 0.004296294, 0.0001729273, 0.0005187925, -0.9999985, -0.0006818661, 0.3503954
 107006347, -0.000106147, 0.01159447, 0.0001797898, 0.00104407, 0.0001022745, 0.003922134, -6.475599E-05, 0.0005187925, -0.9999985, -0.0006897916, 0.3503954
 107206267, -0.0001186354, 0.01127861, -3.218079E-05, 0.00104407, -0.0003926241, 0.004359773, 4.015508E-05, 0.0005187925, -0.9999985, -0.000696712, 0.3503954
 107406187, -0.000534916, 0.01153927, 1.424575E-05, 0.00104407, 2.782569E-05, 0.003660102, 0.0001118582, 0.0005187925, -0.9999985, -0.0007029087, 0.3503954
 107606107, -2.48396E-05, 0.01086621, -3.581163E-05, 0.00104407, 1.702188E-05, 0.003899904, -0.0001113732, 0.0005187925, -0.9999985, -0.000709136, 0.3503954
 107806027, -9.698297E-05, 0.01120986, -7.781848E-05, 0.00104407, -0.0001914336, 0.003883758, -3.93138E-05, 0.0005187925, -0.9999985, -0.0007139475, 0.3503954
 108005947, -0.0003891114, 0.01136936, -7.336768E-06, 0.00104407, -0.0003753817, 0.004069258, 5.654098E-05, 0.0005187925, -0.9999985, -0.0007172339, 0.3503954
 108205867, -0.0003723257, 0.01157308, -6.931514E-05, 0.00104407, 3.423608E-05, 0.004091107, -1.612733E-05, 0.0005187925, -0.9999985, -0.0007211691, 0.3503954
 108405787, -0.0001503862, 0.01147661, -0.0001006606, 0.00104407, -5.965073E-05, 0.004025447, -3.146939E-05, 0.0005187925, -0.9999985, -0.0007247159, 0.3503954
 108606540, -0.0005694047, 0.01146708, 3.780483E-05, 0.001046232, -0.0001737349, 0.003883088, 0.0002710717, 0.0005209541, -0.9999985, -0.0007286609, 0.3511209
 108806460, -0.0003584461, 0.01137835, 0.0003172361, 0.001046232, -0.0002444056, 0.004375611, 0.0001006558, 0.0005187925, -0.9999985, -0.0007308038, 0.3511209
 109006380, -0.0004985645, 0.01204264, 3.148843E-05, 0.00104407, 2.151489E-05, 0.004324805, -0.0002166561, 0.0005187925, -0.9999985, -0.0007320542, 0.3503954
 109206300, -0.0003139759, 0.01194295, -0.0001158108, 0.00104407, -0.00028388, 0.004160474, 0.0001331941, 0.0005187925, -0.9999985, -0.0007338447, 0.3503954
 109406220, -0.0004133178, 0.01162955, 6.221545E-05, 0.00104407, -0.0001444804, 0.004171054, -3.20652E-05, 0.0005187925, -0.9999985, -0.0007351519, 0.3503954
 109606140, -0.0004518372, 0.01155974, -0.0001816476, 0.00104407, -0.0001069777, 0.003692312, -0.0001878523, 0.0005187925, -0.9999985, -0.0007350296, 0.3503954
 109806060, -0.0005465017, 0.01123126, -0.0001959219, 0.00104407, -0.0002079231, 0.004287657, 1.862138E-05, 0.0005187925, -0.9999985, -0.0007361195, 0.3503954
 110005980, -0.0004824075, 0.01184609, 0.0001753296, 0.00104407, 0.0001786772, 0.004103418, -2.004537E-05, 0.0005187925, -0.9999985, -0.0007346006, 0.3503954
 110205900, 0.0003844764, 0.01180181, 1.656465E-05, 0.00104407, -0.0001163776, 0.004120773, 2.751799E-05, 0.0005187925, -0.9999985, -0.0007322294, 0.3503954
 110405820, -0.0004634588, 0.01167747, 6.219522E-05, 0.00104407, -0.0003868208, 0.00390602, -9.363957E-05, 0.0005187925, -0.9999985, -0.0007322456, 0.3503954
 110606573, -0.0004919149, 0.01161743, 3.521899E-05, 0.001046232, -1.350928E-05, 0.004207039, 0.0001798868, 0.0005209541, -0.9999985, -0.000730497, 0.3511209
 110806493, -0.0002669143, 0.01192016, 9.377698E-05, 0.001046232, -2.502589E-05, 0.004339264, 1.015972E-05, 0.0005187925, -0.9999985, -0.0007487945, 0.3511209
 111006413, -0.0002561278, 0.01191555, 9.989555E-05, 0.00104407, 5.58151E-07, 0.004186251, 0.0003609559, 0.0005187925, -0.9999985, -0.0007651102, 0.3503954
 111206333, 2.406506E-05, 0.01143767, 0.000316592, 0.00104407, -0.0003438625, 0.003853877, -9.891843E-05, 0.0005187925, -0.9999985, -0.000779715, 0.3503954
 111406253, -0.0004733294, 0.01133613, 4.051971E-05, 0.00104407, -1.145473E-05, 0.00397508, 0.0001892501, 0.0005187925, -0.9999985, -0.0007940892, 0.3503954
 111606173, -0.0001191874, 0.01140566, 8.815338E-05, 0.00104407, 0.000330379, 0.004050746, 0.0001081856, 0.0005187925, -0.9999985, -0.0008074119, 0.3503954
 111806093, 0.0002810783, 0.01131477, 0.0001688842, 0.00104407, 5.515084E-05, 0.003793985, -0.0005387391, 0.0005187925, -0.9999985, -0.0008189714, 0.3503954
 112006013, -0.0001525183, 0.01137795, -0.0003666948, 0.00104407, 5.293822E-05, 0.004217866, -4.182572E-06, 0.0005187925, -0.9999985, -0.0008300263, 0.3503954
 112205933, -0.0002233932, 0.01176967, 0.0002012842, 0.00104407, -0.0003024253, 0.004389402, 0.0002405182, 0.0005187925, -0.9999985, -0.0008394933, 0.3503954
 112405853, -0.0006282293, 0.01191847, 0.000231494, 0.00104407, -0.0004971499, 0.003837776, -7.57987E-05, 0.0005187925, -0.9999985, -0.0008492179, 0.3503954
 112605773, -0.000725858, 0.01106905, -4.819967E-05, 0.00104407, -0.0001794242, 0.003978041, -0.0003716864, 0.0005187925, -0.9999983, -0.0008572342, 0.3503954
 112806526, -0.0002369969, 0.01129756, -0.0002943331, 0.001046232, -0.000124054, 0.004037355, -0.0001773712, 0.0005209541, -0.9999983, -0.0008652695, 0.3511209
 113006446, -0.0003085143, 0.01148441, -4.968365E-05, 0.001046232, 6.145336E-05, 0.004048893, 8.067599E-05, 0.0005187925, -0.9999983, -0.0008725818, 0.3511209
 113206366, -5.013406E-05, 0.01158004, 0.0001358764, 0.00104407, -0.0001370156, 0.004084858, 8.993125E-06, 0.0005187925, -0.9999983, -0.0008795327, 0.3503954
 113406286, -0.0004203988, 0.01136766, 0.0002387891, 0.00104407, -0.0002203128, 0.003834813, 0.0001576127, 0.0005187925, -0.9999983, -0.0008844539, 0.3503954
 113606206, -0.0007222719, 0.0113857, 0.0001398433, 0.00104407, -0.0003222024, 0.004140154, 0.0001400804, 0.0005187925, -0.9999983, -0.000888854, 0.3503954
 113806126, -0.0006056856, 0.01162443, 0.0003394663, 0.00104407, 3.167409E-05, 0.004213121, 0.0001931252, 0.0005187925, -0.9999983, -0.0008939265, 0.3503954
 114006046, -0.0002123068, 0.0118013, 0.0002803169, 0.00104407, 7.543682E-06, 0.004296049, 0.0001033369, 0.0005187925, -0.9999983, -0.0008967354, 0.3503954
 114205966, -0.0001354159, 0.0116175, 0.0001831192, 0.00104407, 0.000113937, 0.00410383, 4.185074E-05, 0.0005187925, -0.9999983, -0.0008986304, 0.3503954
 114405886, -9.334969E-06, 0.01154785, 6.469641E-05, 0.00104407, -0.0001148546, 0.003781702, 0.0002743196, 0.0005187925, -0.9999983, -0.0009010885, 0.3503954
 114605806, -0.000186863, 0.01113081, 0.00010325, 0.00104407, -0.0001702445, 0.003827784, -0.0001004866, 0.0005187925, -0.9999983, -0.0009024753, 0.3503954
 114806559, -0.000395153, 0.01136483, -0.0001541908, 0.001046232, -4.493036E-05, 0.003998027, 0.0001658646, 0.0005209541, -0.9999983, -0.0009038803, 0.3511209
 115006479, -0.0002430357, 0.01140572, 0.0001816153, 0.001046232, -0.0002670898, 0.00391959, 2.86679E-05, 0.0005187925, -0.9999983, -0.0009045393, 0.3511209
 115206399, -0.0004447905, 0.0114674, 0.000238291, 0.00104407, -2.313521E-05, 0.004073516, 5.229049E-05, 0.0005187925, -0.9999982, -0.0009051808, 0.3503954
 115406319, -0.0002382223, 0.011599, 0.0001037945, 0.00104407, 0.0001158844, 0.003978911, 0.0001829321, 0.0005187925, -0.9999982, -0.00090524, 0.3503954
 115606239, -3.598843E-06, 0.01137579, 0.0001337088, 0.00104407, 6.527561E-05, 0.003794739, 9.678544E-05, 0.0005187925, -0.9999982, -0.0009051125, 0.3503954
 115806159, -2.703955E-05, 0.01125531, 0.0001040638, 0.00104407, -0.0001534766, 0.004076279, 8.188787E-06, 0.0005187925, -0.9999982, -0.0009028014, 0.3503954
 116006079, -0.0003055153, 0.01154196, 0.0001398159, 0.00104407, -4.096088E-05, 0.003976389, 0.0003118924, 0.0005187925, -0.9999982, -0.0009200805, 0.3503954
 116205999, -0.0003602613, 0.01153165, 0.0002846031, 0.00104407, 0.0001666451, 0.004172028, 1.496431E-05, 0.0005187925, -0.9999982, -0.0009350569, 0.3503954
 116405919, -0.0001452476, 0.01161769, 9.531617E-05, 0.00104407, 0.000162233, 0.004183827, -0.0002156694, 0.0005187925, -0.9999982, -0.000948776, 0.3503954
 116605839, -0.0001731172, 0.01142991, 5.740018E-06, 0.00104407, -0.0001908407, 0.003885612, 0.0002698725, 0.0005187925, -0.9999982, -0.0009609776, 0.3503954
 116806592, -0.0004374843, 0.01141072, 0.0002599201, 0.001046232, -0.0004306894, 0.004211741, 0.0001161897, 0.0005187925, -0.9999982, -0.000973665, 0.3511209
 117006512, -0.0007508404, 0.0119711, 7.529583E-05, 0.001046232, -0.0002536407, 0.004298099, 0.0002880231, 0.0005209541, -0.9999982, -0.0009848615, 0.3511209
 117206432, -0.0005941389, 0.01179224, 0.0003661634, 0.001046232, -8.372963E-05, 0.003915989, -0.0001577295, 0.0005187925, -0.9999982, -0.000994591, 0.3511209
 117406352, -0.0002136152, 0.0112102, -0.000120868, 0.00104407, -0.0001192257, 0.00401993, -0.0001356452, 0.0005187925, -0.9999982, -0.001003319, 0.3503954
 117606272, -0.0003462881, 0.01144418, 6.880272E-05, 0.00104407, -0.000166149, 0.004168306, 0.0001386743, 0.0005187925, -0.9999982, -0.00101096, 0.3503954
 117806192, -0.000679283, 0.01153835, 0.0001756156, 0.00104407, -8.955374E-06, 0.004184665, -2.518242E-05, 0.0005187925, -0.9999982, -0.00101866, 0.3503954
 118006112, -0.0001502037, 0.01164326, 0.0002416621, 0.00104407, -0.0001300817, 0.00368511, 0.0002621043, 0.0005187925, -0.9999982, -0.001025563, 0.3503954
 118206032, -0.0003918674, 0.0109154, 0.0003566233, 0.00104407, 2.908511E-05, 0.004098203, 0.0003316803, 0.0005187925, -0.9999982, -0.001031199, 0.3503954
 118405952, -0.0002793862, 0.01146708, 0.0003105793, 0.00104407, -0.0002629973, 0.003719396, -5.782198E-05, 0.0005187925, -0.9999982, -0.001034725, 0.3503954
 118605872, -0.0004977037, 0.01106936, 6.846192E-05, 0.00104407, -0.0001789271, 0.003966372, -8.831781E-05, 0.0005187925, -0.9999982, -0.001038717, 0.3503954
 118805792, -0.0003634552, 0.0113325, -6.192469E-05, 0.00104407, -1.69639E-05, 0.003919915, -1.279438E-05, 0.0005187925, -0.9999982, -0.001041291, 0.3503954
 119006545, -0.0001372913, 0.01147394, -6.191318E-05, 0.001046232, -1.659566E-05, 0.004070344, 0.0001561836, 0.0005209541, -0.9999982, -0.001044016, 0.3511209
 119206465, -0.0003592224, 0.01157694, 0.0002758873, 0.001046232, -0.0003221892, 0.00410826, -9.445464E-05, 0.0005187925, -0.9999982, -0.00104512, 0.3511209
 119406385, -0.000414881, 0.01149103, 8.645166E-06, 0.00104407, -8.915745E-05, 0.00414321, 0.0002343444, 0.0005187925, -0.9999982, -0.001046236, 0.3503954
 119606305, -0.0003598823, 0.01144555, 0.0002942898, 0.00104407, -9.291998E-05, 0.003799817, -4.282669E-05, 0.0005187925, -0.9999982, -0.00104743, 0.3503954
 119806225, -0.0005195229, 0.01113709, 6.111562E-05, 0.00104407, -0.0001062149, 0.004175667, 0.0002623248, 0.0005187925, -0.9999982, -0.00104875, 0.3503954
 120006145, -0.0002462344, 0.01157903, 0.0004104594, 0.00104407, -0.0001158236, 0.00404911, 0.0001340497, 0.0005187925, -0.9999982, -0.001048308, 0.3503954
 120206065, -0.0003460647, 0.01133325, 0.0001625674, 0.00104407, -3.117114E-05, 0.003654005, 0.0002327357, 0.0005187925, -0.9999982, -0.001048039, 0.3503954
 120405985, -0.0004983549, 0.01107502, 0.0003528291, 0.00104407, -0.0002077979, 0.004400904, -0.0001850663, 0.0005187925, -0.9999982, -0.001046921, 0.3503954
 120605905, -0.0004752964, 0.011547, -0.0001966322, 0.00104407, -0.0001737947, 0.003870274, 0.0001422802, 0.0005187925, -0.9999982, -0.001044187, 0.3503954
 120805825, -0.0002957593, 0.01132841, 0.0001766917, 0.00104407, -0.0002891086, 0.004218485, -0.0001040078, 0.0005187925, -0.9999982, -0.001042905, 0.3503954
 121006578, -0.000156996, 0.01166431, 4.811985E-05, 0.001046232, 2.432446E-05, 0.003902223, 0.0004725071, 0.0005209541, -0.9999982, -0.001041805, 0.3511209
 121206498, 5.418824E-07, 0.01138909, 0.0002980677, 0.001046232, -0.0001056154, 0.004214042, -5.358579E-05, 0.0005187925, -0.9999982, -0.001055812, 0.3511209
 121406418, -0.0003155406, 0.01162874, -1.7114E-05, 0.00104407, -0.0001271109, 0.004164756, -1.616666E-05, 0.0005187925, -0.9999982, -0.001068541, 0.3503954
 121606338, -0.0001740116, 0.01150727, 8.299845E-05, 0.00104407, -0.0002800412, 0.004185015, -8.608474E-05, 0.0005187925, -0.9999982, -0.001079372, 0.3503954
 121806258, -0.0004164694, 0.01182514, -7.656371E-05, 0.00104407, -9.172117E-05, 0.004354754, -8.430445E-05, 0.0005187925, -0.9999982, -0.001088939, 0.3503954
 122006178, -0.0001376161, 0.0115048, 7.419004E-05, 0.00104407, -3.966154E-05, 0.003863972, 0.0001574065, 0.0005187925, -0.9999982, -0.001097451, 0.3503954
 122206098, -0.0003356504, 0.01124423, 8.944156E-05, 0.00104407, -0.0001925905, 0.004118307, -0.0002257171, 0.0005187925, -0.9999982, -0.001106398, 0.3503954
 122406018, -0.000303649, 0.01148023, -0.0001879988, 0.00104407, -0.0001954661, 0.003935576, 0.0001095012, 0.0005187925, -0.9999982, -0.001114188, 0.3503954
 122605938, -0.0004107289, 0.01130525, 0.0002283827, 0.00104407, -0.0004275934, 0.003888886, 8.702133E-05, 0.0005187925, -0.9999981, -0.001120884, 0.3503954
 122805858, -0.0005320276, 0.01127684, 0.0001099445, 0.00104407, -0.0002649935, 0.003838651, -0.0001847589, 0.0005187925, -0.9999981, -0.001127104, 0.3503954
 123005778, -0.000511835, 0.0111873, -0.0001426436, 0.00104407, -0.0001261837, 0.004080395, 0.0002848928, 0.0005187925, -0.9999981, -0.001133133, 0.3503954
 123206531, -0.0002701926, 0.01139786, 0.0004140926, 0.001046232, -0.0004038221, 0.004267791, 1.385889E-05, 0.0005209541, -0.9999981, -0.001139364, 0.3511209
 123406451, -0.0003882521, 0.01179808, 0.0002482451, 0.001046232, 0.0003014657, 0.004141954, -8.198796E-05, 0.0005187925, -0.9999981, -0.001143852, 0.3511209
 123606371, -0.0002484342, 0.01168924, -0.0002049223, 0.00104407, -0.0005606986, 0.004249361, -0.0002298425, 0.0005187925, -0.9999981, -0.001147562, 0.3503954
 123806291, -0.0007457762, 0.01159574, -5.510267E-05, 0.00104407, -0.0004724884, 0.003678683, 0.0002703991, 0.0005187925, -0.9999981, -0.001148493, 0.3503954
 124006211, -0.0006359464, 0.0110878, 0.0003335071, 0.00104407, -0.0001483512, 0.0042103, -0.0001602831, 0.0005187925, -0.9999981, -0.001149721, 0.3503954
 124206131, -0.0003331715, 0.01162386, -0.0001507097, 0.00104407, 0.0001983871, 0.00395004, 0.0001366712, 0.0005187925, -0.9999981, -0.0011511, 0.3503954
 124406051, -9.840182E-05, 0.01131825, 0.0001207274, 0.00104407, -1.165067E-05, 0.004033403, 5.552931E-06, 0.0005187925, -0.9999981, -0.001152128, 0.3503954
 124605971, -0.0001924568, 0.0115216, 8.897202E-05, 0.00104407, -6.252633E-05, 0.004038236, -0.0001546968, 0.0005187925, -0.9999981, -0.001152866, 0.3503954
 124805891, -0.0002179205, 0.01145232, -0.0001719692, 0.00104407, -0.0003228391, 0.003885577, -2.322578E-05, 0.0005187925, -0.9999981, -0.001151556, 0.3503954
 125005811, -0.0005442614, 0.01122376, 9.637196E-05, 0.00104407, -4.905212E-05, 0.003946245, 2.44174E-05, 0.0005187925, -0.9999981, -0.001150854, 0.3503954
 125206564, -3.696476E-05, 0.01169576, 0.0002813219, 0.001046232, 1.419104E-05, 0.004489794, 9.201618E-05, 0.0005209541, -0.9999981, -0.001151112, 0.3511209
 125406484, -0.0001682207, 0.01185236, 0.0001606103, 0.001046232, 8.002947E-05, 0.003941359, -5.793876E-05, 0.0005187925, -0.999998, -0.001149342, 0.3511209
 125606404, -9.599303E-05, 0.0113409, 3.733335E-05, 0.00104407, -0.0001553512, 0.004064308, -0.0001913342, 0.0005187925, -0.999998, -0.001148128, 0.3503954
 125806324, -0.0003704567, 0.01155972, -0.0002742338, 0.00104407, -5.799265E-06, 0.00390448, 0.0002580838, 0.0005187925, -0.999998, -0.001146763, 0.3503954
 126006244, -0.0001362989, 0.01160671, 0.0001684516, 0.00104407, -0.0001022423, 0.004124593, -0.0001420132, 0.0005187925, -0.999998, -0.001144406, 0.3503954
 126206164, -0.0002555316, 0.01194229, -0.0001908337, 0.00104407, -1.562555E-05, 0.004369681, -0.0002786916, 0.0005187925, -0.999998, -0.001141826, 0.3503954
 126406084, 1.521701E-05, 0.0118951, -0.000217688, 0.00104407, 0.000236251, 0.004469184, 5.225237E-05, 0.0005187925, -0.999998, -0.00115465, 0.3503954
 126606004, 0.000260588, 0.01217704, 0.0002461116, 0.00104407, 0.0001120261, 0.00428813, 0.0001130832, 0.0005187925, -0.999998, -0.001166297, 0.3503954
 126805924, -0.0001995053, 0.01177886, 0.0001157488, 0.00104407, -3.595387E-05, 0.004287203, 0.000121154, 0.0005187925, -0.999998, -0.001175962, 0.3503954
 127005844, -0.0002811568, 0.01163587, -0.0001446741, 0.00104407, -0.0002520797, 0.004144422, 8.443434E-05, 0.0005187925, -0.999998, -0.001185287, 0.3503954
 127205764, -0.0005909652, 0.01164179, 0.0002877706, 0.00104407, -0.0003302315, 0.004357169, -0.0002618112, 0.0005187925, -0.999998, -0.001193889, 0.3503954
 127406517, -0.0004439814, 0.01182766, -0.0001151312, 0.001046232, -0.0003026685, 0.004044601, 0.0002095918, 0.0005209541, -0.999998, -0.001202305, 0.3511209
 127606437, -0.0004181619, 0.01155999, 0.0001915662, 0.001046232, -0.0001097683, 0.003769046, 0.0001884016, 0.0005187925, -0.999998, -0.001208242, 0.3511209
 127806357, -0.0001372289, 0.0111015, 0.0003402052, 0.00104407, -6.61478E-05, 0.00411579, 0.0001638532, 0.0005187925, -0.999998, -0.001213835, 0.3503954
 128006277, -0.0001394854, 0.01148953, 0.0002777514, 0.00104407, -3.3152E-05, 0.004106165, 3.349871E-05, 0.0005187925, -0.999998, -0.001218697, 0.3503954
 128206197, -0.0001765761, 0.01154853, 7.897676E-05, 0.00104407, 6.16648E-05, 0.004140745, 1.96712E-05, 0.0005187925, -0.999998, -0.001222839, 0.3503954
 128406117, -4.391793E-05, 0.01173861, -7.245979E-05, 0.00104407, 4.320465E-05, 0.003863915, -4.658385E-05, 0.0005187925, -0.999998, -0.001226895, 0.3503954
 128606037, -0.0001113, 0.0111016, -9.496107E-05, 0.00104407, 0.0002587145, 0.004058688, 0.0001155951, 0.0005187925, -0.999998, -0.001229265, 0.3503954
 128805957, 0.0001704323, 0.0114197, 6.863353E-05, 0.00104407, 9.562049E-05, 0.004037797, 5.541968E-05, 0.0005187925, -0.999998, -0.001230287, 0.3503954
 129005877, -7.202038E-05, 0.01141448, 0.0001361398, 0.00104407, -8.697149E-05, 0.00391193, -7.945694E-06, 0.0005187925, -0.999998, -0.001231297, 0.3503954
 129205797, -0.0004420466, 0.01136293, -6.741328E-05, 0.00104407, -0.000206243, 0.003841989, 3.087358E-05, 0.0005187925, -0.999998, -0.001232481, 0.3503954
 129406550, -0.000347492, 0.011398, 0.0001785685, 0.001046232, -9.156238E-07, 0.003931549, 8.526331E-05, 0.0005209541, -0.999998, -0.001233003, 0.3511209
 129606470, -9.871378E-05, 0.01121076, 8.4764E-05, 0.001046232, -1.891375E-05, 0.003948693, 1.119642E-05, 0.0005187925, -0.999998, -0.001231898, 0.3511209
 129806390, -0.0002948658, 0.01120904, 0.0001475757, 0.00104407, 0.0001206887, 0.00387868, 0.0004090592, 0.0005187925, -0.999998, -0.001230731, 0.3503954
 130006310, 0.0001822785, 0.01116229, 0.0004639843, 0.00104407, 0.0002013309, 0.00403186, 2.94341E-05, 0.0005187925, -0.999998, -0.00122942, 0.3503954
 130206230, 1.330291E-05, 0.01153494, 4.81174E-06, 0.00104407, -0.0001966248, 0.003785128, -6.990735E-05, 0.0005187925, -0.999998, -0.001227361, 0.3503954
 130406150, -0.0002522085, 0.01111776, -1.137875E-05, 0.00104407, -5.570884E-05, 0.004046107, -0.0001394632, 0.0005187925, -0.999998, -0.001224719, 0.3503954
 130606070, -0.0002647245, 0.01138822, -7.766717E-05, 0.00104407, -1.003148E-05, 0.004007288, 2.476178E-05, 0.0005187925, -0.999998, -0.001222107, 0.3503954
 130805990, -0.0002568517, 0.01131416, 0.0001009096, 0.00104407, -0.0003038522, 0.003982544, -0.0001334228, 0.0005187925, -0.999998, -0.001219127, 0.3503954
 131005910, -0.0006823833, 0.01134689, -8.869176E-06, 0.00104407, -0.0003114722, 0.004507793, 0.0001476555, 0.0005187925, -0.999998, -0.001215499, 0.3503954
 131205830, -0.000427048, 0.0122532, 0.0003495367, 0.00104407, 9.628001E-05, 0.004594116, 0.000249976, 0.0005187925, -0.999998, -0.001212149, 0.3503954
 131406583, 8.907476E-05, 0.01235005, 0.0003328918, 0.001046232, 0.0001157145, 0.004564258, -0.0001131185, 0.0005209541, -0.9999979, -0.001208731, 0.3511209
 131606503, 0.0001073714, 0.01193933, -7.418961E-05, 0.001046232, 0.0001223155, 0.004018975, -0.0003280877, 0.0005187925, -0.999998, -0.001218907, 0.3511209
 131806423, 1.022091E-05, 0.0114808, -0.0003711849, 0.00104407, 6.311285E-05, 0.004004459, -7.534469E-05, 0.0005187925, -0.999998, -0.00122816, 0.3503954
 132006343, 4.709902E-05, 0.01132979, -0.0001750865, 0.00104407, -0.0003307301, 0.00392128, -8.288881E-06, 0.0005187925, -0.999998, -0.001236841, 0.3503954
 132206263, -0.0004556791, 0.01115834, 0.0001492714, 0.00104407, -0.0002241737, 0.004143055, -8.596557E-05, 0.0005187925, -0.999998, -0.001243023, 0.3503954
 132406183, -0.000436743, 0.01183827, -4.952833E-05, 0.00104407, -0.0001307633, 0.003781306, -3.293388E-05, 0.0005187925, -0.999998, -0.001249793, 0.3503954
 132606103, -0.0002138254, 0.01122518, 0.0001064792, 0.00104407, -0.0004412823, 0.003975726, 0.0003179518, 0.0005187925, -0.999998, -0.001255934, 0.3503954
 132806023, -0.0003769667, 0.01149459, 0.0004135634, 0.00104407, 0.000138446, 0.004197962, 0.0002543421, 0.0005187925, -0.999998, -0.001260178, 0.3503954
 133005943, -5.688584E-05, 0.01174719, 0.0002677108, 0.00104407, 0.0001032595, 0.004116153, 0.0003440815, 0.0005187925, -0.999998, -0.001262628, 0.3503954
 133205863, -0.0001919139, 0.01127805, 0.0004137374, 0.00104407, -4.41123E-06, 0.003909728, -5.620257E-05, 0.0005187925, -0.999998, -0.001264508, 0.3503954
 133405783, -0.0003365771, 0.01112485, -8.328082E-05, 0.00104407, -8.372764E-05, 0.003869181, 7.295073E-06, 0.0005187925, -0.999998, -0.00126572, 0.3503954
 133606536, -0.000374643, 0.0113912, 0.0001304156, 0.001046232, -7.457372E-05, 0.004241549, 0.0003406, 0.0005209541, -0.999998, -0.001265619, 0.3511209
 133806456, 6.071676E-05, 0.01149312, 0.0002975516, 0.001046232, -7.384428E-05, 0.004208964, -0.0002005931, 0.0005187925, -0.999998, -0.00126694, 0.3511209
 134006376, -0.0003007821, 0.01160234, -0.0003188502, 0.00104407, -3.616713E-06, 0.003714314, 7.926511E-05, 0.0005187925, -0.999998, -0.001266939, 0.3503954
 134206296, -0.0004159687, 0.01108522, 0.0002957281, 0.00104407, -0.0002229061, 0.00388503, -4.054235E-05, 0.0005187925, -0.999998, -0.001267512, 0.3503954
 134406216, -0.000372134, 0.01113751, 0.0001464294, 0.00104407, -2.552409E-05, 0.004047117, 6.772788E-05, 0.0005187925, -0.999998, -0.001267071, 0.3503954
 134606136, -0.0002259628, 0.01148691, 0.0003593045, 0.00104407, -0.0001984217, 0.004196189, 0.0001306798, 0.0005187925, -0.999998, -0.001265934, 0.3503954
 134806056, -0.0002624184, 0.01189403, 0.0003537944, 0.00104407, 9.959005E-05, 0.004227696, 0.0003200729, 0.0005187925, -0.999998, -0.001263914, 0.3503954
 135005976, -0.0003715323, 0.01167554, 0.000431819, 0.00104407, -0.0003263689, 0.004001345, 0.0005038856, 0.0005187925, -0.999998, -0.001260845, 0.3503954
 135205896, -0.00036308, 0.01172538, 0.000392074, 0.00104407, 0.0001479294, 0.004146416, -0.000449592, 0.0005187925, -0.999998, -0.00125675, 0.3503954
 135405816, -9.275407E-05, 0.01151887, -0.0004091655, 0.00104407, -0.0003069671, 0.004057548, 0.0001166533, 0.0005187925, -0.999998, -0.001252907, 0.3503954
 135606569, -0.0001848896, 0.01152946, 0.000256991, 0.001046232, 0.0002734601, 0.004000045, -0.0001549283, 0.0005209541, -0.999998, -0.001247601, 0.3511209
 135806489, 0.0003314001, 0.01120166, -0.0002163252, 0.001046232, -3.068826E-05, 0.00404189, 0.0001567523, 0.0005187925, -0.999998, -0.001242319, 0.3511209
 136006409, -0.0001664302, 0.01137741, 0.0002016751, 0.00104407, 0.0002535712, 0.003832705, 2.975704E-05, 0.0005187925, -0.999998, -0.001237045, 0.3503954
 136206329, 9.946355E-05, 0.01119049, 0.0001875306, 0.00104407, -0.0002457545, 0.003962198, 9.854427E-05, 0.0005187925, -0.999998, -0.001232925, 0.3503954
 136406249, -0.0004044529, 0.01160608, 0.0002410997, 0.00104407, 8.646464E-05, 0.004180511, 0.0001125374, 0.0005187925, -0.999998, -0.001228134, 0.3503954
 136606169, -4.455866E-05, 0.0118163, 0.0001242498, 0.00104407, -0.0002812782, 0.004373678, 3.751088E-05, 0.0005187925, -0.999998, -0.00122328, 0.3503954
 136806089, -0.0005147147, 0.01193427, -7.732756E-05, 0.00104407, -0.0003523452, 0.004233127, -1.393595E-05, 0.0005187925, -0.999998, -0.001231309, 0.3503954
 137006009, -0.0004594262, 0.01144154, 0.000221842, 0.00104407, 7.785163E-05, 0.003954037, -7.402319E-05, 0.0005187925, -0.999998, -0.001238283, 0.3503954
 137205929, 6.088812E-07, 0.01159071, -2.829493E-05, 0.00104407, -0.0003161734, 0.004363408, 0.000221133, 0.0005187925, -0.999998, -0.001244546, 0.3503954
 137405849, -0.0003667852, 0.01178199, 0.000312804, 0.00104407, -0.0003559365, 0.003947186, 2.782662E-05, 0.0005187925, -0.999998, -0.001250057, 0.3503954
 137605769, -0.0004898587, 0.0114985, 0.0004380047, 0.00104407, -0.0003577376, 0.003937457, 0.0002114284, 0.0005187925, -0.999998, -0.001254754, 0.3503954
 137806522, -0.0005690847, 0.01157161, 0.0002479153, 0.001046232, -6.155844E-05, 0.004258821, -8.250153E-05, 0.0005209541, -0.9999979, -0.001257397, 0.3511209
 138006442, -0.0001004492, 0.01156199, 5.113105E-05, 0.001046232, -5.460085E-05, 0.004085475, 2.727013E-05, 0.0005187925, -0.9999979, -0.001260686, 0.3511209
 138206362, -0.0002077517, 0.01153121, 0.0001126101, 0.00104407, -0.0001312933, 0.004004015, -0.0001972255, 0.0005187925, -0.9999979, -0.001263007, 0.3503954
 138406282, -0.0002713992, 0.01116148, -5.928407E-05, 0.00104407, -0.0002570371, 0.003714595, 6.972147E-06, 0.0005187925, -0.9999979, -0.001264245, 0.3503954
 138606202, -0.0004155811, 0.01112454, 0.0001534694, 0.00104407, 8.519393E-05, 0.004118495, 0.0002713786, 0.0005187925, -0.9999979, -0.00126629, 0.3503954
 138806122, -1.040507E-05, 0.01160742, 0.0003859514, 0.00104407, -5.979307E-06, 0.003799398, 4.931503E-05, 0.0005187925, -0.999998, -0.001267846, 0.3503954
 139006042, -0.0002266684, 0.01125142, 6.055201E-05, 0.00104407, -0.0002027907, 0.003959876, 0.000174679, 0.0005187925, -0.999998, -0.001267816, 0.3503954
 139205962, -0.0001964723, 0.01131146, 0.0002378013, 0.00104407, 0.0001316455, 0.004087753, -0.0001782955, 0.0005187925, -0.999998, -0.001264771, 0.3503954
 139405882, -0.0001934682, 0.01145087, -9.751948E-05, 0.00104407, -0.0004211103, 0.004126525, 0.0001587793, 0.0005187925, -0.999998, -0.001263685, 0.3503954
 139605802, -0.0006904378, 0.01161237, 0.0001745491, 0.00104407, 2.564425E-05, 0.003971955, 0.0001064173, 0.0005187925, -0.9999979, -0.00126255, 0.3503954
 139806555, -0.0001062428, 0.01134686, 9.685613E-05, 0.001046232, -0.0002190003, 0.004059522, -3.631648E-05, 0.0005209541, -0.9999979, -0.001259807, 0.3511209
 140006475, -0.0006247406, 0.01148381, -0.000143861, 0.001046232, -0.0002225786, 0.003816376, -0.000333301, 0.0005187925, -0.9999979, -0.001257769, 0.3511209
 140206395, -0.0004011193, 0.0113189, -0.0005354848, 0.00104407, 0.0001984742, 0.004140038, 8.233112E-05, 0.0005187925, -0.9999979, -0.001254968, 0.3503954
 140406315, 0.0001036504, 0.01165496, 9.054852E-05, 0.00104407, 0.0002850827, 0.004239958, 5.384556E-05, 0.0005187925, -0.9999979, -0.001251243, 0.3503954
 140606235, 0.0001516028, 0.01170948, -3.457951E-05, 0.00104407, -0.0001559364, 0.003988884, -8.179252E-05, 0.0005187925, -0.9999979, -0.001246953, 0.3503954
 140806155, -0.0002697674, 0.0114928, -0.0002433506, 0.00104407, -0.0001797414, 0.004357186, 0.0002533685, 0.0005187925, -0.9999979, -0.001243285, 0.3503954
 141006075, -0.0004142357, 0.01188741, 0.0005462928, 0.00104407, 0.0001589019, 0.004134005, 0.0002497294, 0.0005187925, -0.9999979, -0.001240061, 0.3503954
 141205995, 7.682046E-05, 0.01162854, 0.000182838, 0.00104407, -0.0002378584, 0.004168501, 5.953433E-05, 0.0005187925, -0.9999979, -0.001235588, 0.3503954
 141405915, -0.0004863538, 0.01160235, 0.0001969658, 0.00104407, -4.625755E-05, 0.004128386, 0.0001930311, 0.0005187925, -0.9999979, -0.00123061, 0.3503954
 141605835, -9.761358E-05, 0.01141941, 0.0001939749, 0.00104407, 0.0001409606, 0.003867113, 0.0001367296, 0.0005187925, -0.9999979, -0.001225447, 0.3503954
 141806588, -0.000159801, 0.0114518, 0.0003262073, 0.001046232, -0.000414245, 0.004128425, 3.910328E-05, 0.0005209541, -0.9999979, -0.001218791, 0.3511209
 142006508, -0.0005087153, 0.01173177, 9.438956E-05, 0.001046232, -0.0001067431, 0.004351493, 0.0001801771, 0.0005187925, -0.9999979, -0.001227075, 0.3511209
 142206428, -0.0001304969, 0.01168, 8.666149E-05, 0.00104407, -0.0001795247, 0.003951328, -0.0001582955, 0.0005187925, -0.9999979, -0.001234494, 0.3503954
 142406348, -0.0003704119, 0.01141087, -0.0002097483, 0.00104407, -0.0005092177, 0.004254788, -9.443795E-05, 0.0005187925, -0.9999979, -0.001241222, 0.3503954
 142606268, -0.0008853267, 0.0117448, -9.3549E-05, 0.00104407, -0.000340513, 0.004111936, -0.0001453426, 0.0005187925, -0.9999979, -0.001247356, 0.3503954
 142806188, -0.0005259521, 0.01167111, -5.870499E-05, 0.00104407, -3.920965E-05, 0.003909579, -7.893026E-05, 0.0005187925, -0.9999979, -0.001251643, 0.3503954
 143006108, -0.0001546745, 0.01148605, 4.619887E-06, 0.00104407, 0.0004194663, 0.004095598, -0.0002910891, 0.0005187925, -0.9999979, -0.001256903, 0.3503954
 143206028, 0.0002286344, 0.01138338, -0.000303116, 0.00104407, -0.0002651828, 0.003815528, -0.0001689938, 0.0005187925, -0.9999979, -0.001259654, 0.3503954
 143405948, -0.0005279952, 0.01115088, -0.0001795062, 0.00104407, -7.89401E-05, 0.004013736, -2.085566E-05, 0.0005187925, -0.999998, -0.00126117, 0.3503954
 143605868, -0.0003397322, 0.01129375, 7.866212E-05, 0.00104407, -0.0002302045, 0.003876186, 0.0003720034, 0.0005187925, -0.999998, -0.001262766, 0.3503954
 143805788, -0.0004072895, 0.01131515, 0.0003412334, 0.00104407, -9.253055E-05, 0.003954967, -0.000188802, 0.0005187925, -0.999998, -0.001264127, 0.3503954
 144006541, -0.000211525, 0.01157602, -0.000294631, 0.001046232, -0.0001891523, 0.004232405, -0.0002764558, 0.0005209541, -0.999998, -0.001263511, 0.3511209
 144206461, -0.0005652663, 0.01154921, -0.000200141, 0.001046232, -0.0006408859, 0.004005454, 0.0002851263, 0.0005187925, -0.999998, -0.001262866, 0.3511209
 144406381, -0.0007660141, 0.0110934, 0.0003735549, 0.00104407, -0.0002154972, 0.003826091, 7.243476E-05, 0.0005187925, -0.999998, -0.001261294, 0.3503954
 144606301, -0.0004596352, 0.01127556, 0.000146284, 0.00104407, -0.0002468346, 0.004126321, 9.348348E-05, 0.0005187925, -0.999998, -0.001259728, 0.3503954
 144806221, -0.0004457421, 0.01159115, 0.0003073678, 0.00104407, -5.513339E-05, 0.003599927, -0.0001089602, 0.0005187925, -0.999998, -0.001258223, 0.3503954
 145006141, -6.015072E-05, 0.0110955, 0.0001749995, 0.00104407, -0.0001299946, 0.004571525, 0.0001508014, 0.0005187925, -0.999998, -0.001255836, 0.3503954
 145206061, -0.0004177028, 0.01201616, -0.03130599, 0.00104407, -0.000154455, 0.004327373, -0.07941197, 0.0005187925, -0.999998, -0.001252465, 0.3503954
 145405981, 0.0007907983, 0.01258185, -0.7307506, 0.00104407, 0.0002236317, 0.004697797, -0.1987057, 0.0005187925, -0.999998, -0.001248996, 0.3503954
 145605901, 0.0001567869, 0.01196046, -1.153983, 0.00104407, -0.000742519, 0.003310624, -0.9171526, 0.0005187925, -0.9999992, -0.001268502, 0.3503954
 145805821, -0.004039729, 0.007462408, -2.398949, 0.00104407, -0.002837905, 0.001889159, -0.6297417, 0.0005187925, -0.999999, -0.001323367, 0.3503954
 146006574, -0.009588948, 0.004525208, -1.446734, 0.001046232, -0.004526422, 0.00109526, -0.3733193, 0.0005209541, -0.9999988, -0.00138548, 0.3511209
 146206494, -0.01115321, 0.003123077, -1.046843, 0.001046232, -0.003651307, 0.0009973972, -0.3687345, 0.0005187925, -0.9999986, -0.001423954, 0.3511209
 146406414, -0.009956292, 0.003021009, -1.017804, 0.00104407, -0.003160335, 0.0008239562, -0.3340248, 0.0005187925, -0.9999982, -0.001460519, 0.3503954
 146606334, -0.008676182, 0.002822277, -0.8824615, 0.00104407, -0.003106191, 0.0009114772, -0.2747002, 0.0005187925, -0.9999981, -0.001499593, 0.3503954
 146806254, -0.008115072, 0.003028318, -0.7273747, 0.00104407, -0.00254038, 0.001130667, -0.2282684, 0.0005187925, -0.999998, -0.001547216, 0.3503954
 147006174, -0.007124343, 0.003848493, -0.6068608, 0.00104407, -0.002557424, 0.001634061, -0.1909684, 0.0005187925, -0.999998, -0.001593919, 0.3503954
 147206094, -0.006936642, 0.004732787, -0.5055119, 0.00104407, -0.00229312, 0.002019435, -0.1579776, 0.0005187925, -0.9999979, -0.001654623, 0.3503954
 147406014, -0.006210322, 0.005458019, -0.4165102, 0.00104407, -0.002050047, 0.002362492, -0.129517, 0.0005187925, -0.9999979, -0.001712739, 0.3503954
 147605934, -0.005187068, 0.006633788, 0.2476251, 0.00104407, -0.001631695, 0.002847473, 0.3904199, 0.0005187925, -0.9999983, -0.001668498, 0.3503954
 147805854, -0.004521426, 0.008276719, 1.03533, 0.00104407, -0.001425973, 0.003215639, 0.3255301, 0.0005187925, -0.9999987, -0.001572786, 0.3503954
 148005774, -0.003710209, 0.008992217, 0.8705398, 0.00104407, -0.001358308, 0.003232517, 0.277725, 0.0005187925, -0.9999986, -0.001647151, 0.3503954
 148206527, -0.003957652, 0.008739541, 1.753017, 0.001046232, -0.001572553, 0.002829743, 1.053411, 0.0005209541, -0.9999965, -0.001980166, 0.3511209
 148406447, 0.001966587, 0.01167964, 2.587332, 0.001046232, 0.005867062, 0.007121325, 0.6939259, 0.0005187925, -0.9999444, -0.00219171, 0.3511209
 148606367, 0.03788184, 0.03085405, 1.68181, 0.00104407, 0.02662853, 0.01728197, 0.4483294, 0.0005187925, -0.9997472, -0.00200715, 0.3503954
 148806287, 0.1029711, 0.06163726, 1.098744, 0.00104407, 0.05161177, 0.02890332, 0.2964318, 0.0005187925, -0.9994259, -0.001412373, 0.3503954
 149006207, 0.1755678, 0.09424239, 0.7059019, 0.00104407, 0.07767692, 0.03995734, 0.1762449, 0.0005187925, -0.9990538, -0.000653975, 0.3503954
 149206127, 0.248159, 0.125033, 0.3945921, 0.00104407, 0.1017474, 0.05051594, 0.08306564, 0.0005187925, -0.9986657, 0.000166412, 0.3503954
 149406047, 0.3116835, 0.1528356, 0.1595294, 0.00104407, 0.1216201, 0.05866437, 0.01695369, 0.0005187925, -0.9983236, 0.006092307, 0.3503954
 149605967, 0.3627572, 0.1726159, -0.003726447, 0.00104407, 0.1369004, 0.06389511, -0.02728197, 0.0005187925, -0.9954461, 0.07994656, 0.3503954
 149805887, 0.4033243, 0.186582, -0.1094758, 0.00104407, 0.1501141, 0.06850725, -0.05425374, 0.0005187925, -0.9624134, 0.2705415, 0.3503954
 150005807, 0.44104, 0.1998671, -0.172034, 0.00104407, 0.1637175, 0.07335483, -0.06959966, 0.0005187925, -0.8511496, 0.5242045, 0.3503954
 150206560, 0.4814485, 0.2146381, -0.2077131, 0.001046232, 0.1782698, 0.0791899, -0.07756565, 0.0005209541, -0.6468983, 0.7568485, 0.3511209
 150406480, 0.5199954, 0.2339092, -0.2261705, 0.001046232, 0.1905823, 0.08788685, -0.08234435, 0.0005187925, -0.3959376, 0.904549, 0.3511209
 150606400, 0.5550105, 0.2596829, -0.2395009, 0.00104407, 0.2028516, 0.09639511, -0.08677097, 0.0005187925, -0.1601824, 0.9637743, 0.3503954
 150806320, 0.5900105, 0.2796939, -0.2518001, 0.00104407, 0.214277, 0.1007552, -0.09073696, 0.0005187925, 0.03263609, 0.9660171, 0.3503954
 151006240, 0.6091436, 0.2864164, -0.2596039, 0.00104407, 0.2131785, 0.09956281, -0.09143497, 0.0005187925, 0.1937412, 0.93984, 0.3503954
 151206160, 0.594502, 0.2757665, -0.2570005, 0.00104407, 0.2017292, 0.09200116, -0.08781572, 0.0005187925, 0.344842, 0.892306, 0.3503954
 151406080, 0.5517582, 0.2488082, -0.2411477, 0.00104407, 0.182128, 0.07968103, -0.08002342, 0.0005187925, 0.4660396, 0.836518, 0.3503954
 151606000, 0.4955173, 0.2142219, -0.2174085, 0.00104407, 0.1622443, 0.06899911, -0.07073582, 0.0005187925, 0.5156066, 0.8086301, 0.3503954
 151805920, 0.441644, 0.188911, -0.1915044, 0.00104407, 0.1441371, 0.06297658, -0.06197666, 0.0005187925, 0.4955627, 0.8210328, 0.3503954
 152005840, 0.3894125, 0.1755525, -0.166746, 0.00104407, 0.1261038, 0.06053288, -0.0539245, 0.0005187925, 0.4316337, 0.8557494, 0.3503954
 152205760, 0.3383928, 0.1718579, -0.1437099, 0.00104407, 0.1080598, 0.06043758, -0.0453559, 0.0005187925, 0.3581211, 0.8891879, 0.3503954
 152406513, 0.2905021, 0.1689382, -0.1213071, 0.001046232, 0.09309898, 0.05603231, -0.03872736, 0.0005209541, 0.3082186, 0.9088437, 0.3511209
 152606433, 0.2488329, 0.1442522, -0.1007745, 0.001046232, 0.07924198, 0.04237338, -0.03056026, 0.0005187925, 0.2979662, 0.9135061, 0.3511209
 152806353, 0.2099446, 0.1071712, -0.07923955, 0.00104407, 0.06570556, 0.03091357, -0.02344005, 0.0005187925, 0.3204892, 0.9068922, 0.3503954
 153006273, 0.1725283, 0.07775404, -0.05923289, 0.00104407, 0.05244675, 0.02047065, -0.01681917, 0.0005187925, 0.3564563, 0.8949305, 0.3503954
 153206193, 0.1329176, 0.0425335, -0.04054546, 0.00104407, 0.03791346, 0.006757545, -0.009942312, 0.0005187925, 0.3869354, 0.8848289, 0.3503954
 153406113, 0.08899459, 0.0108396, -0.02091155, 0.00104407, 0.02090451, -9.112639E-05, -0.002799249, 0.0005187925, 0.4007933, 0.881395, 0.3503954
 153606033, 0.04226314, -0.002933442, -0.001081478, 0.00104407, 0.005254821, -0.002476902, 0.003619613, 0.0005187925, 0.3972644, 0.8855726, 0.3503954
 153805953, 0.007679676, -0.006745653, 0.01460406, 0.00104407, 0.0007700605, -0.001004988, 0.007207146, 0.0005187925, 0.3823149, 0.8923633, 0.3503954
 154005873, 0.003923257, 0.002180528, 0.02238527, 0.00104407, 0.003208356, 0.003411866, 0.009340649, 0.0005187925, 0.3655483, 0.8981867, 0.3503954
 154205793, 0.0150281, 0.006881425, 0.03218142, 0.00104407, 0.008173741, -0.001147873, 0.01433425, 0.0005187925, 0.3546058, 0.9016953, 0.3503954
 154406546, 0.03709775, -0.01367258, -0.01915781, 0.001046232, 0.01238396, -0.01282106, -0.001905874, 0.0005209541, 0.3515573, 0.9034418, 0.3511209
 154606466, 0.03173282, -0.0484148, 0.03625846, 0.001046232, 0.01076957, -0.02230652, 0.03297618, 0.0005187925, 0.3525645, 0.902329, 0.3511209
 154806386, 0.03186804, -0.07039086, 0.1138236, 0.00104407, 0.01199172, -0.02864663, 0.05031394, 0.0005187925, 0.3522589, 0.9017318, 0.3503954
