TimeUS,CGpN,CGpE,CGpD,CGpe,PGpN,PGpE,PGpD,PGpe
 77696409, 0, 0, 0, 0.01, 0, 0, 0, 0
 77806365, 0, 0, 0, 0.01, 0, 0, 0, 0.01
 78006285, 0, 0, 0, 0.01, 0, 0, 0, 0.01
 78206205, 0, 0, 0, 0.01, 0, 0, 0, 0.01
 78406125, 0, 0, 0, 0.01, 0, 0, 0, 0.01
 78606045, 0, 0, 0, 0.01, 0, 0, 0, 0.01
 78805965, 0, 0, 0, 0.01, 0, 0, 0, 0.01
 79005885, 0, 0, 0, 0.01, 0, 0, 0, 0.01
 79205805, 0, 0, 0, 0.01, 0, 0, 0, 0.01
 79406558, 0, 0, 0, 0.01, 0, 0, 0, 0.01
 79606478, 0, 0, 0, 0.01, 0, 0, 0, 0.01
 79806398, 0, 0, 0, 0.01, 0, 0, 0, 0.01
 80006318, 0, 0, 0, 0.01, 0, 0, 0, 0.01
 80206238, 0, 0, 0, 0.01, 0, 0, 0, 0.01
 80406158, 0, 0, 0, 0.01, 0, 0, 0, 0.01
 80606078, 0, 0, 0, 0.01, 0, 0, 0, 0.01
 80805998, 0, 0, 0, 0.01, 0, 0, 0, 0.01
 81005918, 0, 0, 0, 0.01, 0, 0, 0, 0.01
 81205838, 0, 0, 0, 0.01, 0, 0, 0, 0.01
 81406591, 0, 0, 0, 0.01, 0, 0, 0, 0.01
 81606511, 0, 0, 0, 0.01, 0, 0, 0, 0.01
 81806431, 0, 0, 0, 0.01, 0, 0, 0, 0.01
 82006351, 0, 0, 0, 0.01, 0, 0, 0, 0.01
 82206271, 0, 0, 0, 0.01, 0, 0, 0, 0.01
 82406191, 0, 0, 0, 0.01, 0, 0, 0, 0.01
 82606111, 0, 0, 0, 0.01, 0, 0, 0, 0.01
 82806031, 0, 0, 0, 0.01, 0, 0, 0, 0.01
 83005951, 0, 0, 0, 0.01, 0, 0, 0, 0.01
 83205871, 0, 0, 0, 0.01, 0, 0, 0, 0.01
 83405791, 0, 0, 0, 0.01, 0, 0, 0, 0.01
 83606544, 0, 0, 0, 0.01, 0, 0, 0, 0.01
 83806464, 0, 0, 0, 0.01, 0, 0, 0, 0.01
 84006384, 0, 0, 0, 0.01, 0, 0, 0, 0.01
 84206304, 0, 0, 0, 0.01, 0, 0, 0, 0.01
 84406224, 0, 0, 0, 0.01, 0, 0, 0, 0.01
 84606144, 0, 0, 0, 0.01, 0, 0, 0, 0.01
 84806064, 0, 0, 0, 0.01, 0, 0, 0, 0.01
 85005984, 0, 0, 0, 0.01, 0, 0, 0, 0.01
 85205904, 0, 0, 0, 0.01, 0, 0, 0, 0.01
 85405824, 0, 0, 0, 0.01, 0, 0, 0, 0.01
 85606577, 0, 0, 0, 0.01, 0, 0, 0, 0.01
 85806497, 0, 0, 0, 0.01, 0, 0, 0, 0.01
 86006417, 0, 0, 0, 0.01, 0, 0, 0, 0.01
 86206337, 0, 0, 0, 0.01, 0, 0, 0, 0.01
 86406257, 0, 0, 0, 0.01, 0, 0, 0, 0.01
 86606177, 0, 0, 0, 0.01, 0, 0, 0, 0.01
 86806097, 0, 0, 0, 0.01, 0, 0, 0, 0.01
 87006017, 0, 0, 0, 0.01, 0, 0, 0, 0.01
 87205937, 0, 0, 0, 0.01, 0, 0, 0, 0.01
 87405857, 0, 0, 0, 0.01, 0, 0, 0, 0.01
 87605777, 0, 0, 0, 0.01, 0, 0, 0, 0.01
 87806530, 0, 0, 0, 0.01, 0, 0, 0, 0.01
 88006450, 0, 0, 0, 0.01, 0, 0, 0, 0.01
 88206370, 0, 0, 0, 0.01, 0, 0, 0, 0.01
 88406290, 0, 0, 0, 0.01, 0, 0, 0, 0.01
 88606210, 0, 0, 0, 0.01, 0, 0, 0, 0.01
 88806130, 0, 0, 0, 0.01, 0, 0, 0, 0.01
 89006050, 0, 0, 0, 0.01, 0, 0, 0, 0.01
 89205970, 0, 0, 0, 0.01, 0, 0, 0, 0.01
 89405890, 0, 0, 0, 0.01, 0, 0, 0, 0.01
 89605810, 0, 0, 0, 0.01, 0, 0, 0, 0.01
 89806563, 0, 0, 0, 0.01, 0, 0, 0, 0.01
 90006483, 0, 0, 0, 0.01, 0, 0, 0, 0.01
 90206403, 0, 0, 0, 0.01, 0, 0, 0, 0.01
 90406323, 0, 0, 0, 0.01, 0, 0, 0, 0.01
 90606243, 0, 0, 0, 0.01, 0, 0, 0, 0.01
 90806163, 0, 0, 0, 0.01, 0, 0, 0, 0.01
 91006083, 0, 0, 0, 0.01, 0, 0, 0, 0.01
 91206003, 0, 0, 0, 0.01, 0, 0, 0, 0.01
 91405923, 0, 0, 0, 0.01, 0, 0, 0, 0.01
 91605843, 0, 0, 0, 0.01, 0, 0, 0, 0.01
 91805763, 0, 0, 0, 0.01, 0, 0, 0, 0.01
 92006516, 0, 0, 0, 0.01, 0, 0, 0, 0.01
 92206436, 0, 0, 0, 0.01, 0, 0, 0, 0.01
 92406356, 0, 0, 0, 0.01, 0, 0, 0, 0.01
 92606276, 0, 0, 0, 0.01, 0, 0, 0, 0.01
 92806196, 0, 0, 0, 0.01, 0, 0, 0, 0.01
 93006116, 0, 0, 0, 0.01, 0, 0, 0, 0.01
 93206036, 0, 0, 0, 0.01, 0, 0, 0, 0.01
 93405956, 0, 0, 0, 0.01, 0, 0, 0, 0.01
 93605876, 0, 0, 0, 0.01, 0, 0, 0, 0.01
 93805796, 0, 0, 0, 0.01, 0, 0, 0, 0.01
 94006549, 0, 0, 0, 0.01, 0, 0, 0, 0.01
 94206469, 0, 0, 0, 0.01, 0, 0, 0, 0.01
 94406389, 0, 0, 0, 0.01, 0, 0, 0, 0.01
 94606309, 0, 0, 0, 0.01, 0, 0, 0, 0.01
 94806229, 0, 0, 0, 0.01, 0, 0, 0, 0.01
 95006149, 0, 0, 0, 0.01, 0, 0, 0, 0.01
 95206069, 0, 0, 0, 0.01, 0, 0, 0, 0.01
 95405989, 0, 0, 0, 0.01, 0, 0, 0, 0.01
 95605909, 0, 0, 0, 0.01, 0, 0, 0, 0.01
 95805829, 0, 0, 0, 0.01, 0, 0, 0, 0.01
 96006582, 0, 0, 0, 0.01, 0, 0, 0, 0.01
 96206502, 0, 0, 0, 0.01, 0, 0, 0, 0.01
 96406422, 0, 0, 0, 0.01, 0, 0, 0, 0.01
 96606342, 0, 0, 0, 0.01, 0, 0, 0, 0.01
 96806262, 0, 0, 0, 0.01, 0, 0, 0, 0.01
 97006182, 0, 0, 0, 0.01, 0, 0, 0, 0.01
 97206102, 0, 0, 0, 0.01, 0, 0, 0, 0.01
 97406022, 0, 0, 0, 0.01, 0, 0, 0, 0.01
 97605942, 0, 0, 0, 0.01, 0, 0, 0, 0.01
 97805862, 0, 0, 0, 0.01, 0, 0, 0, 0.01
 98005782, 0, 0, 0, 0.01, 0, 0, 0, 0.01
 98206535, 0, 0, 0, 0.01, 0, 0, 0, 0.01
 98406455, 0, 0, 0, 0.01, 0, 0, 0, 0.01
 98606375, 0, 0, 0, 0.01, 0, 0, 0, 0.01
 98806295, 0, 0, 0, 0.01, 0, 0, 0, 0.01
 99006215, 0, 0, 0, 0.01, 0, 0, 0, 0.01
 99206135, 0, 0, 0, 0.01, 0, 0, 0, 0.01
 99406055, 0, 0, 0, 0.01, 0, 0, 0, 0.01
 99605975, 0, 0, 0, 0.01, 0, 0, 0, 0.01
 99805895, 0, 0, 0, 0.01, 0, 0, 0, 0.01
 100005815, 0, 0, 0, 0.01, 0, 0, 0, 0.01
 100206568, 0, 0, 0, 0.01, 0, 0, 0, 0.01
 100406488, 0, 0, 0, 0.01, 0, 0, 0, 0.01
 100606408, 0, 0, 0, 0.01, 0, 0, 0, 0.01
 100806328, 0, 0, 0, 0.01, 0, 0, 0, 0.01
 101006248, 0, 0, 0, 0.01, 0, 0, 0, 0.01
 101206168, 0, 0, 0, 0.01, 0, 0, 0, 0.01
 101406088, 0, 0, 0, 0.01, 0, 0, 0, 0.01
 101606008, 0, 0, 0, 0.01, 0, 0, 0, 0.01
 101805928, 0, 0, 0, 0.01, 0, 0, 0, 0.01
 102005848, 0, 0, 0, 0.01, 0, 0, 0, 0.01
 102205768, 0, 0, 0, 0.01, 0, 0, 0, 0.01
 102406521, 0, 0, 0, 0.01, 0, 0, 0, 0.01
 102606441, 0, 0, 0, 0.01, 0, 0, 0, 0.01
 102806361, 0, 0, 0, 0.01, 0, 0, 0, 0.01
 103006281, 0, 0, 0, 0.01, 0, 0, 0, 0.01
 103206201, 0, 0, 0, 0.01, 0, 0, 0, 0.01
 103406121, 0, 0, 0, 0.01, 0, 0, 0, 0.01
 103606041, 0, 0, 0, 0.01, 0, 0, 0, 0.01
 103805961, 0, 0, 0, 0.01, 0, 0, 0, 0.01
 104005881, 0, 0, 0, 0.01, 0, 0, 0, 0.01
 104205801, 0, 0, 0, 0.01, 0, 0, 0, 0.01
 104406554, 0, 0, 0, 0.01, 0, 0, 0, 0.01
 104606474, 0, 0, 0, 0.01, 0, 0, 0, 0.01
 104806394, 0, 0, 0, 0.01, 0, 0, 0, 0.01
 105006314, 0, 0, 0, 0.01, 0, 0, 0, 0.01
 105206234, 0, 0, 0, 0.01, 0, 0, 0, 0.01
 105406154, 0, 0, 0, 0.01, 0, 0, 0, 0.01
 105606074, 0, 0, 0, 0.01, 0, 0, 0, 0.01
 105805994, 0, 0, 0, 0.01, 0, 0, 0, 0.01
 106005914, 0, 0, 0, 0.01, 0, 0, 0, 0.01
 106205834, 0, 0, 0, 0.01, 0, 0, 0, 0.01
 106406587, 0, 0, 0, 0.01, 0, 0, 0, 0.01
 106606507, 0, 0, 0, 0.01, 0, 0, 0, 0.01
 106806427, 0, 0, 0, 0.01, 0, 0, 0, 0.01
 107006347, 0, 0, 0, 0.01, 0, 0, 0, 0.01
 107206267, 0, 0, 0, 0.01, 0, 0, 0, 0.01
 107406187, 0, 0, 0, 0.01, 0, 0, 0, 0.01
 107606107, 0, 0, 0, 0.01, 0, 0, 0, 0.01
 107806027, 0, 0, 0, 0.01, 0, 0, 0, 0.01
 108005947, 0, 0, 0, 0.01, 0, 0, 0, 0.01
 108205867, 0, 0, 0, 0.01, 0, 0, 0, 0.01
 108405787, 0, 0, 0, 0.01, 0, 0, 0, 0.01
 108606540, 0, 0, 0, 0.01, 0, 0, 0, 0.01
 108806460, 0, 0, 0, 0.01, 0, 0, 0, 0.01
 109006380, 0, 0, 0, 0.01, 0, 0, 0, 0.01
 109206300, 0, 0, 0, 0.01, 0, 0, 0, 0.01
 109406220, 0, 0, 0, 0.01, 0, 0, 0, 0.01
 109606140, 0, 0, 0, 0.01, 0, 0, 0, 0.01
 109806060, 0, 0, 0, 0.01, 0, 0, 0, 0.01
 110005980, 0, 0, 0, 0.01, 0, 0, 0, 0.01
 110205900, 0, 0, 0, 0.01, 0, 0, 0, 0.01
 110405820, 0, 0, 0, 0.01, 0, 0, 0, 0.01
 110606573, 0, 0, 0, 0.01, 0, 0, 0, 0.01
 110806493, 0, 0, 0, 0.01, 0, 0, 0, 0.01
 111006413, 0, 0, 0, 0.01, 0, 0, 0, 0.01
 111206333, 0, 0, 0, 0.01, 0, 0, 0, 0.01
 111406253, 0, 0, 0, 0.01, 0, 0, 0, 0.01
 111606173, 0, 0, 0, 0.01, 0, 0, 0, 0.01
 111806093, 0, 0, 0, 0.01, 0, 0, 0, 0.01
 112006013, 0, 0, 0, 0.01, 0, 0, 0, 0.01
 112205933, 0, 0, 0, 0.01, 0, 0, 0, 0.01
 112405853, 0, 0, 0, 0.01, 0, 0, 0, 0.01
 112605773, 0, 0, 0, 0.01, 0, 0, 0, 0.01
 112806526, 0, 0, 0, 0.01, 0, 0, 0, 0.01
 113006446, 0, 0, 0, 0.01, 0, 0, 0, 0.01
 113206366, 0, 0, 0, 0.01, 0, 0, 0, 0.01
 113406286, 0, 0, 0, 0.01, 0, 0, 0, 0.01
 113606206, 0, 0, 0, 0.01, 0, 0, 0, 0.01
 113806126, 0, 0, 0, 0.01, 0, 0, 0, 0.01
 114006046, 0, 0, 0, 0.01, 0, 0, 0, 0.01
 114205966, 0, 0, 0, 0.01, 0, 0, 0, 0.01
 114405886, 0, 0, 0, 0.01, 0, 0, 0, 0.01
 114605806, 0, 0, 0, 0.01, 0, 0, 0, 0.01
 114806559, 0, 0, 0, 0.01, 0, 0, 0, 0.01
 115006479, 0, 0, 0, 0.01, 0, 0, 0, 0.01
 115206399, 0, 0, 0, 0.01, 0, 0, 0, 0.01
 115406319, 0, 0, 0, 0.01, 0, 0, 0, 0.01
 115606239, 0, 0, 0, 0.01, 0, 0, 0, 0.01
 115806159, 0, 0, 0, 0.01, 0, 0, 0, 0.01
 116006079, 0, 0, 0, 0.01, 0, 0, 0, 0.01
 116205999, 0, 0, 0, 0.01, 0, 0, 0, 0.01
 116405919, 0, 0, 0, 0.01, 0, 0, 0, 0.01
 116605839, 0, 0, 0, 0.01, 0, 0, 0, 0.01
 116806592, 0, 0, 0, 0.01, 0, 0, 0, 0.01
 117006512, 0, 0, 0, 0.01, 0, 0, 0, 0.01
 117206432, 0, 0, 0, 0.01, 0, 0, 0, 0.01
 117406352, 0, 0, 0, 0.01, 0, 0, 0, 0.01
 117606272, 0, 0, 0, 0.01, 0, 0, 0, 0.01
 117806192, 0, 0, 0, 0.01, 0, 0, 0, 0.01
 118006112, 0, 0, 0, 0.01, 0, 0, 0, 0.01
 118206032, 0, 0, 0, 0.01, 0, 0, 0, 0.01
 118405952, 0, 0, 0, 0.01, 0, 0, 0, 0.01
 118605872, 0, 0, 0, 0.01, 0, 0, 0, 0.01
 118805792, 0, 0, 0, 0.01, 0, 0, 0, 0.01
 119006545, 0, 0, 0, 0.01, 0, 0, 0, 0.01
 119206465, 0, 0, 0, 0.01, 0, 0, 0, 0.01
 119406385, 0, 0, 0, 0.01, 0, 0, 0, 0.01
 119606305, 0, 0, 0, 0.01, 0, 0, 0, 0.01
 119806225, 0, 0, 0, 0.01, 0, 0, 0, 0.01
 120006145, 0, 0, 0, 0.01, 0, 0, 0, 0.01
 120206065, 0, 0, 0, 0.01, 0, 0, 0, 0.01
 120405985, 0, 0, 0, 0.01, 0, 0, 0, 0.01
 120605905, 0, 0, 0, 0.01, 0, 0, 0, 0.01
 120805825, 0, 0, 0, 0.01, 0, 0, 0, 0.01
 121006578, 0, 0, 0, 0.01, 0, 0, 0, 0.01
 121206498, 0, 0, 0, 0.01, 0, 0, 0, 0.01
 121406418, 0, 0, 0, 0.01, 0, 0, 0, 0.01
 121606338, 0, 0, 0, 0.01, 0, 0, 0, 0.01
 121806258, 0, 0, 0, 0.01, 0, 0, 0, 0.01
 122006178, 0, 0, 0, 0.01, 0, 0, 0, 0.01
 122206098, 0, 0, 0, 0.01, 0, 0, 0, 0.01
 122406018, 0, 0, 0, 0.01, 0, 0, 0, 0.01
 122605938, 0, 0, 0, 0.01, 0, 0, 0, 0.01
 122805858, 0, 0, 0, 0.01, 0, 0, 0, 0.01
 123005778, 0, 0, 0, 0.01, 0, 0, 0, 0.01
 123206531, 0, 0, 0, 0.01, 0, 0, 0, 0.01
 123406451, 0, 0, 0, 0.01, 0, 0, 0, 0.01
 123606371, 0, 0, 0, 0.01, 0, 0, 0, 0.01
 123806291, 0, 0, 0, 0.01, 0, 0, 0, 0.01
 124006211, 0, 0, 0, 0.01, 0, 0, 0, 0.01
 124206131, 0, 0, 0, 0.01, 0, 0, 0, 0.01
 124406051, 0, 0, 0, 0.01, 0, 0, 0, 0.01
 124605971, 0, 0, 0, 0.01, 0, 0, 0, 0.01
 124805891, 0, 0, 0, 0.01, 0, 0, 0, 0.01
 125005811, 0, 0, 0, 0.01, 0, 0, 0, 0.01
 125206564, 0, 0, 0, 0.01, 0, 0, 0, 0.01
 125406484, 0, 0, 0, 0.01, 0, 0, 0, 0.01
 125606404, 0, 0, 0, 0.01, 0, 0, 0, 0.01
 125806324, 0, 0, 0, 0.01, 0, 0, 0, 0.01
 126006244, 0, 0, 0, 0.01, 0, 0, 0, 0.01
 126206164, 0, 0, 0, 0.01, 0, 0, 0, 0.01
 126406084, 0, 0, 0, 0.01, 0, 0, 0, 0.01
 126606004, 0, 0, 0, 0.01, 0, 0, 0, 0.01
 126805924, 0, 0, 0, 0.01, 0, 0, 0, 0.01
 127005844, 0, 0, 0, 0.01, 0, 0, 0, 0.01
 127205764, 0, 0, 0, 0.01, 0, 0, 0, 0.01
 127406517, 0, 0, 0, 0.01, 0, 0, 0, 0.01
 127606437, 0, 0, 0, 0.01, 0, 0, 0, 0.01
 127806357, 0, 0, 0, 0.01, 0, 0, 0, 0.01
 128006277, 0, 0, 0, 0.01, 0, 0, 0, 0.01
 128206197, 0, 0, 0, 0.01, 0, 0, 0, 0.01
 128406117, 0, 0, 0, 0.01, 0, 0, 0, 0.01
 128606037, 0, 0, 0, 0.01, 0, 0, 0, 0.01
 128805957, 0, 0, 0, 0.01, 0, 0, 0, 0.01
 129005877, 0, 0, 0, 0.01, 0, 0, 0, 0.01
 129205797, 0, 0, 0, 0.01, 0, 0, 0, 0.01
 129406550, 0, 0, 0, 0.01, 0, 0, 0, 0.01
 129606470, 0, 0, 0, 0.01, 0, 0, 0, 0.01
 129806390, 0, 0, 0, 0.01, 0, 0, 0, 0.01
 130006310, 0, 0, 0, 0.01, 0, 0, 0, 0.01
 130206230, 0, 0, 0, 0.01, 0, 0, 0, 0.01
 130406150, 0, 0, 0, 0.01, 0, 0, 0, 0.01
 130606070, 0, 0, 0, 0.01, 0, 0, 0, 0.01
 130805990, 0, 0, 0, 0.01, 0, 0, 0, 0.01
 131005910, 0, 0, 0, 0.01, 0, 0, 0, 0.01
 131205830, 0, 0, 0, 0.01, 0, 0, 0, 0.01
 131406583, 0, 0, 0, 0.01, 0, 0, 0, 0.01
 131606503, 0, 0, 0, 0.01, 0, 0, 0, 0.01
 131806423, 0, 0, 0, 0.01, 0, 0, 0, 0.01
 132006343, 0, 0, 0, 0.01, 0, 0, 0, 0.01
 132206263, 0, 0, 0, 0.01, 0, 0, 0, 0.01
 132406183, 0, 0, 0, 0.01, 0, 0, 0, 0.01
 132606103, 0, 0, 0, 0.01, 0, 0, 0, 0.01
 132806023, 0, 0, 0, 0.01, 0, 0, 0, 0.01
 133005943, 0, 0, 0, 0.01, 0, 0, 0, 0.01
 133205863, 0, 0, 0, 0.01, 0, 0, 0, 0.01
 133405783, 0, 0, 0, 0.01, 0, 0, 0, 0.01
 133606536, 0, 0, 0, 0.01, 0, 0, 0, 0.01
 133806456, 0, 0, 0, 0.01, 0, 0, 0, 0.01
 134006376, 0, 0, 0, 0.01, 0, 0, 0, 0.01
 134206296, 0, 0, 0, 0.01, 0, 0, 0, 0.01
 134406216, 0, 0, 0, 0.01, 0, 0, 0, 0.01
 134606136, 0, 0, 0, 0.01, 0, 0, 0, 0.01
 134806056, 0, 0, 0, 0.01, 0, 0, 0, 0.01
 135005976, 0, 0, 0, 0.01, 0, 0, 0, 0.01
 135205896, 0, 0, 0, 0.01, 0, 0, 0, 0.01
 135405816, 0, 0, 0, 0.01, 0, 0, 0, 0.01
 135606569, 0, 0, 0, 0.01, 0, 0, 0, 0.01
 135806489, 0, 0, 0, 0.01, 0, 0, 0, 0.01
 136006409, 0, 0, 0, 0.01, 0, 0, 0, 0.01
 136206329, 0, 0, 0, 0.01, 0, 0, 0, 0.01
 136406249, 0, 0, 0, 0.01, 0, 0, 0, 0.01
 136606169, 0, 0, 0, 0.01, 0, 0, 0, 0.01
 136806089, 0, 0, 0, 0.01, 0, 0, 0, 0.01
 137006009, 0, 0, 0, 0.01, 0, 0, 0, 0.01
 137205929, 0, 0, 0, 0.01, 0, 0, 0, 0.01
 137405849, 0, 0, 0, 0.01, 0, 0, 0, 0.01
 137605769, 0, 0, 0, 0.01, 0, 0, 0, 0.01
 137806522, 0, 0, 0, 0.01, 0, 0, 0, 0.01
 138006442, 0, 0, 0, 0.01, 0, 0, 0, 0.01
 138206362, 0, 0, 0, 0.01, 0, 0, 0, 0.01
 138406282, 0, 0, 0, 0.01, 0, 0, 0, 0.01
 138606202, 0, 0, 0, 0.01, 0, 0, 0, 0.01
 138806122, 0, 0, 0, 0.01, 0, 0, 0, 0.01
 139006042, 0, 0, 0, 0.01, 0, 0, 0, 0.01
 139205962, 0, 0, 0, 0.01, 0, 0, 0, 0.01
 139405882, 0, 0, 0, 0.01, 0, 0, 0, 0.01
 139605802, 0, 0, 0, 0.01, 0, 0, 0, 0.01
 139806555, 0, 0, 0, 0.01, 0, 0, 0, 0.01
 140006475, 0, 0, 0, 0.01, 0, 0, 0, 0.01
 140206395, 0, 0, 0, 0.01, 0, 0, 0, 0.01
 140406315, 0, 0, 0, 0.01, 0, 0, 0, 0.01
 140606235, 0, 0, 0, 0.01, 0, 0, 0, 0.01
 140806155, 0, 0, 0, 0.01, 0, 0, 0, 0.01
 141006075, 0, 0, 0, 0.01, 0, 0, 0, 0.01
 141205995, 0, 0, 0, 0.01, 0, 0, 0, 0.01
 141405915, 0, 0, 0, 0.01, 0, 0, 0, 0.01
 141605835, 0, 0, 0, 0.01, 0, 0, 0, 0.01
 141806588, 0, 0, 0, 0.01, 0, 0, 0, 0.01
 142006508, 0, 0, 0, 0.01, 0, 0, 0, 0.01
 142206428, 0, 0, 0, 0.01, 0, 0, 0, 0.01
 142406348, 0, 0, 0, 0.01, 0, 0, 0, 0.01
 142606268, 0, 0, 0, 0.01, 0, 0, 0, 0.01
 142806188, 0, 0, 0, 0.01, 0, 0, 0, 0.01
 143006108, 0, 0, 0, 0.01, 0, 0, 0, 0.01
 143206028, 0, 0, 0, 0.01, 0, 0, 0, 0.01
 143405948, 0, 0, 0, 0.01, 0, 0, 0, 0.01
 143605868, 0, 0, 0, 0.01, 0, 0, 0, 0.01
 143805788, 0, 0, 0, 0.01, 0, 0, 0, 0.01
 144006541, 0, 0, 0, 0.01, 0, 0, 0, 0.01
 144206461, 0, 0, 0, 0.01, 0, 0, 0, 0.01
 144406381, 0, 0, 0, 0.01, 0, 0, 0, 0.01
 144606301, 0, 0, 0, 0.01, 0, 0, 0, 0.01
 144806221, 0, 0, 0, 0.01, 0, 0, 0, 0.01
 145006141, 0, 0, 0, 0.01, 0, 0, 0, 0.01
 145206061, 0, 0, 0, 0.01, 0, 0, 0, 0.01
 145405981, 0, 0, -0.06, 0.01, 0, 0, 0, 0.01
 145605901, 0, 0, -0.6900001, 0.01, 0, 0, -0.06, 0.01
 145805821, -0.001, -0.001, -1.743, 0.01, 0, 0, -0.6900001, 0.01
 146006574, -0.007, -0.006, -3.161, 0.01, -0.001, -0.001, -1.743, 0.01
 146206494, -0.015, -0.013, -3.935, 0.01, -0.007, -0.006, -3.161, 0.01
 146406414, -0.023, -0.02, -4.6, 0.01, -0.015, -0.013, -3.935, 0.01
 146606334, -0.03, -0.027, -5.235, 0.01, -0.023, -0.02, -4.6, 0.01
 146806254, -0.037, -0.033, -5.768, 0.01, -0.03, -0.027, -5.235, 0.01
 147006174, -0.043, -0.039, -6.209, 0.01, -0.037, -0.033, -5.768, 0.01
 147206094, -0.048, -0.044, -6.578001, 0.01, -0.043, -0.039, -6.209, 0.01
 147406014, -0.053, -0.048, -6.884, 0.01, -0.048, -0.044, -6.578001, 0.01
 147605934, -0.057, -0.051, -7.135, 0.01, -0.053, -0.048, -6.884, 0.01
 147805854, -0.06, -0.053, -6.814, 0.01, -0.057, -0.051, -7.135, 0.01
 148005774, -0.061, -0.054, -6.165, 0.01, -0.06, -0.053, -6.814, 0.01
 148206527, -0.062, -0.055, -5.615, 0.01, -0.061, -0.054, -6.165, 0.01
 148406447, -0.061, -0.055, -4.101, 0.01, -0.062, -0.055, -5.615, 0.01
 148606367, -0.055, -0.051, -2.577, 0.01, -0.061, -0.055, -4.101, 0.01
 148806287, -0.022, -0.034, -1.597, 0.01, -0.055, -0.051, -2.577, 0.01
 149006207, 0.052, 0.002, -0.9530001, 0.01, -0.022, -0.034, -1.597, 0.01
 149206127, 0.175, 0.06, -0.551, 0.01, 0.052, 0.002, -0.9530001, 0.01
 149406047, 0.343, 0.137, -0.341, 0.01, 0.175, 0.06, -0.551, 0.01
 149605967, 0.55, 0.231, -0.272, 0.01, 0.343, 0.137, -0.341, 0.01
 149805887, 0.788, 0.336, -0.298, 0.01, 0.55, 0.231, -0.272, 0.01
 150005807, 1.05, 0.45, -0.383, 0.01, 0.788, 0.336, -0.298, 0.01
 150206560, 1.336, 0.573, -0.503, 0.01, 1.05, 0.45, -0.383, 0.01
 150406480, 1.645, 0.706, -0.64, 0.01, 1.336, 0.573, -0.503, 0.01
 150606400, 1.98, 0.8520001, -0.788, 0.01, 1.645, 0.706, -0.64, 0.01
 150806320, 2.337, 1.016, -0.943, 0.01, 1.98, 0.8520001, -0.788, 0.01
 151006240, 2.716, 1.191, -1.106, 0.01, 2.337, 1.016, -0.943, 0.01
 151206160, 3.105, 1.369, -1.271, 0.01, 2.716, 1.191, -1.106, 0.01
 151406080, 3.481, 1.537, -1.433, 0.01, 3.105, 1.369, -1.271, 0.01
 151606000, 3.828, 1.687, -1.583, 0.01, 3.481, 1.537, -1.433, 0.01
 151805920, 4.139, 1.814, -1.717, 0.01, 3.828, 1.687, -1.583, 0.01
 152005840, 4.418, 1.926, -1.835, 0.01, 4.139, 1.814, -1.717, 0.01
 152205760, 4.664, 2.029, -1.937, 0.01, 4.418, 1.926, -1.835, 0.01
 152406513, 4.879, 2.132, -2.026, 0.01, 4.664, 2.029, -1.937, 0.01
 152606433, 5.068, 2.231, -2.099, 0.01, 4.879, 2.132, -2.026, 0.01
 152806353, 5.234, 2.311, -2.16, 0.01, 5.068, 2.231, -2.099, 0.01
 153006273, 5.373, 2.369, -2.208, 0.01, 5.234, 2.311, -2.16, 0.01
 153206193, 5.484, 2.41, -2.243, 0.01, 5.373, 2.369, -2.208, 0.01
 153406113, 5.567, 2.426, -2.267, 0.01, 5.484, 2.41, -2.243, 0.01
 153606033, 5.621, 2.424, -2.278, 0.01, 5.567, 2.426, -2.267, 0.01
 153805953, 5.644, 2.415, -2.276, 0.01, 5.621, 2.424, -2.278, 0.01
 154005873, 5.648, 2.404, -2.265, 0.01, 5.644, 2.415, -2.276, 0.01
 154205793, 5.655, 2.399, -2.25, 0.01, 5.648, 2.404, -2.265, 0.01
 154406546, 5.67, 2.397, -2.228, 0.01, 5.655, 2.399, -2.25, 0.01
 154606466, 5.701, 2.379, -2.263, 0.01, 5.67, 2.397, -2.228, 0.01
 154806386, 5.722, 2.339, -2.224, 0.01, 5.701, 2.379, -2.263, 0.01
 155006306, 5.746, 2.286, -2.144, 0.01, 5.722, 2.339, -2.224, 0.01
 155206226, 5.775, 2.221, -2.044, 0.01, 5.746, 2.286, -2.144, 0.01
 155406146, 5.81, 2.146, -1.935, 0.01, 5.775, 2.221, -2.044, 0.01
 155606066, 5.85, 2.061, -1.818, 0.01, 5.81, 2.146, -1.935, 0.01
 155805986, 5.894, 1.959, -1.696, 0.01, 5.85, 2.061, -1.818, 0.01
 156005906, 5.943, 1.838, -1.565, 0.01, 5.894, 1.959, -1.696, 0.01
 156205826, 5.996, 1.701, -1.426, 0.01, 5.943, 1.838, -1.565, 0.01
 156406579, 6.053, 1.541, -1.274, 0.01, 5.996, 1.701, -1.426, 0.01
 156606499, 6.116, 1.362, -1.11, 0.01, 6.053, 1.541, -1.274, 0.01
 156806419, 6.188, 1.172, -0.9400001, 0.01, 6.116, 1.362, -1.11, 0.01
 157006339, 6.274, 0.98, -0.771, 0.01, 6.188, 1.172, -0.9400001, 0.01
 157206259, 6.388, 0.7960001, -0.612, 0.01, 6.274, 0.98, -0.771, 0.01
 157406179, 6.539001, 0.631, -0.47, 0.01, 6.388, 0.7960001, -0.612, 0.01
 157606099, 6.726, 0.485, -0.346, 0.01, 6.539001, 0.631, -0.47, 0.01
 157806019, 6.947001, 0.359, -0.239, 0.01, 6.726, 0.485, -0.346, 0.01
 158005939, 7.205, 0.253, -0.149, 0.01, 6.947001, 0.359, -0.239, 0.01
 158205859, 7.494, 0.167, -0.075, 0.01, 7.205, 0.253, -0.149, 0.01
 158405779, 7.799, 0.089, -0.019, 0.01, 7.494, 0.167, -0.075, 0.01
 158606532, 8.099, 0.018, 0.022, 0.01, 7.799, 0.089, -0.019, 0.01
 158806452, 8.387, -0.042, 0.05, 0.01, 8.099, 0.018, 0.022, 0.01
 159006372, 8.664001, -0.09, 0.06500001, 0.01, 8.387, -0.042, 0.05, 0.01
 159206292, 8.919001, -0.116, 0.06500001, 0.01, 8.664001, -0.09, 0.06500001, 0.01
 159406212, 9.147, -0.123, 0.054, 0.01, 8.919001, -0.116, 0.06500001, 0.01
 159606132, 9.345, -0.119, 0.039, 0.01, 9.147, -0.123, 0.054, 0.01
 159806052, 9.516001, -0.11, 0.025, 0.01, 9.345, -0.119, 0.039, 0.01
 160005972, 9.662001, -0.1, 0.012, 0.01, 9.516001, -0.11, 0.025, 0.01
 160205892, 9.783, -0.09100001, 0.001, 0.01, 9.662001, -0.1, 0.012, 0.01
 160405812, 9.876, -0.085, -0.007, 0.01, 9.783, -0.09100001, 0.001, 0.01
 160606565, 9.938001, -0.08000001, -0.015, 0.01, 9.876, -0.085, -0.007, 0.01
 160806485, 9.97, -0.075, -0.02, 0.01, 9.938001, -0.08000001, -0.015, 0.01
 161006405, 9.988001, -0.07, -0.022, 0.01, 9.97, -0.075, -0.02, 0.01
 161206325, 10.007, -0.06500001, -0.023, 0.01, 9.988001, -0.07, -0.022, 0.01
 161406245, 10.024, -0.061, -0.024, 0.01, 10.007, -0.06500001, -0.023, 0.01
 161606165, 10.039, -0.057, -0.025, 0.01, 10.024, -0.061, -0.024, 0.01
 161806085, 10.051, -0.054, -0.025, 0.01, 10.039, -0.057, -0.025, 0.01
 162006005, 10.059, -0.05, -0.026, 0.01, 10.051, -0.054, -0.025, 0.01
 162205925, 10.063, -0.044, -0.026, 0.01, 10.059, -0.05, -0.026, 0.01
 162405845, 10.064, -0.04, -0.026, 0.01, 10.063, -0.044, -0.026, 0.01
 162605765, 10.062, -0.036, -0.027, 0.01, 10.064, -0.04, -0.026, 0.01
 162806518, 10.058, -0.033, -0.026, 0.01, 10.062, -0.036, -0.027, 0.01
 163006438, 10.051, -0.029, -0.026, 0.01, 10.058, -0.033, -0.026, 0.01
 163206358, 10.041, -0.025, -0.026, 0.01, 10.051, -0.029, -0.026, 0.01
 163406278, 10.029, -0.022, -0.025, 0.01, 10.041, -0.025, -0.026, 0.01
 163606198, 10.015, -0.019, -0.025, 0.01, 10.029, -0.022, -0.025, 0.01
 163806118, 10.004, -0.016, -0.024, 0.01, 10.015, -0.019, -0.025, 0.01
 164006038, 9.997001, -0.013, -0.022, 0.01, 10.004, -0.016, -0.024, 0.01
 164205958, 9.991, -0.009000001, -0.021, 0.01, 9.997001, -0.013, -0.022, 0.01
 164405878, 9.983001, -0.007, -0.021, 0.01, 9.991, -0.009000001, -0.021, 0.01
 164605798, 9.974001, -0.005, -0.02, 0.01, 9.983001, -0.007, -0.021, 0.01
 164806551, 9.968, -0.004, -0.019, 0.01, 9.974001, -0.005, -0.02, 0.01
 165006471, 9.966001, -0.003, -0.017, 0.01, 9.968, -0.004, -0.019, 0.01
 165206391, 9.968, -0.002, -0.017, 0.01, 9.966001, -0.003, -0.017, 0.01
 165406311, 9.974001, -0.001, -0.017, 0.01, 9.968, -0.002, -0.017, 0.01
 165606231, 9.98, -0.001, -0.016, 0.01, 9.974001, -0.001, -0.017, 0.01
 165806151, 9.988001, 0, -0.016, 0.01, 9.98, -0.001, -0.016, 0.01
 166006071, 9.997001, 0, -0.016, 0.01, 9.988001, 0, -0.016, 0.01
 166205991, 10.007, 0.001, -0.016, 0.01, 9.997001, 0, -0.016, 0.01
 166405911, 10.014, 0, -0.016, 0.01, 10.007, 0.001, -0.016, 0.01
 166605831, 10.017, -0.001, -0.016, 0.01, 10.014, 0, -0.016, 0.01
 166806584, 10.017, -0.004, -0.015, 0.01, 10.017, -0.001, -0.016, 0.01
 167006504, 10.016, -0.006, -0.014, 0.01, 10.017, -0.004, -0.015, 0.01
 167206424, 10.012, -0.007, -0.013, 0.01, 10.016, -0.006, -0.014, 0.01
 167406344, 10.009, -0.008, -0.012, 0.01, 10.012, -0.007, -0.013, 0.01
 167606264, 10.005, -0.008, -0.011, 0.01, 10.009, -0.008, -0.012, 0.01
 167806184, 10.002, -0.007, -0.011, 0.01, 10.005, -0.008, -0.011, 0.01
 168006104, 10, -0.006, -0.01, 0.01, 10.002, -0.007, -0.011, 0.01
 168206024, 9.998, -0.005, -0.009000001, 0.01, 10, -0.006, -0.01, 0.01
 168405944, 9.996, -0.004, -0.008, 0.01, 9.998, -0.005, -0.009000001, 0.01
 168605864, 9.995001, -0.005, -0.007, 0.01, 9.996, -0.004, -0.008, 0.01
 168805784, 9.993, -0.007, -0.006, 0.01, 9.995001, -0.005, -0.007, 0.01
 169006537, 9.993, -0.009000001, -0.006, 0.01, 9.993, -0.007, -0.006, 0.01
 169206457, 9.990001, -0.01, -0.005, 0.01, 9.993, -0.009000001, -0.006, 0.01
 169406377, 9.989, -0.01, -0.004, 0.01, 9.990001, -0.01, -0.005, 0.01
 169606297, 9.989, -0.009000001, -0.004, 0.01, 9.989, -0.01, -0.004, 0.01
 169806217, 9.989, -0.009000001, -0.004, 0.01, 9.989, -0.009000001, -0.004, 0.01
 170006137, 9.989, -0.007, -0.003, 0.01, 9.989, -0.009000001, -0.004, 0.01
 170206057, 9.987, -0.007, -0.003, 0.01, 9.989, -0.007, -0.003, 0.01
 170405977, 9.986, -0.005, -0.003, 0.01, 9.987, -0.007, -0.003, 0.01
 170605897, 9.984, -0.004, -0.003, 0.01, 9.986, -0.005, -0.003, 0.01
 170805817, 9.982, -0.002, -0.002, 0.01, 9.984, -0.004, -0.003, 0.01
 171006570, 9.981001, -0.002, -0.002, 0.01, 9.982, -0.002, -0.002, 0.01
 171206490, 9.981001, -0.001, -0.001, 0.01, 9.981001, -0.002, -0.002, 0.01
 171406410, 9.98, -0.002, 0, 0.01, 9.981001, -0.001, -0.001, 0.01
 171606330, 9.98, -0.002, 0, 0.01, 9.98, -0.002, 0, 0.01
 171806250, 9.979, -0.003, 0, 0.01, 9.98, -0.002, 0, 0.01
 172006170, 9.977, -0.004, 0, 0.01, 9.979, -0.003, 0, 0.01
 172206090, 9.977, -0.004, 0, 0.01, 9.977, -0.004, 0, 0.01
 172406010, 9.98, -0.005, 0, 0.01, 9.977, -0.004, 0, 0.01
 172605930, 9.984, -0.005, 0.001, 0.01, 9.98, -0.005, 0, 0.01
 172805850, 9.990001, -0.005, 0.001, 0.01, 9.984, -0.005, 0.001, 0.01
 173005770, 9.995001, -0.004, 0.001, 0.01, 9.990001, -0.005, 0.001, 0.01
 173206523, 10.001, -0.003, 0.001, 0.01, 9.995001, -0.004, 0.001, 0.01
 173406443, 10.005, -0.002, 0.001, 0.01, 10.001, -0.003, 0.001, 0.01
 173606363, 10.006, -0.001, 0.002, 0.01, 10.005, -0.002, 0.001, 0.01
 173806283, 10.004, -0.001, 0.002, 0.01, 10.006, -0.001, 0.002, 0.01
 174006203, 10.003, -0.001, 0.003, 0.01, 10.004, -0.001, 0.002, 0.01
 174206123, 10.004, -0.002, 0.003, 0.01, 10.003, -0.001, 0.003, 0.01
 174406043, 10.005, -0.002, 0.003, 0.01, 10.004, -0.002, 0.003, 0.01
 174605963, 10.006, -0.003, 0.003, 0.01, 10.005, -0.002, 0.003, 0.01
 174805883, 10.005, -0.004, 0.003, 0.01, 10.006, -0.003, 0.003, 0.01
 175005803, 10.002, -0.005, 0.003, 0.01, 10.005, -0.004, 0.003, 0.01
 175206556, 9.999001, -0.005, 0.003, 0.01, 10.002, -0.005, 0.003, 0.01
 175406476, 9.998, -0.006, 0.002, 0.01, 9.999001, -0.005, 0.003, 0.01
 175606396, 9.995001, -0.005, 0.002, 0.01, 9.998, -0.006, 0.002, 0.01
 175806316, 9.992001, -0.005, 0.002, 0.01, 9.995001, -0.005, 0.002, 0.01
 176006236, 9.989, -0.005, 0.002, 0.01, 9.992001, -0.005, 0.002, 0.01
 176206156, 9.988001, -0.003, 0.003, 0.01, 9.989, -0.005, 0.002, 0.01
 176406076, 9.991, -0.002, 0.003, 0.01, 9.988001, -0.003, 0.003, 0.01
 176605996, 9.994, -0.001, 0.003, 0.01, 9.991, -0.002, 0.003, 0.01
 176805916, 9.997001, 0, 0.003, 0.01, 9.994, -0.001, 0.003, 0.01
 177005836, 9.998, 0, 0.003, 0.01, 9.997001, 0, 0.003, 0.01
 177206589, 9.996, 0.001, 0.003, 0.01, 9.998, 0, 0.003, 0.01
 177406509, 9.996, 0.001, 0.004, 0.01, 9.996, 0.001, 0.003, 0.01
 177606429, 9.998, 0.001, 0.004, 0.01, 9.996, 0.001, 0.004, 0.01
 177806349, 10.005, 0, 0.005, 0.01, 9.998, 0.001, 0.004, 0.01
 178006269, 10.012, 0, 0.005, 0.01, 10.005, 0, 0.005, 0.01
 178206189, 10.019, 0, 0.004, 0.01, 10.012, 0, 0.005, 0.01
 178406109, 10.024, 0, 0.003, 0.01, 10.019, 0, 0.004, 0.01
 178606029, 10.029, -0.001, 0.003, 0.01, 10.024, 0, 0.003, 0.01
 178805949, 10.037, -0.001, 0.003, 0.01, 10.029, -0.001, 0.003, 0.01
 179005869, 10.044, -0.001, 0.003, 0.01, 10.037, -0.001, 0.003, 0.01
 179205789, 10.047, -0.002, 0.003, 0.01, 10.044, -0.001, 0.003, 0.01
 179406542, 10.049, -0.003, 0.003, 0.01, 10.047, -0.002, 0.003, 0.01
 179606462, 10.05, -0.005, 0.004, 0.01, 10.049, -0.003, 0.003, 0.01
 179806382, 10.05, -0.006, 0.003, 0.01, 10.05, -0.005, 0.004, 0.01
 180006302, 10.048, -0.007, 0.003, 0.01, 10.05, -0.006, 0.003, 0.01
 180206222, 10.043, -0.008, 0.003, 0.01, 10.048, -0.007, 0.003, 0.01
 180406142, 10.038, -0.007, 0.003, 0.01, 10.043, -0.008, 0.003, 0.01
 180606062, 10.033, -0.005, 0.002, 0.01, 10.038, -0.007, 0.003, 0.01
 180805982, 10.029, -0.004, 0.002, 0.01, 10.033, -0.005, 0.002, 0.01
 181005902, 10.023, -0.001, 0.001, 0.01, 10.029, -0.004, 0.002, 0.01
 181205822, 10.016, 0, 0.001, 0.01, 10.023, -0.001, 0.001, 0.01
 181406575, 10.01, 0.001, 0.001, 0.01, 10.016, 0, 0.001, 0.01
 181606495, 10.005, 0.003, 0, 0.01, 10.01, 0.001, 0.001, 0.01
 181806415, 9.996, 0.004, 0, 0.01, 10.005, 0.003, 0, 0.01
 182006335, 9.988001, 0.004, 0, 0.01, 9.996, 0.004, 0, 0.01
 182206255, 9.979, 0.004, 0.001, 0.01, 9.988001, 0.004, 0, 0.01
 182406175, 9.972, 0.004, 0.001, 0.01, 9.979, 0.004, 0.001, 0.01
 182606095, 9.968, 0.002, 0.001, 0.01, 9.972, 0.004, 0.001, 0.01
 182806015, 9.967, 0.001, 0.002, 0.01, 9.968, 0.002, 0.001, 0.01
 183005935, 9.969001, 0, 0.003, 0.01, 9.967, 0.001, 0.002, 0.01
 183205855, 9.972, 0, 0.002, 0.01, 9.969001, 0, 0.003, 0.01
 183405775, 9.974001, 0, 0.002, 0.01, 9.972, 0, 0.002, 0.01
 183606528, 9.977, 0, 0.002, 0.01, 9.974001, 0, 0.002, 0.01
 183806448, 9.977, 0, 0.002, 0.01, 9.977, 0, 0.002, 0.01
 184006368, 9.975, 0, 0.002, 0.01, 9.977, 0, 0.002, 0.01
 184206288, 9.972, -0.001, 0.002, 0.01, 9.975, 0, 0.002, 0.01
 184406208, 9.962001, -0.001, 0, 0.01, 9.972, -0.001, 0.002, 0.01
 184606128, 9.922001, 0, -0.002, 0.01, 9.962001, -0.001, 0, 0.01
 184806048, 9.841001, 0.002, -0.005, 0.01, 9.922001, 0, -0.002, 0.01
 185005968, 9.722, 0.004, -0.005, 0.01, 9.841001, 0.002, -0.005, 0.01
 185205888, 9.564, 0.007, -0.006, 0.01, 9.722, 0.004, -0.005, 0.01
 185405808, 9.366, 0.009000001, -0.004, 0.01, 9.564, 0.007, -0.006, 0.01
 185606561, 9.129001, 0.01, -0.001, 0.01, 9.366, 0.009000001, -0.004, 0.01
 185806481, 8.856, 0.011, 0.001, 0.01, 9.129001, 0.01, -0.001, 0.01
 186006401, 8.542001, 0.012, 0.006, 0.01, 8.856, 0.011, 0.001, 0.01
 186206321, 8.189, 0.012, 0.01, 0.01, 8.542001, 0.012, 0.006, 0.01
 186406241, 7.794, 0.012, 0.015, 0.01, 8.189, 0.012, 0.01, 0.01
 186606161, 7.356, 0.013, 0.021, 0.01, 7.794, 0.012, 0.015, 0.01
 186806081, 6.876, 0.013, 0.025, 0.01, 7.356, 0.013, 0.021, 0.01
 187006001, 6.369, 0.014, 0.028, 0.01, 6.876, 0.013, 0.025, 0.01
 187205921, 5.856, 0.014, 0.029, 0.01, 6.369, 0.014, 0.028, 0.01
 187405841, 5.335, 0.014, 0.028, 0.01, 5.856, 0.014, 0.029, 0.01
 187605761, 4.807, 0.013, 0.025, 0.01, 5.335, 0.014, 0.028, 0.01
 187806514, 4.268, 0.01, 0.022, 0.01, 4.807, 0.013, 0.025, 0.01
 188006434, 3.721, 0.008, 0.018, 0.01, 4.268, 0.01, 0.022, 0.01
 188206354, 3.169, 0.006, 0.014, 0.01, 3.721, 0.008, 0.018, 0.01
 188406274, 2.617, 0.003, 0.012, 0.01, 3.169, 0.006, 0.014, 0.01
 188606194, 2.094, 0, 0.012, 0.01, 2.617, 0.003, 0.012, 0.01
 188806114, 1.614, -0.004, 0.014, 0.01, 2.094, 0, 0.012, 0.01
 189006034, 1.178, -0.011, 0.017, 0.01, 1.614, -0.004, 0.014, 0.01
 189205954, 0.7870001, -0.016, 0.02, 0.01, 1.178, -0.011, 0.017, 0.01
 189405874, 0.442, -0.021, 0.023, 0.01, 0.7870001, -0.016, 0.02, 0.01
 189605794, 0.147, -0.025, 0.025, 0.01, 0.442, -0.021, 0.023, 0.01
 189806547, -0.096, -0.028, 0.025, 0.01, 0.147, -0.025, 0.025, 0.01
 190006467, -0.287, -0.03, 0.023, 0.01, -0.096, -0.028, 0.025, 0.01
 190206387, -0.423, -0.032, 0.022, 0.01, -0.287, -0.03, 0.023, 0.01
 190406307, -0.506, -0.033, 0.02, 0.01, -0.423, -0.032, 0.022, 0.01
 190606227, -0.536, -0.034, 0.018, 0.01, -0.506, -0.033, 0.02, 0.01
 190806147, -0.518, -0.036, 0.015, 0.01, -0.536, -0.034, 0.018, 0.01
 191006067, -0.47, -0.037, 0.011, 0.01, -0.518, -0.036, 0.015, 0.01
 191205987, -0.399, -0.038, 0.006, 0.01, -0.47, -0.037, 0.011, 0.01
 191405907, -0.288, -0.038, 0.003, 0.01, -0.399, -0.038, 0.006, 0.01
 191605827, -0.149, -0.04, 0.002, 0.01, -0.288, -0.038, 0.003, 0.01
 191806580, -0.015, -0.04, 0.002, 0.01, -0.149, -0.04, 0.002, 0.01
 192006500, 0.082, -0.038, 0.002, 0.01, -0.015, -0.04, 0.002, 0.01
 192206420, 0.138, -0.035, 0.002, 0.01, 0.082, -0.038, 0.002, 0.01
 192406340, 0.177, -0.032, 0.003, 0.01, 0.138, -0.035, 0.002, 0.01
 192606260, 0.195, -0.026, 0.003, 0.01, 0.177, -0.032, 0.003, 0.01
 192806180, 0.168, -0.02, 0.002, 0.01, 0.195, -0.026, 0.003, 0.01
 193006100, 0.108, -0.013, 0.001, 0.01, 0.168, -0.02, 0.002, 0.01
 193206020, 0.046, -0.005, 0.001, 0.01, 0.108, -0.013, 0.001, 0.01
 193405940, 0.014, 0.001, 0.001, 0.01, 0.046, -0.005, 0.001, 0.01
 193605860, 0.018, 0.006, 0.003, 0.01, 0.014, 0.001, 0.001, 0.01
 193805780, 0.033, 0.009000001, 0.005, 0.01, 0.018, 0.006, 0.003, 0.01
 194006533, 0.042, 0.012, 0.009000001, 0.01, 0.033, 0.009000001, 0.005, 0.01
 194206453, 0.046, 0.013, 0.012, 0.01, 0.042, 0.012, 0.009000001, 0.01
 194406373, 0.047, 0.014, 0.014, 0.01, 0.046, 0.013, 0.012, 0.01
 194606293, 0.046, 0.014, 0.015, 0.01, 0.047, 0.014, 0.014, 0.01
 194806213, 0.044, 0.014, 0.015, 0.01, 0.046, 0.014, 0.015, 0.01
 195006133, 0.042, 0.012, 0.015, 0.01, 0.044, 0.014, 0.015, 0.01
 195206053, 0.037, 0.01, 0.014, 0.01, 0.042, 0.012, 0.015, 0.01
 195405973, 0.032, 0.007, 0.013, 0.01, 0.037, 0.01, 0.014, 0.01
 195605893, 0.025, 0.005, 0.012, 0.01, 0.032, 0.007, 0.013, 0.01
 195805813, 0.018, 0.003, 0.011, 0.01, 0.025, 0.005, 0.012, 0.01
 196006566, 0.01, 0.002, 0.011, 0.01, 0.018, 0.003, 0.011, 0.01
 196206486, 0.004, 0.002, 0.01, 0.01, 0.01, 0.002, 0.011, 0.01
 196406406, 0, 0.003, 0.01, 0.01, 0.004, 0.002, 0.01, 0.01
 196606326, -0.005, 0.003, 0.01, 0.01, 0, 0.003, 0.01, 0.01
 196806246, -0.01, 0.004, 0.01, 0.01, -0.005, 0.003, 0.01, 0.01
 197006166, -0.015, 0.004, 0.009000001, 0.01, -0.01, 0.004, 0.01, 0.01
 197206086, -0.019, 0.004, 0.008, 0.01, -0.015, 0.004, 0.009000001, 0.01
 197406006, -0.022, 0.004, 0.007, 0.01, -0.019, 0.004, 0.008, 0.01
 197605926, -0.025, 0.005, 0.006, 0.01, -0.022, 0.004, 0.007, 0.01
 197805846, -0.027, 0.004, 0.006, 0.01, -0.025, 0.005, 0.006, 0.01
 198005766, -0.029, 0.005, 0.005, 0.01, -0.027, 0.004, 0.006, 0.01
 198206519, -0.031, 0.005, 0.005, 0.01, -0.029, 0.005, 0.005, 0.01
 198406439, -0.032, 0.005, 0.004, 0.01, -0.031, 0.005, 0.005, 0.01
 198606359, -0.031, 0.004, 0.003, 0.01, -0.032, 0.005, 0.004, 0.01
 198806279, -0.031, 0.004, 0.003, 0.01, -0.031, 0.004, 0.003, 0.01
 199006199, -0.031, 0.004, 0.003, 0.01, -0.031, 0.004, 0.003, 0.01
 199206119, -0.031, 0.003, 0.003, 0.01, -0.031, 0.004, 0.003, 0.01
 199406039, -0.032, 0.001, 0.003, 0.01, -0.031, 0.003, 0.003, 0.01
 199605959, -0.033, 0, 0.002, 0.01, -0.032, 0.001, 0.003, 0.01
 199805879, -0.034, 0, 0.002, 0.01, -0.033, 0, 0.002, 0.01
 200005799, -0.034, 0, 0.002, 0.01, -0.034, 0, 0.002, 0.01
 200206552, -0.034, 0.001, 0.002, 0.01, -0.034, 0, 0.002, 0.01
 200406472, -0.033, 0.002, 0.002, 0.01, -0.034, 0.001, 0.002, 0.01
 200606392, -0.032, 0.001, 0.002, 0.01, -0.033, 0.002, 0.002, 0.01
 200806312, -0.031, 0, 0.001, 0.01, -0.032, 0.001, 0.002, 0.01
 201006232, -0.031, 0, 0.001, 0.01, -0.031, 0, 0.001, 0.01
 201206152, -0.03, 0, 0, 0.01, -0.031, 0, 0.001, 0.01
 201406072, -0.028, -0.001, 0, 0.01, -0.03, 0, 0, 0.01
 201605992, -0.026, -0.002, 0, 0.01, -0.028, -0.001, 0, 0.01
 201805912, -0.024, -0.002, 0, 0.01, -0.026, -0.002, 0, 0.01
 202005832, -0.022, -0.003, 0, 0.01, -0.024, -0.002, 0, 0.01
 202206585, -0.02, -0.003, -0.001, 0.01, -0.022, -0.003, 0, 0.01
 202406505, -0.018, -0.002, -0.001, 0.01, -0.02, -0.003, -0.001, 0.01
 202606425, -0.016, 0, -0.002, 0.01, -0.018, -0.002, -0.001, 0.01
 202806345, -0.014, 0, -0.002, 0.01, -0.016, 0, -0.002, 0.01
 203006265, -0.011, 0, -0.002, 0.01, -0.014, 0, -0.002, 0.01
 203206185, -0.01, 0, -0.002, 0.01, -0.011, 0, -0.002, 0.01
 203406105, -0.01, 0, -0.002, 0.01, -0.01, 0, -0.002, 0.01
 203606025, -0.01, 0.001, -0.002, 0.01, -0.01, 0, -0.002, 0.01
 203805945, -0.01, 0.002, -0.002, 0.01, -0.01, 0.001, -0.002, 0.01
 204005865, -0.009000001, 0.002, -0.001, 0.01, -0.01, 0.002, -0.002, 0.01
 204205785, -0.008, 0.002, -0.001, 0.01, -0.009000001, 0.002, -0.001, 0.01
 204406538, -0.007, 0.001, 0, 0.01, -0.008, 0.002, -0.001, 0.01
 204606458, -0.006, 0, 0, 0.01, -0.007, 0.001, 0, 0.01
 204806378, -0.006, -0.001, 0, 0.01, -0.006, 0, 0, 0.01
 205006298, -0.006, -0.001, 0, 0.01, -0.006, -0.001, 0, 0.01
 205206218, -0.007, -0.002, 0, 0.01, -0.006, -0.001, 0, 0.01
 205406138, -0.006, -0.003, -0.001, 0.01, -0.007, -0.002, 0, 0.01
 205606058, -0.005, -0.004, -0.001, 0.01, -0.006, -0.003, -0.001, 0.01
 205805978, -0.005, -0.004, -0.001, 0.01, -0.005, -0.004, -0.001, 0.01
 206005898, -0.005, -0.004, -0.001, 0.01, -0.005, -0.004, -0.001, 0.01
 206205818, -0.005, -0.004, -0.001, 0.01, -0.005, -0.004, -0.001, 0.01
 206406571, -0.005, -0.005, -0.001, 0.01, -0.005, -0.004, -0.001, 0.01
 206606491, -0.006, -0.006, -0.001, 0.01, -0.005, -0.005, -0.001, 0.01
 206806411, -0.006, -0.007, -0.001, 0.01, -0.006, -0.006, -0.001, 0.01
 207006331, -0.007, -0.007, -0.001, 0.01, -0.006, -0.007, -0.001, 0.01
 207206251, -0.007, -0.007, -0.001, 0.01, -0.007, -0.007, -0.001, 0.01
 207406171, -0.006, -0.006, -0.002, 0.01, -0.007, -0.007, -0.001, 0.01
 207606091, -0.005, -0.005, -0.002, 0.01, -0.006, -0.006, -0.002, 0.01
 207806011, -0.003, -0.004, -0.002, 0.01, -0.005, -0.005, -0.002, 0.01
 208005931, -0.002, -0.002, -0.002, 0.01, -0.003, -0.004, -0.002, 0.01
 208205851, -0.001, -0.001, -0.002, 0.01, -0.002, -0.002, -0.002, 0.01
 208405771, 0, 0, -0.003, 0.01, -0.001, -0.001, -0.002, 0.01
 208606524, 0.001, 0, -0.003, 0.01, 0, 0, -0.003, 0.01
 208806444, 0.001, 0, -0.003, 0.01, 0.001, 0, -0.003, 0.01
 209006364, 0.003, 0, -0.003, 0.01, 0.001, 0, -0.003, 0.01
 209206284, 0.004, -0.001, -0.003, 0.01, 0.003, 0, -0.003, 0.01
 209406204, 0.006, -0.001, -0.002, 0.01, 0.004, -0.001, -0.003, 0.01
 209606124, 0.006, -0.001, -0.002, 0.01, 0.006, -0.001, -0.002, 0.01
 209806044, 0.006, 0, -0.001, 0.01, 0.006, -0.001, -0.002, 0.01
 210005964, 0.005, 0, -0.002, 0.01, 0.006, 0, -0.001, 0.01
 210205884, 0.005, 0.001, -0.001, 0.01, 0.005, 0, -0.002, 0.01
 210405804, 0.004, 0.003, -0.001, 0.01, 0.005, 0.001, -0.001, 0.01
 210606557, 0.004, 0.003, -0.001, 0.01, 0.004, 0.003, -0.001, 0.01
 210806477, 0.003, 0.003, -0.001, 0.01, 0.004, 0.003, -0.001, 0.01
 211006397, 0.003, 0.003, -0.001, 0.01, 0.003, 0.003, -0.001, 0.01
 211206317, 0.002, 0.003, -0.001, 0.01, 0.003, 0.003, -0.001, 0.01
 211406237, 0.003, 0.003, -0.001, 0.01, 0.002, 0.003, -0.001, 0.01
 211606157, 0.004, 0.004, -0.002, 0.01, 0.003, 0.003, -0.001, 0.01
 211806077, 0.004, 0.006, -0.002, 0.01, 0.004, 0.004, -0.002, 0.01
 212005997, 0.005, 0.007, -0.002, 0.01, 0.004, 0.006, -0.002, 0.01
 212205917, 0.006, 0.007, -0.002, 0.01, 0.005, 0.007, -0.002, 0.01
 212405837, 0.007, 0.007, -0.002, 0.01, 0.006, 0.007, -0.002, 0.01
 212606590, 0.008, 0.006, -0.002, 0.01, 0.007, 0.007, -0.002, 0.01
 212806510, 0.009000001, 0.006, -0.002, 0.01, 0.008, 0.006, -0.002, 0.01
 213006430, 0.008, 0.006, -0.003, 0.01, 0.009000001, 0.006, -0.002, 0.01
 213206350, 0.007, 0.006, -0.003, 0.01, 0.008, 0.006, -0.003, 0.01
 213406270, 0.007, 0.006, -0.002, 0.01, 0.007, 0.006, -0.003, 0.01
 213606190, 0.006, 0.005, -0.002, 0.01, 0.007, 0.006, -0.002, 0.01
 213806110, 0.005, 0.004, -0.001, 0.01, 0.006, 0.005, -0.002, 0.01
 214006030, 0.005, 0.003, -0.001, 0.01, 0.005, 0.004, -0.001, 0.01
 214205950, 0.006, 0, 0, 0.01, 0.005, 0.003, -0.001, 0.01
 214405870, 0.007, 0, 0, 0.01, 0.006, 0, 0, 0.01
 214605790, 0.007, -0.001, 0, 0.01, 0.007, 0, 0, 0.01
 214806543, 0.006, -0.003, 0, 0.01, 0.007, -0.001, 0, 0.01
 215006463, 0.006, -0.005, 0, 0.01, 0.006, -0.003, 0, 0.01
 215206383, 0.005, -0.007, 0, 0.01, 0.006, -0.005, 0, 0.01
 215406303, 0.003, -0.008, 0, 0.01, 0.005, -0.007, 0, 0.01
 215606223, 0.003, -0.008, 0.001, 0.01, 0.003, -0.008, 0, 0.01
 215806143, 0.002, -0.008, 0.001, 0.01, 0.003, -0.008, 0.001, 0.01
 216006063, 0.001, -0.008, 0.001, 0.01, 0.002, -0.008, 0.001, 0.01
 216205983, 0, -0.008, 0, 0.01, 0.001, -0.008, 0.001, 0.01
 216405903, 0, -0.007, 0.001, 0.01, 0, -0.008, 0, 0.01
 216605823, -0.001, -0.007, 0, 0.01, 0, -0.007, 0.001, 0.01
 216806576, -0.001, -0.005, 0.001, 0.01, -0.001, -0.007, 0, 0.01
 217006496, -0.001, -0.003, 0, 0.01, -0.001, -0.005, 0.001, 0.01
 217206416, 0, -0.002, 0, 0.01, -0.001, -0.003, 0, 0.01
 217406336, 0, 0, 0, 0.01, 0, -0.002, 0, 0.01
 217606256, 0, 0, 0.001, 0.01, 0, 0, 0, 0.01
 217806176, 0, 0.001, 0, 0.01, 0, 0, 0.001, 0.01
 218006096, 0, 0.001, 0.001, 0.01, 0, 0.001, 0, 0.01
 218206016, 0, 0.001, 0, 0.01, 0, 0.001, 0.001, 0.01
 218405936, 0, 0, 0, 0.01, 0, 0.001, 0, 0.01
 218605856, 0, 0, 0, 0.01, 0, 0, 0, 0.01
 218805776, 0, 0, -0.001, 0.01, 0, 0, 0, 0.01
 219006529, 0, 0, -0.002, 0.01, 0, 0, -0.001, 0.01
 219206449, -0.001, 0, -0.002, 0.01, 0, 0, -0.002, 0.01
 219406369, -0.001, 0, -0.003, 0.01, -0.001, 0, -0.002, 0.01
 219606289, -0.002, 0, -0.003, 0.01, -0.001, 0, -0.003, 0.01
 219806209, -0.004, 0, -0.002, 0.01, -0.002, 0, -0.003, 0.01
 220006129, -0.006, 0, -0.002, 0.01, -0.004, 0, -0.002, 0.01
 220206049, -0.007, 0, -0.001, 0.01, -0.006, 0, -0.002, 0.01
 220405969, -0.008, 0, -0.001, 0.01, -0.007, 0, -0.001, 0.01
 220605889, -0.007, 0, 0, 0.01, -0.008, 0, -0.001, 0.01
 220805809, -0.007, 0, 0, 0.01, -0.007, 0, 0, 0.01
 221006562, -0.006, 0, 0, 0.01, -0.007, 0, 0, 0.01
 221206482, -0.006, -0.001, 0, 0.01, -0.006, 0, 0, 0.01
 221406402, -0.005, -0.002, 0, 0.01, -0.006, -0.001, 0, 0.01
 221606322, -0.005, -0.003, 0, 0.01, -0.005, -0.002, 0, 0.01
 221806242, -0.004, -0.003, 0, 0.01, -0.005, -0.003, 0, 0.01
 222006162, -0.004, -0.003, 0, 0.01, -0.004, -0.003, 0, 0.01
 222206082, -0.004, -0.002, 0, 0.01, -0.004, -0.003, 0, 0.01
 222406002, -0.003, 0, 0, 0.01, -0.004, -0.002, 0, 0.01
 222605922, -0.003, 0.001, 0, 0.01, -0.003, 0, 0, 0.01
 222805842, -0.003, 0.001, 0, 0.01, -0.003, 0.001, 0, 0.01
 223005762, -0.004, 0.002, -0.001, 0.01, -0.003, 0.001, 0, 0.01
 223206515, -0.004, 0.003, 0, 0.01, -0.004, 0.002, -0.001, 0.01
 223406435, -0.005, 0.004, -0.001, 0.01, -0.004, 0.003, 0, 0.01
 223606355, -0.005, 0.005, -0.001, 0.01, -0.005, 0.004, -0.001, 0.01
 223806275, -0.004, 0.005, -0.001, 0.01, -0.005, 0.005, -0.001, 0.01
 224006195, -0.003, 0.006, -0.001, 0.01, -0.004, 0.005, -0.001, 0.01
 224206115, -0.002, 0.006, -0.001, 0.01, -0.003, 0.006, -0.001, 0.01
 224406035, 0, 0.006, -0.001, 0.01, -0.002, 0.006, -0.001, 0.01
 224605955, 0, 0.007, -0.001, 0.01, 0, 0.006, -0.001, 0.01
 224805875, 0.003, 0.008, -0.001, 0.01, 0, 0.007, -0.001, 0.01
 225005795, 0.003, 0.008, -0.001, 0.01, 0.003, 0.008, -0.001, 0.01
 225206548, 0.003, 0.007, -0.001, 0.01, 0.003, 0.008, -0.001, 0.01
 225406468, 0.003, 0.007, -0.001, 0.01, 0.003, 0.007, -0.001, 0.01
 225606388, 0.003, 0.006, -0.001, 0.01, 0.003, 0.007, -0.001, 0.01
 225806308, 0.001, 0.006, -0.002, 0.01, 0.003, 0.006, -0.001, 0.01
 226006228, 0, 0.005, -0.002, 0.01, 0.001, 0.006, -0.002, 0.01
 226206148, -0.001, 0.004, -0.002, 0.01, 0, 0.005, -0.002, 0.01
 226406068, -0.002, 0.004, -0.001, 0.01, -0.001, 0.004, -0.002, 0.01
 226605988, -0.001, 0.005, -0.001, 0.01, -0.002, 0.004, -0.001, 0.01
 226805908, 0, 0.005, -0.001, 0.01, -0.001, 0.005, -0.001, 0.01
 227005828, 0, 0.004, -0.001, 0.01, 0, 0.005, -0.001, 0.01
 227206581, 0, 0.002, 0, 0.01, 0, 0.004, -0.001, 0.01
 227406501, 0.002, 0.001, 0, 0.01, 0, 0.002, 0, 0.01
 227606421, 0.003, 0.001, 0, 0.01, 0.002, 0.001, 0, 0.01
 227806341, 0.004, 0.001, 0, 0.01, 0.003, 0.001, 0, 0.01
 228006261, 0.005, 0.001, 0, 0.01, 0.004, 0.001, 0, 0.01
 228206181, 0.005, 0.001, 0, 0.01, 0.005, 0.001, 0, 0.01
 228406101, 0.005, 0.001, 0, 0.01, 0.005, 0.001, 0, 0.01
 228606021, 0.004, 0, 0, 0.01, 0.005, 0.001, 0, 0.01
 228805941, 0.004, 0, 0, 0.01, 0.004, 0, 0, 0.01
 229005861, 0.003, -0.001, 0, 0.01, 0.004, 0, 0, 0.01
 229205781, 0.003, 0, -0.001, 0.01, 0.003, -0.001, 0, 0.01
 229406534, 0.002, -0.001, -0.001, 0.01, 0.003, 0, -0.001, 0.01
 229606454, 0.002, -0.002, -0.001, 0.01, 0.002, -0.001, -0.001, 0.01
 229806374, 0.002, -0.002, -0.001, 0.01, 0.002, -0.002, -0.001, 0.01
 230006294, 0.002, -0.001, -0.001, 0.01, 0.002, -0.002, -0.001, 0.01
 230206214, 0.001, -0.001, -0.001, 0.01, 0.002, -0.001, -0.001, 0.01
 230406134, 0.001, 0, -0.001, 0.01, 0.001, -0.001, -0.001, 0.01
 230606054, 0.001, 0, -0.001, 0.01, 0.001, 0, -0.001, 0.01
 230805974, 0.001, -0.001, -0.001, 0.01, 0.001, 0, -0.001, 0.01
 231005894, 0.002, -0.002, -0.001, 0.01, 0.001, -0.001, -0.001, 0.01
 231205814, 0.001, -0.003, -0.001, 0.01, 0.002, -0.002, -0.001, 0.01
 231406567, 0.001, -0.004, 0.03, 0.01, 0.001, -0.003, -0.001, 0.01
 231606487, 0.002, -0.005, 0.19, 0.01, 0.001, -0.004, 0.03, 0.01
 231806407, 0.003, -0.005, 0.398, 0.01, 0.002, -0.005, 0.19, 0.01
 232006327, 0.004, -0.004, 0.623, 0.01, 0.003, -0.005, 0.398, 0.01
 232206247, 0.004, -0.003, 0.851, 0.01, 0.004, -0.004, 0.623, 0.01
 232406167, 0.004, -0.002, 1.076, 0.01, 0.004, -0.003, 0.851, 0.01
 232606087, 0.004, -0.002, 1.295, 0.01, 0.004, -0.002, 1.076, 0.01
 232806007, 0.003, -0.001, 1.478, 0.01, 0.004, -0.002, 1.295, 0.01
 233005927, 0.002, 0, 1.565, 0.01, 0.003, -0.001, 1.478, 0.01
 233205847, 0, 0, 1.587, 0.01, 0.002, 0, 1.565, 0.01
 233405767, 0, -0.001, 1.573, 0.01, 0, 0, 1.587, 0.01
 233606520, -0.001, -0.002, 1.544, 0.01, 0, -0.001, 1.573, 0.01
 233806440, -0.003, -0.002, 1.512, 0.01, -0.001, -0.002, 1.544, 0.01
 234006360, -0.004, -0.001, 1.483, 0.01, -0.003, -0.002, 1.512, 0.01
 234206280, -0.004, 0, 1.46, 0.01, -0.004, -0.001, 1.483, 0.01
 234406200, -0.003, 0, 1.445, 0.01, -0.004, 0, 1.46, 0.01
 234606120, -0.004, 0, 1.435, 0.01, -0.003, 0, 1.445, 0.01
 234806040, -0.004, -0.001, 1.429, 0.01, -0.004, 0, 1.435, 0.01
 235005960, -0.004, -0.002, 1.427, 0.01, -0.004, -0.001, 1.429, 0.01
 235205880, -0.003, -0.003, 1.427, 0.01, -0.004, -0.002, 1.427, 0.01
 235405800, -0.002, -0.004, 1.427, 0.01, -0.003, -0.003, 1.427, 0.01
 235606553, -0.001, -0.005, 1.427, 0.01, -0.002, -0.004, 1.427, 0.01
 235806473, 0, -0.006, 1.427, 0.01, -0.001, -0.005, 1.427, 0.01
 236006393, 0, -0.006, 1.427, 0.01, 0, -0.006, 1.427, 0.01
 236206313, 0, -0.005, 1.426, 0.01, 0, -0.006, 1.427, 0.01
 236406233, -0.001, -0.004, 1.426, 0.01, 0, -0.005, 1.426, 0.01
 236606153, -0.003, -0.003, 1.426, 0.01, -0.001, -0.004, 1.426, 0.01
 236806073, -0.004, -0.002, 1.425, 0.01, -0.003, -0.003, 1.426, 0.01
 237005993, -0.004, 0, 1.425, 0.01, -0.004, -0.002, 1.425, 0.01
 237205913, -0.003, 0, 1.425, 0.01, -0.004, 0, 1.425, 0.01
 237405833, -0.002, 0.002, 1.424, 0.01, -0.003, 0, 1.425, 0.01
 237606586, -0.002, 0.004, 1.423, 0.01, -0.002, 0.002, 1.424, 0.01
 237806506, -0.002, 0.005, 1.422, 0.01, -0.002, 0.004, 1.423, 0.01
 238006426, -0.003, 0.005, 1.421, 0.01, -0.002, 0.005, 1.422, 0.01
 238206346, -0.004, 0.004, 1.421, 0.01, -0.003, 0.005, 1.421, 0.01
 238406266, -0.005, 0.004, 1.421, 0.01, -0.004, 0.004, 1.421, 0.01
 238606186, -0.005, 0.003, 1.42, 0.01, -0.005, 0.004, 1.421, 0.01
 238806106, -0.005, 0.003, 1.42, 0.01, -0.005, 0.003, 1.42, 0.01
 239006026, -0.004, 0.003, 1.42, 0.01, -0.005, 0.003, 1.42, 0.01
 239205946, -0.002, 0.002, 1.42, 0.01, -0.004, 0.003, 1.42, 0.01
 239405866, 0, 0.003, 1.42, 0.01, -0.002, 0.002, 1.42, 0.01
 239605786, 0, 0.002, 1.419, 0.01, 0, 0.003, 1.42, 0.01
 239806539, 0.001, 0.002, 1.419, 0.01, 0, 0.002, 1.419, 0.01
 240006459, 0.002, 0.002, 1.417, 0.01, 0.001, 0.002, 1.419, 0.01
 240206379, 0.004, 0.001, 1.416, 0.01, 0.002, 0.002, 1.417, 0.01
 240406299, 0.005, 0, 1.414, 0.01, 0.004, 0.001, 1.416, 0.01
 240606219, 0.005, 0, 1.414, 0.01, 0.005, 0, 1.414, 0.01
 240806139, 0.005, 0, 1.413, 0.01, 0.005, 0, 1.414, 0.01
 241006059, 0.004, 0, 1.413, 0.01, 0.005, 0, 1.413, 0.01
 241205979, 0.003, 0.001, 1.413, 0.01, 0.004, 0, 1.413, 0.01
 241405899, 0.002, 0.002, 1.413, 0.01, 0.003, 0.001, 1.413, 0.01
 241605819, 0.001, 0.003, 1.414, 0.01, 0.002, 0.002, 1.413, 0.01
 241806572, 0, 0.003, 1.414, 0.01, 0.001, 0.003, 1.414, 0.01
 242006492, 0, 0.003, 1.414, 0.01, 0, 0.003, 1.414, 0.01
 242206412, 0, 0.002, 1.414, 0.01, 0, 0.003, 1.414, 0.01
 242406332, 0, 0, 1.415, 0.01, 0, 0.002, 1.414, 0.01
 242606252, 0.001, 0, 1.414, 0.01, 0, 0, 1.415, 0.01
 242806172, 0.002, 0.001, 1.415, 0.01, 0.001, 0, 1.414, 0.01
 243006092, 0.003, 0.002, 1.415, 0.01, 0.002, 0.001, 1.415, 0.01
 243206012, 0.004, 0.002, 1.416, 0.01, 0.003, 0.002, 1.415, 0.01
 243405932, 0.004, 0.001, 1.417, 0.01, 0.004, 0.002, 1.416, 0.01
 243605852, 0.005, 0, 1.417, 0.01, 0.004, 0.001, 1.417, 0.01
 243805772, 0.006, -0.002, 1.417, 0.01, 0.005, 0, 1.417, 0.01
 244006525, 0.006, -0.003, 1.418, 0.01, 0.006, -0.002, 1.417, 0.01
 244206445, 0.005, -0.003, 1.419, 0.01, 0.006, -0.003, 1.418, 0.01
 244406365, 0.004, -0.003, 1.421, 0.01, 0.005, -0.003, 1.419, 0.01
 244606285, 0.003, -0.003, 1.422, 0.01, 0.004, -0.003, 1.421, 0.01
 244806205, 0.002, -0.002, 1.424, 0.01, 0.003, -0.003, 1.422, 0.01
 245006125, 0.001, -0.002, 1.426, 0.01, 0.002, -0.002, 1.424, 0.01
 245206045, 0.001, -0.001, 1.427, 0.01, 0.001, -0.002, 1.426, 0.01
 245405965, 0, -0.001, 1.428, 0.01, 0.001, -0.001, 1.427, 0.01
 245605885, 0, -0.001, 1.429, 0.01, 0, -0.001, 1.428, 0.01
 245805805, 0.001, -0.002, 1.43, 0.01, 0, -0.001, 1.429, 0.01
 246006558, 0.001, -0.001, 1.43, 0.01, 0.001, -0.002, 1.43, 0.01
 246206478, 0.001, -0.001, 1.408, 0.01, 0.001, -0.001, 1.43, 0.01
 246406398, 0, -0.002, 1.292, 0.01, 0.001, -0.001, 1.408, 0.01
 246606318, 0, -0.003, 1.101, 0.01, 0, -0.002, 1.292, 0.01
 246806238, 0.001, -0.004, 0.8840001, 0.01, 0, -0.003, 1.101, 0.01
 247006158, 0.001, -0.005, 0.659, 0.01, 0.001, -0.004, 0.8840001, 0.01
 247206078, 0.002, -0.006, 0.476, 0.01, 0.001, -0.005, 0.659, 0.01
 247405998, 0.002, -0.007, 0.387, 0.01, 0.002, -0.006, 0.476, 0.01
 247605918, 0.002, -0.006, 0.361, 0.01, 0.002, -0.007, 0.387, 0.01
 247805838, 0.001, -0.006, 0.368, 0.01, 0.002, -0.006, 0.361, 0.01
 248006591, 0, -0.004, 0.391, 0.01, 0.001, -0.006, 0.368, 0.01
 248206511, 0, -0.003, 0.418, 0.01, 0, -0.004, 0.391, 0.01
 248406431, -0.001, -0.002, 0.442, 0.01, 0, -0.003, 0.418, 0.01
 248606351, -0.001, -0.001, 0.462, 0.01, -0.001, -0.002, 0.442, 0.01
 248806271, -0.001, 0, 0.475, 0.01, -0.001, -0.001, 0.462, 0.01
 249006191, -0.002, 0.001, 0.483, 0.01, -0.001, 0, 0.475, 0.01
 249206111, -0.003, 0.002, 0.488, 0.01, -0.002, 0.001, 0.483, 0.01
 249406031, -0.005, 0.002, 0.489, 0.01, -0.003, 0.002, 0.488, 0.01
 249605951, -0.006, 0.002, 0.489, 0.01, -0.005, 0.002, 0.489, 0.01
 249805871, -0.007, 0.001, 0.489, 0.01, -0.006, 0.002, 0.489, 0.01
 250005791, -0.007, 0.001, 0.488, 0.01, -0.007, 0.001, 0.489, 0.01
 250206544, -0.007, 0.002, 0.487, 0.01, -0.007, 0.001, 0.488, 0.01
 250406464, -0.007, 0.003, 0.486, 0.01, -0.007, 0.002, 0.487, 0.01
 250606384, -0.008, 0.004, 0.485, 0.01, -0.007, 0.003, 0.486, 0.01
 250806304, -0.008, 0.004, 0.483, 0.01, -0.008, 0.004, 0.485, 0.01
 251006224, -0.008, 0.005, 0.483, 0.01, -0.008, 0.004, 0.483, 0.01
 251206144, -0.008, 0.006, 0.482, 0.01, -0.008, 0.005, 0.483, 0.01
 251406064, -0.006, 0.007, 0.481, 0.01, -0.008, 0.006, 0.482, 0.01
 251605984, -0.005, 0.008, 0.481, 0.01, -0.006, 0.007, 0.481, 0.01
 251805904, -0.005, 0.008, 0.481, 0.01, -0.005, 0.008, 0.481, 0.01
 252005824, -0.006, 0.008, 0.482, 0.01, -0.005, 0.008, 0.481, 0.01
 252206577, -0.007, 0.007, 0.482, 0.01, -0.006, 0.008, 0.482, 0.01
 252406497, -0.006, 0.007, 0.482, 0.01, -0.007, 0.007, 0.482, 0.01
 252606417, -0.006, 0.006, 0.482, 0.01, -0.006, 0.007, 0.482, 0.01
 252806337, -0.005, 0.007, 0.482, 0.01, -0.006, 0.006, 0.482, 0.01
 253006257, -0.004, 0.006, 0.482, 0.01, -0.005, 0.007, 0.482, 0.01
 253206177, -0.004, 0.005, 0.482, 0.01, -0.004, 0.006, 0.482, 0.01
 253406097, -0.004, 0.004, 0.481, 0.01, -0.004, 0.005, 0.482, 0.01
 253606017, -0.003, 0.003, 0.482, 0.01, -0.004, 0.004, 0.481, 0.01
 253805937, -0.001, 0.003, 0.482, 0.01, -0.003, 0.003, 0.482, 0.01
 254005857, 0, 0.002, 0.482, 0.01, -0.001, 0.003, 0.482, 0.01
 254205777, 0.001, 0.002, 0.482, 0.01, 0, 0.002, 0.482, 0.01
 254406530, 0.003, 0.001, 0.481, 0.01, 0.001, 0.002, 0.482, 0.01
 254606450, 0.005, 0, 0.48, 0.01, 0.003, 0.001, 0.481, 0.01
 254806370, 0.007, 0, 0.48, 0.01, 0.005, 0, 0.48, 0.01
 255006290, 0.008, -0.002, 0.48, 0.01, 0.007, 0, 0.48, 0.01
 255206210, 0.008, -0.005, 0.48, 0.01, 0.008, -0.002, 0.48, 0.01
 255406130, 0.009000001, -0.007, 0.48, 0.01, 0.008, -0.005, 0.48, 0.01
 255606050, 0.009000001, -0.007, 0.48, 0.01, 0.009000001, -0.007, 0.48, 0.01
 255805970, 0.008, -0.008, 0.48, 0.01, 0.009000001, -0.007, 0.48, 0.01
 256005890, 0.007, -0.008, 0.481, 0.01, 0.008, -0.008, 0.48, 0.01
 256205810, 0.006, -0.007, 0.48, 0.01, 0.007, -0.008, 0.481, 0.01
 256406563, 0.005, -0.007, 0.48, 0.01, 0.006, -0.007, 0.48, 0.01
 256606483, 0.004, -0.006, 0.48, 0.01, 0.005, -0.007, 0.48, 0.01
 256806403, 0.004, -0.005, 0.48, 0.01, 0.004, -0.006, 0.48, 0.01
 257006323, 0.004, -0.005, 0.479, 0.01, 0.004, -0.005, 0.48, 0.01
 257206243, 0.003, -0.004, 0.479, 0.01, 0.004, -0.005, 0.479, 0.01
 257406163, 0.001, -0.004, 0.479, 0.01, 0.003, -0.004, 0.479, 0.01
 257606083, 0, -0.003, 0.479, 0.01, 0.001, -0.004, 0.479, 0.01
 257806003, 0, -0.002, 0.479, 0.01, 0, -0.003, 0.479, 0.01
 258005923, -0.001, -0.001, 0.479, 0.01, 0, -0.002, 0.479, 0.01
 258205843, -0.001, 0, 0.479, 0.01, -0.001, -0.001, 0.479, 0.01
 258405763, -0.001, 0, 0.479, 0.01, -0.001, 0, 0.479, 0.01
 258606516, 0, 0, 0.48, 0.01, -0.001, 0, 0.479, 0.01
 258806436, 0, -0.002, 0.48, 0.01, 0, 0, 0.48, 0.01
 259006356, 0, -0.004, 0.48, 0.01, 0, -0.002, 0.48, 0.01
 259206276, 0, -0.006, 0.48, 0.01, 0, -0.004, 0.48, 0.01
 259406196, 0, -0.006, 0.48, 0.01, 0, -0.006, 0.48, 0.01
 259606116, 0, -0.006, 0.48, 0.01, 0, -0.006, 0.48, 0.01
 259806036, 0, -0.006, 0.48, 0.01, 0, -0.006, 0.48, 0.01
 260005956, 0, -0.005, 0.481, 0.01, 0, -0.006, 0.48, 0.01
 260205876, 0.001, -0.003, 0.481, 0.01, 0, -0.005, 0.481, 0.01
 260405796, 0.002, -0.002, 0.48, 0.01, 0.001, -0.003, 0.481, 0.01
 260606549, 0.003, -0.001, 0.481, 0.01, 0.002, -0.002, 0.48, 0.01
 260806469, 0.004, -0.001, 0.48, 0.01, 0.003, -0.001, 0.481, 0.01
 261006389, 0.005, -0.001, 0.48, 0.01, 0.004, -0.001, 0.48, 0.01
 261206309, 0.005, 0, 0.48, 0.01, 0.005, -0.001, 0.48, 0.01
 261406229, 0.004, 0, 0.479, 0.01, 0.005, 0, 0.48, 0.01
 261606149, 0.003, 0.001, 0.48, 0.01, 0.004, 0, 0.479, 0.01
 261806069, 0.003, 0.001, 0.479, 0.01, 0.003, 0.001, 0.48, 0.01
 262005989, 0.002, 0.002, 0.48, 0.01, 0.003, 0.001, 0.479, 0.01
 262205909, 0.001, 0.004, 0.48, 0.01, 0.002, 0.002, 0.48, 0.01
 262405829, 0, 0.005, 0.479, 0.01, 0.001, 0.004, 0.48, 0.01
 262606582, 0, 0.004, 0.48, 0.01, 0, 0.005, 0.479, 0.01
 262806502, 0, 0.004, 0.481, 0.01, 0, 0.004, 0.48, 0.01
 263006422, 0, 0.004, 0.48, 0.01, 0, 0.004, 0.481, 0.01
 263206342, 0, 0.005, 0.479, 0.01, 0, 0.004, 0.48, 0.01
 263406262, 0, 0.005, 0.478, 0.01, 0, 0.005, 0.479, 0.01
 263606182, 0, 0.005, 0.478, 0.01, 0, 0.005, 0.478, 0.01
 263806102, -0.001, 0.005, 0.478, 0.01, 0, 0.005, 0.478, 0.01
 264006022, -0.003, 0.005, 0.478, 0.01, -0.001, 0.005, 0.478, 0.01
 264205942, -0.004, 0.005, 0.478, 0.01, -0.003, 0.005, 0.478, 0.01
 264405862, -0.005, 0.004, 0.478, 0.01, -0.004, 0.005, 0.478, 0.01
 264605782, -0.006, 0.004, 0.478, 0.01, -0.005, 0.004, 0.478, 0.01
 264806535, -0.007, 0.005, 0.478, 0.01, -0.006, 0.004, 0.478, 0.01
 265006455, -0.008, 0.005, 0.478, 0.01, -0.007, 0.005, 0.478, 0.01
 265206375, -0.008, 0.006, 0.478, 0.01, -0.008, 0.005, 0.478, 0.01
 265406295, -0.007, 0.006, 0.478, 0.01, -0.008, 0.006, 0.478, 0.01
 265606215, -0.005, 0.006, 0.478, 0.01, -0.007, 0.006, 0.478, 0.01
 265806135, -0.003, 0.006, 0.478, 0.01, -0.005, 0.006, 0.478, 0.01
 266006055, -0.001, 0.004, 0.478, 0.01, -0.003, 0.006, 0.478, 0.01
 266205975, 0, 0.001, 0.478, 0.01, -0.001, 0.004, 0.478, 0.01
 266405895, 0, 0, 0.478, 0.01, 0, 0.001, 0.478, 0.01
 266605815, 0.002, -0.002, 0.478, 0.01, 0, 0, 0.478, 0.01
 266806568, 0.003, -0.003, 0.478, 0.01, 0.002, -0.002, 0.478, 0.01
 267006488, 0.003, -0.004, 0.477, 0.01, 0.003, -0.003, 0.478, 0.01
 267206408, 0, -0.001, 0.12, 0.01, 0.003, -0.004, 0.477, 0.01
 267406328, -0.001, 0.001, -0.129, 0.01, 0, -0.001, 0.12, 0.01
 267606248, 0, 0, 0, 0.01, -0.001, 0.001, -0.129, 0.01
 267806168, 0, 0, 0.017, 0.01, 0, 0, 0, 0.01
 268006088, 0, 0, -0.001, 0.01, 0, 0, 0.017, 0.01
 268206008, 0, 0, -0.002, 0.01, 0, 0, -0.001, 0.01
 268405928, 0, 0, 0, 0.01, 0, 0, -0.002, 0.01
 268605848, 0, 0, 0, 0.01, 0, 0, 0, 0.01
 268805768, 0, 0, 0, 0.01, 0, 0, 0, 0.01
 269006521, 0, 0, 0, 0.01, 0, 0, 0, 0.01
 269206441, 0, 0, 0, 0.01, 0, 0, 0, 0.01
