TimeUS,gpSA,gpHA,gpVA
 230310336, 0.471, 1.514, 1.572
 230500609, 0.466, 1.514, 1.573
 230700616, 0.359, 1.514, 1.573
 230900604, 0.5420001, 1.515, 1.574
 231100626, 0.544, 1.515, 1.574
 231320583, 0.368, 1.516, 1.575
 231520607, 0.5, 1.516, 1.575
 231720601, 0.439, 1.517, 1.575
 231900622, 0.386, 1.517, 1.576
 232120592, 0.429, 1.518, 1.577
 232320604, 0.528, 1.519, 1.578
 232520597, 0.396, 1.52, 1.579
 232720597, 0.489, 1.521, 1.58
 232920606, 0.5330001, 1.522, 1.582
 233120594, 0.459, 1.522, 1.581
 233320632, 0.443, 1.522, 1.582
 233520584, 0.365, 1.523, 1.583
 233700644, 0.392, 1.524, 1.583
 233920593, 0.539, 1.524, 1.585
 234120618, 0.431, 1.525, 1.586
 234320640, 0.378, 1.526, 1.588
 234520606, 0.544, 1.527, 1.589
 234720648, 0.487, 1.527, 1.59
 234920626, 0.492, 1.527, 1.59
 235100643, 0.426, 1.528, 1.591
 235320590, 0.507, 1.528, 1.59
 235500630, 0.429, 1.528, 1.591
 235720633, 0.442, 1.528, 1.591
 235920602, 0.403, 1.529, 1.591
 236120634, 0.443, 1.529, 1.592
 236320636, 0.385, 1.528, 1.592
 236500630, 0.385, 1.528, 1.593
 236720622, 0.493, 1.527, 1.592
 236920665, 0.486, 1.526, 1.593
 237120618, 0.44, 1.526, 1.594
 237320619, 0.34, 1.525, 1.594
 237520615, 0.443, 1.524, 1.594
 237720635, 0.449, 1.523, 1.593
 237900618, 0.317, 1.523, 1.593
 238120627, 0.445, 1.522, 1.593
 238320618, 0.417, 1.521, 1.592
 238520634, 0.38, 1.521, 1.592
 238720641, 0.53, 1.521, 1.591
 238900665, 0.522, 1.521, 1.591
 239100657, 0.383, 1.521, 1.59
 239300639, 0.387, 1.521, 1.59
 239520595, 0.431, 1.521, 1.589
 239720576, 0.403, 1.52, 1.588
 239920608, 0.518, 1.52, 1.589
 240120642, 0.392, 1.52, 1.589
 240320632, 0.504, 1.52, 1.588
 240520634, 0.387, 1.52, 1.588
 240700683, 0.37, 1.519, 1.587
 240920620, 0.378, 1.519, 1.586
 241120611, 0.528, 1.519, 1.586
 241300606, 0.442, 1.519, 1.585
 241520600, 0.529, 1.52, 1.587
 241720593, 0.518, 1.52, 1.587
 241900636, 0.411, 1.52, 1.588
 242120638, 0.508, 1.52, 1.589
 242320643, 0.368, 1.519, 1.588
 242520592, 0.52, 1.519, 1.588
 242720612, 0.466, 1.519, 1.588
 242920581, 0.538, 1.52, 1.59
 243120628, 0.289, 1.52, 1.59
 243320640, 0.498, 1.52, 1.591
 243520599, 0.426, 1.519, 1.591
 243700655, 0.476, 1.52, 1.592
 243900627, 0.393, 1.52, 1.593
 244120658, 0.471, 1.521, 1.593
 244320590, 0.456, 1.521, 1.593
 244520592, 0.382, 1.521, 1.593
 244700643, 0.419, 1.52, 1.592
 244920604, 0.342, 1.519, 1.591
 245120617, 0.31, 1.518, 1.591
 245320624, 0.172, 1.485, 1.571
 245520597, 0.264, 1.475, 1.556
 245720613, 0.168, 1.463, 1.54
 245920668, 0.24, 1.455, 1.529
 246140639, 0.281, 1.446, 1.518
 246320650, 0.34, 1.433, 1.506
 246520604, 0.291, 1.417, 1.497
 246720613, 0.263, 1.412, 1.492
 246920607, 0.233, 1.406, 1.488
 247120626, 0.242, 1.38, 1.485
 247320633, 0.301, 1.368, 1.48
 247520630, 0.386, 1.364, 1.476
 247720639, 0.365, 1.355, 1.471
 247920615, 0.438, 1.353, 1.472
 248120604, 0.442, 1.352, 1.472
 248340645, 0.421, 1.35, 1.469
 248540631, 0.409, 1.348, 1.472
 248740625, 0.369, 1.345, 1.472
 248920602, 0.388, 1.342, 1.473
 249140673, 0.356, 1.341, 1.467
 249320627, 0.334, 1.339, 1.464
 249520638, 0.367, 1.337, 1.464
 249740597, 0.332, 1.333, 1.461
 249920598, 0.354, 1.331, 1.46
 250140649, 0.347, 1.328, 1.46
 250340631, 0.352, 1.324, 1.46
 250540608, 0.337, 1.32, 1.457
 250740606, 0.315, 1.313, 1.445
 250920630, 0.318, 1.306, 1.433
 251140666, 0.323, 1.301, 1.425
 251340622, 0.364, 1.299, 1.425
 251520652, 0.371, 1.299, 1.426
 251720637, 0.356, 1.298, 1.423
 251940634, 0.368, 1.298, 1.425
 252140657, 0.369, 1.298, 1.427
 252320623, 0.361, 1.297, 1.426
 252520602, 0.369, 1.295, 1.425
 252720618, 0.375, 1.295, 1.426
 252920629, 0.384, 1.295, 1.428
 253120672, 0.382, 1.293, 1.426
 253340622, 0.362, 1.288, 1.421
 253540615, 0.37, 1.283, 1.421
 253740646, 0.375, 1.279, 1.421
 253940607, 0.418, 1.279, 1.424
 254140630, 0.413, 1.279, 1.424
 254340641, 0.412, 1.28, 1.426
 254540624, 0.432, 1.282, 1.433
 254740655, 0.413, 1.283, 1.434
 254940695, 0.409, 1.284, 1.436
 255140682, 0.406, 1.282, 1.436
 255340629, 0.42, 1.282, 1.434
 255540607, 0.387, 1.28, 1.431
 255740624, 0.387, 1.277, 1.427
 255940618, 0.396, 1.274, 1.423
 256140668, 0.387, 1.272, 1.421
 256340685, 0.388, 1.27, 1.42
 256520654, 0.389, 1.268, 1.42
 256740648, 0.349, 1.264, 1.407
 256940660, 0.411, 1.261, 1.407
 257140666, 0.397, 1.257, 1.4
 257320652, 0.42, 1.255, 1.402
 257540679, 0.405, 1.252, 1.398
 257740662, 0.316, 1.243, 1.392
 257940677, 0.422, 1.241, 1.389
 258140698, 0.395, 1.238, 1.385
 258340719, 0.447, 1.238, 1.383
 258540674, 0.358, 1.235, 1.376
 258740656, 0.293, 1.226, 1.37
 258940681, 0.307, 1.22, 1.37
 259140670, 0.287, 1.215, 1.37
 259321233, 0.291, 1.21, 1.369
 259540669, 0.312, 1.209, 1.37
 259740678, 0.307, 1.209, 1.369
 259921225, 0.348, 1.21, 1.372
 260140730, 0.412, 1.214, 1.376
 260340681, 0.452, 1.218, 1.379
 260540657, 0.4, 1.221, 1.378
 260721228, 0.384, 1.223, 1.376
 260940651, 0.403, 1.224, 1.373
 261140677, 0.347, 1.223, 1.365
 261340649, 0.365, 1.224, 1.361
 261540637, 0.323, 1.223, 1.357
 261740673, 0.302, 1.22, 1.355
 261921232, 0.396, 1.221, 1.358
 262140695, 0.322, 1.219, 1.362
 262340655, 0.292, 1.216, 1.367
 262540657, 0.301, 1.213, 1.372
 262740657, 0.28, 1.209, 1.376
 262940649, 0.271, 1.205, 1.377
 263140684, 0.217, 1.2, 1.378
 263321217, 0.226, 1.193, 1.378
 263521176, 0.205, 1.182, 1.373
 263721210, 0.21, 1.171, 1.364
 263921334, 0.224, 1.165, 1.358
 264140695, 0.217, 1.16, 1.356
 264321177, 0.221, 1.158, 1.355
 264521229, 0.204, 1.155, 1.353
 264721226, 0.195, 1.152, 1.349
 264921202, 0.196, 1.148, 1.344
 265121188, 0.187, 1.143, 1.34
 265321249, 0.195, 1.135, 1.337
 265521192, 0.199, 1.131, 1.337
 265721338, 0.195, 1.127, 1.337
 265921223, 0.214, 1.122, 1.34
 266140709, 0.208, 1.118, 1.34
 266321208, 0.224, 1.116, 1.343
 266521200, 0.202, 1.115, 1.345
 266721217, 0.214, 1.114, 1.348
 266921191, 0.223, 1.114, 1.351
 267121310, 0.224, 1.114, 1.353
 267340970, 0.21, 1.114, 1.356
 267540753, 0.21, 1.114, 1.358
 267721289, 0.235, 1.115, 1.361
 267940774, 0.209, 1.113, 1.356
 268140844, 0.262, 1.112, 1.351
 268340780, 0.297, 1.112, 1.346
 268540770, 0.255, 1.111, 1.342
 268740776, 0.273, 1.11, 1.343
 268940759, 0.272, 1.111, 1.348
 269140981, 0.25, 1.112, 1.349
 269340767, 0.264, 1.113, 1.351
 269540763, 0.23, 1.113, 1.351
 269720773, 0.331, 1.111, 1.353
 269940747, 0.372, 1.113, 1.36
 270160774, 0.355, 1.112, 1.357
 270340779, 0.309, 1.11, 1.354
 270540779, 0.37, 1.11, 1.356
 270740762, 0.348, 1.111, 1.356
 270940980, 0.35, 1.112, 1.355
 271140865, 0.318, 1.11, 1.352
 271340776, 0.259, 1.109, 1.349
 271521012, 0.274, 1.112, 1.349
 271720782, 0.261, 1.114, 1.348
 271920857, 0.371, 1.116, 1.351
 272140854, 0.262, 1.118, 1.346
 272320766, 0.289, 1.12, 1.341
 272540842, 0.331, 1.12, 1.34
 272720853, 0.306, 1.114, 1.34
 272940851, 0.359, 1.109, 1.343
 273120852, 0.34, 1.107, 1.345
 273320851, 0.417, 1.098, 1.342
 273520844, 0.408, 1.086, 1.338
 273720762, 0.372, 1.078, 1.341
 273920780, 0.387, 1.066, 1.338
 274140859, 0.406, 1.063, 1.343
 274320783, 0.398, 1.056, 1.34
 274520850, 0.414, 1.053, 1.343
 274740762, 0.396, 1.053, 1.346
 274920769, 0.396, 1.052, 1.35
 275140846, 0.348, 1.051, 1.352
 275320756, 0.359, 1.045, 1.35
 275540806, 0.36, 1.045, 1.355
 275720986, 0.392, 1.048, 1.361
 275920778, 0.427, 1.048, 1.365
 276141011, 0.382, 1.051, 1.374
 276340970, 0.44, 1.052, 1.379
 276540776, 0.462, 1.057, 1.389
 276720783, 0.431, 1.058, 1.394
 276941285, 0.443, 1.058, 1.398
 277141191, 0.426, 1.061, 1.408
 277341182, 0.405, 1.063, 1.416
 277520806, 0.41, 1.067, 1.424
 277720777, 0.397, 1.069, 1.429
 277920849, 0.371, 1.07, 1.434
 278141376, 0.33, 1.072, 1.438
 278341211, 0.316, 1.075, 1.443
 278541189, 0.296, 1.076, 1.444
 278741185, 0.374, 1.079, 1.448
 278941217, 0.344, 1.08, 1.451
 279141210, 0.335, 1.081, 1.453
 279341193, 0.354, 1.082, 1.455
 279541219, 0.354, 1.083, 1.456
 279741195, 0.352, 1.084, 1.456
 279941335, 0.38, 1.086, 1.457
 280120987, 0.35, 1.087, 1.451
 280341489, 0.339, 1.086, 1.444
 280541176, 0.362, 1.085, 1.437
 280741188, 0.318, 1.085, 1.433
 280941207, 0.328, 1.086, 1.432
 281141212, 0.32, 1.086, 1.43
 281341187, 0.32, 1.087, 1.429
 281541229, 0.266, 1.084, 1.427
 281741312, 0.28, 1.082, 1.427
 281941192, 0.328, 1.083, 1.427
 282160775, 0.33, 1.084, 1.426
 282341221, 0.297, 1.083, 1.425
 282541186, 0.296, 1.082, 1.424
 282721147, 0.328, 1.082, 1.425
 282941456, 0.308, 1.081, 1.426
 283141460, 0.304, 1.079, 1.42
 283321170, 0.317, 1.078, 1.416
 283521156, 0.329, 1.078, 1.414
 283721298, 0.327, 1.078, 1.411
 283921156, 0.347, 1.079, 1.411
 284141426, 0.336, 1.079, 1.408
 284321154, 0.342, 1.08, 1.404
 284521153, 0.269, 1.078, 1.399
 284721158, 0.331, 1.076, 1.394
 284921466, 0.334, 1.079, 1.395
 285121473, 0.304, 1.079, 1.394
 285321473, 0.306, 1.078, 1.395
 285521594, 0.337, 1.079, 1.399
 285721446, 0.335, 1.08, 1.399
 285921470, 0.337, 1.08, 1.399
 286141480, 0.328, 1.081, 1.399
 286341504, 0.334, 1.082, 1.401
 286541479, 0.363, 1.084, 1.404
 286721473, 0.313, 1.085, 1.401
 286921447, 0.368, 1.086, 1.402
 287141631, 0.322, 1.086, 1.396
 287321505, 0.323, 1.085, 1.389
 287521469, 0.307, 1.083, 1.383
 287721459, 0.327, 1.082, 1.379
 287921445, 0.363, 1.082, 1.374
 288141515, 0.295, 1.079, 1.362
 288341482, 0.309, 1.077, 1.352
 288521445, 0.309, 1.076, 1.344
 288721462, 0.32, 1.076, 1.339
 288941627, 0.324, 1.076, 1.336
 289121630, 0.352, 1.077, 1.333
 289321453, 0.303, 1.075, 1.325
 289521484, 0.289, 1.073, 1.317
 289721466, 0.289, 1.07, 1.311
 289921436, 0.289, 1.068, 1.305
 290141472, 0.251, 1.063, 1.298
 290321505, 0.264, 1.06, 1.292
 290521457, 0.278, 1.058, 1.291
 290721473, 0.281, 1.057, 1.29
 290921599, 0.315, 1.056, 1.29
 291141525, 0.317, 1.056, 1.287
 291321463, 0.276, 1.055, 1.284
 291541476, 0.288, 1.054, 1.284
 291741486, 0.303, 1.054, 1.285
 291921453, 0.3, 1.054, 1.286
 292141480, 0.307, 1.054, 1.287
 292321461, 0.298, 1.054, 1.288
 292521617, 0.292, 1.054, 1.288
 292741464, 0.271, 1.051, 1.288
 292941636, 0.263, 1.048, 1.289
 293121473, 0.299, 1.047, 1.29
 293321472, 0.306, 1.047, 1.29
 293541470, 0.314, 1.047, 1.29
 293741505, 0.317, 1.047, 1.288
 293921460, 0.333, 1.047, 1.288
 294141482, 0.268, 1.045, 1.286
 294341631, 0.271, 1.426, 1.468
 294501729, 0.299, 1.418, 1.464
 294701989, 0.272, 1.404, 1.447
 294901716, 0.272, 1.392, 1.443
 295101751, 0.316, 1.386, 1.441
 295301762, 0.361, 1.382, 1.44
 295501732, 0.322, 1.374, 1.435
 295701743, 0.353, 1.368, 1.433
 295901752, 0.347, 1.364, 1.433
 296141643, 0.312, 1.357, 1.428
 296302045, 0.339, 1.35, 1.423
 296501895, 0.338, 1.344, 1.421
 296701782, 0.288, 1.335, 1.417
 296901745, 0.353, 1.325, 1.411
 297101764, 0.358, 1.314, 1.401
 297301776, 0.387, 1.305, 1.393
 297501727, 0.375, 1.297, 1.365
 297701747, 0.306, 1.286, 1.352
 297901719, 0.312, 1.279, 1.351
 298101884, 0.315, 1.275, 1.35
 298301940, 0.347, 1.273, 1.351
 298501748, 0.312, 1.267, 1.35
 298701848, 0.306, 1.26, 1.347
 298901722, 0.357, 1.256, 1.347
 299101755, 0.402, 1.253, 1.33
 299301848, 0.45, 1.255, 1.331
 299501737, 0.418, 1.254, 1.32
 299701762, 0.382, 1.254, 1.311
 299901742, 0.417, 1.254, 1.304
 300121480, 0.383, 1.256, 1.299
 300301734, 0.391, 1.257, 1.302
 300502022, 0.347, 1.257, 1.299
 300701878, 0.395, 1.257, 1.296
 300901727, 0.341, 1.257, 1.293
 301101870, 0.331, 1.258, 1.291
 301301732, 0.263, 1.258, 1.29
 301501780, 0.227, 1.253, 1.294
 301701751, 0.23, 1.242, 1.295
 301901931, 0.268, 1.236, 1.299
 302101771, 0.268, 1.233, 1.305
 302301728, 0.309, 1.229, 1.312
 302501746, 0.322, 1.219, 1.32
 302701844, 0.306, 1.206, 1.325
 302901721, 0.343, 1.2, 1.333
 303101759, 0.296, 1.185, 1.335
 303301734, 0.248, 1.169, 1.332
 303501839, 0.277, 1.155, 1.331
 303701958, 0.29, 1.146, 1.334
 303901723, 0.305, 1.143, 1.338
 304101866, 0.316, 1.137, 1.336
 304301742, 0.321, 1.13, 1.335
 304501721, 0.358, 1.13, 1.341
 304702141, 0.283, 1.12, 1.342
 304901721, 0.283, 1.111, 1.344
 305101763, 0.231, 1.094, 1.339
 305301738, 0.259, 1.079, 1.334
 305501940, 0.216, 1.067, 1.325
 305701766, 0.242, 1.054, 1.324
 305901746, 0.269, 1.042, 1.323
 306101769, 0.255, 1.031, 1.311
 306301748, 0.259, 1.021, 1.298
 306521442, 0.256, 1.012, 1.288
 306701736, 0.269, 1.004, 1.279
 306901747, 0.267, 0.9990001, 1.27
 307101774, 0.258, 0.993, 1.27
 307301949, 0.242, 0.988, 1.267
 307501769, 0.288, 0.9850001, 1.269
 307701746, 0.283, 0.983, 1.271
 307901710, 0.299, 0.9810001, 1.275
 308101769, 0.289, 0.979, 1.28
 308301728, 0.308, 0.9760001, 1.274
 308501733, 0.309, 0.974, 1.275
 308701738, 0.297, 0.9710001, 1.276
 308921609, 0.303, 0.97, 1.279
 309101947, 0.334, 0.9680001, 1.28
 309301740, 0.307, 0.969, 1.276
 309501782, 0.3, 0.969, 1.273
 309701770, 0.312, 0.9670001, 1.268
 309901737, 0.299, 0.966, 1.265
 310101752, 0.315, 0.9680001, 1.271
 310301771, 0.279, 0.966, 1.271
 310501721, 0.314, 0.966, 1.276
 310701757, 0.318, 0.966, 1.28
 310901968, 0.293, 0.9680001, 1.283
 311101768, 0.246, 0.964, 1.278
 311301736, 0.286, 0.9590001, 1.276
 311501736, 0.285, 0.955, 1.275
 311701863, 0.291, 0.9530001, 1.269
 311901725, 0.279, 0.952, 1.27
 312121487, 0.298, 0.9490001, 1.264
 312301772, 0.281, 0.946, 1.259
 312501778, 0.295, 0.943, 1.259
 312701947, 0.249, 0.9400001, 1.257
 312901762, 0.271, 0.937, 1.252
 313102143, 0.267, 0.9350001, 1.251
 313301736, 0.263, 0.933, 1.249
 313501737, 0.255, 0.9310001, 1.248
 313701805, 0.243, 0.928, 1.246
 313901730, 0.23, 0.9250001, 1.244
 314101749, 0.21, 0.9220001, 1.245
 314301772, 0.245, 0.919, 1.245
 314501911, 0.269, 0.913, 1.237
 314701741, 0.297, 0.909, 1.234
 314901710, 0.31, 0.909, 1.238
 315101863, 0.264, 0.904, 1.229
 315301736, 0.285, 0.8940001, 1.214
 315501718, 0.238, 0.8850001, 1.199
 315701771, 0.299, 0.8800001, 1.193
 315901708, 0.314, 0.881, 1.19
 316101751, 0.315, 0.876, 1.179
 316301950, 0.285, 0.874, 1.175
 316501727, 0.305, 0.873, 1.171
 316721460, 0.263, 0.872, 1.166
 316901722, 0.293, 0.872, 1.166
 317101761, 0.334, 0.8750001, 1.168
 317302114, 0.382, 0.8790001, 1.173
 317501739, 0.33, 0.8850001, 1.178
 317701500, 0.358, 0.8890001, 1.183
 317901489, 0.362, 0.8940001, 1.189
 318121477, 0.358, 0.899, 1.194
 318301478, 0.353, 0.9020001, 1.197
 318501521, 0.318, 0.905, 1.202
 318701488, 0.334, 0.906, 1.206
 318921452, 0.346, 0.91, 1.212
 319101498, 0.331, 0.9110001, 1.215
 319301501, 0.3, 0.914, 1.219
 319501474, 0.247, 0.9120001, 1.216
 319701483, 0.305, 0.91, 1.214
 319901626, 0.334, 0.91, 1.215
 320101495, 0.341, 0.913, 1.221
 320301483, 0.351, 0.915, 1.226
 320501491, 0.311, 0.914, 1.221
 320701497, 0.329, 0.913, 1.216
 320901478, 0.27, 0.913, 1.215
 321101495, 0.28, 0.913, 1.218
 321301471, 0.308, 0.914, 1.22
 321501643, 0.305, 0.914, 1.215
 321701623, 0.309, 0.9110001, 1.21
 321901498, 0.295, 0.9070001, 1.208
 322101482, 0.292, 0.904, 1.206
 322301498, 0.373, 0.905, 1.205
 322501482, 0.326, 0.906, 1.197
 322701494, 0.364, 0.9080001, 1.192
 322901481, 0.39, 0.913, 1.192
 323101492, 0.318, 0.913, 1.185
 323301486, 0.341, 0.913, 1.181
 323501608, 0.317, 0.914, 1.182
 323701479, 0.315, 0.915, 1.184
 323901479, 0.335, 0.9120001, 1.176
 324101498, 0.379, 0.9160001, 1.177
 324301481, 0.379, 0.923, 1.182
 324501478, 0.437, 0.9310001, 1.19
 324701498, 0.469, 0.9400001, 1.201
 324901463, 0.459, 0.95, 1.211
 325101501, 0.405, 0.9580001, 1.218
 325301640, 0.411, 0.965, 1.224
 325501478, 0.408, 0.9720001, 1.232
 325701649, 0.413, 0.978, 1.24
 325901485, 0.386, 0.984, 1.25
 326101496, 0.301, 0.9810001, 1.254
 326301474, 0.299, 0.975, 1.259
 326501480, 0.432, 0.979, 1.268
 326701493, 0.385, 0.987, 1.277
 326901484, 0.341, 0.9910001, 1.282
 327101627, 0.349, 0.993, 1.284
 327301491, 0.286, 0.987, 1.282
 327501486, 0.266, 0.9770001, 1.274
 327701484, 0.311, 0.975, 1.272
 327901487, 0.311, 0.9760001, 1.27
 328101489, 0.292, 0.97, 1.27
 328301480, 0.373, 0.9710001, 1.274
 328501486, 0.314, 0.9580001, 1.278
 328701503, 0.28, 0.9450001, 1.28
 328901617, 0.272, 0.934, 1.284
 329101495, 0.26, 0.923, 1.284
 329301483, 0.36, 0.9220001, 1.283
 329501466, 0.296, 0.9170001, 1.281
 329701492, 0.303, 0.913, 1.282
 329901630, 0.286, 0.909, 1.279
 330121504, 0.264, 0.9020001, 1.27
 330301477, 0.251, 0.897, 1.263
 330501507, 0.264, 0.896, 1.258
 330701640, 0.294, 0.897, 1.253
 330901505, 0.323, 0.9, 1.256
 331101496, 0.338, 0.9030001, 1.26
 331301478, 0.312, 0.904, 1.265
 331501462, 0.342, 0.906, 1.27
 331701488, 0.412, 0.909, 1.271
 331901464, 0.342, 0.914, 1.271
 332081487, 0.303, 0.913, 1.265
 332301480, 0.278, 0.909, 1.263
 332501603, 0.288, 0.9070001, 1.269
 332701468, 0.351, 0.9080001, 1.27
 332901458, 0.39, 0.909, 1.27
 333101494, 0.388, 0.909, 1.266
 333301449, 0.384, 0.913, 1.261
 333501455, 0.307, 0.9110001, 1.254
 333701486, 0.244, 0.899, 1.245
 333901452, 0.274, 0.8980001, 1.238
 334101657, 0.3, 0.896, 1.232
 334301595, 0.389, 0.9, 1.235
 334501452, 0.397, 0.9070001, 1.239
 334701448, 0.463, 0.9120001, 1.241
 334901468, 0.313, 0.914, 1.241
 335101555, 0.309, 0.915, 1.241
 335301456, 0.28, 0.91, 1.243
 335501465, 0.3, 0.9070001, 1.239
 335701480, 0.315, 0.905, 1.237
 335901457, 0.363, 0.9070001, 1.241
 336121496, 0.326, 0.9080001, 1.239
 336301473, 0.319, 0.9080001, 1.237
 336501468, 0.371, 0.91, 1.235
 336701470, 0.273, 0.905, 1.233
 336901478, 0.272, 0.8980001, 1.232
 337101477, 0.334, 0.9, 1.235
 337301463, 0.284, 0.9020001, 1.232
 337501461, 0.209, 0.899, 1.22
 337721607, 0.237, 0.8890001, 1.214
 337901611, 0.279, 0.8840001, 1.216
 338101474, 0.285, 0.8790001, 1.212
 338301645, 0.331, 0.8800001, 1.212
 338501462, 0.351, 0.886, 1.218
 338701487, 0.319, 0.8840001, 1.218
 338901486, 0.365, 0.8850001, 1.223
 339101491, 0.311, 0.887, 1.226
 339302940, 0.381, 0.892, 1.228
 339501774, 0.336, 0.8940001, 1.231
 339701933, 0.373, 0.896, 1.23
 339901735, 0.41, 0.899, 1.233
 340101854, 0.319, 0.896, 1.236
 340301758, 0.336, 0.891, 1.237
 340501730, 0.293, 0.8800001, 1.237
 340701745, 0.293, 0.8750001, 1.239
 340901758, 0.311, 0.872, 1.242
 341101743, 0.317, 0.873, 1.246
 341301730, 0.259, 0.8660001, 1.248
 341501911, 0.313, 0.86, 1.251
 341701727, 0.317, 0.85, 1.246
 341901718, 0.361, 0.851, 1.252
 342101735, 0.367, 0.854, 1.26
 342301758, 0.394, 0.858, 1.268
 342501999, 0.396, 0.864, 1.275
 342701750, 0.385, 0.8700001, 1.279
 342901737, 0.375, 0.876, 1.284
 343101742, 0.361, 0.882, 1.288
 343301913, 0.372, 0.8880001, 1.293
 343501726, 0.4, 0.8940001, 1.298
 343701773, 0.37, 0.8980001, 1.301
 343901709, 0.394, 0.9020001, 1.307
 344101730, 0.338, 0.905, 1.313
 344301748, 0.34, 0.905, 1.316
 344501704, 0.404, 0.892, 1.306
 344701734, 0.403, 0.883, 1.303
 344901728, 0.423, 0.878, 1.305
 345101981, 0.398, 0.881, 1.31
 345301716, 0.386, 0.8850001, 1.316
 345501720, 0.412, 0.8890001, 1.323
 345701756, 0.396, 0.895, 1.331
 345901758, 0.379, 0.9, 1.337
 346101731, 0.37, 0.904, 1.344
 346301746, 0.348, 0.9070001, 1.348
 346501724, 0.331, 0.906, 1.353
 346702139, 0.356, 0.904, 1.358
 346901878, 0.342, 0.9020001, 1.364
 347101764, 0.341, 0.899, 1.371
 347301706, 0.299, 0.897, 1.379
 347501717, 0.364, 0.895, 1.385
 347701775, 0.388, 0.899, 1.391
 347901710, 0.381, 0.9, 1.393
 348101765, 0.381, 0.9030001, 1.398
 348301717, 0.393, 0.9070001, 1.404
 348501746, 0.399, 0.913, 1.409
 348701933, 0.412, 0.92, 1.415
 348901701, 0.426, 0.927, 1.422
 349101847, 0.408, 0.933, 1.417
 349301729, 0.433, 0.9400001, 1.423
 349501708, 0.399, 0.9450001, 1.429
 349701738, 0.396, 0.9490001, 1.432
 349901752, 0.397, 0.9480001, 1.432
 350101743, 0.418, 0.95, 1.437
 350281478, 0.409, 0.955, 1.444
 350501952, 0.42, 0.96, 1.451
 350701730, 0.457, 0.9670001, 1.456
 350902000, 0.46, 0.9760001, 1.464
 351101851, 0.328, 0.979, 1.457
 351301716, 0.377, 0.983, 1.454
 351501708, 0.282, 0.9760001, 1.449
 351701774, 0.357, 0.9770001, 1.434
 351901744, 0.314, 0.97, 1.412
 352101741, 0.293, 0.9630001, 1.389
 352301901, 0.256, 0.9540001, 1.346
 352501739, 0.242, 0.937, 1.329
 352701716, 0.244, 0.9300001, 1.317
 352881476, 0.246, 0.9220001, 1.289
 353101867, 0.268, 0.918, 1.284
 353301753, 0.271, 0.915, 1.284
 353501708, 0.28, 0.9080001, 1.285
 353701735, 0.316, 0.909, 1.287
 353901754, 0.358, 0.9120001, 1.291
 354101933, 0.311, 0.9120001, 1.277
 354301715, 0.302, 0.9110001, 1.267
 354501733, 0.3, 0.9110001, 1.271
 354701737, 0.292, 0.91, 1.275
 354901707, 0.306, 0.91, 1.28
 355102113, 0.33, 0.913, 1.276
 355301741, 0.292, 0.9160001, 1.282
 355501706, 0.351, 0.9210001, 1.289
 355701718, 0.327, 0.9220001, 1.289
 355901916, 0.474, 0.928, 1.299
 356101732, 0.344, 0.934, 1.295
 356301732, 0.334, 0.9350001, 1.296
 356501682, 0.275, 0.929, 1.286
 356701765, 0.242, 0.9210001, 1.275
 356901685, 0.287, 0.9220001, 1.273
 357101710, 0.281, 0.919, 1.27
 357301723, 0.365, 0.923, 1.274
 357501710, 0.308, 0.928, 1.278
 357701923, 0.335, 0.9300001, 1.284
 357901718, 0.357, 0.933, 1.286
 358101700, 0.346, 0.936, 1.29
 358301692, 0.356, 0.9390001, 1.294
 358501693, 0.315, 0.942, 1.299
 358701746, 0.34, 0.9450001, 1.299
 358901704, 0.417, 0.951, 1.307
 359101717, 0.275, 0.9480001, 1.288
 359302147, 0.291, 0.947, 1.279
 359501872, 0.279, 0.946, 1.267
 359701718, 0.229, 0.927, 1.248
 359901679, 0.365, 0.929, 1.253
 360121445, 0.35, 0.934, 1.259
 360301698, 0.346, 0.938, 1.264
 360501692, 0.339, 0.937, 1.266
 360701749, 0.325, 0.938, 1.27
 360901689, 0.38, 0.941, 1.276
 361101725, 0.293, 0.9390001, 1.266
 361301887, 0.371, 0.9400001, 1.264
 361501723, 0.292, 0.9400001, 1.251
 361701705, 0.382, 0.9440001, 1.254
 361901694, 0.316, 0.946, 1.256
 362101748, 0.344, 0.946, 1.259
 362301724, 0.332, 0.9490001, 1.263
 362501694, 0.36, 0.952, 1.265
 362701745, 0.344, 0.951, 1.254
 362901688, 0.335, 0.9530001, 1.244
 363101902, 0.329, 0.9450001, 1.23
 363301688, 0.376, 0.9480001, 1.233
 363502114, 0.402, 0.955, 1.241
 363701708, 0.331, 0.9580001, 1.244
 363901691, 0.431, 0.964, 1.254
 364101756, 0.414, 0.9720001, 1.262
 364321447, 0.38, 0.978, 1.268
 364521457, 0.343, 0.9820001, 1.27
 364721477, 0.384, 0.9850001, 1.27
 364921456, 0.372, 0.989, 1.27
 365121476, 0.345, 0.992, 1.269
 365321461, 0.313, 0.993, 1.274
 365501466, 0.369, 0.9960001, 1.282
 365701485, 0.316, 0.9990001, 1.282
 365881466, 0.349, 1.002, 1.281
 366101492, 0.332, 1, 1.28
 366301476, 0.319, 1.002, 1.28
 366501469, 0.296, 1.002, 1.272
 366701614, 0.307, 1, 1.263
 366901487, 0.297, 1.002, 1.255
 367101492, 0.277, 0.998, 1.251
 367321459, 0.336, 0.9990001, 1.253
 367501473, 0.39, 1, 1.258
 367701638, 0.351, 1, 1.256
 367901454, 0.306, 0.9950001, 1.255
 368101484, 0.285, 0.992, 1.25
 368301465, 0.33, 0.993, 1.254
 368501484, 0.367, 0.9950001, 1.256
 368701480, 0.357, 0.997, 1.255
 368901485, 0.331, 0.9900001, 1.254
 369101468, 0.28, 0.9910001, 1.244
 369301454, 0.328, 0.994, 1.24
 369501468, 0.253, 0.989, 1.234
 369701490, 0.294, 0.9860001, 1.237
 369901461, 0.366, 0.988, 1.242
 370101477, 0.352, 0.992, 1.246
 370301606, 0.378, 0.9960001, 1.248
 370501464, 0.323, 0.998, 1.242
 370701484, 0.379, 1, 1.242
 370901475, 0.358, 1.004, 1.248
 371081471, 0.342, 1.003, 1.252
 371301465, 0.348, 1.002, 1.256
 371481610, 0.353, 1.002, 1.258
 371701453, 0.356, 1.005, 1.257
 371901636, 0.401, 1.008, 1.261
 372101608, 0.412, 1.012, 1.267
 372301491, 0.424, 1.015, 1.271
 372501469, 0.365, 1.014, 1.278
 372701483, 0.361, 1.015, 1.283
 372901471, 0.363, 1.017, 1.286
 373101465, 0.275, 1.013, 1.275
 373301479, 0.34, 1.014, 1.275
 373501475, 0.315, 1.011, 1.271
 373701486, 0.282, 1.01, 1.263
 373901595, 0.326, 1.008, 1.264
 374101466, 0.323, 1.007, 1.255
 374301459, 0.363, 1.007, 1.259
 374501468, 0.345, 1.006, 1.263
 374701465, 0.367, 1.005, 1.257
 374901470, 0.331, 1.005, 1.262
 375101493, 0.39, 1.005, 1.267
 375301467, 0.38, 1.007, 1.268
 375501475, 0.302, 1, 1.249
 375701621, 0.318, 0.9960001, 1.233
 375901474, 0.306, 0.9950001, 1.226
 376101633, 0.283, 0.9860001, 1.219
 376301449, 0.356, 0.989, 1.226
 376501495, 0.336, 0.9910001, 1.226
 376701493, 0.316, 0.9900001, 1.223
 376901454, 0.321, 0.989, 1.221
 377101488, 0.324, 0.987, 1.218
 377301463, 0.324, 0.9850001, 1.215
 377501610, 0.429, 0.9850001, 1.22
 377701472, 0.273, 0.9820001, 1.215
 377901484, 0.37, 0.9770001, 1.218
 378101487, 0.281, 0.978, 1.215
 378301485, 0.333, 0.974, 1.206
 378481495, 0.278, 0.974, 1.199
 378701470, 0.201, 0.969, 1.186
 378881459, 0.229, 0.966, 1.177
 379101504, 0.249, 0.96, 1.171
 379301625, 0.239, 0.955, 1.165
 379501466, 0.232, 0.95, 1.159
 379701494, 0.232, 0.9480001, 1.153
 379901482, 0.25, 0.9490001, 1.149
 380101539, 0.237, 0.95, 1.14
 380301628, 0.234, 0.95, 1.13
 380501465, 0.231, 0.947, 1.124
 380681479, 0.239, 0.947, 1.122
 380901469, 0.241, 0.9480001, 1.12
 381101613, 0.238, 0.95, 1.118
 381301476, 0.234, 0.952, 1.116
 381481441, 0.254, 0.955, 1.115
 381701494, 0.25, 0.9590001, 1.114
 381901442, 0.242, 0.9620001, 1.114
 382101490, 0.236, 0.964, 1.113
 382301470, 0.242, 0.965, 1.107
 382501470, 0.24, 0.966, 1.101
 382701508, 0.231, 0.964, 1.099
 382901599, 0.235, 0.965, 1.097
 383101486, 0.233, 0.966, 1.098
 383301474, 0.242, 0.965, 1.097
 383481455, 0.242, 0.961, 1.093
 383681468, 0.243, 0.96, 1.089
 383901433, 0.263, 0.96, 1.091
 384101480, 0.229, 0.9590001, 1.09
 384301471, 0.237, 0.957, 1.087
 384501620, 0.264, 0.9590001, 1.089
 384701636, 0.23, 0.9590001, 1.091
 384901471, 0.254, 0.9590001, 1.097
 385101506, 0.259, 0.961, 1.103
 385301448, 0.292, 0.9630001, 1.108
 385501472, 0.234, 0.9630001, 1.105
 385701484, 0.234, 0.9630001, 1.102
 385901467, 0.2, 0.9580001, 1.101
 386101496, 0.212, 0.956, 1.102
 386321586, 0.256, 1.361, 1.285
 386481464, 0.259, 1.351, 1.257
 386681612, 0.237, 1.343, 1.254
 386881443, 0.318, 1.329, 1.256
 387081512, 0.272, 1.304, 1.249
 387281459, 0.253, 1.28, 1.242
 387481437, 0.235, 1.255, 1.234
 387681473, 0.215, 1.234, 1.227
 387881453, 0.227, 1.217, 1.221
 388101510, 0.251, 1.201, 1.215
 388281613, 0.215, 1.188, 1.214
 388501447, 0.196, 1.178, 1.213
 388701671, 0.243, 1.176, 1.216
 388901472, 0.251, 1.176, 1.219
 389101463, 0.272, 1.174, 1.221
 389281463, 0.259, 1.171, 1.223
 389501486, 0.264, 1.17, 1.225
 389701495, 0.293, 1.169, 1.227
 389901471, 0.276, 1.169, 1.23
 390101643, 0.296, 1.17, 1.234
 390301492, 0.36, 1.176, 1.24
 390501461, 0.319, 1.183, 1.244
 390701518, 0.348, 1.191, 1.249
 390901484, 0.328, 1.201, 1.254
 391101477, 0.318, 1.21, 1.258
 391301465, 0.267, 1.219, 1.261
 391501484, 0.231, 1.221, 1.26
 391701484, 0.192, 1.208, 1.245
 391881460, 0.218, 1.204, 1.243
 392101481, 0.202, 1.192, 1.239
 392301458, 0.213, 1.188, 1.237
 392481616, 0.214, 1.186, 1.227
 392701477, 0.244, 1.177, 1.212
 392881462, 0.242, 1.177, 1.204
 393081471, 0.244, 1.18, 1.204
 393301702, 0.244, 1.183, 1.198
 393501704, 0.251, 1.187, 1.192
 393701776, 0.233, 1.187, 1.191
 393901765, 0.217, 1.179, 1.182
 394101735, 0.225, 1.173, 1.17
 394301697, 0.276, 1.16, 1.165
 394481703, 0.284, 1.146, 1.167
 394701751, 0.272, 1.14, 1.164
 394901740, 0.295, 1.14, 1.161
 395081717, 0.302, 1.144, 1.159
 395281713, 0.285, 1.146, 1.157
 395481719, 0.275, 1.136, 1.153
 395681761, 0.263, 1.129, 1.15
 395881703, 0.316, 1.129, 1.154
 396101735, 0.309, 1.129, 1.16
 396301715, 0.299, 1.13, 1.164
 396501720, 0.289, 1.131, 1.169
 396701711, 0.294, 1.13, 1.166
 396901706, 0.321, 1.128, 1.162
 397081730, 0.303, 1.122, 1.156
 397281723, 0.322, 1.118, 1.15
 397501726, 0.292, 1.115, 1.141
 397701745, 0.315, 1.112, 1.136
 397901724, 0.348, 1.111, 1.132
 398101752, 0.414, 1.111, 1.128
 398281693, 0.303, 1.112, 1.131
 398481706, 0.347, 1.109, 1.139
 398681728, 0.338, 1.105, 1.141
 398881717, 0.432, 1.109, 1.145
 399101760, 0.363, 1.114, 1.155
 399301723, 0.332, 1.11, 1.166
 399501738, 0.428, 1.113, 1.172
 399681729, 0.511, 1.117, 1.174
 399881718, 0.413, 1.121, 1.186
 400101761, 0.347, 1.115, 1.196
 400301698, 0.535, 1.117, 1.207
 400501709, 0.458, 1.121, 1.214
 400681729, 0.455, 1.119, 1.222
 400881938, 0.431, 1.119, 1.23
 401081756, 0.391, 1.122, 1.232
 401281716, 0.418, 1.12, 1.23
 401481729, 0.369, 1.113, 1.23
 401681735, 0.448, 1.112, 1.237
 401881703, 0.422, 1.114, 1.241
 402101745, 0.358, 1.111, 1.249
 402301706, 0.325, 1.106, 1.25
 402501739, 0.371, 1.099, 1.247
 402701770, 0.36, 1.094, 1.243
 402901716, 0.394, 1.093, 1.25
 403101740, 0.36, 1.09, 1.258
 403301722, 0.358, 1.093, 1.259
 403481709, 0.348, 1.09, 1.258
 403681720, 0.256, 1.084, 1.243
 403881723, 0.288, 1.082, 1.24
 404081728, 0.326, 1.084, 1.243
 404281722, 0.393, 1.088, 1.246
 404501750, 0.369, 1.091, 1.253
 404681757, 0.352, 1.091, 1.262
 404881722, 0.338, 1.091, 1.271
 405101749, 0.367, 1.091, 1.279
 405301716, 0.362, 1.091, 1.288
 405481722, 0.388, 1.092, 1.297
 405701727, 0.386, 1.094, 1.305
 405881708, 0.348, 1.095, 1.313
 406081687, 0.322, 1.096, 1.318
 406281677, 0.368, 1.096, 1.323
 406481661, 0.326, 1.096, 1.327
 406701660, 0.35, 1.097, 1.332
 406901666, 0.364, 1.097, 1.336
 407101664, 0.355, 1.098, 1.341
 407301650, 0.314, 1.098, 1.346
 407481639, 0.344, 1.099, 1.35
 407701666, 0.337, 1.099, 1.355
 407901591, 0.309, 1.1, 1.359
 408101635, 0.34, 1.101, 1.364
 408301604, 0.306, 1.102, 1.368
 408501597, 0.345, 1.103, 1.373
 408701622, 0.35, 1.104, 1.377
 408881556, 0.321, 1.105, 1.383
 409081602, 0.351, 1.106, 1.387
 409301588, 0.361, 1.108, 1.393
 409501598, 0.346, 1.109, 1.399
 409701666, 0.352, 1.11, 1.403
 409901635, 0.36, 1.112, 1.409
 410081626, 0.36, 1.113, 1.413
 410281580, 0.311, 1.113, 1.418
 410481564, 0.367, 1.113, 1.423
 410681567, 0.331, 1.109, 1.423
 410881556, 0.338, 1.105, 1.423
 411081588, 0.268, 1.102, 1.427
 411281614, 0.267, 1.099, 1.429
 411481560, 0.316, 1.096, 1.431
 411681590, 0.357, 1.092, 1.432
 411881594, 0.334, 1.09, 1.435
 412081569, 0.354, 1.087, 1.437
 412281576, 0.327, 1.084, 1.438
 412481574, 0.353, 1.081, 1.441
 412681597, 0.334, 1.079, 1.444
 412881565, 0.314, 1.076, 1.446
 413081591, 0.334, 1.074, 1.449
 413281574, 0.359, 1.072, 1.452
 413481614, 0.332, 1.07, 1.454
 413681614, 0.312, 1.068, 1.457
 413881555, 0.361, 1.066, 1.459
 414081580, 0.352, 1.064, 1.462
 414281551, 0.309, 1.062, 1.464
 414481594, 0.335, 1.06, 1.466
 414681582, 0.306, 1.059, 1.469
 414881576, 0.325, 1.057, 1.471
 415101581, 0.322, 1.056, 1.473
 415281579, 0.309, 1.054, 1.472
 415501555, 0.316, 1.052, 1.473
 415701560, 0.344, 1.051, 1.476
 415881582, 0.297, 1.05, 1.478
 416101648, 0.338, 1.049, 1.478
 416301590, 0.319, 1.048, 1.477
 416481568, 0.26, 1.047, 1.479
 416681569, 0.343, 1.046, 1.482
 416901571, 0.31, 1.045, 1.482
 417081605, 0.284, 1.044, 1.482
 417281602, 0.317, 1.043, 1.481
 417481545, 0.282, 1.041, 1.48
 417681609, 0.324, 1.04, 1.48
 417881586, 0.358, 1.039, 1.48
 418081570, 0.321, 1.038, 1.479
 418301595, 0.302, 1.037, 1.481
 418481554, 0.347, 1.037, 1.483
 418701568, 0.331, 1.037, 1.487
 418881574, 0.333, 1.037, 1.49
 419101584, 0.359, 1.037, 1.492
 419301538, 0.28, 1.036, 1.494
 419501561, 0.34, 1.035, 1.495
 419681574, 0.337, 1.035, 1.497
 419881573, 0.308, 1.034, 1.499
 420081584, 0.302, 1.033, 1.501
 420301588, 0.266, 1.033, 1.502
 420481605, 0.344, 1.032, 1.502
 420681590, 0.347, 1.031, 1.501
 420881592, 0.365, 1.031, 1.504
 421081585, 0.367, 1.031, 1.507
 421281568, 0.351, 1.032, 1.51
 421481553, 0.276, 1.032, 1.514
 421681601, 0.315, 1.032, 1.516
 421881580, 0.258, 1.032, 1.519
 422081583, 0.301, 1.032, 1.521
 422281593, 0.349, 1.032, 1.524
 422481578, 0.316, 1.031, 1.526
 422681602, 0.342, 1.031, 1.528
 450101555, 0.396, 0.9160001, 1.38
 450301546, 0.368, 0.915, 1.38
 450501537, 0.309, 0.915, 1.381
 450701531, 0.26, 0.915, 1.381
 450901535, 0.308, 0.915, 1.381
 451101567, 0.325, 0.914, 1.381
 451301576, 0.336, 0.914, 1.382
 451501510, 0.325, 0.914, 1.382
 451681571, 0.326, 0.914, 1.382
 451901522, 0.297, 0.914, 1.383
 452101542, 0.319, 0.914, 1.382
 452301548, 0.288, 0.913, 1.382
 452501554, 0.301, 0.913, 1.382
 452701595, 0.301, 0.913, 1.382
 452901565, 0.294, 0.913, 1.382
 453101607, 0.321, 0.9120001, 1.382
 453301549, 0.329, 0.9120001, 1.382
 453501557, 0.331, 0.9120001, 1.382
 453701548, 0.316, 0.9120001, 1.382
 453901535, 0.294, 0.9110001, 1.382
 454101554, 0.289, 0.9110001, 1.382
 454281565, 0.331, 0.9120001, 1.383
 454501573, 0.35, 0.913, 1.384
 454701604, 0.306, 0.913, 1.38
 454901574, 0.287, 0.913, 1.367
 455101565, 0.237, 0.91, 1.354
 455301553, 0.267, 0.9080001, 1.342
 455501553, 0.198, 0.896, 1.322
 455701572, 0.276, 0.8850001, 1.309
 455901589, 0.312, 0.881, 1.307
 456101574, 0.327, 0.883, 1.309
 456301569, 0.36, 0.887, 1.309
 456501573, 0.362, 0.892, 1.313
 456701611, 0.373, 0.9, 1.319
 456901570, 0.375, 0.9070001, 1.324
 457101588, 0.368, 0.914, 1.328
 457301538, 0.38, 0.92, 1.335
 457501543, 0.357, 0.9260001, 1.338
 457701563, 0.369, 0.9300001, 1.342
 457901576, 0.394, 0.9350001, 1.348
 458101568, 0.391, 0.9400001, 1.355
 458301585, 0.421, 0.946, 1.363
 458501588, 0.345, 0.951, 1.365
 458701555, 0.327, 0.952, 1.366
 458901557, 0.371, 0.9530001, 1.369
 459101565, 0.352, 0.9530001, 1.366
 459301577, 0.345, 0.9530001, 1.36
 459501569, 0.328, 0.9540001, 1.356
 459701566, 0.301, 0.9530001, 1.349
 459901556, 0.349, 0.9540001, 1.344
 460101638, 0.412, 0.956, 1.339
 460301599, 0.412, 0.9590001, 1.337
 460501559, 0.4, 0.961, 1.334
 460701551, 0.332, 0.961, 1.329
 460901551, 0.346, 0.961, 1.324
 461101587, 0.349, 0.96, 1.316
 461301580, 0.343, 0.9580001, 1.304
 461501557, 0.362, 0.9580001, 1.297
 461701585, 0.352, 0.956, 1.286
 461901569, 0.364, 0.957, 1.28
 462101600, 0.375, 0.957, 1.274
 462301570, 0.386, 0.9580001, 1.269
 462501542, 0.401, 0.96, 1.268
 462701609, 0.393, 0.9620001, 1.268
 462901605, 0.376, 0.964, 1.266
 463101621, 0.339, 0.9630001, 1.263
 463301613, 0.343, 0.9620001, 1.259
 463501636, 0.338, 0.961, 1.256
 463701646, 0.335, 0.957, 1.247
 463901663, 0.381, 0.955, 1.24
 464101605, 0.407, 0.955, 1.236
 464301658, 0.413, 0.957, 1.232
 464501584, 0.404, 0.9580001, 1.222
 464701642, 0.383, 0.9580001, 1.212
 464901624, 0.386, 0.9590001, 1.208
 465101634, 0.382, 0.9590001, 1.205
 465301653, 0.394, 0.9590001, 1.201
 465501634, 0.379, 0.96, 1.201
 465701638, 0.327, 0.961, 1.198
 465901594, 0.239, 0.9620001, 1.199
 466101613, 0.204, 0.964, 1.198
 466301623, 0.174, 0.9670001, 1.197
 466501626, 0.187, 0.969, 1.195
 466701646, 0.174, 0.9710001, 1.194
 466901602, 0.183, 0.973, 1.189
 467101648, 0.183, 0.975, 1.184
 467301608, 0.182, 0.9770001, 1.179
 467501645, 0.175, 0.979, 1.175
 467701609, 0.177, 0.9810001, 1.173
 467901610, 0.178, 0.984, 1.171
 468101642, 0.23, 0.9860001, 1.171
 468301630, 0.238, 0.989, 1.17
 468501669, 0.254, 0.9910001, 1.167
 468701630, 0.217, 0.992, 1.164
 468901604, 0.235, 0.993, 1.165
 469101654, 0.232, 0.993, 1.166
 469301644, 0.242, 0.9950001, 1.168
 469501629, 0.241, 0.997, 1.171
 469701615, 0.233, 0.998, 1.172
 469881613, 0.237, 0.998, 1.173
 470101627, 0.238, 0.9990001, 1.169
 470301609, 0.248, 1, 1.167
 470501625, 0.245, 1.001, 1.162
 470701639, 0.233, 1.002, 1.158
 470901630, 0.243, 1.003, 1.153
 471101664, 0.258, 1.004, 1.15
 471301611, 0.262, 1.004, 1.146
 471501589, 0.251, 1.005, 1.147
 471701606, 0.237, 1.003, 1.148
 471901612, 0.265, 1.002, 1.15
 472101620, 0.328, 1.003, 1.15
 472301611, 0.314, 1.006, 1.151
 472501597, 0.307, 1.008, 1.15
 472701689, 0.3, 1.01, 1.151
 472901628, 0.308, 1.011, 1.149
 473101618, 0.271, 1.011, 1.146
 473301623, 0.308, 1.012, 1.146
 473501609, 0.267, 1.011, 1.146
 473701632, 0.309, 1.012, 1.148
 473901628, 0.344, 1.014, 1.151
 474101635, 0.326, 1.016, 1.154
 474301626, 0.34, 1.018, 1.158
 474501626, 0.361, 1.021, 1.163
 474701651, 0.338, 1.022, 1.165
 474901588, 0.349, 1.023, 1.169
 475101592, 0.35, 1.023, 1.174
 475301596, 0.383, 1.025, 1.18
 475501604, 0.387, 1.027, 1.185
 475701633, 0.418, 1.029, 1.188
 475901591, 0.467, 1.033, 1.194
 476101636, 0.463, 1.038, 1.198
 476301616, 0.439, 1.043, 1.202
 476501760, 0.42, 1.047, 1.205
 476701722, 0.406, 1.049, 1.209
 476901924, 0.379, 1.052, 1.214
 477101735, 0.362, 1.053, 1.217
 477301741, 0.393, 1.054, 1.22
 477501719, 0.351, 1.055, 1.225
 477701735, 0.317, 1.056, 1.228
 477901725, 0.29, 1.058, 1.231
 478101741, 0.21, 1.059, 1.234
 478301741, 0.213, 1.059, 1.234
 478501709, 0.272, 1.06, 1.234
 478701721, 0.26, 1.061, 1.236
 478901712, 0.235, 1.062, 1.238
 479101716, 0.27, 1.064, 1.24
 479301723, 0.341, 1.065, 1.243
 479501721, 0.218, 1.067, 1.246
 479701744, 0.237, 1.069, 1.249
 479901725, 0.27, 1.071, 1.252
 480101774, 0.199, 1.072, 1.254
 480301725, 0.207, 1.073, 1.255
 480501721, 0.304, 1.075, 1.258
 480701717, 0.298, 1.077, 1.261
 480901722, 0.363, 1.078, 1.264
 481101947, 0.253, 1.08, 1.267
 481301708, 0.316, 1.082, 1.27
 481501721, 0.357, 1.083, 1.275
 481701728, 0.208, 1.085, 1.279
 481901765, 0.299, 1.087, 1.282
 482101716, 0.27, 1.089, 1.284
 482301720, 0.363, 1.09, 1.287
 482501716, 0.311, 1.092, 1.289
 482701736, 0.354, 1.094, 1.291
 482901716, 0.34, 1.095, 1.292
 483101740, 0.409, 1.097, 1.294
 483301720, 0.259, 1.099, 1.295
 483501729, 0.336, 1.1, 1.297
 483701780, 0.352, 1.1, 1.296
 483905987, 0.397, 1.1, 1.295
 484105870, 0.384, 1.102, 1.294
 484306155, 0.391, 1.104, 1.295
 484506217, 0.286, 1.103, 1.282
 484706276, 0.199, 1.102, 1.27
 484906224, 0.397, 1.1, 1.26
 485106277, 0.395, 1.099, 1.251
 485306259, 0.367, 1.098, 1.244
 485484681, 0.394, 1.098, 1.238
 485706432, 0.329, 1.098, 1.231
 485906243, 0.351, 1.101, 1.232
 486106281, 0.316, 1.103, 1.233
 486306248, 0.378, 1.106, 1.233
 486506233, 0.438, 1.108, 1.235
 486706282, 0.443, 1.111, 1.237
 486906251, 0.423, 1.114, 1.239
 487106295, 0.4, 1.117, 1.241
 487306233, 0.409, 1.118, 1.245
 487506425, 0.397, 1.119, 1.248
 487706287, 0.397, 1.12, 1.251
 487906245, 0.387, 1.121, 1.254
 488106284, 0.371, 1.12, 1.255
 488306248, 0.358, 1.121, 1.256
 488506467, 0.405, 1.121, 1.258
 488707496, 0.294, 1.121, 1.255
 488907524, 0.298, 1.121, 1.255
 489107507, 0.272, 1.12, 1.245
 489307554, 0.301, 1.119, 1.239
 489507506, 0.39, 1.12, 1.233
 489707526, 0.389, 1.121, 1.226
 489907471, 0.265, 1.121, 1.218
 490107536, 0.439, 1.123, 1.212
 490307532, 0.474, 1.125, 1.206
 490507462, 0.379, 1.127, 1.203
 490687480, 0.386, 1.129, 1.201
 490907468, 0.431, 1.131, 1.201
 491107518, 0.409, 1.133, 1.201
 491307496, 0.378, 1.134, 1.202
 491487605, 0.335, 1.135, 1.202
 491687493, 0.351, 1.135, 1.201
 491887482, 0.422, 1.136, 1.202
 492107493, 0.401, 1.137, 1.197
 492307467, 0.399, 1.137, 1.193
 492507448, 0.411, 1.138, 1.189
 492707507, 0.389, 1.139, 1.183
 492907482, 0.425, 1.139, 1.176
 493107686, 0.406, 1.138, 1.17
 493287614, 0.284, 1.139, 1.167
 493507469, 0.31, 1.138, 1.163
 493907512, 0.321, 1.137, 1.16
 494107476, 0.309, 1.135, 1.158
 494307496, 0.325, 1.132, 1.156
 494507441, 0.291, 1.129, 1.153
 494707558, 0.241, 1.126, 1.15
 494907627, 0.198, 1.124, 1.15
 495107488, 0.217, 1.121, 1.147
 495307484, 0.231, 1.118, 1.143
 495507470, 0.329, 1.114, 1.139
 495707489, 0.276, 1.112, 1.135
 495887456, 0.338, 1.11, 1.132
 496107480, 0.399, 1.109, 1.132
 496307479, 0.39, 1.109, 1.131
 496507460, 0.383, 1.108, 1.13
 496707646, 0.347, 1.105, 1.126
 496907486, 0.389, 1.105, 1.127
 497107478, 0.334, 1.098, 1.119
 497307528, 0.403, 1.098, 1.118
 497507468, 0.345, 1.098, 1.118
 497707469, 0.311, 1.097, 1.119
 497907443, 0.282, 1.094, 1.119
 498107569, 0.163, 1.09, 1.119
 498307467, 0.248, 1.088, 1.12
 498507676, 0.231, 1.089, 1.122
 498707504, 0.267, 1.09, 1.123
 498907479, 0.345, 1.091, 1.126
 499107493, 0.374, 1.092, 1.129
 499307485, 0.336, 1.093, 1.131
 499507465, 0.263, 1.094, 1.134
 499707494, 0.398, 1.096, 1.136
 499907482, 0.351, 1.098, 1.14
 500107659, 0.406, 1.099, 1.143
 500307516, 0.4, 1.1, 1.145
 500507477, 0.384, 1.099, 1.146
 500707493, 0.314, 1.099, 1.147
 500907472, 0.291, 1.1, 1.15
 501107576, 0.338, 1.099, 1.149
 501307498, 0.35, 1.096, 1.148
 501507539, 0.354, 1.093, 1.145
 501707504, 0.375, 1.091, 1.141
 501907506, 0.311, 1.09, 1.137
 502107654, 0.188, 1.09, 1.134
 502307461, 0.207, 1.091, 1.132
 502507467, 0.243, 1.09, 1.121
 502707479, 0.143, 1.086, 1.105
 502907455, 0.226, 1.086, 1.098
 503107548, 0.147, 1.086, 1.09
 503307469, 0.371, 1.086, 1.082
 503507439, 0.247, 1.085, 1.074
 503687476, 0.275, 1.084, 1.067
 503887637, 0.351, 1.083, 1.06
 504107497, 0.338, 1.083, 1.059
 504307637, 0.389, 1.082, 1.055
 504507466, 0.374, 1.081, 1.052
 504707454, 0.238, 1.08, 1.048
 504907490, 0.344, 1.08, 1.047
 505087470, 0.295, 1.078, 1.042
 505287477, 0.213, 1.077, 1.037
 505487493, 0.303, 1.076, 1.033
 505687511, 0.146, 1.074, 1.029
 505887611, 0.191, 1.073, 1.026
 506107527, 0.162, 1.071, 1.022
 506287477, 0.214, 1.07, 1.019
 506507446, 0.154, 1.069, 1.018
 506707478, 0.241, 1.065, 1.012
 506907477, 0.317, 1.062, 1.009
 507107502, 0.176, 1.06, 1.004
 507307506, 0.194, 1.057, 0.997
 507507629, 0.196, 1.053, 0.9910001
 507707502, 0.234, 1.05, 0.984
 507907444, 0.314, 1.047, 0.978
 508107469, 0.275, 1.039, 0.974
 508287447, 0.252, 1.033, 0.974
 508507652, 0.285, 1.027, 0.973
 508707443, 0.226, 1.021, 0.9710001
 508887449, 0.305, 1.016, 0.9710001
 509107540, 0.252, 1.011, 0.97
 509307490, 0.26, 1.005, 0.9670001
 509487620, 0.336, 1, 0.966
 509687485, 0.319, 0.9950001, 0.966
 509887508, 0.349, 0.9910001, 0.965
 510107466, 0.345, 0.987, 0.9630001
 510287515, 0.286, 0.9820001, 0.96
 510487465, 0.21, 0.978, 0.9580001
 510687551, 0.263, 0.975, 0.955
 510887454, 0.296, 0.9720001, 0.9540001
 511087526, 0.178, 0.9680001, 0.952
 511327961, 0.178, 1.365, 1.162
 511487475, 0.308, 1.35, 1.143
 511687530, 0.31, 1.335, 1.136
 511887484, 0.331, 1.321, 1.131
 512107487, 0.337, 1.308, 1.115
 512287642, 0.261, 1.296, 1.102
 512487488, 0.288, 1.285, 1.089
 512687503, 0.275, 1.272, 1.075
 512887469, 0.293, 1.26, 1.062
 513087637, 0.336, 1.249, 1.051
 513307478, 0.343, 1.239, 1.045
 513487464, 0.371, 1.228, 1.04
 513687588, 0.35, 1.218, 1.035
 513887494, 0.38, 1.21, 1.033
 514087535, 0.398, 1.203, 1.031
 514307452, 0.293, 1.196, 1.029
 514507520, 0.326, 1.185, 1.021
 514707678, 0.161, 1.176, 1.015
 514907453, 0.27, 1.171, 1.015
 515107462, 0.173, 1.165, 1.013
 515307458, 0.293, 1.159, 1.011
 515487487, 0.224, 1.153, 1.009
 515687524, 0.186, 1.146, 1.005
 515907442, 0.246, 1.138, 1.001
 516107498, 0.303, 1.131, 0.9990001
 516307473, 0.14, 1.125, 0.997
 516507634, 0.231, 1.12, 0.9950001
 516687513, 0.205, 1.113, 0.993
 516907663, 0.237, 1.108, 0.992
 517087489, 0.18, 1.098, 0.988
 517287474, 0.311, 1.088, 0.9850001
 517507470, 0.26, 1.079, 0.983
 517687494, 0.237, 1.071, 0.98
 517907488, 0.267, 1.063, 0.978
 518107501, 0.266, 1.056, 0.9760001
 518287476, 0.325, 1.05, 0.975
 518487619, 0.242, 1.044, 0.974
 518707465, 0.245, 1.037, 0.97
 518907487, 0.226, 1.032, 0.965
 519107463, 0.19, 1.029, 0.9620001
 519287488, 0.227, 1.027, 0.9580001
 519507463, 0.175, 1.025, 0.955
 519707487, 0.278, 1.024, 0.9530001
 519907475, 0.337, 1.022, 0.95
 520107657, 0.343, 1.02, 0.9480001
 520307482, 0.302, 1.019, 0.946
 520507465, 0.339, 1.016, 0.942
 520707505, 0.213, 1.012, 0.938
 520907464, 0.292, 1.011, 0.936
 521107671, 0.228, 1.007, 0.932
 521307467, 0.265, 1.003, 0.928
 521507445, 0.222, 1.003, 0.9260001
 521707537, 0.278, 1.003, 0.923
 521887464, 0.335, 1.004, 0.924
 522107546, 0.407, 1.005, 0.924
 522307476, 0.356, 1.005, 0.9250001
 522507542, 0.329, 1.006, 0.9250001
 522707504, 0.364, 1.006, 0.9260001
 522907472, 0.25, 1.006, 0.9260001
 523107493, 0.32, 1.005, 0.9250001
 523307517, 0.342, 1.004, 0.924
 523507477, 0.304, 1.004, 0.923
 523707626, 0.29, 1.003, 0.9220001
 523887498, 0.358, 1.003, 0.923
 524087494, 0.372, 1.002, 0.92
 524287477, 0.357, 1.001, 0.9170001
 524487487, 0.322, 1, 0.915
 524687504, 0.34, 0.9990001, 0.9120001
 524887637, 0.195, 0.998, 0.9110001
 525107458, 0.273, 0.997, 0.9080001
 525307646, 0.282, 0.9960001, 0.905
 525507626, 0.251, 0.9950001, 0.897
 525707466, 0.251, 0.994, 0.8890001
 525907446, 0.335, 0.994, 0.8840001
 526107497, 0.306, 0.993, 0.878
 526307482, 0.282, 0.992, 0.873
 526487778, 0.295, 0.992, 0.869
 526687865, 0.306, 0.9910001, 0.8650001
 526907442, 0.351, 0.9910001, 0.8610001
 527087877, 0.292, 0.9900001, 0.858
 527307627, 0.377, 0.989, 0.858
 527507474, 0.326, 0.988, 0.858
 527707491, 0.285, 0.987, 0.858
 527907490, 0.313, 0.9860001, 0.86
 528107500, 0.329, 0.9850001, 0.862
 528307468, 0.344, 0.984, 0.864
 528507485, 0.245, 0.983, 0.8660001
 528707481, 0.335, 0.984, 0.8650001
 528887731, 0.404, 0.987, 0.867
 529107642, 0.335, 0.9900001, 0.869
 529307523, 0.252, 0.994, 0.873
 529507634, 0.287, 0.997, 0.8790001
 529707769, 0.304, 0.9990001, 0.8800001
 529907757, 0.259, 1.001, 0.882
 530107780, 0.256, 0.9990001, 0.8790001
 530307772, 0.353, 0.9950001, 0.877
 530507763, 0.339, 0.9910001, 0.8750001
 530707777, 0.317, 0.9860001, 0.8750001
 530907753, 0.256, 0.9810001, 0.8750001
 531088371, 0.232, 0.9770001, 0.876
 531307749, 0.28, 0.975, 0.876
 531488160, 0.263, 0.974, 0.877
 531688177, 0.252, 0.974, 0.873
 531888158, 0.249, 0.9760001, 0.872
 532088184, 0.214, 0.979, 0.872
 532288158, 0.195, 0.98, 0.872
 532488201, 0.305, 0.9820001, 0.876
 532688179, 0.303, 0.983, 0.882
 532888292, 0.392, 0.9850001, 0.8880001
 533088218, 0.378, 0.987, 0.895
 533288408, 0.387, 0.989, 0.9020001
 533488161, 0.338, 0.9910001, 0.9080001
 533688176, 0.356, 0.992, 0.9120001
 533888196, 0.334, 0.993, 0.9160001
 534107840, 0.395, 0.994, 0.919
 534288170, 0.226, 0.9960001, 0.923
 534507777, 0.283, 0.998, 0.927
 534707784, 0.302, 0.9990001, 0.927
 534888196, 0.317, 0.9990001, 0.927
 535107727, 0.298, 0.9990001, 0.927
 535288159, 0.288, 0.998, 0.927
 535507773, 0.303, 0.997, 0.9260001
 535707740, 0.356, 0.9960001, 0.923
 535907752, 0.283, 0.9950001, 0.924
 536107871, 0.184, 0.993, 0.9220001
 536307776, 0.209, 0.9910001, 0.9210001
 536488328, 0.295, 0.9900001, 0.919
 536707764, 0.283, 0.988, 0.9170001
 536907718, 0.289, 0.9860001, 0.9170001
 537107774, 0.351, 0.9850001, 0.9170001
 537307747, 0.29, 0.983, 0.9160001
 537488452, 0.187, 0.9810001, 0.9160001
 537707751, 0.253, 0.98, 0.9160001
 537888205, 0.353, 0.978, 0.9170001
 538088189, 0.285, 0.9760001, 0.9170001
 538288297, 0.204, 0.973, 0.918
 538507729, 0.196, 0.969, 0.919
 538688177, 0.185, 0.966, 0.919
 538888160, 0.271, 0.9630001, 0.92
 539107755, 0.286, 0.961, 0.92
 539307753, 0.36, 0.9580001, 0.9210001
 539507770, 0.349, 0.956, 0.923
 539688182, 0.327, 0.9540001, 0.9250001
 539888210, 0.284, 0.952, 0.9260001
 540088324, 0.354, 0.951, 0.928
 540307751, 0.28, 0.95, 0.9300001
 540488193, 0.195, 0.9490001, 0.933
 540688197, 0.226, 0.946, 0.9350001
 540888151, 0.335, 0.942, 0.9390001
 541107766, 0.218, 0.941, 0.941
 541307751, 0.288, 0.9400001, 0.9450001
 541507754, 0.336, 0.9400001, 0.9490001
 541707773, 0.239, 0.9400001, 0.951
 541907715, 0.178, 0.9400001, 0.9540001
 542107989, 0.285, 0.9400001, 0.956
 542307744, 0.332, 0.9400001, 0.9590001
 542507740, 0.319, 0.9400001, 0.957
 542688186, 0.32, 0.9390001, 0.955
 542907727, 0.333, 0.9390001, 0.956
 543107847, 0.363, 0.9390001, 0.9590001
 543307761, 0.36, 0.9390001, 0.9620001
 543507950, 0.337, 0.9390001, 0.9670001
 543707870, 0.299, 0.941, 0.9720001
 543907716, 0.367, 0.942, 0.9760001
 544107718, 0.342, 0.943, 0.9810001
 544307727, 0.359, 0.943, 0.9860001
 544507724, 0.356, 0.9440001, 0.9900001
 544707740, 0.341, 0.942, 0.9950001
 544907759, 0.344, 0.9390001, 0.9990001
 545107766, 0.305, 0.937, 1.003
 545287845, 0.312, 0.934, 1.008
 545507720, 0.309, 0.9310001, 1.012
 545687782, 0.301, 0.929, 1.015
 545887990, 0.36, 0.928, 1.019
 546107775, 0.313, 0.928, 1.022
 546307947, 0.267, 0.928, 1.024
 546487842, 0.345, 0.928, 1.028
 546707741, 0.286, 0.927, 1.029
 546887779, 0.305, 0.927, 1.03
 547107776, 0.306, 0.927, 1.031
 547287956, 0.294, 0.927, 1.032
 547487775, 0.329, 0.928, 1.033
 547687775, 0.195, 0.928, 1.031
 547887842, 0.314, 0.929, 1.028
 548087781, 0.293, 0.9300001, 1.026
 548287759, 0.304, 0.9310001, 1.024
 548487806, 0.331, 0.932, 1.022
 548707773, 0.361, 0.933, 1.019
 548907760, 0.311, 0.934, 1.021
 549107779, 0.358, 0.933, 1.025
 549307758, 0.275, 0.932, 1.028
 549507756, 0.392, 0.9350001, 1.031
 549707760, 0.349, 0.937, 1.034
 549907747, 0.376, 0.9390001, 1.039
 550107780, 0.351, 0.942, 1.037
 550309338, 0.338, 0.946, 1.028
 550487764, 0.345, 0.9490001, 1.032
 550709476, 0.365, 0.951, 1.037
 550909323, 0.24, 0.9540001, 1.042
 551109418, 0.368, 0.956, 1.047
 551309327, 0.39, 0.957, 1.049
 551509331, 0.315, 0.957, 1.052
 551709344, 0.374, 0.9580001, 1.054
 551909324, 0.235, 0.9580001, 1.057
 552109381, 0.281, 0.9580001, 1.059
 552309318, 0.306, 0.9580001, 1.059
 552509448, 0.314, 0.9590001, 1.062
 552709362, 0.342, 0.9590001, 1.062
 552909332, 0.377, 0.9590001, 1.062
 553109312, 0.349, 0.9590001, 1.062
 553309314, 0.36, 0.9590001, 1.064
 553509307, 0.339, 0.9590001, 1.067
 553709314, 0.31, 0.96, 1.071
 553909315, 0.289, 0.96, 1.074
 554109378, 0.296, 0.961, 1.078
 554309325, 0.265, 0.961, 1.081
 554509431, 0.219, 0.961, 1.084
 554709565, 0.233, 0.96, 1.069
 554909329, 0.254, 0.9580001, 1.064
 555109376, 0.236, 0.957, 1.064
 555309317, 0.256, 0.956, 1.064
 555509310, 0.255, 0.9540001, 1.063
 555687845, 0.273, 0.9540001, 1.063
 555909338, 0.27, 0.9540001, 1.062
 556109371, 0.257, 0.9540001, 1.063
 556309441, 0.272, 0.955, 1.063
 556509331, 0.269, 0.955, 1.064
 556709322, 0.242, 0.956, 1.065
 556909332, 0.262, 0.9580001, 1.067
 557109366, 0.256, 0.9590001, 1.069
 557309336, 0.259, 0.96, 1.07
 557509307, 0.264, 0.961, 1.075
 557709442, 0.265, 0.9620001, 1.078
 557909309, 0.262, 0.9630001, 1.082
 558109534, 0.268, 0.9630001, 1.084
 558309292, 0.291, 0.964, 1.087
 558509315, 0.274, 0.965, 1.089
 558709331, 0.255, 0.964, 1.079
 558909593, 0.262, 0.9630001, 1.068
 559087764, 0.243, 0.96, 1.065
 559287765, 0.241, 0.9590001, 1.063
 559509315, 0.262, 0.9580001, 1.068
 559687778, 0.253, 0.9580001, 1.071
 559909463, 0.281, 0.9580001, 1.073
 560087983, 0.285, 0.96, 1.076
 560287754, 0.295, 0.961, 1.079
 560487757, 0.285, 0.96, 1.082
 560687839, 0.288, 0.961, 1.086
 560887772, 0.283, 0.9620001, 1.089
 561087846, 0.282, 0.9620001, 1.095
 561287765, 0.304, 0.965, 1.102
 561487768, 0.306, 0.9680001, 1.109
 561687806, 0.298, 0.9720001, 1.111
 561887845, 0.307, 0.9760001, 1.115
 562087772, 0.315, 0.9810001, 1.119
 562287756, 0.307, 0.9850001, 1.122
 562487745, 0.325, 0.989, 1.126
 562687997, 0.345, 0.994, 1.134
 562887767, 0.338, 0.9990001, 1.143
 563109637, 0.3, 1.002, 1.151
 563287768, 0.304, 1.005, 1.16
 563487745, 0.319, 1.009, 1.164
 563688013, 0.271, 1.003, 1.165
 563887782, 0.26, 1.001, 1.167
 564109371, 0.274, 1.002, 1.172
 564287765, 0.327, 1.005, 1.178
 564509289, 0.304, 1.009, 1.179
 564709312, 0.312, 1.011, 1.183
 564887735, 0.311, 1.013, 1.185
 565087779, 0.271, 1.015, 1.189
 565287773, 0.259, 1.015, 1.19
 565487996, 0.273, 1.016, 1.191
 565687765, 0.248, 1.015, 1.187
 565887772, 0.237, 1.007, 1.188
 566087768, 0.256, 1.003, 1.191
 566287767, 0.278, 1.002, 1.194
 566487764, 0.259, 1.001, 1.197
 566687842, 0.229, 0.9990001, 1.196
 566887973, 0.266, 0.998, 1.194
 567087841, 0.261, 0.998, 1.19
 567287695, 0.259, 0.998, 1.189
 567487618, 0.263, 0.998, 1.186
 567687654, 0.268, 0.9990001, 1.184
 567887664, 0.28, 1, 1.183
 568087671, 0.301, 1.001, 1.179
 568287653, 0.304, 1.005, 1.177
 568487640, 0.28, 1.009, 1.172
 568687666, 0.269, 1.01, 1.169
 568887644, 0.284, 1.013, 1.168
 569087677, 0.275, 1.015, 1.169
 569287619, 0.275, 1.019, 1.169
 569487640, 0.276, 1.02, 1.168
 569687644, 0.26, 1.02, 1.165
 569908118, 0.29, 1.021, 1.162
 570108126, 0.259, 1.022, 1.159
 570287626, 0.307, 1.022, 1.157
 570487657, 0.38, 1.025, 1.155
 570687649, 0.244, 1.025, 1.152
 570887692, 0.349, 1.027, 1.153
 571087697, 0.291, 1.03, 1.154
 571287652, 0.316, 1.034, 1.157
 571487649, 0.305, 1.038, 1.164
 571687679, 0.34, 1.042, 1.169
 571887632, 0.34, 1.046, 1.173
 572087666, 0.292, 1.048, 1.174
 572287659, 0.366, 1.051, 1.18
 572487667, 0.339, 1.054, 1.184
 572687699, 0.369, 1.058, 1.188
 572887645, 0.36, 1.061, 1.195
 573108182, 0.34, 1.063, 1.199
 573287632, 0.343, 1.066, 1.2
 573487640, 0.375, 1.067, 1.195
 573687679, 0.335, 1.068, 1.192
 573887642, 0.332, 1.07, 1.189
 574087661, 0.328, 1.072, 1.191
 574287692, 0.343, 1.075, 1.195
 574487661, 0.368, 1.078, 1.198
 574687654, 0.36, 1.08, 1.204
 574887637, 0.364, 1.083, 1.211
 575087649, 0.325, 1.084, 1.215
 575287690, 0.349, 1.085, 1.221
 575487660, 0.336, 1.087, 1.227
 575687667, 0.332, 1.087, 1.225
 575887638, 0.343, 1.087, 1.226
 576087664, 0.339, 1.087, 1.228
 576287695, 0.364, 1.088, 1.229
 576487630, 0.33, 1.089, 1.234
 576687644, 0.322, 1.089, 1.237
 576887622, 0.318, 1.089, 1.234
 577087667, 0.312, 1.088, 1.225
 577287657, 0.379, 1.09, 1.224
 577487653, 0.346, 1.092, 1.221
 577687663, 0.315, 1.093, 1.219
 577887650, 0.374, 1.095, 1.222
 578087692, 0.324, 1.098, 1.224
 578287655, 0.299, 1.1, 1.227
 578487646, 0.275, 1.098, 1.224
 578687636, 0.304, 1.097, 1.226
 578887663, 0.262, 1.091, 1.226
 579087650, 0.321, 1.089, 1.23
 579287657, 0.337, 1.091, 1.236
 579487698, 0.338, 1.093, 1.238
 579687674, 0.325, 1.093, 1.234
 579887670, 0.318, 1.093, 1.233
 580087654, 0.308, 1.093, 1.228
 580287645, 0.303, 1.093, 1.228
 580487658, 0.304, 1.091, 1.225
 580687651, 0.268, 1.092, 1.23
 580887690, 0.445, 1.094, 1.238
 581087657, 0.482, 1.093, 1.246
 581287666, 0.3, 1.085, 1.255
 581487664, 0.461, 1.085, 1.261
 581687696, 0.538, 1.094, 1.278
 581887630, 0.426, 1.111, 1.293
 582087662, 0.42, 1.125, 1.307
 582287640, 0.574, 1.137, 1.327
 582487667, 0.493, 1.152, 1.347
 582687679, 0.52, 1.167, 1.367
 582887656, 0.5840001, 1.183, 1.394
 583087660, 0.625, 1.204, 1.421
 583287672, 0.642, 1.221, 1.448
 583487690, 0.507, 1.238, 1.475
 583687725, 0.508, 1.253, 1.501
 583887645, 0.505, 1.268, 1.527
 584087662, 0.48, 1.282, 1.55
 584287656, 0.597, 1.294, 1.574
 584487647, 0.485, 1.305, 1.597
 584687672, 0.431, 1.316, 1.611
 584887666, 0.452, 1.326, 1.628
 585108276, 0.471, 1.335, 1.64
 585308113, 0.468, 1.343, 1.655
 585487648, 0.491, 1.351, 1.67
 585687658, 0.403, 1.359, 1.685
 585887653, 0.5, 1.367, 1.7
 586108140, 0.586, 1.375, 1.714
 586308015, 0.522, 1.381, 1.728
 586487652, 0.554, 1.388, 1.742
 586687681, 0.432, 1.395, 1.755
 586887652, 0.379, 1.402, 1.772
 587108137, 0.427, 1.41, 1.785
 587308012, 0.425, 1.416, 1.799
 587508103, 0.6160001, 1.423, 1.812
 587708142, 0.471, 1.431, 1.827
 587887693, 0.47, 1.439, 1.843
 588108124, 0.379, 1.447, 1.859
 588287685, 0.643, 1.455, 1.875
 588487630, 0.52, 1.464, 1.891
 588687658, 0.638, 1.472, 1.907
 588887709, 0.558, 1.479, 1.922
 589087643, 0.6300001, 1.487, 1.936
 589308106, 0.558, 1.494, 1.949
 589487644, 0.448, 1.5, 1.963
 589708109, 0.569, 1.506, 1.973
 589908155, 0.623, 1.511, 1.983
 590087691, 0.491, 1.516, 1.994
 590287657, 0.489, 1.524, 2.009
 590487682, 0.446, 1.532, 2.019
 590687715, 0.565, 1.536, 2.029
 590887659, 0.456, 1.541, 2.038
 591087664, 0.564, 1.546, 2.047
 591287662, 0.446, 1.55, 2.056
 591487663, 0.431, 1.555, 2.065
 591687674, 0.483, 1.559, 2.074
 591887655, 0.466, 1.564, 2.082
 592087667, 0.522, 1.568, 2.091
 592287674, 0.448, 1.572, 2.099
 592487686, 0.581, 1.576, 2.107
 592687647, 0.531, 1.58, 2.115
 592887633, 0.598, 1.584, 2.124
 593087676, 0.395, 1.587, 2.131
 593308110, 0.425, 1.591, 2.139
 593508113, 0.577, 1.595, 2.147
 593687674, 0.494, 1.598, 2.154
 593887660, 0.6160001, 1.605, 2.17
 594087679, 0.521, 1.613, 2.184
 594287697, 0.481, 1.622, 2.2
 594487628, 0.691, 1.631, 2.215
 594687651, 0.608, 1.638, 2.227
 594887642, 0.578, 1.645, 2.239
 595107688, 0.6990001, 1.651, 2.251
 595307656, 0.394, 1.657, 2.262
 595487643, 0.505, 1.662, 2.272
 595687717, 0.424, 1.666, 2.283
 595887675, 0.623, 1.671, 2.293
 596087687, 0.437, 1.665, 2.281
 596307660, 0.471, 1.661, 2.285
 596487670, 0.427, 1.661, 2.289
 596687680, 0.296, 1.656, 2.281
 596907657, 0.571, 1.657, 2.285
 597107683, 0.405, 1.654, 2.28
 597287657, 0.546, 1.648, 2.273
 597507672, 0.469, 1.651, 2.278
 597687672, 0.512, 1.658, 2.289
 597887670, 0.553, 1.665, 2.297
 598107674, 0.622, 1.67, 2.3
 598307673, 0.749, 1.677, 2.306
 598507682, 0.74, 1.684, 2.314
 598687653, 0.791, 1.694, 2.326
 598887675, 0.622, 1.709, 2.344
 599107703, 0.64, 1.728, 2.364
 599307689, 0.515, 1.745, 2.384
 599507694, 0.578, 1.761, 2.404
 599707674, 0.493, 1.773, 2.424
 599907656, 0.476, 1.776, 2.423
 600107653, 0.445, 1.775, 2.427
 600307637, 0.488, 1.766, 2.422
 600487662, 0.403, 1.744, 2.375
 600707654, 0.392, 1.718, 2.323
 600907698, 0.43, 1.7, 2.316
 601087643, 0.476, 1.678, 2.319
 601287647, 0.473, 1.65, 2.318
 601487680, 0.415, 1.637, 2.301
 601687628, 0.392, 1.625, 2.302
 601907659, 0.453, 1.608, 2.277
 602107651, 0.364, 1.567, 2.234
 602287647, 0.306, 1.532, 2.206
 602487656, 0.456, 1.527, 2.192
 602707648, 0.457, 1.522, 2.176
 602907652, 0.388, 1.508, 2.152
 603107680, 0.374, 1.488, 2.136
 603307639, 0.335, 1.469, 2.132
 603507646, 0.355, 1.45, 2.112
 603687650, 0.436, 1.443, 2.102
 603887620, 0.425, 1.438, 2.094
 604107684, 0.454, 1.432, 2.078
 604307634, 0.409, 1.422, 2.064
 604487640, 0.442, 1.414, 2.051
 604687692, 0.449, 1.405, 2.02
 604907693, 0.514, 1.401, 1.992
 605087662, 0.589, 1.4, 1.965
 605287632, 0.424, 1.397, 1.959
 605487598, 0.422, 1.389, 1.95
 605687641, 0.369, 1.377, 1.936
 605887641, 0.495, 1.368, 1.92
 606107657, 0.484, 1.362, 1.905
 606287638, 0.391, 1.353, 1.894
 606487635, 0.384, 1.345, 1.885
 606687653, 0.391, 1.336, 1.869
 606887654, 0.325, 1.314, 1.856
 607107658, 0.382, 1.302, 1.833
 607287636, 0.476, 1.301, 1.833
 607487600, 0.456, 1.3, 1.831
 607687632, 0.344, 1.293, 1.818
 607887627, 0.535, 1.291, 1.808
 608087638, 0.327, 1.278, 1.805
 608287656, 0.525, 1.276, 1.803
 608487638, 0.466, 1.276, 1.803
 608687678, 0.455, 1.274, 1.802
 608887645, 0.48, 1.271, 1.793
 609087643, 0.376, 1.26, 1.787
 609287604, 0.346, 1.247, 1.782
 609487613, 0.479, 1.244, 1.774
 609707656, 0.419, 1.24, 1.775
 609887654, 0.289, 1.223, 1.777
 610087647, 0.332, 1.205, 1.771
 610287632, 0.38, 1.195, 1.766
 610487665, 0.337, 1.186, 1.76
 610687631, 0.413, 1.183, 1.748
 610887608, 0.348, 1.174, 1.739
 611107647, 0.324, 1.164, 1.725
 611287637, 0.369, 1.149, 1.714
 611487621, 0.362, 1.14, 1.704
 611687649, 0.319, 1.13, 1.688
 611887623, 0.451, 1.128, 1.678
 612087667, 0.3, 1.114, 1.642
 612287654, 0.303, 1.1, 1.629
 612487641, 0.283, 1.084, 1.609
 612687627, 0.29, 1.07, 1.594
 612887601, 0.304, 1.059, 1.581
 613087678, 0.412, 1.053, 1.556
 613287641, 0.357, 1.05, 1.539
 613487606, 0.372, 1.045, 1.527
 613687643, 0.343, 1.037, 1.517
 613887646, 0.478, 1.039, 1.513
 614087684, 0.44, 1.048, 1.515
 614287601, 0.525, 1.055, 1.518
 614487648, 0.493, 1.059, 1.518
 614687627, 0.487, 1.061, 1.517
 614887607, 0.7090001, 1.071, 1.522
 615087661, 0.476, 1.079, 1.523
 615287637, 0.484, 1.086, 1.525
 615487638, 0.511, 1.094, 1.53
 615687649, 0.418, 1.099, 1.53
 615887659, 0.395, 1.104, 1.535
 616087623, 0.333, 1.095, 1.539
 616287626, 0.323, 1.077, 1.54
 616487663, 0.403, 1.068, 1.532
 616687631, 0.448, 1.07, 1.524
 616887627, 0.387, 1.07, 1.509
 617087669, 0.286, 1.07, 1.495
 617287679, 0.272, 1.07, 1.481
 617487649, 0.462, 1.074, 1.473
 617687654, 0.462, 1.077, 1.462
 617887604, 0.473, 1.082, 1.453
 618087655, 0.355, 1.088, 1.443
 618287657, 0.483, 1.098, 1.45
 618487634, 0.669, 1.114, 1.46
 618687688, 0.368, 1.135, 1.472
 618887630, 0.423, 1.148, 1.48
 619107650, 0.541, 1.157, 1.49
 619287632, 0.56, 1.164, 1.504
 619507638, 0.53, 1.169, 1.509
 619707644, 0.499, 1.173, 1.513
 619887622, 0.545, 1.179, 1.518
 620107657, 0.515, 1.188, 1.529
 620307651, 0.631, 1.197, 1.541
 620487634, 0.48, 1.207, 1.552
 620687627, 0.442, 1.216, 1.557
 620887650, 0.473, 1.223, 1.561
 621087656, 0.448, 1.23, 1.564
 621287653, 0.516, 1.237, 1.569
 621487659, 0.524, 1.245, 1.573
 621687637, 0.495, 1.252, 1.577
 621907684, 0.518, 1.26, 1.582
 622087632, 0.374, 1.268, 1.586
 622287655, 0.5420001, 1.277, 1.59
 622487634, 0.6070001, 1.285, 1.596
 622687645, 0.477, 1.292, 1.601
 622887668, 0.532, 1.3, 1.608
 623087679, 0.423, 1.299, 1.6
 623287625, 0.435, 1.298, 1.575
 623507641, 0.416, 1.296, 1.55
 623687622, 0.305, 1.292, 1.525
 623907644, 0.464, 1.287, 1.499
 624107649, 0.378, 1.28, 1.478
 624307651, 0.321, 1.272, 1.458
 624507657, 0.25, 1.264, 1.44
 624707724, 0.335, 1.256, 1.424
 624907650, 0.281, 1.251, 1.413
 625107663, 0.328, 1.242, 1.397
 625287623, 0.345, 1.234, 1.383
 625487649, 0.32, 1.227, 1.37
 625687688, 0.333, 1.22, 1.358
 625887622, 0.437, 1.22, 1.35
 626087638, 0.381, 1.22, 1.342
 626287648, 0.453, 1.223, 1.334
 626487622, 0.544, 1.23, 1.331
 626687697, 0.481, 1.239, 1.326
