TimeUS,CAN,CAE,CAD,CAe,NAN,NAE,NAD,NAe,m10,m00,Gye
 93157127, -0.1155579, 0.006712082, 0.00374792, 0.07621406, -0.04145871, 0.001965096, 0.0021052, 0.03644739, -0.9940743, -0.06476118, 59.66206
 93357113, -0.1154012, 0.006412945, 0.006658448, 0.07410738, -0.04156524, 0.004084889, 0.002071238, 0.03719539, -0.9940957, -0.06440446, 125.4331
 93557113, -0.1170453, 0.008159249, 0.005425256, 0.07485482, -0.04172752, 0.001247287, 0.003007503, 0.03719464, -0.9941291, -0.06391829, 126.6982
 93737099, -0.1073396, 0.005114999, 0.006146803, 0.07113884, -0.03345548, 0.001406455, 0.002741041, 0.03347551, -0.9941456, -0.06363735, 120.4086
 93937112, -0.1061111, 0.006080256, 0.006012794, 0.07113643, -0.03749756, 0.002777551, -0.0008156192, 0.03719502, -0.9941664, -0.06330775, 120.4045
 94137117, -0.1107661, 0.006622441, 0.003271604, 0.07485649, -0.03654253, 0.001213781, 0.004380697, 0.03719502, -0.9941946, -0.06284232, 126.7011
 94337116, -0.1088097, 0.005472846, 0.007990747, 0.07485481, -0.03798408, 0.002852758, 0.001070642, 0.03719501, -0.9942237, -0.06240767, 126.6982
 94537108, -0.1122147, 0.007995702, 0.003694333, 0.07485538, -0.03772235, 0.003094554, 0.0006400767, 0.03719502, -0.9942443, -0.06208826, 126.6992
 94757154, -0.1184241, 0.007113774, 0.003861482, 0.07857543, -0.04578632, 0.00264851, 0.001829669, 0.04091451, -0.99427, -0.06166656, 132.9957
 94937177, -0.1112244, 0.006603693, 0.004969905, 0.07485685, -0.03434344, 0.001840942, 0.001741452, 0.03347644, -0.9942908, -0.0613563, 126.7017
 95157143, -0.1154295, 0.005054557, 0.004989316, 0.0748576, -0.04623292, 0.0007703976, 0.002748048, 0.04091359, -0.9943129, -0.06097342, 126.7029
 95357107, -0.119759, 0.005473141, 0.005469994, 0.07857338, -0.04378148, 0.00356387, -0.0001834705, 0.03719632, -0.9943497, -0.06048639, 132.9922
 95557135, -0.1273506, 0.01742196, 0.001440297, 0.0748563, -0.04994678, 0.03235015, 0.0008755706, 0.03719502, -0.9943638, -0.06039535, 126.7008
 95757111, -0.1281963, 0.03964301, 0.003546968, 0.074855, -0.05177385, 0.006561702, 0.001893221, 0.03719575, -0.994396, -0.05986135, 126.6986
 95957155, -0.1118013, 0.005757318, 0.003512569, 0.07485499, -0.04627711, -0.01571082, -0.001500026, 0.03719688, -0.9944202, -0.0592842, 126.6986
 96157125, -0.1523727, -0.06345362, -0.2186425, 0.07485425, -0.0832417, -0.1010617, -0.4213106, 0.03719372, -0.9947503, -0.06590081, 126.6973
 96357120, -0.3024355, -0.2343905, -1.45944, 0.07485239, -0.1349261, -0.01254578, -0.5460379, 0.03719372, -0.9980873, -0.06031946, 126.6941
 96537137, -0.4252408, 0.0762427, -1.33522, 0.07113492, -0.174646, 0.05335481, -0.371585, 0.03347551, -0.9974624, -0.05239987, 120.402
 96757125, -0.5453221, 0.1240159, -1.040702, 0.074855, -0.1675428, -0.02674905, -0.2631905, 0.04091452, -0.9971967, -0.06048233, 126.6986
 96937132, -0.4244665, -0.1661735, -0.5431904, 0.07485631, -0.1662645, 0.02326872, -0.2452695, 0.03347532, -0.987004, -0.07962499, 126.7008
 97157127, -0.3866701, -0.2938331, -0.4070594, 0.07485481, -0.1769859, -0.1534773, -0.1765753, 0.04091471, -0.9829917, -0.07964444, 126.6982
 97357120, -0.2576088, -0.4149671, 0.1189263, 0.07857524, -0.002537881, -0.1869782, 0.4486285, 0.03719502, -0.9794264, -0.06563252, 132.9954
 97557120, -0.01865272, -0.3632394, 1.224371, 0.07485592, 0.05211016, -0.1132354, 0.4964315, 0.03719502, -0.9796039, -0.05859894, 126.7001
 97757125, 0.06524523, -0.2622067, 1.388127, 0.074855, 0.003658624, -0.06410694, 0.3853484, 0.03719502, -0.9840776, -0.05229831, 126.6986
 97957268, 0.0613401, -0.2325781, 1.011624, 0.07485408, 0.03402076, -0.1395197, 0.3585998, 0.03719502, -0.9842306, -0.05105402, 126.697
 98157248, 0.08805326, -0.2760764, 0.9066759, 0.0748548, 0.01863015, -0.04491575, 0.2811049, 0.03719502, -0.9871073, -0.05443226, 126.6982
 98357162, 0.04803842, -0.1875858, 0.651475, 0.07485499, 0.02412637, -0.09534233, 0.06947202, 0.03719502, -0.98642, -0.08900354, 126.6986
 98557112, 0.03031035, -0.2210703, 0.1930754, 0.07485497, 0.05771709, -0.1018571, 0.1608201, 0.03719612, -0.9870592, -0.1048708, 126.6986
 98757136, 0.02386617, -0.1600218, 0.08213177, 0.07485571, -0.0262527, 0.000880078, -0.2691252, 0.03719371, -0.9907521, -0.1156602, 126.6998
 98957140, -0.0927884, 0.03333258, -0.9330945, 0.07485368, -0.1122923, 0.07455975, -0.3442172, 0.03719594, -0.9938134, -0.108269, 126.6963
 99157135, -0.1844691, 0.1942345, -0.8649524, 0.07485741, -0.004579529, 0.02651506, -0.2411932, 0.03719427, -0.9944001, -0.1054065, 126.7026
 99357119, -0.1500216, 0.2261135, -0.6358284, 0.07485424, -0.1394088, 0.1990769, -0.2052898, 0.03719519, -0.9923473, -0.1169794, 126.6973
 99537117, -0.3787719, 0.4440014, -0.3589509, 0.07113733, -0.1287807, 0.05711506, 0.002004917, 0.03347569, -0.9888237, -0.133004, 120.4061
 99757146, -0.5483716, 0.4251645, -0.10336, 0.07485501, -0.2508658, 0.2331876, -0.08015098, 0.04091414, -0.9893245, -0.124955, 126.6986
 99957156, -0.6419106, 0.5072332, -0.1523263, 0.0785743, -0.2526462, 0.2116315, -0.08108099, 0.03719539, -0.9935199, -0.1065298, 132.9938
 100157176, -0.5069747, 0.3733359, -0.136192, 0.07485668, -0.05995617, -0.01898908, 0.04854032, 0.03719464, -0.9952241, -0.09740919, 126.7014
 100357121, -0.1172675, 0.08183695, 0.5693388, 0.07485665, 0.0749502, 0.04904116, 0.3495462, 0.03719502, -0.995476, -0.09452735, 126.7014
 100557115, 0.08298801, 0.1093686, 1.079509, 0.07485501, 0.009110389, 0.05819675, 0.4004813, 0.03719539, -0.9927555, -0.116833, 126.6986
 100757137, 0.02446945, 0.1015992, 1.076679, 0.07485668, -0.02572755, -0.01967614, 0.3691848, 0.03719464, -0.9881072, -0.1433473, 126.7014
 100957172, -0.02108568, 0.01078489, 0.6268796, 0.07485537, -0.02514563, 0.01853653, 0.1327504, 0.03719576, -0.9843031, -0.1702224, 126.6992
 101157119, -0.05046012, 0.08071332, 0.1310635, 0.07485537, -0.01118291, 0.07121153, -0.1480425, 0.0371952, -0.9770619, -0.2126452, 126.6992
 101357131, 0.02328413, 0.2211086, -0.3962765, 0.07485463, 0.02827423, 0.08087481, -0.04462263, 0.03719408, -0.9544427, -0.2970412, 126.6979
 101557142, 0.05688656, 0.2887367, -0.1650324, 0.07485424, -0.0380182, 0.1269758, -0.04138916, 0.0371952, -0.9487512, -0.3119909, 126.6973
 101757136, 0.04045635, 0.3606591, -0.1556959, 0.07485496, 0.05372437, 0.124124, -0.01542907, 0.03719502, -0.942742, -0.3277565, 126.6986
 101957174, 0.06670338, 0.3553365, -0.07593958, 0.07485517, 0.05060555, 0.142874, -0.09705656, 0.0371954, -0.943207, -0.3281584, 126.6989
 102137167, 0.00812737, 0.3035401, -0.1740452, 0.07113513, -0.02870804, 0.06197493, -0.07177956, 0.03347477, -0.9435244, -0.3311251, 120.4023
 102357253, -0.1819503, 0.1859954, -0.1464308, 0.07485442, -0.1235819, 0.03617837, -0.001076282, 0.04091582, -0.9441178, -0.3285986, 126.6976
 102557134, -0.3551398, 0.1333458, -0.03968715, 0.07857487, -0.1310129, 0.08600657, -0.06043838, 0.03719465, -0.9444381, -0.3245037, 132.9948
 102757128, -0.4019361, 0.1184947, -0.1119267, 0.07485387, -0.1363078, -0.03531511, 0.05323961, 0.03719427, -0.9415741, -0.3263272, 126.6967
 102957131, -0.3922861, -0.04475494, -0.01445373, 0.07485425, -0.1652326, 0.0131863, -0.05169696, 0.03719521, -0.9388382, -0.3310219, 126.6973
 103157113, -0.3823538, -0.01072848, -0.1008859, 0.074855, -0.09104285, -0.01611487, -0.05195788, 0.03719483, -0.9385118, -0.3343075, 126.6986
 103357147, -0.2419714, -0.06710751, -0.08906043, 0.0748548, -0.03968938, -0.02870861, -0.0579211, 0.03719576, -0.9329492, -0.3415619, 126.6982
 103557126, -0.09206323, -0.143901, -0.12871, 0.07485518, -0.04403575, -0.07023871, 0.007772322, 0.03719613, -0.9304379, -0.3487463, 126.6989
 103757159, -0.01256985, -0.1185014, 0.2293928, 0.07485407, 0.04283704, -0.001718774, 0.3995651, 0.03719428, -0.9334197, -0.3546188, 126.697
 103957148, 0.1019204, 0.03050061, 1.161466, 0.07485386, 0.0264952, 0.06696352, 0.3571235, 0.03719446, -0.9319405, -0.3611443, 126.6967
 104157135, 0.05687871, 0.09011939, 0.9396794, 0.07485425, 0.03434568, -0.001511922, 0.226814, 0.03719446, -0.9290252, -0.3667481, 126.6973
 104357152, 0.04311778, 0.04057478, 0.3546345, 0.07485422, 0.05394862, 0.01858476, 0.04536117, 0.0371952, -0.929543, -0.3680292, 126.6973
 104557109, 0.06512371, 0.111916, 0.1066087, 0.07485516, 0.01634928, 0.1408808, -0.09369417, 0.03719502, -0.9280321, -0.3719392, 126.6989
 104757123, 0.04502944, 0.2938656, -0.01757488, 0.07485517, 0.009324344, 0.1172154, 0.07067652, 0.03719483, -0.9272718, -0.3715606, 126.6989
 104957134, 0.0229924, 0.264373, 0.03959239, 0.07485481, -0.001037687, 0.08077596, -0.03757866, 0.03719557, -0.9273259, -0.3738523, 126.6982
 105157149, 0.008969226, 0.2083846, -0.5366936, 0.07485498, 0.01782659, 0.0335458, -0.2831058, 0.03719539, -0.9267209, -0.3757276, 126.6986
 105357150, 0.04463183, 0.09272117, -0.8291244, 0.07485443, 0.01502484, 0.03854788, -0.3454084, 0.03719409, -0.9277925, -0.37075, 126.6976
 105557178, 0.04996429, -0.04888552, -0.9055536, 0.07485406, 0.02439363, -0.08515041, -0.3134198, 0.03719558, -0.9268248, -0.3644955, 126.697
 105757114, 0.05665606, -0.2239778, -0.8370922, 0.07485521, 0.01811876, -0.06661924, -0.2898434, 0.03719464, -0.9286504, -0.36287, 126.6989
 105957143, 0.03500981, -0.2203386, -0.7519832, 0.07485759, -0.003538079, -0.10126, -0.2679443, 0.03719502, -0.9260218, -0.3629987, 126.7029
 106157170, -0.03811698, -0.2879492, -0.6619933, 0.07485498, -0.03862971, -0.09891613, -0.1882949, 0.03719502, -0.9240506, -0.3619894, 126.6986
 106357312, -0.1167814, -0.2825573, -0.4200066, 0.07485498, -0.03470831, -0.111093, -0.07960433, 0.03719483, -0.923789, -0.3582405, 126.6986
 106557300, -0.132947, -0.26225, -0.1315714, 0.0748561, -0.07744829, -0.05921106, -0.007806881, 0.0371952, -0.9271188, -0.3532012, 126.7004
 106757158, -0.1596912, -0.1349362, 0.1734464, 0.07485518, -0.05141919, -0.03636748, 0.138551, 0.03719502, -0.9309958, -0.3503183, 126.6989
 106957192, -0.1115729, -0.05731338, 0.528339, 0.07485573, -0.03339324, -6.452244E-05, 0.2752651, 0.03719502, -0.9328018, -0.3506918, 126.6998
 107157158, -0.06337783, 0.005633389, 0.8153572, 0.07485481, -0.01964568, -0.02174964, 0.2869416, 0.03719483, -0.9336012, -0.3509472, 126.6982
 107357324, -0.04177166, 0.00895098, 0.6791855, 0.07485481, -0.01874803, 0.0448553, 0.2234648, 0.03719501, -0.9351608, -0.350147, 126.6982
 107557181, -0.02844464, 0.104215, 0.4932158, 0.07485498, -0.009609624, 0.04212505, 0.139496, 0.03719502, -0.9358813, -0.3507853, 126.6986
 107757175, -0.01567206, 0.140729, 0.3377479, 0.07485537, 0.03032006, -0.01913412, 0.1479058, 0.03719502, -0.9351195, -0.3540348, 126.6992
 107957195, 0.03522307, 0.1260265, 0.2484749, 0.07485498, -0.02924517, 0.1877865, -0.013711, 0.03719501, -0.9331378, -0.3586848, 126.6986
 108157172, -0.01571538, 0.3838746, 0.08194136, 0.07485537, -0.02620467, 0.101216, 0.06473058, 0.03719483, -0.9296185, -0.3655387, 126.6992
 108357171, -0.01220312, 0.3512898, 0.1209595, 0.074855, 0.05200438, 0.06943747, 0.09764659, 0.03719502, -0.9283382, -0.3668307, 126.6986
 108557170, 0.06268295, 0.3253811, 0.1280753, 0.07485665, 0.02161712, 0.2274677, -0.06299752, 0.0371952, -0.9264167, -0.3698998, 126.7014
 108757180, 0.05026835, 0.4388106, -0.03831019, 0.07485518, 0.01136977, 0.04293715, 0.0804548, 0.03719669, -0.9277682, -0.3704906, 126.6989
 108957184, 0.05129987, 0.2111425, 0.09240157, 0.07485497, 0.03165071, 0.08484311, 0.02971461, 0.03719335, -0.9287636, -0.3700747, 126.6986
 109157307, 0.05776104, 0.1905268, 0.111243, 0.07485371, 0.01782922, 0.1086025, -0.0129447, 0.03719502, -0.9284528, -0.3714286, 126.6963
 109357178, 0.01339412, 0.1739578, 0.02320564, 0.07485499, -0.003848303, -0.06531804, 0.1460897, 0.03719502, -0.928266, -0.370949, 126.6986
 109557175, -0.04150666, -0.01821375, 0.1923223, 0.07485536, -0.006367422, 0.03569373, 0.02853177, 0.03719613, -0.9288345, -0.3688534, 126.6992
 109757157, -0.07874579, 0.05689928, 0.07951006, 0.07485498, -0.06506, 0.1060331, -0.09087025, 0.0371939, -0.9291931, -0.3674339, 126.6986
 109957183, -0.1575553, 0.1154239, -0.03635918, 0.07485443, -0.05164783, -0.08353024, 0.09645642, 0.03719613, -0.9292483, -0.3654398, 126.6976
 110157177, -0.1536045, -0.06179689, 0.1130823, 0.07485536, -0.01935954, -0.02200424, 0.05090952, 0.0371939, -0.929163, -0.3655227, 126.6992
 110357177, -0.1229671, -0.01706173, 0.06455287, 0.07485443, -0.06502827, 0.1070151, -0.1155192, 0.03719502, -0.9297578, -0.3655615, 126.6976
 110557305, -0.1611904, 0.1118801, -0.1002134, 0.07485554, -0.08216719, 0.006069342, -0.01287937, 0.0371952, -0.9287956, -0.367737, 126.6995
 110757307, -0.1840532, 0.03681112, -0.01292079, 0.07485499, -0.04525612, -0.07809612, 0.09537061, 0.03719484, -0.9292705, -0.3665302, 126.6986
 110957321, -0.1543527, -0.02871253, 0.05944075, 0.07485481, -0.05154131, 0.08158837, -0.08332506, 0.03719502, -0.9312084, -0.3631389, 126.6982
 111157181, -0.1457495, 0.1171893, -0.1041813, 0.07485592, -0.06814642, 0.07349662, -0.07576253, 0.03719483, -0.9309521, -0.3642813, 126.7001
 111357183, -0.1513681, 0.1104095, -0.09286955, 0.07485499, -0.05159603, -0.0744025, 0.1064646, 0.03719521, -0.9312854, -0.3625124, 126.6986
 111557181, -0.1239986, -0.03778621, 0.08429595, 0.07485685, -0.009775163, 0.02883352, 0.02517372, 0.03719501, -0.9313732, -0.3623038, 126.7017
 111757185, -0.07595051, 0.03448501, 0.03954677, 0.07485499, -0.03034142, 0.08402269, -0.07771567, 0.03719502, -0.9313469, -0.3626427, 126.6986
 111957172, -0.08431484, 0.07570484, -0.06771769, 0.07485594, -0.04813781, -0.09341672, 0.07996798, 0.03719557, -0.9301726, -0.3642609, 126.7001
 112157196, -0.08965188, -0.09801827, 0.0824389, 0.07485497, -0.006719515, -0.00730727, 0.001164913, 0.03719558, -0.9298513, -0.3651737, 126.6986
 112357174, -0.05777143, -0.02565606, 0.01686593, 0.07485593, -0.04229435, 0.08715684, -0.1474512, 0.0371939, -0.9301109, -0.36511, 126.7001
 112557204, -0.1061103, 0.0683165, -0.1561889, 0.07485387, -0.07232074, -0.08053859, 0.06739551, 0.03719502, -0.930128, -0.3642147, 126.6967
 112757316, -0.1420612, -0.07647303, 0.05450239, 0.07485535, -0.04800091, 0.01569191, -0.006526987, 0.03719521, -0.9306997, -0.3635378, 126.6992
 112957168, -0.1302945, 0.01432051, -0.01174032, 0.07485685, -0.04840469, 0.04945911, -0.07433938, 0.03719557, -0.9311076, -0.362847, 126.7017
 113157164, -0.1217235, 0.05347497, -0.0488325, 0.07485647, -0.05663984, -0.07418391, 0.08465944, 0.03719427, -0.9298865, -0.3653906, 126.7011
 113357277, -0.1389879, -0.05149955, 0.1058794, 0.07485592, -0.04362291, -0.06397264, 0.09432738, 0.03719669, -0.9286315, -0.3683578, 126.7001
 113557264, -0.1274635, -0.03211426, 0.1085794, 0.07485703, -0.005117876, 0.06902077, -0.07873047, 0.03719855, -0.9282163, -0.3713371, 126.702
 113757303, -0.1254024, 0.1256751, -0.05267713, 0.07485424, -0.09904175, 0.168184, -0.1661141, 0.03719557, -0.9289554, -0.3700523, 126.6973
 113957294, -0.2213672, 0.2244028, -0.1014287, 0.07485089, -0.1782515, 0.06006473, 0.003437809, 0.03719111, -0.9305221, -0.3654086, 126.6916
 114157255, -0.2897314, 0.1109147, 0.02450072, 0.07484904, -0.1641708, -0.07971577, 0.1267446, 0.03719316, -0.931742, -0.3609976, 126.6885
 114357276, -0.2287209, -0.03914354, 0.1152167, 0.07485312, -0.01172311, -0.05060254, 0.03520028, 0.03719558, -0.9324921, -0.3600682, 126.6954
 114557403, -0.05669597, -0.03907772, 0.005461641, 0.07485684, 0.03375707, 0.07937673, -0.154292, 0.03719781, -0.932811, -0.3592409, 126.7017
 114757388, -0.0284347, 0.05413467, -0.1404518, 0.07485441, 0.02130631, 0.1078971, -0.2205046, 0.03719576, -0.9305007, -0.3639784, 126.6976
 114957406, -0.07643265, 0.06681606, -0.1990256, 0.07485443, -0.06311485, -0.07911015, 0.09243958, 0.03719185, -0.9287285, -0.3647021, 126.6976
 115137266, -0.180724, -0.1092074, 0.1044843, 0.0711312, -0.1068898, -0.1022951, 0.1389874, 0.03347458, -0.9281963, -0.364549, 120.3957
 115357262, -0.2984424, -0.1097162, 0.1438899, 0.07485647, -0.1407594, 0.1030776, -0.108628, 0.04091805, -0.9282008, -0.3662114, 128.2848
 115557248, -0.3315681, 0.09932517, -0.1098081, 0.07857449, -0.07165353, 0.04570233, -0.1109476, 0.03719204, -0.9284527, -0.3676481, 132.9941
 115757263, -0.2521946, 0.06542082, -0.136666, 0.07485144, -0.1194699, -0.1093379, 0.1417725, 0.03719762, -0.9298444, -0.3643585, 126.6926
 115957296, -0.2571946, -0.06150251, 0.06796664, 0.07485462, -0.117691, -0.002701149, 0.01537699, 0.03719297, -0.9305115, -0.36439, 126.6979
 116157284, -0.188575, 0.05403855, -0.05976768, 0.07485183, 0.004657113, 0.1622101, -0.1975594, 0.03719558, -0.9309469, -0.365061, 126.6932
 116357425, -0.04786001, 0.2036581, -0.2037146, 0.07485629, 0.0250467, 0.08204371, -0.148813, 0.03719613, -0.9314004, -0.3639502, 126.7008
 116557271, -0.03790703, 0.1335476, -0.1547456, 0.07485388, -0.06876688, -0.07130387, 0.1527292, 0.03719371, -0.93079, -0.3650983, 126.6967
 116757268, -0.1330743, -0.01915957, 0.1367844, 0.07485536, -0.1273507, -0.07535189, 0.1549183, 0.03719353, -0.9311321, -0.3630306, 126.6992
 116957287, -0.1979072, -0.03407637, 0.1344495, 0.07485425, -0.03256534, 0.1052095, -0.06506862, 0.03719502, -0.9312244, -0.3631159, 126.6973
 117157268, -0.1262631, 0.1177293, -0.04147575, 0.0748563, 0.02842739, 0.1116094, -0.09549437, 0.03719967, -0.930976, -0.3635467, 126.7008
 117357274, -0.09185252, 0.1085708, -0.07115054, 0.07485667, -0.08884558, -0.07259186, 0.08080035, 0.03719446, -0.9296646, -0.3649589, 126.7014
 117557260, -0.1989279, -0.07107413, 0.08915043, 0.0748509, -0.1105208, -0.09846146, 0.1153502, 0.0371939, -0.9302098, -0.36204, 126.6916
 117737247, -0.1969098, -0.1006157, 0.1157053, 0.07113121, -0.06533904, 0.05274064, -0.07424191, 0.03347253, -0.930209, -0.3618102, 120.3957
 117957294, -0.1525394, 0.05504758, -0.08569423, 0.07485425, 0.01896471, 0.07529256, -0.200983, 0.04091693, -0.9303807, -0.363871, 126.6973
 118157403, -0.07189294, 0.07363644, -0.175918, 0.07857504, -0.07208386, -0.08525235, 0.1535193, 0.03719371, -0.9307678, -0.3633436, 132.9951
 118357249, -0.1397529, -0.03572911, 0.1584199, 0.07485424, -0.08416296, -0.01848448, 0.05914021, 0.03719669, -0.9314071, -0.3628507, 126.6973
 118557252, -0.1386233, 0.0367077, 0.04908407, 0.07485572, -0.02012762, 0.1371117, -0.1358213, 0.03719427, -0.9312081, -0.3642557, 126.6998
 118757251, -0.06974319, 0.1710587, -0.1308146, 0.07485462, 0.02482623, 0.02860951, -0.06695063, 0.03719297, -0.9296487, -0.3680091, 126.6979
 118957417, -0.04310508, 0.06213912, -0.05009012, 0.07485442, -0.09657431, -0.1188131, 0.1704433, 0.03719892, -0.9290039, -0.3680386, 126.6976
 119157386, -0.1520924, -0.05119073, 0.1878738, 0.07485816, -0.009354155, 0.02535634, 0.05046916, 0.03719223, -0.9306089, -0.3657123, 126.7039
 119357269, -0.06139547, 0.1062445, 0.06243554, 0.07485107, 0.003744162, 0.1961027, -0.1684023, 0.03719985, -0.9304993, -0.3662104, 126.6919
 119557265, -0.0591721, 0.2776726, -0.1500313, 0.07485704, -0.001951404, 0.1436258, -0.160534, 0.03718907, -0.9306409, -0.3656952, 126.702
 119757263, -0.08226895, 0.2133748, -0.1513101, 0.07485016, -0.066683, -0.05982931, 0.1243616, 0.03719818, -0.9300846, -0.3669681, 126.6904
 119957427, -0.1472642, -0.007609728, 0.1276737, 0.07485498, -0.09126852, -0.09390697, 0.1678496, 0.03719241, -0.9299275, -0.3653358, 126.6986
 120157271, -0.1757756, -0.07067424, 0.1543808, 0.07485181, -0.04038076, 0.09263693, -0.05201224, 0.03720227, -0.9292799, -0.3666391, 126.6932
 120377561, -0.1469032, 0.08852442, -0.01896214, 0.07857394, -0.001696094, 0.08036965, -0.1055411, 0.04090856, -0.9294559, -0.3652244, 132.9932
 120557255, -0.08407668, 0.0859572, -0.1288722, 0.07484867, -0.05572037, -0.08659755, 0.05434079, 0.03347532, -0.9298119, -0.3643682, 126.6878
 120757273, -0.1365654, -0.07265665, 0.06313848, 0.07113807, -0.09904039, -0.08496144, 0.1163098, 0.0371952, -0.9296, -0.3657379, 120.4074
 120957289, -0.1669497, -0.05253124, 0.09849378, 0.07485425, -0.03298455, 0.1170027, -0.08836812, 0.03719353, -0.9301777, -0.3662505, 126.6973
 121157265, -0.1042301, 0.1450849, -0.06710499, 0.07485498, 0.01764539, 0.1028846, -0.1113901, 0.03719465, -0.9303511, -0.3663597, 126.6986
 121357255, -0.06240986, 0.1362215, -0.09494729, 0.07485461, -0.08558964, -0.08320179, 0.1214242, 0.03719575, -0.9301464, -0.3662217, 126.6979
 121557291, -0.1423833, -0.02491351, 0.1113799, 0.07485498, -0.07592089, 0.006119531, 0.01969116, 0.03719613, -0.9299101, -0.3671699, 126.6986
 121757404, -0.1148004, 0.04358982, 0.007687701, 0.0748574, 0.01898387, 0.1243516, -0.1957296, 0.03719595, -0.9295116, -0.3683586, 126.7026
 121957338, -0.02948105, 0.1184737, -0.1478817, 0.07485517, -0.105421, -0.09449965, 0.155819, 0.03719483, -0.9280636, -0.3694408, 126.6989
 122157282, -0.1730925, -0.0778734, 0.1874857, 0.074855, -0.08603216, -0.09388466, 0.1327434, 0.03719446, -0.9294047, -0.366263, 126.6986
 122377558, -0.1895834, -0.07275853, 0.1963534, 0.07857187, -0.03728693, 0.1112766, -0.04882485, 0.04091285, -0.9309099, -0.3651234, 132.9897
 122557266, -0.1339448, 0.1605766, -0.04271093, 0.0748535, -0.005577782, 0.1432595, -0.1264392, 0.03348091, -0.9310486, -0.3648485, 126.696
 122757281, -0.1065263, 0.190992, -0.1278317, 0.07113659, -0.07583142, -0.03090064, 0.01679713, 0.03719353, -0.9295963, -0.3680014, 120.4049
 122957277, -0.1668686, 0.02280517, 0.01700959, 0.07485256, -0.09730368, -0.09300733, 0.1298665, 0.03719129, -0.9290773, -0.3687253, 126.6945
 123157417, -0.1688174, -0.03659762, 0.117772, 0.07485127, -0.02039222, 0.07257768, -0.05562536, 0.03719557, -0.9294831, -0.3679726, 126.6923
 123357384, -0.1125434, 0.1063804, -0.07101963, 0.07485441, -0.02087821, 0.1409938, -0.1718436, 0.03719724, -0.9282898, -0.3713671, 126.6976
 123557403, -0.1144621, 0.1580525, -0.1489793, 0.07485387, -0.08740322, -0.03248326, 0.02887131, 0.03719464, -0.9275404, -0.3720796, 126.6967
 123757285, -0.1733654, -0.01254483, 0.01689937, 0.0748531, -0.03749378, -0.08446928, 0.09149186, 0.03719315, -0.9261025, -0.3747488, 126.6954
 123957291, -0.1128353, -0.06819282, 0.09388962, 0.07485313, -0.02057377, 0.06589884, -0.1142575, 0.03719687, -0.9263636, -0.3743985, 126.6954
 124157285, -0.09240443, 0.0546349, -0.09783981, 0.07485387, -0.06605649, 0.03152933, -0.08601965, 0.03719483, -0.9261394, -0.3745465, 126.6967
 124357278, -0.1189546, 0.014323, -0.0712053, 0.07485202, -0.01476118, -0.08342011, 0.1165004, 0.03719333, -0.9263391, -0.3729058, 126.6935
 124557267, -0.06727879, -0.09287035, 0.1286303, 0.07485329, -0.005218616, 0.02202503, -0.02696428, 0.03719446, -0.9268472, -0.372741, 126.6957
 124757276, -0.06063963, 0.01906369, 0.005542476, 0.07485722, -0.05281118, 0.09116095, -0.1020599, 0.03719632, -0.9278155, -0.3717496, 126.7023
 124957291, -0.1084857, 0.1112367, -0.0722148, 0.07485742, -0.09881775, -0.0382871, 0.10896, 0.03719353, -0.9279175, -0.3718107, 126.7026
 125157256, -0.1622922, 0.02938873, 0.1273239, 0.07485349, -0.03347937, -0.04493446, 0.1286705, 0.03719465, -0.928729, -0.3704256, 126.696
 125357396, -0.1032335, 0.05225281, 0.1241281, 0.07485463, 0.01610335, 0.1273183, -0.1078221, 0.03719502, -0.9302557, -0.3668695, 126.6979
 125557277, -0.06521647, 0.2246523, -0.1190319, 0.07485645, -0.03421538, 0.1827951, -0.1622657, 0.0371993, -0.9302303, -0.3664649, 126.7011
 125757257, -0.09846139, 0.2628909, -0.169433, 0.07485555, -0.1060918, -0.001565734, 0.08046149, 0.03719315, -0.9298152, -0.3680225, 126.6995
 125957289, -0.1673738, 0.06772187, 0.06523818, 0.07485221, -0.04379927, -0.08365781, 0.1600771, 0.03719483, -0.9304944, -0.3656216, 126.6938
 126157275, -0.1086649, -0.03913534, 0.1433232, 0.07485277, 0.00809082, 0.09774029, -0.0917227, 0.03719445, -0.9296382, -0.3673213, 126.6948
 126357282, -0.07993232, 0.09296475, -0.05101329, 0.07485256, -0.003192241, 0.08485268, -0.1576094, 0.03719595, -0.9295806, -0.3660102, 126.6945
 126557269, -0.1074423, 0.05367457, -0.1233005, 0.07485498, -0.1173826, -0.1082836, 0.1364439, 0.03719445, -0.9286088, -0.3654396, 126.6986
 126757271, -0.2130671, -0.1213123, 0.1487366, 0.07485238, -0.06955659, -0.05623104, 0.07502582, 0.03719297, -0.9283578, -0.3661361, 126.6941
 126957274, -0.1648406, -0.05844349, 0.09761897, 0.07485294, -0.01983298, 0.1190617, -0.1322865, 0.03719836, -0.9293254, -0.3669637, 126.6951
 127157407, -0.1065243, 0.1225379, -0.1081311, 0.07485629, -0.04146305, 0.0007562698, -0.02084826, 0.03719334, -0.9292915, -0.3682124, 126.7008
 127357396, -0.1218772, 0.05103989, -0.03342873, 0.07485406, -0.0684535, -0.04557822, 0.08101536, 0.03719501, -0.9286852, -0.3702697, 126.697
 127557391, -0.1318716, 0.02228627, 0.0775566, 0.0748533, 0.00052936, 0.1455555, -0.09210309, 0.03719595, -0.9286317, -0.3708243, 126.6957
 127757254, -0.07162454, 0.1859151, -0.05523142, 0.07485425, -0.08166012, 0.02899992, 0.002797324, 0.03719557, -0.929204, -0.3688546, 126.6973
 127957264, -0.1489583, 0.06658627, 0.01435017, 0.07485518, -0.07768986, -0.07928699, 0.1320115, 0.03719483, -0.929652, -0.3670461, 126.6989
 128157253, -0.1275429, -0.03397633, 0.1175158, 0.07485332, 0.00487605, 0.09313228, -0.05479987, 0.03719353, -0.9293908, -0.3685332, 126.6957
 128357248, -0.05563386, 0.1225827, -0.06742097, 0.074852, -0.03044719, 0.101779, -0.1430112, 0.03719762, -0.9287326, -0.3704677, 126.6935
 128557264, -0.08727641, 0.1236814, -0.1413097, 0.07485351, -0.1045494, -0.06718336, 0.08972242, 0.03719092, -0.9279997, -0.3711485, 126.696
 128757276, -0.1623604, -0.03913022, 0.09026261, 0.07485089, 0.0445421, -0.02367524, 0.01059972, 0.03719874, -0.927928, -0.3704123, 126.6916
 128957424, -0.04094448, -0.01535737, 0.03281551, 0.07485722, -0.05385598, 0.1034712, -0.1157499, 0.03719594, -0.9292104, -0.3675075, 126.7023
 129157286, -0.1175899, 0.09076511, -0.07193302, 0.074852, -0.153296, -0.03992902, 0.08937126, 0.03719148, -0.9307604, -0.3623365, 126.6935
 129357267, -0.1965095, -0.0305564, 0.09668857, 0.07485034, -0.006911823, -0.07177395, 0.07788685, 0.03719391, -0.9330957, -0.3575335, 126.6907
 129557273, -0.05529077, -0.03204674, 0.05485727, 0.07485537, 0.06957418, 0.1384719, -0.1232959, 0.03719501, -0.9339976, -0.3571818, 126.6992
 129757246, 0.02364112, 0.189749, -0.1113525, 0.07485627, -0.001785433, 0.06684944, -0.054897, 0.03719762, -0.9343531, -0.3563459, 126.7008
 129957285, -0.05777337, 0.1301875, -0.0414236, 0.0748563, -0.08316265, -0.0790118, 0.1793253, 0.03719353, -0.9331625, -0.3590121, 126.7008
 130157253, -0.1578131, -0.01257491, 0.1714272, 0.07485441, -0.03826804, 0.1158751, -0.05613971, 0.03719521, -0.931951, -0.3620713, 126.6976
 130357272, -0.1380708, 0.1520412, -0.04379661, 0.07485425, 0.00612648, 0.04643334, -0.03292441, 0.03719353, -0.9316773, -0.3626095, 126.6973
 130557270, -0.1080695, 0.07911872, -0.02007327, 0.07485557, -0.122256, -0.09760996, 0.1269384, 0.03719817, -0.9312018, -0.3626295, 126.6995
 130757395, -0.2234631, -0.05661649, 0.115609, 0.07485666, -0.05321489, 0.09854533, -0.05563689, 0.03719465, -0.9314339, -0.362494, 126.7014
 130957288, -0.1507339, 0.1130905, -0.0386144, 0.07485203, 0.006554529, 0.05280051, -0.08146334, 0.03719744, -0.93165, -0.362267, 126.6935
 131157255, -0.08976933, 0.07417378, -0.07194024, 0.07485332, -0.0642097, -0.1131181, 0.09345311, 0.03719297, -0.931803, -0.3611404, 126.6957
 131357293, -0.1362029, -0.07555608, 0.07959431, 0.0748498, -0.09570397, 0.01264556, 0.003844446, 0.03719409, -0.9313138, -0.3625183, 126.6897
 131557377, -0.1539394, 0.0665147, -0.008933689, 0.07485256, -0.03074635, 0.1704105, -0.121575, 0.03719669, -0.932944, -0.3600149, 126.6945
 131757388, -0.07831322, 0.2111205, -0.0935783, 0.07485517, 0.01786058, 0.04052774, -0.04917922, 0.03719427, -0.9311829, -0.3643319, 126.6989
 131957278, -0.05563874, 0.06361452, -0.04681213, 0.07485127, -0.06088174, -0.142854, 0.1444436, 0.03719259, -0.93057, -0.3635721, 126.6923
 132157269, -0.1457371, -0.09682543, 0.1427641, 0.07485349, -0.0934136, 0.01290116, 0.08138905, 0.03719446, -0.9328338, -0.3592772, 126.696
 132357265, -0.1471457, 0.05686432, 0.09040922, 0.0748548, 0.01857692, 0.1254508, -0.08440886, 0.03719724, -0.9328575, -0.360112, 126.6982
 132557403, -0.04349129, 0.1351037, -0.0844147, 0.07485478, -0.01204967, -0.06256622, 0.02412757, 0.03719297, -0.9296658, -0.3664614, 126.6982
 132757267, -0.110736, -0.07104477, 0.002922176, 0.07485257, -0.08359648, -0.0858463, 0.05962779, 0.03719874, -0.9269862, -0.3690576, 126.6945
 132957265, -0.193147, -0.1041644, 0.0495387, 0.07485685, -0.08510943, 0.1008552, -0.1121133, 0.03719279, -0.9275311, -0.3697597, 126.7017
 133157274, -0.1873561, 0.08525558, -0.08641174, 0.07485257, -0.05899152, -0.0008636101, 0.03359602, 0.03719612, -0.9282777, -0.369395, 126.6945
 133357250, -0.1508828, 0.01594262, 0.06473742, 0.07485331, -0.04016338, -0.09312417, 0.1552228, 0.03719427, -0.9291707, -0.3677185, 126.6957
 133557261, -0.1204203, -0.04015613, 0.1525006, 0.07485442, -0.02966582, 0.1133774, -0.02400608, 0.03719297, -0.9299303, -0.3674861, 126.6976
 133757238, -0.07933056, 0.1612212, -0.01617203, 0.0748535, -0.03095386, 0.03994375, 0.01878866, 0.03719502, -0.9294632, -0.3688843, 126.696
 133957269, -0.0588409, 0.09876379, 0.02884044, 0.07485481, -0.01556941, -0.0682405, 0.144458, 0.03719502, -0.9304087, -0.3663967, 126.6982
 134157261, -0.04069671, 0.004608111, 0.1428822, 0.07485498, 0.02805551, 0.1331157, -0.03288379, 0.03719744, -0.9304987, -0.3662947, 126.6986
 134357398, -0.01653146, 0.194711, -0.001608551, 0.07485534, -0.03619517, 0.1180178, -0.08199286, 0.03719465, -0.9310565, -0.3648208, 126.6992
 134557262, -0.09622812, 0.1916581, -0.05862103, 0.07485426, -0.1119876, -0.1035391, 0.1982059, 0.03719483, -0.932048, -0.3622434, 126.6973
 134757264, -0.1709781, -0.006319596, 0.1840124, 0.07485572, 0.002771369, 0.05038236, -0.03734149, 0.03719724, -0.93287, -0.3601538, 126.6998
 134957266, -0.07567383, 0.1186715, -0.05189975, 0.07485443, 0.02155805, 0.172968, -0.1369415, 0.03719501, -0.9330742, -0.3596806, 126.6976
 135157245, -0.05601183, 0.2028406, -0.1366908, 0.07485088, -0.09084781, -0.04847179, 0.0654176, 0.03719371, -0.9328889, -0.3595233, 126.6916
 135357270, -0.1478089, 9.327289E-05, 0.03177221, 0.07485443, -0.1042438, -0.04817649, 0.1113729, 0.03719538, -0.9333488, -0.3584293, 126.6976
 135557252, -0.1560442, -0.008162411, 0.09616616, 0.07485517, 0.02103491, 0.1121441, -0.05373652, 0.03719595, -0.9327272, -0.3597054, 126.6989
 135757397, -0.08193527, 0.08988168, -0.03181481, 0.07485388, -0.02918615, -0.07211702, 0.0283269, 0.03719093, -0.9303036, -0.3614321, 126.6967
 135957408, -0.1761703, -0.1119013, 0.05243537, 0.07485091, -0.1547973, -0.1049284, 0.1460866, 0.03719743, -0.9295404, -0.3586104, 126.6916
 136157392, -0.2975203, -0.1296979, 0.1176377, 0.07485572, -0.06619912, 0.09309374, -0.08364231, 0.03719483, -0.9312328, -0.3605525, 126.6998
 136357260, -0.1755208, 0.07271502, -0.08443824, 0.07485256, -0.01341646, -0.0405279, 0.03056882, 0.03719539, -0.9318803, -0.3600222, 126.6945
 136557252, -0.1042498, -0.04042129, 0.0331491, 0.0748563, -0.09173229, -0.083509, 0.1387084, 0.03719502, -0.9318219, -0.3595953, 126.7008
 136757264, -0.1600269, -0.06658325, 0.1432271, 0.07485276, -0.0003045287, 0.1401227, -0.1555978, 0.03719501, -0.9327903, -0.3590839, 126.6948
 136957288, -0.06022254, 0.145585, -0.1445688, 0.0748522, -0.02749326, -0.02266957, 0.012812, 0.03719408, -0.9332929, -0.35789, 126.6938
 137157252, -0.06530149, 0.004786813, 0.05014835, 0.07485405, -0.07412951, -0.06026448, 0.1265359, 0.03719724, -0.9336643, -0.356673, 126.697
 137357268, -0.09544213, -0.01045699, 0.1300485, 0.07485498, 0.0189401, 0.1327708, -0.1136471, 0.03719372, -0.9343601, -0.3562918, 126.6986
 137557272, -0.004551604, 0.1845767, -0.07247746, 0.07485311, 0.04543396, 0.07536039, -0.07736203, 0.03719242, -0.9339717, -0.3573132, 126.6954
 137757268, 0.01074903, 0.14773, -0.06108616, 0.07485257, -0.07530932, -0.1044722, 0.1345121, 0.03719502, -0.9343895, -0.3562433, 126.6945
 137957423, -0.1047238, -0.006538754, 0.1145565, 0.07485665, -0.01172225, 0.08309983, -0.006579697, 0.03719501, -0.9343375, -0.3563839, 126.7014
 138157250, -0.06155693, 0.1413702, 0.01967516, 0.07485609, 0.04501597, 0.1367701, -0.1198822, 0.03719687, -0.9340509, -0.3570044, 126.7004
 138357269, -0.0369601, 0.1531489, -0.09926701, 0.07485647, -0.1095491, -0.11309, 0.1182485, 0.03719483, -0.9332278, -0.356993, 126.7011
 138557245, -0.1939601, -0.09681281, 0.1057719, 0.07485369, -0.07290003, -0.01979402, 0.04232355, 0.03719482, -0.9327734, -0.3572815, 126.6963
 138757274, -0.1604774, -0.0212183, 0.04987814, 0.07485536, 0.0412768, 0.1115552, -0.09307693, 0.03719725, -0.9327629, -0.3583635, 126.6992
 138957275, -0.0508966, 0.0856251, -0.1077186, 0.0748546, -0.1006721, -0.09603534, 0.04882393, 0.03719371, -0.9320972, -0.358635, 126.6979
 139157243, -0.177018, -0.09092132, 0.03339713, 0.07485258, -0.08665183, -0.03159965, 0.02994175, 0.03719521, -0.9329434, -0.357385, 126.6945
 139357260, -0.1618355, -0.01080368, 0.02484646, 0.07485259, 0.0188716, 0.1316513, -0.1201421, 0.03719334, -0.9342703, -0.3557787, 126.6945
 139557272, -0.06753587, 0.1491136, -0.09448979, 0.07485256, -0.09962752, -0.07588792, 0.1097579, 0.03719594, -0.9339686, -0.3558321, 126.6945
 139757393, -0.1782488, -0.02635375, 0.09247609, 0.07485462, -0.05561674, 0.00876114, 0.007870097, 0.03719408, -0.9344785, -0.3552228, 126.6979
 139957407, -0.1268996, 0.06000968, 0.00586285, 0.07485498, 0.008140489, 0.1135196, -0.1433604, 0.03719613, -0.9344819, -0.3558993, 126.6986
 140157404, -0.06427363, 0.1569236, -0.1021853, 0.07485703, -0.1015323, -0.07175495, 0.1259593, 0.03719427, -0.9343961, -0.355616, 126.702
 140357248, -0.155601, -0.01022669, 0.150616, 0.07485294, -0.03621472, 0.01543594, 0.02349671, 0.03719632, -0.9341226, -0.3563625, 126.6951
 140557235, -0.1017297, 0.07364987, 0.05663017, 0.07485742, 0.0319714, 0.1805225, -0.1970591, 0.03719372, -0.9342626, -0.3565828, 126.7026
 140757258, -0.04942678, 0.2346803, -0.1713186, 0.07485237, -0.1144772, -0.04258495, 0.09405322, 0.03719539, -0.9339515, -0.3572164, 126.6941
 140957293, -0.1846631, 0.03085753, 0.105597, 0.07485461, -0.08079785, -0.06052104, 0.09622642, 0.03719669, -0.9339461, -0.3568306, 126.6979
 141157269, -0.1477306, 0.005139669, 0.06229136, 0.0748533, -0.001055222, 0.1699299, -0.1733389, 0.03719166, -0.933787, -0.3577031, 126.6957
 141357259, -0.09043235, 0.2040473, -0.1708649, 0.07485165, -0.05349275, 0.02393193, -0.02678541, 0.03719613, -0.9334072, -0.3582276, 126.6929
 141557384, -0.1535512, 0.04535761, -0.03056909, 0.07485776, -0.09805684, -0.1169235, 0.1998273, 0.03719669, -0.9333311, -0.3556806, 126.7033
 141757259, -0.1903546, -0.1078689, 0.1914356, 0.07485481, -0.00196592, 0.09090954, -0.07076039, 0.03719632, -0.9332171, -0.3562743, 126.6982
 141957281, -0.1006392, 0.06506753, -0.05134179, 0.07485219, -0.04577339, -0.007347489, -0.02117099, 0.03719093, -0.9326882, -0.3571139, 126.6938
 142157256, -0.1345758, -0.01760433, -0.004820945, 0.07485257, -0.08607467, -0.07467236, 0.07849802, 0.03719502, -0.932583, -0.3573657, 126.6945
 142357272, -0.1635499, -0.05932077, 0.07107943, 0.07485686, -0.008190635, 0.09138585, -0.1135035, 0.03719948, -0.933326, -0.3578444, 126.7017
 142557262, -0.08374545, 0.1085133, -0.08647982, 0.07485554, -0.05602111, -0.0270599, 0.04619959, 0.03719074, -0.932668, -0.3598059, 126.6995
 142757261, -0.1207177, 0.02707327, 0.05949128, 0.07485274, -0.04174964, 0.007919515, 0.01828875, 0.03719632, -0.9335795, -0.3581021, 126.6948
 142957269, -0.1024553, 0.07270632, 0.0403965, 0.07485554, -0.02326183, 0.105813, -0.1015352, 0.03719353, -0.9331621, -0.359441, 126.6995
 143157250, -0.08570389, 0.1639072, -0.06528935, 0.07485352, -0.0627695, -0.03681852, 0.06910408, 0.03719781, -0.9328941, -0.3598917, 126.696
 143357405, -0.1177434, 0.02228851, 0.1050265, 0.07485537, -0.04430744, 0.06500283, -0.06216206, 0.03719464, -0.9320635, -0.3617716, 126.6992
 143557257, -0.1023665, 0.09525914, -0.03208915, 0.07485757, -0.03961611, 0.1038942, -0.1248662, 0.0371952, -0.9311598, -0.3640956, 126.7029
 143757257, -0.1012803, 0.1195208, -0.1029821, 0.07485314, -0.06257962, -0.1066471, 0.09731262, 0.03719484, -0.9301726, -0.3655916, 126.6954
 143957271, -0.126569, -0.05902978, 0.07307331, 0.07485443, 0.0038532, 0.02525285, -0.02932149, 0.03719483, -0.9305514, -0.3653998, 126.6976
 144157390, -0.08094063, 0.06553378, -0.04334427, 0.07485516, -0.0576111, 0.1360425, -0.1321482, 0.03719557, -0.930989, -0.3647191, 126.6989
 144357372, -0.1425194, 0.1593667, -0.1233867, 0.07485256, -0.09235996, -0.07964778, 0.1119088, 0.03719278, -0.9306033, -0.3647103, 126.6945
 144557272, -0.1721916, -0.04309345, 0.1008593, 0.07485628, -0.005121125, -0.002283924, 0.01161574, 0.03719781, -0.9310883, -0.3633101, 126.7008
 144757228, -0.0874403, 0.01583886, 0.01455018, 0.07485443, -0.03696715, 0.09691583, -0.1064285, 0.03719223, -0.931619, -0.3621258, 126.6976
 144957286, -0.1065226, 0.08797056, -0.09317198, 0.07485201, -0.07110185, -0.09129002, 0.100801, 0.03719688, -0.9315509, -0.3607813, 126.6935
 145157401, -0.1218649, -0.0852383, 0.07935143, 0.07485443, -0.009710699, 0.02280756, -0.009243399, 0.0371939, -0.9326151, -0.3591315, 126.6976
 145357259, -0.06636988, 0.03229051, -0.009204224, 0.07485256, -0.05556044, 0.04991559, -0.04763697, 0.03719687, -0.932924, -0.3592705, 126.6945
 145557258, -0.1143659, 0.08034475, -0.05001849, 0.07485536, -0.03546872, -0.03944795, 0.08956166, 0.0371952, -0.9338813, -0.3568709, 126.6992
 145757280, -0.09657794, 0.0112685, 0.08513697, 0.07485368, -0.007269342, 0.08376727, -0.02984743, 0.03719222, -0.9341356, -0.3565868, 126.6963
 145957274, -0.07349731, 0.1191388, -0.017934, 0.0748535, -0.04260369, -0.01596165, 0.04928645, 0.03719799, -0.9337524, -0.3571792, 126.696
 146157263, -0.1152496, 0.02353477, 0.05788928, 0.07485463, -0.02917181, -0.01252348, 0.04293094, 0.03719149, -0.933781, -0.3568, 126.6979
 146357262, -0.1128943, 0.02583162, 0.05683938, 0.07485146, -0.03427348, 0.09999949, -0.1043023, 0.03719502, -0.9341921, -0.3560315, 126.6926
 146557260, -0.1305987, 0.1374997, -0.07964011, 0.07485631, -0.09461769, -0.03038575, 0.0421393, 0.03719706, -0.9342021, -0.3558076, 126.7008
 146757266, -0.1821158, 0.02793119, 0.05183377, 0.07485592, -0.03781901, 0.05794621, -0.05603691, 0.03719502, -0.9343986, -0.3558337, 126.7001
 146957426, -0.1199833, 0.1113214, -0.03994432, 0.0748535, -0.04153882, 0.08091697, -0.07503307, 0.03719278, -0.9340854, -0.3567533, 126.696
 147157257, -0.1187728, 0.1204146, -0.03775126, 0.07485519, -0.05584436, -0.06671257, 0.1235246, 0.03719743, -0.9337762, -0.3566594, 126.6989
 147357266, -0.1344204, -0.01706081, 0.1260633, 0.07485665, -0.01730171, 0.1192879, -0.08625477, 0.03719483, -0.9334648, -0.3580272, 126.7014
 147557270, -0.09645528, 0.1430869, -0.08001241, 0.07485683, -0.0622019, -0.02015099, 0.06323744, 0.03719297, -0.9324324, -0.3603685, 126.7017
 147757234, -0.1390832, 0.02082479, 0.05353101, 0.07485556, -0.03609603, -0.02834978, 0.07173289, 0.03719817, -0.9324202, -0.3603882, 126.6995
 147957274, -0.1259593, 0.02380734, 0.06120554, 0.07485611, -0.02590017, 0.1285255, -0.1012978, 0.03719557, -0.9324286, -0.3610177, 126.7004
 148157267, -0.1089877, 0.1585369, -0.08237565, 0.07485183, -0.08400665, -0.07775416, 0.1226241, 0.03719539, -0.932451, -0.3602285, 126.6932
 148357390, -0.1542851, -0.02715079, 0.1046834, 0.07485127, -0.01450627, 0.06859938, -0.03070699, 0.03719092, -0.9330036, -0.3593988, 126.6923
 148557381, -0.07679189, 0.1068711, -0.0169362, 0.0748507, -0.06114072, 0.04359886, -0.04141653, 0.03719706, -0.9330787, -0.3592134, 126.6913
 148757397, -0.1240021, 0.08308769, -0.01902155, 0.07485628, -0.03285905, -0.05222207, 0.06967001, 0.03719632, -0.933182, -0.3585438, 126.7008
 148957285, -0.09721151, -0.008053379, 0.09046388, 0.07485405, -0.01699726, 0.129896, -0.1454272, 0.03719446, -0.933636, -0.3578503, 126.697
 149157258, -0.08438072, 0.1598659, -0.1008991, 0.07485498, -0.09772701, -0.0217942, 0.03712305, 0.03719446, -0.9328402, -0.3596013, 126.6986
 149357270, -0.1633543, 0.03110236, 0.05745044, 0.07485349, -0.01921315, -0.02397581, 0.03455798, 0.03719557, -0.9331039, -0.3591589, 126.696
 149557271, -0.09629531, 0.04296032, 0.02995782, 0.07485256, -0.03692484, 0.1481925, -0.1427156, 0.03719334, -0.9333215, -0.3589874, 126.6945
 149757247, -0.1149001, 0.1843241, -0.1271552, 0.07485385, -0.1036224, -0.04659292, 0.1116965, 0.03719576, -0.9326906, -0.3597292, 126.6967
 149957279, -0.1746769, -0.01415722, 0.09899682, 0.07485536, -0.002794532, -0.01601946, 0.07091042, 0.0371965, -0.9330997, -0.3578257, 126.6992
 150157268, -0.07516789, -0.007071927, 0.06121481, 0.0748561, 0.003790695, 0.0864297, -0.08225175, 0.03719167, -0.9337435, -0.356512, 126.7004
 150357266, -0.05855217, 0.06809321, -0.06013972, 0.07485165, -0.086119, -0.1223454, 0.1336961, 0.03719595, -0.9340683, -0.3540915, 126.6929
 150557391, -0.1366892, -0.1150206, 0.1301787, 0.07485554, -9.142468E-05, 0.05948859, -0.06305802, 0.03719409, -0.9357025, -0.3509825, 126.6995
 150757271, -0.06881347, 0.06260589, -0.056734, 0.07485461, -0.02775777, 0.02853979, -0.08288327, 0.03719725, -0.9359683, -0.3507631, 126.6979
 150957265, -0.09668715, 0.04955477, -0.07542298, 0.07485703, -0.07799666, -0.04066087, 0.06463575, 0.03719706, -0.9361402, -0.3498182, 126.702
 151157262, -0.1451929, -0.006612591, 0.04748622, 0.07485443, -0.01303153, 0.1116933, -0.140671, 0.03719074, -0.9363322, -0.3503185, 126.6976
 151357273, -0.0916309, 0.1294006, -0.13885, 0.07485072, -0.04408364, -0.05645262, 0.08479252, 0.03719688, -0.935412, -0.3523343, 126.6913
 151557259, -0.119337, -0.01547686, 0.07029711, 0.07485535, -0.05699467, 0.03643951, 0.01386094, 0.03719632, -0.9348915, -0.35407, 126.6992
 151757235, -0.1304074, 0.07506383, 0.01799561, 0.07485536, -0.02953217, 0.03232009, 0.01139681, 0.03719409, -0.9343559, -0.3557331, 126.6992
 151957286, -0.1012564, 0.06803504, 0.021469, 0.0748546, -0.0429595, -0.02190144, 0.07102088, 0.03719278, -0.933858, -0.3566511, 126.6979
 152157278, -0.1053854, 0.01270345, 0.07029872, 0.07485275, -0.03986642, 0.08266461, -0.03166485, 0.03719668, -0.93357, -0.3577271, 126.6948
 152357393, -0.0964912, 0.1073232, -0.02578233, 0.07485499, -0.03492203, -0.04079979, 0.07975071, 0.03719539, -0.9334429, -0.3578805, 126.6986
 152557389, -0.09882567, 0.003850044, 0.06865199, 0.07485387, -0.009812706, 0.01664905, 0.0627614, 0.03719557, -0.9337723, -0.3572032, 126.6967
 152757377, -0.07898387, 0.05388121, 0.07959723, 0.0748548, -0.02572075, 0.07447905, -0.02621111, 0.0371939, -0.9329076, -0.3596797, 126.6982
 152957296, -0.09946851, 0.1070108, -0.003908101, 0.07485387, -0.03640331, -0.0736699, 0.1158695, 0.0371993, -0.9326278, -0.3598957, 126.6967
 153157264, -0.1053903, -0.02578915, 0.1289592, 0.07485498, -0.02059784, 0.09891039, -0.06174307, 0.03719018, -0.9323801, -0.3608117, 126.6986
 153357273, -0.0938004, 0.1193128, -0.03737715, 0.07484979, -0.07204971, -0.006237709, 0.01156924, 0.03719594, -0.9315592, -0.3625526, 126.6897
 153557265, -0.1439461, 0.03035535, 0.02489015, 0.07485387, -0.02308637, -0.02638848, 0.03121767, 0.03719743, -0.9321062, -0.3612264, 126.6967
 153757265, -0.1012458, 0.02188903, 0.0391913, 0.07485312, -0.05611623, 0.1366383, -0.1602955, 0.03719074, -0.9328496, -0.3599412, 126.6954
 153957287, -0.1284547, 0.1627109, -0.136884, 0.07485073, -0.09131304, -0.06323816, 0.07445953, 0.03719781, -0.932636, -0.3595545, 126.6913
 154157403, -0.1462519, -0.02681319, 0.05052735, 0.07485534, -0.02612726, 0.06178233, -0.06534354, 0.0371952, -0.9336421, -0.3572136, 126.6992
 154357240, -0.08442447, 0.07945791, -0.06270289, 0.07485275, -0.05921698, 0.02685292, -0.006303029, 0.03719278, -0.9334834, -0.3574726, 126.6948
 154557250, -0.1170705, 0.04610153, 0.002660601, 0.07485238, -0.01715843, -0.03166014, 0.07918332, 0.03719428, -0.9335684, -0.3570387, 126.6941
 154757250, -0.08125281, -0.002545912, 0.07106178, 0.07485481, -0.02590179, 0.07066395, -0.02298343, 0.03719501, -0.9341517, -0.3562077, 126.6982
 154957244, -0.09123764, 0.09449407, -0.005501125, 0.07485573, -0.05805757, -0.05201197, 0.1224864, 0.03719929, -0.9343209, -0.3556073, 126.6998
 155157266, -0.1182814, -0.001786036, 0.1220034, 0.07485645, 0.009186395, 0.06694901, 0.01298366, 0.03719539, -0.9344335, -0.3557685, 126.7011
 155357269, -0.06833774, 0.1076265, 0.02178646, 0.07485275, -0.0589024, -0.01885067, 0.09533609, 0.0371939, -0.9342394, -0.3562595, 133.0295
 155557255, -0.1359153, 0.02282418, 0.08962583, 0.07485238, -0.02023571, 0.009335889, 0.06303833, 0.03719148, -0.9337349, -0.3570707, 126.6941
 155757262, -0.104022, 0.06340202, 0.05276967, 0.07485145, -0.03005669, 0.08608564, -0.03626347, 0.03719613, -0.9335498, -0.358058, 126.6926
 155957418, -0.1187472, 0.1041362, -0.01498025, 0.07485685, -0.06853108, -0.08425394, 0.1464751, 0.03719687, -0.9332936, -0.3579369, 126.7017
 156157249, -0.1402672, -0.0388729, 0.1310122, 0.07485498, -0.01085392, 0.09816164, -0.07871357, 0.03719352, -0.93345, -0.3575795, 126.6986
 156357237, -0.086999, 0.1177595, -0.07349601, 0.07485237, -0.05480892, -0.02762339, 0.02731014, 0.03719538, -0.9335197, -0.3575947, 126.6941
 156557258, -0.1240684, -0.00941024, 0.04762972, 0.07485647, -0.04453044, -0.01958509, 0.06886058, 0.03719502, -0.933315, -0.3576871, 126.7011
 156757366, -0.1069698, 0.02874852, 0.05342318, 0.07485629, 0.01806165, 0.1000818, -0.0948382, 0.03719632, -0.9337724, -0.3573941, 126.7008
 156957402, -0.06000893, 0.1059099, -0.06418718, 0.07485369, -0.06831949, -0.09963775, 0.1159845, 0.03719371, -0.9332725, -0.3579777, 126.6963
 157177670, -0.1479941, -0.05906763, 0.1236143, 0.07857299, -0.01740589, 0.1149821, -0.1177642, 0.04091359, -0.9339545, -0.3571742, 132.9916
 157357265, -0.08037336, 0.1385244, -0.08893375, 0.07485351, -0.05724763, -0.03694804, 0.02655387, 0.03347496, -0.9335038, -0.3579928, 126.696
 157557259, -0.1245806, -0.004810214, 0.03956954, 0.07113437, -0.05858004, 0.03196198, -0.04192823, 0.03719631, -0.9337252, -0.3569394, 120.4011
 157757400, -0.1316183, 0.07107706, -0.05068003, 0.07485554, -0.04184753, 0.04888518, -0.07092768, 0.03719483, -0.9339809, -0.3567693, 126.6995
 157957267, -0.1211966, 0.06048454, -0.03475012, 0.07485333, -0.04840659, -0.05132208, 0.09322916, 0.03719705, -0.9333522, -0.3577034, 126.6957
 158157244, -0.1138285, -0.005463576, 0.1094188, 0.07485741, -0.01928057, 0.1219115, -0.1167166, 0.03719428, -0.9326962, -0.359898, 126.7026
 158357258, -0.08576559, 0.1481489, -0.08185498, 0.0748537, -0.06179767, 0.002730868, 0.01627688, 0.03719278, -0.9321447, -0.3618042, 126.6963
 158557248, -0.1261663, 0.03525, 0.05453018, 0.07485518, -0.04541422, -0.08054791, 0.1036186, 0.03719836, -0.9324336, -0.3609944, 126.6989
 158757274, -0.09674952, 0.01126558, 0.08520977, 0.07485554, -0.001167796, 0.1518916, -0.1329902, 0.0371926, -0.9328464, -0.3602738, 126.6995
 158957261, -0.06666921, 0.2233864, -0.1259213, 0.07485107, -0.08989852, 0.1029541, -0.09195782, 0.03719353, -0.9337932, -0.3577968, 126.6919
 159157267, -0.1554538, 0.1404015, -0.05235624, 0.07485555, -0.1433626, -0.09567957, 0.1076037, 0.03719539, -0.934459, -0.3560238, 126.6995
 159357273, -0.1736126, -0.03561537, 0.09298891, 0.074855, 0.05507167, -0.02661752, 0.01181885, 0.03719743, -0.9347463, -0.3550379, 126.6986
 159557395, 0.02168152, 0.0444867, -0.05237377, 0.07485552, 0.07549708, 0.1499421, -0.1995906, 0.03719278, -0.9354765, -0.3533635, 125.1158
 159757260, 0.02851927, 0.1847168, -0.2015563, 0.07485367, 0.01114076, 0.09617808, -0.1266652, 0.03719799, -0.9356419, -0.3528646, 126.6963
 159957287, -0.06124597, 0.08334777, -0.0862754, 0.0748574, -0.1095484, -0.1252903, 0.1540104, 0.0371952, -0.9344191, -0.3547737, 126.7026
 160157257, -0.2048172, -0.1248732, 0.1704654, 0.07485257, -0.139415, -0.1124941, 0.1348887, 0.03719186, -0.9339565, -0.3534272, 126.6945
 160357257, -0.2625116, -0.09447747, 0.1056574, 0.0748535, -0.04765465, 0.1069799, -0.1464648, 0.03719557, -0.9339377, -0.3538321, 126.696
 160557247, -0.1982933, 0.09755234, -0.1632865, 0.07485647, -0.01297594, 0.05290376, -0.1457438, 0.03720022, -0.9332864, -0.3561388, 126.7011
 160757275, -0.1724702, 0.01883173, -0.1029794, 0.07485685, -0.08064859, -0.1299592, 0.1238468, 0.03719222, -0.932754, -0.3550216, 126.7017
 160957400, -0.2407528, -0.1398595, 0.1374718, 0.07484978, -0.1349511, -0.1236883, 0.1620865, 0.03719204, -0.9327801, -0.3559407, 126.6897
 161157397, -0.2542032, -0.1006138, 0.1112876, 0.07485145, -0.1033044, 0.02013543, 0.019798, 0.0371965, -0.9340133, -0.3543652, 126.6926
 161357391, -0.1773507, 0.06665896, -0.03595939, 0.07485443, 0.01382211, 0.1695433, -0.1572389, 0.0371952, -0.9362494, -0.3510169, 126.6976
 161557238, -0.0347304, 0.2266536, -0.1406957, 0.07485423, 0.06182007, 0.1682943, -0.1776983, 0.03719557, -0.9372406, -0.3486675, 126.6973
 161757242, 0.02113675, 0.2035086, -0.1606589, 0.074855, 0.0416325, 0.03828371, -0.01007941, 0.03719372, -0.9373767, -0.3483093, 126.6986
 161957279, -0.006583186, 0.06290256, 0.0454649, 0.07485219, 0.0175073, -0.08146337, 0.09793404, 0.03719595, -0.9371984, -0.3486266, 126.6938
 162157255, -0.03188199, -0.05347798, 0.1283287, 0.07485349, -0.07576856, -0.1486738, 0.1928561, 0.03719279, -0.9364187, -0.3498621, 126.696
 162357258, -0.1170939, -0.1067238, 0.1931084, 0.07485387, -0.1049404, -0.0449116, 0.1267912, 0.0371978, -0.937776, -0.3463975, 126.6967
 162557230, -0.1533329, -0.006016377, 0.1301307, 0.07485872, -0.1097686, 0.08124384, -0.007862888, 0.03719483, -0.9366539, -0.3482394, 126.7048
 162757276, -0.1714792, 0.08600146, -0.01336178, 0.07485332, -0.02557303, 0.1428141, -0.1226331, 0.03719223, -0.9354926, -0.3511462, 126.6957
 162957281, -0.08479563, 0.138754, -0.1235044, 0.07485294, 0.05575541, 0.06641874, -0.1084516, 0.03719743, -0.9363597, -0.350359, 126.6951
 163157390, -0.01608782, 0.07739384, -0.07667454, 0.0748561, -0.02055197, -0.061307, 0.08415756, 0.03719259, -0.9371495, -0.3487867, 126.7004
 163357250, -0.08615471, -0.0207942, 0.09021977, 0.07485293, -0.08120296, -0.1162921, 0.1246489, 0.0371965, -0.9375934, -0.3472892, 126.6951
 163557238, -0.1284884, -0.06060646, 0.1094511, 0.07485741, -0.07107439, 0.004833518, 0.03442731, 0.03719353, -0.9372142, -0.3481011, 126.7026
 163757256, -0.09876937, 0.06367372, -0.008303504, 0.0748535, 0.01427956, 0.1700385, -0.1240718, 0.03719706, -0.9378033, -0.3468891, 126.696
 163957275, -0.03297377, 0.2137745, -0.1320847, 0.07485501, 0.0410261, 0.1805567, -0.1473552, 0.03719408, -0.9375176, -0.347885, 126.6986
 164157246, -0.0122319, 0.2304501, -0.1387284, 0.07485516, -0.007154197, 0.0583377, -0.01898715, 0.03719483, -0.9372349, -0.3483247, 126.6989
 164357256, -0.07232197, 0.129648, -0.003586367, 0.0748591, -0.05842972, -0.05443573, 0.06982554, 0.03719539, -0.9378833, -0.3466698, 126.7055
 164557276, -0.1132933, 0.02657698, 0.08767384, 0.07485554, -0.1236752, -0.1280361, 0.1634611, 0.03719372, -0.9372815, -0.3485677, 126.6995
 164757262, -0.1703629, -0.039991, 0.186355, 0.07485369, -0.04030661, -0.01203288, 0.06131804, 0.03719762, -0.9371842, -0.3487902, 126.6963
 164957412, -0.0959453, 0.08241268, 0.0388392, 0.07485907, -0.006310166, 0.1574442, -0.1465833, 0.03719687, -0.9370655, -0.3491461, 126.7055
 165157385, -0.08763783, 0.2222764, -0.1597301, 0.0748546, 0.01353295, 0.2069092, -0.1893203, 0.03719167, -0.936779, -0.3499042, 126.6979
 165357366, -0.08085623, 0.220756, -0.1711109, 0.07485183, -0.03021363, 0.04821088, -0.08812552, 0.03719706, -0.936061, -0.3513687, 126.6932
 165557239, -0.1290449, 0.0328006, -0.05145264, 0.07485759, -0.1131092, -0.126723, 0.1316527, 0.03719465, -0.936409, -0.3490956, 126.7029
 165757259, -0.2052737, -0.1397072, 0.160228, 0.07485314, -0.1235777, -0.1608884, 0.172954, 0.03719148, -0.9354662, -0.3496218, 126.6954
 165957272, -0.2057947, -0.161136, 0.1682407, 0.07485367, -0.02584358, 0.02458005, -0.02725139, 0.03719798, -0.9355998, -0.3488099, 126.6963
 166157263, -0.1307344, 0.01585909, -0.03570034, 0.07485589, -0.01900454, 0.1389072, -0.2213947, 0.03719576, -0.9360325, -0.3484603, 126.7001
 166357270, -0.1410616, 0.1082101, -0.2046488, 0.07485276, -0.03040541, 0.03063326, -0.07667483, 0.03719204, -0.9361918, -0.3491578, 126.6948
 166557264, -0.1485352, 0.0144123, -0.03180825, 0.074852, -0.09873761, -0.131906, 0.193133, 0.03719892, -0.9369721, -0.3473857, 126.6935
 166757374, -0.1867668, -0.09679705, 0.2136984, 0.07485796, -0.08973254, -0.08506769, 0.1527584, 0.03719223, -0.9370963, -0.3484062, 126.7036
 166957257, -0.1363453, 0.0097978, 0.166086, 0.07485332, -0.005413568, 0.1150751, -0.03310436, 0.03719762, -0.9375406, -0.3477972, 126.6957
 167157267, -0.0316322, 0.2223924, -0.0326874, 0.07485498, 0.06759855, 0.228977, -0.1836425, 0.03719167, -0.9371378, -0.3482069, 126.6986
 167357272, 0.02854801, 0.3140407, -0.1752664, 0.07485126, 0.02990956, 0.175384, -0.1720624, 0.03719465, -0.9367941, -0.3491592, 126.6923
 167557244, -0.03059645, 0.2238528, -0.1470758, 0.07485871, -0.08974479, -0.01289928, 0.05004953, 0.03719762, -0.9370751, -0.3491238, 126.7048
 167757282, -0.1665505, 0.01587781, 0.07211226, 0.07485498, -0.1020694, -0.1421141, 0.1821101, 0.03719483, -0.9367053, -0.3493667, 126.6986
 167957266, -0.1863219, -0.115425, 0.1958904, 0.07485408, -0.1106304, -0.1201162, 0.179309, 0.03719538, -0.9364735, -0.3485914, 126.697
 168157309, -0.1835482, -0.09102909, 0.1563152, 0.07485443, -0.01917085, 0.05041214, -0.04799248, 0.03719204, -0.9360682, -0.3492648, 126.6976
 168357278, -0.09236562, 0.0631256, -0.05967496, 0.07485221, 0.01525914, 0.158491, -0.1643177, 0.0371952, -0.9363936, -0.3489959, 126.6938
 168557400, -0.07130037, 0.1378445, -0.1660248, 0.07485797, -0.009254703, 0.08485085, -0.1784318, 0.03719892, -0.9358429, -0.3504543, 126.7036
 168757261, -0.1009108, 0.03853642, -0.159506, 0.0748574, -0.08943244, -0.1226583, 0.1323347, 0.03719204, -0.9359203, -0.3488152, 126.7026
 168957305, -0.169969, -0.1471957, 0.1381182, 0.07485146, -0.09385294, -0.1424157, 0.1939001, 0.03719409, -0.9355775, -0.3488532, 126.6926
 169157218, -0.1616378, -0.1237407, 0.1829875, 0.07485706, 0.0001966915, 0.04802261, -0.007428987, 0.03719521, -0.9363471, -0.3487649, 126.702
 169357359, -0.06304028, 0.08051887, -0.01065753, 0.07485833, 0.03497958, 0.1691617, -0.1223963, 0.03719595, -0.9371068, -0.3485293, 126.7042
 169557384, -0.03241304, 0.1832954, -0.1010036, 0.07485758, -0.02529549, 0.04252522, -0.04957348, 0.03719762, -0.9371194, -0.3486934, 126.7029
 169757229, -0.08948882, 0.06211654, -0.009026926, 0.07485387, -0.08051611, -0.1093937, 0.1276779, 0.03719223, -0.937085, -0.348749, 126.6967
 169957262, -0.11904, -0.04049223, 0.1398989, 0.07485276, -0.1182912, -0.141786, 0.1971923, 0.03719408, -0.9380016, -0.3465701, 125.1111
 170157263, -0.1580815, -0.03507587, 0.2000911, 0.07485387, -0.03902747, -0.01676546, 0.07584102, 0.03719502, -0.9373547, -0.3482947, 126.6967
 170357396, -0.07595184, 0.1025697, 0.06238606, 0.07485554, 0.0233987, 0.1639698, -0.1132563, 0.03719502, -0.9372801, -0.3485011, 126.6995
 170557246, -0.04677533, 0.2446922, -0.106098, 0.074855, 0.02326477, 0.2206285, -0.2266938, 0.03719502, -0.9370713, -0.349137, 126.6986
 170757234, -0.06089215, 0.2531284, -0.1987945, 0.0748561, -0.01213273, 0.09840032, -0.1354748, 0.03719502, -0.9365906, -0.3501551, 126.7004
 170957277, -0.1089034, 0.08658636, -0.115185, 0.074855, -0.1092044, -0.1144016, 0.09726565, 0.03719538, -0.9356364, -0.3503733, 126.6986
 171157254, -0.1911012, -0.1351944, 0.103223, 0.07485497, -0.1312659, -0.1841904, 0.1892516, 0.03719464, -0.9352205, -0.3488942, 126.6986
 171357263, -0.2030151, -0.1875933, 0.1898223, 0.07485533, -0.05361063, -0.04835883, 0.0678084, 0.03719502, -0.9360676, -0.348191, 126.6992
 171557230, -0.1217452, -0.02557928, 0.0442693, 0.07485534, 0.001377259, 0.1402401, -0.09834617, 0.03719576, -0.9367277, -0.3487986, 126.6992
 171757246, -0.07332928, 0.1541166, -0.09787339, 0.07485628, 0.02811349, 0.1150532, -0.1127225, 0.03719521, -0.9368031, -0.34929, 126.7008
 171957279, -0.04850119, 0.1200341, -0.08967543, 0.07485425, -0.07913422, -0.07871669, 0.08437329, 0.03719464, -0.9365422, -0.3495273, 126.6973
 172157395, -0.154776, -0.06015622, 0.09699155, 0.07485591, -0.08706922, -0.1120566, 0.1393529, 0.03719502, -0.9363723, -0.3488377, 126.7001
 172357260, -0.1540028, -0.07040244, 0.1557171, 0.07485443, -0.01534193, 0.07551558, -0.0198013, 0.03719557, -0.9368827, -0.3482534, 126.6976
 172557253, -0.08962037, 0.1176595, -0.005582957, 0.07485516, 0.02447693, 0.1708222, -0.1291712, 0.03719389, -0.9371731, -0.3486669, 126.6989
 172757240, -0.05470458, 0.2167476, -0.1131307, 0.07485387, -0.04997821, 0.06249148, -0.08190806, 0.03719502, -0.9372783, -0.3485776, 126.6967
 172957251, -0.1207684, 0.1334711, -0.04870656, 0.07485495, -0.09814397, -0.06604406, 0.1053532, 0.03719557, -0.9366883, -0.3499358, 126.6986
 173157253, -0.1393736, 0.04662581, 0.1053765, 0.07485499, -0.08609352, -0.08460891, 0.127761, 0.03719446, -0.9370913, -0.3488789, 126.6986
 173357250, -0.1252755, 0.03039715, 0.1118552, 0.07485444, -0.0236307, 0.04497847, -0.0004331775, 0.03719501, -0.9366809, -0.3501643, 126.6976
 173557375, -0.06648449, 0.1231149, -0.02666777, 0.07485557, 0.01931284, 0.1834809, -0.1678637, 0.03719483, -0.9369565, -0.349347, 126.6995
 173757377, -0.04373325, 0.1978297, -0.1549007, 0.07485499, 0.01294032, 0.121518, -0.1660495, 0.0371952, -0.936654, -0.3493167, 126.6986
 173957413, -0.06725989, 0.08879755, -0.1340914, 0.07485609, -0.09303505, -0.07672539, 0.0641003, 0.03719501, -0.9362371, -0.3486978, 126.7004
 174157252, -0.1714319, -0.1089473, 0.08677764, 0.074855, -0.1027544, -0.1542345, 0.1721969, 0.03719502, -0.9352815, -0.3491255, 126.6986
 174377279, -0.1927792, -0.1720991, 0.1709177, 0.07857449, -0.08005565, -0.001872595, 0.01889603, 0.04091508, -0.9360538, -0.3497494, 132.9941
 174557257, -0.1591557, -0.006176474, 0.04535563, 0.07485499, 0.003230219, 0.1235503, -0.07474417, 0.03347495, -0.93646, -0.3493374, 126.6986
 174757254, -0.07935454, 0.1350326, -0.06527715, 0.07113493, -0.00334294, 0.0766675, -0.1072565, 0.03719502, -0.9364607, -0.3498809, 120.402
 174957312, -0.102396, 0.08519622, -0.07102418, 0.07485516, -0.1145838, -0.1010541, 0.1234322, 0.0371965, -0.936368, -0.3494041, 126.6989
 175157255, -0.2095786, -0.06543029, 0.1287822, 0.07485498, -0.08090525, -0.07180689, 0.07983565, 0.03719334, -0.9362687, -0.3489832, 126.6986
 175357241, -0.1644049, -0.02479083, 0.06392659, 0.07485332, -0.007873485, 0.1023081, -0.1063784, 0.0371952, -0.9357355, -0.3514091, 126.6957
 175557266, -0.09442484, 0.127818, -0.09565416, 0.07485517, -0.023439, 0.1061006, -0.1541079, 0.03719502, -0.9356802, -0.3520355, 126.6989
 175757384, -0.09988814, 0.121249, -0.1311158, 0.07485816, -0.07966519, -0.07404502, 0.114313, 0.03719519, -0.9354126, -0.3525931, 126.7039
 175957274, -0.1258758, -0.03496739, 0.1433972, 0.07485497, -0.08130705, -0.107254, 0.1632273, 0.03719483, -0.9358777, -0.351668, 126.6986
 176157261, -0.1066874, -0.02998003, 0.1524449, 0.07485592, -0.008637278, 0.0353205, -0.000256917, 0.03719501, -0.9366746, -0.3501455, 126.7001
 176357252, -0.03256809, 0.1230204, -0.01642939, 0.07485499, 0.01876334, 0.1867612, -0.1441748, 0.03719501, -0.9371272, -0.3489503, 126.6986
 176557259, -0.0154109, 0.2498845, -0.1479403, 0.07485777, 0.02595061, 0.1309749, -0.1129534, 0.03719781, -0.9374661, -0.3480729, 126.7033
 176757259, -0.03002575, 0.1559774, -0.09247829, 0.07485629, -0.08312503, -0.06831335, 0.07037884, 0.03719223, -0.937062, -0.348636, 126.7008
 176957254, -0.1421125, -0.05136503, 0.09386174, 0.07485221, -0.09908657, -0.146099, 0.1530557, 0.03719502, -0.9365333, -0.3485167, 126.6938
 177157255, -0.1586625, -0.1156586, 0.1406944, 0.07485501, -0.01950017, 0.008735877, 0.01217802, 0.03719966, -0.9363407, -0.3485765, 126.6986
 177357248, -0.09099672, 0.02690255, 0.0005669575, 0.07485554, -1.901833E-05, 0.1456014, -0.1951604, 0.03719036, -0.9361867, -0.3497499, 126.6995
 177557387, -0.08487032, 0.1339523, -0.1880588, 0.07485221, -0.0277122, 0.06729453, -0.1246555, 0.03719595, -0.9359388, -0.3499324, 126.6938
 177757372, -0.1271334, 0.05223837, -0.1101291, 0.07485499, -0.09586781, -0.115271, 0.1372855, 0.03719408, -0.9361241, -0.3484541, 126.6986
