TimeUS,CAN,CAE,CAD,CAe
 170463454, 0, 0, 0, 0
 170535925, 0.2397047, 3.422091, 0.05192735, 0.4425346
 170635885, -9.259952E-05, 0.003620269, -0.0001546134, 0.0002593961
 170735845, -0.0001496844, 0.003538253, -8.259092E-05, 0.0002593961
 170835805, 7.690443E-05, 0.003601778, 9.574639E-06, 0.0002593961
 170935765, -0.0001856543, 0.003602785, -4.719514E-05, 0.0002593961
 171035725, 0.0001069686, 0.003614105, -0.000101602, 0.0002593961
 171135685, 0.0001391077, 0.003418721, -0.0001201066, 0.0002593961
 171236478, 0.0002041089, 0.003706175, -0.0001202631, 0.0002615578
 171336438, -0.0001285387, 0.003629216, -0.0002047292, 0.0002593961
 171436398, -3.304032E-05, 0.003612438, -3.276825E-05, 0.0002593961
 171536358, -0.0001047517, 0.00346623, -0.0001379868, 0.0002593961
 171636318, 0.0001530226, 0.003797741, -0.0002218956, 0.0002593961
 171736278, -0.0001046112, 0.003690118, -0.0001722672, 0.0002593961
 171836238, 4.078203E-05, 0.003692136, -4.085217E-05, 0.0002593961
 171936198, -0.0001448595, 0.003671595, 6.682701E-05, 0.0002593961
 172036158, 0.0001356547, 0.00392388, -0.0001327735, 0.0002593961
 172136118, 1.228423E-05, 0.003635997, -9.660312E-05, 0.0002593961
 172236078, 7.788819E-05, 0.003493922, -0.0001280928, 0.0002593961
 172336038, 0.0001559421, 0.003568097, -3.85452E-05, 0.0002593961
 172435998, 2.150055E-05, 0.003553833, -3.733213E-05, 0.0002593961
 172535958, 0.0002565133, 0.003667283, -5.400159E-05, 0.0002593961
 172635918, -5.147586E-05, 0.003541536, 1.062207E-05, 0.0002593961
 172735878, 0.0001082732, 0.003545405, 0.0002009958, 0.0002593961
 172835838, 8.175043E-05, 0.003672976, -4.176594E-06, 0.0002593961
 172935798, -0.0001029455, 0.003574423, -0.0001052673, 0.0002593961
 173035758, -0.000301806, 0.003527921, -0.00025265, 0.0002593961
 173135718, -5.049444E-05, 0.003817406, -0.0001704428, 0.0002593961
 173235678, 4.570547E-05, 0.00347959, -7.526366E-05, 0.0002593961
 173336471, -4.203396E-05, 0.00356996, -9.206466E-05, 0.0002615578
 173436431, -0.0001083335, 0.00390464, -0.000154829, 0.0002593961
 173536391, -0.0001374954, 0.003787109, -0.0001431727, 0.0002593961
 173636351, 0.0001322526, 0.00367474, -0.0001406572, 0.0002593961
 173736311, 3.86629E-05, 0.003528394, -3.945441E-05, 0.0002593961
 173836271, 5.320147E-05, 0.003612212, -0.0001446443, 0.0002593961
 173936231, 4.4482E-05, 0.003606321, -0.0001426579, 0.0002593961
 174036191, -0.0001297033, 0.00358266, -0.0001491522, 0.0002593961
 174136151, -0.0001886919, 0.003550013, -0.0001681418, 0.0002593961
 174236111, -1.775294E-05, 0.003477076, -2.883355E-05, 0.0002593961
 174336071, -9.548213E-05, 0.003585579, 5.117157E-05, 0.0002593961
 174436031, -0.0001182448, 0.003645734, 0.0001453688, 0.0002593961
 174535991, -0.0002268831, 0.003594568, -6.739899E-05, 0.0002593961
 174635951, 0.0001473807, 0.00362483, -8.902206E-05, 0.0002593961
 174735911, -0.0001648118, 0.003790581, 5.940325E-05, 0.0002593961
 174835871, 0.0001457809, 0.003492625, -5.327358E-05, 0.0002593961
 174935831, -2.45114E-05, 0.00350855, -3.075547E-06, 0.0002593961
 175035791, -9.06587E-05, 0.003592412, -0.0002738822, 0.0002593961
 175135751, -4.5546E-05, 0.003530698, 2.719386E-05, 0.0002593961
 175235711, -0.0002058759, 0.003624707, -0.0001539365, 0.0002593961
 175335671, -2.925939E-05, 0.003715808, 4.048277E-05, 0.0002593961
 175436464, -5.417616E-05, 0.003537965, -7.96238E-05, 0.0002615578
 175536424, 1.156237E-05, 0.003825374, -7.332013E-05, 0.0002593961
 175636384, 9.267582E-06, 0.003661169, -3.402182E-05, 0.0002593961
 175736344, 2.457191E-05, 0.003402848, -3.847728E-05, 0.0002593961
 175836304, 0.0001189887, 0.003700841, -6.186275E-05, 0.0002593961
 175936264, 6.140956E-05, 0.003813062, -0.0001955823, 0.0002593961
 176036224, -8.834111E-05, 0.003597483, -0.0001440544, 0.0002593961
 176136184, -3.449712E-05, 0.003350117, -1.215925E-05, 0.0002593961
 176236144, -0.0001095781, 0.003662708, 0.0001074695, 0.0002593961
 176336104, 3.037761E-05, 0.003341345, -0.0002550404, 0.0002593961
 176436064, 2.881997E-05, 0.003573556, -0.0002429109, 0.0002593961
 176536024, -5.57067E-05, 0.003737745, 2.907902E-05, 0.0002593961
 176635984, 0.0001305078, 0.003750397, -4.612507E-05, 0.0002593961
 176735944, 0.0002042787, 0.003485128, -4.73429E-05, 0.0002593961
 176835904, -5.052637E-05, 0.003580777, -7.328914E-05, 0.0002593961
 176935864, 5.817412E-06, 0.003693393, 4.861435E-05, 0.0002593961
 177035824, -5.195737E-05, 0.00374105, -8.498129E-05, 0.0002593961
 177135784, 0.0002253279, 0.003523127, -8.315215E-05, 0.0002593961
 177235744, 0.0001926532, 0.003740369, -4.436506E-05, 0.0002593961
 177335704, 7.627509E-05, 0.003615588, -0.0001280654, 0.0002593961
 177435664, 5.088182E-05, 0.003622028, -0.0002037366, 0.0002593961
 177536457, 6.238528E-05, 0.003563729, -9.349259E-05, 0.0002615578
 177636417, 0.0001057795, 0.00341354, 0.0001678403, 0.0002593961
 177736377, 7.959735E-05, 0.003667895, -0.0001878797, 0.0002593961
 177836337, 0.0003170987, 0.00354817, 0.0001184621, 0.0002593961
 177936297, 7.534163E-05, 0.003560697, -0.000344097, 0.0002593961
 178036257, -0.0001043181, 0.003415335, -1.333417E-05, 0.0002593961
 178136217, 0.0001218862, 0.003721157, 7.180202E-05, 0.0002593961
 178236177, 2.340944E-05, 0.003508824, -8.07177E-05, 0.0002593961
 178336137, 8.557199E-05, 0.00360098, -7.142904E-05, 0.0002593961
 178436097, -0.0002233942, 0.003560001, -5.793279E-05, 0.0002593961
 178536057, 4.156954E-05, 0.00344611, -1.935185E-05, 0.0002593961
 178636017, -0.0002121306, 0.003698354, -3.983929E-05, 0.0002593961
 178735977, 4.268177E-05, 0.003577814, -0.0001492785, 0.0002593961
 178835937, 0.0001881549, 0.00362743, -7.900414E-05, 0.0002593961
 178935897, 0.0001650198, 0.003645287, -6.08892E-05, 0.0002593961
 179035857, 9.300376E-05, 0.003526109, -7.739903E-05, 0.0002593961
 179135817, -0.0001444889, 0.003401671, -7.71345E-05, 0.0002593961
 179235777, 2.461794E-05, 0.003312264, -0.0001977737, 0.0002593961
 179335737, -7.851831E-05, 0.003342992, -0.0001831085, 0.0002593961
 179435697, -0.0001165304, 0.003447415, -0.0001590247, 0.0002593961
 179535657, -5.969237E-05, 0.00364839, -5.714632E-05, 0.0002593961
 179636450, 0.0001927765, 0.003655101, -0.0001349902, 0.0002615578
 179736410, 2.379147E-05, 0.003458089, -0.0001489615, 0.0002593961
 179836370, -8.26938E-05, 0.003658928, 6.879913E-05, 0.0002593961
 179936330, -0.0001376431, 0.003590938, 0.0001115972, 0.0002593961
 180036290, -9.079789E-05, 0.003395563, -7.25742E-05, 0.0002593961
 180136250, 0.0001454592, 0.003689084, -5.230598E-05, 0.0002593961
 180236210, -0.0001140166, 0.003592587, -0.0001192402, 0.0002593961
 180336170, -0.0001240303, 0.003537992, -0.0003262823, 0.0002593961
 180436130, 7.82461E-05, 0.003615114, -5.305193E-05, 0.0002593961
 180536090, -3.750356E-06, 0.003626311, -0.0001463352, 0.0002593961
 180636050, -6.293655E-05, 0.003630357, -3.848562E-05, 0.0002593961
 180736010, -1.340554E-05, 0.003468499, -0.0001684576, 0.0002593961
 180835970, -3.388035E-05, 0.003385625, -9.206665E-05, 0.0002593961
 180935930, -3.460612E-05, 0.003442885, 5.058407E-06, 0.0002593961
 181035890, -5.895636E-05, 0.003539306, -0.0002118503, 0.0002593961
 181135850, -0.0001663866, 0.003415764, -9.179018E-05, 0.0002593961
 181235810, 8.055451E-05, 0.003683678, -0.000127031, 0.0002593961
 181335770, -7.507417E-05, 0.003421021, 6.365137E-05, 0.0002593961
 181435730, -0.0001678916, 0.003461898, -0.0001676854, 0.0002593961
 181535690, 5.384027E-05, 0.003482633, -1.276578E-05, 0.0002593961
 181636483, 0.0001945308, 0.003426442, 0.0001452612, 0.0002615578
 181736443, -2.620858E-05, 0.003620155, 8.689621E-05, 0.0002593961
 181836403, 6.372026E-05, 0.003707502, -0.0002028476, 0.0002593961
 181936363, 6.495293E-05, 0.003587001, -0.0002808746, 0.0002593961
 182036323, 0.0002263542, 0.003788923, 2.00692E-05, 0.0002593961
 182136283, 0.0001548054, 0.003688394, -8.051273E-05, 0.0002593961
 182236243, 0.0001455134, 0.003524117, 0.0001006117, 0.0002593961
 182336203, -0.0001252278, 0.003632787, 2.663023E-05, 0.0002593961
 182436163, -0.0002721582, 0.003464931, -7.440212E-05, 0.0002593961
 182536123, -2.340686E-05, 0.003667629, -6.161846E-06, 0.0002593961
 182636083, 0.0001840091, 0.003548478, -5.010031E-05, 0.0002593961
 182736043, -0.000237762, 0.003651628, 0.0001064173, 0.0002593961
 182836003, 0.0001462121, 0.003735576, 0.0001049909, 0.0002593961
 182935963, 9.717942E-05, 0.003730228, 9.801519E-05, 0.0002593961
 183035923, 2.102758E-05, 0.003559028, -0.0001023241, 0.0002593961
 183135883, 5.445832E-05, 0.003491451, -0.0001049587, 0.0002593961
 183235843, 3.260939E-05, 0.003699529, 0.0001166413, 0.0002593961
 183335803, -0.0001723801, 0.003620544, 5.516586E-05, 0.0002593961
 183435763, -0.0001006745, 0.003342251, -6.737993E-05, 0.0002593961
 183535723, -7.547854E-05, 0.003772483, -1.981181E-05, 0.0002593961
 183635683, 0.0001118798, 0.003570476, -2.614405E-05, 0.0002593961
 183736476, -0.0001333773, 0.003731477, 5.214591E-05, 0.0002615578
 183836436, -5.631033E-05, 0.0035138, -0.0002691992, 0.0002593961
 183936396, -0.0002151041, 0.00351972, -0.0002496734, 0.0002593961
 184036356, 3.426239E-05, 0.003466914, 4.957137E-06, 0.0002593961
 184136316, -0.0001357716, 0.003559053, -8.06724E-05, 0.0002593961
 184236276, 0.0001050841, 0.003650333, -0.000141583, 0.0002593961
 184336236, 2.213473E-05, 0.003600689, -0.0001284193, 0.0002593961
 184436196, -1.964294E-05, 0.003618461, -4.333903E-06, 0.0002593961
 184536156, 2.427787E-05, 0.003777407, -5.196638E-05, 0.0002593961
 184636116, -2.775853E-05, 0.003552567, 6.546381E-05, 0.0002593961
 184736076, -2.309466E-05, 0.003493225, -0.0001284729, 0.0002593961
 184836036, -9.800326E-05, 0.003476981, -4.024087E-06, 0.0002593961
 184935996, 8.391471E-05, 0.003454845, 0.0002534961, 0.0002593961
 185035956, 6.083791E-05, 0.003741816, -0.00020091, 0.0002593961
 185135916, 2.925788E-05, 0.003770213, -0.0002953194, 0.0002593961
 185235876, -0.0001747147, 0.003708557, -0.000110918, 0.0002593961
 185335836, -4.148152E-05, 0.003734171, 9.789127E-05, 0.0002593961
 185435796, -2.633364E-05, 0.003526511, 1.738328E-05, 0.0002593961
 185535756, -4.591821E-05, 0.003415213, -2.646578E-06, 0.0002593961
 185635716, 3.339625E-05, 0.003583996, -0.0004079045, 0.0002593961
 185735676, -6.99943E-06, 0.003791931, -0.0001260265, 0.0002593961
 185836469, 4.125499E-05, 0.003424842, -0.0001655028, 0.0002615578
 185936429, 0.0001883425, 0.003612458, -0.0001840868, 0.0002593961
 186036389, -9.62983E-05, 0.003502507, -0.0002659116, 0.0002593961
 186136349, 0.0001633411, 0.003459705, -3.424708E-06, 0.0002593961
 186236309, 9.880158E-05, 0.003540334, 1.828177E-05, 0.0002593961
 186336269, -1.132101E-05, 0.00376034, -6.659705E-05, 0.0002593961
 186436229, -0.0001181227, 0.00378978, -0.0002032575, 0.0002593961
 186536189, -0.0001141974, 0.003718355, -0.00026385, 0.0002593961
 186636149, 0.0001533475, 0.003724289, -0.0001631548, 0.0002593961
 186736109, 0.000381249, 0.003817534, -7.387423E-05, 0.0002593961
 186836069, -0.0001221582, 0.003869389, 0.0001704047, 0.0002593961
 186936029, -7.395066E-05, 0.003527283, -0.0001051101, 0.0002593961
 187035989, 5.429266E-05, 0.003549299, -0.0001585326, 0.0002593961
 187135949, 7.258655E-05, 0.003666124, -6.436037E-05, 0.0002593961
 187235909, 6.332514E-06, 0.003620575, 3.358568E-05, 0.0002593961
 187335869, -1.581151E-05, 0.003699194, -7.565093E-05, 0.0002593961
 187435829, -1.432843E-05, 0.003767804, -8.726328E-05, 0.0002593961
 187535789, -5.247696E-05, 0.003606118, -0.0001064673, 0.0002593961
 187635749, -0.0001029894, 0.003620134, -0.0001615902, 0.0002593961
 187735709, -5.444058E-05, 0.003490895, 4.119774E-05, 0.0002593961
 187835669, 3.960597E-05, 0.003953394, -0.0001133989, 0.0002593961
 187936462, -3.199679E-05, 0.003530167, -3.454456E-05, 0.0002615578
 188036422, 0.0001815689, 0.003575877, 3.797799E-05, 0.0002593961
 188136382, 0.0001021213, 0.003742058, -3.680663E-05, 0.0002593961
 188236342, 0.0002000504, 0.003532816, 2.932328E-05, 0.0002593961
 188336302, -5.367559E-05, 0.003609859, 5.708437E-05, 0.0002593961
 188436262, 0.0001869877, 0.003747914, 6.664708E-05, 0.0002593961
 188536222, -6.65948E-05, 0.003558257, 5.739657E-05, 0.0002593961
 188636182, 4.708203E-06, 0.00353028, -0.0001411279, 0.0002593961
 188736142, -2.38434E-05, 0.003765061, -1.094142E-05, 0.0002593961
 188836102, -6.01225E-05, 0.003672951, 0.0001519501, 0.0002593961
 188936062, 0.0001028717, 0.003675607, -0.0002323282, 0.0002593961
 189036022, 4.131982E-05, 0.00348168, -3.834859E-05, 0.0002593961
 189135982, 0.0001505857, 0.003557081, 0.0001394084, 0.0002593961
 189235942, 1.453105E-05, 0.003590523, -0.0001445716, 0.0002593961
 189335902, 0.0001012995, 0.003542668, -0.0001627998, 0.0002593961
 189435862, 5.089546E-05, 0.003569673, 2.761214E-05, 0.0002593961
 189535822, 0.0001011489, 0.003614921, -6.219878E-05, 0.0002593961
 189635782, -6.657171E-05, 0.003531108, -0.0001655155, 0.0002593961
 189735742, 3.767207E-05, 0.00367271, -0.0003454364, 0.0002593961
 189835702, 0.0001594922, 0.003591044, -0.0002243599, 0.0002593961
 189935662, 1.556235E-06, 0.003396714, -0.0002559341, 0.0002593961
 190036455, -0.0001261831, 0.003528523, -8.392432E-05, 0.0002615578
 190136415, 0.0001149692, 0.003633153, -0.0001157691, 0.0002593961
 190236375, 0.0001015646, 0.003454504, 1.382155E-05, 0.0002593961
 190336335, -1.630731E-05, 0.003624352, -2.175058E-05, 0.0002593961
 190436295, 0.0001299415, 0.003562818, -0.0001166354, 0.0002593961
 190536255, -5.641072E-05, 0.00372909, -0.000112454, 0.0002593961
 190636215, 5.62549E-05, 0.003634468, 5.252762E-05, 0.0002593961
 190736175, -7.09314E-05, 0.003684044, -0.0001313375, 0.0002593961
 190836135, 8.107923E-05, 0.003682182, -4.839509E-05, 0.0002593961
 190936095, -0.0001236199, 0.003268396, -8.919242E-06, 0.0002593961
 191036055, -5.590884E-05, 0.003572642, -0.0002035841, 0.0002593961
 191136015, -0.0001407267, 0.003545684, -1.744407E-05, 0.0002593961
 191235975, 0.0002398277, 0.003527921, 4.257646E-05, 0.0002593961
 191335935, 9.465667E-05, 0.003595314, 6.917213E-05, 0.0002593961
 191435895, -0.0001771438, 0.003468741, -0.0002747902, 0.0002593961
 191535855, -2.53825E-05, 0.003560849, -0.0001804798, 0.0002593961
 191635815, -9.567595E-05, 0.00358093, -5.516229E-05, 0.0002593961
 191735775, 5.434659E-05, 0.003529266, 0.0001125863, 0.0002593961
 191835735, -6.2705E-05, 0.003577863, -1.426126E-05, 0.0002593961
 191935695, 9.882745E-05, 0.003548345, 9.438909E-05, 0.0002593961
 192035655, -3.246742E-05, 0.003706936, -3.608572E-05, 0.0002593961
 192136448, -9.088415E-05, 0.003619795, 1.229232E-05, 0.0002615578
 192236408, -5.531215E-05, 0.003540552, -0.0001848626, 0.0002593961
 192336368, 2.910793E-05, 0.0036863, -7.992169E-05, 0.0002593961
 192436328, 0.0001760273, 0.003678085, 5.166966E-05, 0.0002593961
 192536288, 2.830056E-05, 0.003600418, 0.0002311127, 0.0002593961
 192636248, -2.878601E-05, 0.003877378, -8.684141E-05, 0.0002593961
 192736208, -0.0002184895, 0.003601064, -0.0001830167, 0.0002593961
 192836168, -9.286925E-05, 0.003592935, 4.894207E-05, 0.0002593961
 192936128, 0.0001028105, 0.003781894, -2.063761E-05, 0.0002593961
 193036088, 5.649029E-05, 0.00364843, 8.663645E-05, 0.0002593961
 193136048, -0.0001871249, 0.003460864, -5.796976E-05, 0.0002593961
 193236008, 0.0001152891, 0.003535108, -9.128972E-05, 0.0002593961
 193335968, 4.473723E-05, 0.003781396, -0.0002104215, 0.0002593961
 193435928, 9.688432E-05, 0.003642474, -0.000194386, 0.0002593961
 193535888, -9.853251E-06, 0.003576787, -0.0001428819, 0.0002593961
 193635848, -1.518954E-05, 0.00364087, -1.114162E-05, 0.0002593961
 193735808, -1.789566E-05, 0.003739092, -9.450231E-05, 0.0002593961
 193835768, -2.305834E-05, 0.003400097, 6.735728E-05, 0.0002593961
 193935728, 9.685944E-05, 0.00335222, -0.0001581084, 0.0002593961
 194035688, 1.410711E-05, 0.003573138, -0.000214709, 0.0002593961
 194136481, -0.000223395, 0.003706328, 5.067785E-05, 0.0002615578
 194236441, 0.0002007711, 0.00339204, -4.930311E-05, 0.0002593961
 194336401, 0.0001392216, 0.00356655, 0.000158243, 0.0002593961
 194436361, 3.708721E-05, 0.003619169, -0.0001072514, 0.0002593961
 194536321, 3.048364E-05, 0.003749504, 5.376334E-05, 0.0002593961
 194636281, -1.190302E-05, 0.003598558, -8.454519E-05, 0.0002593961
 194736241, 0.0001580692, 0.003663677, -0.0001072192, 0.0002593961
 194836201, -9.078394E-05, 0.003459167, -0.0001354069, 0.0002593961
 194936161, -0.0001549516, 0.003573242, 5.407673E-05, 0.0002593961
 195036121, 8.937871E-05, 0.003607368, -9.268273E-05, 0.0002593961
 195136081, -3.299354E-06, 0.00347141, -0.0003291052, 0.0002593961
 195236041, -0.0002164115, 0.00351961, -4.56389E-05, 0.0002593961
 195336001, 0.00015301, 0.003473982, -7.457968E-05, 0.0002593961
 195435961, 3.758647E-05, 0.003599309, -0.0001260623, 0.0002593961
 195535921, 7.793413E-05, 0.003595729, -0.0001367451, 0.0002593961
 195635881, 6.056038E-05, 0.00360269, -1.090326E-06, 0.0002593961
 195735841, 0.0002207574, 0.003345818, -0.0002267371, 0.0002593961
 195835801, 1.845706E-05, 0.003540668, 0.0001704345, 0.0002593961
 195935761, 0.0001857584, 0.003557557, -5.502168E-05, 0.0002593961
 196035721, 0.0001290448, 0.00358106, 7.693787E-05, 0.0002593961
 196135681, -2.247161E-05, 0.003442949, 2.103084E-05, 0.0002593961
 196236474, -0.0002539017, 0.003526699, -8.679614E-05, 0.0002615578
 196336434, 2.678E-05, 0.003648302, -0.0001270251, 0.0002593961
 196436394, 0.0001277271, 0.003518893, -0.0001188685, 0.0002593961
 196536354, 6.679003E-05, 0.003457946, -2.98476E-05, 0.0002593961
 196636314, -0.000201509, 0.003514972, -6.392663E-05, 0.0002593961
 196736274, -3.144035E-05, 0.003437535, -0.0001096752, 0.0002593961
 196836234, 4.14304E-05, 0.003277648, -3.039693E-05, 0.0002593961
 196936194, -0.0001885243, 0.003508527, -1.999772E-05, 0.0002593961
 197036154, -0.0001274003, 0.003373787, 6.316994E-05, 0.0002593961
 197136114, 1.98291E-05, 0.003719722, -7.084038E-05, 0.0002593961
 197236074, 0.0002721815, 0.003544458, -6.511825E-05, 0.0002593961
 197336034, 0.0001126439, 0.003516938, -8.672701E-05, 0.0002593961
 197435994, -7.558355E-05, 0.003600466, -0.0001018748, 0.0002593961
 197535954, -5.901882E-05, 0.003350292, -0.0001694955, 0.0002593961
 197635914, -1.072697E-05, 0.003552774, -0.0001722231, 0.0002593961
 197735874, 0.000295558, 0.003617126, -0.0001144833, 0.0002593961
 197835834, 0.0001905393, 0.003659523, -0.000148678, 0.0002593961
 197935794, 0.0001923639, 0.003651681, -0.0001513829, 0.0002593961
 198035754, 0.0001628063, 0.003604083, -0.000290149, 0.0002593961
 198135714, 4.298079E-05, 0.003745752, -4.121681E-05, 0.0002593961
 198235674, 0.0002289501, 0.00358787, 2.95914E-05, 0.0002593961
 198336467, -2.681743E-05, 0.003515195, -9.67755E-05, 0.0002615578
 198436427, -8.003283E-05, 0.003635539, -5.631339E-05, 0.0002593961
 198536387, -0.0001249756, 0.003614168, 3.570068E-06, 0.0002593961
 198636347, 6.581422E-05, 0.003503398, -0.0001370799, 0.0002593961
 198736307, 0.0001211295, 0.003475292, 0.0002185257, 0.0002593961
 198836267, 0.0001483448, 0.003536969, -0.0001650615, 0.0002593961
 198936227, 0.0002264048, 0.003697523, -0.0001166223, 0.0002593961
 199036187, -8.668496E-05, 0.003857634, -2.542075E-05, 0.0002593961
 199136147, -7.483352E-05, 0.003376344, -0.0001229033, 0.0002593961
 199236107, -5.229828E-05, 0.003577338, 1.632037E-05, 0.0002593961
 199336067, -0.0001566055, 0.003419169, -9.972636E-06, 0.0002593961
 199436027, 0.0001995895, 0.003584135, -0.0001600781, 0.0002593961
 199535987, -8.17487E-05, 0.003542506, 1.387994E-05, 0.0002593961
 199635947, 8.918774E-05, 0.003367059, 7.316535E-06, 0.0002593961
 199735907, -3.821709E-06, 0.003599038, 9.058658E-06, 0.0002593961
 199835867, -0.0002416705, 0.003863768, -0.0001285599, 0.0002593961
 199935827, -0.0001129051, 0.003515515, -5.262177E-05, 0.0002593961
 200035787, 0.0002015781, 0.003480039, 4.42018E-05, 0.0002593961
 200135747, -1.828095E-05, 0.003476855, 8.792338E-05, 0.0002593961
 200235707, 0.0002588031, 0.003431008, 0.0001049539, 0.0002593961
 200335667, -0.0001828328, 0.003493397, -0.0003638218, 0.0002593961
 200436460, 0.0001676616, 0.00353712, -0.0001835577, 0.0002615578
 200536420, -7.640494E-05, 0.003706728, -0.0001495347, 0.0002593961
 200636380, -0.0001828566, 0.003629338, -5.74645E-05, 0.0002593961
 200736340, 8.13232E-05, 0.003512878, 0.0001276042, 0.0002593961
 200836300, 9.651321E-05, 0.003424717, -7.812713E-05, 0.0002593961
 200936260, -5.896142E-05, 0.003522903, 8.619794E-05, 0.0002593961
 201036220, 0.0001746882, 0.003599062, 2.86667E-05, 0.0002593961
 201136180, -7.748485E-05, 0.003478897, -0.0001728356, 0.0002593961
 201236140, -6.024769E-05, 0.003363276, 1.463781E-05, 0.0002593961
 201336100, -0.0002188398, 0.003482136, 8.160186E-05, 0.0002593961
 201436060, -0.0001598684, 0.003552146, -8.402799E-05, 0.0002593961
 201536020, 5.470765E-05, 0.003470713, -8.88886E-05, 0.0002593961
 201635980, 6.215781E-05, 0.003368122, 0.0001617154, 0.0002593961
 201735940, -7.546372E-05, 0.003490114, -8.769818E-05, 0.0002593961
 201835900, -0.0001576278, 0.003571576, -1.091511E-06, 0.0002593961
 201935860, 1.59233E-05, 0.003584862, -8.069743E-05, 0.0002593961
 202035820, 0.000160713, 0.003502737, -0.0001321776, 0.0002593961
 202135780, 6.592619E-05, 0.003677932, 9.353713E-05, 0.0002593961
 202235740, -1.173806E-06, 0.003522634, -0.0002710902, 0.0002593961
 202335700, 0.0001903076, 0.003606329, -7.763377E-05, 0.0002593961
 202435660, -1.337823E-05, 0.003407265, -0.0001908552, 0.0002593961
 202536453, 0.0002303205, 0.003544556, -5.087924E-05, 0.0002615578
 202636413, 9.912099E-05, 0.003429722, 1.176603E-05, 0.0002593961
 202736373, 6.348066E-05, 0.003640537, -7.248839E-05, 0.0002593961
 202836333, 0.0001063106, 0.003477004, -7.660182E-05, 0.0002593961
 202936293, -3.910271E-05, 0.003512746, -0.0002276106, 0.0002593961
 203036253, 0.0001356881, 0.003718119, 7.446648E-05, 0.0002593961
 203136213, 8.003606E-05, 0.003548691, -8.695938E-05, 0.0002593961
 203236173, -0.0001708611, 0.003614642, -0.0002586343, 0.0002593961
 203336133, -6.591826E-05, 0.003590421, -0.0001408645, 0.0002593961
 203436093, 0.0001742304, 0.003328945, 4.194608E-05, 0.0002593961
 203536053, -0.0001823124, 0.003743125, 0.0001901569, 0.0002593961
 203636013, 0.0002496951, 0.003589261, 2.853086E-05, 0.0002593961
 203735973, 3.094969E-05, 0.00369849, -0.0001106022, 0.0002593961
 203835933, 7.50209E-06, 0.003705241, -1.961161E-05, 0.0002593961
 203935893, 0.0001470002, 0.003735917, -5.605481E-05, 0.0002593961
 204035853, 9.590291E-05, 0.003504009, -0.0001342022, 0.0002593961
 204135813, -1.682267E-05, 0.003515892, 2.218075E-05, 0.0002593961
 204235773, 9.382221E-05, 0.003659886, -0.0001569454, 0.0002593961
 204335733, 8.398487E-05, 0.003670132, -0.0002372186, 0.0002593961
 204435693, 1.565165E-05, 0.003471587, -7.848816E-05, 0.0002593961
 204536486, 1.784049E-05, 0.003515658, 8.670916E-05, 0.0002593961
 204636446, 4.208496E-05, 0.003547314, 0.000149638, 0.0002615578
 204736406, 0.0001321778, 0.003386223, 0.000135134, 0.0002593961
 204836366, 6.079787E-05, 0.003369441, 3.463551E-05, 0.0002593961
 204936326, 3.620186E-05, 0.003525745, -0.0001141556, 0.0002593961
 205036286, -7.148141E-05, 0.003688475, -0.0002720817, 0.0002593961
 205136246, -3.433921E-05, 0.00356834, -1.311015E-05, 0.0002593961
 205236206, 2.198171E-05, 0.003551595, -0.0001618918, 0.0002593961
 205336166, -3.484725E-05, 0.003412848, 4.686387E-05, 0.0002593961
 205436126, 0.000118799, 0.003435601, 2.12346E-05, 0.0002593961
 205536086, 0.000227792, 0.00369697, -0.000145115, 0.0002593961
 205636046, 6.223279E-05, 0.003568565, -0.0001079151, 0.0002593961
 205736006, -3.934369E-05, 0.003424918, -9.704164E-05, 0.0002593961
 205835966, -9.98796E-05, 0.003733687, -4.803408E-06, 0.0002593961
 205935926, 0.0001906106, 0.003518694, -0.0001279784, 0.0002593961
 206035886, -4.642206E-05, 0.003442551, -0.0002067192, 0.0002593961
 206135846, 0.0003089927, 0.003462252, -0.0001094285, 0.0002593961
 206235806, -7.451977E-05, 0.003476037, -3.00025E-05, 0.0002593961
 206335766, 0.0001239702, 0.003400123, 1.376793E-05, 0.0002593961
 206435726, 0.0001079928, 0.003432882, 4.60643E-05, 0.0002593961
 206535686, 5.909029E-05, 0.003437207, -0.0001013446, 0.0002593961
 206636479, 2.76287E-05, 0.003697242, 5.128673E-05, 0.0002615578
 206736439, 0.0001642973, 0.003587857, -6.493112E-06, 0.0002593961
 206836399, -0.0001336812, 0.003700635, 1.87036E-05, 0.0002593961
 206936359, -0.0001384463, 0.00326601, -5.367396E-05, 0.0002593961
 207036319, 9.951122E-05, 0.003663224, -0.000254845, 0.0002593961
 207136279, 5.445117E-05, 0.003655626, -5.066752E-05, 0.0002593961
 207236239, 0.0001010532, 0.003391494, 2.611426E-05, 0.0002593961
 207336199, 1.51282E-05, 0.003438657, -3.33724E-05, 0.0002593961
 207436159, -0.0001298899, 0.003450073, 8.754327E-05, 0.0002593961
 207536119, 0.0001693007, 0.003368592, -0.0002502167, 0.0002593961
 207636079, 4.374968E-05, 0.003653885, 5.497639E-05, 0.0002593961
 207736039, -4.035253E-05, 0.00343179, -7.990981E-06, 0.0002593961
 207835999, 6.128703E-06, 0.00339228, 5.692588E-05, 0.0002593961
 207935959, 5.733838E-05, 0.003707931, -0.0001752617, 0.0002593961
 208035919, -0.0001430553, 0.003733516, 0.0001084394, 0.0002593961
 208135879, 2.976314E-05, 0.00349126, 7.334517E-05, 0.0002593961
 208235839, 0.0002117046, 0.00362518, -0.0001267999, 0.0002593961
 208335799, -0.000154439, 0.00359043, 0.0002485366, 0.0002593961
 208435759, 1.119877E-05, 0.003539232, -8.890529E-05, 0.0002593961
 208535719, 0.0001155069, 0.003635265, -0.0001185181, 0.0002593961
 208635679, -2.168513E-05, 0.003661994, -0.0001391545, 0.0002593961
 208736472, -3.180565E-05, 0.003779972, 7.558026E-06, 0.0002615578
 208836432, 0.0001633717, 0.003652897, -5.029812E-05, 0.0002593961
 208936392, 0.0001065284, 0.003646164, -0.0001236147, 0.0002593961
 209036352, 0.0002198161, 0.003450582, 0.0002520328, 0.0002593961
 209136312, 0.0001358318, 0.003562049, -1.534802E-05, 0.0002593961
 209236272, -1.321723E-07, 0.00355131, 3.205685E-05, 0.0002593961
 209336232, 9.340558E-05, 0.003760597, -2.060423E-05, 0.0002593961
 209436192, -4.460198E-05, 0.00338964, -0.0001030676, 0.0002593961
 209536152, -0.0002098068, 0.00348555, -4.184241E-05, 0.0002593961
 209636112, 2.527969E-05, 0.00358019, 0.0001287422, 0.0002593961
 209736072, -5.73842E-05, 0.003424196, -9.37766E-05, 0.0002593961
 209836032, -7.532435E-05, 0.003759341, 5.257051E-05, 0.0002593961
 209935992, 7.575882E-05, 0.003496422, 0.0001033691, 0.0002593961
 210035952, 8.62013E-05, 0.00363582, -3.414338E-05, 0.0002593961
 210135912, -0.0001485038, 0.003528667, 1.409085E-05, 0.0002593961
 210235872, -5.012231E-05, 0.003595701, 0.0001927224, 0.0002593961
 210335832, 4.664441E-05, 0.003603874, -0.0001435778, 0.0002593961
 210435792, 1.448302E-05, 0.003516175, 6.52112E-05, 0.0002593961
 210535752, -0.0001213337, 0.003217289, 2.117504E-06, 0.0002593961
 210635712, 7.736161E-05, 0.003407002, -4.046728E-05, 0.0002593961
 210735672, -0.0001105712, 0.003528864, 0.0001210217, 0.0002593961
 210836465, 3.234629E-05, 0.00370982, -6.657959E-06, 0.0002615578
 210936425, -6.625769E-05, 0.003637938, 2.270266E-05, 0.0002593961
 211036385, 0.0001895648, 0.003595221, -7.480973E-06, 0.0002593961
 211136345, -4.872883E-06, 0.003339314, -1.652769E-05, 0.0002593961
 211236305, -2.295493E-05, 0.003480606, -0.0002878766, 0.0002593961
 211336265, -0.0001697591, 0.003494188, -0.0002013247, 0.0002593961
 211436225, -9.620716E-05, 0.003689283, 1.271213E-05, 0.0002593961
 211536185, -3.971733E-05, 0.003416599, -0.0003961611, 0.0002593961
 211636145, -5.740697E-05, 0.00353169, -3.50776E-05, 0.0002593961
 211736105, -0.0001900347, 0.003502277, 4.252877E-05, 0.0002593961
 211836065, -0.0001755008, 0.003514154, -8.751347E-05, 0.0002593961
 211936025, 9.340348E-05, 0.003647066, 7.945696E-05, 0.0002593961
 212035985, 4.051139E-05, 0.003636007, -0.0001058953, 0.0002593961
 212135945, 8.757886E-05, 0.003364844, -6.360251E-05, 0.0002593961
 212235905, 8.76787E-07, 0.003586658, 0.0001734564, 0.0002593961
 212335865, -1.827873E-05, 0.003582246, 1.450674E-05, 0.0002593961
 212435825, 0.0001605268, 0.003319187, -0.000140507, 0.0002593961
 212535785, -2.848126E-05, 0.003595848, 9.209997E-05, 0.0002593961
 212635745, 8.544013E-05, 0.0034302, -2.919462E-06, 0.0002593961
 212735705, -0.0001175047, 0.003439236, -5.832842E-05, 0.0002593961
 212835665, -0.0002115649, 0.003450779, -6.870023E-05, 0.0002593961
 212936458, 0.000107303, 0.003471697, -0.0002092669, 0.0002615578
 213036418, -9.91062E-05, 0.003477105, -0.0002515859, 0.0002593961
 213136378, 0.0001480852, 0.003627167, 8.188785E-05, 0.0002593961
 213236338, -1.353842E-05, 0.00365468, 0.0001277722, 0.0002593961
 213336298, 3.082851E-05, 0.003495731, -2.563643E-05, 0.0002593961
 213436258, 1.71123E-05, 0.003544855, -6.241805E-05, 0.0002593961
 213536218, -1.218728E-05, 0.003554157, -6.285298E-05, 0.0002593961
 213636178, 2.736297E-05, 0.003376553, -0.0001762662, 0.0002593961
 213736138, -9.416739E-05, 0.003564578, -3.923277E-05, 0.0002593961
 213836098, 6.473446E-05, 0.003437821, -7.037326E-05, 0.0002593961
 213936058, 0.0001031891, 0.003602949, -7.1435E-05, 0.0002593961
 214036018, 0.0002225546, 0.003723462, 6.58356E-05, 0.0002593961
 214135978, 1.99452E-05, 0.003710868, -2.477369E-05, 0.0002593961
 214235938, 4.499096E-05, 0.003524736, -1.612018E-05, 0.0002593961
 214335898, 0.0004518589, 0.003511822, 8.288522E-05, 0.0002593961
 214435858, 8.87918E-05, 0.003550019, -3.395748E-05, 0.0002593961
 214535818, 0.0001529737, 0.0036373, -0.0001802903, 0.0002593961
 214635778, 6.787672E-05, 0.003635462, -9.081544E-05, 0.0002593961
 214735738, 4.163776E-05, 0.003792647, -1.284562E-05, 0.0002593961
 214835698, 0.0001041201, 0.003714652, -7.706777E-05, 0.0002593961
 214935658, 3.759673E-06, 0.003578552, -0.0003340099, 0.0002593961
 215036451, 7.230362E-05, 0.003568058, -0.0002014745, 0.0002615578
 215136411, -0.0001105823, 0.003716375, -2.481182E-05, 0.0002593961
 215236371, -8.400947E-06, 0.00371421, -6.91972E-06, 0.0002593961
 215336331, -5.388425E-05, 0.003519102, -3.562926E-06, 0.0002593961
 215436291, 0.0001099974, 0.003296135, 1.850697E-05, 0.0002593961
 215536251, -4.07674E-05, 0.003594077, -8.673655E-05, 0.0002593961
 215636211, 1.195391E-05, 0.003487184, 2.520745E-05, 0.0002593961
 215736171, 0.0002616734, 0.003420701, -0.0001274052, 0.0002593961
 215836131, 0.0001564729, 0.003408294, 0.0001112469, 0.0002593961
 215936091, 0.0001174868, 0.003415216, -5.985965E-05, 0.0002593961
 216036051, 5.576744E-06, 0.003422298, -4.686633E-06, 0.0002593961
 216136011, -1.712708E-06, 0.003544099, -7.478584E-05, 0.0002593961
 216235971, 6.974417E-05, 0.003393557, 8.361212E-05, 0.0002593961
 216335931, 0.0002238256, 0.00328393, -0.0002072494, 0.0002593961
 216435891, 0.0001205159, 0.00372218, -0.0001104426, 0.0002593961
 216535851, -8.170847E-05, 0.003453013, -0.0001116497, 0.0002593961
 216635811, -0.0001001003, 0.003459706, 8.727515E-05, 0.0002593961
 216735771, -0.0002368849, 0.00349644, -0.0002012699, 0.0002593961
 216835731, 3.816204E-05, 0.00336581, -0.0002576751, 0.0002593961
 216935691, 3.995881E-07, 0.003494693, -0.0002808603, 0.0002593961
 217036484, 6.642467E-05, 0.003474195, -0.0002468254, 0.0002615578
 217136444, 2.044437E-05, 0.003423444, -8.310569E-05, 0.0002593961
 217236404, 0.0001504, 0.003538579, 0.0001652545, 0.0002593961
 217336364, 1.353421E-05, 0.003450877, 6.021233E-05, 0.0002593961
 217436324, 2.434082E-05, 0.00345874, -0.0002032349, 0.0002593961
 217536284, -0.0001994249, 0.003507572, 2.516572E-05, 0.0002593961
 217636244, -0.0001307396, 0.003453638, -0.0001199111, 0.0002593961
 217736204, -0.0001111985, 0.00369005, 9.112526E-05, 0.0002593961
 217836164, -0.0001541363, 0.003651616, -3.058879E-05, 0.0002593961
 217936124, 9.252057E-05, 0.003523491, -0.0001938533, 0.0002593961
 218036084, -7.727173E-05, 0.00355571, -3.080328E-05, 0.0002593961
 218136044, -4.907869E-05, 0.003505237, -2.060662E-05, 0.0002593961
 218236004, 5.243561E-05, 0.003460307, -7.362638E-05, 0.0002593961
 218335964, 2.578532E-05, 0.003696159, 2.411593E-05, 0.0002593961
 218435924, 0.000201281, 0.003556481, -0.0001549816, 0.0002593961
 218535884, 2.965504E-05, 0.003521885, -0.0003290159, 0.0002593961
 218635844, -6.215346E-05, 0.003544423, -6.59322E-06, 0.0002593961
 218735804, 5.75821E-05, 0.003572913, -8.533997E-05, 0.0002593961
 218835764, 7.249196E-05, 0.003613096, -0.0001931419, 0.0002593961
 218935724, -4.81301E-05, 0.003676513, 2.489406E-05, 0.0002593961
 219035684, -4.74527E-05, 0.003573507, -0.0001674805, 0.0002593961
 219136477, 0.0002090517, 0.003918819, -0.0001570828, 0.0002615578
 219236437, 7.06017E-05, 0.003611413, -7.262542E-05, 0.0002593961
 219336397, 5.480837E-05, 0.003479798, 0.0001192689, 0.0002593961
 219436357, 0.0002151387, 0.003588435, -0.0001555893, 0.0002593961
 219536317, 3.69653E-05, 0.003491182, -0.0003668557, 0.0002593961
 219636277, -6.064129E-05, 0.003429996, 5.106075E-05, 0.0002593961
 219736237, -5.59095E-06, 0.003687506, -0.0001484253, 0.0002593961
 219836197, 0.000107647, 0.003554071, -1.904679E-05, 0.0002593961
 219936157, -1.51282E-05, 0.003487697, -0.0002031336, 0.0002593961
 220036117, 5.542856E-05, 0.00367396, 9.270776E-06, 0.0002593961
 220136077, 0.0001145689, 0.003584665, -0.0001489306, 0.0002593961
 220236037, 8.146753E-06, 0.003236358, -4.502283E-05, 0.0002593961
 220335997, -7.215344E-05, 0.00351546, 3.004422E-05, 0.0002593961
 220435957, 5.061554E-05, 0.003618348, -1.750007E-05, 0.0002593961
 220535917, -2.383579E-05, 0.003499972, -4.05924E-05, 0.0002593961
 220635877, -6.968997E-05, 0.003775523, -8.02756E-05, 0.0002593961
 220735837, 6.420848E-05, 0.003523014, 0.0001191914, 0.0002593961
 220835797, -0.0001656031, 0.003773082, -2.624893E-05, 0.0002593961
 220935757, 5.929248E-05, 0.00363056, -0.0002532601, 0.0002593961
 221035717, 4.508337E-05, 0.003551373, 5.499785E-05, 0.0002593961
 221135677, 0.000239474, 0.003529234, -2.068646E-05, 0.0002593961
 221236470, -1.943115E-05, 0.003501859, -0.000289525, 0.0002615578
 221336430, -9.864901E-05, 0.003541553, -0.0002844101, 0.0002593961
 221436390, 0.0001017008, 0.003643202, -0.0001012397, 0.0002593961
 221536350, 8.268564E-05, 0.003557461, 8.615386E-05, 0.0002593961
 221636310, 0.000197529, 0.003471068, -0.0001650329, 0.0002593961
 221736270, 0.0001754305, 0.003594495, -0.1178078, 0.0002593961
 221836230, 0.0002567924, 0.003904621, -0.1653424, 0.0002593961
 221936190, 6.560858E-05, 0.003663953, -0.0279855, 0.0002593961
 222036150, -5.33118E-05, 0.003522323, 0.04657819, 0.0002593961
 222136110, -6.449131E-05, 0.00348041, 0.05460128, 0.0002593961
 222236070, -5.927883E-05, 0.003501407, 0.0007381593, 0.0002593961
 222336030, -0.0003056468, 0.003193843, -0.5629358, 0.0002593961
 222435990, -0.002496024, 0.0008027609, -0.6906067, 0.0002593961
 222535950, -0.005304108, -0.002072013, -0.4279486, 0.0002593961
 222635910, -0.006823413, -0.004013477, -0.1696407, 0.0002593961
 222735870, -0.007403245, -0.004620623, -0.05781078, 0.0002593961
 222835830, -0.007423454, -0.00436469, -0.05977321, 0.0002593961
 222935790, -0.007276799, -0.004094548, -0.09758039, 0.0002593961
 223035750, -0.006837633, -0.003324921, -0.1219929, 0.0002593961
 223135710, -0.006272523, -0.002809342, -0.1227805, 0.0002593961
 223235670, -0.005926715, -0.002152462, -0.1107652, 0.0002593961
 223336463, -0.005453381, -0.001569306, -0.09789517, 0.0002615578
 223436423, -0.005012542, -0.001012609, -0.08738762, 0.0002593961
 223536383, -0.004486359, -0.0004574863, -0.08161864, 0.0002593961
 223636343, -0.004309605, 6.227702E-05, -0.07737356, 0.0002593961
 223736303, -0.003814571, 0.0005609985, -0.0734124, 0.0002593961
 223836263, -0.003482857, 0.001077584, -0.06912468, 0.0002593961
 223936223, -0.003067006, 0.001436201, -0.06454744, 0.0002593961
 224036183, -0.002676485, 0.001740656, -0.0603743, 0.0002593961
 224136143, -0.002198068, 0.002011376, -0.05644923, 0.0002593961
 224236103, -0.001831849, 0.00215168, -0.05287337, 0.0002593961
 224336063, -0.001483198, 0.002206191, -0.04970796, 0.0002593961
 224436023, -0.001235852, 0.002453769, -0.04647955, 0.0002593961
 224535983, -0.001067981, 0.002457192, -0.04351554, 0.0002593961
 224635943, -0.0008137512, 0.002474907, -0.04089459, 0.0002593961
 224735903, -0.0007513485, 0.002451997, -0.03816021, 0.0002593961
 224835863, -0.001032453, 0.002383626, -0.03553308, 0.0002593961
 224935823, -0.001110194, 0.002350313, -0.03296798, 0.0002593961
 225035783, -0.001294955, 0.002484764, -0.03100905, 0.0002593961
 225135743, -0.001193067, 0.002425606, -0.02912394, 0.0002593961
 225235703, -0.001235088, 0.002433809, -0.02743145, 0.0002593961
 225335663, -0.001183284, 0.002521389, -0.02594077, 0.0002593961
 225436456, -0.001191536, 0.002346934, -0.02462517, 0.0002615578
 225536416, -0.00124901, 0.002367228, -0.0228861, 0.0002593961
 225636376, -0.001284234, 0.002461103, -0.02138859, 0.0002593961
 225736336, -0.0009572674, 0.002674293, 0.005263874, 0.0002593961
 225836296, 0.0007423235, 0.004072367, 0.2946026, 0.0002593961
 225936256, 0.0005509523, 0.003582282, 0.2733631, 0.0002593961
 226036216, 0.0003714158, 0.003387816, 0.2549231, 0.0002593961
 226136176, 0.0004478394, 0.003107933, 0.2319271, 0.0002593961
 226236136, 0.000748431, 0.003292359, 0.2548533, 0.0002593961
 226336096, 0.001672768, 0.004534109, 0.2873312, 0.0002593961
 226436056, 0.003600093, 0.006812015, 0.255526, 0.0002593961
 226536016, 0.005833656, 0.0094621, 0.2162508, 0.0002593961
 226635976, 0.008809258, 0.01234694, 0.1711439, 0.0002593961
 226735936, 0.01981977, 0.01785907, 0.1343288, 0.0002593961
 226835896, 0.0425731, 0.02794548, 0.1061137, 0.0002593961
 226935856, 0.07109049, 0.03986777, 0.08465371, 0.0002593961
 227035816, 0.09753412, 0.05035916, 0.06794319, 0.0002593961
 227135776, 0.1154833, 0.05731311, 0.05403158, 0.0002593961
 227235736, 0.122732, 0.05952315, 0.04157798, 0.0002593961
 227335696, 0.1218668, 0.05844095, 0.03118107, 0.0002593961
 227435656, 0.1152348, 0.05507563, 0.02228911, 0.0002593961
 227536449, 0.1066962, 0.05120366, 0.01487382, 0.0002615578
 227636409, 0.09746809, 0.04686705, 0.006465219, 0.0002593961
 227736369, 0.09235651, 0.04513548, -0.0009932824, 0.0002593961
 227836329, 0.08934064, 0.04890405, -0.00671588, 0.0002593961
 227936289, 0.08666111, 0.0602323, -0.010106, 0.0002593961
 228036249, 0.08446458, 0.07581515, -0.01601541, 0.0002593961
 228136209, 0.08276577, 0.08742257, -0.02466482, 0.0002593961
 228236169, 0.08215149, 0.09045656, -0.03281969, 0.0002593961
 228336129, 0.08328856, 0.08419633, -0.03900013, 0.0002593961
 228436089, 0.08766688, 0.07155598, -0.04364565, 0.0002593961
 228536049, 0.0944932, 0.05644687, -0.04611526, 0.0002593961
 228636009, 0.103408, 0.04276791, -0.04767244, 0.0002593961
 228735969, 0.1115216, 0.0322087, -0.04872642, 0.0002593961
 228835929, 0.1172776, 0.02464923, -0.04960014, 0.0002593961
 228935889, 0.1197718, 0.01906707, -0.05025162, 0.0002593961
 229035849, 0.1188416, 0.0142217, -0.04958904, 0.0002593961
 229135809, 0.1151226, 0.01008957, -0.04720313, 0.0002593961
 229235769, 0.1093493, 0.007380618, -0.04447167, 0.0002593961
 229335729, 0.102075, 0.006662374, -0.0412574, 0.0002593961
 229435689, 0.09384654, 0.008213205, -0.03800162, 0.0002593961
 229536482, 0.08617584, 0.01242968, -0.03476028, 0.0002615578
 229636442, 0.07970371, 0.01497017, -0.02987852, 0.0002593961
 229736402, 0.07861213, 0.01136782, -0.0254659, 0.0002593961
 229836362, 0.08121771, 0.003769972, -0.02221208, 0.0002593961
 229936322, 0.08397149, -0.004405702, -0.02044355, 0.0002593961
 230036282, 0.08267984, -0.008732954, -0.01986989, 0.0002593961
 230136242, 0.07617766, -0.006340688, -0.01928167, 0.0002593961
 230236202, 0.06526918, 0.003013344, -0.01850756, 0.0002593961
 230336162, 0.05353918, 0.01774328, -0.01696029, 0.0002593961
 230436122, 0.04353929, 0.0347941, -0.01498242, 0.0002593961
 230536082, 0.0362809, 0.05074153, -0.01274781, 0.0002593961
 230636042, 0.03199266, 0.06262667, -0.01070261, 0.0002593961
 230736002, 0.02911126, 0.06859016, -0.007999202, 0.0002593961
 230835962, 0.0236754, 0.06735419, 0.006426204, 0.0002593961
 230935922, 0.016814, 0.06134455, 0.01246937, 0.0002593961
 231035882, 0.008054896, 0.05182661, 0.01569198, 0.0002593961
 231135842, 0.0003284786, 0.04082635, 0.01786692, 0.0002593961
 231235802, -0.003822075, 0.03069465, 0.01947363, 0.0002593961
 231335762, -0.00367785, 0.02201248, 0.02044472, 0.0002593961
 231435722, -0.0005869117, 0.01533274, 0.02064726, 0.0002593961
 231535682, 0.003888299, 0.01004132, 0.02004577, 0.0002593961
 231636475, 0.008172847, 0.005869467, 0.01911454, 0.0002615578
 231736435, 0.01031558, 0.003175904, 0.0173074, 0.0002593961
 231836395, 0.01037474, 0.001450836, 0.01550154, 0.0002593961
 231936355, 0.008829652, 0.0009628675, 0.01319798, 0.0002593961
 232036315, 0.006641301, 0.001295156, 0.01161885, 0.0002593961
 232136275, 0.004056395, 0.002129746, 0.009690068, 0.0002593961
 232236235, 0.001831078, 0.003105652, 0.008296785, 0.0002593961
 232336195, 0.0003012674, 0.004302585, 0.006998078, 0.0002593961
 232436155, -0.0004844908, 0.005356199, 0.00594306, 0.0002593961
 232536115, -0.0006790808, 0.006423675, 0.004736034, 0.0002593961
 232636075, -0.001113292, 0.007834856, 0.004033156, 0.0002593961
 232736035, -0.001504051, 0.008603589, 0.003371986, 0.0002593961
 232835995, -0.001735893, 0.009104241, 0.002279148, 0.0002593961
 232935955, -0.001865479, 0.008902086, 0.001492656, 0.0002593961
 233035915, -0.002105477, 0.008319911, 0.001562398, 0.0002593961
 233135875, -0.00178188, 0.006785721, 0.001183455, 0.0002593961
 233235835, -0.001286086, 0.004965046, 0.000824092, 0.0002593961
 233335795, -0.0008862788, 0.003215429, 0.0007533922, 0.0002593961
 233435755, -0.0005106223, 0.001981969, 0.0007390821, 0.0002593961
 233535715, -0.0001444218, 0.001359222, 0.0004252759, 0.0002593961
 233635675, -0.00401405, -0.000700009, 0.01831365, 0.0002593961
 233736468, -0.0034286, -4.308815E-05, 0.01591546, 0.0002615578
 233836428, -0.001030971, 0.001824165, 0.007405938, 0.0002593961
 233936388, 0.0005904696, 0.002971849, 0.0022151, 0.0002593961
 234036348, 0.001850953, 0.003156471, -0.001651805, 0.0002593961
 234136308, 0.00224107, 0.002582417, -0.004101187, 0.0002593961
 234236268, 0.001753096, 0.001824963, -0.005654285, 0.0002593961
 234336228, 0.001018256, 0.001106602, -0.006260352, 0.0002593961
 234436188, 0.0003238578, 0.0009836626, -0.006849598, 0.0002593961
 234536148, -0.000788958, 0.001298398, -0.006422334, 0.0002593961
 234636108, -0.001397239, 0.002221322, -0.00620989, 0.0002593961
 234736068, -0.001839717, 0.003212514, -0.005176765, 0.0002593961
 234836028, -0.002017372, 0.00379497, -0.004455305, 0.0002593961
 234935988, -0.001991217, 0.003920932, -0.003302788, 0.0002593961
 235035948, -0.001972755, 0.003841425, -0.002661705, 0.0002593961
 235135908, -0.001981528, 0.003886635, -0.002616578, 0.0002593961
 235235868, -0.001816398, 0.003860614, -0.001753308, 0.0002593961
 235335828, -0.002092515, 0.003984177, -0.001182245, 0.0002593961
 235435788, -0.002190591, 0.004034771, -0.0009857859, 0.0002593961
 235535748, -0.003997545, 0.003670663, 0.006289141, 0.0002593961
 235635708, -0.01618625, -0.001332684, 0.04825773, 0.0002593961
 235735668, -0.03289304, -0.008046404, 0.07042354, 0.0002593961
 235836461, -0.05502338, -0.01712641, 0.08690216, 0.0002615578
 235936421, -0.07249174, -0.02603475, 0.09896391, 0.0002593961
 236036381, -0.0735097, -0.03676446, 0.1113239, 0.0002593961
 236136341, -0.05596053, -0.04834376, 0.122091, 0.0002593961
 236236301, -0.02937618, -0.05850631, 0.1276325, 0.0002593961
 236336261, -0.003715832, -0.06549656, 0.1254314, 0.0002593961
 236436221, 0.01487058, -0.06877888, 0.1181873, 0.0002593961
 236536181, 0.02494035, -0.0687174, 0.1083364, 0.0002593961
 236636141, 0.02820155, -0.06640378, 0.09728874, 0.0002593961
 236736101, 0.02815704, -0.0622427, 0.08632039, 0.0002593961
 236836061, 0.02757651, -0.05722129, 0.07567839, 0.0002593961
 236936021, 0.02774488, -0.05209323, 0.06537448, 0.0002593961
 237035981, 0.02949253, -0.04727009, 0.05616222, 0.0002593961
 237135941, 0.03209568, -0.04376744, 0.04753608, 0.0002593961
 237235901, 0.0348594, -0.04101007, 0.03944401, 0.0002593961
 237335861, 0.037319, -0.03927227, 0.03237639, 0.0002593961
 237435821, 0.03855036, -0.03843229, 0.02614973, 0.0002593961
 237535781, 0.03889992, -0.03821294, 0.02095519, 0.0002593961
 237635741, 0.03881359, -0.03843959, 0.01621226, 0.0002593961
 237735701, 0.03761822, -0.03898887, 0.01255775, 0.0002593961
 237835661, 0.03634492, -0.0392275, 0.009635475, 0.0002593961
 237936454, 0.03544963, -0.03945721, 0.007363072, 0.0002615578
 238036414, 0.03408717, -0.03819747, 0.005568227, 0.0002593961
 238136374, 0.03303367, -0.03641829, 0.004323728, 0.0002593961
 238236334, 0.03218902, -0.03387037, 0.003027305, 0.0002593961
 238336294, 0.03131659, -0.03103096, 0.002326638, 0.0002593961
 238436254, 0.03007197, -0.02808411, 0.001820076, 0.0002593961
 238536214, 0.02878333, -0.02520187, 0.00146298, 0.0002593961
 238636174, 0.02729279, -0.02210712, 0.0009385406, 0.0002593961
 238736134, 0.02598015, -0.01935893, 0.001041307, 0.0002593961
 238836094, 0.02456301, -0.01651063, 0.001069808, 0.0002593961
 238936054, 0.02333798, -0.0139114, 0.001265294, 0.0002593961
 239036014, 0.02240959, -0.01217718, 0.001038611, 0.0002593961
 239135974, 0.02121769, -0.01043682, 0.001111704, 0.0002593961
 239235934, 0.0204857, -0.008949628, 0.001048832, 0.0002593961
 239335894, 0.01950207, -0.007610459, 0.0008647032, 0.0002593961
 239435854, 0.01829357, -0.006986935, 0.00136572, 0.0002593961
 239535814, 0.01748365, -0.006722233, 0.0006929116, 0.0002593961
 239635774, 0.0166492, -0.006256455, 0.0004632956, 0.0002593961
 239735734, 0.01550227, -0.00544335, 0.000438398, 0.0002593961
 239835694, 0.0148193, -0.004691084, 0.0001986114, 0.0002593961
 239935654, 0.01399024, -0.004133595, 8.705589E-05, 0.0002593961
 240036447, 0.01355184, -0.003375946, -0.0004186822, 0.0002615578
 240136407, 0.01250124, -0.002686405, -0.0002756148, 0.0002593961
 240236367, 0.01184299, -0.002130613, -0.001102789, 0.0002593961
 240336327, 0.01081704, -0.001294409, -0.0004866154, 0.0002593961
 240436287, 0.01021889, -0.0007803186, -0.0003926196, 0.0002593961
 240536247, 0.009619376, -0.0003719469, -0.0002265346, 0.0002593961
 240636207, 0.009141142, 0.0003073075, -8.454754E-05, 0.0002593961
 240736167, 0.008701642, 0.0008663652, -0.0001709826, 0.0002593961
 240836127, 0.008321641, 0.0009702113, 1.437209E-05, 0.0002593961
 240936087, 0.007766404, 0.001582228, 0.0002643362, 0.0002593961
 241036047, 0.007592431, 0.001774819, 0.0002396685, 0.0002593961
 241136007, 0.007225158, 0.001847843, 0.0003199155, 0.0002593961
 241235967, 0.006996787, 0.002036352, 0.0004812246, 0.0002593961
 241335927, 0.006794988, 0.002404942, 0.0004875462, 0.0002593961
 241435887, 0.006746673, 0.002374169, -0.0003325324, 0.0002593961
 241535847, 0.005886193, 0.002572159, -7.344884E-05, 0.0002593961
 241635807, 0.0053222, 0.002234827, -2.389429E-05, 0.0002593961
 241735767, 0.004431153, 0.002487617, 0.0004185372, 0.0002593961
 241835727, 0.003817465, 0.002603837, 0.0001832181, 0.0002593961
 241935687, 0.003038947, 0.002540017, 0.000155233, 0.0002593961
 242036480, 0.002623665, 0.00247368, 0.0002553975, 0.0002615578
 242136440, 0.002698677, 0.002471653, 0.0001635255, 0.0002593961
 242236400, 0.002659181, 0.002365627, 0.0001620038, 0.0002593961
 242336360, 0.002692385, 0.00243108, 0.0001387708, 0.0002593961
 242436320, 0.002944714, 0.002223556, -0.0001385265, 0.0002593961
 242536280, 0.002760001, 0.002084864, -0.0001254819, 0.0002593961
 242636240, 0.002619124, 0.002062, -0.0004846934, 0.0002593961
 242736200, 0.002141138, 0.001381785, -0.0001139483, 0.0002593961
 242836160, 0.001771361, 0.0006972974, 2.214016E-06, 0.0002593961
 242936120, 0.0011886, -0.0001835608, -5.272425E-05, 0.0002593961
 243036080, 0.0009230893, -0.0009717287, 2.490716E-05, 0.0002593961
 243136040, 0.0006255767, -0.001574479, -0.0002152333, 0.0002593961
 243236000, 0.0008177343, -0.001840938, -0.0007673377, 0.0002593961
 243335960, 0.0007744506, -0.002087608, -0.0006810682, 0.0002593961
 243435920, 0.000938913, -0.001862838, -0.0003964519, 0.0002593961
 243535880, 0.0008411696, -0.001890909, -0.0004495896, 0.0002593961
 243635840, 0.001177233, -0.001992158, -0.0004057524, 0.0002593961
 243735800, 0.0009027882, -0.001935894, -0.0004082762, 0.0002593961
 243835760, 0.000955705, -0.001509643, -0.0002964705, 0.0002593961
 243935720, 0.0007739651, -0.001024573, 0.0001018117, 0.0002593961
 244035680, 0.0007466031, -0.0002405996, -0.0005531876, 0.0002593961
 244136473, 0.000531516, 0.0001716857, -0.0002554634, 0.0002615578
 244236433, 0.0005788728, 0.0004687765, -0.0002883091, 0.0002593961
 244336393, 0.0003915144, 0.0006770972, -2.583419E-06, 0.0002593961
 244436353, 0.0003565477, 0.0008673767, -0.0001372289, 0.0002593961
 244536313, 0.0002255285, 0.0008919844, -0.0001941036, 0.0002593961
 244636273, 0.0001278926, 0.001255027, -0.0002102297, 0.0002593961
 244736233, -0.0003394998, 0.001358224, -0.0002464977, 0.0002593961
 244836193, -0.0003252823, 0.001567976, -0.000421894, 0.0002593961
 244936153, -0.0007545711, 0.001863627, -0.0002807149, 0.0002593961
 245036113, -0.0005387955, 0.00201344, -0.0007240914, 0.0002593961
 245136073, -0.0008107311, 0.002229335, -0.0005991732, 0.0002593961
 245236033, -0.0007703833, 0.002482828, -0.0008899525, 0.0002593961
 245335993, -0.0008491384, 0.002387665, -0.0004574876, 0.0002593961
 245435953, -0.0008498269, 0.002458078, -0.0006105602, 0.0002593961
 245535913, -0.0008399099, 0.002578701, -0.0003564767, 0.0002593961
 245635873, -0.0005967452, 0.002738876, -0.000146309, 0.0002593961
 245735833, -0.0004301457, 0.002964291, -0.0002593088, 0.0002593961
 245835793, -0.0005301854, 0.003163367, -0.0003272691, 0.0002593961
 245935753, -0.0005482819, 0.003494989, -0.0002527703, 0.0002593961
 246035713, -0.0006521508, 0.003671184, -0.0002898106, 0.0002593961
 246135673, -0.001154098, 0.003715701, 0.0001542309, 0.0002593961
 246236466, -0.0009747822, 0.003801001, 2.520347E-05, 0.0002615578
 246336426, -0.001191073, 0.003898958, -0.0001452902, 0.0002593961
 246436386, -0.00121995, 0.003923987, -0.0001950151, 0.0002593961
 246536346, -0.001162747, 0.004195709, 9.293414E-06, 0.0002593961
 246636306, -0.001044884, 0.004331255, 3.043391E-06, 0.0002593961
 246736266, -0.001026149, 0.004594998, 0.0001428271, 0.0002593961
 246836226, -0.001032344, 0.004466326, 2.113805E-05, 0.0002593961
 246936186, -0.001389447, 0.004613389, 0.0001461028, 0.0002593961
 247036146, -0.001533069, 0.0046294, 0.000197875, 0.0002593961
 247136106, -0.001602935, 0.00468384, 0.0004595706, 0.0002593961
 247236066, -0.00157592, 0.004513247, 0.0003713218, 0.0002593961
 247336026, -0.001594179, 0.004542958, 0.0004971077, 0.0002593961
 247435986, -0.001552486, 0.004542584, -0.0006833405, 0.0002593961
 247535946, -0.001687773, 0.004434893, 0.000600211, 0.0002593961
 247635906, -0.001651059, 0.004330942, -1.816976E-05, 0.0002593961
 247735866, -0.001444099, 0.004473506, 8.870509E-05, 0.0002593961
 247835826, -0.001289987, 0.004585967, -6.094997E-05, 0.0002593961
 247935786, -0.001388469, 0.004511958, -0.0001339293, 0.0002593961
 248035746, -0.001572705, 0.004512017, -0.0001153758, 0.0002593961
 248135706, -0.001747775, 0.004488701, -3.083068E-05, 0.0002593961
 248235666, -0.001871911, 0.004597226, -0.0002001307, 0.0002593961
 248336459, -0.001995083, 0.004677787, -0.0001690399, 0.0002615578
 248436419, -0.002206387, 0.004661984, -0.0001805727, 0.0002593961
 248536379, -0.002233115, 0.004684922, -9.207855E-05, 0.0002593961
 248636339, -0.002325963, 0.004715155, -7.036504E-06, 0.0002593961
 248736299, -0.002522517, 0.004752368, -0.0005811893, 0.0002593961
 248836259, -0.002626265, 0.004726805, -0.0005868328, 0.0002593961
 248936219, -0.002639461, 0.004797848, 9.690102E-05, 0.0002593961
 249036179, -0.002574378, 0.004559327, -1.754059E-05, 0.0002593961
 249136139, -0.002738602, 0.004441525, -0.0002175652, 0.0002593961
 249236099, -0.00253385, 0.004431425, -0.0001230451, 0.0002593961
 249336059, -0.002599786, 0.004353814, -0.0001960661, 0.0002593961
 249436019, -0.002371976, 0.004098133, -2.776108E-05, 0.0002593961
 249535979, -0.002202803, 0.004109245, 0.000185487, 0.0002593961
 249635939, -0.001740111, 0.004045363, -0.0001221668, 0.0002593961
 249735899, -0.001680186, 0.003936307, -0.0005318683, 0.0002593961
 249835859, -0.00174317, 0.003972019, -0.0003778496, 0.0002593961
 249935819, -0.002077696, 0.004075584, -0.0003252754, 0.0002593961
 250035779, -0.002260691, 0.004185182, -0.0004759517, 0.0002593961
 250135739, -0.002644849, 0.004555064, -0.0004979655, 0.0002593961
 250235699, -0.002698697, 0.004473665, -0.0003764708, 0.0002593961
 250335659, -0.003038067, 0.004465033, -0.0001815868, 0.0002593961
 250436452, -0.002939168, 0.004479289, -9.061208E-05, 0.0002615578
 250536412, -0.003083205, 0.004562067, -7.610016E-05, 0.0002593961
 250636372, -0.003149992, 0.004333262, 0.0001225422, 0.0002593961
 250736332, -0.002905441, 0.004211805, 0.0001205189, 0.0002593961
 250836292, -0.002826515, 0.004175186, -0.0002632757, 0.0002593961
 250936252, -0.002869532, 0.004163202, -0.0001406667, 0.0002593961
 251036212, -0.003064191, 0.004052867, -6.996455E-05, 0.0002593961
 251136172, -0.002925536, 0.004040369, 4.795897E-05, 0.0002593961
 251236132, -0.002952646, 0.004106911, -0.0002125152, 0.0002593961
 251336092, -0.002982816, 0.004199944, -0.0003315195, 0.0002593961
 251436052, -0.002895008, 0.004043663, -0.0003252338, 0.0002593961
 251536012, -0.002841793, 0.004159829, -0.000371273, 0.0002593961
 251635972, -0.003025557, 0.004068314, 0.0001056523, 0.0002593961
 251735932, -0.003149293, 0.004286443, -4.387768E-05, 0.0002593961
 251835892, -0.002778315, 0.00424265, 3.668987E-05, 0.0002593961
 251935852, -0.002914818, 0.004118942, 0.0003535918, 0.0002593961
 252035812, -0.002693578, 0.003969062, 0.0002016715, 0.0002593961
 252135772, -0.002901363, 0.004152196, 0.0002687964, 0.0002593961
 252235732, -0.002900889, 0.00429417, 0.0006497537, 0.0002593961
 252335692, -0.003121924, 0.004017028, -4.525401E-05, 0.0002593961
 252436485, -0.003133382, 0.004152702, 0.0001210237, 0.0002615578
 252536445, -0.002716373, 0.004017406, 0.0002815789, 0.0002593961
 252636405, -0.002765931, 0.004097929, 0.0001194464, 0.0002593961
 252736365, -0.002847617, 0.004051794, 2.242859E-05, 0.0002593961
 252836325, -0.002896421, 0.003990659, -0.0002759389, 0.0002593961
 252936285, -0.003162374, 0.004082633, -0.0003261179, 0.0002593961
 253036245, -0.003092427, 0.004467716, -0.000537936, 0.0002593961
 253136205, -0.00338101, 0.004528508, -0.0001269429, 0.0002593961
 253236165, -0.003585929, 0.00446312, 1.002149E-05, 0.0002593961
 253336125, -0.003385851, 0.004291776, -0.0004486029, 0.0002593961
 253436085, -0.003374441, 0.00437757, -0.0004639938, 0.0002593961
 253536045, -0.003335411, 0.004272718, -0.0002024961, 0.0002593961
 253636005, -0.003087864, 0.004348445, -0.0005377465, 0.0002593961
 253735965, -0.003205389, 0.00451712, -0.0006142817, 0.0002593961
 253835925, -0.003288652, 0.004548227, -0.0006500123, 0.0002593961
 253935885, -0.003219566, 0.004595036, -0.0008609998, 0.0002593961
 254035845, -0.00325718, 0.004484807, -0.0004366903, 0.0002593961
 254135805, -0.003313679, 0.00434845, -0.0002276535, 0.0002593961
 254235765, -0.003310463, 0.004598243, -0.0003844106, 0.0002593961
 254335725, -0.003313968, 0.004417736, -0.0004632765, 0.0002593961
 254435685, -0.003352006, 0.004487118, -0.0002829457, 0.0002593961
 254536478, -0.003555412, 0.004580839, 9.047663E-05, 0.0002615578
 254636438, -0.003392042, 0.004682931, -0.0003172522, 0.0002593961
 254736398, -0.00321161, 0.004499231, -4.711769E-05, 0.0002593961
 254836358, -0.003324152, 0.00429534, 0.0002871807, 0.0002593961
 254936318, -0.002946976, 0.00431368, 3.707357E-05, 0.0002593961
 255036278, -0.002787872, 0.004313015, -0.0001802856, 0.0002593961
 255136238, -0.002803312, 0.004323141, 0.0001379486, 0.0002593961
 255236198, -0.002834705, 0.00438703, -2.865829E-06, 0.0002593961
 255336158, -0.003441226, 0.004371328, 0.0001203329, 0.0002593961
 255436118, -0.003226785, 0.004377074, 0.0003192255, 0.0002593961
 255536078, -0.003104097, 0.004211419, 6.47536E-05, 0.0002593961
 255636038, -0.003193301, 0.004286631, 0.0001632431, 0.0002593961
 255735998, -0.002996099, 0.004260272, -9.64351E-05, 0.0002593961
 255835958, -0.003040606, 0.004148871, -3.100941E-05, 0.0002593961
 255935918, -0.003015996, 0.004360775, -7.989429E-05, 0.0002593961
 256035878, -0.003009669, 0.004306248, 2.789811E-05, 0.0002593961
 256135838, -0.003103858, 0.004222109, 0.0001262053, 0.0002593961
 256235798, -0.003020353, 0.004326326, 0.0003301944, 0.0002593961
 256335758, -0.00319122, 0.004501262, 0.0004929763, 0.0002593961
 256435718, -0.003330647, 0.004416385, 0.0007405787, 0.0002593961
 256535678, -0.002971052, 0.004238683, -0.0001906657, 0.0002593961
 256636471, -0.003454976, 0.004347827, 4.719316E-05, 0.0002615578
 256736431, -0.003447069, 0.004251597, -0.0001046048, 0.0002593961
 256836391, -0.003336163, 0.00457151, -0.0001162278, 0.0002593961
 256936351, -0.003263736, 0.004607225, -0.0001352913, 0.0002593961
 257036311, -0.003185065, 0.004525792, -0.0002877312, 0.0002593961
 257136271, -0.003326045, 0.004496189, 0.0001200458, 0.0002593961
 257236231, -0.003217511, 0.004652212, -0.0002342395, 0.0002593961
 257336191, -0.003378193, 0.004825865, 0.0001817524, 0.0002593961
 257436151, -0.003260845, 0.00470425, 2.827824E-05, 0.0002593961
 257536111, -0.003126222, 0.004578979, -0.0001973101, 0.0002593961
 257636071, -0.002975714, 0.004640175, -0.0002363558, 0.0002593961
 257736031, -0.002920275, 0.004416083, -7.154464E-05, 0.0002593961
 257835991, -0.002975106, 0.004366588, -0.0003670381, 0.0002593961
 257935951, -0.002987993, 0.0043923, -0.0002560771, 0.0002593961
 258035911, -0.003048383, 0.004687155, -0.0004666297, 0.0002593961
 258135871, -0.003101568, 0.004545168, -0.0001506667, 0.0002593961
 258235831, -0.003079022, 0.00447371, -5.05984E-05, 0.0002593961
 258335791, -0.003063908, 0.004500704, -3.394795E-05, 0.0002593961
 258435751, -0.003263192, 0.004586308, 0.0002134745, 0.0002593961
 258535711, -0.003391613, 0.004689532, 0.000145961, 0.0002593961
 258635671, -0.003370099, 0.004782998, -0.0001051768, 0.0002593961
 258736464, -0.003262551, 0.004500113, 7.945298E-05, 0.0002615578
 258836424, -0.003488104, 0.004653731, 7.316761E-05, 0.0002593961
 258936384, -0.003358403, 0.004753097, -0.0002019193, 0.0002593961
 259036344, -0.003417308, 0.004538296, 5.120612E-05, 0.0002593961
 259136304, -0.003515219, 0.004597498, 9.792343E-05, 0.0002593961
 259236264, -0.003491013, 0.004512778, 0.000168995, 0.0002593961
 259336224, -0.003657224, 0.004604965, 9.028279E-05, 0.0002593961
 259436184, -0.003640407, 0.004440668, 0.0003962647, 0.0002593961
 259536144, -0.003352495, 0.004646643, -0.0001019773, 0.0002593961
 259636104, -0.003681669, 0.004248488, 8.531494E-05, 0.0002593961
 259736064, -0.00349905, 0.004155335, 0.0001531763, 0.0002593961
 259836024, -0.003651086, 0.004135542, 0.0004310075, 0.0002593961
 259935984, -0.00337807, 0.004054954, 0.0003110679, 0.0002593961
 260035944, -0.003419958, 0.004232484, 0.0001833277, 0.0002593961
 260135904, -0.003232731, 0.004124793, 0.0007442261, 0.0002593961
 260235864, -0.003124364, 0.003990258, 0.0001241425, 0.0002593961
 260335824, -0.003108094, 0.004287812, -0.0007890798, 0.0002593961
 260435784, -0.003570689, 0.004781031, -0.0003791889, 0.0002593961
 260535744, -0.0031179, 0.0051222, -0.0003187918, 0.0002593961
 260635704, -0.003481875, 0.005009481, -0.0004904954, 0.0002593961
 260735664, -0.003891953, 0.004620607, -0.0002612046, 0.0002593961
 260836457, -0.00363267, 0.004521247, -0.000169795, 0.0002615578
 260936417, -0.003425525, 0.004568553, -0.0003647751, 0.0002593961
 261036377, -0.003429566, 0.004484241, -0.0009766653, 0.0002593961
 261136337, -0.003416341, 0.00479021, -0.0003601874, 0.0002593961
 261236297, -0.003112366, 0.004500372, -0.0007138912, 0.0002593961
