TimeUS,CAN,CAE,CAD,CAe,NAN,NAE,NAD,NAe,m10,m00,Gye
 170560915, -1.207705E-06, 4.665454E-05, 1.310778E-06, 6.484905E-06, 0, 0, 0, 0, -0.9999977, -0.001446591, 1.85676
 170630887, -0.1440039, 3.157515, 0.1245038, 0.4427873, -0.09545714, 3.29186, -0.2786655, 0.4427808, -0.9999977, -0.0014474, 26.0053
 170830807, -0.09564765, 3.299181, -0.2787557, 0.4433069, -1.554126E-05, 0.004344281, -0.0002261532, 0.0005187925, -0.9999977, -0.00144437, 148.7758
 171030727, -0.0001495597, 0.01168144, -0.0005341407, 0.00104407, 8.220301E-06, 0.004389953, 5.61835E-05, 0.0005187925, -0.9999977, -0.001441103, 0.3503954
 171231480, 0.0003297507, 0.01173723, -0.0001840951, 0.001046232, 0.0002350645, 0.004456739, -0.0003330904, 0.0005209541, -0.9999977, -0.001435929, 0.3511209
 171431400, 8.346973E-05, 0.01184727, -0.000615849, 0.001046232, 0.0001343262, 0.004278389, 0.000129624, 0.0005187925, -0.9999977, -0.001433114, 0.3511209
 171631320, 0.0001257153, 0.01166438, -0.0003148107, 0.00104407, 0.0002631127, 0.004601788, -0.0002845162, 0.0005187925, -0.9999977, -0.00142888, 0.3503954
 171831240, 0.0001783625, 0.012121, -0.0005189799, 0.00104407, 0.000236787, 0.004338696, 0.0003336715, 0.0005187925, -0.9999977, -0.001421673, 0.3503954
 172031160, 0.0002512025, 0.01203532, 0.0001874375, 0.00104407, 9.755039E-05, 0.004763933, -0.0001234288, 0.0005187925, -0.9999977, -0.001415, 0.3503954
 172231080, 0.0002521929, 0.01209708, -0.0004094167, 0.00104407, -0.0002146447, 0.003953421, -0.0003430234, 0.0005187925, -0.9999977, -0.001407962, 0.3503954
 172431000, 1.623844E-05, 0.01124741, -0.0004543514, 0.00104407, 0.0002383654, 0.004077635, 5.673284E-06, 0.0005187925, -0.9999977, -0.001400471, 0.3503954
 172630920, 0.0004284679, 0.01146085, 1.922432E-05, 0.00104407, -0.0001514343, 0.004286809, 0.0003419783, 0.0005187925, -0.9999977, -0.001408582, 0.3503954
 172830840, 7.185199E-06, 0.0117937, 0.0005419123, 0.00104407, -3.433098E-05, 0.004370937, -4.941512E-05, 0.0005187925, -0.9999977, -0.001415977, 0.3503954
 173030760, -0.0003261898, 0.01167908, -0.0003325681, 0.00104407, -0.0005324561, 0.004033708, -0.0004046538, 0.0005187925, -0.9999977, -0.001422529, 0.3503954
 173230680, -0.0005298326, 0.01146473, -0.0007606742, 0.00104407, -0.0001023344, 0.004297228, -0.0002160876, 0.0005187925, -0.9999977, -0.001428359, 0.3503954
 173431433, -0.0002544713, 0.01193638, -0.0004777049, 0.001046232, 0.0001526911, 0.004525228, -0.0005879415, 0.0005209541, -0.9999977, -0.001433283, 0.3511209
 173631353, 0.0001209747, 0.01218248, -0.0009189143, 0.001046232, 0.0003043337, 0.004526871, 5.068539E-05, 0.0005187925, -0.9999976, -0.001437524, 0.3511209
 173831273, 0.0004316923, 0.01192607, -0.0001176888, 0.00104407, 0.0001458003, 0.003887083, 5.337962E-05, 0.0005187925, -0.9999976, -0.001441673, 0.3503954
 174031193, 0.0002154604, 0.01129951, -0.0001497802, 0.00104407, 0.0002475425, 0.004034181, -0.000439518, 0.0005187925, -0.9999976, -0.001445998, 0.3503954
 174231113, 1.548558E-05, 0.01123773, -0.000590665, 0.00104407, -4.54789E-05, 0.003833063, 0.000471134, 0.0005187925, -0.9999976, -0.001448976, 0.3503954
 174431033, -0.000192097, 0.01131411, 0.0007186958, 0.00104407, -0.0001322748, 0.004421133, -2.304347E-05, 0.0005187925, -0.9999976, -0.00145025, 0.3503954
 174630953, -0.0002095388, 0.0118213, -0.0001747171, 0.00104407, 0.0003034353, 0.004361977, -0.0002779087, 0.0005187925, -0.9999977, -0.001451332, 0.3503954
 174830873, 0.0002441149, 0.01189274, -0.0002824393, 0.00104407, 0.0001886544, 0.003623491, 7.253247E-05, 0.0005187925, -0.9999977, -0.00145133, 0.3503954
 175030793, 4.900888E-05, 0.01080355, -0.0001642976, 0.00104407, -0.0001302305, 0.00408317, -0.0004532872, 0.0005187925, -0.9999977, -0.001451481, 0.3503954
 175230713, -0.0004624352, 0.01130029, -0.0005167432, 0.00104407, -0.0002826148, 0.004374402, -0.0004428653, 0.0005187925, -0.9999977, -0.001451119, 0.3503954
 175431466, -0.0003848274, 0.01188929, -0.0004218978, 0.001046232, -0.0004329652, 0.003997077, 0.0002406099, 0.0005209541, -0.9999977, -0.001447718, 0.3511209
 175631386, -0.0005399057, 0.01171293, 0.0001043332, 0.001046232, -0.0002955397, 0.004354784, -0.0001698863, 0.0005187925, -0.9999977, -0.001445555, 0.3511209
 175831306, -0.0001258749, 0.01163925, -0.0003898289, 0.00104407, 0.0003666192, 0.004204957, 1.858326E-05, 0.0005187925, -0.9999977, -0.00144155, 0.3503954
 176031226, 0.0003272054, 0.01168304, -0.0003027694, 0.00104407, -0.0001069376, 0.004027565, 0.0002357636, 0.0005187925, -0.9999977, -0.00143671, 0.3503954
 176231146, -0.0001558098, 0.01123612, 0.0004005677, 0.00104407, 0.0002208213, 0.004157288, 0.0001393583, 0.0005187925, -0.9999977, -0.001432743, 0.3503954
 176431066, 0.0002577593, 0.01129135, -0.0002746854, 0.00104407, -0.0001199281, 0.004479276, -0.0001920301, 0.0005187925, -0.9999977, -0.001428879, 0.3503954
 176630986, -5.267671E-05, 0.01207592, -0.0003629829, 0.00104407, -5.946306E-05, 0.004379106, -0.0002753526, 0.0005187925, -0.9999977, -0.001423034, 0.3503954
 176830906, 0.0001027777, 0.01153341, -0.0003716616, 0.00104407, -0.0004208477, 0.00436212, -0.0004897804, 0.0005187925, -0.9999977, -0.001417963, 0.3503954
 177030826, -0.000352585, 0.01193044, -0.000575504, 0.00104407, -0.0002358456, 0.004411099, -0.0003768498, 0.0005187925, -0.9999977, -0.001413054, 0.3503954
 177230746, 8.242798E-05, 0.01191503, -0.0005841682, 0.00104407, 1.133746E-05, 0.004318904, -0.0003698347, 0.0005187925, -0.9999977, -0.001406078, 0.3503954
 177430666, 0.000218029, 0.01173788, -0.0006353423, 0.00104407, 0.0003514576, 0.004112067, -0.00055847, 0.0005187925, -0.9999977, -0.001398526, 0.3503954
 177631419, 0.0005330261, 0.01129579, -0.0004291018, 0.001046232, 7.710457E-05, 0.003768778, 0.0001921278, 0.0005209541, -0.9999977, -0.001389224, 0.3511209
 177831339, 0.0004823002, 0.01128299, 0.0001408312, 0.001046232, 0.0002050974, 0.004030755, 0.0002232814, 0.0005187925, -0.9999977, -0.001396539, 0.3511209
 178031259, 0.0002493816, 0.0112262, -0.0001190746, 0.00104407, 0.0001682122, 0.003920787, 0.0002220005, 0.0005187925, -0.9999978, -0.001401072, 0.3503954
 178231179, 0.0002460291, 0.01129368, 0.0002393553, 0.00104407, 0.0002537562, 0.004153936, -3.100704E-05, 0.0005187925, -0.9999977, -0.001405488, 0.3503954
 178431099, 0.0001022958, 0.01137425, -0.0002397293, 0.00104407, -0.0001086475, 0.004181796, 0.0002394183, 0.0005187925, -0.9999977, -0.001410625, 0.3503954
 178631019, -0.0003183846, 0.01153461, 0.0001089423, 0.00104407, -0.0001105707, 0.00397208, 0.0004149302, 0.0005187925, -0.9999978, -0.001415237, 0.3503954
 178830939, 0.0001102254, 0.01132274, 0.0003031627, 0.00104407, -4.512989E-05, 0.004315202, 0.0001691582, 0.0005187925, -0.9999978, -0.001417351, 0.3503954
 179030859, 0.0002674572, 0.0116692, -2.10802E-06, 0.00104407, 0.0001503377, 0.004254928, -1.009304E-06, 0.0005187925, -0.9999978, -0.001419125, 0.3503954
 179230779, 1.233241E-06, 0.01114185, -0.0004004581, 0.00104407, -3.519063E-06, 0.00391589, 4.24692E-05, 0.0005187925, -0.9999978, -0.001420056, 0.3503954
 179430699, -0.0002403983, 0.01083018, -0.0003058187, 0.00104407, -0.0003804689, 0.004160048, -0.0005465944, 0.0005187925, -0.9999977, -0.001419988, 0.3503954
 179631452, -0.0002176862, 0.01173426, -0.0007418435, 0.001046232, 7.385389E-05, 0.004624801, -0.0003928206, 0.0005209541, -0.9999978, -0.001419886, 0.3511209
 179831372, 9.024998E-05, 0.01196418, -0.0005578533, 0.001046232, 0.0001254163, 0.004363969, 0.0002432601, 0.0005187925, -0.9999977, -0.001420965, 0.3511209
 180031292, -8.483864E-05, 0.01156015, 0.000310758, 0.00104407, -0.0001953765, 0.004211339, -0.0003022356, 0.0005187925, -0.9999977, -0.001419329, 0.3503954
 180231212, -0.0002287942, 0.01161187, -0.0004426712, 0.00104407, -9.642773E-05, 0.004242974, -0.0002019408, 0.0005187925, -0.9999977, -0.001419343, 0.3503954
 180431132, -0.0002078364, 0.01161686, -0.0005828041, 0.00104407, 0.0002179858, 0.004304769, 0.0001937854, 0.0005187925, -0.9999977, -0.001419054, 0.3503954
 180631052, 0.0001189941, 0.01169219, 2.055664E-05, 0.00104407, -0.0001371242, 0.004341338, -0.0001574971, 0.0005187925, -0.9999977, -0.001416691, 0.3503954
 180830972, -0.000186009, 0.01130199, -0.0003552923, 0.00104407, 0.0002980826, 0.003881453, -0.0001938462, 0.0005187925, -0.9999977, -0.001414185, 0.3503954
 181030892, 0.0001274875, 0.01091007, -0.0003794415, 0.00104407, -0.0003821035, 0.004337073, -5.429241E-05, 0.0005187925, -0.9999977, -0.001413274, 0.3503954
 181230812, -0.0006545776, 0.01159564, -0.0002382397, 0.00104407, 0.0002716602, 0.004185636, -0.0001495192, 0.0005187925, -0.9999977, -0.001411428, 0.3503954
 181430732, -3.497581E-05, 0.011308, -0.0002259173, 0.00104407, 0.0001979648, 0.003898763, 0.0001009132, 0.0005187925, -0.9999977, -0.001408361, 0.3503954
 181631485, 0.0004727267, 0.0109803, 0.0001527946, 0.001046232, 0.0003024462, 0.004215475, 0.0004310274, 0.0005209541, -0.9999977, -0.001403994, 0.3511209
 181831405, 0.0004225219, 0.01170555, 0.0003340428, 0.001046232, -0.000236151, 0.004372103, -0.0001034227, 0.0005187925, -0.9999977, -0.001401574, 0.3511209
 182031325, 5.456011E-05, 0.01182109, -0.0002901823, 0.00104407, -7.466372E-05, 0.004498213, -0.0001276542, 0.0005187925, -0.9999977, -0.001398068, 0.3503954
 182231245, 0.000352771, 0.01184567, 2.8202E-05, 0.00104407, 0.0002070561, 0.004353762, 0.0001748673, 0.0005187925, -0.9999977, -0.001392878, 0.3503954
 182431165, -0.0002076208, 0.01162388, 0.0001848041, 0.00104407, -0.0005161793, 0.00389146, -4.819015E-05, 0.0005187925, -0.9999977, -0.001389085, 0.3503954
 182631085, -0.0002808949, 0.01130493, -0.0001201888, 0.00104407, 0.0002124518, 0.004432094, -2.901347E-05, 0.0005187925, -0.9999977, -0.001384357, 0.3503954
 182831005, 1.000229E-05, 0.01200215, 0.0002156253, 0.00104407, -6.232521E-06, 0.004469727, 6.976315E-05, 0.0005187925, -0.9999977, -0.001379974, 0.3503954
 183030925, 0.0001238113, 0.01196292, 0.0001112862, 0.00104407, 0.0003511359, 0.004500768, -0.0001158656, 0.0005187925, -0.9999977, -0.001390608, 0.3503954
 183230845, 0.0003857027, 0.01181371, -8.256947E-05, 0.00104407, 0.0001116379, 0.004333454, 4.872637E-05, 0.0005187925, -0.9999977, -0.001399706, 0.3503954
 183430765, -0.0001321463, 0.01150775, 0.0001039554, 0.00104407, 4.574223E-05, 0.004137548, 6.362515E-05, 0.0005187925, -0.9999977, -0.001409006, 0.3503954
 183630685, 5.169328E-05, 0.01163776, 4.689248E-05, 0.00104407, 6.183339E-05, 0.004465469, 0.0001967168, 0.0005187925, -0.9999977, -0.001416712, 0.3503954
 183831438, -0.0001898875, 0.01180525, 1.889875E-05, 0.001046232, 0.0001471293, 0.00412237, -0.0003530492, 0.0005209541, -0.9999977, -0.001424051, 0.3511209
 184031358, -4.820336E-05, 0.01134913, -0.0006810916, 0.001046232, -0.000238094, 0.004084217, 2.910642E-05, 0.0005187925, -0.9999976, -0.001429851, 0.3511209
 184231278, -0.0003268279, 0.01154665, -0.0002124639, 0.00104407, -6.535063E-06, 0.004608664, -6.368115E-05, 0.0005187925, -0.9999976, -0.001432867, 0.3503954
 184431198, 6.134227E-05, 0.01205752, -0.0003372499, 0.00104407, -9.484809E-05, 0.004571979, -3.144557E-05, 0.0005187925, -0.9999976, -0.001436383, 0.3503954
 184631118, -9.757323E-05, 0.01207442, -3.415222E-06, 0.00104407, 0.0001356641, 0.004171164, 7.832849E-05, 0.0005187925, -0.9999976, -0.001441014, 0.3503954
 184831038, 5.597176E-05, 0.0113204, -3.259105E-06, 0.00104407, -0.0003150073, 0.003879369, -0.0001412435, 0.0005187925, -0.9999976, -0.001445476, 0.3503954
 185030958, -0.0002035529, 0.01133674, 2.574488E-05, 0.00104407, -0.0002881035, 0.004843632, -0.000390669, 0.0005187925, -0.9999976, -0.001448089, 0.3503954
 185230878, -0.0004684348, 0.0124457, -0.0008659689, 0.00104407, -0.0003873871, 0.004569775, 0.0001437816, 0.0005187925, -0.9999976, -0.001450248, 0.3503954
 185430798, -0.0004022166, 0.01202403, 0.0002202058, 0.00104407, 0.0003738781, 0.00383677, 0.0001922804, 0.0005187925, -0.9999976, -0.001452409, 0.3503954
 185630718, 0.0003879787, 0.01103917, -2.600022E-06, 0.00104407, -0.000120227, 0.004170153, -0.000322524, 0.0005187925, -0.9999976, -0.00145246, 0.3503954
 185831471, -0.0002348126, 0.01165944, -0.0005097511, 0.001046232, -3.203953E-05, 0.004075803, 0.0001787968, 0.0005209541, -0.9999976, -0.001452524, 0.3511209
 186031391, 0.0001601355, 0.01138694, -0.0003217903, 0.001046232, 0.0001828003, 0.003899138, -0.0004764629, 0.0005187925, -0.9999976, -0.001453609, 0.3511209
 186231311, 0.0004451479, 0.01109067, -0.0005133769, 0.00104407, 0.0003795952, 0.004076325, 0.0001763687, 0.0005187925, -0.9999976, -0.001452556, 0.3503954
 186431231, 0.0001909233, 0.01172953, -3.932688E-05, 0.00104407, -0.0001009874, 0.004761232, 4.165652E-05, 0.0005187925, -0.9999976, -0.001450272, 0.3503954
 186631151, -0.0001304377, 0.01234592, -0.0004906491, 0.00104407, 0.0004176729, 0.004644472, -0.000349843, 0.0005187925, -0.9999976, -0.00144944, 0.3503954
 186831071, 0.0008005247, 0.0124714, -0.000213105, 0.00104407, -0.0003202404, 0.004802952, 0.0002520363, 0.0005187925, -0.9999976, -0.00144724, 0.3503954
 187030991, -0.0004137559, 0.01208571, -9.934862E-05, 0.00104407, -0.0002178103, 0.004173175, -0.0001941178, 0.0005187925, -0.9999976, -0.001444145, 0.3503954
 187230911, -9.7133E-05, 0.01167519, -0.0001066425, 0.00104407, 0.0002213947, 0.004238394, 0.0002587284, 0.0005187925, -0.9999976, -0.00143991, 0.3503954
 187430831, 0.0001745447, 0.0118796, 7.690687E-05, 0.00104407, -1.445501E-05, 0.004483706, -0.0001116377, 0.0005187925, -0.9999976, -0.00143596, 0.3503954
 187630751, -8.671306E-05, 0.01192962, -0.00040871, 0.00104407, -0.0001366346, 0.004212046, 0.0001570431, 0.0005187925, -0.9999976, -0.001430594, 0.3503954
 187830671, -0.0001256811, 0.01181516, 0.0001169499, 0.00104407, 0.0002714216, 0.004695587, -0.0001023193, 0.0005187925, -0.9999976, -0.001425554, 0.3503954
 188031424, 0.0004138891, 0.01201, -0.0001561287, 0.001046232, -0.0001269561, 0.003823659, 5.311429E-06, 0.0005209541, -0.9999977, -0.001420822, 0.3511209
 188231344, 0.0002172142, 0.01121868, -9.24523E-05, 0.001046232, 0.0002039261, 0.004000705, -2.844031E-05, 0.0005187925, -0.9999976, -0.001430614, 0.3511209
 188431264, 0.0002840435, 0.01143078, 6.816522E-05, 0.00104407, 0.0003784318, 0.004320815, -0.0002874309, 0.0005187925, -0.9999976, -0.001438598, 0.3503954
 188631184, 0.0002850848, 0.01152892, -0.0004938689, 0.00104407, 0.0001538556, 0.004095117, -0.0002020337, 0.0005187925, -0.9999976, -0.001446773, 0.3503954
 188831104, 6.350289E-05, 0.01166552, -6.017769E-05, 0.00104407, -0.0001555567, 0.004060788, 0.0001604964, 0.0005187925, -0.9999976, -0.001453912, 0.3503954
 189031024, -2.707243E-05, 0.01128779, -0.0001041675, 0.00104407, 1.752427E-05, 0.004311181, -1.506209E-06, 0.0005187925, -0.9999976, -0.001460166, 0.3503954
 189230944, 0.0002859826, 0.01147624, -2.58819E-05, 0.00104407, -0.0001363091, 0.00435232, -8.615385E-06, 0.0005187925, -0.9999976, -0.001465128, 0.3503954
 189430864, 7.709725E-05, 0.0115858, -0.0001389758, 0.00104407, -6.043435E-05, 0.0041389, -0.0005013867, 0.0005187925, -0.9999976, -0.001468425, 0.3503954
 189630784, -2.212445E-05, 0.01147762, -0.0007431645, 0.00104407, 0.0002698433, 0.004151896, -0.000444306, 0.0005187925, -0.9999976, -0.001470908, 0.3503954
 189830704, 0.0003496795, 0.01154229, -0.0009698025, 0.00104407, 0.0006104229, 0.004054416, -0.0006274155, 0.0005187925, -0.9999976, -0.001472174, 0.3503954
 190031457, 0.0005419973, 0.01118535, -0.0009612193, 0.001046232, -2.784937E-05, 0.004058561, -0.0002146172, 0.0005209541, -0.9999977, -0.001474089, 0.3511209
 190231377, 0.0001773158, 0.0112953, -0.0003177504, 0.001046232, -5.966749E-05, 0.004002579, 0.0001313828, 0.0005187925, -0.9999977, -0.001474437, 0.3511209
 190431297, -2.885893E-05, 0.01145286, -4.659378E-07, 0.00104407, 0.0003042794, 0.004225865, -0.0001634635, 0.0005187925, -0.9999977, -0.001473208, 0.3503954
 190631217, 0.0002690773, 0.01170157, -0.0002624761, 0.00104407, 0.000192474, 0.004788502, -0.0001280928, 0.0005187925, -0.9999976, -0.00147253, 0.3503954
 190831137, 0.0001233564, 0.01227567, -0.0003511551, 0.00104407, 0.0002316893, 0.004363301, 0.0001530667, 0.0005187925, -0.9999977, -0.001470972, 0.3503954
 191031057, 7.652439E-05, 0.01132959, -5.024923E-05, 0.00104407, -0.0003126881, 0.004185522, -0.0004759278, 0.0005187925, -0.9999977, -0.001470206, 0.3503954
 191230977, -0.0002286805, 0.0114052, -0.0005353251, 0.00104407, 0.0003231239, 0.004198825, -0.0003346451, 0.0005187925, -0.9999976, -0.001468646, 0.3503954
 191430897, 0.0003307667, 0.01137082, -0.0006442674, 0.00104407, -0.0003320494, 0.004123653, -0.0004219406, 0.0005187925, -0.9999976, -0.001466557, 0.3503954
 191630817, -0.0004139123, 0.01144796, -0.0007587887, 0.00104407, -0.0002029607, 0.004211029, -0.0002725679, 0.0005187925, -0.9999976, -0.001463158, 0.3503954
 191830737, -0.0001618901, 0.01155182, -0.0001307321, 0.00104407, -4.653216E-05, 0.003860706, -5.275284E-05, 0.0005187925, -0.9999977, -0.001459367, 0.3503954
 192030657, 0.000125173, 0.01117258, 5.335938E-05, 0.00104407, 0.000106758, 0.004317339, -0.0002654456, 0.0005187925, -0.9999976, -0.001456351, 0.3503954
 192231410, -9.444519E-05, 0.01164167, -0.0003443763, 0.001046232, 2.576493E-05, 0.003964682, -0.000136218, 0.0005209541, -0.9999977, -0.001453875, 0.3511209
 192431330, 0.0002506934, 0.01160574, -0.000181727, 0.001046232, 0.0001986042, 0.004156994, 0.0002225891, 0.0005187925, -0.9999977, -0.001448405, 0.3511209
 192631250, 0.0002332334, 0.01187102, 0.0003866902, 0.00104407, -0.0002037404, 0.004601033, 5.536963E-05, 0.0005187925, -0.9999977, -0.001441949, 0.3503954
 192831170, -0.0004073192, 0.01196128, -0.0002162438, 0.00104407, -2.282073E-05, 0.004128105, 9.94642E-05, 0.0005187925, -0.9999977, -0.001436855, 0.3503954
 193031090, 0.0001843614, 0.01178661, 0.000164045, 0.00104407, 9.251448E-05, 0.004373058, 6.217138E-05, 0.0005187925, -0.9999977, -0.001430527, 0.3503954
 193231010, -3.981273E-05, 0.01166094, -8.764098E-05, 0.00104407, 0.0003599834, 0.003709188, -0.0001132321, 0.0005187925, -0.9999977, -0.001423835, 0.3503954
 193430930, 0.0004056302, 0.01136458, -0.0005079134, 0.00104407, -0.0001049884, 0.004172208, 0.0001065198, 0.0005187925, -0.9999977, -0.001431547, 0.3503954
 193630850, -6.12185E-05, 0.01155448, -1.602724E-05, 0.00104407, -0.0001190196, 0.004515309, -0.0003330221, 0.0005187925, -0.9999977, -0.001438576, 0.3503954
 193830770, -6.932318E-05, 0.01181466, -0.0002867136, 0.00104407, 0.0001322647, 0.004478108, 0.0004076269, 0.0005187925, -0.9999977, -0.001444263, 0.3503954
 194030690, 0.0002169396, 0.01156756, -2.600695E-05, 0.00104407, -7.171929E-05, 0.003987739, -0.000380545, 0.0005187925, -0.9999977, -0.001449526, 0.3503954
 194231443, -6.572012E-05, 0.01125316, -0.0003860125, 0.001046232, 3.589369E-05, 0.003637191, 0.0001410659, 0.0005209541, -0.9999977, -0.001454154, 0.3511209
 194431363, 0.0002144138, 0.01099901, 0.0001300779, 0.001046232, -1.685143E-05, 0.004474231, 0.0002369791, 0.0005187925, -0.9999977, -0.001457642, 0.3511209
 194631283, 1.572622E-06, 0.01205801, 0.0001371848, 0.00104407, -8.117941E-05, 0.004311393, -0.0002516789, 0.0005187925, -0.9999977, -0.001458035, 0.3503954
 194831203, 6.191878E-05, 0.01158558, -0.0004735782, 0.00104407, 7.206257E-05, 0.004222133, 0.0002748665, 0.0005187925, -0.9999977, -0.001458486, 0.3503954
 195031123, -3.08821E-05, 0.01144552, 0.0001430606, 0.00104407, -0.0001608315, 0.003942185, 0.0003437086, 0.0005187925, -0.9999977, -0.00145762, 0.3503954
 195231043, -0.0004107166, 0.0111465, 7.644223E-06, 0.00104407, -0.000135239, 0.004123115, -0.0001710005, 0.0005187925, -0.9999977, -0.001457026, 0.3503954
 195430963, -8.484963E-05, 0.01142125, -0.0003942785, 0.00104407, 0.000118438, 0.004267158, 6.813661E-05, 0.0005187925, -0.9999977, -0.001456312, 0.3503954
 195630883, 0.000237367, 0.01160836, -0.0001160527, 0.00104407, -7.869577E-05, 0.004228182, -2.482375E-05, 0.0005187925, -0.9999978, -0.001453513, 0.3503954
 195830803, 0.0001223013, 0.01128248, -0.0001027948, 0.00104407, -6.700063E-05, 0.003996442, 0.000120389, 0.0005187925, -0.9999978, -0.001450653, 0.3503954
 196030723, 0.0003366917, 0.01134687, 0.0001135586, 0.00104407, 0.0003897238, 0.004172186, 0.0003321951, 0.0005187925, -0.9999978, -0.001446818, 0.3503954
 196231476, 7.894124E-05, 0.01134342, 0.0002938585, 0.001046232, -0.0001939225, 0.004117941, -3.478685E-05, 0.0005209541, -0.9999978, -0.001442874, 0.3511209
 196431396, -9.662648E-05, 0.01153473, -0.0002806625, 0.001046232, -3.711069E-05, 0.004176871, -0.0001874365, 0.0005187925, -0.9999978, -0.001438949, 0.3511209
 196631316, -0.0002082895, 0.01140185, -0.0003596084, 0.00104407, -0.0003879511, 0.0039563, 1.429343E-05, 0.0005187925, -0.9999978, -0.00143287, 0.3503954
 196831236, -0.0004030401, 0.01082711, -0.0001352138, 0.00104407, 0.0002032391, 0.004104687, -6.637302E-05, 0.0005187925, -0.9999978, -0.001425967, 0.3503954
 197031156, -0.0002495738, 0.01117201, -1.825918E-05, 0.00104407, -0.0005080064, 0.003926123, -0.0002402965, 0.0005187925, -0.9999978, -0.001420143, 0.3503954
 197231076, -0.0002109654, 0.01144027, -0.0004313222, 0.00104407, 0.0001275611, 0.004254722, -0.0001609325, 0.0005187925, -0.9999978, -0.001414099, 0.3503954
 197430996, 0.0001689171, 0.01155563, -0.0004611221, 0.00104407, 2.913862E-06, 0.003880878, -0.0004907016, 0.0005187925, -0.9999978, -0.001408981, 0.3503954
 197630916, -2.755634E-05, 0.01099023, -0.0008751228, 0.00104407, 6.23923E-05, 0.003989631, -0.0001947041, 0.0005187925, -0.9999978, -0.001403784, 0.3503954
 197830836, 0.0004626974, 0.01155405, -0.0004560697, 0.00104407, 0.0001768431, 0.004318925, -0.0003287156, 0.0005187925, -0.9999978, -0.001396895, 0.3503954
 198030756, 0.0004449171, 0.0117391, -0.0008499917, 0.00104407, -5.880219E-06, 0.004375129, -0.0003539743, 0.0005187925, -0.9999978, -0.001390379, 0.3503954
 198230676, 0.0001333809, 0.01190301, -0.0003355138, 0.00104407, 0.0003675781, 0.00403412, -0.0003200716, 0.0005187925, -0.9999978, -0.001383547, 0.3503954
 198431429, 0.0003049898, 0.01136584, -0.0004845893, 0.001046232, 0.0001142767, 0.004122983, -0.0001278846, 0.0005209541, -0.9999978, -0.001379105, 0.3511209
 198631349, 8.636986E-06, 0.01143499, -0.0001920782, 0.001046232, -0.0002167662, 0.004202747, -0.0001390628, 0.0005187925, -0.9999978, -0.001384923, 0.3511209
 198831269, 5.833666E-05, 0.01141115, -9.820108E-05, 0.00104407, 0.0002004379, 0.004120435, -0.0005020327, 0.0005187925, -0.9999978, -0.001389582, 0.3503954
 199031189, 0.0003284375, 0.01190425, -0.0006550686, 0.00104407, 0.0002481024, 0.004744267, -0.0002906221, 0.0005187925, -0.9999978, -0.001395147, 0.3503954
 199231109, 0.0001575826, 0.01189862, -0.0004061457, 0.00104407, -0.0001276474, 0.00425776, -2.133708E-05, 0.0005187925, -0.9999978, -0.001398999, 0.3503954
 199431029, -0.0001656159, 0.01143552, -2.573652E-05, 0.00104407, 8.251507E-05, 0.004127927, 3.532186E-05, 0.0005187925, -0.9999978, -0.00140176, 0.3503954
 199630949, 5.982571E-05, 0.01123429, 0.0001517654, 0.00104407, 0.0001655122, 0.003784228, 5.575333E-05, 0.0005187925, -0.9999978, -0.001403779, 0.3503954
 199830869, -4.197033E-05, 0.0114254, 3.116907E-05, 0.00104407, -0.000365958, 0.004597811, -0.0001547552, 0.0005187925, -0.9999978, -0.00140527, 0.3503954
 200030789, -0.0002738464, 0.01182881, -0.0003040909, 0.00104407, 0.0005466728, 0.003843577, -0.0002633745, 0.0005187925, -0.9999978, -0.001405813, 0.3503954
 200230709, 0.0007893998, 0.01100727, -3.706993E-05, 0.00104407, 0.0003178905, 0.00423982, 4.823543E-05, 0.0005187925, -0.9999978, -0.00140578, 0.3503954
 200431462, 0.000354039, 0.01138917, -0.0004541142, 0.001046232, 0.0001604939, 0.003890566, -0.0004001196, 0.0005209541, -0.9999978, -0.001407013, 0.3511209
 200631382, -3.321957E-07, 0.01143467, -0.0006525302, 0.001046232, -9.946002E-05, 0.004225051, -0.0002671091, 0.0005187925, -0.9999978, -0.00140613, 0.3511209
 200831302, 5.258343E-05, 0.01128081, -0.0002730065, 0.00104407, -1.679416E-05, 0.004232388, -3.314958E-05, 0.0005187925, -0.9999978, -0.001403764, 0.3503954
 201031222, 7.706305E-05, 0.01149649, 5.735246E-05, 0.00104407, 0.0003910946, 0.003981217, -0.0002425665, 0.0005187925, -0.9999979, -0.001398232, 0.3503954
 201231142, 0.0003093327, 0.01094747, -0.0003606462, 0.00104407, -9.079521E-05, 0.003894714, 0.0001485624, 0.0005187925, -0.9999979, -0.00139331, 0.3503954
 201431062, -0.0003950895, 0.01110998, 0.0001697303, 0.00104407, -0.0002204653, 0.003969495, 1.134776E-05, 0.0005187925, -0.9999979, -0.001388299, 0.3503954
 201630982, -1.758513E-05, 0.01092408, 5.653263E-05, 0.00104407, 0.0001141744, 0.003763153, 0.0003849039, 0.0005187925, -0.9999979, -0.001382786, 0.3503954
 201830902, -0.0001085207, 0.01094201, 0.0002184566, 0.00104407, -0.0006909784, 0.004346662, 6.718329E-06, 0.0005187925, -0.9999979, -0.001376563, 0.3503954
 202030822, -0.0005701967, 0.0117053, -0.0002029715, 0.00104407, 0.0002273149, 0.003950228, -0.0001703582, 0.0005187925, -0.9999979, -0.001370503, 0.3503954
 202230742, 0.0003376681, 0.01129962, -0.0003414874, 0.00104407, 0.0002886939, 0.004242958, 0.0002813346, 0.0005187925, -0.9999979, -0.001363581, 0.3503954
 202430662, 0.0005509753, 0.01144177, -2.065065E-05, 0.00104407, 0.000221076, 0.00409144, -0.0003594451, 0.0005187925, -0.9999979, -0.001357379, 0.3503954
 202631415, 0.0004498077, 0.01130024, -0.0005469168, 0.001046232, 0.0003159124, 0.003826296, -0.0001971398, 0.0005209541, -0.9999979, -0.001352824, 0.3511209
 202831335, 0.0005250562, 0.01107083, -0.0003825896, 0.001046232, -9.743339E-05, 0.003806192, 4.093916E-05, 0.0005187925, -0.9999979, -0.001346439, 0.3511209
 203031255, -6.574145E-05, 0.01126585, -1.419098E-05, 0.00104407, 0.0004607875, 0.004686774, 0.0002146149, 0.0005187925, -0.9999978, -0.001338956, 0.3503954
 203231175, 0.0003707701, 0.01197382, -0.0001404438, 0.00104407, 6.244409E-05, 0.004311865, -0.0005436307, 0.0005187925, -0.9999978, -0.001331763, 0.3503954
 203431095, 0.0001856261, 0.01139134, -0.000565087, 0.00104407, 0.0002792848, 0.004117034, 0.0001744276, 0.0005187925, -0.9999978, -0.001322836, 0.3503954
 203631015, 0.0004595383, 0.01160235, 0.0003331508, 0.00104407, 0.0004411635, 0.004203724, 3.037906E-05, 0.0005187925, -0.9999978, -0.001315597, 0.3503954
 203830935, 0.0004908652, 0.01175663, -3.508128E-06, 0.00104407, -0.0002015423, 0.004324473, -4.691511E-05, 0.0005187925, -0.9999978, -0.001322496, 0.3503954
 204030855, 0.0001230823, 0.01172617, -0.0002902789, 0.00104407, 0.0001692042, 0.004282039, -0.0003108986, 0.0005187925, -0.9999978, -0.001329283, 0.3503954
 204230775, 0.0002959315, 0.01159189, -0.0004975616, 0.00104407, 0.0004405371, 0.004094777, -0.0002525571, 0.0005187925, -0.9999978, -0.001334533, 0.3503954
 204430695, 0.0006202053, 0.01132352, -0.0005811118, 0.00104407, -0.0001289354, 0.004237072, -0.0002122709, 0.0005187925, -0.9999978, -0.001338868, 0.3503954
 204631448, -8.414233E-05, 0.0115198, -2.534168E-05, 0.001046232, 5.250972E-07, 0.004485526, -0.0003101105, 0.0005209541, -0.9999979, -0.001344857, 0.3511209
 204831368, 0.0001747291, 0.0114115, -0.0001576383, 0.001046232, -8.90246E-05, 0.003897309, 0.0001370692, 0.0005187925, -0.9999978, -0.001346593, 0.3511209
 205031288, -0.0001769144, 0.01127157, -0.0003010654, 0.00104407, 2.604096E-05, 0.004393707, -0.0002602596, 0.0005187925, -0.9999978, -0.001347742, 0.3503954
 205231208, -4.193013E-05, 0.0116384, -0.0003744713, 0.00104407, 0.0002288228, 0.004170172, -0.0002468445, 0.0005187925, -0.9999978, -0.001348836, 0.3503954
 205431128, 0.0003288176, 0.01129151, -0.0001919647, 0.00104407, -0.0001646195, 0.003589847, 0.000304048, 0.0005187925, -0.9999978, -0.001350239, 0.3503954
 205631048, 0.0001077643, 0.01104552, -1.142759E-05, 0.00104407, 2.977964E-05, 0.003886895, 0.0003038227, 0.0005187925, -0.9999978, -0.001350295, 0.3503954
 205830968, -3.766242E-05, 0.01120735, 0.0001861066, 0.00104407, -0.0001422807, 0.004419212, 0.0001744788, 0.0005187925, -0.9999978, -0.001348388, 0.3503954
 206030888, 3.567541E-05, 0.0115815, -0.0001315985, 0.00104407, -0.0001736234, 0.003970581, -0.0001983123, 0.0005187925, -0.9999978, -0.001346634, 0.3503954
 206230808, 9.6795E-05, 0.0110979, -0.0002019134, 0.00104407, 6.73456E-05, 0.004204371, 6.670311E-05, 0.0005187925, -0.9999978, -0.001344863, 0.3503954
 206430728, 0.00024493, 0.01133393, 0.0001695062, 0.00104407, 0.0003298128, 0.004103277, -0.0001372396, 0.0005187925, -0.9999979, -0.00134299, 0.3503954
 206631481, 0.0005199731, 0.01136356, -0.0001114224, 0.001046232, 1.006966E-05, 0.004365787, 1.225536E-05, 0.0005209541, -0.9999978, -0.001342186, 0.3511209
 206831401, -5.625728E-05, 0.0118619, 0.0001014168, 0.001046232, -4.733085E-05, 0.004153415, -7.63111E-06, 0.0005187925, -0.9999979, -0.001340664, 0.3511209
 207031321, -0.0001552473, 0.01118909, -0.0003239039, 0.00104407, -0.0001094913, 0.004470379, -0.000461265, 0.0005187925, -0.9999979, -0.001338081, 0.3503954
 207231241, 7.043139E-05, 0.01172712, -0.0004825829, 0.00104407, -8.177854E-05, 0.003835596, 1.031937E-06, 0.0005187925, -0.9999979, -0.001333343, 0.3503954
 207431161, -0.0001527799, 0.01088271, 4.432813E-05, 0.00104407, -0.0002704299, 0.004172828, 0.0001082416, 0.0005187925, -0.9999979, -0.001328447, 0.3503954
 207631081, -8.50736E-05, 0.01137412, -6.343928E-05, 0.00104407, 0.0002468712, 0.004455739, 0.0001385146, 0.0005187925, -0.9999979, -0.001323577, 0.3503954
 207831001, 0.0001607125, 0.01150008, 0.0001903463, 0.00104407, -3.491098E-06, 0.003705365, 0.0006105066, 0.0005187925, -0.9999979, -0.001318768, 0.3503954
 208030921, -0.0001559554, 0.0113475, 0.0004846636, 0.00104407, -0.000164227, 0.00434686, 0.0004461005, 0.0005187925, -0.9999979, -0.001313385, 0.3503954
 208230841, 1.868879E-05, 0.01162713, 0.0003469615, 0.00104407, 0.0002232749, 0.004011285, -0.0002610271, 0.0005187925, -0.9999979, -0.001307436, 0.3503954
 208430761, -2.56265E-06, 0.01127679, -0.0002984414, 0.00104407, -0.0002161559, 0.004464582, -0.0002200605, 0.0005187925, -0.9999979, -0.001302493, 0.3503954
 208630681, -0.0001319274, 0.01189, -0.0004362983, 0.00104407, -2.695412E-05, 0.004201622, -0.0001076304, 0.0005187925, -0.9999978, -0.001296298, 0.3503954
 208831434, 7.617864E-05, 0.01199143, -0.000101762, 0.001046232, 0.0002431974, 0.004450479, -3.96681E-05, 0.0005209541, -0.9999979, -0.001292282, 0.3511209
 209031354, 0.0005518659, 0.01182682, 8.863441E-05, 0.001046232, 0.0005889292, 0.004151207, 0.0007135468, 0.0005187925, -0.9999979, -0.001300963, 0.3511209
 209231274, 0.0006841062, 0.01144034, 0.0007790322, 0.00104407, 0.0001320941, 0.003980034, 0.0005142586, 0.0005187925, -0.9999979, -0.00130736, 0.3503954
 209431194, 9.558137E-05, 0.01138307, 0.0003454734, 0.00104407, -0.0003672202, 0.003716132, -0.0002987107, 0.0005187925, -0.9999979, -0.001313012, 0.3503954
 209631114, -0.0006006795, 0.01101533, -0.0002179978, 0.00104407, 2.568221E-05, 0.004250371, 3.089026E-05, 0.0005187925, -0.9999979, -0.001317868, 0.3503954
 209831034, -8.295709E-05, 0.01158082, 2.444839E-05, 0.00104407, 0.0001438418, 0.004789668, 2.477966E-05, 0.0005187925, -0.9999979, -0.001321343, 0.3503954
 210030954, 0.0002825099, 0.01211464, 0.0001646837, 0.00104407, 3.873583E-05, 0.004239874, -0.0002155002, 0.0005187925, -0.9999979, -0.00132509, 0.3503954
 210230874, -0.0001324323, 0.01157923, -7.369306E-05, 0.00104407, -0.0002937368, 0.004157404, 0.0002468266, 0.0005187925, -0.9999979, -0.001327733, 0.3503954
 210430794, -0.0001828084, 0.01148472, 0.0001388424, 0.00104407, 0.0001984779, 0.004373798, -4.465343E-05, 0.0005187925, -0.9999979, -0.001328918, 0.3503954
 210630714, 0.0001373444, 0.01113485, -5.607032E-05, 0.00104407, 0.0004117377, 0.003868388, -0.0001415961, 0.0005187925, -0.9999979, -0.001327298, 0.3503954
 210831467, 0.0003142309, 0.01134009, -1.145063E-05, 0.001046232, 0.0001234348, 0.003758095, 7.872253E-05, 0.0005209541, -0.9999979, -0.001327837, 0.3511209
 211031387, 0.0001796125, 0.01116234, 0.0001022819, 0.001046232, 1.453293E-05, 0.004256998, -0.0003928067, 0.0005187925, -0.9999979, -0.001327742, 0.3511209
 211231307, 8.817336E-05, 0.01124434, -0.0007001887, 0.00104407, -5.658676E-05, 0.003735675, 3.418756E-06, 0.0005187925, -0.9999979, -0.001326744, 0.3503954
 211431227, -0.0002609582, 0.01107552, -0.0002970698, 0.00104407, 0.0003362233, 0.004322634, 0.0001849972, 0.0005187925, -0.9999979, -0.001324061, 0.3503954
 211631147, 0.000267062, 0.01147276, -0.0001204796, 0.00104407, -0.000413681, 0.004050875, -0.0001916536, 0.0005187925, -0.9999979, -0.001322356, 0.3503954
 211831067, -0.0007939393, 0.01127653, -0.0001966571, 0.00104407, -9.06187E-05, 0.00430412, -0.0004176531, 0.0005187925, -0.9999979, -0.001319979, 0.3503954
 212030987, 4.478215E-05, 0.0117412, -0.0003990854, 0.00104407, 0.0002409175, 0.004437498, 6.2878E-05, 0.0005187925, -0.9999979, -0.00131637, 0.3503954
 212230907, 0.0002674498, 0.01151229, 0.0001884493, 0.00104407, 7.139055E-05, 0.004011524, 0.0002967684, 0.0005187925, -0.9999979, -0.001313097, 0.3503954
 212430827, 0.0002261632, 0.01108926, 0.0001630619, 0.00104407, 0.0003297344, 0.00404357, -0.0003066421, 0.0005187925, -0.9999979, -0.001308454, 0.3503954
 212630747, 0.0004068468, 0.01116293, -0.0002372365, 0.00104407, 0.0001253611, 0.003726189, 0.0001299767, 0.0005187925, -0.9999979, -0.001303985, 0.3503954
 212830667, -0.000168878, 0.01069745, -5.3444E-05, 0.00104407, -0.0003032971, 0.004175359, -0.0001591487, 0.0005187925, -0.9999979, -0.001299126, 0.3503954
 213031420, -0.0002559269, 0.01137283, -0.0006074467, 0.001046232, -0.0005059566, 0.00369581, -0.0001799571, 0.0005209541, -0.9999979, -0.001295708, 0.3511209
 213231340, -0.0004306227, 0.0112304, 5.292879E-05, 0.001046232, 0.0002393139, 0.004081255, 0.000488323, 0.0005187925, -0.9999979, -0.001290823, 0.3511209
 213431260, 0.0002820848, 0.01136679, 0.0005361208, 0.00104407, -0.0001737036, 0.004315303, -0.0001544966, 0.0005187925, -0.9999979, -0.001283487, 0.3503954
 213631180, -0.0001247927, 0.01143391, -0.0003518974, 0.00104407, -3.18433E-05, 0.003941238, -0.0005123139, 0.0005187925, -0.9999979, -0.00127802, 0.3503954
 213831100, -9.516427E-05, 0.01117518, -0.000715625, 0.00104407, -7.647291E-05, 0.003798663, -0.0003237764, 0.0005187925, -0.9999979, -0.001272241, 0.3503954
 214031020, 0.0002689979, 0.0113894, -0.0003892663, 0.00104407, 4.375049E-05, 0.004440696, 7.746457E-05, 0.0005187925, -0.9999979, -0.00126628, 0.3503954
 214230940, 0.0002342021, 0.01193644, 8.775183E-05, 0.00104407, -6.065487E-05, 0.003896918, 7.672808E-06, 0.0005187925, -0.9999979, -0.001275765, 0.3503954
 214430860, 0.0004214168, 0.01113512, 9.083667E-06, 0.00104407, -5.665171E-05, 0.004133633, 1.109037E-05, 0.0005187925, -0.9999979, -0.00128439, 0.3503954
 214630780, 0.0002073306, 0.01168016, -0.0002983318, 0.00104407, -7.283894E-05, 0.004242031, -0.0003302909, 0.0005187925, -0.9999979, -0.001291763, 0.3503954
 214830700, 7.092714E-05, 0.01189152, -0.0003793069, 0.00104407, 8.932674E-05, 0.004635124, -6.5154E-05, 0.0005187925, -0.9999979, -0.001298574, 0.3503954
 215031453, 0.0001452161, 0.01202704, -0.0006254741, 0.001046232, 0.0002029248, 0.004566287, -0.0003592405, 0.0005209541, -0.9999979, -0.001303929, 0.3511209
 215231373, 9.213357E-05, 0.0122, -0.0005431808, 0.001046232, 5.446982E-06, 0.004382112, 1.358442E-05, 0.0005187925, -0.9999979, -0.001307997, 0.3511209
 215431293, 0.0001751612, 0.01148656, 7.209992E-05, 0.00104407, 7.843354E-05, 0.003885909, 0.0003610084, 0.0005187925, -0.9999979, -0.001310147, 0.3503954
 215631213, 0.0001196712, 0.01115771, 0.0002833127, 0.00104407, -0.0001414563, 0.003711202, -0.0002340429, 0.0005187925, -0.9999979, -0.001311777, 0.3503954
 215831133, 0.0002610978, 0.01067389, -0.0001827164, 0.00104407, 0.0003413673, 0.004195931, -6.631344E-06, 0.0005187925, -0.9999979, -0.001313105, 0.3503954
 216031053, 0.0005331837, 0.011292, -7.307466E-05, 0.00104407, 0.0001725951, 0.004333692, -9.196893E-05, 0.0005187925, -0.9999979, -0.001313379, 0.3503954
 216230973, 0.0003682612, 0.01157897, -0.0002176618, 0.00104407, 0.0002549797, 0.003619911, 2.652656E-05, 0.0005187925, -0.9999979, -0.001313599, 0.3503954
 216430893, 0.0007445209, 0.01081626, -0.0002885308, 0.00104407, 0.0003155363, 0.004288108, -0.0002430409, 0.0005187925, -0.9999979, -0.001312963, 0.3503954
 216630813, 0.0001274258, 0.01142959, -0.0002772366, 0.00104407, 0.0002491726, 0.004280058, 0.0005000737, 0.0005187925, -0.9999979, -0.001312383, 0.3503954
 216830733, -1.944425E-05, 0.01147591, 5.722154E-05, 0.00104407, -0.0003219231, 0.003678487, -0.0003029648, 0.0005187925, -0.9999979, -0.001310057, 0.3503954
 217031486, -0.0001655553, 0.01077133, -0.0009111311, 0.001046232, -0.0001018444, 0.003808918, -0.0002761844, 0.0005187925, -0.9999979, -0.001306277, 0.3511209
 217231406, 0.0001511205, 0.01100091, -0.0001170473, 0.001046232, -5.509571E-05, 0.004159549, 0.0001175517, 0.0005209541, -0.9999979, -0.001304731, 0.3511209
 217431326, 1.69537E-05, 0.01128664, 2.778375E-05, 0.001046232, 0.0003353643, 0.004167348, -9.579284E-05, 0.0005187925, -0.9999979, -0.001301434, 0.3511209
 217631246, -9.687302E-05, 0.0112278, -0.0002955065, 0.00104407, -0.0003360877, 0.004230731, -0.0003398334, 0.0005187925, -0.9999979, -0.001296027, 0.3503954
 217831166, -0.0006576122, 0.01177822, -0.0003674563, 0.00104407, -0.0001844052, 0.00424579, 2.270863E-05, 0.0005187925, -0.9999979, -0.001293669, 0.3503954
 218031086, -8.378315E-05, 0.01153314, -0.0002974846, 0.00104407, -0.0001063358, 0.004098818, -0.0001532668, 0.0005187925, -0.9999979, -0.001290754, 0.3503954
 218231006, -0.000139741, 0.0112155, -0.0003587885, 0.00104407, -0.0001369478, 0.003990014, -9.952259E-05, 0.0005187925, -0.9999979, -0.001287271, 0.3503954
 218430926, 0.0001296763, 0.01140373, -0.000144978, 0.00104407, -4.299325E-05, 0.00439833, -0.0001262684, 0.0005187925, -0.9999979, -0.001284023, 0.3503954
 218630846, -6.218535E-05, 0.0116028, -0.0005060377, 0.00104407, 0.0001140149, 0.004272026, 0.0004065853, 0.0005187925, -0.9999978, -0.001280204, 0.3503954
 218830766, 0.0002003731, 0.01173115, 8.133481E-05, 0.00104407, -0.0002334394, 0.004362671, -0.0003869392, 0.0005187925, -0.9999978, -0.001276379, 0.3503954
 219030686, -0.0003754933, 0.0117924, -0.0003602279, 0.00104407, -4.091053E-05, 0.004244904, -0.000230517, 0.0005187925, -0.9999978, -0.001273209, 0.3503954
 219231439, 0.0002677992, 0.01196894, -0.0005382928, 0.001046232, 0.000170678, 0.004223425, -0.0002878257, 0.0005209541, -0.9999978, -0.001269673, 0.3511209
 219431359, 0.0004630716, 0.01143447, -0.0002761801, 0.001046232, 0.0005098433, 0.004478843, -9.579522E-05, 0.0005187925, -0.9999979, -0.001279469, 0.3511209
 219631279, 0.0006208178, 0.01156162, -0.0004343536, 0.00104407, 6.040758E-05, 0.004057266, -0.0001947589, 0.0005187925, -0.9999978, -0.001286962, 0.3503954
 219831199, 0.0001793023, 0.01143796, -0.0004039913, 0.00104407, 0.0001391312, 0.004222391, 5.762895E-05, 0.0005187925, -0.9999978, -0.001294744, 0.3503954
 220031119, 0.0001974132, 0.01158239, -0.0001661518, 0.00104407, 3.528564E-06, 0.004492337, 9.894939E-05, 0.0005187925, -0.9999978, -0.001302396, 0.3503954
 220231039, 0.0001120694, 0.01150782, -0.0002110638, 0.00104407, -0.0001028201, 0.003847024, 5.556267E-05, 0.0005187925, -0.9999978, -0.001310481, 0.3503954
 220430959, -0.0002062122, 0.01112118, 0.0001348206, 0.00104407, -0.0001007006, 0.004232215, 4.335456E-05, 0.0005187925, -0.9999978, -0.001317626, 0.3503954
 220630879, -0.0002883477, 0.01171954, -4.526235E-05, 0.00104407, -0.0002563773, 0.004196837, -8.029943E-05, 0.0005187925, -0.9999978, -0.001322477, 0.3503954
 220830799, -0.0003490181, 0.01166753, 0.0001424482, 0.00104407, -0.0004637801, 0.004964613, 0.0001587375, 0.0005187925, -0.9999978, -0.001327018, 0.3503954
 221030719, -0.0003722899, 0.01238583, -0.0001158883, 0.00104407, 0.000461025, 0.004018192, 0.0002156289, 0.0005187925, -0.9999978, -0.001330937, 0.3503954
 221231472, 0.0006849473, 0.01112281, -7.959557E-05, 0.001046232, 0.0002857575, 0.003783191, -6.413714E-05, 0.0005209541, -0.9999978, -0.001331805, 0.3511209
 221431392, 0.0002232592, 0.0111311, -0.000506987, 0.001046232, 0.0004321423, 0.004432424, 2.637761E-05, 0.0005187925, -0.9999978, -0.001335049, 0.3511209
 221631312, 0.0007998176, 0.01171746, -0.01281788, 0.00104407, 0.0002312516, 0.004161258, -0.00654158, 0.0005187925, -0.9999978, -0.001337494, 0.3503954
 221831232, 0.0007119229, 0.01189447, -0.3092193, 0.00104407, 3.670439E-05, 0.004626122, -0.1052839, 0.0005187925, -0.9999978, -0.00133758, 0.3503954
 222031152, -5.911872E-05, 0.01192125, -0.04697497, 0.00104407, -0.0002477301, 0.00397727, 0.06896835, 0.0005187925, -0.9999978, -0.001337641, 0.3503954
 222231072, -0.0002971645, 0.01116821, -0.01026495, 0.00104407, 0.0003124903, 0.004237444, -0.2859314, 0.0005187925, -0.9999986, -0.00135245, 0.3503954
 222430992, -0.003925802, 0.006732119, -1.616592, 0.00104407, -0.004620912, -0.0008832272, -0.6817064, 0.0005187925, -0.9999931, -0.001474823, 0.3503954
 222630912, -0.01797419, -0.008197052, -1.151334, 0.00104407, -0.008788834, -0.005349122, -0.1033907, 0.0005187925, -0.9999799, -0.001637768, 0.3503954
 222830832, -0.02392006, -0.0144913, -0.2276917, 0.00104407, -0.008862855, -0.004548635, -0.09320515, 0.0005187925, -0.9999766, -0.001789157, 0.3503954
 223030752, -0.02304051, -0.01173215, -0.3307118, 0.00104407, -0.007799778, -0.003524476, -0.1478801, 0.0005187925, -0.9999777, -0.001939947, 0.3503954
 223230672, -0.02005127, -0.008147595, -0.3797764, 0.00104407, -0.006592236, -0.002300319, -0.1218417, 0.0005187925, -0.9999797, -0.002088155, 0.3503954
 223431425, -0.01690124, -0.004658327, -0.3061378, 0.001046232, -0.005596661, -0.0008509539, -0.09939332, 0.0005209541, -0.9999815, -0.002231312, 0.3511209
 223631345, -0.01414779, -0.001159442, -0.2598518, 0.001046232, -0.004721883, 0.000451763, -0.08874361, 0.0005187925, -0.9999831, -0.002365595, 0.3511209
 223831265, -0.01192987, 0.002079412, -0.2321895, 0.00104407, -0.003659633, 0.001380459, -0.0785362, 0.0005187925, -0.9999846, -0.002490859, 0.3503954
 224031185, -0.009706591, 0.004591836, -0.2040152, 0.00104407, -0.003380794, 0.002233105, -0.06863771, 0.0005187925, -0.9999858, -0.002609388, 0.3503954
 224231105, -0.00807662, 0.006563826, -0.178574, 0.00104407, -0.002579923, 0.002371672, -0.06033846, 0.0005187925, -0.9999865, -0.002714924, 0.3503954
 224431025, -0.006292173, 0.007426651, -0.1569828, 0.00104407, -0.002088789, 0.003220791, -0.05272025, 0.0005187925, -0.9999867, -0.002802387, 0.3503954
 224630945, -0.005134298, 0.008587317, -0.1376446, 0.00104407, -0.001372639, 0.003263646, -0.04655068, 0.0005187925, -0.9999867, -0.002900268, 0.3503954
 224830865, -0.003450687, 0.009099639, -0.1205394, 0.00104407, -0.001133817, 0.003463279, -0.04016895, 0.0005187925, -0.9999867, -0.003011456, 0.3503954
 225030785, -0.002865441, 0.009599995, -0.1042597, 0.00104407, -0.001104357, 0.003578713, -0.03503051, 0.0005187925, -0.9999853, -0.0033541, 0.3503954
 225230705, -0.002610528, 0.009429537, -0.09208743, 0.00104407, -0.000801198, 0.00345654, -0.03141835, 0.0005187925, -0.999982, -0.003873979, 0.3503954
 225431458, -0.002591596, 0.008573892, -0.08221428, 0.001046232, -0.0008284894, 0.002813072, -0.02790452, 0.0005209541, -0.9999779, -0.004377741, 0.3511209
 225631378, -0.003019854, 0.007348328, -0.07238064, 0.001046232, -0.001435465, 0.002429609, -0.02445712, 0.0005187925, -0.999974, -0.004856107, 0.3511209
 225831298, -0.001093284, 0.008825901, 0.3312088, 0.00104407, 0.0008172913, 0.004518625, 0.3359929, 0.0005187925, -0.9999684, -0.005386578, 0.3503954
 226031218, 0.002079368, 0.01097808, 0.8722206, 0.00104407, 0.0005605508, 0.003718302, 0.293158, 0.0005187925, -0.9999626, -0.006028393, 0.3503954
 226231138, 0.002606632, 0.01027649, 0.8225312, 0.00104407, 0.002037275, 0.004536336, 0.3553388, 0.0005187925, -0.9999621, -0.006618121, 0.3503954
 226431058, 0.01861643, 0.01823324, 0.912219, 0.00104407, 0.01572786, 0.01030956, 0.2862812, 0.0005187925, -0.9999732, -0.007073007, 0.3503954
 226630978, 0.06047851, 0.03648408, 0.6881177, 0.00104407, 0.0281991, 0.01671272, 0.2050538, 0.0005187925, -0.9999393, -0.007386049, 0.3503954
 226830898, 0.0709795, 0.04677792, 0.5066146, 0.00104407, 0.02379413, 0.01720838, 0.1598652, 0.0005187925, -0.9999216, -0.007763156, 0.3503954
 227030818, 0.09120049, 0.04838926, 0.4106324, 0.00104407, 0.0509536, 0.01853574, 0.1376853, 0.0005187925, -0.9998788, -0.008028653, 0.3503954
 227230738, 0.1831519, 0.0538834, 0.362165, 0.00104407, 0.08814568, 0.02079204, 0.1218869, 0.0005187925, -0.9998109, -0.008209467, 0.3503954
 227430658, 0.2625422, 0.05807174, 0.3100029, 0.00104407, 0.103966, 0.02145116, 0.1002338, 0.0005187925, -0.9997668, -0.00868506, 0.3503954
 227631411, 0.2876045, 0.05769913, 0.2522267, 0.001046232, 0.1053054, 0.02040915, 0.07996096, 0.0005209541, -0.9997419, -0.009329771, 0.3511209
 227831331, 0.2865913, 0.05432343, 0.1993107, 0.001046232, 0.1033279, 0.01882419, 0.06263934, 0.0005187925, -0.9997237, -0.009922711, 0.3511209
 228031251, 0.2794813, 0.04926419, 0.1562405, 0.00104407, 0.09960562, 0.01695016, 0.04868796, 0.0005187925, -0.9997231, -0.01048687, 0.3503954
 228231171, 0.2678617, 0.04425699, 0.1210429, 0.00104407, 0.09496808, 0.01534561, 0.03774929, 0.0005187925, -0.9997106, -0.01055272, 0.3503954
 228431091, 0.254671, 0.05562867, 0.1002139, 0.00104407, 0.08999214, 0.03121668, 0.03654748, 0.0005187925, -0.9991527, 0.01634467, 0.3503954
 228631011, 0.2451082, 0.1177057, 0.09171452, 0.00104407, 0.08925485, 0.05793976, 0.02739897, 0.0005187925, -0.9897048, 0.1363587, 0.3503954
 228830931, 0.2480631, 0.1617809, 0.06228828, 0.00104407, 0.09225032, 0.05676262, 0.01709445, 0.0005187925, -0.9391085, 0.3436208, 0.3503954
 229030851, 0.2620459, 0.1265527, 0.04238713, 0.00104407, 0.1007918, 0.0298542, 0.01383529, 0.0005187925, -0.8082915, 0.5831335, 0.3503954
 229230771, 0.2908987, 0.04965925, 0.03852995, 0.00104407, 0.1135842, 0.002317951, 0.0143143, 0.0005187925, -0.5893117, 0.7904977, 0.3503954
 229430691, 0.3205369, -0.01512464, 0.04076577, 0.00104407, 0.1203522, -0.01587169, 0.01542393, 0.0005187925, -0.3213883, 0.919403, 0.3503954
 229631444, 0.3301333, -0.05540697, 0.04260527, 0.001046232, 0.1193141, -0.02524425, 0.01524304, 0.0005209541, -0.06441135, 0.9651663, 0.3511209
 229831364, 0.3211922, -0.0689608, 0.04003129, 0.001046232, 0.1140469, -0.02488352, 0.01379375, 0.0005187925, 0.1449527, 0.9546755, 0.3511209
 230031284, 0.3104006, -0.08395556, 0.03803701, 0.00104407, 0.1120469, -0.04117674, 0.01293476, 0.0005187925, 0.2791107, 0.925431, 0.3503954
 230231204, 0.3010368, -0.129096, 0.02799813, 0.00104407, 0.1051639, -0.05291287, 0.005877045, 0.0005187925, 0.3166599, 0.9146869, 0.3503954
 230431124, 0.2705956, -0.123783, 0.009790587, 0.00104407, 0.08918937, -0.02993907, 0.000715768, 0.0005187925, 0.2783468, 0.9254668, 0.3503954
 230631044, 0.2301705, -0.03019021, 0.002334663, 0.00104407, 0.07748697, 0.01708134, 0.001422176, 0.0005187925, 0.1970822, 0.9416927, 0.3503954
 230830964, 0.2099123, 0.09420021, 0.007098597, 0.00104407, 0.07579788, 0.05672143, 0.003768068, 0.0005187925, 0.1091613, 0.9519812, 0.3503954
 231030884, 0.2049768, 0.1764312, 0.0110669, 0.00104407, 0.07254118, 0.07203662, 0.004122877, 0.0005187925, 0.04939403, 0.9558951, 0.3503954
 231230804, 0.1891934, 0.1907477, 0.008663053, 0.00104407, 0.06343905, 0.06368135, 0.00218384, 0.0005187925, 0.03320372, 0.9571189, 0.3503954
 231430724, 0.1645568, 0.1519271, 0.003492531, 0.00104407, 0.05567225, 0.04285002, -6.180674E-05, 0.0005187925, 0.05397443, 0.9559864, 0.3503954
 231631477, 0.1491803, 0.09145164, -0.0006055434, 0.001046232, 0.05351001, 0.0202294, -0.0002024397, 0.0005209541, 0.09321247, 0.9518118, 0.3511209
 231831397, 0.1443004, 0.0372143, -0.0004284166, 0.001046232, 0.05159963, 0.005250717, -0.0004851248, 0.0005187925, 0.1305086, 0.946372, 0.3511209
 232031317, 0.1379715, 0.006817316, -0.0003032591, 0.00104407, 0.04813134, -0.0005181846, 0.000346261, 0.0005187925, 0.1527321, 0.9426216, 0.3503954
 232231237, 0.1253819, 0.0007015679, 0.0005740836, 0.00104407, 0.04210292, 0.002089807, 3.589028E-05, 0.0005187925, 0.1559741, 0.9420126, 0.3503954
 232431157, 0.1083903, 0.01335916, 0.0001834541, 0.00104407, 0.0362209, 0.00902291, -4.267653E-05, 0.0005187925, 0.1446321, 0.9435557, 0.3503954
 232631077, 0.09448538, 0.03287109, -0.0004088065, 0.00104407, 0.03198872, 0.01636521, -7.749794E-05, 0.0005187925, 0.1271373, 0.9455955, 0.3503954
 232830997, 0.08428411, 0.04988144, -0.001484805, 0.00104407, 0.02908791, 0.02060917, -0.001661239, 0.0005187925, 0.1117046, 0.9471255, 0.3503954
 233030917, 0.07607692, 0.05542277, -0.002954159, 0.00104407, 0.02567942, 0.01925048, -0.0003614755, 0.0005187925, 0.1032788, 0.9478378, 0.3503954
 233230837, 0.06884823, 0.04758757, -0.001358961, 0.00104407, 0.02378271, 0.0140296, -0.0001716261, 0.0005187925, 0.1022904, 0.947635, 0.3503954
 233430757, 0.06347346, 0.0326223, -0.0001410635, 0.00104407, 0.02240802, 0.008737788, -0.000438423, 0.0005187925, 0.1063326, 0.9469139, 0.3503954
 233630677, 0.05897905, 0.01958114, -0.001067279, 0.00104407, 0.02030811, 0.004748303, -0.0004451187, 0.0005187925, 0.1118127, 0.9460776, 0.3503954
 233831430, 0.05385251, 0.01129363, -0.001132211, 0.001046232, 0.01859433, 0.003272355, -0.0003292308, 0.0005209541, 0.1156881, 0.9453812, 0.3511209
 234031350, 0.04865662, 0.008995522, 7.658483E-05, 0.001046232, 0.01679841, 0.00309311, 0.0006768166, 0.0005187925, 0.1164431, 0.9450226, 0.3511209
 234231270, 0.04412024, 0.009032369, 0.001723797, 0.00104407, 0.01523682, 0.003850462, 0.0007123147, 0.0005187925, 0.1142934, 0.9449903, 0.3503954
 234431190, 0.0405919, 0.0111926, 0.001136044, 0.00104407, 0.01435793, 0.004600832, -0.0004070883, 0.0005187925, 0.1105485, 0.9451507, 0.3503954
 234631110, 0.03663803, 0.01411382, -0.0002698809, 0.00104407, 0.01200883, 0.005962383, 0.0003547655, 0.0005187925, 0.1066477, 0.9454839, 0.3503954
 234831030, 0.03159811, 0.01789093, 0.001606467, 0.00104407, 0.01109546, 0.007277348, 0.0002048436, 0.0005187925, 0.103904, 0.9454939, 0.3503954
 235030950, 0.02990426, 0.02071848, 0.001326263, 0.00104407, 0.01071245, 0.007985144, 0.0002152702, 0.0005187925, 0.1026688, 0.9452786, 0.3503954
 235230870, 0.02907814, 0.02118416, -0.0007181967, 0.00104407, 0.01030168, 0.007291618, 0.0001435123, 0.0005187925, 0.1027747, 0.9450042, 0.3503954
 235430790, 0.02662747, 0.0191645, 0.0002438261, 0.00104407, 0.008617425, 0.006605019, 2.662547E-05, 0.0005187925, 0.1035296, 0.9448603, 0.3503954
 235630710, 0.02202388, 0.0170584, 0.0001452616, 0.00104407, 0.007053847, 0.005667172, -1.100338E-05, 0.0005187925, 0.1044279, 0.9448022, 0.3503954
 235831463, 0.01872533, 0.0139091, -0.000595818, 0.001046232, 0.007019328, 0.003938477, -0.001320905, 0.0005209541, 0.1047031, 0.9446743, 0.3511209
 236031383, 0.01892116, 0.007559059, -0.004377144, 0.001046232, 0.006857701, 0.0006997634, -0.003047944, 0.0005187925, 0.1039279, 0.9446147, 0.3511209
 236231303, 0.01827342, 0.0001052595, -0.008031004, 0.00104407, 0.006328145, -0.0009053756, -0.00288792, 0.0005187925, 0.1020475, 0.9447681, 0.3503954
 236431223, 0.01528789, -0.001538444, -0.007100838, 0.00104407, 0.004246974, 6.921575E-05, -0.002268805, 0.0005187925, 0.09948166, 0.9451812, 0.3503954
 236631143, 0.01084001, 0.001641051, -0.005162231, 0.00104407, 0.003686585, 0.001210415, -0.00171298, 0.0005187925, 0.09691074, 0.9453262, 0.3503954
 236831063, 0.009601309, 0.004875698, -0.002664805, 0.00104407, 0.00357957, 0.002399819, -0.0005808485, 0.0005187925, 0.09489427, 0.9452725, 0.3503954
 237030983, 0.009512443, 0.007536862, -0.002795422, 0.00104407, 0.003549256, 0.003129214, -0.001697958, 0.0005187925, 0.09335545, 0.9452562, 0.3503954
 237230903, 0.008824958, 0.008132796, -0.004427132, 0.00104407, 0.002915912, 0.00318267, -0.002118948, 0.0005187925, 0.09253002, 0.9452738, 0.3503954
 237430823, 0.0070847, 0.009084119, -0.004466017, 0.00104407, 0.001743724, 0.003589334, -0.0006204172, 0.0005187925, 0.09224518, 0.9452658, 0.3503954
 237630743, 0.004587881, 0.01014453, -0.001321752, 0.00104407, 0.001813811, 0.004082308, -0.0002619851, 0.0005187925, 0.09207305, 0.9452567, 0.3503954
 237830663, 0.003296211, 0.0112986, -0.0005224844, 0.00104407, 0.0007214561, 0.004475161, -0.0004885471, 0.0005187925, 0.0920851, 0.9452141, 0.3503954
 238031416, 0.001223856, 0.01124943, 2.947776E-05, 0.001046232, 9.14257E-05, 0.003340398, 0.001285862, 0.0005209541, 0.09201697, 0.9450972, 0.3511209
 238231336, 0.001115238, 0.006997537, 0.002921724, 0.001046232, 0.0007617539, 0.001558098, 0.0008614621, 0.0005187925, 0.09155761, 0.944921, 0.3511209
 238431256, 0.002640256, 0.003106945, 0.001415368, 0.00104407, 0.0008781637, 0.0007082429, 0.000393878, 0.0005187925, 0.09067766, 0.9448817, 0.3503954
 238631176, 0.001680799, 0.001804949, 0.0002826669, 0.00104407, 0.0001985089, 0.001021917, -0.000222004, 0.0005187925, 0.08959799, 0.9450509, 0.3503954
 238831096, -0.0003519406, 0.002980516, 0.001397248, 0.00104407, -0.000595964, 0.001438432, 0.001305282, 0.0005187925, 0.08827411, 0.9451341, 0.3503954
 239031016, -0.001750709, 0.004936944, 0.004639647, 0.00104407, -0.0003883511, 0.00207367, 0.001852058, 0.0005187925, 0.08680395, 0.945085, 0.3503954
 239230936, -0.001226664, 0.006845977, 0.005332744, 0.00104407, -6.920051E-05, 0.002774214, 0.001596841, 0.0005187925, 0.08543775, 0.9449648, 0.3503954
 239430856, -0.0007617252, 0.009645192, 0.005619908, 0.00104407, -0.0004511948, 0.00449821, 0.002156512, 0.0005187925, 0.0844222, 0.9449443, 0.3503954
 239630776, -0.001158668, 0.01341747, 0.003638851, 0.00104407, -0.0007759433, 0.005584984, 0.000636597, 0.0005187925, 0.08407658, 0.9449634, 0.3503954
 239830696, -0.001690672, 0.01612786, -0.001645348, 0.00104407, -0.0008195281, 0.006044866, -0.00183213, 0.0005187925, 0.08431215, 0.945095, 0.3503954
 240031449, -0.002806582, 0.01622534, -0.006213861, 0.001046232, -0.00136796, 0.005542994, -0.002684412, 0.0005209541, 0.08487048, 0.9451659, 0.3511209
 240231369, -0.003320977, 0.01529087, -0.008867493, 0.001046232, -0.0007604265, 0.005361679, -0.004502669, 0.0005187925, 0.08535872, 0.94507, 0.3511209
 240431289, -0.003422495, 0.01460571, -0.00901115, 0.00104407, -0.001579992, 0.005199075, -0.001805054, 0.0005187925, 0.08555362, 0.9450438, 0.3503954
 240631209, -0.005420846, 0.0134063, -0.002582479, 0.00104407, -0.002465739, 0.004598955, 0.0004218237, 0.0005187925, 0.08546519, 0.9450033, 0.3503954
 240831129, -0.007027263, 0.01192405, 0.001995736, 0.00104407, -0.002681737, 0.004171573, 0.001783501, 0.0005187925, 0.08523367, 0.9449533, 0.3503954
 241031049, -0.007619143, 0.01185952, 0.003886635, 0.00104407, -0.002208717, 0.004304933, 0.0005477835, 0.0005187925, 0.08458586, 0.9449389, 0.3503954
 241230969, -0.006495778, 0.01236634, 0.001479858, 0.00104407, -0.002544757, 0.004626085, 0.0006035035, 0.0005187925, 0.0838806, 0.944944, 0.3503954
 241430889, -0.006307335, 0.01349228, 0.001863256, 0.00104407, -0.002007047, 0.004927682, 0.0005821783, 0.0005187925, 0.08324444, 0.9448118, 0.3503954
 241630809, -0.006379191, 0.01417722, 0.002629637, 0.00104407, -0.002695875, 0.004972798, 0.001971138, 0.0005187925, 0.08274153, 0.944695, 0.3503954
 241830729, -0.006332868, 0.01475825, 0.005462566, 0.00104407, -0.001011032, 0.005817077, 0.00169072, 0.0005187925, 0.0826856, 0.944611, 0.3503954
 242031482, -0.005402826, 0.01550786, 0.006041429, 0.001046232, -0.002799236, 0.005597991, 0.002697503, 0.0005209541, 0.08290669, 0.9446152, 0.3511209
 242231402, -0.00930139, 0.01519561, 0.006648858, 0.001046232, -0.003813034, 0.005375848, 0.002100832, 0.0005187925, 0.08312788, 0.9446181, 0.3511209
 242431322, -0.009784511, 0.01507776, 0.005283295, 0.00104407, -0.003223283, 0.005555492, 0.001350802, 0.0005187925, 0.0833266, 0.9445685, 0.3503954
 242631242, -0.006807738, 0.01629217, 0.001744586, 0.00104407, -0.0004036514, 0.006587218, -0.0002321232, 0.0005187925, 0.08357865, 0.9444362, 0.3503954
 242831162, -0.004130048, 0.01795917, -0.0007362448, 0.00104407, -0.002956714, 0.006338996, -0.0001975163, 0.0005187925, 0.08384595, 0.9444433, 0.3503954
 243031082, -0.01019917, 0.01788603, -0.0005651598, 0.00104407, -0.003654956, 0.006621289, -0.0001187017, 0.0005187925, 0.08408147, 0.9444666, 0.3503954
 243231002, -0.008950998, 0.01672543, -0.002170369, 0.00104407, -0.00271403, 0.005216619, -0.001781652, 0.0005187925, 0.08419321, 0.944448, 0.3503954
 243430922, -0.004854144, 0.01105439, -0.006981171, 0.00104407, -0.002072063, 0.002513206, -0.002466775, 0.0005187925, 0.08392239, 0.9446813, 0.3503954
 243630842, -0.008336458, 0.005305223, -0.006049496, 0.00104407, -0.0041557, 0.001205953, -0.00134118, 0.0005187925, 0.08296393, 0.9450228, 0.3503954
 243830762, -0.01218592, 0.003371333, -0.003508105, 0.00104407, -0.004871782, 0.001334071, -0.001076387, 0.0005187925, 0.08146066, 0.9452312, 0.3503954
 244030682, -0.01287578, 0.003650808, -0.001040196, 0.00104407, -0.004553138, 0.00141274, -0.0004775414, 0.0005187925, 0.07981258, 0.9452138, 0.3503954
 244231435, -0.0118683, 0.004715391, 0.0001743204, 0.001046232, -0.004323875, 0.002038533, 0.001516401, 0.0005209541, 0.07833352, 0.9451512, 0.3511209
 244431355, -0.01061685, 0.007145939, 0.003242666, 0.001046232, -0.003075534, 0.003435586, 0.0003364373, 0.0005187925, 0.07739576, 0.9450097, 0.3511209
 244631275, -0.008394069, 0.01053267, 0.0002178489, 0.00104407, -0.002965877, 0.004569881, -0.0004889249, 0.0005187925, 0.07683434, 0.9450479, 0.3503954
 244831195, -0.008710334, 0.01247011, -0.001626459, 0.00104407, -0.003629748, 0.004620479, -0.000626013, 0.0005187925, 0.07678165, 0.9451544, 0.3503954
 245031115, -0.010266, 0.01274245, -0.002216792, 0.00104407, -0.003938752, 0.004667467, -0.001405207, 0.0005187925, 0.07722197, 0.9452075, 0.3503954
 245231035, -0.01143504, 0.01282059, -0.00492405, 0.00104407, -0.004639935, 0.004290693, -0.002094525, 0.0005187925, 0.07780594, 0.9452434, 0.3503954
 245430955, -0.01147761, 0.01167753, -0.006216455, 0.00104407, -0.004156075, 0.004044132, -0.002462201, 0.0005187925, 0.07805758, 0.9453001, 0.3503954
 245630875, -0.01172607, 0.009926593, -0.004650103, 0.00104407, -0.004705351, 0.002920654, -0.0003564266, 0.0005187925, 0.07798903, 0.9452894, 0.3503954
 245830795, -0.01161508, 0.006995073, -0.001526983, 0.00104407, -0.003667498, 0.002257129, -0.00158798, 0.0005187925, 0.0774762, 0.9452642, 0.3503954
 246030715, -0.01044832, 0.00721324, -0.0025836, 0.00104407, -0.003925581, 0.003258684, -5.158029E-05, 0.0005187925, 0.07674324, 0.9452775, 0.3503954
 246231468, -0.01190009, 0.009306759, 0.001479374, 0.001046232, -0.004498421, 0.003505927, 0.0009393219, 0.0005209541, 0.07577953, 0.9454038, 0.3511209
 246431388, -0.01265468, 0.0106037, 0.001936061, 0.001046232, -0.004563257, 0.004294903, 0.0002502906, 0.0005187925, 0.07488668, 0.9454668, 0.3511209
 246631308, -0.01230924, 0.01351264, 0.0007182179, 0.00104407, -0.004753128, 0.005821934, 0.0006028577, 0.0005187925, 0.07429309, 0.9453957, 0.3503954
 246831228, -0.01142129, 0.01639425, 0.001905153, 0.00104407, -0.003233346, 0.00611099, 0.0002204406, 0.0005187925, 0.07393107, 0.9452156, 0.3503954
 247031148, -0.00918752, 0.0169091, 0.002044124, 0.00104407, -0.003492451, 0.00599998, 0.001662064, 0.0005187925, 0.07384838, 0.9450357, 0.3503954
 247231068, -0.009574592, 0.01675626, 0.004764629, 0.00104407, -0.003547657, 0.006097442, 0.002274879, 0.0005187925, 0.07400104, 0.9449756, 0.3503954
 247430988, -0.009609584, 0.01683769, 0.004361027, 0.00104407, -0.003545368, 0.006130767, 0.00119945, 0.0005187925, 0.07441471, 0.9449501, 0.3503954
 247630908, -0.009847372, 0.0166856, 0.002688542, 0.00104407, -0.003798415, 0.006084266, 0.0009523194, 0.0005187925, 0.07480831, 0.9449221, 0.3503954
 247830828, -0.01087041, 0.01643142, 0.003066532, 0.00104407, -0.003892478, 0.005813869, 0.0003443091, 0.0005187925, 0.07523468, 0.9449033, 0.3503954
 248030748, -0.01005326, 0.01388796, 0.0001848243, 0.00104407, -0.003346337, 0.00392335, -0.0007218763, 0.0005187925, 0.07553252, 0.944935, 0.3503954
