TimeUS,COFN,COFE,COFD,CNe,CEe,CDe,POFN,POFE,POFD,PNe,PEe,PDe
 170560915, 0, 0, 0, 0, 0, 0, 0, 0, 0, 0, 0, 0
 170630887, -0.001393226, -0.00524065, -0.003002105, 0.02631737, -0.02654434, 6.259816E-05, 0, 0, 0, 0, 0, 0
 170830807, 0, 0, 0, 0.02631737, -0.02654434, 6.259816E-05, -0.001393226, -0.00524065, -0.003002105, 0.02631737, -0.02654434, 6.259816E-05
 171030727, -0.008758701, 0.01632675, 1.096263E-05, 0.02579292, -0.027115, 0.4000036, 0, 0, 0, 0.02631737, -0.02654434, 6.259816E-05
 171231480, -0.01152526, -0.002566231, -2.546917E-05, 0.0257326, -0.0275085, 0.4000032, -0.008758701, 0.01632675, 1.096263E-05, 0.02579292, -0.027115, 0.4000036
 171431400, 0.003355049, -0.003230861, 8.554566E-07, 0.02605078, -0.02752393, 0.4000039, -0.01152526, -0.002566231, -2.546917E-05, 0.0257326, -0.0275085, 0.4000032
 171631320, 0.01261543, 0.02307966, 6.152525E-05, 0.0262707, -0.02699181, 0.4000051, 0.003355049, -0.003230861, 8.554566E-07, 0.02605078, -0.02752393, 0.4000039
 171831240, 0.01036559, 0.006274783, 2.964058E-05, 0.02621318, -0.02731716, 0.4000046, 0.01261543, 0.02307966, 6.152525E-05, 0.0262707, -0.02699181, 0.4000051
 172031160, -0.01208286, -0.005347244, -3.142181E-05, 0.0257122, -0.02757514, 0.4000035, 0.01036559, 0.006274783, 2.964058E-05, 0.02621318, -0.02731716, 0.4000046
 172231080, -0.009510557, 0.006913644, -6.399706E-06, 0.0257603, -0.02730232, 0.4000044, -0.01208286, -0.005347244, -3.142181E-05, 0.0257122, -0.02757514, 0.4000035
 172431000, 0.009937458, -0.003183837, 1.342029E-05, 0.02619322, -0.02752385, 0.4000049, -0.009510557, 0.006913644, -6.399706E-06, 0.0257603, -0.02730232, 0.4000044
 172630920, 0.01729855, 0.01124145, 5.126615E-05, 0.02637698, -0.02721585, 0.4000058, 0.009937458, -0.003183837, 1.342029E-05, 0.02619322, -0.02752385, 0.4000049
 172830840, 0.008709343, -0.006054789, 6.284138E-06, 0.02616456, -0.0275938, 0.4000045, 0.01729855, 0.01124145, 5.126615E-05, 0.02637698, -0.02721585, 0.4000058
 173030760, -0.01929644, -0.01089408, -5.402962E-05, 0.02557537, -0.02770688, 0.4000031, 0.008709343, -0.006054789, 6.284138E-06, 0.02616456, -0.0275938, 0.4000045
 173230680, 0.01839069, -0.0230048, -4.019992E-06, 0.02641893, -0.02801868, 0.4000038, -0.01929644, -0.01089408, -5.402962E-05, 0.02557537, -0.02770688, 0.4000031
 173431433, 0.01981006, 0.003620026, 4.247081E-05, 0.02645914, -0.02737208, 0.4000047, 0.01839069, -0.0230048, -4.019992E-06, 0.02641893, -0.02801868, 0.4000038
 173631353, 0.01569874, 0.004119078, 3.572883E-05, 0.0263518, -0.02736023, 0.4000046, 0.01981006, 0.003620026, 4.247081E-05, 0.02645914, -0.02737208, 0.4000047
 173831273, -0.00451544, -0.02514407, -4.991093E-05, 0.02587786, -0.02807801, 0.4000024, 0.01569874, 0.004119078, 3.572883E-05, 0.0263518, -0.02736023, 0.4000046
 174031193, 0.004681354, -0.02168669, -2.743037E-05, 0.02608349, -0.02798728, 0.4000027, -0.00451544, -0.02514407, -4.991093E-05, 0.02587786, -0.02807801, 0.4000024
 174231113, -0.007317556, -0.008859671, -2.815869E-05, 0.02582049, -0.02766048, 0.4000027, 0.004681354, -0.02168669, -2.743037E-05, 0.02608349, -0.02798728, 0.4000027
 174431033, 0.005834628, -0.01632347, -1.634486E-05, 0.0261141, -0.0278442, 0.4000029, -0.007317556, -0.008859671, -2.815869E-05, 0.02582049, -0.02766048, 0.4000027
 174630953, 0.01952805, 0.02439625, 7.602228E-05, 0.02645569, -0.02696823, 0.4000051, 0.005834628, -0.01632347, -1.634486E-05, 0.0261141, -0.0278442, 0.4000029
 174830873, -0.003086755, 0.02512184, 3.575549E-05, 0.02591212, -0.02695423, 0.4000042, 0.01952805, 0.02439625, 7.602228E-05, 0.02645569, -0.02696823, 0.4000051
 175030793, 0.004640201, -0.003646369, 2.507072E-06, 0.02608566, -0.02753058, 0.4000037, -0.003086755, 0.02512184, 3.575549E-05, 0.02591212, -0.02695423, 0.4000042
 175230713, -0.006862064, -0.01280635, -3.355524E-05, 0.02583203, -0.02774866, 0.400003, 0.004640201, -0.003646369, 2.507072E-06, 0.02608566, -0.02753058, 0.4000037
 175431466, -0.01642654, -0.02118585, -6.471707E-05, 0.02564215, -0.02796406, 0.4000023, -0.006862064, -0.01280635, -3.355524E-05, 0.02583203, -0.02774866, 0.400003
 175631386, 0.02506423, -0.004389476, 3.875057E-05, 0.02660386, -0.02754417, 0.4000049, -0.01642654, -0.02118585, -6.471707E-05, 0.02564215, -0.02796406, 0.4000023
 175831306, -0.001209107, 0.02461973, 3.798042E-05, 0.02595204, -0.02695658, 0.4000048, 0.02506423, -0.004389476, 3.875057E-05, 0.02660386, -0.02754417, 0.4000049
 176031226, 0.02489269, 0.02360654, 8.408604E-05, 0.02659804, -0.0269721, 0.4000061, -0.001209107, 0.02461973, 3.798042E-05, 0.02595204, -0.02695658, 0.4000048
 176231146, 0.01836224, 0.01524298, 5.843373E-05, 0.02642379, -0.02712386, 0.4000056, 0.02489269, 0.02360654, 8.408604E-05, 0.02659804, -0.0269721, 0.4000061
 176431066, 0.002926276, -0.01400199, -1.741754E-05, 0.0260434, -0.02777388, 0.4000039, 0.01836224, 0.01524298, 5.843373E-05, 0.02642379, -0.02712386, 0.4000056
 176630986, -0.0117596, -0.01291934, -4.286072E-05, 0.02572484, -0.02774854, 0.4000035, 0.002926276, -0.01400199, -1.741754E-05, 0.0260434, -0.02777388, 0.4000039
 176830906, 0.0004235399, 0.01574152, 2.656163E-05, 0.02598064, -0.02711905, 0.400005, -0.0117596, -0.01291934, -4.286072E-05, 0.02572484, -0.02774854, 0.4000035
 177030826, 0.003596088, 0.006736206, 1.771372E-05, 0.0260526, -0.02729945, 0.4000048, 0.0004235399, 0.01574152, 2.656163E-05, 0.02598064, -0.02711905, 0.400005
 177230746, 0.01907465, -0.0213736, 3.601053E-07, 0.02643418, -0.02796935, 0.4000044, 0.003596088, 0.006736206, 1.771372E-05, 0.0260526, -0.02729945, 0.4000048
 177430666, -0.02405781, 0.01765206, -1.6042E-05, 0.02549016, -0.02708164, 0.4000045, 0.01907465, -0.0213736, 3.601053E-07, 0.02643418, -0.02796935, 0.4000044
 177631419, -0.02342718, -0.01573191, -6.973519E-05, 0.02549489, -0.02781769, 0.4000039, -0.02405781, 0.01765206, -1.6042E-05, 0.02549016, -0.02708164, 0.4000045
 177831339, 0.003786072, 0.01251104, 2.756815E-05, 0.02604563, -0.02717902, 0.400006, -0.02342718, -0.01573191, -6.973519E-05, 0.02549489, -0.02781769, 0.4000039
 178031259, 0.01382435, -0.002934903, 2.120602E-05, 0.0262903, -0.02750742, 0.4000058, 0.003786072, 0.01251104, 2.756815E-05, 0.02604563, -0.02717902, 0.400006
 178231179, 0.004981989, -0.005308343, 6.882492E-07, 0.02608109, -0.02755925, 0.4000052, 0.01382435, -0.002934903, 2.120602E-05, 0.0262903, -0.02750742, 0.4000058
 178431099, 0.02202844, -0.008757677, 2.671059E-05, 0.02651306, -0.02764001, 0.4000057, 0.004981989, -0.005308343, 6.882492E-07, 0.02608109, -0.02755925, 0.4000052
 178631019, 0.008543911, 0.02432848, 5.516492E-05, 0.02617183, -0.02695467, 0.400006, 0.02202844, -0.008757677, 2.671059E-05, 0.02651306, -0.02764001, 0.4000057
 178830939, 0.02051354, -0.00174808, 3.499701E-05, 0.02647748, -0.02747287, 0.4000058, 0.008543911, 0.02432848, 5.516492E-05, 0.02617183, -0.02695467, 0.400006
 179030859, -0.01814208, -0.01728909, -6.108422E-05, 0.02560664, -0.027847, 0.4000037, 0.02051354, -0.00174808, 3.499701E-05, 0.02647748, -0.02747287, 0.4000058
 179230779, -0.02041937, -0.01060148, -5.439814E-05, 0.02556676, -0.02767608, 0.4000039, -0.01814208, -0.01728909, -6.108422E-05, 0.02560664, -0.027847, 0.4000037
 179430699, 0.01784166, 0.00807956, 4.552563E-05, 0.02641271, -0.02725426, 0.400006, -0.02041937, -0.01060148, -5.439814E-05, 0.02556676, -0.02767608, 0.4000039
 179631452, 0.01045273, 0.007540499, 3.11522E-05, 0.02622772, -0.02726753, 0.4000054, 0.01784166, 0.00807956, 4.552563E-05, 0.02641271, -0.02725426, 0.400006
 179831372, 0.02269745, 0.0140113, 6.392396E-05, 0.0265427, -0.02713933, 0.4000061, 0.01045273, 0.007540499, 3.11522E-05, 0.02622772, -0.02726753, 0.4000054
 180031292, 0.01598609, 0.01202995, 4.846519E-05, 0.02636795, -0.02717971, 0.4000055, 0.02269745, 0.0140113, 6.392396E-05, 0.0265427, -0.02713933, 0.4000061
 180231212, -0.007519417, 0.02424382, 2.565324E-05, 0.02582427, -0.02695805, 0.4000044, 0.01598609, 0.01202995, 4.846519E-05, 0.02636795, -0.02717971, 0.4000055
 180431132, 0.008596704, -0.01194246, -3.8246E-06, 0.02618353, -0.02772381, 0.4000037, -0.007519417, 0.02424382, 2.565324E-05, 0.02582427, -0.02695805, 0.4000044
 180631052, -0.0252053, -0.0240261, -8.514938E-05, 0.02548623, -0.02803704, 0.4000021, 0.008596704, -0.01194246, -3.8246E-06, 0.02618353, -0.02772381, 0.4000037
 180830972, -0.0238372, -0.008263852, -5.690597E-05, 0.02551057, -0.02763075, 0.4000029, -0.0252053, -0.0240261, -8.514938E-05, 0.02548623, -0.02803704, 0.4000021
 181030892, -0.01870027, -0.007591435, -4.639362E-05, 0.02560427, -0.02761556, 0.4000029, -0.0238372, -0.008263852, -5.690597E-05, 0.02551057, -0.02763075, 0.4000029
 181230812, -0.01831342, 0.01183498, -1.394244E-05, 0.02561303, -0.02719313, 0.4000033, -0.01870027, -0.007591435, -4.639362E-05, 0.02560427, -0.02761556, 0.4000029
 181430732, 0.02134213, -0.007380986, 2.673556E-05, 0.02650909, -0.02761528, 0.4000041, -0.01831342, 0.01183498, -1.394244E-05, 0.02561303, -0.02719313, 0.4000033
 181631485, 0.003692245, 0.01250148, 2.725525E-05, 0.02606854, -0.02718327, 0.4000041, 0.02134213, -0.007380986, 2.673556E-05, 0.02650909, -0.02761528, 0.4000041
 181831405, -0.02000303, -0.001901437, -3.968862E-05, 0.02557784, -0.02749082, 0.4000027, 0.003692245, 0.01250148, 2.725525E-05, 0.02606854, -0.02718327, 0.4000041
 182031325, -0.02077282, 0.003029761, -3.309204E-05, 0.02556144, -0.02738324, 0.4000029, -0.02000303, -0.001901437, -3.968862E-05, 0.02557784, -0.02749082, 0.4000027
 182231245, 0.02051961, 0.02462107, 7.858747E-05, 0.02648033, -0.02696681, 0.4000051, -0.02077282, 0.003029761, -3.309204E-05, 0.02556144, -0.02738324, 0.4000029
 182431165, -0.004357126, -0.0102869, -2.520686E-05, 0.02588254, -0.02769755, 0.4000026, 0.02051961, 0.02462107, 7.858747E-05, 0.02648033, -0.02696681, 0.4000051
 182631085, -0.01266384, -0.01356304, -4.606788E-05, 0.02571028, -0.02777998, 0.4000022, -0.004357126, -0.0102869, -2.520686E-05, 0.02588254, -0.02769755, 0.4000026
 182831005, 0.02526908, -0.009944227, 3.013564E-05, 0.02660313, -0.02769155, 0.4000041, -0.01266384, -0.01356304, -4.606788E-05, 0.02571028, -0.02777998, 0.4000022
 183030925, -0.004869379, -0.01014069, -2.618238E-05, 0.02586631, -0.02770183, 0.4000024, 0.02526908, -0.009944227, 3.013564E-05, 0.02660313, -0.02769155, 0.4000041
 183230845, -0.01816734, -0.002830725, -3.844962E-05, 0.02560203, -0.02752938, 0.4000021, -0.004869379, -0.01014069, -2.618238E-05, 0.02586631, -0.02770183, 0.4000024
 183430765, 0.007357792, -0.02348815, -2.595176E-05, 0.02614589, -0.02804298, 0.4000023, -0.01816734, -0.002830725, -3.844962E-05, 0.02560203, -0.02752938, 0.4000021
 183630685, 0.01604983, 0.01683202, 5.769146E-05, 0.02636612, -0.02711564, 0.4000039, 0.007357792, -0.02348815, -2.595176E-05, 0.02614589, -0.02804298, 0.4000023
 183831438, 0.008768343, 0.008434479, 3.015614E-05, 0.02618711, -0.02727968, 0.4000033, 0.01604983, 0.01683202, 5.769146E-05, 0.02636612, -0.02711564, 0.4000039
 184031358, -0.01308968, -0.01281847, -4.523763E-05, 0.02571074, -0.02776039, 0.4000017, 0.008768343, 0.008434479, 3.015614E-05, 0.02618711, -0.02727968, 0.4000033
 184231278, -0.0186385, -0.01329896, -5.600597E-05, 0.02560705, -0.02777159, 0.4000014, -0.01308968, -0.01281847, -4.523763E-05, 0.02571074, -0.02776039, 0.4000017
 184431198, -0.02237403, -0.023418, -7.962253E-05, 0.02554031, -0.02803645, 0.4000007, -0.0186385, -0.01329896, -5.600597E-05, 0.02560705, -0.02777159, 0.4000014
 184631118, 0.005918441, 0.02213812, 4.777007E-05, 0.02612345, -0.02701587, 0.4000034, -0.02237403, -0.023418, -7.962253E-05, 0.02554031, -0.02803645, 0.4000007
 184831038, 0.0001461247, -0.02476751, -4.133054E-05, 0.02599209, -0.02807774, 0.4000011, 0.005918441, 0.02213812, 4.777007E-05, 0.02612345, -0.02701587, 0.4000034
 185030958, -0.005459669, -0.02110847, -4.529285E-05, 0.02587126, -0.02797846, 0.400001, 0.0001461247, -0.02476751, -4.133054E-05, 0.02599209, -0.02807774, 0.4000011
 185230878, -0.003674947, -0.01242918, -2.744802E-05, 0.02590746, -0.02775257, 0.4000017, -0.005459669, -0.02110847, -4.529285E-05, 0.02587126, -0.02797846, 0.400001
 185430798, -0.002503594, -0.00345557, -1.032322E-05, 0.02593189, -0.0275379, 0.4000022, -0.003674947, -0.01242918, -2.744802E-05, 0.02590746, -0.02775257, 0.4000017
 185630718, 0.01539119, -0.01331528, 5.64095E-06, 0.02635367, -0.0277764, 0.4000025, -0.002503594, -0.00345557, -1.032322E-05, 0.02593189, -0.0275379, 0.4000022
 185831471, 0.01519145, -0.005185855, 1.895689E-05, 0.02634673, -0.02758121, 0.4000028, 0.01539119, -0.01331528, 5.64095E-06, 0.02635367, -0.0277764, 0.4000025
 186031391, 0.0004844277, -0.01775136, -2.899739E-05, 0.02599511, -0.02789224, 0.4000016, 0.01519145, -0.005185855, 1.895689E-05, 0.02634673, -0.02758121, 0.4000028
 186231311, -0.01617299, 0.01801068, 8.774696E-07, 0.02565145, -0.02709472, 0.4000023, 0.0004844277, -0.01775136, -2.899739E-05, 0.02599511, -0.02789224, 0.4000016
 186431231, 0.0131225, -0.02019296, -1.010745E-05, 0.0262953, -0.02795618, 0.400002, -0.01617299, 0.01801068, 8.774696E-07, 0.02565145, -0.02709472, 0.4000023
 186631151, -0.01734921, -0.006422052, -4.253214E-05, 0.02562661, -0.02761493, 0.4000012, 0.0131225, -0.02019296, -1.010745E-05, 0.0262953, -0.02795618, 0.400002
 186831071, -0.02384116, 0.01277459, -2.195345E-05, 0.02550808, -0.02719979, 0.4000018, -0.01734921, -0.006422052, -4.253214E-05, 0.02562661, -0.02761493, 0.4000012
 187030991, -0.004388214, 0.01217177, 1.251258E-05, 0.02588473, -0.02720923, 0.4000027, -0.02384116, 0.01277459, -2.195345E-05, 0.02550808, -0.02719979, 0.4000018
 187230911, -0.005864386, 0.001927048, -7.490609E-06, 0.02585378, -0.02741979, 0.4000024, -0.004388214, 0.01217177, 1.251258E-05, 0.02588473, -0.02720923, 0.4000027
 187430831, -0.0129325, -0.0005519515, -2.47131E-05, 0.02570582, -0.0274708, 0.4000026, -0.005864386, 0.001927048, -7.490609E-06, 0.02585378, -0.02741979, 0.4000024
 187630751, -0.01613264, 0.007777858, -1.689146E-05, 0.02563969, -0.02728964, 0.4000032, -0.0129325, -0.0005519515, -2.47131E-05, 0.02570582, -0.0274708, 0.4000026
 187830671, 0.01356569, 0.01517819, 5.054634E-05, 0.02629136, -0.0271429, 0.4000048, -0.01613264, 0.007777858, -1.689146E-05, 0.02563969, -0.02728964, 0.4000032
 188031424, -0.01071975, -0.0003522181, -2.060476E-05, 0.02573922, -0.02746868, 0.4000033, 0.01356569, 0.01517819, 5.054634E-05, 0.02629136, -0.0271429, 0.4000048
 188231344, -0.007319469, -0.01944337, -4.637832E-05, 0.02580781, -0.02793512, 0.4000025, -0.01071975, -0.0003522181, -2.060476E-05, 0.02573922, -0.02746868, 0.4000033
 188431264, 0.01305593, 0.006592787, 3.547552E-05, 0.02627528, -0.02732055, 0.4000043, -0.007319469, -0.01944337, -4.637832E-05, 0.02580781, -0.02793512, 0.4000025
 188631184, -0.01371754, 0.01727788, 3.57273E-06, 0.02568266, -0.02710857, 0.4000034, 0.01305593, 0.006592787, 3.547552E-05, 0.02627528, -0.02732055, 0.4000043
 188831104, 0.011769, 0.01062116, 3.958793E-05, 0.026249, -0.02723515, 0.4000042, -0.01371754, 0.01727788, 3.57273E-06, 0.02568266, -0.02710857, 0.4000034
 189031024, 0.002759981, -0.01925951, -2.70074E-05, 0.02603807, -0.02792484, 0.4000026, 0.011769, 0.01062116, 3.958793E-05, 0.026249, -0.02723515, 0.4000042
 189230944, 0.02324424, -0.009722591, 2.654849E-05, 0.02655288, -0.02767985, 0.4000041, 0.002759981, -0.01925951, -2.70074E-05, 0.02603807, -0.02792484, 0.4000026
 189430864, 0.02515891, -0.004891766, 3.799463E-05, 0.02660683, -0.02756143, 0.4000045, 0.02324424, -0.009722591, 2.654849E-05, 0.02655288, -0.02767985, 0.4000041
 189630784, 0.01368832, 0.01133304, 4.360788E-05, 0.02630646, -0.02720824, 0.4000045, 0.02515891, -0.004891766, 3.799463E-05, 0.02660683, -0.02756143, 0.4000045
 189830704, 0.003841942, -0.02485697, -3.370756E-05, 0.026068, -0.02806468, 0.4000028, 0.01368832, 0.01133304, 4.360788E-05, 0.02630646, -0.02720824, 0.4000045
 190031457, 0.002440847, 0.02298789, 4.206218E-05, 0.02603252, -0.02698648, 0.4000049, 0.003841942, -0.02485697, -3.370756E-05, 0.026068, -0.02806468, 0.4000028
 190231377, -0.01032464, -0.01265136, -3.958819E-05, 0.02575703, -0.02774106, 0.4000034, 0.002440847, 0.02298789, 4.206218E-05, 0.02603252, -0.02698648, 0.4000049
 190431297, -0.02483172, -0.002405244, -4.946994E-05, 0.02548747, -0.02749389, 0.4000034, -0.01032464, -0.01265136, -3.958819E-05, 0.02575703, -0.02774106, 0.4000034
 190631217, 0.003322531, -0.01727386, -2.194206E-05, 0.02605396, -0.0278563, 0.4000037, -0.02483172, -0.002405244, -4.946994E-05, 0.02548747, -0.02749389, 0.4000034
 190831137, -0.02281459, 0.009089039, -2.70824E-05, 0.02552283, -0.02724726, 0.4000037, 0.003322531, -0.01727386, -2.194206E-05, 0.02605396, -0.0278563, 0.4000037
 191031057, -0.01506626, -0.001124367, -2.949683E-05, 0.02566482, -0.02746631, 0.4000037, -0.02281459, 0.009089039, -2.70824E-05, 0.02552283, -0.02724726, 0.4000037
 191230977, 0.01045095, 0.01073853, 3.66914E-05, 0.02622068, -0.0272139, 0.4000051, -0.01506626, -0.001124367, -2.949683E-05, 0.02566482, -0.02746631, 0.4000037
 191430897, 0.008742124, 0.007757507, 2.87965E-05, 0.02617817, -0.02727849, 0.4000048, 0.01045095, 0.01073853, 3.66914E-05, 0.02622068, -0.0272139, 0.4000051
 191630817, 0.01414456, -0.01079252, 8.306264E-06, 0.0263125, -0.02770028, 0.4000041, 0.008742124, 0.007757507, 2.87965E-05, 0.02617817, -0.02727849, 0.4000048
 191830737, 0.02000617, 0.01971428, 6.923763E-05, 0.02646175, -0.02704708, 0.4000057, 0.01414456, -0.01079252, 8.306264E-06, 0.0263125, -0.02770028, 0.4000041
 192030657, 0.01976479, -0.01368016, 1.420535E-05, 0.02645254, -0.02777061, 0.4000047, 0.02000617, 0.01971428, 6.923763E-05, 0.02646175, -0.02704708, 0.4000057
 192231410, -0.01733297, -0.007372313, -4.423691E-05, 0.0256153, -0.0276177, 0.4000033, 0.01976479, -0.01368016, 1.420535E-05, 0.02645254, -0.02777061, 0.4000047
 192431330, 0.01743955, -0.02263361, -4.88622E-06, 0.02639256, -0.02800519, 0.4000041, -0.01733297, -0.007372313, -4.423691E-05, 0.0256153, -0.0276177, 0.4000033
 192631250, 0.01639812, -0.01947998, -1.59955E-06, 0.02636442, -0.02792143, 0.4000042, 0.01743955, -0.02263361, -4.88622E-06, 0.02639256, -0.02800519, 0.4000041
 192831170, -0.01797343, -0.02360472, -7.221309E-05, 0.02560172, -0.02803237, 0.4000027, 0.01639812, -0.01947998, -1.59955E-06, 0.02636442, -0.02792143, 0.4000042
 193031090, -0.002765704, -0.01555599, -3.069837E-05, 0.02590806, -0.02781918, 0.4000037, -0.01797343, -0.02360472, -7.221309E-05, 0.02560172, -0.02803237, 0.4000027
 193231010, 0.01014378, -0.0176496, -1.005067E-05, 0.02620325, -0.02787277, 0.4000043, -0.002765704, -0.01555599, -3.069837E-05, 0.02590806, -0.02781918, 0.4000037
 193430930, -0.003800346, 0.0213832, 2.804685E-05, 0.02588049, -0.02701768, 0.4000053, 0.01014378, -0.0176496, -1.005067E-05, 0.02620325, -0.02787277, 0.4000043
 193630850, -0.01218714, 0.01864863, 7.803324E-06, 0.02570832, -0.02706606, 0.4000049, -0.003800346, 0.0213832, 2.804685E-05, 0.02588049, -0.02701768, 0.4000053
 193830770, 0.01173046, -0.004195802, 1.496285E-05, 0.02624501, -0.02753895, 0.400005, -0.01218714, 0.01864863, 7.803324E-06, 0.02570832, -0.02706606, 0.4000049
 194030690, 0.005166718, 0.01630681, 3.612221E-05, 0.02609024, -0.0271052, 0.4000054, 0.01173046, -0.004195802, 1.496285E-05, 0.02624501, -0.02753895, 0.400005
 194231443, -0.01448376, 0.01070753, -9.389732E-06, 0.02567232, -0.02721213, 0.4000045, 0.005166718, 0.01630681, 3.612221E-05, 0.02609024, -0.0271052, 0.4000054
 194431363, 0.001139227, 0.02051528, 3.517027E-05, 0.02600155, -0.02702098, 0.4000055, -0.01448376, 0.01070753, -9.389732E-06, 0.02567232, -0.02721213, 0.4000045
 194631283, -0.001213392, -0.01487497, -2.610675E-05, 0.0259522, -0.02778744, 0.4000041, 0.001139227, 0.02051528, 3.517027E-05, 0.02600155, -0.02702098, 0.4000055
 194831203, -0.01817663, -0.02488314, -7.301923E-05, 0.02560778, -0.02804824, 0.4000033, -0.001213392, -0.01487497, -2.610675E-05, 0.0259522, -0.02778744, 0.4000041
 195031123, -0.02276927, 0.02471656, -2.630532E-06, 0.02552251, -0.02693701, 0.4000053, -0.01817663, -0.02488314, -7.301923E-05, 0.02560778, -0.02804824, 0.4000033
 195231043, 0.01399134, -0.01837083, -3.216937E-06, 0.02630465, -0.02786897, 0.4000057, -0.02276927, 0.02471656, -2.630532E-06, 0.02552251, -0.02693701, 0.4000053
 195430963, 0.02306284, 0.02275198, 7.887588E-05, 0.02653843, -0.02696983, 0.4000078, 0.01399134, -0.01837083, -3.216937E-06, 0.02630465, -0.02786897, 0.4000057
 195630883, 0.02264709, 0.01347205, 6.337189E-05, 0.02652741, -0.02714115, 0.4000076, 0.02306284, 0.02275198, 7.887588E-05, 0.02653843, -0.02696983, 0.4000078
 195830803, -0.005712276, -0.02458271, -4.932229E-05, 0.02584229, -0.02803057, 0.4000053, 0.02264709, 0.01347205, 6.337189E-05, 0.02652741, -0.02714115, 0.4000076
 196030723, 0.005154307, -0.01094684, -7.452738E-06, 0.02608156, -0.02767188, 0.4000068, -0.005712276, -0.02458271, -4.932229E-05, 0.02584229, -0.02803057, 0.4000053
 196231476, 0.01303201, -0.01030706, 8.252664E-06, 0.02627393, -0.02765553, 0.4000071, 0.005154307, -0.01094684, -7.452738E-06, 0.02608156, -0.02767188, 0.4000068
 196431396, -0.005030675, -0.01208979, -2.826126E-05, 0.02585904, -0.02770043, 0.4000059, 0.01303201, -0.01030706, 8.252664E-06, 0.02627393, -0.02765553, 0.4000071
 196631316, -0.0007870499, 0.01771595, 2.625894E-05, 0.025952, -0.02705323, 0.400007, -0.005030675, -0.01208979, -2.826126E-05, 0.02585904, -0.02770043, 0.4000059
 196831236, 0.01382098, -0.009368199, 1.116175E-05, 0.02629271, -0.02763559, 0.400007, -0.0007870499, 0.01771595, 2.625894E-05, 0.025952, -0.02705323, 0.400007
 197031156, 0.02261154, -0.008065452, 2.984637E-05, 0.0265181, -0.02760574, 0.4000077, 0.01382098, -0.009368199, 1.116175E-05, 0.02629271, -0.02763559, 0.400007
 197231076, -0.01047011, -0.01144526, -3.77999E-05, 0.02573797, -0.02769067, 0.4000059, 0.02261154, -0.008065452, 2.984637E-05, 0.0265181, -0.02760574, 0.4000077
 197430996, -0.02214549, 0.01611476, -1.617454E-05, 0.02551581, -0.02709187, 0.4000063, -0.01047011, -0.01144526, -3.77999E-05, 0.02573797, -0.02769067, 0.4000059
 197630916, 0.004536417, -0.01086836, -8.814619E-06, 0.02606441, -0.02768255, 0.400006, -0.02214549, 0.01611476, -1.617454E-05, 0.02551581, -0.02709187, 0.4000063
 197830836, -0.006783534, -0.009343766, -2.774318E-05, 0.02581602, -0.02764895, 0.4000053, 0.004536417, -0.01086836, -8.814619E-06, 0.02606441, -0.02768255, 0.400006
 198030756, -0.01414913, -0.006630366, -3.731195E-05, 0.02566624, -0.0275861, 0.4000051, -0.006783534, -0.009343766, -2.774318E-05, 0.02581602, -0.02764895, 0.4000053
 198230676, -0.01404767, 0.007768594, -1.400697E-05, 0.02566558, -0.02726699, 0.4000057, -0.01414913, -0.006630366, -3.731195E-05, 0.02566624, -0.0275861, 0.4000051
 198431429, 0.006963531, -0.01598729, -1.271914E-05, 0.02611922, -0.027819, 0.4000055, -0.01404767, 0.007768594, -1.400697E-05, 0.02566558, -0.02726699, 0.4000057
 198631349, 0.02235784, 0.002317951, 4.58047E-05, 0.02651316, -0.02739068, 0.4000063, 0.006963531, -0.01598729, -1.271914E-05, 0.02611922, -0.027819, 0.4000055
 198831269, 0.00813893, 0.006985569, 2.662835E-05, 0.026155, -0.02729124, 0.4000055, 0.02235784, 0.002317951, 4.58047E-05, 0.02651316, -0.02739068, 0.4000063
 199031189, -0.01709113, 0.0220686, 3.978854E-06, 0.02561834, -0.02699552, 0.4000051, 0.00813893, 0.006985569, 2.662835E-05, 0.026155, -0.02729124, 0.4000055
 199231109, -0.0229924, 0.01516456, -1.828056E-05, 0.02551234, -0.02711931, 0.4000049, -0.01709113, 0.0220686, 3.978854E-06, 0.02561834, -0.02699552, 0.4000051
 199431029, -0.005174752, 0.0114972, 8.796749E-06, 0.0258576, -0.02718698, 0.4000057, -0.0229924, 0.01516456, -1.828056E-05, 0.02551234, -0.02711931, 0.4000049
 199630949, 0.0207851, -0.009656414, 2.322401E-05, 0.02647811, -0.02765403, 0.4000062, -0.005174752, 0.0114972, 8.796749E-06, 0.0258576, -0.02718698, 0.4000057
 199830869, -0.01522065, -0.003129302, -3.341179E-05, 0.02565145, -0.0274984, 0.4000052, 0.0207851, -0.009656414, 2.322401E-05, 0.02647811, -0.02765403, 0.4000062
 200030789, -0.0215705, 0.01333244, -1.910737E-05, 0.02553274, -0.02714692, 0.4000057, -0.01522065, -0.003129302, -3.341179E-05, 0.02565145, -0.0274984, 0.4000052
 200230709, -0.01722711, 0.01821385, -3.290561E-06, 0.02561305, -0.02705143, 0.4000061, -0.0215705, 0.01333244, -1.910737E-05, 0.02553274, -0.02714692, 0.4000057
 200431462, -0.024557, 0.007548514, -3.390482E-05, 0.02548142, -0.02725953, 0.4000056, -0.01722711, 0.01821385, -3.290561E-06, 0.02561305, -0.02705143, 0.4000061
 200631382, 0.007501849, -0.01375913, -7.855613E-06, 0.02614304, -0.02774966, 0.4000058, -0.024557, 0.007548514, -3.390482E-05, 0.02548142, -0.02725953, 0.4000056
 200831302, -0.02457494, -0.002228801, -4.923531E-05, 0.02548363, -0.02747054, 0.4000053, 0.007501849, -0.01375913, -7.855613E-06, 0.02614304, -0.02774966, 0.4000058
 201031222, -0.01915336, 0.003695329, -2.996283E-05, 0.0255777, -0.02733544, 0.4000061, -0.02457494, -0.002228801, -4.923531E-05, 0.02548363, -0.02747054, 0.4000053
 201231142, -0.005117023, 0.02446864, 2.855818E-05, 0.02585285, -0.02692845, 0.4000076, -0.01915336, 0.003695329, -2.996283E-05, 0.0255777, -0.02733544, 0.4000061
 201431062, 0.02157428, 0.02111195, 7.343449E-05, 0.02648932, -0.02698494, 0.4000092, -0.005117023, 0.02446864, 2.855818E-05, 0.02585285, -0.02692845, 0.4000076
 201630982, -0.0189506, -0.01954698, -6.617713E-05, 0.02557283, -0.02788622, 0.4000061, 0.02157428, 0.02111195, 7.343449E-05, 0.02648932, -0.02698494, 0.4000092
 201830902, -0.01361102, -0.0227309, -6.11834E-05, 0.02567266, -0.02797258, 0.4000062, -0.0189506, -0.01954698, -6.617713E-05, 0.02557283, -0.02788622, 0.4000061
 202030822, -0.01694254, -0.02314051, -6.823946E-05, 0.02560644, -0.02798365, 0.4000062, -0.01361102, -0.0227309, -6.11834E-05, 0.02567266, -0.02797258, 0.4000062
 202230742, -0.02545991, 0.02285239, -1.270974E-05, 0.02545302, -0.02695715, 0.4000075, -0.01694254, -0.02314051, -6.823946E-05, 0.02560644, -0.02798365, 0.4000062
 202430662, 0.01462277, 0.01022974, 4.393252E-05, 0.02630204, -0.02720077, 0.4000084, -0.02545991, 0.02285239, -1.270974E-05, 0.02545302, -0.02695715, 0.4000075
 202631415, 0.01396081, -0.00742842, 1.486451E-05, 0.02628329, -0.02759368, 0.4000077, 0.01462277, 0.01022974, 4.393252E-05, 0.02630204, -0.02720077, 0.4000084
 202831335, 0.01279259, 0.02126711, 5.814754E-05, 0.02625402, -0.02699463, 0.4000085, 0.01396081, -0.00742842, 1.486451E-05, 0.02628329, -0.02759368, 0.4000077
 203031255, -0.0176532, -0.01184829, -5.249833E-05, 0.02559107, -0.02770279, 0.4000059, 0.01279259, 0.02126711, 5.814754E-05, 0.02625402, -0.02699463, 0.4000085
 203231175, -0.02084349, 0.01434272, -1.669938E-05, 0.02553398, -0.02712957, 0.4000064, -0.0176532, -0.01184829, -5.249833E-05, 0.02559107, -0.02770279, 0.4000059
 203431095, 0.01525582, 0.0254518, 7.001047E-05, 0.02631853, -0.02693024, 0.400008, -0.02084349, 0.01434272, -1.669938E-05, 0.02553398, -0.02712957, 0.4000064
 203631015, -0.005919764, 0.02398226, 2.733679E-05, 0.02582424, -0.02695565, 0.4000071, 0.01525582, 0.0254518, 7.001047E-05, 0.02631853, -0.02693024, 0.400008
 203830935, -0.01975239, 0.02445061, 1.863751E-06, 0.02555135, -0.02695097, 0.4000064, -0.005919764, 0.02398226, 2.733679E-05, 0.02582424, -0.02695565, 0.4000071
 204030855, -0.02295566, -0.01509291, -6.843769E-05, 0.0254935, -0.02779796, 0.4000048, -0.01975239, 0.02445061, 1.863751E-06, 0.02555135, -0.02695097, 0.4000064
 204230775, 0.005156211, 0.00246995, 1.383769E-05, 0.02607069, -0.02738065, 0.4000066, -0.02295566, -0.01509291, -6.843769E-05, 0.0254935, -0.02779796, 0.4000048
 204430695, 0.000169515, 0.0209238, 3.401859E-05, 0.02596066, -0.02700976, 0.400007, 0.005156211, 0.00246995, 1.383769E-05, 0.02607069, -0.02738065, 0.4000066
 204631448, 0.01225947, 0.009804105, 3.88527E-05, 0.02624985, -0.02722001, 0.4000071, 0.000169515, 0.0209238, 3.401859E-05, 0.02596066, -0.02700976, 0.400007
 204831368, -0.01009648, -0.006029629, -2.860263E-05, 0.02574908, -0.02756431, 0.4000056, 0.01225947, 0.009804105, 3.88527E-05, 0.02624985, -0.02722001, 0.4000071
 205031288, -0.01600964, -0.00527176, -3.834186E-05, 0.0256371, -0.02754683, 0.4000052, -0.01009648, -0.006029629, -2.860263E-05, 0.02574908, -0.02756431, 0.4000056
 205231208, -0.01035637, 0.00230125, -1.558771E-05, 0.02575097, -0.02737807, 0.4000053, -0.01600964, -0.00527176, -3.834186E-05, 0.0256371, -0.02754683, 0.4000052
 205431128, 0.02518387, -0.02397074, 8.37231E-06, 0.02660019, -0.02802222, 0.4000057, -0.01035637, 0.00230125, -1.558771E-05, 0.02575097, -0.02737807, 0.4000053
 205631048, -0.02405318, 0.01326137, -2.341687E-05, 0.02549718, -0.02714817, 0.4000051, 0.02518387, -0.02397074, 8.37231E-06, 0.02660019, -0.02802222, 0.4000057
 205830968, -0.01938155, 0.0002974239, -3.540659E-05, 0.02558121, -0.02741809, 0.4000049, -0.02405318, 0.01326137, -2.341687E-05, 0.02549718, -0.02714817, 0.4000051
 206030888, -0.0148962, 0.005183797, -1.929184E-05, 0.02566605, -0.02731252, 0.4000051, -0.01938155, 0.0002974239, -3.540659E-05, 0.02558121, -0.02741809, 0.4000049
 206230808, 0.02203608, -0.01092454, 2.334619E-05, 0.02651747, -0.027681, 0.4000061, -0.0148962, 0.005183797, -1.929184E-05, 0.02566605, -0.02731252, 0.4000051
 206430728, 0.0105142, 0.01026918, 3.581111E-05, 0.02622197, -0.02720731, 0.4000063, 0.02203608, -0.01092454, 2.334619E-05, 0.02651747, -0.027681, 0.4000061
 206631481, -0.01497908, -0.01601725, -5.326082E-05, 0.02566661, -0.02781158, 0.400004, 0.0105142, 0.01026918, 3.581111E-05, 0.02622197, -0.02720731, 0.4000063
 206831401, 0.004918768, -0.0002864847, 8.639679E-06, 0.02608785, -0.02743519, 0.4000055, -0.01497908, -0.01601725, -5.326082E-05, 0.02566661, -0.02781158, 0.400004
 207031321, 0.01782282, 0.006706046, 4.384213E-05, 0.02640345, -0.02728421, 0.4000065, 0.004918768, -0.0002864847, 8.639679E-06, 0.02608785, -0.02743519, 0.4000055
 207231241, -0.00612315, -0.003909586, -1.763101E-05, 0.02584022, -0.02751673, 0.4000051, 0.01782282, 0.006706046, 4.384213E-05, 0.02640345, -0.02728421, 0.4000065
 207431161, 0.0206129, 0.01816908, 6.739239E-05, 0.02647615, -0.02705669, 0.4000071, -0.00612315, -0.003909586, -1.763101E-05, 0.02584022, -0.02751673, 0.4000051
 207631081, -0.0008397134, -0.001895247, -4.60598E-06, 0.02595327, -0.02747234, 0.4000054, 0.0206129, 0.01816908, 6.739239E-05, 0.02647615, -0.02705669, 0.4000071
 207831001, -0.01061719, 0.006538739, -9.254361E-06, 0.02574507, -0.02729042, 0.4000052, -0.0008397134, -0.001895247, -4.60598E-06, 0.02595327, -0.02747234, 0.4000054
 208030921, -0.007220561, -0.01155925, -3.215313E-05, 0.02581333, -0.02770454, 0.4000047, -0.01061719, 0.006538739, -9.254361E-06, 0.02574507, -0.02729042, 0.4000052
 208230841, 0.000931947, 0.002866072, 6.386471E-06, 0.02598848, -0.02737159, 0.4000055, -0.007220561, -0.01155925, -3.215313E-05, 0.02581333, -0.02770454, 0.4000047
 208430761, 0.01129255, -0.007625751, 8.750192E-06, 0.02623218, -0.02761343, 0.4000054, 0.000931947, 0.002866072, 6.386471E-06, 0.02598848, -0.02737159, 0.4000055
 208630681, 0.0230807, -0.01342776, 2.132469E-05, 0.02653738, -0.02775713, 0.4000056, 0.01129255, -0.007625751, 8.750192E-06, 0.02623218, -0.02761343, 0.4000054
 208831434, 0.01727319, -0.01116472, 1.414275E-05, 0.02638126, -0.02770443, 0.4000054, 0.0230807, -0.01342776, 2.132469E-05, 0.02653738, -0.02775713, 0.4000056
 209031354, -0.0123299, -0.003050586, -2.832204E-05, 0.02570174, -0.02751409, 0.4000045, 0.01727319, -0.01116472, 1.414275E-05, 0.02638126, -0.02770443, 0.4000054
 209231274, -0.01586467, 0.01564876, -4.332156E-06, 0.02563458, -0.02711638, 0.4000053, -0.0123299, -0.003050586, -2.832204E-05, 0.02570174, -0.02751409, 0.4000045
 209431194, 0.01029401, -0.002410519, 1.536608E-05, 0.02620816, -0.02748975, 0.4000057, -0.01586467, 0.01564876, -4.332156E-06, 0.02563458, -0.02711638, 0.4000053
 209631114, 0.0005303918, 0.01972247, 3.284022E-05, 0.02598345, -0.02703274, 0.4000059, 0.01029401, -0.002410519, 1.536608E-05, 0.02620816, -0.02748975, 0.4000057
 209831034, 0.01208038, 0.01990954, 5.429209E-05, 0.0262593, -0.02702448, 0.4000066, 0.0005303918, 0.01972247, 3.284022E-05, 0.02598345, -0.02703274, 0.4000059
 210030954, -0.0006652317, -0.02528312, -4.152137E-05, 0.02596193, -0.02805442, 0.4000044, 0.01208038, 0.01990954, 5.429209E-05, 0.0262593, -0.02702448, 0.4000066
 210230874, -0.01433979, 0.01855767, 3.037529E-06, 0.02567988, -0.02704385, 0.4000055, -0.0006652317, -0.02528312, -4.152137E-05, 0.02596193, -0.02805442, 0.4000044
 210430794, -0.01967863, -0.002168994, -3.959204E-05, 0.02558184, -0.02746842, 0.4000047, -0.01433979, 0.01855767, 3.037529E-06, 0.02567988, -0.02704385, 0.4000055
 210630714, -0.009478996, -0.01037841, -3.371699E-05, 0.02577899, -0.02765824, 0.400005, -0.01967863, -0.002168994, -3.959204E-05, 0.02558184, -0.02746842, 0.4000047
 210831467, -0.004186871, -0.01670438, -3.379441E-05, 0.02588954, -0.02781367, 0.4000052, -0.009478996, -0.01037841, -3.371699E-05, 0.02577899, -0.02765824, 0.400005
 211031387, -0.01156139, -0.02190185, -5.542418E-05, 0.02573882, -0.02795069, 0.4000046, -0.004186871, -0.01670438, -3.379441E-05, 0.02588954, -0.02781367, 0.4000052
 211231307, 0.001647323, 0.01830536, 3.169925E-05, 0.02602083, -0.02704006, 0.4000064, -0.01156139, -0.02190185, -5.542418E-05, 0.02573882, -0.02795069, 0.4000046
 211431227, 0.009682358, 0.007094111, 2.877937E-05, 0.02621118, -0.02725978, 0.4000064, 0.001647323, 0.01830536, 3.169925E-05, 0.02602083, -0.02704006, 0.4000064
 211631147, -0.004828714, 0.0122027, 1.027916E-05, 0.02588122, -0.02715577, 0.4000059, 0.009682358, 0.007094111, 2.877937E-05, 0.02621118, -0.02725978, 0.4000064
 211831067, 0.004012491, 0.01870215, 3.666728E-05, 0.02607791, -0.02703356, 0.4000063, -0.004828714, 0.0122027, 1.027916E-05, 0.02588122, -0.02715577, 0.4000059
 212030987, -0.01903916, 0.01600579, -9.514202E-06, 0.02559985, -0.02708563, 0.4000052, 0.004012491, 0.01870215, 3.666728E-05, 0.02607791, -0.02703356, 0.4000063
 212230907, -0.003884648, 0.01754449, 2.055689E-05, 0.02590135, -0.02705744, 0.4000058, -0.01903916, 0.01600579, -9.514202E-06, 0.02559985, -0.02708563, 0.4000052
 212430827, -0.006519428, -0.004849077, -1.95616E-05, 0.02584342, -0.02752705, 0.4000051, -0.003884648, 0.01754449, 2.055689E-05, 0.02590135, -0.02705744, 0.4000058
 212630747, 0.01481245, 0.001020051, 2.874235E-05, 0.02633684, -0.02739557, 0.4000062, -0.006519428, -0.004849077, -1.95616E-05, 0.02584342, -0.02752705, 0.4000051
 212830667, -0.02327263, -0.008603473, -5.644386E-05, 0.02551767, -0.02762105, 0.4000042, 0.01481245, 0.001020051, 2.874235E-05, 0.02633684, -0.02739557, 0.4000062
 213031420, -0.02145196, -0.006991421, -5.072621E-05, 0.0255469, -0.02758344, 0.4000045, -0.02327263, -0.008603473, -5.644386E-05, 0.02551767, -0.02762105, 0.4000042
 213231340, -0.01369649, -0.008804785, -3.942211E-05, 0.02568956, -0.02762895, 0.4000047, -0.02145196, -0.006991421, -5.072621E-05, 0.0255469, -0.02758344, 0.4000045
 213431260, 0.02500249, 0.0165769, 7.300127E-05, 0.02659591, -0.02708538, 0.4000072, -0.01369649, -0.008804785, -3.942211E-05, 0.02568956, -0.02762895, 0.4000047
 213631180, -0.01965389, 0.008319263, -2.319315E-05, 0.02557448, -0.02725008, 0.400005, 0.02500249, 0.0165769, 7.300127E-05, 0.02659591, -0.02708538, 0.4000072
 213831100, -0.01515293, 0.02108461, 5.839052E-06, 0.02565766, -0.02700759, 0.4000053, -0.01965389, 0.008319263, -2.319315E-05, 0.02557448, -0.02725008, 0.400005
 214031020, -0.004597358, 0.01119589, 9.620137E-06, 0.02587125, -0.02719879, 0.4000053, -0.01515293, 0.02108461, 5.839052E-06, 0.02565766, -0.02700759, 0.4000053
 214230940, 0.01407162, 0.02213319, 6.250668E-05, 0.02630302, -0.02699591, 0.4000063, -0.004597358, 0.01119589, 9.620137E-06, 0.02587125, -0.02719879, 0.4000053
 214430860, 0.001773921, -0.00999084, -1.301498E-05, 0.02600929, -0.02767265, 0.4000046, 0.01407162, 0.02213319, 6.250668E-05, 0.02630302, -0.02699591, 0.4000063
 214630780, -0.02533505, 0.02354939, -8.778403E-06, 0.02547562, -0.02696735, 0.4000047, 0.001773921, -0.00999084, -1.301498E-05, 0.02600929, -0.02767265, 0.4000046
 214830700, -0.005006961, -0.01366381, -3.143639E-05, 0.02586841, -0.02775945, 0.4000039, -0.02533505, 0.02354939, -8.778403E-06, 0.02547562, -0.02696735, 0.4000047
 215031453, 0.006841325, 0.01662541, 3.953015E-05, 0.02613705, -0.02709162, 0.4000055, -0.005006961, -0.01366381, -3.143639E-05, 0.02586841, -0.02775945, 0.4000039
 215231373, -0.01594686, -0.01312889, -5.044977E-05, 0.02564988, -0.02773879, 0.400004, 0.006841325, 0.01662541, 3.953015E-05, 0.02613705, -0.02709162, 0.4000055
 215431293, -0.0002712961, 0.01797887, 2.813642E-05, 0.02597395, -0.02705587, 0.4000059, -0.01594686, -0.01312889, -5.044977E-05, 0.02564988, -0.02773879, 0.400004
 215631213, 0.01366237, -0.006311108, 1.508041E-05, 0.02630617, -0.02756548, 0.4000058, -0.0002712961, 0.01797887, 2.813642E-05, 0.02597395, -0.02705587, 0.4000059
 215831133, 0.02482636, 0.007068348, 5.683456E-05, 0.02659778, -0.02726494, 0.4000072, 0.01366237, -0.006311108, 1.508041E-05, 0.02630617, -0.02756548, 0.4000058
 216031053, 0.002653921, -0.004405229, -2.033391E-06, 0.02603989, -0.02751525, 0.4000059, 0.02482636, 0.007068348, 5.683456E-05, 0.02659778, -0.02726494, 0.4000072
 216230973, -0.003844195, 0.02114972, 2.615574E-05, 0.02589921, -0.02698882, 0.4000063, 0.002653921, -0.004405229, -2.033391E-06, 0.02603989, -0.02751525, 0.4000059
 216430893, -0.02226491, -0.004239492, -4.725366E-05, 0.02554139, -0.02751132, 0.4000045, -0.003844195, 0.02114972, 2.615574E-05, 0.02589921, -0.02698882, 0.4000063
 216630813, 0.004541741, -0.001422449, 6.016118E-06, 0.02609305, -0.02744747, 0.4000054, -0.02226491, -0.004239492, -4.725366E-05, 0.02554139, -0.02751132, 0.4000045
 216830733, -0.02160504, 0.01596317, -1.411715E-05, 0.02555726, -0.02708474, 0.400005, 0.004541741, -0.001422449, 6.016118E-06, 0.02609305, -0.02744747, 0.4000054
 217031486, 0.01917071, -0.01834883, 6.116232E-06, 0.02645569, -0.02785629, 0.4000056, -0.02160504, 0.01596317, -1.411715E-05, 0.02555726, -0.02708474, 0.400005
 217231406, -0.0009060731, 0.01478306, 2.149578E-05, 0.02596816, -0.02710561, 0.400006, 0.01917071, -0.01834883, 6.116232E-06, 0.02645569, -0.02785629, 0.4000056
 217431326, -0.02062585, -0.01765672, -6.528279E-05, 0.02557204, -0.02784116, 0.400004, -0.0009060731, 0.01478306, 2.149578E-05, 0.02596816, -0.02710561, 0.400006
 217631246, 0.008002887, -0.01303728, -6.026968E-06, 0.02617201, -0.02772767, 0.400005, -0.02062585, -0.01765672, -6.528279E-05, 0.02557204, -0.02784116, 0.400004
 217831166, -0.01878558, -0.01089856, -5.194155E-05, 0.02559924, -0.02768164, 0.4000039, 0.008002887, -0.01303728, -6.026968E-06, 0.02617201, -0.02772767, 0.400005
 218031086, -0.005413876, 0.001380379, -7.769605E-06, 0.02586077, -0.02740013, 0.4000048, -0.01878558, -0.01089856, -5.194155E-05, 0.02559924, -0.02768164, 0.4000039
 218231006, -0.008715626, 0.01658162, 1.059076E-05, 0.02578919, -0.0270896, 0.4000053, -0.005413876, 0.001380379, -7.769605E-06, 0.02586077, -0.02740013, 0.4000048
 218430926, -0.004591193, -0.01273921, -2.921799E-05, 0.02587347, -0.0277365, 0.4000042, -0.008715626, 0.01658162, 1.059076E-05, 0.02578919, -0.0270896, 0.4000053
 218630846, -0.01340028, 0.01115941, -6.667289E-06, 0.02569194, -0.02720524, 0.4000045, -0.004591193, -0.01273921, -2.921799E-05, 0.02587347, -0.0277365, 0.4000042
 218830766, -0.0008409093, -0.00575125, -1.105024E-05, 0.02595157, -0.02757688, 0.4000042, -0.01340028, 0.01115941, -6.667289E-06, 0.02569194, -0.02720524, 0.4000045
 219030686, 0.003849036, 0.006366299, 1.77612E-05, 0.02605538, -0.02731084, 0.4000048, -0.0008409093, -0.00575125, -1.105024E-05, 0.02595157, -0.02757688, 0.4000042
 219231439, 0.01971717, -0.01730711, 8.267714E-06, 0.02644655, -0.02786705, 0.4000046, 0.003849036, 0.006366299, 1.77612E-05, 0.02605538, -0.02731084, 0.4000048
 219431359, 0.01536856, 0.004917035, 3.710519E-05, 0.02633182, -0.02734362, 0.4000053, 0.01971717, -0.01730711, 8.267714E-06, 0.02644655, -0.02786705, 0.4000046
 219631279, 0.02200919, 0.01317949, 6.322284E-05, 0.02650608, -0.02717238, 0.4000061, 0.01536856, 0.004917035, 3.710519E-05, 0.02633182, -0.02734362, 0.4000053
 219831199, 0.024726, -0.006733878, 3.516981E-05, 0.02658338, -0.02760038, 0.4000055, 0.02200919, 0.01317949, 6.322284E-05, 0.02650608, -0.02717238, 0.4000061
 220031119, 0.02465805, 0.01912659, 7.732576E-05, 0.0265862, -0.027056, 0.4000061, 0.024726, -0.006733878, 3.516981E-05, 0.02658338, -0.02760038, 0.4000055
 220231039, 0.0199663, -0.01645673, 9.843441E-06, 0.02646453, -0.02783854, 0.4000044, 0.02465805, 0.01912659, 7.732576E-05, 0.0265862, -0.027056, 0.4000061
 220430959, 0.01957427, -0.006647549, 2.514024E-05, 0.02645692, -0.02759358, 0.4000047, 0.0199663, -0.01645673, 9.843441E-06, 0.02646453, -0.02783854, 0.4000044
 220630879, 0.01835059, -0.01340558, 1.179678E-05, 0.02642771, -0.02775546, 0.4000044, 0.01957427, -0.006647549, 2.514024E-05, 0.02645692, -0.02759358, 0.4000047
 220830799, 0.007833942, 0.0124639, 3.455615E-05, 0.02616751, -0.0271752, 0.4000047, 0.01835059, -0.01340558, 1.179678E-05, 0.02642771, -0.02775546, 0.4000044
 221030719, -0.02026836, 0.0007345362, -3.562166E-05, 0.0255797, -0.02742112, 0.4000031, 0.007833942, 0.0124639, 3.455615E-05, 0.02616751, -0.0271752, 0.4000047
 221231472, -0.0132384, 0.02349926, 1.410973E-05, 0.02571469, -0.02696775, 0.400004, -0.02026836, 0.0007345362, -3.562166E-05, 0.0255797, -0.02742112, 0.4000031
 221431392, 0.0166768, 0.003156353, 3.518091E-05, 0.02639491, -0.02736306, 0.4000047, -0.0132384, 0.02349926, 1.410973E-05, 0.02571469, -0.02696775, 0.400004
 221631312, 0.01999829, 0.01365717, 5.806553E-05, 0.02648203, -0.02714671, 0.4000051, 0.0166768, 0.003156353, 3.518091E-05, 0.02639491, -0.02736306, 0.4000047
 221831232, 0.02342094, 0.01415465, 6.513308E-05, 0.02657293, -0.02713862, 0.4000053, 0.01999829, 0.01365717, 5.806553E-05, 0.02648203, -0.02714671, 0.4000051
 222031152, 0.01812728, 0.002668593, 3.701628E-05, 0.02643239, -0.02737504, 0.4000046, 0.02342094, 0.01415465, 6.513308E-05, 0.02657293, -0.02713862, 0.4000053
 222231072, -0.01069268, 0.02263447, -0.08100356, 0.02620198, -0.02742285, 0.4000041, 0.01812728, 0.002668593, 3.701628E-05, 0.02643239, -0.02737504, 0.4000046
 222430992, -0.002817194, 0.02343143, -0.1472281, 0.02728071, -0.0283425, 0.4000044, -0.01069268, 0.02263447, -0.08100356, 0.02620198, -0.02742285, 0.4000041
 222630912, -0.0004264761, -0.0009467284, -0.1898478, 0.03008682, -0.02931942, 0.4000138, -0.002817194, 0.02343143, -0.1472281, 0.02728071, -0.0283425, 0.4000044
 222830832, 0.01556658, 0.01917292, -0.6065233, 0.03627499, -0.03175601, 0.4000115, -0.0004264761, -0.0009467284, -0.1898478, 0.03008682, -0.02931942, 0.4000138
 223030752, 0.02423854, -0.04320426, -1.004698, 0.04548123, -0.04081057, 0.4000163, 0.01556658, 0.01917292, -0.6065233, 0.03627499, -0.03175601, 0.4000115
 223230672, -0.03897755, 0.007411344, -1.301178, 0.05660625, -0.0519263, 0.4000108, 0.02423854, -0.04320426, -1.004698, 0.04548123, -0.04081057, 0.4000163
 223431425, 0.04133447, -0.07032973, -1.66279, 0.07290374, -0.06844053, 0.400003, -0.03897755, 0.007411344, -1.301178, 0.05660625, -0.0519263, 0.4000108
 223631345, 0.03167738, 0.01849162, -1.930502, 0.09109327, -0.08618964, 0.3999871, 0.04133447, -0.07032973, -1.66279, 0.07290374, -0.06844053, 0.400003
 223831265, 0.04448306, 0.009314502, -2.1362, 0.1120734, -0.1075206, 0.3999712, 0.03167738, 0.01849162, -1.930502, 0.09109327, -0.08618964, 0.3999871
 224031185, 0.0783093, -0.04688026, -2.430568, 0.1359984, -0.1319164, 0.399948, 0.04448306, 0.009314502, -2.1362, 0.1120734, -0.1075206, 0.3999712
 224231105, -0.07341802, 0.01984445, -2.573073, 0.1604649, -0.1573742, 0.3999194, 0.0783093, -0.04688026, -2.430568, 0.1359984, -0.1319164, 0.399948
 224431025, 0.181269, -0.1653335, -2.746822, 0.1899723, -0.1866777, 0.399881, -0.07341802, 0.01984445, -2.573073, 0.1604649, -0.1573742, 0.3999194
 224630945, 0.1847237, -0.2547996, -2.955667, 0.2193769, -0.2172857, 0.3998697, 0.181269, -0.1653335, -2.746822, 0.1899723, -0.1866777, 0.399881
 224830865, 0.08575739, 0.1423748, -3.127063, 0.2497713, -0.2464834, 0.3998571, 0.1847237, -0.2547996, -2.955667, 0.2193769, -0.2172857, 0.3998697
 225030785, 0.1075647, -0.1313604, -3.229419, 0.2862066, -0.2789626, 0.9998646, 0.08575739, 0.1423748, -3.127063, 0.2497713, -0.2464834, 0.3998571
 225230705, 0.1587487, -0.04895153, -3.313194, 0.3201216, -0.3122161, 0.9998764, 0.1075647, -0.1313604, -3.229419, 0.2862066, -0.2789626, 0.9998646
 225431458, -0.06629364, -0.3445176, -3.457789, 0.3530076, -0.3497571, 0.9999253, 0.1587487, -0.04895153, -3.313194, 0.3201216, -0.3122161, 0.9998764
 225631378, -0.2777952, 0.07282674, -3.48179, 0.3878288, -0.3820633, 0.9999895, -0.06629364, -0.3445176, -3.457789, 0.3530076, -0.3497571, 0.9999253
 225831298, -0.06179075, -0.4879524, -3.590927, 0.4254849, -0.4236212, 1.000096, -0.2777952, 0.07282674, -3.48179, 0.3878288, -0.3820633, 0.9999895
 226031218, -0.08609633, -0.1786091, -3.632372, 0.4622909, -0.4578287, 1.000258, -0.06179075, -0.4879524, -3.590927, 0.4254849, -0.4236212, 1.000096
 226231138, 0.318556, -0.09565489, -3.627016, 0.5018201, -0.4945401, 1.000503, -0.08609633, -0.1786091, -3.632372, 0.4622909, -0.4578287, 1.000258
 226431058, 0.3526549, -0.3420526, -3.444667, 0.5376815, -0.5326498, 1.000809, 0.318556, -0.09565489, -3.627016, 0.5018201, -0.4945401, 1.000503
 226630978, 0.4398108, -0.2644014, -3.239881, 0.5626501, -0.5706379, 1.003517, 0.3526549, -0.3420526, -3.444667, 0.5376815, -0.5326498, 1.000809
 226830898, -0.2526169, 0.3832227, -2.877206, 0.5694941, -0.6072085, 1.00983, 0.4398108, -0.2644014, -3.239881, 0.5626501, -0.5706379, 1.003517
 227030818, -0.2977464, -0.3732663, -2.50746, 0.5972015, -0.6417159, 1.007696, -0.2526169, 0.3832227, -2.877206, 0.5694941, -0.6072085, 1.00983
 227230738, -0.2707749, 0.561517, -2.150018, 0.6026328, -0.6638671, 1.017183, -0.2977464, -0.3732663, -2.50746, 0.5972015, -0.6417159, 1.007696
 227430658, -0.2595722, -0.1003385, -1.871709, 0.5778263, -0.6908145, 1.040686, -0.2707749, 0.561517, -2.150018, 0.6026328, -0.6638671, 1.017183
 227631411, -0.361097, 0.2834969, -1.556453, 0.5604292, -0.7101263, 1.058152, -0.2595722, -0.1003385, -1.871709, 0.5778263, -0.6908145, 1.040686
 227831331, 0.02225858, 0.5849429, -1.305489, 0.5589122, -0.7259012, 1.067131, -0.361097, 0.2834969, -1.556453, 0.5604292, -0.7101263, 1.058152
 228031251, -0.6545917, 0.6070464, -1.19295, 0.5586067, -0.7391633, 1.073515, 0.02225858, 0.5849429, -1.305489, 0.5589122, -0.7259012, 1.067131
 228231171, -0.002947658, 0.7030885, -0.8784789, 0.5591498, -0.749592, 1.079448, -0.6545917, 0.6070464, -1.19295, 0.5586067, -0.7391633, 1.073515
 228431091, -0.6086218, 0.780273, -0.777466, 0.5584785, -0.7573953, 1.084429, -0.002947658, 0.7030885, -0.8784789, 0.5591498, -0.749592, 1.079448
 228631011, -0.7265346, 0.4189644, -0.6720563, 0.5626934, -0.7679002, 1.083558, -0.6086218, 0.780273, -0.777466, 0.5584785, -0.7573953, 1.084429
 228830931, -1.083976, 0.3582591, -0.6063389, 0.6104608, -0.7513694, 1.076722, -0.7265346, 0.4189644, -0.6720563, 0.5626934, -0.7679002, 1.083558
 229030851, -1.238174, -0.3784682, -0.6153594, 0.7119754, -0.624757, 1.102503, -1.083976, 0.3582591, -0.6063389, 0.6104608, -0.7513694, 1.076722
 229230771, -0.9872394, -0.5105293, -0.5450093, 0.8031856, -0.3683554, 1.156979, -1.238174, -0.3784682, -0.6153594, 0.7119754, -0.624757, 1.102503
 229430691, -0.7949286, -1.845545, -0.4138944, 0.8285417, -0.03022693, 1.205492, -0.9872394, -0.5105293, -0.5450093, 0.8031856, -0.3683554, 1.156979
 229631444, 0.4878671, -1.024105, -0.09640801, 0.7506102, 0.3109067, 1.2164, -0.7949286, -1.845545, -0.4138944, 0.8285417, -0.03022693, 1.205492
 229831364, 1.948822, -1.756083, 0.428578, 0.6266979, 0.595715, 1.196725, 0.4878671, -1.024105, -0.09640801, 0.7506102, 0.3109067, 1.2164
 230031284, 2.574616, 0.6698269, 0.6172475, 0.4663077, 0.7982805, 1.159968, 1.948822, -1.756083, 0.428578, 0.6266979, 0.595715, 1.196725
 230231204, 2.16381, 0.1861649, 0.6049566, 0.3028258, 0.9235682, 1.11111, 2.574616, 0.6698269, 0.6172475, 0.4663077, 0.7982805, 1.159968
 230431124, 2.631259, 2.025725, 0.6775174, 0.2408788, 1.009246, 1.074841, 2.16381, 0.1861649, 0.6049566, 0.3028258, 0.9235682, 1.11111
 230631044, 1.472533, 1.878694, 0.413704, 0.2222697, 0.9979919, 1.071305, 2.631259, 2.025725, 0.6775174, 0.2408788, 1.009246, 1.074841
 230830964, 2.684793, 1.860677, 0.7768382, 0.3027857, 0.9331083, 1.125767, 1.472533, 1.878694, 0.413704, 0.2222697, 0.9979919, 1.071305
 231030884, 3.054095, 0.3917914, 0.9485503, 0.3687506, 0.8235258, 1.183908, 2.684793, 1.860677, 0.7768382, 0.3027857, 0.9331083, 1.125767
 231230804, 2.332855, 0.3827811, 0.8239529, 0.3988093, 0.7400174, 1.21653, 3.054095, 0.3917914, 0.9485503, 0.3687506, 0.8235258, 1.183908
 231430724, 3.714719, 0.07574534, 1.218767, 0.4611831, 0.7045914, 1.238884, 2.332855, 0.3827811, 0.8239529, 0.3988093, 0.7400174, 1.21653
 231631477, 3.525871, -0.4106827, 1.070172, 0.4525714, 0.7158785, 1.228954, 3.714719, 0.07574534, 1.218767, 0.4611831, 0.7045914, 1.238884
 231831397, 3.775196, 0.3968211, 1.254835, 0.4367178, 0.7591066, 1.215762, 3.525871, -0.4106827, 1.070172, 0.4525714, 0.7158785, 1.228954
 232031317, 3.323911, 0.7538764, 1.131711, 0.3878671, 0.8026385, 1.194906, 3.775196, 0.3968211, 1.254835, 0.4367178, 0.7591066, 1.215762
 232231237, 2.922118, 0.3459127, 1.007172, 0.3471856, 0.8268525, 1.179239, 3.323911, 0.7538764, 1.131711, 0.3878671, 0.8026385, 1.194906
 232431157, 2.954814, 1.305477, 1.023837, 0.3393576, 0.8418345, 1.177355, 2.922118, 0.3459127, 1.007172, 0.3471856, 0.8268525, 1.179239
 232631077, 3.642237, 0.4542708, 1.271624, 0.3604811, 0.8290575, 1.187444, 2.954814, 1.305477, 1.023837, 0.3393576, 0.8418345, 1.177355
 232830997, 3.840161, 0.9706036, 1.337482, 0.3792305, 0.8138331, 1.198954, 3.642237, 0.4542708, 1.271624, 0.3604811, 0.8290575, 1.187444
 233030917, 4.381071, 0.4822164, 1.464961, 0.4075044, 0.7935939, 1.212762, 3.840161, 0.9706036, 1.337482, 0.3792305, 0.8138331, 1.198954
 233230837, 3.416642, 0.555743, 1.16461, 0.3822646, 0.7785997, 1.206884, 4.381071, 0.4822164, 1.464961, 0.4075044, 0.7935939, 1.212762
 233430757, 4.46092, 0.7385195, 1.577683, 0.4219009, 0.7808036, 1.218919, 3.416642, 0.555743, 1.16461, 0.3822646, 0.7785997, 1.206884
 233630677, 4.530245, 0.3251596, 1.547355, 0.4194594, 0.7830186, 1.216073, 4.46092, 0.7385195, 1.577683, 0.4219009, 0.7808036, 1.218919
 233831430, 4.371919, -0.1502366, 1.454603, 0.405661, 0.787777, 1.209979, 4.530245, 0.3251596, 1.547355, 0.4194594, 0.7830186, 1.216073
 234031350, 3.648724, 0.9029006, 1.262466, 0.3789119, 0.794291, 1.200711, 4.371919, -0.1502366, 1.454603, 0.405661, 0.787777, 1.209979
 234231270, 4.104974, 0.01279646, 1.450186, 0.3887538, 0.79324, 1.203942, 3.648724, 0.9029006, 1.262466, 0.3789119, 0.794291, 1.200711
 234431190, 4.744175, -0.0780401, 1.617307, 0.4111755, 0.7941203, 1.21184, 4.104974, 0.01279646, 1.450186, 0.3887538, 0.79324, 1.203942
 234631110, 3.275883, 0.9320328, 1.163694, 0.3633305, 0.7890124, 1.197741, 4.744175, -0.0780401, 1.617307, 0.4111755, 0.7941203, 1.21184
 234831030, 4.263161, 0.8246401, 1.470359, 0.3983316, 0.7863774, 1.210165, 3.275883, 0.9320328, 1.163694, 0.3633305, 0.7890124, 1.197741
 235030950, 4.417249, 1.063541, 1.514874, 0.4063179, 0.7843059, 1.214204, 4.263161, 0.8246401, 1.470359, 0.3983316, 0.7863774, 1.210165
 235230870, 3.505456, -0.3456889, 1.239153, 0.3690353, 0.771173, 1.203509, 4.417249, 1.063541, 1.514874, 0.4063179, 0.7843059, 1.214204
 235430790, 3.452424, 0.2291735, 1.233413, 0.3675306, 0.7702098, 1.203915, 3.505456, -0.3456889, 1.239153, 0.3690353, 0.771173, 1.203509
 235630710, 4.082847, -0.2161275, 1.393246, 0.3850918, 0.7713967, 1.209766, 3.452424, 0.2291735, 1.233413, 0.3675306, 0.7702098, 1.203915
 235831463, 4.58537, 0.3624622, 1.630699, 0.4058211, 0.7746403, 1.216229, 4.082847, -0.2161275, 1.393246, 0.3850918, 0.7713967, 1.209766
 236031383, 4.861161, 0.4238026, 1.688805, 0.416028, 0.7762554, 1.218876, 4.58537, 0.3624622, 1.630699, 0.4058211, 0.7746403, 1.216229
 236231303, 4.163321, -0.1771064, 1.431613, 0.384863, 0.7732328, 1.207408, 4.861161, 0.4238026, 1.688805, 0.416028, 0.7762554, 1.218876
 236431223, 3.657478, 1.05588, 1.292114, 0.3716133, 0.7784603, 1.201456, 4.163321, -0.1771064, 1.431613, 0.384863, 0.7732328, 1.207408
 236631143, 4.440482, 0.1527342, 1.563233, 0.3990175, 0.7733608, 1.209702, 3.657478, 1.05588, 1.292114, 0.3716133, 0.7784603, 1.201456
 236831063, 4.76618, 0.4124134, 1.64785, 0.4145511, 0.7717481, 1.215088, 4.440482, 0.1527342, 1.563233, 0.3990175, 0.7733608, 1.209702
 237030983, 4.217733, 0.07601552, 1.454869, 0.3915749, 0.7653148, 1.208649, 4.76618, 0.4124134, 1.64785, 0.4145511, 0.7717481, 1.215088
 237230903, 4.599106, 0.7481827, 1.58794, 0.4087597, 0.7672405, 1.215261, 4.217733, 0.07601552, 1.454869, 0.3915749, 0.7653148, 1.208649
 237430823, 3.983323, -0.2617632, 1.3964, 0.3823232, 0.7602232, 1.206499, 4.599106, 0.7481827, 1.58794, 0.4087597, 0.7672405, 1.215261
 237630743, 3.926201, -0.009350196, 1.361149, 0.3803447, 0.7586135, 1.206237, 3.983323, -0.2617632, 1.3964, 0.3823232, 0.7602232, 1.206499
 237830663, 4.732819, 0.1239563, 1.610867, 0.4111572, 0.7606395, 1.216731, 3.926201, -0.009350196, 1.361149, 0.3803447, 0.7586135, 1.206237
 238031416, 3.758739, 0.5187654, 1.292488, 0.3749593, 0.7581615, 1.205009, 4.732819, 0.1239563, 1.610867, 0.4111572, 0.7606395, 1.216731
 238231336, 5.002209, -0.1639276, 1.663902, 0.4202904, 0.7602818, 1.220062, 3.758739, 0.5187654, 1.292488, 0.3749593, 0.7581615, 1.205009
 238431256, 4.117441, -0.31458, 1.449887, 0.3838804, 0.7571627, 1.20723, 5.002209, -0.1639276, 1.663902, 0.4202904, 0.7602818, 1.220062
 238631176, 4.498527, 0.7493041, 1.588615, 0.4013946, 0.7619489, 1.212578, 4.117441, -0.31458, 1.449887, 0.3838804, 0.7571627, 1.20723
 238831096, 3.672071, 0.1299259, 1.273405, 0.3690108, 0.7552447, 1.201281, 4.498527, 0.7493041, 1.588615, 0.4013946, 0.7619489, 1.212578
 239031016, 4.284034, 0.1967485, 1.461606, 0.3916088, 0.7557597, 1.208884, 3.672071, 0.1299259, 1.273405, 0.3690108, 0.7552447, 1.201281
 239230936, 4.492548, 0.5658233, 1.534179, 0.4011996, 0.7561911, 1.212764, 4.284034, 0.1967485, 1.461606, 0.3916088, 0.7557597, 1.208884
 239430856, 4.005784, 0.5361107, 1.440482, 0.3825692, 0.7519861, 1.207304, 4.492548, 0.5658233, 1.534179, 0.4011996, 0.7561911, 1.212764
 239630776, 4.923038, 0.8385085, 1.748161, 0.4200993, 0.7541323, 1.220993, 4.005784, 0.5361107, 1.440482, 0.3825692, 0.7519861, 1.207304
 239830696, 5.07161, -0.3019092, 1.732663, 0.4217054, 0.7481782, 1.222386, 4.923038, 0.8385085, 1.748161, 0.4200993, 0.7541323, 1.220993
 240031449, 5.002595, 0.8225827, 1.81167, 0.4234368, 0.750232, 1.223443, 5.07161, -0.3019092, 1.732663, 0.4217054, 0.7481782, 1.222386
 240231369, 5.085977, 0.7570223, 1.801529, 0.426052, 0.7492571, 1.22389, 5.002595, 0.8225827, 1.81167, 0.4234368, 0.750232, 1.223443
 240431289, 3.735663, 0.5070871, 1.321025, 0.3698964, 0.7430339, 1.205001, 5.085977, 0.7570223, 1.801529, 0.426052, 0.7492571, 1.22389
 240631209, 4.137342, 0.9801173, 1.455119, 0.3847579, 0.7474064, 1.210149, 3.735663, 0.5070871, 1.321025, 0.3698964, 0.7430339, 1.205001
 240831129, 3.968276, 0.3215438, 1.447212, 0.3766382, 0.7419097, 1.207157, 4.137342, 0.9801173, 1.455119, 0.3847579, 0.7474064, 1.210149
 241031049, 5.017591, 0.9028527, 1.785352, 0.4204546, 0.7480661, 1.221754, 3.968276, 0.3215438, 1.447212, 0.3766382, 0.7419097, 1.207157
 241230969, 4.58957, 0.8196337, 1.618061, 0.4006245, 0.7447157, 1.215368, 5.017591, 0.9028527, 1.785352, 0.4204546, 0.7480661, 1.221754
 241430889, 4.719608, -0.06710191, 1.61019, 0.402631, 0.7396118, 1.21632, 4.58957, 0.8196337, 1.618061, 0.4006245, 0.7447157, 1.215368
 241630809, 3.876697, -0.2621568, 1.311362, 0.368934, 0.7352488, 1.205492, 4.719608, -0.06710191, 1.61019, 0.402631, 0.7396118, 1.21632
 241830729, 4.663868, 0.6637305, 1.676266, 0.4021815, 0.7389661, 1.217523, 3.876697, -0.2621568, 1.311362, 0.368934, 0.7352488, 1.205492
 242031482, 3.674856, 0.7876986, 1.328351, 0.3630331, 0.7356634, 1.204997, 4.663868, 0.6637305, 1.676266, 0.4021815, 0.7389661, 1.217523
 242231402, 4.052731, -0.0567621, 1.400799, 0.3733357, 0.7317662, 1.208455, 3.674856, 0.7876986, 1.328351, 0.3630331, 0.7356634, 1.204997
 242431322, 3.890623, 0.8107379, 1.459592, 0.3701559, 0.7349329, 1.207615, 4.052731, -0.0567621, 1.400799, 0.3733357, 0.7317662, 1.208455
 242631242, 4.731352, 0.05797764, 1.673426, 0.3998975, 0.7323416, 1.217528, 3.890623, 0.8107379, 1.459592, 0.3701559, 0.7349329, 1.207615
 242831162, 3.958715, -0.04616711, 1.387812, 0.3673259, 0.7280886, 1.207311, 4.731352, 0.05797764, 1.673426, 0.3998975, 0.7323416, 1.217528
 243031082, 4.833849, -0.3365207, 1.648125, 0.4001718, 0.7300347, 1.218809, 3.958715, -0.04616711, 1.387812, 0.3673259, 0.7280886, 1.207311
 243231002, 4.933916, 0.8374725, 1.795737, 0.4091577, 0.7331375, 1.222162, 4.833849, -0.3365207, 1.648125, 0.4001718, 0.7300347, 1.218809
 243430922, 4.044224, 0.80837, 1.466984, 0.370831, 0.7297106, 1.208891, 4.933916, 0.8374725, 1.795737, 0.4091577, 0.7331375, 1.222162
 243630842, 3.929653, 0.04818079, 1.373809, 0.3640305, 0.7268322, 1.204707, 4.044224, 0.80837, 1.466984, 0.370831, 0.7297106, 1.208891
 243830762, 3.748952, 0.5953487, 1.379897, 0.360691, 0.7289453, 1.201733, 3.929653, 0.04818079, 1.373809, 0.3640305, 0.7268322, 1.204707
 244030682, 5.015968, -0.2738981, 1.734721, 0.4095298, 0.7289369, 1.217207, 3.748952, 0.5953487, 1.379897, 0.360691, 0.7289453, 1.201733
 244231435, 4.051906, 0.2821089, 1.415844, 0.3715701, 0.7248183, 1.2046, 5.015968, -0.2738981, 1.734721, 0.4095298, 0.7289369, 1.217207
 244431355, 4.901589, 0.0726146, 1.741975, 0.4064417, 0.7243756, 1.216771, 4.051906, 0.2821089, 1.415844, 0.3715701, 0.7248183, 1.2046
 244631275, 4.650119, 0.5010242, 1.649257, 0.3958358, 0.7226638, 1.21422, 4.901589, 0.0726146, 1.741975, 0.4064417, 0.7243756, 1.216771
 244831195, 4.484154, -0.2435725, 1.544989, 0.3854959, 0.7177149, 1.211603, 4.650119, 0.5010242, 1.649257, 0.3958358, 0.7226638, 1.21422
 245031115, 5.085952, 0.7065045, 1.766186, 0.4151591, 0.7217827, 1.221879, 4.484154, -0.2435725, 1.544989, 0.3854959, 0.7177149, 1.211603
 245231035, 4.61167, 0.8105386, 1.672645, 0.3942982, 0.7199935, 1.214687, 5.085952, 0.7065045, 1.766186, 0.4151591, 0.7217827, 1.221879
 245430955, 4.42322, 0.3149637, 1.560768, 0.3837146, 0.7159383, 1.2107, 4.61167, 0.8105386, 1.672645, 0.3942982, 0.7199935, 1.214687
 245630875, 3.814397, -0.1799596, 1.316964, 0.3580177, 0.7125278, 1.201739, 4.42322, 0.3149637, 1.560768, 0.3837146, 0.7159383, 1.2107
 245830795, 4.912543, 0.4738037, 1.752626, 0.4047928, 0.7175275, 1.216897, 3.814397, -0.1799596, 1.316964, 0.3580177, 0.7125278, 1.201739
 246030715, 3.870319, 0.1220316, 1.367055, 0.3599479, 0.7129116, 1.20113, 4.912543, 0.4738037, 1.752626, 0.4047928, 0.7175275, 1.216897
 246231468, 4.099347, 0.4323876, 1.435678, 0.3689735, 0.7135237, 1.204471, 3.870319, 0.1220316, 1.367055, 0.3599479, 0.7129116, 1.20113
 246431388, 4.682604, 0.8142321, 1.721727, 0.3953433, 0.7159041, 1.213745, 4.099347, 0.4323876, 1.435678, 0.3689735, 0.7135237, 1.204471
 246631308, 3.808247, 0.5416746, 1.397127, 0.3591751, 0.7095755, 1.201767, 4.682604, 0.8142321, 1.721727, 0.3953433, 0.7159041, 1.213745
 246831228, 4.55735, 0.6507359, 1.622512, 0.3884547, 0.7096384, 1.212451, 3.808247, 0.5416746, 1.397127, 0.3591751, 0.7095755, 1.201767
 247031148, 3.878949, 0.1843998, 1.359168, 0.3587727, 0.7032796, 1.203435, 4.55735, 0.6507359, 1.622512, 0.3884547, 0.7096384, 1.212451
 247231068, 3.745002, 0.491962, 1.327825, 0.3534791, 0.7032883, 1.202519, 3.878949, 0.1843998, 1.359168, 0.3587727, 0.7032796, 1.203435
 247430988, 4.362502, 0.1625883, 1.58038, 0.3758291, 0.7018666, 1.21027, 3.745002, 0.491962, 1.327825, 0.3534791, 0.7032883, 1.202519
 247630908, 4.031658, 0.7615774, 1.46523, 0.3628488, 0.703436, 1.206225, 4.362502, 0.1625883, 1.58038, 0.3758291, 0.7018666, 1.21027
 247830828, 5.020174, 0.4798945, 1.760517, 0.403396, 0.703693, 1.219878, 4.031658, 0.7615774, 1.46523, 0.3628488, 0.703436, 1.206225
