TimeUS,CAN,CAE,CAD,CAe
 170360995, 0, 0, 0, 0
 170435965, -0.3025789, 3.670654, -0.193923, 0.4422752
 170535925, 3.227827E-05, 0.003764775, -8.746939E-05, 0.0002593961
 170635885, -9.198542E-05, 0.00362058, -0.000155743, 0.0002593961
 170735845, -0.0001490703, 0.003538564, -8.372057E-05, 0.0002593961
 170835805, 7.751855E-05, 0.003602089, 8.444982E-06, 0.0002593961
 170935765, -0.0001850403, 0.003603097, -4.83248E-05, 0.0002593961
 171035725, 0.0001075827, 0.003614416, -0.0001027316, 0.0002593961
 171135685, 0.0001397218, 0.003419032, -0.0001212362, 0.0002593961
 171236478, 0.0002047281, 0.003706489, -0.0001214022, 0.0002615578
 171336438, -0.0001279245, 0.003629527, -0.0002058588, 0.0002593961
 171436398, -3.242621E-05, 0.003612748, -3.38979E-05, 0.0002593961
 171536358, -0.0001041376, 0.003466541, -0.0001391164, 0.0002593961
 171636318, 0.0001536367, 0.003798052, -0.0002230252, 0.0002593961
 171736278, -0.000103997, 0.003690429, -0.0001733968, 0.0002593961
 171836238, 4.139613E-05, 0.003692447, -4.198183E-05, 0.0002593961
 171936198, -0.0001442454, 0.003671906, 6.569737E-05, 0.0002593961
 172036158, 0.0001362688, 0.003924191, -0.0001339031, 0.0002593961
 172136118, 1.289833E-05, 0.003636309, -9.773278E-05, 0.0002593961
 172236078, 7.85023E-05, 0.003494234, -0.0001292224, 0.0002593961
 172336038, 0.0001565562, 0.003568409, -3.967485E-05, 0.0002593961
 172435998, 2.211466E-05, 0.003554144, -3.846179E-05, 0.0002593961
 172535958, 0.0002571274, 0.003667593, -5.513136E-05, 0.0002593961
 172635918, -5.086176E-05, 0.003541847, 9.492412E-06, 0.0002593961
 172735878, 0.0001088873, 0.003545716, 0.0001998662, 0.0002593961
 172835838, 8.236455E-05, 0.003673287, -5.306267E-06, 0.0002593961
 172935798, -0.0001023313, 0.003574734, -0.000106397, 0.0002593961
 173035758, -0.0003011918, 0.003528233, -0.0002537797, 0.0002593961
 173135718, -4.988035E-05, 0.003817718, -0.0001715725, 0.0002593961
 173235678, 4.631957E-05, 0.003479901, -7.639332E-05, 0.0002593961
 173336471, -4.141469E-05, 0.003570275, -9.320385E-05, 0.0002615578
 173436431, -0.0001077195, 0.00390495, -0.0001559587, 0.0002593961
 173536391, -0.0001368814, 0.003787421, -0.0001443023, 0.0002593961
 173636351, 0.0001328667, 0.003675051, -0.0001417868, 0.0002593961
 173736311, 3.927697E-05, 0.003528705, -4.058406E-05, 0.0002593961
 173836271, 5.381557E-05, 0.003612524, -0.000145774, 0.0002593961
 173936231, 4.509608E-05, 0.003606633, -0.0001437875, 0.0002593961
 174036191, -0.0001290892, 0.00358297, -0.0001502818, 0.0002593961
 174136151, -0.0001880778, 0.003550324, -0.0001692714, 0.0002593961
 174236111, -1.713883E-05, 0.003477387, -2.996318E-05, 0.0002593961
 174336071, -9.486803E-05, 0.00358589, 5.004191E-05, 0.0002593961
 174436031, -0.0001176306, 0.003646045, 0.0001442392, 0.0002593961
 174535991, -0.000226269, 0.003594879, -6.852866E-05, 0.0002593961
 174635951, 0.0001479948, 0.003625142, -9.015171E-05, 0.0002593961
 174735911, -0.0001641978, 0.003790892, 5.82736E-05, 0.0002593961
 174835871, 0.000146395, 0.003492935, -5.440322E-05, 0.0002593961
 174935831, -2.389728E-05, 0.003508861, -4.205233E-06, 0.0002593961
 175035791, -9.004461E-05, 0.003592723, -0.0002750119, 0.0002593961
 175135751, -4.493188E-05, 0.00353101, 2.606422E-05, 0.0002593961
 175235711, -0.0002052618, 0.003625019, -0.0001550662, 0.0002593961
 175335671, -2.864527E-05, 0.003716119, 3.935312E-05, 0.0002593961
 175436464, -5.35569E-05, 0.003538279, -8.076296E-05, 0.0002615578
 175536424, 1.217647E-05, 0.003825686, -7.444979E-05, 0.0002593961
 175636384, 9.881676E-06, 0.003661481, -3.515148E-05, 0.0002593961
 175736344, 2.5186E-05, 0.003403158, -3.960693E-05, 0.0002593961
 175836304, 0.0001196028, 0.003701153, -6.29924E-05, 0.0002593961
 175936264, 6.202368E-05, 0.003813373, -0.000196712, 0.0002593961
 176036224, -8.772701E-05, 0.003597795, -0.0001451841, 0.0002593961
 176136184, -3.388301E-05, 0.003350428, -1.328891E-05, 0.0002593961
 176236144, -0.000108964, 0.00366302, 0.0001063398, 0.0002593961
 176336104, 3.099169E-05, 0.003341656, -0.0002561701, 0.0002593961
 176436064, 2.943408E-05, 0.003573868, -0.0002440406, 0.0002593961
 176536024, -5.509259E-05, 0.003738056, 2.794935E-05, 0.0002593961
 176635984, 0.0001311219, 0.003750708, -4.725473E-05, 0.0002593961
 176735944, 0.0002048928, 0.00348544, -4.847256E-05, 0.0002593961
 176835904, -4.991232E-05, 0.003581088, -7.441881E-05, 0.0002593961
 176935864, 6.431517E-06, 0.003693704, 4.748471E-05, 0.0002593961
 177035824, -5.134327E-05, 0.003741361, -8.611094E-05, 0.0002593961
 177135784, 0.000225942, 0.003523439, -8.428181E-05, 0.0002593961
 177235744, 0.0001932673, 0.003740681, -4.549471E-05, 0.0002593961
 177335704, 7.688917E-05, 0.003615899, -0.000129195, 0.0002593961
 177435664, 5.149593E-05, 0.003622339, -0.0002048662, 0.0002593961
 177536457, 6.300456E-05, 0.003564042, -9.463181E-05, 0.0002615578
 177636417, 0.0001063935, 0.003413852, 0.0001667107, 0.0002593961
 177736377, 8.021145E-05, 0.003668206, -0.0001890094, 0.0002593961
 177836337, 0.0003177127, 0.003548481, 0.0001173325, 0.0002593961
 177936297, 7.595572E-05, 0.003561009, -0.0003452267, 0.0002593961
 178036257, -0.000103704, 0.003415646, -1.446385E-05, 0.0002593961
 178136217, 0.0001225004, 0.003721468, 7.067235E-05, 0.0002593961
 178236177, 2.402356E-05, 0.003509135, -8.184733E-05, 0.0002593961
 178336137, 8.618609E-05, 0.003601291, -7.25587E-05, 0.0002593961
 178436097, -0.0002227801, 0.003560312, -5.906247E-05, 0.0002593961
 178536057, 4.218364E-05, 0.003446421, -2.04815E-05, 0.0002593961
 178636017, -0.0002115165, 0.003698665, -4.096897E-05, 0.0002593961
 178735977, 4.329587E-05, 0.003578124, -0.0001504082, 0.0002593961
 178835937, 0.000188769, 0.003627741, -8.01338E-05, 0.0002593961
 178935897, 0.0001656339, 0.003645598, -6.201885E-05, 0.0002593961
 179035857, 9.361784E-05, 0.003526419, -7.852869E-05, 0.0002593961
 179135817, -0.0001438748, 0.003401982, -7.826417E-05, 0.0002593961
 179235777, 2.523204E-05, 0.003312575, -0.0001989034, 0.0002593961
 179335737, -7.790422E-05, 0.003343303, -0.0001842382, 0.0002593961
 179435697, -0.0001159164, 0.003447726, -0.0001601544, 0.0002593961
 179535657, -5.907827E-05, 0.003648702, -5.827598E-05, 0.0002593961
 179636450, 0.0001933957, 0.003655415, -0.0001361294, 0.0002615578
 179736410, 2.440558E-05, 0.0034584, -0.0001500912, 0.0002593961
 179836370, -8.207968E-05, 0.003659239, 6.766951E-05, 0.0002593961
 179936330, -0.0001370289, 0.003591248, 0.0001104676, 0.0002593961
 180036290, -9.018379E-05, 0.003395873, -7.370383E-05, 0.0002593961
 180136250, 0.0001460733, 0.003689395, -5.343565E-05, 0.0002593961
 180236210, -0.0001134026, 0.003592898, -0.0001203699, 0.0002593961
 180336170, -0.0001234162, 0.003538303, -0.000327412, 0.0002593961
 180436130, 7.88602E-05, 0.003615425, -5.418159E-05, 0.0002593961
 180536090, -3.136262E-06, 0.003626622, -0.0001474649, 0.0002593961
 180636050, -6.232242E-05, 0.003630667, -3.961529E-05, 0.0002593961
 180736010, -1.279145E-05, 0.00346881, -0.0001695872, 0.0002593961
 180835970, -3.326624E-05, 0.003385936, -9.319628E-05, 0.0002593961
 180935930, -3.399202E-05, 0.003443196, 3.928753E-06, 0.0002593961
 181035890, -5.834226E-05, 0.003539617, -0.0002129799, 0.0002593961
 181135850, -0.0001657725, 0.003416075, -9.291984E-05, 0.0002593961
 181235810, 8.116863E-05, 0.003683989, -0.0001281607, 0.0002593961
 181335770, -7.446006E-05, 0.003421332, 6.252171E-05, 0.0002593961
 181435730, -0.0001672774, 0.003462209, -0.0001688151, 0.0002593961
 181535690, 5.445436E-05, 0.003482944, -1.389543E-05, 0.0002593961
 181636483, 0.00019515, 0.003426756, 0.000144122, 0.0002615578
 181736443, -2.559448E-05, 0.003620466, 8.576657E-05, 0.0002593961
 181836403, 6.433435E-05, 0.003707814, -0.0002039773, 0.0002593961
 181936363, 6.556702E-05, 0.003587312, -0.0002820043, 0.0002593961
 182036323, 0.0002269683, 0.003789234, 1.893955E-05, 0.0002593961
 182136283, 0.0001554195, 0.003688705, -8.164239E-05, 0.0002593961
 182236243, 0.0001461275, 0.003524428, 9.948209E-05, 0.0002593961
 182336203, -0.0001246138, 0.003633098, 2.550058E-05, 0.0002593961
 182436163, -0.0002715441, 0.003465242, -7.553177E-05, 0.0002593961
 182536123, -2.279276E-05, 0.003667939, -7.291505E-06, 0.0002593961
 182636083, 0.0001846231, 0.00354879, -5.122995E-05, 0.0002593961
 182736043, -0.0002371479, 0.003651939, 0.0001052876, 0.0002593961
 182836003, 0.0001468262, 0.003735887, 0.0001038613, 0.0002593961
 182935963, 9.779351E-05, 0.003730539, 9.688552E-05, 0.0002593961
 183035923, 2.164167E-05, 0.00355934, -0.0001034537, 0.0002593961
 183135883, 5.507243E-05, 0.003491761, -0.0001060884, 0.0002593961
 183235843, 3.322349E-05, 0.003699841, 0.0001155117, 0.0002593961
 183335803, -0.0001717661, 0.003620855, 5.403622E-05, 0.0002593961
 183435763, -0.0001000604, 0.003342561, -6.850957E-05, 0.0002593961
 183535723, -7.486447E-05, 0.003772794, -2.094147E-05, 0.0002593961
 183635683, 0.000112494, 0.003570786, -2.727371E-05, 0.0002593961
 183736476, -0.0001327581, 0.003731791, 5.100673E-05, 0.0002615578
 183836436, -5.569623E-05, 0.003514112, -0.0002703288, 0.0002593961
 183936396, -0.00021449, 0.00352003, -0.000250803, 0.0002593961
 184036356, 3.48765E-05, 0.003467226, 3.827473E-06, 0.0002593961
 184136316, -0.0001351575, 0.003559364, -8.180205E-05, 0.0002593961
 184236276, 0.0001056982, 0.003650645, -0.0001427127, 0.0002593961
 184336236, 2.274883E-05, 0.003601, -0.0001295489, 0.0002593961
 184436196, -1.902884E-05, 0.003618772, -5.463558E-06, 0.0002593961
 184536156, 2.489196E-05, 0.003777718, -5.309603E-05, 0.0002593961
 184636116, -2.714443E-05, 0.003552878, 6.433416E-05, 0.0002593961
 184736076, -2.248056E-05, 0.003493536, -0.0001296025, 0.0002593961
 184836036, -9.738915E-05, 0.003477293, -5.153742E-06, 0.0002593961
 184935996, 8.452882E-05, 0.003455156, 0.0002523664, 0.0002593961
 185035956, 6.1452E-05, 0.003742127, -0.0002020397, 0.0002593961
 185135916, 2.987198E-05, 0.003770524, -0.0002964491, 0.0002593961
 185235876, -0.0001741006, 0.003708868, -0.0001120477, 0.0002593961
 185335836, -4.086742E-05, 0.003734483, 9.676162E-05, 0.0002593961
 185435796, -2.571953E-05, 0.003526822, 1.625364E-05, 0.0002593961
 185535756, -4.530411E-05, 0.003415524, -3.776233E-06, 0.0002593961
 185635716, 3.401035E-05, 0.003584307, -0.0004090341, 0.0002593961
 185735676, -6.385324E-06, 0.003792242, -0.0001271561, 0.0002593961
 185836469, 4.187428E-05, 0.003425156, -0.0001666419, 0.0002615578
 185936429, 0.0001889565, 0.003612769, -0.0001852165, 0.0002593961
 186036389, -9.568421E-05, 0.003502818, -0.0002670411, 0.0002593961
 186136349, 0.0001639552, 0.003460016, -4.554359E-06, 0.0002593961
 186236309, 9.941573E-05, 0.003540645, 1.715212E-05, 0.0002593961
 186336269, -1.070691E-05, 0.003760651, -6.772669E-05, 0.0002593961
 186436229, -0.0001175086, 0.003790091, -0.0002043872, 0.0002593961
 186536189, -0.0001135834, 0.003718665, -0.0002649797, 0.0002593961
 186636149, 0.0001539616, 0.0037246, -0.0001642845, 0.0002593961
 186736109, 0.0003818631, 0.003817844, -7.50039E-05, 0.0002593961
 186836069, -0.0001215441, 0.0038697, 0.000169275, 0.0002593961
 186936029, -7.333657E-05, 0.003527595, -0.0001062397, 0.0002593961
 187035989, 5.490676E-05, 0.003549611, -0.0001596623, 0.0002593961
 187135949, 7.320065E-05, 0.003666435, -6.549003E-05, 0.0002593961
 187235909, 6.946614E-06, 0.003620886, 3.245606E-05, 0.0002593961
 187335869, -1.51974E-05, 0.003699505, -7.678058E-05, 0.0002593961
 187435829, -1.371432E-05, 0.003768115, -8.839286E-05, 0.0002593961
 187535789, -5.186289E-05, 0.003606428, -0.000107597, 0.0002593961
 187635749, -0.0001023753, 0.003620445, -0.00016272, 0.0002593961
 187735709, -5.38265E-05, 0.003491207, 4.006809E-05, 0.0002593961
 187835669, 4.022007E-05, 0.003953706, -0.0001145286, 0.0002593961
 187936462, -3.137751E-05, 0.003530481, -3.568374E-05, 0.0002615578
 188036422, 0.000182183, 0.003576187, 3.684835E-05, 0.0002593961
 188136382, 0.0001027354, 0.003742369, -3.793629E-05, 0.0002593961
 188236342, 0.0002006644, 0.003533126, 2.819363E-05, 0.0002593961
 188336302, -5.306149E-05, 0.00361017, 5.595473E-05, 0.0002593961
 188436262, 0.0001876019, 0.003748225, 6.551743E-05, 0.0002593961
 188536222, -6.598069E-05, 0.003558568, 5.626692E-05, 0.0002593961
 188636182, 5.322304E-06, 0.003530591, -0.0001422575, 0.0002593961
 188736142, -2.32293E-05, 0.003765372, -1.207105E-05, 0.0002593961
 188836102, -5.950839E-05, 0.003673262, 0.0001508204, 0.0002593961
 188936062, 0.0001034858, 0.003675918, -0.0002334579, 0.0002593961
 189036022, 4.193393E-05, 0.003481991, -3.947824E-05, 0.0002593961
 189135982, 0.0001511998, 0.003557392, 0.0001382787, 0.0002593961
 189235942, 1.514514E-05, 0.003590835, -0.0001457013, 0.0002593961
 189335902, 0.0001019135, 0.003542979, -0.0001639294, 0.0002593961
 189435862, 5.150954E-05, 0.003569983, 2.648246E-05, 0.0002593961
 189535822, 0.000101763, 0.003615232, -6.332843E-05, 0.0002593961
 189635782, -6.59576E-05, 0.003531418, -0.0001666451, 0.0002593961
 189735742, 3.828619E-05, 0.00367302, -0.000346566, 0.0002593961
 189835702, 0.0001601063, 0.003591355, -0.0002254895, 0.0002593961
 189935662, 2.170349E-06, 0.003397026, -0.0002570637, 0.0002593961
 190036455, -0.0001255638, 0.003528836, -8.506351E-05, 0.0002615578
 190136415, 0.0001155833, 0.003633464, -0.0001168987, 0.0002593961
 190236375, 0.0001021787, 0.003454815, 1.26919E-05, 0.0002593961
 190336335, -1.56932E-05, 0.003624664, -2.288022E-05, 0.0002593961
 190436295, 0.0001305556, 0.003563129, -0.000117765, 0.0002593961
 190536255, -5.579661E-05, 0.003729401, -0.0001135837, 0.0002593961
 190636215, 5.6869E-05, 0.003634779, 5.139797E-05, 0.0002593961
 190736175, -7.03173E-05, 0.003684356, -0.0001324672, 0.0002593961
 190836135, 8.169332E-05, 0.003682492, -4.952475E-05, 0.0002593961
 190936095, -0.0001230058, 0.003268708, -1.00489E-05, 0.0002593961
 191036055, -5.529476E-05, 0.003572953, -0.0002047137, 0.0002593961
 191136015, -0.0001401125, 0.003545995, -1.857371E-05, 0.0002593961
 191235975, 0.0002404418, 0.003528232, 4.14468E-05, 0.0002593961
 191335935, 9.527077E-05, 0.003595625, 6.804245E-05, 0.0002593961
 191435895, -0.0001765297, 0.003469052, -0.0002759199, 0.0002593961
 191535855, -2.47684E-05, 0.00356116, -0.0001816094, 0.0002593961
 191635815, -9.506186E-05, 0.003581241, -5.629193E-05, 0.0002593961
 191735775, 5.49607E-05, 0.003529577, 0.0001114566, 0.0002593961
 191835735, -6.20909E-05, 0.003578175, -1.539092E-05, 0.0002593961
 191935695, 9.944156E-05, 0.003548656, 9.325946E-05, 0.0002593961
 192035655, -3.185333E-05, 0.003707247, -3.721537E-05, 0.0002593961
 192136448, -9.026485E-05, 0.003620109, 1.115313E-05, 0.0002615578
 192236408, -5.469804E-05, 0.003540863, -0.0001859922, 0.0002593961
 192336368, 2.972202E-05, 0.003686611, -8.105135E-05, 0.0002593961
 192436328, 0.0001766414, 0.003678397, 5.054002E-05, 0.0002593961
 192536288, 2.891467E-05, 0.003600729, 0.0002299831, 0.0002593961
 192636248, -2.817189E-05, 0.00387769, -8.797105E-05, 0.0002593961
 192736208, -0.0002178754, 0.003601374, -0.0001841464, 0.0002593961
 192836168, -9.225513E-05, 0.003593246, 4.78124E-05, 0.0002593961
 192936128, 0.0001034246, 0.003782205, -2.176725E-05, 0.0002593961
 193036088, 5.71044E-05, 0.003648742, 8.55068E-05, 0.0002593961
 193136048, -0.0001865108, 0.003461175, -5.909937E-05, 0.0002593961
 193236008, 0.0001159032, 0.003535419, -9.241936E-05, 0.0002593961
 193335968, 4.535133E-05, 0.003781708, -0.0002115512, 0.0002593961
 193435928, 9.749841E-05, 0.003642785, -0.0001955156, 0.0002593961
 193535888, -9.239139E-06, 0.003577098, -0.0001440115, 0.0002593961
 193635848, -1.457544E-05, 0.003641182, -1.227125E-05, 0.0002593961
 193735808, -1.728155E-05, 0.003739404, -9.563194E-05, 0.0002593961
 193835768, -2.244424E-05, 0.003400408, 6.622764E-05, 0.0002593961
 193935728, 9.747356E-05, 0.003352531, -0.000159238, 0.0002593961
 194035688, 1.472121E-05, 0.003573449, -0.0002158386, 0.0002593961
 194136481, -0.0002227757, 0.003706642, 4.953866E-05, 0.0002615578
 194236441, 0.0002013852, 0.003392352, -5.043277E-05, 0.0002593961
 194336401, 0.0001398357, 0.003566861, 0.0001571134, 0.0002593961
 194436361, 3.770132E-05, 0.00361948, -0.000108381, 0.0002593961
 194536321, 3.109774E-05, 0.003749816, 5.263368E-05, 0.0002593961
 194636281, -1.128891E-05, 0.003598869, -8.567479E-05, 0.0002593961
 194736241, 0.0001586833, 0.003663987, -0.0001083489, 0.0002593961
 194836201, -9.016984E-05, 0.003459478, -0.0001365365, 0.0002593961
 194936161, -0.0001543375, 0.003573552, 5.294707E-05, 0.0002593961
 195036121, 8.999283E-05, 0.00360768, -9.381231E-05, 0.0002593961
 195136081, -2.685254E-06, 0.003471721, -0.0003302349, 0.0002593961
 195236041, -0.0002157974, 0.003519921, -4.676853E-05, 0.0002593961
 195336001, 0.000153624, 0.003474294, -7.570929E-05, 0.0002593961
 195435961, 3.820057E-05, 0.003599621, -0.0001271919, 0.0002593961
 195535921, 7.85482E-05, 0.00359604, -0.0001378747, 0.0002593961
 195635881, 6.117448E-05, 0.003603001, -2.219982E-06, 0.0002593961
 195735841, 0.0002213716, 0.003346129, -0.0002278668, 0.0002593961
 195835801, 1.907117E-05, 0.003540979, 0.0001693048, 0.0002593961
 195935761, 0.0001863726, 0.003557867, -5.615134E-05, 0.0002593961
 196035721, 0.0001296589, 0.003581371, 7.580823E-05, 0.0002593961
 196135681, -2.18575E-05, 0.00344326, 1.990118E-05, 0.0002593961
 196236474, -0.0002532824, 0.003527013, -8.793531E-05, 0.0002615578
 196336434, 2.739408E-05, 0.003648613, -0.0001281547, 0.0002593961
 196436394, 0.0001283412, 0.003519204, -0.0001199981, 0.0002593961
 196536354, 6.740412E-05, 0.003458258, -3.097725E-05, 0.0002593961
 196636314, -0.000200895, 0.003515284, -6.505625E-05, 0.0002593961
 196736274, -3.082625E-05, 0.003437846, -0.0001108048, 0.0002593961
 196836234, 4.204451E-05, 0.003277959, -3.152659E-05, 0.0002593961
 196936194, -0.0001879103, 0.003508838, -2.112735E-05, 0.0002593961
 197036154, -0.0001267863, 0.003374098, 6.20403E-05, 0.0002593961
 197136114, 2.04432E-05, 0.003720033, -7.197002E-05, 0.0002593961
 197236074, 0.0002727956, 0.00354477, -6.624789E-05, 0.0002593961
 197336034, 0.000113258, 0.003517249, -8.785667E-05, 0.0002593961
 197435994, -7.496944E-05, 0.003600778, -0.0001030045, 0.0002593961
 197535954, -5.840472E-05, 0.003350603, -0.0001706251, 0.0002593961
 197635914, -1.011286E-05, 0.003553085, -0.0001733527, 0.0002593961
 197735874, 0.000296172, 0.003617437, -0.000115613, 0.0002593961
 197835834, 0.0001911533, 0.003659834, -0.0001498076, 0.0002593961
 197935794, 0.000192978, 0.003651992, -0.0001525125, 0.0002593961
 198035754, 0.0001634205, 0.003604394, -0.0002912786, 0.0002593961
 198135714, 4.359489E-05, 0.003746063, -4.234645E-05, 0.0002593961
 198235674, 0.0002295642, 0.003588182, 2.846176E-05, 0.0002593961
 198336467, -2.619812E-05, 0.003515509, -9.791469E-05, 0.0002615578
 198436427, -7.941872E-05, 0.00363585, -5.744304E-05, 0.0002593961
 198536387, -0.0001243615, 0.00361448, 2.440434E-06, 0.0002593961
 198636347, 6.642834E-05, 0.003503709, -0.0001382096, 0.0002593961
 198736307, 0.0001217437, 0.003475604, 0.0002173961, 0.0002593961
 198836267, 0.0001489589, 0.003537279, -0.0001661911, 0.0002593961
 198936227, 0.0002270189, 0.003697834, -0.0001177519, 0.0002593961
 199036187, -8.60709E-05, 0.003857945, -2.655038E-05, 0.0002593961
 199136147, -7.42194E-05, 0.003376655, -0.0001240329, 0.0002593961
 199236107, -5.168416E-05, 0.003577649, 1.519073E-05, 0.0002593961
 199336067, -0.0001559913, 0.003419479, -1.110228E-05, 0.0002593961
 199436027, 0.0002002036, 0.003584446, -0.0001612078, 0.0002593961
 199535987, -8.113462E-05, 0.003542817, 1.275029E-05, 0.0002593961
 199635947, 8.980183E-05, 0.003367369, 6.186874E-06, 0.0002593961
 199735907, -3.207611E-06, 0.00359935, 7.929017E-06, 0.0002593961
 199835867, -0.0002410564, 0.003864079, -0.0001296895, 0.0002593961
 199935827, -0.000112291, 0.003515827, -5.375142E-05, 0.0002593961
 200035787, 0.0002021922, 0.00348035, 4.307216E-05, 0.0002593961
 200135747, -1.766685E-05, 0.003477166, 8.679375E-05, 0.0002593961
 200235707, 0.0002594171, 0.00343132, 0.0001038243, 0.0002593961
 200335667, -0.0001822186, 0.003493709, -0.0003649516, 0.0002593961
 200436460, 0.0001682808, 0.003537433, -0.0001846969, 0.0002615578
 200536420, -7.579084E-05, 0.00370704, -0.0001506644, 0.0002593961
 200636380, -0.0001822425, 0.003629649, -5.859415E-05, 0.0002593961
 200736340, 8.193734E-05, 0.003513189, 0.0001264746, 0.0002593961
 200836300, 9.712731E-05, 0.003425029, -7.925678E-05, 0.0002593961
 200936260, -5.834733E-05, 0.003523214, 8.506828E-05, 0.0002593961
 201036220, 0.0001753023, 0.003599374, 2.753705E-05, 0.0002593961
 201136180, -7.687076E-05, 0.003479207, -0.0001739652, 0.0002593961
 201236140, -5.963359E-05, 0.003363587, 1.350816E-05, 0.0002593961
 201336100, -0.0002182257, 0.003482448, 8.047224E-05, 0.0002593961
 201436060, -0.0001592544, 0.003552456, -8.515764E-05, 0.0002593961
 201536020, 5.532178E-05, 0.003471024, -9.001824E-05, 0.0002593961
 201635980, 6.277191E-05, 0.003368433, 0.0001605857, 0.0002593961
 201735940, -7.484961E-05, 0.003490424, -8.882779E-05, 0.0002593961
 201835900, -0.0001570137, 0.003571887, -2.221172E-06, 0.0002593961
 201935860, 1.653739E-05, 0.003585174, -8.182708E-05, 0.0002593961
 202035820, 0.0001613271, 0.003503047, -0.0001333073, 0.0002593961
 202135780, 6.654031E-05, 0.003678243, 9.240743E-05, 0.0002593961
 202235740, -5.59713E-07, 0.003522945, -0.0002722199, 0.0002593961
 202335700, 0.0001909216, 0.00360664, -7.876344E-05, 0.0002593961
 202435660, -1.276413E-05, 0.003407576, -0.0001919848, 0.0002593961
 202536453, 0.0002309397, 0.003544869, -5.201838E-05, 0.0002615578
 202636413, 9.973508E-05, 0.003430033, 1.063635E-05, 0.0002593961
 202736373, 6.409476E-05, 0.003640848, -7.361804E-05, 0.0002593961
 202836333, 0.0001069247, 0.003477314, -7.773149E-05, 0.0002593961
 202936293, -3.84886E-05, 0.003513057, -0.0002287402, 0.0002593961
 203036253, 0.0001363021, 0.00371843, 7.333681E-05, 0.0002593961
 203136213, 8.065018E-05, 0.003549002, -8.808902E-05, 0.0002593961
 203236173, -0.000170247, 0.003614953, -0.000259764, 0.0002593961
 203336133, -6.530416E-05, 0.003590731, -0.0001419942, 0.0002593961
 203436093, 0.0001748445, 0.003329256, 4.081641E-05, 0.0002593961
 203536053, -0.0001816983, 0.003743436, 0.0001890273, 0.0002593961
 203636013, 0.0002503093, 0.003589573, 2.740121E-05, 0.0002593961
 203735973, 3.156378E-05, 0.003698801, -0.0001117319, 0.0002593961
 203835933, 8.116199E-06, 0.003705552, -2.074128E-05, 0.0002593961
 203935893, 0.0001476143, 0.003736227, -5.718447E-05, 0.0002593961
 204035853, 9.651703E-05, 0.00350432, -0.0001353318, 0.0002593961
 204135813, -1.620857E-05, 0.003516202, 2.105109E-05, 0.0002593961
 204235773, 9.443631E-05, 0.003660197, -0.000158075, 0.0002593961
 204335733, 8.459898E-05, 0.003670444, -0.0002383482, 0.0002593961
 204435693, 1.626576E-05, 0.003471898, -7.961784E-05, 0.0002593961
 204536486, 1.845459E-05, 0.003515969, 8.557952E-05, 0.0002593961
 204636446, 4.270165E-05, 0.003547627, 0.0001485035, 0.0002615578
 204736406, 0.0001327919, 0.003386535, 0.0001340044, 0.0002593961
 204836366, 6.141198E-05, 0.003369751, 3.350586E-05, 0.0002593961
 204936326, 3.681597E-05, 0.003526056, -0.0001152853, 0.0002593961
 205036286, -7.086731E-05, 0.003688786, -0.0002732114, 0.0002593961
 205136246, -3.37251E-05, 0.003568651, -1.423981E-05, 0.0002593961
 205236206, 2.259582E-05, 0.003551906, -0.0001630214, 0.0002593961
 205336166, -3.423314E-05, 0.003413159, 4.573422E-05, 0.0002593961
 205436126, 0.0001194131, 0.003435913, 2.010494E-05, 0.0002593961
 205536086, 0.0002284061, 0.003697281, -0.0001462447, 0.0002593961
 205636046, 6.284689E-05, 0.003568876, -0.0001090448, 0.0002593961
 205736006, -3.872959E-05, 0.003425229, -9.817128E-05, 0.0002593961
 205835966, -9.92655E-05, 0.003733998, -5.933054E-06, 0.0002593961
 205935926, 0.0001912247, 0.003519006, -0.000129108, 0.0002593961
 206035886, -4.580797E-05, 0.003442862, -0.0002078488, 0.0002593961
 206135846, 0.0003096069, 0.003462563, -0.0001105581, 0.0002593961
 206235806, -7.390568E-05, 0.003476348, -3.113216E-05, 0.0002593961
 206335766, 0.0001245843, 0.003400434, 1.263828E-05, 0.0002593961
 206435726, 0.0001086069, 0.003433192, 4.493465E-05, 0.0002593961
 206535686, 5.970438E-05, 0.003437518, -0.0001024742, 0.0002593961
 206636479, 2.8248E-05, 0.003697556, 5.01476E-05, 0.0002615578
 206736439, 0.0001649115, 0.003588168, -7.622767E-06, 0.0002593961
 206836399, -0.0001330671, 0.003700947, 1.757396E-05, 0.0002593961
 206936359, -0.0001378322, 0.003266321, -5.480362E-05, 0.0002593961
 207036319, 0.0001001253, 0.003663536, -0.0002559746, 0.0002593961
 207136279, 5.506529E-05, 0.003655937, -5.179716E-05, 0.0002593961
 207236239, 0.0001016673, 0.003391805, 2.49846E-05, 0.0002593961
 207336199, 1.574233E-05, 0.003438967, -3.450205E-05, 0.0002593961
 207436159, -0.0001292759, 0.003450384, 8.641361E-05, 0.0002593961
 207536119, 0.0001699148, 0.003368904, -0.0002513464, 0.0002593961
 207636079, 4.436378E-05, 0.003654195, 5.384674E-05, 0.0002593961
 207736039, -3.973846E-05, 0.003432101, -9.120631E-06, 0.0002593961
 207835999, 6.7428E-06, 0.003392591, 5.579623E-05, 0.0002593961
 207935959, 5.795248E-05, 0.003708241, -0.0001763914, 0.0002593961
 208035919, -0.0001424412, 0.003733826, 0.0001073098, 0.0002593961
 208135879, 3.037723E-05, 0.003491571, 7.221552E-05, 0.0002593961
 208235839, 0.0002123186, 0.00362549, -0.0001279295, 0.0002593961
 208335799, -0.0001538249, 0.00359074, 0.0002474069, 0.0002593961
 208435759, 1.181288E-05, 0.003539543, -9.003495E-05, 0.0002593961
 208535719, 0.000116121, 0.003635576, -0.0001196478, 0.0002593961
 208635679, -2.107102E-05, 0.003662304, -0.0001402842, 0.0002593961
 208736472, -3.118637E-05, 0.003780285, 6.418848E-06, 0.0002615578
 208836432, 0.0001639858, 0.003653209, -5.142776E-05, 0.0002593961
 208936392, 0.0001071426, 0.003646475, -0.0001247443, 0.0002593961
 209036352, 0.0002204301, 0.003450894, 0.000250903, 0.0002593961
 209136312, 0.0001364459, 0.00356236, -1.647765E-05, 0.0002593961
 209236272, 4.819392E-07, 0.003551621, 3.09272E-05, 0.0002593961
 209336232, 9.401971E-05, 0.003760908, -2.173389E-05, 0.0002593961
 209436192, -4.398787E-05, 0.003389951, -0.0001041973, 0.0002593961
 209536152, -0.0002091927, 0.003485861, -4.297206E-05, 0.0002593961
 209636112, 2.58938E-05, 0.003580502, 0.0001276125, 0.0002593961
 209736072, -5.677008E-05, 0.003424508, -9.490625E-05, 0.0002593961
 209836032, -7.471025E-05, 0.003759653, 5.144089E-05, 0.0002593961
 209935992, 7.637294E-05, 0.003496733, 0.0001022395, 0.0002593961
 210035952, 8.681539E-05, 0.003636132, -3.527303E-05, 0.0002593961
 210135912, -0.0001478897, 0.003528978, 1.29612E-05, 0.0002593961
 210235872, -4.950821E-05, 0.003596012, 0.0001915928, 0.0002593961
 210335832, 4.725853E-05, 0.003604186, -0.0001447075, 0.0002593961
 210435792, 1.509712E-05, 0.003516486, 6.408155E-05, 0.0002593961
 210535752, -0.0001207196, 0.003217599, 9.878493E-07, 0.0002593961
 210635712, 7.797575E-05, 0.003407313, -4.159693E-05, 0.0002593961
 210735672, -0.0001099571, 0.003529175, 0.0001198921, 0.0002593961
 210836465, 3.296557E-05, 0.003710134, -7.797142E-06, 0.0002615578
 210936425, -6.56436E-05, 0.003638249, 2.157302E-05, 0.0002593961
 211036385, 0.000190179, 0.003595533, -8.61061E-06, 0.0002593961
 211136345, -4.258776E-06, 0.003339625, -1.765737E-05, 0.0002593961
 211236305, -2.234084E-05, 0.003480916, -0.0002890062, 0.0002593961
 211336265, -0.000169145, 0.003494499, -0.0002024544, 0.0002593961
 211436225, -9.559304E-05, 0.003689594, 1.158251E-05, 0.0002593961
 211536185, -3.910324E-05, 0.00341691, -0.0003972908, 0.0002593961
 211636145, -5.679288E-05, 0.003532, -3.620726E-05, 0.0002593961
 211736105, -0.0001894206, 0.003502588, 4.139914E-05, 0.0002593961
 211836065, -0.0001748867, 0.003514465, -8.864312E-05, 0.0002593961
 211936025, 9.401759E-05, 0.003647377, 7.83273E-05, 0.0002593961
 212035985, 4.112548E-05, 0.003636318, -0.000107025, 0.0002593961
 212135945, 8.819296E-05, 0.003365155, -6.473216E-05, 0.0002593961
 212235905, 1.490881E-06, 0.003586968, 0.0001723267, 0.0002593961
 212335865, -1.766464E-05, 0.003582558, 1.337709E-05, 0.0002593961
 212435825, 0.0001611409, 0.003319498, -0.0001416367, 0.0002593961
 212535785, -2.786718E-05, 0.00359616, 9.097037E-05, 0.0002593961
 212635745, 8.605421E-05, 0.003430511, -4.049106E-06, 0.0002593961
 212735705, -0.0001168906, 0.003439548, -5.945806E-05, 0.0002593961
 212835665, -0.0002109508, 0.00345109, -6.982989E-05, 0.0002593961
 212936458, 0.0001079222, 0.00347201, -0.000210406, 0.0002615578
 213036418, -9.849211E-05, 0.003477416, -0.0002527156, 0.0002593961
 213136378, 0.0001486993, 0.003627478, 8.07582E-05, 0.0002593961
 213236338, -1.29243E-05, 0.003654991, 0.0001266426, 0.0002593961
 213336298, 3.144261E-05, 0.003496043, -2.676608E-05, 0.0002593961
 213436258, 1.772641E-05, 0.003545165, -6.35477E-05, 0.0002593961
 213536218, -1.157317E-05, 0.003554467, -6.398263E-05, 0.0002593961
 213636178, 2.797706E-05, 0.003376865, -0.0001773959, 0.0002593961
 213736138, -9.355329E-05, 0.003564888, -4.036243E-05, 0.0002593961
 213836098, 6.534855E-05, 0.003438132, -7.150294E-05, 0.0002593961
 213936058, 0.0001038033, 0.00360326, -7.256466E-05, 0.0002593961
 214036018, 0.0002231687, 0.003723773, 6.470594E-05, 0.0002593961
 214135978, 2.055929E-05, 0.003711179, -2.590335E-05, 0.0002593961
 214235938, 4.560505E-05, 0.003525047, -1.724984E-05, 0.0002593961
 214335898, 0.0004524729, 0.003512133, 8.175559E-05, 0.0002593961
 214435858, 8.94059E-05, 0.00355033, -3.508714E-05, 0.0002593961
 214535818, 0.0001535878, 0.003637612, -0.00018142, 0.0002593961
 214635778, 6.849085E-05, 0.003635773, -9.19451E-05, 0.0002593961
 214735738, 4.225185E-05, 0.003792957, -1.397527E-05, 0.0002593961
 214835698, 0.0001047342, 0.003714963, -7.819743E-05, 0.0002593961
 214935658, 4.373779E-06, 0.003578863, -0.0003351397, 0.0002593961
 215036451, 7.292289E-05, 0.003568372, -0.0002026136, 0.0002615578
 215136411, -0.0001099682, 0.003716686, -2.594148E-05, 0.0002593961
 215236371, -7.786845E-06, 0.003714521, -8.049372E-06, 0.0002593961
 215336331, -5.327017E-05, 0.003519413, -4.692593E-06, 0.0002593961
 215436291, 0.0001106115, 0.003296446, 1.737735E-05, 0.0002593961
 215536251, -4.01533E-05, 0.003594388, -8.786618E-05, 0.0002593961
 215636211, 1.256801E-05, 0.003487495, 2.40778E-05, 0.0002593961
 215736171, 0.0002622875, 0.003421012, -0.0001285349, 0.0002593961
 215836131, 0.0001570871, 0.003408605, 0.0001101172, 0.0002593961
 215936091, 0.0001181009, 0.003415527, -6.098929E-05, 0.0002593961
 216036051, 6.190847E-06, 0.003422609, -5.816268E-06, 0.0002593961
 216136011, -1.098602E-06, 0.00354441, -7.591546E-05, 0.0002593961
 216235971, 7.035826E-05, 0.003393869, 8.248247E-05, 0.0002593961
 216335931, 0.0002244397, 0.00328424, -0.0002083791, 0.0002593961
 216435891, 0.00012113, 0.003722492, -0.0001115722, 0.0002593961
 216535851, -8.109436E-05, 0.003453324, -0.0001127793, 0.0002593961
 216635811, -9.948613E-05, 0.003460017, 8.61455E-05, 0.0002593961
 216735771, -0.0002362707, 0.003496752, -0.0002023996, 0.0002593961
 216835731, 3.877611E-05, 0.003366122, -0.0002588047, 0.0002593961
 216935691, 1.013692E-06, 0.003495004, -0.00028199, 0.0002593961
 217036484, 6.704396E-05, 0.00347451, -0.0002479645, 0.0002615578
 217136444, 2.105848E-05, 0.003423756, -8.423533E-05, 0.0002593961
 217236404, 0.0001510141, 0.00353889, 0.0001641249, 0.0002593961
 217336364, 1.414831E-05, 0.003451188, 5.90827E-05, 0.0002593961
 217436324, 2.495491E-05, 0.003459051, -0.0002043646, 0.0002593961
 217536284, -0.0001988108, 0.003507884, 2.40361E-05, 0.0002593961
 217636244, -0.0001301255, 0.003453949, -0.0001210408, 0.0002593961
 217736204, -0.0001105844, 0.003690361, 8.99956E-05, 0.0002593961
 217836164, -0.0001535223, 0.003651926, -3.171844E-05, 0.0002593961
 217936124, 9.313464E-05, 0.003523802, -0.0001949829, 0.0002593961
 218036084, -7.665763E-05, 0.003556022, -3.193293E-05, 0.0002593961
 218136044, -4.846455E-05, 0.003505548, -2.173627E-05, 0.0002593961
 218236004, 5.304972E-05, 0.003460618, -7.475603E-05, 0.0002593961
 218335964, 2.639943E-05, 0.00369647, 2.298628E-05, 0.0002593961
 218435924, 0.000201895, 0.003556792, -0.0001561112, 0.0002593961
 218535884, 3.026915E-05, 0.003522195, -0.0003301456, 0.0002593961
 218635844, -6.153937E-05, 0.003544733, -7.722863E-06, 0.0002593961
 218735804, 5.81962E-05, 0.003573224, -8.646963E-05, 0.0002593961
 218835764, 7.310606E-05, 0.003613407, -0.0001942716, 0.0002593961
 218935724, -4.751603E-05, 0.003676823, 2.376439E-05, 0.0002593961
 219035684, -4.683861E-05, 0.003573817, -0.0001686101, 0.0002593961
 219136477, 0.000209671, 0.003919132, -0.000158222, 0.0002615578
 219236437, 7.12158E-05, 0.003611724, -7.375507E-05, 0.0002593961
 219336397, 5.542246E-05, 0.003480109, 0.0001181392, 0.0002593961
 219436357, 0.0002157528, 0.003588746, -0.000156719, 0.0002593961
 219536317, 3.757938E-05, 0.003491494, -0.0003679854, 0.0002593961
 219636277, -6.00272E-05, 0.003430307, 4.99311E-05, 0.0002593961
 219736237, -4.976838E-06, 0.003687817, -0.000149555, 0.0002593961
 219836197, 0.0001082611, 0.003554383, -2.017645E-05, 0.0002593961
 219936157, -1.45141E-05, 0.003488008, -0.0002042633, 0.0002593961
 220036117, 5.604266E-05, 0.003674271, 8.141111E-06, 0.0002593961
 220136077, 0.000115183, 0.003584975, -0.0001500602, 0.0002593961
 220236037, 8.760855E-06, 0.00323667, -4.615247E-05, 0.0002593961
 220335997, -7.153932E-05, 0.003515771, 2.891455E-05, 0.0002593961
 220435957, 5.122965E-05, 0.003618659, -1.862972E-05, 0.0002593961
 220535917, -2.322168E-05, 0.003500283, -4.172205E-05, 0.0002593961
 220635877, -6.907588E-05, 0.003775834, -8.140524E-05, 0.0002593961
 220735837, 6.482258E-05, 0.003523325, 0.0001180617, 0.0002593961
 220835797, -0.000164989, 0.003773393, -2.737857E-05, 0.0002593961
 220935757, 5.990658E-05, 0.003630872, -0.0002543898, 0.0002593961
 221035717, 4.569746E-05, 0.003551684, 5.386819E-05, 0.0002593961
 221135677, 0.0002400882, 0.003529545, -2.181613E-05, 0.0002593961
 221236470, -1.881186E-05, 0.003502173, -0.0002906641, 0.0002615578
 221336430, -0.0001296404, 0.003509573, -0.0003268484, 0.0002593961
 221436390, 0.0001024889, 0.003643618, -0.0001024539, 0.0002593961
 221536350, 8.348557E-05, 0.003557868, 8.512547E-05, 0.0002593961
 221636310, 0.0002050933, 0.003477536, -0.003901233, 0.0002593961
 221736270, 0.0002691154, 0.003678164, -0.1691794, 0.0002593961
 221836230, 0.0001921396, 0.003846468, -0.1287556, 0.0002593961
 221936190, 1.999133E-05, 0.003622844, -0.001907454, 0.0002593961
 222036150, -6.445597E-05, 0.003512067, 0.05350461, 0.0002593961
 222136110, -5.579304E-05, 0.003487965, 0.05048361, 0.0002593961
 222236070, 1.108965E-05, 0.003539009, -0.09727851, 0.0002593961
 222336030, -0.0006839583, 0.002716091, -0.6596327, 0.0002593961
 222435990, -0.003215922, 0.0001106478, -0.6422066, 0.0002593961
 222535950, -0.005829117, -0.00265897, -0.3529623, 0.0002593961
 222635910, -0.007067182, -0.004283631, -0.1273588, 0.0002593961
 222735870, -0.007437458, -0.004637314, -0.05070357, 0.0002593961
 222835830, -0.007338572, -0.004238642, -0.0685422, 0.0002593961
 222935790, -0.007154999, -0.003926102, -0.1058826, 0.0002593961
 223035750, -0.00670176, -0.003162416, -0.1241997, 0.0002593961
 223135710, -0.006153998, -0.002656859, -0.1204593, 0.0002593961
 223235670, -0.005819581, -0.002011345, -0.107154, 0.0002593961
 223336463, -0.005323619, -0.001452877, -0.09501466, 0.0002615578
 223436423, -0.004855172, -0.0008987391, -0.08564048, 0.0002593961
 223536383, -0.004313659, -0.0003485189, -0.08050979, 0.0002593961
 223636343, -0.004133175, 0.000161437, -0.07640228, 0.0002593961
 223736303, -0.003651766, 0.0006504517, -0.07242981, 0.0002593961
 223836263, -0.003431828, 0.001158881, -0.06800796, 0.0002593961
 223936223, -0.003129314, 0.001510337, -0.06345041, 0.0002593961
 224036183, -0.002841031, 0.001807849, -0.05935505, 0.0002593961
 224136143, -0.002464502, 0.002071679, -0.05553531, 0.0002593961
 224236103, -0.002199383, 0.002225494, -0.0520248, 0.0002593961
 224336063, -0.001935681, 0.002299989, -0.04888369, 0.0002593961
 224436023, -0.001759176, 0.002526918, -0.04574264, 0.0002593961
 224535983, -0.001604896, 0.002532686, -0.04283477, 0.0002593961
 224635943, -0.001234142, 0.00262241, -0.04028962, 0.0002593961
 224735903, -0.0009110189, 0.002700828, -0.03753996, 0.0002593961
 224835863, -0.0009209858, 0.002733169, -0.03468664, 0.0002593961
 224935823, -0.0008141736, 0.002780446, -0.0324084, 0.0002593961
 225035783, -0.0009048357, 0.002929013, -0.03053667, 0.0002593961
 225135743, -0.0007537915, 0.002791315, -0.02886623, 0.0002593961
 225235703, -0.0008418996, 0.002651628, -0.02724622, 0.0002593961
 225335663, -0.0008804802, 0.002599431, -0.02550501, 0.0002593961
 225436456, -0.0009759299, 0.002299137, -0.02420814, 0.0002615578
 225536416, -0.0009869077, 0.002335913, 0.002774211, 0.0002593961
 225636376, 0.0003588428, 0.003692804, 0.291601, 0.0002593961
 225736336, 0.0004052134, 0.003420373, 0.2710491, 0.0002593961
 225836296, 0.0005421123, 0.003224291, 0.2530549, 0.0002593961
 225936256, 0.0004539549, 0.00284002, 0.2368304, 0.0002593961
 226036216, 0.0003569885, 0.002775132, 0.2213226, 0.0002593961
 226136176, 0.0005069631, 0.002713928, 0.2055944, 0.0002593961
 226236136, 0.0005105794, 0.002570185, 0.1656753, 0.0002593961
 226336096, 0.001193757, 0.003498758, 0.1586248, 0.0002593961
 226436056, 0.003234521, 0.005996068, 0.1433406, 0.0002593961
 226536016, 0.005708649, 0.008949871, 0.1238074, 0.0002593961
 226635976, 0.01187954, 0.01185922, 0.09483403, 0.0002593961
 226735936, 0.030442, 0.01441531, 0.07486668, 0.0002593961
 226835896, 0.06011486, 0.01687943, 0.05883575, 0.0002593961
 226935856, 0.09278042, 0.01853191, 0.04560457, 0.0002593961
 227035816, 0.1209838, 0.0193332, 0.03569187, 0.0002593961
 227135776, 0.1391927, 0.01960638, 0.02716669, 0.0002593961
 227235736, 0.1455738, 0.01886727, 0.01880403, 0.0002593961
 227335696, 0.1424664, 0.0178185, 0.0105254, 0.0002593961
 227435656, 0.1328945, 0.01643801, 0.001957444, 0.0002593961
 227536449, 0.1226024, 0.0151241, -0.005653388, 0.0002615578
 227636409, 0.1130164, 0.01441303, -0.01282866, 0.0002593961
 227736369, 0.1085204, 0.01941787, -0.01808332, 0.0002593961
 227836329, 0.1073336, 0.03204498, -0.02109926, 0.0002593961
 227936289, 0.1090524, 0.04723999, -0.02694742, 0.0002593961
 228036249, 0.1115296, 0.05833451, -0.03485418, 0.0002593961
 228136209, 0.1127535, 0.06035306, -0.04247284, 0.0002593961
 228236169, 0.1131655, 0.05302889, -0.04865037, 0.0002593961
 228336129, 0.113623, 0.0386453, -0.05264945, 0.0002593961
 228436089, 0.1151515, 0.02121497, -0.05348822, 0.0002593961
 228536049, 0.116283, 0.004262717, -0.05125104, 0.0002593961
 228636009, 0.1163671, -0.009605577, -0.0483609, 0.0002593961
 228735969, 0.1131689, -0.02025208, -0.04502857, 0.0002593961
 228835929, 0.1068328, -0.02811884, -0.04134836, 0.0002593961
 228935889, 0.09830017, -0.03348227, -0.03772077, 0.0002593961
 229035849, 0.08877089, -0.03629885, -0.03416833, 0.0002593961
 229135809, 0.07968782, -0.03678974, -0.03037399, 0.0002593961
 229235769, 0.07244125, -0.03936554, -0.02553044, 0.0002593961
 229335729, 0.06795999, -0.04535545, -0.02142398, 0.0002593961
 229435689, 0.0654125, -0.05145181, -0.01952988, 0.0002593961
 229536482, 0.06310005, -0.05350259, -0.01962896, 0.0002615578
 229636442, 0.05816594, -0.04744937, -0.01936529, 0.0002593961
 229736402, 0.05233331, -0.0346512, -0.01926539, 0.0002593961
 229836362, 0.047257, -0.01566653, -0.01815249, 0.0002593961
 229936322, 0.04447725, 0.005379164, -0.01623795, 0.0002593961
 230036282, 0.04339862, 0.02550288, -0.01270465, 0.0002593961
 230136242, 0.04091501, 0.04155588, 0.0003319082, 0.0002593961
 230236202, 0.03625733, 0.05213397, 0.006519265, 0.0002593961
 230336162, 0.02859559, 0.05720548, 0.009653387, 0.0002593961
 230436122, 0.01959779, 0.05752014, 0.01157628, 0.0002593961
 230536082, 0.01162835, 0.0542153, 0.01289212, 0.0002593961
 230636042, 0.006567783, 0.04808141, 0.01315993, 0.0002593961
 230736002, 0.004401934, 0.03998625, 0.01318498, 0.0002593961
 230835962, 0.005053612, 0.03136604, 0.0129624, 0.0002593961
 230935922, 0.006859947, 0.02279903, 0.01229513, 0.0002593961
 231035882, 0.008776892, 0.0152767, 0.01166592, 0.0002593961
 231135842, 0.00975978, 0.00876913, 0.01075595, 0.0002593961
 231235802, 0.009683385, 0.003754968, 0.009738537, 0.0002593961
 231335762, 0.008799361, 7.014506E-05, 0.008514327, 0.0002593961
 231435722, 0.007187233, -0.001817852, 0.007290439, 0.0002593961
 231535682, 0.005594917, -0.002554917, 0.005753649, 0.0002593961
 231636475, 0.004290489, -0.00235663, 0.005257478, 0.0002615578
 231736435, 0.003082013, -0.0004241857, 0.004093017, 0.0002593961
 231836395, 0.002153807, 0.002148119, 0.00321725, 0.0002593961
 231936355, 0.001543615, 0.005103199, 0.002399236, 0.0002593961
 232036315, 0.001252976, 0.007637796, 0.002020078, 0.0002593961
 232136275, 0.0008224612, 0.009820439, 0.001647671, 0.0002593961
 232236235, 0.0004727234, 0.01131141, 0.001345997, 0.0002593961
 232336195, 0.0001656615, 0.01217979, 0.001045348, 0.0002593961
 232436155, -0.0001156406, 0.01207966, 0.0008880327, 0.0002593961
 232536115, -0.0001766224, 0.01125222, 7.993479E-05, 0.0002593961
 232636075, -0.0005496457, 0.01044704, 0.0005795163, 0.0002593961
 232736035, -0.004349511, 0.008493919, 0.01776684, 0.0002593961
 232835995, -0.003813714, 0.00680539, 0.01586949, 0.0002593961
 232935955, -0.00141858, 0.005142517, 0.007321839, 0.0002593961
 233035915, 0.0002354621, 0.003910266, 0.002388727, 0.0002593961
 233135875, 0.001431439, 0.002412147, -0.001396319, 0.0002593961
 233235835, 0.001703683, 0.001156963, -0.003706808, 0.0002593961
 233335795, 0.001171019, 0.0003459499, -0.00522885, 0.0002593961
 233435755, 0.0004314872, 2.845724E-05, -0.006530231, 0.0002593961
 233535715, -0.000396414, 0.0001558242, -0.006667618, 0.0002593961
 233635675, -0.001289986, 0.0005481696, -0.00651215, 0.0002593961
 233736468, -0.001605905, 0.001447614, -0.005970274, 0.0002615578
 233836428, -0.00131444, 0.002399304, -0.005532389, 0.0002593961
 233936388, -0.001240155, 0.0031479, -0.004554838, 0.0002593961
 234036348, -0.0009318615, 0.003443172, -0.004338009, 0.0002593961
 234136308, -0.000902376, 0.003614592, -0.003678319, 0.0002593961
 234236268, -0.001188966, 0.00378361, -0.003120877, 0.0002593961
 234336228, -0.001596587, 0.003623238, -0.002262743, 0.0002593961
 234436188, -0.001813924, 0.003540999, -0.001862591, 0.0002593961
 234536148, -0.002373868, 0.003381779, -0.001481306, 0.0002593961
 234636108, -0.002292352, 0.002663571, -0.001422201, 0.0002593961
 234736068, -0.002055696, 0.001778916, -0.001194302, 0.0002593961
 234836028, -0.001946185, 0.001162053, -0.0007072372, 0.0002593961
 234935988, -0.001792254, 0.0005802159, -0.0005338892, 0.0002593961
 235035948, -0.001723866, 0.0001131325, -0.0001862794, 0.0002593961
 235135908, -0.001712886, 0.0003695172, -0.0002447437, 0.0002593961
 235235868, -0.001625317, 0.0007570887, -0.0003811647, 0.0002593961
 235335828, -0.002255231, 0.001202412, -7.613951E-05, 0.0002593961
 235435788, -0.002450259, 0.001297498, -0.0004246133, 0.0002593961
 235535748, -0.002579058, 0.00138184, -0.0002980637, 0.0002593961
 235635708, -0.002653169, 0.00117112, -0.0004942049, 0.0002593961
 235735668, -0.002357265, 0.001095816, -0.0003205161, 0.0002593961
 235836461, -0.002208194, 0.001077962, -0.0002533201, 0.0002615578
 235936421, -0.002153769, 0.001026922, -0.0005199164, 0.0002593961
 236036381, -0.002384532, 0.001028231, -0.000566567, 0.0002593961
 236136341, -0.002742457, 0.001863777, -0.0003159236, 0.0002593961
 236236301, -0.002728122, 0.002620741, -0.001126879, 0.0002593961
 236336261, -0.002899672, 0.003031819, -0.0007779548, 0.0002593961
 236436221, -0.002961902, 0.003101905, -0.0007403439, 0.0002593961
 236536181, -0.002996759, 0.003182306, -0.00047466, 0.0002593961
 236636141, -0.003057003, 0.003118086, -0.0005709248, 0.0002593961
 236736101, -0.003143081, 0.003363417, -0.0002023615, 0.0002593961
 236836061, -0.003031176, 0.003563195, -0.000484952, 0.0002593961
 236936021, -0.003142344, 0.003686807, -0.000572382, 0.0002593961
 237035981, -0.003032661, 0.003894033, -0.0003921752, 0.0002593961
 237135941, -0.003016824, 0.003655718, -0.0001313768, 0.0002593961
 237235901, -0.002977608, 0.003748715, -0.0004015639, 0.0002593961
 237335861, -0.002681297, 0.003926622, -0.0003414623, 0.0002593961
 237435821, -0.002618095, 0.003994098, -0.0004252877, 0.0002593961
 237535781, -0.002501715, 0.004076959, -0.0004802904, 0.0002593961
 237635741, -0.001952612, 0.004263982, -0.0007398281, 0.0002593961
 237735701, -0.002274026, 0.004345112, -6.616447E-05, 0.0002593961
 237835661, -0.002483546, 0.004366103, -0.0007760651, 0.0002593961
 237936454, -0.002989039, 0.004295545, -0.0002671539, 0.0002615578
 238036414, -0.002993328, 0.004234305, -0.0005013891, 0.0002593961
 238136374, -0.003148144, 0.004226833, -0.000198845, 0.0002593961
 238236334, -0.003044908, 0.004325261, -0.0006178137, 0.0002593961
 238336294, -0.00303156, 0.004500943, -0.000432658, 0.0002593961
 238436254, -0.00325237, 0.004512209, -0.0006690269, 0.0002593961
 238536214, -0.003419661, 0.004393858, -0.0002571401, 0.0002593961
 238636174, -0.003138694, 0.004457167, -0.0009939817, 0.0002593961
 238736134, -0.003238475, 0.004286087, -6.007768E-05, 0.0002593961
 238836094, -0.003278347, 0.004434466, -0.0006815232, 0.0002593961
 238936054, -0.003452951, 0.004652401, -0.000190232, 0.0002593961
 239036014, -0.003329143, 0.00445079, -0.0004784481, 0.0002593961
 239135974, -0.003593559, 0.004522258, -3.975229E-05, 0.0002593961
 239235934, -0.003292707, 0.004560331, -0.0005560295, 0.0002593961
 239335894, -0.003537045, 0.004698787, 8.274463E-05, 0.0002593961
 239435854, -0.003496634, 0.004600403, -0.0005592791, 0.0002593961
 239535814, -0.003679133, 0.004335087, -1.382752E-05, 0.0002593961
 239635774, -0.003615392, 0.00429166, -0.001023683, 0.0002593961
 239735734, -0.002644819, 0.004385391, -0.0004737628, 0.0002593961
 239835694, -0.003129802, 0.004365528, -0.0009296989, 0.0002593961
 239935654, -0.003726689, 0.004178055, -0.0005857352, 0.0002593961
 240036447, -0.004831169, 0.004281894, -0.0008937545, 0.0002615578
 240136407, -0.005395379, 0.00417262, -0.0001957193, 0.0002593961
 240236367, -0.004047872, 0.004112562, -0.0008279564, 0.0002593961
 240336327, -0.003673357, 0.004339342, 5.911844E-05, 0.0002593961
 240436287, -0.003179461, 0.004125425, -0.0004099886, 0.0002593961
 240536247, -0.003054142, 0.003200144, -0.0001870015, 0.0002593961
 240636207, -0.001237042, 0.002407859, -0.0003617353, 0.0002593961
 240736167, -0.00189954, 0.00142762, -0.0004569967, 0.0002593961
 240836127, -0.00351759, -0.0003447898, -0.0005690634, 0.0002593961
 240936087, -0.005963264, -0.001239898, -8.375873E-05, 0.0002593961
 241036047, -0.005723343, -0.00193648, -0.0003297488, 0.0002593961
 241136007, -0.004256969, -0.002186403, -6.221902E-05, 0.0002593961
 241235967, -0.00313424, -0.002075926, 8.360378E-06, 0.0002593961
 241335927, -0.002590429, -0.001585764, 0.0001427234, 0.0002593961
 241435887, -0.0023722, -0.001111884, -0.0003678721, 0.0002593961
 241535847, -0.001728438, -0.0002732822, -0.0001445966, 0.0002593961
 241635807, -0.00333014, 3.120991E-05, -4.144322E-05, 0.0002593961
 241735767, -0.005174347, 0.0007868488, -0.0001653117, 0.0002593961
 241835727, -0.006224472, 0.001212081, -0.0002529646, 0.0002593961
 241935687, -0.005191237, 0.001270229, -0.0002041215, 0.0002593961
 242036480, -0.003609004, 0.001270246, -0.000232041, 0.0002615578
 242136440, -0.00260995, 0.001551384, -5.101786E-05, 0.0002593961
 242236400, -0.002392937, 0.001768286, 6.719641E-05, 0.0002593961
 242336360, -0.002480188, 0.00211239, 0.0001231059, 0.0002593961
 242436320, -0.002568128, 0.002270143, -8.952015E-05, 0.0002593961
 242536280, -0.003238051, 0.00246269, -8.215597E-05, 0.0002593961
 242636240, -0.003652945, 0.002806894, -0.0009797682, 0.0002593961
 242736200, -0.004098065, 0.002817665, -0.0002645149, 0.0002593961
 242836160, -0.00413654, 0.003060695, -0.0005764479, 0.0002593961
 242936120, -0.004668894, 0.003335433, 7.601207E-05, 0.0002593961
 243036080, -0.003852291, 0.003775834, -0.0004745349, 0.0002593961
 243136040, -0.003702119, 0.004111851, 0.0003296415, 0.0002593961
 243236000, -0.003375415, 0.00435511, -0.0007610352, 0.0002593961
 243335960, -0.003658103, 0.004407687, -0.000263489, 0.0002593961
 243435920, -0.003629441, 0.004879766, -0.000447913, 0.0002593961
 243535880, -0.004119968, 0.004984092, 0.0002663786, 0.0002593961
 243635840, -0.003691544, 0.004841154, -0.0003790912, 0.0002593961
 243735800, -0.003966205, 0.004784719, 9.850375E-05, 0.0002593961
 243835760, -0.003606569, 0.004909146, -0.0005889848, 0.0002593961
 243935720, -0.003562384, 0.004796864, -7.721672E-05, 0.0002593961
 244035680, -0.003606942, 0.005051078, -0.0004747291, 0.0002593961
 244136473, -0.003883339, 0.0051998, 0.0002890908, 0.0002615578
 244236433, -0.003623731, 0.005363089, -0.0002414726, 0.0002593961
 244336393, -0.003807185, 0.00549943, 0.0003725004, 0.0002593961
 244436353, -0.003625024, 0.005509504, -0.0003497739, 0.0002593961
 244536313, -0.003740445, 0.005317536, 0.0001232, 0.0002593961
 244636273, -0.003593458, 0.005469283, -0.0005852192, 0.0002593961
 244736233, -0.003995786, 0.005314935, 0.0007368883, 0.0002593961
 244836193, -0.003669816, 0.005276351, 2.320076E-05, 0.0002593961
 244936153, -0.003762284, 0.005220668, -2.283375E-05, 0.0002593961
 245036113, -0.003554201, 0.005122865, 6.003355E-06, 0.0002593961
 245136073, -0.003558698, 0.005069622, 0.0008071184, 0.0002593961
 245236033, -0.00328983, 0.005080856, -0.001063418, 0.0002593961
 245335993, -0.002789145, 0.004734713, -0.0005705386, 0.0002593961
 245435953, -0.00560155, 0.004570902, -0.0004735375, 0.0002593961
 245535913, -0.005115034, 0.004435393, -0.0004492154, 0.0002593961
 245635873, -0.004644377, 0.004370593, -0.0002651071, 0.0002593961
 245735833, -0.004182336, 0.004369919, -0.0001220846, 0.0002593961
 245835793, -0.003891963, 0.004343786, -0.0001825425, 0.0002593961
 245935753, -0.003528203, 0.004433719, -0.0002055478, 0.0002593961
 246035713, -0.003150383, 0.004427266, -0.0003818569, 0.0002593961
 246135673, -0.003277235, 0.00407911, -0.0003309607, 0.0002593961
 246236466, -0.003260317, 0.002953071, -0.0002717988, 0.0002615578
 246336426, -0.00339755, 0.001408079, -0.0002027571, 0.0002593961
 246436386, -0.003398371, -5.462694E-05, -0.0001548612, 0.0002593961
 246536346, -0.003508915, -0.0008825879, -0.0001032774, 0.0002593961
 246636306, -0.003459197, -0.001367143, -0.0004142129, 0.0002593961
 246736266, -0.00297604, -0.0009252724, -0.0001219119, 0.0002593961
 246836226, -0.001629732, -0.0005703051, -0.0003312061, 0.0002593961
 246936186, -0.003575263, -2.496282E-05, -0.0001320275, 0.0002593961
 247036146, -0.00476465, 0.0003962016, -0.0001708217, 0.0002593961
 247136106, -0.005274561, 0.000811037, 6.281248E-05, 0.0002593961
 247236066, -0.004795815, 0.0007726746, -0.0003539684, 0.0002593961
 247336026, -0.004439425, 0.0006905364, 0.0001452723, 0.0002593961
 247435986, -0.003757549, 0.0006263299, -0.0002002892, 0.0002593961
 247535946, -0.003565954, 0.0005455552, 0.0004215961, 0.0002593961
 247635906, -0.003721307, 0.0007163479, -0.0002650309, 0.0002593961
 247735866, -0.003752797, 0.001397148, 0.0003621762, 0.0002593961
 247835826, -0.003502064, 0.001967046, -0.0004874496, 0.0002593961
 247935786, -0.003614205, 0.002254586, 7.603464E-05, 0.0002593961
 248035746, -0.003526527, 0.002543363, -0.0004898507, 0.0002593961
 248135706, -0.003628776, 0.002763171, 0.0001108084, 0.0002593961
 248235666, -0.003589541, 0.003122396, -0.0002492658, 0.0002593961
 248336459, -0.011563, 0.003061067, 0.032576, 0.0002615578
 248436419, -0.02751764, 0.002858987, 0.06284302, 0.0002593961
 248536379, -0.04887051, 0.002781763, 0.07901527, 0.0002593961
 248636339, -0.0716617, 0.002714106, 0.09215731, 0.0002593961
 248736299, -0.08949047, 0.002754031, 0.1032595, 0.0002593961
 248836259, -0.09969153, 0.002872888, 0.1126376, 0.0002593961
 248936219, -0.1028144, 0.003275908, 0.1197271, 0.0002593961
 249036179, -0.1020644, 0.003389327, 0.1262748, 0.0002593961
 249136139, -0.09984078, 0.003035346, 0.1440605, 0.0002593961
 249236099, -0.08631011, 0.00139324, 0.1556877, 0.0002593961
 249336059, -0.06193753, -0.001598633, 0.1561176, 0.0002593961
 249436019, -0.03470927, -0.005108591, 0.1517029, 0.0002593961
 249535979, -0.0117302, -0.007821943, 0.1433125, 0.0002593961
 249635939, 0.004459379, -0.009539437, 0.1329061, 0.0002593961
 249735899, 0.01452417, -0.01025161, 0.1209707, 0.0002593961
 249835859, 0.02053017, -0.009997059, 0.1089602, 0.0002593961
 249935819, 0.02488019, -0.009304691, 0.09747982, 0.0002593961
 250035779, 0.02974901, -0.008538106, 0.08628113, 0.0002593961
 250135739, 0.03565243, -0.007467511, 0.07503022, 0.0002593961
 250235699, 0.04203716, -0.006860449, 0.06465366, 0.0002593961
 250335659, 0.04738843, -0.006291781, 0.05481398, 0.0002593961
 250436452, 0.05199001, -0.005864183, 0.04624697, 0.0002615578
 250536412, 0.05372982, -0.005291122, 0.03789965, 0.0002593961
 250636372, 0.05456172, -0.005268307, 0.03106956, 0.0002593961
 250736332, 0.0547997, -0.005324714, 0.02533712, 0.0002593961
 250836292, 0.05426205, -0.005383231, 0.02034853, 0.0002593961
 250936252, 0.05368719, -0.005412944, 0.01610572, 0.0002593961
 251036212, 0.05274244, -0.005404245, 0.01294646, 0.0002593961
 251136172, 0.05207657, -0.005189982, 0.0105413, 0.0002593961
 251236132, 0.05112905, -0.004777008, 0.008049972, 0.0002593961
 251336092, 0.04991744, -0.003969315, 0.006465687, 0.0002593961
 251436052, 0.0486651, -0.003168707, 0.005147964, 0.0002593961
 251536012, 0.04724513, -0.002084241, 0.004283183, 0.0002593961
 251635972, 0.04571781, -0.001225618, 0.00350999, 0.0002593961
 251735932, 0.04402789, -3.582164E-05, 0.002892914, 0.0002593961
 251835892, 0.04268986, 0.0009092285, 0.002536929, 0.0002593961
 251935852, 0.04072098, 0.001639807, 0.002387771, 0.0002593961
 252035812, 0.03907134, 0.002288496, 0.001886674, 0.0002593961
 252135772, 0.03720634, 0.003128512, 0.001473688, 0.0002593961
 252235732, 0.03557903, 0.003670786, 0.001314327, 0.0002593961
 252335692, 0.03382732, 0.003743124, 0.001144302, 0.0002593961
 252436485, 0.03267831, 0.004255613, 0.001353626, 0.0002615578
 252536445, 0.0308014, 0.004462294, 0.001452257, 0.0002593961
 252636405, 0.0296089, 0.004860254, 0.0009158976, 0.0002593961
 252736365, 0.02821006, 0.005094385, 0.0007021859, 0.0002593961
 252836325, 0.02673504, 0.005256116, 0.0008006968, 0.0002593961
 252936285, 0.02530968, 0.005402055, 0.00102711, 0.0002593961
 253036245, 0.0241747, 0.005819774, 0.0007840559, 0.0002593961
 253136205, 0.02312847, 0.006149691, 0.0003212788, 0.0002593961
 253236165, 0.02198146, 0.006438668, 0.0001677962, 0.0002593961
 253336125, 0.02100718, 0.006483701, -1.515021E-05, 0.0002593961
 253436085, 0.01987151, 0.006656956, 6.458557E-06, 0.0002593961
 253536045, 0.01890664, 0.00646338, 0.0001180665, 0.0002593961
 253636005, 0.01792744, 0.006421668, 6.264349E-06, 0.0002593961
 253735965, 0.01675336, 0.006459287, -9.024944E-05, 0.0002593961
 253835925, 0.01581822, 0.006410392, -0.0005338905, 0.0002593961
 253935885, 0.01490221, 0.006625064, -0.0004086028, 0.0002593961
 254035845, 0.01438966, 0.006715419, -0.0008521819, 0.0002593961
 254135805, 0.01342379, 0.006619932, -0.0002430373, 0.0002593961
 254235765, 0.01292348, 0.006895958, -0.0006978426, 0.0002593961
 254335725, 0.01248488, 0.006541526, -0.000622848, 0.0002593961
 254435685, 0.01185492, 0.006394442, -0.0003172439, 0.0002593961
 254536478, 0.01126724, 0.006259928, -0.0003578773, 0.0002615578
 254636438, 0.01042802, 0.005991646, -0.0004908851, 0.0002593961
 254736398, 0.00985354, 0.00567151, -0.0002002249, 0.0002593961
 254836358, 0.009181125, 0.00548873, -0.0005075284, 0.0002593961
 254936318, 0.008803176, 0.00540949, -0.0004958481, 0.0002593961
 255036278, 0.008339291, 0.005250155, -0.0006315017, 0.0002593961
 255136238, 0.007868513, 0.005062115, -0.0002021624, 0.0002593961
 255236198, 0.007696038, 0.004929567, -0.0004846064, 0.0002593961
 255336158, 0.007091024, 0.004775272, -7.190809E-05, 0.0002593961
 255436118, 0.006786143, 0.004727311, -0.0002245886, 0.0002593961
 255536078, 0.006523442, 0.00446237, -0.0001648887, 0.0002593961
 255636038, 0.006417684, 0.004430101, -0.0005425666, 0.0002593961
 255735998, 0.005973489, 0.00427084, -0.000331249, 0.0002593961
 255835958, 0.005622146, 0.004084853, -0.0005936084, 0.0002593961
 255935918, 0.005255659, 0.004182103, -0.0004037707, 0.0002593961
 256035878, 0.005004514, 0.004028392, -0.0003852518, 0.0002593961
 256135838, 0.00479059, 0.003794101, -0.0003876875, 0.0002593961
 256235798, 0.004614437, 0.003747011, -0.000278035, 0.0002593961
 256335758, 0.004243869, 0.003874063, -0.0003459583, 0.0002593961
 256435718, 0.003668766, 0.003774266, -0.0002222864, 0.0002593961
 256535678, 0.003566125, 0.003619569, -0.0001510147, 0.0002593961
 256636471, 0.003235294, 0.003775252, -4.04518E-05, 0.0002615578
 256736431, 0.002954326, 0.003588787, -0.0002420529, 0.0002593961
 256836391, 0.002772422, 0.003738594, -0.0001394834, 0.0002593961
 256936351, 0.002518419, 0.003638037, -0.000246599, 0.0002593961
 257036311, 0.002373425, 0.00350954, -0.0005063296, 0.0002593961
 257136271, 0.002119474, 0.003425847, -0.0002332362, 0.0002593961
 257236231, 0.002062863, 0.00348703, -0.0002281826, 0.0002593961
 257336191, 0.00200174, 0.003359057, -0.0002838644, 0.0002593961
 257436151, 0.001998432, 0.00310853, -0.0003203243, 0.0002593961
 257536111, 0.001942299, 0.002941446, -0.0004070477, 0.0002593961
 257636071, 0.001970609, 0.003084221, -0.0005124951, 0.0002593961
 257736031, 0.001820891, 0.003091311, -0.0001826295, 0.0002593961
 257835991, 0.001590418, 0.002917373, -0.0003205638, 0.0002593961
 257935951, 0.001532164, 0.00292663, -0.0002480766, 0.0002593961
 258035911, 0.001316548, 0.003243692, -0.0003390886, 0.0002593961
 258135871, 0.001268938, 0.003115602, -0.0005287438, 0.0002593961
 258235831, 0.001084778, 0.003105074, -0.001559603, 0.0002593961
 258335791, 0.0001014653, 0.003173124, -0.002463877, 0.0002593961
 258435751, -0.001447937, 0.003315406, -0.001701684, 0.0002593961
 258535711, -0.002244772, 0.003456515, -0.001927266, 0.0002593961
 258635671, -0.002871101, 0.003412918, -0.001605331, 0.0002593961
 258736464, -0.002835227, 0.003279142, -0.001784589, 0.0002615578
 258836424, -0.003138261, 0.003510673, -0.001491909, 0.0002593961
 258936384, -0.003031727, 0.003632345, -0.001516465, 0.0002593961
 259036344, -0.003149372, 0.003417741, -0.000956416, 0.0002593961
 259136304, -0.003147762, 0.003438968, -0.0009027766, 0.0002593961
 259236264, -0.003093254, 0.003298625, -0.0008217206, 0.0002593961
 259336224, -0.003160172, 0.003422632, -0.0008845616, 0.0002593961
 259436184, -0.003146587, 0.003223307, -0.000714655, 0.0002593961
 259536144, -0.003038098, 0.00338662, -0.0007402177, 0.0002593961
 259636104, -0.003263731, 0.003137443, -0.000441265, 0.0002593961
 259736064, -0.003244822, 0.003270943, -0.0002204847, 0.0002593961
 259836024, -0.003566806, 0.00330549, 0.0003456378, 0.0002593961
 259935984, -0.003293173, 0.003326878, 0.0001105927, 0.0002593961
 260035944, -0.003414738, 0.003358976, 0.0003261608, 0.0002593961
 260135904, -0.00322973, 0.00355044, 0.0001557311, 0.0002593961
 260235864, -0.003299048, 0.003460191, 0.0002390381, 0.0002593961
 260335824, -0.003269001, 0.003376299, -0.0002645674, 0.0002593961
 260435784, -0.003615976, 0.003480889, -3.832358E-05, 0.0002593961
 260535744, -0.003374798, 0.003515662, -0.0001308359, 0.0002593961
 260635704, -0.003467991, 0.003546031, -8.540558E-05, 0.0002593961
 260735664, -0.003510391, 0.003371221, -0.0002312951, 0.0002593961
 260836457, -0.003247895, 0.003598807, -9.058266E-05, 0.0002615578
 260936417, -0.003019903, 0.003474372, -0.0004730859, 0.0002593961
 261036377, -0.003317899, 0.003363737, -0.0002240762, 0.0002593961
 261136337, -0.003372492, 0.00366183, -0.0002052595, 0.0002593961
