TimeUS,CGpN,CGpE,CGpD,CGpe,PGpN,PGpE,PGpD,PGpe
 170360995, 0, 0, 0, 2.5, 0, 0, 0, 0
 170430967, 0, 0, 0, 2.5, 0, 0, 0, 2.5
 170630887, 0, 0, 0, 2.5, 0, 0, 0, 2.5
 170830807, 0, 0, 0, 2.5, 0, 0, 0, 2.5
 171030727, 0, 0, 0, 2.5, 0, 0, 0, 2.5
 171231480, 0, 0, 0, 2.5, 0, 0, 0, 2.5
 171431400, 0, 0, 0, 2.5, 0, 0, 0, 2.5
 171631320, 0, 0, 0, 2.5, 0, 0, 0, 2.5
 171831240, 0, 0, 0, 2.5, 0, 0, 0, 2.5
 172031160, 0, 0, 0, 2.5, 0, 0, 0, 2.5
 172231080, 0, 0, 0, 2.5, 0, 0, 0, 2.5
 172431000, 0, 0, 0, 2.5, 0, 0, 0, 2.5
 172630920, 0, 0, 0, 2.5, 0, 0, 0, 2.5
 172830840, 0, 0, 0, 2.5, 0, 0, 0, 2.5
 173030760, 0, 0, 0, 2.5, 0, 0, 0, 2.5
 173230680, 0, 0, 0, 2.5, 0, 0, 0, 2.5
 173431433, 0, 0, 0, 2.5, 0, 0, 0, 2.5
 173631353, 0, 0, 0, 2.5, 0, 0, 0, 2.5
 173831273, 0, 0, 0, 2.5, 0, 0, 0, 2.5
 174031193, 0, 0, 0, 2.5, 0, 0, 0, 2.5
 174231113, 0, 0, 0, 2.5, 0, 0, 0, 2.5
 174431033, 0, 0, 0, 2.5, 0, 0, 0, 2.5
 174630953, 0, 0, 0, 2.5, 0, 0, 0, 2.5
 174830873, 0, 0, 0, 2.5, 0, 0, 0, 2.5
 175030793, 0, 0, 0, 2.5, 0, 0, 0, 2.5
 175230713, 0, 0, 0, 2.5, 0, 0, 0, 2.5
 175431466, 0, 0, 0, 2.5, 0, 0, 0, 2.5
 175631386, 0, 0, 0, 2.5, 0, 0, 0, 2.5
 175831306, 0, 0, 0, 2.5, 0, 0, 0, 2.5
 176031226, 0, 0, 0, 2.5, 0, 0, 0, 2.5
 176231146, 0, 0, 0, 2.5, 0, 0, 0, 2.5
 176431066, 0, 0, 0, 2.5, 0, 0, 0, 2.5
 176630986, 0, 0, 0, 2.5, 0, 0, 0, 2.5
 176830906, 0, 0, 0, 2.5, 0, 0, 0, 2.5
 177030826, 0, 0, 0, 2.5, 0, 0, 0, 2.5
 177230746, 0, 0, 0, 2.5, 0, 0, 0, 2.5
 177430666, 0, 0, 0, 2.5, 0, 0, 0, 2.5
 177631419, 0, 0, 0, 2.5, 0, 0, 0, 2.5
 177831339, 0, 0, 0, 2.5, 0, 0, 0, 2.5
 178031259, 0, 0, 0, 2.5, 0, 0, 0, 2.5
 178231179, 0, 0, 0, 2.5, 0, 0, 0, 2.5
 178431099, 0, 0, 0, 2.5, 0, 0, 0, 2.5
 178631019, 0, 0, 0, 2.5, 0, 0, 0, 2.5
 178830939, 0, 0, 0, 2.5, 0, 0, 0, 2.5
 179030859, 0, 0, 0, 2.5, 0, 0, 0, 2.5
 179230779, 0, 0, 0, 2.5, 0, 0, 0, 2.5
 179430699, 0, 0, 0, 2.5, 0, 0, 0, 2.5
 179631452, 0, 0, 0, 2.5, 0, 0, 0, 2.5
 179831372, 0, 0, 0, 2.5, 0, 0, 0, 2.5
 180031292, 0, 0, 0, 2.5, 0, 0, 0, 2.5
 180231212, 0, 0, 0, 2.5, 0, 0, 0, 2.5
 180431132, 0, 0, 0, 2.5, 0, 0, 0, 2.5
 180631052, 0, 0, 0, 2.5, 0, 0, 0, 2.5
 180830972, 0, 0, 0, 2.5, 0, 0, 0, 2.5
 181030892, 0, 0, 0, 2.5, 0, 0, 0, 2.5
 181230812, 0, 0, 0, 2.5, 0, 0, 0, 2.5
 181430732, 0, 0, 0, 2.5, 0, 0, 0, 2.5
 181631485, 0, 0, 0, 2.5, 0, 0, 0, 2.5
 181831405, 0, 0, 0, 2.5, 0, 0, 0, 2.5
 182031325, 0, 0, 0, 2.5, 0, 0, 0, 2.5
 182231245, 0, 0, 0, 2.5, 0, 0, 0, 2.5
 182431165, 0, 0, 0, 2.5, 0, 0, 0, 2.5
 182631085, 0, 0, 0, 2.5, 0, 0, 0, 2.5
 182831005, 0, 0, 0, 2.5, 0, 0, 0, 2.5
 183030925, 0, 0, 0, 2.5, 0, 0, 0, 2.5
 183230845, 0, 0, 0, 2.5, 0, 0, 0, 2.5
 183430765, 0, 0, 0, 2.5, 0, 0, 0, 2.5
 183630685, 0, 0, 0, 2.5, 0, 0, 0, 2.5
 183831438, 0, 0, 0, 2.5, 0, 0, 0, 2.5
 184031358, 0, 0, 0, 2.5, 0, 0, 0, 2.5
 184231278, 0, 0, 0, 2.5, 0, 0, 0, 2.5
 184431198, 0, 0, 0, 2.5, 0, 0, 0, 2.5
 184631118, 0, 0, 0, 2.5, 0, 0, 0, 2.5
 184831038, 0, 0, 0, 2.5, 0, 0, 0, 2.5
 185030958, 0, 0, 0, 2.5, 0, 0, 0, 2.5
 185230878, 0, 0, 0, 2.5, 0, 0, 0, 2.5
 185430798, 0, 0, 0, 2.5, 0, 0, 0, 2.5
 185630718, 0, 0, 0, 2.5, 0, 0, 0, 2.5
 185831471, 0, 0, 0, 2.5, 0, 0, 0, 2.5
 186031391, 0, 0, 0, 2.5, 0, 0, 0, 2.5
 186231311, 0, 0, 0, 2.5, 0, 0, 0, 2.5
 186431231, 0, 0, 0, 2.5, 0, 0, 0, 2.5
 186631151, 0, 0, 0, 2.5, 0, 0, 0, 2.5
 186831071, 0, 0, 0, 2.5, 0, 0, 0, 2.5
 187030991, 0, 0, 0, 2.5, 0, 0, 0, 2.5
 187230911, 0, 0, 0, 2.5, 0, 0, 0, 2.5
 187430831, 0, 0, 0, 2.5, 0, 0, 0, 2.5
 187630751, 0, 0, 0, 2.5, 0, 0, 0, 2.5
 187830671, 0, 0, 0, 2.5, 0, 0, 0, 2.5
 188031424, 0, 0, 0, 2.5, 0, 0, 0, 2.5
 188231344, 0, 0, 0, 2.5, 0, 0, 0, 2.5
 188431264, 0, 0, 0, 2.5, 0, 0, 0, 2.5
 188631184, 0, 0, 0, 2.5, 0, 0, 0, 2.5
 188831104, 0, 0, 0, 2.5, 0, 0, 0, 2.5
 189031024, 0, 0, 0, 2.5, 0, 0, 0, 2.5
 189230944, 0, 0, 0, 2.5, 0, 0, 0, 2.5
 189430864, 0, 0, 0, 2.5, 0, 0, 0, 2.5
 189630784, 0, 0, 0, 2.5, 0, 0, 0, 2.5
 189830704, 0, 0, 0, 2.5, 0, 0, 0, 2.5
 190031457, 0, 0, 0, 2.5, 0, 0, 0, 2.5
 190231377, 0, 0, 0, 2.5, 0, 0, 0, 2.5
 190431297, 0, 0, 0, 2.5, 0, 0, 0, 2.5
 190631217, 0, 0, 0, 2.5, 0, 0, 0, 2.5
 190831137, 0, 0, 0, 2.5, 0, 0, 0, 2.5
 191031057, 0, 0, 0, 2.5, 0, 0, 0, 2.5
 191230977, 0, 0, 0, 2.5, 0, 0, 0, 2.5
 191430897, 0, 0, 0, 2.5, 0, 0, 0, 2.5
 191630817, 0, 0, 0, 2.5, 0, 0, 0, 2.5
 191830737, 0, 0, 0, 2.5, 0, 0, 0, 2.5
 192030657, 0, 0, 0, 2.5, 0, 0, 0, 2.5
 192231410, 0, 0, 0, 2.5, 0, 0, 0, 2.5
 192431330, 0, 0, 0, 2.5, 0, 0, 0, 2.5
 192631250, 0, 0, 0, 2.5, 0, 0, 0, 2.5
 192831170, 0, 0, 0, 2.5, 0, 0, 0, 2.5
 193031090, 0, 0, 0, 2.5, 0, 0, 0, 2.5
 193231010, 0, 0, 0, 2.5, 0, 0, 0, 2.5
 193430930, 0, 0, 0, 2.5, 0, 0, 0, 2.5
 193630850, 0, 0, 0, 2.5, 0, 0, 0, 2.5
 193830770, 0, 0, 0, 2.5, 0, 0, 0, 2.5
 194030690, 0, 0, 0, 2.5, 0, 0, 0, 2.5
 194231443, 0, 0, 0, 2.5, 0, 0, 0, 2.5
 194431363, 0, 0, 0, 2.5, 0, 0, 0, 2.5
 194631283, 0, 0, 0, 2.5, 0, 0, 0, 2.5
 194831203, 0, 0, 0, 2.5, 0, 0, 0, 2.5
 195031123, 0, 0, 0, 2.5, 0, 0, 0, 2.5
 195231043, 0, 0, 0, 2.5, 0, 0, 0, 2.5
 195430963, 0, 0, 0, 2.5, 0, 0, 0, 2.5
 195630883, 0, 0, 0, 2.5, 0, 0, 0, 2.5
 195830803, 0, 0, 0, 2.5, 0, 0, 0, 2.5
 196030723, 0, 0, 0, 2.5, 0, 0, 0, 2.5
 196231476, 0, 0, 0, 2.5, 0, 0, 0, 2.5
 196431396, 0, 0, 0, 2.5, 0, 0, 0, 2.5
 196631316, 0, 0, 0, 2.5, 0, 0, 0, 2.5
 196831236, 0, 0, 0, 2.5, 0, 0, 0, 2.5
 197031156, 0, 0, 0, 2.5, 0, 0, 0, 2.5
 197231076, 0, 0, 0, 2.5, 0, 0, 0, 2.5
 197430996, 0, 0, 0, 2.5, 0, 0, 0, 2.5
 197630916, 0, 0, 0, 2.5, 0, 0, 0, 2.5
 197830836, 0, 0, 0, 2.5, 0, 0, 0, 2.5
 198030756, 0, 0, 0, 2.5, 0, 0, 0, 2.5
 198230676, 0, 0, 0, 2.5, 0, 0, 0, 2.5
 198431429, 0, 0, 0, 2.5, 0, 0, 0, 2.5
 198631349, 0, 0, 0, 2.5, 0, 0, 0, 2.5
 198831269, 0, 0, 0, 2.5, 0, 0, 0, 2.5
 199031189, 0, 0, 0, 2.5, 0, 0, 0, 2.5
 199231109, 0, 0, 0, 2.5, 0, 0, 0, 2.5
 199431029, 0, 0, 0, 2.5, 0, 0, 0, 2.5
 199630949, 0, 0, 0, 2.5, 0, 0, 0, 2.5
 199830869, 0, 0, 0, 2.5, 0, 0, 0, 2.5
 200030789, 0, 0, 0, 2.5, 0, 0, 0, 2.5
 200230709, 0, 0, 0, 2.5, 0, 0, 0, 2.5
 200431462, 0, 0, 0, 2.5, 0, 0, 0, 2.5
 200631382, 0, 0, 0, 2.5, 0, 0, 0, 2.5
 200831302, 0, 0, 0, 2.5, 0, 0, 0, 2.5
 201031222, 0, 0, 0, 2.5, 0, 0, 0, 2.5
 201231142, 0, 0, 0, 2.5, 0, 0, 0, 2.5
 201431062, 0, 0, 0, 2.5, 0, 0, 0, 2.5
 201630982, 0, 0, 0, 2.5, 0, 0, 0, 2.5
 201830902, 0, 0, 0, 2.5, 0, 0, 0, 2.5
 202030822, 0, 0, 0, 2.5, 0, 0, 0, 2.5
 202230742, 0, 0, 0, 2.5, 0, 0, 0, 2.5
 202430662, 0, 0, 0, 2.5, 0, 0, 0, 2.5
 202631415, 0, 0, 0, 2.5, 0, 0, 0, 2.5
 202831335, 0, 0, 0, 2.5, 0, 0, 0, 2.5
 203031255, 0, 0, 0, 2.5, 0, 0, 0, 2.5
 203231175, 0, 0, 0, 2.5, 0, 0, 0, 2.5
 203431095, 0, 0, 0, 2.5, 0, 0, 0, 2.5
 203631015, 0, 0, 0, 2.5, 0, 0, 0, 2.5
 203830935, 0, 0, 0, 2.5, 0, 0, 0, 2.5
 204030855, 0, 0, 0, 2.5, 0, 0, 0, 2.5
 204230775, 0, 0, 0, 2.5, 0, 0, 0, 2.5
 204430695, 0, 0, 0, 2.5, 0, 0, 0, 2.5
 204631448, 0, 0, 0, 2.5, 0, 0, 0, 2.5
 204831368, 0, 0, 0, 2.5, 0, 0, 0, 2.5
 205031288, 0, 0, 0, 2.5, 0, 0, 0, 2.5
 205231208, 0, 0, 0, 2.5, 0, 0, 0, 2.5
 205431128, 0, 0, 0, 2.5, 0, 0, 0, 2.5
 205631048, 0, 0, 0, 2.5, 0, 0, 0, 2.5
 205830968, 0, 0, 0, 2.5, 0, 0, 0, 2.5
 206030888, 0, 0, 0, 2.5, 0, 0, 0, 2.5
 206230808, 0, 0, 0, 2.5, 0, 0, 0, 2.5
 206430728, 0, 0, 0, 2.5, 0, 0, 0, 2.5
 206631481, 0, 0, 0, 2.5, 0, 0, 0, 2.5
 206831401, 0, 0, 0, 2.5, 0, 0, 0, 2.5
 207031321, 0, 0, 0, 2.5, 0, 0, 0, 2.5
 207231241, 0, 0, 0, 2.5, 0, 0, 0, 2.5
 207431161, 0, 0, 0, 2.5, 0, 0, 0, 2.5
 207631081, 0, 0, 0, 2.5, 0, 0, 0, 2.5
 207831001, 0, 0, 0, 2.5, 0, 0, 0, 2.5
 208030921, 0, 0, 0, 2.5, 0, 0, 0, 2.5
 208230841, 0, 0, 0, 2.5, 0, 0, 0, 2.5
 208430761, 0, 0, 0, 2.5, 0, 0, 0, 2.5
 208630681, 0, 0, 0, 2.5, 0, 0, 0, 2.5
 208831434, 0, 0, 0, 2.5, 0, 0, 0, 2.5
 209031354, 0, 0, 0, 2.5, 0, 0, 0, 2.5
 209231274, 0, 0, 0, 2.5, 0, 0, 0, 2.5
 209431194, 0, 0, 0, 2.5, 0, 0, 0, 2.5
 209631114, 0, 0, 0, 2.5, 0, 0, 0, 2.5
 209831034, 0, 0, 0, 2.5, 0, 0, 0, 2.5
 210030954, 0, 0, 0, 2.5, 0, 0, 0, 2.5
 210230874, 0, 0, 0, 2.5, 0, 0, 0, 2.5
 210430794, 0, 0, 0, 2.5, 0, 0, 0, 2.5
 210630714, 0, 0, 0, 2.5, 0, 0, 0, 2.5
 210831467, 0, 0, 0, 2.5, 0, 0, 0, 2.5
 211031387, 0, 0, 0, 2.5, 0, 0, 0, 2.5
 211231307, 0, 0, 0, 2.5, 0, 0, 0, 2.5
 211431227, 0, 0, 0, 2.5, 0, 0, 0, 2.5
 211631147, 0, 0, 0, 2.5, 0, 0, 0, 2.5
 211831067, 0, 0, 0, 2.5, 0, 0, 0, 2.5
 212030987, 0, 0, 0, 2.5, 0, 0, 0, 2.5
 212230907, 0, 0, 0, 2.5, 0, 0, 0, 2.5
 212430827, 0, 0, 0, 2.5, 0, 0, 0, 2.5
 212630747, 0, 0, 0, 2.5, 0, 0, 0, 2.5
 212830667, 0, 0, 0, 2.5, 0, 0, 0, 2.5
 213031420, 0, 0, 0, 2.5, 0, 0, 0, 2.5
 213231340, 0, 0, 0, 2.5, 0, 0, 0, 2.5
 213431260, 0, 0, 0, 2.5, 0, 0, 0, 2.5
 213631180, 0, 0, 0, 2.5, 0, 0, 0, 2.5
 213831100, 0, 0, 0, 2.5, 0, 0, 0, 2.5
 214031020, 0, 0, 0, 2.5, 0, 0, 0, 2.5
 214230940, 0, 0, 0, 2.5, 0, 0, 0, 2.5
 214430860, 0, 0, 0, 2.5, 0, 0, 0, 2.5
 214630780, 0, 0, 0, 2.5, 0, 0, 0, 2.5
 214830700, 0, 0, 0, 2.5, 0, 0, 0, 2.5
 215031453, 0, 0, 0, 2.5, 0, 0, 0, 2.5
 215231373, 0, 0, 0, 2.5, 0, 0, 0, 2.5
 215431293, 0, 0, 0, 2.5, 0, 0, 0, 2.5
 215631213, 0, 0, 0, 2.5, 0, 0, 0, 2.5
 215831133, 0, 0, 0, 2.5, 0, 0, 0, 2.5
 216031053, 0, 0, 0, 2.5, 0, 0, 0, 2.5
 216230973, 0, 0, 0, 2.5, 0, 0, 0, 2.5
 216430893, 0, 0, 0, 2.5, 0, 0, 0, 2.5
 216630813, 0, 0, 0, 2.5, 0, 0, 0, 2.5
 216830733, 0, 0, 0, 2.5, 0, 0, 0, 2.5
 217031486, 0, 0, 0, 2.5, 0, 0, 0, 2.5
 217231406, 0, 0, 0, 2.5, 0, 0, 0, 2.5
 217431326, 0, 0, 0, 2.5, 0, 0, 0, 2.5
 217631246, 0, 0, 0, 2.5, 0, 0, 0, 2.5
 217831166, 0, 0, 0, 2.5, 0, 0, 0, 2.5
 218031086, 0, 0, 0, 2.5, 0, 0, 0, 2.5
 218231006, 0, 0, 0, 2.5, 0, 0, 0, 2.5
 218430926, 0, 0, 0, 2.5, 0, 0, 0, 2.5
 218630846, 0, 0, 0, 2.5, 0, 0, 0, 2.5
 218830766, 0, 0, 0, 2.5, 0, 0, 0, 2.5
 219030686, 0, 0, 0, 2.5, 0, 0, 0, 2.5
 219231439, 0, 0, 0, 2.5, 0, 0, 0, 2.5
 219431359, 0, 0, 0, 2.5, 0, 0, 0, 2.5
 219631279, 0, 0, 0, 2.5, 0, 0, 0, 2.5
 219831199, 0, 0, 0, 2.5, 0, 0, 0, 2.5
 220031119, 0, 0, 0, 2.5, 0, 0, 0, 2.5
 220231039, 0, 0, 0, 2.5, 0, 0, 0, 2.5
 220430959, 0, 0, 0, 2.5, 0, 0, 0, 2.5
 220630879, 0, 0, 0, 2.5, 0, 0, 0, 2.5
 220830799, 0, 0, 0, 2.5, 0, 0, 0, 2.5
 221030719, 0, 0, 0, 2.5, 0, 0, 0, 2.5
 221231472, 0, 0, 0, 2.5, 0, 0, 0, 2.5
 221431392, 0, 0, 0, 2.5, 0, 0, 0, 2.5
 221631312, 0, 0, 0, 2.5, 0, 0, 0, 2.5
 221831232, 0, 0, -0.018, 2.5, 0, 0, 0, 2.5
 222031152, 0, 0, -0.312, 2.5, 0, 0, -0.018, 2.5
 222231072, 0, 0, -0.241, 2.5, 0, 0, -0.312, 2.5
 222430992, 0, 0, -0.392, 2.5, 0, 0, -0.241, 2.5
 222630912, -0.006, -0.006, -1.703, 2.5, 0, 0, -0.392, 2.5
 222830832, -0.02, -0.021, -2.114, 2.5, -0.006, -0.006, -1.703, 2.5
 223030752, -0.035, -0.038, -2.24, 2.5, -0.02, -0.021, -2.114, 2.5
 223230672, -0.049, -0.053, -2.479, 2.5, -0.035, -0.038, -2.24, 2.5
 223431425, -0.061, -0.06500001, -2.704, 2.5, -0.049, -0.053, -2.479, 2.5
 223631345, -0.071, -0.075, -2.883, 2.5, -0.061, -0.06500001, -2.704, 2.5
 223831265, -0.08000001, -0.083, -3.04, 2.5, -0.071, -0.075, -2.883, 2.5
 224031185, -0.087, -0.08800001, -3.18, 2.5, -0.08000001, -0.083, -3.04, 2.5
 224231105, -0.094, -0.09200001, -3.303, 2.5, -0.087, -0.08800001, -3.18, 2.5
 224431025, -0.09900001, -0.09500001, -3.41, 2.5, -0.094, -0.09200001, -3.303, 2.5
 224630945, -0.104, -0.098, -3.504, 2.5, -0.09900001, -0.09500001, -3.41, 2.5
 224830865, -0.107, -0.1, -3.588, 2.5, -0.104, -0.098, -3.504, 2.5
 225030785, -0.109, -0.101, -3.659, 2.5, -0.107, -0.1, -3.588, 2.5
 225230705, -0.11, -0.103, -3.722, 2.5, -0.109, -0.101, -3.659, 2.5
 225431458, -0.112, -0.104, -3.778, 2.5, -0.11, -0.103, -3.722, 2.5
 225631378, -0.114, -0.107, -3.828, 2.5, -0.112, -0.104, -3.778, 2.5
 225831298, -0.114, -0.108, -3.623, 2.5, -0.114, -0.107, -3.828, 2.5
 226031218, -0.111, -0.108, -3.08, 2.5, -0.114, -0.108, -3.623, 2.5
 226231138, -0.109, -0.108, -2.606, 2.5, -0.111, -0.108, -3.08, 2.5
 226431058, -0.108, -0.11, -2.202, 2.5, -0.109, -0.108, -2.606, 2.5
 226630978, -0.115, -0.109, -1.829, 2.5, -0.108, -0.11, -2.202, 2.5
 226830898, -0.138, -0.09900001, -1.547, 2.5, -0.115, -0.109, -1.829, 2.5
 227030818, -0.123, -0.052, -1.363, 2.5, -0.138, -0.09900001, -1.547, 2.5
 227230738, 0.024, 0.072, -1.238, 2.5, -0.123, -0.052, -1.363, 2.5
 227430658, 0.276, 0.255, -1.15, 2.5, 0.024, 0.072, -1.238, 2.5
 227631411, 0.529, 0.417, -1.092, 2.5, 0.276, 0.255, -1.15, 2.5
 227831331, 0.731, 0.5, -1.063, 2.5, 0.529, 0.417, -1.092, 2.5
 228031251, 0.8930001, 0.549, -1.06, 2.5, 0.731, 0.5, -1.063, 2.5
 228231171, 1.049, 0.637, -1.075, 2.5, 0.8930001, 0.549, -1.06, 2.5
 228431091, 1.219, 0.771, -1.122, 2.5, 1.049, 0.637, -1.075, 2.5
 228631011, 1.408, 0.891, -1.198, 2.5, 1.219, 0.771, -1.122, 2.5
 228830931, 1.616, 0.966, -1.293, 2.5, 1.408, 0.891, -1.198, 2.5
 229030851, 1.831, 1.023, -1.396, 2.5, 1.616, 0.966, -1.293, 2.5
 229230771, 2.046, 1.062, -1.5, 2.5, 1.831, 1.023, -1.396, 2.5
 229430691, 2.27, 1.079, -1.593, 2.5, 2.046, 1.062, -1.5, 2.5
 229631444, 2.487, 1.086, -1.673, 2.5, 2.27, 1.079, -1.593, 2.5
 229831364, 2.66, 1.102, -1.741, 2.5, 2.487, 1.086, -1.673, 2.5
 230031284, 2.805, 1.125, -1.792, 2.5, 2.66, 1.102, -1.741, 2.5
 230231204, 2.973, 1.121, -1.831, 2.5, 2.805, 1.125, -1.792, 2.5
 230431124, 3.146, 1.107, -1.868, 2.5, 2.973, 1.121, -1.831, 2.5
 230631044, 3.277, 1.14, -1.901, 2.5, 3.146, 1.107, -1.868, 2.5
 230830964, 3.373, 1.228, -1.928, 2.5, 3.277, 1.14, -1.901, 2.5
 231030884, 3.461, 1.337, -1.921, 2.5, 3.373, 1.228, -1.928, 2.5
 231230804, 3.518, 1.431, -1.884, 2.5, 3.461, 1.337, -1.921, 2.5
 231430724, 3.529, 1.498, -1.84, 2.5, 3.518, 1.431, -1.884, 2.5
 231631477, 3.524, 1.548, -1.794, 2.5, 3.529, 1.498, -1.84, 2.5
 231831397, 3.533, 1.576, -1.751, 2.5, 3.524, 1.548, -1.794, 2.5
 232031317, 3.565, 1.571, -1.726, 2.5, 3.533, 1.576, -1.751, 2.5
 232231237, 3.596, 1.559, -1.721, 2.5, 3.565, 1.571, -1.726, 2.5
 232431157, 3.598, 1.569, -1.716, 2.5, 3.596, 1.559, -1.721, 2.5
 232631077, 3.577, 1.618, -1.701, 2.5, 3.598, 1.569, -1.716, 2.5
 232830997, 3.553, 1.688, -1.691, 2.5, 3.577, 1.618, -1.701, 2.5
 233030917, 3.533, 1.75, -1.679, 2.5, 3.553, 1.688, -1.691, 2.5
 233230837, 3.529, 1.776, -1.67, 2.5, 3.533, 1.75, -1.679, 2.5
 233430757, 3.541, 1.764, -1.67, 2.5, 3.529, 1.776, -1.67, 2.5
 233630677, 3.562, 1.724, -1.668, 2.5, 3.541, 1.764, -1.67, 2.5
 233831430, 3.582, 1.689, -1.671, 2.5, 3.562, 1.724, -1.668, 2.5
 234031350, 3.588, 1.666, -1.643, 2.5, 3.582, 1.689, -1.671, 2.5
 234231270, 3.603, 1.638, -1.637, 2.5, 3.588, 1.666, -1.643, 2.5
 234431190, 3.634, 1.586, -1.643, 2.5, 3.603, 1.638, -1.637, 2.5
 234631110, 3.665, 1.531, -1.658, 2.5, 3.634, 1.586, -1.643, 2.5
 234831030, 3.682, 1.498, -1.666, 2.5, 3.665, 1.531, -1.658, 2.5
 235030950, 3.684, 1.497, -1.663, 2.5, 3.682, 1.498, -1.666, 2.5
 235230870, 3.673, 1.533, -1.649, 2.5, 3.684, 1.497, -1.663, 2.5
 235430790, 3.658, 1.578, -1.631, 2.5, 3.673, 1.533, -1.649, 2.5
 235630710, 3.653, 1.604, -1.617, 2.5, 3.658, 1.578, -1.631, 2.5
 235831463, 3.655, 1.607, -1.602, 2.5, 3.653, 1.604, -1.617, 2.5
 236031383, 3.606, 1.58, -1.47, 2.5, 3.655, 1.607, -1.602, 2.5
 236231303, 3.481, 1.501, -1.276, 2.5, 3.606, 1.58, -1.47, 2.5
 236431223, 3.383, 1.363, -1.034, 2.5, 3.481, 1.501, -1.276, 2.5
 236631143, 3.377, 1.188, -0.786, 2.5, 3.383, 1.363, -1.034, 2.5
 236831063, 3.422, 1.02, -0.572, 2.5, 3.377, 1.188, -0.786, 2.5
 237030983, 3.481, 0.8710001, -0.4, 2.5, 3.422, 1.02, -0.572, 2.5
 237230903, 3.547, 0.7500001, -0.268, 2.5, 3.481, 0.8710001, -0.4, 2.5
 237430823, 3.62, 0.657, -0.173, 2.5, 3.547, 0.7500001, -0.268, 2.5
 237630743, 3.702, 0.575, -0.109, 2.5, 3.62, 0.657, -0.173, 2.5
 237830663, 3.787, 0.5, -0.068, 2.5, 3.702, 0.575, -0.109, 2.5
 238031416, 3.875, 0.433, -0.042, 2.5, 3.787, 0.5, -0.068, 2.5
 238231336, 3.967, 0.355, -0.026, 2.5, 3.875, 0.433, -0.042, 2.5
 238431256, 4.056, 0.258, -0.017, 2.5, 3.967, 0.355, -0.026, 2.5
 238631176, 4.135, 0.176, -0.013, 2.5, 4.056, 0.258, -0.017, 2.5
 238831096, 4.202, 0.126, -0.011, 2.5, 4.135, 0.176, -0.013, 2.5
 239031016, 4.262, 0.09200001, -0.008, 2.5, 4.202, 0.126, -0.011, 2.5
 239230936, 4.315, 0.064, -0.005, 2.5, 4.262, 0.09200001, -0.008, 2.5
 239430856, 4.361, 0.039, -0.003, 2.5, 4.315, 0.064, -0.005, 2.5
 239630776, 4.406, 0.02, 0, 2.5, 4.361, 0.039, -0.003, 2.5
 239830696, 4.453, 0.006, 0.002, 2.5, 4.406, 0.02, 0, 2.5
 240031449, 4.488, -0.009000001, 0.002, 2.5, 4.453, 0.006, 0.002, 2.5
 240231369, 4.504, -0.032, 0.001, 2.5, 4.488, -0.009000001, 0.002, 2.5
 240431289, 4.522, -0.057, 0.002, 2.5, 4.504, -0.032, 0.001, 2.5
 240631209, 4.561, -0.06900001, 0.004, 2.5, 4.522, -0.057, 0.002, 2.5
 240831129, 4.618, -0.07, 0.005, 2.5, 4.561, -0.06900001, 0.004, 2.5
 241031049, 4.671, -0.078, 0.005, 2.5, 4.618, -0.07, 0.005, 2.5
 241230969, 4.71, -0.105, 0.004, 2.5, 4.671, -0.078, 0.005, 2.5
 241430889, 4.738, -0.14, 0.003, 2.5, 4.71, -0.105, 0.004, 2.5
 241630809, 4.764, -0.163, 0.003, 2.5, 4.738, -0.14, 0.003, 2.5
 241830729, 4.795, -0.159, 0.004, 2.5, 4.764, -0.163, 0.003, 2.5
 242031482, 4.821, -0.133, 0.003, 2.5, 4.795, -0.159, 0.004, 2.5
 242231402, 4.834, -0.104, 0.002, 2.5, 4.821, -0.133, 0.003, 2.5
 242431322, 4.838, -0.086, 0.003, 2.5, 4.834, -0.104, 0.002, 2.5
 242631242, 4.847, -0.07600001, 0.005, 2.5, 4.838, -0.086, 0.003, 2.5
 242831162, 4.864, -0.07700001, 0.006, 2.5, 4.847, -0.07600001, 0.005, 2.5
 243031082, 4.872, -0.083, 0.005, 2.5, 4.864, -0.07700001, 0.006, 2.5
 243231002, 4.87, -0.07300001, 0.004, 2.5, 4.872, -0.083, 0.005, 2.5
 243430922, 4.869, -0.05, 0.004, 2.5, 4.87, -0.07300001, 0.004, 2.5
 243630842, 4.867, -0.024, 0.003, 2.5, 4.869, -0.05, 0.004, 2.5
 243830762, 4.855, -0.009000001, 0.001, 2.5, 4.867, -0.024, 0.003, 2.5
 244030682, 4.846, -0.013, 0.001, 2.5, 4.855, -0.009000001, 0.001, 2.5
 244231435, 4.835, -0.013, 0, 2.5, 4.846, -0.013, 0.001, 2.5
 244431355, 4.82, 0.001, 0.001, 2.5, 4.835, -0.013, 0, 2.5
 244631275, 4.814, 0.028, 0.003, 2.5, 4.82, 0.001, 0.001, 2.5
 244831195, 4.817, 0.052, 0.003, 2.5, 4.814, 0.028, 0.003, 2.5
 245031115, 4.819, 0.07700001, 0.002, 2.5, 4.817, 0.052, 0.003, 2.5
 245231035, 4.818, 0.098, 0.001, 2.5, 4.819, 0.07700001, 0.002, 2.5
 245430955, 4.815, 0.105, 0.001, 2.5, 4.818, 0.098, 0.001, 2.5
 245630875, 4.811, 0.09500001, 0, 2.5, 4.815, 0.105, 0.001, 2.5
 245830795, 4.809, 0.064, 0, 2.5, 4.811, 0.09500001, 0, 2.5
 246030715, 4.813, 0.018, 0, 2.5, 4.809, 0.064, 0, 2.5
 246231468, 4.822, -0.014, 0, 2.5, 4.813, 0.018, 0, 2.5
 246431388, 4.832, -0.026, 0, 2.5, 4.822, -0.014, 0, 2.5
 246631308, 4.845, -0.029, 0, 2.5, 4.832, -0.026, 0, 2.5
 246831228, 4.862, -0.042, 0, 2.5, 4.845, -0.029, 0, 2.5
 247031148, 4.889, -0.055, 0.001, 2.5, 4.862, -0.042, 0, 2.5
 247231068, 4.919, -0.045, 0, 2.5, 4.889, -0.055, 0.001, 2.5
 247430988, 4.938, -0.03, 0, 2.5, 4.919, -0.045, 0, 2.5
 247630908, 4.947, -0.041, 0, 2.5, 4.938, -0.03, 0, 2.5
 247830828, 4.955, -0.075, 0, 2.5, 4.947, -0.041, 0, 2.5
 248030748, 4.966, -0.109, 0.001, 2.5, 4.955, -0.075, 0, 2.5
 248230668, 4.97, -0.109, 0, 2.5, 4.966, -0.109, 0.001, 2.5
 248431421, 4.97, -0.08000001, 0, 2.5, 4.97, -0.109, 0, 2.5
 248631341, 4.969, -0.043, 0, 2.5, 4.97, -0.08000001, 0, 2.5
 248831261, 4.96, -0.008, -0.001, 2.5, 4.969, -0.043, 0, 2.5
 249031181, 4.945, 0.009000001, -0.001, 2.5, 4.96, -0.008, -0.001, 2.5
 249231101, 4.944, 0.024, 0, 2.5, 4.945, 0.009000001, -0.001, 2.5
 249431021, 4.963, 0.039, 0.002, 2.5, 4.944, 0.024, 0, 2.5
 249630941, 4.983, 0.049, 0.002, 2.5, 4.963, 0.039, 0.002, 2.5
 249830861, 4.988, 0.056, 0, 2.5, 4.983, 0.049, 0.002, 2.5
 250030781, 4.976, 0.075, -0.001, 2.5, 4.988, 0.056, 0, 2.5
 250230701, 4.959, 0.11, -0.002, 2.5, 4.976, 0.075, -0.001, 2.5
 250431454, 4.941, 0.153, -0.002, 2.5, 4.959, 0.11, -0.002, 2.5
 250631374, 4.925, 0.183, -0.003, 2.5, 4.941, 0.153, -0.002, 2.5
 250831294, 4.917, 0.201, -0.001, 2.5, 4.925, 0.183, -0.003, 2.5
 251031214, 4.92, 0.208, 0, 2.5, 4.917, 0.201, -0.001, 2.5
 251231134, 4.925, 0.177, 0, 2.5, 4.92, 0.208, 0, 2.5
 251431054, 4.927, 0.124, 0, 2.5, 4.925, 0.177, 0, 2.5
 251630974, 4.925, 0.09, 0, 2.5, 4.927, 0.124, 0, 2.5
 251830894, 4.934, 0.079, 0, 2.5, 4.925, 0.09, 0, 2.5
 252030814, 4.948, 0.06, 0, 2.5, 4.934, 0.079, 0, 2.5
 252230734, 4.96, 0.043, 0, 2.5, 4.948, 0.06, 0, 2.5
 252430654, 4.967, 0.034, 0, 2.5, 4.96, 0.043, 0, 2.5
 252631407, 4.966, 0.017, 0, 2.5, 4.967, 0.034, 0, 2.5
 252831327, 4.96, -0.018, 0, 2.5, 4.966, 0.017, 0, 2.5
 253031247, 4.958, -0.048, 0.001, 2.5, 4.96, -0.018, 0, 2.5
 253231167, 4.953, -0.055, 0.001, 2.5, 4.958, -0.048, 0.001, 2.5
 253431087, 4.936, -0.06, 0, 2.5, 4.953, -0.055, 0.001, 2.5
 253631007, 4.91, -0.09, -0.001, 2.5, 4.936, -0.06, 0, 2.5
 253830927, 4.893, -0.126, 0, 2.5, 4.91, -0.09, -0.001, 2.5
 254030847, 4.89, -0.132, 0, 2.5, 4.893, -0.126, 0, 2.5
 254230767, 4.893, -0.111, 0, 2.5, 4.89, -0.132, 0, 2.5
 254430687, 4.894, -0.07700001, -0.001, 2.5, 4.893, -0.111, 0, 2.5
 254631440, 4.895, -0.048, -0.003, 2.5, 4.894, -0.07700001, -0.001, 2.5
 254831360, 4.905, -0.032, -0.003, 2.5, 4.895, -0.048, -0.003, 2.5
 255031280, 4.927, -0.027, -0.002, 2.5, 4.905, -0.032, -0.003, 2.5
 255231200, 4.952, -0.024, -0.002, 2.5, 4.927, -0.027, -0.002, 2.5
 255431120, 4.972, -0.014, -0.002, 2.5, 4.952, -0.024, -0.002, 2.5
 255631040, 4.986, 0.005, -0.003, 2.5, 4.972, -0.014, -0.002, 2.5
 255830960, 4.986, 0.011, -0.004, 2.5, 4.986, 0.005, -0.003, 2.5
 256030880, 4.982, -0.001, -0.004, 2.5, 4.986, 0.011, -0.004, 2.5
 256230800, 4.991, -0.01, -0.002, 2.5, 4.982, -0.001, -0.004, 2.5
 256430720, 5.008, -0.003, -0.002, 2.5, 4.991, -0.01, -0.002, 2.5
 256631473, 5.024, 0, -0.002, 2.5, 5.008, -0.003, -0.002, 2.5
 256831393, 5.04, -0.019, -0.001, 2.5, 5.024, 0, -0.002, 2.5
 257031313, 5.055, -0.03, -0.001, 2.5, 5.04, -0.019, -0.001, 2.5
 257231233, 5.065, -0.009000001, -0.002, 2.5, 5.055, -0.03, -0.001, 2.5
 257431153, 5.073, 0.025, -0.002, 2.5, 5.065, -0.009000001, -0.002, 2.5
 257631073, 5.088, 0.05, 0, 2.5, 5.073, 0.025, -0.002, 2.5
 257830993, 5.109, 0.066, 0, 2.5, 5.088, 0.05, 0, 2.5
 258030913, 5.123, 0.082, -0.002, 2.5, 5.109, 0.066, 0, 2.5
 258230833, 5.124, 0.075, -0.003, 2.5, 5.123, 0.082, -0.002, 2.5
 258430753, 5.112, 0.052, -0.003, 2.5, 5.124, 0.075, -0.003, 2.5
 258630673, 5.09, 0.032, -0.004, 2.5, 5.112, 0.052, -0.003, 2.5
 258831426, 5.067, 0.029, -0.003, 2.5, 5.09, 0.032, -0.004, 2.5
 259031346, 5.054, 0.039, -0.001, 2.5, 5.067, 0.029, -0.003, 2.5
 259231266, 5.05, 0.047, 0, 2.5, 5.054, 0.039, -0.001, 2.5
 259431186, 5.04, 0.048, 0, 2.5, 5.05, 0.047, 0, 2.5
 259631106, 5.02, 0.045, 0, 2.5, 5.04, 0.048, 0, 2.5
 259831026, 5.007, 0.03, 0.001, 2.5, 5.02, 0.045, 0, 2.5
 260030946, 5.002, 0, 0.002, 2.5, 5.007, 0.03, 0.001, 2.5
 260230866, 4.997, -0.027, 0.003, 2.5, 5.002, 0, 0.002, 2.5
 260430786, 4.991, -0.032, 0.004, 2.5, 4.997, -0.027, 0.003, 2.5
 260630706, 4.987, -0.024, 0.004, 2.5, 4.991, -0.032, 0.004, 2.5
 260831459, 4.984, -0.015, 0.002, 2.5, 4.987, -0.024, 0.004, 2.5
 261031379, 4.973, 0, 0.001, 2.5, 4.984, -0.015, 0.002, 2.5
 261231299, 4.965, 0.011, 0.001, 2.5, 4.973, 0, 0.001, 2.5
 261431219, 4.965, 0.002, 0.001, 2.5, 4.965, 0.011, 0.001, 2.5
 261631139, 4.969, -0.021, 0.001, 2.5, 4.965, 0.002, 0.001, 2.5
 261831059, 4.966, -0.043, 0.001, 2.5, 4.969, -0.021, 0.001, 2.5
 262030979, 4.956, -0.07300001, 0, 2.5, 4.966, -0.043, 0.001, 2.5
 262230899, 4.937, -0.104, 0, 2.5, 4.956, -0.07300001, 0, 2.5
 262430819, 4.916, -0.114, 0, 2.5, 4.937, -0.104, 0, 2.5
 262630739, 0, 0.0125, 0, 2.5, 4.916, -0.114, 0, 2.5
 262830659, 0, 0.0125, 0.001, 2.5, 0, 0.0125, 0, 2.5
 263031412, 0, 0.0125, 0.002, 2.5, 0, 0.0125, 0.001, 2.5
 263231332, 0, 0.0125, 0.002, 2.5, 0, 0.0125, 0.002, 2.5
 263431252, 0, 0.0125, 0.001, 2.5, 0, 0.0125, 0.002, 2.5
 263631172, 0, 0.0125, 0.001, 2.5, 0, 0.0125, 0.001, 2.5
 263831092, 0, 0.0125, 0.001, 2.5, 0, 0.0125, 0.001, 2.5
 264031012, 0, 0.0125, 0.001, 2.5, 0, 0.0125, 0.001, 2.5
 264230932, 0, 0.0125, 0.001, 2.5, 0, 0.0125, 0.001, 2.5
 264430852, 0, 0.0125, 0, 2.5, 0, 0.0125, 0.001, 2.5
 264630772, 0, 0.0125, 0, 2.5, 0, 0.0125, 0, 2.5
 264830692, 0, 0.0125, 0.001, 2.5, 0, 0.0125, 0, 2.5
 265031445, 0, 0.0125, 0.004, 2.5, 0, 0.0125, 0.001, 2.5
 265231365, 0, 0.0125, 0.007, 2.5, 0, 0.0125, 0.004, 2.5
 265431285, 0, 0.0125, 0.01, 2.5, 0, 0.0125, 0.007, 2.5
 265631205, 0, 0.0125, 0.015, 2.5, 0, 0.0125, 0.01, 2.5
 265831125, 0, 0.0125, 0.021, 2.5, 0, 0.0125, 0.015, 2.5
 266031045, 0, 0.0125, 0.028, 2.5, 0, 0.0125, 0.021, 2.5
 266230965, 0, 0.0125, 0.037, 2.5, 0, 0.0125, 0.028, 2.5
 266430885, 0, 0.0125, 0.05, 2.5, 0, 0.0125, 0.037, 2.5
 266630805, 0, 0.0125, 0.066, 2.5, 0, 0.0125, 0.05, 2.5
 266830725, 0, 0.0125, 0.086, 2.5, 0, 0.0125, 0.066, 2.5
 267031478, 0, 0.0125, 0.108, 2.5, 0, 0.0125, 0.086, 2.5
 267231398, 0, 0.0125, 0.133, 2.5, 0, 0.0125, 0.108, 2.5
 267431318, 0, 0.0125, 0.162, 2.5, 0, 0.0125, 0.133, 2.5
 267631238, 0, 0.0125, 0.194, 2.5, 0, 0.0125, 0.162, 2.5
 267831158, 0, 0.0125, 0.228, 2.5, 0, 0.0125, 0.194, 2.5
 268031078, 0, 0.0125, 0.265, 2.5, 0, 0.0125, 0.228, 2.5
 268230998, 0, 0.0125, 0.305, 2.5, 0, 0.0125, 0.265, 2.5
 268430918, 0, 0.0125, 0.382, 2.5, 0, 0.0125, 0.305, 2.5
 268630838, 0, 0.0125, 0.478, 2.5, 0, 0.0125, 0.382, 2.5
 268830758, 0, 0.0125, 0.5470001, 2.5, 0, 0.0125, 0.478, 2.5
 269030678, 0, 0.0125, 0.582, 2.5, 0, 0.0125, 0.5470001, 2.5
 269231431, 0, 0.0125, 0.589, 2.5, 0, 0.0125, 0.582, 2.5
 269431351, 0, 0.0125, 0.5790001, 2.5, 0, 0.0125, 0.589, 2.5
 269631271, 0, 0.0125, 0.559, 2.5, 0, 0.0125, 0.5790001, 2.5
 269831191, 0, 0.0125, 0.535, 2.5, 0, 0.0125, 0.559, 2.5
 270031111, 0, 0.0125, 0.497, 2.5, 0, 0.0125, 0.535, 2.5
 270231031, 0, 0.0125, 0.437, 2.5, 0, 0.0125, 0.497, 2.5
 270430951, 0, 0.0125, 0.362, 2.5, 0, 0.0125, 0.437, 2.5
 270630871, 0, 0.0125, 0.28, 2.5, 0, 0.0125, 0.362, 2.5
 270830791, 0, 0.0125, 0.192, 2.5, 0, 0.0125, 0.28, 2.5
 271030711, 0, 0.0125, 0.1, 2.5, 0, 0.0125, 0.192, 2.5
 271231464, 0, 0.0125, 0.002, 2.5, 0, 0.0125, 0.1, 2.5
 271431384, 0, 0.0125, -0.09900001, 2.5, 0, 0.0125, 0.002, 2.5
 271631304, 0, 0.0125, -0.2, 2.5, 0, 0.0125, -0.09900001, 2.5
 271831224, 0, 0.0125, -0.297, 2.5, 0, 0.0125, -0.2, 2.5
 272031144, 0, 0.0125, -0.383, 2.5, 0, 0.0125, -0.297, 2.5
 272231064, 0, 0.0125, -0.453, 2.5, 0, 0.0125, -0.383, 2.5
 272430984, 0, 0.0125, -0.503, 2.5, 0, 0.0125, -0.453, 2.5
 272630904, 0, 0.0125, -0.529, 2.5, 0, 0.0125, -0.503, 2.5
 272830824, 0, 0.0125, -0.5330001, 2.5, 0, 0.0125, -0.529, 2.5
 273030744, 0, 0.0125, -0.513, 2.5, 0, 0.0125, -0.5330001, 2.5
 273230664, 0, 0.0125, -0.473, 2.5, 0, 0.0125, -0.513, 2.5
 273431417, 0, 0.0125, -0.417, 2.5, 0, 0.0125, -0.473, 2.5
 273631337, 0, 0.0125, -0.349, 2.5, 0, 0.0125, -0.417, 2.5
 273831257, 0, 0.0125, -0.276, 2.5, 0, 0.0125, -0.349, 2.5
 274031177, 0, 0.0125, -0.201, 2.5, 0, 0.0125, -0.276, 2.5
 274231097, 0, 0.0125, -0.129, 2.5, 0, 0.0125, -0.201, 2.5
 274431017, 0, 0.0125, -0.064, 2.5, 0, 0.0125, -0.129, 2.5
 274630937, 0, 0.0125, -0.01, 2.5, 0, 0.0125, -0.064, 2.5
 274830857, 0, 0.0125, 0.033, 2.5, 0, 0.0125, -0.01, 2.5
 275030777, 0, 0.0125, 0.064, 2.5, 0, 0.0125, 0.033, 2.5
 275230697, 0, 0.0125, 0.08400001, 2.5, 0, 0.0125, 0.064, 2.5
 275431450, 0, 0.0125, 0.094, 2.5, 0, 0.0125, 0.08400001, 2.5
 275631370, 0, 0.0125, 0.09500001, 2.5, 0, 0.0125, 0.094, 2.5
 275831290, 0, 0.0125, 0.08800001, 2.5, 0, 0.0125, 0.09500001, 2.5
 276031210, 0, 0.0125, 0.075, 2.5, 0, 0.0125, 0.08800001, 2.5
 276231130, 0, 0.0125, 0.057, 2.5, 0, 0.0125, 0.075, 2.5
 276431050, 0, 0.0125, 0.038, 2.5, 0, 0.0125, 0.057, 2.5
 276630970, 0, 0.0125, 0.02, 2.5, 0, 0.0125, 0.038, 2.5
 276830890, 0, 0.0125, 0.003, 2.5, 0, 0.0125, 0.02, 2.5
 277030810, 0, 0.0125, -0.012, 2.5, 0, 0.0125, 0.003, 2.5
 277230730, 0, 0.0125, -0.025, 2.5, 0, 0.0125, -0.012, 2.5
 277431483, 0, 0.0125, -0.036, 2.5, 0, 0.0125, -0.025, 2.5
 277631403, 0, 0.0125, -0.045, 2.5, 0, 0.0125, -0.036, 2.5
 277831323, 0, 0.0125, -0.051, 2.5, 0, 0.0125, -0.045, 2.5
 278031243, 0, 0.0125, -0.056, 2.5, 0, 0.0125, -0.051, 2.5
 278231163, 0, 0.0125, -0.06, 2.5, 0, 0.0125, -0.056, 2.5
 278431083, 0, 0.0125, -0.062, 2.5, 0, 0.0125, -0.06, 2.5
 278631003, 0, 0.0125, -0.062, 2.5, 0, 0.0125, -0.062, 2.5
 278830923, 0, 0.0125, -0.062, 2.5, 0, 0.0125, -0.062, 2.5
 279030843, 0, 0.0125, -0.061, 2.5, 0, 0.0125, -0.062, 2.5
 279230763, 0, 0.0125, -0.06, 2.5, 0, 0.0125, -0.061, 2.5
 279430683, 0, 0.0125, -0.059, 2.5, 0, 0.0125, -0.06, 2.5
 279631436, 0, 0.0125, -0.057, 2.5, 0, 0.0125, -0.059, 2.5
 279831356, 0, 0.0125, -0.055, 2.5, 0, 0.0125, -0.057, 2.5
 280031276, 0, 0.0125, -0.053, 2.5, 0, 0.0125, -0.055, 2.5
 280231196, 0, 0.0125, -0.051, 2.5, 0, 0.0125, -0.053, 2.5
 280431116, 0, 0.0125, -0.049, 2.5, 0, 0.0125, -0.051, 2.5
 280631036, 0, 0.0125, -0.048, 2.5, 0, 0.0125, -0.049, 2.5
 280830956, 0, 0.0125, -0.047, 2.5, 0, 0.0125, -0.048, 2.5
 281030876, 0, 0.0125, -0.046, 2.5, 0, 0.0125, -0.047, 2.5
 281230796, 0, 0.0125, -0.046, 2.5, 0, 0.0125, -0.046, 2.5
 281430716, 0, 0.0125, -0.045, 2.5, 0, 0.0125, -0.046, 2.5
 281631469, 0, 0.0125, -0.046, 2.5, 0, 0.0125, -0.045, 2.5
 281831389, 0, 0.0125, -0.046, 2.5, 0, 0.0125, -0.046, 2.5
 282031309, 0, 0.0125, -0.046, 2.5, 0, 0.0125, -0.046, 2.5
 282231229, 0, 0.0125, -0.046, 2.5, 0, 0.0125, -0.046, 2.5
 282431149, 0, 0.0125, -0.047, 2.5, 0, 0.0125, -0.046, 2.5
 282631069, 0, 0.0125, -0.048, 2.5, 0, 0.0125, -0.047, 2.5
 282830989, 0, 0.0125, -0.049, 2.5, 0, 0.0125, -0.048, 2.5
 283030909, 0, 0.0125, -0.049, 2.5, 0, 0.0125, -0.049, 2.5
 283230829, 0, 0.0125, -0.051, 2.5, 0, 0.0125, -0.049, 2.5
 283430749, 0, 0.0125, -0.051, 2.5, 0, 0.0125, -0.051, 2.5
 283630669, 0, 0.0125, -0.052, 2.5, 0, 0.0125, -0.051, 2.5
 283831422, 0, 0.0125, -0.053, 2.5, 0, 0.0125, -0.052, 2.5
 284031342, 0, 0.0125, -0.052, 2.5, 0, 0.0125, -0.053, 2.5
 284231262, 0, 0.0125, -0.052, 2.5, 0, 0.0125, -0.052, 2.5
 284431182, 0, 0.0125, -0.052, 2.5, 0, 0.0125, -0.052, 2.5
 284631102, 0, 0.0125, -0.053, 2.5, 0, 0.0125, -0.052, 2.5
 284831022, 0, 0.0125, -0.052, 2.5, 0, 0.0125, -0.053, 2.5
 285030942, 0, 0.0125, -0.051, 2.5, 0, 0.0125, -0.052, 2.5
 285230862, 0, 0.0125, -0.051, 2.5, 0, 0.0125, -0.051, 2.5
 285430782, 0, 0.0125, -0.05, 2.5, 0, 0.0125, -0.051, 2.5
 285630702, 0, 0.0125, -0.048, 2.5, 0, 0.0125, -0.05, 2.5
 285831455, 0, 0.0125, -0.047, 2.5, 0, 0.0125, -0.048, 2.5
 286031375, 0, 0.0125, -0.047, 2.5, 0, 0.0125, -0.047, 2.5
 286231295, 0, 0.0125, -0.046, 2.5, 0, 0.0125, -0.047, 2.5
 286431215, 0, 0.0125, -0.044, 2.5, 0, 0.0125, -0.046, 2.5
 286631135, 0, 0.0125, -0.042, 2.5, 0, 0.0125, -0.044, 2.5
 286831055, 0, 0.0125, -0.041, 2.5, 0, 0.0125, -0.042, 2.5
 287030975, 0, 0.0125, -0.039, 2.5, 0, 0.0125, -0.041, 2.5
 287230895, 0, 0.0125, -0.037, 2.5, 0, 0.0125, -0.039, 2.5
 287430815, 0, 0.0125, -0.036, 2.5, 0, 0.0125, -0.037, 2.5
 287630735, 0, 0.0125, -0.035, 2.5, 0, 0.0125, -0.036, 2.5
 287830655, 0, 0.0125, -0.035, 2.5, 0, 0.0125, -0.035, 2.5
 288031408, 0, 0.0125, -0.035, 2.5, 0, 0.0125, -0.035, 2.5
 288231328, 0, 0.0125, -0.036, 2.5, 0, 0.0125, -0.035, 2.5
 288431248, 0, 0.0125, -0.036, 2.5, 0, 0.0125, -0.036, 2.5
 288631168, 0, 0.0125, -0.036, 2.5, 0, 0.0125, -0.036, 2.5
 288831088, 0, 0.0125, -0.035, 2.5, 0, 0.0125, -0.036, 2.5
 289031008, 0, 0.0125, -0.034, 2.5, 0, 0.0125, -0.035, 2.5
 289230928, 0, 0.0125, -0.033, 2.5, 0, 0.0125, -0.034, 2.5
 289430848, 0, 0.0125, -0.032, 2.5, 0, 0.0125, -0.033, 2.5
 289630768, 0, 0.0125, -0.031, 2.5, 0, 0.0125, -0.032, 2.5
 289830688, 0, 0.0125, -0.029, 2.5, 0, 0.0125, -0.031, 2.5
 290031441, 0, 0.0125, -0.028, 2.5, 0, 0.0125, -0.029, 2.5
 290231361, 0, 0.0125, -0.025, 2.5, 0, 0.0125, -0.028, 2.5
 290431281, 0, 0.0125, -0.021, 2.5, 0, 0.0125, -0.025, 2.5
 290631201, 0, 0.0125, -0.019, 2.5, 0, 0.0125, -0.021, 2.5
 290831121, 0, 0.0125, -0.016, 2.5, 0, 0.0125, -0.019, 2.5
 291031041, 0, 0.0125, -0.014, 2.5, 0, 0.0125, -0.016, 2.5
 291230961, 0, 0.0125, -0.012, 2.5, 0, 0.0125, -0.014, 2.5
 291430881, 0, 0.0125, -0.01, 2.5, 0, 0.0125, -0.012, 2.5
 291630801, 0, 0.0125, -0.009000001, 2.5, 0, 0.0125, -0.01, 2.5
 291830721, 0, 0.0125, -0.008, 2.5, 0, 0.0125, -0.009000001, 2.5
 292031474, 0, 0.0125, -0.008, 2.5, 0, 0.0125, -0.008, 2.5
 292231394, 0, 0.0125, -0.008, 2.5, 0, 0.0125, -0.008, 2.5
 292431314, 0, 0.0125, -0.008, 2.5, 0, 0.0125, -0.008, 2.5
 292631234, 0, 0.0125, -0.008, 2.5, 0, 0.0125, -0.008, 2.5
 292831154, 0, 0.0125, -0.008, 2.5, 0, 0.0125, -0.008, 2.5
 293031074, 0, 0.0125, -0.008, 2.5, 0, 0.0125, -0.008, 2.5
 293230994, 0, 0.0125, -0.007, 2.5, 0, 0.0125, -0.008, 2.5
 293430914, 0, 0.0125, -0.007, 2.5, 0, 0.0125, -0.007, 2.5
 293630834, 0, 0.0125, -0.007, 2.5, 0, 0.0125, -0.007, 2.5
 293830754, 0, 0.0125, -0.007, 2.5, 0, 0.0125, -0.007, 2.5
 294030674, 0, 0.0125, -0.006, 2.5, 0, 0.0125, -0.007, 2.5
 294231427, 0, 0.0125, -0.007, 2.5, 0, 0.0125, -0.006, 2.5
 294431347, 0, 0.0125, -0.007, 2.5, 0, 0.0125, -0.007, 2.5
 294631267, 0, 0.0125, -0.008, 2.5, 0, 0.0125, -0.007, 2.5
 294831187, 0, 0.0125, -0.007, 2.5, 0, 0.0125, -0.008, 2.5
 295031107, 0, 0.0125, -0.007, 2.5, 0, 0.0125, -0.007, 2.5
 295231027, 0, 0.0125, -0.007, 2.5, 0, 0.0125, -0.007, 2.5
 295430947, 0, 0.0125, -0.007, 2.5, 0, 0.0125, -0.007, 2.5
 295630867, 0, 0.0125, -0.006, 2.5, 0, 0.0125, -0.007, 2.5
 295830787, 0, 0.0125, -0.006, 2.5, 0, 0.0125, -0.006, 2.5
 296030707, 0, 0.0125, -0.006, 2.5, 0, 0.0125, -0.006, 2.5
 296231460, 0, 0.0125, -0.006, 2.5, 0, 0.0125, -0.006, 2.5
 296431380, 0, 0.0125, -0.006, 2.5, 0, 0.0125, -0.006, 2.5
 296631300, 0, 0.0125, -0.006, 2.5, 0, 0.0125, -0.006, 2.5
 296831220, 0, 0.0125, -0.006, 2.5, 0, 0.0125, -0.006, 2.5
 297031140, 0, 0.0125, -0.006, 2.5, 0, 0.0125, -0.006, 2.5
 297231060, 0, 0.0125, -0.005, 2.5, 0, 0.0125, -0.006, 2.5
 297430980, 0, 0.0125, -0.004, 2.5, 0, 0.0125, -0.005, 2.5
 297630900, 0, 0.0125, -0.004, 2.5, 0, 0.0125, -0.004, 2.5
 297830820, 0, 0.0125, -0.004, 2.5, 0, 0.0125, -0.004, 2.5
 298030740, 0, 0.0125, -0.003, 2.5, 0, 0.0125, -0.004, 2.5
 298230660, 0, 0.0125, -0.003, 2.5, 0, 0.0125, -0.003, 2.5
 298431413, 0, 0.0125, -0.002, 2.5, 0, 0.0125, -0.003, 2.5
 298631333, 0, 0.0125, -0.001, 2.5, 0, 0.0125, -0.002, 2.5
 298831253, 0, 0.0125, -0.001, 2.5, 0, 0.0125, -0.001, 2.5
 299031173, 0, 0.0125, 0, 2.5, 0, 0.0125, -0.001, 2.5
 299231093, 0, 0.0125, 0, 2.5, 0, 0.0125, 0, 2.5
 299431013, 0, 0.0125, 0.001, 2.5, 0, 0.0125, 0, 2.5
 299630933, 0, 0.0125, 0.001, 2.5, 0, 0.0125, 0.001, 2.5
 299830853, 0, 0.0125, 0.001, 2.5, 0, 0.0125, 0.001, 2.5
 300030773, 0, 0.0125, 0.001, 2.5, 0, 0.0125, 0.001, 2.5
 300230693, 0, 0.0125, 0.002, 2.5, 0, 0.0125, 0.001, 2.5
 300431446, 0, 0.0125, 0.002, 2.5, 0, 0.0125, 0.002, 2.5
 300631366, 0, 0.0125, 0.003, 2.5, 0, 0.0125, 0.002, 2.5
 300831286, 0, 0.0125, 0.004, 2.5, 0, 0.0125, 0.003, 2.5
 301031206, 0, 0.0125, 0.003, 2.5, 0, 0.0125, 0.004, 2.5
 301231126, 0, 0.0125, 0.003, 2.5, 0, 0.0125, 0.003, 2.5
 301431046, 0, 0.0125, 0.002, 2.5, 0, 0.0125, 0.003, 2.5
 301630966, 0, 0.0125, 0.003, 2.5, 0, 0.0125, 0.002, 2.5
 301830886, 0, 0.0125, 0.002, 2.5, 0, 0.0125, 0.003, 2.5
 302030806, 0, 0.0125, 0.003, 2.5, 0, 0.0125, 0.002, 2.5
 302230726, 0, 0.0125, 0.003, 2.5, 0, 0.0125, 0.003, 2.5
 302431479, 0, 0.0125, 0.003, 2.5, 0, 0.0125, 0.003, 2.5
 302631399, 0, 0.0125, 0.004, 2.5, 0, 0.0125, 0.003, 2.5
 302831319, 0, 0.0125, 0.004, 2.5, 0, 0.0125, 0.004, 2.5
 303031239, 0, 0.0125, 0.004, 2.5, 0, 0.0125, 0.004, 2.5
 303231159, 0, 0.0125, 0.004, 2.5, 0, 0.0125, 0.004, 2.5
 303431079, 0, 0.0125, 0.003, 2.5, 0, 0.0125, 0.004, 2.5
 303630999, 0, 0.0125, 0.003, 2.5, 0, 0.0125, 0.003, 2.5
 303830919, 0, 0.0125, 0.003, 2.5, 0, 0.0125, 0.003, 2.5
 304030839, 0, 0.0125, 0.002, 2.5, 0, 0.0125, 0.003, 2.5
 304230759, 0, 0.0125, 0.002, 2.5, 0, 0.0125, 0.002, 2.5
 304430679, 0, 0.0125, 0.001, 2.5, 0, 0.0125, 0.002, 2.5
 304631432, 0, 0.0125, 0.001, 2.5, 0, 0.0125, 0.001, 2.5
 304831352, 0, 0.0125, 0.001, 2.5, 0, 0.0125, 0.001, 2.5
 305031272, 0, 0.0125, 0.001, 2.5, 0, 0.0125, 0.001, 2.5
 305231192, 0, 0.0125, 0.001, 2.5, 0, 0.0125, 0.001, 2.5
 305431112, 0, 0.0125, 0.001, 2.5, 0, 0.0125, 0.001, 2.5
 305631032, 0, 0.0125, 0.001, 2.5, 0, 0.0125, 0.001, 2.5
 305830952, 0, 0.0125, 0.001, 2.5, 0, 0.0125, 0.001, 2.5
 306030872, 0, 0.0125, 0.001, 2.5, 0, 0.0125, 0.001, 2.5
 306230792, 0, 0.0125, 0.001, 2.5, 0, 0.0125, 0.001, 2.5
 306430712, 0, 0.0125, 0.001, 2.5, 0, 0.0125, 0.001, 2.5
 306631465, 0, 0.0125, 0, 2.5, 0, 0.0125, 0.001, 2.5
 306831385, 0, 0.0125, 0, 2.5, 0, 0.0125, 0, 2.5
 307031305, 0, 0.0125, 0, 2.5, 0, 0.0125, 0, 2.5
 307231225, 0, 0.0125, 0, 2.5, 0, 0.0125, 0, 2.5
 307431145, 0, 0.0125, 0, 2.5, 0, 0.0125, 0, 2.5
 307631065, 0, 0.0125, 0, 2.5, 0, 0.0125, 0, 2.5
 307830985, 0, 0.0125, 0, 2.5, 0, 0.0125, 0, 2.5
 308030905, 0, 0.0125, 0, 2.5, 0, 0.0125, 0, 2.5
 308230825, 0, 0.0125, 0, 2.5, 0, 0.0125, 0, 2.5
 308430745, 0, 0.0125, 0, 2.5, 0, 0.0125, 0, 2.5
 308630665, 0, 0.0125, 0, 2.5, 0, 0.0125, 0, 2.5
 308831418, 0, 0.0125, -0.001, 2.5, 0, 0.0125, 0, 2.5
 309031338, 0, 0.0125, 0, 2.5, 0, 0.0125, -0.001, 2.5
 309231258, 0, 0.0125, 0, 2.5, 0, 0.0125, 0, 2.5
 309431178, 0, 0.0125, 0, 2.5, 0, 0.0125, 0, 2.5
 309631098, 0, 0.0125, -0.001, 2.5, 0, 0.0125, 0, 2.5
 309831018, 0, 0.0125, -0.001, 2.5, 0, 0.0125, -0.001, 2.5
 310030938, 0, 0.0125, 0, 2.5, 0, 0.0125, -0.001, 2.5
 310230858, 0, 0.0125, 0, 2.5, 0, 0.0125, 0, 2.5
 310430778, 0, 0.0125, -0.001, 2.5, 0, 0.0125, 0, 2.5
 310630698, 0, 0.0125, -0.001, 2.5, 0, 0.0125, -0.001, 2.5
 310831451, 0, 0.0125, -0.001, 2.5, 0, 0.0125, -0.001, 2.5
 311031371, 0, 0.0125, -0.001, 2.5, 0, 0.0125, -0.001, 2.5
 311231291, 0, 0.0125, -0.001, 2.5, 0, 0.0125, -0.001, 2.5
 311431211, 0, 0.0125, -0.001, 2.5, 0, 0.0125, -0.001, 2.5
 311631131, 0, 0.0125, -0.002, 2.5, 0, 0.0125, -0.001, 2.5
 311831051, 0, 0.0125, -0.001, 2.5, 0, 0.0125, -0.002, 2.5
 312030971, 0, 0.0125, -0.001, 2.5, 0, 0.0125, -0.001, 2.5
 312230891, 0, 0.0125, -0.002, 2.5, 0, 0.0125, -0.001, 2.5
 312430811, 0, 0.0125, -0.002, 2.5, 0, 0.0125, -0.002, 2.5
 312630731, 0, 0.0125, -0.002, 2.5, 0, 0.0125, -0.002, 2.5
 312831484, 0, 0.0125, -0.002, 2.5, 0, 0.0125, -0.002, 2.5
 313031404, 0, 0.0125, -0.002, 2.5, 0, 0.0125, -0.002, 2.5
 313231324, 0, 0.0125, -0.002, 2.5, 0, 0.0125, -0.002, 2.5
 313431244, 0, 0.0125, -0.001, 2.5, 0, 0.0125, -0.002, 2.5
 313631164, 0, 0.0125, -0.002, 2.5, 0, 0.0125, -0.001, 2.5
 313831084, 0, 0.0125, -0.002, 2.5, 0, 0.0125, -0.002, 2.5
 314031004, 0, 0.0125, -0.002, 2.5, 0, 0.0125, -0.002, 2.5
 314230924, 0, 0.0125, -0.002, 2.5, 0, 0.0125, -0.002, 2.5
 314430844, 0, 0.0125, -0.002, 2.5, 0, 0.0125, -0.002, 2.5
 314630764, 0, 0.0125, -0.002, 2.5, 0, 0.0125, -0.002, 2.5
 314830684, 0, 0.0125, -0.001, 2.5, 0, 0.0125, -0.002, 2.5
 315031437, 0, 0.0125, -0.001, 2.5, 0, 0.0125, -0.001, 2.5
 315231357, 0, 0.0125, -0.001, 2.5, 0, 0.0125, -0.001, 2.5
 315431277, 0, 0.0125, 0, 2.5, 0, 0.0125, -0.001, 2.5
 315631197, 0, 0.0125, 0, 2.5, 0, 0.0125, 0, 2.5
 315831117, 0, 0.0125, 0, 2.5, 0, 0.0125, 0, 2.5
 316031037, 0, 0.0125, 0, 2.5, 0, 0.0125, 0, 2.5
 316230957, 0, 0.0125, 0, 2.5, 0, 0.0125, 0, 2.5
 316430877, 0, 0.0125, 0, 2.5, 0, 0.0125, 0, 2.5
 316630797, 0, 0.0125, 0, 2.5, 0, 0.0125, 0, 2.5
 316830717, 0, 0.0125, 0, 2.5, 0, 0.0125, 0, 2.5
 317031470, 0, 0.0125, 0, 2.5, 0, 0.0125, 0, 2.5
 317231390, 0, 0.0125, 0, 2.5, 0, 0.0125, 0, 2.5
 317431310, 0, 0.0125, 0.001, 2.5, 0, 0.0125, 0, 2.5
 317631230, 0, 0.0125, 0.001, 2.5, 0, 0.0125, 0.001, 2.5
 317831150, 0, 0.0125, 0.001, 2.5, 0, 0.0125, 0.001, 2.5
 318031070, 0, 0.0125, 0.001, 2.5, 0, 0.0125, 0.001, 2.5
 318230990, 0, 0.0125, 0.001, 2.5, 0, 0.0125, 0.001, 2.5
 318430910, 0, 0.0125, 0, 2.5, 0, 0.0125, 0.001, 2.5
 318630830, 0, 0.0125, 0, 2.5, 0, 0.0125, 0, 2.5
 318830750, 0, 0.0125, 0, 2.5, 0, 0.0125, 0, 2.5
 319030670, 0, 0.0125, 0, 2.5, 0, 0.0125, 0, 2.5
 319231423, 0, 0.0125, 0, 2.5, 0, 0.0125, 0, 2.5
 319431343, 0, 0.0125, 0, 2.5, 0, 0.0125, 0, 2.5
 319631263, 0, 0.0125, 0.001, 2.5, 0, 0.0125, 0, 2.5
 319831183, 0, 0.0125, 0.001, 2.5, 0, 0.0125, 0.001, 2.5
 320031103, 0, 0.0125, 0.001, 2.5, 0, 0.0125, 0.001, 2.5
 320231023, 0, 0.0125, 0.001, 2.5, 0, 0.0125, 0.001, 2.5
 320430943, 0, 0.0125, 0.001, 2.5, 0, 0.0125, 0.001, 2.5
 320630863, 0, 0.0125, 0.001, 2.5, 0, 0.0125, 0.001, 2.5
 320830783, 0, 0.0125, 0.002, 2.5, 0, 0.0125, 0.001, 2.5
 321030703, 0, 0.0125, 0.002, 2.5, 0, 0.0125, 0.002, 2.5
 321231456, 0, 0.0125, 0.002, 2.5, 0, 0.0125, 0.002, 2.5
 321431376, 0, 0.0125, 0.002, 2.5, 0, 0.0125, 0.002, 2.5
 321631296, 0, 0.0125, 0.001, 2.5, 0, 0.0125, 0.002, 2.5
 321831216, 0, 0.0125, 0.001, 2.5, 0, 0.0125, 0.001, 2.5
 322031136, 0, 0.0125, 0, 2.5, 0, 0.0125, 0.001, 2.5
 322231056, 0, 0.0125, 0, 2.5, 0, 0.0125, 0, 2.5
 322430976, 0, 0.0125, 0, 2.5, 0, 0.0125, 0, 2.5
 322630896, 0, 0.0125, 0, 2.5, 0, 0.0125, 0, 2.5
 322830816, 0, 0.0125, -0.001, 2.5, 0, 0.0125, 0, 2.5
 323030736, 13.569, -7.014, -0.001, 2.5, 0, 0.0125, -0.001, 2.5
 323230656, 13.565, -7.013, -0.001, 2.5, 13.569, -7.014, -0.001, 2.5
 323431409, 13.56, -7.01, -0.001, 2.5, 13.565, -7.013, -0.001, 2.5
 323631329, 13.378, -6.903, -0.043, 2.5, 13.56, -7.01, -0.001, 2.5
 323831249, 13.082, -6.731, 0.023, 2.5, 13.378, -6.903, -0.043, 2.5
 324031169, 12.939, -6.646, 0.16, 2.5, 13.082, -6.731, 0.023, 2.5
 324231089, 12.871, -6.568, 0.305, 2.5, 12.939, -6.646, 0.16, 2.5
 324431009, 12.242, -5.948, 0.338, 2.5, 12.871, -6.568, 0.305, 2.5
 324630929, 10.402, -4.626, 0.596, 2.5, 12.242, -5.948, 0.338, 2.5
 324830849, 8.18, -2.752, 0.943, 2.5, 10.402, -4.626, 0.596, 2.5
 325030769, 6.25, -0.7870001, 1.157, 2.5, 8.18, -2.752, 0.943, 2.5
 325230689, 4.541, 0.754, 1.284, 2.5, 6.25, -0.7870001, 1.157, 2.5
 325431442, 2.921, 1.822, 1.36, 2.5, 4.541, 0.754, 1.284, 2.5
 325631362, 1.465, 2.391, 1.381, 2.5, 2.921, 1.822, 1.36, 2.5
 325831282, 0.276, 2.537, 1.397, 2.5, 1.465, 2.391, 1.381, 2.5
 326031202, -0.7500001, 2.334, 1.467, 2.5, 0.276, 2.537, 1.397, 2.5
 326231122, -1.698, 1.809, 1.626, 2.5, -0.7500001, 2.334, 1.467, 2.5
 326431042, -2.512, 1.094, 1.832, 2.5, -1.698, 1.809, 1.626, 2.5
 326630962, -3.141, 0.33, 2.022, 2.5, -2.512, 1.094, 1.832, 2.5
 326830882, -3.561, -0.399, 2.142, 2.5, -3.141, 0.33, 2.022, 2.5
 327030802, -3.697, -1.027, 2.149, 2.5, -3.561, -0.399, 2.142, 2.5
 327230722, -3.506, -1.58, 2.051, 2.5, -3.697, -1.027, 2.149, 2.5
 327431475, -3.031, -2.129, 1.888, 2.5, -3.506, -1.58, 2.051, 2.5
 327631395, -2.401, -2.681, 1.686, 2.5, -3.031, -2.129, 1.888, 2.5
 327831315, -1.793, -3.057, 1.441, 2.5, -2.401, -2.681, 1.686, 2.5
 328031235, -1.345, -3.129, 1.199, 2.5, -1.793, -3.057, 1.441, 2.5
 328231155, -0.9680001, -3.013, 1.011, 2.5, -1.345, -3.129, 1.199, 2.5
 328431075, -0.5560001, -2.73, 0.878, 2.5, -0.9680001, -3.013, 1.011, 2.5
 328630995, -0.174, -2.305, 0.7960001, 2.5, -0.5560001, -2.73, 0.878, 2.5
 328830915, 0.114, -1.878, 0.772, 2.5, -0.174, -2.305, 0.7960001, 2.5
 329030835, 0.348, -1.543, 0.8150001, 2.5, 0.114, -1.878, 0.772, 2.5
 329230755, 0.518, -1.201, 0.9030001, 2.5, 0.348, -1.543, 0.8150001, 2.5
 329430675, 0.614, -0.809, 1.012, 2.5, 0.518, -1.201, 0.9030001, 2.5
 329631428, 0.666, -0.43, 1.124, 2.5, 0.614, -0.809, 1.012, 2.5
 329831348, 0.697, -0.105, 1.232, 2.5, 0.666, -0.43, 1.124, 2.5
 330031268, 0.702, 0.174, 1.329, 2.5, 0.697, -0.105, 1.232, 2.5
 330231188, 0.723, 0.401, 1.414, 2.5, 0.702, 0.174, 1.329, 2.5
 330431108, 0.789, 0.568, 1.486, 2.5, 0.723, 0.401, 1.414, 2.5
 330631028, 0.844, 0.72, 1.542, 2.5, 0.789, 0.568, 1.486, 2.5
 330830948, 0.8470001, 0.862, 1.58, 2.5, 0.844, 0.72, 1.542, 2.5
 331030868, 0.767, 0.965, 1.603, 2.5, 0.8470001, 0.862, 1.58, 2.5
 331230788, 0.6670001, 1.033, 1.618, 2.5, 0.767, 0.965, 1.603, 2.5
 331430708, 0.553, 1.095, 1.623, 2.5, 0.6670001, 1.033, 1.618, 2.5
 331631461, 0.442, 1.151, 1.62, 2.5, 0.553, 1.095, 1.623, 2.5
 331831381, 0.358, 1.198, 1.61, 2.5, 0.442, 1.151, 1.62, 2.5
 332031301, 0.281, 1.197, 1.597, 2.5, 0.358, 1.198, 1.61, 2.5
 332231221, 0.176, 1.125, 1.583, 2.5, 0.281, 1.197, 1.597, 2.5
 332431141, 0.06500001, 1.019, 1.571, 2.5, 0.176, 1.125, 1.583, 2.5
 332631061, -0.016, 0.934, 1.559, 2.5, 0.06500001, 1.019, 1.571, 2.5
 332830981, -0.106, 0.841, 1.546, 2.5, -0.016, 0.934, 1.559, 2.5
 333030901, -0.193, 0.692, 1.534, 2.5, -0.106, 0.841, 1.546, 2.5
 333230821, -0.24, 0.507, 1.523, 2.5, -0.193, 0.692, 1.534, 2.5
 333430741, -0.239, 0.307, 1.512, 2.5, -0.24, 0.507, 1.523, 2.5
 333630661, -0.202, 0.11, 1.501, 2.5, -0.239, 0.307, 1.512, 2.5
 333831414, -0.178, -0.047, 1.49, 2.5, -0.202, 0.11, 1.501, 2.5
 334031334, -0.17, -0.178, 1.48, 2.5, -0.178, -0.047, 1.49, 2.5
 334231254, -0.156, -0.313, 1.471, 2.5, -0.17, -0.178, 1.48, 2.5
 334431174, -0.125, -0.426, 1.463, 2.5, -0.156, -0.313, 1.471, 2.5
 334631094, -0.067, -0.461, 1.454, 2.5, -0.125, -0.426, 1.463, 2.5
 334831014, 0.003, -0.406, 1.446, 2.5, -0.067, -0.461, 1.454, 2.5
 335030934, 0.094, -0.323, 1.439, 2.5, 0.003, -0.406, 1.446, 2.5
 335230854, 0.188, -0.257, 1.433, 2.5, 0.094, -0.323, 1.439, 2.5
 335430774, 0.271, -0.212, 1.428, 2.5, 0.188, -0.257, 1.433, 2.5
 335630694, 0.338, -0.176, 1.424, 2.5, 0.271, -0.212, 1.428, 2.5
 335831447, 0.435, -0.165, 1.423, 2.5, 0.338, -0.176, 1.424, 2.5
 336031367, 0.56, -0.158, 1.422, 2.5, 0.435, -0.165, 1.423, 2.5
 336231287, 0.646, -0.113, 1.42, 2.5, 0.56, -0.158, 1.422, 2.5
 336431207, 0.678, -0.039, 1.419, 2.5, 0.646, -0.113, 1.42, 2.5
 336631127, 0.6900001, 0.044, 1.418, 2.5, 0.678, -0.039, 1.419, 2.5
 336831047, 0.68, 0.135, 1.418, 2.5, 0.6900001, 0.044, 1.418, 2.5
 337030967, 0.64, 0.231, 1.418, 2.5, 0.68, 0.135, 1.418, 2.5
 337230887, 0.58, 0.309, 1.418, 2.5, 0.64, 0.231, 1.418, 2.5
 337430807, 0.516, 0.352, 1.418, 2.5, 0.58, 0.309, 1.418, 2.5
 337630727, 0.466, 0.37, 1.419, 2.5, 0.516, 0.352, 1.418, 2.5
 337831480, 0.421, 0.36, 1.419, 2.5, 0.466, 0.37, 1.419, 2.5
 338031400, 0.336, 0.322, 1.42, 2.5, 0.421, 0.36, 1.419, 2.5
 338231320, 0.207, 0.303, 1.421, 2.5, 0.336, 0.322, 1.42, 2.5
 338431240, 0.072, 0.335, 1.422, 2.5, 0.207, 0.303, 1.421, 2.5
 338631160, -0.035, 0.391, 1.42, 2.5, 0.072, 0.335, 1.422, 2.5
 338831080, -0.09, 0.401, 1.419, 2.5, -0.035, 0.391, 1.42, 2.5
 339031000, -0.094, 0.36, 1.419, 2.5, -0.09, 0.401, 1.419, 2.5
 339230920, -0.09200001, 0.323, 1.42, 2.5, -0.094, 0.36, 1.419, 2.5
 339430840, -0.12, 0.277, 1.421, 2.5, -0.09200001, 0.323, 1.42, 2.5
 339630760, -0.166, 0.205, 1.422, 2.5, -0.12, 0.277, 1.421, 2.5
 339830680, -0.205, 0.116, 1.423, 2.5, -0.166, 0.205, 1.422, 2.5
 340031433, -0.26, 0.027, 1.425, 2.5, -0.205, 0.116, 1.423, 2.5
 340231353, -0.323, -0.063, 1.425, 2.5, -0.26, 0.027, 1.425, 2.5
 340431273, -0.333, -0.127, 1.425, 2.5, -0.323, -0.063, 1.425, 2.5
 340631193, -0.33, -0.125, 1.422, 2.5, -0.333, -0.127, 1.425, 2.5
 340831113, -0.309, -0.098, 1.399, 2.5, -0.33, -0.125, 1.422, 2.5
 341031033, -0.227, -0.113, 1.34, 2.5, -0.309, -0.098, 1.399, 2.5
 341230953, -0.103, -0.192, 1.24, 2.5, -0.227, -0.113, 1.34, 2.5
 341430873, 0.012, -0.297, 1.092, 2.5, -0.103, -0.192, 1.24, 2.5
 341630793, 0.108, -0.382, 0.9, 2.5, 0.012, -0.297, 1.092, 2.5
 341830713, 0.204, -0.42, 0.702, 2.5, 0.108, -0.382, 0.9, 2.5
 342031466, 0.288, -0.376, 0.5330001, 2.5, 0.204, -0.42, 0.702, 2.5
 342231386, 0.348, -0.269, 0.408, 2.5, 0.288, -0.376, 0.5330001, 2.5
 342431306, 0.38, -0.151, 0.335, 2.5, 0.348, -0.269, 0.408, 2.5
 342631226, 0.39, -0.019, 0.316, 2.5, 0.38, -0.151, 0.335, 2.5
 342831146, 0.361, 0.144, 0.33, 2.5, 0.39, -0.019, 0.316, 2.5
 343031066, 0.313, 0.321, 0.359, 2.5, 0.361, 0.144, 0.33, 2.5
 343230986, 0.265, 0.471, 0.39, 2.5, 0.313, 0.321, 0.359, 2.5
 343430906, 0.184, 0.567, 0.42, 2.5, 0.265, 0.471, 0.39, 2.5
 343630826, 0.063, 0.611, 0.444, 2.5, 0.184, 0.567, 0.42, 2.5
 343830746, -0.019, 0.614, 0.462, 2.5, 0.063, 0.611, 0.444, 2.5
 344030666, -0.061, 0.59, 0.475, 2.5, -0.019, 0.614, 0.462, 2.5
 344231419, -0.114, 0.537, 0.484, 2.5, -0.061, 0.59, 0.475, 2.5
 344431339, -0.208, 0.456, 0.49, 2.5, -0.114, 0.537, 0.484, 2.5
 344631259, -0.304, 0.405, 0.493, 2.5, -0.208, 0.456, 0.49, 2.5
 344831179, -0.371, 0.397, 0.492, 2.5, -0.304, 0.405, 0.493, 2.5
 345031099, -0.405, 0.371, 0.492, 2.5, -0.371, 0.397, 0.492, 2.5
 345231019, -0.399, 0.311, 0.491, 2.5, -0.405, 0.371, 0.492, 2.5
 345430939, -0.357, 0.262, 0.488, 2.5, -0.399, 0.311, 0.491, 2.5
 345630859, -0.303, 0.242, 0.486, 2.5, -0.357, 0.262, 0.488, 2.5
 345830779, -0.26, 0.199, 0.485, 2.5, -0.303, 0.242, 0.486, 2.5
 346030699, -0.226, 0.111, 0.485, 2.5, -0.26, 0.199, 0.485, 2.5
 346231452, -0.145, 0.015, 0.484, 2.5, -0.226, 0.111, 0.485, 2.5
 346431372, -0.063, -0.042, 0.483, 2.5, -0.145, 0.015, 0.484, 2.5
 346631292, -0.063, -0.072, 0.481, 2.5, -0.063, -0.042, 0.483, 2.5
 346831212, -0.128, -0.08800001, 0.481, 2.5, -0.063, -0.072, 0.481, 2.5
 347031132, -0.184, -0.101, 0.48, 2.5, -0.128, -0.08800001, 0.481, 2.5
 347231052, -0.194, -0.105, 0.478, 2.5, -0.184, -0.101, 0.48, 2.5
 347430972, -0.201, -0.094, 0.477, 2.5, -0.194, -0.105, 0.478, 2.5
 347630892, -0.236, -0.078, 0.477, 2.5, -0.201, -0.094, 0.477, 2.5
 347830812, -0.27, -0.081, 0.477, 2.5, -0.236, -0.078, 0.477, 2.5
 348030732, -0.226, -0.098, 0.478, 2.5, -0.27, -0.081, 0.477, 2.5
 348231485, -0.175, -0.108, 0.48, 2.5, -0.226, -0.098, 0.478, 2.5
 348431405, -0.172, -0.122, 0.481, 2.5, -0.175, -0.108, 0.48, 2.5
 348631325, -0.185, -0.147, 0.482, 2.5, -0.172, -0.122, 0.481, 2.5
 348831245, -0.225, -0.16, 0.482, 2.5, -0.185, -0.147, 0.482, 2.5
 349031165, -0.277, -0.178, 0.481, 2.5, -0.225, -0.16, 0.482, 2.5
 349231085, -0.212, -0.24, 0.481, 2.5, -0.277, -0.178, 0.481, 2.5
 349431005, -0.186, -0.324, 0.481, 2.5, -0.212, -0.24, 0.481, 2.5
 349630925, -0.176, -0.364, 0.48, 2.5, -0.186, -0.324, 0.481, 2.5
 349830845, -0.107, -0.338, 0.479, 2.5, -0.176, -0.364, 0.48, 2.5
 350030765, -0.044, -0.313, 0.478, 2.5, -0.107, -0.338, 0.479, 2.5
 350230685, 0.034, -0.314, 0.477, 2.5, -0.044, -0.313, 0.478, 2.5
 350431438, 0.085, -0.34, 0.475, 2.5, 0.034, -0.314, 0.477, 2.5
 350631358, 0.07, -0.356, 0.472, 2.5, 0.085, -0.34, 0.475, 2.5
 350831278, 0.006, -0.308, 0.469, 2.5, 0.07, -0.356, 0.472, 2.5
 351031198, -0.043, -0.246, 0.466, 2.5, 0.006, -0.308, 0.469, 2.5
 351231118, -0.052, -0.2, 0.467, 2.5, -0.043, -0.246, 0.466, 2.5
 351431038, -0.024, -0.177, 0.469, 2.5, -0.052, -0.2, 0.467, 2.5
 351630958, 0.01, -0.194, 0.471, 2.5, -0.024, -0.177, 0.469, 2.5
 351830878, -0.004, -0.217, 0.473, 2.5, 0.01, -0.194, 0.471, 2.5
 352030798, -0.055, -0.199, 0.475, 2.5, -0.004, -0.217, 0.473, 2.5
 352230718, -0.08400001, -0.141, 0.478, 2.5, -0.055, -0.199, 0.475, 2.5
 352431471, -0.08400001, -0.081, 0.48, 2.5, -0.08400001, -0.141, 0.478, 2.5
 352631391, -0.062, -0.041, 0.482, 2.5, -0.08400001, -0.081, 0.48, 2.5
 352831311, -0.019, -0.016, 0.484, 2.5, -0.062, -0.041, 0.482, 2.5
 353031231, 0.035, -0.018, 0.484, 2.5, -0.019, -0.016, 0.484, 2.5
 353231151, 0.093, -0.039, 0.485, 2.5, 0.035, -0.018, 0.484, 2.5
 353431071, 0.121, -0.051, 0.485, 2.5, 0.093, -0.039, 0.485, 2.5
 353630991, 0.151, -0.063, 0.485, 2.5, 0.121, -0.051, 0.485, 2.5
 353830911, 0.167, -0.072, 0.483, 2.5, 0.151, -0.063, 0.485, 2.5
 354030831, 0.164, -0.072, 0.481, 2.5, 0.167, -0.072, 0.483, 2.5
 354230751, 0.141, -0.067, 0.479, 2.5, 0.164, -0.072, 0.481, 2.5
 354430671, 0.104, -0.059, 0.477, 2.5, 0.141, -0.067, 0.479, 2.5
 354631424, 0.08000001, -0.034, 0.476, 2.5, 0.104, -0.059, 0.477, 2.5
 354831344, 0.07600001, -0.013, 0.476, 2.5, 0.08000001, -0.034, 0.476, 2.5
 355031264, 0.113, 0.025, 0.478, 2.5, 0.07600001, -0.013, 0.476, 2.5
 355231184, 0.131, 0.083, 0.48, 2.5, 0.113, 0.025, 0.478, 2.5
 355431104, 0.181, 0.133, 0.482, 2.5, 0.131, 0.083, 0.48, 2.5
 355631024, 0.188, 0.202, 0.481, 2.5, 0.181, 0.133, 0.482, 2.5
 355830944, 0.104, 0.271, 0.48, 2.5, 0.188, 0.202, 0.481, 2.5
 356030864, 0.064, 0.31, 0.481, 2.5, 0.104, 0.271, 0.48, 2.5
 356230784, 0.045, 0.313, 0.477, 2.5, 0.064, 0.31, 0.481, 2.5
 356430704, 0.045, 0.312, 0.467, 2.5, 0.045, 0.313, 0.477, 2.5
 356631457, -0.004, 0.352, 0.466, 2.5, 0.045, 0.312, 0.467, 2.5
 356831377, -0.048, 0.374, 0.471, 2.5, -0.004, 0.352, 0.466, 2.5
 357031297, -0.071, 0.342, 0.476, 2.5, -0.048, 0.374, 0.471, 2.5
 357231217, -0.096, 0.26, 0.483, 2.5, -0.071, 0.342, 0.476, 2.5
 357431137, -0.173, 0.161, 0.486, 2.5, -0.096, 0.26, 0.483, 2.5
 357631057, -0.185, 0.09500001, 0.492, 2.5, -0.173, 0.161, 0.486, 2.5
 357830977, -0.194, 0.07, 0.491, 2.5, -0.185, 0.09500001, 0.492, 2.5
 358030897, -0.181, 0.067, 0.489, 2.5, -0.194, 0.07, 0.491, 2.5
 358230817, -0.179, 0.067, 0.488, 2.5, -0.181, 0.067, 0.489, 2.5
 358430737, -0.147, 0.05, 0.486, 2.5, -0.179, 0.067, 0.488, 2.5
 358630657, -0.106, 0.008, 0.484, 2.5, -0.147, 0.05, 0.486, 2.5
 358831410, -0.053, -0.043, 0.496, 2.5, -0.106, 0.008, 0.484, 2.5
 359031330, -0.034, -0.12, 0.517, 2.5, -0.053, -0.043, 0.496, 2.5
 359231250, 0.007, -0.209, 0.528, 2.5, -0.034, -0.12, 0.517, 2.5
 359431170, 0.09, -0.271, 0.528, 2.5, 0.007, -0.209, 0.528, 2.5
 359631090, 0.122, -0.307, 0.5, 2.5, 0.09, -0.271, 0.528, 2.5
 359831010, 0.137, -0.323, 0.457, 2.5, 0.122, -0.307, 0.5, 2.5
 360030930, 0.147, -0.329, 0.42, 2.5, 0.137, -0.323, 0.457, 2.5
 360230850, -0.034, 0.058, -0.068, 2.5, 0.147, -0.329, 0.42, 2.5
 360430770, -0.017, 0.051, -0.067, 2.5, -0.034, 0.058, -0.068, 2.5
 360630690, -0.004, -0.015, 0.017, 2.5, -0.017, 0.051, -0.067, 2.5
 360831443, -0.002, -0.012, 0.007, 2.5, -0.004, -0.015, 0.017, 2.5
 361031363, -0.002, -0.01, -0.003, 2.5, -0.002, -0.012, 0.007, 2.5
 361231283, -0.002, -0.01, 0, 2.5, -0.002, -0.01, -0.003, 2.5
 361431203, -0.002, -0.01, 0, 2.5, -0.002, -0.01, 0, 2.5
 361631123, -0.002, -0.01, 0, 2.5, -0.002, -0.01, 0, 2.5
 361831043, -0.002, -0.01, 0, 2.5, -0.002, -0.01, 0, 2.5
 362030963, -0.002, -0.01, 0, 2.5, -0.002, -0.01, 0, 2.5
 362230883, -0.002, -0.01, 0, 2.5, -0.002, -0.01, 0, 2.5
 362430803, -0.002, -0.01, 0, 2.5, -0.002, -0.01, 0, 2.5
