TimeUS,CAN,CAE,CAD,CAe,NAN,NAE,NAD,NAe,m10,m00,Gye
 196160671, -3.917787E-06, 4.496068E-05, -7.91233E-07, 6.484905E-06, 0, 0, 0, 0, -0.9999978, -0.001443414, 2.135444
 196231476, -0.2587638, 3.429483, -0.1218783, 0.5092208, -0.1925483, 3.43437, 0.0004293441, 0.5092143, -0.9999978, -0.001442874, 29.90701
 196431396, -0.1924698, 3.441796, 0.0001778702, 0.5097404, -4.790312E-05, 0.004182424, -0.0001906502, 0.0005187925, -0.9999978, -0.001438949, 171.0713
 196631316, -0.0002378817, 0.01141707, -0.0003684203, 0.00104407, -0.0003987435, 0.003961852, 1.107964E-05, 0.0005187925, -0.9999978, -0.00143287, 0.3503954
 196831236, -0.0004326321, 0.01084233, -0.0001440259, 0.00104407, 0.0001924467, 0.004110239, -6.95868E-05, 0.0005187925, -0.9999978, -0.001425967, 0.3503954
 197031156, -0.0002791659, 0.01118723, -2.70711E-05, 0.00104407, -0.0005187989, 0.003931674, -0.0002435103, 0.0005187925, -0.9999978, -0.001420143, 0.3503954
 197231076, -0.0002405577, 0.01145549, -0.0004401342, 0.00104407, 0.0001167687, 0.004260274, -0.0001641463, 0.0005187925, -0.9999978, -0.001414099, 0.3503954
 197430996, 0.000139325, 0.01157085, -0.000469934, 0.00104407, -7.878562E-06, 0.00388643, -0.0004939153, 0.0005187925, -0.9999978, -0.001408981, 0.3503954
 197630916, -5.714845E-05, 0.01100545, -0.0008839348, 0.00104407, 5.159987E-05, 0.003995183, -0.0001979179, 0.0005187925, -0.9999978, -0.001403784, 0.3503954
 197830836, 0.0004331052, 0.01156927, -0.0004648815, 0.00104407, 0.0001660507, 0.004324477, -0.0003319294, 0.0005187925, -0.9999978, -0.001396895, 0.3503954
 198030756, 0.0004153253, 0.01175433, -0.0008588037, 0.00104407, -1.667264E-05, 0.004380681, -0.0003571882, 0.0005187925, -0.9999978, -0.001390379, 0.3503954
 198230676, 0.0001037887, 0.01191823, -0.0003443259, 0.00104407, 0.0003567857, 0.004039671, -0.0003232854, 0.0005187925, -0.9999978, -0.001383547, 0.3503954
 198431429, 0.0002753202, 0.01138111, -0.0004934242, 0.001046232, 0.0001034456, 0.004128554, -0.0001311099, 0.0005209541, -0.9999978, -0.001379105, 0.3511209
 198631349, -2.099381E-05, 0.01145023, -0.0002009018, 0.001046232, -0.0002275586, 0.004208298, -0.0001422766, 0.0005187925, -0.9999978, -0.001384923, 0.3511209
 198831269, 2.874449E-05, 0.01142637, -0.0001070131, 0.00104407, 0.0001896455, 0.004125988, -0.0005052463, 0.0005187925, -0.9999978, -0.001389582, 0.3503954
 199031189, 0.0002988453, 0.01191947, -0.0006638802, 0.00104407, 0.00023731, 0.00474982, -0.0002938358, 0.0005187925, -0.9999978, -0.001395147, 0.3503954
 199231109, 0.0001279905, 0.01191385, -0.0004149577, 0.00104407, -0.0001384398, 0.004263312, -2.455087E-05, 0.0005187925, -0.9999978, -0.001398999, 0.3503954
 199431029, -0.0001952081, 0.01145074, -3.454854E-05, 0.00104407, 7.172264E-05, 0.00413348, 3.21081E-05, 0.0005187925, -0.9999978, -0.00140176, 0.3503954
 199630949, 3.023358E-05, 0.01124952, 0.0001429534, 0.00104407, 0.0001547198, 0.003789781, 5.253955E-05, 0.0005187925, -0.9999978, -0.001403779, 0.3503954
 199830869, -7.156241E-05, 0.01144062, 2.235715E-05, 0.00104407, -0.0003767505, 0.004603362, -0.000157969, 0.0005187925, -0.9999978, -0.00140527, 0.3503954
 200030789, -0.0003034384, 0.01184402, -0.0003129029, 0.00104407, 0.0005358804, 0.003849129, -0.0002665884, 0.0005187925, -0.9999978, -0.001405813, 0.3503954
 200230709, 0.0007598079, 0.01102249, -4.588199E-05, 0.00104407, 0.0003070982, 0.004245372, 4.502164E-05, 0.0005187925, -0.9999978, -0.00140578, 0.3503954
 200431462, 0.0003243696, 0.01140444, -0.0004629492, 0.001046232, 0.0001496628, 0.003896137, -0.000403345, 0.0005209541, -0.9999978, -0.001407013, 0.3511209
 200631382, -2.996307E-05, 0.01144992, -0.0006613536, 0.001046232, -0.0001102524, 0.004230603, -0.0002703229, 0.0005187925, -0.9999978, -0.00140613, 0.3511209
 200831302, 2.299129E-05, 0.01129603, -0.0002818184, 0.00104407, -2.75866E-05, 0.00423794, -3.636335E-05, 0.0005187925, -0.9999978, -0.001403764, 0.3503954
 201031222, 4.747087E-05, 0.01151172, 4.854048E-05, 0.00104407, 0.0003803022, 0.00398677, -0.0002457804, 0.0005187925, -0.9999979, -0.001398232, 0.3503954
 201231142, 0.0002797407, 0.01096269, -0.0003694581, 0.00104407, -0.0001015876, 0.003900267, 0.0001453486, 0.0005187925, -0.9999979, -0.00139331, 0.3503954
 201431062, -0.0004246816, 0.0111252, 0.0001609182, 0.00104407, -0.0002312577, 0.003975047, 8.133968E-06, 0.0005187925, -0.9999979, -0.001388299, 0.3503954
 201630982, -4.717721E-05, 0.01093931, 4.772063E-05, 0.00104407, 0.0001033819, 0.003768705, 0.0003816902, 0.0005187925, -0.9999979, -0.001382786, 0.3503954
 201830902, -0.0001381129, 0.01095723, 0.0002096446, 0.00104407, -0.0007017707, 0.004352214, 3.504544E-06, 0.0005187925, -0.9999979, -0.001376563, 0.3503954
 202030822, -0.000599789, 0.01172052, -0.0002117836, 0.00104407, 0.0002165225, 0.003955781, -0.000173572, 0.0005187925, -0.9999979, -0.001370503, 0.3503954
 202230742, 0.000308076, 0.01131484, -0.0003502994, 0.00104407, 0.0002779014, 0.00424851, 0.0002781208, 0.0005187925, -0.9999979, -0.001363581, 0.3503954
 202430662, 0.0005213831, 0.01145699, -2.946273E-05, 0.00104407, 0.0002102836, 0.004096992, -0.0003626588, 0.0005187925, -0.9999979, -0.001357379, 0.3503954
 202631415, 0.0004201381, 0.0113155, -0.0005557517, 0.001046232, 0.0003050814, 0.003831868, -0.0002003651, 0.0005209541, -0.9999979, -0.001352824, 0.3511209
 202831335, 0.0004954253, 0.01108607, -0.0003914132, 0.001046232, -0.0001082258, 0.003811744, 3.772537E-05, 0.0005187925, -0.9999979, -0.001346439, 0.3511209
 203031255, -9.533354E-05, 0.01128107, -2.30029E-05, 0.00104407, 0.000449995, 0.004692324, 0.000211401, 0.0005187925, -0.9999978, -0.001338956, 0.3503954
 203231175, 0.0003411777, 0.01198904, -0.0001492559, 0.00104407, 5.165167E-05, 0.004317418, -0.0005468444, 0.0005187925, -0.9999978, -0.001331763, 0.3503954
 203431095, 0.000156034, 0.01140657, -0.0005738989, 0.00104407, 0.0002684924, 0.004122586, 0.0001712138, 0.0005187925, -0.9999978, -0.001322836, 0.3503954
 203631015, 0.0004299462, 0.01161758, 0.0003243388, 0.00104407, 0.000430371, 0.004209276, 2.716527E-05, 0.0005187925, -0.9999978, -0.001315597, 0.3503954
 203830935, 0.0004612729, 0.01177184, -1.232012E-05, 0.00104407, -0.0002123347, 0.004330025, -5.01289E-05, 0.0005187925, -0.9999978, -0.001322496, 0.3503954
 204030855, 9.349019E-05, 0.01174139, -0.0002990909, 0.00104407, 0.0001584118, 0.004287591, -0.0003141124, 0.0005187925, -0.9999978, -0.001329283, 0.3503954
 204230775, 0.0002663393, 0.01160712, -0.0005063737, 0.00104407, 0.0004297447, 0.004100329, -0.0002557709, 0.0005187925, -0.9999978, -0.001334533, 0.3503954
 204430695, 0.0005906133, 0.01133875, -0.0005899238, 0.00104407, -0.0001397279, 0.004242623, -0.0002154847, 0.0005187925, -0.9999978, -0.001338868, 0.3503954
 204631448, -0.0001138119, 0.01153507, -3.417672E-05, 0.001046232, -1.030601E-05, 0.004491099, -0.0003133358, 0.0005209541, -0.9999979, -0.001344857, 0.3511209
 204831368, 0.0001450983, 0.01142675, -0.0001664619, 0.001046232, -9.981701E-05, 0.00390286, 0.0001338554, 0.0005187925, -0.9999978, -0.001346593, 0.3511209
 205031288, -0.0002065064, 0.01128679, -0.0003098774, 0.00104407, 1.524854E-05, 0.004399258, -0.0002634735, 0.0005187925, -0.9999978, -0.001347742, 0.3503954
 205231208, -7.152228E-05, 0.01165363, -0.0003832834, 0.00104407, 0.0002180303, 0.004175725, -0.0002500583, 0.0005187925, -0.9999978, -0.001348836, 0.3503954
 205431128, 0.0002992253, 0.01130674, -0.0002007766, 0.00104407, -0.000175412, 0.003595399, 0.0003008342, 0.0005187925, -0.9999978, -0.001350239, 0.3503954
 205631048, 7.817212E-05, 0.01106074, -2.023958E-05, 0.00104407, 1.898722E-05, 0.003892448, 0.000300609, 0.0005187925, -0.9999978, -0.001350295, 0.3503954
 205830968, -6.725454E-05, 0.01122257, 0.0001772946, 0.00104407, -0.0001530731, 0.004424763, 0.000171265, 0.0005187925, -0.9999978, -0.001348388, 0.3503954
 206030888, 6.083264E-06, 0.01159672, -0.0001404105, 0.00104407, -0.0001844158, 0.003976133, -0.0002015261, 0.0005187925, -0.9999978, -0.001346634, 0.3503954
 206230808, 6.720283E-05, 0.01111312, -0.0002107253, 0.00104407, 5.655317E-05, 0.004209923, 6.348931E-05, 0.0005187925, -0.9999978, -0.001344863, 0.3503954
 206430728, 0.0002153379, 0.01134915, 0.0001606942, 0.00104407, 0.0003190204, 0.004108829, -0.0001404534, 0.0005187925, -0.9999979, -0.00134299, 0.3503954
 206631481, 0.0004903036, 0.01137882, -0.0001202575, 0.001046232, -8.001196E-07, 0.004371379, 9.018548E-06, 0.0005209541, -0.9999978, -0.001342186, 0.3511209
 206831401, -8.592683E-05, 0.01187716, 9.258181E-05, 0.001046232, -5.812326E-05, 0.004158967, -1.08449E-05, 0.0005187925, -0.9999979, -0.001340664, 0.3511209
 207031321, -0.0001848395, 0.01120431, -0.0003327159, 0.00104407, -0.0001202837, 0.004475929, -0.0004644788, 0.0005187925, -0.9999979, -0.001338081, 0.3503954
 207231241, 4.083926E-05, 0.01174234, -0.0004913952, 0.00104407, -9.257098E-05, 0.003841149, -2.181856E-06, 0.0005187925, -0.9999979, -0.001333343, 0.3503954
 207431161, -0.0001823721, 0.01089793, 3.551612E-05, 0.00104407, -0.0002812223, 0.00417838, 0.0001050279, 0.0005187925, -0.9999979, -0.001328447, 0.3503954
 207631081, -0.0001146657, 0.01138934, -7.225123E-05, 0.00104407, 0.0002360787, 0.004461291, 0.0001353009, 0.0005187925, -0.9999979, -0.001323577, 0.3503954
 207831001, 0.0001311203, 0.0115153, 0.0001815344, 0.00104407, -1.428353E-05, 0.003710917, 0.0006072929, 0.0005187925, -0.9999979, -0.001318768, 0.3503954
 208030921, -0.0001855476, 0.01136272, 0.0004758516, 0.00104407, -0.0001750194, 0.004352413, 0.0004428868, 0.0005187925, -0.9999979, -0.001313385, 0.3503954
 208230841, -1.090326E-05, 0.01164236, 0.0003381496, 0.00104407, 0.0002124824, 0.004016838, -0.0002642408, 0.0005187925, -0.9999979, -0.001307436, 0.3503954
 208430761, -3.215485E-05, 0.01129202, -0.0003072534, 0.00104407, -0.0002269483, 0.004470134, -0.0002232743, 0.0005187925, -0.9999979, -0.001302493, 0.3503954
 208630681, -0.0001615196, 0.01190522, -0.0004451103, 0.00104407, -3.774655E-05, 0.004207174, -0.0001108441, 0.0005187925, -0.9999978, -0.001296298, 0.3503954
 208831434, 4.650914E-05, 0.01200669, -0.0001105971, 0.001046232, 0.0002323663, 0.004456051, -4.289341E-05, 0.0005209541, -0.9999979, -0.001292282, 0.3511209
 209031354, 0.0005222349, 0.01184206, 7.981088E-05, 0.001046232, 0.0005781368, 0.004156759, 0.000710333, 0.0005187925, -0.9999979, -0.001300963, 0.3511209
 209231274, 0.0006545141, 0.01145556, 0.00077022, 0.00104407, 0.0001213017, 0.003985585, 0.0005110448, 0.0005187925, -0.9999979, -0.00130736, 0.3503954
 209431194, 6.598924E-05, 0.01139829, 0.0003366612, 0.00104407, -0.0003780127, 0.003721685, -0.0003019245, 0.0005187925, -0.9999979, -0.001313012, 0.3503954
 209631114, -0.0006302716, 0.01103056, -0.0002268098, 0.00104407, 1.488979E-05, 0.004255923, 2.767648E-05, 0.0005187925, -0.9999979, -0.001317868, 0.3503954
 209831034, -0.0001125492, 0.01159605, 1.563638E-05, 0.00104407, 0.0001330494, 0.00479522, 2.156587E-05, 0.0005187925, -0.9999979, -0.001321343, 0.3503954
 210030954, 0.0002529178, 0.01212986, 0.0001558717, 0.00104407, 2.794341E-05, 0.004245426, -0.000218714, 0.0005187925, -0.9999979, -0.00132509, 0.3503954
 210230874, -0.0001620244, 0.01159445, -8.250512E-05, 0.00104407, -0.0003045292, 0.004162956, 0.0002436128, 0.0005187925, -0.9999979, -0.001327733, 0.3503954
 210430794, -0.0002124005, 0.01149994, 0.0001300303, 0.00104407, 0.0001876855, 0.004379349, -4.786722E-05, 0.0005187925, -0.9999979, -0.001328918, 0.3503954
 210630714, 0.0001077522, 0.01115007, -6.48823E-05, 0.00104407, 0.0004009453, 0.003873941, -0.00014481, 0.0005187925, -0.9999979, -0.001327298, 0.3503954
 210831467, 0.0002845615, 0.01135535, -2.028564E-05, 0.001046232, 0.0001126037, 0.003763667, 7.549722E-05, 0.0005209541, -0.9999979, -0.001327837, 0.3511209
 211031387, 0.0001499817, 0.01117758, 9.345845E-05, 0.001046232, 3.74049E-06, 0.004262551, -0.0003960205, 0.0005187925, -0.9999979, -0.001327742, 0.3511209
 211231307, 5.85812E-05, 0.01125957, -0.0007090009, 0.00104407, -6.737919E-05, 0.003741227, 2.049492E-07, 0.0005187925, -0.9999979, -0.001326744, 0.3503954
 211431227, -0.0002905504, 0.01109074, -0.0003058819, 0.00104407, 0.0003254308, 0.004328186, 0.0001817834, 0.0005187925, -0.9999979, -0.001324061, 0.3503954
 211631147, 0.0002374697, 0.01148798, -0.0001292915, 0.00104407, -0.0004244735, 0.004056427, -0.0001948673, 0.0005187925, -0.9999979, -0.001322356, 0.3503954
 211831067, -0.0008235314, 0.01129176, -0.0002054691, 0.00104407, -0.0001014111, 0.004309672, -0.0004208669, 0.0005187925, -0.9999979, -0.001319979, 0.3503954
 212030987, 1.519003E-05, 0.01175642, -0.0004078973, 0.00104407, 0.0002301251, 0.004443049, 5.966422E-05, 0.0005187925, -0.9999979, -0.00131637, 0.3503954
 212230907, 0.0002378577, 0.01152752, 0.0001796373, 0.00104407, 6.059813E-05, 0.004017076, 0.0002935547, 0.0005187925, -0.9999979, -0.001313097, 0.3503954
 212430827, 0.0001965711, 0.01110449, 0.00015425, 0.00104407, 0.000318942, 0.004049122, -0.0003098559, 0.0005187925, -0.9999979, -0.001308454, 0.3503954
 212630747, 0.0003772546, 0.01117815, -0.0002460484, 0.00104407, 0.0001145687, 0.003731741, 0.0001267629, 0.0005187925, -0.9999979, -0.001303985, 0.3503954
 212830667, -0.0001984701, 0.01071267, -6.225596E-05, 0.00104407, -0.0003140895, 0.004180911, -0.0001623624, 0.0005187925, -0.9999979, -0.001299126, 0.3503954
 213031420, -0.0002855964, 0.0113881, -0.0006162815, 0.001046232, -0.0005167878, 0.003701381, -0.0001831824, 0.0005209541, -0.9999979, -0.001295708, 0.3511209
 213231340, -0.0004602537, 0.01124564, 4.410531E-05, 0.001046232, 0.0002285214, 0.004086807, 0.0004851092, 0.0005187925, -0.9999979, -0.001290823, 0.3511209
 213431260, 0.0002524926, 0.01138202, 0.0005273092, 0.00104407, -0.000184496, 0.004320855, -0.0001577104, 0.0005187925, -0.9999979, -0.001283487, 0.3503954
 213631180, -0.0001543848, 0.01144914, -0.0003607093, 0.00104407, -4.263571E-05, 0.00394679, -0.0005155276, 0.0005187925, -0.9999979, -0.00127802, 0.3503954
 213831100, -0.0001247564, 0.0111904, -0.0007244368, 0.00104407, -8.726535E-05, 0.003804215, -0.0003269901, 0.0005187925, -0.9999979, -0.001272241, 0.3503954
 214031020, 0.0002394057, 0.01140462, -0.0003980784, 0.00104407, 3.295807E-05, 0.004446247, 7.425079E-05, 0.0005187925, -0.9999979, -0.00126628, 0.3503954
 214230940, 0.00020461, 0.01195166, 7.893977E-05, 0.00104407, -7.14473E-05, 0.00390247, 4.459027E-06, 0.0005187925, -0.9999979, -0.001275765, 0.3503954
 214430860, 0.0003918248, 0.01115034, 2.716704E-07, 0.00104407, -6.744414E-05, 0.004139184, 7.876583E-06, 0.0005187925, -0.9999979, -0.00128439, 0.3503954
 214630780, 0.0001777385, 0.01169538, -0.0003071438, 0.00104407, -8.363136E-05, 0.004247583, -0.0003335047, 0.0005187925, -0.9999979, -0.001291763, 0.3503954
 214830700, 4.133502E-05, 0.01190674, -0.0003881189, 0.00104407, 7.853431E-05, 0.004640676, -6.836777E-05, 0.0005187925, -0.9999979, -0.001298574, 0.3503954
 215031453, 0.0001155466, 0.0120423, -0.0006343092, 0.001046232, 0.0001920938, 0.004571861, -0.0003624658, 0.0005209541, -0.9999979, -0.001303929, 0.3511209
 215231373, 6.250278E-05, 0.01221525, -0.0005520041, 0.001046232, -5.345442E-06, 0.004387664, 1.037064E-05, 0.0005187925, -0.9999979, -0.001307997, 0.3511209
 215431293, 0.000145569, 0.01150178, 6.328793E-05, 0.00104407, 6.764114E-05, 0.003891461, 0.0003577947, 0.0005187925, -0.9999979, -0.001310147, 0.3503954
 215631213, 9.007904E-05, 0.01117294, 0.0002745007, 0.00104407, -0.0001522487, 0.003716754, -0.0002372567, 0.0005187925, -0.9999979, -0.001311777, 0.3503954
 215831133, 0.0002315056, 0.01068911, -0.0001915285, 0.00104407, 0.0003305748, 0.004201483, -9.845133E-06, 0.0005187925, -0.9999979, -0.001313105, 0.3503954
 216031053, 0.0005035915, 0.01130722, -8.188665E-05, 0.00104407, 0.0001618027, 0.004339243, -9.518272E-05, 0.0005187925, -0.9999979, -0.001313379, 0.3503954
 216230973, 0.0003386691, 0.01159419, -0.0002264738, 0.00104407, 0.0002441872, 0.003625463, 2.331277E-05, 0.0005187925, -0.9999979, -0.001313599, 0.3503954
 216430893, 0.0007149285, 0.01083149, -0.0002973427, 0.00104407, 0.000304744, 0.004293659, -0.0002462546, 0.0005187925, -0.9999979, -0.001312963, 0.3503954
 216630813, 9.783374E-05, 0.01144481, -0.0002860485, 0.00104407, 0.0002383802, 0.00428561, 0.0004968597, 0.0005187925, -0.9999979, -0.001312383, 0.3503954
 216830733, -4.903637E-05, 0.01149113, 4.840918E-05, 0.00104407, -0.0003327155, 0.003684038, -0.0003061786, 0.0005187925, -0.9999979, -0.001310057, 0.3503954
 217031486, -0.0001952248, 0.0107866, -0.0009199659, 0.001046232, -0.0001126369, 0.003814469, -0.0002793982, 0.0005187925, -0.9999979, -0.001306277, 0.3511209
 217231406, 0.000121451, 0.01101617, -0.0001258822, 0.001046232, -6.592682E-05, 0.004165122, 0.0001143264, 0.0005209541, -0.9999979, -0.001304731, 0.3511209
 217431326, -1.267713E-05, 0.01130189, 1.89602E-05, 0.001046232, 0.0003245718, 0.0041729, -9.900662E-05, 0.0005187925, -0.9999979, -0.001301434, 0.3511209
 217631246, -0.0001264653, 0.01124302, -0.0003043185, 0.00104407, -0.0003468801, 0.004236283, -0.0003430471, 0.0005187925, -0.9999979, -0.001296027, 0.3503954
 217831166, -0.0006872042, 0.01179344, -0.000376268, 0.00104407, -0.0001951976, 0.004251342, 1.949484E-05, 0.0005187925, -0.9999979, -0.001293669, 0.3503954
 218031086, -0.0001133753, 0.01154837, -0.0003062966, 0.00104407, -0.0001171282, 0.00410437, -0.0001564806, 0.0005187925, -0.9999979, -0.001290754, 0.3503954
 218231006, -0.0001693331, 0.01123072, -0.0003676005, 0.00104407, -0.0001477402, 0.003995565, -0.0001027364, 0.0005187925, -0.9999979, -0.001287271, 0.3503954
 218430926, 0.0001000841, 0.01141895, -0.00015379, 0.00104407, -5.378566E-05, 0.004403883, -0.0001294822, 0.0005187925, -0.9999979, -0.001284023, 0.3503954
 218630846, -9.177746E-05, 0.01161802, -0.0005148498, 0.00104407, 0.0001032225, 0.004277578, 0.0004033716, 0.0005187925, -0.9999978, -0.001280204, 0.3503954
 218830766, 0.0001707809, 0.01174637, 7.252297E-05, 0.00104407, -0.0002442318, 0.004368221, -0.000390153, 0.0005187925, -0.9999978, -0.001276379, 0.3503954
 219030686, -0.0004050853, 0.01180762, -0.0003690399, 0.00104407, -5.170296E-05, 0.004250457, -0.0002337307, 0.0005187925, -0.9999978, -0.001273209, 0.3503954
 219231439, 0.0002381298, 0.01198421, -0.0005471278, 0.001046232, 0.0001598468, 0.004228997, -0.000291051, 0.0005209541, -0.9999978, -0.001269673, 0.3511209
 219431359, 0.0004273884, 0.01145978, -0.0002849702, 0.001046232, 0.000493087, 0.004494317, -9.88231E-05, 0.0005187925, -0.9999978, -0.00127954, 0.3511209
 219631279, 0.0005673763, 0.011604, -0.000442963, 0.00104407, 3.70301E-05, 0.004071416, -0.0001979703, 0.0005187925, -0.9999978, -0.001287651, 0.3503954
 219831199, 0.0001226639, 0.01147584, -0.0004127984, 0.00104407, 0.0001238181, 0.004236031, 5.441515E-05, 0.0005187925, -0.9999978, -0.001295848, 0.3503954
 220031119, 0.0001580138, 0.01161273, -0.0001749614, 0.00104407, -1.039633E-05, 0.004499011, 9.573565E-05, 0.0005187925, -0.9999978, -0.001303726, 0.3503954
 220231039, 7.346892E-05, 0.0115277, -0.0002198758, 0.00104407, -0.0001171266, 0.003856153, 5.234889E-05, 0.0005187925, -0.9999978, -0.001311888, 0.3503954
 220430959, -0.0002464973, 0.01115403, 0.000126011, 0.00104407, -0.0001160059, 0.004248581, 4.014079E-05, 0.0005187925, -0.9999978, -0.00131933, 0.3503954
 220630879, -0.0003312998, 0.01176334, -5.398256E-05, 0.00104407, -0.0002725338, 0.004211297, -8.34596E-05, 0.0005187925, -0.9999978, -0.001324652, 0.3503954
 220830799, -0.0003905589, 0.01169746, 0.0001338435, 0.00104407, -0.0004771294, 0.004969895, 0.0001555238, 0.0005187925, -0.9999978, -0.001329562, 0.3503954
 221030719, -0.0004103874, 0.0124014, -0.0001246954, 0.00104407, 0.0004458299, 0.004025656, 0.0002124151, 0.0005187925, -0.9999978, -0.001333399, 0.3503954
 221231472, 0.0006536454, 0.01115348, -8.8433E-05, 0.001046232, 0.0002811308, 0.003800199, -6.736007E-05, 0.0005209541, -0.9999978, -0.001334458, 0.3511209
 221431392, 0.0001809585, 0.01128521, -0.0003646289, 0.001046232, 0.0001655662, 0.00445521, 0.0004590248, 0.0005187925, -0.9999978, -0.001338174, 0.3511209
 221631312, 0.0005337654, 0.01165997, 0.0004770505, 0.00104407, 0.0004465895, 0.004114857, -0.0001663556, 0.0005187925, -0.9999978, -0.001341112, 0.3503954
 221831232, 0.0002657655, 0.0113769, -0.0005974908, 0.00104407, -0.0004910487, 0.004323229, -0.0001561375, 0.0005187925, -0.9999978, -0.001341328, 0.3503954
 222031152, -0.0003662263, 0.01183426, -0.0002969757, 0.00104407, -0.0001190745, 0.004104919, 0.000182863, 0.0005187925, -0.9999978, -0.001341526, 0.3503954
 222231072, -0.0001021623, 0.01152931, -3.236548E-05, 0.00104407, 0.0002315306, 0.004176565, 0.0002399974, 0.0005187925, -0.9999978, -0.001341384, 0.3503954
 222430992, 0.0001959062, 0.01161015, -0.0001755525, 0.00104407, 0.0001062781, 0.004286449, -0.0004002638, 0.0005187925, -0.9999978, -0.001341628, 0.3503954
 222630912, -0.0002524814, 0.01133073, -0.0007104857, 0.00104407, -0.0002165457, 0.004143274, -0.0007018808, 0.0005187925, -0.9999978, -0.001343242, 0.3503954
 222830832, 6.404125E-05, 0.01154655, -0.0007148993, 0.00104407, -0.0002393795, 0.004870831, -0.0001434563, 0.0005187925, -0.9999978, -0.001343805, 0.3503954
 223030752, -0.0002773117, 0.01195543, -0.0005114714, 0.00104407, -0.0002871825, 0.003944713, -0.0002497103, 0.0005187925, -0.9999978, -0.001342979, 0.3503954
 223230672, -0.0006367171, 0.01106205, -0.0003261394, 0.00104407, -1.851318E-05, 0.004243797, -0.0001734004, 0.0005187925, -0.9999978, -0.001341401, 0.3503954
 223431425, 8.365075E-06, 0.01149053, -0.0003706744, 0.001046232, -7.814911E-07, 0.004092967, -0.0005207009, 0.0005209541, -0.9999978, -0.001339354, 0.3511209
 223631345, -5.932356E-05, 0.01148159, -0.000846347, 0.001046232, -0.0003528455, 0.004370031, -0.0001839521, 0.0005187925, -0.9999978, -0.001336851, 0.3511209
 223831265, -0.0005848945, 0.01168214, -0.0002808353, 0.00104407, -0.0001730638, 0.004400977, 6.599885E-05, 0.0005187925, -0.9999978, -0.001333122, 0.3503954
 224031185, -0.0005556439, 0.01198667, 5.811753E-05, 0.00104407, -0.0005565153, 0.004587954, -0.0001826593, 0.0005187925, -0.9999978, -0.001330275, 0.3503954
 224231105, -0.0005500857, 0.01200975, -0.0004262197, 0.00104407, -9.719073E-05, 0.004080882, -0.0003390648, 0.0005187925, -0.9999978, -0.001327267, 0.3503954
 224431025, 4.648509E-05, 0.01131441, -0.0005355005, 0.00104407, -0.0003090832, 0.004490238, 0.000102274, 0.0005187925, -0.9999978, -0.001323938, 0.3503954
 224630945, -0.0005125562, 0.01173645, -0.0001973173, 0.00104407, -0.0002836697, 0.004283045, -8.590598E-05, 0.0005187925, -0.9999977, -0.001336416, 0.3503954
 224830865, -2.342814E-05, 0.01171645, -6.87217E-05, 0.00104407, -1.207671E-05, 0.003886308, -0.0001038613, 0.0005187925, -0.9999977, -0.001347814, 0.3503954
 225030785, -0.0001358677, 0.01123646, -1.905157E-05, 0.00104407, -0.0004815864, 0.004211084, 0.0001686268, 0.0005187925, -0.9999977, -0.001360224, 0.3503954
 225230705, -0.0001139714, 0.01138479, 0.0001139078, 0.00104407, 0.000276076, 0.004646679, -8.08738E-05, 0.0005187925, -0.9999977, -0.001369747, 0.3503954
 225431458, 0.000212377, 0.01197198, -0.0004079752, 0.001046232, 0.0001509541, 0.004383292, 5.595436E-06, 0.0005209541, -0.9999977, -0.001378862, 0.3511209
 225631378, -0.0001710091, 0.01170899, -0.0004146625, 0.001046232, -0.0001370188, 0.003928133, -0.0003497894, 0.0005187925, -0.9999977, -0.001386656, 0.3511209
 225831298, 0.0001383542, 0.01176034, -0.0004301103, 0.00104407, 0.0001223141, 0.004354388, -0.0001206488, 0.0005187925, -0.9999977, -0.001392376, 0.3503954
 226031218, 0.0002287611, 0.01162591, -0.0001635672, 0.00104407, -0.0002031067, 0.004172104, 6.695214E-05, 0.0005187925, -0.9999977, -0.001396942, 0.3503954
 226231138, -8.599735E-05, 0.01136234, -0.0001691952, 0.00104407, -0.0001356454, 0.00422335, 1.081869E-05, 0.0005187925, -0.9999977, -0.001402247, 0.3503954
 226431058, -0.0002223812, 0.011568, -0.000506053, 0.00104407, 3.646861E-05, 0.00419161, -0.0003455568, 0.0005187925, -0.9999977, -0.00140743, 0.3503954
 226630978, -2.185942E-05, 0.01176427, -0.000448057, 0.00104407, 0.0001234472, 0.004446421, -0.000278159, 0.0005187925, -0.9999977, -0.001411174, 0.3503954
 226830898, -0.0001234877, 0.01177467, -0.0006816128, 0.00104407, -0.0002246692, 0.00407112, -0.0001996219, 0.0005187925, -0.9999977, -0.001414768, 0.3503954
 227030818, -0.0002749642, 0.01145604, -0.0003455627, 0.00104407, 0.0002626132, 0.004098592, -0.0002325999, 0.0005187925, -0.9999977, -0.001417887, 0.3503954
 227230738, 0.0003723326, 0.01173312, -0.0004216749, 0.00104407, 0.0002504826, 0.00406914, -0.0003980557, 0.0005187925, -0.9999977, -0.00141954, 0.3503954
 227430658, 0.0003153574, 0.01151944, -0.0006009416, 0.00104407, -0.0003771387, 0.004427155, -7.590714E-05, 0.0005187925, -0.9999977, -0.001423127, 0.3503954
 227631411, -0.0004756354, 0.0120482, 8.621938E-05, 0.001046232, -1.917791E-05, 0.004352476, 0.0001102412, 0.0005209541, -0.9999977, -0.00142442, 0.3511209
 227831331, 0.0001753063, 0.01214427, -0.0004214508, 0.001046232, 0.0001863014, 0.004392564, -0.0003509345, 0.0005187925, -0.9999977, -0.001424753, 0.3511209
 228031251, 0.0003588294, 0.01148909, -0.0006382009, 0.00104407, -0.0001631884, 0.004447107, -2.877276E-05, 0.0005187925, -0.9999977, -0.001423832, 0.3503954
 228231171, -0.0001481005, 0.01199503, -0.0001023324, 0.00104407, 0.0003412478, 0.004502377, -0.0005736274, 0.0005187925, -0.9999977, -0.00142296, 0.3503954
 228431091, 0.0006502149, 0.01180822, -0.0006137729, 0.00104407, 0.0005435435, 0.004381811, -0.0003152992, 0.0005187925, -0.9999977, -0.001421258, 0.3503954
 228631011, 0.0007932513, 0.01173611, -0.0002749273, 0.00104407, 0.0001189202, 0.003965309, -2.745603E-05, 0.0005187925, -0.9999977, -0.001420702, 0.3503954
 228830931, 0.0003417052, 0.01153995, -4.288508E-05, 0.00104407, 0.0001849717, 0.004741063, 0.000256487, 0.0005187925, -0.9999976, -0.001418866, 0.3503954
 229030851, 0.000151917, 0.01220922, 0.0002421268, 0.00104407, -0.0002218384, 0.004364475, -0.0003469903, 0.0005187925, -0.9999976, -0.001416828, 0.3503954
 229230771, -0.00048211, 0.01171181, -0.0006272977, 0.00104407, -7.477719E-05, 0.004013265, -0.0001980645, 0.0005187925, -0.9999976, -0.001414639, 0.3503954
 229430691, 0.0002491213, 0.01155241, -0.0004052495, 0.00104407, -0.0001346415, 0.004343063, 0.0003436978, 0.0005187925, -0.9999976, -0.001412929, 0.3503954
 229631444, 9.525123E-05, 0.01161084, 0.0003821257, 0.001046232, -3.99288E-05, 0.004370032, 8.201298E-05, 0.0005209541, -0.9999976, -0.001413095, 0.3511209
 229831364, 0.0001027924, 0.01207824, -1.440666E-05, 0.001046232, 0.0001558626, 0.004812882, -0.0001209466, 0.0005187925, -0.9999976, -0.001425641, 0.3511209
 230031284, -0.0001419629, 0.01216664, -0.0007220298, 0.00104407, -3.354617E-05, 0.0042304, -0.0003448823, 0.0005187925, -0.9999976, -0.001436096, 0.3503954
 230231204, -8.994048E-05, 0.01149884, -0.0005648427, 0.00104407, -0.000158513, 0.004497003, 7.067355E-05, 0.0005187925, -0.9999976, -0.001447175, 0.3503954
 230431124, -0.0001989003, 0.01187899, 9.84239E-05, 0.00104407, -0.0001834032, 0.003970515, 0.0002700571, 0.0005187925, -0.9999976, -0.001455971, 0.3503954
 230631044, 2.507644E-06, 0.01141566, 0.0002007957, 0.00104407, 0.0001091017, 0.004723346, -0.0001013112, 0.0005187925, -0.9999976, -0.001464005, 0.3503954
 230830964, 0.0001691876, 0.01232516, -0.0001816535, 0.00104407, -0.000300324, 0.004614577, -0.000196364, 0.0005187925, -0.9999976, -0.00147051, 0.3503954
 231030884, -0.0004133967, 0.01187175, -0.0003795964, 0.00104407, 9.725992E-05, 0.00431098, 0.0001127197, 0.0005187925, -0.9999976, -0.001476398, 0.3503954
 231230804, -0.0001259699, 0.01186613, -0.0002751024, 0.00104407, -0.0004274948, 0.004313655, -0.0001257894, 0.0005187925, -0.9999976, -0.001481498, 0.3503954
 231430724, -0.0007089198, 0.01158895, -0.0004191581, 0.00104407, 3.620294E-05, 0.004219586, -4.812941E-06, 0.0005187925, -0.9999976, -0.001483998, 0.3503954
 231631477, -1.963342E-05, 0.01158758, -0.0005058211, 0.001046232, -8.18163E-05, 0.00397754, -0.0001643322, 0.0005209541, -0.9999976, -0.001487122, 0.3511209
 231831397, -0.0002505862, 0.01123596, -0.0001326649, 0.001046232, -0.0001663411, 0.004402685, 0.0001420561, 0.0005187925, -0.9999976, -0.001491181, 0.3511209
 232031317, -0.0003464005, 0.0115713, 0.0001006892, 0.00104407, -0.0001275879, 0.004073842, 5.499665E-05, 0.0005187925, -0.9999976, -0.001492861, 0.3503954
 232231237, -0.0003440453, 0.01126959, -1.507037E-05, 0.00104407, -0.0002353816, 0.004027472, -0.0002037186, 0.0005187925, -0.9999976, -0.001491833, 0.3503954
 232431157, -2.925292E-06, 0.01125207, -0.0003179362, 0.00104407, 0.0001080767, 0.004035295, -0.000223291, 0.0005187925, -0.9999976, -0.001491404, 0.3503954
 232631077, 3.080486E-05, 0.01110837, -0.000413441, 0.00104407, -0.0001743359, 0.004321903, 0.0001767119, 0.0005187925, -0.9999976, -0.001491333, 0.3503954
 232830997, -6.62306E-05, 0.01188785, 0.0003114527, 0.00104407, -3.060613E-05, 0.004364779, -0.0001005879, 0.0005187925, -0.9999976, -0.001491123, 0.3503954
 233030917, 0.0001237738, 0.01215499, -0.0003167053, 0.00104407, -0.0001107747, 0.004574263, 3.057329E-05, 0.0005187925, -0.9999976, -0.001490014, 0.3503954
 233230837, -0.0003893025, 0.01172474, -0.0003179541, 0.00104407, -0.0005605915, 0.004195077, 0.0003696226, 0.0005187925, -0.9999976, -0.001488005, 0.3503954
 233430757, -0.0008390778, 0.0114036, 0.0004369275, 0.00104407, -0.0003027513, 0.004071636, 0.0001831192, 0.0005187925, -0.9999976, -0.001485976, 0.3503954
 233630677, -0.0005518516, 0.01145558, 7.347145E-05, 0.00104407, -0.0001283812, 0.004210529, 0.0002496674, 0.0005187925, -0.9999976, -0.001482677, 0.3503954
 233831430, -0.0003260505, 0.01152347, -0.0001148519, 0.001046232, -0.0001060967, 0.004149579, -3.134983E-05, 0.0005209541, -0.9999976, -0.001482356, 0.3511209
 234031350, 0.0001261113, 0.0116438, -0.0001717377, 0.001046232, -0.0003494644, 0.00399228, -0.0001694919, 0.0005187925, -0.9999976, -0.001478845, 0.3511209
 234231270, -0.0001168859, 0.01139286, -0.0004417916, 0.00104407, 0.0004307599, 0.00407396, -0.0004465843, 0.0005187925, -0.9999976, -0.001474599, 0.3503954
 234431190, 0.0006301879, 0.01133837, -0.0003248965, 0.00104407, -0.0001611109, 0.004000921, -0.0003304149, 0.0005187925, -0.9999976, -0.001471024, 0.3503954
 234631110, -0.0001699648, 0.01165438, -0.0006403316, 0.00104407, 8.706318E-05, 0.004386993, 0.0001024754, 0.0005187925, -0.9999976, -0.001468301, 0.3503954
 234831030, 4.778105E-05, 0.01213658, -0.0001025195, 0.00104407, 0.0001553162, 0.004380456, -0.0002414024, 0.0005187925, -0.9999976, -0.001464291, 0.3503954
 235030950, 7.214637E-05, 0.01160218, -0.0005298724, 0.00104407, -9.74081E-05, 0.004069943, -0.0005268325, 0.0005187925, -0.9999976, -0.001474975, 0.3503954
 235230870, -9.447799E-05, 0.01131542, -0.0008828922, 0.00104407, 0.0001109099, 0.004152641, -6.849647E-05, 0.0005187925, -0.9999976, -0.001485215, 0.3503954
 235430790, 0.0002066934, 0.01146683, -0.0001539067, 0.00104407, 0.0002931523, 0.004600041, -0.0001160098, 0.0005187925, -0.9999976, -0.001493614, 0.3503954
 235630710, 0.0003561536, 0.01197025, -0.000323718, 0.00104407, 0.0001544964, 0.00447717, 0.0002115762, 0.0005187925, -0.9999976, -0.001502539, 0.3503954
 235831463, -7.337033E-05, 0.01167409, 0.0002533896, 0.001046232, -0.0002159184, 0.003764675, -2.300296E-05, 0.0005209541, -0.9999976, -0.001511247, 0.3511209
 236031383, -0.0007498268, 0.01112583, -0.0001905847, 0.001046232, -0.000740875, 0.004497935, -5.835939E-05, 0.0005187925, -0.9999974, -0.001517607, 0.3511209
 236231303, -0.0008029681, 0.01168188, -9.547108E-05, 0.00104407, -6.96831E-05, 0.004216705, 0.0001173277, 0.0005187925, -0.9999974, -0.001522992, 0.3503954
 236431223, 0.0002586344, 0.01138981, -0.0001755727, 0.00104407, 0.0003467225, 0.004517543, -0.0005021482, 0.0005187925, -0.9999974, -0.00152623, 0.3503954
 236631143, 0.0003489379, 0.01139196, -0.0007774507, 0.00104407, -0.0001899556, 0.004154448, -0.0004172301, 0.0005187925, -0.9999974, -0.00153093, 0.3503954
 236831063, -0.0002860861, 0.01132298, -0.0002987024, 0.00104407, -0.000524655, 0.004156338, 0.0002076188, 0.0005187925, -0.9999974, -0.001534293, 0.3503954
 237030983, -0.0003072235, 0.01161991, 0.0001801223, 0.00104407, 0.0002389576, 0.004502611, -0.00026607, 0.0005187925, -0.9999974, -0.001537756, 0.3503954
 237230903, 6.062732E-05, 0.01216283, -0.0004077448, 0.00104407, 0.0005180091, 0.004150514, -0.0002978539, 0.0005187925, -0.9999974, -0.001540082, 0.3503954
 237430823, 2.709879E-05, 0.01159685, -0.0005161818, 0.00104407, -0.0002243984, 0.004437492, -0.0001640462, 0.0005187925, -0.9999974, -0.001542217, 0.3503954
 237630743, -0.0002317749, 0.01158865, -5.951883E-05, 0.00104407, -0.0001745035, 0.00366411, -0.0001519191, 0.0005187925, -0.9999974, -0.001543229, 0.3503954
 237830663, -0.0002219016, 0.01085716, -9.193912E-05, 0.00104407, 0.0003273763, 0.004357737, -0.0001182143, 0.0005187925, -0.9999974, -0.001544295, 0.3503954
 238031416, 0.0004725741, 0.0120566, -0.0004384775, 0.001046232, 4.154371E-05, 0.004448588, -0.0002244604, 0.0005209541, -0.9999974, -0.001546444, 0.3511209
 238231336, -8.994107E-05, 0.01175207, -0.0003937294, 0.001046232, -4.989334E-05, 0.004114812, -0.0001952356, 0.0005187925, -0.9999974, -0.001547259, 0.3511209
 238431256, 8.201524E-05, 0.01152581, -0.0002788023, 0.00104407, 0.000153534, 0.004338888, -0.0001721814, 0.0005187925, -0.9999974, -0.001544931, 0.3503954
 238631176, 0.0001200246, 0.01179209, -6.391595E-05, 0.00104407, -1.200478E-05, 0.004237715, -0.0001064745, 0.0005187925, -0.9999974, -0.001544237, 0.3503954
 238831096, -0.0002510051, 0.01138532, -0.000243477, 0.00104407, -0.0002009272, 0.004279621, -0.0001323528, 0.0005187925, -0.9999974, -0.001541967, 0.3503954
 239031016, -0.0001731185, 0.01131354, -0.000166545, 0.00104407, -0.0004807856, 0.003837334, -0.0001894646, 0.0005187925, -0.9999974, -0.001539948, 0.3503954
 239230936, -0.0004820706, 0.01115349, -0.0004994003, 0.00104407, -0.0004933361, 0.004248317, -0.0003602148, 0.0005187925, -0.9999974, -0.001537677, 0.3503954
 239430856, -0.0003226873, 0.01157039, -0.000497869, 0.00104407, 5.506686E-05, 0.004133129, 0.0002833878, 0.0005187925, -0.9999974, -0.001535115, 0.3503954
 239630776, -5.701252E-05, 0.01165393, 0.000124798, 0.00104407, -4.446045E-05, 0.004281919, -8.817966E-06, 0.0005187925, -0.9999974, -0.001532516, 0.3503954
 239830696, 0.0002098964, 0.01180281, -1.199482E-05, 0.00104407, 0.0002969775, 0.004186549, 0.0001280666, 0.0005187925, -0.9999974, -0.001530154, 0.3503954
 240031449, 0.0004097088, 0.01162157, 0.000401759, 0.001046232, -1.716818E-05, 0.004196362, -4.178605E-07, 0.0005209541, -0.9999974, -0.001530259, 0.3511209
 240231369, -0.0004455011, 0.01175532, -0.0001166636, 0.001046232, -0.0002399098, 0.004481378, -0.0001200434, 0.0005187925, -0.9999974, -0.001539739, 0.3511209
 240431289, -0.0002001949, 0.01187116, 0.0001110967, 0.00104407, -6.394248E-05, 0.003977727, -1.708182E-05, 0.0005187925, -0.9999974, -0.001547011, 0.3503954
 240631209, -0.0005240376, 0.0113832, -0.0002495887, 0.00104407, -0.0001427665, 0.004380436, -0.0003777351, 0.0005187925, -0.9999974, -0.001554267, 0.3503954
 240831129, -0.0003178004, 0.01184534, -0.0007127497, 0.00104407, -0.0004114666, 0.004246243, -0.0003272523, 0.0005187925, -0.9999974, -0.001561789, 0.3503954
 241031049, -0.0002268449, 0.01115539, -0.0004434612, 0.00104407, -9.2223E-05, 0.00369483, -9.397085E-05, 0.0005187925, -0.9999974, -0.001567652, 0.3503954
 241230969, -0.0005446385, 0.01115123, -0.0001212993, 0.00104407, -0.0002830767, 0.004350968, 0.0001159001, 0.0005187925, -0.9999974, -0.001572746, 0.3503954
 241430889, -0.0003507902, 0.01170902, 0.00010779, 0.00104407, -0.000155263, 0.004259215, -0.0003586966, 0.0005187925, -0.9999974, -0.001577594, 0.3503954
 241630809, -0.0002447564, 0.01156074, -0.000509778, 0.00104407, -0.0002511042, 0.004239226, 3.510382E-05, 0.0005187925, -0.9999973, -0.00158174, 0.3503954
 241830729, -9.311254E-05, 0.01144671, -0.0002960785, 0.00104407, 0.000334439, 0.003645502, -0.0001572421, 0.0005187925, -0.9999974, -0.001584686, 0.3503954
 242031482, 0.00034709, 0.01132838, -9.964253E-05, 0.001046232, -1.671379E-05, 0.004281013, -3.266339E-05, 0.0005209541, -0.9999973, -0.001589129, 0.3511209
 242231402, -3.124315E-05, 0.01152728, -5.569615E-05, 0.001046232, -0.0001887776, 0.004748382, 7.757897E-05, 0.0005187925, -0.9999973, -0.001592679, 0.3511209
 242431322, -0.000291928, 0.01205901, -0.0003434428, 0.00104407, 7.838632E-06, 0.004460966, -0.0002471757, 0.0005187925, -0.9999973, -0.001594796, 0.3503954
 242631242, 8.333207E-06, 0.01185495, -0.0005023258, 0.00104407, 0.0001922353, 0.003768761, 2.810188E-05, 0.0005187925, -0.9999973, -0.001593177, 0.3503954
 242831162, 1.672691E-05, 0.01093685, -0.0003352588, 0.00104407, -0.0002413952, 0.004185386, 4.312459E-05, 0.0005187925, -0.9999973, -0.001593693, 0.3503954
 243031082, -0.0002901636, 0.01176531, -0.0001463829, 0.00104407, 0.0003248518, 0.004107864, 0.0004319632, 0.0005187925, -0.9999973, -0.001593244, 0.3503954
 243231002, 5.836003E-05, 0.01146664, 0.0004501376, 0.00104407, -0.0002299468, 0.00436911, -7.385517E-05, 0.0005187925, -0.9999973, -0.001593751, 0.3503954
 243430922, -0.0001181775, 0.01162337, -0.000258775, 0.00104407, 0.0004881647, 0.004029333, -3.808882E-05, 0.0005187925, -0.9999973, -0.001593043, 0.3503954
 243630842, 0.000609835, 0.0117106, -2.252274E-05, 0.00104407, -0.0001369089, 0.004441292, -0.0001232012, 0.0005187925, -0.9999973, -0.001591872, 0.3503954
 243830762, -0.0003091135, 0.01209047, -0.0003036798, 0.00104407, -0.0003450922, 0.004484773, 8.197008E-05, 0.0005187925, -0.9999973, -0.001590122, 0.3503954
 244030682, -0.0005274448, 0.01167382, 0.0001172014, 0.00104407, 8.043529E-05, 0.00452485, -0.0001785041, 0.0005187925, -0.9999973, -0.001587299, 0.3503954
 244231435, -0.0004619349, 0.01205437, -0.0004164491, 0.001046232, -0.0001421555, 0.00450819, 0.0001397022, 0.0005209541, -0.9999973, -0.001587942, 0.3511209
 244431355, -6.978325E-05, 0.01197109, -0.000149833, 0.001046232, 0.0001881198, 0.004458105, -0.0001738627, 0.0005187925, -0.9999973, -0.00158478, 0.3511209
 244631275, 9.093512E-05, 0.01197583, -0.000490561, 0.00104407, 0.0002914536, 0.004350245, 7.532204E-05, 0.0005187925, -0.9999973, -0.00157847, 0.3503954
 244831195, 0.0002139153, 0.01167313, -0.0002205908, 0.00104407, -0.0002585054, 0.004243772, 9.497177E-06, 0.0005187925, -0.9999973, -0.001574001, 0.3503954
 245031115, -0.0003595409, 0.01174123, -0.0001978488, 0.00104407, 0.0002548607, 0.004472652, -8.705352E-05, 0.0005187925, -0.9999973, -0.001567394, 0.3503954
 245231035, 0.0005347413, 0.01206397, -0.0001341115, 0.00104407, -0.0003297626, 0.00442818, -3.090337E-05, 0.0005187925, -0.9999973, -0.001562544, 0.3503954
 245430955, -0.0004434546, 0.01183265, -0.0001481405, 0.00104407, -0.0003016271, 0.004430839, -0.0005584676, 0.0005187925, -0.9999973, -0.001572022, 0.3503954
 245630875, -0.0007322683, 0.0118688, -0.0006259861, 0.00104407, -0.0002491749, 0.004147858, 0.0002476453, 0.0005187925, -0.9999974, -0.001579734, 0.3503954
 245830795, -0.0003660797, 0.01096793, 0.0001370347, 0.00104407, 0.0001938953, 0.003995216, -0.000489753, 0.0005187925, -0.9999974, -0.00158671, 0.3503954
 246030715, 0.0006567886, 0.01114975, -0.0006299965, 0.00104407, 0.0004616924, 0.00392089, -0.0003658178, 0.0005187925, -0.9999974, -0.001591508, 0.3503954
 246231468, 0.0005620517, 0.01115178, -0.0005485142, 0.001046232, -0.0004977683, 0.004041251, -0.0002386044, 0.0005209541, -0.9999974, -0.001597185, 0.3511209
 246431388, -0.0005673937, 0.01163256, -0.0009877414, 0.001046232, -1.829217E-05, 0.004037329, -0.0001144416, 0.0005187925, -0.9999973, -0.001602447, 0.3511209
 246631308, 0.0001141363, 0.01154294, -0.0002783425, 0.00104407, 7.151446E-05, 0.004674052, -0.0001698792, 0.0005187925, -0.9999974, -0.001605879, 0.3503954
 246831228, 8.6254E-05, 0.0115366, -0.0003111762, 0.00104407, -0.0001871779, 0.003819441, -0.0006587647, 0.0005187925, -0.9999974, -0.001606586, 0.3503954
 247031148, -0.0002518656, 0.01133272, -0.0006043628, 0.00104407, -4.79943E-05, 0.004391978, 0.0004416153, 0.0005187925, -0.9999974, -0.001608144, 0.3503954
 247231068, -0.0002883967, 0.01186475, 0.0005060699, 0.00104407, 3.317512E-05, 0.004311869, 4.126328E-05, 0.0005187925, -0.9999974, -0.001609294, 0.3503954
 247430988, -0.0001656325, 0.01174878, 9.727161E-05, 0.00104407, -4.188823E-05, 0.004245557, 0.0002672271, 0.0005187925, -0.9999974, -0.001608679, 0.3503954
 247630908, -0.0001705076, 0.01161006, 0.000232545, 0.00104407, -6.21802E-06, 0.004326826, 0.0001517797, 0.0005187925, -0.9999974, -0.001608634, 0.3503954
 247830828, 0.0006749756, 0.01213157, -0.2838954, 0.00104407, 0.000513454, 0.004717, -0.1672416, 0.0005187925, -0.9999974, -0.001607117, 0.3503954
 248030748, 0.0003854693, 0.01200521, -0.1567337, 0.00104407, -0.0003799027, 0.004019858, 0.06390654, 0.0005187925, -0.9999974, -0.001604664, 0.3503954
 248230668, -0.0007841621, 0.01110143, 0.1125948, 0.00104407, -0.0001625354, 0.004359251, 0.01297495, 0.0005187925, -0.9999977, -0.001604805, 0.3503954
 248431421, -0.003425526, 0.00790109, -1.252376, 0.001046232, -0.004308067, -0.0002667446, -0.7933974, 0.0005209541, -0.9999937, -0.001702732, 0.3511209
 248631341, -0.01797013, -0.007906958, -1.42648, 0.001046232, -0.009384525, -0.006196064, -0.1566488, 0.0005187925, -0.9999758, -0.001861011, 0.3511209
 248831261, -0.02667905, -0.01732416, -0.2782411, 0.00104407, -0.01013212, -0.006277965, -0.07626617, 0.0005187925, -0.9999695, -0.002005185, 0.3503954
 249031181, -0.0260809, -0.01570507, -0.2990885, 0.00104407, -0.008746873, -0.004931021, -0.146166, 0.0005187925, -0.9999703, -0.002148928, 0.3503954
 249231101, -0.0227945, -0.01135961, -0.3864815, 0.00104407, -0.007509072, -0.003227006, -0.1273301, 0.0005187925, -0.9999726, -0.002289171, 0.3503954
 249431021, -0.01951674, -0.006933017, -0.3174289, 0.00104407, -0.006551394, -0.00168276, -0.1015441, 0.0005187925, -0.9999748, -0.002428849, 0.3503954
 249630941, -0.01663711, -0.002962885, -0.2648874, 0.00104407, -0.005475681, -0.0005218055, -0.09044236, 0.0005187925, -0.9999769, -0.002560993, 0.3503954
 249830861, -0.01372167, -0.0001231894, -0.2369775, 0.00104407, -0.004120277, 0.0004809101, -0.08067808, 0.0005187925, -0.9999788, -0.002697878, 0.3503954
 250030781, -0.0105801, 0.002565035, -0.2093377, 0.00104407, -0.003386596, 0.001501355, -0.07000542, 0.0005187925, -0.9999803, -0.002831628, 0.3503954
 250230701, -0.008195804, 0.005119768, -0.1825264, 0.00104407, -0.002677352, 0.002344954, -0.06143767, 0.0005187925, -0.9999816, -0.002956879, 0.3503954
 250431454, -0.006195384, 0.007033616, -0.1605185, 0.001046232, -0.001713936, 0.002827086, -0.05413321, 0.0005209541, -0.9999827, -0.003084809, 0.3511209
 250631374, -0.004398366, 0.008350325, -0.1408265, 0.001046232, -0.001697893, 0.002989004, -0.04771941, 0.0005187925, -0.9999821, -0.003211619, 0.3511209
 250831294, -0.004835565, 0.008605036, -0.1234134, 0.00104407, -0.002018881, 0.003265239, -0.04105478, 0.0005187925, -0.9999812, -0.003376039, 0.3503954
 251031214, -0.005317829, 0.008945498, -0.106966, 0.00104407, -0.001782575, 0.003283906, -0.03604097, 0.0005187925, -0.9999794, -0.003807599, 0.3503954
 251231134, -0.005059205, 0.008710243, -0.09470085, 0.00104407, -0.001920751, 0.002959371, -0.03242259, 0.0005187925, -0.999976, -0.004368023, 0.3503954
 251431054, -0.005217873, 0.008265367, -0.08405092, 0.00104407, -0.001713881, 0.00301656, -0.02861682, 0.0005187925, -0.9999722, -0.0048973, 0.3503954
 251630974, -0.004900112, 0.007881997, -0.07401627, 0.00104407, -0.001943455, 0.002890149, -0.0250916, 0.0005187925, -0.9999683, -0.00540456, 0.3503954
 251830894, -0.004595245, 0.007912198, -0.06486024, 0.00104407, -0.001369637, 0.002731769, -0.02176595, 0.0005187925, -0.9999645, -0.005886765, 0.3503954
 252030814, -0.003896489, 0.007355824, -0.0566428, 0.00104407, -0.001451932, 0.002605202, -0.01900973, 0.0005187925, -0.9999604, -0.006350142, 0.3503954
 252230734, -0.003302822, 0.007083397, -0.0496394, 0.00104407, -0.001018269, 0.002706158, -0.01669073, 0.0005187925, -0.9999564, -0.006787192, 0.3503954
 252430654, -0.002670167, 0.007219804, -0.04360712, 0.00104407, -0.0006872159, 0.002540552, -0.01497584, 0.0005187925, -0.9999524, -0.007206786, 0.3503954
 252631407, -0.00151061, 0.00688079, -0.03888284, 0.001046232, -0.0001398911, 0.002427524, -0.01325823, 0.0005209541, -0.9999481, -0.007607017, 0.3511209
 252831327, -0.000445159, 0.0065789, -0.03432536, 0.001046232, -0.0004678245, 0.002398317, -0.01144509, 0.0005187925, -0.9999442, -0.007982261, 0.3511209
 253031247, -0.0004998668, 0.006758489, -0.02940252, 0.00104407, 5.640812E-05, 0.002413911, -0.009897336, 0.0005187925, -0.9999403, -0.0083369, 0.3503954
 253231167, 0.0006541129, 0.006970842, -0.02595888, 0.00104407, 0.0005897941, 0.002853546, -0.008709618, 0.0005187925, -0.999938, -0.008666118, 0.3503954
 253431087, 0.001622966, 0.0078897, -0.02289864, 0.00104407, 0.001028381, 0.003205684, -0.007807932, 0.0005187925, -0.9999363, -0.008969791, 0.3503954
 253631007, 0.002331502, 0.009071472, -0.01933681, 0.00104407, 0.0009088106, 0.003555466, -0.006164246, 0.0005187925, -0.9999341, -0.009370281, 0.3503954
 253830927, 0.002310494, 0.01044788, -0.01702554, 0.00104407, 0.0004887523, 0.004492444, -0.006158787, 0.0005187925, -0.9999314, -0.009877763, 0.3503954
 254030847, 0.001713158, 0.01228181, -0.01580615, 0.00104407, 0.0005646826, 0.004235503, -0.005328047, 0.0005187925, -0.9999286, -0.01036095, 0.3503954
 254230767, 0.001581098, 0.01258374, -0.01369864, 0.00104407, 0.0007663686, 0.005114339, -0.00463565, 0.0005187925, -0.9999256, -0.01081689, 0.3503954
 254430687, 0.001531212, 0.01399013, -0.01199192, 0.00104407, 0.00029259, 0.0049731, -0.003707905, 0.0005187925, -0.9999226, -0.01124701, 0.3503954
 254631440, 0.001106823, 0.01450718, -0.01041879, 0.001046232, 0.0005018068, 0.005805588, -0.003698256, 0.0005209541, -0.9999194, -0.01165581, 0.3511209
 254831360, 0.00102309, 0.01578029, -0.009501413, 0.001046232, 0.0001887259, 0.006161614, -0.003073658, 0.0005187925, -0.9999161, -0.01203912, 0.3511209
 255031280, 0.0007650288, 0.01627341, -0.008515264, 0.00104407, 0.0002719082, 0.005754167, -0.002922731, 0.0005187925, -0.999913, -0.01240011, 0.3503954
 255231200, 0.001945859, 0.01699863, 0.2552268, 0.00104407, 0.001895603, 0.007670291, 0.4088737, 0.0005187925, -0.9999073, -0.01289511, 0.3503954
 255431120, 0.005391358, 0.02035757, 1.04563, 0.00104407, 0.001735883, 0.007087746, 0.3478341, 0.0005187925, -0.9998986, -0.0135116, 0.3503954
 255631040, 0.004686407, 0.01878784, 0.9044298, 0.00104407, 0.001668371, 0.00680608, 0.3049384, 0.0005187925, -0.9998899, -0.01409232, 0.3503954
 255830960, 0.004118792, 0.01785399, 0.7937195, 0.00104407, 0.001249276, 0.006547525, 0.2678007, 0.0005187925, -0.9998811, -0.01465402, 0.3503954
 256030880, 0.003535126, 0.01702135, 0.6970266, 0.00104407, 0.001368405, 0.005825258, 0.2352845, 0.0005187925, -0.9998726, -0.01518508, 0.3503954
 256230800, 0.0030043, 0.01540376, 0.5693018, 0.00104407, 0.0009459517, 0.005374292, 0.1598323, 0.0005187925, -0.9998664, -0.01567291, 0.3503954
 256430720, 0.007563838, 0.01778716, 0.4015139, 0.00104407, 0.005836355, 0.008637481, 0.1292974, 0.0005187925, -0.9998698, -0.01607759, 0.3503954
 256631473, 0.02171182, 0.02625565, 0.3366845, 0.001046232, 0.01068995, 0.01096926, 0.1156979, 0.0005209541, -0.9998648, -0.01639457, 0.3511209
 256831393, 0.02930036, 0.03054823, 0.3087188, 0.001046232, 0.01046628, 0.0109756, 0.1097154, 0.0005187925, -0.9998572, -0.01673344, 0.3511209
 257031313, 0.02556289, 0.03198376, 0.2907723, 0.00104407, 0.00735828, 0.01308469, 0.09954534, 0.0005187925, -0.9998392, -0.01713948, 0.3503954
 257231233, 0.01877995, 0.03931219, 0.2558143, 0.00104407, 0.006173606, 0.01651245, 0.08368761, 0.0005187925, -0.9998016, -0.01758967, 0.3503954
 257431153, 0.0169206, 0.04702039, 0.2124844, 0.00104407, 0.00600562, 0.0180502, 0.06828766, 0.0005187925, -0.9997622, -0.01804386, 0.3503954
 257631073, 0.01679072, 0.04925777, 0.1698496, 0.00104407, 0.006246826, 0.01767264, 0.05300597, 0.0005187925, -0.9997423, -0.01852048, 0.3503954
 257830993, 0.01532148, 0.04625482, 0.1312193, 0.00104407, 0.004589827, 0.01558677, 0.04019371, 0.0005187925, -0.9997391, -0.01898972, 0.3503954
 258030913, 0.0107954, 0.04038729, 0.09930068, 0.00104407, 0.00331144, 0.01345835, 0.03044679, 0.0005187925, -0.9997386, -0.01944417, 0.3503954
 258230833, 0.007000162, 0.03474959, 0.07471428, 0.00104407, 0.001687271, 0.01158856, 0.02288909, 0.0005187925, -0.9997401, -0.01986964, 0.3503954
 258430753, 0.003550749, 0.02968287, 0.05512262, 0.00104407, 0.0007548284, 0.009821091, 0.01648795, 0.0005187925, -0.9997416, -0.02026952, 0.3503954
 258630673, 0.002067348, 0.02503948, 0.03988587, 0.00104407, 0.0004894034, 0.00815536, 0.01188338, 0.0005187925, -0.9997442, -0.02064773, 0.3503954
 258831426, 0.001611271, 0.02038573, 0.02897131, 0.001046232, 0.0008026245, 0.006811555, 0.008458117, 0.0005209541, -0.9997463, -0.02103011, 0.3511209
 259031346, 0.001408887, 0.01596791, 0.02102775, 0.001046232, -6.909824E-06, 0.00490906, 0.005612704, 0.0005187925, -0.9997475, -0.02139569, 0.3511209
 259231266, -0.0007613504, 0.011972, 0.01490617, 0.00104407, -0.0006682738, 0.003568884, 0.004647897, 0.0005187925, -0.9997454, -0.02176407, 0.3503954
 259431186, -0.002416351, 0.008757278, 0.01191508, 0.00104407, -0.001310192, 0.002729972, 0.003925435, 0.0005187925, -0.9997422, -0.02217424, 0.3503954
 259631106, -0.002702603, 0.00619232, 0.009881767, 0.00104407, -0.0007883105, 0.001832486, 0.002647143, 0.0005187925, -0.9997388, -0.02251654, 0.3503954
 259831026, -0.0007027872, 0.004612979, 0.006418111, 0.00104407, 0.0001254653, 0.001555675, 0.001200763, 0.0005187925, -0.9997305, -0.02297235, 0.3503954
 260030946, 8.451563E-05, 0.003588626, 0.003821217, 0.00104407, -4.290547E-05, 0.0008421135, 0.0003586871, 0.0005187925, -0.9997227, -0.02339692, 0.3503954
 260230866, -0.0003014372, 0.002492011, 0.002553324, 0.00104407, -0.0002898851, 0.001213865, 0.000709568, 0.0005187925, -0.9997137, -0.02381413, 0.3503954
 260430786, -0.0006626078, 0.00306533, 0.001944966, 0.00104407, -0.0002285223, 0.001232907, 0.0001838866, 0.0005187925, -0.9997046, -0.02420787, 0.3503954
 260630706, -0.0005203144, 0.003817526, 0.001149655, 0.00104407, -0.0003985198, 0.002073088, 0.0003982429, 0.0005187925, -0.9996954, -0.024556, 0.3503954
 260831459, -0.0008280638, 0.005710173, 0.001069956, 0.001046232, 0.0001722439, 0.002249328, 0.0003064761, 0.0005209541, -0.9996861, -0.02493331, 0.3511209
 261031379, 0.0004282407, 0.006007504, 0.000697935, 0.001046232, 0.0001872775, 0.002319428, 1.532299E-05, 0.0005187925, -0.9996773, -0.02529171, 0.3511209
 261231299, 0.001397859, 0.006451245, 0.0004682931, 0.00104407, 0.0007995964, 0.002407298, 9.948207E-05, 0.0005187925, -0.9996687, -0.02564257, 0.3503954
 261431219, 0.002403831, 0.006908286, -0.0005803563, 0.00104407, 0.0009373517, 0.002807447, -0.0004421193, 0.0005187925, -0.9996576, -0.02607675, 0.3503954
 261631139, 0.001970556, 0.007010557, -0.001751156, 0.00104407, 0.0003371934, 0.002288936, -0.001948759, 0.0005187925, -0.9996446, -0.02659178, 0.3503954
 261831059, 0.00104162, 0.006484641, -0.002954549, 0.00104407, 0.0002574942, 0.002629411, -0.001199375, 0.0005187925, -0.9996334, -0.02701653, 0.3503954
 262030979, 0.0007910823, 0.007371692, -0.002948081, 0.00104407, -4.256193E-06, 0.002828238, -0.001586347, 0.0005187925, -0.9996236, -0.02736655, 0.3503954
 262230899, 0.0004973541, 0.008035199, -0.002474049, 0.00104407, 0.0003395235, 0.002964741, -0.0004628475, 0.0005187925, -0.999613, -0.02775065, 0.3503954
 262430819, 0.0007237539, 0.009363739, -0.001735705, 0.00104407, 0.0001860614, 0.00433282, -0.001139848, 0.0005187925, -0.9996001, -0.02811418, 0.3503954
 262630739, 0.001309999, 0.01308583, -0.002143414, 0.00104407, 0.0007816845, 0.005463575, -0.001296526, 0.0005187925, -0.9995832, -0.02852135, 0.3503954
 262830659, 0.002779555, 0.01634442, -0.002654456, 0.00104407, 0.00109415, 0.006584362, -0.001484797, 0.0005187925, -0.999566, -0.02896128, 0.3503954
 263031412, 0.002507924, 0.0181267, -0.001889635, 0.001046232, 0.0007942565, 0.006596586, -0.0002948245, 0.0005209541, -0.9995527, -0.02935707, 0.3511209
 263231332, 0.00185933, 0.01762829, -0.001677382, 0.001046232, 0.0002480207, 0.006282906, -0.0005873475, 0.0005187925, -0.9995415, -0.029726, 0.3511209
 263431252, 0.001352253, 0.01718768, -0.002437556, 0.00104407, 0.0002859627, 0.00629509, -0.001233058, 0.0005187925, -0.9995283, -0.03006629, 0.3503954
 263631172, 0.001827205, 0.01768531, -0.00241034, 0.00104407, 0.001167728, 0.006519788, -0.0007350795, 0.0005187925, -0.999512, -0.03045375, 0.3503954
 263831092, 0.002935341, 0.01845947, -0.001581411, 0.00104407, 0.000562075, 0.006899891, -0.0004012279, 0.0005187925, -0.9994975, -0.03084481, 0.3503954
 264031012, 0.001629199, 0.01853869, -0.0008008388, 0.00104407, 0.0007840556, 0.006701158, -0.0005187045, 0.0005187925, -0.9994842, -0.03121812, 0.3503954
 264230932, 0.001870825, 0.01772803, -0.001689853, 0.00104407, 0.0003751794, 0.006060773, -0.0007887306, 0.0005187925, -0.9994721, -0.03158682, 0.3503954
 264430852, 0.001787828, 0.0171934, -0.001675692, 0.00104407, 0.000442433, 0.006821949, -0.001062317, 0.0005187925, -0.9994575, -0.03190768, 0.3503954
 264630772, 0.001854958, 0.01814378, -0.001467406, 0.00104407, 0.0008072974, 0.006547686, 9.158402E-05, 0.0005187925, -0.999441, -0.03229928, 0.3503954
 264830692, 0.002325234, 0.0180646, -0.0005024581, 0.00104407, 0.0005977585, 0.006487587, -0.0004692644, 0.0005187925, -0.999423, -0.03270536, 0.3503954
 265031445, 0.00186557, 0.01833926, -0.00103242, 0.001046232, 0.001101668, 0.006645566, -0.0004342371, 0.0005209541, -0.999405, -0.03309545, 0.3511209
 265231365, 0.002582484, 0.01865544, -0.0009869825, 0.001046232, 0.0008639208, 0.006941966, -0.0006284809, 0.0005187925, -0.9993877, -0.03344356, 0.3511209
 265431285, 0.002028879, 0.0189145, -0.0009937718, 0.00104407, 0.0005614182, 0.006693763, -0.0005200355, 0.0005187925, -0.9993717, -0.0337807, 0.3503954
 265631205, 0.001865624, 0.01847786, -0.001384946, 0.00104407, 0.0003792352, 0.006624506, -0.0002508637, 0.0005187925, -0.999357, -0.03411822, 0.3503954
 265831125, 0.001644185, 0.01830353, -0.0009388945, 0.00104407, 0.0004320253, 0.00705438, -0.0007164149, 0.0005187925, -0.9993377, -0.03444572, 0.3503954
 266031045, 0.00204599, 0.0191744, -0.001241229, 0.00104407, 0.0009728124, 0.007099387, -0.0006585086, 0.0005187925, -0.9993175, -0.03480024, 0.3503954
 266230965, 0.002580117, 0.01923017, -0.001217035, 0.00104407, 0.0009483584, 0.007106735, -0.0005120899, 0.0005187925, -0.9992984, -0.03515431, 0.3503954
 266430885, 0.002400137, 0.01917391, -0.0009968954, 0.00104407, 0.001044049, 0.006527699, -0.0004591225, 0.0005187925, -0.9992819, -0.03550495, 0.3503954
 266630805, 0.00228745, 0.01796543, -0.0008940052, 0.00104407, 0.0006047442, 0.006352471, -0.0003753483, 0.0005187925, -0.999263, -0.03586631, 0.3503954
 266830725, 0.001629317, 0.0178348, -0.0004757564, 0.00104407, 0.0004585214, 0.006758836, 0.0002940515, 0.0005187925, -0.9992403, -0.03623385, 0.3503954
 267031478, 0.001206237, 0.01873711, -0.0003706795, 0.001046232, 0.0006173512, 0.006770446, -0.0005050672, 0.0005209541, -0.9992174, -0.03660611, 0.3511209
 267231398, 0.001553566, 0.0187716, -0.0009349938, 0.001046232, 0.0003294526, 0.007002862, -0.0001320287, 0.0005187925, -0.9991952, -0.03695425, 0.3511209
 267431318, 0.0009590915, 0.01878675, -0.0006410489, 0.00104407, 0.0003077919, 0.00668352, -8.238478E-05, 0.0005187925, -0.9991732, -0.0372582, 0.3503954
 267631238, 0.0009450211, 0.01850502, -0.0004359576, 0.00104407, 0.0001711716, 0.006946257, -0.0002444124, 0.0005187925, -0.9991504, -0.03755308, 0.3503954
 267831158, 0.001088191, 0.01916015, -0.000463162, 0.00104407, 0.0006621216, 0.006899826, 7.044835E-06, 0.0005187925, -0.999129, -0.03782244, 0.3503954
 268031078, 0.001797586, 0.01890923, -0.000454238, 0.00104407, 0.000774956, 0.006935803, -0.0001537077, 0.0005187925, -0.9991084, -0.03808092, 0.3503954
 268230998, 0.001607435, 0.0189458, -0.0001669562, 0.00104407, 0.0005632736, 0.007006439, 8.24801E-05, 0.0005187925, -0.9990883, -0.038331, 0.3503954
 268430918, 0.0008544696, 0.01842377, -0.0005339894, 0.00104407, -0.0001260503, 0.006612056, -0.0002988395, 0.0005187925, -0.999066, -0.03856989, 0.3503954
 268630838, 0.0004435414, 0.01855245, -0.0006275812, 0.00104407, 0.0007146092, 0.0071018, -2.595697E-05, 0.0005187925, -0.9990374, -0.03881807, 0.3503954
 268830758, 0.001539911, 0.01910482, -6.247641E-06, 0.00104407, 0.0005467119, 0.006882263, 2.150271E-05, 0.0005187925, -0.9990137, -0.03905995, 0.3503954
 269030678, 0.001971908, 0.01902423, -0.0001617333, 0.00104407, 0.0007427496, 0.007154769, -0.0001673101, 0.0005187925, -0.9989874, -0.03931383, 0.3503954
 269231431, 0.002504382, 0.0192993, -0.0001614644, 0.001046232, 0.001113039, 0.006794649, -3.638402E-07, 0.0005209541, -0.9989612, -0.03956921, 0.3511209
 269431351, 0.003590038, 0.01882055, -1.617895E-05, 0.001046232, 0.001262815, 0.006506007, -0.0003008187, 0.0005187925, -0.9989361, -0.03982699, 0.3511209
 269631271, 0.00322425, 0.01815353, -0.0001257798, 0.00104407, 0.0009180955, 0.006570832, -8.262309E-05, 0.0005187925, -0.998911, -0.04010698, 0.3503954
 269831191, 0.001846936, 0.01777908, -0.0001414425, 0.00104407, 0.000351141, 0.006368807, 0.0003774444, 0.0005187925, -0.9988865, -0.0403836, 0.3503954
 270031111, 0.0005691472, 0.01752846, 0.0004681181, 0.00104407, 0.0001241105, 0.006326311, -0.0001661125, 0.0005187925, -0.9988515, -0.04072496, 0.3503954
 270231031, 0.0005013876, 0.01773187, -8.211427E-06, 0.00104407, 0.0002187741, 0.006897526, -5.453788E-05, 0.0005187925, -0.9988126, -0.04106679, 0.3503954
 270430951, 0.001105671, 0.01887264, -1.638592E-05, 0.00104407, 0.0006473953, 0.006578396, -0.0001215019, 0.0005187925, -0.9987701, -0.04139438, 0.3503954
 270630871, 0.002016932, 0.01928817, -0.0002018561, 0.00104407, 0.0006995528, 0.007399675, 1.89312E-05, 0.0005187925, -0.9987236, -0.04170901, 0.3503954
 270830791, 0.00253048, 0.02021518, 0.0004363078, 0.00104407, 0.001011164, 0.00706224, -0.0003122296, 0.0005187925, -0.9986858, -0.04202583, 0.3503954
 271030711, 0.002992463, 0.01940765, -0.0004671622, 0.00104407, 0.0009571252, 0.00690764, 0.0002097089, 0.0005187925, -0.9986556, -0.04235974, 0.3503954
 271231464, 0.002382861, 0.01892894, -0.0001927459, 0.001046232, 0.0005350431, 0.006890982, -0.000207232, 0.0005209541, -0.998622, -0.04268873, 0.3511209
 271431384, 0.0007940828, 0.01842469, -0.0002631617, 0.001046232, 8.367634E-05, 0.006843495, 0.0001238745, 0.0005187925, -0.9985865, -0.04293625, 0.3511209
 271631304, 0.0005618696, 0.01808434, -0.0002650333, 0.00104407, 0.0002541646, 0.006247788, -2.278608E-05, 0.0005187925, -0.9985509, -0.04309107, 0.3503954
 271831224, 0.0008608406, 0.01762746, -2.476654E-05, 0.00104407, 9.410686E-05, 0.006628865, 0.0001490783, 0.0005187925, -0.9985147, -0.04322241, 0.3503954
 272031144, 0.0007898, 0.01796721, 0.0003083772, 0.00104407, 0.0003310845, 0.006475118, 6.470592E-05, 0.0005187925, -0.9984742, -0.04337119, 0.3503954
 272231064, 0.001276002, 0.0180972, 3.191383E-05, 0.00104407, 0.0005532954, 0.006708033, -0.0001228759, 0.0005187925, -0.9984336, -0.04358364, 0.3503954
 272430984, 0.001319004, 0.01814762, -0.0003377505, 0.00104407, 0.0003439948, 0.006292794, -0.0001706025, 0.0005187925, -0.9983939, -0.04378663, 0.3503954
 272630904, 0.001048809, 0.01773085, -0.0003961063, 0.00104407, -0.0001479883, 0.006630478, -0.0004425245, 0.0005187925, -0.998351, -0.04397481, 0.3503954
 272830824, 0.0004749575, 0.01785473, -0.0005319433, 0.00104407, 0.0002893382, 0.006677479, -0.000502533, 0.0005187925, -0.9983099, -0.04410699, 0.3503954
 273030744, 0.001365288, 0.01764823, -0.0004625102, 0.00104407, 0.0009040103, 0.006206355, -0.0004702189, 0.0005187925, -0.9982672, -0.04424316, 0.3503954
