TimeUS,COFN,COFE,COFD,CNe,CEe,CDe,POFN,POFE,POFD,PNe,PEe,PDe
 170360995, 0, 0, 0, 0, 0, 0, 0, 0, 0, 0, 0, 0
 170430967, 0.02360948, 0.01945295, -0.002919517, 0.02692962, -0.0260312, 6.468575E-05, 0, 0, 0, 0, 0, 0
 170630887, 0, 0, 0, 0.02692962, -0.0260312, 6.468575E-05, 0.02360948, 0.01945295, -0.002919517, 0.02692962, -0.0260312, 6.468575E-05
 170830807, -0.001398676, -0.005245598, -1.12218E-05, 0.02595438, -0.02757194, 0.4000028, 0, 0, 0, 0.02692962, -0.0260312, 6.468575E-05
 171030727, -0.008758702, 0.01632675, 1.096263E-05, 0.02579292, -0.02711499, 0.4000036, -0.001398676, -0.005245598, -1.12218E-05, 0.02595438, -0.02757194, 0.4000028
 171231480, -0.01152526, -0.002566232, -2.546917E-05, 0.0257326, -0.0275085, 0.4000032, -0.008758702, 0.01632675, 1.096263E-05, 0.02579292, -0.02711499, 0.4000036
 171431400, 0.00335505, -0.003230861, 8.554562E-07, 0.02605078, -0.02752393, 0.4000039, -0.01152526, -0.002566232, -2.546917E-05, 0.0257326, -0.0275085, 0.4000032
 171631320, 0.01261543, 0.02307966, 6.152524E-05, 0.0262707, -0.02699181, 0.4000051, 0.00335505, -0.003230861, 8.554562E-07, 0.02605078, -0.02752393, 0.4000039
 171831240, 0.01036559, 0.006274784, 2.964058E-05, 0.02621318, -0.02731716, 0.4000046, 0.01261543, 0.02307966, 6.152524E-05, 0.0262707, -0.02699181, 0.4000051
 172031160, -0.01208286, -0.005347245, -3.142181E-05, 0.02571221, -0.02757514, 0.4000035, 0.01036559, 0.006274784, 2.964058E-05, 0.02621318, -0.02731716, 0.4000046
 172231080, -0.009510558, 0.006913643, -6.399702E-06, 0.0257603, -0.02730232, 0.4000044, -0.01208286, -0.005347245, -3.142181E-05, 0.02571221, -0.02757514, 0.4000035
 172431000, 0.009937458, -0.003183836, 1.342029E-05, 0.02619322, -0.02752385, 0.4000049, -0.009510558, 0.006913643, -6.399702E-06, 0.0257603, -0.02730232, 0.4000044
 172630920, 0.01729855, 0.01124145, 5.126615E-05, 0.02637699, -0.02721585, 0.4000058, 0.009937458, -0.003183836, 1.342029E-05, 0.02619322, -0.02752385, 0.4000049
 172830840, 0.008709343, -0.006054788, 6.284135E-06, 0.02616457, -0.0275938, 0.4000045, 0.01729855, 0.01124145, 5.126615E-05, 0.02637699, -0.02721585, 0.4000058
 173030760, -0.01929644, -0.01089408, -5.402962E-05, 0.02557538, -0.02770688, 0.4000031, 0.008709343, -0.006054788, 6.284135E-06, 0.02616457, -0.0275938, 0.4000045
 173230680, 0.01839069, -0.0230048, -4.019996E-06, 0.02641893, -0.02801868, 0.4000038, -0.01929644, -0.01089408, -5.402962E-05, 0.02557538, -0.02770688, 0.4000031
 173431433, 0.01981006, 0.003620027, 4.247081E-05, 0.02645915, -0.02737208, 0.4000047, 0.01839069, -0.0230048, -4.019996E-06, 0.02641893, -0.02801868, 0.4000038
 173631353, 0.01569874, 0.004119079, 3.572882E-05, 0.0263518, -0.02736023, 0.4000046, 0.01981006, 0.003620027, 4.247081E-05, 0.02645915, -0.02737208, 0.4000047
 173831273, -0.004515438, -0.02514407, -4.991094E-05, 0.02587786, -0.02807801, 0.4000024, 0.01569874, 0.004119079, 3.572882E-05, 0.0263518, -0.02736023, 0.4000046
 174031193, 0.004681356, -0.02168669, -2.743037E-05, 0.02608349, -0.02798728, 0.4000027, -0.004515438, -0.02514407, -4.991094E-05, 0.02587786, -0.02807801, 0.4000024
 174231113, -0.007317555, -0.008859671, -2.815869E-05, 0.02582049, -0.02766048, 0.4000027, 0.004681356, -0.02168669, -2.743037E-05, 0.02608349, -0.02798728, 0.4000027
 174431033, 0.005834629, -0.01632347, -1.634486E-05, 0.0261141, -0.0278442, 0.4000029, -0.007317555, -0.008859671, -2.815869E-05, 0.02582049, -0.02766048, 0.4000027
 174630953, 0.01952805, 0.02439625, 7.602228E-05, 0.02645569, -0.02696823, 0.4000051, 0.005834629, -0.01632347, -1.634486E-05, 0.0261141, -0.0278442, 0.4000029
 174830873, -0.003086757, 0.02512184, 3.575549E-05, 0.02591212, -0.02695423, 0.4000042, 0.01952805, 0.02439625, 7.602228E-05, 0.02645569, -0.02696823, 0.4000051
 175030793, 0.004640201, -0.003646369, 2.507071E-06, 0.02608566, -0.02753058, 0.4000037, -0.003086757, 0.02512184, 3.575549E-05, 0.02591212, -0.02695423, 0.4000042
 175230713, -0.006862063, -0.01280635, -3.355524E-05, 0.02583203, -0.02774865, 0.400003, 0.004640201, -0.003646369, 2.507071E-06, 0.02608566, -0.02753058, 0.4000037
 175431466, -0.01642654, -0.02118585, -6.471706E-05, 0.02564215, -0.02796406, 0.4000023, -0.006862063, -0.01280635, -3.355524E-05, 0.02583203, -0.02774865, 0.400003
 175631386, 0.02506424, -0.004389474, 3.875057E-05, 0.02660386, -0.02754417, 0.4000049, -0.01642654, -0.02118585, -6.471706E-05, 0.02564215, -0.02796406, 0.4000023
 175831306, -0.001209109, 0.02461973, 3.798042E-05, 0.02595204, -0.02695658, 0.4000048, 0.02506424, -0.004389474, 3.875057E-05, 0.02660386, -0.02754417, 0.4000049
 176031226, 0.02489269, 0.02360654, 8.408604E-05, 0.02659804, -0.0269721, 0.4000061, -0.001209109, 0.02461973, 3.798042E-05, 0.02595204, -0.02695658, 0.4000048
 176231146, 0.01836224, 0.01524298, 5.843372E-05, 0.02642379, -0.02712386, 0.4000056, 0.02489269, 0.02360654, 8.408604E-05, 0.02659804, -0.0269721, 0.4000061
 176431066, 0.002926277, -0.01400199, -1.741753E-05, 0.0260434, -0.02777388, 0.4000039, 0.01836224, 0.01524298, 5.843372E-05, 0.02642379, -0.02712386, 0.4000056
 176630986, -0.0117596, -0.01291935, -4.286071E-05, 0.02572484, -0.02774854, 0.4000035, 0.002926277, -0.01400199, -1.741753E-05, 0.0260434, -0.02777388, 0.4000039
 176830906, 0.0004235386, 0.01574152, 2.656163E-05, 0.02598065, -0.02711905, 0.400005, -0.0117596, -0.01291935, -4.286071E-05, 0.02572484, -0.02774854, 0.4000035
 177030826, 0.003596088, 0.006736206, 1.771372E-05, 0.0260526, -0.02729945, 0.4000048, 0.0004235386, 0.01574152, 2.656163E-05, 0.02598065, -0.02711905, 0.400005
 177230746, 0.01907466, -0.0213736, 3.60109E-07, 0.02643418, -0.02796935, 0.4000044, 0.003596088, 0.006736206, 1.771372E-05, 0.0260526, -0.02729945, 0.4000048
 177430666, -0.02405782, 0.01765206, -1.6042E-05, 0.02549016, -0.02708164, 0.4000045, 0.01907466, -0.0213736, 3.60109E-07, 0.02643418, -0.02796935, 0.4000044
 177631419, -0.02342717, -0.01573192, -6.973518E-05, 0.0254949, -0.02781769, 0.4000039, -0.02405782, 0.01765206, -1.6042E-05, 0.02549016, -0.02708164, 0.4000045
 177831339, 0.003786071, 0.01251104, 2.756815E-05, 0.02604563, -0.02717902, 0.400006, -0.02342717, -0.01573192, -6.973518E-05, 0.0254949, -0.02781769, 0.4000039
 178031259, 0.01382435, -0.002934902, 2.120601E-05, 0.02629031, -0.02750742, 0.4000058, 0.003786071, 0.01251104, 2.756815E-05, 0.02604563, -0.02717902, 0.400006
 178231179, 0.00498199, -0.005308343, 6.882492E-07, 0.02608109, -0.02755925, 0.4000052, 0.01382435, -0.002934902, 2.120601E-05, 0.02629031, -0.02750742, 0.4000058
 178431099, 0.02202844, -0.008757675, 2.671059E-05, 0.02651306, -0.02764, 0.4000057, 0.00498199, -0.005308343, 6.882492E-07, 0.02608109, -0.02755925, 0.4000052
 178631019, 0.00854391, 0.02432848, 5.516492E-05, 0.02617183, -0.02695467, 0.400006, 0.02202844, -0.008757675, 2.671059E-05, 0.02651306, -0.02764, 0.4000057
 178830939, 0.02051354, -0.001748078, 3.499701E-05, 0.02647749, -0.02747287, 0.4000058, 0.00854391, 0.02432848, 5.516492E-05, 0.02617183, -0.02695467, 0.400006
 179030859, -0.01814208, -0.0172891, -6.108421E-05, 0.02560665, -0.02784699, 0.4000037, 0.02051354, -0.001748078, 3.499701E-05, 0.02647749, -0.02747287, 0.4000058
 179230779, -0.02041937, -0.01060148, -5.439814E-05, 0.02556676, -0.02767608, 0.4000039, -0.01814208, -0.0172891, -6.108421E-05, 0.02560665, -0.02784699, 0.4000037
 179430699, 0.01784166, 0.008079561, 4.552562E-05, 0.02641271, -0.02725426, 0.400006, -0.02041937, -0.01060148, -5.439814E-05, 0.02556676, -0.02767608, 0.4000039
 179631452, 0.01045272, 0.0075405, 3.115219E-05, 0.02622772, -0.02726753, 0.4000054, 0.01784166, 0.008079561, 4.552562E-05, 0.02641271, -0.02725426, 0.400006
 179831372, 0.02269745, 0.0140113, 6.392396E-05, 0.02654271, -0.02713933, 0.4000061, 0.01045272, 0.0075405, 3.115219E-05, 0.02622772, -0.02726753, 0.4000054
 180031292, 0.01598609, 0.01202995, 4.846518E-05, 0.02636796, -0.0271797, 0.4000055, 0.02269745, 0.0140113, 6.392396E-05, 0.02654271, -0.02713933, 0.4000061
 180231212, -0.007519418, 0.02424382, 2.565323E-05, 0.02582427, -0.02695805, 0.4000044, 0.01598609, 0.01202995, 4.846518E-05, 0.02636796, -0.0271797, 0.4000055
 180431132, 0.008596705, -0.01194246, -3.824602E-06, 0.02618353, -0.02772381, 0.4000037, -0.007519418, 0.02424382, 2.565323E-05, 0.02582427, -0.02695805, 0.4000044
 180631052, -0.0252053, -0.0240261, -8.514938E-05, 0.02548623, -0.02803704, 0.4000021, 0.008596705, -0.01194246, -3.824602E-06, 0.02618353, -0.02772381, 0.4000037
 180830972, -0.0238372, -0.008263854, -5.690597E-05, 0.02551058, -0.02763075, 0.4000029, -0.0252053, -0.0240261, -8.514938E-05, 0.02548623, -0.02803704, 0.4000021
 181030892, -0.01870027, -0.007591437, -4.639362E-05, 0.02560427, -0.02761555, 0.4000029, -0.0238372, -0.008263854, -5.690597E-05, 0.02551058, -0.02763075, 0.4000029
 181230812, -0.01831342, 0.01183497, -1.394243E-05, 0.02561303, -0.02719313, 0.4000033, -0.01870027, -0.007591437, -4.639362E-05, 0.02560427, -0.02761555, 0.4000029
 181430732, 0.02134213, -0.007380984, 2.673556E-05, 0.0265091, -0.02761528, 0.4000041, -0.01831342, 0.01183497, -1.394243E-05, 0.02561303, -0.02719313, 0.4000033
 181631485, 0.003692244, 0.01250148, 2.725525E-05, 0.02606855, -0.02718327, 0.4000041, 0.02134213, -0.007380984, 2.673556E-05, 0.0265091, -0.02761528, 0.4000041
 181831405, -0.02000303, -0.001901439, -3.968862E-05, 0.02557784, -0.02749082, 0.4000027, 0.003692244, 0.01250148, 2.725525E-05, 0.02606855, -0.02718327, 0.4000041
 182031325, -0.02077282, 0.00302976, -3.309204E-05, 0.02556144, -0.02738324, 0.4000029, -0.02000303, -0.001901439, -3.968862E-05, 0.02557784, -0.02749082, 0.4000027
 182231245, 0.02051961, 0.02462107, 7.858747E-05, 0.02648033, -0.0269668, 0.4000051, -0.02077282, 0.00302976, -3.309204E-05, 0.02556144, -0.02738324, 0.4000029
 182431165, -0.004357125, -0.0102869, -2.520686E-05, 0.02588254, -0.02769754, 0.4000026, 0.02051961, 0.02462107, 7.858747E-05, 0.02648033, -0.0269668, 0.4000051
 182631085, -0.01266384, -0.01356304, -4.606788E-05, 0.02571028, -0.02777998, 0.4000022, -0.004357125, -0.0102869, -2.520686E-05, 0.02588254, -0.02769754, 0.4000026
 182831005, 0.02526908, -0.009944225, 3.013564E-05, 0.02660313, -0.02769155, 0.4000041, -0.01266384, -0.01356304, -4.606788E-05, 0.02571028, -0.02777998, 0.4000022
 183030925, -0.004869378, -0.01014069, -2.618239E-05, 0.02586631, -0.02770183, 0.4000024, 0.02526908, -0.009944225, 3.013564E-05, 0.02660313, -0.02769155, 0.4000041
 183230845, -0.01816734, -0.002830727, -3.844963E-05, 0.02560203, -0.02752938, 0.4000021, -0.004869378, -0.01014069, -2.618239E-05, 0.02586631, -0.02770183, 0.4000024
 183430765, 0.007357793, -0.02348815, -2.595176E-05, 0.02614589, -0.02804297, 0.4000023, -0.01816734, -0.002830727, -3.844963E-05, 0.02560203, -0.02752938, 0.4000021
 183630685, 0.01604983, 0.01683202, 5.769146E-05, 0.02636612, -0.02711564, 0.4000039, 0.007357793, -0.02348815, -2.595176E-05, 0.02614589, -0.02804297, 0.4000023
 183831438, 0.008768342, 0.00843448, 3.015614E-05, 0.02618711, -0.02727968, 0.4000032, 0.01604983, 0.01683202, 5.769146E-05, 0.02636612, -0.02711564, 0.4000039
 184031358, -0.01308968, -0.01281847, -4.523763E-05, 0.02571074, -0.02776039, 0.4000017, 0.008768342, 0.00843448, 3.015614E-05, 0.02618711, -0.02727968, 0.4000032
 184231278, -0.01863849, -0.01329896, -5.600598E-05, 0.02560706, -0.02777158, 0.4000014, -0.01308968, -0.01281847, -4.523763E-05, 0.02571074, -0.02776039, 0.4000017
 184431198, -0.02237403, -0.023418, -7.962253E-05, 0.02554031, -0.02803645, 0.4000007, -0.01863849, -0.01329896, -5.600598E-05, 0.02560706, -0.02777158, 0.4000014
 184631118, 0.005918439, 0.02213812, 4.777007E-05, 0.02612345, -0.02701587, 0.4000034, -0.02237403, -0.023418, -7.962253E-05, 0.02554031, -0.02803645, 0.4000007
 184831038, 0.0001461267, -0.02476751, -4.133054E-05, 0.02599209, -0.02807774, 0.4000011, 0.005918439, 0.02213812, 4.777007E-05, 0.02612345, -0.02701587, 0.4000034
 185030958, -0.005459667, -0.02110847, -4.529285E-05, 0.02587126, -0.02797846, 0.400001, 0.0001461267, -0.02476751, -4.133054E-05, 0.02599209, -0.02807774, 0.4000011
 185230878, -0.003674946, -0.01242918, -2.744802E-05, 0.02590746, -0.02775256, 0.4000017, -0.005459667, -0.02110847, -4.529285E-05, 0.02587126, -0.02797846, 0.400001
 185430798, -0.002503593, -0.00345557, -1.032322E-05, 0.02593189, -0.0275379, 0.4000022, -0.003674946, -0.01242918, -2.744802E-05, 0.02590746, -0.02775256, 0.4000017
 185630718, 0.01539119, -0.01331528, 5.640944E-06, 0.02635368, -0.0277764, 0.4000025, -0.002503593, -0.00345557, -1.032322E-05, 0.02593189, -0.0275379, 0.4000022
 185831471, 0.01519144, -0.005185854, 1.895689E-05, 0.02634673, -0.02758121, 0.4000028, 0.01539119, -0.01331528, 5.640944E-06, 0.02635368, -0.0277764, 0.4000025
 186031391, 0.0004844291, -0.01775136, -2.89974E-05, 0.02599511, -0.02789224, 0.4000016, 0.01519144, -0.005185854, 1.895689E-05, 0.02634673, -0.02758121, 0.4000028
 186231311, -0.01617299, 0.01801068, 8.77475E-07, 0.02565145, -0.02709472, 0.4000023, 0.0004844291, -0.01775136, -2.89974E-05, 0.02599511, -0.02789224, 0.4000016
 186431231, 0.0131225, -0.02019296, -1.010745E-05, 0.0262953, -0.02795618, 0.400002, -0.01617299, 0.01801068, 8.77475E-07, 0.02565145, -0.02709472, 0.4000023
 186631151, -0.01734921, -0.006422054, -4.253215E-05, 0.02562661, -0.02761493, 0.4000012, 0.0131225, -0.02019296, -1.010745E-05, 0.0262953, -0.02795618, 0.400002
 186831071, -0.02384116, 0.01277458, -2.195344E-05, 0.02550808, -0.02719978, 0.4000018, -0.01734921, -0.006422054, -4.253215E-05, 0.02562661, -0.02761493, 0.4000012
 187030991, -0.004388215, 0.01217177, 1.251259E-05, 0.02588473, -0.02720923, 0.4000027, -0.02384116, 0.01277458, -2.195344E-05, 0.02550808, -0.02719978, 0.4000018
 187230911, -0.005864386, 0.001927048, -7.490609E-06, 0.02585379, -0.02741979, 0.4000024, -0.004388215, 0.01217177, 1.251259E-05, 0.02588473, -0.02720923, 0.4000027
 187430831, -0.0129325, -0.0005519526, -2.47131E-05, 0.02570583, -0.0274708, 0.4000026, -0.005864386, 0.001927048, -7.490609E-06, 0.02585379, -0.02741979, 0.4000024
 187630751, -0.01613264, 0.007777857, -1.689146E-05, 0.02563969, -0.02728964, 0.4000032, -0.0129325, -0.0005519526, -2.47131E-05, 0.02570583, -0.0274708, 0.4000026
 187830671, 0.01356568, 0.0151782, 5.054635E-05, 0.02629136, -0.02714289, 0.4000048, -0.01613264, 0.007777857, -1.689146E-05, 0.02563969, -0.02728964, 0.4000032
 188031424, -0.01071975, -0.000352219, -2.060476E-05, 0.02573922, -0.02746867, 0.4000033, 0.01356568, 0.0151782, 5.054635E-05, 0.02629136, -0.02714289, 0.4000048
 188231344, -0.007319467, -0.01944337, -4.637832E-05, 0.02580781, -0.02793512, 0.4000025, -0.01071975, -0.000352219, -2.060476E-05, 0.02573922, -0.02746867, 0.4000033
 188431264, 0.01305593, 0.006592788, 3.547552E-05, 0.02627528, -0.02732054, 0.4000043, -0.007319467, -0.01944337, -4.637832E-05, 0.02580781, -0.02793512, 0.4000025
 188631184, -0.01371754, 0.01727788, 3.57273E-06, 0.02568266, -0.02710856, 0.4000034, 0.01305593, 0.006592788, 3.547552E-05, 0.02627528, -0.02732054, 0.4000043
 188831104, 0.011769, 0.01062116, 3.958793E-05, 0.026249, -0.02723515, 0.4000042, -0.01371754, 0.01727788, 3.57273E-06, 0.02568266, -0.02710856, 0.4000034
 189031024, 0.002759983, -0.01925951, -2.70074E-05, 0.02603807, -0.02792484, 0.4000026, 0.011769, 0.01062116, 3.958793E-05, 0.026249, -0.02723515, 0.4000042
 189230944, 0.02324424, -0.009722589, 2.654849E-05, 0.02655288, -0.02767985, 0.4000041, 0.002759983, -0.01925951, -2.70074E-05, 0.02603807, -0.02792484, 0.4000026
 189430864, 0.02515892, -0.004891764, 3.799463E-05, 0.02660683, -0.02756143, 0.4000045, 0.02324424, -0.009722589, 2.654849E-05, 0.02655288, -0.02767985, 0.4000041
 189630784, 0.01368832, 0.01133304, 4.360788E-05, 0.02630647, -0.02720824, 0.4000045, 0.02515892, -0.004891764, 3.799463E-05, 0.02660683, -0.02756143, 0.4000045
 189830704, 0.003841944, -0.02485697, -3.370756E-05, 0.02606801, -0.02806468, 0.4000028, 0.01368832, 0.01133304, 4.360788E-05, 0.02630647, -0.02720824, 0.4000045
 190031457, 0.002440845, 0.02298789, 4.206218E-05, 0.02603252, -0.02698647, 0.4000049, 0.003841944, -0.02485697, -3.370756E-05, 0.02606801, -0.02806468, 0.4000028
 190231377, -0.01032464, -0.01265136, -3.958819E-05, 0.02575703, -0.02774106, 0.4000034, 0.002440845, 0.02298789, 4.206218E-05, 0.02603252, -0.02698647, 0.4000049
 190431297, -0.02483172, -0.002405246, -4.946994E-05, 0.02548747, -0.02749389, 0.4000034, -0.01032464, -0.01265136, -3.958819E-05, 0.02575703, -0.02774106, 0.4000034
 190631217, 0.003322532, -0.01727386, -2.194206E-05, 0.02605396, -0.0278563, 0.4000037, -0.02483172, -0.002405246, -4.946994E-05, 0.02548747, -0.02749389, 0.4000034
 190831137, -0.0228146, 0.009089037, -2.70824E-05, 0.02552283, -0.02724726, 0.4000037, 0.003322532, -0.01727386, -2.194206E-05, 0.02605396, -0.0278563, 0.4000037
 191031057, -0.01506626, -0.001124368, -2.949683E-05, 0.02566482, -0.02746631, 0.4000037, -0.0228146, 0.009089037, -2.70824E-05, 0.02552283, -0.02724726, 0.4000037
 191230977, 0.01045095, 0.01073853, 3.66914E-05, 0.02622068, -0.0272139, 0.4000051, -0.01506626, -0.001124368, -2.949683E-05, 0.02566482, -0.02746631, 0.4000037
 191430897, 0.008742124, 0.007757506, 2.87965E-05, 0.02617817, -0.02727849, 0.4000048, 0.01045095, 0.01073853, 3.66914E-05, 0.02622068, -0.0272139, 0.4000051
 191630817, 0.01414456, -0.01079252, 8.306264E-06, 0.0263125, -0.02770028, 0.4000041, 0.008742124, 0.007757506, 2.87965E-05, 0.02617817, -0.02727849, 0.4000048
 191830737, 0.02000616, 0.01971428, 6.923763E-05, 0.02646175, -0.02704708, 0.4000057, 0.01414456, -0.01079252, 8.306264E-06, 0.0263125, -0.02770028, 0.4000041
 192030657, 0.01976479, -0.01368016, 1.420535E-05, 0.02645255, -0.0277706, 0.4000047, 0.02000616, 0.01971428, 6.923763E-05, 0.02646175, -0.02704708, 0.4000057
 192231410, -0.01733297, -0.007372314, -4.423691E-05, 0.02561531, -0.0276177, 0.4000033, 0.01976479, -0.01368016, 1.420535E-05, 0.02645255, -0.0277706, 0.4000047
 192431330, 0.01743955, -0.02263361, -4.88622E-06, 0.02639257, -0.02800518, 0.4000041, -0.01733297, -0.007372314, -4.423691E-05, 0.02561531, -0.0276177, 0.4000033
 192631250, 0.01639812, -0.01947998, -1.59955E-06, 0.02636442, -0.02792143, 0.4000042, 0.01743955, -0.02263361, -4.88622E-06, 0.02639257, -0.02800518, 0.4000041
 192831170, -0.01797342, -0.02360472, -7.221309E-05, 0.02560173, -0.02803237, 0.4000027, 0.01639812, -0.01947998, -1.59955E-06, 0.02636442, -0.02792143, 0.4000042
 193031090, -0.002765702, -0.01555599, -3.069837E-05, 0.02590806, -0.02781918, 0.4000037, -0.01797342, -0.02360472, -7.221309E-05, 0.02560173, -0.02803237, 0.4000027
 193231010, 0.01014378, -0.0176496, -1.005068E-05, 0.02620326, -0.02787277, 0.4000043, -0.002765702, -0.01555599, -3.069837E-05, 0.02590806, -0.02781918, 0.4000037
 193430930, -0.003800348, 0.0213832, 2.804685E-05, 0.02588049, -0.02701767, 0.4000053, 0.01014378, -0.0176496, -1.005068E-05, 0.02620326, -0.02787277, 0.4000043
 193630850, -0.01218714, 0.01864863, 7.803323E-06, 0.02570833, -0.02706606, 0.4000049, -0.003800348, 0.0213832, 2.804685E-05, 0.02588049, -0.02701767, 0.4000053
 193830770, 0.01173046, -0.004195801, 1.496285E-05, 0.02624501, -0.02753895, 0.400005, -0.01218714, 0.01864863, 7.803323E-06, 0.02570833, -0.02706606, 0.4000049
 194030690, 0.005166716, 0.01630681, 3.612221E-05, 0.02609024, -0.02710519, 0.4000054, 0.01173046, -0.004195801, 1.496285E-05, 0.02624501, -0.02753895, 0.400005
 194231443, -0.01448376, 0.01070753, -9.389731E-06, 0.02567233, -0.02721213, 0.4000045, 0.005166716, 0.01630681, 3.612221E-05, 0.02609024, -0.02710519, 0.4000054
 194431363, 0.001139225, 0.02051528, 3.517028E-05, 0.02600155, -0.02702098, 0.4000055, -0.01448376, 0.01070753, -9.389731E-06, 0.02567233, -0.02721213, 0.4000045
 194631283, -0.001213391, -0.01487497, -2.610675E-05, 0.0259522, -0.02778744, 0.4000041, 0.001139225, 0.02051528, 3.517028E-05, 0.02600155, -0.02702098, 0.4000055
 194831203, -0.01817663, -0.02488314, -7.301923E-05, 0.02560778, -0.02804824, 0.4000033, -0.001213391, -0.01487497, -2.610675E-05, 0.0259522, -0.02778744, 0.4000041
 195031123, -0.02276927, 0.02471656, -2.630528E-06, 0.02552251, -0.026937, 0.4000053, -0.01817663, -0.02488314, -7.301923E-05, 0.02560778, -0.02804824, 0.4000033
 195231043, 0.01399134, -0.01837083, -3.216939E-06, 0.02630466, -0.02786897, 0.4000057, -0.02276927, 0.02471656, -2.630528E-06, 0.02552251, -0.026937, 0.4000053
 195430963, 0.02306284, 0.02275198, 7.887589E-05, 0.02653843, -0.02696983, 0.4000078, 0.01399134, -0.01837083, -3.216939E-06, 0.02630466, -0.02786897, 0.4000057
 195630883, 0.02264708, 0.01347205, 6.337189E-05, 0.02652741, -0.02714114, 0.4000076, 0.02306284, 0.02275198, 7.887589E-05, 0.02653843, -0.02696983, 0.4000078
 195830803, -0.005712274, -0.02458272, -4.932229E-05, 0.0258423, -0.02803057, 0.4000053, 0.02264708, 0.01347205, 6.337189E-05, 0.02652741, -0.02714114, 0.4000076
 196030723, 0.005154308, -0.01094684, -7.452738E-06, 0.02608156, -0.02767187, 0.4000068, -0.005712274, -0.02458272, -4.932229E-05, 0.0258423, -0.02803057, 0.4000053
 196231476, 0.01303201, -0.01030706, 8.252662E-06, 0.02627393, -0.02765553, 0.4000071, 0.005154308, -0.01094684, -7.452738E-06, 0.02608156, -0.02767187, 0.4000068
 196431396, -0.005030674, -0.01208979, -2.826127E-05, 0.02585904, -0.02770043, 0.4000059, 0.01303201, -0.01030706, 8.252662E-06, 0.02627393, -0.02765553, 0.4000071
 196631316, -0.0007870514, 0.01771595, 2.625894E-05, 0.025952, -0.02705323, 0.400007, -0.005030674, -0.01208979, -2.826127E-05, 0.02585904, -0.02770043, 0.4000059
 196831236, 0.01382098, -0.009368198, 1.116175E-05, 0.02629272, -0.02763559, 0.400007, -0.0007870514, 0.01771595, 2.625894E-05, 0.025952, -0.02705323, 0.400007
 197031156, 0.02261154, -0.00806545, 2.984636E-05, 0.0265181, -0.02760574, 0.4000077, 0.01382098, -0.009368198, 1.116175E-05, 0.02629272, -0.02763559, 0.400007
 197231076, -0.01047011, -0.01144526, -3.77999E-05, 0.02573797, -0.02769067, 0.4000059, 0.02261154, -0.00806545, 2.984636E-05, 0.0265181, -0.02760574, 0.4000077
 197430996, -0.02214549, 0.01611476, -1.617453E-05, 0.02551582, -0.02709187, 0.4000063, -0.01047011, -0.01144526, -3.77999E-05, 0.02573797, -0.02769067, 0.4000059
 197630916, 0.004536418, -0.01086836, -8.814621E-06, 0.02606441, -0.02768255, 0.400006, -0.02214549, 0.01611476, -1.617453E-05, 0.02551582, -0.02709187, 0.4000063
 197830836, -0.006783534, -0.009343766, -2.774318E-05, 0.02581603, -0.02764895, 0.4000053, 0.004536418, -0.01086836, -8.814621E-06, 0.02606441, -0.02768255, 0.400006
 198030756, -0.01414913, -0.006630367, -3.731195E-05, 0.02566624, -0.02758609, 0.4000051, -0.006783534, -0.009343766, -2.774318E-05, 0.02581603, -0.02764895, 0.4000053
 198230676, -0.01404767, 0.007768593, -1.400697E-05, 0.02566558, -0.02726699, 0.4000057, -0.01414913, -0.006630367, -3.731195E-05, 0.02566624, -0.02758609, 0.4000051
 198431429, 0.006963532, -0.01598729, -1.271915E-05, 0.02611922, -0.02781899, 0.4000055, -0.01404767, 0.007768593, -1.400697E-05, 0.02566558, -0.02726699, 0.4000057
 198631349, 0.02235784, 0.002317953, 4.580469E-05, 0.02651317, -0.02739068, 0.4000063, 0.006963532, -0.01598729, -1.271915E-05, 0.02611922, -0.02781899, 0.4000055
 198831269, 0.008138929, 0.00698557, 2.662835E-05, 0.026155, -0.02729124, 0.4000055, 0.02235784, 0.002317953, 4.580469E-05, 0.02651317, -0.02739068, 0.4000063
 199031189, -0.01709114, 0.0220686, 3.978857E-06, 0.02561834, -0.02699552, 0.4000051, 0.008138929, 0.00698557, 2.662835E-05, 0.026155, -0.02729124, 0.4000055
 199231109, -0.02299241, 0.01516455, -1.828055E-05, 0.02551235, -0.0271193, 0.4000049, -0.01709114, 0.0220686, 3.978857E-06, 0.02561834, -0.02699552, 0.4000051
 199431029, -0.005174753, 0.0114972, 8.796751E-06, 0.0258576, -0.02718698, 0.4000057, -0.02299241, 0.01516455, -1.828055E-05, 0.02551235, -0.0271193, 0.4000049
 199630949, 0.0207851, -0.009656413, 2.322401E-05, 0.02647812, -0.02765403, 0.4000062, -0.005174753, 0.0114972, 8.796751E-06, 0.0258576, -0.02718698, 0.4000057
 199830869, -0.01522065, -0.003129303, -3.341178E-05, 0.02565145, -0.02749839, 0.4000052, 0.0207851, -0.009656413, 2.322401E-05, 0.02647812, -0.02765403, 0.4000062
 200030789, -0.0215705, 0.01333244, -1.910737E-05, 0.02553274, -0.02714691, 0.4000057, -0.01522065, -0.003129303, -3.341178E-05, 0.02565145, -0.02749839, 0.4000052
 200230709, -0.01722711, 0.01821385, -3.290555E-06, 0.02561306, -0.02705143, 0.4000061, -0.0215705, 0.01333244, -1.910737E-05, 0.02553274, -0.02714691, 0.4000057
 200431462, -0.024557, 0.007548512, -3.390482E-05, 0.02548142, -0.02725953, 0.4000056, -0.01722711, 0.01821385, -3.290555E-06, 0.02561306, -0.02705143, 0.4000061
 200631382, 0.00750185, -0.01375913, -7.855615E-06, 0.02614304, -0.02774966, 0.4000058, -0.024557, 0.007548512, -3.390482E-05, 0.02548142, -0.02725953, 0.4000056
 200831302, -0.02457494, -0.002228803, -4.92353E-05, 0.02548364, -0.02747053, 0.4000053, 0.00750185, -0.01375913, -7.855615E-06, 0.02614304, -0.02774966, 0.4000058
 201031222, -0.01915337, 0.003695327, -2.996283E-05, 0.0255777, -0.02733544, 0.4000061, -0.02457494, -0.002228803, -4.92353E-05, 0.02548364, -0.02747053, 0.4000053
 201231142, -0.005117025, 0.02446864, 2.855818E-05, 0.02585285, -0.02692845, 0.4000076, -0.01915337, 0.003695327, -2.996283E-05, 0.0255777, -0.02733544, 0.4000061
 201431062, 0.02157428, 0.02111195, 7.343449E-05, 0.02648932, -0.02698494, 0.4000092, -0.005117025, 0.02446864, 2.855818E-05, 0.02585285, -0.02692845, 0.4000076
 201630982, -0.0189506, -0.01954699, -6.617712E-05, 0.02557283, -0.02788622, 0.4000061, 0.02157428, 0.02111195, 7.343449E-05, 0.02648932, -0.02698494, 0.4000092
 201830902, -0.01361102, -0.0227309, -6.11834E-05, 0.02567266, -0.02797258, 0.4000062, -0.0189506, -0.01954699, -6.617712E-05, 0.02557283, -0.02788622, 0.4000061
 202030822, -0.01694254, -0.02314051, -6.823946E-05, 0.02560645, -0.02798364, 0.4000062, -0.01361102, -0.0227309, -6.11834E-05, 0.02567266, -0.02797258, 0.4000062
 202230742, -0.02545991, 0.02285239, -1.270974E-05, 0.02545302, -0.02695715, 0.4000075, -0.01694254, -0.02314051, -6.823946E-05, 0.02560645, -0.02798364, 0.4000062
 202430662, 0.01462277, 0.01022974, 4.393252E-05, 0.02630204, -0.02720077, 0.4000084, -0.02545991, 0.02285239, -1.270974E-05, 0.02545302, -0.02695715, 0.4000075
 202631415, 0.01396081, -0.007428417, 1.48645E-05, 0.02628329, -0.02759367, 0.4000076, 0.01462277, 0.01022974, 4.393252E-05, 0.02630204, -0.02720077, 0.4000084
 202831335, 0.01279258, 0.02126711, 5.814754E-05, 0.02625403, -0.02699462, 0.4000085, 0.01396081, -0.007428417, 1.48645E-05, 0.02628329, -0.02759367, 0.4000076
 203031255, -0.0176532, -0.01184829, -5.249833E-05, 0.02559107, -0.02770278, 0.4000059, 0.01279258, 0.02126711, 5.814754E-05, 0.02625403, -0.02699462, 0.4000085
 203231175, -0.02084349, 0.01434272, -1.669938E-05, 0.02553398, -0.02712957, 0.4000064, -0.0176532, -0.01184829, -5.249833E-05, 0.02559107, -0.02770278, 0.4000059
 203431095, 0.01525582, 0.02545181, 7.001047E-05, 0.02631854, -0.02693024, 0.400008, -0.02084349, 0.01434272, -1.669938E-05, 0.02553398, -0.02712957, 0.4000064
 203631015, -0.005919766, 0.02398226, 2.733679E-05, 0.02582425, -0.02695565, 0.4000071, 0.01525582, 0.02545181, 7.001047E-05, 0.02631854, -0.02693024, 0.400008
 203830935, -0.0197524, 0.0244506, 1.863758E-06, 0.02555136, -0.02695097, 0.4000064, -0.005919766, 0.02398226, 2.733679E-05, 0.02582425, -0.02695565, 0.4000071
 204030855, -0.02295566, -0.01509292, -6.843769E-05, 0.0254935, -0.02779796, 0.4000048, -0.0197524, 0.0244506, 1.863758E-06, 0.02555136, -0.02695097, 0.4000064
 204230775, 0.005156211, 0.00246995, 1.383769E-05, 0.02607069, -0.02738065, 0.4000066, -0.02295566, -0.01509292, -6.843769E-05, 0.0254935, -0.02779796, 0.4000048
 204430695, 0.0001695132, 0.0209238, 3.401859E-05, 0.02596066, -0.02700975, 0.400007, 0.005156211, 0.00246995, 1.383769E-05, 0.02607069, -0.02738065, 0.4000066
 204631448, 0.01225947, 0.009804106, 3.88527E-05, 0.02624986, -0.02722001, 0.4000071, 0.0001695132, 0.0209238, 3.401859E-05, 0.02596066, -0.02700975, 0.400007
 204831368, -0.01009648, -0.00602963, -2.860263E-05, 0.02574909, -0.02756431, 0.4000056, 0.01225947, 0.009804106, 3.88527E-05, 0.02624986, -0.02722001, 0.4000071
 205031288, -0.01600964, -0.005271762, -3.834186E-05, 0.0256371, -0.02754683, 0.4000052, -0.01009648, -0.00602963, -2.860263E-05, 0.02574909, -0.02756431, 0.4000056
 205231208, -0.01035637, 0.002301249, -1.558771E-05, 0.02575097, -0.02737807, 0.4000053, -0.01600964, -0.005271762, -3.834186E-05, 0.0256371, -0.02754683, 0.4000052
 205431128, 0.02518388, -0.02397074, 8.37231E-06, 0.02660019, -0.02802221, 0.4000057, -0.01035637, 0.002301249, -1.558771E-05, 0.02575097, -0.02737807, 0.4000053
 205631048, -0.02405318, 0.01326137, -2.341687E-05, 0.02549719, -0.02714817, 0.4000051, 0.02518388, -0.02397074, 8.37231E-06, 0.02660019, -0.02802221, 0.4000057
 205830968, -0.01938155, 0.0002974221, -3.540659E-05, 0.02558121, -0.02741809, 0.4000049, -0.02405318, 0.01326137, -2.341687E-05, 0.02549719, -0.02714817, 0.4000051
 206030888, -0.0148962, 0.005183795, -1.929184E-05, 0.02566605, -0.02731252, 0.4000051, -0.01938155, 0.0002974221, -3.540659E-05, 0.02558121, -0.02741809, 0.4000049
 206230808, 0.02203608, -0.01092454, 2.334619E-05, 0.02651747, -0.027681, 0.4000061, -0.0148962, 0.005183795, -1.929184E-05, 0.02566605, -0.02731252, 0.4000051
 206430728, 0.0105142, 0.01026919, 3.581111E-05, 0.02622197, -0.02720731, 0.4000063, 0.02203608, -0.01092454, 2.334619E-05, 0.02651747, -0.027681, 0.4000061
 206631481, -0.01497908, -0.01601725, -5.326082E-05, 0.02566661, -0.02781158, 0.400004, 0.0105142, 0.01026919, 3.581111E-05, 0.02622197, -0.02720731, 0.4000063
 206831401, 0.004918768, -0.0002864843, 8.639679E-06, 0.02608785, -0.02743519, 0.4000055, -0.01497908, -0.01601725, -5.326082E-05, 0.02566661, -0.02781158, 0.400004
 207031321, 0.01782282, 0.006706048, 4.384213E-05, 0.02640345, -0.02728421, 0.4000065, 0.004918768, -0.0002864843, 8.639679E-06, 0.02608785, -0.02743519, 0.4000055
 207231241, -0.006123149, -0.003909586, -1.763101E-05, 0.02584022, -0.02751673, 0.4000051, 0.01782282, 0.006706048, 4.384213E-05, 0.02640345, -0.02728421, 0.4000065
 207431161, 0.0206129, 0.01816908, 6.739239E-05, 0.02647616, -0.02705669, 0.4000071, -0.006123149, -0.003909586, -1.763101E-05, 0.02584022, -0.02751673, 0.4000051
 207631081, -0.0008397132, -0.001895247, -4.60598E-06, 0.02595328, -0.02747233, 0.4000053, 0.0206129, 0.01816908, 6.739239E-05, 0.02647616, -0.02705669, 0.4000071
 207831001, -0.01061719, 0.006538738, -9.254359E-06, 0.02574507, -0.02729042, 0.4000052, -0.0008397132, -0.001895247, -4.60598E-06, 0.02595328, -0.02747233, 0.4000053
 208030921, -0.00722056, -0.01155925, -3.215314E-05, 0.02581334, -0.02770453, 0.4000047, -0.01061719, 0.006538738, -9.254359E-06, 0.02574507, -0.02729042, 0.4000052
 208230841, 0.0009319467, 0.002866072, 6.386471E-06, 0.02598848, -0.02737159, 0.4000055, -0.00722056, -0.01155925, -3.215314E-05, 0.02581334, -0.02770453, 0.4000047
 208430761, 0.01129256, -0.007625749, 8.750191E-06, 0.02623218, -0.02761343, 0.4000054, 0.0009319467, 0.002866072, 6.386471E-06, 0.02598848, -0.02737159, 0.4000055
 208630681, 0.0230807, -0.01342776, 2.132469E-05, 0.02653739, -0.02775712, 0.4000056, 0.01129256, -0.007625749, 8.750191E-06, 0.02623218, -0.02761343, 0.4000054
 208831434, 0.01727319, -0.01116472, 1.414275E-05, 0.02638126, -0.02770443, 0.4000054, 0.0230807, -0.01342776, 2.132469E-05, 0.02653739, -0.02775712, 0.4000056
 209031354, -0.0123299, -0.003050587, -2.832204E-05, 0.02570174, -0.02751408, 0.4000045, 0.01727319, -0.01116472, 1.414275E-05, 0.02638126, -0.02770443, 0.4000054
 209231274, -0.01586467, 0.01564875, -4.332156E-06, 0.02563458, -0.02711637, 0.4000053, -0.0123299, -0.003050587, -2.832204E-05, 0.02570174, -0.02751408, 0.4000045
 209431194, 0.01029401, -0.002410518, 1.536608E-05, 0.02620816, -0.02748975, 0.4000057, -0.01586467, 0.01564875, -4.332156E-06, 0.02563458, -0.02711637, 0.4000053
 209631114, 0.00053039, 0.01972247, 3.284023E-05, 0.02598345, -0.02703274, 0.4000059, 0.01029401, -0.002410518, 1.536608E-05, 0.02620816, -0.02748975, 0.4000057
 209831034, 0.01208038, 0.01990954, 5.429209E-05, 0.02625929, -0.02702448, 0.4000066, 0.00053039, 0.01972247, 3.284023E-05, 0.02598345, -0.02703274, 0.4000059
 210030954, -0.0006652294, -0.02528312, -4.152137E-05, 0.02596194, -0.02805441, 0.4000044, 0.01208038, 0.01990954, 5.429209E-05, 0.02625929, -0.02702448, 0.4000066
 210230874, -0.01433979, 0.01855767, 3.03753E-06, 0.02567988, -0.02704384, 0.4000055, -0.0006652294, -0.02528312, -4.152137E-05, 0.02596194, -0.02805441, 0.4000044
 210430794, -0.01967863, -0.002168996, -3.959204E-05, 0.02558185, -0.02746842, 0.4000047, -0.01433979, 0.01855767, 3.03753E-06, 0.02567988, -0.02704384, 0.4000055
 210630714, -0.009478995, -0.01037841, -3.3717E-05, 0.02577899, -0.02765824, 0.400005, -0.01967863, -0.002168996, -3.959204E-05, 0.02558185, -0.02746842, 0.4000047
 210831467, -0.004186869, -0.01670438, -3.379442E-05, 0.02588955, -0.02781367, 0.4000052, -0.009478995, -0.01037841, -3.3717E-05, 0.02577899, -0.02765824, 0.400005
 211031387, -0.01156139, -0.02190185, -5.542418E-05, 0.02573882, -0.02795069, 0.4000046, -0.004186869, -0.01670438, -3.379442E-05, 0.02588955, -0.02781367, 0.4000052
 211231307, 0.001647321, 0.01830536, 3.169925E-05, 0.02602083, -0.02704006, 0.4000064, -0.01156139, -0.02190185, -5.542418E-05, 0.02573882, -0.02795069, 0.4000046
 211431227, 0.009682358, 0.007094112, 2.877937E-05, 0.02621118, -0.02725977, 0.4000064, 0.001647321, 0.01830536, 3.169925E-05, 0.02602083, -0.02704006, 0.4000064
 211631147, -0.004828715, 0.0122027, 1.027916E-05, 0.02588123, -0.02715577, 0.4000059, 0.009682358, 0.007094112, 2.877937E-05, 0.02621118, -0.02725977, 0.4000064
 211831067, 0.004012489, 0.01870215, 3.666729E-05, 0.02607792, -0.02703356, 0.4000063, -0.004828715, 0.0122027, 1.027916E-05, 0.02588123, -0.02715577, 0.4000059
 212030987, -0.01903916, 0.01600579, -9.5142E-06, 0.02559985, -0.02708563, 0.4000052, 0.004012489, 0.01870215, 3.666729E-05, 0.02607792, -0.02703356, 0.4000063
 212230907, -0.00388465, 0.01754449, 2.055689E-05, 0.02590135, -0.02705744, 0.4000058, -0.01903916, 0.01600579, -9.5142E-06, 0.02559985, -0.02708563, 0.4000052
 212430827, -0.006519427, -0.004849078, -1.95616E-05, 0.02584343, -0.02752705, 0.4000051, -0.00388465, 0.01754449, 2.055689E-05, 0.02590135, -0.02705744, 0.4000058
 212630747, 0.01481245, 0.001020053, 2.874235E-05, 0.02633684, -0.02739557, 0.4000062, -0.006519427, -0.004849078, -1.95616E-05, 0.02584343, -0.02752705, 0.4000051
 212830667, -0.02327263, -0.008603475, -5.644386E-05, 0.02551768, -0.02762105, 0.4000042, 0.01481245, 0.001020053, 2.874235E-05, 0.02633684, -0.02739557, 0.4000062
 213031420, -0.02145196, -0.006991423, -5.072621E-05, 0.0255469, -0.02758344, 0.4000045, -0.02327263, -0.008603475, -5.644386E-05, 0.02551768, -0.02762105, 0.4000042
 213231340, -0.01369649, -0.008804787, -3.942212E-05, 0.02568956, -0.02762895, 0.4000047, -0.02145196, -0.006991423, -5.072621E-05, 0.0255469, -0.02758344, 0.4000045
 213431260, 0.02500249, 0.0165769, 7.300128E-05, 0.02659592, -0.02708538, 0.4000072, -0.01369649, -0.008804787, -3.942212E-05, 0.02568956, -0.02762895, 0.4000047
 213631180, -0.01965389, 0.008319261, -2.319315E-05, 0.02557449, -0.02725008, 0.400005, 0.02500249, 0.0165769, 7.300128E-05, 0.02659592, -0.02708538, 0.4000072
 213831100, -0.01515293, 0.02108461, 5.839056E-06, 0.02565766, -0.02700759, 0.4000053, -0.01965389, 0.008319261, -2.319315E-05, 0.02557449, -0.02725008, 0.400005
 214031020, -0.004597359, 0.01119589, 9.620137E-06, 0.02587126, -0.02719878, 0.4000053, -0.01515293, 0.02108461, 5.839056E-06, 0.02565766, -0.02700759, 0.4000053
 214230940, 0.01407162, 0.02213319, 6.250668E-05, 0.02630302, -0.02699591, 0.4000063, -0.004597359, 0.01119589, 9.620137E-06, 0.02587126, -0.02719878, 0.4000053
 214430860, 0.001773922, -0.00999084, -1.301498E-05, 0.0260093, -0.02767264, 0.4000046, 0.01407162, 0.02213319, 6.250668E-05, 0.02630302, -0.02699591, 0.4000063
 214630780, -0.02533506, 0.02354939, -8.778403E-06, 0.02547562, -0.02696735, 0.4000047, 0.001773922, -0.00999084, -1.301498E-05, 0.0260093, -0.02767264, 0.4000046
 214830700, -0.00500696, -0.01366381, -3.143639E-05, 0.02586842, -0.02775945, 0.4000039, -0.02533506, 0.02354939, -8.778403E-06, 0.02547562, -0.02696735, 0.4000047
 215031453, 0.006841324, 0.01662541, 3.953015E-05, 0.02613706, -0.02709161, 0.4000055, -0.00500696, -0.01366381, -3.143639E-05, 0.02586842, -0.02775945, 0.4000039
 215231373, -0.01594686, -0.01312889, -5.044977E-05, 0.02564988, -0.02773878, 0.400004, 0.006841324, 0.01662541, 3.953015E-05, 0.02613706, -0.02709161, 0.4000055
 215431293, -0.0002712977, 0.01797887, 2.813641E-05, 0.02597395, -0.02705587, 0.4000059, -0.01594686, -0.01312889, -5.044977E-05, 0.02564988, -0.02773878, 0.400004
 215631213, 0.01366237, -0.006311107, 1.508041E-05, 0.02630617, -0.02756547, 0.4000058, -0.0002712977, 0.01797887, 2.813641E-05, 0.02597395, -0.02705587, 0.4000059
 215831133, 0.02482636, 0.00706835, 5.683456E-05, 0.02659778, -0.02726494, 0.4000072, 0.01366237, -0.006311107, 1.508041E-05, 0.02630617, -0.02756547, 0.4000058
 216031053, 0.002653922, -0.004405229, -2.03339E-06, 0.02603989, -0.02751525, 0.4000059, 0.02482636, 0.00706835, 5.683456E-05, 0.02659778, -0.02726494, 0.4000072
 216230973, -0.003844197, 0.02114972, 2.615573E-05, 0.02589922, -0.02698882, 0.4000063, 0.002653922, -0.004405229, -2.03339E-06, 0.02603989, -0.02751525, 0.4000059
 216430893, -0.02226491, -0.004239494, -4.725367E-05, 0.0255414, -0.02751132, 0.4000045, -0.003844197, 0.02114972, 2.615573E-05, 0.02589922, -0.02698882, 0.4000063
 216630813, 0.004541741, -0.001422449, 6.016118E-06, 0.02609305, -0.02744747, 0.4000054, -0.02226491, -0.004239494, -4.725367E-05, 0.0255414, -0.02751132, 0.4000045
 216830733, -0.02160504, 0.01596317, -1.411715E-05, 0.02555726, -0.02708474, 0.400005, 0.004541741, -0.001422449, 6.016118E-06, 0.02609305, -0.02744747, 0.4000054
 217031486, 0.01917071, -0.01834883, 6.116234E-06, 0.02645569, -0.02785629, 0.4000056, -0.02160504, 0.01596317, -1.411715E-05, 0.02555726, -0.02708474, 0.400005
 217231406, -0.0009060744, 0.01478306, 2.149577E-05, 0.02596816, -0.02710561, 0.400006, 0.01917071, -0.01834883, 6.116234E-06, 0.02645569, -0.02785629, 0.4000056
 217431326, -0.02062585, -0.01765672, -6.528279E-05, 0.02557204, -0.02784115, 0.400004, -0.0009060744, 0.01478306, 2.149577E-05, 0.02596816, -0.02710561, 0.400006
 217631246, 0.008002888, -0.01303728, -6.026966E-06, 0.02617201, -0.02772767, 0.400005, -0.02062585, -0.01765672, -6.528279E-05, 0.02557204, -0.02784115, 0.400004
 217831166, -0.01878558, -0.01089856, -5.194155E-05, 0.02559925, -0.02768163, 0.4000039, 0.008002888, -0.01303728, -6.026966E-06, 0.02617201, -0.02772767, 0.400005
 218031086, -0.005413876, 0.001380378, -7.769605E-06, 0.02586077, -0.02740013, 0.4000048, -0.01878558, -0.01089856, -5.194155E-05, 0.02559925, -0.02768163, 0.4000039
 218231006, -0.008715627, 0.01658162, 1.059076E-05, 0.02578919, -0.0270896, 0.4000053, -0.005413876, 0.001380378, -7.769605E-06, 0.02586077, -0.02740013, 0.4000048
 218430926, -0.004591192, -0.01273921, -2.921799E-05, 0.02587348, -0.0277365, 0.4000042, -0.008715627, 0.01658162, 1.059076E-05, 0.02578919, -0.0270896, 0.4000053
 218630846, -0.01340028, 0.01115941, -6.667291E-06, 0.02569194, -0.02720524, 0.4000045, -0.004591192, -0.01273921, -2.921799E-05, 0.02587348, -0.0277365, 0.4000042
 218830766, -0.0008409087, -0.00575125, -1.105024E-05, 0.02595157, -0.02757688, 0.4000042, -0.01340028, 0.01115941, -6.667291E-06, 0.02569194, -0.02720524, 0.4000045
 219030686, 0.003849035, 0.006366299, 1.77612E-05, 0.02605539, -0.02731083, 0.4000048, -0.0008409087, -0.00575125, -1.105024E-05, 0.02595157, -0.02757688, 0.4000042
 219231439, 0.01971717, -0.01730711, 8.26772E-06, 0.02644655, -0.02786704, 0.4000046, 0.003849035, 0.006366299, 1.77612E-05, 0.02605539, -0.02731083, 0.4000048
 219431359, 0.01536856, 0.004917036, 3.710519E-05, 0.02633182, -0.02734362, 0.4000053, 0.01971717, -0.01730711, 8.26772E-06, 0.02644655, -0.02786704, 0.4000046
 219631279, 0.02200919, 0.01317949, 6.322285E-05, 0.02650609, -0.02717238, 0.4000061, 0.01536856, 0.004917036, 3.710519E-05, 0.02633182, -0.02734362, 0.4000053
 219831199, 0.024726, -0.006733876, 3.516982E-05, 0.02658338, -0.02760037, 0.4000055, 0.02200919, 0.01317949, 6.322285E-05, 0.02650609, -0.02717238, 0.4000061
 220031119, 0.02465805, 0.01912659, 7.732576E-05, 0.0265862, -0.027056, 0.4000061, 0.024726, -0.006733876, 3.516982E-05, 0.02658338, -0.02760037, 0.4000055
 220231039, 0.01996631, -0.01645673, 9.843441E-06, 0.02646453, -0.02783854, 0.4000044, 0.02465805, 0.01912659, 7.732576E-05, 0.0265862, -0.027056, 0.4000061
 220430959, 0.01957427, -0.006647547, 2.514024E-05, 0.02645692, -0.02759357, 0.4000047, 0.01996631, -0.01645673, 9.843441E-06, 0.02646453, -0.02783854, 0.4000044
 220630879, 0.01835059, -0.01340558, 1.179678E-05, 0.02642771, -0.02775545, 0.4000044, 0.01957427, -0.006647547, 2.514024E-05, 0.02645692, -0.02759357, 0.4000047
 220830799, 0.007833941, 0.0124639, 3.455615E-05, 0.02616751, -0.0271752, 0.4000047, 0.01835059, -0.01340558, 1.179678E-05, 0.02642771, -0.02775545, 0.4000044
 221030719, -0.02026836, 0.0007345344, -3.562166E-05, 0.0255797, -0.02742112, 0.4000031, 0.007833941, 0.0124639, 3.455615E-05, 0.02616751, -0.0271752, 0.4000047
 221231472, -0.0132384, 0.02349926, 1.410973E-05, 0.02571469, -0.02696775, 0.400004, -0.02026836, 0.0007345344, -3.562166E-05, 0.0255797, -0.02742112, 0.4000031
 221431392, 0.0166768, 0.003156355, 3.518091E-05, 0.02639491, -0.02736307, 0.4000047, -0.0132384, 0.02349926, 1.410973E-05, 0.02571469, -0.02696775, 0.400004
 221631312, 0.01999829, 0.01365717, 5.806582E-05, 0.02648201, -0.0271467, 0.4000051, 0.0166768, 0.003156355, 3.518091E-05, 0.02639491, -0.02736307, 0.4000047
 221831232, 0.02342095, 0.01415463, 6.511786E-05, 0.02657314, -0.02713853, 0.4000053, 0.01999829, 0.01365717, 5.806582E-05, 0.02648201, -0.0271467, 0.4000051
 222031152, 0.01812728, 0.002668597, 3.700088E-05, 0.0264327, -0.0273749, 0.4000046, 0.02342095, 0.01415463, 6.511786E-05, 0.02657314, -0.02713853, 0.4000053
 222231072, -0.01069273, 0.02263445, -0.08100356, 0.02620221, -0.02742274, 0.4000041, 0.01812728, 0.002668597, 3.700088E-05, 0.0264327, -0.0273749, 0.4000046
 222430992, -0.002817268, 0.02343139, -0.1472281, 0.02728091, -0.0283424, 0.4000044, -0.01069273, 0.02263445, -0.08100356, 0.02620221, -0.02742274, 0.4000041
 222630912, -0.0007885623, -0.001031403, -0.2772309, 0.03049114, -0.02936282, 0.4000131, -0.002817268, 0.02343139, -0.1472281, 0.02728091, -0.0283424, 0.4000044
 222830832, 0.01639247, 0.01914199, -0.5847126, 0.03707909, -0.03238497, 0.4000122, -0.0007885623, -0.001031403, -0.2772309, 0.03049114, -0.02936282, 0.4000131
 223030752, 0.02564573, -0.04443139, -0.9771955, 0.04638388, -0.04168577, 0.4000224, 0.01639247, 0.01914199, -0.5847126, 0.03707909, -0.03238497, 0.4000122
 223230672, -0.03956929, 0.007006777, -1.350362, 0.05802964, -0.05334076, 0.4000279, 0.02564573, -0.04443139, -0.9771955, 0.04638388, -0.04168577, 0.4000224
 223431425, 0.04314609, -0.07195065, -1.611729, 0.07453024, -0.07004027, 0.4000272, -0.03956929, 0.007006777, -1.350362, 0.05802964, -0.05334076, 0.4000279
 223631345, 0.03263999, 0.01887498, -1.875054, 0.09291248, -0.08794468, 0.4000001, 0.04314609, -0.07195065, -1.611729, 0.07453024, -0.07004027, 0.4000272
 223831265, 0.0446908, 0.009304833, -2.164875, 0.1142827, -0.109655, 0.399957, 0.03263999, 0.01887498, -1.875054, 0.09291248, -0.08794468, 0.4000001
 224031185, 0.07880646, -0.0474305, -2.45268, 0.1384826, -0.1343087, 0.3998973, 0.0446908, 0.009304833, -2.164875, 0.1142827, -0.109655, 0.399957
 224231105, -0.07559148, 0.0207568, -2.574812, 0.163158, -0.1598556, 0.3998564, 0.07880646, -0.0474305, -2.45268, 0.1384826, -0.1343087, 0.3998973
 224431025, 0.183064, -0.1670062, -2.754488, 0.1930709, -0.189392, 0.3998199, -0.07559148, 0.0207568, -2.574812, 0.163158, -0.1598556, 0.3998564
 224630945, 0.1869232, -0.2572602, -2.962324, 0.2225163, -0.2199892, 0.3998236, 0.183064, -0.1670062, -2.754488, 0.1930709, -0.189392, 0.3998199
 224830865, 0.08748016, 0.144992, -3.102683, 0.2528474, -0.2491285, 0.3998523, 0.1869232, -0.2572602, -2.962324, 0.2225163, -0.2199892, 0.3998236
 225030785, 0.1100189, -0.1318967, -3.229769, 0.289429, -0.2818125, 0.9998873, 0.08748016, 0.144992, -3.102683, 0.2528474, -0.2491285, 0.3998523
 225230705, 0.1606467, -0.04858747, -3.329013, 0.323457, -0.3150353, 0.9998789, 0.1100189, -0.1318967, -3.229769, 0.289429, -0.2818125, 0.9998873
 225431458, -0.06649797, -0.3471435, -3.453276, 0.3565324, -0.3526437, 0.9999453, 0.1606467, -0.04858747, -3.329013, 0.323457, -0.3150353, 0.9998789
 225631378, -0.2807771, 0.07331724, -3.580431, 0.3915999, -0.3851522, 1.000006, -0.06649797, -0.3471435, -3.453276, 0.3565324, -0.3526437, 0.9999453
 225831298, -0.06195679, -0.4919212, -3.640784, 0.4293337, -0.4267737, 1.000112, -0.2807771, 0.07331724, -3.580431, 0.3915999, -0.3851522, 1.000006
 226031218, -0.08582146, -0.1806502, -3.617298, 0.4661221, -0.4607516, 1.000446, -0.06195679, -0.4919212, -3.640784, 0.4293337, -0.4267737, 1.000112
 226231138, 0.3223851, -0.09679721, -3.458833, 0.5044734, -0.496321, 1.000717, -0.08582146, -0.1806502, -3.617298, 0.4661221, -0.4607516, 1.000446
 226431058, 0.3550661, -0.3437091, -3.243848, 0.5385065, -0.5323316, 1.000978, 0.3223851, -0.09679721, -3.458833, 0.5044734, -0.496321, 1.000717
 226630978, 0.3772238, -0.2707423, -2.933162, 0.5754853, -0.5646017, 0.9971125, 0.3550661, -0.3437091, -3.243848, 0.5385065, -0.5323316, 1.000978
 226830898, -0.3795479, 0.3611674, -2.606445, 0.6090329, -0.5969858, 0.9874424, 0.3772238, -0.2707423, -2.933162, 0.5754853, -0.5646017, 0.9971125
 227030818, -0.2569669, -0.3638405, -2.337281, 0.6093535, -0.6494738, 0.987728, -0.3795479, 0.3611674, -2.606445, 0.6090329, -0.5969858, 0.9874424
 227230738, -0.06302308, 0.6615271, -2.052441, 0.5534895, -0.715736, 1.000834, -0.2569669, -0.3638405, -2.337281, 0.6093535, -0.6494738, 0.987728
 227430658, -0.09679359, 0.1552242, -1.907307, 0.5113707, -0.7751461, 1.005746, -0.06302308, 0.6615271, -2.052441, 0.5534895, -0.715736, 1.000834
 227631411, -0.3208007, 0.6545726, -1.680058, 0.5150867, -0.7886987, 1.015732, -0.09679359, 0.1552242, -1.907307, 0.5113707, -0.7751461, 1.005746
 227831331, -0.02038401, 1.009758, -1.518686, 0.5430911, -0.7741293, 1.034715, -0.3208007, 0.6545726, -1.680058, 0.5150867, -0.7886987, 1.015732
 228031251, -0.7033458, 1.055853, -1.467374, 0.566821, -0.7791809, 1.038449, -0.02038401, 1.009758, -1.518686, 0.5430911, -0.7741293, 1.034715
 228231171, -0.01889181, 1.166573, -1.246517, 0.5909224, -0.8030503, 1.026523, -0.7033458, 1.055853, -1.467374, 0.566821, -0.7791809, 1.038449
 228431091, -0.7153125, 1.129965, -1.256341, 0.6634046, -0.7579579, 1.034978, -0.01889181, 1.166573, -1.246517, 0.5909224, -0.8030503, 1.026523
 228631011, -0.858252, 0.3897703, -1.401259, 0.7731887, -0.5832573, 1.088325, -0.7153125, 1.129965, -1.256341, 0.6634046, -0.7579579, 1.034978
 228830931, -1.005738, -0.3838799, -1.447366, 0.8600156, -0.2992517, 1.155009, -0.858252, 0.3897703, -1.401259, 0.7731887, -0.5832573, 1.088325
 229030851, -0.1956239, -1.377355, -1.406899, 0.8766316, 0.03234264, 1.200214, -1.005738, -0.3838799, -1.447366, 0.8600156, -0.2992517, 1.155009
 229230771, 0.4988358, -1.037261, -1.340245, 0.790784, 0.3691003, 1.219935, -0.1956239, -1.377355, -1.406899, 0.8766316, 0.03234264, 1.200214
 229430691, 1.437934, -1.509275, -1.17682, 0.6318321, 0.6546381, 1.21706, 0.4988358, -1.037261, -1.340245, 0.790784, 0.3691003, 1.219935
 229631444, 1.500816, 0.1774401, -1.094123, 0.4454857, 0.8574688, 1.191236, 1.437934, -1.509275, -1.17682, 0.6318321, 0.6546381, 1.21706
 229831364, 2.904238, 0.09379667, -0.9074768, 0.2977257, 0.9933336, 1.167072, 1.500816, 0.1774401, -1.094123, 0.4454857, 0.8574688, 1.191236
 230031284, 2.179228, 2.279276, -0.9612711, 0.1390852, 1.09097, 1.14262, 2.904238, 0.09379667, -0.9074768, 0.2977257, 0.9933336, 1.167072
 230231204, 2.228503, 0.9600561, -1.129437, 0.01904643, 1.144012, 1.108366, 2.179228, 2.279276, -0.9612711, 0.1390852, 1.09097, 1.14262
 230431124, 2.383557, 2.699698, -1.010883, 0.01702878, 1.193846, 1.10898, 2.228503, 0.9600561, -1.129437, 0.01904643, 1.144012, 1.108366
 230631044, 1.231385, 2.069031, -1.3925, 0.06185377, 1.16514, 1.146173, 2.383557, 2.699698, -1.010883, 0.01702878, 1.193846, 1.10898
 230830964, 2.541939, 2.3806, -1.041569, 0.1796289, 1.139541, 1.204272, 1.231385, 2.069031, -1.3925, 0.06185377, 1.16514, 1.146173
 231030884, 3.229391, 0.9167731, -1.063937, 0.2673428, 1.104599, 1.243327, 2.541939, 2.3806, -1.041569, 0.1796289, 1.139541, 1.204272
 231230804, 2.186874, 0.9893132, -1.291093, 0.3262428, 1.099829, 1.251425, 3.229391, 0.9167731, -1.063937, 0.2673428, 1.104599, 1.243327
 231430724, 3.844781, 1.385305, -1.02772, 0.4041164, 1.137553, 1.253167, 2.186874, 0.9893132, -1.291093, 0.3262428, 1.099829, 1.251425
 231631477, 3.645257, 0.7843489, -1.147032, 0.3893301, 1.173953, 1.247255, 3.844781, 1.385305, -1.02772, 0.4041164, 1.137553, 1.253167
 231831397, 3.583722, 1.803059, -1.032119, 0.3521329, 1.235195, 1.239711, 3.645257, 0.7843489, -1.147032, 0.3893301, 1.173953, 1.247255
 232031317, 2.855443, 1.833488, -1.105604, 0.2968013, 1.29262, 1.217467, 3.583722, 1.803059, -1.032119, 0.3521329, 1.235195, 1.239711
 232231237, 2.501191, 0.9314408, -1.254347, 0.2724622, 1.324665, 1.208281, 2.855443, 1.833488, -1.105604, 0.2968013, 1.29262, 1.217467
 232431157, 2.077664, 2.178096, -1.249068, 0.2830291, 1.346573, 1.224637, 2.501191, 0.9314408, -1.254347, 0.2724622, 1.324665, 1.208281
 232631077, 3.276129, 1.29688, -1.069782, 0.3163881, 1.345284, 1.256263, 2.077664, 2.178096, -1.249068, 0.2830291, 1.346573, 1.224637
 232830997, 3.178265, 2.189718, -0.968274, 0.3318083, 1.359897, 1.278497, 3.276129, 1.29688, -1.069782, 0.3163881, 1.345284, 1.256263
 233030917, 4.015395, 1.851932, -0.8070806, 0.3481552, 1.389831, 1.284637, 3.178265, 2.189718, -0.968274, 0.3318083, 1.359897, 1.278497
 233230837, 2.516372, 1.580331, -1.15823, 0.3148528, 1.425561, 1.261282, 4.015395, 1.851932, -0.8070806, 0.3481552, 1.389831, 1.284637
 233430757, 3.842134, 2.428075, -0.7837831, 0.3349163, 1.488653, 1.248152, 2.516372, 1.580331, -1.15823, 0.3148528, 1.425561, 1.261282
 233630677, 4.129104, 1.80541, -0.7893971, 0.3401146, 1.52517, 1.234334, 3.842134, 2.428075, -0.7837831, 0.3349163, 1.488653, 1.248152
 233831430, 4.136662, 0.8951645, -0.8417525, 0.3533039, 1.538797, 1.239907, 4.129104, 1.80541, -0.7893971, 0.3401146, 1.52517, 1.234334
 234031350, 2.49292, 2.040717, -1.111876, 0.365998, 1.545547, 1.250656, 4.136662, 0.8951645, -0.8417525, 0.3533039, 1.538797, 1.239907
 234231270, 3.690589, 0.6964431, -0.924369, 0.4103184, 1.563197, 1.25467, 2.49292, 2.040717, -1.111876, 0.365998, 1.545547, 1.250656
 234431190, 4.715857, 0.6532648, -0.6390855, 0.4651126, 1.597597, 1.249276, 3.690589, 0.6964431, -0.924369, 0.4103184, 1.563197, 1.25467
 234631110, 1.886723, 1.635168, -1.252345, 0.4691815, 1.600667, 1.245912, 4.715857, 0.6532648, -0.6390855, 0.4651126, 1.597597, 1.249276
 234831030, 3.481458, 1.90123, -0.8679553, 0.5308493, 1.609429, 1.271147, 1.886723, 1.635168, -1.252345, 0.4691815, 1.600667, 1.245912
 235030950, 3.555675, 2.43113, -0.7758577, 0.5602291, 1.61262, 1.300054, 3.481458, 1.90123, -0.8679553, 0.5308493, 1.609429, 1.271147
 235230870, 2.644249, -0.3173522, -1.22098, 0.5432281, 1.599355, 1.322395, 3.555675, 2.43113, -0.7758577, 0.5602291, 1.61262, 1.300054
 235430790, 2.237319, 0.711245, -1.272589, 0.529822, 1.626685, 1.33161, 2.644249, -0.3173522, -1.22098, 0.5432281, 1.599355, 1.322395
 235630710, 3.499388, 0.2254924, -1.030049, 0.5161674, 1.678689, 1.322371, 2.237319, 0.711245, -1.272589, 0.529822, 1.626685, 1.33161
 235831463, 4.012875, 1.565431, -0.7061705, 0.5068517, 1.734866, 1.310376, 3.499388, 0.2254924, -1.030049, 0.5161674, 1.678689, 1.322371
 236031383, 4.410006, 1.887772, -0.6154425, 0.5223524, 1.782367, 1.289953, 4.012875, 1.565431, -0.7061705, 0.5068517, 1.734866, 1.310376
 236231303, 3.550838, 0.3743137, -1.035355, 0.556694, 1.827048, 1.219096, 4.410006, 1.887772, -0.6154425, 0.5223524, 1.782367, 1.289953
 236431223, 1.825997, 2.17024, -1.177998, 0.5704336, 1.880016, 1.16741, 3.550838, 0.3743137, -1.035355, 0.556694, 1.827048, 1.219096
 236631143, 3.714946, 0.5821165, -0.5772775, 0.6384642, 1.885866, 1.170409, 1.825997, 2.17024, -1.177998, 0.5704336, 1.880016, 1.16741
 236831063, 4.196443, 0.8946506, -0.2465665, 0.7612711, 1.843461, 1.214272, 3.714946, 0.5821165, -0.5772775, 0.6384642, 1.885866, 1.170409
 237030983, 3.276708, -0.2679732, -0.2582261, 0.8877629, 1.760949, 1.256801, 4.196443, 0.8946506, -0.2465665, 0.7612711, 1.843461, 1.214272
 237230903, 3.922566, 0.8376566, 0.1251174, 1.024463, 1.677735, 1.31153, 3.276708, -0.2679732, -0.2582261, 0.8877629, 1.760949, 1.256801
 237430823, 2.753785, -1.448271, -0.01546347, 1.086455, 1.601288, 1.350158, 3.922566, 0.8376566, 0.1251174, 1.024463, 1.677735, 1.31153
 237630743, 2.630755, -1.013616, 0.08657581, 1.129978, 1.566693, 1.370093, 2.753785, -1.448271, -0.01546347, 1.086455, 1.601288, 1.350158
 237830663, 4.22505, -0.8384159, 0.6367058, 1.170873, 1.561032, 1.385394, 2.630755, -1.013616, 0.08657581, 1.129978, 1.566693, 1.370093
 238031416, 2.397604, 0.2084884, 0.261646, 1.138069, 1.571213, 1.383337, 4.22505, -0.8384159, 0.6367058, 1.170873, 1.561032, 1.385394
 238231336, 4.754854, -1.309307, 1.058909, 1.168182, 1.592948, 1.384613, 2.397604, 0.2084884, 0.261646, 1.138069, 1.571213, 1.383337
 238431256, 3.108201, -1.456009, 0.6628983, 1.15114, 1.606667, 1.357231, 4.754854, -1.309307, 1.058909, 1.168182, 1.592948, 1.384613
 238631176, 4.044139, 0.755748, 0.9627504, 1.186481, 1.591715, 1.375448, 3.108201, -1.456009, 0.6628983, 1.15114, 1.606667, 1.357231
 238831096, 2.330414, -0.4449885, 0.5129027, 1.183526, 1.552589, 1.392644, 4.044139, 0.755748, 0.9627504, 1.186481, 1.591715, 1.375448
 239031016, 3.586332, -0.4937431, 0.8520614, 1.224533, 1.523912, 1.413812, 2.330414, -0.4449885, 0.5129027, 1.183526, 1.552589, 1.392644
 239230936, 4.081884, 0.1877414, 1.08316, 1.253158, 1.507706, 1.4234, 3.586332, -0.4937431, 0.8520614, 1.224533, 1.523912, 1.413812
 239430856, 3.189512, 0.2381562, 0.8572483, 1.249543, 1.498697, 1.422865, 4.081884, 0.1877414, 1.08316, 1.253158, 1.507706, 1.4234
 239630776, 5.082239, 0.6703697, 1.442322, 1.283488, 1.496789, 1.441325, 3.189512, 0.2381562, 0.8572483, 1.249543, 1.498697, 1.422865
 239830696, 5.090194, -1.760632, 1.492489, 1.279581, 1.494631, 1.446939, 5.082239, 0.6703697, 1.442322, 1.283488, 1.496789, 1.441325
 240031449, 5.310247, 0.6951008, 1.513877, 1.287258, 1.506827, 1.439453, 5.090194, -1.760632, 1.492489, 1.279581, 1.494631, 1.446939
 240231369, 5.477129, 0.5477207, 1.526913, 1.304391, 1.513187, 1.423406, 5.310247, 0.6951008, 1.513877, 1.287258, 1.506827, 1.439453
 240431289, 2.727686, 0.3516776, 0.6889751, 1.255457, 1.512476, 1.410561, 5.477129, 0.5477207, 1.526913, 1.304391, 1.513187, 1.423406
 240631209, 3.60931, 1.256064, 1.04101, 1.254662, 1.505995, 1.442209, 2.727686, 0.3516776, 0.6889751, 1.255457, 1.512476, 1.410561
 240831129, 3.160727, -0.1334563, 0.8856508, 1.237297, 1.487536, 1.462801, 3.60931, 1.256064, 1.04101, 1.254662, 1.505995, 1.442209
 241031049, 5.391129, 0.7966077, 1.693314, 1.28651, 1.49179, 1.472271, 3.160727, -0.1334563, 0.8856508, 1.237297, 1.487536, 1.462801
 241230969, 4.588236, 0.7166712, 1.363778, 1.287266, 1.498239, 1.446289, 5.391129, 0.7966077, 1.693314, 1.28651, 1.49179, 1.472271
 241430889, 4.600807, -1.244191, 1.395736, 1.303236, 1.489666, 1.439336, 4.588236, 0.7166712, 1.363778, 1.287266, 1.498239, 1.446289
 241630809, 2.851068, -1.407741, 0.8768349, 1.278578, 1.476873, 1.442686, 4.600807, -1.244191, 1.395736, 1.303236, 1.489666, 1.439336
 241830729, 4.752843, 0.3467212, 1.505717, 1.304363, 1.459179, 1.480443, 2.851068, -1.407741, 0.8768349, 1.278578, 1.476873, 1.442686
 242031482, 2.823517, 0.9382638, 0.870473, 1.269914, 1.454011, 1.482212, 4.752843, 0.3467212, 1.505717, 1.304363, 1.459179, 1.480443
 242231402, 3.352136, -1.001808, 0.9618976, 1.279053, 1.452597, 1.479752, 2.823517, 0.9382638, 0.870473, 1.269914, 1.454011, 1.482212
 242431322, 3.336801, 0.9715398, 0.9351484, 1.274003, 1.479678, 1.466293, 3.352136, -1.001808, 0.9618976, 1.279053, 1.452597, 1.479752
 242631242, 4.779984, -0.8585129, 1.419618, 1.285846, 1.489032, 1.472142, 3.336801, 0.9715398, 0.9351484, 1.274003, 1.479678, 1.466293
 242831162, 3.174586, -0.8401031, 0.9353878, 1.247448, 1.5054, 1.458277, 4.779984, -0.8585129, 1.419618, 1.285846, 1.489032, 1.472142
 243031082, 4.871678, -1.702188, 1.452768, 1.286055, 1.509054, 1.459821, 3.174586, -0.8401031, 0.9353878, 1.247448, 1.5054, 1.458277
 243231002, 5.413507, 0.8466995, 1.656443, 1.301623, 1.504432, 1.471897, 4.871678, -1.702188, 1.452768, 1.286055, 1.509054, 1.459821
 243430922, 3.596212, 1.012251, 1.02935, 1.26496, 1.49663, 1.473089, 5.413507, 0.8466995, 1.656443, 1.301623, 1.504432, 1.471897
 243630842, 3.133168, -0.6415812, 0.8774587, 1.260431, 1.487956, 1.47308, 3.596212, 1.012251, 1.02935, 1.26496, 1.49663, 1.473089
 243830762, 2.91486, 0.6186317, 0.8529556, 1.263836, 1.503445, 1.457487, 3.133168, -0.6415812, 0.8774587, 1.260431, 1.487956, 1.47308
 244030682, 5.249587, -1.623756, 1.548699, 1.307069, 1.510731, 1.459374, 2.91486, 0.6186317, 0.8529556, 1.263836, 1.503445, 1.457487
 244231435, 3.424826, -0.09389748, 0.9763217, 1.271874, 1.513541, 1.449824, 5.249587, -1.623756, 1.548699, 1.307069, 1.510731, 1.459374
 244431355, 5.147722, -0.7419187, 1.484228, 1.303969, 1.504136, 1.469907, 3.424826, -0.09389748, 0.9763217, 1.271874, 1.513541, 1.449824
 244631275, 4.69643, 0.3015304, 1.385055, 1.283164, 1.505564, 1.481309, 5.147722, -0.7419187, 1.484228, 1.303969, 1.504136, 1.469907
 244831195, 4.156216, -1.308333, 1.225976, 1.264521, 1.509177, 1.48142, 4.69643, 0.3015304, 1.385055, 1.283164, 1.505564, 1.481309
 245031115, 5.587008, 0.7194131, 1.648462, 1.28768, 1.521755, 1.491302, 4.156216, -1.308333, 1.225976, 1.264521, 1.509177, 1.48142
 245231035, 4.681419, 1.092389, 1.367629, 1.26357, 1.536815, 1.479037, 5.587008, 0.7194131, 1.648462, 1.28768, 1.521755, 1.491302
 245430955, 4.16651, 0.02589589, 1.218022, 1.252156, 1.54644, 1.463652, 4.681419, 1.092389, 1.367629, 1.26357, 1.536815, 1.479037
 245630875, 2.779994, -0.9712285, 0.773111, 1.234516, 1.556556, 1.442735, 4.16651, 0.02589589, 1.218022, 1.252156, 1.54644, 1.463652
 245830795, 5.209562, 0.2535349, 1.535414, 1.286681, 1.56692, 1.44196, 2.779994, -0.9712285, 0.773111, 1.234516, 1.556556, 1.442735
 246030715, 2.956492, -0.3576653, 0.8269191, 1.260905, 1.560227, 1.42455, 5.209562, 0.2535349, 1.535414, 1.286681, 1.56692, 1.44196
 246231468, 3.497266, 0.2458764, 0.9828947, 1.281984, 1.53747, 1.444401, 2.956492, -0.3576653, 0.8269191, 1.260905, 1.560227, 1.42455
 246431388, 4.844732, 0.9023172, 1.463418, 1.318089, 1.513354, 1.473194, 3.497266, 0.2458764, 0.9828947, 1.281984, 1.53747, 1.444401
 246631308, 2.947708, 0.5029817, 0.8308029, 1.293695, 1.497572, 1.473015, 4.844732, 0.9023172, 1.463418, 1.318089, 1.513354, 1.473194
 246831228, 4.525483, 0.5171696, 1.367587, 1.322678, 1.499335, 1.479125, 2.947708, 0.5029817, 0.8308029, 1.293695, 1.497572, 1.473015
 247031148, 2.977374, -0.3077029, 0.8256655, 1.288684, 1.498351, 1.479439, 4.525483, 0.5171696, 1.367587, 1.322678, 1.499335, 1.479125
 247231068, 2.774164, 0.4913226, 0.8487037, 1.272894, 1.496685, 1.497296, 2.977374, -0.3077029, 0.8256655, 1.288684, 1.498351, 1.479439
 247430988, 4.06165, -0.3993154, 1.228679, 1.290822, 1.501968, 1.498345, 2.774164, 0.4913226, 0.8487037, 1.272894, 1.496685, 1.497296
 247630908, 3.53041, 1.087273, 1.010136, 1.287245, 1.534069, 1.467963, 4.06165, -0.3993154, 1.228679, 1.290822, 1.501968, 1.498345
 247830828, 5.489495, 0.1825679, 1.648925, 1.329689, 1.541816, 1.46457, 3.53041, 1.087273, 1.010136, 1.287245, 1.534069, 1.467963
 248030748, 5.728065, 0.3997341, 1.803267, 1.342139, 1.535684, 1.470645, 5.489495, 0.1825679, 1.648925, 1.329689, 1.541816, 1.46457
