TimeUS,CAN,CAE,CAD,CAe
 170570911, 0, 0, 0, 0
 170635885, -0.1280443, 3.050595, 0.04227308, 0.4427939
 170735845, -0.000149324, 0.003538457, -8.146126E-05, 0.0002593961
 170835805, 7.726483E-05, 0.003601982, 1.070429E-05, 0.0002593961
 170935765, -0.0001852939, 0.003602989, -4.60655E-05, 0.0002593961
 171035725, 0.000107329, 0.003614309, -0.0001004723, 0.0002593961
 171135685, 0.0001394682, 0.003418925, -0.0001189769, 0.0002593961
 171236478, 0.0002044723, 0.003706381, -0.0001191239, 0.0002615578
 171336438, -0.0001281782, 0.00362942, -0.0002035995, 0.0002593961
 171436398, -3.267992E-05, 0.003612642, -3.1641E-05, 0.0002593961
 171536358, -0.0001043913, 0.003466435, -0.0001368571, 0.0002593961
 171636318, 0.000153383, 0.003797946, -0.0002207659, 0.0002593961
 171736278, -0.0001042508, 0.003690323, -0.0001711375, 0.0002593961
 171836238, 4.114242E-05, 0.00369234, -3.972252E-05, 0.0002593961
 171936198, -0.0001444992, 0.003671799, 6.795667E-05, 0.0002593961
 172036158, 0.0001360151, 0.003924084, -0.0001316438, 0.0002593961
 172136118, 1.264463E-05, 0.003636202, -9.547348E-05, 0.0002593961
 172236078, 7.824858E-05, 0.003494127, -0.0001269631, 0.0002593961
 172336038, 0.0001563025, 0.003568301, -3.741555E-05, 0.0002593961
 172435998, 2.186093E-05, 0.003554037, -3.620249E-05, 0.0002593961
 172535958, 0.0002568737, 0.003667488, -5.287203E-05, 0.0002593961
 172635918, -5.111547E-05, 0.00354174, 1.175171E-05, 0.0002593961
 172735878, 0.0001086335, 0.003545609, 0.0002021255, 0.0002593961
 172835838, 8.211082E-05, 0.003673181, -3.046961E-06, 0.0002593961
 172935798, -0.0001025851, 0.003574628, -0.0001041377, 0.0002593961
 173035758, -0.0003014456, 0.003528125, -0.0002515203, 0.0002593961
 173135718, -5.013406E-05, 0.003817611, -0.0001693131, 0.0002593961
 173235678, 4.606588E-05, 0.003479795, -7.413401E-05, 0.0002593961
 173336471, -4.167052E-05, 0.003570167, -9.092547E-05, 0.0002615578
 173436431, -0.0001079731, 0.003904844, -0.0001536994, 0.0002593961
 173536391, -0.0001371349, 0.003787315, -0.000142043, 0.0002593961
 173636351, 0.0001326131, 0.003674945, -0.0001395275, 0.0002593961
 173736311, 3.902341E-05, 0.003528598, -3.832475E-05, 0.0002593961
 173836271, 5.356196E-05, 0.003612417, -0.0001435147, 0.0002593961
 173936231, 4.484251E-05, 0.003606526, -0.0001415282, 0.0002593961
 174036191, -0.0001293428, 0.003582864, -0.0001480225, 0.0002593961
 174136151, -0.0001883314, 0.003550218, -0.0001670121, 0.0002593961
 174236111, -1.739244E-05, 0.003477281, -2.77039E-05, 0.0002593961
 174336071, -9.512164E-05, 0.003585784, 5.230123E-05, 0.0002593961
 174436031, -0.0001178842, 0.003645939, 0.0001464985, 0.0002593961
 174535991, -0.0002265226, 0.003594772, -6.626936E-05, 0.0002593961
 174635951, 0.0001477412, 0.003625035, -8.789241E-05, 0.0002593961
 174735911, -0.0001644513, 0.003790786, 6.05329E-05, 0.0002593961
 174835871, 0.0001461415, 0.003492829, -5.214392E-05, 0.0002593961
 174935831, -2.415087E-05, 0.003508754, -1.945928E-06, 0.0002593961
 175035791, -9.02982E-05, 0.003592616, -0.0002727526, 0.0002593961
 175135751, -4.518546E-05, 0.003530902, 2.832351E-05, 0.0002593961
 175235711, -0.0002055153, 0.003624911, -0.0001528069, 0.0002593961
 175335671, -2.889891E-05, 0.003716012, 4.161243E-05, 0.0002593961
 175436464, -5.381261E-05, 0.00353817, -7.84846E-05, 0.0002615578
 175536424, 1.192289E-05, 0.003825578, -7.219049E-05, 0.0002593961
 175636384, 9.62807E-06, 0.003661374, -3.289217E-05, 0.0002593961
 175736344, 2.493242E-05, 0.003403052, -3.734762E-05, 0.0002593961
 175836304, 0.0001193492, 0.003701046, -6.07331E-05, 0.0002593961
 175936264, 6.177008E-05, 0.003813266, -0.0001944527, 0.0002593961
 176036224, -8.798064E-05, 0.003597688, -0.0001429248, 0.0002593961
 176136184, -3.413663E-05, 0.003350322, -1.102959E-05, 0.0002593961
 176236144, -0.0001092176, 0.003662912, 0.0001085991, 0.0002593961
 176336104, 3.073814E-05, 0.00334155, -0.0002539108, 0.0002593961
 176436064, 2.918044E-05, 0.003573761, -0.0002417813, 0.0002593961
 176536024, -5.534619E-05, 0.003737949, 3.020864E-05, 0.0002593961
 176635984, 0.0001308683, 0.003750602, -4.499542E-05, 0.0002593961
 176735944, 0.0002046392, 0.003485333, -4.621326E-05, 0.0002593961
 176835904, -5.01659E-05, 0.003580981, -7.215951E-05, 0.0002593961
 176935864, 6.177886E-06, 0.003693597, 4.974401E-05, 0.0002593961
 177035824, -5.159688E-05, 0.003741254, -8.385164E-05, 0.0002593961
 177135784, 0.0002256883, 0.003523332, -8.202251E-05, 0.0002593961
 177235744, 0.0001930136, 0.003740574, -4.323541E-05, 0.0002593961
 177335704, 7.66356E-05, 0.003615793, -0.0001269357, 0.0002593961
 177435664, 5.12423E-05, 0.003622232, -0.0002026069, 0.0002593961
 177536457, 6.274881E-05, 0.003563935, -9.235345E-05, 0.0002615578
 177636417, 0.00010614, 0.003413745, 0.0001689723, 0.0002593961
 177736377, 7.995785E-05, 0.003668099, -0.0001867501, 0.0002593961
 177836337, 0.0003174591, 0.003548374, 0.0001195918, 0.0002593961
 177936297, 7.570213E-05, 0.003560902, -0.0003429769, 0.0002593961
 178036257, -0.0001039576, 0.00341554, -1.220455E-05, 0.0002593961
 178136217, 0.0001222467, 0.00372136, 7.293167E-05, 0.0002593961
 178236177, 2.376995E-05, 0.003509027, -7.958803E-05, 0.0002593961
 178336137, 8.593252E-05, 0.003601185, -7.02994E-05, 0.0002593961
 178436097, -0.0002230337, 0.003560205, -5.680316E-05, 0.0002593961
 178536057, 4.193003E-05, 0.003446314, -1.82222E-05, 0.0002593961
 178636017, -0.0002117701, 0.003698559, -3.870965E-05, 0.0002593961
 178735977, 4.304227E-05, 0.003578018, -0.0001481489, 0.0002593961
 178835937, 0.0001885154, 0.003627635, -7.787449E-05, 0.0002593961
 178935897, 0.0001653803, 0.003645492, -5.975955E-05, 0.0002593961
 179035857, 9.336427E-05, 0.003526313, -7.62694E-05, 0.0002593961
 179135817, -0.0001441284, 0.003401875, -7.600485E-05, 0.0002593961
 179235777, 2.497845E-05, 0.003312468, -0.000196644, 0.0002593961
 179335737, -7.815783E-05, 0.003343196, -0.0001819788, 0.0002593961
 179435697, -0.0001161699, 0.003447619, -0.0001578951, 0.0002593961
 179535657, -5.933187E-05, 0.003648594, -5.601668E-05, 0.0002593961
 179636450, 0.00019314, 0.003655308, -0.0001338511, 0.0002615578
 179736410, 2.4152E-05, 0.003458293, -0.0001478319, 0.0002593961
 179836370, -8.233329E-05, 0.003659132, 6.99288E-05, 0.0002593961
 179936330, -0.0001372825, 0.003591142, 0.0001127269, 0.0002593961
 180036290, -9.043737E-05, 0.003395767, -7.144452E-05, 0.0002593961
 180136250, 0.0001458197, 0.003689288, -5.117632E-05, 0.0002593961
 180236210, -0.0001136561, 0.003592792, -0.0001181106, 0.0002593961
 180336170, -0.0001236699, 0.003538197, -0.0003251527, 0.0002593961
 180436130, 7.860659E-05, 0.003615319, -5.19223E-05, 0.0002593961
 180536090, -3.389864E-06, 0.003626515, -0.0001452056, 0.0002593961
 180636050, -6.257602E-05, 0.003630561, -3.735596E-05, 0.0002593961
 180736010, -1.304504E-05, 0.003468704, -0.0001673279, 0.0002593961
 180835970, -3.351984E-05, 0.00338583, -9.093699E-05, 0.0002593961
 180935930, -3.42456E-05, 0.00344309, 6.188071E-06, 0.0002593961
 181035890, -5.859584E-05, 0.003539511, -0.0002107182, 0.0002593961
 181135850, -0.000166026, 0.003415967, -9.065814E-05, 0.0002593961
 181235810, 8.091504E-05, 0.003683883, -0.000125899, 0.0002593961
 181335770, -7.471367E-05, 0.003421226, 6.478102E-05, 0.0002593961
 181435730, -0.000167531, 0.003462103, -0.0001665558, 0.0002593961
 181535690, 5.420079E-05, 0.003482838, -1.163614E-05, 0.0002593961
 181636483, 0.0001948943, 0.003426649, 0.0001464004, 0.0002615578
 181736443, -2.584809E-05, 0.003620359, 8.802586E-05, 0.0002593961
 181836403, 6.408078E-05, 0.003707706, -0.000201718, 0.0002593961
 181936363, 6.531343E-05, 0.003587205, -0.0002797449, 0.0002593961
 182036323, 0.0002267146, 0.003789128, 2.119886E-05, 0.0002593961
 182136283, 0.0001551658, 0.003688598, -7.938309E-05, 0.0002593961
 182236243, 0.0001458738, 0.003524321, 0.0001017414, 0.0002593961
 182336203, -0.0001248674, 0.003632992, 2.775752E-05, 0.0002593961
 182436163, -0.0002717977, 0.003465134, -7.327485E-05, 0.0002593961
 182536123, -2.304647E-05, 0.003667834, -5.032191E-06, 0.0002593961
 182636083, 0.0001843694, 0.003548684, -4.897065E-05, 0.0002593961
 182736043, -0.0002374016, 0.003651833, 0.0001075469, 0.0002593961
 182836003, 0.0001465726, 0.00373578, 0.0001061206, 0.0002593961
 182935963, 9.753993E-05, 0.003730432, 9.914483E-05, 0.0002593961
 183035923, 2.138809E-05, 0.003559234, -0.0001011944, 0.0002593961
 183135883, 5.481883E-05, 0.003491654, -0.0001038291, 0.0002593961
 183235843, 3.296987E-05, 0.003699733, 0.000117771, 0.0002593961
 183335803, -0.0001720196, 0.003620748, 5.629552E-05, 0.0002593961
 183435763, -0.000100314, 0.003342456, -6.625027E-05, 0.0002593961
 183535723, -7.511807E-05, 0.003772688, -1.868096E-05, 0.0002593961
 183635683, 0.0001122403, 0.00357068, -2.500488E-05, 0.0002593961
 183736476, -0.0001330138, 0.003731684, 5.32851E-05, 0.0002615578
 183836436, -5.594982E-05, 0.003514006, -0.0002680696, 0.0002593961
 183936396, -0.0002147436, 0.003519924, -0.0002485437, 0.0002593961
 184036356, 3.462291E-05, 0.003467119, 6.086772E-06, 0.0002593961
 184136316, -0.0001354111, 0.003559258, -7.954275E-05, 0.0002593961
 184236276, 0.0001054446, 0.003650537, -0.0001404534, 0.0002593961
 184336236, 2.249522E-05, 0.003600894, -0.0001272896, 0.0002593961
 184436196, -1.92824E-05, 0.003618665, -3.20425E-06, 0.0002593961
 184536156, 2.463834E-05, 0.003777611, -5.083674E-05, 0.0002593961
 184636116, -2.739801E-05, 0.003552771, 6.659347E-05, 0.0002593961
 184736076, -2.273416E-05, 0.003493429, -0.0001273432, 0.0002593961
 184836036, -9.76427E-05, 0.003477186, -2.89443E-06, 0.0002593961
 184935996, 8.427524E-05, 0.00345505, 0.0002546257, 0.0002593961
 185035956, 6.119841E-05, 0.003742021, -0.0001997804, 0.0002593961
 185135916, 2.961838E-05, 0.003770418, -0.0002941898, 0.0002593961
 185235876, -0.0001743542, 0.003708762, -0.0001097883, 0.0002593961
 185335836, -4.112103E-05, 0.003734376, 9.902089E-05, 0.0002593961
 185435796, -2.597316E-05, 0.003526716, 1.851413E-05, 0.0002593961
 185535756, -4.555768E-05, 0.003415417, -1.514542E-06, 0.0002593961
 185635716, 3.375676E-05, 0.0035842, -0.0004067748, 0.0002593961
 185735676, -6.638943E-06, 0.003792135, -0.0001248969, 0.0002593961
 185836469, 4.161855E-05, 0.003425048, -0.0001643636, 0.0002615578
 185936429, 0.000188703, 0.003612662, -0.0001829572, 0.0002593961
 186036389, -9.593776E-05, 0.003502711, -0.0002647818, 0.0002593961
 186136349, 0.0001637016, 0.003459909, -2.295051E-06, 0.0002593961
 186236309, 9.916211E-05, 0.003540539, 1.941142E-05, 0.0002593961
 186336269, -1.096053E-05, 0.003760544, -6.546739E-05, 0.0002593961
 186436229, -0.0001177622, 0.003789985, -0.0002021278, 0.0002593961
 186536189, -0.0001138369, 0.003718559, -0.0002627204, 0.0002593961
 186636149, 0.000153708, 0.003724494, -0.0001620252, 0.0002593961
 186736109, 0.0003816094, 0.003817738, -7.274457E-05, 0.0002593961
 186836069, -0.0001217977, 0.003869594, 0.0001715343, 0.0002593961
 186936029, -7.359011E-05, 0.003527488, -0.0001039804, 0.0002593961
 187035989, 5.465327E-05, 0.003549503, -0.0001574029, 0.0002593961
 187135949, 7.294717E-05, 0.003666328, -6.323071E-05, 0.0002593961
 187235909, 6.693149E-06, 0.00362078, 3.471534E-05, 0.0002593961
 187335869, -1.545091E-05, 0.003699399, -7.452129E-05, 0.0002593961
 187435829, -1.396778E-05, 0.003768009, -8.613359E-05, 0.0002593961
 187535789, -5.21164E-05, 0.003606321, -0.0001053377, 0.0002593961
 187635749, -0.0001026288, 0.003620339, -0.0001604655, 0.0002593961
 187735709, -5.407998E-05, 0.0034911, 4.232739E-05, 0.0002593961
 187835669, 3.996656E-05, 0.003953599, -0.0001122693, 0.0002593961
 187936462, -3.163312E-05, 0.003530374, -3.340537E-05, 0.0002615578
 188036422, 0.0001819295, 0.003576082, 3.910765E-05, 0.0002593961
 188136382, 0.0001024819, 0.003742262, -3.567698E-05, 0.0002593961
 188236342, 0.000200411, 0.00353302, 3.045294E-05, 0.0002593961
 188336302, -5.331497E-05, 0.003610064, 5.8214E-05, 0.0002593961
 188436262, 0.0001873484, 0.003748119, 6.777677E-05, 0.0002593961
 188536222, -6.623416E-05, 0.003558462, 5.852622E-05, 0.0002593961
 188636182, 5.068848E-06, 0.003530484, -0.0001399982, 0.0002593961
 188736142, -2.348281E-05, 0.003765265, -9.811757E-06, 0.0002593961
 188836102, -5.976188E-05, 0.003673156, 0.0001530821, 0.0002593961
 188936062, 0.0001032323, 0.003675811, -0.0002311985, 0.0002593961
 189036022, 4.168047E-05, 0.003481884, -3.721894E-05, 0.0002593961
 189135982, 0.0001509463, 0.003557286, 0.000140538, 0.0002593961
 189235942, 1.489165E-05, 0.003590729, -0.0001434419, 0.0002593961
 189335902, 0.00010166, 0.003542873, -0.0001616701, 0.0002593961
 189435862, 5.125609E-05, 0.003569877, 2.874178E-05, 0.0002593961
 189535822, 0.0001015095, 0.003615126, -6.106913E-05, 0.0002593961
 189635782, -6.621105E-05, 0.003531312, -0.0001643858, 0.0002593961
 189735742, 3.803269E-05, 0.003672915, -0.0003443068, 0.0002593961
 189835702, 0.0001598528, 0.003591248, -0.0002232326, 0.0002593961
 189935662, 1.916875E-06, 0.003396918, -0.0002548044, 0.0002593961
 190036455, -0.0001258195, 0.003528729, -8.278514E-05, 0.0002615578
 190136415, 0.0001153298, 0.003633358, -0.0001146394, 0.0002593961
 190236375, 0.0001019252, 0.003454708, 1.49512E-05, 0.0002593961
 190336335, -1.594671E-05, 0.003624557, -2.062092E-05, 0.0002593961
 190436295, 0.0001303021, 0.003563022, -0.0001155081, 0.0002593961
 190536255, -5.605011E-05, 0.003729294, -0.0001113243, 0.0002593961
 190636215, 5.661555E-05, 0.003634672, 5.365489E-05, 0.0002593961
 190736175, -7.057079E-05, 0.003684249, -0.0001302079, 0.0002593961
 190836135, 8.143983E-05, 0.003682386, -4.726545E-05, 0.0002593961
 190936095, -0.0001232593, 0.003268601, -7.789594E-06, 0.0002593961
 191036055, -5.55482E-05, 0.003572847, -0.0002024544, 0.0002593961
 191136015, -0.000140366, 0.003545888, -1.631442E-05, 0.0002593961
 191235975, 0.0002401883, 0.003528126, 4.370606E-05, 0.0002593961
 191335935, 9.501728E-05, 0.003595519, 7.030178E-05, 0.0002593961
 191435895, -0.0001767832, 0.003468945, -0.0002736606, 0.0002593961
 191535855, -2.502189E-05, 0.003561053, -0.0001793501, 0.0002593961
 191635815, -9.531538E-05, 0.003581135, -5.403263E-05, 0.0002593961
 191735775, 5.470719E-05, 0.00352947, 0.0001137159, 0.0002593961
 191835735, -6.234435E-05, 0.003578068, -1.313161E-05, 0.0002593961
 191935695, 9.918804E-05, 0.003548549, 9.551876E-05, 0.0002593961
 192035655, -3.210683E-05, 0.00370714, -3.495605E-05, 0.0002593961
 192136448, -9.052049E-05, 0.003620001, 1.34315E-05, 0.0002615578
 192236408, -5.495156E-05, 0.003540756, -0.0001837305, 0.0002593961
 192336368, 2.946853E-05, 0.003686504, -7.879204E-05, 0.0002593961
 192436328, 0.000176388, 0.003678291, 5.279931E-05, 0.0002593961
 192536288, 2.866118E-05, 0.003600622, 0.0002322424, 0.0002593961
 192636248, -2.842539E-05, 0.003877582, -8.571176E-05, 0.0002593961
 192736208, -0.000218129, 0.003601268, -0.0001818871, 0.0002593961
 192836168, -9.250864E-05, 0.00359314, 5.007171E-05, 0.0002593961
 192936128, 0.0001031711, 0.003782098, -1.950795E-05, 0.0002593961
 193036088, 5.685089E-05, 0.003648635, 8.776133E-05, 0.0002593961
 193136048, -0.0001867643, 0.003461068, -5.684008E-05, 0.0002593961
 193236008, 0.0001156497, 0.003535313, -9.016005E-05, 0.0002593961
 193335968, 4.509782E-05, 0.003781601, -0.0002092918, 0.0002593961
 193435928, 9.724491E-05, 0.003642678, -0.0001932563, 0.0002593961
 193535888, -9.492613E-06, 0.003576992, -0.0001417547, 0.0002593961
 193635848, -1.482892E-05, 0.003641074, -1.001195E-05, 0.0002593961
 193735808, -1.753505E-05, 0.003739297, -9.337265E-05, 0.0002593961
 193835768, -2.269771E-05, 0.003400301, 6.848694E-05, 0.0002593961
 193935728, 9.722009E-05, 0.003352424, -0.0001569787, 0.0002593961
 194035688, 1.446769E-05, 0.003573342, -0.0002135793, 0.0002593961
 194136481, -0.0002230314, 0.003706534, 5.181703E-05, 0.0002615578
 194236441, 0.0002011318, 0.003392245, -4.817108E-05, 0.0002593961
 194336401, 0.0001395822, 0.003566755, 0.0001593751, 0.0002593961
 194436361, 3.744781E-05, 0.003619373, -0.0001061218, 0.0002593961
 194536321, 3.084412E-05, 0.003749708, 5.489299E-05, 0.0002593961
 194636281, -1.154251E-05, 0.003598763, -8.341549E-05, 0.0002593961
 194736241, 0.0001584297, 0.00366388, -0.0001060896, 0.0002593961
 194836201, -9.042335E-05, 0.003459372, -0.0001342772, 0.0002593961
 194936161, -0.000154591, 0.003573446, 5.520639E-05, 0.0002593961
 195036121, 8.973935E-05, 0.003607573, -9.155308E-05, 0.0002593961
 195136081, -2.938743E-06, 0.003471614, -0.0003279757, 0.0002593961
 195236041, -0.0002160508, 0.003519814, -4.450925E-05, 0.0002593961
 195336001, 0.0001533706, 0.003474186, -7.345005E-05, 0.0002593961
 195435961, 3.794704E-05, 0.003599513, -0.0001249326, 0.0002593961
 195535921, 7.829472E-05, 0.003595934, -0.0001356155, 0.0002593961
 195635881, 6.092099E-05, 0.003602894, 3.931837E-08, 0.0002593961
 195735841, 0.0002211181, 0.003346023, -0.0002256075, 0.0002593961
 195835801, 1.881769E-05, 0.003540872, 0.0001715641, 0.0002593961
 195935761, 0.000186119, 0.003557761, -5.389203E-05, 0.0002593961
 196035721, 0.0001294055, 0.003581264, 7.806753E-05, 0.0002593961
 196135681, -2.211105E-05, 0.003443153, 2.216049E-05, 0.0002593961
 196236474, -0.0002535382, 0.003526905, -8.565692E-05, 0.0002615578
 196336434, 2.714049E-05, 0.003648507, -0.0001258954, 0.0002593961
 196436394, 0.0001280876, 0.003519097, -0.0001177388, 0.0002593961
 196536354, 6.715053E-05, 0.003458151, -2.871795E-05, 0.0002593961
 196636314, -0.0002011485, 0.003515177, -6.280415E-05, 0.0002593961
 196736274, -3.107984E-05, 0.00343774, -0.0001085454, 0.0002593961
 196836234, 4.179093E-05, 0.003277852, -2.926728E-05, 0.0002593961
 196936194, -0.0001881639, 0.003508731, -1.886805E-05, 0.0002593961
 197036154, -0.0001270399, 0.003373992, 6.429959E-05, 0.0002593961
 197136114, 2.018957E-05, 0.003719926, -6.971073E-05, 0.0002593961
 197236074, 0.000272542, 0.003544663, -6.39886E-05, 0.0002593961
 197336034, 0.0001130044, 0.003517143, -8.559735E-05, 0.0002593961
 197435994, -7.522304E-05, 0.003600671, -0.0001007452, 0.0002593961
 197535954, -5.865828E-05, 0.003350496, -0.0001683658, 0.0002593961
 197635914, -1.036646E-05, 0.003552979, -0.0001710934, 0.0002593961
 197735874, 0.0002959184, 0.00361733, -0.0001133537, 0.0002593961
 197835834, 0.0001908997, 0.003659727, -0.0001475483, 0.0002593961
 197935794, 0.0001927243, 0.003651886, -0.0001502533, 0.0002593961
 198035754, 0.0001631667, 0.003604289, -0.0002890193, 0.0002593961
 198135714, 4.334116E-05, 0.003745956, -4.008715E-05, 0.0002593961
 198235674, 0.0002293105, 0.003588075, 3.072105E-05, 0.0002593961
 198336467, -2.645398E-05, 0.003515401, -9.563632E-05, 0.0002615578
 198436427, -7.967243E-05, 0.003635744, -5.518374E-05, 0.0002593961
 198536387, -0.0001246153, 0.003614373, 4.699734E-06, 0.0002593961
 198636347, 6.617462E-05, 0.003503602, -0.0001359503, 0.0002593961
 198736307, 0.0001214899, 0.003475497, 0.0002196553, 0.0002593961
 198836267, 0.0001487052, 0.003537173, -0.0001639318, 0.0002593961
 198936227, 0.0002267652, 0.003697728, -0.0001154926, 0.0002593961
 199036187, -8.632465E-05, 0.003857839, -2.429109E-05, 0.0002593961
 199136147, -7.44731E-05, 0.003376548, -0.0001217736, 0.0002593961
 199236107, -5.193788E-05, 0.003577542, 1.745003E-05, 0.0002593961
 199336067, -0.000156245, 0.003419373, -8.842982E-06, 0.0002593961
 199436027, 0.0001999499, 0.00358434, -0.0001589485, 0.0002593961
 199535987, -8.138832E-05, 0.00354271, 1.500959E-05, 0.0002593961
 199635947, 8.954816E-05, 0.003367263, 8.446167E-06, 0.0002593961
 199735907, -3.461311E-06, 0.003599244, 1.018831E-05, 0.0002593961
 199835867, -0.0002413102, 0.003863972, -0.0001274302, 0.0002593961
 199935827, -0.0001125448, 0.00351572, -5.149212E-05, 0.0002593961
 200035787, 0.0002019385, 0.003480243, 4.533146E-05, 0.0002593961
 200135747, -1.792054E-05, 0.003477059, 8.905303E-05, 0.0002593961
 200235707, 0.0002591635, 0.003431212, 0.0001060836, 0.0002593961
 200335667, -0.0001824724, 0.003493601, -0.0003626922, 0.0002593961
 200436460, 0.000168025, 0.003537325, -0.0001824185, 0.0002615578
 200536420, -7.604457E-05, 0.003706932, -0.0001484051, 0.0002593961
 200636380, -0.0001824962, 0.003629542, -5.633483E-05, 0.0002593961
 200736340, 8.16836E-05, 0.003513083, 0.0001287339, 0.0002593961
 200836300, 9.687362E-05, 0.003424922, -7.699747E-05, 0.0002593961
 200936260, -5.860105E-05, 0.003523108, 8.732758E-05, 0.0002593961
 201036220, 0.0001750486, 0.003599267, 2.979636E-05, 0.0002593961
 201136180, -7.712443E-05, 0.003479101, -0.0001717059, 0.0002593961
 201236140, -5.988728E-05, 0.003363481, 1.576747E-05, 0.0002593961
 201336100, -0.0002184794, 0.003482341, 8.272913E-05, 0.0002593961
 201436060, -0.0001595081, 0.00355235, -8.289835E-05, 0.0002593961
 201536020, 5.506821E-05, 0.003470917, -8.775895E-05, 0.0002593961
 201635980, 6.251828E-05, 0.003368326, 0.0001628451, 0.0002593961
 201735940, -7.510321E-05, 0.003490318, -8.656854E-05, 0.0002593961
 201835900, -0.0001572673, 0.003571781, 3.813011E-08, 0.0002593961
 201935860, 1.628376E-05, 0.003585067, -7.956778E-05, 0.0002593961
 202035820, 0.0001610735, 0.003502941, -0.000131048, 0.0002593961
 202135780, 6.628662E-05, 0.003678135, 9.466676E-05, 0.0002593961
 202235740, -8.133102E-07, 0.003522839, -0.0002699618, 0.0002593961
 202335700, 0.0001906681, 0.003606534, -7.650296E-05, 0.0002593961
 202435660, -1.301771E-05, 0.00340747, -0.0001897244, 0.0002593961
 202536453, 0.000230684, 0.003544762, -4.973884E-05, 0.0002615578
 202636413, 9.94815E-05, 0.003429927, 1.291832E-05, 0.0002593961
 202736373, 6.384115E-05, 0.003640741, -7.13492E-05, 0.0002593961
 202836333, 0.0001066712, 0.003477208, -7.54746E-05, 0.0002593961
 202936293, -3.87422E-05, 0.00351295, -0.0002264809, 0.0002593961
 203036253, 0.0001360485, 0.003718323, 7.559612E-05, 0.0002593961
 203136213, 8.03966E-05, 0.003548895, -8.582971E-05, 0.0002593961
 203236173, -0.0001705006, 0.003614846, -0.0002575046, 0.0002593961
 203336133, -6.555776E-05, 0.003590625, -0.0001397349, 0.0002593961
 203436093, 0.0001745909, 0.00332915, 4.307574E-05, 0.0002593961
 203536053, -0.0001819519, 0.00374333, 0.0001912866, 0.0002593961
 203636013, 0.0002500557, 0.003589466, 2.966051E-05, 0.0002593961
 203735973, 3.13102E-05, 0.003698694, -0.0001094726, 0.0002593961
 203835933, 7.862609E-06, 0.003705446, -1.848197E-05, 0.0002593961
 203935893, 0.0001473608, 0.003736121, -5.492517E-05, 0.0002593961
 204035853, 9.626338E-05, 0.003504214, -0.0001330725, 0.0002593961
 204135813, -1.646216E-05, 0.003516096, 2.331039E-05, 0.0002593961
 204235773, 9.418269E-05, 0.00366009, -0.0001558157, 0.0002593961
 204335733, 8.434538E-05, 0.003670337, -0.0002360889, 0.0002593961
 204435693, 1.601228E-05, 0.003471791, -7.735853E-05, 0.0002593961
 204536486, 1.820109E-05, 0.003515863, 8.783877E-05, 0.0002593961
 204636446, 4.244709E-05, 0.003547519, 0.0001507724, 0.0002615578
 204736406, 0.0001325384, 0.003386429, 0.0001362637, 0.0002593961
 204836366, 6.115851E-05, 0.003369645, 3.576517E-05, 0.0002593961
 204936326, 3.656248E-05, 0.00352595, -0.000113026, 0.0002593961
 205036286, -7.112078E-05, 0.00368868, -0.000270952, 0.0002593961
 205136246, -3.397858E-05, 0.003568544, -1.198766E-05, 0.0002593961
 205236206, 2.234233E-05, 0.003551799, -0.0001607645, 0.0002593961
 205336166, -3.448663E-05, 0.003413053, 4.799114E-05, 0.0002593961
 205436126, 0.0001191596, 0.003435806, 2.236423E-05, 0.0002593961
 205536086, 0.0002281526, 0.003697174, -0.0001439854, 0.0002593961
 205636046, 6.259343E-05, 0.00356877, -0.0001067855, 0.0002593961
 205736006, -3.898307E-05, 0.003425122, -9.591196E-05, 0.0002593961
 205835966, -9.9519E-05, 0.003733892, -3.676138E-06, 0.0002593961
 205935926, 0.0001909712, 0.003518899, -0.0001268487, 0.0002593961
 206035886, -4.606144E-05, 0.003442755, -0.0002055991, 0.0002593961
 206135846, 0.0003093533, 0.003462457, -0.0001083036, 0.0002593961
 206235806, -7.415916E-05, 0.003476242, -2.887764E-05, 0.0002593961
 206335766, 0.0001243308, 0.003400327, 1.489758E-05, 0.0002593961
 206435726, 0.0001083535, 0.003433086, 4.719397E-05, 0.0002593961
 206535686, 5.94509E-05, 0.003437412, -0.0001002149, 0.0002593961
 206636479, 2.799241E-05, 0.003697449, 5.242833E-05, 0.0002615578
 206736439, 0.0001646579, 0.003588061, -5.363467E-06, 0.0002593961
 206836399, -0.0001333206, 0.00370084, 1.983325E-05, 0.0002593961
 206936359, -0.0001380856, 0.003266215, -5.254431E-05, 0.0002593961
 207036319, 9.987181E-05, 0.003663429, -0.0002537153, 0.0002593961
 207136279, 5.48118E-05, 0.003655831, -4.953545E-05, 0.0002593961
 207236239, 0.0001014138, 0.003391699, 2.724511E-05, 0.0002593961
 207336199, 1.548886E-05, 0.003438862, -3.224156E-05, 0.0002593961
 207436159, -0.0001295293, 0.003450277, 8.867529E-05, 0.0002593961
 207536119, 0.0001696613, 0.003368796, -0.0002490871, 0.0002593961
 207636079, 4.411027E-05, 0.003654089, 5.610605E-05, 0.0002593961
 207736039, -3.999188E-05, 0.003431995, -6.861318E-06, 0.0002593961
 207835999, 6.489371E-06, 0.003392485, 5.805554E-05, 0.0002593961
 207935959, 5.769909E-05, 0.003708135, -0.0001741309, 0.0002593961
 208035919, -0.0001426946, 0.003733719, 0.0001095703, 0.0002593961
 208135879, 3.012388E-05, 0.003491464, 7.445931E-05, 0.0002593961
 208235839, 0.0002120652, 0.003625385, -0.0001256774, 0.0002593961
 208335799, -0.0001540784, 0.003590634, 0.0002496662, 0.0002593961
 208435759, 1.15594E-05, 0.003539437, -8.777802E-05, 0.0002593961
 208535719, 0.0001158675, 0.00363547, -0.0001173885, 0.0002593961
 208635679, -2.132454E-05, 0.003662198, -0.0001380249, 0.0002593961
 208736472, -3.144201E-05, 0.003780178, 8.697205E-06, 0.0002615578
 208836432, 0.0001637323, 0.003653102, -4.916847E-05, 0.0002593961
 208936392, 0.000106889, 0.003646369, -0.000122485, 0.0002593961
 209036352, 0.0002201767, 0.003450787, 0.0002531624, 0.0002593961
 209136312, 0.0001361924, 0.003562253, -1.422075E-05, 0.0002593961
 209236272, 2.284694E-07, 0.003551515, 3.318413E-05, 0.0002593961
 209336232, 9.376618E-05, 0.003760802, -1.947458E-05, 0.0002593961
 209436192, -4.424136E-05, 0.003389844, -0.000101938, 0.0002593961
 209536152, -0.0002094462, 0.003485754, -4.071275E-05, 0.0002593961
 209636112, 2.564029E-05, 0.003580395, 0.0001298719, 0.0002593961
 209736072, -5.702356E-05, 0.003424401, -9.264696E-05, 0.0002593961
 209836032, -7.496376E-05, 0.003759546, 5.370019E-05, 0.0002593961
 209935992, 7.611946E-05, 0.003496626, 0.0001044988, 0.0002593961
 210035952, 8.656191E-05, 0.003636026, -3.301373E-05, 0.0002593961
 210135912, -0.0001481432, 0.003528871, 1.522529E-05, 0.0002593961
 210235872, -4.97617E-05, 0.003595905, 0.0001938521, 0.0002593961
 210335832, 4.700502E-05, 0.003604078, -0.0001424482, 0.0002593961
 210435792, 1.484363E-05, 0.00351638, 6.634084E-05, 0.0002593961
 210535752, -0.0001209731, 0.003217492, 3.247152E-06, 0.0002593961
 210635712, 7.772224E-05, 0.003407206, -3.933763E-05, 0.0002593961
 210735672, -0.0001102106, 0.003529068, 0.0001221514, 0.0002593961
 210836465, 3.270994E-05, 0.003710026, -5.51877E-06, 0.0002615578
 210936425, -6.58971E-05, 0.003638143, 2.382994E-05, 0.0002593961
 211036385, 0.0001899254, 0.003595426, -6.353689E-06, 0.0002593961
 211136345, -4.512273E-06, 0.003339519, -1.540045E-05, 0.0002593961
 211236305, -2.25943E-05, 0.00348081, -0.0002867517, 0.0002593961
 211336265, -0.0001693985, 0.003494392, -0.0002001951, 0.0002593961
 211436225, -9.584651E-05, 0.003689487, 1.38418E-05, 0.0002593961
 211536185, -3.935668E-05, 0.003416804, -0.0003950315, 0.0002593961
 211636145, -5.704637E-05, 0.003531894, -3.394795E-05, 0.0002593961
 211736105, -0.0001896741, 0.003502483, 4.365842E-05, 0.0002593961
 211836065, -0.0001751402, 0.003514359, -8.638381E-05, 0.0002593961
 211936025, 9.376407E-05, 0.003647271, 8.058661E-05, 0.0002593961
 212035985, 4.087199E-05, 0.003636212, -0.0001047657, 0.0002593961
 212135945, 8.793948E-05, 0.003365048, -6.247285E-05, 0.0002593961
 212235905, 1.23736E-06, 0.003586862, 0.0001745861, 0.0002593961
 212335865, -1.791813E-05, 0.003582451, 1.563639E-05, 0.0002593961
 212435825, 0.0001608875, 0.003319391, -0.0001393774, 0.0002593961
 212535785, -2.812066E-05, 0.003596053, 9.322967E-05, 0.0002593961
 212635745, 8.580074E-05, 0.003430404, -1.792191E-06, 0.0002593961
 212735705, -0.0001171441, 0.003439442, -5.72083E-05, 0.0002593961
 212835665, -0.0002112044, 0.003450985, -6.757059E-05, 0.0002593961
 212936458, 0.0001076666, 0.003471903, -0.0002081277, 0.0002615578
 213036418, -9.874559E-05, 0.003477311, -0.0002504562, 0.0002593961
 213136378, 0.0001484458, 0.003627372, 8.30175E-05, 0.0002593961
 213236338, -1.317781E-05, 0.003654885, 0.0001289019, 0.0002593961
 213336298, 3.118915E-05, 0.003495936, -2.450678E-05, 0.0002593961
 213436258, 1.747296E-05, 0.003545059, -6.128838E-05, 0.0002593961
 213536218, -1.182667E-05, 0.003554362, -6.172333E-05, 0.0002593961
 213636178, 2.772363E-05, 0.003376758, -0.0001751366, 0.0002593961
 213736138, -9.380678E-05, 0.003564781, -3.810311E-05, 0.0002593961
 213836098, 6.509509E-05, 0.003438025, -6.924361E-05, 0.0002593961
 213936058, 0.0001035497, 0.003603155, -7.030534E-05, 0.0002593961
 214036018, 0.0002229152, 0.003723667, 6.696524E-05, 0.0002593961
 214135978, 2.03058E-05, 0.003711072, -2.364404E-05, 0.0002593961
 214235938, 4.535156E-05, 0.00352494, -1.499053E-05, 0.0002593961
 214335898, 0.0004522195, 0.003512027, 8.401487E-05, 0.0002593961
 214435858, 8.915243E-05, 0.003550224, -3.282783E-05, 0.0002593961
 214535818, 0.0001533343, 0.003637505, -0.0001791607, 0.0002593961
 214635778, 6.823734E-05, 0.003635667, -8.968579E-05, 0.0002593961
 214735738, 4.199833E-05, 0.003792851, -1.171596E-05, 0.0002593961
 214835698, 0.0001044807, 0.003714856, -7.593811E-05, 0.0002593961
 214935658, 4.120293E-06, 0.003578756, -0.0003328803, 0.0002593961
 215036451, 7.266728E-05, 0.003568265, -0.0002003353, 0.0002615578
 215136411, -0.0001102217, 0.003716579, -2.368218E-05, 0.0002593961
 215236371, -8.040339E-06, 0.003714414, -5.790061E-06, 0.0002593961
 215336331, -5.352365E-05, 0.003519306, -2.43327E-06, 0.0002593961
 215436291, 0.0001103581, 0.003296339, 1.963664E-05, 0.0002593961
 215536251, -4.040681E-05, 0.003594281, -8.560688E-05, 0.0002593961
 215636211, 1.231449E-05, 0.003487388, 2.63371E-05, 0.0002593961
 215736171, 0.000262034, 0.003420905, -0.0001262756, 0.0002593961
 215836131, 0.0001568336, 0.003408498, 0.0001123766, 0.0002593961
 215936091, 0.0001178475, 0.00341542, -5.872999E-05, 0.0002593961
 216036051, 5.937337E-06, 0.003422501, -3.556963E-06, 0.0002593961
 216136011, -1.35212E-06, 0.003544303, -7.365617E-05, 0.0002593961
 216235971, 7.01048E-05, 0.003393763, 8.474178E-05, 0.0002593961
 216335931, 0.0002241863, 0.003284134, -0.0002061198, 0.0002593961
 216435891, 0.0001208765, 0.003722385, -0.0001093129, 0.0002593961
 216535851, -8.134785E-05, 0.003453218, -0.00011052, 0.0002593961
 216635811, -9.973964E-05, 0.003459911, 8.840479E-05, 0.0002593961
 216735771, -0.0002365242, 0.003496644, -0.0002001403, 0.0002593961
 216835731, 3.852263E-05, 0.003366015, -0.0002565453, 0.0002593961
 216935691, 7.602387E-07, 0.003494897, -0.0002797307, 0.0002593961
 217036484, 6.678832E-05, 0.003474401, -0.0002456862, 0.0002615578
 217136444, 2.080501E-05, 0.003423648, -8.197603E-05, 0.0002593961
 217236404, 0.0001507605, 0.003538783, 0.0001663841, 0.0002593961
 217336364, 1.389482E-05, 0.003451081, 6.134918E-05, 0.0002593961
 217436324, 2.470145E-05, 0.003458944, -0.0002021028, 0.0002593961
 217536284, -0.0001990643, 0.003507777, 2.629539E-05, 0.0002593961
 217636244, -0.000130379, 0.003453842, -0.0001187815, 0.0002593961
 217736204, -0.0001108379, 0.003690254, 9.225492E-05, 0.0002593961
 217836164, -0.0001537758, 0.00365182, -2.945913E-05, 0.0002593961
 217936124, 9.288116E-05, 0.003523695, -0.0001927236, 0.0002593961
 218036084, -7.691112E-05, 0.003555915, -2.967363E-05, 0.0002593961
 218136044, -4.871805E-05, 0.003505442, -1.947696E-05, 0.0002593961
 218236004, 5.279625E-05, 0.003460512, -7.249672E-05, 0.0002593961
 218335964, 2.614595E-05, 0.003696362, 2.524558E-05, 0.0002593961
 218435924, 0.0002016416, 0.003556686, -0.0001538519, 0.0002593961
 218535884, 3.001577E-05, 0.003522089, -0.0003278863, 0.0002593961
 218635844, -6.179274E-05, 0.003544627, -5.461179E-06, 0.0002593961
 218735804, 5.794282E-05, 0.003573117, -8.42103E-05, 0.0002593961
 218835764, 7.285268E-05, 0.003613301, -0.0001920122, 0.0002593961
 218935724, -4.776936E-05, 0.003676716, 2.60237E-05, 0.0002593961
 219035684, -4.709198E-05, 0.003573711, -0.0001663508, 0.0002593961
 219136477, 0.0002094154, 0.003919024, -0.0001559436, 0.0002615578
 219236437, 7.096245E-05, 0.003611617, -7.149578E-05, 0.0002593961
 219336397, 5.51691E-05, 0.003480002, 0.0001203985, 0.0002593961
 219436357, 0.0002154995, 0.003588639, -0.0001544573, 0.0002593961
 219536317, 3.732605E-05, 0.003491387, -0.0003657261, 0.0002593961
 219636277, -6.028059E-05, 0.0034302, 5.219038E-05, 0.0002593961
 219736237, -5.23036E-06, 0.00368771, -0.0001472956, 0.0002593961
 219836197, 0.0001080076, 0.003554275, -1.791714E-05, 0.0002593961
 219936157, -1.476757E-05, 0.003487902, -0.000202004, 0.0002593961
 220036117, 5.578915E-05, 0.003674164, 1.040045E-05, 0.0002593961
 220136077, 0.0001149295, 0.003584869, -0.0001478009, 0.0002593961
 220236037, 8.507387E-06, 0.003236563, -4.389318E-05, 0.0002593961
 220335997, -7.179281E-05, 0.003515665, 3.117387E-05, 0.0002593961
 220435957, 5.097614E-05, 0.003618552, -1.637042E-05, 0.0002593961
 220535917, -2.347515E-05, 0.003500175, -3.946275E-05, 0.0002593961
 220635877, -6.932939E-05, 0.003775727, -7.914595E-05, 0.0002593961
 220735837, 6.456911E-05, 0.003523219, 0.0001203187, 0.0002593961
 220835797, -0.0001652425, 0.003773286, -2.511927E-05, 0.0002593961
 220935757, 5.965309E-05, 0.003630764, -0.0002521304, 0.0002593961
 221035717, 4.544396E-05, 0.003551577, 5.61275E-05, 0.0002593961
 221135677, 0.0002398347, 0.003529438, -1.955679E-05, 0.0002593961
 221236470, -1.906746E-05, 0.003502066, -0.0002883858, 0.0002615578
 221336430, -8.5215E-05, 0.003551767, -0.000293638, 0.0002593961
 221436390, 0.0001021183, 0.003643451, -0.00010011, 0.0002593961
 221536350, 8.309048E-05, 0.0035577, 8.728349E-05, 0.0002593961
 221636310, 0.0001979396, 0.003471311, -0.0001680822, 0.0002593961
 221736270, 0.0001862164, 0.003604051, -0.1236156, 0.0002593961
 221836230, 0.0002505257, 0.003898923, -0.1617961, 0.0002593961
 221936190, 6.064372E-05, 0.003659425, -0.02518703, 0.0002593961
 222036150, -5.521448E-05, 0.003520529, 0.04768961, 0.0002593961
 222136110, -6.368634E-05, 0.003481049, 0.05420694, 0.0002593961
 222236070, -5.386057E-05, 0.003505681, -0.004393707, 0.0002593961
 222336030, -0.0003215346, 0.003194796, -0.5718384, 0.0002593961
 222435990, -0.002521076, 0.0007703129, -0.6886549, 0.0002593961
 222535950, -0.005306889, -0.002128066, -0.4229478, 0.0002593961
 222635910, -0.006810317, -0.004065251, -0.1663654, 0.0002593961
 222735870, -0.007352065, -0.004675467, -0.0568854, 0.0002593961
 222835830, -0.007318256, -0.004454695, -0.06016885, 0.0002593961
 222935790, -0.007131679, -0.004224601, -0.09817392, 0.0002593961
 223035750, -0.006683048, -0.003494859, -0.1221404, 0.0002593961
 223135710, -0.006139865, -0.002982803, -0.1226183, 0.0002593961
 223235670, -0.005838568, -0.002294517, -0.1104808, 0.0002593961
 223336463, -0.005400155, -0.001662831, -0.09765298, 0.0002615578
 223436423, -0.004987167, -0.00102383, -0.0872042, 0.0002593961
 223536383, -0.004495603, -0.0003656198, -0.08151186, 0.0002593961
 223636343, -0.004359174, 0.0002478083, -0.0772747, 0.0002593961
 223736303, -0.003921206, 0.0008118019, -0.07333815, 0.0002593961
 223836263, -0.0037445, 0.001301694, -0.06897087, 0.0002593961
 223936223, -0.003475938, 0.001555216, -0.06442574, 0.0002593961
 224036183, -0.003212861, 0.00174281, -0.06028301, 0.0002593961
 224136143, -0.002848369, 0.001926289, -0.05638514, 0.0002593961
 224236103, -0.002538062, 0.0020502, -0.05276729, 0.0002593961
 224336063, -0.002188489, 0.002097752, -0.04961805, 0.0002593961
 224436023, -0.00191454, 0.002336588, -0.04638774, 0.0002593961
 224535983, -0.001659626, 0.002371343, -0.04352675, 0.0002593961
 224635943, -0.001217215, 0.002498633, -0.04090088, 0.0002593961
 224735903, -0.0008425454, 0.002603329, -0.03794406, 0.0002593961
 224835863, -0.0008310685, 0.002650003, -0.03514481, 0.0002593961
 224935823, -0.000711482, 0.002713098, -0.03294478, 0.0002593961
 225035783, -0.0008031817, 0.002928442, -0.03099989, 0.0002593961
 225135743, -0.0006489618, 0.002870272, -0.02930889, 0.0002593961
 225235703, -0.0007179495, 0.002771491, -0.02766264, 0.0002593961
 225335663, -0.0007396619, 0.002753715, -0.02590067, 0.0002593961
 225436456, -6.934838E-05, 0.003216075, 0.1321848, 0.0002615578
 225536416, 0.0005210722, 0.003584178, 0.2798849, 0.0002593961
 225636376, 0.0003606984, 0.003268705, 0.2615038, 0.0002593961
 225736336, 0.0004402391, 0.003068013, 0.244281, 0.0002593961
 225836296, 0.000603681, 0.002888923, 0.2283137, 0.0002593961
 225936256, 0.0004820559, 0.002596456, 0.2141251, 0.0002593961
 226036216, 0.0003225315, 0.002671896, 0.20063, 0.0002593961
 226136176, 0.0004285278, 0.00275739, 0.1884436, 0.0002593961
 226236136, 0.0003428099, 0.002796697, 0.1574804, 0.0002593961
 226336096, -0.0009933811, 0.002723756, 0.1295087, 0.0002593961
 226436056, -0.002746919, 0.003773293, 0.1175248, 0.0002593961
 226536016, -0.0009196838, 0.007030259, 0.1089528, 0.0002593961
 226635976, 0.006443182, 0.01264265, 0.1013958, 0.0002593961
 226735936, 0.01551574, 0.02001595, 0.09762881, 0.0002593961
 226835896, 0.02828999, 0.0292736, 0.09569193, 0.0002593961
 226935856, 0.04640992, 0.03933383, 0.09550428, 0.0002593961
 227035816, 0.0660849, 0.04859288, 0.09749856, 0.0002593961
 227135776, 0.08113965, 0.05443249, 0.09993915, 0.0002593961
 227235736, 0.08838522, 0.05467953, 0.09983373, 0.0002593961
 227335696, 0.08994256, 0.0472683, 0.09602804, 0.0002593961
 227435656, 0.08802664, 0.03289732, 0.09045167, 0.0002593961
 227536449, 0.0844952, 0.01796583, 0.08488195, 0.0002615578
 227636409, 0.07872726, 0.006986547, 0.07737896, 0.0002593961
 227736369, 0.07414667, 0.002117448, 0.07002299, 0.0002593961
 227836329, 0.07025945, 0.001614255, 0.06351357, 0.0002593961
 227936289, 0.06913485, 0.001371456, 0.05677522, 0.0002593961
 228036249, 0.07088926, -0.0006686462, 0.05036759, 0.0002593961
 228136209, 0.07365964, -0.004975291, 0.04427318, 0.0002593961
 228236169, 0.07605331, -0.01010464, 0.03903822, 0.0002593961
 228336129, 0.07689974, -0.01486056, 0.03454213, 0.0002593961
 228436089, 0.07714985, -0.01506648, 0.03033828, 0.0002593961
 228536049, 0.07582252, -0.003365299, 0.02952894, 0.0002593961
 228636009, 0.07449299, 0.01785416, 0.02650363, 0.0002593961
 228735969, 0.07237891, 0.03782636, 0.02061587, 0.0002593961
 228835929, 0.06982026, 0.04819108, 0.01494342, 0.0002593961
 228935889, 0.06915533, 0.04697441, 0.01078417, 0.0002593961
 229035849, 0.07227924, 0.03705296, 0.008453663, 0.0002593961
 229135809, 0.07979152, 0.02378442, 0.007889456, 0.0002593961
 229235769, 0.08982304, 0.01172541, 0.008557958, 0.0002593961
 229335729, 0.09800102, 0.002122353, 0.009228311, 0.0002593961
 229435689, 0.1014985, -0.006000816, 0.009313446, 0.0002593961
 229536482, 0.1013708, -0.01201679, 0.009472443, 0.0002615578
 229636442, 0.09698221, -0.01508336, 0.008987417, 0.0002593961
 229736402, 0.09384848, -0.01586727, 0.008946087, 0.0002593961
 229836362, 0.09401779, -0.01416368, 0.008632778, 0.0002593961
 229936322, 0.09587754, -0.013964, 0.008821508, 0.0002593961
 230036282, 0.09822089, -0.01999218, 0.008940314, 0.0002593961
 230136242, 0.1000434, -0.02821418, 0.007821206, 0.0002593961
 230236202, 0.09886579, -0.03297259, 0.005617939, 0.0002593961
 230336162, 0.09494669, -0.03344589, 0.003010189, 0.0002593961
 230436122, 0.08892997, -0.02935824, 0.0001392808, 0.0002593961
 230536082, 0.08303075, -0.01976766, -0.001035708, 0.0002593961
 230636042, 0.07984401, -0.005637278, -0.0006462146, 0.0002593961
 230736002, 0.07864238, 0.01112793, 0.000307655, 0.0002593961
 230835962, 0.07848681, 0.02859985, 0.001432514, 0.0002593961
 230935922, 0.07733835, 0.04301281, 0.00217167, 0.0002593961
 231035882, 0.07428412, 0.05270202, 0.002544524, 0.0002593961
 231135842, 0.06902435, 0.05818753, 0.002145512, 0.0002593961
 231235802, 0.06242742, 0.06057997, 0.001657143, 0.0002593961
 231335762, 0.05573122, 0.05913699, 0.001293839, 0.0002593961
 231435722, 0.04998231, 0.05374214, 0.0001972613, 0.0002593961
 231535682, 0.04668006, 0.04303679, -0.000515449, 0.0002593961
 231636475, 0.04675518, 0.02837963, -0.000217535, 0.0002615578
 231736435, 0.04680935, 0.01392383, 0.0001267653, 0.0002593961
 231836395, 0.04603894, 0.00290491, 0.0004644096, 0.0002593961
 231936355, 0.0430166, -0.003598884, 0.0004247932, 0.0002593961
 232036315, 0.03781302, -0.005936425, 0.0003230567, 0.0002593961
 232136275, 0.0313495, -0.002672917, 5.911248E-05, 0.0002593961
 232236235, 0.02546817, 0.005448488, -0.0001280737, 0.0002593961
 232336195, 0.02223798, 0.01597864, 0.0002415167, 0.0002593961
 232436155, 0.02242282, 0.0257444, 0.001003062, 0.0002593961
 232536115, 0.02354596, 0.03319383, 0.0009171618, 0.0002593961
 232636075, 0.02285007, 0.03799817, 0.0004593715, 0.0002593961
 232736035, 0.02170247, 0.03771626, -0.0004385481, 0.0002593961
 232835995, 0.02146316, 0.03283432, -0.001091763, 0.0002593961
 232935955, 0.0217008, 0.02508613, -0.0005668779, 0.0002593961
 233035915, 0.02225673, 0.01705977, -0.000235169, 0.0002593961
 233135875, 0.02287225, 0.00793496, 5.681388E-05, 0.0002593961
 233235835, 0.02285241, -0.001351533, 0.000122858, 0.0002593961
 233335795, 0.02232567, -0.008064772, 0.0003879211, 0.0002593961
 233435755, 0.02203396, -0.01039637, 0.0003850255, 0.0002593961
 233535715, 0.0210086, -0.00955875, 0.0001623541, 0.0002593961
 233635675, 0.01911919, -0.007483481, -0.0002170636, 0.0002593961
 233736468, 0.01749976, -0.00535011, -0.0002880665, 0.0002615578
 233836428, 0.01621206, -0.004258758, -0.0003022403, 0.0002593961
 233936388, 0.01567541, -0.006573646, 0.0001782503, 0.0002593961
 234036348, 0.01657899, -0.01240914, 0.0002973928, 0.0002593961
 234136308, 0.01767981, -0.01820676, 0.00108313, 0.0002593961
 234236268, 0.01853177, -0.02083652, 0.0009575649, 0.0002593961
 234336228, 0.01798514, -0.02059116, 0.001301939, 0.0002593961
 234436188, 0.01689738, -0.01803472, -0.0001683968, 0.0002593961
 234536148, 0.01486768, -0.01366009, -0.0005576704, 0.0002593961
 234636108, 0.01366008, -0.007910486, -8.404943E-05, 0.0002593961
 234736068, 0.01301049, 0.0003119139, 0.0005993709, 0.0002593961
 234836028, 0.01272123, 0.01052138, 0.0007540904, 0.0002593961
 234935988, 0.01274464, 0.02011973, 0.0003396177, 0.0002593961
 235035948, 0.01271945, 0.02679497, -1.718669E-05, 0.0002593961
 235135908, 0.01291822, 0.0296151, -0.0008945772, 0.0002593961
 235235868, 0.01335912, 0.02833857, -0.0009906453, 0.0002593961
 235335828, 0.01353119, 0.023437, -0.0008030455, 0.0002593961
 235435788, 0.01372225, 0.01599325, 3.547433E-06, 0.0002593961
 235535748, 0.01260403, 0.009137993, 0.0001060169, 0.0002593961
 235635708, 0.009296485, 0.004360407, -0.0001783349, 0.0002593961
 235735668, 0.005688613, 0.000188935, -0.0002557006, 0.0002593961
 235836461, 0.003107849, -0.004777492, -0.0006079955, 0.0002615578
 235936421, 0.002260734, -0.009423151, -0.0009413529, 0.0002593961
 236036381, 0.002806877, -0.01286225, -0.001232749, 0.0002593961
 236136341, 0.003807834, -0.01480346, -0.001643998, 0.0002593961
 236236301, 0.004598417, -0.01564545, -0.001947366, 0.0002593961
 236336261, 0.004202071, -0.01401238, -0.00181354, 0.0002593961
 236436221, 0.002809302, -0.009733094, -0.001821133, 0.0002593961
 236536181, 0.001254132, -0.005247401, -0.001253273, 0.0002593961
 236636141, 0.0005909864, -0.002889846, -0.001331342, 0.0002593961
 236736101, 0.0005505126, -0.002155421, -0.0004602164, 0.0002593961
 236836061, 0.001256885, -0.002171559, -0.0003009867, 0.0002593961
 236936021, 0.00192895, -0.001520075, -0.001048725, 0.0002593961
 237035981, 0.002151483, 0.0002217621, -0.0009203233, 0.0002593961
 237135941, 0.001860845, 0.001614102, -0.0009718319, 0.0002593961
 237235901, 0.001441609, 0.002490909, -0.001280881, 0.0002593961
 237335861, 0.001313052, 0.002873734, -0.0014854, 0.0002593961
 237435821, 0.0006029934, 0.003625553, -0.001303839, 0.0002593961
 237535781, 0.0005770332, 0.005205626, -0.001038845, 0.0002593961
 237635741, 0.001189379, 0.007611098, -0.00068685, 0.0002593961
 237735701, 0.002088553, 0.009492328, -0.0003246439, 0.0002593961
 237835661, 0.004268525, 0.0100898, -0.0001427139, 0.0002593961
 237936454, 0.006645394, 0.006960644, -0.0001475093, 0.0002615578
 238036414, 0.007894837, 7.416966E-05, 0.000783957, 0.0002593961
 238136374, 0.008234219, -0.005991844, 0.0008538, 0.0002593961
 238236334, 0.00747634, -0.007691964, 0.000339122, 0.0002593961
 238336294, 0.005671738, -0.005232158, -7.220953E-05, 0.0002593961
 238436254, 0.003312452, -0.000788651, -0.0002864013, 0.0002593961
 238536214, 0.00134478, 0.003281439, 0.0001278568, 0.0002593961
 238636174, 9.849926E-05, 0.006010679, -7.84405E-05, 0.0002593961
 238736134, -0.000595493, 0.006768642, 0.00049382, 0.0002593961
 238836094, -0.001452969, 0.006813303, 0.001642212, 0.0002593961
 238936054, -0.001745497, 0.006309476, 0.001871554, 0.0002593961
 239036014, -0.0022791, 0.005052418, 0.002487308, 0.0002593961
 239135974, -0.00262347, 0.00468798, 0.002132029, 0.0002593961
 239235934, -0.00195243, 0.004977447, 0.001525016, 0.0002593961
 239335894, -0.001179835, 0.00547797, 0.001524837, 0.0002593961
 239435854, -5.905861E-05, 0.005736702, 0.002175661, 0.0002593961
 239535814, 0.001064183, 0.005827453, 0.001551504, 0.0002593961
 239635774, 0.001341429, 0.005975472, 0.0006044831, 0.0002593961
 239735734, -0.0007956653, 0.005638872, -0.0002103619, 0.0002593961
 239835694, -0.004507922, 0.00449817, -0.001548403, 0.0002593961
 239935654, -0.008271255, 0.002100605, -0.00252911, 0.0002593961
 240036447, -0.01011392, -0.000786282, -0.002834085, 0.0002615578
 240136407, -0.008510196, -0.002526757, -0.00301154, 0.0002593961
 240236367, -0.004207188, -0.001824454, -0.003296265, 0.0002593961
 240336327, 0.001433104, 0.000758767, -0.002541247, 0.0002593961
 240436287, 0.007290256, 0.003404249, -0.001586402, 0.0002593961
 240536247, 0.01156374, 0.005123599, -0.0009120582, 0.0002593961
 240636207, 0.01328825, 0.005635825, -0.0002705076, 0.0002593961
 240736167, 0.01259192, 0.003542741, -0.0002159101, 0.0002593961
 240836127, 0.009934753, -0.001315564, -2.836999E-05, 0.0002593961
 240936087, 0.006748343, -0.006013413, 0.0002561641, 0.0002593961
 241036047, 0.004463608, -0.009725087, 0.000474965, 0.0002593961
 241136007, 0.002581796, -0.01135714, 0.0003310024, 0.0002593961
 241235967, 0.001129841, -0.01068942, 0.0001102781, 0.0002593961
 241335927, 0.001025359, -0.007144916, -0.0004808898, 0.0002593961
 241435887, 0.001307267, -0.001631701, 0.0002699201, 0.0002593961
 241535847, 0.00124589, 0.005097822, 0.0003931105, 0.0002593961
 241635807, 0.0003845193, 0.01075598, 0.0008216335, 0.0002593961
 241735767, -0.001323551, 0.01574354, 0.001455417, 0.0002593961
 241835727, -0.0031162, 0.01888603, 0.001873597, 0.0002593961
 241935687, -0.005116021, 0.0195205, 0.002287395, 0.0002593961
 242036480, -0.007123202, 0.01794122, 0.002773952, 0.0002615578
 242136440, -0.007641861, 0.01500814, 0.002621191, 0.0002593961
 242236400, -0.00721785, 0.01214216, 0.002956948, 0.0002593961
 242336360, -0.004993687, 0.009624214, 0.002766795, 0.0002593961
 242436320, -0.00162269, 0.006996681, 0.002237082, 0.0002593961
 242536280, 4.588614E-05, 0.004079751, 0.001813706, 0.0002593961
 242636240, -0.0006776675, 0.001296732, 0.0007809423, 0.0002593961
 242736200, -0.003015298, 0.0004801956, -0.0001147276, 0.0002593961
 242836160, -0.005966994, 0.002942029, 8.472362E-07, 0.0002593961
 242936120, -0.008344288, 0.006979848, -2.519909E-05, 0.0002593961
 243036080, -0.009030054, 0.01125299, 0.0002594673, 0.0002593961
 243136040, -0.008611703, 0.01467452, -0.000279683, 0.0002593961
 243236000, -0.007987997, 0.01688443, -0.0007781659, 0.0002593961
 243335960, -0.008725259, 0.01770888, -0.001389046, 0.0002593961
 243435920, -0.01093491, 0.01767828, -0.00214587, 0.0002593961
 243535880, -0.01291262, 0.01467491, -0.002552224, 0.0002593961
 243635840, -0.01276316, 0.008762662, -0.001524143, 0.0002593961
 243735800, -0.01187608, 0.003705811, -0.001086537, 0.0002593961
 243835760, -0.01123895, 0.002153922, 7.721911E-05, 0.0002593961
 243935720, -0.01209573, 0.003304124, 0.001050993, 0.0002593961
 244035680, -0.01375948, 0.006472729, 0.0002644911, 0.0002593961
 244136473, -0.01482017, 0.01054104, 0.000520613, 0.0002615578
 244236433, -0.01343363, 0.01464776, 0.0008564407, 0.0002593961
 244336393, -0.01094235, 0.01681205, 0.001332888, 0.0002593961
 244436353, -0.007857401, 0.0161484, 0.001198306, 0.0002593961
 244536313, -0.005670518, 0.01496213, 0.0004024683, 0.0002593961
 244636273, -0.00512685, 0.01529026, 8.134806E-05, 0.0002593961
 244736233, -0.005649299, 0.01596619, -0.0006112991, 0.0002593961
 244836193, -0.006640962, 0.0164623, -0.000674867, 0.0002593961
 244936153, -0.007529723, 0.0156897, -0.001286114, 0.0002593961
 245036113, -0.007696935, 0.01316677, -0.001321477, 0.0002593961
 245136073, -0.007536741, 0.009596168, -0.002189182, 0.0002593961
 245236033, -0.007732302, 0.005876479, -0.00231606, 0.0002593961
 245335993, -0.007763923, 0.001431099, -0.002349227, 0.0002593961
 245435953, -0.007559201, -0.003488827, -0.002183677, 0.0002593961
 245535913, -0.006720245, -0.009389335, -0.001654417, 0.0002593961
 245635873, -0.00533586, -0.01557388, -0.0005955459, 0.0002593961
 245735833, -0.003528418, -0.01921172, -0.0004822959, 0.0002593961
 245835793, -0.001977268, -0.01866242, -0.0009351028, 0.0002593961
 245935753, -0.001023422, -0.01470503, -0.0009742414, 0.0002593961
 246035713, -0.0007555055, -0.009454292, -0.0002584627, 0.0002593961
 246135673, -0.00104897, -0.004177248, 1.461992E-05, 0.0002593961
 246236466, -0.000926648, 0.0004515705, 0.0006570451, 0.0002615578
 246336426, -0.0004889124, 0.002260382, 0.0002101069, 0.0002593961
 246436386, 0.0004353813, 0.0006721014, 0.0001295358, 0.0002593961
 246536346, 0.002472442, -0.002400025, -0.000571561, 0.0002593961
 246636306, 0.004924227, -0.005496713, -0.0002868219, 0.0002593961
 246736266, 0.0071307, -0.005133799, 0.0001204605, 0.0002593961
 246836226, 0.008461619, -0.0009122803, 0.0003342388, 0.0002593961
 246936186, 0.00819601, 0.005587532, -3.983693E-05, 0.0002593961
 247036146, 0.006108041, 0.01113633, 0.0003243221, 0.0002593961
 247136106, 0.003488304, 0.01227959, 0.0006626373, 0.0002593961
 247236066, 0.001016936, 0.007613909, 0.0007806956, 0.0002593961
 247336026, -0.0007120988, 0.0003312003, 0.0009514006, 0.0002593961
 247435986, -0.0007237848, -0.006629799, 0.0006076634, 0.0002593961
 247535946, -9.865511E-05, -0.01265418, 0.001183589, 0.0002593961
 247635906, 0.0006868448, -0.01699882, 0.001256914, 0.0002593961
 247735866, 0.0007992068, -0.01640273, 0.00197207, 0.0002593961
 247835826, -0.0001271583, -0.01015879, 0.001180186, 0.0002593961
 247935786, -0.002118807, -0.0003277005, 0.000531443, 0.0002593961
 248035746, -0.004110973, 0.0100325, -0.0002874416, 0.0002593961
 248135706, -0.005300295, 0.01736829, -0.0008869414, 0.0002593961
 248235666, -0.005866001, 0.02048061, -0.0004598601, 0.0002593961
 248336459, -0.006245874, 0.02220803, -0.0006542905, 0.0002615578
 248436419, -0.007596488, 0.02371222, -9.199871E-05, 0.0002593961
 248536379, -0.009638402, 0.02308375, -0.000207688, 0.0002593961
 248636339, -0.01221159, 0.01875972, -0.0004237863, 0.0002593961
 248736299, -0.01333178, 0.01397389, -0.0005240322, 0.0002593961
 248836259, -0.01160496, 0.01146173, 0.0003033115, 0.0002593961
 248936219, -0.006942627, 0.01098289, 0.0004658694, 0.0002593961
 249036179, -0.0007293068, 0.01043547, 4.651714E-05, 0.0002593961
 249136139, 0.004244479, 0.009790454, -0.0004658171, 0.0002593961
 249236099, 0.00663732, 0.009005387, -0.0001338018, 0.0002593961
 249336059, 0.006148615, 0.007333019, -0.0007388795, 0.0002593961
 249436019, 0.00351959, 0.005137762, -0.0005522842, 0.0002593961
 249535979, -0.0009498163, 0.005242906, -0.0006300479, 0.0002593961
 249635939, -0.006015461, 0.008095046, -0.001246485, 0.0002593961
 249735899, -0.01031257, 0.01214916, -0.00152065, 0.0002593961
 249835859, -0.01293157, 0.01597045, -0.00118718, 0.0002593961
 249935819, -0.01410381, 0.02003781, -0.001057777, 0.0002593961
 250035779, -0.01488506, 0.02425818, -0.0007081953, 0.0002593961
 250135739, -0.01538926, 0.02628668, -0.0005546496, 0.0002593961
 250235699, -0.01481982, 0.02417483, -0.001013522, 0.0002593961
 250335659, -0.01403086, 0.01977248, -0.0004658957, 0.0002593961
 250436452, -0.01193578, 0.01566015, -0.0002487026, 0.0002615578
 250536412, -0.009492056, 0.01294852, 0.0007655311, 0.0002593961
 250636372, -0.006574095, 0.01149967, 0.001221925, 0.0002593961
 250736332, -0.003689448, 0.008066501, 0.001096138, 0.0002593961
 250836292, -0.001990676, 0.0008924948, 0.0006838529, 0.0002593961
 250936252, -0.0008921355, -0.008971178, 4.664812E-05, 0.0002593961
 251036212, -0.001092124, -0.018769, 0.0001854953, 0.0002593961
 251136172, -0.00186384, -0.02385452, 0.0001071716, 0.0002593961
 251236132, -0.003637276, -0.02252781, -0.0004305356, 0.0002593961
 251336092, -0.004468082, -0.01608397, -0.000991801, 0.0002593961
 251436052, -0.003301013, -0.007907094, -0.001264878, 0.0002593961
 251536012, -0.00102854, -0.00264998, -0.0008710285, 0.0002593961
 251635972, 0.001501443, -0.002901976, -0.0004335778, 0.0002593961
 251735932, 0.002909343, -0.005209573, -0.0004565558, 0.0002593961
 251835892, 0.003021706, -0.006615718, -0.0007167904, 0.0002593961
 251935852, 0.001717726, -0.005789862, -0.0003116696, 0.0002593961
 252035812, 0.00078507, -0.003185549, 0.0001453688, 0.0002593961
 252135772, -0.0008340922, -0.0005669492, 0.0008771056, 0.0002593961
 252235732, -0.002721896, 0.0003593455, 0.001267701, 0.0002593961
 252335692, -0.004880381, -0.002420405, 0.00141729, 0.0002593961
 252436485, -0.006205902, -0.007844839, 0.001568896, 0.0002615578
 252536445, -0.006329682, -0.01294187, 0.001137301, 0.0002593961
 252636405, -0.005414959, -0.0148459, 0.0007300031, 0.0002593961
 252736365, -0.002054788, -0.01318017, -0.006552302, 0.0002593961
 252836325, -0.0004318724, -0.01088713, -0.01043746, 0.0002593961
 252936285, -0.001398374, -0.01032126, -0.0124687, 0.0002593961
 253036245, -0.004422537, -0.011499, -0.01382311, 0.0002593961
 253136205, -0.008900491, -0.01564325, -0.01432299, 0.0002593961
 253236165, -0.01375821, -0.02211453, -0.01348464, 0.0002593961
 253336125, -0.01623978, -0.02898443, -0.01249936, 0.0002593961
 253436085, -0.01583, -0.03370427, -0.01198702, 0.0002593961
 253536045, -0.01326811, -0.03309248, -0.01087545, 0.0002593961
 253636005, -0.009664845, -0.02575564, -0.01010583, 0.0002593961
 253735965, -0.006337562, -0.01545788, -0.009388438, 0.0002593961
 253835925, -0.004194228, -0.006439227, -0.009314237, 0.0002593961
 253935885, -0.003502655, 0.0005583129, -0.008792575, 0.0002593961
 254035845, -0.00381545, 0.005272934, -0.008151571, 0.0002593961
 254135805, -0.004760996, 0.007416808, -0.006716639, 0.0002593961
 254235765, -0.005295281, 0.007771234, -0.006265621, 0.0002593961
 254335725, -0.004884278, 0.005547939, -0.005683931, 0.0002593961
 254435685, -0.003419043, 0.002294431, -0.004867935, 0.0002593961
 254536478, -0.001011451, -0.001532481, -0.003585715, 0.0002615578
 254636438, 0.002162005, -0.005155295, -0.002346378, 0.0002593961
 254736398, 0.005361183, -0.008102356, -0.001627197, 0.0002593961
 254836358, 0.006869451, -0.00981556, -0.000866374, 0.0002593961
 254936318, 0.007447838, -0.009884689, -0.0003490983, 0.0002593961
 255036278, 0.006999024, -0.008583872, -0.0005479623, 0.0002593961
 255136238, 0.006127101, -0.005178101, -0.0004872089, 0.0002593961
 255236198, 0.005341616, -0.0001290551, -3.315309E-05, 0.0002593961
 255336158, 0.003348235, 0.003262229, 0.0007074279, 0.0002593961
 255436118, -0.0001523598, 0.002962749, 0.001032257, 0.0002593961
 255536078, -0.004069229, -0.00118718, 0.00154603, 0.0002593961
 255636038, -0.006875225, -0.00693879, 0.001397713, 0.0002593961
 255735998, -0.006809404, -0.01163205, 0.000725295, 0.0002593961
 255835958, -0.004187594, -0.01325657, 0.0009425969, 0.0002593961
 255935918, -2.183106E-05, -0.01113582, 0.0007902809, 0.0002593961
 256035878, 0.003397304, -0.007025369, 0.0004870182, 0.0002593961
 256135838, 0.005288554, -0.002457415, 0.0001782491, 0.0002593961
 256235798, 0.005787149, 0.000910899, 0.0003530317, 0.0002593961
 256335758, 0.005279335, 0.0001046146, 0.0002658865, 0.0002593961
 256435718, 0.004442219, -0.005545317, 0.0004228318, 0.0002593961
 256535678, 0.004342278, -0.01170088, 0.0004486089, 0.0002593961
 256636471, 0.004621237, -0.0143235, 0.0002239757, 0.0002615578
 256736431, 0.004913218, -0.01129769, -0.0006964543, 0.0002593961
 256836391, 0.004323254, -0.002986028, -0.001122487, 0.0002593961
 256936351, 0.00274361, 0.006367193, -0.001161661, 0.0002593961
 257036311, 0.001154829, 0.01343932, -0.001725798, 0.0002593961
 257136271, 0.0001880486, 0.01695497, -0.0009913555, 0.0002593961
 257236231, 0.001133141, 0.0172465, -0.0007379619, 0.0002593961
 257336191, 0.003020991, 0.01445689, -0.0006396724, 0.0002593961
 257436151, 0.005650632, 0.009552307, -0.0002347472, 0.0002593961
 257536111, 0.007301469, 0.006715356, -0.0008175856, 0.0002593961
 257636071, 0.007174471, 0.007887374, -0.0007936473, 0.0002593961
 257736031, 0.005216893, 0.008335039, -0.001027099, 0.0002593961
 257835991, 0.001931353, 0.00475431, -0.001075274, 0.0002593961
 257935951, -0.001685582, -0.001242646, -0.0009282761, 0.0002593961
 258035911, -0.005560632, -0.006843323, -0.0005424928, 0.0002593961
 258135871, -0.009031493, -0.01080564, -0.0001472004, 0.0002593961
 258235831, -0.0123755, -0.01181664, 0.0003926911, 0.0002593961
 258335791, -0.01447266, -0.009904648, 0.001012484, 0.0002593961
 258435751, -0.01550683, -0.005821842, 0.001543014, 0.0002593961
 258535711, -0.0153297, -0.0006445947, 0.002133433, 0.0002593961
 258635671, -0.01367172, 0.004008991, 0.002150748, 0.0002593961
 258736464, -0.01066888, 0.006871916, 0.00182832, 0.0002615578
 258836424, -0.007597211, 0.007993365, 0.002075673, 0.0002593961
 258936384, -0.005099481, 0.007415417, 0.001786073, 0.0002593961
 259036344, -0.00480488, 0.005702746, 0.001722064, 0.0002593961
 259136304, -0.007070858, 0.004156082, 0.001670971, 0.0002593961
 259236264, -0.01084702, 0.003058797, 0.001300139, 0.0002593961
 259336224, -0.01361693, 0.002387002, 0.001151745, 0.0002593961
 259436184, -0.01343927, 0.0007963648, 0.001735603, 0.0002593961
 259536144, -0.01087753, -0.002195584, 0.001808377, 0.0002593961
 259636104, -0.008012128, -0.007283098, 0.002178099, 0.0002593961
 259736064, -0.005702086, -0.01159846, 0.002152833, 0.0002593961
 259836024, -0.005310385, -0.01364155, 0.002232091, 0.0002593961
 259935984, -0.00548004, -0.01218245, 0.0020212, 0.0002593961
 260035944, -0.006155265, -0.007202514, 0.001751643, 0.0002593961
 260135904, -0.006148442, -0.0006303238, 0.001550606, 0.0002593961
 260235864, -0.005478986, 0.004884487, 0.0009829939, 0.0002593961
 260335824, -0.004158516, 0.007636619, -0.0006654712, 0.0002593961
 260435784, -0.003538777, 0.007667487, -0.001266446, 0.0002593961
 260535744, -0.004107205, 0.007332098, -0.001637262, 0.0002593961
 260635704, -0.006985741, 0.008579072, -0.002100552, 0.0002593961
 260735664, -0.009791537, 0.01019758, -0.001464351, 0.0002593961
 260836457, -0.01050374, 0.01178088, -0.001000755, 0.0002615578
 260936417, -0.008771747, 0.01061649, -0.0007457443, 0.0002593961
 261036377, -0.00602388, 0.006677031, -0.00151193, 0.0002593961
 261136337, -0.003627099, 0.001353682, -0.001774333, 0.0002593961
 261236297, -0.001487309, -0.004626763, -0.00180099, 0.0002593961
 261336257, -0.000891675, -0.007830256, -0.001736149, 0.0002593961
 261436217, -0.004766291, -0.007523556, -0.001508491, 0.0002593961
