TimeUS,CGpN,CGpE,CGpD,CGpe,PGpN,PGpE,PGpD,PGpe
 195858292, 0, 0, 0, 2.5, 0, 0, 0, 0
 196030723, 0, 0, 0, 2.5, 0, 0, 0, 2.5
 196231476, 0, 0, 0, 2.5, 0, 0, 0, 2.5
 196431396, 0, 0, 0, 2.5, 0, 0, 0, 2.5
 196631316, 0, 0, 0, 2.5, 0, 0, 0, 2.5
 196831236, 0, 0, 0, 2.5, 0, 0, 0, 2.5
 197031156, 0, 0, 0, 2.5, 0, 0, 0, 2.5
 197231076, 0, 0, 0, 2.5, 0, 0, 0, 2.5
 197430996, 0, 0, 0, 2.5, 0, 0, 0, 2.5
 197630916, 0, 0, 0, 2.5, 0, 0, 0, 2.5
 197830836, 0, 0, 0, 2.5, 0, 0, 0, 2.5
 198030756, 0, 0, 0, 2.5, 0, 0, 0, 2.5
 198230676, 0, 0, 0, 2.5, 0, 0, 0, 2.5
 198431429, 0, 0, 0, 2.5, 0, 0, 0, 2.5
 198631349, 0, 0, 0, 2.5, 0, 0, 0, 2.5
 198831269, 0, 0, 0, 2.5, 0, 0, 0, 2.5
 199031189, 0, 0, 0, 2.5, 0, 0, 0, 2.5
 199231109, 0, 0, 0, 2.5, 0, 0, 0, 2.5
 199431029, 0, 0, 0, 2.5, 0, 0, 0, 2.5
 199630949, 0, 0, 0, 2.5, 0, 0, 0, 2.5
 199830869, 0, 0, 0, 2.5, 0, 0, 0, 2.5
 200030789, 0, 0, 0, 2.5, 0, 0, 0, 2.5
 200230709, 0, 0, 0, 2.5, 0, 0, 0, 2.5
 200431462, 0, 0, 0, 2.5, 0, 0, 0, 2.5
 200631382, 0, 0, 0, 2.5, 0, 0, 0, 2.5
 200831302, 0, 0, 0, 2.5, 0, 0, 0, 2.5
 201031222, 0, 0, 0, 2.5, 0, 0, 0, 2.5
 201231142, 0, 0, 0, 2.5, 0, 0, 0, 2.5
 201431062, 0, 0, 0, 2.5, 0, 0, 0, 2.5
 201630982, 0, 0, 0, 2.5, 0, 0, 0, 2.5
 201830902, 0, 0, 0, 2.5, 0, 0, 0, 2.5
 202030822, 0, 0, 0, 2.5, 0, 0, 0, 2.5
 202230742, 0, 0, 0, 2.5, 0, 0, 0, 2.5
 202430662, 0, 0, 0, 2.5, 0, 0, 0, 2.5
 202631415, 0, 0, 0, 2.5, 0, 0, 0, 2.5
 202831335, 0, 0, 0, 2.5, 0, 0, 0, 2.5
 203031255, 0, 0, 0, 2.5, 0, 0, 0, 2.5
 203231175, 0, 0, 0, 2.5, 0, 0, 0, 2.5
 203431095, 0, 0, 0, 2.5, 0, 0, 0, 2.5
 203631015, 0, 0, 0, 2.5, 0, 0, 0, 2.5
 203830935, 0, 0, 0, 2.5, 0, 0, 0, 2.5
 204030855, 0, 0, 0, 2.5, 0, 0, 0, 2.5
 204230775, 0, 0, 0, 2.5, 0, 0, 0, 2.5
 204430695, 0, 0, 0, 2.5, 0, 0, 0, 2.5
 204631448, 0, 0, 0, 2.5, 0, 0, 0, 2.5
 204831368, 0, 0, 0, 2.5, 0, 0, 0, 2.5
 205031288, 0, 0, 0, 2.5, 0, 0, 0, 2.5
 205231208, 0, 0, 0, 2.5, 0, 0, 0, 2.5
 205431128, 0, 0, 0, 2.5, 0, 0, 0, 2.5
 205631048, 0, 0, 0, 2.5, 0, 0, 0, 2.5
 205830968, 0, 0, 0, 2.5, 0, 0, 0, 2.5
 206030888, 0, 0, 0, 2.5, 0, 0, 0, 2.5
 206230808, 0, 0, 0, 2.5, 0, 0, 0, 2.5
 206430728, 0, 0, 0, 2.5, 0, 0, 0, 2.5
 206631481, 0, 0, 0, 2.5, 0, 0, 0, 2.5
 206831401, 0, 0, 0, 2.5, 0, 0, 0, 2.5
 207031321, 0, 0, 0, 2.5, 0, 0, 0, 2.5
 207231241, 0, 0, 0, 2.5, 0, 0, 0, 2.5
 207431161, 0, 0, 0, 2.5, 0, 0, 0, 2.5
 207631081, 0, 0, 0, 2.5, 0, 0, 0, 2.5
 207831001, 0, 0, 0, 2.5, 0, 0, 0, 2.5
 208030921, 0, 0, 0, 2.5, 0, 0, 0, 2.5
 208230841, 0, 0, 0, 2.5, 0, 0, 0, 2.5
 208430761, 0, 0, 0, 2.5, 0, 0, 0, 2.5
 208630681, 0, 0, 0, 2.5, 0, 0, 0, 2.5
 208831434, 0, 0, 0, 2.5, 0, 0, 0, 2.5
 209031354, 0, 0, 0, 2.5, 0, 0, 0, 2.5
 209231274, 0, 0, 0, 2.5, 0, 0, 0, 2.5
 209431194, 0, 0, 0, 2.5, 0, 0, 0, 2.5
 209631114, 0, 0, 0, 2.5, 0, 0, 0, 2.5
 209831034, 0, 0, 0, 2.5, 0, 0, 0, 2.5
 210030954, 0, 0, 0, 2.5, 0, 0, 0, 2.5
 210230874, 0, 0, 0, 2.5, 0, 0, 0, 2.5
 210430794, 0, 0, 0, 2.5, 0, 0, 0, 2.5
 210630714, 0, 0, 0, 2.5, 0, 0, 0, 2.5
 210831467, 0, 0, 0, 2.5, 0, 0, 0, 2.5
 211031387, 0, 0, 0, 2.5, 0, 0, 0, 2.5
 211231307, 0, 0, 0, 2.5, 0, 0, 0, 2.5
 211431227, 0, 0, 0, 2.5, 0, 0, 0, 2.5
 211631147, 0, 0, 0, 2.5, 0, 0, 0, 2.5
 211831067, 0, 0, 0, 2.5, 0, 0, 0, 2.5
 212030987, 0, 0, 0, 2.5, 0, 0, 0, 2.5
 212230907, 0, 0, 0, 2.5, 0, 0, 0, 2.5
 212430827, 0, 0, 0, 2.5, 0, 0, 0, 2.5
 212630747, 0, 0, 0, 2.5, 0, 0, 0, 2.5
 212830667, 0, 0, 0, 2.5, 0, 0, 0, 2.5
 213031420, 0, 0, 0, 2.5, 0, 0, 0, 2.5
 213231340, 0, 0, 0, 2.5, 0, 0, 0, 2.5
 213431260, 0, 0, 0, 2.5, 0, 0, 0, 2.5
 213631180, 0, 0, 0, 2.5, 0, 0, 0, 2.5
 213831100, 0, 0, 0, 2.5, 0, 0, 0, 2.5
 214031020, 0, 0, 0, 2.5, 0, 0, 0, 2.5
 214230940, 0, 0, 0, 2.5, 0, 0, 0, 2.5
 214430860, 0, 0, 0, 2.5, 0, 0, 0, 2.5
 214630780, 0, 0, 0, 2.5, 0, 0, 0, 2.5
 214830700, 0, 0, 0, 2.5, 0, 0, 0, 2.5
 215031453, 0, 0, 0, 2.5, 0, 0, 0, 2.5
 215231373, 0, 0, 0, 2.5, 0, 0, 0, 2.5
 215431293, 0, 0, 0, 2.5, 0, 0, 0, 2.5
 215631213, 0, 0, 0, 2.5, 0, 0, 0, 2.5
 215831133, 0, 0, 0, 2.5, 0, 0, 0, 2.5
 216031053, 0, 0, 0, 2.5, 0, 0, 0, 2.5
 216230973, 0, 0, 0, 2.5, 0, 0, 0, 2.5
 216430893, 0, 0, 0, 2.5, 0, 0, 0, 2.5
 216630813, 0, 0, 0, 2.5, 0, 0, 0, 2.5
 216830733, 0, 0, 0, 2.5, 0, 0, 0, 2.5
 217031486, 0, 0, 0, 2.5, 0, 0, 0, 2.5
 217231406, 0, 0, 0, 2.5, 0, 0, 0, 2.5
 217431326, 0, 0, 0, 2.5, 0, 0, 0, 2.5
 217631246, 0, 0, 0, 2.5, 0, 0, 0, 2.5
 217831166, 0, 0, 0, 2.5, 0, 0, 0, 2.5
 218031086, 0, 0, 0, 2.5, 0, 0, 0, 2.5
 218231006, 0, 0, 0, 2.5, 0, 0, 0, 2.5
 218430926, 0, 0, 0, 2.5, 0, 0, 0, 2.5
 218630846, 0, 0, 0, 2.5, 0, 0, 0, 2.5
 218830766, 0, 0, 0, 2.5, 0, 0, 0, 2.5
 219030686, 0, 0, 0, 2.5, 0, 0, 0, 2.5
 219231439, 0, 0, 0, 2.5, 0, 0, 0, 2.5
 219431359, 0, 0, 0, 2.5, 0, 0, 0, 2.5
 219631279, 0, 0, 0, 2.5, 0, 0, 0, 2.5
 219831199, 0, 0, 0, 2.5, 0, 0, 0, 2.5
 220031119, 0, 0, 0, 2.5, 0, 0, 0, 2.5
 220231039, 0, 0, 0, 2.5, 0, 0, 0, 2.5
 220430959, 0, 0, 0, 2.5, 0, 0, 0, 2.5
 220630879, 0, 0, 0, 2.5, 0, 0, 0, 2.5
 220830799, 0, 0, 0, 2.5, 0, 0, 0, 2.5
 221030719, 0, 0, 0, 2.5, 0, 0, 0, 2.5
 221231472, 0, 0, 0, 2.5, 0, 0, 0, 2.5
 221431392, 0, 0, 0, 2.5, 0, 0, 0, 2.5
 221631312, 0, 0, 0, 2.5, 0, 0, 0, 2.5
 221831232, 0, 0, 0, 2.5, 0, 0, 0, 2.5
 222031152, 0, 0, 0, 2.5, 0, 0, 0, 2.5
 222231072, 0, 0, 0, 2.5, 0, 0, 0, 2.5
 222430992, 0, 0, 0, 2.5, 0, 0, 0, 2.5
 222630912, 0, 0, 0, 2.5, 0, 0, 0, 2.5
 222830832, 0, 0, 0, 2.5, 0, 0, 0, 2.5
 223030752, 0, 0, 0, 2.5, 0, 0, 0, 2.5
 223230672, 0, 0, 0, 2.5, 0, 0, 0, 2.5
 223431425, 0, 0, 0, 2.5, 0, 0, 0, 2.5
 223631345, 0, 0, 0, 2.5, 0, 0, 0, 2.5
 223831265, 0, 0, 0, 2.5, 0, 0, 0, 2.5
 224031185, 0, 0, 0, 2.5, 0, 0, 0, 2.5
 224231105, 0, 0, 0, 2.5, 0, 0, 0, 2.5
 224431025, 0, 0, 0, 2.5, 0, 0, 0, 2.5
 224630945, 0, 0, 0, 2.5, 0, 0, 0, 2.5
 224830865, 0, 0, 0, 2.5, 0, 0, 0, 2.5
 225030785, 0, 0, 0, 2.5, 0, 0, 0, 2.5
 225230705, 0, 0, 0, 2.5, 0, 0, 0, 2.5
 225431458, 0, 0, 0, 2.5, 0, 0, 0, 2.5
 225631378, 0, 0, 0, 2.5, 0, 0, 0, 2.5
 225831298, 0, 0, 0, 2.5, 0, 0, 0, 2.5
 226031218, 0, 0, 0, 2.5, 0, 0, 0, 2.5
 226231138, 0, 0, 0, 2.5, 0, 0, 0, 2.5
 226431058, 0, 0, 0, 2.5, 0, 0, 0, 2.5
 226630978, 0, 0, 0, 2.5, 0, 0, 0, 2.5
 226830898, 0, 0, 0, 2.5, 0, 0, 0, 2.5
 227030818, 0, 0, 0, 2.5, 0, 0, 0, 2.5
 227230738, 0, 0, 0, 2.5, 0, 0, 0, 2.5
 227430658, 0, 0, 0, 2.5, 0, 0, 0, 2.5
 227631411, 0, 0, 0, 2.5, 0, 0, 0, 2.5
 227831331, 0, 0, 0, 2.5, 0, 0, 0, 2.5
 228031251, 0, 0, 0, 2.5, 0, 0, 0, 2.5
 228231171, 0, 0, 0, 2.5, 0, 0, 0, 2.5
 228431091, 0, 0, 0, 2.5, 0, 0, 0, 2.5
 228631011, 0, 0, 0, 2.5, 0, 0, 0, 2.5
 228830931, 0, 0, 0, 2.5, 0, 0, 0, 2.5
 229030851, 0, 0, 0, 2.5, 0, 0, 0, 2.5
 229230771, 0, 0, 0, 2.5, 0, 0, 0, 2.5
 229430691, 0, 0, 0, 2.5, 0, 0, 0, 2.5
 229631444, 0, 0, 0, 2.5, 0, 0, 0, 2.5
 229831364, 0, 0, 0, 2.5, 0, 0, 0, 2.5
 230031284, 0, 0, 0, 2.5, 0, 0, 0, 2.5
 230231204, 0, 0, 0, 2.5, 0, 0, 0, 2.5
 230431124, 0, 0, 0, 2.5, 0, 0, 0, 2.5
 230631044, 0, 0, 0, 2.5, 0, 0, 0, 2.5
 230830964, 0, 0, 0, 2.5, 0, 0, 0, 2.5
 231030884, 0, 0, 0, 2.5, 0, 0, 0, 2.5
 231230804, 0, 0, 0, 2.5, 0, 0, 0, 2.5
 231430724, 0, 0, 0, 2.5, 0, 0, 0, 2.5
 231631477, 0, 0, 0, 2.5, 0, 0, 0, 2.5
 231831397, 0, 0, 0, 2.5, 0, 0, 0, 2.5
 232031317, 0, 0, 0, 2.5, 0, 0, 0, 2.5
 232231237, 0, 0, 0, 2.5, 0, 0, 0, 2.5
 232431157, 0, 0, 0, 2.5, 0, 0, 0, 2.5
 232631077, 0, 0, 0, 2.5, 0, 0, 0, 2.5
 232830997, 0, 0, 0, 2.5, 0, 0, 0, 2.5
 233030917, 0, 0, 0, 2.5, 0, 0, 0, 2.5
 233230837, 0, 0, 0, 2.5, 0, 0, 0, 2.5
 233430757, 0, 0, 0, 2.5, 0, 0, 0, 2.5
 233630677, 0, 0, 0, 2.5, 0, 0, 0, 2.5
 233831430, 0, 0, 0, 2.5, 0, 0, 0, 2.5
 234031350, 0, 0, 0, 2.5, 0, 0, 0, 2.5
 234231270, 0, 0, 0, 2.5, 0, 0, 0, 2.5
 234431190, 0, 0, 0, 2.5, 0, 0, 0, 2.5
 234631110, 0, 0, 0, 2.5, 0, 0, 0, 2.5
 234831030, 0, 0, 0, 2.5, 0, 0, 0, 2.5
 235030950, 0, 0, 0, 2.5, 0, 0, 0, 2.5
 235230870, 0, 0, 0, 2.5, 0, 0, 0, 2.5
 235430790, 0, 0, 0, 2.5, 0, 0, 0, 2.5
 235630710, 0, 0, 0, 2.5, 0, 0, 0, 2.5
 235831463, 0, 0, 0, 2.5, 0, 0, 0, 2.5
 236031383, 0, 0, 0, 2.5, 0, 0, 0, 2.5
 236231303, 0, 0, 0, 2.5, 0, 0, 0, 2.5
 236431223, 0, 0, 0, 2.5, 0, 0, 0, 2.5
 236631143, 0, 0, 0, 2.5, 0, 0, 0, 2.5
 236831063, 0, 0, 0, 2.5, 0, 0, 0, 2.5
 237030983, 0, 0, 0, 2.5, 0, 0, 0, 2.5
 237230903, 0, 0, 0, 2.5, 0, 0, 0, 2.5
 237430823, 0, 0, 0, 2.5, 0, 0, 0, 2.5
 237630743, 0, 0, 0, 2.5, 0, 0, 0, 2.5
 237830663, 0, 0, 0, 2.5, 0, 0, 0, 2.5
 238031416, 0, 0, 0, 2.5, 0, 0, 0, 2.5
 238231336, 0, 0, 0, 2.5, 0, 0, 0, 2.5
 238431256, 0, 0, 0, 2.5, 0, 0, 0, 2.5
 238631176, 0, 0, 0, 2.5, 0, 0, 0, 2.5
 238831096, 0, 0, 0, 2.5, 0, 0, 0, 2.5
 239031016, 0, 0, 0, 2.5, 0, 0, 0, 2.5
 239230936, 0, 0, 0, 2.5, 0, 0, 0, 2.5
 239430856, 0, 0, 0, 2.5, 0, 0, 0, 2.5
 239630776, 0, 0, 0, 2.5, 0, 0, 0, 2.5
 239830696, 0, 0, 0, 2.5, 0, 0, 0, 2.5
 240031449, 0, 0, 0, 2.5, 0, 0, 0, 2.5
 240231369, 0, 0, 0, 2.5, 0, 0, 0, 2.5
 240431289, 0, 0, 0, 2.5, 0, 0, 0, 2.5
 240631209, 0, 0, 0, 2.5, 0, 0, 0, 2.5
 240831129, 0, 0, 0, 2.5, 0, 0, 0, 2.5
 241031049, 0, 0, 0, 2.5, 0, 0, 0, 2.5
 241230969, 0, 0, 0, 2.5, 0, 0, 0, 2.5
 241430889, 0, 0, 0, 2.5, 0, 0, 0, 2.5
 241630809, 0, 0, 0, 2.5, 0, 0, 0, 2.5
 241830729, 0, 0, 0, 2.5, 0, 0, 0, 2.5
 242031482, 0, 0, 0, 2.5, 0, 0, 0, 2.5
 242231402, 0, 0, 0, 2.5, 0, 0, 0, 2.5
 242431322, 0, 0, 0, 2.5, 0, 0, 0, 2.5
 242631242, 0, 0, 0, 2.5, 0, 0, 0, 2.5
 242831162, 0, 0, 0, 2.5, 0, 0, 0, 2.5
 243031082, 0, 0, 0, 2.5, 0, 0, 0, 2.5
 243231002, 0, 0, 0, 2.5, 0, 0, 0, 2.5
 243430922, 0, 0, 0, 2.5, 0, 0, 0, 2.5
 243630842, 0, 0, 0, 2.5, 0, 0, 0, 2.5
 243830762, 0, 0, 0, 2.5, 0, 0, 0, 2.5
 244030682, 0, 0, 0, 2.5, 0, 0, 0, 2.5
 244231435, 0, 0, 0, 2.5, 0, 0, 0, 2.5
 244431355, 0, 0, 0, 2.5, 0, 0, 0, 2.5
 244631275, 0, 0, 0, 2.5, 0, 0, 0, 2.5
 244831195, 0, 0, 0, 2.5, 0, 0, 0, 2.5
 245031115, 0, 0, 0, 2.5, 0, 0, 0, 2.5
 245231035, 0, 0, 0, 2.5, 0, 0, 0, 2.5
 245430955, 0, 0, 0, 2.5, 0, 0, 0, 2.5
 245630875, 0, 0, 0, 2.5, 0, 0, 0, 2.5
 245830795, 0, 0, 0, 2.5, 0, 0, 0, 2.5
 246030715, 0, 0, 0, 2.5, 0, 0, 0, 2.5
 246231468, 0, 0, 0, 2.5, 0, 0, 0, 2.5
 246431388, 0, 0, 0, 2.5, 0, 0, 0, 2.5
 246631308, 0, 0, 0, 2.5, 0, 0, 0, 2.5
 246831228, 0, 0, 0, 2.5, 0, 0, 0, 2.5
 247031148, 0, 0, -0.259, 2.5, 0, 0, 0, 2.5
 247231068, 0, 0, -0.281, 2.5, 0, 0, -0.259, 2.5
 247430988, 0, 0, -0.184, 2.5, 0, 0, -0.281, 2.5
 247630908, -0.003, -0.003, -1.334, 2.5, 0, 0, -0.184, 2.5
 247830828, -0.016, -0.017, -2.058, 2.5, -0.003, -0.003, -1.334, 2.5
 248030748, -0.032, -0.036, -2.184, 2.5, -0.016, -0.017, -2.058, 2.5
 248230668, -0.048, -0.053, -2.393, 2.5, -0.032, -0.036, -2.184, 2.5
 248431421, -0.062, -0.068, -2.634, 2.5, -0.048, -0.053, -2.393, 2.5
 248631341, -0.074, -0.079, -2.826, 2.5, -0.062, -0.068, -2.634, 2.5
 248831261, -0.085, -0.087, -2.988, 2.5, -0.074, -0.079, -2.826, 2.5
 249031181, -0.094, -0.093, -3.133, 2.5, -0.085, -0.087, -2.988, 2.5
 249231101, -0.102, -0.09900001, -3.262, 2.5, -0.094, -0.093, -3.133, 2.5
 249431021, -0.107, -0.103, -3.374, 2.5, -0.102, -0.09900001, -3.262, 2.5
 249630941, -0.11, -0.107, -3.473, 2.5, -0.107, -0.103, -3.374, 2.5
 249830861, -0.113, -0.111, -3.558, 2.5, -0.11, -0.107, -3.473, 2.5
 250030781, -0.115, -0.114, -3.634, 2.5, -0.113, -0.111, -3.558, 2.5
 250230701, -0.117, -0.117, -3.701, 2.5, -0.115, -0.114, -3.634, 2.5
 250431454, -0.119, -0.119, -3.76, 2.5, -0.117, -0.117, -3.701, 2.5
 250631374, -0.121, -0.121, -3.811, 2.5, -0.119, -0.119, -3.76, 2.5
 250831294, -0.124, -0.124, -3.856, 2.5, -0.121, -0.121, -3.811, 2.5
 251031214, -0.127, -0.127, -3.896, 2.5, -0.124, -0.124, -3.856, 2.5
 251231134, -0.129, -0.13, -3.931, 2.5, -0.127, -0.127, -3.896, 2.5
 251431054, -0.131, -0.134, -3.961, 2.5, -0.129, -0.13, -3.931, 2.5
 251630974, -0.133, -0.137, -3.988, 2.5, -0.131, -0.134, -3.961, 2.5
 251830894, -0.133, -0.141, -4.012, 2.5, -0.133, -0.137, -3.988, 2.5
 252030814, -0.134, -0.145, -4.032, 2.5, -0.133, -0.141, -4.012, 2.5
 252230734, -0.133, -0.148, -4.05, 2.5, -0.134, -0.145, -4.032, 2.5
 252430654, -0.133, -0.151, -4.066, 2.5, -0.133, -0.148, -4.05, 2.5
 252631407, -0.132, -0.153, -4.079, 2.5, -0.133, -0.151, -4.066, 2.5
 252831327, -0.131, -0.154, -4.091, 2.5, -0.132, -0.153, -4.079, 2.5
 253031247, -0.13, -0.153, -4.102, 2.5, -0.131, -0.154, -4.091, 2.5
 253231167, -0.129, -0.152, -4.112, 2.5, -0.13, -0.153, -4.102, 2.5
 253431087, -0.129, -0.15, -4.12, 2.5, -0.129, -0.152, -4.112, 2.5
 253631007, -0.128, -0.148, -4.128, 2.5, -0.129, -0.15, -4.12, 2.5
 253830927, -0.128, -0.145, -4.134, 2.5, -0.128, -0.148, -4.128, 2.5
 254030847, -0.128, -0.142, -4.14, 2.5, -0.128, -0.145, -4.134, 2.5
 254230767, -0.127, -0.138, -4.021, 2.5, -0.128, -0.142, -4.14, 2.5
 254430687, -0.123, -0.131, -3.389, 2.5, -0.127, -0.138, -4.021, 2.5
 254631440, -0.12, -0.124, -2.824, 2.5, -0.123, -0.131, -3.389, 2.5
 254831360, -0.117, -0.119, -2.329, 2.5, -0.12, -0.124, -2.824, 2.5
 255031280, -0.114, -0.114, -1.893, 2.5, -0.117, -0.119, -2.329, 2.5
 255231200, -0.112, -0.11, -1.511, 2.5, -0.114, -0.114, -1.893, 2.5
 255431120, -0.11, -0.107, -1.194, 2.5, -0.112, -0.11, -1.511, 2.5
 255631040, -0.112, -0.104, -0.9530001, 2.5, -0.11, -0.107, -1.194, 2.5
 255830960, -0.127, -0.106, -0.742, 2.5, -0.112, -0.104, -0.9530001, 2.5
 256030880, -0.132, -0.118, -0.567, 2.5, -0.127, -0.106, -0.742, 2.5
 256230800, -0.09500001, -0.121, -0.427, 2.5, -0.132, -0.118, -0.567, 2.5
 256430720, -0.039, -0.105, -0.32, 2.5, -0.09500001, -0.121, -0.427, 2.5
 256631473, 0.014, -0.096, -0.237, 2.5, -0.039, -0.105, -0.32, 2.5
 256831393, 0.072, -0.118, -0.176, 2.5, 0.014, -0.096, -0.237, 2.5
 257031313, 0.127, -0.125, -0.13, 2.5, 0.072, -0.118, -0.176, 2.5
 257231233, 0.161, -0.07700001, -0.097, 2.5, 0.127, -0.125, -0.13, 2.5
 257431153, 0.18, -0.006, -0.071, 2.5, 0.161, -0.07700001, -0.097, 2.5
 257631073, 0.221, 0.051, -0.052, 2.5, 0.18, -0.006, -0.071, 2.5
 257830993, 0.296, 0.094, -0.037, 2.5, 0.221, 0.051, -0.052, 2.5
 258030913, 0.368, 0.138, -0.025, 2.5, 0.296, 0.094, -0.037, 2.5
 258230833, 0.386, 0.14, -0.016, 2.5, 0.368, 0.138, -0.025, 2.5
 258430753, 0.333, 0.103, -0.006, 2.5, 0.386, 0.14, -0.016, 2.5
 258630673, 0.238, 0.062, 0.001, 2.5, 0.333, 0.103, -0.006, 2.5
 258831426, 0.145, 0.044, 0.008, 2.5, 0.238, 0.062, 0.001, 2.5
 259031346, 0.09, 0.043, 0.012, 2.5, 0.145, 0.044, 0.008, 2.5
 259231266, 0.068, 0.04, 0.015, 2.5, 0.09, 0.043, 0.012, 2.5
 259431186, 0.025, 0.03, 0.017, 2.5, 0.068, 0.04, 0.015, 2.5
 259631106, -0.05, 0.018, 0.019, 2.5, 0.025, 0.03, 0.017, 2.5
 259831026, -0.096, -0.007, 0.02, 2.5, -0.05, 0.018, 0.019, 2.5
 260030946, -0.104, -0.061, 0.02, 2.5, -0.096, -0.007, 0.02, 2.5
 260230866, -0.109, -0.108, 0.019, 2.5, -0.104, -0.061, 0.02, 2.5
 260430786, -0.117, -0.116, 0.018, 2.5, -0.109, -0.108, 0.019, 2.5
 260630706, -0.116, -0.102, 0.016, 2.5, -0.117, -0.116, 0.018, 2.5
 260831459, -0.118, -0.085, 0.015, 2.5, -0.116, -0.102, 0.016, 2.5
 261031379, -0.144, -0.05, 0.013, 2.5, -0.118, -0.085, 0.015, 2.5
 261231299, -0.162, -0.016, 0.012, 2.5, -0.144, -0.05, 0.013, 2.5
 261431219, -0.142, -0.016, 0.01, 2.5, -0.162, -0.016, 0.012, 2.5
 261631139, -0.105, -0.044, 0.009000001, 2.5, -0.142, -0.016, 0.01, 2.5
 261831059, -0.096, -0.07300001, 0.008, 2.5, -0.105, -0.044, 0.009000001, 2.5
 262030979, 0, 0.0125, 0.007, 2.5, -0.096, -0.07300001, 0.008, 2.5
 262230899, 0, 0.0125, 0.007, 2.5, 0, 0.0125, 0.007, 2.5
 262430819, 0, 0.0125, 0.006, 2.5, 0, 0.0125, 0.007, 2.5
 262630739, 0, 0.0125, 0.005, 2.5, 0, 0.0125, 0.006, 2.5
 262830659, 0, 0.0125, 0.003, 2.5, 0, 0.0125, 0.005, 2.5
 263031412, 0, 0.0125, 0.002, 2.5, 0, 0.0125, 0.003, 2.5
 263231332, 0, 0.0125, 0.002, 2.5, 0, 0.0125, 0.002, 2.5
 263431252, 0, 0.0125, 0.001, 2.5, 0, 0.0125, 0.002, 2.5
 263631172, 0, 0.0125, 0, 2.5, 0, 0.0125, 0.001, 2.5
 263831092, 0, 0.0125, 0, 2.5, 0, 0.0125, 0, 2.5
 264031012, 0, 0.0125, -0.001, 2.5, 0, 0.0125, 0, 2.5
 264230932, 0, 0.0125, -0.001, 2.5, 0, 0.0125, -0.001, 2.5
 264430852, 0, 0.0125, -0.001, 2.5, 0, 0.0125, -0.001, 2.5
 264630772, 0, 0.0125, -0.001, 2.5, 0, 0.0125, -0.001, 2.5
 264830692, 0, 0.0125, 0, 2.5, 0, 0.0125, -0.001, 2.5
 265031445, 0, 0.0125, 0, 2.5, 0, 0.0125, 0, 2.5
 265231365, 0, 0.0125, 0, 2.5, 0, 0.0125, 0, 2.5
 265431285, 0, 0.0125, 0.001, 2.5, 0, 0.0125, 0, 2.5
 265631205, 0, 0.0125, 0.004, 2.5, 0, 0.0125, 0.001, 2.5
 265831125, 0, 0.0125, 0.007, 2.5, 0, 0.0125, 0.004, 2.5
 266031045, 0, 0.0125, 0.009000001, 2.5, 0, 0.0125, 0.007, 2.5
 266230965, 0, 0.0125, 0.012, 2.5, 0, 0.0125, 0.009000001, 2.5
 266430885, 0, 0.0125, 0.015, 2.5, 0, 0.0125, 0.012, 2.5
 266630805, 0, 0.0125, 0.019, 2.5, 0, 0.0125, 0.015, 2.5
 266830725, 0, 0.0125, 0.023, 2.5, 0, 0.0125, 0.019, 2.5
 267031478, 0, 0.0125, 0.027, 2.5, 0, 0.0125, 0.023, 2.5
 267231398, 0, 0.0125, 0.031, 2.5, 0, 0.0125, 0.027, 2.5
 267431318, 0, 0.0125, 0.035, 2.5, 0, 0.0125, 0.031, 2.5
 267631238, 0, 0.0125, 0.04, 2.5, 0, 0.0125, 0.035, 2.5
 267831158, 0, 0.0125, 0.045, 2.5, 0, 0.0125, 0.04, 2.5
 268031078, 0, 0.0125, 0.05, 2.5, 0, 0.0125, 0.045, 2.5
 268230998, 0, 0.0125, 0.055, 2.5, 0, 0.0125, 0.05, 2.5
 268430918, 0, 0.0125, 0.061, 2.5, 0, 0.0125, 0.055, 2.5
 268630838, 0, 0.0125, 0.066, 2.5, 0, 0.0125, 0.061, 2.5
 268830758, 0, 0.0125, 0.072, 2.5, 0, 0.0125, 0.066, 2.5
 269030678, 0, 0.0125, 0.078, 2.5, 0, 0.0125, 0.072, 2.5
 269231431, 0, 0.0125, 0.08400001, 2.5, 0, 0.0125, 0.078, 2.5
 269431351, 0, 0.0125, 0.09100001, 2.5, 0, 0.0125, 0.08400001, 2.5
 269631271, 0, 0.0125, 0.097, 2.5, 0, 0.0125, 0.09100001, 2.5
 269831191, 0, 0.0125, 0.104, 2.5, 0, 0.0125, 0.097, 2.5
 270031111, 0, 0.0125, 0.11, 2.5, 0, 0.0125, 0.104, 2.5
 270231031, 0, 0.0125, 0.117, 2.5, 0, 0.0125, 0.11, 2.5
 270430951, 0, 0.0125, 0.123, 2.5, 0, 0.0125, 0.117, 2.5
 270630871, 0, 0.0125, 0.13, 2.5, 0, 0.0125, 0.123, 2.5
 270830791, 0, 0.0125, 0.137, 2.5, 0, 0.0125, 0.13, 2.5
 271030711, 0, 0.0125, 0.144, 2.5, 0, 0.0125, 0.137, 2.5
 271231464, 0, 0.0125, 0.15, 2.5, 0, 0.0125, 0.144, 2.5
 271431384, 0, 0.0125, 0.156, 2.5, 0, 0.0125, 0.15, 2.5
 271631304, 0, 0.0125, 0.163, 2.5, 0, 0.0125, 0.156, 2.5
 271831224, 0, 0.0125, 0.169, 2.5, 0, 0.0125, 0.163, 2.5
 272031144, 0, 0.0125, 0.176, 2.5, 0, 0.0125, 0.169, 2.5
 272231064, 0, 0.0125, 0.183, 2.5, 0, 0.0125, 0.176, 2.5
 272430984, 0, 0.0125, 0.19, 2.5, 0, 0.0125, 0.183, 2.5
 272630904, 0, 0.0125, 0.198, 2.5, 0, 0.0125, 0.19, 2.5
 272830824, 0, 0.0125, 0.206, 2.5, 0, 0.0125, 0.198, 2.5
 273030744, 0, 0.0125, 0.214, 2.5, 0, 0.0125, 0.206, 2.5
 273230664, 0, 0.0125, 0.224, 2.5, 0, 0.0125, 0.214, 2.5
 273431417, 0, 0.0125, 0.233, 2.5, 0, 0.0125, 0.224, 2.5
 273631337, 0, 0.0125, 0.243, 2.5, 0, 0.0125, 0.233, 2.5
 273831257, 0, 0.0125, 0.253, 2.5, 0, 0.0125, 0.243, 2.5
 274031177, 0, 0.0125, 0.264, 2.5, 0, 0.0125, 0.253, 2.5
 274231097, 0, 0.0125, 0.274, 2.5, 0, 0.0125, 0.264, 2.5
 274431017, 0, 0.0125, 0.286, 2.5, 0, 0.0125, 0.274, 2.5
 274630937, 0, 0.0125, 0.297, 2.5, 0, 0.0125, 0.286, 2.5
 274830857, 0, 0.0125, 0.309, 2.5, 0, 0.0125, 0.297, 2.5
 275030777, 0, 0.0125, 0.321, 2.5, 0, 0.0125, 0.309, 2.5
 275230697, 0, 0.0125, 0.32, 2.5, 0, 0.0125, 0.321, 2.5
 275431450, 0, 0.0125, 0.292, 2.5, 0, 0.0125, 0.32, 2.5
 275631370, 0, 0.0125, 0.246, 2.5, 0, 0.0125, 0.292, 2.5
 275831290, 0, 0.0125, 0.192, 2.5, 0, 0.0125, 0.246, 2.5
 276031210, 0, 0.0125, 0.133, 2.5, 0, 0.0125, 0.192, 2.5
 276231130, 0, 0.0125, 0.07, 2.5, 0, 0.0125, 0.133, 2.5
 276431050, 0, 0.0125, 0.001, 2.5, 0, 0.0125, 0.07, 2.5
 276630970, 0, 0.0125, -0.071, 2.5, 0, 0.0125, 0.001, 2.5
 276830890, 0, 0.0125, -0.149, 2.5, 0, 0.0125, -0.071, 2.5
 277030810, 0, 0.0125, -0.225, 2.5, 0, 0.0125, -0.149, 2.5
 277230730, 0, 0.0125, -0.296, 2.5, 0, 0.0125, -0.225, 2.5
 277431483, 0, 0.0125, -0.357, 2.5, 0, 0.0125, -0.296, 2.5
 277631403, 0, 0.0125, -0.405, 2.5, 0, 0.0125, -0.357, 2.5
 277831323, 0, 0.0125, -0.436, 2.5, 0, 0.0125, -0.405, 2.5
 278031243, 0, 0.0125, -0.451, 2.5, 0, 0.0125, -0.436, 2.5
 278231163, 0, 0.0125, -0.447, 2.5, 0, 0.0125, -0.451, 2.5
 278431083, 0, 0.0125, -0.428, 2.5, 0, 0.0125, -0.447, 2.5
 278631003, 0, 0.0125, -0.395, 2.5, 0, 0.0125, -0.428, 2.5
 278830923, 0, 0.0125, -0.351, 2.5, 0, 0.0125, -0.395, 2.5
 279030843, 0, 0.0125, -0.299, 2.5, 0, 0.0125, -0.351, 2.5
 279230763, 0, 0.0125, -0.244, 2.5, 0, 0.0125, -0.299, 2.5
 279430683, 0, 0.0125, -0.188, 2.5, 0, 0.0125, -0.244, 2.5
 279631436, 0, 0.0125, -0.136, 2.5, 0, 0.0125, -0.188, 2.5
 279831356, 0, 0.0125, -0.089, 2.5, 0, 0.0125, -0.136, 2.5
 280031276, 0, 0.0125, -0.048, 2.5, 0, 0.0125, -0.089, 2.5
 280231196, 0, 0.0125, -0.017, 2.5, 0, 0.0125, -0.048, 2.5
 280431116, 0, 0.0125, 0.006, 2.5, 0, 0.0125, -0.017, 2.5
 280631036, 0, 0.0125, 0.023, 2.5, 0, 0.0125, 0.006, 2.5
 280830956, 0, 0.0125, 0.032, 2.5, 0, 0.0125, 0.023, 2.5
 281030876, 0, 0.0125, 0.034, 2.5, 0, 0.0125, 0.032, 2.5
 281230796, 0, 0.0125, 0.027, 2.5, 0, 0.0125, 0.034, 2.5
 281430716, 0, 0.0125, 0.018, 2.5, 0, 0.0125, 0.027, 2.5
 281631469, 0, 0.0125, 0.006, 2.5, 0, 0.0125, 0.018, 2.5
 281831389, 0, 0.0125, -0.005, 2.5, 0, 0.0125, 0.006, 2.5
 282031309, 0, 0.0125, -0.016, 2.5, 0, 0.0125, -0.005, 2.5
 282231229, 0, 0.0125, -0.027, 2.5, 0, 0.0125, -0.016, 2.5
 282431149, 0, 0.0125, -0.036, 2.5, 0, 0.0125, -0.027, 2.5
 282631069, 0, 0.0125, -0.044, 2.5, 0, 0.0125, -0.036, 2.5
 282830989, 0, 0.0125, -0.05, 2.5, 0, 0.0125, -0.044, 2.5
 283030909, 0, 0.0125, -0.054, 2.5, 0, 0.0125, -0.05, 2.5
 283230829, 0, 0.0125, -0.057, 2.5, 0, 0.0125, -0.054, 2.5
 283430749, 0, 0.0125, -0.059, 2.5, 0, 0.0125, -0.057, 2.5
 283630669, 0, 0.0125, -0.059, 2.5, 0, 0.0125, -0.059, 2.5
 283831422, 0, 0.0125, -0.058, 2.5, 0, 0.0125, -0.059, 2.5
 284031342, 0, 0.0125, -0.057, 2.5, 0, 0.0125, -0.058, 2.5
 284231262, 0, 0.0125, -0.055, 2.5, 0, 0.0125, -0.057, 2.5
 284431182, 0, 0.0125, -0.053, 2.5, 0, 0.0125, -0.055, 2.5
 284631102, 0, 0.0125, -0.052, 2.5, 0, 0.0125, -0.053, 2.5
 284831022, 0, 0.0125, -0.049, 2.5, 0, 0.0125, -0.052, 2.5
 285030942, 0, 0.0125, -0.048, 2.5, 0, 0.0125, -0.049, 2.5
 285230862, 0, 0.0125, -0.046, 2.5, 0, 0.0125, -0.048, 2.5
 285430782, 0, 0.0125, -0.045, 2.5, 0, 0.0125, -0.046, 2.5
 285630702, 0, 0.0125, -0.044, 2.5, 0, 0.0125, -0.045, 2.5
 285831455, 0, 0.0125, -0.043, 2.5, 0, 0.0125, -0.044, 2.5
 286031375, 0, 0.0125, -0.042, 2.5, 0, 0.0125, -0.043, 2.5
 286231295, 0, 0.0125, -0.042, 2.5, 0, 0.0125, -0.042, 2.5
 286431215, 0, 0.0125, -0.042, 2.5, 0, 0.0125, -0.042, 2.5
 286631135, 0, 0.0125, -0.043, 2.5, 0, 0.0125, -0.042, 2.5
 286831055, 0, 0.0125, -0.043, 2.5, 0, 0.0125, -0.043, 2.5
 287030975, 0, 0.0125, -0.044, 2.5, 0, 0.0125, -0.043, 2.5
 287230895, 0, 0.0125, -0.045, 2.5, 0, 0.0125, -0.044, 2.5
 287430815, 0, 0.0125, -0.047, 2.5, 0, 0.0125, -0.045, 2.5
 287630735, 0, 0.0125, -0.047, 2.5, 0, 0.0125, -0.047, 2.5
 287830655, 0, 0.0125, -0.049, 2.5, 0, 0.0125, -0.047, 2.5
 288031408, 0, 0.0125, -0.05, 2.5, 0, 0.0125, -0.049, 2.5
 288231328, 0, 0.0125, -0.052, 2.5, 0, 0.0125, -0.05, 2.5
 288431248, 0, 0.0125, -0.053, 2.5, 0, 0.0125, -0.052, 2.5
 288631168, 0, 0.0125, -0.054, 2.5, 0, 0.0125, -0.053, 2.5
 288831088, 0, 0.0125, -0.055, 2.5, 0, 0.0125, -0.054, 2.5
 289031008, 0, 0.0125, -0.055, 2.5, 0, 0.0125, -0.055, 2.5
 289230928, 0, 0.0125, -0.055, 2.5, 0, 0.0125, -0.055, 2.5
 289430848, 0, 0.0125, -0.054, 2.5, 0, 0.0125, -0.055, 2.5
 289630768, 0, 0.0125, -0.054, 2.5, 0, 0.0125, -0.054, 2.5
 289830688, 0, 0.0125, -0.054, 2.5, 0, 0.0125, -0.054, 2.5
 290031441, 0, 0.0125, -0.053, 2.5, 0, 0.0125, -0.054, 2.5
 290231361, 0, 0.0125, -0.052, 2.5, 0, 0.0125, -0.053, 2.5
 290431281, 0, 0.0125, -0.052, 2.5, 0, 0.0125, -0.052, 2.5
 290631201, 0, 0.0125, -0.054, 2.5, 0, 0.0125, -0.052, 2.5
 290831121, 0, 0.0125, -0.057, 2.5, 0, 0.0125, -0.054, 2.5
 291031041, 0, 0.0125, -0.06, 2.5, 0, 0.0125, -0.057, 2.5
 291230961, 0, 0.0125, -0.063, 2.5, 0, 0.0125, -0.06, 2.5
 291430881, 0, 0.0125, -0.06500001, 2.5, 0, 0.0125, -0.063, 2.5
 291630801, 0, 0.0125, -0.066, 2.5, 0, 0.0125, -0.06500001, 2.5
 291830721, 0, 0.0125, -0.066, 2.5, 0, 0.0125, -0.066, 2.5
 292031474, 0, 0.0125, -0.06500001, 2.5, 0, 0.0125, -0.066, 2.5
 292231394, 0, 0.0125, -0.063, 2.5, 0, 0.0125, -0.06500001, 2.5
 292431314, 0, 0.0125, -0.06, 2.5, 0, 0.0125, -0.063, 2.5
 292631234, 0, 0.0125, -0.058, 2.5, 0, 0.0125, -0.06, 2.5
 292831154, 0, 0.0125, -0.055, 2.5, 0, 0.0125, -0.058, 2.5
 293031074, 0, 0.0125, -0.053, 2.5, 0, 0.0125, -0.055, 2.5
 293230994, 0, 0.0125, -0.051, 2.5, 0, 0.0125, -0.053, 2.5
 293430914, 0, 0.0125, -0.048, 2.5, 0, 0.0125, -0.051, 2.5
 293630834, 0, 0.0125, -0.046, 2.5, 0, 0.0125, -0.048, 2.5
 293830754, 0, 0.0125, -0.043, 2.5, 0, 0.0125, -0.046, 2.5
 294030674, 0, 0.0125, -0.041, 2.5, 0, 0.0125, -0.043, 2.5
 294231427, 0, 0.0125, -0.038, 2.5, 0, 0.0125, -0.041, 2.5
 294431347, 0, 0.0125, -0.036, 2.5, 0, 0.0125, -0.038, 2.5
 294631267, 0, 0.0125, -0.034, 2.5, 0, 0.0125, -0.036, 2.5
 294831187, 0, 0.0125, -0.032, 2.5, 0, 0.0125, -0.034, 2.5
 295031107, 0, 0.0125, -0.03, 2.5, 0, 0.0125, -0.032, 2.5
 295231027, 0, 0.0125, -0.028, 2.5, 0, 0.0125, -0.03, 2.5
 295430947, 0, 0.0125, -0.026, 2.5, 0, 0.0125, -0.028, 2.5
 295630867, 0, 0.0125, -0.025, 2.5, 0, 0.0125, -0.026, 2.5
 295830787, 0, 0.0125, -0.024, 2.5, 0, 0.0125, -0.025, 2.5
 296030707, 0, 0.0125, -0.023, 2.5, 0, 0.0125, -0.024, 2.5
 296231460, 0, 0.0125, -0.022, 2.5, 0, 0.0125, -0.023, 2.5
 296431380, 0, 0.0125, -0.022, 2.5, 0, 0.0125, -0.022, 2.5
 296631300, 0, 0.0125, -0.021, 2.5, 0, 0.0125, -0.022, 2.5
 296831220, 0, 0.0125, -0.02, 2.5, 0, 0.0125, -0.021, 2.5
 297031140, 0, 0.0125, -0.019, 2.5, 0, 0.0125, -0.02, 2.5
 297231060, 0, 0.0125, -0.018, 2.5, 0, 0.0125, -0.019, 2.5
 297430980, 0, 0.0125, -0.016, 2.5, 0, 0.0125, -0.018, 2.5
 297630900, 0, 0.0125, -0.012, 2.5, 0, 0.0125, -0.016, 2.5
 297830820, 0, 0.0125, -0.007, 2.5, 0, 0.0125, -0.012, 2.5
 298030740, 0, 0.0125, -0.002, 2.5, 0, 0.0125, -0.007, 2.5
 298230660, 0, 0.0125, 0.001, 2.5, 0, 0.0125, -0.002, 2.5
 298431413, 0, 0.0125, 0.006, 2.5, 0, 0.0125, 0.001, 2.5
 298631333, 0, 0.0125, 0.009000001, 2.5, 0, 0.0125, 0.006, 2.5
 298831253, 0, 0.0125, 0.011, 2.5, 0, 0.0125, 0.009000001, 2.5
 299031173, 0, 0.0125, 0.012, 2.5, 0, 0.0125, 0.011, 2.5
 299231093, 0, 0.0125, 0.013, 2.5, 0, 0.0125, 0.012, 2.5
 299431013, 0, 0.0125, 0.014, 2.5, 0, 0.0125, 0.013, 2.5
 299630933, 0, 0.0125, 0.014, 2.5, 0, 0.0125, 0.014, 2.5
 299830853, 0, 0.0125, 0.013, 2.5, 0, 0.0125, 0.014, 2.5
 300030773, 0, 0.0125, 0.013, 2.5, 0, 0.0125, 0.013, 2.5
 300230693, 0, 0.0125, 0.012, 2.5, 0, 0.0125, 0.013, 2.5
 300431446, 0, 0.0125, 0.012, 2.5, 0, 0.0125, 0.012, 2.5
 300631366, 0, 0.0125, 0.012, 2.5, 0, 0.0125, 0.012, 2.5
 300831286, 0, 0.0125, 0.011, 2.5, 0, 0.0125, 0.012, 2.5
 301031206, 0, 0.0125, 0.011, 2.5, 0, 0.0125, 0.011, 2.5
 301231126, 0, 0.0125, 0.01, 2.5, 0, 0.0125, 0.011, 2.5
 301431046, 0, 0.0125, 0.009000001, 2.5, 0, 0.0125, 0.01, 2.5
 301630966, 0, 0.0125, 0.009000001, 2.5, 0, 0.0125, 0.009000001, 2.5
 301830886, 0, 0.0125, 0.009000001, 2.5, 0, 0.0125, 0.009000001, 2.5
 302030806, 0, 0.0125, 0.008, 2.5, 0, 0.0125, 0.009000001, 2.5
 302230726, 0, 0.0125, 0.008, 2.5, 0, 0.0125, 0.008, 2.5
 302431479, 0, 0.0125, 0.008, 2.5, 0, 0.0125, 0.008, 2.5
 302631399, 0, 0.0125, 0.007, 2.5, 0, 0.0125, 0.008, 2.5
 302831319, 0, 0.0125, 0.008, 2.5, 0, 0.0125, 0.007, 2.5
 303031239, 0, 0.0125, 0.007, 2.5, 0, 0.0125, 0.008, 2.5
 303231159, 0, 0.0125, 0.008, 2.5, 0, 0.0125, 0.007, 2.5
 303431079, 0, 0.0125, 0.007, 2.5, 0, 0.0125, 0.008, 2.5
 303630999, 0, 0.0125, 0.007, 2.5, 0, 0.0125, 0.007, 2.5
 303830919, 0, 0.0125, 0.008, 2.5, 0, 0.0125, 0.007, 2.5
 304030839, 0, 0.0125, 0.007, 2.5, 0, 0.0125, 0.008, 2.5
 304230759, 0, 0.0125, 0.006, 2.5, 0, 0.0125, 0.007, 2.5
 304430679, 0, 0.0125, 0.007, 2.5, 0, 0.0125, 0.006, 2.5
 304631432, 0, 0.0125, 0.007, 2.5, 0, 0.0125, 0.007, 2.5
 304831352, 0, 0.0125, 0.006, 2.5, 0, 0.0125, 0.007, 2.5
 305031272, 0, 0.0125, 0.006, 2.5, 0, 0.0125, 0.006, 2.5
 305231192, 0, 0.0125, 0.006, 2.5, 0, 0.0125, 0.006, 2.5
 305431112, 0, 0.0125, 0.006, 2.5, 0, 0.0125, 0.006, 2.5
 305631032, 0, 0.0125, 0.006, 2.5, 0, 0.0125, 0.006, 2.5
 305830952, 0, 0.0125, 0.006, 2.5, 0, 0.0125, 0.006, 2.5
 306030872, 0, 0.0125, 0.006, 2.5, 0, 0.0125, 0.006, 2.5
 306230792, 0, 0.0125, 0.006, 2.5, 0, 0.0125, 0.006, 2.5
 306430712, 0, 0.0125, 0.006, 2.5, 0, 0.0125, 0.006, 2.5
 306631465, 0, 0.0125, 0.005, 2.5, 0, 0.0125, 0.006, 2.5
 306831385, 0, 0.0125, 0.005, 2.5, 0, 0.0125, 0.005, 2.5
 307031305, 0, 0.0125, 0.005, 2.5, 0, 0.0125, 0.005, 2.5
 307231225, 0, 0.0125, 0.004, 2.5, 0, 0.0125, 0.005, 2.5
 307431145, 0, 0.0125, 0.004, 2.5, 0, 0.0125, 0.004, 2.5
 307631065, 0, 0.0125, 0.004, 2.5, 0, 0.0125, 0.004, 2.5
 307830985, 0, 0.0125, 0.004, 2.5, 0, 0.0125, 0.004, 2.5
 308030905, 0, 0.0125, 0.003, 2.5, 0, 0.0125, 0.004, 2.5
 308230825, 0, 0.0125, 0.003, 2.5, 0, 0.0125, 0.003, 2.5
 308430745, 0, 0.0125, 0.003, 2.5, 0, 0.0125, 0.003, 2.5
 308630665, 0, 0.0125, 0.003, 2.5, 0, 0.0125, 0.003, 2.5
 308831418, 0, 0.0125, 0.003, 2.5, 0, 0.0125, 0.003, 2.5
 309031338, 0, 0.0125, 0.003, 2.5, 0, 0.0125, 0.003, 2.5
 309231258, 0, 0.0125, 0.003, 2.5, 0, 0.0125, 0.003, 2.5
 309431178, 0, 0.0125, 0.002, 2.5, 0, 0.0125, 0.003, 2.5
 309631098, 0, 0.0125, 0.002, 2.5, 0, 0.0125, 0.002, 2.5
 309831018, 0, 0.0125, 0.002, 2.5, 0, 0.0125, 0.002, 2.5
 310030938, 0, 0.0125, 0.001, 2.5, 0, 0.0125, 0.002, 2.5
 310230858, 0, 0.0125, 0, 2.5, 0, 0.0125, 0.001, 2.5
 310430778, 0, 0.0125, 0, 2.5, 0, 0.0125, 0, 2.5
 310630698, 0, 0.0125, 0, 2.5, 0, 0.0125, 0, 2.5
 310831451, 0, 0.0125, 0, 2.5, 0, 0.0125, 0, 2.5
 311031371, 0, 0.0125, 0, 2.5, 0, 0.0125, 0, 2.5
 311231291, 0, 0.0125, 0, 2.5, 0, 0.0125, 0, 2.5
 311431211, 0, 0.0125, 0, 2.5, 0, 0.0125, 0, 2.5
 311631131, 0, 0.0125, 0, 2.5, 0, 0.0125, 0, 2.5
 311831051, 0, 0.0125, 0, 2.5, 0, 0.0125, 0, 2.5
 312030971, 0, 0.0125, 0, 2.5, 0, 0.0125, 0, 2.5
 312230891, 0, 0.0125, 0, 2.5, 0, 0.0125, 0, 2.5
 312430811, 0, 0.0125, 0, 2.5, 0, 0.0125, 0, 2.5
 312630731, 0, 0.0125, -0.001, 2.5, 0, 0.0125, 0, 2.5
 312831484, 0, 0.0125, -0.001, 2.5, 0, 0.0125, -0.001, 2.5
 313031404, 0, 0.0125, -0.001, 2.5, 0, 0.0125, -0.001, 2.5
 313231324, 0, 0.0125, 0, 2.5, 0, 0.0125, -0.001, 2.5
 313431244, 0, 0.0125, -0.001, 2.5, 0, 0.0125, 0, 2.5
 313631164, 0, 0.0125, -0.001, 2.5, 0, 0.0125, -0.001, 2.5
 313831084, 0, 0.0125, -0.001, 2.5, 0, 0.0125, -0.001, 2.5
 314031004, 0, 0.0125, -0.001, 2.5, 0, 0.0125, -0.001, 2.5
 314230924, 0, 0.0125, -0.001, 2.5, 0, 0.0125, -0.001, 2.5
 314430844, 0, 0.0125, -0.001, 2.5, 0, 0.0125, -0.001, 2.5
 314630764, 0, 0.0125, -0.001, 2.5, 0, 0.0125, -0.001, 2.5
 314830684, 0, 0.0125, -0.002, 2.5, 0, 0.0125, -0.001, 2.5
 315031437, 0, 0.0125, -0.001, 2.5, 0, 0.0125, -0.002, 2.5
 315231357, 0, 0.0125, -0.001, 2.5, 0, 0.0125, -0.001, 2.5
 315431277, 0, 0.0125, -0.001, 2.5, 0, 0.0125, -0.001, 2.5
 315631197, 0, 0.0125, 0, 2.5, 0, 0.0125, -0.001, 2.5
 315831117, 0, 0.0125, -0.001, 2.5, 0, 0.0125, 0, 2.5
 316031037, 0, 0.0125, -0.001, 2.5, 0, 0.0125, -0.001, 2.5
 316230957, 0, 0.0125, 0, 2.5, 0, 0.0125, -0.001, 2.5
 316430877, 0, 0.0125, 0, 2.5, 0, 0.0125, 0, 2.5
 316630797, 0, 0.0125, 0, 2.5, 0, 0.0125, 0, 2.5
 316830717, 0, 0.0125, 0, 2.5, 0, 0.0125, 0, 2.5
 317031470, 0, 0.0125, 0, 2.5, 0, 0.0125, 0, 2.5
 317231390, 0, 0.0125, 0, 2.5, 0, 0.0125, 0, 2.5
 317431310, 0, 0.0125, 0, 2.5, 0, 0.0125, 0, 2.5
 317631230, 0, 0.0125, 0, 2.5, 0, 0.0125, 0, 2.5
 317831150, 0, 0.0125, 0, 2.5, 0, 0.0125, 0, 2.5
 318031070, 0, 0.0125, 0, 2.5, 0, 0.0125, 0, 2.5
 318230990, 0, 0.0125, 0, 2.5, 0, 0.0125, 0, 2.5
 318430910, 0, 0.0125, 0, 2.5, 0, 0.0125, 0, 2.5
 318630830, 0, 0.0125, 0, 2.5, 0, 0.0125, 0, 2.5
 318830750, 0, 0.0125, 0.001, 2.5, 0, 0.0125, 0, 2.5
 319030670, 0, 0.0125, 0.001, 2.5, 0, 0.0125, 0.001, 2.5
 319231423, 0, 0.0125, 0, 2.5, 0, 0.0125, 0.001, 2.5
 319431343, 0, 0.0125, 0, 2.5, 0, 0.0125, 0, 2.5
 319631263, 0, 0.0125, 0, 2.5, 0, 0.0125, 0, 2.5
 319831183, 0, 0.0125, 0, 2.5, 0, 0.0125, 0, 2.5
 320031103, 0, 0.0125, 0, 2.5, 0, 0.0125, 0, 2.5
 320231023, 0, 0.0125, 0, 2.5, 0, 0.0125, 0, 2.5
 320430943, 0, 0.0125, 0, 2.5, 0, 0.0125, 0, 2.5
 320630863, 0, 0.0125, 0, 2.5, 0, 0.0125, 0, 2.5
 320830783, 0, 0.0125, 0, 2.5, 0, 0.0125, 0, 2.5
 321030703, 0, 0.0125, 0, 2.5, 0, 0.0125, 0, 2.5
 321231456, 0, 0.0125, 0, 2.5, 0, 0.0125, 0, 2.5
 321431376, 0, 0.0125, 0, 2.5, 0, 0.0125, 0, 2.5
 321631296, 0, 0.0125, 0, 2.5, 0, 0.0125, 0, 2.5
 321831216, 0, 0.0125, 0, 2.5, 0, 0.0125, 0, 2.5
 322031136, 0, 0.0125, 0, 2.5, 0, 0.0125, 0, 2.5
 322231056, 0, 0.0125, 0, 2.5, 0, 0.0125, 0, 2.5
 322430976, 12.112, -8.495001, 0, 2.5, 0, 0.0125, 0, 2.5
 322630896, 12.11, -8.496, 0, 2.5, 12.112, -8.495001, 0, 2.5
 322830816, 12.108, -8.497001, 0, 2.5, 12.11, -8.496, 0, 2.5
 323030736, 12.105, -8.5, -0.001, 2.5, 12.108, -8.497001, 0, 2.5
 323230656, 12.101, -8.504001, -0.003, 2.5, 12.105, -8.5, -0.001, 2.5
 323431409, 12.096, -8.507, -0.002, 2.5, 12.101, -8.504001, -0.003, 2.5
 323631329, 12.072, -8.496, 0.018, 2.5, 12.096, -8.507, -0.002, 2.5
 323831249, 11.985, -8.436001, 0.057, 2.5, 12.072, -8.496, 0.018, 2.5
 324031169, 11.259, -8.013, -0.079, 2.5, 11.985, -8.436001, 0.057, 2.5
 324231089, 9.908001, -7.150001, -0.208, 2.5, 11.259, -8.013, -0.079, 2.5
 324431009, 8.561001, -6.209, -0.219, 2.5, 9.908001, -7.150001, -0.208, 2.5
 324630929, 7.428, -5.386, -0.157, 2.5, 8.561001, -6.209, -0.219, 2.5
 324830849, 6.484, -4.701, -0.023, 2.5, 7.428, -5.386, -0.157, 2.5
 325030769, 5.739, -4.151, 0.167, 2.5, 6.484, -4.701, -0.023, 2.5
 325230689, 5.124, -3.689, 0.411, 2.5, 5.739, -4.151, 0.167, 2.5
 325431442, 4.554, -3.268, 0.6900001, 2.5, 5.124, -3.689, 0.411, 2.5
 325631362, 4.011, -2.88, 0.9910001, 2.5, 4.554, -3.268, 0.6900001, 2.5
 325831282, 3.507, -2.528, 1.291, 2.5, 4.011, -2.88, 0.9910001, 2.5
 326031202, 3.055, -2.215, 1.557, 2.5, 3.507, -2.528, 1.291, 2.5
 326231122, 2.656, -1.939, 1.778, 2.5, 3.055, -2.215, 1.557, 2.5
 326431042, 2.307, -1.698, 1.963, 2.5, 2.656, -1.939, 1.778, 2.5
 326630962, 2.002, -1.487, 2.116, 2.5, 2.307, -1.698, 1.963, 2.5
 326830882, 1.734, -1.301, 2.242, 2.5, 2.002, -1.487, 2.116, 2.5
 327030802, 1.498, -1.14, 2.346, 2.5, 1.734, -1.301, 2.242, 2.5
 327230722, 1.29, -0.998, 2.43, 2.5, 1.498, -1.14, 2.346, 2.5
 327431475, 1.106, -0.873, 2.493, 2.5, 1.29, -0.998, 2.43, 2.5
 327631395, 0.943, -0.7640001, 2.537, 2.5, 1.106, -0.873, 2.493, 2.5
 327831315, 0.799, -0.668, 2.563, 2.5, 0.943, -0.7640001, 2.537, 2.5
 328031235, 0.669, -0.585, 2.529, 2.5, 0.799, -0.668, 2.563, 2.5
 328231155, 0.553, -0.511, 2.409, 2.5, 0.669, -0.585, 2.529, 2.5
 328431075, 0.448, -0.446, 2.243, 2.5, 0.553, -0.511, 2.409, 2.5
 328630995, 0.355, -0.389, 2.062, 2.5, 0.448, -0.446, 2.243, 2.5
 328830915, 0.27, -0.339, 1.882, 2.5, 0.355, -0.389, 2.062, 2.5
 329030835, 0.193, -0.295, 1.709, 2.5, 0.27, -0.339, 1.882, 2.5
 329230755, 0.122, -0.255, 1.552, 2.5, 0.193, -0.295, 1.709, 2.5
 329430675, 0.057, -0.219, 1.412, 2.5, 0.122, -0.255, 1.552, 2.5
 329631428, -0.004, -0.185, 1.294, 2.5, 0.057, -0.219, 1.412, 2.5
 329831348, -0.063, -0.153, 1.196, 2.5, -0.004, -0.185, 1.294, 2.5
 330031268, -0.12, -0.123, 1.12, 2.5, -0.063, -0.153, 1.196, 2.5
 330231188, -0.174, -0.094, 1.063, 2.5, -0.12, -0.123, 1.12, 2.5
 330431108, -0.228, -0.06500001, 1.025, 2.5, -0.174, -0.094, 1.063, 2.5
 330631028, -0.277, -0.038, 1.004, 2.5, -0.228, -0.06500001, 1.025, 2.5
 330830948, -0.325, -0.012, 0.9990001, 2.5, -0.277, -0.038, 1.004, 2.5
 331030868, -0.376, 0.013, 1.009, 2.5, -0.325, -0.012, 0.9990001, 2.5
 331230788, -0.415, 0.037, 1.027, 2.5, -0.376, 0.013, 1.009, 2.5
 331430708, -0.452, 0.06, 1.053, 2.5, -0.415, 0.037, 1.027, 2.5
 331631461, -0.501, 0.081, 1.084, 2.5, -0.452, 0.06, 1.053, 2.5
 331831381, -0.543, 0.101, 1.119, 2.5, -0.501, 0.081, 1.084, 2.5
 332031301, -0.56, 0.12, 1.156, 2.5, -0.543, 0.101, 1.119, 2.5
 332231221, -0.59, 0.138, 1.194, 2.5, -0.56, 0.12, 1.156, 2.5
 332431141, -0.617, 0.154, 1.232, 2.5, -0.59, 0.138, 1.194, 2.5
 332631061, -0.659, 0.168, 1.268, 2.5, -0.617, 0.154, 1.232, 2.5
 332830981, -0.684, 0.182, 1.302, 2.5, -0.659, 0.168, 1.268, 2.5
 333030901, -0.693, 0.194, 1.332, 2.5, -0.684, 0.182, 1.302, 2.5
 333230821, -0.71, 0.204, 1.361, 2.5, -0.693, 0.194, 1.332, 2.5
 333430741, -0.725, 0.214, 1.384, 2.5, -0.71, 0.204, 1.361, 2.5
 333630661, -0.737, 0.222, 1.403, 2.5, -0.725, 0.214, 1.384, 2.5
 333831414, -0.747, 0.229, 1.42, 2.5, -0.737, 0.222, 1.403, 2.5
 334031334, -0.754, 0.235, 1.434, 2.5, -0.747, 0.229, 1.42, 2.5
 334231254, -0.7590001, 0.241, 1.443, 2.5, -0.754, 0.235, 1.434, 2.5
 334431174, -0.7600001, 0.244, 1.451, 2.5, -0.7590001, 0.241, 1.443, 2.5
 334631094, -0.7590001, 0.246, 1.454, 2.5, -0.7600001, 0.244, 1.451, 2.5
 334831014, -0.7550001, 0.246, 1.457, 2.5, -0.7590001, 0.246, 1.454, 2.5
 335030934, -0.7500001, 0.244, 1.458, 2.5, -0.7550001, 0.246, 1.457, 2.5
 335230854, -0.743, 0.242, 1.457, 2.5, -0.7500001, 0.244, 1.458, 2.5
 335430774, -0.734, 0.229, 1.455, 2.5, -0.743, 0.242, 1.457, 2.5
 335630694, -0.723, 0.22, 1.453, 2.5, -0.734, 0.229, 1.455, 2.5
 335831447, -0.711, 0.214, 1.451, 2.5, -0.723, 0.22, 1.453, 2.5
 336031367, -0.6850001, 0.207, 1.45, 2.5, -0.711, 0.214, 1.451, 2.5
 336231287, -0.657, 0.201, 1.448, 2.5, -0.6850001, 0.207, 1.45, 2.5
 336431207, -0.637, 0.201, 1.443, 2.5, -0.657, 0.201, 1.448, 2.5
 336631127, -0.624, 0.195, 1.441, 2.5, -0.637, 0.201, 1.443, 2.5
 336831047, -0.6160001, 0.186, 1.441, 2.5, -0.624, 0.195, 1.441, 2.5
 337030967, -0.595, 0.175, 1.44, 2.5, -0.6160001, 0.186, 1.441, 2.5
 337230887, -0.571, 0.163, 1.438, 2.5, -0.595, 0.175, 1.44, 2.5
 337430807, -0.54, 0.147, 1.437, 2.5, -0.571, 0.163, 1.438, 2.5
 337630727, -0.505, 0.135, 1.436, 2.5, -0.54, 0.147, 1.437, 2.5
 337831480, -0.477, 0.129, 1.435, 2.5, -0.505, 0.135, 1.436, 2.5
 338031400, -0.461, 0.116, 1.432, 2.5, -0.477, 0.129, 1.435, 2.5
 338231320, -0.43, 0.103, 1.429, 2.5, -0.461, 0.116, 1.432, 2.5
 338431240, -0.402, 0.09100001, 1.428, 2.5, -0.43, 0.103, 1.429, 2.5
 338631160, -0.384, 0.082, 1.424, 2.5, -0.402, 0.09100001, 1.428, 2.5
 338831080, -0.357, 0.06900001, 1.416, 2.5, -0.384, 0.082, 1.424, 2.5
 339031000, -0.316, 0.056, 1.395, 2.5, -0.357, 0.06900001, 1.416, 2.5
 339230920, -0.275, 0.038, 1.354, 2.5, -0.316, 0.056, 1.395, 2.5
 339430840, -0.259, 0.025, 1.286, 2.5, -0.275, 0.038, 1.354, 2.5
 339630760, -0.232, 0.019, 1.19, 2.5, -0.259, 0.025, 1.286, 2.5
 339830680, -0.203, 0.003, 1.075, 2.5, -0.232, 0.019, 1.19, 2.5
 340031433, -0.183, -0.01, 0.686, 2.5, -0.203, 0.003, 1.075, 2.5
 340231353, -0.164, -0.02, 0.31, 2.5, -0.183, -0.01, 0.686, 2.5
 340431273, -0.137, -0.03, 0.103, 2.5, -0.164, -0.02, 0.31, 2.5
 340631193, -0.09200001, -0.041, 0.029, 2.5, -0.137, -0.03, 0.103, 2.5
 340831113, -0.051, -0.059, 0.041, 2.5, -0.09200001, -0.041, 0.029, 2.5
 341031033, -0.039, -0.079, 0.101, 2.5, -0.051, -0.059, 0.041, 2.5
 341230953, -0.024, -0.09, 0.179, 2.5, -0.039, -0.079, 0.101, 2.5
 341430873, -0.001, -0.09100001, 0.258, 2.5, -0.024, -0.09, 0.179, 2.5
 341630793, 0.019, -0.097, 0.326, 2.5, -0.001, -0.09100001, 0.258, 2.5
 341830713, 0.037, -0.107, 0.379, 2.5, 0.019, -0.097, 0.326, 2.5
 342031466, 0.05, -0.115, 0.416, 2.5, 0.037, -0.107, 0.379, 2.5
 342231386, 0.068, -0.124, 0.441, 2.5, 0.05, -0.115, 0.416, 2.5
 342431306, 0.085, -0.13, 0.456, 2.5, 0.068, -0.124, 0.441, 2.5
 342631226, 0.101, -0.137, 0.462, 2.5, 0.085, -0.13, 0.456, 2.5
 342831146, 0.14, -0.144, 0.466, 2.5, 0.101, -0.137, 0.462, 2.5
 343031066, 0.158, -0.151, 0.465, 2.5, 0.14, -0.144, 0.466, 2.5
 343230986, 0.171, -0.157, 0.465, 2.5, 0.158, -0.151, 0.465, 2.5
 343430906, 0.183, -0.164, 0.465, 2.5, 0.171, -0.157, 0.465, 2.5
 343630826, 0.182, -0.177, 0.466, 2.5, 0.183, -0.164, 0.465, 2.5
 343830746, 0.183, -0.181, 0.468, 2.5, 0.182, -0.177, 0.466, 2.5
 344030666, 0.189, -0.184, 0.47, 2.5, 0.183, -0.181, 0.468, 2.5
 344231419, 0.195, -0.186, 0.471, 2.5, 0.189, -0.184, 0.47, 2.5
 344431339, 0.2, -0.187, 0.475, 2.5, 0.195, -0.186, 0.471, 2.5
 344631259, 0.204, -0.188, 0.479, 2.5, 0.2, -0.187, 0.475, 2.5
 344831179, 0.207, -0.188, 0.484, 2.5, 0.204, -0.188, 0.479, 2.5
 345031099, 0.208, -0.189, 0.489, 2.5, 0.207, -0.188, 0.484, 2.5
 345231019, 0.208, -0.189, 0.493, 2.5, 0.208, -0.189, 0.489, 2.5
 345430939, 0.207, -0.188, 0.498, 2.5, 0.208, -0.189, 0.493, 2.5
 345630859, 0.204, -0.187, 0.503, 2.5, 0.207, -0.188, 0.498, 2.5
 345830779, 0.2, -0.185, 0.505, 2.5, 0.204, -0.187, 0.503, 2.5
 346030699, 0.195, -0.183, 0.507, 2.5, 0.2, -0.185, 0.505, 2.5
 346231452, 0.19, -0.181, 0.5100001, 2.5, 0.195, -0.183, 0.507, 2.5
 346431372, 0.183, -0.178, 0.513, 2.5, 0.19, -0.181, 0.5100001, 2.5
 346631292, 0.174, -0.174, 0.518, 2.5, 0.183, -0.178, 0.513, 2.5
 346831212, 0.165, -0.159, 0.522, 2.5, 0.174, -0.174, 0.518, 2.5
 347031132, 0.156, -0.144, 0.525, 2.5, 0.165, -0.159, 0.522, 2.5
 347231052, 0.147, -0.138, 0.528, 2.5, 0.156, -0.144, 0.525, 2.5
 347430972, 0.137, -0.133, 0.53, 2.5, 0.147, -0.138, 0.528, 2.5
 347630892, 0.126, -0.129, 0.531, 2.5, 0.137, -0.133, 0.53, 2.5
 347830812, 0.115, -0.128, 0.529, 2.5, 0.126, -0.129, 0.531, 2.5
 348030732, 0.103, -0.128, 0.525, 2.5, 0.115, -0.128, 0.529, 2.5
 348231485, 0.087, -0.128, 0.5190001, 2.5, 0.103, -0.128, 0.525, 2.5
 348431405, 0.074, -0.125, 0.512, 2.5, 0.087, -0.128, 0.5190001, 2.5
 348631325, 0.06, -0.12, 0.506, 2.5, 0.074, -0.125, 0.512, 2.5
 348831245, 0.047, -0.114, 0.501, 2.5, 0.06, -0.12, 0.506, 2.5
 349031165, 0.037, -0.107, 0.494, 2.5, 0.047, -0.114, 0.501, 2.5
 349231085, 0.019, -0.101, 0.486, 2.5, 0.037, -0.107, 0.494, 2.5
 349431005, 0.003, -0.096, 0.48, 2.5, 0.019, -0.101, 0.486, 2.5
 349630925, -0.01, -0.08400001, 0.475, 2.5, 0.003, -0.096, 0.48, 2.5
 349830845, -0.025, -0.07600001, 0.47, 2.5, -0.01, -0.08400001, 0.475, 2.5
 350030765, -0.035, -0.071, 0.465, 2.5, -0.025, -0.07600001, 0.47, 2.5
 350230685, -0.051, -0.068, 0.459, 2.5, -0.035, -0.071, 0.465, 2.5
 350431438, -0.067, -0.064, 0.456, 2.5, -0.051, -0.068, 0.459, 2.5
 350631358, -0.08000001, -0.06, 0.456, 2.5, -0.067, -0.064, 0.456, 2.5
 350831278, -0.093, -0.056, 0.455, 2.5, -0.08000001, -0.06, 0.456, 2.5
 351031198, -0.106, -0.055, 0.455, 2.5, -0.093, -0.056, 0.455, 2.5
 351231118, -0.109, -0.055, 0.455, 2.5, -0.106, -0.055, 0.455, 2.5
 351431038, -0.128, -0.054, 0.453, 2.5, -0.109, -0.055, 0.455, 2.5
 351630958, -0.14, -0.051, 0.453, 2.5, -0.128, -0.054, 0.453, 2.5
 351830878, -0.151, -0.048, 0.457, 2.5, -0.14, -0.051, 0.453, 2.5
 352030798, -0.16, -0.045, 0.461, 2.5, -0.151, -0.048, 0.457, 2.5
 352230718, -0.169, -0.042, 0.466, 2.5, -0.16, -0.045, 0.461, 2.5
 352431471, -0.178, -0.04, 0.472, 2.5, -0.169, -0.042, 0.466, 2.5
 352631391, -0.181, -0.039, 0.483, 2.5, -0.178, -0.04, 0.472, 2.5
 352831311, -0.184, -0.037, 0.492, 2.5, -0.181, -0.039, 0.483, 2.5
 353031231, -0.19, -0.036, 0.503, 2.5, -0.184, -0.037, 0.492, 2.5
 353231151, -0.195, -0.035, 0.52, 2.5, -0.19, -0.036, 0.503, 2.5
 353431071, -0.2, -0.034, 0.543, 2.5, -0.195, -0.035, 0.52, 2.5
 353630991, -0.204, -0.034, 0.565, 2.5, -0.2, -0.034, 0.543, 2.5
 353830911, -0.207, -0.033, 0.589, 2.5, -0.204, -0.034, 0.565, 2.5
 354030831, -0.209, -0.032, 0.612, 2.5, -0.207, -0.033, 0.589, 2.5
 354230751, -0.21, -0.032, 0.634, 2.5, -0.209, -0.032, 0.612, 2.5
 354430671, -0.21, -0.032, 0.659, 2.5, -0.21, -0.032, 0.634, 2.5
 354631424, -0.208, -0.032, 0.687, 2.5, -0.21, -0.032, 0.659, 2.5
 354831344, -0.207, -0.032, 0.7220001, 2.5, -0.208, -0.032, 0.687, 2.5
 355031264, -0.204, -0.032, 0.7590001, 2.5, -0.207, -0.032, 0.7220001, 2.5
 355231184, -0.2, -0.032, 0.8, 2.5, -0.204, -0.032, 0.7590001, 2.5
 355431104, -0.196, -0.032, 0.835, 2.5, -0.2, -0.032, 0.8, 2.5
 355631024, -0.191, -0.032, 0.864, 2.5, -0.196, -0.032, 0.835, 2.5
 355830944, -0.186, -0.032, 0.8880001, 2.5, -0.191, -0.032, 0.864, 2.5
 356030864, -0.182, -0.031, 0.909, 2.5, -0.186, -0.032, 0.8880001, 2.5
 356230784, -0.169, -0.03, 0.9300001, 2.5, -0.182, -0.031, 0.909, 2.5
 356430704, 0.048, 0.006, -0.242, 2.5, -0.169, -0.03, 0.9300001, 2.5
 356631457, 0.012, 0.012, -0.09900001, 2.5, 0.048, 0.006, -0.242, 2.5
 356831377, 0.001, 0.013, 0.044, 2.5, 0.012, 0.012, -0.09900001, 2.5
 357031297, 0, 0.013, 0.008, 2.5, 0.001, 0.013, 0.044, 2.5
 357231217, 0, 0.013, -0.006, 2.5, 0, 0.013, 0.008, 2.5
 357431137, 0, 0.013, 0, 2.5, 0, 0.013, -0.006, 2.5
 357631057, 0, 0.013, 0, 2.5, 0, 0.013, 0, 2.5
 357830977, 0, 0.013, 0, 2.5, 0, 0.013, 0, 2.5
 358030897, 0, 0.013, 0, 2.5, 0, 0.013, 0, 2.5
 358230817, 0, 0.013, 0, 2.5, 0, 0.013, 0, 2.5
 358430737, 0, 0.013, 0, 2.5, 0, 0.013, 0, 2.5
 358630657, 0, 0.013, 0, 2.5, 0, 0.013, 0, 2.5
 358831410, 0, 0.013, 0, 2.5, 0, 0.013, 0, 2.5
 359031330, 0, 0.013, 0, 2.5, 0, 0.013, 0, 2.5
 359231250, 0, 0.013, 0, 2.5, 0, 0.013, 0, 2.5
 359431170, 0, 0.013, 0, 2.5, 0, 0.013, 0, 2.5
 359631090, 0, 0.013, 0, 2.5, 0, 0.013, 0, 2.5
 359831010, 0, 0.013, 0, 2.5, 0, 0.013, 0, 2.5
