TimeUS,CAN,CAE,CAD,CAe,NAN,NAE,NAD,NAe,m10,m00,Gye
 195858292, 1.82408E-06, 4.691222E-05, 5.481434E-07, 6.484905E-06, 0, 0, 0, 0, -0.9999978, -0.00144888, 2.132152
 196030723, 0.02024024, 3.67856, -0.06501934, 0.5087003, 0.4069186, 3.534833, 0.2959659, 0.5086934, -0.9999978, -0.001446735, 117.3716
 196231476, 0.4065866, 3.542014, 0.2959244, 0.5092216, -0.0002061971, 0.004124022, -3.657268E-05, 0.0005209541, -0.9999978, -0.00144279, 170.8972
 196431396, -0.0001301305, 0.01155133, -0.0002855371, 0.001046232, -4.929792E-05, 0.00418291, -0.0001892095, 0.0005187925, -0.9999978, -0.001438866, 0.3511209
 196631316, -0.0002417062, 0.0114184, -0.0003644891, 0.00104407, -0.0004001384, 0.003962337, 1.251554E-05, 0.0005187925, -0.9999978, -0.001432786, 0.3503954
 196831236, -0.0004364568, 0.01084366, -0.0001400804, 0.00104407, 0.0001910518, 0.004110725, -6.814613E-05, 0.0005187925, -0.9999978, -0.001425883, 0.3503954
 197031156, -0.0002829906, 0.01118856, -2.312092E-05, 0.00104407, -0.0005201937, 0.00393216, -0.0002420697, 0.0005187925, -0.9999978, -0.001420059, 0.3503954
 197231076, -0.000244382, 0.01145682, -0.0004361839, 0.00104407, 0.0001153739, 0.004260759, -0.0001627056, 0.0005187925, -0.9999978, -0.001414016, 0.3503954
 197430996, 0.0001355005, 0.01157218, -0.0004659838, 0.00104407, -9.273362E-06, 0.003886916, -0.0004924747, 0.0005187925, -0.9999978, -0.001408897, 0.3503954
 197630916, -6.097293E-05, 0.01100678, -0.0008799845, 0.00104407, 5.020507E-05, 0.003995669, -0.0001964772, 0.0005187925, -0.9999978, -0.0014037, 0.3503954
 197830836, 0.0004292808, 0.0115706, -0.0004609315, 0.00104407, 0.0001646557, 0.004324961, -0.0003304888, 0.0005187925, -0.9999978, -0.001396811, 0.3503954
 198030756, 0.0004115005, 0.01175566, -0.0008548535, 0.00104407, -1.806763E-05, 0.004381167, -0.0003557474, 0.0005187925, -0.9999978, -0.001390295, 0.3503954
 198230676, 9.996383E-05, 0.01191956, -0.0003403756, 0.00104407, 0.0003553907, 0.004040157, -0.0003218448, 0.0005187925, -0.9999978, -0.001383463, 0.3503954
 198431429, 0.0002714852, 0.01138244, -0.0004894639, 0.001046232, 0.0001020456, 0.004129042, -0.0001296641, 0.0005209541, -0.9999978, -0.001379021, 0.3511209
 198631349, -2.482372E-05, 0.01145156, -0.0001969463, 0.001046232, -0.0002289536, 0.004208784, -0.0001408359, 0.0005187925, -0.9999978, -0.001384838, 0.3511209
 198831269, 2.491953E-05, 0.0114277, -0.0001030628, 0.00104407, 0.0001882505, 0.004126473, -0.0005038058, 0.0005187925, -0.9999978, -0.001389498, 0.3503954
 199031189, 0.0002950205, 0.01192081, -0.0006599302, 0.00104407, 0.0002359148, 0.004750305, -0.0002923952, 0.0005187925, -0.9999978, -0.001395063, 0.3503954
 199231109, 0.0001241653, 0.01191518, -0.0004110073, 0.00104407, -0.0001398348, 0.004263797, -2.311021E-05, 0.0005187925, -0.9999978, -0.001398915, 0.3503954
 199431029, -0.000199033, 0.01145208, -3.059833E-05, 0.00104407, 7.032767E-05, 0.004133965, 3.354877E-05, 0.0005187925, -0.9999978, -0.001401676, 0.3503954
 199630949, 2.640869E-05, 0.01125085, 0.0001469036, 0.00104407, 0.0001533249, 0.003790267, 5.398021E-05, 0.0005187925, -0.9999978, -0.001403694, 0.3503954
 199830869, -7.538734E-05, 0.01144195, 2.630732E-05, 0.00104407, -0.0003781455, 0.004603847, -0.0001565283, 0.0005187925, -0.9999978, -0.001405186, 0.3503954
 200030789, -0.0003072635, 0.01184536, -0.0003089527, 0.00104407, 0.0005344856, 0.003849614, -0.0002651477, 0.0005187925, -0.9999978, -0.001405728, 0.3503954
 200230709, 0.0007559829, 0.01102383, -4.193181E-05, 0.00104407, 0.0003057032, 0.004245859, 4.646229E-05, 0.0005187925, -0.9999978, -0.001405695, 0.3503954
 200431462, 0.0003205347, 0.01140578, -0.0004589887, 0.001046232, 0.0001482628, 0.003896625, -0.0004018991, 0.0005209541, -0.9999978, -0.001406929, 0.3511209
 200631382, -3.379301E-05, 0.01145125, -0.0006573984, 0.001046232, -0.0001116474, 0.004231088, -0.0002688822, 0.0005187925, -0.9999978, -0.001406044, 0.3511209
 200831302, 1.916635E-05, 0.01129736, -0.0002778682, 0.00104407, -2.898158E-05, 0.004238426, -3.492269E-05, 0.0005187925, -0.9999978, -0.001403679, 0.3503954
 201031222, 4.364597E-05, 0.01151305, 5.249071E-05, 0.00104407, 0.0003789072, 0.003987255, -0.0002443397, 0.0005187925, -0.9999979, -0.001398147, 0.3503954
 201231142, 0.0002759159, 0.01096402, -0.000365508, 0.00104407, -0.0001029826, 0.003900752, 0.0001467892, 0.0005187925, -0.9999979, -0.001393225, 0.3503954
 201431062, -0.0004285066, 0.01112653, 0.0001648661, 0.00104407, -0.0002326526, 0.003975533, 9.574642E-06, 0.0005187925, -0.9999979, -0.001388214, 0.3503954
 201630982, -5.100175E-05, 0.01094064, 5.167087E-05, 0.00104407, 0.0001019871, 0.00376919, 0.0003831308, 0.0005187925, -0.9999979, -0.001382701, 0.3503954
 201830902, -0.0001419374, 0.01095856, 0.0002135948, 0.00104407, -0.0007031655, 0.004352699, 4.945204E-06, 0.0005187925, -0.9999979, -0.001376478, 0.3503954
 202030822, -0.0006036133, 0.01172184, -0.0002078334, 0.00104407, 0.0002151275, 0.003956266, -0.0001721313, 0.0005187925, -0.9999979, -0.001370417, 0.3503954
 202230742, 0.0003042513, 0.01131617, -0.0003463337, 0.00104407, 0.0002765066, 0.004248994, 0.0002796413, 0.0005187925, -0.9999978, -0.001363494, 0.3503954
 202430662, 0.0005175586, 0.01145832, -2.543747E-05, 0.00104407, 0.0002088887, 0.004097478, -0.0003611383, 0.0005187925, -0.9999978, -0.001357292, 0.3503954
 202631415, 0.0004163035, 0.01131683, -0.0005516877, 0.001046232, 0.0003036814, 0.003832355, -0.0001988295, 0.0005209541, -0.9999978, -0.001352737, 0.3511209
 202831335, 0.0004915955, 0.01108741, -0.0003873669, 0.001046232, -0.0001096206, 0.003812229, 3.916604E-05, 0.0005187925, -0.9999978, -0.001346351, 0.3511209
 203031255, -9.915814E-05, 0.0112824, -1.905272E-05, 0.00104407, 0.0004486002, 0.004692811, 0.0002128417, 0.0005187925, -0.9999978, -0.001338868, 0.3503954
 203231175, 0.0003373531, 0.01199037, -0.0001453057, 0.00104407, 5.025685E-05, 0.004317903, -0.0005454038, 0.0005187925, -0.9999978, -0.001331675, 0.3503954
 203431095, 0.0001522095, 0.0114079, -0.0005699486, 0.00104407, 0.0002670974, 0.004123073, 0.0001726544, 0.0005187925, -0.9999978, -0.001322748, 0.3503954
 203631015, 0.0004261215, 0.01161891, 0.000328289, 0.00104407, 0.000428976, 0.004209761, 2.860594E-05, 0.0005187925, -0.9999978, -0.001315509, 0.3503954
 203830935, 0.0004574484, 0.01177318, -8.369898E-06, 0.00104407, -0.0002137295, 0.00433051, -4.868824E-05, 0.0005187925, -0.9999978, -0.001322408, 0.3503954
 204030855, 8.966562E-05, 0.01174273, -0.0002951407, 0.00104407, 0.000157017, 0.004288076, -0.0003126717, 0.0005187925, -0.9999978, -0.001329195, 0.3503954
 204230775, 0.0002625147, 0.01160845, -0.0005024233, 0.00104407, 0.0004283497, 0.004100815, -0.0002543302, 0.0005187925, -0.9999978, -0.001334444, 0.3503954
 204430695, 0.0005867888, 0.01134007, -0.0005859736, 0.00104407, -0.0001411226, 0.004243108, -0.000214044, 0.0005187925, -0.9999978, -0.001338779, 0.3503954
 204631448, -0.0001176461, 0.01153641, -3.021615E-05, 0.001046232, -1.170593E-05, 0.004491586, -0.0003118901, 0.0005209541, -0.9999979, -0.001344768, 0.3511209
 204831368, 0.0001412689, 0.01142808, -0.0001625067, 0.001046232, -0.0001012116, 0.003903347, 0.0001352961, 0.0005187925, -0.9999978, -0.001346504, 0.3511209
 205031288, -0.0002103304, 0.01128813, -0.0003059272, 0.00104407, 1.385377E-05, 0.004399744, -0.0002620328, 0.0005187925, -0.9999978, -0.001347652, 0.3503954
 205231208, -7.534656E-05, 0.01165496, -0.0003793427, 0.00104407, 0.0002166357, 0.004176211, -0.0002486176, 0.0005187925, -0.9999978, -0.001348746, 0.3503954
 205431128, 0.0002954012, 0.01130807, -0.0001968287, 0.00104407, -0.0001768065, 0.003595884, 0.0003022748, 0.0005187925, -0.9999978, -0.00135015, 0.3503954
 205631048, 7.434809E-05, 0.01106207, -1.628941E-05, 0.00104407, 1.759263E-05, 0.003892933, 0.0003020497, 0.0005187925, -0.9999978, -0.001350206, 0.3503954
 205830968, -7.107855E-05, 0.0112239, 0.0001812424, 0.00104407, -0.0001544676, 0.00442525, 0.0001727057, 0.0005187925, -0.9999978, -0.001348299, 0.3503954
 206030888, 2.259421E-06, 0.01159806, -0.000136465, 0.00104407, -0.0001858106, 0.003976619, -0.0002000902, 0.0005187925, -0.9999978, -0.001346545, 0.3503954
 206230808, 6.337855E-05, 0.01111445, -0.0002067894, 0.00104407, 5.515842E-05, 0.004210409, 6.492996E-05, 0.0005187925, -0.9999978, -0.001344774, 0.3503954
 206430728, 0.0002115137, 0.01135049, 0.0001646444, 0.00104407, 0.0003176256, 0.004109314, -0.0001390127, 0.0005187925, -0.9999978, -0.001342901, 0.3503954
 206631481, 0.0004864692, 0.01138016, -0.0001162946, 0.001046232, -2.20472E-06, 0.004371868, 1.046952E-05, 0.0005209541, -0.9999978, -0.001342095, 0.3511209
 206831401, -8.976091E-05, 0.0118785, 9.654232E-05, 0.001046232, -5.951789E-05, 0.004159452, -9.404233E-06, 0.0005187925, -0.9999979, -0.001340573, 0.3511209
 207031321, -0.0001886634, 0.01120564, -0.0003287657, 0.00104407, -0.0001216785, 0.004476416, -0.0004630382, 0.0005187925, -0.9999979, -0.001337991, 0.3503954
 207231241, 3.7015E-05, 0.01174367, -0.0004874411, 0.00104407, -9.396575E-05, 0.003841634, -6.613436E-07, 0.0005187925, -0.9999978, -0.001333253, 0.3503954
 207431161, -0.0001861963, 0.01089926, 3.95426E-05, 0.00104407, -0.000282617, 0.004178865, 0.0001064685, 0.0005187925, -0.9999978, -0.001328357, 0.3503954
 207631081, -0.00011849, 0.01139067, -6.830103E-05, 0.00104407, 0.0002346842, 0.004461775, 0.0001367415, 0.0005187925, -0.9999978, -0.001323485, 0.3503954
 207831001, 0.0001272963, 0.01151663, 0.0001854846, 0.00104407, -1.56781E-05, 0.003711403, 0.0006087335, 0.0005187925, -0.9999978, -0.001318677, 0.3503954
 208030921, -0.0001893714, 0.01136405, 0.0004798032, 0.00104407, -0.000176414, 0.004352897, 0.0004444072, 0.0005187925, -0.9999978, -0.001313293, 0.3503954
 208230841, -1.472719E-05, 0.01164368, 0.0003421499, 0.00104407, 0.0002110878, 0.004017323, -0.0002628002, 0.0005187925, -0.9999978, -0.001307344, 0.3503954
 208430761, -3.597893E-05, 0.01129334, -0.0003033056, 0.00104407, -0.0002283431, 0.004470619, -0.0002218336, 0.0005187925, -0.9999978, -0.0013024, 0.3503954
 208630681, -0.0001653439, 0.01190655, -0.0004411601, 0.00104407, -3.914132E-05, 0.00420766, -0.0001094035, 0.0005187925, -0.9999978, -0.001296205, 0.3503954
 208831434, 4.267484E-05, 0.01200803, -0.0001066365, 0.001046232, 0.0002309664, 0.004456539, -4.144759E-05, 0.0005209541, -0.9999979, -0.001292189, 0.3511209
 209031354, 0.0005184057, 0.01184339, 8.376623E-05, 0.001046232, 0.0005767422, 0.004157245, 0.0007117738, 0.0005187925, -0.9999979, -0.001300871, 0.3511209
 209231274, 0.0006506899, 0.01145689, 0.0007741657, 0.00104407, 0.0001199071, 0.003986071, 0.0005124855, 0.0005187925, -0.9999979, -0.001307267, 0.3503954
 209431194, 6.216514E-05, 0.01139963, 0.0003406117, 0.00104407, -0.0003794074, 0.003722171, -0.0003004839, 0.0005187925, -0.9999979, -0.00131292, 0.3503954
 209631114, -0.0006340957, 0.01103189, -0.0002228596, 0.00104407, 1.349487E-05, 0.004256408, 2.911714E-05, 0.0005187925, -0.9999979, -0.001317776, 0.3503954
 209831034, -0.0001163736, 0.01159738, 1.958659E-05, 0.00104407, 0.0001316548, 0.004795706, 2.300653E-05, 0.0005187925, -0.9999979, -0.001321251, 0.3503954
 210030954, 0.0002490936, 0.01213119, 0.0001598219, 0.00104407, 2.654881E-05, 0.004245912, -0.0002172733, 0.0005187925, -0.9999979, -0.001324998, 0.3503954
 210230874, -0.0001658485, 0.01159579, -7.855014E-05, 0.00104407, -0.0003059241, 0.004163442, 0.0002450535, 0.0005187925, -0.9999979, -0.001327641, 0.3503954
 210430794, -0.000216225, 0.01150127, 0.0001339806, 0.00104407, 0.0001862907, 0.004379835, -4.642654E-05, 0.0005187925, -0.9999979, -0.001328825, 0.3503954
 210630714, 0.000103928, 0.0111514, -6.093207E-05, 0.00104407, 0.0003995507, 0.003874426, -0.0001433693, 0.0005187925, -0.9999979, -0.001327206, 0.3503954
 210831467, 0.0002807273, 0.01135668, -1.632516E-05, 0.001046232, 0.0001112041, 0.003764154, 7.694305E-05, 0.0005209541, -0.9999979, -0.001327744, 0.3511209
 211031387, 0.0001461525, 0.01117891, 9.740904E-05, 0.001046232, 2.345741E-06, 0.004263035, -0.0003945798, 0.0005187925, -0.9999979, -0.001327649, 0.3511209
 211231307, 5.475699E-05, 0.0112609, -0.0007050554, 0.00104407, -6.877394E-05, 0.003741712, 1.643244E-06, 0.0005187925, -0.9999979, -0.001326652, 0.3503954
 211431227, -0.0002943747, 0.01109208, -0.0003019341, 0.00104407, 0.0003240362, 0.004328671, 0.0001832241, 0.0005187925, -0.9999979, -0.001323969, 0.3503954
 211631147, 0.000233646, 0.01148931, -0.0001253414, 0.00104407, -0.0004258681, 0.004056913, -0.0001934267, 0.0005187925, -0.9999979, -0.001322264, 0.3503954
 211831067, -0.0008273554, 0.01129309, -0.000201519, 0.00104407, -0.0001028059, 0.004310157, -0.0004194262, 0.0005187925, -0.9999979, -0.001319887, 0.3503954
 212030987, 1.136573E-05, 0.01175776, -0.0004039472, 0.00104407, 0.0002287303, 0.004443536, 6.110489E-05, 0.0005187925, -0.9999979, -0.001316278, 0.3503954
 212230907, 0.0002340332, 0.01152885, 0.0001835875, 0.00104407, 5.920336E-05, 0.004017562, 0.0002949953, 0.0005187925, -0.9999979, -0.001313005, 0.3503954
 212430827, 0.0001927469, 0.01110583, 0.0001582001, 0.00104407, 0.0003175474, 0.004049607, -0.0003084153, 0.0005187925, -0.9999979, -0.001308361, 0.3503954
 212630747, 0.0003734306, 0.01117948, -0.0002421007, 0.00104407, 0.0001131741, 0.003732227, 0.0001282036, 0.0005187925, -0.9999979, -0.001303892, 0.3503954
 212830667, -0.0002022941, 0.010714, -5.831533E-05, 0.00104407, -0.0003154842, 0.004181398, -0.0001609218, 0.0005187925, -0.9999979, -0.001299034, 0.3503954
 213031420, -0.0002894306, 0.01138944, -0.0006123211, 0.001046232, -0.0005181874, 0.003701868, -0.0001817366, 0.0005209541, -0.9999979, -0.001295616, 0.3511209
 213231340, -0.0004640828, 0.01124698, 4.806063E-05, 0.001046232, 0.0002271269, 0.004087293, 0.00048655, 0.0005187925, -0.9999979, -0.001290731, 0.3511209
 213431260, 0.0002486686, 0.01138335, 0.0005312594, 0.00104407, -0.0001858907, 0.004321341, -0.0001562697, 0.0005187925, -0.9999979, -0.001283395, 0.3503954
 213631180, -0.0001582089, 0.01145046, -0.0003567591, 0.00104407, -4.40303E-05, 0.003947276, -0.000514087, 0.0005187925, -0.9999979, -0.001277928, 0.3503954
 213831100, -0.0001285804, 0.01119173, -0.0007204869, 0.00104407, -8.86601E-05, 0.0038047, -0.0003255495, 0.0005187925, -0.9999979, -0.001272149, 0.3503954
 214031020, 0.0002355814, 0.01140596, -0.0003941282, 0.00104407, 3.156331E-05, 0.004446733, 7.569146E-05, 0.0005187925, -0.9999979, -0.001266188, 0.3503954
 214230940, 0.0002007857, 0.01195299, 8.288999E-05, 0.00104407, -7.284206E-05, 0.003902955, 5.899679E-06, 0.0005187925, -0.9999979, -0.001275673, 0.3503954
 214430860, 0.0003880005, 0.01115167, 4.221878E-06, 0.00104407, -6.883873E-05, 0.00413967, 9.317246E-06, 0.0005187925, -0.9999979, -0.001284298, 0.3503954
 214630780, 0.0001739143, 0.01169671, -0.0003031936, 0.00104407, -8.502597E-05, 0.004248069, -0.0003320641, 0.0005187925, -0.9999979, -0.001291671, 0.3503954
 214830700, 3.75108E-05, 0.01190807, -0.0003841687, 0.00104407, 7.713971E-05, 0.00464116, -6.692711E-05, 0.0005187925, -0.9999979, -0.001298483, 0.3503954
 215031453, 0.0001117124, 0.01204363, -0.0006303486, 0.001046232, 0.000190694, 0.004572347, -0.0003610199, 0.0005209541, -0.9999979, -0.001303837, 0.3511209
 215231373, 5.867363E-05, 0.01221658, -0.0005480488, 0.001046232, -6.740196E-06, 0.004388148, 1.18113E-05, 0.0005187925, -0.9999979, -0.001307905, 0.3511209
 215431293, 0.0001417449, 0.01150311, 6.723814E-05, 0.00104407, 6.624656E-05, 0.003891947, 0.0003592353, 0.0005187925, -0.9999979, -0.001310055, 0.3503954
 215631213, 8.625492E-05, 0.01117427, 0.0002784508, 0.00104407, -0.0001536434, 0.003717239, -0.000235816, 0.0005187925, -0.9999979, -0.001311686, 0.3503954
 215831133, 0.0002276815, 0.01069045, -0.0001875782, 0.00104407, 0.0003291802, 0.004201968, -8.404468E-06, 0.0005187925, -0.9999979, -0.001313014, 0.3503954
 216031053, 0.0004997674, 0.01130855, -7.793644E-05, 0.00104407, 0.0001604078, 0.004339729, -9.374206E-05, 0.0005187925, -0.9999979, -0.001313288, 0.3503954
 216230973, 0.0003348446, 0.01159552, -0.0002225236, 0.00104407, 0.0002427926, 0.003625949, 2.475344E-05, 0.0005187925, -0.9999979, -0.001313508, 0.3503954
 216430893, 0.0007111046, 0.01083282, -0.0002933926, 0.00104407, 0.0003033492, 0.004294145, -0.0002448139, 0.0005187925, -0.9999979, -0.001312872, 0.3503954
 216630813, 9.400967E-05, 0.01144614, -0.0002820985, 0.00104407, 0.0002369855, 0.004286095, 0.0004983005, 0.0005187925, -0.9999979, -0.001312292, 0.3503954
 216830733, -5.286062E-05, 0.01149246, 5.235965E-05, 0.00104407, -0.0003341103, 0.003684524, -0.0003047379, 0.0005187925, -0.9999979, -0.001309966, 0.3503954
 217031486, -0.000199059, 0.01078793, -0.0009160055, 0.001046232, -0.0001140315, 0.003814955, -0.0002779575, 0.0005187925, -0.9999979, -0.001306185, 0.3511209
 217231406, 0.000117617, 0.01101751, -0.0001219218, 0.001046232, -6.732676E-05, 0.004165609, 0.0001157722, 0.0005209541, -0.9999979, -0.00130464, 0.3511209
 217431326, -1.650657E-05, 0.01130322, 2.292272E-05, 0.001046232, 0.000323177, 0.004173386, -9.756357E-05, 0.0005187925, -0.9999979, -0.001301343, 0.3511209
 217631246, -0.0001302895, 0.01124436, -0.0003003659, 0.00104407, -0.0003482749, 0.004236768, -0.0003416065, 0.0005187925, -0.9999979, -0.001295936, 0.3503954
 217831166, -0.0006910287, 0.01179477, -0.0003723181, 0.00104407, -0.0001965923, 0.004251827, 2.09355E-05, 0.0005187925, -0.9999979, -0.001293579, 0.3503954
 218031086, -0.0001171995, 0.0115497, -0.0003023464, 0.00104407, -0.0001185228, 0.004104855, -0.0001550399, 0.0005187925, -0.9999979, -0.001290663, 0.3503954
 218231006, -0.0001731573, 0.01123206, -0.0003636501, 0.00104407, -0.000149135, 0.00399605, -0.0001012957, 0.0005187925, -0.9999979, -0.00128718, 0.3503954
 218430926, 9.625997E-05, 0.01142028, -0.0001498397, 0.00104407, -5.518025E-05, 0.004404368, -0.0001280415, 0.0005187925, -0.9999979, -0.001283932, 0.3503954
 218630846, -9.560132E-05, 0.01161935, -0.0005108969, 0.00104407, 0.0001018279, 0.004278063, 0.0004048122, 0.0005187925, -0.9999978, -0.001280114, 0.3503954
 218830766, 0.0001669571, 0.0117477, 7.647309E-05, 0.00104407, -0.0002456263, 0.004368708, -0.0003887123, 0.0005187925, -0.9999978, -0.001276288, 0.3503954
 219030686, -0.0004089092, 0.01180896, -0.0003650897, 0.00104407, -5.309751E-05, 0.004250943, -0.0002322901, 0.0005187925, -0.9999978, -0.001273118, 0.3503954
 219231439, 0.0002342959, 0.01198554, -0.0005431672, 0.001046232, 0.0001584473, 0.004229484, -0.0002896053, 0.0005209541, -0.9999978, -0.001269583, 0.3511209
 219431359, 0.0004235596, 0.01146111, -0.0002810149, 0.001046232, 0.0004916922, 0.004494803, -9.746347E-05, 0.0005187925, -0.9999978, -0.00127945, 0.3511209
 219631279, 0.0005635521, 0.01160533, -0.0004390939, 0.00104407, 3.563553E-05, 0.004071902, -0.0001965297, 0.0005187925, -0.9999978, -0.001287561, 0.3503954
 219831199, 0.0001188401, 0.01147717, -0.0004088482, 0.00104407, 0.0001224235, 0.004236517, 5.58558E-05, 0.0005187925, -0.9999978, -0.001295759, 0.3503954
 220031119, 0.00015419, 0.01161406, -0.0001710112, 0.00104407, -1.179089E-05, 0.004499497, 9.717631E-05, 0.0005187925, -0.9999978, -0.001303637, 0.3503954
 220231039, 6.964513E-05, 0.01152903, -0.0002159256, 0.00104407, -0.0001185211, 0.003856638, 5.378955E-05, 0.0005187925, -0.9999978, -0.001311799, 0.3503954
 220430959, -0.0002503211, 0.01115536, 0.0001299612, 0.00104407, -0.0001174004, 0.004249068, 4.158146E-05, 0.0005187925, -0.9999978, -0.001319241, 0.3503954
 220630879, -0.0003351237, 0.01176467, -5.003237E-05, 0.00104407, -0.0002739285, 0.004211782, -8.201893E-05, 0.0005187925, -0.9999978, -0.001324563, 0.3503954
 220830799, -0.0003943829, 0.01169879, 0.000137802, 0.00104407, -0.0004785242, 0.004970381, 0.0001569645, 0.0005187925, -0.9999978, -0.001329474, 0.3503954
 221030719, -0.0004142118, 0.01240274, -0.0001207452, 0.00104407, 0.0004444353, 0.004026141, 0.0002138558, 0.0005187925, -0.9999978, -0.00133331, 0.3503954
 221231472, 0.0006498112, 0.01115481, -8.447244E-05, 0.001046232, 0.0002797312, 0.003800686, -6.591424E-05, 0.0005209541, -0.9999978, -0.00133437, 0.3511209
 221431392, 0.0001771296, 0.01128655, -0.0003606735, 0.001046232, 0.0001641716, 0.004455695, 0.0004604655, 0.0005187925, -0.9999978, -0.001338086, 0.3511209
 221631312, 0.0005299413, 0.0116613, 0.0004810003, 0.00104407, 0.0004451948, 0.004115344, -0.0001649149, 0.0005187925, -0.9999978, -0.001341025, 0.3503954
 221831232, 0.0002619412, 0.01137823, -0.0005935403, 0.00104407, -0.0004924435, 0.004323714, -0.0001546968, 0.0005187925, -0.9999978, -0.001341241, 0.3503954
 222031152, -0.0003700507, 0.01183559, -0.0002930255, 0.00104407, -0.0001204695, 0.004105405, 0.0001843037, 0.0005187925, -0.9999978, -0.001341439, 0.3503954
 222231072, -0.000105987, 0.01153064, -2.841526E-05, 0.00104407, 0.0002301358, 0.00417705, 0.0002414381, 0.0005187925, -0.9999978, -0.001341297, 0.3503954
 222430992, 0.0001920816, 0.01161148, -0.0001716023, 0.00104407, 0.0001048833, 0.004286936, -0.0003988232, 0.0005187925, -0.9999978, -0.00134154, 0.3503954
 222630912, -0.0002563059, 0.01133206, -0.0007065354, 0.00104407, -0.0002179405, 0.00414376, -0.0007004403, 0.0005187925, -0.9999978, -0.001343155, 0.3503954
 222830832, 6.02169E-05, 0.01154788, -0.000710949, 0.00104407, -0.0002407743, 0.004871316, -0.0001420156, 0.0005187925, -0.9999978, -0.001343718, 0.3503954
 223030752, -0.0002811361, 0.01195676, -0.0005075212, 0.00104407, -0.0002885771, 0.003945198, -0.0002482696, 0.0005187925, -0.9999978, -0.001342892, 0.3503954
 223230672, -0.0006405411, 0.01106338, -0.000322189, 0.00104407, -1.990791E-05, 0.004244283, -0.0001719597, 0.0005187925, -0.9999978, -0.001341315, 0.3503954
 223431425, 4.530899E-06, 0.01149187, -0.0003667139, 0.001046232, -2.18126E-06, 0.004093455, -0.000519255, 0.0005209541, -0.9999978, -0.001339267, 0.3511209
 223631345, -6.315284E-05, 0.01148292, -0.0008423915, 0.001046232, -0.0003542404, 0.004370517, -0.0001825115, 0.0005187925, -0.9999978, -0.001336765, 0.3511209
 223831265, -0.0005887187, 0.01168347, -0.0002768851, 0.00104407, -0.0001744586, 0.004401462, 6.743951E-05, 0.0005187925, -0.9999978, -0.001333036, 0.3503954
 224031185, -0.0005594682, 0.01198801, 6.206769E-05, 0.00104407, -0.00055791, 0.004588439, -0.0001812186, 0.0005187925, -0.9999978, -0.001330189, 0.3503954
 224231105, -0.0005539096, 0.01201108, -0.0004222695, 0.00104407, -9.858531E-05, 0.004081368, -0.0003376242, 0.0005187925, -0.9999978, -0.001327181, 0.3503954
 224431025, 4.266103E-05, 0.01131574, -0.0005315501, 0.00104407, -0.0003104779, 0.004490723, 0.0001037099, 0.0005187925, -0.9999978, -0.001323851, 0.3503954
 224630945, -0.0005163804, 0.01173779, -0.0001933719, 0.00104407, -0.0002850645, 0.004283531, -8.446533E-05, 0.0005187925, -0.9999977, -0.00133633, 0.3503954
 224830865, -2.72524E-05, 0.01171778, -6.477153E-05, 0.00104407, -1.347145E-05, 0.003886794, -0.000102423, 0.0005187925, -0.9999977, -0.001347728, 0.3503954
 225030785, -0.0001396919, 0.01123779, -1.510375E-05, 0.00104407, -0.0004829809, 0.004211568, 0.0001700674, 0.0005187925, -0.9999977, -0.001360138, 0.3503954
 225230705, -0.0001177957, 0.01138612, 0.000117858, 0.00104407, 0.0002746812, 0.004647166, -7.943314E-05, 0.0005187925, -0.9999977, -0.00136966, 0.3503954
 225431458, 0.0002085425, 0.01197332, -0.0004040147, 0.001046232, 0.0001495544, 0.004383779, 7.041262E-06, 0.0005209541, -0.9999977, -0.001378776, 0.3511209
 225631378, -0.0001748384, 0.01171032, -0.0004107072, 0.001046232, -0.0001384134, 0.003928619, -0.0003483487, 0.0005187925, -0.9999977, -0.00138657, 0.3511209
 225831298, 0.00013453, 0.01176167, -0.00042616, 0.00104407, 0.0001209192, 0.004354874, -0.0001192081, 0.0005187925, -0.9999977, -0.001392291, 0.3503954
 226031218, 0.0002249366, 0.01162724, -0.000159617, 0.00104407, -0.0002045015, 0.00417259, 6.839279E-05, 0.0005187925, -0.9999977, -0.001396856, 0.3503954
 226231138, -8.98219E-05, 0.01136368, -0.000165245, 0.00104407, -0.0001370402, 0.004223835, 1.225934E-05, 0.0005187925, -0.9999977, -0.001402162, 0.3503954
 226431058, -0.0002262059, 0.01156933, -0.0005021029, 0.00104407, 3.507382E-05, 0.004192095, -0.000344116, 0.0005187925, -0.9999977, -0.001407345, 0.3503954
 226630978, -2.568401E-05, 0.0117656, -0.000444107, 0.00104407, 0.0001220522, 0.004446907, -0.0002767183, 0.0005187925, -0.9999977, -0.001411089, 0.3503954
 226830898, -0.0001273123, 0.01177601, -0.0006776624, 0.00104407, -0.000226064, 0.004071605, -0.0001981813, 0.0005187925, -0.9999977, -0.001414683, 0.3503954
 227030818, -0.0002787887, 0.01145737, -0.0003416125, 0.00104407, 0.0002612184, 0.004099078, -0.0002311592, 0.0005187925, -0.9999977, -0.001417802, 0.3503954
 227230738, 0.0003685088, 0.01173445, -0.0004177245, 0.00104407, 0.0002490879, 0.004069625, -0.0003966151, 0.0005187925, -0.9999977, -0.001419455, 0.3503954
 227430658, 0.0003115334, 0.01152077, -0.0005969913, 0.00104407, -0.0003785333, 0.00442764, -7.446646E-05, 0.0005187925, -0.9999977, -0.001423042, 0.3503954
 227631411, -0.0004794693, 0.01204954, 9.017993E-05, 0.001046232, -2.057767E-05, 0.004352964, 0.000111687, 0.0005209541, -0.9999977, -0.001424335, 0.3511209
 227831331, 0.000171477, 0.0121456, -0.0004174954, 0.001046232, 0.0001849066, 0.004393049, -0.0003494938, 0.0005187925, -0.9999977, -0.001424668, 0.3511209
 228031251, 0.0003550051, 0.01149043, -0.0006342508, 0.00104407, -0.000164583, 0.004447593, -2.73321E-05, 0.0005187925, -0.9999977, -0.001423747, 0.3503954
 228231171, -0.0001519245, 0.01199636, -9.838222E-05, 0.00104407, 0.0003398531, 0.004502864, -0.0005721867, 0.0005187925, -0.9999977, -0.001422876, 0.3503954
 228431091, 0.0006463907, 0.01180955, -0.0006098226, 0.00104407, 0.0005421491, 0.004382297, -0.0003138586, 0.0005187925, -0.9999977, -0.001421174, 0.3503954
 228631011, 0.0007894273, 0.01173744, -0.0002709771, 0.00104407, 0.0001175254, 0.003965795, -2.601536E-05, 0.0005187925, -0.9999977, -0.001420617, 0.3503954
 228830931, 0.0003378805, 0.01154129, -3.893485E-05, 0.00104407, 0.0001835768, 0.004741548, 0.0002579277, 0.0005187925, -0.9999976, -0.001418781, 0.3503954
 229030851, 0.0001480924, 0.01221055, 0.000246077, 0.00104407, -0.0002232333, 0.004364961, -0.0003455496, 0.0005187925, -0.9999976, -0.001416743, 0.3503954
 229230771, -0.0004859348, 0.01171314, -0.0006233475, 0.00104407, -7.617216E-05, 0.004013751, -0.0001966238, 0.0005187925, -0.9999976, -0.001414554, 0.3503954
 229430691, 0.0002452966, 0.01155374, -0.0004013017, 0.00104407, -0.0001360364, 0.004343548, 0.0003451385, 0.0005187925, -0.9999976, -0.001412844, 0.3503954
 229631444, 9.141658E-05, 0.01161218, 0.0003860817, 0.001046232, -4.132859E-05, 0.004370519, 8.345881E-05, 0.0005209541, -0.9999976, -0.001413011, 0.3511209
 229831364, 9.896286E-05, 0.01207957, -1.045123E-05, 0.001046232, 0.0001544675, 0.004813366, -0.000119506, 0.0005187925, -0.9999976, -0.001425556, 0.3511209
 230031284, -0.0001457877, 0.01216797, -0.0007180844, 0.00104407, -3.494097E-05, 0.004230886, -0.0003434416, 0.0005187925, -0.9999976, -0.001436011, 0.3503954
 230231204, -9.376495E-05, 0.01150017, -0.0005608925, 0.00104407, -0.0001599081, 0.004497488, 7.211422E-05, 0.0005187925, -0.9999976, -0.001447091, 0.3503954
 230431124, -0.000202725, 0.01188032, 0.0001023741, 0.00104407, -0.000184798, 0.003971, 0.0002714978, 0.0005187925, -0.9999976, -0.001455887, 0.3503954
 230631044, -1.317014E-06, 0.01141699, 0.0002047458, 0.00104407, 0.000107707, 0.004723832, -9.987055E-05, 0.0005187925, -0.9999976, -0.001463921, 0.3503954
 230830964, 0.0001653631, 0.01232649, -0.0001777033, 0.00104407, -0.0003017189, 0.004615062, -0.0001949234, 0.0005187925, -0.9999976, -0.001470426, 0.3503954
 231030884, -0.0004172213, 0.01187308, -0.0003756487, 0.00104407, 9.586513E-05, 0.004311466, 0.0001141604, 0.0005187925, -0.9999976, -0.001476314, 0.3503954
 231230804, -0.0001297944, 0.01186746, -0.0002711522, 0.00104407, -0.0004288898, 0.00431414, -0.0001243487, 0.0005187925, -0.9999976, -0.001481414, 0.3503954
 231430724, -0.0007127447, 0.01159028, -0.0004152079, 0.00104407, 3.480816E-05, 0.004220071, -3.372271E-06, 0.0005187925, -0.9999976, -0.001483914, 0.3503954
 231631477, -2.346804E-05, 0.01158891, -0.0005018607, 0.001046232, -8.322112E-05, 0.003978028, -0.0001628812, 0.0005209541, -0.9999976, -0.001487038, 0.3511209
 231831397, -0.0002544209, 0.01123729, -0.0001287045, 0.001046232, -0.0001677361, 0.00440317, 0.0001434968, 0.0005187925, -0.9999976, -0.001491097, 0.3511209
 232031317, -0.0003502253, 0.01157263, 0.0001046393, 0.00104407, -0.0001289829, 0.004074327, 5.643731E-05, 0.0005187925, -0.9999976, -0.001492777, 0.3503954
 232231237, -0.0003478702, 0.01127092, -1.111779E-05, 0.00104407, -0.0002367766, 0.004027957, -0.0002022804, 0.0005187925, -0.9999976, -0.00149175, 0.3503954
 232431157, -6.750191E-06, 0.0112534, -0.0003139933, 0.00104407, 0.0001066818, 0.004035782, -0.0002218503, 0.0005187925, -0.9999976, -0.00149132, 0.3503954
 232631077, 2.697996E-05, 0.01110971, -0.0004094904, 0.00104407, -0.0001757309, 0.004322388, 0.0001781526, 0.0005187925, -0.9999976, -0.001491249, 0.3503954
 232830997, -7.00556E-05, 0.01188918, 0.000315403, 0.00104407, -3.200112E-05, 0.004365264, -9.914721E-05, 0.0005187925, -0.9999976, -0.00149104, 0.3503954
 233030917, 0.0001199488, 0.01215632, -0.0003127551, 0.00104407, -0.0001121697, 0.004574747, 3.201395E-05, 0.0005187925, -0.9999976, -0.001489931, 0.3503954
 233230837, -0.0003931274, 0.01172606, -0.0003140039, 0.00104407, -0.0005619864, 0.004195563, 0.0003710633, 0.0005187925, -0.9999976, -0.001487921, 0.3503954
 233430757, -0.0008429024, 0.01140493, 0.0004408777, 0.00104407, -0.0003041464, 0.00407212, 0.0001845599, 0.0005187925, -0.9999976, -0.001485892, 0.3503954
 233630677, -0.0005556768, 0.01145691, 7.742166E-05, 0.00104407, -0.0001297762, 0.004211016, 0.000251108, 0.0005187925, -0.9999976, -0.001482593, 0.3503954
 233831430, -0.0003298854, 0.0115248, -0.0001108915, 0.001046232, -0.0001074965, 0.004150066, -2.9904E-05, 0.0005209541, -0.9999976, -0.001482273, 0.3511209
 234031350, 0.0001222816, 0.01164513, -0.0001677823, 0.001046232, -0.0003508594, 0.003992766, -0.0001680512, 0.0005187925, -0.9999976, -0.001478762, 0.3511209
 234231270, -0.000120711, 0.01139419, -0.000437839, 0.00104407, 0.0004293649, 0.004074445, -0.0004451437, 0.0005187925, -0.9999976, -0.001474516, 0.3503954
 234431190, 0.0006263625, 0.0113397, -0.000320944, 0.00104407, -0.0001625059, 0.004001407, -0.0003289742, 0.0005187925, -0.9999976, -0.00147094, 0.3503954
 234631110, -0.0001737898, 0.01165571, -0.0006363814, 0.00104407, 8.566819E-05, 0.004387478, 0.0001039161, 0.0005187925, -0.9999976, -0.001468218, 0.3503954
 234831030, 4.395613E-05, 0.01213791, -9.85693E-05, 0.00104407, 0.0001539213, 0.004380941, -0.0002399617, 0.0005187925, -0.9999976, -0.001464208, 0.3503954
 235030950, 6.832155E-05, 0.01160351, -0.0005259221, 0.00104407, -9.880308E-05, 0.004070429, -0.0005253918, 0.0005187925, -0.9999976, -0.001474892, 0.3503954
 235230870, -9.830294E-05, 0.01131675, -0.0008789421, 0.00104407, 0.0001095149, 0.004153127, -6.705581E-05, 0.0005187925, -0.9999974, -0.001485132, 0.3503954
 235430790, 0.0002028684, 0.01146816, -0.0001499565, 0.00104407, 0.0002917575, 0.004600524, -0.0001145691, 0.0005187925, -0.9999974, -0.00149353, 0.3503954
 235630710, 0.0003523288, 0.01197158, -0.0003197702, 0.00104407, 0.0001531013, 0.004477655, 0.0002131766, 0.0005187925, -0.9999974, -0.001502455, 0.3503954
 235831463, -7.720535E-05, 0.01167542, 0.0002575074, 0.001046232, -0.0002173184, 0.003765162, -2.155713E-05, 0.0005209541, -0.9999974, -0.001511163, 0.3511209
 236031383, -0.0007536566, 0.01112715, -0.0001866293, 0.001046232, -0.00074227, 0.004498419, -5.691873E-05, 0.0005187925, -0.9999974, -0.001517522, 0.3511209
 236231303, -0.0008067931, 0.01168321, -9.152087E-05, 0.00104407, -7.107791E-05, 0.00421719, 0.0001187684, 0.0005187925, -0.9999976, -0.001522907, 0.3503954
 236431223, 0.0002548099, 0.01139114, -0.0001716225, 0.00104407, 0.0003453276, 0.00451803, -0.0005007076, 0.0005187925, -0.9999974, -0.001526146, 0.3503954
 236631143, 0.0003451135, 0.01139329, -0.0007735009, 0.00104407, -0.0001913504, 0.004154934, -0.0004157894, 0.0005187925, -0.9999974, -0.001530846, 0.3503954
 236831063, -0.0002899106, 0.01132431, -0.0002947522, 0.00104407, -0.0005260496, 0.004156823, 0.0002090595, 0.0005187925, -0.9999974, -0.001534209, 0.3503954
 237030983, -0.0003110478, 0.01162125, 0.0001840725, 0.00104407, 0.0002375629, 0.004503096, -0.0002646293, 0.0005187925, -0.9999974, -0.001537673, 0.3503954
 237230903, 5.680294E-05, 0.01216416, -0.0004037945, 0.00104407, 0.0005166142, 0.004151, -0.0002964133, 0.0005187925, -0.9999974, -0.001539999, 0.3503954
 237430823, 2.327425E-05, 0.01159818, -0.0005122314, 0.00104407, -0.0002257932, 0.004437978, -0.0001626055, 0.0005187925, -0.9999974, -0.001542134, 0.3503954
 237630743, -0.0002355994, 0.01158998, -5.556863E-05, 0.00104407, -0.0001758983, 0.003664595, -0.0001504785, 0.0005187925, -0.9999974, -0.001543146, 0.3503954
 237830663, -0.0002257261, 0.0108585, -8.798894E-05, 0.00104407, 0.0003259813, 0.004358223, -0.0001167736, 0.0005187925, -0.9999974, -0.001544212, 0.3503954
 238031416, 0.0004687394, 0.01205793, -0.0004345168, 0.001046232, 4.014377E-05, 0.004449076, -0.0002230145, 0.0005209541, -0.9999974, -0.001546362, 0.3511209
 238231336, -9.377074E-05, 0.0117534, -0.000389774, 0.001046232, -5.12883E-05, 0.004115297, -0.0001937949, 0.0005187925, -0.9999974, -0.001547177, 0.3511209
 238431256, 7.819058E-05, 0.01152714, -0.0002748522, 0.00104407, 0.0001521393, 0.004339374, -0.0001707407, 0.0005187925, -0.9999974, -0.001544849, 0.3503954
 238631176, 0.0001162001, 0.01179342, -5.996573E-05, 0.00104407, -1.339975E-05, 0.0042382, -0.0001050338, 0.0005187925, -0.9999974, -0.001544156, 0.3503954
 238831096, -0.0002548296, 0.01138665, -0.0002395268, 0.00104407, -0.0002023219, 0.004280107, -0.0001309121, 0.0005187925, -0.9999974, -0.001541886, 0.3503954
 239031016, -0.0001769429, 0.01131487, -0.0001625948, 0.00104407, -0.0004821803, 0.003837819, -0.0001880239, 0.0005187925, -0.9999974, -0.001539866, 0.3503954
 239230936, -0.0004858951, 0.01115482, -0.0004954502, 0.00104407, -0.0004947309, 0.004248803, -0.0003587742, 0.0005187925, -0.9999974, -0.001537596, 0.3503954
 239430856, -0.0003265119, 0.01157173, -0.000493919, 0.00104407, 5.367206E-05, 0.004133614, 0.0002848284, 0.0005187925, -0.9999974, -0.001535033, 0.3503954
 239630776, -6.083701E-05, 0.01165526, 0.0001287482, 0.00104407, -4.585524E-05, 0.004282405, -7.379677E-06, 0.0005187925, -0.9999974, -0.001532434, 0.3503954
 239830696, 0.0002060719, 0.01180414, -8.046991E-06, 0.00104407, 0.0002955827, 0.004187034, 0.0001295072, 0.0005187925, -0.9999974, -0.001530072, 0.3503954
 240031449, 0.0004058743, 0.01162291, 0.0004057194, 0.001046232, -1.856813E-05, 0.004196849, 1.027968E-06, 0.0005209541, -0.9999974, -0.001530178, 0.3511209
 240231369, -0.0004493307, 0.01175666, -0.0001127082, 0.001046232, -0.0002413047, 0.004481864, -0.0001186027, 0.0005187925, -0.9999974, -0.001539658, 0.3511209
 240431289, -0.0002040194, 0.0118725, 0.0001150469, 0.00104407, -6.533727E-05, 0.003978213, -1.564115E-05, 0.0005187925, -0.9999974, -0.00154693, 0.3503954
 240631209, -0.0005278622, 0.01138453, -0.0002456385, 0.00104407, -0.0001441613, 0.004380922, -0.0003762945, 0.0005187925, -0.9999974, -0.001554187, 0.3503954
 240831129, -0.000321625, 0.01184667, -0.0007087995, 0.00104407, -0.0004128614, 0.004246729, -0.0003258116, 0.0005187925, -0.9999974, -0.001561708, 0.3503954
 241031049, -0.0002306693, 0.01115673, -0.0004395109, 0.00104407, -9.361778E-05, 0.003695316, -9.253019E-05, 0.0005187925, -0.9999974, -0.001567572, 0.3503954
 241230969, -0.000548463, 0.01115256, -0.0001173467, 0.00104407, -0.0002844715, 0.004351453, 0.0001173408, 0.0005187925, -0.9999974, -0.001572665, 0.3503954
 241430889, -0.0003546146, 0.01171035, 0.0001117402, 0.00104407, -0.000156658, 0.0042597, -0.0003572561, 0.0005187925, -0.9999974, -0.001577513, 0.3503954
 241630809, -0.0002485811, 0.01156207, -0.0005058279, 0.00104407, -0.000252499, 0.004239712, 3.654448E-05, 0.0005187925, -0.9999974, -0.00158166, 0.3503954
 241830729, -9.693718E-05, 0.01144804, -0.0002921282, 0.00104407, 0.0003330441, 0.003645988, -0.0001558014, 0.0005187925, -0.9999974, -0.001584606, 0.3503954
 242031482, 0.0003432556, 0.01132972, -9.568196E-05, 0.001046232, -1.811859E-05, 0.004281502, -3.12124E-05, 0.0005209541, -0.9999973, -0.001589048, 0.3511209
 242231402, -3.507766E-05, 0.01152861, -5.17356E-05, 0.001046232, -0.0001901725, 0.004748867, 7.901963E-05, 0.0005187925, -0.9999973, -0.001592599, 0.3511209
 242431322, -0.0002957525, 0.01206034, -0.0003394926, 0.00104407, 6.443518E-06, 0.004461452, -0.0002457351, 0.0005187925, -0.9999973, -0.001594716, 0.3503954
 242631242, 4.508443E-06, 0.01185628, -0.0004983756, 0.00104407, 0.0001908407, 0.003769248, 2.954254E-05, 0.0005187925, -0.9999973, -0.001593096, 0.3503954
 242831162, 1.290269E-05, 0.01093819, -0.0003313085, 0.00104407, -0.0002427898, 0.004185872, 4.456525E-05, 0.0005187925, -0.9999973, -0.001593612, 0.3503954
 243031082, -0.0002939879, 0.01176665, -0.0001424327, 0.00104407, 0.0003234569, 0.004108349, 0.0004334039, 0.0005187925, -0.9999973, -0.001593164, 0.3503954
 243231002, 5.453562E-05, 0.01146798, 0.0004540879, 0.00104407, -0.0002313416, 0.004369596, -7.241451E-05, 0.0005187925, -0.9999973, -0.00159367, 0.3503954
 243430922, -0.0001220017, 0.0116247, -0.0002548247, 0.00104407, 0.0004867699, 0.004029818, -3.664814E-05, 0.0005187925, -0.9999973, -0.001592962, 0.3503954
 243630842, 0.0006060108, 0.01171193, -1.857252E-05, 0.00104407, -0.0001383036, 0.004441777, -0.0001217605, 0.0005187925, -0.9999973, -0.001591791, 0.3503954
 243830762, -0.0003129376, 0.01209181, -0.0002997295, 0.00104407, -0.0003464871, 0.004485259, 8.341073E-05, 0.0005187925, -0.9999973, -0.001590041, 0.3503954
 244030682, -0.0005312691, 0.01167515, 0.0001211516, 0.00104407, 7.904048E-05, 0.004525335, -0.0001770634, 0.0005187925, -0.9999973, -0.001587218, 0.3503954
 244231435, -0.0004657692, 0.0120557, -0.0004124887, 0.001046232, -0.0001435553, 0.004508677, 0.0001411481, 0.0005209541, -0.9999973, -0.001587861, 0.3511209
 244431355, -7.885219E-05, 0.01197636, -0.0001458776, 0.001046232, 0.0001815627, 0.004462474, -0.0001724221, 0.0005187925, -0.9999973, -0.001584797, 0.3511209
 244631275, 8.251953E-05, 0.0119887, -0.0004866106, 0.00104407, 0.0002949818, 0.004354988, 7.676271E-05, 0.0005187925, -0.9999973, -0.001578656, 0.3503954
 244831195, 0.0002243849, 0.01167901, -0.0002166429, 0.00104407, -0.0002556082, 0.004241535, 1.093785E-05, 0.0005187925, -0.9999973, -0.001574225, 0.3503954
 245031115, -0.00035406, 0.01173666, -0.0001938986, 0.00104407, 0.0002556655, 0.004472852, -8.561285E-05, 0.0005187925, -0.9999973, -0.001567385, 0.3503954
 245231035, 0.0005423175, 0.01206866, -0.0001301615, 0.00104407, -0.0003234578, 0.004431988, -2.946271E-05, 0.0005187925, -0.9999973, -0.001562517, 0.3503954
 245430955, -0.0004243904, 0.0118441, -0.0001441903, 0.00104407, -0.0002943118, 0.004435267, -0.0005570269, 0.0005187925, -0.9999973, -0.00157208, 0.3503954
 245630875, -0.0007123469, 0.01188092, -0.0006220451, 0.00104407, -0.0002419894, 0.004152257, 0.0002490859, 0.0005187925, -0.9999974, -0.00157988, 0.3503954
 245830795, -0.0003466464, 0.01097988, 0.0001409706, 0.00104407, 0.000200833, 0.003999506, -0.0004883123, 0.0005187925, -0.9999974, -0.001586942, 0.3503954
 246030715, 0.000675501, 0.01116138, -0.000626044, 0.00104407, 0.0004683582, 0.003925057, -0.0003643771, 0.0005187925, -0.9999974, -0.001591821, 0.3503954
 246231468, 0.0005800745, 0.0111631, -0.0005445515, 0.001046232, -0.0004913448, 0.004045312, -0.0002371586, 0.0005209541, -0.9999974, -0.001597574, 0.3511209
 246431388, -0.0006547832, 0.01159059, -0.0008257228, 0.001046232, -7.855027E-05, 0.004288609, -0.0002135292, 0.0005187925, -0.9999973, -0.001602648, 0.3511209
 246631308, 1.44204E-05, 0.01174289, -0.0005260031, 0.00104407, 0.0002199282, 0.004584841, -0.0002619994, 0.0005187925, -0.9999973, -0.00160677, 0.3503954
 246831228, 0.0006608333, 0.01213911, -0.2705518, 0.00104407, 0.0002004371, 0.004239999, -0.1893696, 0.0005187925, -0.9999973, -0.001608179, 0.3503954
 247031148, 3.423199E-05, 0.01164188, -0.1997524, 0.00104407, -0.0003975183, 0.004219216, 0.0596511, 0.0005187925, -0.9999973, -0.001610361, 0.3503954
 247231068, -0.0006895968, 0.01142777, 0.1382129, 0.00104407, -0.00018975, 0.004062543, 0.03383005, 0.0005187925, -0.9999974, -0.00161383, 0.3503954
 247430988, -0.002546256, 0.008532685, -1.163106, 0.00104407, -0.003328578, 0.000483464, -0.8211238, 0.0005187925, -0.9999951, -0.001768119, 0.3503954
 247630908, -0.01589084, -0.005949767, -1.523895, 0.00104407, -0.008689173, -0.005505809, -0.1831493, 0.0005187925, -0.9999765, -0.002092909, 0.3503954
 247830828, -0.02495485, -0.01686051, -0.3084729, 0.00104407, -0.009259709, -0.006287303, -0.07061365, 0.0005187925, -0.9999679, -0.002384483, 0.3503954
 248030748, -0.02491005, -0.01599987, -0.2864881, 0.00104407, -0.008830682, -0.005010311, -0.1451898, 0.0005187925, -0.9999689, -0.002644869, 0.3503954
 248230668, -0.02287359, -0.01163154, -0.3882929, 0.00104407, -0.007667477, -0.002887378, -0.1297011, 0.0005187925, -0.9999722, -0.002889179, 0.3503954
 248431421, -0.01990108, -0.006277024, -0.3233399, 0.001046232, -0.00688054, -0.001281961, -0.1028621, 0.0005209541, -0.9999759, -0.003117592, 0.3511209
 248631341, -0.01742639, -0.001907213, -0.2665075, 0.001046232, -0.005831906, -9.773382E-05, -0.0899474, 0.0005187925, -0.9999785, -0.0032462, 0.3511209
 248831261, -0.01495604, 0.001304599, -0.2367454, 0.00104407, -0.005137389, 0.001034579, -0.0806364, 0.0005187925, -0.9999802, -0.003089858, 0.3503954
 249031181, -0.01210652, 0.00315485, -0.2105899, 0.00104407, -0.003575926, 0.001269935, -0.07079776, 0.0005187925, -0.9999808, -0.002891002, 0.3503954
 249231101, -0.008593543, 0.004250772, -0.1844338, 0.00104407, -0.002327091, 0.001748349, -0.06205627, 0.0005187925, -0.9999814, -0.002708537, 0.3503954
 249431021, -0.005420696, 0.005428906, -0.1613452, 0.00104407, -0.001506769, 0.002169278, -0.05383847, 0.0005187925, -0.9999818, -0.00257781, 0.3503954
 249630941, -0.003456264, 0.006500229, -0.139862, 0.00104407, -0.001067037, 0.002372911, -0.04741013, 0.0005187925, -0.9999809, -0.002887717, 0.3503954
 249830861, -0.002781173, 0.006853272, -0.1243292, 0.00104407, -0.0007859846, 0.002534848, -0.04240656, 0.0005187925, -0.9999793, -0.003454087, 0.3503954
 250030781, -0.002684043, 0.007398704, -0.1100393, 0.00104407, -0.001144983, 0.002859198, -0.03673385, 0.0005187925, -0.9999772, -0.003999955, 0.3503954
 250230701, -0.003273616, 0.008164472, -0.09615093, 0.00104407, -0.001513006, 0.003110274, -0.03238087, 0.0005187925, -0.999975, -0.004526311, 0.3503954
 250431454, -0.004010289, 0.008416655, -0.08467677, 0.001046232, -0.001388288, 0.002881108, -0.02851109, 0.0005209541, -0.9999716, -0.005007205, 0.3511209
 250631374, -0.003855772, 0.007934002, -0.07442623, 0.001046232, -0.00161883, 0.002599091, -0.02527462, 0.0005187925, -0.9999673, -0.005457952, 0.3511209
 250831294, -0.004448601, 0.007199135, -0.06543027, 0.00104407, -0.001748907, 0.002581772, -0.0219936, 0.0005187925, -0.999963, -0.005887644, 0.3503954
 251031214, -0.004274721, 0.006779679, -0.05729863, 0.00104407, -0.00122265, 0.002344443, -0.01925426, 0.0005187925, -0.9999586, -0.006308014, 0.3503954
 251231134, -0.003165975, 0.006076687, -0.0502753, 0.00104407, -0.001044713, 0.002010049, -0.01715652, 0.0005187925, -0.999954, -0.006711936, 0.3503954
 251431054, -0.002468637, 0.005750366, -0.04431092, 0.00104407, -0.0005256612, 0.002144725, -0.01512017, 0.0005187925, -0.9999496, -0.007095309, 0.3503954
 251630974, -0.001339078, 0.005557502, -0.03910544, 0.00104407, -0.0005106934, 0.002074763, -0.0133433, 0.0005187925, -0.9999451, -0.007463042, 0.3503954
 251830894, -0.0004863392, 0.005854028, -0.03428972, 0.00104407, 0.0002064597, 0.002123693, -0.01155908, 0.0005187925, -0.999942, -0.007800142, 0.3503954
 252030814, 0.0003731645, 0.006178261, -0.02991644, 0.00104407, 7.882914E-05, 0.002446139, -0.009979067, 0.0005187925, -0.99994, -0.008108684, 0.3503954
 252230734, 0.0008057001, 0.007156553, -0.02562556, 0.00104407, 0.0004194447, 0.002998796, -0.008141227, 0.0005187925, -0.9999385, -0.008442905, 0.3503954
 252430654, 0.0009708964, 0.008679291, -0.02194952, 0.00104407, 0.0004602415, 0.003443945, -0.00811791, 0.0005187925, -0.9999362, -0.008960057, 0.3503954
 252631407, 0.001328992, 0.01014448, -0.02097384, 0.001046232, 0.0007347904, 0.004010036, -0.007211396, 0.0005209541, -0.999934, -0.009478182, 0.3511209
 252831327, 0.001682312, 0.01153609, -0.0186312, 0.001046232, 0.0001727989, 0.004520862, -0.006161524, 0.0005187925, -0.9999316, -0.009964701, 0.3511209
 253031247, 0.0009610962, 0.01307918, -0.01563961, 0.00104407, 0.0003922461, 0.004971612, -0.005260403, 0.0005187925, -0.999929, -0.01042929, 0.3503954
 253231167, 0.001055132, 0.0141918, -0.01392823, 0.00104407, 0.0004738377, 0.00555522, -0.00463493, 0.0005187925, -0.9999263, -0.0108742, 0.3503954
 253431087, 0.0008683995, 0.01524094, -0.01236159, 0.00104407, 0.0005318913, 0.00583072, -0.004250264, 0.0005187925, -0.9999233, -0.01129346, 0.3503954
 253631007, 0.0006820143, 0.01608169, -0.01077909, 0.00104407, 0.0001754087, 0.006011555, -0.003582011, 0.0005187925, -0.9999203, -0.01169088, 0.3503954
 253830927, 0.0002233994, 0.01679114, -0.009485673, 0.00104407, -0.0002898682, 0.006583974, -0.003339855, 0.0005187925, -0.999917, -0.01206845, 0.3503954
 254030847, 0.0002483506, 0.01819777, 0.1301673, 0.00104407, 0.001564143, 0.007488335, 0.3581817, 0.0005187925, -0.9999135, -0.012447, 0.3503954
 254230767, 0.004433799, 0.02085683, 0.9978136, 0.00104407, 0.001789795, 0.007718595, 0.3564774, 0.0005187925, -0.9999059, -0.01303906, 0.3503954
 254430687, 0.004118726, 0.02022692, 0.9263418, 0.00104407, 0.001126523, 0.006786413, 0.3121902, 0.0005187925, -0.9998981, -0.0136061, 0.3503954
 254631440, 0.003300484, 0.0187422, 0.8144346, 0.001046232, 0.00128798, 0.006973278, 0.2751277, 0.0005209541, -0.9998907, -0.01413287, 0.3511209
 254831360, 0.003198945, 0.01837896, 0.7144315, 0.001046232, 0.0009927141, 0.006809636, 0.2407103, 0.0005187925, -0.9998837, -0.01462337, 0.3511209
 255031280, 0.003000397, 0.01752972, 0.6255946, 0.00104407, 0.001105829, 0.005945137, 0.2108217, 0.0005187925, -0.9998767, -0.01508714, 0.3503954
 255231200, 0.00274304, 0.01593221, 0.5288238, 0.00104407, 0.0003954705, 0.005679092, 0.1542622, 0.0005187925, -0.9998701, -0.01551914, 0.3503954
 255431120, -0.003949846, 0.01560091, 0.3968711, 0.00104407, -0.005348885, 0.005728717, 0.1322739, 0.0005187925, -0.9998634, -0.0158982, 0.3503954
 255631040, -0.02169162, 0.00941124, 0.3449437, 0.00104407, -0.01070506, -0.0005331739, 0.1151873, 0.0005187925, -0.9998046, -0.01605834, 0.3503954
 255830960, -0.01240893, -0.005867976, 0.2910812, 0.00104407, 0.007423301, -0.002455699, 0.0931987, 0.0005187925, -0.9997945, -0.01634313, 0.3503954
 256030880, 0.04787627, 0.003274517, 0.233062, 0.00104407, 0.02998606, 0.00732224, 0.07370373, 0.0005187925, -0.999859, -0.01669708, 0.3503954
 256230800, 0.08699746, 0.03126002, 0.1819775, 0.00104407, 0.03243897, 0.01632099, 0.05630618, 0.0005187925, -0.9998353, -0.0172304, 0.3503954
 256430720, 0.08763253, 0.03019021, 0.1389248, 0.00104407, 0.03181067, 0.0003563322, 0.04228622, 0.0005187925, -0.999771, -0.01823071, 0.3503954
 256631473, 0.09055865, -0.0171344, 0.1044396, 0.001046232, 0.03500025, -0.01207655, 0.03212312, 0.0005209541, -0.9996501, -0.0184871, 0.3511209
 256831393, 0.08976463, -0.006855806, 0.07731726, 0.001046232, 0.0282938, 0.01456302, 0.02306024, 0.0005187925, -0.9998064, -0.01801351, 0.3511209
 257031313, 0.06038671, 0.07492691, 0.05694159, 0.00104407, 0.01258054, 0.04297809, 0.0169097, 0.0005187925, -0.9992938, -0.01860876, 0.3503954
 257231233, 0.03222344, 0.1232061, 0.04239877, 0.00104407, 0.01313317, 0.04568078, 0.0122854, 0.0005187925, -0.999122, -0.01990713, 0.3503954
 257431153, 0.05849021, 0.1090576, 0.0318608, 0.00104407, 0.03400116, 0.03047268, 0.01024783, 0.0005187925, -0.9993922, -0.02115469, 0.3503954
 257631073, 0.1125945, 0.08244438, 0.02524167, 0.00104407, 0.04897768, 0.03274479, 0.007780356, 0.0005187925, -0.9991564, -0.0212609, 0.3503954
 257830993, 0.1194159, 0.08210693, 0.01957308, 0.00104407, 0.03213384, 0.02154172, 0.00566145, 0.0005187925, -0.9994739, -0.02226122, 0.3503954
 258030913, 0.04338812, 0.02541124, 0.01494168, 0.00104407, -0.008521358, -0.008016009, 0.00476191, 0.0005187925, -0.999744, -0.02250551, 0.3503954
 258230833, -0.06822163, -0.04073133, 0.01426437, 0.00104407, -0.04639578, -0.02227431, 0.005242338, 0.0005187925, -0.999647, -0.02156385, 0.3503954
 258430753, -0.1457458, -0.05503045, 0.01358567, 0.00104407, -0.05987012, -0.01483897, 0.004590918, 0.0005187925, -0.9997246, -0.0212769, 0.3503954
 258630673, -0.1519291, -0.0234293, 0.01051673, 0.00104407, -0.04695976, 0.0002763988, 0.002461348, 0.0005187925, -0.9997612, -0.02178448, 0.3503954
 258831426, -0.09844021, 0.007502791, 0.006766522, 0.001046232, -0.01946898, 0.005147068, 0.001693088, 0.0005209541, -0.9997411, -0.02230919, 0.3511209
 259031346, -0.04059804, 0.008525289, 0.004443876, 0.001046232, -0.01188555, 0.0002374133, 0.001245173, 0.0005187925, -0.9997375, -0.02291177, 0.3511209
 259231266, -0.06015361, -0.003014327, 0.003446689, 0.00104407, -0.03894799, -0.002367298, 0.0008174749, 0.0005187925, -0.9997185, -0.02355594, 0.3503954
 259431186, -0.1165015, -0.007489035, 0.002279657, 0.00104407, -0.0418807, -0.0036335, 0.0004328021, 0.0005187925, -0.9996918, -0.02409283, 0.3503954
 259631106, -0.08345528, -0.025963, 0.0005717446, 0.00104407, -0.01375198, -0.01932057, -0.0001011372, 0.0005187925, -0.9994571, -0.02411952, 0.3503954
 259831026, -0.02004402, -0.06812083, -0.0002388333, 0.00104407, -0.001286996, -0.0303375, -0.0002642945, 0.0005187925, -0.9991682, -0.02440803, 0.3503954
 260030946, -0.006628403, -0.06809402, -0.001553238, 0.00104407, -0.004300444, -0.01419803, -0.001365184, 0.0005187925, -0.9995114, -0.02513741, 0.3503954
 260230866, -0.0117761, -0.0115978, -0.002899573, 0.00104407, -0.003438863, 0.009142517, -0.001153721, 0.0005187925, -0.9996619, -0.02599443, 0.3503954
 260430786, -0.001820239, 0.03099888, -0.002941344, 0.00104407, 0.003323739, 0.01234486, -0.001343733, 0.0005187925, -0.9996489, -0.02644995, 0.3503954
 260630706, -7.81212E-05, 0.03814183, -0.003131869, 0.00104407, -0.007864472, 0.01842522, -0.001381152, 0.0005187925, -0.9995931, -0.02693812, 0.3503954
 260831459, -0.0357916, 0.06287602, -0.002724029, 0.001046232, -0.01774314, 0.02858999, -0.0008612362, 0.0005209541, -0.9994378, -0.02763457, 0.3511209
 261031379, -0.0334562, 0.06912928, -0.002492881, 0.001046232, -0.001857642, 0.01791603, -0.001072152, 0.0005187925, -0.9995692, -0.02778108, 0.3511209
 261231299, 0.02268577, 0.02119243, -0.002749897, 0.00104407, 0.02163428, -0.00690394, -0.001149161, 0.0005187925, -0.9995468, -0.02788534, 0.3503954
 261431219, 0.0580985, -0.02873331, -0.002797619, 0.00104407, 0.0166564, -0.01207372, -0.001074491, 0.0005187925, -0.9994894, -0.02809083, 0.3503954
 261631139, 0.02247148, -0.03539224, -0.002397942, 0.00104407, -0.003385281, -0.01573319, -0.0008807878, 0.0005187925, -0.9993398, -0.02845257, 0.3503954
 261831059, -0.01947, -0.06055513, -0.000932323, 0.00104407, -0.01106647, -0.03122341, -0.0005834724, 0.0005187925, -0.9988177, -0.0286011, 0.3503954
 262030979, -0.04371885, -0.08238247, -0.001729914, 0.00104407, -0.02501611, -0.02430649, -0.0002882793, 0.0005187925, -0.9990129, -0.02925942, 0.3503954
 262230899, -0.0917477, -0.03521913, -0.001050522, 0.00104407, -0.04481679, 0.003921699, -0.0004083334, 0.0005187925, -0.9994648, -0.03076652, 0.3503954
 262430819, -0.1127151, 0.02339199, -0.001942749, 0.00104407, -0.03017674, 0.01210874, -0.00186835, 0.0005187925, -0.9994912, -0.03108309, 0.3503954
 262630739, -0.03117045, 0.01681019, -0.003553781, 0.00104407, 0.01626662, -0.003737987, -0.001204873, 0.0005187925, -0.9992955, -0.03078491, 0.3503954
 262830659, 0.08206914, -0.02972488, -0.00194165, 0.00104407, 0.04575804, -0.01994391, -0.000380327, 0.0005187925, -0.9988461, -0.03108726, 0.3503954
 263031412, 0.1255603, -0.06093835, -0.001012437, 0.001046232, 0.04315005, -0.02374835, -0.0005833019, 0.0005209541, -0.9986265, -0.03148153, 0.3511209
 263231332, 0.1012149, -0.06029861, -0.001718637, 0.001046232, 0.02769339, -0.01895246, -0.0009813746, 0.0005187925, -0.9986462, -0.0318478, 0.3511209
 263431252, 0.0678772, -0.04746635, -0.001868313, 0.00104407, 0.0213744, -0.0152605, -0.0002812131, 0.0005187925, -0.9986216, -0.03228168, 0.3503954
 263631172, 0.06476624, -0.0419484, -0.001452937, 0.00104407, 0.0276616, -0.0157077, -0.0002259745, 0.0005187925, -0.9984595, -0.03278301, 0.3503954
 263831092, 0.0853955, -0.04578619, -0.001045927, 0.00104407, 0.03558183, -0.01809076, -0.0003556057, 0.0005187925, -0.9981857, -0.03334464, 0.3503954
 264031012, 0.103246, -0.05237805, -0.001190067, 0.00104407, 0.04017234, -0.02023182, -3.343675E-05, 0.0005187925, -0.9978932, -0.03402904, 0.3503954
 264230932, 0.1112736, -0.05715301, -0.0006652196, 0.00104407, 0.04056183, -0.02151444, -0.001190775, 0.0005187925, -0.9976154, -0.03470523, 0.3503954
 264430852, 0.1122246, -0.05930068, -0.001938229, 0.00104407, 0.04094153, -0.02142226, -0.00088572, 0.0005187925, -0.9973284, -0.03545201, 0.3503954
 264630772, 0.1149847, -0.05969123, -0.0006455604, 0.00104407, 0.04327231, -0.02197234, -0.0003217029, 0.0005187925, -0.9970226, -0.03623822, 0.3503954
 264830692, 0.1224689, -0.061337, -0.0007931314, 0.00104407, 0.0462708, -0.02288363, -0.0005066156, 0.0005187925, -0.9966619, -0.03714735, 0.3503954
 265031445, 0.1309173, -0.06326019, -0.0008318796, 0.001046232, 0.04984047, -0.02345804, -0.0002830958, 0.0005209541, -0.9962696, -0.0380785, 0.3511209
 265231365, 0.1385901, -0.06525393, -0.0008895367, 0.001046232, 0.05158619, -0.02421667, -0.001160578, 0.0005187925, -0.9958003, -0.03915379, 0.3511209
 265431285, 0.143566, -0.0677846, 6.870605E-05, 0.00104407, 0.05334392, -0.02544531, 0.001418773, 0.0005187925, -0.995284, -0.04029792, 0.3503954
 265631205, 0.1489443, -0.07037923, 0.002612845, 0.00104407, 0.05496217, -0.02583836, 0.0005778908, 0.0005187925, -0.994767, -0.04152958, 0.3503954
 265831125, 0.1527921, -0.0710514, 0.0006636312, 0.00104407, 0.05610843, -0.02556969, -0.0003075942, 0.0005187925, -0.9942557, -0.04284647, 0.3503954
 266031045, 0.1560936, -0.0701336, -0.0001555976, 0.00104407, 0.05780745, -0.02524833, -0.0002188939, 0.0005187925, -0.9937356, -0.04426148, 0.3503954
 266230965, 0.1601636, -0.06949515, -0.0001686875, 0.00104407, 0.05919272, -0.02525957, -3.710573E-05, 0.0005187925, -0.9931173, -0.04601704, 0.3503954
 266430885, 0.1642576, -0.07047634, 8.906137E-05, 0.00104407, 0.06101317, -0.02660628, 0.0001819002, 0.0005187925, -0.9923477, -0.04796896, 0.3503954
 266630805, 0.1687446, -0.07406034, -3.907429E-05, 0.00104407, 0.06212198, -0.02759483, -0.000289353, 0.0005187925, -0.9915618, -0.04987922, 0.3503954
 266830725, 0.1717024, -0.07495075, -0.0005211057, 0.00104407, 0.06297303, -0.02675484, 5.429361E-05, 0.0005187925, -0.9908506, -0.05173418, 0.3503954
 267031478, 0.1748129, -0.07295267, -0.001094156, 0.001046232, 0.06481654, -0.02643945, -0.0007375129, 0.0005209541, -0.9901176, -0.05367683, 0.3511209
 267231398, 0.1782921, -0.07213033, -0.001792065, 0.001046232, 0.06519626, -0.02617705, -0.0008057981, 0.0005187925, -0.9892318, -0.05591739, 0.3511209
 267431318, 0.1807477, -0.07315303, -0.002271115, 0.00104407, 0.06660613, -0.02725687, -0.0007574961, 0.0005187925, -0.9882219, -0.05840389, 0.3503954
 267631238, 0.1845753, -0.07527316, -0.002400294, 0.00104407, 0.06789841, -0.02748235, -0.001485189, 0.0005187925, -0.9872093, -0.06095742, 0.3503954
 267831158, 0.1882325, -0.07506026, -0.003813049, 0.00104407, 0.06946918, -0.02727615, -0.001375487, 0.0005187925, -0.9862022, -0.0636415, 0.3503954
 268031078, 0.1921216, -0.07458261, -0.004029477, 0.00104407, 0.07086567, -0.02700035, -0.001765591, 0.0005187925, -0.9851375, -0.06649911, 0.3503954
 268230998, 0.1953852, -0.07396952, -0.004650007, 0.00104407, 0.07188328, -0.02680012, -0.001766487, 0.0005187925, -0.9839753, -0.0695361, 0.3503954
 268430918, 0.1985096, -0.07479256, -0.005480834, 0.00104407, 0.07295254, -0.02765052, -0.002712788, 0.0005187925, -0.9827251, -0.07269207, 0.3503954
 268630838, 0.2026891, -0.07566275, -0.006757026, 0.00104407, 0.07526528, -0.0273334, -0.00264347, 0.0005187925, -0.9814743, -0.07582229, 0.3503954
 268830758, 0.2069475, -0.07520338, -0.007269347, 0.00104407, 0.07594548, -0.02747923, -0.003546156, 0.0005187925, -0.980179, -0.07901558, 0.3503954
 269030678, 0.209664, -0.07497379, -0.009319171, 0.00104407, 0.07695058, -0.02707428, -0.003941478, 0.0005187925, -0.9788316, -0.08234333, 0.3503954
 269231431, 0.2128122, -0.07450863, -0.01013231, 0.001046232, 0.07834788, -0.0274392, -0.004303003, 0.0005209541, -0.9773979, -0.08587888, 0.3511209
 269431351, 0.2155396, -0.07469093, -0.01142119, 0.001046232, 0.07894292, -0.02755204, -0.004807568, 0.0005187925, -0.9759027, -0.08956014, 0.3511209
 269631271, 0.218155, -0.07508568, -0.01264874, 0.00104407, 0.08051779, -0.02747128, -0.005202556, 0.0005187925, -0.974335, -0.09336159, 0.3503954
 269831191, 0.2223766, -0.07520837, -0.01403683, 0.00104407, 0.08182379, -0.02727693, -0.005347558, 0.0005187925, -0.9727711, -0.09718434, 0.3503954
 270031111, 0.2251632, -0.07461794, -0.01530178, 0.00104407, 0.08269928, -0.02736013, -0.006698004, 0.0005187925, -0.9711593, -0.1011439, 0.3503954
 270231031, 0.2274681, -0.07457092, -0.01739639, 0.00104407, 0.08366635, -0.02696647, -0.007076579, 0.0005187925, -0.9694514, -0.1052533, 0.3503954
 270430951, 0.2310198, -0.07418865, -0.01860603, 0.00104407, 0.08539402, -0.02771329, -0.007577198, 0.0005187925, -0.9676965, -0.1094566, 0.3503954
 270630871, 0.2353727, -0.07485694, -0.02011906, 0.00104407, 0.08664505, -0.02719452, -0.008183736, 0.0005187925, -0.9659191, -0.1137329, 0.3503954
 270830791, 0.2392645, -0.07451198, -0.02193217, 0.00104407, 0.08829168, -0.02754007, -0.009151919, 0.0005187925, -0.9641243, -0.1180946, 0.3503954
 271030711, 0.2426925, -0.07437035, -0.02468159, 0.00104407, 0.08904996, -0.02696676, -0.01034823, 0.0005187925, -0.9623394, -0.1224915, 0.3503954
 271231464, 0.2448962, -0.07308452, -0.02741433, 0.001046232, 0.08978527, -0.0263405, -0.01068261, 0.0005209541, -0.960494, -0.1270187, 0.3511209
 271431384, 0.2460006, -0.07160176, -0.02875509, 0.001046232, 0.09040707, -0.02575979, -0.01148839, 0.0005187925, -0.9586517, -0.1316491, 0.3511209
 271631304, 0.2488076, -0.07039624, -0.03036278, 0.00104407, 0.09178454, -0.02580644, -0.01190031, 0.0005187925, -0.9567981, -0.1362339, 0.3503954
 271831224, 0.253089, -0.06956552, -0.0318548, 0.00104407, 0.09347656, -0.02514236, -0.01288141, 0.0005187925, -0.9548922, -0.1408036, 0.3503954
 272031144, 0.2571717, -0.06832251, -0.03392466, 0.00104407, 0.09486492, -0.02494445, -0.01346492, 0.0005187925, -0.9529635, -0.1453267, 0.3503954
 272231064, 0.2605982, -0.06717367, -0.03593475, 0.00104407, 0.09603865, -0.02417771, -0.01415535, 0.0005187925, -0.9510333, -0.1497908, 0.3503954
 272430984, 0.2636896, -0.06526066, -0.03791058, 0.00104407, 0.09714673, -0.02374239, -0.01462313, 0.0005187925, -0.9491143, -0.1542406, 0.3503954
 272630904, 0.2676359, -0.06363579, -0.03951354, 0.00104407, 0.09864847, -0.02287394, -0.01584415, 0.0005187925, -0.9471992, -0.1587263, 0.3503954
 272830824, 0.2718355, -0.06158542, -0.04160165, 0.00104407, 0.1007303, -0.02215875, -0.01638999, 0.0005187925, -0.9452558, -0.1632841, 0.3503954
 273030744, 0.2771198, -0.05999054, -0.04297601, 0.00104407, 0.1030841, -0.0220878, -0.01693554, 0.0005187925, -0.9433081, -0.1678783, 0.3503954
 273230664, 0.2828518, -0.05881455, -0.04546165, 0.00104407, 0.1047381, -0.02118918, -0.01780573, 0.0005187925, -0.9413882, -0.1725038, 0.3503954
