TimeUS,CGpN,CGpE,CGpD,CGpe,PGpN,PGpE,PGpD,PGpe
 170560915, 0, 0, 0, 0.01, 0, 0, 0, 0
 170630887, 0, 0, 0, 0.01, 0, 0, 0, 0.01
 170830807, 0, 0, 0, 0.01, 0, 0, 0, 0.01
 171030727, 0, 0, 0, 0.01, 0, 0, 0, 0.01
 171231480, 0, 0, 0, 0.01, 0, 0, 0, 0.01
 171431400, 0, 0, 0, 0.01, 0, 0, 0, 0.01
 171631320, 0, 0, 0, 0.01, 0, 0, 0, 0.01
 171831240, 0, 0, 0, 0.01, 0, 0, 0, 0.01
 172031160, 0, 0, 0, 0.01, 0, 0, 0, 0.01
 172231080, 0, 0, 0, 0.01, 0, 0, 0, 0.01
 172431000, 0, 0, 0, 0.01, 0, 0, 0, 0.01
 172630920, 0, 0, 0, 0.01, 0, 0, 0, 0.01
 172830840, 0, 0, 0, 0.01, 0, 0, 0, 0.01
 173030760, 0, 0, 0, 0.01, 0, 0, 0, 0.01
 173230680, 0, 0, 0, 0.01, 0, 0, 0, 0.01
 173431433, 0, 0, 0, 0.01, 0, 0, 0, 0.01
 173631353, 0, 0, 0, 0.01, 0, 0, 0, 0.01
 173831273, 0, 0, 0, 0.01, 0, 0, 0, 0.01
 174031193, 0, 0, 0, 0.01, 0, 0, 0, 0.01
 174231113, 0, 0, 0, 0.01, 0, 0, 0, 0.01
 174431033, 0, 0, 0, 0.01, 0, 0, 0, 0.01
 174630953, 0, 0, 0, 0.01, 0, 0, 0, 0.01
 174830873, 0, 0, 0, 0.01, 0, 0, 0, 0.01
 175030793, 0, 0, 0, 0.01, 0, 0, 0, 0.01
 175230713, 0, 0, 0, 0.01, 0, 0, 0, 0.01
 175431466, 0, 0, 0, 0.01, 0, 0, 0, 0.01
 175631386, 0, 0, 0, 0.01, 0, 0, 0, 0.01
 175831306, 0, 0, 0, 0.01, 0, 0, 0, 0.01
 176031226, 0, 0, 0, 0.01, 0, 0, 0, 0.01
 176231146, 0, 0, 0, 0.01, 0, 0, 0, 0.01
 176431066, 0, 0, 0, 0.01, 0, 0, 0, 0.01
 176630986, 0, 0, 0, 0.01, 0, 0, 0, 0.01
 176830906, 0, 0, 0, 0.01, 0, 0, 0, 0.01
 177030826, 0, 0, 0, 0.01, 0, 0, 0, 0.01
 177230746, 0, 0, 0, 0.01, 0, 0, 0, 0.01
 177430666, 0, 0, 0, 0.01, 0, 0, 0, 0.01
 177631419, 0, 0, 0, 0.01, 0, 0, 0, 0.01
 177831339, 0, 0, 0, 0.01, 0, 0, 0, 0.01
 178031259, 0, 0, 0, 0.01, 0, 0, 0, 0.01
 178231179, 0, 0, 0, 0.01, 0, 0, 0, 0.01
 178431099, 0, 0, 0, 0.01, 0, 0, 0, 0.01
 178631019, 0, 0, 0, 0.01, 0, 0, 0, 0.01
 178830939, 0, 0, 0, 0.01, 0, 0, 0, 0.01
 179030859, 0, 0, 0, 0.01, 0, 0, 0, 0.01
 179230779, 0, 0, 0, 0.01, 0, 0, 0, 0.01
 179430699, 0, 0, 0, 0.01, 0, 0, 0, 0.01
 179631452, 0, 0, 0, 0.01, 0, 0, 0, 0.01
 179831372, 0, 0, 0, 0.01, 0, 0, 0, 0.01
 180031292, 0, 0, 0, 0.01, 0, 0, 0, 0.01
 180231212, 0, 0, 0, 0.01, 0, 0, 0, 0.01
 180431132, 0, 0, 0, 0.01, 0, 0, 0, 0.01
 180631052, 0, 0, 0, 0.01, 0, 0, 0, 0.01
 180830972, 0, 0, 0, 0.01, 0, 0, 0, 0.01
 181030892, 0, 0, 0, 0.01, 0, 0, 0, 0.01
 181230812, 0, 0, 0, 0.01, 0, 0, 0, 0.01
 181430732, 0, 0, 0, 0.01, 0, 0, 0, 0.01
 181631485, 0, 0, 0, 0.01, 0, 0, 0, 0.01
 181831405, 0, 0, 0, 0.01, 0, 0, 0, 0.01
 182031325, 0, 0, 0, 0.01, 0, 0, 0, 0.01
 182231245, 0, 0, 0, 0.01, 0, 0, 0, 0.01
 182431165, 0, 0, 0, 0.01, 0, 0, 0, 0.01
 182631085, 0, 0, 0, 0.01, 0, 0, 0, 0.01
 182831005, 0, 0, 0, 0.01, 0, 0, 0, 0.01
 183030925, 0, 0, 0, 0.01, 0, 0, 0, 0.01
 183230845, 0, 0, 0, 0.01, 0, 0, 0, 0.01
 183430765, 0, 0, 0, 0.01, 0, 0, 0, 0.01
 183630685, 0, 0, 0, 0.01, 0, 0, 0, 0.01
 183831438, 0, 0, 0, 0.01, 0, 0, 0, 0.01
 184031358, 0, 0, 0, 0.01, 0, 0, 0, 0.01
 184231278, 0, 0, 0, 0.01, 0, 0, 0, 0.01
 184431198, 0, 0, 0, 0.01, 0, 0, 0, 0.01
 184631118, 0, 0, 0, 0.01, 0, 0, 0, 0.01
 184831038, 0, 0, 0, 0.01, 0, 0, 0, 0.01
 185030958, 0, 0, 0, 0.01, 0, 0, 0, 0.01
 185230878, 0, 0, 0, 0.01, 0, 0, 0, 0.01
 185430798, 0, 0, 0, 0.01, 0, 0, 0, 0.01
 185630718, 0, 0, 0, 0.01, 0, 0, 0, 0.01
 185831471, 0, 0, 0, 0.01, 0, 0, 0, 0.01
 186031391, 0, 0, 0, 0.01, 0, 0, 0, 0.01
 186231311, 0, 0, 0, 0.01, 0, 0, 0, 0.01
 186431231, 0, 0, 0, 0.01, 0, 0, 0, 0.01
 186631151, 0, 0, 0, 0.01, 0, 0, 0, 0.01
 186831071, 0, 0, 0, 0.01, 0, 0, 0, 0.01
 187030991, 0, 0, 0, 0.01, 0, 0, 0, 0.01
 187230911, 0, 0, 0, 0.01, 0, 0, 0, 0.01
 187430831, 0, 0, 0, 0.01, 0, 0, 0, 0.01
 187630751, 0, 0, 0, 0.01, 0, 0, 0, 0.01
 187830671, 0, 0, 0, 0.01, 0, 0, 0, 0.01
 188031424, 0, 0, 0, 0.01, 0, 0, 0, 0.01
 188231344, 0, 0, 0, 0.01, 0, 0, 0, 0.01
 188431264, 0, 0, 0, 0.01, 0, 0, 0, 0.01
 188631184, 0, 0, 0, 0.01, 0, 0, 0, 0.01
 188831104, 0, 0, 0, 0.01, 0, 0, 0, 0.01
 189031024, 0, 0, 0, 0.01, 0, 0, 0, 0.01
 189230944, 0, 0, 0, 0.01, 0, 0, 0, 0.01
 189430864, 0, 0, 0, 0.01, 0, 0, 0, 0.01
 189630784, 0, 0, 0, 0.01, 0, 0, 0, 0.01
 189830704, 0, 0, 0, 0.01, 0, 0, 0, 0.01
 190031457, 0, 0, 0, 0.01, 0, 0, 0, 0.01
 190231377, 0, 0, 0, 0.01, 0, 0, 0, 0.01
 190431297, 0, 0, 0, 0.01, 0, 0, 0, 0.01
 190631217, 0, 0, 0, 0.01, 0, 0, 0, 0.01
 190831137, 0, 0, 0, 0.01, 0, 0, 0, 0.01
 191031057, 0, 0, 0, 0.01, 0, 0, 0, 0.01
 191230977, 0, 0, 0, 0.01, 0, 0, 0, 0.01
 191430897, 0, 0, 0, 0.01, 0, 0, 0, 0.01
 191630817, 0, 0, 0, 0.01, 0, 0, 0, 0.01
 191830737, 0, 0, 0, 0.01, 0, 0, 0, 0.01
 192030657, 0, 0, 0, 0.01, 0, 0, 0, 0.01
 192231410, 0, 0, 0, 0.01, 0, 0, 0, 0.01
 192431330, 0, 0, 0, 0.01, 0, 0, 0, 0.01
 192631250, 0, 0, 0, 0.01, 0, 0, 0, 0.01
 192831170, 0, 0, 0, 0.01, 0, 0, 0, 0.01
 193031090, 0, 0, 0, 0.01, 0, 0, 0, 0.01
 193231010, 0, 0, 0, 0.01, 0, 0, 0, 0.01
 193430930, 0, 0, 0, 0.01, 0, 0, 0, 0.01
 193630850, 0, 0, 0, 0.01, 0, 0, 0, 0.01
 193830770, 0, 0, 0, 0.01, 0, 0, 0, 0.01
 194030690, 0, 0, 0, 0.01, 0, 0, 0, 0.01
 194231443, 0, 0, 0, 0.01, 0, 0, 0, 0.01
 194431363, 0, 0, 0, 0.01, 0, 0, 0, 0.01
 194631283, 0, 0, 0, 0.01, 0, 0, 0, 0.01
 194831203, 0, 0, 0, 0.01, 0, 0, 0, 0.01
 195031123, 0, 0, 0, 0.01, 0, 0, 0, 0.01
 195231043, 0, 0, 0, 0.01, 0, 0, 0, 0.01
 195430963, 0, 0, 0, 0.01, 0, 0, 0, 0.01
 195630883, 0, 0, 0, 0.01, 0, 0, 0, 0.01
 195830803, 0, 0, 0, 0.01, 0, 0, 0, 0.01
 196030723, 0, 0, 0, 0.01, 0, 0, 0, 0.01
 196231476, 0, 0, 0, 0.01, 0, 0, 0, 0.01
 196431396, 0, 0, 0, 0.01, 0, 0, 0, 0.01
 196631316, 0, 0, 0, 0.01, 0, 0, 0, 0.01
 196831236, 0, 0, 0, 0.01, 0, 0, 0, 0.01
 197031156, 0, 0, 0, 0.01, 0, 0, 0, 0.01
 197231076, 0, 0, 0, 0.01, 0, 0, 0, 0.01
 197430996, 0, 0, 0, 0.01, 0, 0, 0, 0.01
 197630916, 0, 0, 0, 0.01, 0, 0, 0, 0.01
 197830836, 0, 0, 0, 0.01, 0, 0, 0, 0.01
 198030756, 0, 0, 0, 0.01, 0, 0, 0, 0.01
 198230676, 0, 0, 0, 0.01, 0, 0, 0, 0.01
 198431429, 0, 0, 0, 0.01, 0, 0, 0, 0.01
 198631349, 0, 0, 0, 0.01, 0, 0, 0, 0.01
 198831269, 0, 0, 0, 0.01, 0, 0, 0, 0.01
 199031189, 0, 0, 0, 0.01, 0, 0, 0, 0.01
 199231109, 0, 0, 0, 0.01, 0, 0, 0, 0.01
 199431029, 0, 0, 0, 0.01, 0, 0, 0, 0.01
 199630949, 0, 0, 0, 0.01, 0, 0, 0, 0.01
 199830869, 0, 0, 0, 0.01, 0, 0, 0, 0.01
 200030789, 0, 0, 0, 0.01, 0, 0, 0, 0.01
 200230709, 0, 0, 0, 0.01, 0, 0, 0, 0.01
 200431462, 0, 0, 0, 0.01, 0, 0, 0, 0.01
 200631382, 0, 0, 0, 0.01, 0, 0, 0, 0.01
 200831302, 0, 0, 0, 0.01, 0, 0, 0, 0.01
 201031222, 0, 0, 0, 0.01, 0, 0, 0, 0.01
 201231142, 0, 0, 0, 0.01, 0, 0, 0, 0.01
 201431062, 0, 0, 0, 0.01, 0, 0, 0, 0.01
 201630982, 0, 0, 0, 0.01, 0, 0, 0, 0.01
 201830902, 0, 0, 0, 0.01, 0, 0, 0, 0.01
 202030822, 0, 0, 0, 0.01, 0, 0, 0, 0.01
 202230742, 0, 0, 0, 0.01, 0, 0, 0, 0.01
 202430662, 0, 0, 0, 0.01, 0, 0, 0, 0.01
 202631415, 0, 0, 0, 0.01, 0, 0, 0, 0.01
 202831335, 0, 0, 0, 0.01, 0, 0, 0, 0.01
 203031255, 0, 0, 0, 0.01, 0, 0, 0, 0.01
 203231175, 0, 0, 0, 0.01, 0, 0, 0, 0.01
 203431095, 0, 0, 0, 0.01, 0, 0, 0, 0.01
 203631015, 0, 0, 0, 0.01, 0, 0, 0, 0.01
 203830935, 0, 0, 0, 0.01, 0, 0, 0, 0.01
 204030855, 0, 0, 0, 0.01, 0, 0, 0, 0.01
 204230775, 0, 0, 0, 0.01, 0, 0, 0, 0.01
 204430695, 0, 0, 0, 0.01, 0, 0, 0, 0.01
 204631448, 0, 0, 0, 0.01, 0, 0, 0, 0.01
 204831368, 0, 0, 0, 0.01, 0, 0, 0, 0.01
 205031288, 0, 0, 0, 0.01, 0, 0, 0, 0.01
 205231208, 0, 0, 0, 0.01, 0, 0, 0, 0.01
 205431128, 0, 0, 0, 0.01, 0, 0, 0, 0.01
 205631048, 0, 0, 0, 0.01, 0, 0, 0, 0.01
 205830968, 0, 0, 0, 0.01, 0, 0, 0, 0.01
 206030888, 0, 0, 0, 0.01, 0, 0, 0, 0.01
 206230808, 0, 0, 0, 0.01, 0, 0, 0, 0.01
 206430728, 0, 0, 0, 0.01, 0, 0, 0, 0.01
 206631481, 0, 0, 0, 0.01, 0, 0, 0, 0.01
 206831401, 0, 0, 0, 0.01, 0, 0, 0, 0.01
 207031321, 0, 0, 0, 0.01, 0, 0, 0, 0.01
 207231241, 0, 0, 0, 0.01, 0, 0, 0, 0.01
 207431161, 0, 0, 0, 0.01, 0, 0, 0, 0.01
 207631081, 0, 0, 0, 0.01, 0, 0, 0, 0.01
 207831001, 0, 0, 0, 0.01, 0, 0, 0, 0.01
 208030921, 0, 0, 0, 0.01, 0, 0, 0, 0.01
 208230841, 0, 0, 0, 0.01, 0, 0, 0, 0.01
 208430761, 0, 0, 0, 0.01, 0, 0, 0, 0.01
 208630681, 0, 0, 0, 0.01, 0, 0, 0, 0.01
 208831434, 0, 0, 0, 0.01, 0, 0, 0, 0.01
 209031354, 0, 0, 0, 0.01, 0, 0, 0, 0.01
 209231274, 0, 0, 0, 0.01, 0, 0, 0, 0.01
 209431194, 0, 0, 0, 0.01, 0, 0, 0, 0.01
 209631114, 0, 0, 0, 0.01, 0, 0, 0, 0.01
 209831034, 0, 0, 0, 0.01, 0, 0, 0, 0.01
 210030954, 0, 0, 0, 0.01, 0, 0, 0, 0.01
 210230874, 0, 0, 0, 0.01, 0, 0, 0, 0.01
 210430794, 0, 0, 0, 0.01, 0, 0, 0, 0.01
 210630714, 0, 0, 0, 0.01, 0, 0, 0, 0.01
 210831467, 0, 0, 0, 0.01, 0, 0, 0, 0.01
 211031387, 0, 0, 0, 0.01, 0, 0, 0, 0.01
 211231307, 0, 0, 0, 0.01, 0, 0, 0, 0.01
 211431227, 0, 0, 0, 0.01, 0, 0, 0, 0.01
 211631147, 0, 0, 0, 0.01, 0, 0, 0, 0.01
 211831067, 0, 0, 0, 0.01, 0, 0, 0, 0.01
 212030987, 0, 0, 0, 0.01, 0, 0, 0, 0.01
 212230907, 0, 0, 0, 0.01, 0, 0, 0, 0.01
 212430827, 0, 0, 0, 0.01, 0, 0, 0, 0.01
 212630747, 0, 0, 0, 0.01, 0, 0, 0, 0.01
 212830667, 0, 0, 0, 0.01, 0, 0, 0, 0.01
 213031420, 0, 0, 0, 0.01, 0, 0, 0, 0.01
 213231340, 0, 0, 0, 0.01, 0, 0, 0, 0.01
 213431260, 0, 0, 0, 0.01, 0, 0, 0, 0.01
 213631180, 0, 0, 0, 0.01, 0, 0, 0, 0.01
 213831100, 0, 0, 0, 0.01, 0, 0, 0, 0.01
 214031020, 0, 0, 0, 0.01, 0, 0, 0, 0.01
 214230940, 0, 0, 0, 0.01, 0, 0, 0, 0.01
 214430860, 0, 0, 0, 0.01, 0, 0, 0, 0.01
 214630780, 0, 0, 0, 0.01, 0, 0, 0, 0.01
 214830700, 0, 0, 0, 0.01, 0, 0, 0, 0.01
 215031453, 0, 0, 0, 0.01, 0, 0, 0, 0.01
 215231373, 0, 0, 0, 0.01, 0, 0, 0, 0.01
 215431293, 0, 0, 0, 0.01, 0, 0, 0, 0.01
 215631213, 0, 0, 0, 0.01, 0, 0, 0, 0.01
 215831133, 0, 0, 0, 0.01, 0, 0, 0, 0.01
 216031053, 0, 0, 0, 0.01, 0, 0, 0, 0.01
 216230973, 0, 0, 0, 0.01, 0, 0, 0, 0.01
 216430893, 0, 0, 0, 0.01, 0, 0, 0, 0.01
 216630813, 0, 0, 0, 0.01, 0, 0, 0, 0.01
 216830733, 0, 0, 0, 0.01, 0, 0, 0, 0.01
 217031486, 0, 0, 0, 0.01, 0, 0, 0, 0.01
 217231406, 0, 0, 0, 0.01, 0, 0, 0, 0.01
 217431326, 0, 0, 0, 0.01, 0, 0, 0, 0.01
 217631246, 0, 0, 0, 0.01, 0, 0, 0, 0.01
 217831166, 0, 0, 0, 0.01, 0, 0, 0, 0.01
 218031086, 0, 0, 0, 0.01, 0, 0, 0, 0.01
 218231006, 0, 0, 0, 0.01, 0, 0, 0, 0.01
 218430926, 0, 0, 0, 0.01, 0, 0, 0, 0.01
 218630846, 0, 0, 0, 0.01, 0, 0, 0, 0.01
 218830766, 0, 0, 0, 0.01, 0, 0, 0, 0.01
 219030686, 0, 0, 0, 0.01, 0, 0, 0, 0.01
 219231439, 0, 0, 0, 0.01, 0, 0, 0, 0.01
 219431359, 0, 0, 0, 0.01, 0, 0, 0, 0.01
 219631279, 0, 0, 0, 0.01, 0, 0, 0, 0.01
 219831199, 0, 0, 0, 0.01, 0, 0, 0, 0.01
 220031119, 0, 0, 0, 0.01, 0, 0, 0, 0.01
 220231039, 0, 0, 0, 0.01, 0, 0, 0, 0.01
 220430959, 0, 0, 0, 0.01, 0, 0, 0, 0.01
 220630879, 0, 0, 0, 0.01, 0, 0, 0, 0.01
 220830799, 0, 0, 0, 0.01, 0, 0, 0, 0.01
 221030719, 0, 0, 0, 0.01, 0, 0, 0, 0.01
 221231472, 0, 0, 0, 0.01, 0, 0, 0, 0.01
 221431392, 0, 0, 0, 0.01, 0, 0, 0, 0.01
 221631312, 0, 0, 0, 0.01, 0, 0, 0, 0.01
 221831232, 0, 0, -0.003, 0.01, 0, 0, 0, 0.01
 222031152, 0, 0, -0.303, 0.01, 0, 0, -0.003, 0.01
 222231072, 0, 0, -0.253, 0.01, 0, 0, -0.303, 0.01
 222430992, 0, 0, -0.294, 0.01, 0, 0, -0.253, 0.01
 222630912, -0.005, -0.005, -1.608, 0.01, 0, 0, -0.294, 0.01
 222830832, -0.018, -0.02, -2.101, 0.01, -0.005, -0.005, -1.608, 0.01
 223030752, -0.034, -0.036, -2.221, 0.01, -0.018, -0.02, -2.101, 0.01
 223230672, -0.048, -0.051, -2.454, 0.01, -0.034, -0.036, -2.221, 0.01
 223431425, -0.06, -0.063, -2.684, 0.01, -0.048, -0.051, -2.454, 0.01
 223631345, -0.071, -0.07300001, -2.866, 0.01, -0.06, -0.063, -2.684, 0.01
 223831265, -0.08000001, -0.081, -3.025, 0.01, -0.071, -0.07300001, -2.866, 0.01
 224031185, -0.087, -0.087, -3.167, 0.01, -0.08000001, -0.081, -3.025, 0.01
 224231105, -0.093, -0.09200001, -3.291, 0.01, -0.087, -0.087, -3.167, 0.01
 224431025, -0.098, -0.09500001, -3.4, 0.01, -0.093, -0.09200001, -3.291, 0.01
 224630945, -0.102, -0.098, -3.496, 0.01, -0.098, -0.09500001, -3.4, 0.01
 224830865, -0.105, -0.1, -3.58, 0.01, -0.102, -0.098, -3.496, 0.01
 225030785, -0.108, -0.101, -3.653, 0.01, -0.105, -0.1, -3.58, 0.01
 225230705, -0.109, -0.103, -3.717, 0.01, -0.108, -0.101, -3.653, 0.01
 225431458, -0.111, -0.104, -3.773, 0.01, -0.109, -0.103, -3.717, 0.01
 225631378, -0.113, -0.106, -3.823, 0.01, -0.111, -0.104, -3.773, 0.01
 225831298, -0.115, -0.109, -3.867, 0.01, -0.113, -0.106, -3.823, 0.01
 226031218, -0.114, -0.11, -3.535, 0.01, -0.115, -0.109, -3.867, 0.01
 226231138, -0.112, -0.11, -3.003, 0.01, -0.114, -0.11, -3.535, 0.01
 226431058, -0.109, -0.11, -2.485, 0.01, -0.112, -0.11, -3.003, 0.01
 226630978, -0.094, -0.103, -1.93, 0.01, -0.109, -0.11, -2.485, 0.01
 226830898, -0.051, -0.085, -1.528, 0.01, -0.094, -0.103, -1.93, 0.01
 227030818, -0.008, -0.062, -1.228, 0.01, -0.051, -0.085, -1.528, 0.01
 227230738, 0.054, -0.038, -0.98, 0.01, -0.008, -0.062, -1.228, 0.01
 227430658, 0.179, -0.011, -0.758, 0.01, 0.054, -0.038, -0.98, 0.01
 227631411, 0.348, 0.018, -0.571, 0.01, 0.179, -0.011, -0.758, 0.01
 227831331, 0.528, 0.047, -0.421, 0.01, 0.348, 0.018, -0.571, 0.01
 228031251, 0.707, 0.074, -0.303, 0.01, 0.528, 0.047, -0.421, 0.01
 228231171, 0.881, 0.097, -0.21, 0.01, 0.707, 0.074, -0.303, 0.01
 228431091, 1.047, 0.117, -0.138, 0.01, 0.881, 0.097, -0.21, 0.01
 228631011, 1.205, 0.147, -0.07700001, 0.01, 1.047, 0.117, -0.138, 0.01
 228830931, 1.357, 0.222, -0.022, 0.01, 1.205, 0.147, -0.07700001, 0.01
 229030851, 1.513, 0.32, 0.012, 0.01, 1.357, 0.222, -0.022, 0.01
 229230771, 1.678, 0.389, 0.036, 0.01, 1.513, 0.32, 0.012, 0.01
 229430691, 1.863, 0.411, 0.06, 0.01, 1.678, 0.389, 0.036, 0.01
 229631444, 2.066, 0.394, 0.086, 0.01, 1.863, 0.411, 0.06, 0.01
 229831364, 2.272, 0.354, 0.113, 0.01, 2.066, 0.394, 0.086, 0.01
 230031284, 2.474, 0.308, 0.137, 0.01, 2.272, 0.354, 0.113, 0.01
 230231204, 2.67, 0.248, 0.161, 0.01, 2.474, 0.308, 0.137, 0.01
 230431124, 2.86, 0.157, 0.177, 0.01, 2.67, 0.248, 0.161, 0.01
 230631044, 3.028, 0.075, 0.181, 0.01, 2.86, 0.157, 0.177, 0.01
 230830964, 3.172, 0.058, 0.183, 0.01, 3.028, 0.075, 0.181, 0.01
 231030884, 3.306, 0.118, 0.188, 0.01, 3.172, 0.058, 0.183, 0.01
 231230804, 3.437, 0.225, 0.195, 0.01, 3.306, 0.118, 0.188, 0.01
 231430724, 3.556, 0.335, 0.2, 0.01, 3.437, 0.225, 0.195, 0.01
 231631477, 3.66, 0.418, 0.202, 0.01, 3.556, 0.335, 0.2, 0.01
 231831397, 3.756, 0.462, 0.201, 0.01, 3.66, 0.418, 0.202, 0.01
 232031317, 3.849, 0.475, 0.201, 0.01, 3.756, 0.462, 0.201, 0.01
 232231237, 3.939, 0.471, 0.201, 0.01, 3.849, 0.475, 0.201, 0.01
 232431157, 4.02, 0.465, 0.202, 0.01, 3.939, 0.471, 0.201, 0.01
 232631077, 4.091, 0.467, 0.202, 0.01, 4.02, 0.465, 0.202, 0.01
 232830997, 4.153, 0.481, 0.202, 0.01, 4.091, 0.467, 0.202, 0.01
 233030917, 4.21, 0.505, 0.201, 0.01, 4.153, 0.481, 0.202, 0.01
 233230837, 4.262, 0.532, 0.2, 0.01, 4.21, 0.505, 0.201, 0.01
 233430757, 4.309, 0.553, 0.199, 0.01, 4.262, 0.532, 0.2, 0.01
 233630677, 4.353, 0.565, 0.199, 0.01, 4.309, 0.553, 0.199, 0.01
 233831430, 4.395, 0.569, 0.199, 0.01, 4.353, 0.565, 0.199, 0.01
 234031350, 4.433, 0.569, 0.199, 0.01, 4.395, 0.569, 0.199, 0.01
 234231270, 4.468, 0.567, 0.199, 0.01, 4.433, 0.569, 0.199, 0.01
 234431190, 4.5, 0.565, 0.201, 0.01, 4.468, 0.567, 0.199, 0.01
 234631110, 4.531, 0.565, 0.201, 0.01, 4.5, 0.565, 0.201, 0.01
 234831030, 4.559, 0.567, 0.202, 0.01, 4.531, 0.565, 0.201, 0.01
 235030950, 4.584, 0.571, 0.203, 0.01, 4.559, 0.567, 0.202, 0.01
 235230870, 4.608, 0.578, 0.205, 0.01, 4.584, 0.571, 0.203, 0.01
 235430790, 4.632, 0.5840001, 0.204, 0.01, 4.608, 0.578, 0.205, 0.01
 235630710, 4.654, 0.588, 0.204, 0.01, 4.632, 0.5840001, 0.204, 0.01
 235831463, 4.673, 0.592, 0.205, 0.01, 4.654, 0.588, 0.204, 0.01
 236031383, 4.691, 0.5930001, 0.204, 0.01, 4.673, 0.592, 0.205, 0.01
 236231303, 4.708, 0.59, 0.201, 0.01, 4.691, 0.5930001, 0.204, 0.01
 236431223, 4.726, 0.583, 0.197, 0.01, 4.708, 0.59, 0.201, 0.01
 236631143, 4.741, 0.575, 0.193, 0.01, 4.726, 0.583, 0.197, 0.01
 236831063, 4.754, 0.569, 0.19, 0.01, 4.741, 0.575, 0.193, 0.01
 237030983, 4.766, 0.566, 0.189, 0.01, 4.754, 0.569, 0.19, 0.01
 237230903, 4.778, 0.564, 0.187, 0.01, 4.766, 0.566, 0.189, 0.01
 237430823, 4.79, 0.562, 0.185, 0.01, 4.778, 0.564, 0.187, 0.01
 237630743, 4.801, 0.561, 0.183, 0.01, 4.79, 0.562, 0.185, 0.01
 237830663, 4.81, 0.56, 0.182, 0.01, 4.801, 0.561, 0.183, 0.01
 238031416, 4.818, 0.561, 0.182, 0.01, 4.81, 0.56, 0.182, 0.01
 238231336, 4.826, 0.561, 0.183, 0.01, 4.818, 0.561, 0.182, 0.01
 238431256, 4.833, 0.558, 0.184, 0.01, 4.826, 0.561, 0.183, 0.01
 238631176, 4.842, 0.553, 0.185, 0.01, 4.833, 0.558, 0.184, 0.01
 238831096, 4.85, 0.5470001, 0.185, 0.01, 4.842, 0.553, 0.185, 0.01
 239031016, 4.856, 0.5420001, 0.187, 0.01, 4.85, 0.5470001, 0.185, 0.01
 239230936, 4.861, 0.539, 0.19, 0.01, 4.856, 0.5420001, 0.187, 0.01
 239430856, 4.867, 0.537, 0.194, 0.01, 4.861, 0.539, 0.19, 0.01
 239630776, 4.873, 0.536, 0.198, 0.01, 4.867, 0.537, 0.194, 0.01
 239830696, 4.88, 0.538, 0.2, 0.01, 4.873, 0.536, 0.198, 0.01
 240031449, 4.886, 0.5420001, 0.198, 0.01, 4.88, 0.538, 0.2, 0.01
 240231369, 4.891, 0.545, 0.193, 0.01, 4.886, 0.5420001, 0.198, 0.01
 240431289, 4.896, 0.549, 0.188, 0.01, 4.891, 0.545, 0.193, 0.01
 240631209, 4.9, 0.551, 0.183, 0.01, 4.896, 0.549, 0.188, 0.01
 240831129, 4.904, 0.553, 0.182, 0.01, 4.9, 0.551, 0.183, 0.01
 241031049, 4.906, 0.554, 0.184, 0.01, 4.904, 0.553, 0.182, 0.01
 241230969, 4.908, 0.554, 0.186, 0.01, 4.906, 0.554, 0.184, 0.01
 241430889, 4.911, 0.5560001, 0.187, 0.01, 4.908, 0.554, 0.186, 0.01
 241630809, 4.915, 0.558, 0.189, 0.01, 4.911, 0.5560001, 0.187, 0.01
 241830729, 4.918, 0.56, 0.191, 0.01, 4.915, 0.558, 0.189, 0.01
 242031482, 4.921, 0.563, 0.194, 0.01, 4.918, 0.56, 0.191, 0.01
 242231402, 4.924, 0.566, 0.199, 0.01, 4.921, 0.563, 0.194, 0.01
 242431322, 4.925, 0.568, 0.203, 0.01, 4.924, 0.566, 0.199, 0.01
 242631242, 4.927, 0.571, 0.206, 0.01, 4.925, 0.568, 0.203, 0.01
 242831162, 4.93, 0.575, 0.207, 0.01, 4.927, 0.571, 0.206, 0.01
 243031082, 4.934, 0.58, 0.207, 0.01, 4.93, 0.575, 0.207, 0.01
 243231002, 4.935, 0.5840001, 0.206, 0.01, 4.934, 0.58, 0.207, 0.01
 243430922, 4.937, 0.588, 0.205, 0.01, 4.935, 0.5840001, 0.206, 0.01
 243630842, 4.942, 0.588, 0.2, 0.01, 4.937, 0.588, 0.205, 0.01
 243830762, 4.944, 0.5840001, 0.196, 0.01, 4.942, 0.588, 0.2, 0.01
 244030682, 4.943, 0.5790001, 0.194, 0.01, 4.944, 0.5840001, 0.196, 0.01
 244231435, 4.943, 0.575, 0.194, 0.01, 4.943, 0.5790001, 0.194, 0.01
 244431355, 4.943, 0.572, 0.195, 0.01, 4.943, 0.575, 0.194, 0.01
 244631275, 4.944, 0.5700001, 0.197, 0.01, 4.943, 0.572, 0.195, 0.01
 244831195, 4.946, 0.5700001, 0.198, 0.01, 4.944, 0.5700001, 0.197, 0.01
 245031115, 4.948, 0.571, 0.197, 0.01, 4.946, 0.5700001, 0.198, 0.01
 245231035, 4.949, 0.573, 0.196, 0.01, 4.948, 0.571, 0.197, 0.01
 245430955, 4.95, 0.574, 0.192, 0.01, 4.949, 0.573, 0.196, 0.01
 245630875, 4.951, 0.574, 0.188, 0.01, 4.95, 0.574, 0.192, 0.01
 245830795, 4.951, 0.574, 0.186, 0.01, 4.951, 0.574, 0.188, 0.01
 246030715, 4.951, 0.571, 0.185, 0.01, 4.951, 0.574, 0.186, 0.01
 246231468, 4.952, 0.569, 0.184, 0.01, 4.951, 0.571, 0.185, 0.01
 246431388, 4.952, 0.568, 0.186, 0.01, 4.952, 0.569, 0.184, 0.01
 246631308, 4.951, 0.568, 0.188, 0.01, 4.952, 0.568, 0.186, 0.01
 246831228, 4.951, 0.5700001, 0.188, 0.01, 4.951, 0.568, 0.188, 0.01
 247031148, 4.952, 0.574, 0.19, 0.01, 4.951, 0.5700001, 0.188, 0.01
 247231068, 4.954, 0.578, 0.192, 0.01, 4.952, 0.574, 0.19, 0.01
 247430988, 4.956, 0.582, 0.195, 0.01, 4.954, 0.578, 0.192, 0.01
 247630908, 4.957, 0.586, 0.197, 0.01, 4.956, 0.582, 0.195, 0.01
 247830828, 4.959, 0.589, 0.199, 0.01, 4.957, 0.586, 0.197, 0.01
 248030748, 4.96, 0.592, 0.201, 0.01, 4.959, 0.589, 0.199, 0.01
 248230668, 4.961, 0.594, 0.201, 0.01, 4.96, 0.592, 0.201, 0.01
 248431421, 4.963, 0.5930001, 0.2, 0.01, 4.961, 0.594, 0.201, 0.01
 248631341, 4.963, 0.59, 0.198, 0.01, 4.963, 0.5930001, 0.2, 0.01
 248831261, 4.961, 0.585, 0.197, 0.01, 4.963, 0.59, 0.198, 0.01
 249031181, 4.96, 0.5790001, 0.197, 0.01, 4.961, 0.585, 0.197, 0.01
 249231101, 4.959, 0.574, 0.197, 0.01, 4.96, 0.5790001, 0.197, 0.01
 249431021, 4.96, 0.571, 0.197, 0.01, 4.959, 0.574, 0.197, 0.01
 249630941, 4.961, 0.571, 0.197, 0.01, 4.96, 0.571, 0.197, 0.01
 249830861, 4.962, 0.571, 0.196, 0.01, 4.961, 0.571, 0.197, 0.01
 250030781, 4.962, 0.572, 0.194, 0.01, 4.962, 0.571, 0.196, 0.01
 250230701, 4.964, 0.573, 0.191, 0.01, 4.962, 0.572, 0.194, 0.01
 250431454, 4.965, 0.573, 0.188, 0.01, 4.964, 0.573, 0.191, 0.01
 250631374, 4.964, 0.5700001, 0.187, 0.01, 4.965, 0.573, 0.188, 0.01
 250831294, 4.961, 0.564, 0.188, 0.01, 4.964, 0.5700001, 0.187, 0.01
 251031214, 4.961, 0.558, 0.19, 0.01, 4.961, 0.564, 0.188, 0.01
 251231134, 4.961, 0.553, 0.191, 0.01, 4.961, 0.558, 0.19, 0.01
 251431054, 4.961, 0.55, 0.192, 0.01, 4.961, 0.553, 0.191, 0.01
 251630974, 4.961, 0.548, 0.191, 0.01, 4.961, 0.55, 0.192, 0.01
 251830894, 4.961, 0.5470001, 0.19, 0.01, 4.961, 0.548, 0.191, 0.01
 252030814, 4.961, 0.548, 0.19, 0.01, 4.961, 0.5470001, 0.19, 0.01
 252230734, 4.961, 0.549, 0.191, 0.01, 4.961, 0.548, 0.19, 0.01
 252430654, 4.961, 0.551, 0.193, 0.01, 4.961, 0.549, 0.191, 0.01
 252631407, 4.961, 0.554, 0.196, 0.01, 4.961, 0.551, 0.193, 0.01
 252831327, 4.962, 0.5560001, 0.198, 0.01, 4.961, 0.554, 0.196, 0.01
 253031247, 4.968, 0.557, 0.186, 0.01, 4.962, 0.5560001, 0.198, 0.01
 253231167, 4.978, 0.544, 0.154, 0.01, 4.968, 0.557, 0.186, 0.01
 253431087, 4.984, 0.5100001, 0.121, 0.01, 4.978, 0.544, 0.154, 0.01
 253631007, 4.986, 0.47, 0.089, 0.01, 4.984, 0.5100001, 0.121, 0.01
 253830927, 4.987, 0.437, 0.061, 0.01, 4.986, 0.47, 0.089, 0.01
 254030847, 4.988, 0.411, 0.037, 0.01, 4.987, 0.437, 0.061, 0.01
 254230767, 4.987, 0.387, 0.017, 0.01, 4.988, 0.411, 0.037, 0.01
 254430687, 4.985, 0.361, 0.003, 0.01, 4.987, 0.387, 0.017, 0.01
 254631440, 4.983, 0.336, -0.007, 0.01, 4.985, 0.361, 0.003, 0.01
 254831360, 4.979, 0.311, -0.012, 0.01, 4.983, 0.336, -0.007, 0.01
 255031280, 4.977, 0.286, -0.014, 0.01, 4.979, 0.311, -0.012, 0.01
 255231200, 4.975, 0.262, -0.013, 0.01, 4.977, 0.286, -0.014, 0.01
 255431120, 4.974, 0.239, -0.012, 0.01, 4.975, 0.262, -0.013, 0.01
 255631040, 4.974, 0.219, -0.01, 0.01, 4.974, 0.239, -0.012, 0.01
 255830960, 4.974, 0.201, -0.006, 0.01, 4.974, 0.219, -0.01, 0.01
 256030880, 4.975, 0.183, -0.005, 0.01, 4.974, 0.201, -0.006, 0.01
 256230800, 4.977, 0.164, -0.004, 0.01, 4.975, 0.183, -0.005, 0.01
 256430720, 4.978, 0.144, -0.004, 0.01, 4.977, 0.164, -0.004, 0.01
 256631473, 4.98, 0.122, -0.002, 0.01, 4.978, 0.144, -0.004, 0.01
 256831393, 4.981, 0.101, -0.001, 0.01, 4.98, 0.122, -0.002, 0.01
 257031313, 4.983, 0.082, -0.001, 0.01, 4.981, 0.101, -0.001, 0.01
 257231233, 4.985, 0.066, -0.003, 0.01, 4.983, 0.082, -0.001, 0.01
 257431153, 4.986, 0.053, -0.003, 0.01, 4.985, 0.066, -0.003, 0.01
 257631073, 4.986, 0.042, -0.003, 0.01, 4.986, 0.053, -0.003, 0.01
 257830993, 4.987, 0.032, -0.004, 0.01, 4.986, 0.042, -0.003, 0.01
 258030913, 4.987, 0.023, -0.005, 0.01, 4.987, 0.032, -0.004, 0.01
 258230833, 4.989, 0.016, -0.007, 0.01, 4.987, 0.023, -0.005, 0.01
 258430753, 4.991, 0.01, -0.008, 0.01, 4.989, 0.016, -0.007, 0.01
 258630673, 4.994, 0.005, -0.008, 0.01, 4.991, 0.01, -0.008, 0.01
 258831426, 4.994, 0.002, -0.007, 0.01, 4.994, 0.005, -0.008, 0.01
 259031346, 4.993, 0, -0.005, 0.01, 4.994, 0.002, -0.007, 0.01
 259231266, 4.994, -0.002, -0.003, 0.01, 4.993, 0, -0.005, 0.01
 259431186, 4.994, -0.003, 0, 0.01, 4.994, -0.002, -0.003, 0.01
 259631106, 4.994, -0.004, 0.003, 0.01, 4.994, -0.003, 0, 0.01
 259831026, 4.995, -0.005, 0.006, 0.01, 4.994, -0.004, 0.003, 0.01
 260030946, 4.997, -0.006, 0.01, 0.01, 4.995, -0.005, 0.006, 0.01
 260230866, 4.998, -0.008, 0.013, 0.01, 4.997, -0.006, 0.01, 0.01
 260430786, 5, -0.01, 0.016, 0.01, 4.998, -0.008, 0.013, 0.01
 260630706, 5.002, -0.01, 0.014, 0.01, 5, -0.01, 0.016, 0.01
 260831459, 5.003, -0.01, 0.011, 0.01, 5.002, -0.01, 0.014, 0.01
 261031379, 5.002, -0.01, 0.009000001, 0.01, 5.003, -0.01, 0.011, 0.01
 261231299, 5.001, -0.009000001, 0.008, 0.01, 5.002, -0.01, 0.009000001, 0.01
 261431219, 5.002, -0.008, 0.004, 0.01, 5.001, -0.009000001, 0.008, 0.01
 261631139, 5.001, -0.009000001, 0.002, 0.01, 5.002, -0.008, 0.004, 0.01
 261831059, 5, -0.009000001, 0.001, 0.01, 5.001, -0.009000001, 0.002, 0.01
 262030979, 4.998, -0.01, 0.001, 0.01, 5, -0.009000001, 0.001, 0.01
 262230899, 4.997, -0.01, 0.001, 0.01, 4.998, -0.01, 0.001, 0.01
 262430819, 4.997, -0.01, 0.001, 0.01, 4.997, -0.01, 0.001, 0.01
 262630739, 4.997, -0.009000001, 0.001, 0.01, 4.997, -0.01, 0.001, 0.01
 262830659, 4.997, -0.007, 0.001, 0.01, 4.997, -0.009000001, 0.001, 0.01
 263031412, 4.998, -0.005, 0, 0.01, 4.997, -0.007, 0.001, 0.01
 263231332, 4.998, -0.004, -0.001, 0.01, 4.998, -0.005, 0, 0.01
 263431252, 4.999, -0.003, -0.003, 0.01, 4.998, -0.004, -0.001, 0.01
 263631172, 4.999, -0.002, -0.006, 0.01, 4.999, -0.003, -0.003, 0.01
 263831092, 4.999, -0.003, -0.009000001, 0.01, 4.999, -0.002, -0.006, 0.01
 264031012, 4.998, -0.003, -0.011, 0.01, 4.999, -0.003, -0.009000001, 0.01
 264230932, 4.997, -0.003, -0.01, 0.01, 4.998, -0.003, -0.011, 0.01
 264430852, 4.995, -0.003, -0.009000001, 0.01, 4.997, -0.003, -0.01, 0.01
 264630772, 4.994, -0.002, -0.007, 0.01, 4.995, -0.003, -0.009000001, 0.01
 264830692, 4.994, -0.002, -0.004, 0.01, 4.994, -0.002, -0.007, 0.01
 265031445, 4.993, -0.003, -0.003, 0.01, 4.994, -0.002, -0.004, 0.01
 265231365, 4.993, -0.003, -0.002, 0.01, 4.993, -0.003, -0.003, 0.01
 265431285, 4.99, -0.003, -0.001, 0.01, 4.993, -0.003, -0.002, 0.01
 265631205, 4.993, -0.003, -0.001, 0.01, 4.99, -0.003, -0.001, 0.01
 265831125, 5.001, -0.003, 0, 0.01, 4.993, -0.003, -0.001, 0.01
 266031045, 4.999, -0.004, 0, 0.01, 5.001, -0.003, 0, 0.01
 266230965, 4.982, -0.004, -0.001, 0.01, 4.999, -0.004, 0, 0.01
 266430885, 4.981, -0.005, 0, 0.01, 4.982, -0.004, -0.001, 0.01
 266630805, 5, -0.006, 0.004, 0.01, 4.981, -0.005, 0, 0.01
 266830725, 5.005, -0.006, 0.008, 0.01, 5, -0.006, 0.004, 0.01
 267031478, 5, -0.006, 0.01, 0.01, 5.005, -0.006, 0.008, 0.01
 267231398, 4.983, -0.006, 0.011, 0.01, 5, -0.006, 0.01, 0.01
 267431318, 4.984, -0.008, 0.013, 0.01, 4.983, -0.006, 0.011, 0.01
 267631238, 5.005, -0.008, 0.012, 0.01, 4.984, -0.008, 0.013, 0.01
 267831158, 5.007, -0.007, 0.01, 0.01, 5.005, -0.008, 0.012, 0.01
 268031078, 5.001, -0.007, 0.009000001, 0.01, 5.007, -0.007, 0.01, 0.01
 268230998, 4.992, -0.008, 0.009000001, 0.01, 5.001, -0.007, 0.009000001, 0.01
 268430918, 4.986, -0.009000001, 0.009000001, 0.01, 4.992, -0.008, 0.009000001, 0.01
 268630838, 5.004, -0.009000001, 0.009000001, 0.01, 4.986, -0.009000001, 0.009000001, 0.01
 268830758, 5.006, -0.008, 0.009000001, 0.01, 5.004, -0.009000001, 0.009000001, 0.01
 269030678, 5.001, -0.006, 0.008, 0.01, 5.006, -0.008, 0.009000001, 0.01
 269231431, 4.996, -0.004, 0.005, 0.01, 5.001, -0.006, 0.008, 0.01
 269431351, 4.991, -0.003, 0.003, 0.01, 4.996, -0.004, 0.005, 0.01
 269631271, 5.005, -0.002, 0.002, 0.01, 4.991, -0.003, 0.003, 0.01
 269831191, 5.006, -0.002, 0, 0.01, 5.005, -0.002, 0.002, 0.01
 270031111, 5.003, -0.002, -0.001, 0.01, 5.006, -0.002, 0, 0.01
 270231031, 5, -0.002, -0.001, 0.01, 5.003, -0.002, -0.001, 0.01
 270430951, 4.999, -0.001, -0.001, 0.01, 5, -0.002, -0.001, 0.01
 270630871, 4.999, 0, 0, 0.01, 4.999, -0.001, -0.001, 0.01
 270830791, 5.002, 0.003, 0, 0.01, 4.999, 0, 0, 0.01
 271030711, 5.004, 0.006, 0, 0.01, 5.002, 0.003, 0, 0.01
 271231464, 5.004, 0.006, 0, 0.01, 5.004, 0.006, 0, 0.01
 271431384, 5.002, 0.004, -0.001, 0.01, 5.004, 0.006, 0, 0.01
 271631304, 5, 0.003, -0.002, 0.01, 5.002, 0.004, -0.001, 0.01
 271831224, 4.999, 0.002, -0.002, 0.01, 5, 0.003, -0.002, 0.01
 272031144, 4.999, 0.002, -0.002, 0.01, 4.999, 0.002, -0.002, 0.01
 272231064, 4.999, 0.001, -0.002, 0.01, 4.999, 0.002, -0.002, 0.01
 272430984, 4.998, 0.001, -0.002, 0.01, 4.999, 0.001, -0.002, 0.01
 272630904, 4.993, 0.001, -0.005, 0.01, 4.998, 0.001, -0.002, 0.01
 272830824, 4.999, 0.001, -0.006, 0.01, 4.993, 0.001, -0.005, 0.01
 273030744, 5.001, 0.001, -0.007, 0.01, 4.999, 0.001, -0.006, 0.01
 273230664, 5, 0.001, -0.007, 0.01, 5.001, 0.001, -0.007, 0.01
 273431417, 4.999, 0.001, -0.007, 0.01, 5, 0.001, -0.007, 0.01
 273631337, 4.998, 0.001, -0.006, 0.01, 4.999, 0.001, -0.007, 0.01
 273831257, 4.998, 0.002, -0.004, 0.01, 4.998, 0.001, -0.006, 0.01
 274031177, 4.998, 0.002, -0.003, 0.01, 4.998, 0.002, -0.004, 0.01
 274231097, 4.997, 0.002, -0.001, 0.01, 4.998, 0.002, -0.003, 0.01
 274431017, 4.998, 0.002, 0, 0.01, 4.997, 0.002, -0.001, 0.01
 274630937, 4.999, 0.001, 0.001, 0.01, 4.998, 0.002, 0, 0.01
 274830857, 4.999, 0, 0.004, 0.01, 4.999, 0.001, 0.001, 0.01
 275030777, 4.999, 0, 0.006, 0.01, 4.999, 0, 0.004, 0.01
 275230697, 4.999, 0, 0.005, 0.01, 4.999, 0, 0.006, 0.01
 275431450, 5, 0, 0.002, 0.01, 4.999, 0, 0.005, 0.01
 275631370, 4.999, 0, 0.002, 0.01, 5, 0, 0.002, 0.01
 275831290, 4.998, 0, 0.001, 0.01, 4.999, 0, 0.002, 0.01
 276031210, 4.998, 0, 0, 0.01, 4.998, 0, 0.001, 0.01
 276231130, 4.999, 0, 0, 0.01, 4.998, 0, 0, 0.01
 276431050, 5, 0, -0.002, 0.01, 4.999, 0, 0, 0.01
 276630970, 5.001, 0, -0.004, 0.01, 5, 0, -0.002, 0.01
 276830890, 5.001, 0, -0.004, 0.01, 5.001, 0, -0.004, 0.01
 277030810, 5.001, 0, -0.005, 0.01, 5.001, 0, -0.004, 0.01
 277230730, 5.002, 0, -0.004, 0.01, 5.001, 0, -0.005, 0.01
 277431483, 5.002, 0, -0.004, 0.01, 5.002, 0, -0.004, 0.01
 277631403, 5.003, 0, -0.006, 0.01, 5.002, 0, -0.004, 0.01
 277831323, 5.003, 0, -0.008, 0.01, 5.003, 0, -0.006, 0.01
 278031243, 5.002, 0, -0.008, 0.01, 5.003, 0, -0.008, 0.01
 278231163, 5, 0.001, -0.007, 0.01, 5.002, 0, -0.008, 0.01
 278431083, 5, 0.002, -0.006, 0.01, 5, 0.001, -0.007, 0.01
 278631003, 5, 0.003, -0.006, 0.01, 5, 0.002, -0.006, 0.01
 278830923, 5, 0.002, -0.006, 0.01, 5, 0.003, -0.006, 0.01
 279030843, 4.999, 0.003, -0.005, 0.01, 5, 0.002, -0.006, 0.01
 279230763, 4.999, 0.003, -0.004, 0.01, 4.999, 0.003, -0.005, 0.01
 279430683, 4.999, 0.003, -0.003, 0.01, 4.999, 0.003, -0.004, 0.01
 279631436, 4.999, 0.002, -0.002, 0.01, 4.999, 0.003, -0.003, 0.01
 279831356, 5, 0.002, 0, 0.01, 4.999, 0.002, -0.002, 0.01
 280031276, 5, 0.002, 0, 0.01, 5, 0.002, 0, 0.01
 280231196, 5, 0.002, 0, 0.01, 5, 0.002, 0, 0.01
 280431116, 5, 0.003, 0, 0.01, 5, 0.002, 0, 0.01
 280631036, 5, 0.004, 0, 0.01, 5, 0.003, 0, 0.01
 280830956, 5, 0.004, 0, 0.01, 5, 0.004, 0, 0.01
 281030876, 5.001, 0.003, -0.001, 0.01, 5, 0.004, 0, 0.01
 281230796, 5.002, 0.001, -0.002, 0.01, 5.001, 0.003, -0.001, 0.01
 281430716, 5.002, 0, -0.004, 0.01, 5.002, 0.001, -0.002, 0.01
 281631469, 5.001, 0, -0.006, 0.01, 5.002, 0, -0.004, 0.01
 281831389, 5, -0.001, -0.007, 0.01, 5.001, 0, -0.006, 0.01
 282031309, 4.999, -0.001, -0.008, 0.01, 5, -0.001, -0.007, 0.01
 282231229, 4.998, -0.002, -0.008, 0.01, 4.999, -0.001, -0.008, 0.01
 282431149, 4.998, -0.002, -0.007, 0.01, 4.998, -0.002, -0.008, 0.01
 282631069, 4.999, -0.003, -0.007, 0.01, 4.998, -0.002, -0.007, 0.01
 282830989, 4.998, -0.003, -0.006, 0.01, 4.999, -0.003, -0.007, 0.01
 283030909, 4.999, -0.003, -0.005, 0.01, 4.998, -0.003, -0.006, 0.01
 283230829, 5, -0.003, -0.006, 0.01, 4.999, -0.003, -0.005, 0.01
 283430749, 5, -0.003, -0.006, 0.01, 5, -0.003, -0.006, 0.01
 283630669, 4.999, -0.003, -0.005, 0.01, 5, -0.003, -0.006, 0.01
 283831422, 4.999, -0.004, -0.004, 0.01, 4.999, -0.003, -0.005, 0.01
 284031342, 4.999, -0.004, -0.002, 0.01, 4.999, -0.004, -0.004, 0.01
 284231262, 5, -0.002, -0.001, 0.01, 4.999, -0.004, -0.002, 0.01
 284431182, 5, 0, 0, 0.01, 5, -0.002, -0.001, 0.01
 284631102, 5, 0.002, 0.001, 0.01, 5, 0, 0, 0.01
 284831022, 5.003, 0.001, 0.004, 0.01, 5, 0.002, 0.001, 0.01
 285030942, 5.003, 0, 0.007, 0.01, 5.003, 0.001, 0.004, 0.01
 285230862, 5.004, 0, 0.008, 0.01, 5.003, 0, 0.007, 0.01
 285430782, 5.005, 0, 0.005, 0.01, 5.004, 0, 0.008, 0.01
 285630702, 5.006, 0, 0.001, 0.01, 5.005, 0, 0.005, 0.01
 285831455, 5.006, 0, 0, 0.01, 5.006, 0, 0.001, 0.01
 286031375, 5.005, 0, 0, 0.01, 5.006, 0, 0, 0.01
 286231295, 5.003, -0.001, 0.001, 0.01, 5.005, 0, 0, 0.01
 286431215, 5.001, -0.001, 0.002, 0.01, 5.003, -0.001, 0.001, 0.01
 286631135, 5.004, -0.001, 0.003, 0.01, 5.001, -0.001, 0.002, 0.01
 286831055, 5.006, -0.001, 0.004, 0.01, 5.004, -0.001, 0.003, 0.01
 287030975, 5.006, 0, 0.005, 0.01, 5.006, -0.001, 0.004, 0.01
 287230895, 5.006, 0, 0.005, 0.01, 5.006, 0, 0.005, 0.01
 287430815, 5.005, 0.001, 0.004, 0.01, 5.006, 0, 0.005, 0.01
 287630735, 5.006, 0.001, 0.002, 0.01, 5.005, 0.001, 0.004, 0.01
 287830655, 5.006, 0, 0.001, 0.01, 5.006, 0.001, 0.002, 0.01
 288031408, 5.006, -0.001, 0, 0.01, 5.006, 0, 0.001, 0.01
 288231328, 5.006, -0.001, 0, 0.01, 5.006, -0.001, 0, 0.01
 288431248, 5.004, -0.002, 0.001, 0.01, 5.006, -0.001, 0, 0.01
 288631168, 5.003, -0.002, 0.003, 0.01, 5.004, -0.002, 0.001, 0.01
 288831088, 5.003, -0.002, 0.003, 0.01, 5.003, -0.002, 0.003, 0.01
 289031008, 5.003, -0.002, 0.001, 0.01, 5.003, -0.002, 0.003, 0.01
 289230928, 5.002, -0.002, -0.002, 0.01, 5.003, -0.002, 0.001, 0.01
 289430848, 4.991, -0.002, -0.005, 0.01, 5.002, -0.002, -0.002, 0.01
 289630768, 4.993, -0.002, -0.006, 0.01, 4.991, -0.002, -0.005, 0.01
 289830688, 5.015, -0.001, -0.006, 0.01, 4.993, -0.002, -0.006, 0.01
 290031441, 4.989, 0, -0.007, 0.01, 5.015, -0.001, -0.006, 0.01
 290231361, 4.973, 0.001, -0.006, 0.01, 4.989, 0, -0.007, 0.01
 290431281, 4.98, 0, -0.004, 0.01, 4.973, 0.001, -0.006, 0.01
 290631201, 5.016, 0, -0.004, 0.01, 4.98, 0, -0.004, 0.01
 290831121, 5.021, 0, -0.006, 0.01, 5.016, 0, -0.004, 0.01
 291031041, 4.988, -0.001, -0.007, 0.01, 5.021, 0, -0.006, 0.01
 291230961, 4.973, -0.002, -0.006, 0.01, 4.988, -0.001, -0.007, 0.01
 291430881, 4.984, -0.002, -0.004, 0.01, 4.973, -0.002, -0.006, 0.01
 291630801, 5.013, -0.002, -0.001, 0.01, 4.984, -0.002, -0.004, 0.01
 291830721, 5.018, -0.001, 0, 0.01, 5.013, -0.002, -0.001, 0.01
 292031474, 4.986, -0.002, 0.003, 0.01, 5.018, -0.001, 0, 0.01
 292231394, 4.975, -0.002, 0.008, 0.01, 4.986, -0.002, 0.003, 0.01
 292431314, 4.986, -0.001, 0.009000001, 0.01, 4.975, -0.002, 0.008, 0.01
 292631234, 5.018, 0, 0.008, 0.01, 4.986, -0.001, 0.009000001, 0.01
 292831154, 5.018, 0, 0.005, 0.01, 5.018, 0, 0.008, 0.01
 293031074, 4.985, 0, 0.003, 0.01, 5.018, 0, 0.005, 0.01
 293230994, 4.977, 0, 0.002, 0.01, 4.985, 0, 0.003, 0.01
 293430914, 4.993, -0.001, 0, 0.01, 4.977, 0, 0.002, 0.01
 293630834, 5.02, -0.001, -0.001, 0.01, 4.993, -0.001, 0, 0.01
 293830754, 4.959, -0.001, -0.009000001, 0.01, 5.02, -0.001, -0.001, 0.01
 294030674, 4.811, -0.011, -0.015, 0.01, 4.959, -0.001, -0.009000001, 0.01
 294231427, 4.636, -0.047, -0.014, 0.01, 4.811, -0.011, -0.015, 0.01
 294431347, 4.455, -0.108, -0.01, 0.01, 4.636, -0.047, -0.014, 0.01
 294631267, 4.265, -0.18, -0.01, 0.01, 4.455, -0.108, -0.01, 0.01
 294831187, 4.055, -0.258, -0.01, 0.01, 4.265, -0.18, -0.01, 0.01
 295031107, 3.825, -0.346, -0.01, 0.01, 4.055, -0.258, -0.01, 0.01
 295231027, 3.576, -0.451, -0.009000001, 0.01, 3.825, -0.346, -0.01, 0.01
 295430947, 3.313, -0.577, -0.008, 0.01, 3.576, -0.451, -0.009000001, 0.01
 295630867, 3.031, -0.721, -0.006, 0.01, 3.313, -0.577, -0.008, 0.01
 295830787, 2.728, -0.8800001, -0.003, 0.01, 3.031, -0.721, -0.006, 0.01
 296030707, 2.403, -1.049, 0, 0.01, 2.728, -0.8800001, -0.003, 0.01
 296231460, 2.061, -1.222, 0.002, 0.01, 2.403, -1.049, 0, 0.01
 296431380, 1.714, -1.399, 0.006, 0.01, 2.061, -1.222, 0.002, 0.01
 296631300, 1.381, -1.583, 0.01, 0.01, 1.714, -1.399, 0.006, 0.01
 296831220, 1.085, -1.778, 0.016, 0.01, 1.381, -1.583, 0.01, 0.01
 297031140, 0.845, -1.982, 0.02, 0.01, 1.085, -1.778, 0.016, 0.01
 297231060, 0.6580001, -2.191, 0.023, 0.01, 0.845, -1.982, 0.02, 0.01
 297430980, 0.508, -2.399, 0.022, 0.01, 0.6580001, -2.191, 0.023, 0.01
 297630900, 0.375, -2.604, 0.02, 0.01, 0.508, -2.399, 0.022, 0.01
 297830820, 0.25, -2.8, 0.018, 0.01, 0.375, -2.604, 0.02, 0.01
 298030740, 0.133, -2.984, 0.014, 0.01, 0.25, -2.8, 0.018, 0.01
 298230660, 0.028, -3.152, 0.01, 0.01, 0.133, -2.984, 0.014, 0.01
 298431413, -0.054, -3.306, 0.006, 0.01, 0.028, -3.152, 0.01, 0.01
 298631333, -0.11, -3.45, 0.002, 0.01, -0.054, -3.306, 0.006, 0.01
 298831253, -0.141, -3.583, -0.001, 0.01, -0.11, -3.45, 0.002, 0.01
 299031173, -0.154, -3.706, -0.003, 0.01, -0.141, -3.583, -0.001, 0.01
 299231093, -0.155, -3.818, -0.005, 0.01, -0.154, -3.706, -0.003, 0.01
 299431013, -0.15, -3.92, -0.008, 0.01, -0.155, -3.818, -0.005, 0.01
 299630933, -0.143, -4.01, -0.009000001, 0.01, -0.15, -3.92, -0.008, 0.01
 299830853, -0.137, -4.092, -0.011, 0.01, -0.143, -4.01, -0.009000001, 0.01
 300030773, -0.132, -4.165, -0.013, 0.01, -0.137, -4.092, -0.011, 0.01
 300230693, -0.125, -4.231, -0.015, 0.01, -0.132, -4.165, -0.013, 0.01
 300431446, -0.117, -4.289, -0.016, 0.01, -0.125, -4.231, -0.015, 0.01
 300631366, -0.107, -4.339, -0.015, 0.01, -0.117, -4.289, -0.016, 0.01
 300831286, -0.09500001, -4.384, -0.013, 0.01, -0.107, -4.339, -0.015, 0.01
 301031206, -0.081, -4.423, -0.01, 0.01, -0.09500001, -4.384, -0.013, 0.01
 301231126, -0.068, -4.459, -0.01, 0.01, -0.081, -4.423, -0.01, 0.01
 301431046, -0.058, -4.493, -0.011, 0.01, -0.068, -4.459, -0.01, 0.01
 301630966, -0.049, -4.521, -0.011, 0.01, -0.058, -4.493, -0.011, 0.01
 301830886, -0.041, -4.546, -0.009000001, 0.01, -0.049, -4.521, -0.011, 0.01
 302030806, -0.036, -4.571, -0.006, 0.01, -0.041, -4.546, -0.009000001, 0.01
 302230726, -0.031, -4.594, -0.001, 0.01, -0.036, -4.571, -0.006, 0.01
 302431479, -0.028, -4.616, 0.003, 0.01, -0.031, -4.594, -0.001, 0.01
 302631399, -0.026, -4.634, 0.008, 0.01, -0.028, -4.616, 0.003, 0.01
 302831319, -0.025, -4.651, 0.011, 0.01, -0.026, -4.634, 0.008, 0.01
 303031239, -0.023, -4.666, 0.014, 0.01, -0.025, -4.651, 0.011, 0.01
 303231159, -0.023, -4.682, 0.016, 0.01, -0.023, -4.666, 0.014, 0.01
 303431079, -0.023, -4.697, 0.015, 0.01, -0.023, -4.682, 0.016, 0.01
 303630999, -0.024, -4.712, 0.013, 0.01, -0.023, -4.697, 0.015, 0.01
 303830919, -0.025, -4.725, 0.011, 0.01, -0.024, -4.712, 0.013, 0.01
 304030839, -0.027, -4.738, 0.007, 0.01, -0.025, -4.725, 0.011, 0.01
 304230759, -0.029, -4.75, 0.003, 0.01, -0.027, -4.738, 0.007, 0.01
 304430679, -0.029, -4.761, 0, 0.01, -0.029, -4.75, 0.003, 0.01
 304631432, -0.029, -4.771, -0.002, 0.01, -0.029, -4.761, 0, 0.01
 304831352, -0.03, -4.779, -0.004, 0.01, -0.029, -4.771, -0.002, 0.01
 305031272, -0.029, -4.788, -0.005, 0.01, -0.03, -4.779, -0.004, 0.01
 305231192, -0.026, -4.798, -0.007, 0.01, -0.029, -4.788, -0.005, 0.01
 305431112, -0.021, -4.808, -0.007, 0.01, -0.026, -4.798, -0.007, 0.01
 305631032, -0.018, -4.817, -0.007, 0.01, -0.021, -4.808, -0.007, 0.01
 305830952, -0.016, -4.823, -0.006, 0.01, -0.018, -4.817, -0.007, 0.01
 306030872, -0.014, -4.828, -0.006, 0.01, -0.016, -4.823, -0.006, 0.01
 306230792, -0.012, -4.834, -0.006, 0.01, -0.014, -4.828, -0.006, 0.01
 306430712, -0.009000001, -4.841, -0.007, 0.01, -0.012, -4.834, -0.006, 0.01
 306631465, -0.008, -4.85, -0.008, 0.01, -0.009000001, -4.841, -0.007, 0.01
 306831385, -0.007, -4.856, -0.008, 0.01, -0.008, -4.85, -0.008, 0.01
 307031305, -0.007, -4.86, -0.005, 0.01, -0.007, -4.856, -0.008, 0.01
 307231225, -0.007, -4.864, -0.003, 0.01, -0.007, -4.86, -0.005, 0.01
 307431145, -0.006, -4.868, 0, 0.01, -0.007, -4.864, -0.003, 0.01
 307631065, -0.006, -4.872, 0.002, 0.01, -0.006, -4.868, 0, 0.01
 307830985, -0.006, -4.877, 0.005, 0.01, -0.006, -4.872, 0.002, 0.01
 308030905, -0.005, -4.883, 0.006, 0.01, -0.006, -4.877, 0.005, 0.01
 308230825, -0.005, -4.889, 0.007, 0.01, -0.005, -4.883, 0.006, 0.01
 308430745, -0.005, -4.893, 0.009000001, 0.01, -0.005, -4.889, 0.007, 0.01
 308630665, -0.005, -4.898, 0.01, 0.01, -0.005, -4.893, 0.009000001, 0.01
 308831418, -0.006, -4.903, 0.01, 0.01, -0.005, -4.898, 0.01, 0.01
 309031338, -0.006, -4.907, 0.01, 0.01, -0.006, -4.903, 0.01, 0.01
 309231258, -0.005, -4.911, 0.01, 0.01, -0.006, -4.907, 0.01, 0.01
 309431178, -0.005, -4.916, 0.008, 0.01, -0.005, -4.911, 0.01, 0.01
 309631098, -0.004, -4.921, 0.005, 0.01, -0.005, -4.916, 0.008, 0.01
 309831018, -0.003, -4.925, 0.004, 0.01, -0.004, -4.921, 0.005, 0.01
 310030938, -0.003, -4.928, 0.006, 0.01, -0.003, -4.925, 0.004, 0.01
 310230858, -0.003, -4.93, 0.005, 0.01, -0.003, -4.928, 0.006, 0.01
 310430778, -0.002, -4.934, 0.003, 0.01, -0.003, -4.93, 0.005, 0.01
 310630698, -0.001, -4.938, 0.002, 0.01, -0.002, -4.934, 0.003, 0.01
 310831451, 0, -4.942, 0.001, 0.01, -0.001, -4.938, 0.002, 0.01
 311031371, 0, -4.945, 0, 0.01, 0, -4.942, 0.001, 0.01
 311231291, -0.001, -4.948, -0.002, 0.01, 0, -4.945, 0, 0.01
 311431211, -0.003, -4.949, -0.006, 0.01, -0.001, -4.948, -0.002, 0.01
 311631131, -0.003, -4.95, -0.01, 0.01, -0.003, -4.949, -0.006, 0.01
 311831051, -0.004, -4.951, -0.012, 0.01, -0.003, -4.95, -0.01, 0.01
 312030971, -0.004, -4.952, -0.012, 0.01, -0.004, -4.951, -0.012, 0.01
 312230891, -0.004, -4.954, -0.012, 0.01, -0.004, -4.952, -0.012, 0.01
 312430811, -0.003, -4.957, -0.01, 0.01, -0.004, -4.954, -0.012, 0.01
 312630731, -0.004, -4.957, -0.006, 0.01, -0.003, -4.957, -0.01, 0.01
 312831484, -0.004, -4.957, -0.001, 0.01, -0.004, -4.957, -0.006, 0.01
 313031404, -0.004, -4.959, 0.001, 0.01, -0.004, -4.957, -0.001, 0.01
 313231324, -0.005, -4.961, 0.003, 0.01, -0.004, -4.959, 0.001, 0.01
 313431244, -0.005, -4.963, 0.002, 0.01, -0.005, -4.961, 0.003, 0.01
 313631164, -0.004, -4.967, 0.002, 0.01, -0.005, -4.963, 0.002, 0.01
 313831084, -0.003, -4.971, 0.003, 0.01, -0.004, -4.967, 0.002, 0.01
 314031004, -0.003, -4.971, 0.004, 0.01, -0.003, -4.971, 0.003, 0.01
 314230924, -0.003, -4.971, 0.005, 0.01, -0.003, -4.971, 0.004, 0.01
 314430844, -0.003, -4.973, 0.004, 0.01, -0.003, -4.971, 0.005, 0.01
 314630764, -0.003, -4.975, 0.003, 0.01, -0.003, -4.973, 0.004, 0.01
 314830684, -0.003, -4.977, 0, 0.01, -0.003, -4.975, 0.003, 0.01
 315031437, -0.003, -4.979, -0.004, 0.01, -0.003, -4.977, 0, 0.01
 315231357, -0.003, -4.98, -0.004, 0.01, -0.003, -4.979, -0.004, 0.01
 315431277, -0.004, -4.978, -0.001, 0.01, -0.003, -4.98, -0.004, 0.01
 315631197, -0.004, -4.978, 0, 0.01, -0.004, -4.978, -0.001, 0.01
 315831117, -0.005, -4.979, 0, 0.01, -0.004, -4.978, 0, 0.01
 316031037, -0.004, -4.979, -0.001, 0.01, -0.005, -4.979, 0, 0.01
 316230957, -0.004, -4.978, 0, 0.01, -0.004, -4.979, -0.001, 0.01
 316430877, -0.004, -4.979, 0, 0.01, -0.004, -4.978, 0, 0.01
 316630797, -0.004, -4.981, 0.001, 0.01, -0.004, -4.979, 0, 0.01
 316830717, -0.003, -4.981, 0.001, 0.01, -0.004, -4.981, 0.001, 0.01
 317031470, -0.003, -4.981, 0, 0.01, -0.003, -4.981, 0.001, 0.01
 317231390, -0.002, -4.981, 0, 0.01, -0.003, -4.981, 0, 0.01
 317431310, -0.002, -4.98, 0.002, 0.01, -0.002, -4.981, 0, 0.01
 317631230, -0.002, -4.98, 0.007, 0.01, -0.002, -4.98, 0.002, 0.01
 317831150, -0.002, -4.982, 0.011, 0.01, -0.002, -4.98, 0.007, 0.01
 318031070, -0.002, -4.986, 0.011, 0.01, -0.002, -4.982, 0.011, 0.01
 318230990, -0.002, -4.986, 0.012, 0.01, -0.002, -4.986, 0.011, 0.01
 318430910, -0.002, -4.986, 0.015, 0.01, -0.002, -4.986, 0.012, 0.01
 318630830, -0.002, -4.986, 0.015, 0.01, -0.002, -4.986, 0.015, 0.01
 318830750, -0.002, -4.987, 0.014, 0.01, -0.002, -4.986, 0.015, 0.01
 319030670, -0.002, -4.989, 0.012, 0.01, -0.002, -4.987, 0.014, 0.01
 319231423, -0.002, -4.991, 0.01, 0.01, -0.002, -4.989, 0.012, 0.01
 319431343, -0.003, -4.992, 0.009000001, 0.01, -0.002, -4.991, 0.01, 0.01
 319631263, -0.003, -4.991, 0.007, 0.01, -0.003, -4.992, 0.009000001, 0.01
 319831183, -0.003, -4.99, 0.005, 0.01, -0.003, -4.991, 0.007, 0.01
 320031103, -0.003, -4.989, 0.004, 0.01, -0.003, -4.99, 0.005, 0.01
 320231023, -0.003, -4.988, 0.006, 0.01, -0.003, -4.989, 0.004, 0.01
 320430943, -0.002, -4.989, 0.007, 0.01, -0.003, -4.988, 0.006, 0.01
 320630863, -0.002, -4.99, 0.009000001, 0.01, -0.002, -4.989, 0.007, 0.01
 320830783, -0.002, -4.991, 0.01, 0.01, -0.002, -4.99, 0.009000001, 0.01
 321030703, -0.001, -4.991, 0.009000001, 0.01, -0.002, -4.991, 0.01, 0.01
 321231456, -0.001, -4.991, 0.008, 0.01, -0.001, -4.991, 0.009000001, 0.01
 321431376, -0.001, -4.991, 0.005, 0.01, -0.001, -4.991, 0.008, 0.01
 321631296, -0.001, -4.992, 0.002, 0.01, -0.001, -4.991, 0.005, 0.01
 321831216, -0.001, -4.992, -0.001, 0.01, -0.001, -4.992, 0.002, 0.01
 322031136, -0.001, -4.992, -0.001, 0.01, -0.001, -4.992, -0.001, 0.01
 322231056, 0, -4.992, -0.001, 0.01, -0.001, -4.992, -0.001, 0.01
 322430976, 0, -4.992, -0.002, 0.01, 0, -4.992, -0.001, 0.01
 322630896, 0, -4.992, -0.005, 0.01, 0, -4.992, -0.002, 0.01
 322830816, 0, -4.992, -0.009000001, 0.01, 0, -4.992, -0.005, 0.01
 323030736, 0, -4.991, -0.013, 0.01, 0, -4.992, -0.009000001, 0.01
 323230656, 0, -4.989, -0.014, 0.01, 0, -4.991, -0.013, 0.01
 323431409, 0, -4.989, -0.014, 0.01, 0, -4.989, -0.014, 0.01
 323631329, 0, -4.99, -0.012, 0.01, 0, -4.989, -0.014, 0.01
 323831249, 0, -4.988, -0.006, 0.01, 0, -4.99, -0.012, 0.01
 324031169, -0.001, -4.985, 0.001, 0.01, 0, -4.988, -0.006, 0.01
 324231089, -0.001, -4.985, 0.009000001, 0.01, -0.001, -4.985, 0.001, 0.01
 324431009, 0, -4.987, 0.014, 0.01, -0.001, -4.985, 0.009000001, 0.01
 324630929, 0, -4.989, 0.016, 0.01, 0, -4.987, 0.014, 0.01
 324830849, 0, -4.992, 0.015, 0.01, 0, -4.989, 0.016, 0.01
 325030769, -0.002, -4.994, 0.014, 0.01, 0, -4.992, 0.015, 0.01
 325230689, -0.002, -4.996, 0.012, 0.01, -0.002, -4.994, 0.014, 0.01
 325431442, 0, -4.997, 0.008, 0.01, -0.002, -4.996, 0.012, 0.01
 325631362, 0, -4.997, 0.004, 0.01, 0, -4.997, 0.008, 0.01
 325831282, 0.001, -4.997, 0.001, 0.01, 0, -4.997, 0.004, 0.01
 326031202, 0.001, -4.997, -0.002, 0.01, 0.001, -4.997, 0.001, 0.01
 326231122, 0.001, -4.999, -0.007, 0.01, 0.001, -4.997, -0.002, 0.01
 326431042, 0.001, -4.999, -0.011, 0.01, 0.001, -4.999, -0.007, 0.01
 326630962, 0.002, -4.997, -0.012, 0.01, 0.001, -4.999, -0.011, 0.01
 326830882, 0.001, -4.995, -0.012, 0.01, 0.002, -4.997, -0.012, 0.01
 327030802, 0.001, -4.995, -0.012, 0.01, 0.001, -4.995, -0.012, 0.01
 327230722, 0.001, -4.994, -0.01, 0.01, 0.001, -4.995, -0.012, 0.01
 327431475, 0.001, -4.994, -0.009000001, 0.01, 0.001, -4.994, -0.01, 0.01
 327631395, 0.002, -4.996, -0.011, 0.01, 0.001, -4.994, -0.009000001, 0.01
 327831315, 0.002, -4.996, -0.01, 0.01, 0.002, -4.996, -0.011, 0.01
 328031235, 0.003, -4.995, -0.009000001, 0.01, 0.002, -4.996, -0.01, 0.01
 328231155, 0.003, -4.993, -0.006, 0.01, 0.003, -4.995, -0.009000001, 0.01
 328431075, 0.003, -4.992, 0, 0.01, 0.003, -4.993, -0.006, 0.01
 328630995, 0.002, -4.993, 0.004, 0.01, 0.003, -4.992, 0, 0.01
 328830915, 0.001, -4.994, 0.009000001, 0.01, 0.002, -4.993, 0.004, 0.01
 329030835, 0, -4.995, 0.012, 0.01, 0.001, -4.994, 0.009000001, 0.01
 329230755, 0, -4.995, 0.014, 0.01, 0, -4.995, 0.012, 0.01
 329430675, 0, -4.994, 0.016, 0.01, 0, -4.995, 0.014, 0.01
 329631428, 0.001, -4.993, 0.015, 0.01, 0, -4.994, 0.016, 0.01
 329831348, 0.001, -4.995, 0.014, 0.01, 0.001, -4.993, 0.015, 0.01
 330031268, 0, -4.996, 0.012, 0.01, 0.001, -4.995, 0.014, 0.01
 330231188, 0, -4.996, 0.009000001, 0.01, 0, -4.996, 0.012, 0.01
 330431108, 0.001, -4.995, 0.005, 0.01, 0, -4.996, 0.009000001, 0.01
 330631028, 0.002, -4.994, 0.001, 0.01, 0.001, -4.995, 0.005, 0.01
 330830948, 0.002, -4.993, -0.001, 0.01, 0.002, -4.994, 0.001, 0.01
 331030868, 0.001, -4.992, -0.004, 0.01, 0.002, -4.993, -0.001, 0.01
 331230788, 0.001, -4.991, -0.008, 0.01, 0.001, -4.992, -0.004, 0.01
 331430708, 0.001, -4.989, -0.01, 0.01, 0.001, -4.991, -0.008, 0.01
 331631461, 0, -4.987, -0.009000001, 0.01, 0.001, -4.989, -0.01, 0.01
 331831381, 0, -4.986, -0.008, 0.01, 0, -4.987, -0.009000001, 0.01
 332031301, 0, -4.985, -0.005, 0.01, 0, -4.986, -0.008, 0.01
 332231221, 0.001, -4.984, -0.001, 0.01, 0, -4.985, -0.005, 0.01
 332431141, 0.003, -4.984, 0.002, 0.01, 0.001, -4.984, -0.001, 0.01
 332631061, 0.002, -4.984, 0.003, 0.01, 0.003, -4.984, 0.002, 0.01
 332830981, 0.001, -4.984, 0.004, 0.01, 0.002, -4.984, 0.003, 0.01
 333030901, 0, -4.985, 0.006, 0.01, 0.001, -4.984, 0.004, 0.01
 333230821, 0.001, -4.986, 0.006, 0.01, 0, -4.985, 0.006, 0.01
 333430741, 0.002, -4.989, 0.006, 0.01, 0.001, -4.986, 0.006, 0.01
 333630661, 0.003, -4.991, 0.006, 0.01, 0.002, -4.989, 0.006, 0.01
 333831414, 0.002, -4.992, 0.006, 0.01, 0.003, -4.991, 0.006, 0.01
 334031334, 0.001, -4.99, 0.009000001, 0.01, 0.002, -4.992, 0.006, 0.01
 334231254, 0, -4.988, 0.012, 0.01, 0.001, -4.99, 0.009000001, 0.01
 334431174, 0, -4.989, 0.014, 0.01, 0, -4.988, 0.012, 0.01
 334631094, 0.001, -4.992, 0.013, 0.01, 0, -4.989, 0.014, 0.01
 334831014, 0.003, -4.993, 0.01, 0.01, 0.001, -4.992, 0.013, 0.01
 335030934, 0.004, -4.992, 0.006, 0.01, 0.003, -4.993, 0.01, 0.01
 335230854, 0.004, -4.991, 0.001, 0.01, 0.004, -4.992, 0.006, 0.01
 335430774, 0.004, -4.989, 0, 0.01, 0.004, -4.991, 0.001, 0.01
 335630694, 0.003, -4.989, 0, 0.01, 0.004, -4.989, 0, 0.01
 335831447, 0.004, -4.991, -0.001, 0.01, 0.003, -4.989, 0, 0.01
 336031367, 0.005, -4.992, -0.003, 0.01, 0.004, -4.991, -0.001, 0.01
 336231287, 0.006, -4.991, -0.006, 0.01, 0.005, -4.992, -0.003, 0.01
 336431207, 0.007, -4.989, -0.009000001, 0.01, 0.006, -4.991, -0.006, 0.01
 336631127, 0.007, -4.979, -0.014, 0.01, 0.007, -4.989, -0.009000001, 0.01
 336831047, 0.007, -4.901, -0.022, 0.01, 0.007, -4.979, -0.014, 0.01
 337030967, -0.009000001, -4.743, -0.024, 0.01, 0.007, -4.901, -0.022, 0.01
 337230887, -0.055, -4.557, -0.018, 0.01, -0.009000001, -4.743, -0.024, 0.01
 337430807, -0.119, -4.372, -0.01, 0.01, -0.055, -4.557, -0.018, 0.01
 337630727, -0.19, -4.179, -0.002, 0.01, -0.119, -4.372, -0.01, 0.01
 337831480, -0.266, -3.968, 0.002, 0.01, -0.19, -4.179, -0.002, 0.01
 338031400, -0.355, -3.737, 0.008, 0.01, -0.266, -3.968, 0.002, 0.01
 338231320, -0.464, -3.49, 0.01, 0.01, -0.355, -3.737, 0.008, 0.01
 338431240, -0.591, -3.229, 0.013, 0.01, -0.464, -3.49, 0.01, 0.01
 338631160, -0.734, -2.952, 0.016, 0.01, -0.591, -3.229, 0.013, 0.01
 338831080, -0.892, -2.658, 0.016, 0.01, -0.734, -2.952, 0.016, 0.01
 339031000, -1.059, -2.342, 0.017, 0.01, -0.892, -2.658, 0.016, 0.01
 339230920, -1.231, -2.007, 0.016, 0.01, -1.059, -2.342, 0.017, 0.01
 339430840, -1.407, -1.663, 0.014, 0.01, -1.231, -2.007, 0.016, 0.01
 339630760, -1.589, -1.333, 0.012, 0.01, -1.407, -1.663, 0.014, 0.01
 339830680, -1.779, -1.041, 0.01, 0.01, -1.589, -1.333, 0.012, 0.01
 340031433, -1.981, -0.807, 0.009000001, 0.01, -1.779, -1.041, 0.01, 0.01
 340231353, -2.19, -0.624, 0.01, 0.01, -1.981, -0.807, 0.009000001, 0.01
 340431273, -2.399, -0.479, 0.01, 0.01, -2.19, -0.624, 0.01, 0.01
 340631193, -2.603, -0.352, 0.01, 0.01, -2.399, -0.479, 0.01, 0.01
 340831113, -2.801, -0.234, 0.01, 0.01, -2.603, -0.352, 0.01, 0.01
 341031033, -2.987, -0.125, 0.01, 0.01, -2.801, -0.234, 0.01, 0.01
 341230953, -3.158, -0.029, 0.009000001, 0.01, -2.987, -0.125, 0.01, 0.01
 341430873, -3.316, 0.048, 0.008, 0.01, -3.158, -0.029, 0.009000001, 0.01
 341630793, -3.462, 0.101, 0.006, 0.01, -3.316, 0.048, 0.008, 0.01
 341830713, -3.599, 0.128, 0.003, 0.01, -3.462, 0.101, 0.006, 0.01
 342031466, -3.724, 0.136, 0.001, 0.01, -3.599, 0.128, 0.003, 0.01
 342231386, -3.837, 0.133, 0, 0.01, -3.724, 0.136, 0.001, 0.01
 342431306, -3.939, 0.125, -0.002, 0.01, -3.837, 0.133, 0, 0.01
 342631226, -4.03, 0.115, -0.005, 0.01, -3.939, 0.125, -0.002, 0.01
 342831146, -4.112, 0.107, -0.01, 0.01, -4.03, 0.115, -0.005, 0.01
 343031066, -4.184, 0.097, -0.014, 0.01, -4.112, 0.107, -0.01, 0.01
 343230986, -4.246, 0.089, -0.016, 0.01, -4.184, 0.097, -0.014, 0.01
 343430906, -4.302, 0.081, -0.019, 0.01, -4.246, 0.089, -0.016, 0.01
 343630826, -4.353, 0.072, -0.021, 0.01, -4.302, 0.081, -0.019, 0.01
 343830746, -4.397, 0.053, -0.022, 0.01, -4.353, 0.072, -0.021, 0.01
 344030666, -4.434, 0.041, -0.02, 0.01, -4.397, 0.053, -0.022, 0.01
 344231419, -4.466, 0.031, -0.016, 0.01, -4.434, 0.041, -0.02, 0.01
 344431339, -4.496, 0.018, -0.014, 0.01, -4.466, 0.031, -0.016, 0.01
 344631259, -4.524, 0.01, -0.014, 0.01, -4.496, 0.018, -0.014, 0.01
 344831179, -4.548, 0.009000001, -0.015, 0.01, -4.524, 0.01, -0.014, 0.01
 345031099, -4.568, 0.003, -0.016, 0.01, -4.548, 0.009000001, -0.015, 0.01
 345231019, -4.585, 0, -0.016, 0.01, -4.568, 0.003, -0.016, 0.01
 345430939, -4.6, 0, -0.014, 0.01, -4.585, 0, -0.016, 0.01
 345630859, -4.615, 0, -0.012, 0.01, -4.6, 0, -0.014, 0.01
 345830779, -4.629, 0, -0.009000001, 0.01, -4.615, 0, -0.012, 0.01
 346030699, -4.643, 0, -0.006, 0.01, -4.629, 0, -0.009000001, 0.01
 346231452, -4.655, 0, -0.001, 0.01, -4.643, 0, -0.006, 0.01
 346431372, -4.668, 0.002, 0.002, 0.01, -4.655, 0, -0.001, 0.01
 346631292, -4.68, 0.004, 0.004, 0.01, -4.668, 0.002, 0.002, 0.01
 346831212, -4.692, 0.014, 0.004, 0.01, -4.68, 0.004, 0.004, 0.01
 347031132, -4.703, 0.019, 0.004, 0.01, -4.692, 0.014, 0.004, 0.01
 347231052, -4.713, 0.018, 0.007, 0.01, -4.703, 0.019, 0.004, 0.01
 347430972, -4.724, 0.018, 0.009000001, 0.01, -4.713, 0.018, 0.007, 0.01
 347630892, -4.737, 0.02, 0.007, 0.01, -4.724, 0.018, 0.009000001, 0.01
 347830812, -4.749, 0.022, 0.002, 0.01, -4.737, 0.02, 0.007, 0.01
 348030732, -4.76, 0.023, -0.003, 0.01, -4.749, 0.022, 0.002, 0.01
 348231485, -4.769, 0.023, -0.009000001, 0.01, -4.76, 0.023, -0.003, 0.01
 348431405, -4.778, 0.023, -0.013, 0.01, -4.769, 0.023, -0.009000001, 0.01
 348631325, -4.786, 0.023, -0.015, 0.01, -4.778, 0.023, -0.013, 0.01
 348831245, -4.794, 0.024, -0.014, 0.01, -4.786, 0.023, -0.015, 0.01
 349031165, -4.801, 0.024, -0.01, 0.01, -4.794, 0.024, -0.014, 0.01
 349231085, -4.809, 0.024, -0.005, 0.01, -4.801, 0.024, -0.01, 0.01
 349431005, -4.817, 0.023, -0.002, 0.01, -4.809, 0.024, -0.005, 0.01
 349630925, -4.825, 0.023, 0, 0.01, -4.817, 0.023, -0.002, 0.01
 349830845, -4.833, 0.024, 0.003, 0.01, -4.825, 0.023, 0, 0.01
 350030765, -4.84, 0.024, 0.005, 0.01, -4.833, 0.024, 0.003, 0.01
 350230685, -4.847, 0.024, 0.008, 0.01, -4.84, 0.024, 0.005, 0.01
 350431438, -4.854, 0.025, 0.01, 0.01, -4.847, 0.024, 0.008, 0.01
 350631358, -4.862, 0.025, 0.011, 0.01, -4.854, 0.025, 0.01, 0.01
 350831278, -4.87, 0.026, 0.009000001, 0.01, -4.862, 0.025, 0.011, 0.01
 351031198, -4.878, 0.025, 0.005, 0.01, -4.87, 0.026, 0.009000001, 0.01
 351231118, -4.884, 0.024, 0.001, 0.01, -4.878, 0.025, 0.005, 0.01
 351431038, -4.89, 0.024, -0.002, 0.01, -4.884, 0.024, 0.001, 0.01
 351630958, -4.896, 0.024, -0.007, 0.01, -4.89, 0.024, -0.002, 0.01
 351830878, -4.9, 0.023, -0.009000001, 0.01, -4.896, 0.024, -0.007, 0.01
 352030798, -4.903, 0.022, -0.006, 0.01, -4.9, 0.023, -0.009000001, 0.01
 352230718, -4.906, 0.021, -0.004, 0.01, -4.903, 0.022, -0.006, 0.01
 352431471, -4.91, 0.02, 0, 0.01, -4.906, 0.021, -0.004, 0.01
 352631391, -4.914, 0.022, 0.005, 0.01, -4.91, 0.02, 0, 0.01
 352831311, -4.918, 0.022, 0.01, 0.01, -4.914, 0.022, 0.005, 0.01
 353031231, -4.922, 0.023, 0.015, 0.01, -4.918, 0.022, 0.01, 0.01
 353231151, -4.927, 0.022, 0.018, 0.01, -4.922, 0.023, 0.015, 0.01
 353431071, -4.931, 0.022, 0.019, 0.01, -4.927, 0.022, 0.018, 0.01
 353630991, -4.935, 0.022, 0.02, 0.01, -4.931, 0.022, 0.019, 0.01
 353830911, -4.94, 0.021, 0.019, 0.01, -4.935, 0.022, 0.02, 0.01
 354030831, -4.943, 0.021, 0.018, 0.01, -4.94, 0.021, 0.019, 0.01
 354230751, -4.947, 0.02, 0.018, 0.01, -4.943, 0.021, 0.018, 0.01
 354430671, -4.951, 0.018, 0.016, 0.01, -4.947, 0.02, 0.018, 0.01
 354631424, -4.955, 0.016, 0.015, 0.01, -4.951, 0.018, 0.016, 0.01
 354831344, -4.956, 0.009000001, 0.015, 0.01, -4.955, 0.016, 0.015, 0.01
 355031264, -4.958, 0.003, 0.015, 0.01, -4.956, 0.009000001, 0.015, 0.01
 355231184, -4.96, 0.022, 0.012, 0.01, -4.958, 0.003, 0.015, 0.01
 355431104, -4.963, 0.023, 0.006, 0.01, -4.96, 0.022, 0.012, 0.01
 355631024, -4.964, 0.016, 0, 0.01, -4.963, 0.023, 0.006, 0.01
 355830944, -4.964, 0, -0.005, 0.01, -4.964, 0.016, 0, 0.01
 356030864, -4.963, 0.001, -0.007, 0.01, -4.964, 0, -0.005, 0.01
 356230784, -4.965, 0.019, -0.007, 0.01, -4.963, 0.001, -0.007, 0.01
 356430704, -4.967, 0.019, -0.009000001, 0.01, -4.965, 0.019, -0.007, 0.01
 356631457, -4.969, 0.011, -0.012, 0.01, -4.967, 0.019, -0.009000001, 0.01
 356831377, -4.969, 0, -0.016, 0.01, -4.969, 0.011, -0.012, 0.01
 357031297, -4.969, 0.007, -0.018, 0.01, -4.969, 0, -0.016, 0.01
 357231217, -4.968, 0.022, -0.017, 0.01, -4.969, 0.007, -0.018, 0.01
 357431137, -4.969, 0.019, -0.015, 0.01, -4.968, 0.022, -0.017, 0.01
 357631057, -4.97, 0.006, -0.012, 0.01, -4.969, 0.019, -0.015, 0.01
 357830977, -4.97, -0.001, -0.006, 0.01, -4.97, 0.006, -0.012, 0.01
 358030897, -4.97, 0.005, -0.003, 0.01, -4.97, -0.001, -0.006, 0.01
 358230817, -4.971, 0.02, -0.001, 0.01, -4.97, 0.005, -0.003, 0.01
 358430737, -4.972, 0.017, 0.001, 0.01, -4.971, 0.02, -0.001, 0.01
 358630657, -4.973, 0.001, 0.005, 0.01, -4.972, 0.017, 0.001, 0.01
 358831410, -4.974, -0.002, 0.01, 0.01, -4.973, 0.001, 0.005, 0.01
 359031330, -4.976, 0.002, 0.014, 0.01, -4.974, -0.002, 0.01, 0.01
 359231250, -4.977, 0.017, 0.018, 0.01, -4.976, 0.002, 0.014, 0.01
 359431170, -4.979, 0.015, 0.021, 0.01, -4.977, 0.017, 0.018, 0.01
 359631090, -4.981, -0.003, 0.022, 0.01, -4.979, 0.015, 0.021, 0.01
 359831010, -4.983, -0.003, 0.021, 0.01, -4.981, -0.003, 0.022, 0.01
 360030930, -4.987, 0.002, 0.016, 0.01, -4.983, -0.003, 0.021, 0.01
 360230850, -4.99, 0.017, 0.008, 0.01, -4.987, 0.002, 0.016, 0.01
 360430770, -4.991, 0.01, 0.001, 0.01, -4.99, 0.017, 0.008, 0.01
 360630690, -4.992, -0.003, -0.004, 0.01, -4.991, 0.01, 0.001, 0.01
 360831443, -4.992, -0.001, -0.009000001, 0.01, -4.992, -0.003, -0.004, 0.01
 361031363, -4.989, 0.012, -0.012, 0.01, -4.992, -0.001, -0.009000001, 0.01
 361231283, -4.986, 0.019, -0.013, 0.01, -4.989, 0.012, -0.012, 0.01
 361431203, -4.986, 0.007, -0.012, 0.01, -4.986, 0.019, -0.013, 0.01
 361631123, -4.986, -0.004, -0.01, 0.01, -4.986, 0.007, -0.012, 0.01
 361831043, -4.985, -0.002, -0.006, 0.01, -4.986, -0.004, -0.01, 0.01
 362030963, -4.984, 0, -0.003, 0.01, -4.985, -0.002, -0.006, 0.01
 362230883, -4.984, 0.001, 0, 0.01, -4.984, 0, -0.003, 0.01
 362430803, -4.984, 0, 0.002, 0.01, -4.984, 0.001, 0, 0.01
 362630723, -4.986, 0, 0.002, 0.01, -4.984, 0, 0.002, 0.01
 362831476, -4.988, 0, 0.001, 0.01, -4.986, 0, 0.002, 0.01
 363031396, -4.988, 0, 0.001, 0.01, -4.988, 0, 0.001, 0.01
 363231316, -4.987, 0, 0.001, 0.01, -4.988, 0, 0.001, 0.01
 363431236, -4.987, 0, 0.002, 0.01, -4.987, 0, 0.001, 0.01
 363631156, -4.99, 0.001, 0.001, 0.01, -4.987, 0, 0.002, 0.01
 363831076, -4.998, 0.001, -0.001, 0.01, -4.99, 0.001, 0.001, 0.01
 364030996, -4.994, 0.001, -0.005, 0.01, -4.998, 0.001, -0.001, 0.01
 364230916, -4.981, 0.002, -0.008, 0.01, -4.994, 0.001, -0.005, 0.01
 364430836, -4.984, 0.009000001, -0.012, 0.01, -4.981, 0.002, -0.008, 0.01
 364630756, -5.001, 0.015, -0.014, 0.01, -4.984, 0.009000001, -0.012, 0.01
 364830676, -5.001, -0.003, -0.017, 0.01, -5.001, 0.015, -0.014, 0.01
 365031429, -4.985, -0.004, -0.02, 0.01, -5.001, -0.003, -0.017, 0.01
 365231349, -4.977, 0, -0.02, 0.01, -4.985, -0.004, -0.02, 0.01
 365431269, -4.982, 0.017, -0.02, 0.01, -4.977, 0, -0.02, 0.01
 365631189, -4.996, 0.009000001, -0.02, 0.01, -4.982, 0.017, -0.02, 0.01
 365831109, -5.001, -0.007, -0.02, 0.01, -4.996, 0.009000001, -0.02, 0.01
 366031029, -4.989, -0.007, -0.018, 0.01, -5.001, -0.007, -0.02, 0.01
 366230949, -4.978, -0.001, -0.015, 0.01, -4.989, -0.007, -0.018, 0.01
 366430869, -4.981, 0, -0.011, 0.01, -4.978, -0.001, -0.015, 0.01
 366630789, -4.995, 0, -0.008, 0.01, -4.981, 0, -0.011, 0.01
 366830709, -5.003, -0.001, -0.007, 0.01, -4.995, 0, -0.008, 0.01
 367031462, -4.997, -0.002, -0.006, 0.01, -5.003, -0.001, -0.007, 0.01
 367231382, -4.98, -0.001, -0.004, 0.01, -4.997, -0.002, -0.006, 0.01
 367431302, -4.982, 0, -0.003, 0.01, -4.98, -0.001, -0.004, 0.01
 367631222, -4.997, 0.002, -0.002, 0.01, -4.982, 0, -0.003, 0.01
 367831142, -5.001, 0.002, 0, 0.01, -4.997, 0.002, -0.002, 0.01
 368031062, -4.991, 0.002, 0.001, 0.01, -5.001, 0.002, 0, 0.01
 368230982, -4.98, 0.002, 0.001, 0.01, -4.991, 0.002, 0.001, 0.01
 368430902, -4.984, 0.001, 0.002, 0.01, -4.98, 0.002, 0.001, 0.01
 368630822, -5, 0.001, 0.005, 0.01, -4.984, 0.001, 0.002, 0.01
 368830742, -5.001, 0.002, 0.006, 0.01, -5, 0.001, 0.005, 0.01
 369030662, -4.988, 0.005, 0.005, 0.01, -5.001, 0.002, 0.006, 0.01
 369231415, -4.98, 0.016, 0.006, 0.01, -4.988, 0.005, 0.005, 0.01
 369431335, -4.989, -0.001, 0.005, 0.01, -4.98, 0.016, 0.006, 0.01
 369631255, -5.003, -0.005, 0.006, 0.01, -4.989, -0.001, 0.005, 0.01
 369831175, -5.001, -0.001, 0.007, 0.01, -5.003, -0.005, 0.006, 0.01
 370031095, -4.993, 0.011, 0.008, 0.01, -5.001, -0.001, 0.007, 0.01
 370231015, -4.983, 0.016, 0.007, 0.01, -4.993, 0.011, 0.008, 0.01
