TimeUS,CAN,CAE,CAD,CAe,NAN,NAE,NAD,NAe,m10,m00,Gye
 196363923, 7.592165E-06, 4.409972E-05, -8.269815E-07, 6.484905E-06, 0, 0, 0, 0, -0.9999978, -0.001439731, 2.137656
 196431396, 0.6355943, 3.53932, -0.139057, 0.5097396, -0.08441924, 3.598554, -0.1834003, 0.5097331, -0.9999978, -0.001438949, 27.79909
 196631316, -0.08460888, 3.605789, -0.1835798, 0.5102592, -0.0003985583, 0.003962866, 1.008227E-05, 0.0005187925, -0.9999978, -0.00143287, 171.2454
 196831236, -0.000432124, 0.01084511, -0.0001467606, 0.00104407, 0.000192632, 0.004111253, -7.058418E-05, 0.0005187925, -0.9999978, -0.001425967, 0.3503954
 197031156, -0.0002786578, 0.01119001, -2.980589E-05, 0.00104407, -0.0005186136, 0.003932688, -0.0002445077, 0.0005187925, -0.9999978, -0.001420143, 0.3503954
 197231076, -0.0002400495, 0.01145827, -0.0004428689, 0.00104407, 0.0001169539, 0.004261288, -0.0001651437, 0.0005187925, -0.9999978, -0.001414099, 0.3503954
 197430996, 0.000139833, 0.01157363, -0.0004726688, 0.00104407, -7.693284E-06, 0.003887444, -0.0004949127, 0.0005187925, -0.9999978, -0.001408981, 0.3503954
 197630916, -5.664045E-05, 0.01100823, -0.0008866696, 0.00104407, 5.178515E-05, 0.003996198, -0.0001989153, 0.0005187925, -0.9999978, -0.001403784, 0.3503954
 197830836, 0.0004336133, 0.01157205, -0.0004676162, 0.00104407, 0.000166236, 0.004325491, -0.0003329268, 0.0005187925, -0.9999978, -0.001396895, 0.3503954
 198030756, 0.0004158332, 0.01175711, -0.0008615382, 0.00104407, -1.648736E-05, 0.004381695, -0.0003581856, 0.0005187925, -0.9999978, -0.001390379, 0.3503954
 198230676, 0.0001042968, 0.01192101, -0.0003470606, 0.00104407, 0.000356971, 0.004040685, -0.0003242828, 0.0005187925, -0.9999978, -0.001383547, 0.3503954
 198431429, 0.0002758296, 0.01138389, -0.0004961662, 0.001046232, 0.0001036315, 0.004129571, -0.0001321109, 0.0005209541, -0.9999978, -0.001379105, 0.3511209
 198631349, -2.048513E-05, 0.01145301, -0.00020364, 0.001046232, -0.0002273733, 0.004209312, -0.000143274, 0.0005187925, -0.9999978, -0.001384923, 0.3511209
 198831269, 2.925251E-05, 0.01142915, -0.0001097478, 0.00104407, 0.0001898308, 0.004127001, -0.0005062439, 0.0005187925, -0.9999978, -0.001389582, 0.3503954
 199031189, 0.0002993534, 0.01192226, -0.0006666151, 0.00104407, 0.0002374953, 0.004750833, -0.0002948332, 0.0005187925, -0.9999978, -0.001395147, 0.3503954
 199231109, 0.0001284985, 0.01191663, -0.0004176924, 0.00104407, -0.0001382545, 0.004264325, -2.554825E-05, 0.0005187925, -0.9999978, -0.001398999, 0.3503954
 199431029, -0.0001947, 0.01145353, -3.728327E-05, 0.00104407, 7.190792E-05, 0.004134492, 3.111074E-05, 0.0005187925, -0.9999978, -0.00140176, 0.3503954
 199630949, 3.074158E-05, 0.0112523, 0.0001402187, 0.00104407, 0.0001549051, 0.003790795, 5.154217E-05, 0.0005187925, -0.9999978, -0.001403779, 0.3503954
 199830869, -7.105441E-05, 0.0114434, 1.962239E-05, 0.00104407, -0.0003765652, 0.004604376, -0.0001589663, 0.0005187925, -0.9999978, -0.00140527, 0.3503954
 200030789, -0.0003029304, 0.0118468, -0.0003156377, 0.00104407, 0.0005360657, 0.003850143, -0.0002675857, 0.0005187925, -0.9999978, -0.001405813, 0.3503954
 200230709, 0.0007603159, 0.01102528, -4.861672E-05, 0.00104407, 0.0003072835, 0.004246387, 4.402425E-05, 0.0005187925, -0.9999978, -0.00140578, 0.3503954
 200431462, 0.000324879, 0.01140723, -0.0004656911, 0.001046232, 0.0001498487, 0.003897155, -0.0004043459, 0.0005209541, -0.9999978, -0.001407013, 0.3511209
 200631382, -2.94544E-05, 0.0114527, -0.000664092, 0.001046232, -0.0001100672, 0.004231617, -0.0002713203, 0.0005187925, -0.9999978, -0.00140613, 0.3511209
 200831302, 2.349931E-05, 0.01129881, -0.0002845532, 0.00104407, -2.740131E-05, 0.004238953, -3.736074E-05, 0.0005187925, -0.9999978, -0.001403764, 0.3503954
 201031222, 4.797895E-05, 0.0115145, 4.580572E-05, 0.00104407, 0.0003804875, 0.003987784, -0.0002467777, 0.0005187925, -0.9999979, -0.001398232, 0.3503954
 201231142, 0.0002802487, 0.01096547, -0.0003721929, 0.00104407, -0.0001014023, 0.003901281, 0.0001443512, 0.0005187925, -0.9999979, -0.00139331, 0.3503954
 201431062, -0.0004241735, 0.01112798, 0.0001581834, 0.00104407, -0.0002310725, 0.003976061, 7.136584E-06, 0.0005187925, -0.9999979, -0.001388299, 0.3503954
 201630982, -4.666921E-05, 0.01094209, 4.498588E-05, 0.00104407, 0.0001035672, 0.003769719, 0.0003806928, 0.0005187925, -0.9999979, -0.001382786, 0.3503954
 201830902, -0.0001376048, 0.01096001, 0.0002069099, 0.00104407, -0.0007015854, 0.004353229, 2.507162E-06, 0.0005187925, -0.9999979, -0.001376563, 0.3503954
 202030822, -0.0005992808, 0.0117233, -0.0002145183, 0.00104407, 0.0002167078, 0.003956794, -0.0001745693, 0.0005187925, -0.9999979, -0.001370503, 0.3503954
 202230742, 0.000308584, 0.01131763, -0.0003530341, 0.00104407, 0.0002780867, 0.004249523, 0.0002771234, 0.0005187925, -0.9999979, -0.001363581, 0.3503954
 202430662, 0.0005218912, 0.01145977, -3.219749E-05, 0.00104407, 0.0002104688, 0.004098006, -0.0003636561, 0.0005187925, -0.9999979, -0.001357379, 0.3503954
 202631415, 0.0004206474, 0.01131829, -0.0005584936, 0.001046232, 0.0003052673, 0.003832885, -0.000201366, 0.0005209541, -0.9999979, -0.001352824, 0.3511209
 202831335, 0.000495934, 0.01108886, -0.0003941516, 0.001046232, -0.0001080405, 0.003812758, 3.672799E-05, 0.0005187925, -0.9999979, -0.001346439, 0.3511209
 203031255, -9.482547E-05, 0.01128385, -2.573769E-05, 0.00104407, 0.0004501803, 0.004693339, 0.0002104036, 0.0005187925, -0.9999978, -0.001338956, 0.3503954
 203231175, 0.0003416858, 0.01199182, -0.0001519906, 0.00104407, 5.183693E-05, 0.004318431, -0.0005478419, 0.0005187925, -0.9999978, -0.001331763, 0.3503954
 203431095, 0.000156542, 0.01140935, -0.000576634, 0.00104407, 0.0002686777, 0.004123601, 0.0001702164, 0.0005187925, -0.9999978, -0.001322836, 0.3503954
 203631015, 0.0004304542, 0.01162036, 0.0003216041, 0.00104407, 0.0004305563, 0.004210291, 2.616789E-05, 0.0005187925, -0.9999978, -0.001315597, 0.3503954
 203830935, 0.0004617812, 0.01177463, -1.505488E-05, 0.00104407, -0.0002121495, 0.004331039, -5.112629E-05, 0.0005187925, -0.9999978, -0.001322496, 0.3503954
 204030855, 9.399817E-05, 0.01174418, -0.0003018256, 0.00104407, 0.0001585971, 0.004288604, -0.0003151098, 0.0005187925, -0.9999978, -0.001329283, 0.3503954
 204230775, 0.0002668473, 0.0116099, -0.0005091085, 0.00104407, 0.00042993, 0.004101343, -0.0002567683, 0.0005187925, -0.9999978, -0.001334533, 0.3503954
 204430695, 0.0005911214, 0.01134152, -0.0005926586, 0.00104407, -0.0001395426, 0.004243637, -0.0002164821, 0.0005187925, -0.9999978, -0.001338868, 0.3503954
 204631448, -0.0001133024, 0.01153786, -3.691861E-05, 0.001046232, -1.012007E-05, 0.004492116, -0.0003143368, 0.0005209541, -0.9999979, -0.001344857, 0.3511209
 204831368, 0.0001456069, 0.01142953, -0.0001692003, 0.001046232, -9.963174E-05, 0.003903875, 0.000132858, 0.0005187925, -0.9999978, -0.001346593, 0.3511209
 205031288, -0.0002059984, 0.01128957, -0.0003126121, 0.00104407, 1.543381E-05, 0.004400273, -0.0002644709, 0.0005187925, -0.9999978, -0.001347742, 0.3503954
 205231208, -7.101423E-05, 0.01165641, -0.0003860181, 0.00104407, 0.0002182156, 0.004176738, -0.0002510556, 0.0005187925, -0.9999978, -0.001348836, 0.3503954
 205431128, 0.0002997333, 0.01130951, -0.0002035113, 0.00104407, -0.0001752267, 0.003596413, 0.0002998369, 0.0005187925, -0.9999978, -0.001350239, 0.3503954
 205631048, 7.868018E-05, 0.01106352, -2.29743E-05, 0.00104407, 1.91725E-05, 0.003893462, 0.0002996116, 0.0005187925, -0.9999978, -0.001350295, 0.3503954
 205830968, -6.674654E-05, 0.01122535, 0.0001745598, 0.00104407, -0.0001528879, 0.004425777, 0.0001702676, 0.0005187925, -0.9999978, -0.001348388, 0.3503954
 206030888, 6.591275E-06, 0.0115995, -0.0001431452, 0.00104407, -0.0001842305, 0.003977147, -0.0002025235, 0.0005187925, -0.9999978, -0.001346634, 0.3503954
 206230808, 6.771085E-05, 0.0111159, -0.0002134601, 0.00104407, 5.673846E-05, 0.004210937, 6.249192E-05, 0.0005187925, -0.9999978, -0.001344863, 0.3503954
 206430728, 0.0002158459, 0.01135194, 0.0001579594, 0.00104407, 0.0003192056, 0.004109843, -0.0001414508, 0.0005187925, -0.9999979, -0.00134299, 0.3503954
 206631481, 0.0004908129, 0.01138161, -0.0001229994, 0.001046232, -6.135176E-07, 0.0043724, 8.014007E-06, 0.0005209541, -0.9999978, -0.001342186, 0.3511209
 206831401, -8.541744E-05, 0.01187995, 8.98399E-05, 0.001046232, -5.7938E-05, 0.00415998, -1.184228E-05, 0.0005187925, -0.9999979, -0.001340664, 0.3511209
 207031321, -0.0001843314, 0.01120709, -0.0003354507, 0.00104407, -0.0001200984, 0.004476944, -0.0004654762, 0.0005187925, -0.9999979, -0.001338081, 0.3503954
 207231241, 4.134726E-05, 0.01174512, -0.0004941298, 0.00104407, -9.238571E-05, 0.003842162, -3.179227E-06, 0.0005187925, -0.9999979, -0.001333343, 0.3503954
 207431161, -0.0001818641, 0.01090071, 3.278138E-05, 0.00104407, -0.0002810371, 0.004179394, 0.0001040305, 0.0005187925, -0.9999979, -0.001328447, 0.3503954
 207631081, -0.0001141577, 0.01139211, -7.4986E-05, 0.00104407, 0.000236264, 0.004462305, 0.0001343035, 0.0005187925, -0.9999979, -0.001323577, 0.3503954
 207831001, 0.0001316283, 0.01151808, 0.0001787996, 0.00104407, -1.409824E-05, 0.00371193, 0.0006062954, 0.0005187925, -0.9999979, -0.001318768, 0.3503954
 208030921, -0.0001850395, 0.0113655, 0.0004731168, 0.00104407, -0.0001748342, 0.004353426, 0.0004418894, 0.0005187925, -0.9999979, -0.001313385, 0.3503954
 208230841, -1.039529E-05, 0.01164513, 0.0003354148, 0.00104407, 0.0002126677, 0.004017851, -0.0002652382, 0.0005187925, -0.9999979, -0.001307436, 0.3503954
 208430761, -3.164678E-05, 0.01129479, -0.0003099882, 0.00104407, -0.000226763, 0.004471148, -0.0002242717, 0.0005187925, -0.9999979, -0.001302493, 0.3503954
 208630681, -0.0001610116, 0.01190801, -0.000447845, 0.00104407, -3.756127E-05, 0.004208188, -0.0001118415, 0.0005187925, -0.9999978, -0.001296298, 0.3503954
 208831434, 4.70185E-05, 0.01200948, -0.000113339, 0.001046232, 0.0002325523, 0.004457069, -4.389437E-05, 0.0005209541, -0.9999979, -0.001292282, 0.3511209
 209031354, 0.0005227436, 0.01184484, 7.707251E-05, 0.001046232, 0.0005783222, 0.004157773, 0.0007093356, 0.0005187925, -0.9999979, -0.001300963, 0.3511209
 209231274, 0.0006550221, 0.01145834, 0.0007674855, 0.00104407, 0.0001214869, 0.0039866, 0.0005100474, 0.0005187925, -0.9999979, -0.00130736, 0.3503954
 209431194, 6.649728E-05, 0.01140107, 0.0003339266, 0.00104407, -0.0003778274, 0.003722699, -0.0003029219, 0.0005187925, -0.9999979, -0.001313012, 0.3503954
 209631114, -0.0006297635, 0.01103334, -0.0002295445, 0.00104407, 1.507506E-05, 0.004256936, 2.667909E-05, 0.0005187925, -0.9999979, -0.001317868, 0.3503954
 209831034, -0.0001120412, 0.01159883, 1.290162E-05, 0.00104407, 0.0001332347, 0.004796235, 2.056849E-05, 0.0005187925, -0.9999979, -0.001321343, 0.3503954
 210030954, 0.0002534258, 0.01213264, 0.0001531369, 0.00104407, 2.812868E-05, 0.00424644, -0.0002197114, 0.0005187925, -0.9999979, -0.00132509, 0.3503954
 210230874, -0.0001615164, 0.01159723, -8.523991E-05, 0.00104407, -0.0003043439, 0.00416397, 0.0002426154, 0.0005187925, -0.9999979, -0.001327733, 0.3503954
 210430794, -0.0002118925, 0.01150272, 0.0001272955, 0.00104407, 0.0001878707, 0.004380364, -4.886461E-05, 0.0005187925, -0.9999979, -0.001328918, 0.3503954
 210630714, 0.0001082602, 0.01115285, -6.761706E-05, 0.00104407, 0.0004011306, 0.003874955, -0.0001458073, 0.0005187925, -0.9999979, -0.001327298, 0.3503954
 210831467, 0.0002850707, 0.01135814, -2.302757E-05, 0.001046232, 0.0001127896, 0.003764685, 7.449627E-05, 0.0005209541, -0.9999979, -0.001327837, 0.3511209
 211031387, 0.0001504903, 0.01118036, 9.072011E-05, 0.001046232, 3.925773E-06, 0.004263564, -0.0003970179, 0.0005187925, -0.9999979, -0.001327742, 0.3511209
 211231307, 5.908922E-05, 0.01126235, -0.0007117355, 0.00104407, -6.719391E-05, 0.003742241, -7.924227E-07, 0.0005187925, -0.9999979, -0.001326744, 0.3503954
 211431227, -0.0002900423, 0.01109353, -0.0003086166, 0.00104407, 0.0003256161, 0.0043292, 0.000180786, 0.0005187925, -0.9999979, -0.001324061, 0.3503954
 211631147, 0.0002379778, 0.01149076, -0.0001320263, 0.00104407, -0.0004242882, 0.004057441, -0.0001958647, 0.0005187925, -0.9999979, -0.001322356, 0.3503954
 211831067, -0.0008230234, 0.01129454, -0.0002082039, 0.00104407, -0.0001012258, 0.004310687, -0.0004218642, 0.0005187925, -0.9999979, -0.001319979, 0.3503954
 212030987, 1.569804E-05, 0.01175921, -0.0004106321, 0.00104407, 0.0002303104, 0.004444063, 5.866684E-05, 0.0005187925, -0.9999979, -0.00131637, 0.3503954
 212230907, 0.0002383657, 0.01153029, 0.0001769026, 0.00104407, 6.078341E-05, 0.00401809, 0.0002925573, 0.0005187925, -0.9999979, -0.001313097, 0.3503954
 212430827, 0.0001970791, 0.01110727, 0.0001515153, 0.00104407, 0.0003191273, 0.004050136, -0.0003108532, 0.0005187925, -0.9999979, -0.001308454, 0.3503954
 212630747, 0.0003777626, 0.01118093, -0.0002487832, 0.00104407, 0.000114754, 0.003732755, 0.0001257656, 0.0005187925, -0.9999979, -0.001303985, 0.3503954
 212830667, -0.0001979621, 0.01071545, -6.499072E-05, 0.00104407, -0.0003139042, 0.004181925, -0.0001633598, 0.0005187925, -0.9999979, -0.001299126, 0.3503954
 213031420, -0.000285087, 0.01139089, -0.0006190234, 0.001046232, -0.0005166018, 0.003702398, -0.0001841833, 0.0005209541, -0.9999979, -0.001295708, 0.3511209
 213231340, -0.0004597449, 0.01124843, 4.136695E-05, 0.001046232, 0.0002287067, 0.004087821, 0.0004841118, 0.0005187925, -0.9999979, -0.001290823, 0.3511209
 213431260, 0.0002530007, 0.0113848, 0.0005245741, 0.00104407, -0.0001843107, 0.004321869, -0.0001587078, 0.0005187925, -0.9999979, -0.001283487, 0.3503954
 213631180, -0.0001538768, 0.01145191, -0.0003634441, 0.00104407, -4.245044E-05, 0.003947804, -0.0005165251, 0.0005187925, -0.9999979, -0.00127802, 0.3503954
 213831100, -0.0001242484, 0.01119318, -0.0007271719, 0.00104407, -8.708007E-05, 0.003805229, -0.0003279875, 0.0005187925, -0.9999979, -0.001272241, 0.3503954
 214031020, 0.0002399137, 0.01140741, -0.0004008132, 0.00104407, 3.314335E-05, 0.00444726, 7.325342E-05, 0.0005187925, -0.9999979, -0.00126628, 0.3503954
 214230940, 0.000205118, 0.01195444, 7.620503E-05, 0.00104407, -7.126202E-05, 0.003903484, 3.46164E-06, 0.0005187925, -0.9999979, -0.001275765, 0.3503954
 214430860, 0.0003923327, 0.01115312, -2.463083E-06, 0.00104407, -6.725884E-05, 0.004140198, 6.879201E-06, 0.0005187925, -0.9999979, -0.00128439, 0.3503954
 214630780, 0.0001782465, 0.01169816, -0.0003098786, 0.00104407, -8.344609E-05, 0.004248597, -0.0003345021, 0.0005187925, -0.9999979, -0.001291763, 0.3503954
 214830700, 4.184304E-05, 0.01190952, -0.0003908537, 0.00104407, 7.871959E-05, 0.004641689, -6.936516E-05, 0.0005187925, -0.9999979, -0.001298574, 0.3503954
 215031453, 0.0001160559, 0.01204509, -0.0006370511, 0.001046232, 0.0001922797, 0.004572878, -0.0003634667, 0.0005209541, -0.9999979, -0.001303929, 0.3511209
 215231373, 6.301152E-05, 0.01221803, -0.0005547425, 0.001046232, -5.160164E-06, 0.004388678, 9.373241E-06, 0.0005187925, -0.9999979, -0.001307997, 0.3511209
 215431293, 0.000146077, 0.01150456, 6.055315E-05, 0.00104407, 6.78264E-05, 0.003892475, 0.0003567973, 0.0005187925, -0.9999979, -0.001310147, 0.3503954
 215631213, 9.058704E-05, 0.01117572, 0.0002717659, 0.00104407, -0.0001520635, 0.003717768, -0.0002382541, 0.0005187925, -0.9999979, -0.001311777, 0.3503954
 215831133, 0.0002320137, 0.01069189, -0.0001942632, 0.00104407, 0.0003307601, 0.004202498, -1.084251E-05, 0.0005187925, -0.9999979, -0.001313105, 0.3503954
 216031053, 0.0005040995, 0.01131, -8.462144E-05, 0.00104407, 0.000161988, 0.004340257, -9.61801E-05, 0.0005187925, -0.9999979, -0.001313379, 0.3503954
 216230973, 0.0003391771, 0.01159697, -0.0002292085, 0.00104407, 0.0002443725, 0.003626478, 2.231539E-05, 0.0005187925, -0.9999979, -0.001313599, 0.3503954
 216430893, 0.0007154366, 0.01083426, -0.0003000775, 0.00104407, 0.0003049293, 0.004294673, -0.0002472519, 0.0005187925, -0.9999979, -0.001312963, 0.3503954
 216630813, 9.834181E-05, 0.01144759, -0.0002887833, 0.00104407, 0.0002385655, 0.004286624, 0.0004958624, 0.0005187925, -0.9999979, -0.001312383, 0.3503954
 216830733, -4.852836E-05, 0.01149391, 4.56745E-05, 0.00104407, -0.0003325302, 0.003685053, -0.000307176, 0.0005187925, -0.9999979, -0.001310057, 0.3503954
 217031486, -0.0001947155, 0.01078938, -0.0009227081, 0.001046232, -0.0001124516, 0.003815484, -0.0002803956, 0.0005187925, -0.9999979, -0.001306277, 0.3511209
 217231406, 0.0001219604, 0.01101896, -0.0001286241, 0.001046232, -6.574089E-05, 0.004166139, 0.0001133255, 0.0005209541, -0.9999979, -0.001304731, 0.3511209
 217431326, -1.216845E-05, 0.01130467, 1.622184E-05, 0.001046232, 0.0003247571, 0.004173915, -0.000100004, 0.0005187925, -0.9999979, -0.001301434, 0.3511209
 217631246, -0.0001259572, 0.01124581, -0.0003070533, 0.00104407, -0.0003466948, 0.004237298, -0.0003440445, 0.0005187925, -0.9999979, -0.001296027, 0.3503954
 217831166, -0.0006866965, 0.01179622, -0.0003790027, 0.00104407, -0.0001950124, 0.004252356, 1.849746E-05, 0.0005187925, -0.9999979, -0.001293669, 0.3503954
 218031086, -0.0001128673, 0.01155115, -0.0003090313, 0.00104407, -0.0001169429, 0.004105384, -0.000157478, 0.0005187925, -0.9999979, -0.001290754, 0.3503954
 218231006, -0.000168825, 0.01123351, -0.0003703352, 0.00104407, -0.000147555, 0.003996579, -0.0001037337, 0.0005187925, -0.9999979, -0.001287271, 0.3503954
 218430926, 0.0001005922, 0.01142173, -0.0001565247, 0.00104407, -5.360039E-05, 0.004404897, -0.0001304796, 0.0005187925, -0.9999979, -0.001284023, 0.3503954
 218630846, -9.126945E-05, 0.0116208, -0.0005175847, 0.00104407, 0.0001034078, 0.004278593, 0.0004023742, 0.0005187925, -0.9999978, -0.001280204, 0.3503954
 218830766, 0.0001712889, 0.01174915, 6.978817E-05, 0.00104407, -0.0002440466, 0.004369236, -0.0003911504, 0.0005187925, -0.9999978, -0.001276379, 0.3503954
 219030686, -0.0004045773, 0.0118104, -0.0003717747, 0.00104407, -5.151767E-05, 0.004251472, -0.0002347281, 0.0005187925, -0.9999978, -0.001273209, 0.3503954
 219231439, 0.0002386392, 0.011987, -0.0005498696, 0.001046232, 0.0001600328, 0.004230014, -0.0002920519, 0.0005209541, -0.9999978, -0.001269673, 0.3511209
 219431359, 0.0004278971, 0.01146257, -0.0002877085, 0.001046232, 0.0004932722, 0.004495332, -9.982049E-05, 0.0005187925, -0.9999978, -0.00127954, 0.3511209
 219631279, 0.0005678841, 0.01160678, -0.0004456977, 0.00104407, 3.721538E-05, 0.00407243, -0.0001989677, 0.0005187925, -0.9999978, -0.001287651, 0.3503954
 219831199, 0.0001231719, 0.01147862, -0.0004155332, 0.00104407, 0.0001240034, 0.004237046, 5.341776E-05, 0.0005187925, -0.9999978, -0.001295848, 0.3503954
 220031119, 0.0001585218, 0.01161551, -0.0001776962, 0.00104407, -1.021105E-05, 0.004500025, 9.473827E-05, 0.0005187925, -0.9999978, -0.001303726, 0.3503954
 220231039, 7.397697E-05, 0.01153048, -0.0002226105, 0.00104407, -0.0001169413, 0.003857167, 5.13515E-05, 0.0005187925, -0.9999978, -0.001311888, 0.3503954
 220430959, -0.0002459893, 0.01115682, 0.0001232763, 0.00104407, -0.0001158205, 0.004249595, 3.914342E-05, 0.0005187925, -0.9999978, -0.00131933, 0.3503954
 220630879, -0.0003307918, 0.01176612, -5.671731E-05, 0.00104407, -0.0002723486, 0.004212311, -8.445698E-05, 0.0005187925, -0.9999978, -0.001324652, 0.3503954
 220830799, -0.000390051, 0.01170024, 0.0001311087, 0.00104407, -0.0004769441, 0.004970909, 0.0001545265, 0.0005187925, -0.9999978, -0.001329562, 0.3503954
 221030719, -0.0004098793, 0.01240418, -0.0001274301, 0.00104407, 0.0004460152, 0.004026669, 0.0002114177, 0.0005187925, -0.9999978, -0.001333399, 0.3503954
 221231472, 0.0006541546, 0.01115627, -9.117489E-05, 0.001046232, 0.0002813167, 0.003801216, -6.836103E-05, 0.0005209541, -0.9999978, -0.001334458, 0.3511209
 221431392, 0.0001814671, 0.011288, -0.0003673673, 0.001046232, 0.0001657515, 0.004456223, 0.0004580274, 0.0005187925, -0.9999978, -0.001338174, 0.3511209
 221631312, 0.0005342735, 0.01166275, 0.0004743157, 0.00104407, 0.0004467749, 0.004115872, -0.0001673529, 0.0005187925, -0.9999978, -0.001341112, 0.3503954
 221831232, 0.0002662734, 0.01137968, -0.0006002255, 0.00104407, -0.0004908635, 0.004324243, -0.0001571349, 0.0005187925, -0.9999978, -0.001341328, 0.3503954
 222031152, -0.0003657183, 0.01183704, -0.0002997105, 0.00104407, -0.0001188892, 0.004105933, 0.0001818656, 0.0005187925, -0.9999978, -0.001341526, 0.3503954
 222231072, -0.0001016542, 0.01153209, -3.510021E-05, 0.00104407, 0.0002317159, 0.004177579, 0.000239, 0.0005187925, -0.9999978, -0.001341384, 0.3503954
 222430992, 0.0001964142, 0.01161292, -0.0001782872, 0.00104407, 0.0001064634, 0.004287464, -0.0004012612, 0.0005187925, -0.9999978, -0.001341628, 0.3503954
 222630912, -0.0002519734, 0.01133351, -0.0007132202, 0.00104407, -0.0002163604, 0.004144288, -0.0007028783, 0.0005187925, -0.9999978, -0.001343242, 0.3503954
 222830832, 6.454926E-05, 0.01154933, -0.000717634, 0.00104407, -0.0002391943, 0.004871845, -0.0001444537, 0.0005187925, -0.9999978, -0.001343805, 0.3503954
 223030752, -0.0002768038, 0.01195821, -0.0005142062, 0.00104407, -0.0002869972, 0.003945726, -0.0002507077, 0.0005187925, -0.9999978, -0.001342979, 0.3503954
 223230672, -0.000636209, 0.01106483, -0.0003288742, 0.00104407, -1.83279E-05, 0.004244811, -0.0001743977, 0.0005187925, -0.9999978, -0.001341401, 0.3503954
 223431425, 8.874427E-06, 0.01149332, -0.0003734163, 0.001046232, -5.95546E-07, 0.004093986, -0.0005217018, 0.0005209541, -0.9999978, -0.001339354, 0.3511209
 223631345, -5.881492E-05, 0.01148437, -0.0008490851, 0.001046232, -0.0003526602, 0.004371045, -0.0001849495, 0.0005187925, -0.9999978, -0.001336851, 0.3511209
 223831265, -0.0005843864, 0.01168492, -0.00028357, 0.00104407, -0.0001728786, 0.004401991, 6.500146E-05, 0.0005187925, -0.9999978, -0.001333122, 0.3503954
 224031185, -0.0005551358, 0.01198946, 5.538274E-05, 0.00104407, -0.00055633, 0.004588969, -0.0001836567, 0.0005187925, -0.9999978, -0.001330275, 0.3503954
 224231105, -0.0005495772, 0.01201253, -0.0004289545, 0.00104407, -9.700546E-05, 0.004081896, -0.0003400622, 0.0005187925, -0.9999978, -0.001327267, 0.3503954
 224431025, 4.699311E-05, 0.01131719, -0.0005382349, 0.00104407, -0.000308898, 0.004491252, 0.0001012766, 0.0005187925, -0.9999978, -0.001323938, 0.3503954
 224630945, -0.0005120482, 0.01173924, -0.0002000521, 0.00104407, -0.0002834844, 0.004284059, -8.690338E-05, 0.0005187925, -0.9999977, -0.001336416, 0.3503954
 224830865, -2.292008E-05, 0.01171923, -7.14565E-05, 0.00104407, -1.189143E-05, 0.003887322, -0.0001048586, 0.0005187925, -0.9999977, -0.001347814, 0.3503954
 225030785, -0.0001353597, 0.01123924, -2.178629E-05, 0.00104407, -0.000481401, 0.004212098, 0.0001676294, 0.0005187925, -0.9999977, -0.001360224, 0.3503954
 225230705, -0.0001134634, 0.01138757, 0.000111173, 0.00104407, 0.0002762613, 0.004647694, -8.187119E-05, 0.0005187925, -0.9999977, -0.001369747, 0.3503954
 225431458, 0.0002128863, 0.01197477, -0.000410717, 0.001046232, 0.0001511401, 0.004384309, 4.594473E-06, 0.0005209541, -0.9999977, -0.001378862, 0.3511209
 225631378, -0.0001705005, 0.01171177, -0.0004174008, 0.001046232, -0.0001368335, 0.003929147, -0.0003507868, 0.0005187925, -0.9999977, -0.001386656, 0.3511209
 225831298, 0.0001388623, 0.01176312, -0.000432845, 0.00104407, 0.0001224994, 0.004355403, -0.0001216462, 0.0005187925, -0.9999977, -0.001392376, 0.3503954
 226031218, 0.0002292693, 0.01162869, -0.000166302, 0.00104407, -0.0002029214, 0.004173117, 6.595475E-05, 0.0005187925, -0.9999977, -0.001396942, 0.3503954
 226231138, -8.548927E-05, 0.01136513, -0.00017193, 0.00104407, -0.0001354601, 0.004224364, 9.821299E-06, 0.0005187925, -0.9999977, -0.001402247, 0.3503954
 226431058, -0.0002218731, 0.01157079, -0.0005087879, 0.00104407, 3.665389E-05, 0.004192624, -0.0003465541, 0.0005187925, -0.9999977, -0.00140743, 0.3503954
 226630978, -2.135139E-05, 0.01176705, -0.0004507918, 0.00104407, 0.0001236325, 0.004447435, -0.0002791563, 0.0005187925, -0.9999977, -0.001411174, 0.3503954
 226830898, -0.0001229796, 0.01177745, -0.0006843474, 0.00104407, -0.0002244839, 0.004072134, -0.0002006193, 0.0005187925, -0.9999977, -0.001414768, 0.3503954
 227030818, -0.0002744563, 0.01145882, -0.0003482975, 0.00104407, 0.0002627984, 0.004099607, -0.0002335973, 0.0005187925, -0.9999977, -0.001417887, 0.3503954
 227230738, 0.0003728406, 0.0117359, -0.0004244097, 0.00104407, 0.0002506678, 0.004070154, -0.0003990532, 0.0005187925, -0.9999977, -0.00141954, 0.3503954
 227430658, 0.0003158654, 0.01152222, -0.0006036761, 0.00104407, -0.0003769535, 0.004428169, -7.690452E-05, 0.0005187925, -0.9999977, -0.001423127, 0.3503954
 227631411, -0.000475126, 0.01205099, 8.347748E-05, 0.001046232, -1.899196E-05, 0.004353493, 0.0001092402, 0.0005209541, -0.9999977, -0.00142442, 0.3511209
 227831331, 0.0001758149, 0.01214705, -0.0004241891, 0.001046232, 0.0001864867, 0.004393578, -0.0003519319, 0.0005187925, -0.9999977, -0.001424753, 0.3511209
 228031251, 0.0003593375, 0.01149188, -0.0006409359, 0.00104407, -0.0001630031, 0.004448122, -2.977014E-05, 0.0005187925, -0.9999977, -0.001423832, 0.3503954
 228231171, -0.0001475924, 0.01199781, -0.0001050672, 0.00104407, 0.0003414331, 0.004503391, -0.0005746246, 0.0005187925, -0.9999977, -0.00142296, 0.3503954
 228431091, 0.0006507228, 0.011811, -0.0006165077, 0.00104407, 0.0005437288, 0.004382825, -0.0003162966, 0.0005187925, -0.9999977, -0.001421258, 0.3503954
 228631011, 0.0007937596, 0.01173889, -0.0002776621, 0.00104407, 0.0001191055, 0.003966324, -2.845341E-05, 0.0005187925, -0.9999977, -0.001420702, 0.3503954
 228830931, 0.0003422133, 0.01154273, -4.561982E-05, 0.00104407, 0.000185157, 0.004742077, 0.0002554896, 0.0005187925, -0.9999976, -0.001418866, 0.3503954
 229030851, 0.0001524251, 0.012212, 0.0002393921, 0.00104407, -0.0002216531, 0.004365489, -0.0003479877, 0.0005187925, -0.9999976, -0.001416828, 0.3503954
 229230771, -0.0004816021, 0.01171459, -0.0006300324, 0.00104407, -7.459191E-05, 0.004014279, -0.0001990618, 0.0005187925, -0.9999976, -0.001414639, 0.3503954
 229430691, 0.0002496293, 0.01155519, -0.0004079842, 0.00104407, -0.0001344561, 0.004344077, 0.0003427004, 0.0005187925, -0.9999976, -0.001412929, 0.3503954
 229631444, 9.57606E-05, 0.01161363, 0.0003793838, 0.001046232, -3.974286E-05, 0.004371051, 8.101203E-05, 0.0005209541, -0.9999976, -0.001413095, 0.3511209
 229831364, 0.0001033011, 0.01208103, -1.714496E-05, 0.001046232, 0.0001560479, 0.004813894, -0.000121944, 0.0005187925, -0.9999976, -0.001425641, 0.3511209
 230031284, -0.0001414548, 0.01216942, -0.0007247647, 0.00104407, -3.336089E-05, 0.004231414, -0.0003458797, 0.0005187925, -0.9999976, -0.001436096, 0.3503954
 230231204, -8.943245E-05, 0.01150162, -0.0005675776, 0.00104407, -0.0001583278, 0.004498017, 6.967617E-05, 0.0005187925, -0.9999976, -0.001447175, 0.3503954
 230431124, -0.0001983923, 0.01188178, 9.568915E-05, 0.00104407, -0.000183218, 0.00397153, 0.0002690597, 0.0005187925, -0.9999976, -0.001455971, 0.3503954
 230631044, 3.015615E-06, 0.01141844, 0.0001980609, 0.00104407, 0.000109287, 0.004724361, -0.0001023086, 0.0005187925, -0.9999976, -0.001464005, 0.3503954
 230830964, 0.0001696957, 0.01232794, -0.0001843883, 0.00104407, -0.0003001387, 0.004615591, -0.0001973614, 0.0005187925, -0.9999976, -0.00147051, 0.3503954
 231030884, -0.0004128886, 0.01187453, -0.0003823311, 0.00104407, 9.744521E-05, 0.004311995, 0.0001117223, 0.0005187925, -0.9999976, -0.001476398, 0.3503954
 231230804, -0.0001254619, 0.01186891, -0.0002778372, 0.00104407, -0.0004273096, 0.004314669, -0.0001267868, 0.0005187925, -0.9999976, -0.001481498, 0.3503954
 231430724, -0.0007084122, 0.01159174, -0.0004218928, 0.00104407, 3.638822E-05, 0.0042206, -5.810317E-06, 0.0005187925, -0.9999976, -0.001483998, 0.3503954
 231631477, -1.912403E-05, 0.01159037, -0.000508563, 0.001046232, -8.162968E-05, 0.003978561, -0.0001653367, 0.0005209541, -0.9999976, -0.001487122, 0.3511209
 231831397, -0.0002500767, 0.01123875, -0.0001354068, 0.001046232, -0.0001661558, 0.004403699, 0.0001410587, 0.0005187925, -0.9999976, -0.001491181, 0.3511209
 232031317, -0.0003458924, 0.01157408, 9.795442E-05, 0.00104407, -0.0001274027, 0.004074856, 5.399926E-05, 0.0005187925, -0.9999976, -0.001492861, 0.3503954
 232231237, -0.0003435373, 0.01127237, -1.780514E-05, 0.00104407, -0.0002351963, 0.004028486, -0.000204716, 0.0005187925, -0.9999976, -0.001491833, 0.3503954
 232431157, -2.417251E-06, 0.01125485, -0.000320671, 0.00104407, 0.000108262, 0.004036309, -0.0002242884, 0.0005187925, -0.9999976, -0.001491404, 0.3503954
 232631077, 3.13129E-05, 0.01111115, -0.0004161755, 0.00104407, -0.0001741506, 0.004322917, 0.0001757145, 0.0005187925, -0.9999976, -0.001491333, 0.3503954
 232830997, -6.572257E-05, 0.01189062, 0.000308718, 0.00104407, -3.042086E-05, 0.004365794, -0.0001015853, 0.0005187925, -0.9999976, -0.001491123, 0.3503954
 233030917, 0.0001242819, 0.01215777, -0.0003194401, 0.00104407, -0.0001105894, 0.004575278, 2.957591E-05, 0.0005187925, -0.9999976, -0.001490014, 0.3503954
 233230837, -0.0003887944, 0.01172752, -0.0003206889, 0.00104407, -0.0005604062, 0.004196092, 0.0003686252, 0.0005187925, -0.9999976, -0.001488005, 0.3503954
 233430757, -0.0008385695, 0.01140638, 0.0004341928, 0.00104407, -0.000302566, 0.00407265, 0.0001821218, 0.0005187925, -0.9999976, -0.001485976, 0.3503954
 233630677, -0.0005513434, 0.01145836, 7.073671E-05, 0.00104407, -0.0001281959, 0.004211544, 0.00024867, 0.0005187925, -0.9999976, -0.001482677, 0.3503954
 233831430, -0.0003255411, 0.01152625, -0.0001175939, 0.001046232, -0.0001059108, 0.004150597, -3.235078E-05, 0.0005209541, -0.9999976, -0.001482356, 0.3511209
 234031350, 0.00012662, 0.01164658, -0.000174476, 0.001046232, -0.0003492791, 0.003993295, -0.0001704893, 0.0005187925, -0.9999976, -0.001478845, 0.3511209
 234231270, -0.0001163778, 0.01139564, -0.0004445264, 0.00104407, 0.0004309452, 0.004074974, -0.0004475817, 0.0005187925, -0.9999976, -0.001474599, 0.3503954
 234431190, 0.0006306956, 0.01134115, -0.0003276312, 0.00104407, -0.0001609257, 0.004001936, -0.0003314122, 0.0005187925, -0.9999976, -0.001471024, 0.3503954
 234631110, -0.0001694568, 0.01165716, -0.0006430663, 0.00104407, 8.724847E-05, 0.004388006, 0.000101478, 0.0005187925, -0.9999976, -0.001468301, 0.3503954
 234831030, 4.828911E-05, 0.01213936, -0.0001052543, 0.00104407, 0.0001555015, 0.004381471, -0.0002423998, 0.0005187925, -0.9999976, -0.001464291, 0.3503954
 235030950, 7.265436E-05, 0.01160497, -0.0005326071, 0.00104407, -9.722282E-05, 0.004070958, -0.0005278299, 0.0005187925, -0.9999976, -0.001474975, 0.3503954
 235230870, -9.396999E-05, 0.0113182, -0.0008856268, 0.00104407, 0.0001110951, 0.004153655, -6.949385E-05, 0.0005187925, -0.9999976, -0.001485215, 0.3503954
 235430790, 0.0002072014, 0.01146961, -0.0001566415, 0.00104407, 0.0002933376, 0.004601054, -0.0001170072, 0.0005187925, -0.9999976, -0.001493614, 0.3503954
 235630710, 0.0003566615, 0.01197303, -0.0003264527, 0.00104407, 0.0001546818, 0.004478184, 0.0002105788, 0.0005187925, -0.9999976, -0.001502539, 0.3503954
 235831463, -7.28609E-05, 0.01167687, 0.0002506477, 0.001046232, -0.0002157324, 0.003765692, -2.400392E-05, 0.0005209541, -0.9999976, -0.001511247, 0.3511209
 236031383, -0.000749318, 0.01112861, -0.000193323, 0.001046232, -0.0007406896, 0.004498948, -5.935678E-05, 0.0005187925, -0.9999974, -0.001517607, 0.3511209
 236231303, -0.0008024601, 0.01168466, -9.820582E-05, 0.00104407, -6.949782E-05, 0.004217719, 0.0001163303, 0.0005187925, -0.9999974, -0.001522992, 0.3503954
 236431223, 0.0002591424, 0.01139259, -0.0001783075, 0.00104407, 0.0003469078, 0.004518557, -0.0005031456, 0.0005187925, -0.9999974, -0.00152623, 0.3503954
 236631143, 0.0003494459, 0.01139474, -0.0007801857, 0.00104407, -0.0001897703, 0.004155463, -0.0004182274, 0.0005187925, -0.9999974, -0.00153093, 0.3503954
 236831063, -0.000285578, 0.01132576, -0.0003014371, 0.00104407, -0.0005244695, 0.004157352, 0.0002066215, 0.0005187925, -0.9999974, -0.001534293, 0.3503954
 237030983, -0.0003067153, 0.0116227, 0.0001773875, 0.00104407, 0.0002391429, 0.004503625, -0.0002670674, 0.0005187925, -0.9999974, -0.001537756, 0.3503954
 237230903, 6.113537E-05, 0.01216561, -0.0004104795, 0.00104407, 0.0005181943, 0.004151528, -0.0002988513, 0.0005187925, -0.9999974, -0.001540082, 0.3503954
 237430823, 2.760683E-05, 0.01159963, -0.0005189166, 0.00104407, -0.0002242131, 0.004438506, -0.0001650436, 0.0005187925, -0.9999974, -0.001542217, 0.3503954
 237630743, -0.0002312668, 0.01159143, -6.225359E-05, 0.00104407, -0.0001743182, 0.003665123, -0.0001529165, 0.0005187925, -0.9999974, -0.001543229, 0.3503954
 237830663, -0.0002213936, 0.01085995, -9.467392E-05, 0.00104407, 0.0003275615, 0.004358753, -0.0001192116, 0.0005187925, -0.9999974, -0.001544295, 0.3503954
 238031416, 0.0004730833, 0.01205938, -0.0004412194, 0.001046232, 4.172964E-05, 0.004449606, -0.0002254613, 0.0005209541, -0.9999974, -0.001546444, 0.3511209
 238231336, -8.943235E-05, 0.01175486, -0.0003964677, 0.001046232, -4.970806E-05, 0.004115826, -0.0001962329, 0.0005187925, -0.9999974, -0.001547259, 0.3511209
 238431256, 8.252326E-05, 0.01152859, -0.0002815371, 0.00104407, 0.0001537193, 0.004339902, -0.0001731787, 0.0005187925, -0.9999974, -0.001544931, 0.3503954
 238631176, 0.0001205326, 0.01179487, -6.665069E-05, 0.00104407, -1.18195E-05, 0.004238728, -0.0001074718, 0.0005187925, -0.9999974, -0.001544237, 0.3503954
 238831096, -0.0002504971, 0.0113881, -0.0002462117, 0.00104407, -0.0002007419, 0.004280635, -0.0001333502, 0.0005187925, -0.9999974, -0.001541967, 0.3503954
 239031016, -0.0001726105, 0.01131632, -0.0001692798, 0.00104407, -0.0004806002, 0.003838348, -0.000190462, 0.0005187925, -0.9999974, -0.001539948, 0.3503954
 239230936, -0.0004815624, 0.01115626, -0.000502135, 0.00104407, -0.0004931508, 0.004249331, -0.0003612122, 0.0005187925, -0.9999974, -0.001537677, 0.3503954
 239430856, -0.0003221792, 0.01157318, -0.0005006039, 0.00104407, 5.525215E-05, 0.004134141, 0.0002823904, 0.0005187925, -0.9999974, -0.001535115, 0.3503954
 239630776, -5.65045E-05, 0.01165671, 0.0001220632, 0.00104407, -4.427518E-05, 0.004282934, -9.815345E-06, 0.0005187925, -0.9999974, -0.001532516, 0.3503954
 239830696, 0.0002104045, 0.01180559, -1.472961E-05, 0.00104407, 0.0002971628, 0.004187563, 0.0001270692, 0.0005187925, -0.9999974, -0.001530154, 0.3503954
 240031449, 0.000410218, 0.01162436, 0.000399017, 0.001046232, -1.698223E-05, 0.004197379, -1.41882E-06, 0.0005209541, -0.9999974, -0.001530259, 0.3511209
 240231369, -0.0004449924, 0.01175811, -0.0001194019, 0.001046232, -0.0002397246, 0.004482393, -0.0001210408, 0.0005187925, -0.9999974, -0.001539739, 0.3511209
 240431289, -0.0001996869, 0.01187394, 0.000108362, 0.00104407, -6.37572E-05, 0.003978741, -1.80792E-05, 0.0005187925, -0.9999974, -0.001547011, 0.3503954
 240631209, -0.0005235296, 0.01138599, -0.0002523235, 0.00104407, -0.0001425813, 0.004381451, -0.0003787325, 0.0005187925, -0.9999974, -0.001554267, 0.3503954
 240831129, -0.0003172924, 0.01184812, -0.0007154844, 0.00104407, -0.0004112813, 0.004247257, -0.0003282497, 0.0005187925, -0.9999974, -0.001561789, 0.3503954
 241031049, -0.0002263369, 0.01115818, -0.000446196, 0.00104407, -9.203772E-05, 0.003695844, -9.496824E-05, 0.0005187925, -0.9999974, -0.001567652, 0.3503954
 241230969, -0.0005441306, 0.01115401, -0.0001240341, 0.00104407, -0.0002828914, 0.004351982, 0.0001149028, 0.0005187925, -0.9999974, -0.001572746, 0.3503954
 241430889, -0.0003502822, 0.0117118, 0.0001050553, 0.00104407, -0.0001550778, 0.004260229, -0.000359694, 0.0005187925, -0.9999974, -0.001577594, 0.3503954
 241630809, -0.0002442485, 0.01156352, -0.0005125129, 0.00104407, -0.0002509189, 0.00424024, 3.410644E-05, 0.0005187925, -0.9999973, -0.00158174, 0.3503954
 241830729, -9.260462E-05, 0.01144949, -0.0002988132, 0.00104407, 0.0003346243, 0.003646517, -0.0001582394, 0.0005187925, -0.9999974, -0.001584686, 0.3503954
 242031482, 0.0003475993, 0.01133117, -0.0001023844, 0.001046232, -1.652718E-05, 0.004282034, -3.366792E-05, 0.0005209541, -0.9999973, -0.001589129, 0.3511209
 242231402, -3.073379E-05, 0.01153006, -5.843804E-05, 0.001046232, -0.0001885923, 0.004749396, 7.658158E-05, 0.0005187925, -0.9999973, -0.001592679, 0.3511209
 242431322, -0.00029142, 0.01206179, -0.0003461776, 0.00104407, 8.02391E-06, 0.004461981, -0.0002481731, 0.0005187925, -0.9999973, -0.001594796, 0.3503954
 242631242, 8.841237E-06, 0.01185773, -0.0005050605, 0.00104407, 0.0001924206, 0.003769776, 2.71045E-05, 0.0005187925, -0.9999973, -0.001593177, 0.3503954
 242831162, 1.723495E-05, 0.01093964, -0.0003379936, 0.00104407, -0.0002412099, 0.004186401, 4.212721E-05, 0.0005187925, -0.9999973, -0.001593693, 0.3503954
 243031082, -0.0002896556, 0.01176809, -0.0001491176, 0.00104407, 0.000325037, 0.004108878, 0.0004309658, 0.0005187925, -0.9999973, -0.001593244, 0.3503954
 243231002, 5.886811E-05, 0.01146942, 0.0004474029, 0.00104407, -0.0002297615, 0.004370124, -7.485255E-05, 0.0005187925, -0.9999973, -0.001593751, 0.3503954
 243430922, -0.0001176695, 0.01162615, -0.0002615097, 0.00104407, 0.0004883499, 0.004030348, -3.908621E-05, 0.0005187925, -0.9999973, -0.001593043, 0.3503954
 243630842, 0.000610343, 0.01171338, -2.52575E-05, 0.00104407, -0.0001367236, 0.004442306, -0.0001241986, 0.0005187925, -0.9999973, -0.001591872, 0.3503954
 243830762, -0.0003086054, 0.01209325, -0.0003064145, 0.00104407, -0.0003449069, 0.004485787, 8.097269E-05, 0.0005187925, -0.9999973, -0.001590122, 0.3503954
 244030682, -0.0005269366, 0.01167659, 0.0001144667, 0.00104407, 8.062054E-05, 0.004525864, -0.0001795015, 0.0005187925, -0.9999973, -0.001587299, 0.3503954
 244231435, -0.0004614256, 0.01205715, -0.0004191911, 0.001046232, -0.0001419696, 0.004509207, 0.0001387013, 0.0005209541, -0.9999973, -0.001587942, 0.3511209
 244431355, -6.927452E-05, 0.01197387, -0.0001525713, 0.001046232, 0.0001883051, 0.004459119, -0.0001748601, 0.0005187925, -0.9999973, -0.00158478, 0.3511209
 244631275, 9.144316E-05, 0.01197861, -0.0004932957, 0.00104407, 0.0002916389, 0.004351259, 7.432465E-05, 0.0005187925, -0.9999973, -0.00157847, 0.3503954
 244831195, 0.0002144233, 0.0116759, -0.0002233255, 0.00104407, -0.0002583201, 0.004244787, 8.499795E-06, 0.0005187925, -0.9999973, -0.001574001, 0.3503954
 245031115, -0.0003590329, 0.01174401, -0.0002005835, 0.00104407, 0.0002550459, 0.004473665, -8.80509E-05, 0.0005187925, -0.9999973, -0.001567394, 0.3503954
 245231035, 0.0005352493, 0.01206675, -0.0001368464, 0.00104407, -0.0003295773, 0.004429195, -3.190075E-05, 0.0005187925, -0.9999973, -0.001562544, 0.3503954
 245430955, -0.0004429466, 0.01183543, -0.0001508753, 0.00104407, -0.0003014419, 0.004431854, -0.000559465, 0.0005187925, -0.9999973, -0.001572022, 0.3503954
 245630875, -0.0007317604, 0.01187158, -0.0006287203, 0.00104407, -0.0002489896, 0.004148872, 0.0002466479, 0.0005187925, -0.9999974, -0.001579734, 0.3503954
 245830795, -0.0003655717, 0.01097071, 0.0001342999, 0.00104407, 0.0001940806, 0.00399623, -0.0004907504, 0.0005187925, -0.9999974, -0.00158671, 0.3503954
 246030715, 0.0006572965, 0.01115254, -0.0006327315, 0.00104407, 0.0004618776, 0.003921903, -0.0003668152, 0.0005187925, -0.9999974, -0.001591508, 0.3503954
 246231468, 0.000562561, 0.01115457, -0.0005512563, 0.001046232, -0.0004975824, 0.004042269, -0.0002396054, 0.0005209541, -0.9999974, -0.001597185, 0.3511209
 246431388, -0.0005668849, 0.01163534, -0.0009904795, 0.001046232, -1.810689E-05, 0.004038342, -0.000115439, 0.0005187925, -0.9999973, -0.001602447, 0.3511209
 246631308, 0.0001146443, 0.01154572, -0.0002810772, 0.00104407, 7.169973E-05, 0.004675066, -0.0001708765, 0.0005187925, -0.9999974, -0.001605879, 0.3503954
 246831228, 8.676193E-05, 0.01153938, -0.000313911, 0.00104407, -0.0001869926, 0.003820455, -0.0006597621, 0.0005187925, -0.9999974, -0.001606586, 0.3503954
 247031148, -0.0002513575, 0.0113355, -0.0006070973, 0.00104407, -4.780903E-05, 0.004392992, 0.0004406179, 0.0005187925, -0.9999974, -0.001608144, 0.3503954
 247231068, -0.0002821095, 0.01186482, 0.0004951844, 0.00104407, 6.373831E-06, 0.004293406, 3.291244E-05, 0.0005187925, -0.9999974, -0.001609326, 0.3503954
 247430988, -5.739534E-05, 0.01173159, 1.866549E-05, 0.00104407, -4.165607E-05, 0.00424713, 0.0002659199, 0.0005187925, -0.9999974, -0.001608473, 0.3503954
 247630908, -6.419591E-05, 0.01171053, -0.05833111, 0.00104407, 0.0002029252, 0.004518423, -0.1152314, 0.0005187925, -0.9999974, -0.001608452, 0.3503954
 247830828, 0.0008441607, 0.01229805, -0.3794463, 0.00104407, 0.0002833458, 0.004517598, -0.04234485, 0.0005187925, -0.9999974, -0.001607052, 0.3503954
 248030748, 1.388769E-06, 0.0116827, 0.04910574, 0.00104407, -0.0003901287, 0.00401986, 0.06716397, 0.0005187925, -0.9999974, -0.001604839, 0.3503954
 248230668, -0.0008320566, 0.01096543, -0.2790874, 0.00104407, -0.0002938848, 0.004061775, -0.6507447, 0.0005187925, -0.9999987, -0.001629591, 0.3503954
 248431421, -0.007694762, 0.003330261, -1.917264, 0.001046232, -0.00695626, -0.002983395, -0.5346498, 0.0005209541, -0.9999865, -0.001769309, 0.3511209
 248631341, -0.0228598, -0.01303007, -0.8493776, 0.001046232, -0.009958658, -0.006760424, -0.06654872, 0.0005187925, -0.9999722, -0.001925745, 0.3511209
 248831261, -0.02696354, -0.01744173, -0.2091919, 0.00104407, -0.009723694, -0.005736001, -0.1117926, 0.0005187925, -0.9999696, -0.002072756, 0.3503954
 249031181, -0.02482393, -0.01405212, -0.3595302, 0.00104407, -0.00825265, -0.004288122, -0.1457098, 0.0005187925, -0.9999713, -0.002217809, 0.3503954
 249231101, -0.02148407, -0.009641955, -0.3667549, 0.00104407, -0.007057942, -0.002631358, -0.115127, 0.0005187925, -0.9999737, -0.002357441, 0.3503954
 249431021, -0.01835193, -0.005399299, -0.2923332, 0.00104407, -0.006171579, -0.001178526, -0.09656716, 0.0005187925, -0.9999757, -0.002495236, 0.3503954
 249630941, -0.01566457, -0.00166965, -0.2536083, 0.00104407, -0.005159501, -9.449783E-05, -0.08693914, 0.0005187925, -0.9999777, -0.002627448, 0.3503954
 249830861, -0.01290653, 0.0009385949, -0.2267818, 0.00104407, -0.003847234, 0.000808482, -0.07673921, 0.0005187925, -0.9999793, -0.002764769, 0.3503954
 250030781, -0.00988544, 0.003401675, -0.1990185, 0.00104407, -0.003162691, 0.001779302, -0.06654848, 0.0005187925, -0.9999807, -0.002898792, 0.3503954
 250230701, -0.007612945, 0.005807454, -0.1736751, 0.00104407, -0.002478494, 0.002554375, -0.05850991, 0.0005187925, -0.9999819, -0.00302488, 0.3503954
 250431454, -0.005639014, 0.007460017, -0.1529447, 0.001046232, -0.001472258, 0.002891751, -0.0515559, 0.0005209541, -0.9999825, -0.003139128, 0.3511209
 250631374, -0.003652561, 0.008434515, -0.134061, 0.001046232, -0.001425479, 0.002966841, -0.04543735, 0.0005187925, -0.9999815, -0.003262407, 0.3511209
 250831294, -0.004175613, 0.008448988, -0.1175523, 0.00104407, -0.001833113, 0.00316096, -0.03908028, 0.0005187925, -0.9999804, -0.003421976, 0.3503954
 251031214, -0.004920184, 0.008585454, -0.1019206, 0.00104407, -0.001679697, 0.003115333, -0.03439626, 0.0005187925, -0.9999784, -0.003819005, 0.3503954
 251231134, -0.004759724, 0.008362967, -0.09024054, 0.00104407, -0.001776099, 0.002930614, -0.03087976, 0.0005187925, -0.9999756, -0.004361011, 0.3503954
 251431054, -0.004687779, 0.008370791, -0.08002017, 0.00104407, -0.00145084, 0.003136882, -0.02725823, 0.0005187925, -0.9999724, -0.004875404, 0.3503954
 251630974, -0.004178717, 0.008305882, -0.07052282, 0.00104407, -0.001698895, 0.003090151, -0.02391951, 0.0005187925, -0.9999691, -0.005360172, 0.3503954
 251830894, -0.003977241, 0.00854214, -0.06184159, 0.00104407, -0.001182909, 0.003003765, -0.02080922, 0.0005187925, -0.9999658, -0.005816972, 0.3503954
 252030814, -0.003628338, 0.008189498, -0.05396989, 0.00104407, -0.001458122, 0.002954977, -0.01809417, 0.0005187925, -0.9999624, -0.006252581, 0.3503954
 252230734, -0.00333014, 0.008095087, -0.04726385, 0.00104407, -0.001033706, 0.003099318, -0.01589285, 0.0005187925, -0.9999591, -0.006670589, 0.3503954
 252430654, -0.002682905, 0.008348739, -0.04153055, 0.00104407, -0.0006829805, 0.002979756, -0.01427678, 0.0005187925, -0.9999557, -0.00707348, 0.3503954
 252631407, -0.001503984, 0.008132485, -0.03705727, 0.001046232, -0.000139948, 0.002906663, -0.01264216, 0.0005209541, -0.9999522, -0.007456959, 0.3511209
 252831327, -0.0004573824, 0.007909445, -0.03270984, 0.001046232, -0.0004772317, 0.002891642, -0.010822, 0.0005187925, -0.9999487, -0.007817156, 0.3511209
 253031247, -0.0004744671, 0.008127163, -0.0279477, 0.00104407, 7.755884E-05, 0.002922699, -0.009425122, 0.0005187925, -0.9999454, -0.008158288, 0.3503954
 253231167, 0.0006217958, 0.008171883, -0.02464194, 0.00104407, 0.0005324759, 0.003156356, -0.008101129, 0.0005187925, -0.9999422, -0.008487193, 0.3503954
 253431087, 0.001327366, 0.008358468, -0.02092822, 0.00104407, 0.0008390477, 0.003167984, -0.007240814, 0.0005187925, -0.9999373, -0.008977525, 0.3503954
 253631007, 0.001779712, 0.008551982, -0.01895058, 0.00104407, 0.0007186935, 0.003163585, -0.006409281, 0.0005187925, -0.9999321, -0.009519069, 0.3503954
 253830927, 0.001983161, 0.009190668, -0.01685193, 0.00104407, 0.0004863557, 0.003941823, -0.005861409, 0.0005187925, -0.9999285, -0.01001487, 0.3503954
 254030847, 0.001912403, 0.01065841, -0.01503528, 0.00104407, 0.0007390618, 0.003599556, -0.005072972, 0.0005187925, -0.9999254, -0.01048209, 0.3503954
 254230767, 0.002178477, 0.01080296, -0.01300111, 0.00104407, 0.001024825, 0.004448019, -0.004410998, 0.0005187925, -0.999922, -0.01092858, 0.3503954
 254430687, 0.002243365, 0.01210938, -0.01139228, 0.00104407, 0.00054325, 0.004257242, -0.003512798, 0.0005187925, -0.9999185, -0.01135511, 0.3503954
 254631440, 0.001681586, 0.01250907, -0.009884041, 0.001046232, 0.0006267725, 0.005063319, -0.003525044, 0.0005209541, -0.9999149, -0.01176628, 0.3511209
 254831360, 0.001166505, 0.01373889, -0.009052499, 0.001046232, 0.0001404563, 0.005413747, -0.002922418, 0.0005187925, -0.9999114, -0.01215472, 0.3511209
 255031280, 0.0005952722, 0.01436829, 0.01333709, 0.00104407, 0.0003425548, 0.005314056, 0.04583018, 0.0005187925, -0.9999082, -0.01253858, 0.3503954
 255231200, 0.002598715, 0.01716675, 0.495621, 0.00104407, 0.001536662, 0.007703091, 0.3818497, 0.0005187925, -0.9999039, -0.01312073, 0.3503954
 255431120, 0.004440158, 0.02113009, 0.9910661, 0.00104407, 0.001382618, 0.007671619, 0.3330233, 0.0005187925, -0.9998975, -0.01370794, 0.3503954
 255631040, 0.003682639, 0.02063255, 0.8667497, 0.00104407, 0.001283713, 0.007580211, 0.2924651, 0.0005187925, -0.9998899, -0.01427467, 0.3503954
 255830960, 0.00301823, 0.02001156, 0.761282, 0.00104407, 0.0008241205, 0.007350953, 0.2568434, 0.0005187925, -0.9998819, -0.01482724, 0.3503954
 256030880, 0.002335661, 0.01922935, 0.6682508, 0.00104407, 0.0009174478, 0.006602054, 0.2254415, 0.0005187925, -0.9998736, -0.01535458, 0.3503954
 256230800, 0.001900045, 0.01749047, 0.5285379, 0.00104407, 0.0008272793, 0.006257728, 0.1510523, 0.0005187925, -0.9998686, -0.01578966, 0.3503954
 256430720, 0.008224323, 0.02014105, 0.3828068, 0.00104407, 0.006495533, 0.009359348, 0.1252199, 0.0005187925, -0.9998705, -0.01608383, 0.3503954
 256631473, 0.02318026, 0.02765664, 0.3295035, 0.001046232, 0.01095983, 0.0111752, 0.1145775, 0.0005209541, -0.9998652, -0.01632786, 0.3511209
 256831393, 0.02913048, 0.03031052, 0.3067017, 0.001046232, 0.009951167, 0.01055619, 0.1077009, 0.0005187925, -0.9998592, -0.01663547, 0.3511209
 257031313, 0.02417126, 0.03065493, 0.2796669, 0.00104407, 0.006947875, 0.0124688, 0.09329002, 0.0005187925, -0.9998413, -0.01712536, 0.3503954
 257231233, 0.0178492, 0.03798069, 0.2379499, 0.00104407, 0.006052757, 0.01628272, 0.07684334, 0.0005187925, -0.999801, -0.01765033, 0.3503954
 257431153, 0.01669405, 0.04627004, 0.193698, 0.00104407, 0.005957864, 0.01767817, 0.06189388, 0.0005187925, -0.9997635, -0.01815146, 0.3503954
 257631073, 0.01653198, 0.04809757, 0.1525709, 0.00104407, 0.006102993, 0.01726099, 0.04750321, 0.0005187925, -0.9997446, -0.01861584, 0.3503954
 257830993, 0.01476143, 0.0451608, 0.1167545, 0.00104407, 0.004323034, 0.01522193, 0.03569801, 0.0005187925, -0.9997417, -0.01904951, 0.3503954
 258030913, 0.01015671, 0.03944115, 0.08762624, 0.00104407, 0.003138188, 0.01312787, 0.02663019, 0.0005187925, -0.9997417, -0.01946272, 0.3503954
 258230833, 0.006846084, 0.03421256, 0.06507443, 0.00104407, 0.001791676, 0.01158827, 0.01988446, 0.0005187925, -0.9997409, -0.0198461, 0.3503954
 258430753, 0.004087539, 0.02989271, 0.04786558, 0.00104407, 0.001114233, 0.009962475, 0.01481572, 0.0005187925, -0.9997416, -0.02020251, 0.3503954
 258630673, 0.002759917, 0.02535551, 0.03513962, 0.00104407, 0.0005324127, 0.008247435, 0.01067617, 0.0005187925, -0.9997448, -0.02057983, 0.3503954
 258831426, 0.001599856, 0.02028246, 0.02591712, 0.001046232, 0.0007400212, 0.006570297, 0.007900839, 0.0005209541, -0.9997482, -0.02103498, 0.3511209
 259031346, 0.001389308, 0.01545981, 0.01917992, 0.001046232, 8.472642E-05, 0.004810552, 0.004957278, 0.0005187925, -0.9997461, -0.02148874, 0.3511209
 259231266, -0.0005477914, 0.01175455, 0.01315438, 0.00104407, -0.000594672, 0.003538485, 0.004290687, 0.0005187925, -0.9997435, -0.02185795, 0.3503954
 259431186, -0.002155582, 0.008824578, 0.01084512, 0.00104407, -0.001174101, 0.002829262, 0.003181435, 0.0005187925, -0.9997407, -0.02222607, 0.3503954
 259631106, -0.001851552, 0.006719481, 0.008105824, 0.00104407, -0.0003028459, 0.002093152, 0.002118569, 0.0005187925, -0.9997373, -0.02254432, 0.3503954
 259831026, 0.00013544, 0.005043036, 0.00551798, 0.00104407, 0.0001424023, 0.001564862, 0.001300383, 0.0005187925, -0.9997301, -0.02298563, 0.3503954
 260030946, -3.433879E-05, 0.003621728, 0.003633345, 0.00104407, -0.0001567535, 0.0008566161, 0.0003034129, 0.0005187925, -0.9997224, -0.02340494, 0.3503954
 260230866, -0.0005973559, 0.002564997, 0.002274258, 0.00104407, -0.0003956074, 0.001240015, 0.0005624821, 0.0005187925, -0.9997135, -0.02381899, 0.3503954
 260430786, -0.0009724515, 0.003123107, 0.00148093, 0.00104407, -0.0003725338, 0.001235778, 6.462134E-05, 0.0005187925, -0.9997047, -0.02420132, 0.3503954
 260630706, -0.0009196625, 0.003808361, 0.0007525973, 0.00104407, -0.0005579587, 0.002068296, 0.0002822462, 0.0005187925, -0.9996957, -0.02453909, 0.3503954
 260831459, -0.001338691, 0.005795458, 0.0007487758, 0.001046232, -5.745515E-05, 0.002375827, 0.0002201673, 0.0005209541, -0.9996862, -0.02490864, 0.3511209
 261031379, -0.0001991366, 0.006654997, 0.0003504538, 0.001046232, -1.291263E-05, 0.002706363, -0.0001632752, 0.0005187925, -0.9996765, -0.02527842, 0.3511209
 261231299, 0.001023081, 0.007585221, -0.000122578, 0.00104407, 0.0007515381, 0.002752059, 9.881E-05, 0.0005187925, -0.9996678, -0.02564957, 0.3503954
 261431219, 0.002686378, 0.0070408, -0.0003930843, 0.00104407, 0.001242425, 0.002484758, -0.0004149053, 0.0005187925, -0.9996589, -0.02604658, 0.3503954
 261631139, 0.003014392, 0.005916474, -0.001901897, 0.00104407, 0.000781437, 0.001858415, -0.00206149, 0.0005187925, -0.9996464, -0.02654835, 0.3503954
 261831059, 0.002232492, 0.005609291, -0.003634774, 0.00104407, 0.0007076829, 0.002536076, -0.001245854, 0.0005187925, -0.999634, -0.02699566, 0.3503954
 262030979, 0.00190584, 0.00720983, -0.002567041, 0.00104407, 0.0002592592, 0.002749061, -0.000952529, 0.0005187925, -0.9996243, -0.0273433, 0.3503954
 262230899, 0.0007523957, 0.007680808, -0.001709999, 0.00104407, 0.0002054382, 0.002614364, -0.0008881209, 0.0005187925, -0.9996157, -0.02771101, 0.3503954
 262430819, -0.00030835, -0.007384003, -0.002763933, 0.00104407, -0.000476065, -0.01221443, -0.00160172, 0.0005187925, -0.9994863, -0.0279224, 0.3503954
 262630739, -0.0008747818, -0.0626042, -0.002443975, 0.00104407, -0.0001844678, -0.03773529, -0.000510766, 0.0005187925, -0.9987715, -0.0279191, 0.3503954
 262830659, -0.0001565094, -0.1209436, -0.0002983352, 0.00104407, 3.252249E-05, -0.05110815, 0.0002802383, 0.0005187925, -0.9980157, -0.02787244, 0.3503954
 263031412, -0.0003991598, -0.139329, -3.818161E-05, 0.001046232, -0.0002608359, -0.04861093, -0.00151825, 0.0005209541, -0.9978682, -0.02806804, 0.3511209
 263231332, -0.0006135785, -0.1245326, -0.002920361, 0.001046232, -0.0004916798, -0.04078897, -0.0009781178, 0.0005187925, -0.9978978, -0.02856416, 0.3511209
 263431252, -0.0007973516, -0.1082264, -0.002071526, 0.00104407, -0.0006568084, -0.03807942, -0.0008290466, 0.0005187925, -0.9976583, -0.02912308, 0.3503954
 263631172, -0.001406839, -0.1068428, -0.001612001, 0.00104407, -0.000150552, -0.04042399, -0.000497085, 0.0005187925, -0.9971243, -0.02961156, 0.3503954
 263831092, -0.0007871385, -0.1141172, -0.001437923, 0.00104407, -0.0006777276, -0.04298935, 0.0001446264, 0.0005187925, -0.9964687, -0.030157, 0.3503954
 264031012, -0.001235064, -0.1202185, -0.001473376, 0.00104407, -5.291649E-06, -0.044532, -0.001001893, 0.0005187925, -0.9958293, -0.03064478, 0.3503954
 264230932, -0.0002340878, -0.1225781, -0.001915529, 0.00104407, -0.0003922188, -0.0448042, -0.0006094688, 0.0005187925, -0.9952075, -0.03107495, 0.3503954
 264430852, -0.0004862414, -0.1229075, -0.0007020917, 0.00104407, -0.0003670899, -0.04452158, -0.0003454686, 0.0005187925, -0.9944808, -0.03167288, 0.3503954
 264630772, -0.0004098133, -0.1234285, -0.0007470241, 0.00104407, -7.449366E-05, -0.0453525, -0.0008474713, 0.0005187925, -0.9936447, -0.0324314, 0.3503954
 264830692, -0.0004769833, -0.125533, -0.0008566029, 0.00104407, -0.0004972019, -0.04632527, -5.68639E-06, 0.0005187925, -0.992694, -0.03315642, 0.3503954
 265031445, -0.0005446167, -0.1279144, 0.0002356897, 0.001046232, 0.0006145195, -0.04701443, -0.0001434352, 0.0005209541, -0.9916742, -0.03392194, 0.3511209
 265231365, 0.00125568, -0.1292735, -0.001382167, 0.001046232, 0.0003011178, -0.04732403, -0.001159072, 0.0005187925, -0.990526, -0.03475976, 0.3511209
 265431285, -0.0003132246, -0.1311206, -0.002129762, 0.00104407, -0.0005967955, -0.04846438, -0.001047515, 0.0005187925, -0.9892353, -0.03563889, 0.3503954
 265631205, -0.001210352, -0.1335061, -0.00204774, 0.00104407, -0.0005877589, -0.04901672, -0.001256985, 0.0005187925, -0.9878562, -0.03657211, 0.3503954
 265831125, -0.0006884443, -0.1351223, -0.003225266, 0.00104407, -0.0001704611, -0.04926609, -0.001998757, 0.0005187925, -0.9863859, -0.03757872, 0.3503954
 266031045, 0.0009935353, -0.1357902, -0.004087525, 0.00104407, 0.0009896368, -0.04960758, -0.001409636, 0.0005187925, -0.9847963, -0.03861769, 0.3503954
 266230965, 0.003109769, -0.1369206, -0.002825428, 0.00104407, 0.00135538, -0.05009417, -0.001194285, 0.0005187925, -0.9830417, -0.03981767, 0.3503954
 266430885, 0.003019064, -0.1384328, -0.002739452, 0.00104407, 0.001027712, -0.05123544, -0.001281777, 0.0005187925, -0.9810756, -0.04106162, 0.3503954
 266630805, 0.001820401, -0.1412077, -0.002940559, 0.00104407, 0.0003742467, -0.0519088, -0.00085357, 0.0005187925, -0.9789882, -0.04238946, 0.3503954
 266830725, 0.001845642, -0.142309, -0.002778839, 0.00104407, 0.001008761, -0.05158934, -0.00129284, 0.0005187925, -0.9768848, -0.04380004, 0.3503954
 267031478, 0.002994212, -0.1417162, -0.00378859, 0.001046232, 0.001367764, -0.05179048, -0.001289394, 0.0005209541, -0.9746398, -0.04530782, 0.3511209
 267231398, 0.003823206, -0.1414032, -0.003887797, 0.001046232, 0.001227719, -0.05129677, -0.001663546, 0.0005187925, -0.9721913, -0.04690122, 0.3511209
 267431318, 0.003598909, -0.1418217, -0.004809689, 0.00104407, 0.001363989, -0.05214502, -0.002115187, 0.0005187925, -0.9695281, -0.04843735, 0.3503954
 267631238, 0.003816071, -0.1433627, -0.005519213, 0.00104407, 0.001243383, -0.05233211, -0.002592037, 0.0005187925, -0.9667245, -0.04994726, 0.3503954
 267831158, 0.004244222, -0.143855, -0.006675879, 0.00104407, 0.001959018, -0.05268591, -0.002497043, 0.0005187925, -0.9637371, -0.05152728, 0.3503954
 268031078, 0.005797582, -0.1450524, -0.007135208, 0.00104407, 0.002505367, -0.0529167, -0.002508798, 0.0005187925, -0.9605601, -0.05327025, 0.3503954
 268230998, 0.007047742, -0.1457239, -0.007201605, 0.00104407, 0.002934894, -0.05324623, -0.003300068, 0.0005187925, -0.9572143, -0.05511608, 0.3503954
 268430918, 0.008174721, -0.1469623, -0.008724481, 0.00104407, 0.00299284, -0.05369631, -0.003457069, 0.0005187925, -0.9537581, -0.05698019, 0.3503954
 268630838, 0.009268245, -0.1475856, -0.009245627, 0.00104407, 0.004051987, -0.05378317, -0.003582098, 0.0005187925, -0.9500638, -0.05884841, 0.3503954
 268830758, 0.01073952, -0.1481653, -0.009639692, 0.00104407, 0.003917221, -0.05416575, -0.003962435, 0.0005187925, -0.9462534, -0.06073095, 0.3503954
 269030678, 0.01132548, -0.1484183, -0.01110686, 0.00104407, 0.004225477, -0.05387681, -0.004564679, 0.0005187925, -0.9423355, -0.06260885, 0.3503954
 269231431, 0.01203224, -0.1484642, -0.01184964, 0.001046232, 0.004570712, -0.05445747, -0.004366085, 0.0005209541, -0.9381186, -0.06450558, 0.3511209
 269431351, 0.01309311, -0.149342, -0.01219434, 0.001046232, 0.004858175, -0.05513329, -0.005341954, 0.0005187925, -0.933712, -0.06645383, 0.3511209
 269631271, 0.01373772, -0.1505886, -0.01336806, 0.00104407, 0.005163946, -0.05500511, -0.004999668, 0.0005187925, -0.9290987, -0.06857164, 0.3503954
 269831191, 0.01454917, -0.1512242, -0.01369618, 0.00104407, 0.005556859, -0.05526096, -0.005312908, 0.0005187925, -0.9243672, -0.0707491, 0.3503954
 270031111, 0.01538233, -0.1519892, -0.01463956, 0.00104407, 0.005829797, -0.05582894, -0.005869151, 0.0005187925, -0.9194262, -0.07300053, 0.3503954
 270231031, 0.01642284, -0.1532513, -0.01554745, 0.00104407, 0.006172602, -0.05606883, -0.006632791, 0.0005187925, -0.9143067, -0.0753473, 0.3503954
 270430951, 0.01775261, -0.1540018, -0.01705898, 0.00104407, 0.006871427, -0.05695415, -0.00667649, 0.0005187925, -0.9090022, -0.0778657, 0.3503954
 270630871, 0.01945195, -0.155518, -0.01747869, 0.00104407, 0.007244124, -0.05699917, -0.006947948, 0.0005187925, -0.9034847, -0.08048439, 0.3503954
 270830791, 0.02068667, -0.1566679, -0.01818482, 0.00104407, 0.007729934, -0.05779752, -0.007144694, 0.0005187925, -0.8978084, -0.08319945, 0.3503954
 271030711, 0.02156294, -0.1578701, -0.01933538, 0.00104407, 0.007870237, -0.05765485, -0.00785683, 0.0005187925, -0.892168, -0.08594219, 0.3503954
 271231464, 0.02195029, -0.1575971, -0.02083757, 0.001046232, 0.008071116, -0.0573347, -0.008194183, 0.0005209541, -0.8864271, -0.08867965, 0.3511209
 271431384, 0.02206323, -0.1563582, -0.02155129, 0.001046232, 0.008217803, -0.0568922, -0.008749237, 0.0005187925, -0.8805808, -0.09150055, 0.3511209
 271631304, 0.0232688, -0.1567015, -0.02265465, 0.00104407, 0.00890027, -0.05802235, -0.008772094, 0.0005187925, -0.8743401, -0.09431906, 0.3503954
 271831224, 0.02529725, -0.1587719, -0.02329002, 0.00104407, 0.009455863, -0.05819405, -0.009343002, 0.0005187925, -0.868027, -0.09719961, 0.3503954
 272031144, 0.02689307, -0.1595318, -0.02457209, 0.00104407, 0.01014976, -0.0584413, -0.009467713, 0.0005187925, -0.8617013, -0.1001359, 0.3503954
 272231064, 0.02862263, -0.1595115, -0.02554123, 0.00104407, 0.01088131, -0.05809443, -0.01007347, 0.0005187925, -0.8553856, -0.1031245, 0.3503954
 272430984, 0.0302506, -0.1588349, -0.02686157, 0.00104407, 0.01136276, -0.05825324, -0.0102474, 0.0005187925, -0.8488997, -0.1061469, 0.3503954
 272630904, 0.03189044, -0.1591236, -0.02773965, 0.00104407, 0.01153615, -0.05827544, -0.01115116, 0.0005187925, -0.8422863, -0.1091566, 0.3503954
 272830824, 0.03290239, -0.1595994, -0.02906509, 0.00104407, 0.01243564, -0.05855981, -0.01152377, 0.0005187925, -0.8355039, -0.1121083, 0.3503954
 273030744, 0.03506933, -0.1606321, -0.02980892, 0.00104407, 0.01355067, -0.05930574, -0.01171223, 0.0005187925, -0.8287111, -0.1150173, 0.3503954
 273230664, 0.03709836, -0.1615044, -0.03113126, 0.00104407, 0.01392335, -0.05906826, -0.01216627, 0.0005187925, -0.8219487, -0.1179011, 0.3503954
 273431417, 0.03856342, -0.1611728, -0.03213729, 0.001046232, 0.01452463, -0.05912578, -0.0126018, 0.0005209541, -0.8151513, -0.1207825, 0.3511209
