TimeUS,CAN,CAE,CAD,CAe,NAN,NAE,NAD,NAe,m10,m00,Gye
 170360995, -4.434433E-06, 5.380528E-05, -2.843196E-06, 6.484905E-06, 0, 0, 0, 0, -0.9999977, -0.001449037, 1.854584
 170430967, -0.4184274, 3.561745, -0.3325282, 0.4422685, -0.2259635, 2.834935, 0.1693808, 0.442262, -0.9999977, -0.001449579, 25.97484
 170630887, -0.2260265, 2.842475, 0.1691289, 0.4427881, -0.000165513, 0.004424516, -0.0003299763, 0.0005187925, -0.9999977, -0.001447319, 148.6017
 170830807, -0.0003554733, 0.01174412, -0.0004247467, 0.00104407, -1.523346E-05, 0.004344305, -0.0002288129, 0.0005187925, -0.9999977, -0.001444289, 0.3503954
 171030727, -0.0001487157, 0.01168151, -0.0005414334, 0.00104407, 8.528074E-06, 0.004389978, 5.352382E-05, 0.0005187925, -0.9999977, -0.001441022, 0.3503954
 171231480, 0.0003305968, 0.01173731, -0.0001914069, 0.001046232, 0.0002353746, 0.004456765, -0.0003357692, 0.0005209541, -0.9999977, -0.001435848, 0.3511209
 171431400, 8.431611E-05, 0.01184733, -0.000623161, 0.001046232, 0.000134634, 0.004278413, 0.0001269619, 0.0005187925, -0.9999977, -0.001433032, 0.3511209
 171631320, 0.0001265593, 0.01166444, -0.0003221057, 0.00104407, 0.0002634206, 0.004601814, -0.0002871759, 0.0005187925, -0.9999977, -0.001428797, 0.3503954
 171831240, 0.0001792065, 0.01212106, -0.0005262724, 0.00104407, 0.0002370948, 0.004338721, 0.0003310119, 0.0005187925, -0.9999977, -0.00142159, 0.3503954
 172031160, 0.0002520466, 0.01203539, 0.0001801451, 0.00104407, 9.785818E-05, 0.004763958, -0.0001260885, 0.0005187925, -0.9999977, -0.001414917, 0.3503954
 172231080, 0.0002530369, 0.01209715, -0.0004167092, 0.00104407, -0.0002143369, 0.003953445, -0.0003456831, 0.0005187925, -0.9999977, -0.00140788, 0.3503954
 172431000, 1.708242E-05, 0.01124748, -0.0004616439, 0.00104407, 0.0002386732, 0.004077661, 3.013597E-06, 0.0005187925, -0.9999977, -0.001400388, 0.3503954
 172630920, 0.000429312, 0.01146091, 1.193157E-05, 0.00104407, -0.0001511263, 0.004286833, 0.0003393186, 0.0005187925, -0.9999977, -0.0014085, 0.3503954
 172830840, 8.029368E-06, 0.01179377, 0.0005346197, 0.00104407, -3.402318E-05, 0.004370962, -5.20748E-05, 0.0005187925, -0.9999977, -0.001415894, 0.3503954
 173030760, -0.0003253458, 0.01167915, -0.0003398607, 0.00104407, -0.0005321483, 0.004033734, -0.0004073135, 0.0005187925, -0.9999977, -0.001422447, 0.3503954
 173230680, -0.0005289888, 0.0114648, -0.0007679669, 0.00104407, -0.0001020266, 0.004297253, -0.0002187474, 0.0005187925, -0.9999977, -0.001428277, 0.3503954
 173431433, -0.0002536251, 0.01193645, -0.0004850168, 0.001046232, 0.000153, 0.004525253, -0.0005906104, 0.0005209541, -0.9999977, -0.001433201, 0.3511209
 173631353, 0.00012182, 0.01218255, -0.0009262157, 0.001046232, 0.0003046418, 0.004526896, 4.80257E-05, 0.0005187925, -0.9999976, -0.001437442, 0.3511209
 173831273, 0.0004325369, 0.01192614, -0.0001249815, 0.00104407, 0.0001461083, 0.003887108, 5.071994E-05, 0.0005187925, -0.9999976, -0.001441592, 0.3503954
 174031193, 0.0002163047, 0.01129958, -0.0001570729, 0.00104407, 0.0002478505, 0.004034206, -0.0004421777, 0.0005187925, -0.9999976, -0.001445917, 0.3503954
 174231113, 1.632994E-05, 0.01123779, -0.0005979578, 0.00104407, -4.517075E-05, 0.003833087, 0.0004684743, 0.0005187925, -0.9999976, -0.001448895, 0.3503954
 174431033, -0.0001912525, 0.01131418, 0.0007114033, 0.00104407, -0.0001319668, 0.004421158, -2.570316E-05, 0.0005187925, -0.9999977, -0.001450169, 0.3503954
 174630953, -0.0002086944, 0.01182136, -0.0001820098, 0.00104407, 0.0003037432, 0.004362002, -0.0002805684, 0.0005187925, -0.9999977, -0.001451251, 0.3503954
 174830873, 0.0002449592, 0.01189281, -0.0002897321, 0.00104407, 0.0001889624, 0.003623516, 6.987279E-05, 0.0005187925, -0.9999977, -0.001451249, 0.3503954
 175030793, 4.985333E-05, 0.01080362, -0.0001715903, 0.00104407, -0.0001299225, 0.004083194, -0.0004559469, 0.0005187925, -0.9999977, -0.0014514, 0.3503954
 175230713, -0.0004615908, 0.01130035, -0.0005240358, 0.00104407, -0.000282307, 0.004374426, -0.000445525, 0.0005187925, -0.9999977, -0.001451038, 0.3503954
 175431466, -0.000383981, 0.01188936, -0.0004292094, 0.001046232, -0.000432656, 0.003997101, 0.0002379407, 0.0005209541, -0.9999977, -0.001447636, 0.3511209
 175631386, -0.0005390602, 0.011713, 9.703093E-05, 0.001046232, -0.0002952317, 0.004354808, -0.000172546, 0.0005187925, -0.9999977, -0.001445474, 0.3511209
 175831306, -0.0001250304, 0.01163932, -0.0003971216, 0.00104407, 0.0003669269, 0.004204982, 1.592356E-05, 0.0005187925, -0.9999977, -0.001441467, 0.3503954
 176031226, 0.0003280496, 0.01168311, -0.0003100621, 0.00104407, -0.0001066298, 0.004027589, 0.0002331039, 0.0005187925, -0.9999977, -0.001436628, 0.3503954
 176231146, -0.0001549655, 0.01123618, 0.000393275, 0.00104407, 0.0002211289, 0.004157313, 0.0001366986, 0.0005187925, -0.9999977, -0.001432662, 0.3503954
 176431066, 0.0002586036, 0.01129141, -0.000281978, 0.00104407, -0.0001196201, 0.0044793, -0.0001946898, 0.0005187925, -0.9999977, -0.001428797, 0.3503954
 176630986, -5.183229E-05, 0.01207598, -0.0003702756, 0.00104407, -5.915507E-05, 0.00437913, -0.0002780124, 0.0005187925, -0.9999977, -0.001422953, 0.3503954
 176830906, 0.0001036223, 0.01153348, -0.000378954, 0.00104407, -0.0004205399, 0.004362144, -0.0004924401, 0.0005187925, -0.9999977, -0.001417881, 0.3503954
 177030826, -0.0003517412, 0.01193051, -0.0005827968, 0.00104407, -0.0002355376, 0.004411124, -0.0003795095, 0.0005187925, -0.9999977, -0.001412971, 0.3503954
 177230746, 8.327231E-05, 0.0119151, -0.0005914613, 0.00104407, 1.164545E-05, 0.004318927, -0.0003724945, 0.0005187925, -0.9999977, -0.001405995, 0.3503954
 177430666, 0.0002188734, 0.01173795, -0.000642635, 0.00104407, 0.0003517655, 0.004112091, -0.0005611296, 0.0005187925, -0.9999977, -0.001398443, 0.3503954
 177631419, 0.0005338728, 0.01129585, -0.0004364136, 0.001046232, 7.74137E-05, 0.003768802, 0.0001894586, 0.0005209541, -0.9999978, -0.001389141, 0.3511209
 177831339, 0.0004831458, 0.01128306, 0.0001335337, 0.001046232, 0.0002054053, 0.004030779, 0.0002206218, 0.0005187925, -0.9999978, -0.001396457, 0.3511209
 178031259, 0.0002502259, 0.01122627, -0.0001263768, 0.00104407, 0.0001685199, 0.003920812, 0.0002193408, 0.0005187925, -0.9999978, -0.00140099, 0.3503954
 178231179, 0.0002468733, 0.01129376, 0.0002320625, 0.00104407, 0.0002540641, 0.004153961, -3.366673E-05, 0.0005187925, -0.9999977, -0.001405406, 0.3503954
 178431099, 0.0001031403, 0.01137432, -0.000247022, 0.00104407, -0.0001083396, 0.004181821, 0.0002367586, 0.0005187925, -0.9999977, -0.001410543, 0.3503954
 178631019, -0.0003175403, 0.01153468, 0.0001016496, 0.00104407, -0.0001102629, 0.003972104, 0.0004122705, 0.0005187925, -0.9999978, -0.001415155, 0.3503954
 178830939, 0.0001110696, 0.01132281, 0.0002958699, 0.00104407, -4.482189E-05, 0.004315227, 0.0001664986, 0.0005187925, -0.9999978, -0.001417269, 0.3503954
 179030859, 0.0002683016, 0.01166927, -9.400617E-06, 0.00104407, 0.0001506456, 0.004254953, -3.668983E-06, 0.0005187925, -0.9999978, -0.001419043, 0.3503954
 179230779, 2.0777E-06, 0.01114192, -0.0004077508, 0.00104407, -3.211073E-06, 0.003915915, 3.980951E-05, 0.0005187925, -0.9999978, -0.001419974, 0.3503954
 179430699, -0.0002395539, 0.01083025, -0.0003131114, 0.00104407, -0.0003801611, 0.004160073, -0.0005492539, 0.0005187925, -0.9999978, -0.001419906, 0.3503954
 179631452, -0.0002168398, 0.01173434, -0.0007491551, 0.001046232, 7.4163E-05, 0.004624826, -0.0003954899, 0.0005209541, -0.9999978, -0.001419804, 0.3511209
 179831372, 9.109553E-05, 0.01196425, -0.0005651557, 0.001046232, 0.0001257242, 0.004363995, 0.0002406004, 0.0005187925, -0.9999977, -0.001420883, 0.3511209
 180031292, -8.399432E-05, 0.01156022, 0.0003034653, 0.00104407, -0.0001950686, 0.004211364, -0.0003048952, 0.0005187925, -0.9999977, -0.001419247, 0.3503954
 180231212, -0.0002279498, 0.01161194, -0.0004499637, 0.00104407, -9.611974E-05, 0.004242999, -0.0002046005, 0.0005187925, -0.9999977, -0.001419262, 0.3503954
 180431132, -0.000206992, 0.01161693, -0.0005900966, 0.00104407, 0.0002182936, 0.004304794, 0.0001911257, 0.0005187925, -0.9999977, -0.001418973, 0.3503954
 180631052, 0.0001198382, 0.01169226, 1.326383E-05, 0.00104407, -0.0001368162, 0.004341363, -0.0001601567, 0.0005187925, -0.9999977, -0.00141661, 0.3503954
 180830972, -0.0001851646, 0.01130206, -0.0003625849, 0.00104407, 0.0002983905, 0.003881477, -0.0001965058, 0.0005187925, -0.9999977, -0.001414105, 0.3503954
 181030892, 0.0001283318, 0.01091014, -0.0003867318, 0.00104407, -0.0003817957, 0.004337098, -5.69521E-05, 0.0005187925, -0.9999977, -0.001413194, 0.3503954
 181230812, -0.0006537334, 0.01159571, -0.0002455302, 0.00104407, 0.0002719682, 0.004185661, -0.0001521765, 0.0005187925, -0.9999977, -0.001411347, 0.3503954
 181430732, -3.413136E-05, 0.01130808, -0.0002332076, 0.00104407, 0.0001982727, 0.003898787, 9.82535E-05, 0.0005187925, -0.9999977, -0.00140828, 0.3503954
 181631485, 0.0004735731, 0.01098036, 0.0001454828, 0.001046232, 0.0003027562, 0.004215498, 0.0004283486, 0.0005209541, -0.9999977, -0.001403913, 0.3511209
 181831405, 0.0004233684, 0.01170561, 0.0003267312, 0.001046232, -0.0002358429, 0.004372128, -0.0001060824, 0.0005187925, -0.9999977, -0.001401493, 0.3511209
 182031325, 5.540465E-05, 0.01182116, -0.0002974749, 0.00104407, -7.435583E-05, 0.004498238, -0.0001303139, 0.0005187925, -0.9999977, -0.001397987, 0.3503954
 182231245, 0.0003536151, 0.01184573, 2.090927E-05, 0.00104407, 0.0002073638, 0.004353786, 0.0001722076, 0.0005187925, -0.9999977, -0.001392796, 0.3503954
 182431165, -0.0002067768, 0.01162394, 0.0001775091, 0.00104407, -0.0005158716, 0.003891485, -5.085222E-05, 0.0005187925, -0.9999977, -0.001389004, 0.3503954
 182631085, -0.000280051, 0.011305, -0.0001274839, 0.00104407, 0.0002127595, 0.00443212, -3.167316E-05, 0.0005187925, -0.9999977, -0.001384275, 0.3503954
 182831005, 1.084631E-05, 0.01200222, 0.0002083326, 0.00104407, -5.924536E-06, 0.004469752, 6.710348E-05, 0.0005187925, -0.9999977, -0.001379892, 0.3503954
 183030925, 0.0001246558, 0.01196299, 0.0001039935, 0.00104407, 0.0003514436, 0.004500792, -0.0001185253, 0.0005187925, -0.9999977, -0.001390527, 0.3503954
 183230845, 0.0003865469, 0.01181378, -8.986212E-05, 0.00104407, 0.0001119459, 0.004333479, 4.606669E-05, 0.0005187925, -0.9999977, -0.001399624, 0.3503954
 183430765, -0.0001313018, 0.01150781, 9.66627E-05, 0.00104407, 4.605022E-05, 0.004137573, 6.096545E-05, 0.0005187925, -0.9999977, -0.001408924, 0.3503954
 183630685, 5.253767E-05, 0.01163783, 3.96117E-05, 0.00104407, 6.214137E-05, 0.004465494, 0.0001940571, 0.0005187925, -0.9999977, -0.00141663, 0.3503954
 183831438, -0.0001890408, 0.01180532, 1.15869E-05, 0.001046232, 0.0001474382, 0.004122395, -0.0003557184, 0.0005209541, -0.9999977, -0.001423969, 0.3511209
 184031358, -4.735804E-05, 0.01134919, -0.0006883939, 0.001046232, -0.000237786, 0.004084242, 2.644672E-05, 0.0005187925, -0.9999976, -0.001429769, 0.3511209
 184231278, -0.0003259835, 0.01154672, -0.0002197567, 0.00104407, -6.227245E-06, 0.004608689, -6.634084E-05, 0.0005187925, -0.9999976, -0.001432785, 0.3503954
 184431198, 6.218657E-05, 0.0120576, -0.0003445428, 0.00104407, -9.454009E-05, 0.004572004, -3.410525E-05, 0.0005187925, -0.9999976, -0.0014363, 0.3503954
 184631118, -9.672879E-05, 0.01207449, -1.070782E-05, 0.00104407, 0.0001359721, 0.004171188, 7.566881E-05, 0.0005187925, -0.9999976, -0.001440931, 0.3503954
 184831038, 5.68162E-05, 0.01132047, -1.055176E-05, 0.00104407, -0.0003146992, 0.003879393, -0.0001439031, 0.0005187925, -0.9999976, -0.001445393, 0.3503954
 185030958, -0.0002027084, 0.01133681, 1.845219E-05, 0.00104407, -0.0002877955, 0.004843657, -0.0003933286, 0.0005187925, -0.9999976, -0.001448006, 0.3503954
 185230878, -0.0004675905, 0.01244577, -0.0008732617, 0.00104407, -0.0003870793, 0.0045698, 0.0001411219, 0.0005187925, -0.9999976, -0.001450164, 0.3503954
 185430798, -0.0004013722, 0.0120241, 0.000212931, 0.00104407, 0.0003741861, 0.003836795, 0.0001896207, 0.0005187925, -0.9999976, -0.001452326, 0.3503954
 185630718, 0.0003888232, 0.01103924, -9.894003E-06, 0.00104407, -0.0001199194, 0.004170178, -0.0003251837, 0.0005187925, -0.9999976, -0.001452378, 0.3503954
 185831471, -0.0002339663, 0.01165951, -0.0005170628, 0.001046232, -3.17306E-05, 0.004075827, 0.0001761276, 0.0005209541, -0.9999976, -0.001452442, 0.3511209
 186031391, 0.0001609809, 0.01138701, -0.0003290927, 0.001046232, 0.0001831082, 0.003899163, -0.0004791225, 0.0005187925, -0.9999976, -0.001453527, 0.3511209
 186231311, 0.0004459923, 0.01109073, -0.0005206694, 0.00104407, 0.000379903, 0.00407635, 0.000173709, 0.0005187925, -0.9999976, -0.001452474, 0.3503954
 186431231, 0.0001917674, 0.0117296, -4.66196E-05, 0.00104407, -0.0001006794, 0.004761257, 3.899682E-05, 0.0005187925, -0.9999976, -0.00145019, 0.3503954
 186631151, -0.0001295934, 0.01234599, -0.0004979419, 0.00104407, 0.0004179809, 0.004644496, -0.0003525027, 0.0005187925, -0.9999976, -0.001449357, 0.3503954
 186831071, 0.0008013693, 0.01247147, -0.0002203979, 0.00104407, -0.0003199325, 0.004802977, 0.0002493766, 0.0005187925, -0.9999976, -0.001447158, 0.3503954
 187030991, -0.0004129115, 0.01208578, -0.000106658, 0.00104407, -0.0002175024, 0.0041732, -0.0001966977, 0.0005187925, -0.9999976, -0.001444063, 0.3503954
 187230911, -9.628839E-05, 0.01167526, -0.0001138577, 0.00104407, 0.0002217028, 0.004238418, 0.0002560687, 0.0005187925, -0.9999976, -0.001439828, 0.3503954
 187430831, 0.0001753893, 0.01187966, 6.961418E-05, 0.00104407, -1.414682E-05, 0.00448373, -0.0001142974, 0.0005187925, -0.9999976, -0.001435877, 0.3503954
 187630751, -8.586823E-05, 0.01192969, -0.0004160026, 0.00104407, -0.0001363266, 0.004212071, 0.0001543, 0.0005187925, -0.9999976, -0.00143051, 0.3503954
 187830671, -0.0001248364, 0.01181523, 0.0001095738, 0.00104407, 0.0002717295, 0.004695612, -0.000104979, 0.0005187925, -0.9999976, -0.001425471, 0.3503954
 188031424, 0.0004147359, 0.01201007, -0.0001634404, 0.001046232, -0.000126647, 0.003823684, 2.64221E-06, 0.0005209541, -0.9999977, -0.001420739, 0.3511209
 188231344, 0.0002180599, 0.01121875, -9.975454E-05, 0.001046232, 0.0002042341, 0.004000729, -3.109999E-05, 0.0005187925, -0.9999976, -0.00143053, 0.3511209
 188431264, 0.0002848883, 0.01143085, 6.08725E-05, 0.00104407, 0.0003787397, 0.004320839, -0.0002900905, 0.0005187925, -0.9999976, -0.001438515, 0.3503954
 188631184, 0.0002859294, 0.01152899, -0.0005011616, 0.00104407, 0.0001541637, 0.004095143, -0.0002046934, 0.0005187925, -0.9999976, -0.00144669, 0.3503954
 188831104, 6.434773E-05, 0.01166559, -6.746816E-05, 0.00104407, -0.0001552483, 0.004060813, 0.0001578367, 0.0005187925, -0.9999976, -0.001453829, 0.3503954
 189031024, -2.622744E-05, 0.01128785, -0.0001114602, 0.00104407, 1.783229E-05, 0.004311206, -4.16589E-06, 0.0005187925, -0.9999976, -0.001460083, 0.3503954
 189230944, 0.0002868273, 0.01147631, -3.317461E-05, 0.00104407, -0.000136001, 0.004352345, -1.127507E-05, 0.0005187925, -0.9999976, -0.001465045, 0.3503954
 189430864, 7.794207E-05, 0.01158587, -0.0001462685, 0.00104407, -6.012631E-05, 0.004138925, -0.0005040464, 0.0005187925, -0.9999976, -0.001468342, 0.3503954
 189630784, -2.127972E-05, 0.01147769, -0.0007504571, 0.00104407, 0.0002701513, 0.004151921, -0.0004469656, 0.0005187925, -0.9999976, -0.001470824, 0.3503954
 189830704, 0.0003505242, 0.01154236, -0.0009770954, 0.00104407, 0.0006107311, 0.004054441, -0.0006300778, 0.0005187925, -0.9999976, -0.001472091, 0.3503954
 190031457, 0.0005428445, 0.01118542, -0.0009685336, 0.001046232, -2.754022E-05, 0.004058586, -0.0002172864, 0.0005209541, -0.9999977, -0.001474006, 0.3511209
 190231377, 0.0001781615, 0.01129536, -0.0003250527, 0.001046232, -5.935946E-05, 0.004002603, 0.0001287231, 0.0005187925, -0.9999977, -0.001474354, 0.3511209
 190431297, -2.801434E-05, 0.01145293, -7.761006E-06, 0.00104407, 0.0003045874, 0.00422589, -0.0001661232, 0.0005187925, -0.9999977, -0.001473125, 0.3503954
 190631217, 0.000269922, 0.01170164, -0.0002697688, 0.00104407, 0.0001927821, 0.004788527, -0.0001308335, 0.0005187925, -0.9999977, -0.001472447, 0.3503954
 190831137, 0.000124201, 0.01227573, -0.0003585286, 0.00104407, 0.0002319974, 0.004363325, 0.000150407, 0.0005187925, -0.9999977, -0.00147089, 0.3503954
 191031057, 7.736907E-05, 0.01132965, -5.754198E-05, 0.00104407, -0.0003123801, 0.004185547, -0.0004785876, 0.0005187925, -0.9999977, -0.001470123, 0.3503954
 191230977, -0.000227836, 0.01140526, -0.000542618, 0.00104407, 0.000323432, 0.00419885, -0.0003373048, 0.0005187925, -0.9999976, -0.001468563, 0.3503954
 191430897, 0.0003316116, 0.01137089, -0.0006515603, 0.00104407, -0.0003317413, 0.004123678, -0.0004246002, 0.0005187925, -0.9999976, -0.001466474, 0.3503954
 191630817, -0.0004130675, 0.01144803, -0.0007660817, 0.00104407, -0.0002026526, 0.004211053, -0.0002752276, 0.0005187925, -0.9999976, -0.001463075, 0.3503954
 191830737, -0.0001610454, 0.0115519, -0.000138025, 0.00104407, -4.622396E-05, 0.003860731, -5.541254E-05, 0.0005187925, -0.9999977, -0.001459284, 0.3503954
 192030657, 0.0001260178, 0.01117265, 4.606668E-05, 0.00104407, 0.0001070662, 0.004317364, -0.0002681053, 0.0005187925, -0.9999976, -0.001456267, 0.3503954
 192231410, -9.359825E-05, 0.01164174, -0.0003516881, 0.001046232, 2.607406E-05, 0.003964706, -0.0001388848, 0.0005209541, -0.9999977, -0.001453791, 0.3511209
 192431330, 0.0002515391, 0.01160581, -0.0001890269, 0.001046232, 0.0001989124, 0.004157019, 0.0002199295, 0.0005187925, -0.9999977, -0.001448321, 0.3511209
 192631250, 0.0002340784, 0.01187109, 0.0003793975, 0.00104407, -0.0002034324, 0.004601058, 5.270994E-05, 0.0005187925, -0.9999977, -0.001441866, 0.3503954
 192831170, -0.0004064744, 0.01196135, -0.0002235364, 0.00104407, -2.251257E-05, 0.00412813, 9.68045E-05, 0.0005187925, -0.9999977, -0.001436772, 0.3503954
 193031090, 0.0001852062, 0.01178668, 0.0001567499, 0.00104407, 9.282266E-05, 0.004373082, 5.950931E-05, 0.0005187925, -0.9999977, -0.001430443, 0.3503954
 193231010, -3.896791E-05, 0.01166101, -9.493606E-05, 0.00104407, 0.0003602914, 0.003709213, -0.0001158918, 0.0005187925, -0.9999977, -0.001423752, 0.3503954
 193430930, 0.0004064747, 0.01136465, -0.0005152059, 0.00104407, -0.0001046804, 0.004172232, 0.0001038601, 0.0005187925, -0.9999977, -0.001431463, 0.3503954
 193630850, -6.037388E-05, 0.01155455, -2.332234E-05, 0.00104407, -0.0001187117, 0.004515335, -0.0003356819, 0.0005187925, -0.9999977, -0.001438493, 0.3503954
 193830770, -6.847858E-05, 0.01181473, -0.0002940062, 0.00104407, 0.0001325727, 0.004478134, 0.0004049671, 0.0005187925, -0.9999977, -0.001444179, 0.3503954
 194030690, 0.0002177841, 0.01156762, -3.329972E-05, 0.00104407, -7.141129E-05, 0.003987764, -0.0003832046, 0.0005187925, -0.9999977, -0.001449442, 0.3503954
 194231443, -6.487327E-05, 0.01125323, -0.0003933219, 0.001046232, 3.620298E-05, 0.003637215, 0.0001383967, 0.0005209541, -0.9999977, -0.00145407, 0.3511209
 194431363, 0.0002152598, 0.01099908, 0.0001227782, 0.001046232, -1.654357E-05, 0.004474256, 0.0002343194, 0.0005187925, -0.9999977, -0.001457559, 0.3511209
 194631283, 2.416898E-06, 0.01205808, 0.0001298921, 0.00104407, -8.087175E-05, 0.004311417, -0.0002543385, 0.0005187925, -0.9999977, -0.001457952, 0.3503954
 194831203, 6.276288E-05, 0.01158564, -0.0004808707, 0.00104407, 7.237073E-05, 0.004222158, 0.0002722068, 0.0005187925, -0.9999977, -0.001458402, 0.3503954
 195031123, -3.003723E-05, 0.01144559, 0.000135768, 0.00104407, -0.0001605234, 0.00394221, 0.0003410488, 0.0005187925, -0.9999977, -0.001457536, 0.3503954
 195231043, -0.0004098718, 0.01114656, 3.515233E-07, 0.00104407, -0.000134931, 0.00412314, -0.0001736602, 0.0005187925, -0.9999977, -0.001456943, 0.3503954
 195430963, -8.400496E-05, 0.01142132, -0.0004015711, 0.00104407, 0.000118746, 0.004267182, 6.547692E-05, 0.0005187925, -0.9999977, -0.001456229, 0.3503954
 195630883, 0.0002382117, 0.01160843, -0.0001233454, 0.00104407, -7.838775E-05, 0.004228207, -2.748343E-05, 0.0005187925, -0.9999978, -0.001453429, 0.3503954
 195830803, 0.0001231461, 0.01128255, -0.0001100874, 0.00104407, -6.669261E-05, 0.003996467, 0.0001177293, 0.0005187925, -0.9999978, -0.00145057, 0.3503954
 196030723, 0.0003375363, 0.01134693, 0.000106266, 0.00104407, 0.0003900318, 0.004172212, 0.0003295355, 0.0005187925, -0.9999978, -0.001446735, 0.3503954
 196231476, 7.978795E-05, 0.01134349, 0.0002865467, 0.001046232, -0.0001936123, 0.004117966, -3.74656E-05, 0.0005209541, -0.9999978, -0.00144279, 0.3511209
 196431396, -9.577994E-05, 0.0115348, -0.0002879743, 0.001046232, -3.680269E-05, 0.004176897, -0.0001900962, 0.0005187925, -0.9999978, -0.001438866, 0.3511209
 196631316, -0.0002074451, 0.01140191, -0.0003669201, 0.00104407, -0.0003876432, 0.003956324, 1.162898E-05, 0.0005187925, -0.9999978, -0.001432786, 0.3503954
 196831236, -0.0004021957, 0.01082718, -0.0001425113, 0.00104407, 0.000203547, 0.004104713, -6.903271E-05, 0.0005187925, -0.9999978, -0.001425883, 0.3503954
 197031156, -0.0002487295, 0.01117207, -2.555181E-05, 0.00104407, -0.0005076985, 0.003926147, -0.0002429562, 0.0005187925, -0.9999978, -0.001420059, 0.3503954
 197231076, -0.0002101208, 0.01144034, -0.0004386147, 0.00104407, 0.0001278691, 0.004254747, -0.0001635922, 0.0005187925, -0.9999978, -0.001414016, 0.3503954
 197430996, 0.0001697616, 0.0115557, -0.0004684148, 0.00104407, 3.221846E-06, 0.003880903, -0.0004933613, 0.0005187925, -0.9999978, -0.001408897, 0.3503954
 197630916, -2.671188E-05, 0.0109903, -0.0008824155, 0.00104407, 6.270029E-05, 0.003989656, -0.0001973638, 0.0005187925, -0.9999978, -0.0014037, 0.3503954
 197830836, 0.0004635418, 0.01155412, -0.0004633623, 0.00104407, 0.0001771509, 0.00431895, -0.0003313753, 0.0005187925, -0.9999978, -0.001396811, 0.3503954
 198030756, 0.0004457614, 0.01173917, -0.0008572844, 0.00104407, -5.572433E-06, 0.004375154, -0.000356634, 0.0005187925, -0.9999978, -0.001390295, 0.3503954
 198230676, 0.0001342249, 0.01190307, -0.0003428065, 0.00104407, 0.0003678859, 0.004034145, -0.0003227314, 0.0005187925, -0.9999978, -0.001383463, 0.3503954
 198431429, 0.0003058359, 0.01136591, -0.0004919011, 0.001046232, 0.0001145856, 0.004123006, -0.0001305538, 0.0005209541, -0.9999978, -0.001379021, 0.3511209
 198631349, 9.48205E-06, 0.01143506, -0.0001993804, 0.001046232, -0.0002164584, 0.004202772, -0.0001417225, 0.0005187925, -0.9999978, -0.001384838, 0.3511209
 198831269, 5.91806E-05, 0.01141121, -0.0001054938, 0.00104407, 0.0002007457, 0.00412046, -0.0005046922, 0.0005187925, -0.9999978, -0.001389498, 0.3503954
 199031189, 0.0003292814, 0.01190432, -0.0006623607, 0.00104407, 0.00024841, 0.004744293, -0.0002932817, 0.0005187925, -0.9999978, -0.001395063, 0.3503954
 199231109, 0.0001584263, 0.01189869, -0.0004134382, 0.00104407, -0.0001273396, 0.004257785, -2.399676E-05, 0.0005187925, -0.9999978, -0.001398915, 0.3503954
 199431029, -0.0001647719, 0.01143559, -3.302922E-05, 0.00104407, 8.282287E-05, 0.004127951, 3.266217E-05, 0.0005187925, -0.9999978, -0.001401676, 0.3503954
 199630949, 6.066972E-05, 0.01123436, 0.0001444727, 0.00104407, 0.00016582, 0.003784254, 5.309364E-05, 0.0005187925, -0.9999978, -0.001403694, 0.3503954
 199830869, -4.112635E-05, 0.01142547, 2.387643E-05, 0.00104407, -0.0003656503, 0.004597835, -0.0001574148, 0.0005187925, -0.9999978, -0.001405186, 0.3503954
 200030789, -0.0002730025, 0.01182887, -0.0003113836, 0.00104407, 0.0005469808, 0.003843601, -0.0002660342, 0.0005187925, -0.9999978, -0.001405728, 0.3503954
 200230709, 0.0007902441, 0.01100734, -4.436266E-05, 0.00104407, 0.0003181984, 0.004239846, 4.557574E-05, 0.0005187925, -0.9999978, -0.001405695, 0.3503954
 200431462, 0.0003548854, 0.01138925, -0.0004614259, 0.001046232, 0.0001608028, 0.003890591, -0.000402789, 0.0005209541, -0.9999978, -0.001406929, 0.3511209
 200631382, 5.128304E-07, 0.01143474, -0.0006598324, 0.001046232, -9.915224E-05, 0.004225076, -0.0002697688, 0.0005187925, -0.9999978, -0.001406044, 0.3511209
 200831302, 5.342738E-05, 0.01128088, -0.0002802991, 0.00104407, -1.648638E-05, 0.004232413, -3.580926E-05, 0.0005187925, -0.9999978, -0.001403679, 0.3503954
 201031222, 7.790699E-05, 0.01149657, 5.005979E-05, 0.00104407, 0.0003914024, 0.003981242, -0.0002452262, 0.0005187925, -0.9999979, -0.001398147, 0.3503954
 201231142, 0.0003101769, 0.01094753, -0.0003679389, 0.00104407, -9.048742E-05, 0.003894739, 0.0001459027, 0.0005187925, -0.9999979, -0.001393225, 0.3503954
 201431062, -0.0003942456, 0.01111004, 0.0001624351, 0.00104407, -0.0002201573, 0.00396952, 8.688069E-06, 0.0005187925, -0.9999979, -0.001388214, 0.3503954
 201630982, -1.674074E-05, 0.01092416, 4.923996E-05, 0.00104407, 0.0001144823, 0.003763177, 0.0003822442, 0.0005187925, -0.9999979, -0.001382701, 0.3503954
 201830902, -0.0001076763, 0.01094207, 0.0002111638, 0.00104407, -0.0006906705, 0.004346688, 4.058643E-06, 0.0005187925, -0.9999979, -0.001376478, 0.3503954
 202030822, -0.0005693528, 0.01170536, -0.0002102642, 0.00104407, 0.0002276228, 0.003950253, -0.0001730179, 0.0005187925, -0.9999979, -0.001370417, 0.3503954
 202230742, 0.0003385124, 0.01129969, -0.0003487646, 0.00104407, 0.0002890018, 0.004242982, 0.0002787547, 0.0005187925, -0.9999978, -0.001363494, 0.3503954
 202430662, 0.0005518195, 0.01144184, -2.786832E-05, 0.00104407, 0.0002213839, 0.004091465, -0.0003620249, 0.0005187925, -0.9999978, -0.001357292, 0.3503954
 202631415, 0.0004506541, 0.01130031, -0.0005541251, 0.001046232, 0.0003162214, 0.00382632, -0.0001997192, 0.0005209541, -0.9999978, -0.001352737, 0.3511209
 202831335, 0.0005259013, 0.0110709, -0.0003898011, 0.001046232, -9.71254E-05, 0.003806216, 3.827947E-05, 0.0005187925, -0.9999978, -0.001346351, 0.3511209
 203031255, -6.489705E-05, 0.01126591, -2.148366E-05, 0.00104407, 0.0004610954, 0.004686798, 0.0002119551, 0.0005187925, -0.9999978, -0.001338868, 0.3503954
 203231175, 0.0003716144, 0.01197388, -0.0001477366, 0.00104407, 6.275208E-05, 0.00431189, -0.0005462905, 0.0005187925, -0.9999978, -0.001331675, 0.3503954
 203431095, 0.0001864705, 0.01139141, -0.0005723798, 0.00104407, 0.0002795926, 0.00411706, 0.0001717679, 0.0005187925, -0.9999978, -0.001322748, 0.3503954
 203631015, 0.0004603826, 0.01160242, 0.000325858, 0.00104407, 0.0004414712, 0.00420375, 2.771937E-05, 0.0005187925, -0.9999978, -0.001315509, 0.3503954
 203830935, 0.0004917094, 0.01175669, -1.08008E-05, 0.00104407, -0.0002012343, 0.004324498, -4.95748E-05, 0.0005187925, -0.9999978, -0.001322408, 0.3503954
 204030855, 0.0001239267, 0.01172624, -0.0002975716, 0.00104407, 0.0001695122, 0.004282063, -0.0003135583, 0.0005187925, -0.9999978, -0.001329195, 0.3503954
 204230775, 0.0002967759, 0.01159196, -0.0005048545, 0.00104407, 0.0004408449, 0.004094803, -0.0002552167, 0.0005187925, -0.9999978, -0.001334444, 0.3503954
 204430695, 0.0006210497, 0.01132359, -0.0005884046, 0.00104407, -0.0001286274, 0.004237097, -0.0002149306, 0.0005187925, -0.9999978, -0.001338779, 0.3503954
 204631448, -8.329547E-05, 0.01151988, -3.265344E-05, 0.001046232, 8.340635E-07, 0.004485552, -0.0003127798, 0.0005209541, -0.9999979, -0.001344768, 0.3511209
 204831368, 0.0001755747, 0.01141158, -0.0001649408, 0.001046232, -8.871641E-05, 0.003897334, 0.0001344095, 0.0005187925, -0.9999978, -0.001346504, 0.3511209
 205031288, -0.0001760694, 0.01127164, -0.0003083581, 0.00104407, 2.634898E-05, 0.004393732, -0.0002629194, 0.0005187925, -0.9999978, -0.001347652, 0.3503954
 205231208, -4.108548E-05, 0.01163848, -0.0003817735, 0.00104407, 0.0002291309, 0.004170197, -0.0002495041, 0.0005187925, -0.9999978, -0.001348746, 0.3503954
 205431128, 0.0003296622, 0.01129158, -0.0001992597, 0.00104407, -0.0001643113, 0.003589872, 0.0003013883, 0.0005187925, -0.9999978, -0.00135015, 0.3503954
 205631048, 0.0001086091, 0.01104558, -1.872024E-05, 0.00104407, 3.008783E-05, 0.00388692, 0.0003011631, 0.0005187925, -0.9999978, -0.001350206, 0.3503954
 205830968, -3.68175E-05, 0.01120741, 0.0001788116, 0.00104407, -0.0001419724, 0.004419236, 0.0001718191, 0.0005187925, -0.9999978, -0.001348299, 0.3503954
 206030888, 3.652048E-05, 0.01158157, -0.0001388959, 0.00104407, -0.0001733153, 0.003970606, -0.0002009768, 0.0005187925, -0.9999978, -0.001346545, 0.3503954
 206230808, 9.763956E-05, 0.01109797, -0.0002092205, 0.00104407, 6.765361E-05, 0.004204396, 6.404342E-05, 0.0005187925, -0.9999978, -0.001344774, 0.3503954
 206430728, 0.0002457747, 0.011334, 0.0001622135, 0.00104407, 0.0003301208, 0.004103301, -0.0001398993, 0.0005187925, -0.9999978, -0.001342901, 0.3503954
 206631481, 0.0005208198, 0.01136362, -0.0001187319, 0.001046232, 1.038005E-05, 0.004365813, 9.576626E-06, 0.0005209541, -0.9999978, -0.001342095, 0.3511209
 206831401, -5.541032E-05, 0.01186197, 9.410511E-05, 0.001046232, -4.702269E-05, 0.004153439, -1.02908E-05, 0.0005187925, -0.9999979, -0.001340573, 0.3511209
 207031321, -0.0001544024, 0.01118916, -0.0003311966, 0.00104407, -0.0001091833, 0.004470403, -0.0004639247, 0.0005187925, -0.9999979, -0.001337991, 0.3503954
 207231241, 7.12761E-05, 0.01172718, -0.0004898722, 0.00104407, -8.147053E-05, 0.003835621, -1.547903E-06, 0.0005187925, -0.9999978, -0.001333253, 0.3503954
 207431161, -0.0001519352, 0.01088278, 3.711167E-05, 0.00104407, -0.0002701218, 0.004172853, 0.000105582, 0.0005187925, -0.9999978, -0.001328357, 0.3503954
 207631081, -8.422899E-05, 0.01137418, -7.073191E-05, 0.00104407, 0.0002471793, 0.004455763, 0.0001358549, 0.0005187925, -0.9999978, -0.001323485, 0.3503954
 207831001, 0.0001615573, 0.01150015, 0.0001830536, 0.00104407, -3.182889E-06, 0.003705389, 0.0006078469, 0.0005187925, -0.9999978, -0.001318677, 0.3503954
 208030921, -0.0001551104, 0.01134756, 0.0004773721, 0.00104407, -0.0001639188, 0.004346884, 0.0004435207, 0.0005187925, -0.9999978, -0.001313293, 0.3503954
 208230841, 1.953386E-05, 0.0116272, 0.0003397191, 0.00104407, 0.000223583, 0.00401131, -0.0002636868, 0.0005187925, -0.9999978, -0.001307344, 0.3503954
 208430761, -1.717905E-06, 0.01127686, -0.0003057365, 0.00104407, -0.0002158479, 0.004464607, -0.0002227202, 0.0005187925, -0.9999978, -0.0013024, 0.3503954
 208630681, -0.0001310829, 0.01189007, -0.000443591, 0.00104407, -2.664611E-05, 0.004201647, -0.00011029, 0.0005187925, -0.9999978, -0.001296205, 0.3503954
 208831434, 7.702544E-05, 0.0119915, -0.0001090738, 0.001046232, 0.0002435064, 0.004450504, -4.233733E-05, 0.0005209541, -0.9999979, -0.001292189, 0.3511209
 209031354, 0.0005527115, 0.01182688, 8.133215E-05, 0.001046232, 0.0005892372, 0.004151233, 0.0007108873, 0.0005187925, -0.9999979, -0.001300871, 0.3511209
 209231274, 0.0006849508, 0.0114404, 0.0007717346, 0.00104407, 0.0001324023, 0.003980059, 0.000511599, 0.0005187925, -0.9999979, -0.001307267, 0.3503954
 209431194, 9.642619E-05, 0.01138314, 0.0003381807, 0.00104407, -0.0003669122, 0.003716158, -0.0003013704, 0.0005187925, -0.9999979, -0.00131292, 0.3503954
 209631114, -0.0005998345, 0.0110154, -0.0002252906, 0.00104407, 2.599007E-05, 0.004250396, 2.823058E-05, 0.0005187925, -0.9999979, -0.001317776, 0.3503954
 209831034, -8.211254E-05, 0.0115809, 1.71557E-05, 0.00104407, 0.00014415, 0.004789694, 2.211996E-05, 0.0005187925, -0.9999979, -0.001321251, 0.3503954
 210030954, 0.0002833547, 0.01211471, 0.000157391, 0.00104407, 3.904401E-05, 0.004239899, -0.0002181599, 0.0005187925, -0.9999979, -0.001324998, 0.3503954
 210230874, -0.0001315874, 0.0115793, -8.098107E-05, 0.00104407, -0.0002934289, 0.004157429, 0.0002441669, 0.0005187925, -0.9999979, -0.001327641, 0.3503954
 210430794, -0.0001819638, 0.01148479, 0.0001315496, 0.00104407, 0.0001987859, 0.004373823, -4.731312E-05, 0.0005187925, -0.9999979, -0.001328825, 0.3503954
 210630714, 0.000138189, 0.01113492, -6.336298E-05, 0.00104407, 0.0004120459, 0.003868414, -0.0001442558, 0.0005187925, -0.9999979, -0.001327206, 0.3503954
 210831467, 0.0003150779, 0.01134016, -1.876234E-05, 0.001046232, 0.0001237441, 0.00375812, 7.605331E-05, 0.0005209541, -0.9999979, -0.001327744, 0.3511209
 211031387, 0.0001804584, 0.01116241, 9.497499E-05, 0.001046232, 1.484095E-05, 0.004257023, -0.0003954664, 0.0005187925, -0.9999979, -0.001327649, 0.3511209
 211231307, 8.901804E-05, 0.01124441, -0.0007074863, 0.00104407, -5.627873E-05, 0.003735699, 7.566732E-07, 0.0005187925, -0.9999979, -0.001326652, 0.3503954
 211431227, -0.0002601136, 0.01107559, -0.000304365, 0.00104407, 0.0003365314, 0.004322659, 0.0001823375, 0.0005187925, -0.9999979, -0.001323969, 0.3503954
 211631147, 0.000267907, 0.01147283, -0.0001277722, 0.00104407, -0.0004133729, 0.0040509, -0.0001943133, 0.0005187925, -0.9999979, -0.001322264, 0.3503954
 211831067, -0.0007930945, 0.01127661, -0.0002039499, 0.00104407, -9.031068E-05, 0.004304145, -0.0004203128, 0.0005187925, -0.9999979, -0.001319887, 0.3503954
 212030987, 4.562678E-05, 0.01174127, -0.0004063781, 0.00104407, 0.0002412255, 0.004437523, 6.021832E-05, 0.0005187925, -0.9999979, -0.001316278, 0.3503954
 212230907, 0.0002682942, 0.01151236, 0.0001811566, 0.00104407, 7.169857E-05, 0.004011549, 0.0002941087, 0.0005187925, -0.9999979, -0.001313005, 0.3503954
 212430827, 0.0002270079, 0.01108933, 0.0001557692, 0.00104407, 0.0003300426, 0.004043595, -0.0003093018, 0.0005187925, -0.9999979, -0.001308361, 0.3503954
 212630747, 0.0004076916, 0.011163, -0.0002445316, 0.00104407, 0.0001256693, 0.003726214, 0.000127317, 0.0005187925, -0.9999979, -0.001303892, 0.3503954
 212830667, -0.0001680331, 0.01069752, -6.074622E-05, 0.00104407, -0.000302989, 0.004175384, -0.0001618083, 0.0005187925, -0.9999979, -0.001299034, 0.3503954
 213031420, -0.0002550801, 0.0113729, -0.0006147583, 0.001046232, -0.0005056476, 0.003695834, -0.0001826263, 0.0005209541, -0.9999979, -0.001295616, 0.3511209
 213231340, -0.0004297771, 0.01123047, 4.562659E-05, 0.001046232, 0.0002396221, 0.00408128, 0.0004856634, 0.0005187925, -0.9999979, -0.001290731, 0.3511209
 213431260, 0.0002829297, 0.01136687, 0.0005288285, 0.00104407, -0.0001733955, 0.004315328, -0.0001571563, 0.0005187925, -0.9999979, -0.001283395, 0.3503954
 213631180, -0.0001239478, 0.01143398, -0.0003591899, 0.00104407, -3.15351E-05, 0.003941263, -0.0005149735, 0.0005187925, -0.9999979, -0.001277928, 0.3503954
 213831100, -9.431936E-05, 0.01117524, -0.0007229178, 0.00104407, -7.616489E-05, 0.003798688, -0.0003264361, 0.0005187925, -0.9999979, -0.001272149, 0.3503954
 214031020, 0.0002698424, 0.01138947, -0.0003965592, 0.00104407, 4.405851E-05, 0.00444072, 7.480489E-05, 0.0005187925, -0.9999979, -0.001266188, 0.3503954
 214230940, 0.0002350468, 0.0119365, 8.04591E-05, 0.00104407, -6.034684E-05, 0.003896944, 5.013128E-06, 0.0005187925, -0.9999979, -0.001275673, 0.3503954
 214430860, 0.0004222616, 0.01113518, 1.791019E-06, 0.00104407, -5.634352E-05, 0.004133657, 8.430685E-06, 0.0005187925, -0.9999979, -0.001284298, 0.3503954
 214630780, 0.0002081754, 0.01168022, -0.0003056245, 0.00104407, -7.253078E-05, 0.004242056, -0.0003329506, 0.0005187925, -0.9999979, -0.001291671, 0.3503954
 214830700, 7.177183E-05, 0.01189158, -0.0003865996, 0.00104407, 8.963492E-05, 0.004635148, -6.781368E-05, 0.0005187925, -0.9999979, -0.001298483, 0.3503954
 215031453, 0.000146063, 0.01202711, -0.0006327858, 0.001046232, 0.000203234, 0.004566312, -0.0003619097, 0.0005209541, -0.9999979, -0.001303837, 0.3511209
 215231373, 9.297941E-05, 0.01220007, -0.0005504829, 0.001046232, 5.755011E-06, 0.004382137, 1.092473E-05, 0.0005187925, -0.9999979, -0.001307905, 0.3511209
 215431293, 0.0001760059, 0.01148663, 6.480722E-05, 0.00104407, 7.874174E-05, 0.003885934, 0.0003583487, 0.0005187925, -0.9999979, -0.001310055, 0.3503954
 215631213, 0.0001205159, 0.01115778, 0.0002760199, 0.00104407, -0.0001411482, 0.003711226, -0.0002367026, 0.0005187925, -0.9999979, -0.001311686, 0.3503954
 215831133, 0.0002619426, 0.01067396, -0.0001900092, 0.00104407, 0.0003416754, 0.004195956, -9.291029E-06, 0.0005187925, -0.9999979, -0.001313014, 0.3503954
 216031053, 0.0005340285, 0.01129207, -8.036734E-05, 0.00104407, 0.000172903, 0.004333717, -9.462862E-05, 0.0005187925, -0.9999979, -0.001313288, 0.3503954
 216230973, 0.0003691057, 0.01157904, -0.0002249545, 0.00104407, 0.0002552878, 0.003619935, 2.386688E-05, 0.0005187925, -0.9999979, -0.001313508, 0.3503954
 216430893, 0.0007453657, 0.01081633, -0.0002958235, 0.00104407, 0.0003158444, 0.004288132, -0.0002457005, 0.0005187925, -0.9999979, -0.001312872, 0.3503954
 216630813, 0.0001282707, 0.01142965, -0.0002845293, 0.00104407, 0.0002494807, 0.004280082, 0.0004974139, 0.0005187925, -0.9999979, -0.001312292, 0.3503954
 216830733, -1.859962E-05, 0.01147598, 4.992869E-05, 0.00104407, -0.0003216151, 0.003678511, -0.0003056244, 0.0005187925, -0.9999979, -0.001309966, 0.3503954
 217031486, -0.0001647083, 0.0107714, -0.0009184429, 0.001046232, -0.0001015363, 0.003808943, -0.0002788441, 0.0005187925, -0.9999979, -0.001306185, 0.3511209
 217231406, 0.0001519676, 0.01100098, -0.0001243591, 0.001046232, -5.478675E-05, 0.004159574, 0.0001148825, 0.0005209541, -0.9999979, -0.00130464, 0.3511209
 217431326, 1.779928E-05, 0.01128671, 2.048866E-05, 0.001046232, 0.0003356722, 0.004167374, -9.845012E-05, 0.0005187925, -0.9999979, -0.001301343, 0.3511209
 217631246, -9.602845E-05, 0.01122787, -0.0003027968, 0.00104407, -0.0003357797, 0.004230755, -0.0003424931, 0.0005187925, -0.9999979, -0.001295936, 0.3503954
 217831166, -0.0006567677, 0.01177829, -0.000374749, 0.00104407, -0.0001840971, 0.004245814, 2.004894E-05, 0.0005187925, -0.9999979, -0.001293579, 0.3503954
 218031086, -8.293839E-05, 0.01153321, -0.0003047773, 0.00104407, -0.0001060276, 0.004098843, -0.0001559266, 0.0005187925, -0.9999979, -0.001290663, 0.3503954
 218231006, -0.0001388962, 0.01121558, -0.0003660812, 0.00104407, -0.0001366398, 0.003990038, -0.0001021823, 0.0005187925, -0.9999979, -0.00128718, 0.3503954
 218430926, 0.000130521, 0.01140379, -0.0001522707, 0.00104407, -4.268505E-05, 0.004398356, -0.0001289281, 0.0005187925, -0.9999979, -0.001283932, 0.3503954
 218630846, -6.134027E-05, 0.01160286, -0.0005133278, 0.00104407, 0.0001143231, 0.004272052, 0.0004039257, 0.0005187925, -0.9999978, -0.001280114, 0.3503954
 218830766, 0.000201218, 0.01173122, 7.404217E-05, 0.00104407, -0.0002331312, 0.004362695, -0.0003895989, 0.0005187925, -0.9999978, -0.001276288, 0.3503954
 219030686, -0.0003746481, 0.01179247, -0.0003675207, 0.00104407, -4.060232E-05, 0.00424493, -0.0002331766, 0.0005187925, -0.9999978, -0.001273118, 0.3503954
 219231439, 0.0002686465, 0.01196902, -0.0005456044, 0.001046232, 0.0001709873, 0.00422345, -0.0002904949, 0.0005209541, -0.9999978, -0.001269583, 0.3511209
 219431359, 0.0004639178, 0.01143454, -0.0002834823, 0.001046232, 0.0005101514, 0.004478869, -9.837387E-05, 0.0005187925, -0.9999979, -0.001279378, 0.3511209
 219631279, 0.0006216629, 0.01156169, -0.0004415653, 0.00104407, 6.071578E-05, 0.004057291, -0.0001974186, 0.0005187925, -0.9999978, -0.001286871, 0.3503954
 219831199, 0.0001801472, 0.01143803, -0.0004112839, 0.00104407, 0.0001394393, 0.004222415, 5.496925E-05, 0.0005187925, -0.9999978, -0.001294653, 0.3503954
 220031119, 0.0001982581, 0.01158246, -0.0001734445, 0.00104407, 3.836585E-06, 0.004492362, 9.628972E-05, 0.0005187925, -0.9999978, -0.001302305, 0.3503954
 220231039, 0.0001129143, 0.01150789, -0.0002183565, 0.00104407, -0.0001025119, 0.00384705, 5.290299E-05, 0.0005187925, -0.9999978, -0.001310391, 0.3503954
 220430959, -0.0002053674, 0.01112125, 0.000127528, 0.00104407, -0.0001003924, 0.004232239, 4.069486E-05, 0.0005187925, -0.9999978, -0.001317536, 0.3503954
 220630879, -0.0002875028, 0.0117196, -5.255506E-05, 0.00104407, -0.0002560692, 0.004196861, -8.295912E-05, 0.0005187925, -0.9999978, -0.001322387, 0.3503954
 220830799, -0.0003481732, 0.0116676, 0.0001351531, 0.00104407, -0.000463472, 0.004964638, 0.0001560779, 0.0005187925, -0.9999978, -0.001326928, 0.3503954
 221030719, -0.0003714453, 0.0123859, -0.0001231809, 0.00104407, 0.0004613331, 0.004018217, 0.0002129692, 0.0005187925, -0.9999978, -0.001330848, 0.3503954
 221231472, 0.0007336512, 0.01112209, -5.76913E-05, 0.001046232, 0.0003042213, 0.003774531, -5.7364E-05, 0.0005209541, -0.9999979, -0.001331807, 0.3511209
 221431392, 0.0002659272, 0.0111137, -0.0004961278, 0.001046232, 0.0004326335, 0.004432534, 2.410997E-05, 0.0005187925, -0.9999978, -0.001335047, 0.3511209
 221631312, 0.0008276131, 0.01174208, -0.02824461, 0.00104407, 0.0002948371, 0.004218529, -0.04220076, 0.0005187925, -0.9999978, -0.001337488, 0.3503954
 221831232, 0.0007534724, 0.01193253, -0.3333985, 0.00104407, -2.326634E-05, 0.004572536, -0.07229279, 0.0005187925, -0.9999978, -0.001337563, 0.3503954
 222031152, -0.0001547656, 0.01183572, 0.005505014, 0.00104407, -0.0002484518, 0.003976623, 0.06920771, 0.0005187925, -0.9999978, -0.001337617, 0.3503954
 222231072, -0.0002673792, 0.01115341, -0.1307016, 0.00104407, 0.000308318, 0.004177223, -0.4881785, 0.0005187925, -0.9999989, -0.001352992, 0.3503954
 222430992, -0.0049064, 0.005625764, -1.80321, 0.00104407, -0.005210441, -0.001594367, -0.6127681, 0.0005187925, -0.9999916, -0.001416194, 0.3503954
 222630912, -0.01903228, -0.009469453, -1.00346, 0.00104407, -0.008862689, -0.005469899, -0.08260973, 0.0005187925, -0.9999794, -0.001492715, 0.3503954
 222830832, -0.02371282, -0.01462128, -0.2137619, 0.00104407, -0.00860733, -0.004537357, -0.1022837, 0.0005187925, -0.9999763, -0.001575482, 0.3503954
 223030752, -0.02224641, -0.01181157, -0.3454984, 0.00104407, -0.007473178, -0.003604884, -0.1474845, 0.0005187925, -0.9999772, -0.001658706, 0.3503954
 223230672, -0.01924732, -0.008382892, -0.3742305, 0.00104407, -0.006366306, -0.002383984, -0.1186989, 0.0005187925, -0.9999795, -0.001726208, 0.3503954
 223431425, -0.01647616, -0.00468215, -0.2996869, 0.001046232, -0.005542858, -0.0007432037, -0.09812418, 0.0005209541, -0.9999825, -0.001782571, 0.3511209
 223631345, -0.01417231, -0.000625705, -0.256933, 0.001046232, -0.004817826, 0.0007661974, -0.08781374, 0.0005187925, -0.9999851, -0.001834018, 0.3511209
 223831265, -0.01231311, 0.003095118, -0.229456, 0.00104407, -0.003857575, 0.001798309, -0.077514, 0.0005187925, -0.999987, -0.001874153, 0.3503954
 224031185, -0.01035272, 0.005511527, -0.2012923, 0.00104407, -0.003669207, 0.00243627, -0.06764794, 0.0005187925, -0.9999878, -0.001892453, 0.3503954
 224231105, -0.008914831, 0.006863423, -0.176132, 0.00104407, -0.002879869, 0.002377024, -0.05953298, 0.0005187925, -0.9999883, -0.001908827, 0.3503954
 224431025, -0.006901756, 0.007432644, -0.1549963, 0.00104407, -0.002204573, 0.003234038, -0.05196145, 0.0005187925, -0.9999888, -0.001934802, 0.3503954
 224630945, -0.005048205, 0.008647269, -0.1358422, 0.00104407, -0.001138563, 0.003295785, -0.04610501, 0.0005187925, -0.9999892, -0.001982742, 0.3503954
 224830865, -0.002763322, 0.009207603, -0.1185763, 0.00104407, -0.0009182796, 0.003511778, -0.03951491, 0.0005187925, -0.9999892, -0.00212318, 0.3503954
 225030785, -0.002467158, 0.009631451, -0.102982, 0.00104407, -0.001039781, 0.003513317, -0.03480129, 0.0005187925, -0.9999875, -0.002539752, 0.3503954
 225230705, -0.002472321, 0.009183198, -0.09141996, 0.00104407, -0.0007657081, 0.003354777, -0.03101856, 0.0005187925, -0.9999845, -0.003061156, 0.3503954
 225431458, -0.002497602, 0.008339767, -0.08118172, 0.001046232, -0.0007974168, 0.002750852, -0.02756415, 0.0005209541, -0.999981, -0.003555144, 0.3511209
 225631378, -0.001550477, 0.00858049, 0.2012497, 0.001046232, 0.0004627146, 0.004214184, 0.3431897, 0.0005187925, -0.9999762, -0.004065677, 0.3511209
 225831298, 0.001921772, 0.01111568, 0.8909394, 0.00104407, 0.0007379785, 0.004046861, 0.29917, 0.0005187925, -0.9999698, -0.004730369, 0.3503954
 226031218, 0.001926744, 0.009740411, 0.7778167, 0.00104407, 0.0005380324, 0.003302788, 0.2618411, 0.0005187925, -0.9999642, -0.005369436, 0.3503954
 226231138, 0.001292633, 0.008461849, 0.6696904, 0.00104407, 0.0002357889, 0.003168894, 0.240977, 0.0005187925, -0.9999596, -0.005821394, 0.3503954
 226431058, -0.009325564, 0.01063901, 0.6152713, 0.00104407, -0.009929514, 0.005248428, 0.1958404, 0.0005187925, -0.9999726, -0.00625336, 0.3503954
 226630978, -0.03413881, 0.02432419, 0.4768283, 0.00104407, -0.01386208, 0.01482195, 0.1377455, 0.0005187925, -0.9999512, -0.006837701, 0.3503954
 226830898, 0.01057482, 0.07532896, 0.3223935, 0.00104407, 0.03783396, 0.04908294, 0.09088159, 0.0005187925, -0.9990066, -0.007003658, 0.3503954
 227030818, 0.200239, 0.189923, 0.2174051, 0.00104407, 0.1221841, 0.09725817, 0.06457403, 0.0005187925, -0.9958304, -0.004822055, 0.3503954
 227230738, 0.3821936, 0.292314, 0.1546461, 0.00104407, 0.1562577, 0.1144977, 0.04512963, 0.0005187925, -0.9939019, -0.005313819, 0.3503954
 227430658, 0.4112755, 0.2792798, 0.1027138, 0.00104407, 0.1371096, 0.07826009, 0.02702282, 0.0005187925, -0.9963363, -0.01154823, 0.3503954
 227631411, 0.3381716, 0.1638171, 0.05619398, 0.001046232, 0.1039376, 0.03644311, 0.01151357, 0.0005209541, -0.9981676, -0.01469378, 0.3511209
 227831331, 0.2661016, 0.09448227, 0.01360041, 0.001046232, 0.08992945, 0.03699456, -0.003597816, 0.0005187925, -0.9977331, -0.008383169, 0.3511209
 228031251, 0.2493382, 0.138064, -0.01980367, 0.00104407, 0.09360623, 0.07094812, -0.01360963, 0.0005187925, -0.9945306, 0.05148071, 0.3503954
 228231171, 0.2690254, 0.2150892, -0.06100616, 0.00104407, 0.1046987, 0.08496358, -0.03455773, 0.0005187925, -0.9754044, 0.2069764, 0.3503954
 228431091, 0.2997529, 0.2077269, -0.1130299, 0.00104407, 0.1162883, 0.05971456, -0.0502299, 0.0005187925, -0.9029282, 0.4296841, 0.3503954
 228631011, 0.3301147, 0.1370699, -0.1460999, 0.00104407, 0.1254022, 0.03891418, -0.05684365, 0.0005187925, -0.7434515, 0.6656199, 0.3503954
 228830931, 0.3443494, 0.09882969, -0.1604777, 0.00104407, 0.1248372, 0.03173067, -0.06088171, 0.0005187925, -0.5046829, 0.8531156, 0.3503954
 229030851, 0.3449019, 0.07220205, -0.1657913, 0.00104407, 0.127517, 0.01823769, -0.05878205, 0.0005187925, -0.231921, 0.9537988, 0.3503954
 229230771, 0.3554787, 0.0373081, -0.1521882, 0.00104407, 0.1316767, 0.008066009, -0.05039654, 0.0005187925, 0.02250694, 0.9732493, 0.3503954
 229430691, 0.3478371, 0.01936961, -0.1310688, 0.00104407, 0.1171355, 0.006330686, -0.04398257, 0.0005187925, 0.231485, 0.9440737, 0.3503954
 229631444, 0.2884771, 0.02902407, -0.1127888, 0.001046232, 0.08763269, 0.0175595, -0.03655776, 0.0005209541, 0.3959306, 0.8897626, 0.3511209
 229831364, 0.2324671, 0.04563843, -0.08767678, 0.001046232, 0.0854886, 0.01206585, -0.02550343, 0.0005187925, 0.5062549, 0.8309829, 0.3511209
 230031284, 0.2553728, 0.01140712, -0.06457869, 0.00104407, 0.1028207, -0.006982182, -0.02210056, 0.0005187925, 0.546818, 0.8032321, 0.3503954
 230231204, 0.2727736, -0.01168412, -0.05983857, 0.00104407, 0.09073947, 0.004359022, -0.02117762, 0.0005187925, 0.5288643, 0.8135737, 0.3503954
 230431124, 0.2159417, 0.0524029, -0.05506599, 0.00104407, 0.06181147, 0.04076112, -0.01833914, 0.0005187925, 0.4738718, 0.8449211, 0.3503954
 230631044, 0.1543082, 0.143109, -0.04440863, 0.00104407, 0.05118509, 0.06612816, -0.01315768, 0.0005187925, 0.4046859, 0.8769429, 0.3503954
 230830964, 0.1351677, 0.1859767, -0.004764873, 0.00104407, 0.04449281, 0.06751883, 0.01640962, 0.0005187925, 0.3476976, 0.8998079, 0.3503954
 231030884, 0.09458084, 0.1697662, 0.05363171, 0.00104407, 0.01823829, 0.05207139, 0.02417256, 0.0005187925, 0.322203, 0.9142256, 0.3503954
 231230804, 0.02234344, 0.1255951, 0.06904961, 0.00104407, -0.004024194, 0.03786054, 0.02647448, 0.0005187925, 0.3276914, 0.9157662, 0.3503954
 231430724, -0.01415187, 0.09469081, 0.0727091, 0.00104407, -0.004844145, 0.02964476, 0.02760431, 0.0005187925, 0.3541911, 0.9054393, 0.3503954
 231631477, 0.002306791, 0.06173854, 0.07060792, 0.001046232, 0.01049131, 0.01118214, 0.02140909, 0.0005209541, 0.3870925, 0.8903036, 0.3511209
 231831397, 0.03993158, 0.01103694, 0.04608539, 0.001046232, 0.01902167, -0.004098224, 0.007825067, 0.0005187925, 0.4123113, 0.8790122, 0.3511209
 232031317, 0.04326965, -0.009523235, 0.01289114, 0.00104407, 0.009352648, -0.0006265678, 0.001490637, 0.0005187925, 0.4237912, 0.8751076, 0.3503954
 232231237, 0.004464613, 0.02087495, 0.006747565, 0.00104407, -0.009976297, 0.0205437, 0.007206434, 0.0005187925, 0.4235561, 0.8761798, 0.3503954
 232431157, -0.038393, 0.08053037, 0.02238375, 0.00104407, -0.01707271, 0.04072391, 0.006054906, 0.0005187925, 0.4188472, 0.8777667, 0.3503954
 232631077, -0.04598415, 0.1203907, 0.01530905, 0.00104407, -0.01697539, 0.04689695, 0.007738989, 0.0005187925, 0.4175884, 0.8777484, 0.3503954
 232830997, -0.04170215, 0.1152685, 0.02052222, 0.00104407, -0.01192602, 0.03291664, 0.006894556, 0.0005187925, 0.4228154, 0.8753686, 0.3503954
 233030917, -0.02131563, 0.0628598, 0.01489147, 0.00104407, -0.001707543, 0.009060571, 0.001579903, 0.0005187925, 0.430864, 0.8717395, 0.3503954
 233230837, 0.005988833, -0.000180623, 0.001926921, 0.00104407, 0.006758399, -0.01335765, 0.001735907, 0.0005187925, 0.4358349, 0.8696731, 0.3503954
 233430757, 0.02275868, -0.04770921, 0.003439352, 0.00104407, 0.0100788, -0.02089716, -0.001614854, 0.0005187925, 0.4330936, 0.8712474, 0.3503954
 233630677, 0.02320349, -0.04874755, -0.005633775, 0.00104407, 0.005617236, -0.0126825, -0.001513268, 0.0005187925, 0.4229848, 0.876153, 0.3503954
 233831430, 0.004480965, -0.02902426, 0.02787219, 0.001046232, -5.388901E-05, -0.007519938, 0.01213006, 0.0005209541, 0.4085407, 0.8828133, 0.3511209
 234031350, 0.01045024, -0.03056539, 0.0169258, 0.001046232, 0.009896821, -0.01889418, 0.0004145037, 0.0005187925, 0.3918234, 0.8899918, 0.3511209
 234231270, 0.03490749, -0.0669265, -0.00679545, 0.00104407, 0.01610069, -0.03017792, -0.008161974, 0.0005187925, 0.3738692, 0.8977017, 0.3503954
 234431190, 0.03998549, -0.07791016, -0.02376139, 0.00104407, 0.01121226, -0.0241938, -0.007909919, 0.0005187925, 0.3571101, 0.9047669, 0.3503954
 234631110, 0.02040923, -0.04944292, -0.01620565, 0.00104407, 0.002002033, -0.008975873, -0.001513816, 0.0005187925, 0.3445157, 0.9097403, 0.3503954
 234831030, -0.003878772, 0.0002717269, 0.002377941, 0.00104407, -0.006552676, 0.01370079, 0.004778824, 0.0005187925, 0.3398692, 0.9111569, 0.3503954
 235030950, -0.02471643, 0.0580826, 0.01841792, 0.00104407, -0.0121296, 0.02996226, 0.009542556, 0.0005187925, 0.3462737, 0.9083747, 0.3503954
 235230870, -0.03281842, 0.08127744, 0.02793058, 0.00104407, -0.01101001, 0.02729383, 0.01147782, 0.0005187925, 0.3618608, 0.9020174, 0.3503954
 235430790, -0.0221737, 0.05755636, 0.0251074, 0.00104407, -0.002874568, 0.01137895, 0.002365231, 0.0005187925, 0.3802188, 0.8943176, 0.3503954
 235630710, -0.008084372, 0.01783746, 0.01982364, 0.00104407, -0.00964135, -0.0008328706, 0.03711515, 0.0005187925, 0.3951165, 0.8886284, 0.3503954
 235831463, -0.07247306, -0.02572867, 0.1743781, 0.001046232, -0.05354783, -0.02394203, 0.09374838, 0.0005209541, 0.4050435, 0.8928537, 0.3511209
 236031383, -0.189758, -0.1024128, 0.2923185, 0.001046232, -0.08367678, -0.05758987, 0.1251379, 0.0005187925, 0.4015422, 0.9001492, 0.3511209
 236231303, -0.1831712, -0.1966298, 0.371513, 0.00104407, -0.03736805, -0.09109857, 0.1479916, 0.0005187925, 0.3721991, 0.9067971, 0.3503954
 236431223, -0.04389166, -0.2629174, 0.3975554, 0.00104407, 0.01076534, -0.09921155, 0.1382349, 0.0005187925, 0.3148678, 0.9198667, 0.3503954
 236631143, 0.05188852, -0.2621883, 0.3534721, 0.00104407, 0.02762162, -0.08999444, 0.1150105, 0.0005187925, 0.2387411, 0.9379343, 0.3503954
 236831063, 0.08037131, -0.2322568, 0.2877054, 0.00104407, 0.0315225, -0.07684383, 0.09065039, 0.0005187925, 0.1596587, 0.9520597, 0.3503954
 237030983, 0.0900606, -0.1900868, 0.2214597, 0.00104407, 0.03512235, -0.05798394, 0.06712045, 0.0005187925, 0.09424724, 0.9585092, 0.3503954
 237230903, 0.1027781, -0.1445172, 0.161576, 0.00104407, 0.04097816, -0.04631401, 0.04728775, 0.0005187925, 0.05212966, 0.9595658, 0.3503954
 237430823, 0.1170024, -0.1232513, 0.1112666, 0.00104407, 0.0441952, -0.04324369, 0.03163879, 0.0005187925, 0.03275164, 0.9590502, 0.3503954
 237630743, 0.122683, -0.1136162, 0.07284655, 0.00104407, 0.04574324, -0.038316, 0.01981226, 0.0005187925, 0.0297646, 0.9580114, 0.3503954
 237830663, 0.1277944, -0.1012175, 0.04520137, 0.00104407, 0.0484685, -0.03544669, 0.01179723, 0.0005187925, 0.03439881, 0.9558954, 0.3503954
 238031416, 0.1352652, -0.1116337, 0.02694764, 0.001046232, 0.04998881, -0.04980362, 0.007068533, 0.0005209541, 0.03638835, 0.9544912, 0.3511209
 238231336, 0.1320653, -0.1440586, 0.01553095, 0.001046232, 0.04517238, -0.05324507, 0.0035149, 0.0005187925, 0.02910399, 0.9546014, 0.3511209
 238431256, 0.1159517, -0.1272099, 0.00692149, 0.00104407, 0.03802324, -0.03531626, 0.001556374, 0.0005187925, 0.01426674, 0.9550607, 0.3503954
 238631176, 0.09801489, -0.07849666, 0.003746565, 0.00104407, 0.03281472, -0.01985474, 0.0009141493, 0.0005187925, -0.003081468, 0.9550582, 0.3503954
 238831096, 0.08552409, -0.04768613, 0.002914841, 0.00104407, 0.02896803, -0.01437659, 0.0008651621, 0.0005187925, -0.01819702, 0.9547276, 0.3503954
 239031016, 0.07435345, -0.03729555, 0.003442894, 0.00104407, 0.02464333, -0.01292545, 0.001636924, 0.0005187925, -0.02813229, 0.9545277, 0.3503954
 239230936, 0.06395862, -0.0321624, 0.004066268, 0.00104407, 0.02197336, -0.009998675, 0.001013553, 0.0005187925, -0.03239075, 0.9540785, 0.3503954
 239430856, 0.06064665, -0.02241741, 0.003834046, 0.00104407, 0.02279979, -0.005999412, 0.001701137, 0.0005187925, -0.03233306, 0.952939, 0.3503954
 239630776, 0.06208185, -0.01526243, 0.003813072, 0.00104407, 0.02155815, -0.005071744, 0.0007743669, 0.0005187925, -0.03011917, 0.9527357, 0.3503954
 239830696, 0.04812023, -0.01571786, 0.0004227103, 0.00104407, 0.01059227, -0.00705228, -0.0007738284, 0.0005187925, -0.02829692, 0.9551297, 0.3503954
 240031449, 0.0186372, -0.02540107, -0.001842371, 0.001046232, 0.002825655, -0.0126674, -0.0004199867, 0.0005209541, -0.02914545, 0.9560705, 0.3511209
 240231369, 0.01482458, -0.03221568, 6.528587E-05, 0.001046232, 0.01056696, -0.009282285, 0.0004334253, 0.0005187925, -0.03285812, 0.9533174, 0.3511209
 240431289, 0.04495069, -0.01440416, 0.002312663, 0.00104407, 0.02506114, 0.0002598447, 0.0009268998, 0.0005187925, -0.03742361, 0.9490463, 0.3503954
 240631209, 0.07630915, 0.005339927, 0.002498048, 0.00104407, 0.03056832, 0.003522225, 0.0003201063, 0.0005187925, -0.04107947, 0.9470018, 0.3503954
 240831129, 0.07682522, -3.761239E-05, -0.0004247968, 0.00104407, 0.02358642, -0.006224773, -0.0007953287, 0.0005187925, -0.04406369, 0.9479183, 0.3503954
 241031049, 0.05389145, -0.0291491, -0.002055956, 0.00104407, 0.01509103, -0.01633617, -0.0008008886, 0.0005187925, -0.048027, 0.9488352, 0.3503954
 241230969, 0.03519486, -0.04621946, -0.001510229, 0.00104407, 0.01028106, -0.01659287, -0.0007496981, 0.0005187925, -0.0537256, 0.9488993, 0.3503954
 241430889, 0.0299364, -0.03170194, -0.0008760727, 0.00104407, 0.01282952, -0.003411666, -0.0002229716, 0.0005187925, -0.05949962, 0.9473996, 0.3503954
 241630809, 0.03704161, 0.01001252, 5.529255E-07, 0.00104407, 0.01356552, 0.01263115, -0.0001481894, 0.0005187925, -0.06226971, 0.9469776, 0.3503954
 241830729, 0.03163817, 0.04609486, -0.001054433, 0.00104407, 0.008210203, 0.02157202, -0.0003066004, 0.0005187925, -0.05994212, 0.9483912, 0.3503954
 242031482, 0.01244649, 0.05678571, -0.0009186799, 0.001046232, -0.0001705516, 0.01836535, -0.0006251713, 0.0005209541, -0.05307768, 0.9503851, 0.3511209
 242231402, -0.003709689, 0.0422141, -0.0003108326, 0.001046232, -0.002036899, 0.01143446, 0.0005041108, 0.0005187925, -0.04454448, 0.9506027, 0.3511209
 242431322, 0.001324838, 0.02602767, 0.002257067, 0.00104407, 0.004545784, 0.006568325, 0.001054315, 0.0005187925, -0.03720213, 0.948934, 0.3503954
 242631242, 0.01390316, 0.01078814, 0.00171328, 0.00104407, 0.004420665, 0.000126743, -0.0002909712, 0.0005187925, -0.03377639, 0.9493386, 0.3503954
 242831162, 0.003602542, 0.001735192, -0.0015342, 0.00104407, -0.003039559, 0.003097063, -0.0008789622, 0.0005187925, -0.03462406, 0.9510281, 0.3503954
 243031082, -0.01252177, 0.0208518, -0.001344181, 0.00104407, -0.005672353, 0.01375138, -0.000443392, 0.0005187925, -0.03696943, 0.9514397, 0.3503954
 243231002, -0.01387228, 0.04447727, -0.0006033247, 0.00104407, -0.003976037, 0.01915382, -0.0004552986, 0.0005187925, -0.03809459, 0.9511258, 0.3503954
 243430922, -0.01520413, 0.05244571, -0.001989021, 0.00104407, -0.008762181, 0.01851133, -0.0009522967, 0.0005187925, -0.03654949, 0.9526856, 0.3503954
 243630842, -0.02829175, 0.03833774, -0.002739142, 0.00104407, -0.01129419, 0.006179566, -0.000474287, 0.0005187925, -0.03387835, 0.9530757, 0.3503954
 243830762, -0.02821929, 0.008265427, -0.001116794, 0.00104407, -0.008999537, 0.0004361963, -0.0004533659, 0.0005187925, -0.03211869, 0.9528129, 0.3503954
 244030682, -0.02795947, 0.007509971, -0.0007936485, 0.00104407, -0.0128058, 0.006792988, -0.000662859, 0.0005187925, -0.03137011, 0.9540808, 0.3503954
 244231435, -0.03519259, 0.03093074, -0.000500357, 0.001046232, -0.01172048, 0.01765367, 0.0006350682, 0.0005209541, -0.0302708, 0.9538213, 0.3511209
 244431355, -0.02390746, 0.05186275, 0.002365763, 0.001046232, -0.004371982, 0.01911067, 0.001262945, 0.0005187925, -0.02777758, 0.9522545, 0.3511209
 244631275, -0.008462006, 0.05051833, 0.001048434, 0.00104407, -0.002155708, 0.01833056, -9.404949E-05, 0.0005187925, -0.02356134, 0.9520229, 0.3503954
 244831195, -0.00815537, 0.05085137, -0.0009963661, 0.00104407, -0.004412476, 0.01873178, -0.0005358329, 0.0005187925, -0.01788625, 0.952708, 0.3503954
 245031115, -0.0137345, 0.04590514, -0.00168745, 0.00104407, -0.005730808, 0.01314673, -0.0006620405, 0.0005187925, -0.01226548, 0.9529915, 0.3503954
 245231035, -0.01637838, 0.02586565, -0.001396741, 0.00104407, -0.006868024, 0.003706465, 0.0003115122, 0.0005187925, -0.008838997, 0.953373, 0.3503954
 245430955, -0.0186377, -0.001068017, -0.001265559, 0.00104407, -0.006850464, -0.006565363, -0.0008848382, 0.0005187925, -0.009417513, 0.953316, 0.3503954
 245630875, -0.01573305, -0.03341058, -0.001986256, 0.00104407, -0.004281711, -0.02024987, 0.0006822646, 0.0005187925, -0.01559942, 0.9523956, 0.3503954
 245830795, -0.006699367, -0.05947957, 0.001098627, 0.00104407, -0.0001864274, -0.02144838, -7.039352E-05, 0.0005187925, -0.0268659, 0.9511944, 0.3503954
 246030715, 0.001770353, -0.04577237, -0.0002190298, 0.00104407, 0.001663566, -0.00939062, -0.0001222014, 0.0005187925, -0.03959125, 0.9503318, 0.3503954
 246231468, 0.005106518, -0.01266858, -0.0002166729, 0.001046232, 0.00264101, 0.001615848, -0.000412974, 0.0005209541, -0.04953611, 0.9495522, 0.3511209
 246431388, 0.008224994, 0.005455816, -0.0009093726, 0.001046232, 0.003633417, 0.0008120188, -0.0002692933, 0.0005187925, -0.05460682, 0.948666, 0.3511209
 246631308, 0.01481107, -0.005901165, -4.747755E-05, 0.00104407, 0.008208878, -0.005966889, 4.094391E-06, 0.0005187925, -0.05574203, 0.9467946, 0.3503954
 246831228, 0.02957023, -0.01027399, 0.001068356, 0.00104407, 0.01429829, 0.001613654, 5.331767E-05, 0.0005187925, -0.0537647, 0.9453769, 0.3503954
 247031148, 0.03631258, 0.02106105, -0.001182668, 0.00104407, 0.01067239, 0.01523173, -0.0004279964, 0.0005187925, -0.04859326, 0.9463091, 0.3503954
 247231068, 0.02111652, 0.03666934, -0.001638632, 0.00104407, 0.003394358, 0.007674347, -0.0004438126, 0.0005187925, -0.04239782, 0.9479929, 0.3503954
 247430988, 0.004253997, 0.001428512, -0.0009431997, 0.00104407, -0.0003265313, -0.009199118, 0.0002043145, 0.0005187925, -0.03911243, 0.9483685, 0.3503954
 247630908, 0.001415926, -0.03793731, 0.001019818, 0.00104407, 0.00193563, -0.01937639, 0.0009179316, 0.0005187925, -0.04128357, 0.9472741, 0.3503954
 247830828, 0.005276908, -0.04423841, 0.002210516, 0.00104407, 0.000919849, -0.008648938, -0.0001845301, 0.0005187925, -0.04816776, 0.9475127, 0.3503954
 248030748, -0.002826763, 0.002461375, -0.001791252, 0.00104407, -0.003693621, 0.01445022, -0.0009285406, 0.0005187925, -0.05472981, 0.9485466, 0.3503954
