TimeUS,CAN,CAE,CAD,CAe,NAN,NAE,NAD,NAe,m10,m00,Gye
 170360995, -4.434429E-06, 5.380528E-05, -2.843196E-06, 6.484905E-06, 0, 0, 0, 0, -0.9999977, -0.001449117, 1.854584
 170430967, -0.4184271, 3.561745, -0.3325282, 0.4422685, -0.2259632, 2.834935, 0.1693808, 0.442262, -0.9999977, -0.00144966, 25.97484
 170630887, -0.2260262, 2.842475, 0.1691289, 0.4427881, -0.0001655126, 0.004424516, -0.0003299763, 0.0005187925, -0.9999977, -0.0014474, 148.6017
 170830807, -0.0003554723, 0.01174412, -0.0004247467, 0.00104407, -1.523304E-05, 0.004344305, -0.0002288129, 0.0005187925, -0.9999977, -0.00144437, 0.3503954
 171030727, -0.0001487146, 0.01168151, -0.0005414334, 0.00104407, 8.528516E-06, 0.004389978, 5.352382E-05, 0.0005187925, -0.9999977, -0.001441103, 0.3503954
 171231480, 0.0003305979, 0.01173731, -0.0001914069, 0.001046232, 0.0002353749, 0.004456764, -0.0003357692, 0.0005209541, -0.9999977, -0.001435929, 0.3511209
 171431400, 8.431703E-05, 0.01184733, -0.000623161, 0.001046232, 0.0001346344, 0.004278413, 0.0001269643, 0.0005187925, -0.9999977, -0.001433114, 0.3511209
 171631320, 0.0001265604, 0.01166444, -0.0003221034, 0.00104407, 0.000263421, 0.004601813, -0.0002871759, 0.0005187925, -0.9999977, -0.00142888, 0.3503954
 171831240, 0.0001792077, 0.01212106, -0.0005262724, 0.00104407, 0.0002370952, 0.00433872, 0.0003310119, 0.0005187925, -0.9999977, -0.001421673, 0.3503954
 172031160, 0.0002520476, 0.01203539, 0.0001801451, 0.00104407, 9.785861E-05, 0.004763958, -0.0001260885, 0.0005187925, -0.9999977, -0.001415, 0.3503954
 172231080, 0.000253038, 0.01209715, -0.0004167092, 0.00104407, -0.0002143365, 0.003953445, -0.0003456831, 0.0005187925, -0.9999977, -0.001407962, 0.3503954
 172431000, 1.708353E-05, 0.01124748, -0.0004616439, 0.00104407, 0.0002386736, 0.00407766, 3.013597E-06, 0.0005187925, -0.9999977, -0.001400471, 0.3503954
 172630920, 0.000429313, 0.01146091, 1.193157E-05, 0.00104407, -0.0001511261, 0.004286833, 0.0003393186, 0.0005187925, -0.9999977, -0.001408582, 0.3503954
 172830840, 8.03038E-06, 0.01179377, 0.0005346197, 0.00104407, -3.402275E-05, 0.004370961, -5.20748E-05, 0.0005187925, -0.9999977, -0.001415977, 0.3503954
 173030760, -0.0003253446, 0.01167915, -0.0003398607, 0.00104407, -0.000532148, 0.004033734, -0.0004073135, 0.0005187925, -0.9999977, -0.001422529, 0.3503954
 173230680, -0.0005289877, 0.0114648, -0.0007679669, 0.00104407, -0.0001020262, 0.004297253, -0.0002187474, 0.0005187925, -0.9999977, -0.001428359, 0.3503954
 173431433, -0.000253624, 0.01193644, -0.0004850168, 0.001046232, 0.0001530005, 0.004525252, -0.0005906104, 0.0005209541, -0.9999977, -0.001433283, 0.3511209
 173631353, 0.000121821, 0.01218255, -0.0009262157, 0.001046232, 0.000304642, 0.004526895, 4.80257E-05, 0.0005187925, -0.9999976, -0.001437524, 0.3511209
 173831273, 0.0004325375, 0.01192614, -0.0001249815, 0.00104407, 0.0001461085, 0.003887108, 5.071994E-05, 0.0005187925, -0.9999976, -0.001441673, 0.3503954
 174031193, 0.0002163054, 0.01129958, -0.0001570729, 0.00104407, 0.0002478507, 0.004034205, -0.0004421777, 0.0005187925, -0.9999976, -0.001445998, 0.3503954
 174231113, 1.633076E-05, 0.01123779, -0.0005979578, 0.00104407, -4.517068E-05, 0.003833087, 0.0004684743, 0.0005187925, -0.9999976, -0.001448976, 0.3503954
 174431033, -0.0001912519, 0.01131418, 0.0007114033, 0.00104407, -0.0001319666, 0.004421157, -2.570316E-05, 0.0005187925, -0.9999976, -0.00145025, 0.3503954
 174630953, -0.0002086936, 0.01182136, -0.0001820098, 0.00104407, 0.0003037433, 0.004362002, -0.0002805684, 0.0005187925, -0.9999977, -0.001451332, 0.3503954
 174830873, 0.0002449598, 0.01189281, -0.0002897321, 0.00104407, 0.0001889626, 0.003623515, 6.987279E-05, 0.0005187925, -0.9999977, -0.00145133, 0.3503954
 175030793, 4.985392E-05, 0.01080361, -0.0001715903, 0.00104407, -0.0001299223, 0.004083194, -0.0004559469, 0.0005187925, -0.9999977, -0.001451481, 0.3503954
 175230713, -0.0004615901, 0.01130035, -0.0005240358, 0.00104407, -0.0002823066, 0.004374426, -0.000445525, 0.0005187925, -0.9999977, -0.001451119, 0.3503954
 175431466, -0.00038398, 0.01188935, -0.0004292094, 0.001046232, -0.0004326559, 0.003997101, 0.0002379407, 0.0005209541, -0.9999977, -0.001447718, 0.3511209
 175631386, -0.0005390596, 0.011713, 9.703093E-05, 0.001046232, -0.0002952314, 0.004354808, -0.000172546, 0.0005187925, -0.9999977, -0.001445555, 0.3511209
 175831306, -0.0001250298, 0.01163932, -0.0003971216, 0.00104407, 0.0003669274, 0.004204982, 1.592356E-05, 0.0005187925, -0.9999977, -0.00144155, 0.3503954
 176031226, 0.0003280503, 0.01168311, -0.0003100621, 0.00104407, -0.0001066294, 0.004027589, 0.0002331039, 0.0005187925, -0.9999977, -0.00143671, 0.3503954
 176231146, -0.0001549646, 0.01123618, 0.000393275, 0.00104407, 0.0002211294, 0.004157313, 0.0001366986, 0.0005187925, -0.9999977, -0.001432743, 0.3503954
 176431066, 0.0002586044, 0.01129141, -0.000281978, 0.00104407, -0.0001196199, 0.0044793, -0.0001946898, 0.0005187925, -0.9999977, -0.001428879, 0.3503954
 176630986, -5.183167E-05, 0.01207598, -0.0003702756, 0.00104407, -5.915484E-05, 0.00437913, -0.0002780124, 0.0005187925, -0.9999977, -0.001423034, 0.3503954
 176830906, 0.000103623, 0.01153348, -0.000378954, 0.00104407, -0.0004205395, 0.004362144, -0.0004924401, 0.0005187925, -0.9999977, -0.001417963, 0.3503954
 177030826, -0.0003517399, 0.01193051, -0.0005827968, 0.00104407, -0.0002355374, 0.004411124, -0.0003795095, 0.0005187925, -0.9999977, -0.001413054, 0.3503954
 177230746, 8.327305E-05, 0.0119151, -0.0005914613, 0.00104407, 1.164569E-05, 0.004318927, -0.0003724945, 0.0005187925, -0.9999977, -0.001406078, 0.3503954
 177430666, 0.0002188741, 0.01173795, -0.000642635, 0.00104407, 0.0003517657, 0.004112091, -0.0005611296, 0.0005187925, -0.9999977, -0.001398526, 0.3503954
 177631419, 0.0005338733, 0.01129585, -0.0004364136, 0.001046232, 7.74139E-05, 0.003768802, 0.0001894586, 0.0005209541, -0.9999977, -0.001389224, 0.3511209
 177831339, 0.0004831464, 0.01128306, 0.0001335289, 0.001046232, 0.0002054056, 0.004030779, 0.0002206218, 0.0005187925, -0.9999977, -0.001396539, 0.3511209
 178031259, 0.0002502268, 0.01122627, -0.0001263673, 0.00104407, 0.0001685204, 0.003920811, 0.0002193408, 0.0005187925, -0.9999978, -0.001401072, 0.3503954
 178231179, 0.0002468741, 0.01129375, 0.0002320625, 0.00104407, 0.0002540645, 0.004153961, -3.366673E-05, 0.0005187925, -0.9999977, -0.001405488, 0.3503954
 178431099, 0.0001031409, 0.01137432, -0.000247022, 0.00104407, -0.0001083393, 0.004181821, 0.0002367586, 0.0005187925, -0.9999977, -0.001410625, 0.3503954
 178631019, -0.0003175395, 0.01153468, 0.0001016496, 0.00104407, -0.0001102625, 0.003972104, 0.0004122705, 0.0005187925, -0.9999978, -0.001415237, 0.3503954
 178830939, 0.0001110705, 0.01132281, 0.0002958699, 0.00104407, -4.482166E-05, 0.004315227, 0.0001664986, 0.0005187925, -0.9999978, -0.001417351, 0.3503954
 179030859, 0.0002683024, 0.01166927, -9.400617E-06, 0.00104407, 0.0001506459, 0.004254952, -3.668983E-06, 0.0005187925, -0.9999978, -0.001419125, 0.3503954
 179230779, 2.078411E-06, 0.01114192, -0.0004077508, 0.00104407, -3.210848E-06, 0.003915914, 3.980951E-05, 0.0005187925, -0.9999978, -0.001420056, 0.3503954
 179430699, -0.0002395532, 0.01083025, -0.0003131114, 0.00104407, -0.0003801606, 0.004160073, -0.0005492539, 0.0005187925, -0.9999977, -0.001419988, 0.3503954
 179631452, -0.0002168388, 0.01173433, -0.0007491551, 0.001046232, 7.416322E-05, 0.004624826, -0.0003954899, 0.0005209541, -0.9999978, -0.001419886, 0.3511209
 179831372, 9.109621E-05, 0.01196425, -0.0005651557, 0.001046232, 0.0001257245, 0.004363994, 0.0002406004, 0.0005187925, -0.9999977, -0.001420965, 0.3511209
 180031292, -8.39935E-05, 0.01156022, 0.0003034653, 0.00104407, -0.0001950684, 0.004211363, -0.0003048952, 0.0005187925, -0.9999977, -0.001419329, 0.3503954
 180231212, -0.0002279491, 0.01161194, -0.0004499637, 0.00104407, -9.611951E-05, 0.004242999, -0.0002046005, 0.0005187925, -0.9999977, -0.001419343, 0.3503954
 180431132, -0.0002069913, 0.01161693, -0.0005900966, 0.00104407, 0.0002182939, 0.004304794, 0.0001911257, 0.0005187925, -0.9999977, -0.001419054, 0.3503954
 180631052, 0.000119839, 0.01169226, 1.326383E-05, 0.00104407, -0.0001368159, 0.004341363, -0.0001601567, 0.0005187925, -0.9999977, -0.001416691, 0.3503954
 180830972, -0.0001851639, 0.01130206, -0.0003625849, 0.00104407, 0.0002983907, 0.003881477, -0.0001965058, 0.0005187925, -0.9999977, -0.001414185, 0.3503954
 181030892, 0.0001283325, 0.01091014, -0.0003867342, 0.00104407, -0.0003817953, 0.004337097, -5.69521E-05, 0.0005187925, -0.9999977, -0.001413274, 0.3503954
 181230812, -0.0006537326, 0.0115957, -0.0002455325, 0.00104407, 0.0002719685, 0.004185661, -0.0001521789, 0.0005187925, -0.9999977, -0.001411428, 0.3503954
 181430732, -3.413074E-05, 0.01130807, -0.00023321, 0.00104407, 0.000198273, 0.003898787, 9.82535E-05, 0.0005187925, -0.9999977, -0.001408361, 0.3503954
 181631485, 0.0004735739, 0.01098036, 0.0001454828, 0.001046232, 0.0003027566, 0.004215498, 0.0004283486, 0.0005209541, -0.9999977, -0.001403994, 0.3511209
 181831405, 0.0004233692, 0.01170561, 0.0003267312, 0.001046232, -0.0002358427, 0.004372128, -0.0001060824, 0.0005187925, -0.9999977, -0.001401574, 0.3511209
 182031325, 5.540528E-05, 0.01182116, -0.0002974749, 0.00104407, -7.435548E-05, 0.004498237, -0.0001303139, 0.0005187925, -0.9999977, -0.001398068, 0.3503954
 182231245, 0.0003536161, 0.01184573, 2.090927E-05, 0.00104407, 0.0002073643, 0.004353786, 0.0001722076, 0.0005187925, -0.9999977, -0.001392878, 0.3503954
 182431165, -0.0002067757, 0.01162394, 0.0001775115, 0.00104407, -0.000515871, 0.003891484, -5.084983E-05, 0.0005187925, -0.9999977, -0.001389085, 0.3503954
 182631085, -0.0002800498, 0.011305, -0.0001274815, 0.00104407, 0.00021276, 0.004432119, -3.167316E-05, 0.0005187925, -0.9999977, -0.001384357, 0.3503954
 182831005, 1.084743E-05, 0.01200222, 0.0002083326, 0.00104407, -5.924297E-06, 0.004469752, 6.710348E-05, 0.0005187925, -0.9999977, -0.001379974, 0.3503954
 183030925, 0.0001246565, 0.01196299, 0.0001039935, 0.00104407, 0.000351444, 0.004500792, -0.0001185253, 0.0005187925, -0.9999977, -0.001390608, 0.3503954
 183230845, 0.0003865478, 0.01181378, -8.986212E-05, 0.00104407, 0.0001119462, 0.004333479, 4.606669E-05, 0.0005187925, -0.9999977, -0.001399706, 0.3503954
 183430765, -0.0001313012, 0.01150781, 9.66627E-05, 0.00104407, 4.605046E-05, 0.004137572, 6.096545E-05, 0.0005187925, -0.9999977, -0.001409006, 0.3503954
 183630685, 5.25384E-05, 0.01163783, 3.959978E-05, 0.00104407, 6.214162E-05, 0.004465493, 0.0001940571, 0.0005187925, -0.9999977, -0.001416712, 0.3503954
 183831438, -0.0001890401, 0.01180532, 1.15869E-05, 0.001046232, 0.0001474386, 0.004122394, -0.0003557184, 0.0005209541, -0.9999977, -0.001424051, 0.3511209
 184031358, -4.735713E-05, 0.01134919, -0.0006883939, 0.001046232, -0.0002377858, 0.004084241, 2.644672E-05, 0.0005187925, -0.9999976, -0.001429851, 0.3511209
 184231278, -0.0003259829, 0.01154672, -0.0002197567, 0.00104407, -6.226843E-06, 0.004608688, -6.634084E-05, 0.0005187925, -0.9999976, -0.001432867, 0.3503954
 184431198, 6.218739E-05, 0.01205759, -0.0003445428, 0.00104407, -9.453987E-05, 0.004572004, -3.410525E-05, 0.0005187925, -0.9999976, -0.001436383, 0.3503954
 184631118, -9.672813E-05, 0.01207449, -1.070782E-05, 0.00104407, 0.0001359724, 0.004171188, 7.566881E-05, 0.0005187925, -0.9999976, -0.001441014, 0.3503954
 184831038, 5.681687E-05, 0.01132046, -1.055176E-05, 0.00104407, -0.000314699, 0.003879393, -0.0001439031, 0.0005187925, -0.9999976, -0.001445476, 0.3503954
 185030958, -0.0002027078, 0.01133681, 1.845219E-05, 0.00104407, -0.0002877953, 0.004843656, -0.0003933286, 0.0005187925, -0.9999976, -0.001448089, 0.3503954
 185230878, -0.0004675898, 0.01244577, -0.0008732617, 0.00104407, -0.0003870789, 0.0045698, 0.0001411219, 0.0005187925, -0.9999976, -0.001450248, 0.3503954
 185430798, -0.0004013713, 0.0120241, 0.0002129132, 0.00104407, 0.0003741863, 0.003836794, 0.0001896207, 0.0005187925, -0.9999976, -0.001452409, 0.3503954
 185630718, 0.0003888239, 0.01103924, -9.892795E-06, 0.00104407, -0.0001199188, 0.004170178, -0.0003251837, 0.0005187925, -0.9999976, -0.00145246, 0.3503954
 185831471, -0.0002339653, 0.01165951, -0.0005170628, 0.001046232, -3.17302E-05, 0.004075827, 0.0001761276, 0.0005209541, -0.9999976, -0.001452524, 0.3511209
 186031391, 0.0001609818, 0.01138701, -0.0003290927, 0.001046232, 0.0001831085, 0.003899162, -0.0004791225, 0.0005187925, -0.9999976, -0.001453609, 0.3511209
 186231311, 0.0004459931, 0.01109073, -0.0005206694, 0.00104407, 0.0003799034, 0.00407635, 0.000173709, 0.0005187925, -0.9999976, -0.001452556, 0.3503954
 186431231, 0.0001917683, 0.0117296, -4.66196E-05, 0.00104407, -0.0001006792, 0.004761257, 3.899682E-05, 0.0005187925, -0.9999976, -0.001450272, 0.3503954
 186631151, -0.0001295926, 0.01234599, -0.0004979419, 0.00104407, 0.0004179812, 0.004644496, -0.0003525027, 0.0005187925, -0.9999976, -0.00144944, 0.3503954
 186831071, 0.0008013699, 0.01247147, -0.0002203979, 0.00104407, -0.0003199322, 0.004802976, 0.0002493766, 0.0005187925, -0.9999976, -0.00144724, 0.3503954
 187030991, -0.0004129108, 0.01208577, -0.0001066413, 0.00104407, -0.0002175022, 0.0041732, -0.0001967775, 0.0005187925, -0.9999976, -0.001444145, 0.3503954
 187230911, -9.628799E-05, 0.01167526, -0.0001139351, 0.00104407, 0.000221703, 0.004238417, 0.0002560687, 0.0005187925, -0.9999976, -0.00143991, 0.3503954
 187430831, 0.0001753898, 0.01187966, 6.961418E-05, 0.00104407, -1.414679E-05, 0.00448373, -0.0001142974, 0.0005187925, -0.9999976, -0.00143596, 0.3503954
 187630751, -8.586794E-05, 0.01192968, -0.0004160026, 0.00104407, -0.0001363264, 0.00421207, 0.0001543833, 0.0005187925, -0.9999976, -0.001430594, 0.3503954
 187830671, -0.0001248359, 0.01181523, 0.0001096572, 0.00104407, 0.0002717298, 0.004695611, -0.000104979, 0.0005187925, -0.9999976, -0.001425554, 0.3503954
 188031424, 0.0004147365, 0.01201007, -0.0001634404, 0.001046232, -0.0001266468, 0.003823684, 2.64221E-06, 0.0005209541, -0.9999977, -0.001420822, 0.3511209
 188231344, 0.0002180603, 0.01121875, -9.975454E-05, 0.001046232, 0.0002042343, 0.004000729, -3.109999E-05, 0.0005187925, -0.9999976, -0.001430614, 0.3511209
 188431264, 0.0002848888, 0.01143084, 6.08725E-05, 0.00104407, 0.00037874, 0.004320839, -0.0002900905, 0.0005187925, -0.9999976, -0.001438598, 0.3503954
 188631184, 0.0002859297, 0.01152899, -0.0005011616, 0.00104407, 0.0001541638, 0.004095142, -0.0002046934, 0.0005187925, -0.9999976, -0.001446773, 0.3503954
 188831104, 6.434798E-05, 0.01166559, -6.747053E-05, 0.00104407, -0.0001552484, 0.004060812, 0.0001578367, 0.0005187925, -0.9999976, -0.001453912, 0.3503954
 189031024, -2.622732E-05, 0.01128785, -0.0001114602, 0.00104407, 1.783248E-05, 0.004311206, -4.16589E-06, 0.0005187925, -0.9999976, -0.001460166, 0.3503954
 189230944, 0.0002868277, 0.0114763, -3.317461E-05, 0.00104407, -0.0001360009, 0.004352345, -1.127507E-05, 0.0005187925, -0.9999976, -0.001465128, 0.3503954
 189430864, 7.794235E-05, 0.01158587, -0.0001462685, 0.00104407, -6.012613E-05, 0.004138924, -0.0005040464, 0.0005187925, -0.9999976, -0.001468425, 0.3503954
 189630784, -2.127935E-05, 0.01147768, -0.0007504571, 0.00104407, 0.0002701515, 0.00415192, -0.0004469656, 0.0005187925, -0.9999976, -0.001470908, 0.3503954
 189830704, 0.0003505246, 0.01154236, -0.0009770954, 0.00104407, 0.0006107312, 0.004054441, -0.0006300755, 0.0005187925, -0.9999976, -0.001472174, 0.3503954
 190031457, 0.0005428449, 0.01118542, -0.0009685313, 0.001046232, -2.754004E-05, 0.004058585, -0.0002172864, 0.0005209541, -0.9999977, -0.001474089, 0.3511209
 190231377, 0.000178162, 0.01129536, -0.0003250527, 0.001046232, -5.935927E-05, 0.004002603, 0.0001287231, 0.0005187925, -0.9999977, -0.001474437, 0.3511209
 190431297, -2.801382E-05, 0.01145292, -7.758619E-06, 0.00104407, 0.0003045876, 0.004225889, -0.0001661232, 0.0005187925, -0.9999977, -0.001473208, 0.3503954
 190631217, 0.0002699224, 0.01170164, -0.0002697688, 0.00104407, 0.0001927822, 0.004788527, -0.0001307525, 0.0005187925, -0.9999976, -0.00147253, 0.3503954
 190831137, 0.0001242015, 0.01227573, -0.0003584476, 0.00104407, 0.0002319976, 0.004363325, 0.000150407, 0.0005187925, -0.9999977, -0.001470972, 0.3503954
 191031057, 7.736953E-05, 0.01132965, -5.754198E-05, 0.00104407, -0.0003123799, 0.004185546, -0.0004785876, 0.0005187925, -0.9999977, -0.001470206, 0.3503954
 191230977, -0.0002278354, 0.01140526, -0.000542618, 0.00104407, 0.0003234322, 0.00419885, -0.0003373048, 0.0005187925, -0.9999976, -0.001468646, 0.3503954
 191430897, 0.000331612, 0.01137089, -0.0006515603, 0.00104407, -0.0003317412, 0.004123678, -0.0004246002, 0.0005187925, -0.9999976, -0.001466557, 0.3503954
 191630817, -0.0004130671, 0.01144803, -0.0007660817, 0.00104407, -0.0002026524, 0.004211053, -0.0002752276, 0.0005187925, -0.9999976, -0.001463158, 0.3503954
 191830737, -0.0001610449, 0.0115519, -0.000138025, 0.00104407, -4.622395E-05, 0.00386073, -5.541254E-05, 0.0005187925, -0.9999977, -0.001459367, 0.3503954
 192030657, 0.0001260181, 0.01117265, 4.606668E-05, 0.00104407, 0.0001070662, 0.004317364, -0.0002681053, 0.0005187925, -0.9999976, -0.001456351, 0.3503954
 192231410, -9.35979E-05, 0.01164173, -0.0003516881, 0.001046232, 2.607426E-05, 0.003964706, -0.0001388872, 0.0005209541, -0.9999977, -0.001453875, 0.3511209
 192431330, 0.0002515397, 0.0116058, -0.0001890293, 0.001046232, 0.0001989125, 0.004157018, 0.0002199295, 0.0005187925, -0.9999977, -0.001448405, 0.3511209
 192631250, 0.0002340787, 0.01187109, 0.0003793975, 0.00104407, -0.0002034322, 0.004601058, 5.270994E-05, 0.0005187925, -0.9999977, -0.001441949, 0.3503954
 192831170, -0.0004064739, 0.01196135, -0.0002235364, 0.00104407, -2.251251E-05, 0.00412813, 9.68045E-05, 0.0005187925, -0.9999977, -0.001436855, 0.3503954
 193031090, 0.0001852065, 0.01178667, 0.0001567523, 0.00104407, 9.28227E-05, 0.004373082, 5.951169E-05, 0.0005187925, -0.9999977, -0.001430527, 0.3503954
 193231010, -3.896764E-05, 0.01166101, -9.493368E-05, 0.00104407, 0.0003602916, 0.003709213, -0.0001158918, 0.0005187925, -0.9999977, -0.001423835, 0.3503954
 193430930, 0.0004064752, 0.01136465, -0.0005152059, 0.00104407, -0.0001046802, 0.004172232, 0.0001038601, 0.0005187925, -0.9999977, -0.001431547, 0.3503954
 193630850, -6.037339E-05, 0.01155454, -2.331996E-05, 0.00104407, -0.0001187114, 0.004515334, -0.0003356819, 0.0005187925, -0.9999977, -0.001438576, 0.3503954
 193830770, -6.847808E-05, 0.01181473, -0.0002940062, 0.00104407, 0.000132573, 0.004478133, 0.0004049671, 0.0005187925, -0.9999977, -0.001444263, 0.3503954
 194030690, 0.0002177846, 0.01156762, -3.329972E-05, 0.00104407, -7.141107E-05, 0.003987764, -0.0003832046, 0.0005187925, -0.9999977, -0.001449526, 0.3503954
 194231443, -6.487285E-05, 0.01125322, -0.0003933243, 0.001046232, 3.620302E-05, 0.003637215, 0.0001383967, 0.0005209541, -0.9999977, -0.001454154, 0.3511209
 194431363, 0.0002152601, 0.01099908, 0.0001227758, 0.001046232, -1.654322E-05, 0.004474256, 0.0002343194, 0.0005187925, -0.9999977, -0.001457642, 0.3511209
 194631283, 2.417746E-06, 0.01205808, 0.0001298921, 0.00104407, -8.087118E-05, 0.004311416, -0.0002543385, 0.0005187925, -0.9999977, -0.001458035, 0.3503954
 194831203, 6.276389E-05, 0.01158564, -0.0004808707, 0.00104407, 7.237076E-05, 0.004222158, 0.0002722068, 0.0005187925, -0.9999977, -0.001458486, 0.3503954
 195031123, -3.003702E-05, 0.01144559, 0.000135768, 0.00104407, -0.0001605234, 0.00394221, 0.0003410488, 0.0005187925, -0.9999977, -0.00145762, 0.3503954
 195231043, -0.0004098716, 0.01114656, 3.515233E-07, 0.00104407, -0.0001349308, 0.00412314, -0.0001736602, 0.0005187925, -0.9999977, -0.001457026, 0.3503954
 195430963, -8.400444E-05, 0.01142132, -0.0004015711, 0.00104407, 0.0001187462, 0.004267181, 6.547692E-05, 0.0005187925, -0.9999977, -0.001456312, 0.3503954
 195630883, 0.0002382121, 0.01160842, -0.0001233454, 0.00104407, -7.838754E-05, 0.004228207, -2.748343E-05, 0.0005187925, -0.9999978, -0.001453513, 0.3503954
 195830803, 0.0001231465, 0.01128255, -0.0001100874, 0.00104407, -6.669241E-05, 0.003996467, 0.0001177293, 0.0005187925, -0.9999978, -0.001450653, 0.3503954
 196030723, 0.0003375368, 0.01134693, 0.000106266, 0.00104407, 0.000390032, 0.004172211, 0.0003295355, 0.0005187925, -0.9999978, -0.001446818, 0.3503954
 196231476, 7.978848E-05, 0.01134349, 0.0002865467, 0.001046232, -0.0001936121, 0.004117966, -3.74656E-05, 0.0005209541, -0.9999978, -0.001442874, 0.3511209
 196431396, -9.577925E-05, 0.0115348, -0.0002879743, 0.001046232, -3.680248E-05, 0.004176897, -0.0001900962, 0.0005187925, -0.9999978, -0.001438949, 0.3511209
 196631316, -0.0002074444, 0.01140191, -0.000366901, 0.00104407, -0.0003876429, 0.003956324, 1.163375E-05, 0.0005187925, -0.9999978, -0.00143287, 0.3503954
 196831236, -0.0004021949, 0.01082718, -0.0001425066, 0.00104407, 0.0002035474, 0.004104713, -6.903271E-05, 0.0005187925, -0.9999978, -0.001425967, 0.3503954
 197031156, -0.0002487286, 0.01117207, -2.555181E-05, 0.00104407, -0.0005076982, 0.003926146, -0.0002429562, 0.0005187925, -0.9999978, -0.001420143, 0.3503954
 197231076, -0.0002101201, 0.01144033, -0.0004386147, 0.00104407, 0.0001278693, 0.004254746, -0.0001635922, 0.0005187925, -0.9999978, -0.001414099, 0.3503954
 197430996, 0.0001697622, 0.01155569, -0.0004684148, 0.00104407, 3.222083E-06, 0.003880902, -0.0004933613, 0.0005187925, -0.9999978, -0.001408981, 0.3503954
 197630916, -2.671121E-05, 0.0109903, -0.0008824155, 0.00104407, 6.270052E-05, 0.003989656, -0.0001973638, 0.0005187925, -0.9999978, -0.001403784, 0.3503954
 197830836, 0.0004635426, 0.01155412, -0.0004633623, 0.00104407, 0.0001771513, 0.00431895, -0.0003313753, 0.0005187925, -0.9999978, -0.001396895, 0.3503954
 198030756, 0.0004457624, 0.01173917, -0.0008572844, 0.00104407, -5.572002E-06, 0.004375153, -0.000356634, 0.0005187925, -0.9999978, -0.001390379, 0.3503954
 198230676, 0.000134226, 0.01190307, -0.0003428065, 0.00104407, 0.0003678863, 0.004034144, -0.0003227314, 0.0005187925, -0.9999978, -0.001383547, 0.3503954
 198431429, 0.000305837, 0.01136591, -0.0004919011, 0.001046232, 0.000114586, 0.004123006, -0.0001305538, 0.0005209541, -0.9999978, -0.001379105, 0.3511209
 198631349, 9.483234E-06, 0.01143505, -0.0001993804, 0.001046232, -0.0002164579, 0.004202771, -0.0001417225, 0.0005187925, -0.9999978, -0.001384923, 0.3511209
 198831269, 5.918185E-05, 0.01141121, -0.0001054938, 0.00104407, 0.0002007461, 0.004120459, -0.0005046922, 0.0005187925, -0.9999978, -0.001389582, 0.3503954
 199031189, 0.0003292825, 0.01190432, -0.0006623607, 0.00104407, 0.0002484107, 0.004744292, -0.0002932817, 0.0005187925, -0.9999978, -0.001395147, 0.3503954
 199231109, 0.0001584277, 0.01189869, -0.0004134382, 0.00104407, -0.0001273392, 0.004257785, -2.399676E-05, 0.0005187925, -0.9999978, -0.001398999, 0.3503954
 199431029, -0.0001647708, 0.01143559, -3.302922E-05, 0.00104407, 8.282329E-05, 0.004127951, 3.266217E-05, 0.0005187925, -0.9999978, -0.00140176, 0.3503954
 199630949, 6.067084E-05, 0.01123436, 0.0001444727, 0.00104407, 0.0001658205, 0.003784253, 5.309364E-05, 0.0005187925, -0.9999978, -0.001403779, 0.3503954
 199830869, -4.112517E-05, 0.01142547, 2.387643E-05, 0.00104407, -0.0003656498, 0.004597834, -0.0001574148, 0.0005187925, -0.9999978, -0.00140527, 0.3503954
 200030789, -0.0002730013, 0.01182887, -0.0003113836, 0.00104407, 0.0005469811, 0.003843601, -0.0002660342, 0.0005187925, -0.9999978, -0.001405813, 0.3503954
 200230709, 0.000790245, 0.01100734, -4.436266E-05, 0.00104407, 0.0003181988, 0.004239846, 4.557574E-05, 0.0005187925, -0.9999978, -0.00140578, 0.3503954
 200431462, 0.0003548864, 0.01138925, -0.0004614259, 0.001046232, 0.0001608032, 0.00389059, -0.000402789, 0.0005209541, -0.9999978, -0.001407013, 0.3511209
 200631382, 5.1391E-07, 0.01143474, -0.0006598324, 0.001046232, -9.91518E-05, 0.004225076, -0.0002697688, 0.0005187925, -0.9999978, -0.00140613, 0.3511209
 200831302, 5.342855E-05, 0.01128087, -0.0002802991, 0.00104407, -1.648594E-05, 0.004232412, -3.580926E-05, 0.0005187925, -0.9999978, -0.001403764, 0.3503954
 201031222, 7.790816E-05, 0.01149657, 5.005979E-05, 0.00104407, 0.0003914028, 0.003981241, -0.0002452262, 0.0005187925, -0.9999979, -0.001398232, 0.3503954
 201231142, 0.0003101779, 0.01094753, -0.0003679389, 0.00104407, -9.048697E-05, 0.003894739, 0.0001459027, 0.0005187925, -0.9999979, -0.00139331, 0.3503954
 201431062, -0.0003942444, 0.01111004, 0.0001624375, 0.00104407, -0.0002201571, 0.003969519, 8.688069E-06, 0.0005187925, -0.9999979, -0.001388299, 0.3503954
 201630982, -1.673995E-05, 0.01092415, 4.923996E-05, 0.00104407, 0.0001144826, 0.003763177, 0.0003822442, 0.0005187925, -0.9999979, -0.001382786, 0.3503954
 201830902, -0.0001076756, 0.01094207, 0.0002111638, 0.00104407, -0.0006906702, 0.004346687, 4.058643E-06, 0.0005187925, -0.9999979, -0.001376563, 0.3503954
 202030822, -0.0005693518, 0.01170536, -0.0002102642, 0.00104407, 0.0002276232, 0.003950253, -0.0001730179, 0.0005187925, -0.9999979, -0.001370503, 0.3503954
 202230742, 0.0003385132, 0.01129969, -0.0003487801, 0.00104407, 0.000289002, 0.004242981, 0.0002786749, 0.0005187925, -0.9999979, -0.001363581, 0.3503954
 202430662, 0.0005518203, 0.01144184, -2.794341E-05, 0.00104407, 0.0002213842, 0.004091465, -0.0003621048, 0.0005187925, -0.9999979, -0.001357379, 0.3503954
 202631415, 0.0004506549, 0.0113003, -0.0005542287, 0.001046232, 0.0003162217, 0.00382632, -0.000199809, 0.0005209541, -0.9999979, -0.001352824, 0.3511209
 202831335, 0.0005259024, 0.0110709, -0.0003898921, 0.001046232, -9.712517E-05, 0.003806216, 3.827947E-05, 0.0005187925, -0.9999979, -0.001346439, 0.3511209
 203031255, -6.48963E-05, 0.01126591, -2.148366E-05, 0.00104407, 0.0004610957, 0.004686798, 0.0002119551, 0.0005187925, -0.9999978, -0.001338956, 0.3503954
 203231175, 0.0003716151, 0.01197388, -0.0001477366, 0.00104407, 6.275231E-05, 0.00431189, -0.0005462905, 0.0005187925, -0.9999978, -0.001331763, 0.3503954
 203431095, 0.0001864712, 0.01139141, -0.0005723798, 0.00104407, 0.0002795931, 0.004117059, 0.0001717679, 0.0005187925, -0.9999978, -0.001322836, 0.3503954
 203631015, 0.0004603836, 0.01160242, 0.000325858, 0.00104407, 0.0004414717, 0.004203749, 2.771937E-05, 0.0005187925, -0.9999978, -0.001315597, 0.3503954
 203830935, 0.0004917103, 0.01175669, -1.08008E-05, 0.00104407, -0.0002012341, 0.004324498, -4.95748E-05, 0.0005187925, -0.9999978, -0.001322496, 0.3503954
 204030855, 0.0001239274, 0.01172624, -0.0002975716, 0.00104407, 0.0001695124, 0.004282063, -0.0003135583, 0.0005187925, -0.9999978, -0.001329283, 0.3503954
 204230775, 0.0002967765, 0.01159196, -0.0005048545, 0.00104407, 0.0004408452, 0.004094802, -0.0002552167, 0.0005187925, -0.9999978, -0.001334533, 0.3503954
 204430695, 0.0006210502, 0.01132359, -0.0005884046, 0.00104407, -0.0001286272, 0.004237096, -0.0002149306, 0.0005187925, -0.9999978, -0.001338868, 0.3503954
 204631448, -8.329504E-05, 0.01151988, -3.265344E-05, 0.001046232, 8.34423E-07, 0.004485552, -0.0003127798, 0.0005209541, -0.9999979, -0.001344857, 0.3511209
 204831368, 0.0001755753, 0.01141158, -0.0001649408, 0.001046232, -8.871638E-05, 0.003897333, 0.0001344095, 0.0005187925, -0.9999978, -0.001346593, 0.3511209
 205031288, -0.0001760693, 0.01127164, -0.0003083581, 0.00104407, 2.634918E-05, 0.004393732, -0.0002629194, 0.0005187925, -0.9999978, -0.001347742, 0.3503954
 205231208, -4.108501E-05, 0.01163847, -0.000381764, 0.00104407, 0.0002291309, 0.004170197, -0.0002495041, 0.0005187925, -0.9999978, -0.001348836, 0.3503954
 205431128, 0.0003296625, 0.01129158, -0.0001992573, 0.00104407, -0.0001643113, 0.003589872, 0.0003013883, 0.0005187925, -0.9999978, -0.001350239, 0.3503954
 205631048, 0.0001086094, 0.01104558, -1.872024E-05, 0.00104407, 3.008786E-05, 0.00388692, 0.0003011631, 0.0005187925, -0.9999978, -0.001350295, 0.3503954
 205830968, -3.681729E-05, 0.01120741, 0.0001788139, 0.00104407, -0.0001419725, 0.004419236, 0.0001718191, 0.0005187925, -0.9999978, -0.001348388, 0.3503954
 206030888, 3.652053E-05, 0.01158157, -0.0001388912, 0.00104407, -0.0001733151, 0.003970605, -0.000200972, 0.0005187925, -0.9999978, -0.001346634, 0.3503954
 206230808, 9.764011E-05, 0.01109796, -0.0002092062, 0.00104407, 6.765382E-05, 0.004204395, 6.404342E-05, 0.0005187925, -0.9999978, -0.001344863, 0.3503954
 206430728, 0.0002457752, 0.011334, 0.0001622135, 0.00104407, 0.000330121, 0.004103301, -0.0001398993, 0.0005187925, -0.9999979, -0.00134299, 0.3503954
 206631481, 0.0005208203, 0.01136362, -0.0001187342, 0.001046232, 1.03801E-05, 0.004365811, 9.576626E-06, 0.0005209541, -0.9999978, -0.001342186, 0.3511209
 206831401, -5.540999E-05, 0.01186197, 9.410511E-05, 0.001046232, -4.702262E-05, 0.004153439, -1.02908E-05, 0.0005187925, -0.9999979, -0.001340664, 0.3511209
 207031321, -0.0001544022, 0.01118915, -0.0003311966, 0.00104407, -0.000109183, 0.004470402, -0.0004639247, 0.0005187925, -0.9999979, -0.001338081, 0.3503954
 207231241, 7.127651E-05, 0.01172718, -0.0004898757, 0.00104407, -8.147032E-05, 0.00383562, -1.627749E-06, 0.0005187925, -0.9999979, -0.001333343, 0.3503954
 207431161, -0.0001519349, 0.01088278, 3.703541E-05, 0.00104407, -0.0002701217, 0.004172853, 0.0001055819, 0.0005187925, -0.9999979, -0.001328447, 0.3503954
 207631081, -8.422861E-05, 0.01137418, -7.073193E-05, 0.00104407, 0.0002471794, 0.004455763, 0.0001358549, 0.0005187925, -0.9999979, -0.001323577, 0.3503954
 207831001, 0.0001615576, 0.01150015, 0.0001830536, 0.00104407, -3.182881E-06, 0.003705389, 0.0006078469, 0.0005187925, -0.9999979, -0.001318768, 0.3503954
 208030921, -0.0001551103, 0.01134756, 0.000477371, 0.00104407, -0.0001639188, 0.004346884, 0.0004434409, 0.0005187925, -0.9999979, -0.001313385, 0.3503954
 208230841, 1.95339E-05, 0.01162719, 0.000339669, 0.00104407, 0.0002235831, 0.004011309, -0.0002636868, 0.0005187925, -0.9999979, -0.001307436, 0.3503954
 208430761, -1.71757E-06, 0.01127686, -0.0003057341, 0.00104407, -0.0002158477, 0.004464607, -0.0002227202, 0.0005187925, -0.9999979, -0.001302493, 0.3503954
 208630681, -0.0001310824, 0.01189007, -0.000443591, 0.00104407, -2.66459E-05, 0.004201646, -0.00011029, 0.0005187925, -0.9999978, -0.001296298, 0.3503954
 208831434, 7.702596E-05, 0.01199149, -0.0001090738, 0.001046232, 0.0002435068, 0.004450504, -4.233733E-05, 0.0005209541, -0.9999979, -0.001292282, 0.3511209
 209031354, 0.0005527122, 0.01182688, 8.133215E-05, 0.001046232, 0.0005892374, 0.004151232, 0.0007108873, 0.0005187925, -0.9999979, -0.001300963, 0.3511209
 209231274, 0.0006849513, 0.0114404, 0.0007717395, 0.00104407, 0.0001324023, 0.003980058, 0.000511599, 0.0005187925, -0.9999979, -0.00130736, 0.3503954
 209431194, 9.642655E-05, 0.01138314, 0.0003381807, 0.00104407, -0.000366912, 0.003716157, -0.0003013704, 0.0005187925, -0.9999979, -0.001313012, 0.3503954
 209631114, -0.0005998341, 0.0110154, -0.0002252906, 0.00104407, 2.599043E-05, 0.004250395, 2.823058E-05, 0.0005187925, -0.9999979, -0.001317868, 0.3503954
 209831034, -8.211198E-05, 0.0115809, 1.71557E-05, 0.00104407, 0.00014415, 0.004789693, 2.211996E-05, 0.0005187925, -0.9999979, -0.001321343, 0.3503954
 210030954, 0.000283355, 0.01211471, 0.000157391, 0.00104407, 3.904406E-05, 0.004239899, -0.0002181599, 0.0005187925, -0.9999979, -0.00132509, 0.3503954
 210230874, -0.0001315871, 0.0115793, -8.098584E-05, 0.00104407, -0.0002934285, 0.004157428, 0.0002441669, 0.0005187925, -0.9999979, -0.001327733, 0.3503954
 210430794, -0.0001819632, 0.01148478, 0.0001315496, 0.00104407, 0.0001987861, 0.004373823, -4.731312E-05, 0.0005187925, -0.9999979, -0.001328918, 0.3503954
 210630714, 0.0001381895, 0.01113491, -6.336298E-05, 0.00104407, 0.0004120459, 0.003868413, -0.0001442558, 0.0005187925, -0.9999979, -0.001327298, 0.3503954
 210831467, 0.0003150782, 0.01134016, -1.876234E-05, 0.001046232, 0.0001237441, 0.003758119, 7.605331E-05, 0.0005209541, -0.9999979, -0.001327837, 0.3511209
 211031387, 0.0001804587, 0.01116241, 9.497976E-05, 0.001046232, 1.484115E-05, 0.004257022, -0.0003954664, 0.0005187925, -0.9999979, -0.001327742, 0.3511209
 211231307, 8.901847E-05, 0.01124441, -0.0007074815, 0.00104407, -5.627855E-05, 0.003735699, 7.590525E-07, 0.0005187925, -0.9999979, -0.001326744, 0.3503954
 211431227, -0.0002601131, 0.01107559, -0.0003043626, 0.00104407, 0.0003365315, 0.004322658, 0.0001823375, 0.0005187925, -0.9999979, -0.001324061, 0.3503954
 211631147, 0.0002679072, 0.01147282, -0.0001277722, 0.00104407, -0.0004133729, 0.004050899, -0.0001943133, 0.0005187925, -0.9999979, -0.001322356, 0.3503954
 211831067, -0.0007930942, 0.0112766, -0.0002039499, 0.00104407, -9.031047E-05, 0.004304145, -0.0004203128, 0.0005187925, -0.9999979, -0.001319979, 0.3503954
 212030987, 4.562726E-05, 0.01174127, -0.0004063781, 0.00104407, 0.0002412257, 0.004437522, 6.021832E-05, 0.0005187925, -0.9999979, -0.00131637, 0.3503954
 212230907, 0.0002682947, 0.01151236, 0.0001811566, 0.00104407, 7.169877E-05, 0.004011549, 0.0002941087, 0.0005187925, -0.9999979, -0.001313097, 0.3503954
 212430827, 0.0002270083, 0.01108933, 0.0001557692, 0.00104407, 0.0003300427, 0.004043594, -0.0003093018, 0.0005187925, -0.9999979, -0.001308454, 0.3503954
 212630747, 0.0004076918, 0.011163, -0.0002445292, 0.00104407, 0.0001256693, 0.003726213, 0.000127317, 0.0005187925, -0.9999979, -0.001303985, 0.3503954
 212830667, -0.0001680328, 0.01069752, -6.073669E-05, 0.00104407, -0.0003029888, 0.004175383, -0.0001618083, 0.0005187925, -0.9999979, -0.001299126, 0.3503954
 213031420, -0.0002550796, 0.0113729, -0.0006147583, 0.001046232, -0.0005056474, 0.003695834, -0.0001826263, 0.0005209541, -0.9999979, -0.001295708, 0.3511209
 213231340, -0.0004297767, 0.01123047, 4.562659E-05, 0.001046232, 0.0002396221, 0.004081279, 0.0004856634, 0.0005187925, -0.9999979, -0.001290823, 0.3511209
 213431260, 0.0002829299, 0.01136687, 0.0005288285, 0.00104407, -0.0001733954, 0.004315327, -0.0001571563, 0.0005187925, -0.9999979, -0.001283487, 0.3503954
 213631180, -0.0001239475, 0.01143398, -0.0003591899, 0.00104407, -3.153508E-05, 0.003941263, -0.0005149735, 0.0005187925, -0.9999979, -0.00127802, 0.3503954
 213831100, -9.431913E-05, 0.01117524, -0.0007229178, 0.00104407, -7.61647E-05, 0.003798688, -0.0003264361, 0.0005187925, -0.9999979, -0.001272241, 0.3503954
 214031020, 0.000269843, 0.01138947, -0.0003965592, 0.00104407, 4.405871E-05, 0.004440719, 7.480489E-05, 0.0005187925, -0.9999979, -0.00126628, 0.3503954
 214230940, 0.0002350472, 0.0119365, 8.04591E-05, 0.00104407, -6.034665E-05, 0.003896943, 5.013128E-06, 0.0005187925, -0.9999979, -0.001275765, 0.3503954
 214430860, 0.0004222621, 0.01113518, 1.791019E-06, 0.00104407, -5.63435E-05, 0.004133657, 8.430685E-06, 0.0005187925, -0.9999979, -0.00128439, 0.3503954
 214630780, 0.0002081757, 0.01168022, -0.0003056245, 0.00104407, -7.253071E-05, 0.004242055, -0.0003329506, 0.0005187925, -0.9999979, -0.001291763, 0.3503954
 214830700, 7.177226E-05, 0.01189158, -0.0003865996, 0.00104407, 8.963497E-05, 0.004635148, -6.781368E-05, 0.0005187925, -0.9999979, -0.001298574, 0.3503954
 215031453, 0.0001460634, 0.01202711, -0.0006327858, 0.001046232, 0.0002032342, 0.004566312, -0.0003619097, 0.0005209541, -0.9999979, -0.001303929, 0.3511209
 215231373, 9.297981E-05, 0.01220007, -0.0005504829, 0.001046232, 5.7552E-06, 0.004382137, 1.092473E-05, 0.0005187925, -0.9999979, -0.001307997, 0.3511209
 215431293, 0.0001760063, 0.01148663, 6.480722E-05, 0.00104407, 7.874177E-05, 0.003885933, 0.0003583487, 0.0005187925, -0.9999979, -0.001310147, 0.3503954
 215631213, 0.0001205163, 0.01115778, 0.0002760199, 0.00104407, -0.0001411481, 0.003711226, -0.0002367026, 0.0005187925, -0.9999979, -0.001311777, 0.3503954
 215831133, 0.0002619429, 0.01067396, -0.0001900092, 0.00104407, 0.0003416756, 0.004195956, -9.291029E-06, 0.0005187925, -0.9999979, -0.001313105, 0.3503954
 216031053, 0.0005340289, 0.01129207, -8.036734E-05, 0.00104407, 0.0001729033, 0.004333716, -9.462862E-05, 0.0005187925, -0.9999979, -0.001313379, 0.3503954
 216230973, 0.0003691064, 0.01157904, -0.0002249545, 0.00104407, 0.0002552878, 0.003619935, 2.386688E-05, 0.0005187925, -0.9999979, -0.001313599, 0.3503954
 216430893, 0.0007453657, 0.01081633, -0.0002958235, 0.00104407, 0.0003158446, 0.004288132, -0.0002457005, 0.0005187925, -0.9999979, -0.001312963, 0.3503954
 216630813, 0.000128271, 0.01142965, -0.0002845293, 0.00104407, 0.0002494808, 0.004280082, 0.0004974139, 0.0005187925, -0.9999979, -0.001312383, 0.3503954
 216830733, -1.85992E-05, 0.01147598, 4.992869E-05, 0.00104407, -0.0003216149, 0.003678511, -0.0003056244, 0.0005187925, -0.9999979, -0.001310057, 0.3503954
 217031486, -0.000164708, 0.0107714, -0.0009184429, 0.001046232, -0.0001015362, 0.003808943, -0.0002788441, 0.0005187925, -0.9999979, -0.001306277, 0.3511209
 217231406, 0.0001519679, 0.01100098, -0.0001243591, 0.001046232, -5.478638E-05, 0.004159573, 0.0001148825, 0.0005209541, -0.9999979, -0.001304731, 0.3511209
 217431326, 1.779992E-05, 0.01128671, 2.048153E-05, 0.001046232, 0.0003356724, 0.004167374, -9.845251E-05, 0.0005187925, -0.9999979, -0.001301434, 0.3511209
 217631246, -9.602808E-05, 0.01122787, -0.0003027992, 0.00104407, -0.0003357794, 0.004230755, -0.0003424931, 0.0005187925, -0.9999979, -0.001296027, 0.3503954
 217831166, -0.0006567671, 0.01177829, -0.000374749, 0.00104407, -0.000184097, 0.004245813, 2.004894E-05, 0.0005187925, -0.9999979, -0.001293669, 0.3503954
 218031086, -8.293809E-05, 0.01153321, -0.0003047773, 0.00104407, -0.0001060276, 0.004098842, -0.0001559266, 0.0005187925, -0.9999979, -0.001290754, 0.3503954
 218231006, -0.0001388959, 0.01121557, -0.0003660812, 0.00104407, -0.0001366396, 0.003990037, -0.0001021823, 0.0005187925, -0.9999979, -0.001287271, 0.3503954
 218430926, 0.0001305214, 0.01140379, -0.0001522707, 0.00104407, -4.268503E-05, 0.004398355, -0.0001289281, 0.0005187925, -0.9999979, -0.001284023, 0.3503954
 218630846, -6.134024E-05, 0.01160286, -0.0005133302, 0.00104407, 0.0001143232, 0.004272052, 0.0004039257, 0.0005187925, -0.9999978, -0.001280204, 0.3503954
 218830766, 0.000201218, 0.01173121, 7.404217E-05, 0.00104407, -0.0002331312, 0.004362694, -0.0003895989, 0.0005187925, -0.9999978, -0.001276379, 0.3503954
 219030686, -0.0003746481, 0.01179247, -0.0003675207, 0.00104407, -4.060232E-05, 0.004244929, -0.0002331766, 0.0005187925, -0.9999978, -0.001273209, 0.3503954
 219231439, 0.0002686466, 0.01196902, -0.0005456044, 0.001046232, 0.0001709873, 0.004223449, -0.0002904949, 0.0005209541, -0.9999978, -0.001269673, 0.3511209
 219431359, 0.0004639178, 0.01143453, -0.0002834823, 0.001046232, 0.0005101516, 0.004478869, -9.84549E-05, 0.0005187925, -0.9999979, -0.001279469, 0.3511209
 219631279, 0.0006216631, 0.01156169, -0.0004416463, 0.00104407, 6.07158E-05, 0.004057291, -0.0001974186, 0.0005187925, -0.9999978, -0.001286962, 0.3503954
 219831199, 0.0001801474, 0.01143803, -0.0004112839, 0.00104407, 0.0001394394, 0.004222415, 5.496925E-05, 0.0005187925, -0.9999978, -0.001294744, 0.3503954
 220031119, 0.0001982584, 0.01158246, -0.0001734445, 0.00104407, 3.836783E-06, 0.004492361, 9.628972E-05, 0.0005187925, -0.9999978, -0.001302396, 0.3503954
 220231039, 0.0001129146, 0.01150789, -0.0002183565, 0.00104407, -0.0001025119, 0.003847049, 5.290299E-05, 0.0005187925, -0.9999978, -0.001310481, 0.3503954
 220430959, -0.0002053672, 0.01112125, 0.000127528, 0.00104407, -0.0001003924, 0.004232239, 4.069486E-05, 0.0005187925, -0.9999978, -0.001317626, 0.3503954
 220630879, -0.0002875025, 0.0117196, -5.255506E-05, 0.00104407, -0.0002560691, 0.004196861, -8.295912E-05, 0.0005187925, -0.9999978, -0.001322477, 0.3503954
 220830799, -0.0003481729, 0.0116676, 0.0001351555, 0.00104407, -0.0004634717, 0.004964638, 0.0001560779, 0.0005187925, -0.9999978, -0.001327018, 0.3503954
 221030719, -0.0003714448, 0.0123859, -0.0001231809, 0.00104407, 0.0004613332, 0.004018217, 0.0002129692, 0.0005187925, -0.9999978, -0.001330937, 0.3503954
 221231472, 0.0006857945, 0.01112288, -8.690735E-05, 0.001046232, 0.0002860667, 0.003783215, -6.680637E-05, 0.0005209541, -0.9999978, -0.001331805, 0.3511209
 221431392, 0.0002302598, 0.01112538, -0.0005528296, 0.001046232, 0.0004324792, 0.004432445, 2.382279E-05, 0.0005187925, -0.9999978, -0.001335073, 0.3511209
 221631312, 0.0007899321, 0.01170783, -0.006796846, 0.00104407, 0.0002234956, 0.004154026, -0.002047032, 0.0005187925, -0.9999978, -0.001337518, 0.3503954
 221831232, 0.0007032196, 0.01188577, -0.3037546, 0.00104407, 6.838536E-05, 0.004654109, -0.1225641, 0.0005187925, -0.9999978, -0.001337605, 0.3503954
 222031152, -5.507445E-06, 0.01196823, -0.07592158, 0.00104407, -0.0002457679, 0.003978665, 0.06816164, 0.0005187925, -0.9999978, -0.001337666, 0.3503954
 222231072, -0.0003224609, 0.01116324, 0.04048517, 0.00104407, 0.0002358422, 0.00420263, -0.1656402, 0.0005187925, -0.9999985, -0.001348567, 0.3503954
 222430992, -0.003521655, 0.007204888, -1.490892, 0.00104407, -0.004293244, -0.0005516458, -0.7160097, 0.0005187925, -0.9999939, -0.0014658, 0.3503954
 222630912, -0.01733203, -0.007526688, -1.230582, 0.00104407, -0.008696336, -0.005246768, -0.116603, 0.0005187925, -0.9999804, -0.001629185, 0.3503954
 222830832, -0.02384151, -0.01442022, -0.2386349, 0.00104407, -0.008901792, -0.004608368, -0.08815887, 0.0005187925, -0.9999766, -0.00177998, 0.3503954
 223030752, -0.02318167, -0.01193736, -0.3219175, 0.00104407, -0.007852823, -0.003612111, -0.1478427, 0.0005187925, -0.9999775, -0.00193298, 0.3503954
 223230672, -0.02021758, -0.008403003, -0.3822722, 0.00104407, -0.006657465, -0.002406222, -0.1235008, 0.0005187925, -0.9999794, -0.002081049, 0.3503954
 223431425, -0.01707003, -0.004880988, -0.3095846, 0.001046232, -0.005652911, -0.0008821755, -0.1000937, 0.0005209541, -0.9999816, -0.00222184, 0.3511209
 223631345, -0.01430916, -0.001173731, -0.2614031, 0.001046232, -0.004786272, 0.0004786921, -0.0892041, 0.0005187925, -0.9999834, -0.002353874, 0.3511209
 223831265, -0.0120818, 0.002217459, -0.2335398, 0.00104407, -0.003698677, 0.001464952, -0.07907223, 0.0005187925, -0.999985, -0.00247684, 0.3503954
 224031185, -0.009797268, 0.004866775, -0.2053899, 0.00104407, -0.003407338, 0.002342238, -0.06908299, 0.0005187925, -0.9999862, -0.002590293, 0.3503954
 224231105, -0.008161874, 0.006728782, -0.1797493, 0.00104407, -0.002619497, 0.002368475, -0.0607387, 0.0005187925, -0.9999867, -0.002682974, 0.3503954
 224431025, -0.006399808, 0.007398057, -0.1580142, 0.00104407, -0.002126219, 0.003193289, -0.053083, 0.0005187925, -0.9999868, -0.002762315, 0.3503954
 224630945, -0.005062624, 0.008425098, -0.1385622, 0.00104407, -0.001245221, 0.00315606, -0.04699769, 0.0005187925, -0.9999867, -0.002859826, 0.3503954
 224830865, -0.003109182, 0.008762202, -0.1211969, 0.00104407, -0.001051522, 0.003322275, -0.04036998, 0.0005187925, -0.9999865, -0.00299858, 0.3503954
 225030785, -0.002809073, 0.009211523, -0.1050692, 0.00104407, -0.001155941, 0.003437521, -0.03536828, 0.0005187925, -0.9999848, -0.003392799, 0.3503954
 225230705, -0.002775611, 0.009074328, -0.09305397, 0.00104407, -0.000866148, 0.003351873, -0.03161002, 0.0005187925, -0.9999816, -0.003890988, 0.3503954
 225431458, -0.002771749, 0.008382032, -0.08270958, 0.001046232, -0.0008988213, 0.002793522, -0.02807374, 0.0005209541, -0.999978, -0.004360605, 0.3511209
 225631378, -0.001556813, 0.008984134, 0.2608727, 0.001046232, 0.0002755641, 0.004165733, 0.3370969, 0.0005187925, -0.9999726, -0.004877476, 0.3511209
 225831298, 0.00126134, 0.01103013, 0.8760715, 0.00104407, 0.0004531933, 0.00404404, 0.29444, 0.0005187925, -0.9999657, -0.005590054, 0.3503954
 226031218, 0.001326646, 0.009771241, 0.7655905, 0.00104407, 0.0004177, 0.003335021, 0.2577833, 0.0005187925, -0.9999597, -0.006233892, 0.3503954
 226231138, 0.001431325, 0.00874567, 0.6405585, 0.00104407, 0.0005886598, 0.003166067, 0.1935453, 0.0005187925, -0.999957, -0.00664501, 0.3503954
 226431058, 0.005003276, 0.01268863, 0.5044376, 0.00104407, 0.004043147, 0.007414555, 0.1659365, 0.0005187925, -0.9999747, -0.006966719, 0.3503954
 226630978, 0.02158616, 0.02851919, 0.3924463, 0.00104407, 0.01597304, 0.0143829, 0.1072362, 0.0005187925, -0.9999592, -0.007281644, 0.3503954
 226830898, 0.1062881, 0.04628239, 0.2457702, 0.00104407, 0.07701783, 0.02021852, 0.0665492, 0.0005187925, -0.9999028, -0.007377232, 0.3503954
 227030818, 0.2936225, 0.05895608, 0.1508382, 0.00104407, 0.1474238, 0.02286369, 0.04029281, 0.0005187925, -0.9998473, -0.007492152, 0.3503954
 227230738, 0.4386235, 0.0623576, 0.08822655, 0.00104407, 0.1719705, 0.02189607, 0.02038824, 0.0005187925, -0.9998251, -0.008078816, 0.3503954
 227430658, 0.4550701, 0.05715768, 0.03394287, 0.00104407, 0.1542101, 0.01912933, 0.0006767033, 0.0005187925, -0.9998344, -0.009035443, 0.3503954
 227631411, 0.3966136, 0.04948516, -0.01757288, 0.001046232, 0.1321096, 0.01720181, -0.01617374, 0.0005209541, -0.9998239, -0.008615924, 0.3511209
 227831331, 0.3536008, 0.06897926, -0.05603226, 0.001046232, 0.1263682, 0.04053436, -0.02534723, 0.0005187925, -0.9989894, 0.02813813, 0.3511209
 228031251, 0.3523485, 0.1476564, -0.08795538, 0.00104407, 0.1315037, 0.07029051, -0.04252182, 0.0005187925, -0.9868375, 0.1580397, 0.3503954
 228231171, 0.3630695, 0.1871446, -0.1353904, 0.00104407, 0.1332708, 0.06065561, -0.05864407, 0.0005187925, -0.9307626, 0.3651633, 0.3503954
 228431091, 0.3677585, 0.1235823, -0.1673646, 0.00104407, 0.1357352, 0.02176948, -0.06285954, 0.0005187925, -0.7940005, 0.5991903, 0.3503954
 228631011, 0.3742412, 0.01756021, -0.1652368, 0.00104407, 0.1367892, -0.01401805, -0.05618318, 0.0005187925, -0.5702465, 0.802074, 0.3503954
 228830931, 0.3629314, -0.06282734, -0.1451295, 0.00104407, 0.1239976, -0.03428813, -0.04813026, 0.0005187925, -0.2970543, 0.9302652, 0.3503954
 229030851, 0.316662, -0.105534, -0.1221624, 0.00104407, 0.1024532, -0.04298885, -0.03957075, 0.0005187925, -0.03249284, 0.9753783, 0.3503954
 229230771, 0.2591309, -0.1209343, -0.09730951, 0.00104407, 0.08406035, -0.04718594, -0.02892368, 0.0005187925, 0.1803761, 0.961648, 0.3503954
 229430691, 0.2211274, -0.1459171, -0.07111789, 0.00104407, 0.07657381, -0.06166062, -0.02263241, 0.0005187925, 0.2977296, 0.9344787, 0.3503954
 229631444, 0.2013553, -0.1655992, -0.06260698, 0.001046232, 0.06767288, -0.0546247, -0.02292454, 0.0005209541, 0.3158658, 0.9289783, 0.3511209
 229831364, 0.1703155, -0.1078073, -0.06142112, 0.001046232, 0.05456874, -0.01487121, -0.02111973, 0.0005187925, 0.2624831, 0.943314, 0.3511209
 230031284, 0.1448445, 0.0149689, -0.0511662, 0.00104407, 0.05108006, 0.03347282, -0.01463097, 0.0005187925, 0.1695523, 0.9609574, 0.3503954
 230231204, 0.1306556, 0.128457, -0.008368972, 0.00104407, 0.04165117, 0.06278675, 0.008634062, 0.0005187925, 0.07231969, 0.9727104, 0.3503954
 230431124, 0.09188814, 0.1803098, 0.03027097, 0.00104407, 0.02135658, 0.0675218, 0.01418601, 0.0005187925, 0.005141366, 0.9783178, 0.3503954
 230631044, 0.04049179, 0.1729416, 0.04080395, 0.00104407, 0.00661617, 0.05529256, 0.01570668, 0.0005187925, -0.01596104, 0.9798769, 0.3503954
 230830964, 0.01636485, 0.1291876, 0.04253805, 0.00104407, 0.006101933, 0.0349032, 0.01529817, 0.0005187925, 0.004159447, 0.9794804, 0.3503954
 231030884, 0.02196827, 0.07456396, 0.03997204, 0.00104407, 0.0105866, 0.01643332, 0.01380023, 0.0005187925, 0.04753194, 0.9773147, 0.3503954
 231230804, 0.03053246, 0.0297702, 0.0348754, 0.00104407, 0.01137901, 0.003440031, 0.01141868, 0.0005187925, 0.09257136, 0.9739129, 0.3503954
 231430724, 0.02792585, 0.001930192, 0.02770408, 0.00104407, 0.008182194, -0.002362459, 0.008543121, 0.0005187925, 0.1229633, 0.9710609, 0.3503954
 231631477, 0.01844708, -0.007444333, 0.01999626, 0.001046232, 0.005165942, -0.002513945, 0.005791475, 0.0005209541, 0.1322049, 0.970274, 0.3511209
 231831397, 0.01067037, -0.000966494, 0.01338861, 0.001046232, 0.002313844, 0.00321194, 0.003478245, 0.0005187925, 0.12287, 0.9716243, 0.3511209
 232031317, 0.005188649, 0.01605491, 0.008054714, 0.00104407, 0.001306058, 0.009469336, 0.002470542, 0.0005187925, 0.1031991, 0.97388, 0.3503954
 232231237, 0.002658968, 0.03099886, 0.005627158, 0.00104407, 0.00051296, 0.01357599, 0.001625437, 0.0005187925, 0.08269126, 0.9758319, 0.3503954
 232431157, 0.000552105, 0.03849525, 0.003660297, 0.00104407, -8.6233E-05, 0.01421366, 0.0008005098, 0.0005187925, 0.06853322, 0.9769877, 0.3503954
 232631077, -0.0007632922, 0.0365267, 0.001374006, 0.00104407, -0.000705637, 0.01211813, 0.0008859319, 0.0005187925, 0.06344338, 0.9773905, 0.3503954
 232830997, -0.008958013, 0.02796203, 0.03453827, 0.00104407, -0.004064625, 0.007905679, 0.01607331, 0.0005187925, 0.06624849, 0.9771482, 0.3503954
 233030917, -0.005454898, 0.01725571, 0.02651629, 0.00104407, 0.0005908896, 0.004220414, 0.001415266, 0.0005187925, 0.0733245, 0.9763513, 0.3503954
 233230837, 0.003801122, 0.008056053, -0.003760909, 0.00104407, 0.001585402, 0.0008946728, -0.004267837, 0.0005187925, 0.08035089, 0.9758648, 0.3503954
 233430757, 0.00328722, 0.001305871, -0.01624851, 0.00104407, 0.0005235207, -0.0001424207, -0.008063406, 0.0005187925, 0.0841303, 0.9758518, 0.3503954
 233630677, -0.001135199, 0.0005855396, -0.02165387, 0.00104407, -0.001692797, 0.0006452372, -0.007520968, 0.0005187925, 0.08375014, 0.9761218, 0.3503954
 233831430, -0.004718935, 0.004523738, -0.01940028, 0.001046232, -0.001636607, 0.002878117, -0.00626412, 0.0005209541, 0.08007717, 0.9763242, 0.3511209
 234031350, -0.003848552, 0.009680467, -0.01550434, 0.001046232, -0.000883474, 0.004065964, -0.004876753, 0.0005187925, 0.07489338, 0.9766033, 0.3511209
 234231270, -0.003014001, 0.0115971, -0.01189056, 0.00104407, -0.001315804, 0.004543569, -0.003815215, 0.0005187925, 0.07011559, 0.976966, 0.3503954
 234431190, -0.004774553, 0.0119213, -0.008078319, 0.00104407, -0.002223898, 0.004163115, -0.002209054, 0.0005187925, 0.06694826, 0.9772592, 0.3503954
 234631110, -0.006972147, 0.01047489, -0.005148705, 0.00104407, -0.002734943, 0.002992362, -0.0013973, 0.0005187925, 0.06554423, 0.9773644, 0.3503954
 234831030, -0.006863837, 0.006039476, -0.003416626, 0.00104407, -0.002288129, 0.001218046, -0.001043954, 0.0005187925, 0.06500733, 0.9773372, 0.3503954
 235030950, -0.005840176, 0.001993293, -0.001796156, 0.00104407, -0.001961638, 0.0002292702, -0.0002651835, 0.0005187925, 0.06458494, 0.977306, 0.3503954
 235230870, -0.005351262, 0.001295912, -0.0009118577, 0.00104407, -0.001738853, 0.001019749, -0.001109734, 0.0005187925, 0.06391864, 0.9773805, 0.3503954
 235430790, -0.006476987, 0.003596957, -0.001704277, 0.00104407, -0.003230264, 0.001654432, 7.161632E-07, 0.0005187925, 0.06269605, 0.9775437, 0.3503954
 235630710, -0.008517237, 0.004340286, -0.000740711, 0.00104407, -0.003109689, 0.001399178, -0.0003996073, 0.0005187925, 0.0610842, 0.9776282, 0.3503954
 235831463, -0.007834586, 0.003644528, -0.0008529912, 0.001046232, -0.002374387, 0.001129129, -0.0003748871, 0.0005209541, 0.05946444, 0.9776776, 0.3511209
 236031383, -0.007051829, 0.003253126, -0.001538061, 0.001046232, -0.003077983, 0.001072023, -0.0008343981, 0.0005187925, 0.05794355, 0.9778196, 0.3511209
 236231303, -0.008620678, 0.005623332, -0.00238004, 0.00104407, -0.003229382, 0.003101109, -0.001237207, 0.0005187925, 0.05664361, 0.9779361, 0.3503954
 236431223, -0.009216506, 0.009448628, -0.002793444, 0.00104407, -0.003775245, 0.003674081, -0.0006786468, 0.0005187925, 0.05575325, 0.9780123, 0.3503954
 236631143, -0.009892672, 0.01014687, -0.001663209, 0.00104407, -0.00357798, 0.003604266, -0.0008157804, 0.0005187925, 0.05511722, 0.9780684, 0.3503954
 236831063, -0.009930992, 0.01070405, -0.001523182, 0.00104407, -0.00338195, 0.004100308, -0.0005612523, 0.0005187925, 0.05469118, 0.9780852, 0.3503954
 237030983, -0.009638145, 0.01185963, -0.001637148, 0.00104407, -0.003471396, 0.004641568, -0.00078385, 0.0005187925, 0.05457586, 0.9780655, 0.3503954
 237230903, -0.009637698, 0.01221134, -0.001366891, 0.00104407, -0.003489732, 0.004584816, -0.0006932394, 0.0005187925, 0.0546726, 0.9780176, 0.3503954
 237430823, -0.008970212, 0.01269207, -0.001527187, 0.00104407, -0.0030894, 0.004793786, -0.0006487337, 0.0005187925, 0.05499329, 0.977914, 0.3503954
 237630743, -0.007661586, 0.01332861, -0.001893311, 0.00104407, -0.002016425, 0.005107048, -0.0007321123, 0.0005187925, 0.0553649, 0.9778361, 0.3503954
 237830663, -0.006827378, 0.01397059, -0.001765875, 0.00104407, -0.002899446, 0.005276504, -0.001299226, 0.0005187925, 0.05549295, 0.9778913, 0.3503954
 238031416, -0.009029431, 0.01405638, -0.002231582, 0.001046232, -0.003533859, 0.005017213, -0.0005233831, 0.0005209541, 0.05551527, 0.9779391, 0.3511209
 238231336, -0.009820043, 0.01383372, -0.001591455, 0.001046232, -0.003669956, 0.00516612, -0.0004873186, 0.0005187925, 0.05556222, 0.9779552, 0.3511209
 238431256, -0.01012983, 0.01447194, -0.001681431, 0.00104407, -0.003848495, 0.005390707, -0.0008086783, 0.0005187925, 0.05568932, 0.9779552, 0.3503954
 238631176, -0.01062979, 0.0144691, -0.001915409, 0.00104407, -0.00367522, 0.005423982, -0.001214397, 0.0005187925, 0.05579135, 0.977954, 0.3503954
 238831096, -0.01026994, 0.01437698, -0.002070207, 0.00104407, -0.003760919, 0.005187282, -0.0008349688, 0.0005187925, 0.05585418, 0.9779643, 0.3503954
 239031016, -0.01066041, 0.01448261, -0.001549936, 0.00104407, -0.003777398, 0.005113763, -0.0004275268, 0.0005187925, 0.05591421, 0.9779722, 0.3503954
 239230936, -0.01086254, 0.01447199, -0.001048342, 0.00104407, -0.003968636, 0.005121882, -0.0004544407, 0.0005187925, 0.05594862, 0.9779798, 0.3503954
 239430856, -0.01114258, 0.01461465, -0.001005981, 0.00104407, -0.003992056, 0.00544074, -0.001081901, 0.0005187925, 0.0560338, 0.9779964, 0.3503954
 239630776, -0.01156664, 0.01440628, -0.002070769, 0.00104407, -0.00421527, 0.005144621, -0.001327398, 0.0005187925, 0.05604642, 0.9779646, 0.3503954
 239830696, -0.009963625, 0.01415017, -0.002820344, 0.00104407, -0.003835237, 0.005122009, -0.001473687, 0.0005187925, 0.05600611, 0.9780226, 0.3503954
 240031449, -0.01243811, 0.013751, -0.003049846, 0.001046232, -0.006260692, 0.004637866, -0.001208187, 0.0005209541, 0.05585005, 0.978103, 0.3511209
 240231369, -0.01602782, 0.01314335, -0.002347762, 0.001046232, -0.004493904, 0.004736926, -0.00112582, 0.0005187925, 0.05565101, 0.9780161, 0.3511209
 240431289, -0.01155086, 0.01338604, -0.001472631, 0.00104407, -0.003509132, 0.004860664, -0.0005608019, 0.0005187925, 0.05556428, 0.9779672, 0.3503954
 240631209, -0.008048485, 0.01067129, -0.001071597, 0.00104407, -0.0007551538, 0.002647153, -0.0007794551, 0.0005187925, 0.05512895, 0.9780086, 0.3503954
 240831129, -0.006168484, 0.003818644, -0.001912939, 0.00104407, -0.004299419, -0.0004884287, -0.0007115592, 0.0005187925, 0.05367831, 0.9783827, 0.3503954
 241031049, -0.01628492, -0.003657822, -0.001180358, 0.00104407, -0.006073415, -0.002592284, -0.0004072145, 0.0005187925, 0.05086154, 0.9784973, 0.3503954
 241230969, -0.01370234, -0.006913295, -0.0005327098, 0.00104407, -0.003603731, -0.002499248, -0.0001635243, 0.0005187925, 0.04729949, 0.9784153, 0.3503954
 241430889, -0.008701572, -0.005279975, -0.0004202603, 0.00104407, -0.00286968, -0.001363131, -0.0004850569, 0.0005187925, 0.0434528, 0.978592, 0.3503954
 241630809, -0.007958558, -0.001657945, -0.0007072299, 0.00104407, -0.004408305, -6.125049E-05, 1.091044E-05, 0.0005187925, 0.04005284, 0.9790251, 0.3503954
 241830729, -0.01599848, 0.002010617, -0.0005176654, 0.00104407, -0.006910301, 0.001602865, 3.548751E-05, 0.0005187925, 0.03751694, 0.979251, 0.3503954
 242031482, -0.01615008, 0.004209058, -0.0003694471, 0.001046232, -0.003414677, 0.00158999, -0.0006426992, 0.0005209541, 0.03597779, 0.9790501, 0.3511209
 242231402, -0.008635151, 0.004948062, -0.0006944821, 0.001046232, -0.002804001, 0.002035684, -0.0002895925, 0.0005187925, 0.0352919, 0.9788651, 0.3511209
 242431322, -0.008004921, 0.006475296, -0.0002638632, 0.00104407, -0.003217696, 0.002660654, -0.000183603, 0.0005187925, 0.03518452, 0.978941, 0.3503954
 242631242, -0.01027884, 0.00801514, -0.001175429, 0.00104407, -0.00425816, 0.003447676, -0.001122195, 0.0005187925, 0.03549123, 0.9791107, 0.3503954
 242831162, -0.01270125, 0.009511735, -0.002043276, 0.00104407, -0.004808941, 0.00335428, -0.0007689664, 0.0005187925, 0.03605894, 0.9791176, 0.3503954
 243031082, -0.01358249, 0.0105797, -0.001149165, 0.00104407, -0.004390096, 0.004548036, -0.0007602653, 0.0005187925, 0.03667673, 0.9790042, 0.3503954
 243231002, -0.01164584, 0.01315459, -0.001099429, 0.00104407, -0.003946398, 0.005168865, -0.001056798, 0.0005187925, 0.03711957, 0.9789562, 0.3503954
 243430922, -0.01143894, 0.01464988, -0.001818896, 0.00104407, -0.004308315, 0.005781958, -0.0007186482, 0.0005187925, 0.03750655, 0.9790066, 0.3503954
 243630842, -0.01239003, 0.01580291, -0.0009555571, 0.00104407, -0.004332583, 0.005563857, -0.0008270256, 0.0005187925, 0.03788342, 0.9789826, 0.3503954
 243830762, -0.01208733, 0.0154806, -0.00127081, 0.00104407, -0.004328854, 0.005776956, -0.000959805, 0.0005187925, 0.03824455, 0.9789454, 0.3503954
 244030682, -0.01162709, 0.01588229, -0.001535927, 0.00104407, -0.004407666, 0.005944011, -0.00085967, 0.0005187925, 0.03864136, 0.9789211, 0.3503954
 244231435, -0.0121258, 0.01675657, -0.0008869984, 0.001046232, -0.004359295, 0.006195145, -0.0003166246, 0.0005209541, 0.03913654, 0.9789069, 0.3511209
 244431355, -0.01200337, 0.01751567, -0.0003805644, 0.001046232, -0.004172879, 0.006526108, -0.0006134725, 0.0005187925, 0.03965238, 0.9788825, 0.3511209
 244631275, -0.01170476, 0.01762243, -0.001150496, 0.00104407, -0.004205638, 0.006518211, -0.0006693808, 0.0005187925, 0.04010619, 0.9788605, 0.3503954
 244831195, -0.01198522, 0.01732715, -6.00468E-06, 0.00104407, -0.004428845, 0.006188501, -0.0002322412, 0.0005187925, 0.04049823, 0.978833, 0.3503954
 245031115, -0.01196441, 0.01674818, -0.0003011094, 0.00104407, -0.004440105, 0.00601902, 0.0001011682, 0.0005187925, 0.04085953, 0.9787875, 0.3503954
 245231035, -0.01142508, 0.01645571, -4.357006E-05, 0.00104407, -0.004125927, 0.005607085, -0.002388831, 0.0005187925, 0.04113237, 0.9788114, 0.3503954
 245430955, -0.01264216, 0.01514313, -0.003478017, 0.00104407, -0.006778287, 0.005266192, -0.0008419614, 0.0005187925, 0.04125541, 0.9789512, 0.3503954
 245630875, -0.01683985, 0.01426492, -0.001640026, 0.00104407, -0.005654211, 0.00520806, -0.0002121041, 0.0005187925, 0.04131263, 0.9789541, 0.3503954
 245830795, -0.01389535, 0.01420464, -0.0004461636, 0.00104407, -0.004465316, 0.005113876, -0.0003178648, 0.0005187925, 0.04131229, 0.978843, 0.3503954
 246030715, -0.0113483, 0.01419929, -0.0008992875, 0.00104407, -0.003490905, 0.005299628, -0.001048008, 0.0005187925, 0.04121057, 0.9787606, 0.3503954
 246231468, -0.01017344, 0.01258389, -0.001801946, 0.001046232, -0.003717198, 0.002993796, -0.0003437728, 0.0005209541, 0.0405234, 0.9788082, 0.3511209
 246431388, -0.01067909, 0.004553934, -0.0008106553, 0.001046232, -0.004015082, -0.0002978113, -0.0003761074, 0.0005187925, 0.03884113, 0.9789065, 0.3511209
 246631308, -0.01116235, -0.002507657, -0.001012229, 0.00104407, -0.004407625, -0.001440438, -0.0007143249, 0.0005187925, 0.03613851, 0.9790382, 0.3503954
 246831228, -0.009149259, -0.003050089, -0.001165938, 0.00104407, -0.001919011, -0.0005537058, -0.0007138876, 0.0005187925, 0.03265175, 0.9792501, 0.3503954
 247031148, -0.01029119, -0.000235902, -0.000944618, 0.00104407, -0.005793354, 0.0003720102, -0.0001638103, 0.0005187925, 0.02914919, 0.9795894, 0.3503954
 247231068, -0.01613927, 0.00194916, -0.0005069623, 0.00104407, -0.005343196, 0.0008572694, -0.0006952925, 0.0005187925, 0.02603612, 0.9795874, 0.3503954
 247430988, -0.01373433, 0.002180184, -0.0007417558, 0.00104407, -0.004364257, 0.0006858375, -0.0001782538, 0.0005187925, 0.02386679, 0.9794879, 0.3503954
 247630908, -0.01177281, 0.002073316, -0.0001206963, 0.00104407, -0.004268239, 0.001069815, -0.0003040278, 0.0005187925, 0.0226252, 0.9795099, 0.3503954
