TimeUS,CGpN,CGpE,CGpD,CGpe,PGpN,PGpE,PGpD,PGpe
 170463454, 0, 0, 0, 0.01, 0, 0, 0, 0
 170630887, 0, 0, 0, 0.01, 0, 0, 0, 0.01
 170830807, 0, 0, 0, 0.01, 0, 0, 0, 0.01
 171030727, 0, 0, 0, 0.01, 0, 0, 0, 0.01
 171231480, 0, 0, 0, 0.01, 0, 0, 0, 0.01
 171431400, 0, 0, 0, 0.01, 0, 0, 0, 0.01
 171631320, 0, 0, 0, 0.01, 0, 0, 0, 0.01
 171831240, 0, 0, 0, 0.01, 0, 0, 0, 0.01
 172031160, 0, 0, 0, 0.01, 0, 0, 0, 0.01
 172231080, 0, 0, 0, 0.01, 0, 0, 0, 0.01
 172431000, 0, 0, 0, 0.01, 0, 0, 0, 0.01
 172630920, 0, 0, 0, 0.01, 0, 0, 0, 0.01
 172830840, 0, 0, 0, 0.01, 0, 0, 0, 0.01
 173030760, 0, 0, 0, 0.01, 0, 0, 0, 0.01
 173230680, 0, 0, 0, 0.01, 0, 0, 0, 0.01
 173431433, 0, 0, 0, 0.01, 0, 0, 0, 0.01
 173631353, 0, 0, 0, 0.01, 0, 0, 0, 0.01
 173831273, 0, 0, 0, 0.01, 0, 0, 0, 0.01
 174031193, 0, 0, 0, 0.01, 0, 0, 0, 0.01
 174231113, 0, 0, 0, 0.01, 0, 0, 0, 0.01
 174431033, 0, 0, 0, 0.01, 0, 0, 0, 0.01
 174630953, 0, 0, 0, 0.01, 0, 0, 0, 0.01
 174830873, 0, 0, 0, 0.01, 0, 0, 0, 0.01
 175030793, 0, 0, 0, 0.01, 0, 0, 0, 0.01
 175230713, 0, 0, 0, 0.01, 0, 0, 0, 0.01
 175431466, 0, 0, 0, 0.01, 0, 0, 0, 0.01
 175631386, 0, 0, 0, 0.01, 0, 0, 0, 0.01
 175831306, 0, 0, 0, 0.01, 0, 0, 0, 0.01
 176031226, 0, 0, 0, 0.01, 0, 0, 0, 0.01
 176231146, 0, 0, 0, 0.01, 0, 0, 0, 0.01
 176431066, 0, 0, 0, 0.01, 0, 0, 0, 0.01
 176630986, 0, 0, 0, 0.01, 0, 0, 0, 0.01
 176830906, 0, 0, 0, 0.01, 0, 0, 0, 0.01
 177030826, 0, 0, 0, 0.01, 0, 0, 0, 0.01
 177230746, 0, 0, 0, 0.01, 0, 0, 0, 0.01
 177430666, 0, 0, 0, 0.01, 0, 0, 0, 0.01
 177631419, 0, 0, 0, 0.01, 0, 0, 0, 0.01
 177831339, 0, 0, 0, 0.01, 0, 0, 0, 0.01
 178031259, 0, 0, 0, 0.01, 0, 0, 0, 0.01
 178231179, 0, 0, 0, 0.01, 0, 0, 0, 0.01
 178431099, 0, 0, 0, 0.01, 0, 0, 0, 0.01
 178631019, 0, 0, 0, 0.01, 0, 0, 0, 0.01
 178830939, 0, 0, 0, 0.01, 0, 0, 0, 0.01
 179030859, 0, 0, 0, 0.01, 0, 0, 0, 0.01
 179230779, 0, 0, 0, 0.01, 0, 0, 0, 0.01
 179430699, 0, 0, 0, 0.01, 0, 0, 0, 0.01
 179631452, 0, 0, 0, 0.01, 0, 0, 0, 0.01
 179831372, 0, 0, 0, 0.01, 0, 0, 0, 0.01
 180031292, 0, 0, 0, 0.01, 0, 0, 0, 0.01
 180231212, 0, 0, 0, 0.01, 0, 0, 0, 0.01
 180431132, 0, 0, 0, 0.01, 0, 0, 0, 0.01
 180631052, 0, 0, 0, 0.01, 0, 0, 0, 0.01
 180830972, 0, 0, 0, 0.01, 0, 0, 0, 0.01
 181030892, 0, 0, 0, 0.01, 0, 0, 0, 0.01
 181230812, 0, 0, 0, 0.01, 0, 0, 0, 0.01
 181430732, 0, 0, 0, 0.01, 0, 0, 0, 0.01
 181631485, 0, 0, 0, 0.01, 0, 0, 0, 0.01
 181831405, 0, 0, 0, 0.01, 0, 0, 0, 0.01
 182031325, 0, 0, 0, 0.01, 0, 0, 0, 0.01
 182231245, 0, 0, 0, 0.01, 0, 0, 0, 0.01
 182431165, 0, 0, 0, 0.01, 0, 0, 0, 0.01
 182631085, 0, 0, 0, 0.01, 0, 0, 0, 0.01
 182831005, 0, 0, 0, 0.01, 0, 0, 0, 0.01
 183030925, 0, 0, 0, 0.01, 0, 0, 0, 0.01
 183230845, 0, 0, 0, 0.01, 0, 0, 0, 0.01
 183430765, 0, 0, 0, 0.01, 0, 0, 0, 0.01
 183630685, 0, 0, 0, 0.01, 0, 0, 0, 0.01
 183831438, 0, 0, 0, 0.01, 0, 0, 0, 0.01
 184031358, 0, 0, 0, 0.01, 0, 0, 0, 0.01
 184231278, 0, 0, 0, 0.01, 0, 0, 0, 0.01
 184431198, 0, 0, 0, 0.01, 0, 0, 0, 0.01
 184631118, 0, 0, 0, 0.01, 0, 0, 0, 0.01
 184831038, 0, 0, 0, 0.01, 0, 0, 0, 0.01
 185030958, 0, 0, 0, 0.01, 0, 0, 0, 0.01
 185230878, 0, 0, 0, 0.01, 0, 0, 0, 0.01
 185430798, 0, 0, 0, 0.01, 0, 0, 0, 0.01
 185630718, 0, 0, 0, 0.01, 0, 0, 0, 0.01
 185831471, 0, 0, 0, 0.01, 0, 0, 0, 0.01
 186031391, 0, 0, 0, 0.01, 0, 0, 0, 0.01
 186231311, 0, 0, 0, 0.01, 0, 0, 0, 0.01
 186431231, 0, 0, 0, 0.01, 0, 0, 0, 0.01
 186631151, 0, 0, 0, 0.01, 0, 0, 0, 0.01
 186831071, 0, 0, 0, 0.01, 0, 0, 0, 0.01
 187030991, 0, 0, 0, 0.01, 0, 0, 0, 0.01
 187230911, 0, 0, 0, 0.01, 0, 0, 0, 0.01
 187430831, 0, 0, 0, 0.01, 0, 0, 0, 0.01
 187630751, 0, 0, 0, 0.01, 0, 0, 0, 0.01
 187830671, 0, 0, 0, 0.01, 0, 0, 0, 0.01
 188031424, 0, 0, 0, 0.01, 0, 0, 0, 0.01
 188231344, 0, 0, 0, 0.01, 0, 0, 0, 0.01
 188431264, 0, 0, 0, 0.01, 0, 0, 0, 0.01
 188631184, 0, 0, 0, 0.01, 0, 0, 0, 0.01
 188831104, 0, 0, 0, 0.01, 0, 0, 0, 0.01
 189031024, 0, 0, 0, 0.01, 0, 0, 0, 0.01
 189230944, 0, 0, 0, 0.01, 0, 0, 0, 0.01
 189430864, 0, 0, 0, 0.01, 0, 0, 0, 0.01
 189630784, 0, 0, 0, 0.01, 0, 0, 0, 0.01
 189830704, 0, 0, 0, 0.01, 0, 0, 0, 0.01
 190031457, 0, 0, 0, 0.01, 0, 0, 0, 0.01
 190231377, 0, 0, 0, 0.01, 0, 0, 0, 0.01
 190431297, 0, 0, 0, 0.01, 0, 0, 0, 0.01
 190631217, 0, 0, 0, 0.01, 0, 0, 0, 0.01
 190831137, 0, 0, 0, 0.01, 0, 0, 0, 0.01
 191031057, 0, 0, 0, 0.01, 0, 0, 0, 0.01
 191230977, 0, 0, 0, 0.01, 0, 0, 0, 0.01
 191430897, 0, 0, 0, 0.01, 0, 0, 0, 0.01
 191630817, 0, 0, 0, 0.01, 0, 0, 0, 0.01
 191830737, 0, 0, 0, 0.01, 0, 0, 0, 0.01
 192030657, 0, 0, 0, 0.01, 0, 0, 0, 0.01
 192231410, 0, 0, 0, 0.01, 0, 0, 0, 0.01
 192431330, 0, 0, 0, 0.01, 0, 0, 0, 0.01
 192631250, 0, 0, 0, 0.01, 0, 0, 0, 0.01
 192831170, 0, 0, 0, 0.01, 0, 0, 0, 0.01
 193031090, 0, 0, 0, 0.01, 0, 0, 0, 0.01
 193231010, 0, 0, 0, 0.01, 0, 0, 0, 0.01
 193430930, 0, 0, 0, 0.01, 0, 0, 0, 0.01
 193630850, 0, 0, 0, 0.01, 0, 0, 0, 0.01
 193830770, 0, 0, 0, 0.01, 0, 0, 0, 0.01
 194030690, 0, 0, 0, 0.01, 0, 0, 0, 0.01
 194231443, 0, 0, 0, 0.01, 0, 0, 0, 0.01
 194431363, 0, 0, 0, 0.01, 0, 0, 0, 0.01
 194631283, 0, 0, 0, 0.01, 0, 0, 0, 0.01
 194831203, 0, 0, 0, 0.01, 0, 0, 0, 0.01
 195031123, 0, 0, 0, 0.01, 0, 0, 0, 0.01
 195231043, 0, 0, 0, 0.01, 0, 0, 0, 0.01
 195430963, 0, 0, 0, 0.01, 0, 0, 0, 0.01
 195630883, 0, 0, 0, 0.01, 0, 0, 0, 0.01
 195830803, 0, 0, 0, 0.01, 0, 0, 0, 0.01
 196030723, 0, 0, 0, 0.01, 0, 0, 0, 0.01
 196231476, 0, 0, 0, 0.01, 0, 0, 0, 0.01
 196431396, 0, 0, 0, 0.01, 0, 0, 0, 0.01
 196631316, 0, 0, 0, 0.01, 0, 0, 0, 0.01
 196831236, 0, 0, 0, 0.01, 0, 0, 0, 0.01
 197031156, 0, 0, 0, 0.01, 0, 0, 0, 0.01
 197231076, 0, 0, 0, 0.01, 0, 0, 0, 0.01
 197430996, 0, 0, 0, 0.01, 0, 0, 0, 0.01
 197630916, 0, 0, 0, 0.01, 0, 0, 0, 0.01
 197830836, 0, 0, 0, 0.01, 0, 0, 0, 0.01
 198030756, 0, 0, 0, 0.01, 0, 0, 0, 0.01
 198230676, 0, 0, 0, 0.01, 0, 0, 0, 0.01
 198431429, 0, 0, 0, 0.01, 0, 0, 0, 0.01
 198631349, 0, 0, 0, 0.01, 0, 0, 0, 0.01
 198831269, 0, 0, 0, 0.01, 0, 0, 0, 0.01
 199031189, 0, 0, 0, 0.01, 0, 0, 0, 0.01
 199231109, 0, 0, 0, 0.01, 0, 0, 0, 0.01
 199431029, 0, 0, 0, 0.01, 0, 0, 0, 0.01
 199630949, 0, 0, 0, 0.01, 0, 0, 0, 0.01
 199830869, 0, 0, 0, 0.01, 0, 0, 0, 0.01
 200030789, 0, 0, 0, 0.01, 0, 0, 0, 0.01
 200230709, 0, 0, 0, 0.01, 0, 0, 0, 0.01
 200431462, 0, 0, 0, 0.01, 0, 0, 0, 0.01
 200631382, 0, 0, 0, 0.01, 0, 0, 0, 0.01
 200831302, 0, 0, 0, 0.01, 0, 0, 0, 0.01
 201031222, 0, 0, 0, 0.01, 0, 0, 0, 0.01
 201231142, 0, 0, 0, 0.01, 0, 0, 0, 0.01
 201431062, 0, 0, 0, 0.01, 0, 0, 0, 0.01
 201630982, 0, 0, 0, 0.01, 0, 0, 0, 0.01
 201830902, 0, 0, 0, 0.01, 0, 0, 0, 0.01
 202030822, 0, 0, 0, 0.01, 0, 0, 0, 0.01
 202230742, 0, 0, 0, 0.01, 0, 0, 0, 0.01
 202430662, 0, 0, 0, 0.01, 0, 0, 0, 0.01
 202631415, 0, 0, 0, 0.01, 0, 0, 0, 0.01
 202831335, 0, 0, 0, 0.01, 0, 0, 0, 0.01
 203031255, 0, 0, 0, 0.01, 0, 0, 0, 0.01
 203231175, 0, 0, 0, 0.01, 0, 0, 0, 0.01
 203431095, 0, 0, 0, 0.01, 0, 0, 0, 0.01
 203631015, 0, 0, 0, 0.01, 0, 0, 0, 0.01
 203830935, 0, 0, 0, 0.01, 0, 0, 0, 0.01
 204030855, 0, 0, 0, 0.01, 0, 0, 0, 0.01
 204230775, 0, 0, 0, 0.01, 0, 0, 0, 0.01
 204430695, 0, 0, 0, 0.01, 0, 0, 0, 0.01
 204631448, 0, 0, 0, 0.01, 0, 0, 0, 0.01
 204831368, 0, 0, 0, 0.01, 0, 0, 0, 0.01
 205031288, 0, 0, 0, 0.01, 0, 0, 0, 0.01
 205231208, 0, 0, 0, 0.01, 0, 0, 0, 0.01
 205431128, 0, 0, 0, 0.01, 0, 0, 0, 0.01
 205631048, 0, 0, 0, 0.01, 0, 0, 0, 0.01
 205830968, 0, 0, 0, 0.01, 0, 0, 0, 0.01
 206030888, 0, 0, 0, 0.01, 0, 0, 0, 0.01
 206230808, 0, 0, 0, 0.01, 0, 0, 0, 0.01
 206430728, 0, 0, 0, 0.01, 0, 0, 0, 0.01
 206631481, 0, 0, 0, 0.01, 0, 0, 0, 0.01
 206831401, 0, 0, 0, 0.01, 0, 0, 0, 0.01
 207031321, 0, 0, 0, 0.01, 0, 0, 0, 0.01
 207231241, 0, 0, 0, 0.01, 0, 0, 0, 0.01
 207431161, 0, 0, 0, 0.01, 0, 0, 0, 0.01
 207631081, 0, 0, 0, 0.01, 0, 0, 0, 0.01
 207831001, 0, 0, 0, 0.01, 0, 0, 0, 0.01
 208030921, 0, 0, 0, 0.01, 0, 0, 0, 0.01
 208230841, 0, 0, 0, 0.01, 0, 0, 0, 0.01
 208430761, 0, 0, 0, 0.01, 0, 0, 0, 0.01
 208630681, 0, 0, 0, 0.01, 0, 0, 0, 0.01
 208831434, 0, 0, 0, 0.01, 0, 0, 0, 0.01
 209031354, 0, 0, 0, 0.01, 0, 0, 0, 0.01
 209231274, 0, 0, 0, 0.01, 0, 0, 0, 0.01
 209431194, 0, 0, 0, 0.01, 0, 0, 0, 0.01
 209631114, 0, 0, 0, 0.01, 0, 0, 0, 0.01
 209831034, 0, 0, 0, 0.01, 0, 0, 0, 0.01
 210030954, 0, 0, 0, 0.01, 0, 0, 0, 0.01
 210230874, 0, 0, 0, 0.01, 0, 0, 0, 0.01
 210430794, 0, 0, 0, 0.01, 0, 0, 0, 0.01
 210630714, 0, 0, 0, 0.01, 0, 0, 0, 0.01
 210831467, 0, 0, 0, 0.01, 0, 0, 0, 0.01
 211031387, 0, 0, 0, 0.01, 0, 0, 0, 0.01
 211231307, 0, 0, 0, 0.01, 0, 0, 0, 0.01
 211431227, 0, 0, 0, 0.01, 0, 0, 0, 0.01
 211631147, 0, 0, 0, 0.01, 0, 0, 0, 0.01
 211831067, 0, 0, 0, 0.01, 0, 0, 0, 0.01
 212030987, 0, 0, 0, 0.01, 0, 0, 0, 0.01
 212230907, 0, 0, 0, 0.01, 0, 0, 0, 0.01
 212430827, 0, 0, 0, 0.01, 0, 0, 0, 0.01
 212630747, 0, 0, 0, 0.01, 0, 0, 0, 0.01
 212830667, 0, 0, 0, 0.01, 0, 0, 0, 0.01
 213031420, 0, 0, 0, 0.01, 0, 0, 0, 0.01
 213231340, 0, 0, 0, 0.01, 0, 0, 0, 0.01
 213431260, 0, 0, 0, 0.01, 0, 0, 0, 0.01
 213631180, 0, 0, 0, 0.01, 0, 0, 0, 0.01
 213831100, 0, 0, 0, 0.01, 0, 0, 0, 0.01
 214031020, 0, 0, 0, 0.01, 0, 0, 0, 0.01
 214230940, 0, 0, 0, 0.01, 0, 0, 0, 0.01
 214430860, 0, 0, 0, 0.01, 0, 0, 0, 0.01
 214630780, 0, 0, 0, 0.01, 0, 0, 0, 0.01
 214830700, 0, 0, 0, 0.01, 0, 0, 0, 0.01
 215031453, 0, 0, 0, 0.01, 0, 0, 0, 0.01
 215231373, 0, 0, 0, 0.01, 0, 0, 0, 0.01
 215431293, 0, 0, 0, 0.01, 0, 0, 0, 0.01
 215631213, 0, 0, 0, 0.01, 0, 0, 0, 0.01
 215831133, 0, 0, 0, 0.01, 0, 0, 0, 0.01
 216031053, 0, 0, 0, 0.01, 0, 0, 0, 0.01
 216230973, 0, 0, 0, 0.01, 0, 0, 0, 0.01
 216430893, 0, 0, 0, 0.01, 0, 0, 0, 0.01
 216630813, 0, 0, 0, 0.01, 0, 0, 0, 0.01
 216830733, 0, 0, 0, 0.01, 0, 0, 0, 0.01
 217031486, 0, 0, 0, 0.01, 0, 0, 0, 0.01
 217231406, 0, 0, 0, 0.01, 0, 0, 0, 0.01
 217431326, 0, 0, 0, 0.01, 0, 0, 0, 0.01
 217631246, 0, 0, 0, 0.01, 0, 0, 0, 0.01
 217831166, 0, 0, 0, 0.01, 0, 0, 0, 0.01
 218031086, 0, 0, 0, 0.01, 0, 0, 0, 0.01
 218231006, 0, 0, 0, 0.01, 0, 0, 0, 0.01
 218430926, 0, 0, 0, 0.01, 0, 0, 0, 0.01
 218630846, 0, 0, 0, 0.01, 0, 0, 0, 0.01
 218830766, 0, 0, 0, 0.01, 0, 0, 0, 0.01
 219030686, 0, 0, 0, 0.01, 0, 0, 0, 0.01
 219231439, 0, 0, 0, 0.01, 0, 0, 0, 0.01
 219431359, 0, 0, 0, 0.01, 0, 0, 0, 0.01
 219631279, 0, 0, 0, 0.01, 0, 0, 0, 0.01
 219831199, 0, 0, 0, 0.01, 0, 0, 0, 0.01
 220031119, 0, 0, 0, 0.01, 0, 0, 0, 0.01
 220231039, 0, 0, 0, 0.01, 0, 0, 0, 0.01
 220430959, 0, 0, 0, 0.01, 0, 0, 0, 0.01
 220630879, 0, 0, 0, 0.01, 0, 0, 0, 0.01
 220830799, 0, 0, 0, 0.01, 0, 0, 0, 0.01
 221030719, 0, 0, 0, 0.01, 0, 0, 0, 0.01
 221231472, 0, 0, 0, 0.01, 0, 0, 0, 0.01
 221431392, 0, 0, 0, 0.01, 0, 0, 0, 0.01
 221631312, 0, 0, 0, 0.01, 0, 0, 0, 0.01
 221831232, 0, 0, 0, 0.01, 0, 0, 0, 0.01
 222031152, 0, 0, -0.274, 0.01, 0, 0, 0, 0.01
 222231072, 0, 0, -0.274, 0.01, 0, 0, -0.274, 0.01
 222430992, 0, 0, -0.191, 0.01, 0, 0, -0.274, 0.01
 222630912, -0.003, -0.004, -1.408, 0.01, 0, 0, -0.191, 0.01
 222830832, -0.016, -0.017, -2.072, 0.01, -0.003, -0.004, -1.408, 0.01
 223030752, -0.031, -0.034, -2.193, 0.01, -0.016, -0.017, -2.072, 0.01
 223230672, -0.046, -0.049, -2.409, 0.01, -0.031, -0.034, -2.193, 0.01
 223431425, -0.058, -0.062, -2.648, 0.01, -0.046, -0.049, -2.409, 0.01
 223631345, -0.06900001, -0.072, -2.837, 0.01, -0.058, -0.062, -2.648, 0.01
 223831265, -0.079, -0.08000001, -2.998, 0.01, -0.06900001, -0.072, -2.837, 0.01
 224031185, -0.086, -0.086, -3.143, 0.01, -0.079, -0.08000001, -2.998, 0.01
 224231105, -0.09200001, -0.09100001, -3.271, 0.01, -0.086, -0.086, -3.143, 0.01
 224431025, -0.097, -0.094, -3.382, 0.01, -0.09200001, -0.09100001, -3.271, 0.01
 224630945, -0.1, -0.097, -3.48, 0.01, -0.097, -0.094, -3.382, 0.01
 224830865, -0.102, -0.09900001, -3.566, 0.01, -0.1, -0.097, -3.48, 0.01
 225030785, -0.104, -0.101, -3.641, 0.01, -0.102, -0.09900001, -3.566, 0.01
 225230705, -0.106, -0.104, -3.706, 0.01, -0.104, -0.101, -3.641, 0.01
 225431458, -0.109, -0.106, -3.764, 0.01, -0.106, -0.104, -3.706, 0.01
 225631378, -0.111, -0.109, -3.815, 0.01, -0.109, -0.106, -3.764, 0.01
 225831298, -0.114, -0.111, -3.859, 0.01, -0.111, -0.109, -3.815, 0.01
 226031218, -0.114, -0.111, -3.589, 0.01, -0.114, -0.111, -3.859, 0.01
 226231138, -0.112, -0.11, -3.05, 0.01, -0.114, -0.111, -3.589, 0.01
 226431058, -0.11, -0.11, -2.562, 0.01, -0.112, -0.11, -3.05, 0.01
 226630978, -0.104, -0.106, -2.007, 0.01, -0.11, -0.11, -2.562, 0.01
 226830898, -0.09, -0.09200001, -1.604, 0.01, -0.104, -0.106, -2.007, 0.01
 227030818, -0.036, -0.056, -1.355, 0.01, -0.09, -0.09200001, -1.604, 0.01
 227230738, 0.123, 0.022, -1.198, 0.01, -0.036, -0.056, -1.355, 0.01
 227430658, 0.359, 0.132, -1.099, 0.01, 0.123, 0.022, -1.198, 0.01
 227631411, 0.6, 0.241, -1.044, 0.01, 0.359, 0.132, -1.099, 0.01
 227831331, 0.809, 0.334, -1.021, 0.01, 0.6, 0.241, -1.044, 0.01
 228031251, 0.994, 0.421, -1.028, 0.01, 0.809, 0.334, -1.021, 0.01
 228231171, 1.168, 0.545, -1.053, 0.01, 0.994, 0.421, -1.028, 0.01
 228431091, 1.334, 0.717, -1.11, 0.01, 1.168, 0.545, -1.053, 0.01
 228631011, 1.503, 0.874, -1.193, 0.01, 1.334, 0.717, -1.11, 0.01
 228830931, 1.698, 0.9770001, -1.288, 0.01, 1.503, 0.874, -1.193, 0.01
 229030851, 1.926, 1.035, -1.388, 0.01, 1.698, 0.9770001, -1.288, 0.01
 229230771, 2.166, 1.068, -1.49, 0.01, 1.926, 1.035, -1.388, 0.01
 229430691, 2.395, 1.083, -1.583, 0.01, 2.166, 1.068, -1.49, 0.01
 229631444, 2.598, 1.094, -1.664, 0.01, 2.395, 1.083, -1.583, 0.01
 229831364, 2.769, 1.115, -1.73, 0.01, 2.598, 1.094, -1.664, 0.01
 230031284, 2.932, 1.128, -1.779, 0.01, 2.769, 1.115, -1.73, 0.01
 230231204, 3.104, 1.11, -1.82, 0.01, 2.932, 1.128, -1.779, 0.01
 230431124, 3.255, 1.095, -1.858, 0.01, 3.104, 1.11, -1.82, 0.01
 230631044, 3.362, 1.132, -1.89, 0.01, 3.255, 1.095, -1.858, 0.01
 230830964, 3.437, 1.231, -1.915, 0.01, 3.362, 1.132, -1.89, 0.01
 231030884, 3.496, 1.359, -1.919, 0.01, 3.437, 1.231, -1.915, 0.01
 231230804, 3.529, 1.469, -1.891, 0.01, 3.496, 1.359, -1.919, 0.01
 231430724, 3.531, 1.538, -1.853, 0.01, 3.529, 1.469, -1.891, 0.01
 231631477, 3.53, 1.572, -1.812, 0.01, 3.531, 1.538, -1.853, 0.01
 231831397, 3.545, 1.583, -1.772, 0.01, 3.53, 1.572, -1.812, 0.01
 232031317, 3.57, 1.582, -1.738, 0.01, 3.545, 1.583, -1.772, 0.01
 232231237, 3.592, 1.577, -1.712, 0.01, 3.57, 1.582, -1.738, 0.01
 232431157, 3.604, 1.575, -1.694, 0.01, 3.592, 1.577, -1.712, 0.01
 232631077, 3.61, 1.577, -1.68, 0.01, 3.604, 1.575, -1.694, 0.01
 232830997, 3.614, 1.583, -1.671, 0.01, 3.61, 1.577, -1.68, 0.01
 233030917, 3.617, 1.593, -1.665, 0.01, 3.614, 1.583, -1.671, 0.01
 233230837, 3.619, 1.604, -1.661, 0.01, 3.617, 1.593, -1.665, 0.01
 233430757, 3.621, 1.61, -1.659, 0.01, 3.619, 1.604, -1.661, 0.01
 233630677, 3.625, 1.609, -1.657, 0.01, 3.621, 1.61, -1.659, 0.01
 233831430, 3.627, 1.604, -1.641, 0.01, 3.625, 1.609, -1.657, 0.01
 234031350, 3.628, 1.599, -1.615, 0.01, 3.627, 1.604, -1.641, 0.01
 234231270, 3.637, 1.598, -1.613, 0.01, 3.628, 1.599, -1.615, 0.01
 234431190, 3.647, 1.596, -1.623, 0.01, 3.637, 1.598, -1.613, 0.01
 234631110, 3.655, 1.592, -1.636, 0.01, 3.647, 1.596, -1.623, 0.01
 234831030, 3.66, 1.589, -1.648, 0.01, 3.655, 1.592, -1.636, 0.01
 235030950, 3.663, 1.59, -1.658, 0.01, 3.66, 1.589, -1.648, 0.01
 235230870, 3.665, 1.592, -1.664, 0.01, 3.663, 1.59, -1.658, 0.01
 235430790, 3.667, 1.593, -1.668, 0.01, 3.665, 1.592, -1.664, 0.01
 235630710, 3.67, 1.595, -1.67, 0.01, 3.667, 1.593, -1.668, 0.01
 235831463, 3.659, 1.593, -1.621, 0.01, 3.67, 1.595, -1.67, 0.01
 236031383, 3.585, 1.565, -1.467, 0.01, 3.659, 1.593, -1.621, 0.01
 236231303, 3.446, 1.5, -1.257, 0.01, 3.585, 1.565, -1.467, 0.01
 236431223, 3.355, 1.391, -1.005, 0.01, 3.446, 1.5, -1.257, 0.01
 236631143, 3.365, 1.251, -0.757, 0.01, 3.355, 1.391, -1.005, 0.01
 236831063, 3.423, 1.107, -0.546, 0.01, 3.365, 1.251, -0.757, 0.01
 237030983, 3.487, 0.978, -0.379, 0.01, 3.423, 1.107, -0.546, 0.01
 237230903, 3.553, 0.869, -0.253, 0.01, 3.487, 0.978, -0.379, 0.01
 237430823, 3.627, 0.776, -0.163, 0.01, 3.553, 0.869, -0.253, 0.01
 237630743, 3.711, 0.692, -0.102, 0.01, 3.627, 0.776, -0.163, 0.01
 237830663, 3.796, 0.609, -0.063, 0.01, 3.711, 0.692, -0.102, 0.01
 238031416, 3.879, 0.525, -0.04, 0.01, 3.796, 0.609, -0.063, 0.01
 238231336, 3.957, 0.442, -0.026, 0.01, 3.879, 0.525, -0.04, 0.01
 238431256, 4.03, 0.365, -0.018, 0.01, 3.957, 0.442, -0.026, 0.01
 238631176, 4.1, 0.299, -0.013, 0.01, 4.03, 0.365, -0.018, 0.01
 238831096, 4.165, 0.245, -0.01, 0.01, 4.1, 0.299, -0.013, 0.01
 239031016, 4.224, 0.202, -0.008, 0.01, 4.165, 0.245, -0.01, 0.01
 239230936, 4.278, 0.169, -0.005, 0.01, 4.224, 0.202, -0.008, 0.01
 239430856, 4.327, 0.144, -0.002, 0.01, 4.278, 0.169, -0.005, 0.01
 239630776, 4.373, 0.123, 0, 0.01, 4.327, 0.144, -0.002, 0.01
 239830696, 4.415, 0.105, 0.001, 0.01, 4.373, 0.123, 0, 0.01
 240031449, 4.453, 0.089, 0.002, 0.01, 4.415, 0.105, 0.001, 0.01
 240231369, 4.489, 0.075, 0.002, 0.01, 4.453, 0.089, 0.002, 0.01
 240431289, 4.521, 0.06500001, 0.001, 0.01, 4.489, 0.075, 0.002, 0.01
 240631209, 4.55, 0.057, 0, 0.01, 4.521, 0.06500001, 0.001, 0.01
 240831129, 4.576, 0.051, 0, 0.01, 4.55, 0.057, 0, 0.01
 241031049, 4.601, 0.047, 0, 0.01, 4.576, 0.051, 0, 0.01
 241230969, 4.623, 0.045, 0.001, 0.01, 4.601, 0.047, 0, 0.01
 241430889, 4.645, 0.043, 0.001, 0.01, 4.623, 0.045, 0.001, 0.01
 241630809, 4.666, 0.042, 0.002, 0.01, 4.645, 0.043, 0.001, 0.01
 241830729, 4.685, 0.041, 0.002, 0.01, 4.666, 0.042, 0.002, 0.01
 242031482, 4.701, 0.04, 0.003, 0.01, 4.685, 0.041, 0.002, 0.01
 242231402, 4.714, 0.039, 0.003, 0.01, 4.701, 0.04, 0.003, 0.01
 242431322, 4.727, 0.038, 0.004, 0.01, 4.714, 0.039, 0.003, 0.01
 242631242, 4.74, 0.037, 0.004, 0.01, 4.727, 0.038, 0.004, 0.01
 242831162, 4.753, 0.035, 0.004, 0.01, 4.74, 0.037, 0.004, 0.01
 243031082, 4.764, 0.031, 0.004, 0.01, 4.753, 0.035, 0.004, 0.01
 243231002, 4.774, 0.024, 0.004, 0.01, 4.764, 0.031, 0.004, 0.01
 243430922, 4.783, 0.015, 0.003, 0.01, 4.774, 0.024, 0.004, 0.01
 243630842, 4.792, 0.004, 0.002, 0.01, 4.783, 0.015, 0.003, 0.01
 243830762, 4.801, -0.005, 0.001, 0.01, 4.792, 0.004, 0.002, 0.01
 244030682, 4.811, -0.015, 0.001, 0.01, 4.801, -0.005, 0.001, 0.01
 244231435, 4.82, -0.023, 0, 0.01, 4.811, -0.015, 0.001, 0.01
 244431355, 4.828, -0.028, 0, 0.01, 4.82, -0.023, 0, 0.01
 244631275, 4.836, -0.033, 0, 0.01, 4.828, -0.028, 0, 0.01
 244831195, 4.844, -0.038, 0, 0.01, 4.836, -0.033, 0, 0.01
 245031115, 4.851, -0.041, 0, 0.01, 4.844, -0.038, 0, 0.01
 245231035, 4.857, -0.044, 0, 0.01, 4.851, -0.041, 0, 0.01
 245430955, 4.863, -0.046, -0.001, 0.01, 4.857, -0.044, 0, 0.01
 245630875, 4.868, -0.048, -0.002, 0.01, 4.863, -0.046, -0.001, 0.01
 245830795, 4.874, -0.049, -0.003, 0.01, 4.868, -0.048, -0.002, 0.01
 246030715, 4.88, -0.05, -0.003, 0.01, 4.874, -0.049, -0.003, 0.01
 246231468, 4.886, -0.05, -0.003, 0.01, 4.88, -0.05, -0.003, 0.01
 246431388, 4.891, -0.049, -0.003, 0.01, 4.886, -0.05, -0.003, 0.01
 246631308, 4.896, -0.048, -0.003, 0.01, 4.891, -0.049, -0.003, 0.01
 246831228, 4.901, -0.046, -0.003, 0.01, 4.896, -0.048, -0.003, 0.01
 247031148, 4.906, -0.044, -0.002, 0.01, 4.901, -0.046, -0.003, 0.01
 247231068, 4.911, -0.042, -0.002, 0.01, 4.906, -0.044, -0.002, 0.01
 247430988, 4.915, -0.04, -0.001, 0.01, 4.911, -0.042, -0.002, 0.01
 247630908, 4.92, -0.038, -0.001, 0.01, 4.915, -0.04, -0.001, 0.01
 247830828, 4.924, -0.036, 0, 0.01, 4.92, -0.038, -0.001, 0.01
 248030748, 4.928, -0.034, 0, 0.01, 4.924, -0.036, 0, 0.01
 248230668, 4.932, -0.032, 0, 0.01, 4.928, -0.034, 0, 0.01
 248431421, 4.936, -0.03, 0, 0.01, 4.932, -0.032, 0, 0.01
 248631341, 4.939, -0.028, 0, 0.01, 4.936, -0.03, 0, 0.01
 248831261, 4.942, -0.026, 0, 0.01, 4.939, -0.028, 0, 0.01
 249031181, 4.944, -0.024, -0.001, 0.01, 4.942, -0.026, 0, 0.01
 249231101, 4.946, -0.022, -0.001, 0.01, 4.944, -0.024, -0.001, 0.01
 249431021, 4.948, -0.02, -0.001, 0.01, 4.946, -0.022, -0.001, 0.01
 249630941, 4.95, -0.019, -0.001, 0.01, 4.948, -0.02, -0.001, 0.01
 249830861, 4.953, -0.019, -0.001, 0.01, 4.95, -0.019, -0.001, 0.01
 250030781, 4.957, -0.019, -0.001, 0.01, 4.953, -0.019, -0.001, 0.01
 250230701, 4.96, -0.018, -0.002, 0.01, 4.957, -0.019, -0.001, 0.01
 250431454, 4.962, -0.017, -0.003, 0.01, 4.96, -0.018, -0.002, 0.01
 250631374, 4.964, -0.015, -0.003, 0.01, 4.962, -0.017, -0.003, 0.01
 250831294, 4.965, -0.014, -0.002, 0.01, 4.964, -0.015, -0.003, 0.01
 251031214, 4.966, -0.013, -0.002, 0.01, 4.965, -0.014, -0.002, 0.01
 251231134, 4.968, -0.013, -0.002, 0.01, 4.966, -0.013, -0.002, 0.01
 251431054, 4.969, -0.013, -0.002, 0.01, 4.968, -0.013, -0.002, 0.01
 251630974, 4.97, -0.012, -0.003, 0.01, 4.969, -0.013, -0.002, 0.01
 251830894, 4.972, -0.012, -0.003, 0.01, 4.97, -0.012, -0.003, 0.01
 252030814, 4.973, -0.012, -0.002, 0.01, 4.972, -0.012, -0.003, 0.01
 252230734, 4.975, -0.011, -0.002, 0.01, 4.973, -0.012, -0.002, 0.01
 252430654, 4.976, -0.011, -0.001, 0.01, 4.975, -0.011, -0.002, 0.01
 252631407, 4.977, -0.011, 0, 0.01, 4.976, -0.011, -0.001, 0.01
 252831327, 4.979, -0.011, 0, 0.01, 4.977, -0.011, 0, 0.01
 253031247, 4.98, -0.011, 0, 0.01, 4.979, -0.011, 0, 0.01
 253231167, 4.981, -0.01, 0, 0.01, 4.98, -0.011, 0, 0.01
 253431087, 4.981, -0.01, 0, 0.01, 4.981, -0.01, 0, 0.01
 253631007, 4.981, -0.009000001, 0, 0.01, 4.981, -0.01, 0, 0.01
 253830927, 4.982, -0.009000001, -0.001, 0.01, 4.981, -0.009000001, 0, 0.01
 254030847, 4.983, -0.008, -0.002, 0.01, 4.982, -0.009000001, -0.001, 0.01
 254230767, 4.983, -0.007, -0.003, 0.01, 4.983, -0.008, -0.002, 0.01
 254430687, 4.984, -0.007, -0.004, 0.01, 4.983, -0.007, -0.003, 0.01
 254631440, 4.984, -0.006, -0.005, 0.01, 4.984, -0.007, -0.004, 0.01
 254831360, 4.984, -0.006, -0.005, 0.01, 4.984, -0.006, -0.005, 0.01
 255031280, 4.984, -0.005, -0.004, 0.01, 4.984, -0.006, -0.005, 0.01
 255231200, 4.985, -0.005, -0.004, 0.01, 4.984, -0.005, -0.004, 0.01
 255431120, 4.987, -0.005, -0.004, 0.01, 4.985, -0.005, -0.004, 0.01
 255631040, 4.987, -0.005, -0.003, 0.01, 4.987, -0.005, -0.004, 0.01
 255830960, 4.987, -0.005, -0.003, 0.01, 4.987, -0.005, -0.003, 0.01
 256030880, 4.988, -0.005, -0.003, 0.01, 4.987, -0.005, -0.003, 0.01
 256230800, 4.989, -0.005, -0.003, 0.01, 4.988, -0.005, -0.003, 0.01
 256430720, 4.99, -0.004, -0.002, 0.01, 4.989, -0.005, -0.003, 0.01
 256631473, 4.991, -0.004, -0.001, 0.01, 4.99, -0.004, -0.002, 0.01
 256831393, 4.991, -0.004, 0, 0.01, 4.991, -0.004, -0.001, 0.01
 257031313, 4.991, -0.004, 0, 0.01, 4.991, -0.004, 0, 0.01
 257231233, 4.992, -0.004, -0.001, 0.01, 4.991, -0.004, 0, 0.01
 257431153, 4.992, -0.004, 0, 0.01, 4.992, -0.004, -0.001, 0.01
 257631073, 4.993, -0.003, 0, 0.01, 4.992, -0.004, 0, 0.01
 257830993, 4.994, -0.002, 0, 0.01, 4.993, -0.003, 0, 0.01
 258030913, 4.995, -0.002, 0, 0.01, 4.994, -0.002, 0, 0.01
 258230833, 4.996, -0.002, -0.001, 0.01, 4.995, -0.002, 0, 0.01
 258430753, 4.996, -0.002, -0.001, 0.01, 4.996, -0.002, -0.001, 0.01
 258630673, 4.997, -0.001, 0, 0.01, 4.996, -0.002, -0.001, 0.01
 258831426, 4.997, -0.001, 0, 0.01, 4.997, -0.001, 0, 0.01
 259031346, 4.997, -0.001, 0, 0.01, 4.997, -0.001, 0, 0.01
 259231266, 4.998, 0, 0, 0.01, 4.997, -0.001, 0, 0.01
 259431186, 4.997, 0, 0, 0.01, 4.998, 0, 0, 0.01
 259631106, 4.997, 0, 0.001, 0.01, 4.997, 0, 0, 0.01
 259831026, 4.997, 0, 0.001, 0.01, 4.997, 0, 0.001, 0.01
 260030946, 4.996, -0.001, 0.002, 0.01, 4.997, 0, 0.001, 0.01
 260230866, 4.996, -0.001, 0.003, 0.01, 4.996, -0.001, 0.002, 0.01
 260430786, 4.997, -0.002, 0.004, 0.01, 4.996, -0.001, 0.003, 0.01
 260630706, 4.997, -0.003, 0.003, 0.01, 4.997, -0.002, 0.004, 0.01
 260831459, 4.997, -0.002, 0.002, 0.01, 4.997, -0.003, 0.003, 0.01
 261031379, 4.996, -0.001, 0.002, 0.01, 4.997, -0.002, 0.002, 0.01
 261231299, 4.996, -0.001, 0.001, 0.01, 4.996, -0.001, 0.002, 0.01
 261431219, 4.997, -0.001, 0, 0.01, 4.996, -0.001, 0.001, 0.01
 261631139, 4.997, -0.001, 0, 0.01, 4.997, -0.001, 0, 0.01
 261831059, 4.996, -0.001, 0, 0.01, 4.997, -0.001, 0, 0.01
 262030979, 0, 0.0125, -0.001, 0.01, 4.996, -0.001, 0, 0.01
 262230899, 0, 0.0125, -0.001, 0.01, 0, 0.0125, -0.001, 0.01
 262430819, 0, 0.0125, -0.001, 0.01, 0, 0.0125, -0.001, 0.01
 262630739, 0, 0.0125, -0.001, 0.01, 0, 0.0125, -0.001, 0.01
 262830659, 0, 0.0125, -0.001, 0.01, 0, 0.0125, -0.001, 0.01
 263031412, 0, 0.0125, 0, 0.01, 0, 0.0125, -0.001, 0.01
 263231332, 0, 0.0125, 0.002, 0.01, 0, 0.0125, 0, 0.01
 263431252, 0, 0.0125, 0.004, 0.01, 0, 0.0125, 0.002, 0.01
 263631172, 0, 0.0125, 0.004, 0.01, 0, 0.0125, 0.004, 0.01
 263831092, 0, 0.0125, 0.004, 0.01, 0, 0.0125, 0.004, 0.01
 264031012, 0, 0.0125, 0.007, 0.01, 0, 0.0125, 0.004, 0.01
 264230932, 0, 0.0125, 0.013, 0.01, 0, 0.0125, 0.007, 0.01
 264430852, 0, 0.0125, 0.021, 0.01, 0, 0.0125, 0.013, 0.01
 264630772, 0, 0.0125, 0.032, 0.01, 0, 0.0125, 0.021, 0.01
 264830692, 0, 0.0125, 0.048, 0.01, 0, 0.0125, 0.032, 0.01
 265031445, 0, 0.0125, 0.08000001, 0.01, 0, 0.0125, 0.048, 0.01
 265231365, 0, 0.0125, 0.177, 0.01, 0, 0.0125, 0.08000001, 0.01
 265431285, 0, 0.0125, 0.25, 0.01, 0, 0.0125, 0.177, 0.01
 265631205, 0, 0.0125, 0.244, 0.01, 0, 0.0125, 0.25, 0.01
 265831125, 0, 0.0125, 0.18, 0.01, 0, 0.0125, 0.244, 0.01
 266031045, 0, 0.0125, 0.136, 0.01, 0, 0.0125, 0.18, 0.01
 266230965, 0, 0.0125, 0.138, 0.01, 0, 0.0125, 0.136, 0.01
 266430885, 0, 0.0125, 0.157, 0.01, 0, 0.0125, 0.138, 0.01
 266630805, 0, 0.0125, 0.161, 0.01, 0, 0.0125, 0.157, 0.01
 266830725, 0, 0.0125, 0.15, 0.01, 0, 0.0125, 0.161, 0.01
 267031478, 0, 0.0125, 0.138, 0.01, 0, 0.0125, 0.15, 0.01
 267231398, 0, 0.0125, 0.13, 0.01, 0, 0.0125, 0.138, 0.01
 267431318, 0, 0.0125, 0.129, 0.01, 0, 0.0125, 0.13, 0.01
 267631238, 0, 0.0125, 0.133, 0.01, 0, 0.0125, 0.129, 0.01
 267831158, 0, 0.0125, 0.139, 0.01, 0, 0.0125, 0.133, 0.01
 268031078, 0, 0.0125, 0.148, 0.01, 0, 0.0125, 0.139, 0.01
 268230998, 0, 0.0125, 0.158, 0.01, 0, 0.0125, 0.148, 0.01
 268430918, 0, 0.0125, 0.168, 0.01, 0, 0.0125, 0.158, 0.01
 268630838, 0, 0.0125, 0.175, 0.01, 0, 0.0125, 0.168, 0.01
 268830758, 0, 0.0125, 0.18, 0.01, 0, 0.0125, 0.175, 0.01
 269030678, 0, 0.0125, 0.181, 0.01, 0, 0.0125, 0.18, 0.01
 269231431, 0, 0.0125, 0.176, 0.01, 0, 0.0125, 0.181, 0.01
 269431351, 0, 0.0125, 0.161, 0.01, 0, 0.0125, 0.176, 0.01
 269631271, 0, 0.0125, 0.133, 0.01, 0, 0.0125, 0.161, 0.01
 269831191, 0, 0.0125, 0.096, 0.01, 0, 0.0125, 0.133, 0.01
 270031111, 0, 0.0125, 0.055, 0.01, 0, 0.0125, 0.096, 0.01
 270231031, 0, 0.0125, 0.011, 0.01, 0, 0.0125, 0.055, 0.01
 270430951, 0, 0.0125, -0.033, 0.01, 0, 0.0125, 0.011, 0.01
 270630871, 0, 0.0125, -0.08000001, 0.01, 0, 0.0125, -0.033, 0.01
 270830791, 0, 0.0125, -0.126, 0.01, 0, 0.0125, -0.08000001, 0.01
 271030711, 0, 0.0125, -0.169, 0.01, 0, 0.0125, -0.126, 0.01
 271231464, 0, 0.0125, -0.208, 0.01, 0, 0.0125, -0.169, 0.01
 271431384, 0, 0.0125, -0.241, 0.01, 0, 0.0125, -0.208, 0.01
 271631304, 0, 0.0125, -0.264, 0.01, 0, 0.0125, -0.241, 0.01
 271831224, 0, 0.0125, -0.277, 0.01, 0, 0.0125, -0.264, 0.01
 272031144, 0, 0.0125, -0.28, 0.01, 0, 0.0125, -0.277, 0.01
 272231064, 0, 0.0125, -0.272, 0.01, 0, 0.0125, -0.28, 0.01
 272430984, 0, 0.0125, -0.255, 0.01, 0, 0.0125, -0.272, 0.01
 272630904, 0, 0.0125, -0.229, 0.01, 0, 0.0125, -0.255, 0.01
 272830824, 0, 0.0125, -0.197, 0.01, 0, 0.0125, -0.229, 0.01
 273030744, 0, 0.0125, -0.161, 0.01, 0, 0.0125, -0.197, 0.01
 273230664, 0, 0.0125, -0.124, 0.01, 0, 0.0125, -0.161, 0.01
 273431417, 0, 0.0125, -0.087, 0.01, 0, 0.0125, -0.124, 0.01
 273631337, 0, 0.0125, -0.052, 0.01, 0, 0.0125, -0.087, 0.01
 273831257, 0, 0.0125, -0.02, 0.01, 0, 0.0125, -0.052, 0.01
 274031177, 0, 0.0125, 0.006, 0.01, 0, 0.0125, -0.02, 0.01
 274231097, 0, 0.0125, 0.026, 0.01, 0, 0.0125, 0.006, 0.01
 274431017, 0, 0.0125, 0.038, 0.01, 0, 0.0125, 0.026, 0.01
 274630937, 0, 0.0125, 0.043, 0.01, 0, 0.0125, 0.038, 0.01
 274830857, 0, 0.0125, 0.045, 0.01, 0, 0.0125, 0.043, 0.01
 275030777, 0, 0.0125, 0.044, 0.01, 0, 0.0125, 0.045, 0.01
 275230697, 0, 0.0125, 0.041, 0.01, 0, 0.0125, 0.044, 0.01
 275431450, 0, 0.0125, 0.036, 0.01, 0, 0.0125, 0.041, 0.01
 275631370, 0, 0.0125, 0.031, 0.01, 0, 0.0125, 0.036, 0.01
 275831290, 0, 0.0125, 0.026, 0.01, 0, 0.0125, 0.031, 0.01
 276031210, 0, 0.0125, 0.021, 0.01, 0, 0.0125, 0.026, 0.01
 276231130, 0, 0.0125, 0.017, 0.01, 0, 0.0125, 0.021, 0.01
 276431050, 0, 0.0125, 0.013, 0.01, 0, 0.0125, 0.017, 0.01
 276630970, 0, 0.0125, 0.01, 0.01, 0, 0.0125, 0.013, 0.01
 276830890, 0, 0.0125, 0.008, 0.01, 0, 0.0125, 0.01, 0.01
 277030810, 0, 0.0125, 0.007, 0.01, 0, 0.0125, 0.008, 0.01
 277230730, 0, 0.0125, 0.006, 0.01, 0, 0.0125, 0.007, 0.01
 277431483, 0, 0.0125, 0.005, 0.01, 0, 0.0125, 0.006, 0.01
 277631403, 0, 0.0125, 0.004, 0.01, 0, 0.0125, 0.005, 0.01
 277831323, 0, 0.0125, 0.004, 0.01, 0, 0.0125, 0.004, 0.01
 278031243, 0, 0.0125, 0.003, 0.01, 0, 0.0125, 0.004, 0.01
 278231163, 0, 0.0125, 0.002, 0.01, 0, 0.0125, 0.003, 0.01
 278431083, 0, 0.0125, 0, 0.01, 0, 0.0125, 0.002, 0.01
 278631003, 0, 0.0125, 0, 0.01, 0, 0.0125, 0, 0.01
 278830923, 0, 0.0125, -0.003, 0.01, 0, 0.0125, 0, 0.01
 279030843, 0, 0.0125, -0.006, 0.01, 0, 0.0125, -0.003, 0.01
 279230763, 0, 0.0125, -0.009000001, 0.01, 0, 0.0125, -0.006, 0.01
 279430683, 0, 0.0125, -0.013, 0.01, 0, 0.0125, -0.009000001, 0.01
 279631436, 0, 0.0125, -0.016, 0.01, 0, 0.0125, -0.013, 0.01
 279831356, 0, 0.0125, -0.02, 0.01, 0, 0.0125, -0.016, 0.01
 280031276, 0, 0.0125, -0.023, 0.01, 0, 0.0125, -0.02, 0.01
 280231196, 0, 0.0125, -0.026, 0.01, 0, 0.0125, -0.023, 0.01
 280431116, 0, 0.0125, -0.03, 0.01, 0, 0.0125, -0.026, 0.01
 280631036, 0, 0.0125, -0.033, 0.01, 0, 0.0125, -0.03, 0.01
 280830956, 0, 0.0125, -0.036, 0.01, 0, 0.0125, -0.033, 0.01
 281030876, 0, 0.0125, -0.04, 0.01, 0, 0.0125, -0.036, 0.01
 281230796, 0, 0.0125, -0.042, 0.01, 0, 0.0125, -0.04, 0.01
 281430716, 0, 0.0125, -0.045, 0.01, 0, 0.0125, -0.042, 0.01
 281631469, 0, 0.0125, -0.047, 0.01, 0, 0.0125, -0.045, 0.01
 281831389, 0, 0.0125, -0.049, 0.01, 0, 0.0125, -0.047, 0.01
 282031309, 0, 0.0125, -0.051, 0.01, 0, 0.0125, -0.049, 0.01
 282231229, 0, 0.0125, -0.052, 0.01, 0, 0.0125, -0.051, 0.01
 282431149, 0, 0.0125, -0.053, 0.01, 0, 0.0125, -0.052, 0.01
 282631069, 0, 0.0125, -0.053, 0.01, 0, 0.0125, -0.053, 0.01
 282830989, 0, 0.0125, -0.052, 0.01, 0, 0.0125, -0.053, 0.01
 283030909, 0, 0.0125, -0.052, 0.01, 0, 0.0125, -0.052, 0.01
 283230829, 0, 0.0125, -0.05, 0.01, 0, 0.0125, -0.052, 0.01
 283430749, 0, 0.0125, -0.049, 0.01, 0, 0.0125, -0.05, 0.01
 283630669, 0, 0.0125, -0.049, 0.01, 0, 0.0125, -0.049, 0.01
 283831422, 0, 0.0125, -0.049, 0.01, 0, 0.0125, -0.049, 0.01
 284031342, 0, 0.0125, -0.051, 0.01, 0, 0.0125, -0.049, 0.01
 284231262, 0, 0.0125, -0.052, 0.01, 0, 0.0125, -0.051, 0.01
 284431182, 0, 0.0125, -0.054, 0.01, 0, 0.0125, -0.052, 0.01
 284631102, 0, 0.0125, -0.056, 0.01, 0, 0.0125, -0.054, 0.01
 284831022, 0, 0.0125, -0.056, 0.01, 0, 0.0125, -0.056, 0.01
 285030942, 0, 0.0125, -0.056, 0.01, 0, 0.0125, -0.056, 0.01
 285230862, 0, 0.0125, -0.055, 0.01, 0, 0.0125, -0.056, 0.01
 285430782, 0, 0.0125, -0.053, 0.01, 0, 0.0125, -0.055, 0.01
 285630702, 0, 0.0125, -0.052, 0.01, 0, 0.0125, -0.053, 0.01
 285831455, 0, 0.0125, -0.05, 0.01, 0, 0.0125, -0.052, 0.01
 286031375, 0, 0.0125, -0.047, 0.01, 0, 0.0125, -0.05, 0.01
 286231295, 0, 0.0125, -0.044, 0.01, 0, 0.0125, -0.047, 0.01
 286431215, 0, 0.0125, -0.041, 0.01, 0, 0.0125, -0.044, 0.01
 286631135, 0, 0.0125, -0.038, 0.01, 0, 0.0125, -0.041, 0.01
 286831055, 0, 0.0125, -0.035, 0.01, 0, 0.0125, -0.038, 0.01
 287030975, 0, 0.0125, -0.033, 0.01, 0, 0.0125, -0.035, 0.01
 287230895, 0, 0.0125, -0.03, 0.01, 0, 0.0125, -0.033, 0.01
 287430815, 0, 0.0125, -0.029, 0.01, 0, 0.0125, -0.03, 0.01
 287630735, 0, 0.0125, -0.027, 0.01, 0, 0.0125, -0.029, 0.01
 287830655, 0, 0.0125, -0.025, 0.01, 0, 0.0125, -0.027, 0.01
 288031408, 0, 0.0125, -0.025, 0.01, 0, 0.0125, -0.025, 0.01
 288231328, 0, 0.0125, -0.024, 0.01, 0, 0.0125, -0.025, 0.01
 288431248, 0, 0.0125, -0.022, 0.01, 0, 0.0125, -0.024, 0.01
 288631168, 0, 0.0125, -0.021, 0.01, 0, 0.0125, -0.022, 0.01
 288831088, 0, 0.0125, -0.02, 0.01, 0, 0.0125, -0.021, 0.01
 289031008, 0, 0.0125, -0.018, 0.01, 0, 0.0125, -0.02, 0.01
 289230928, 0, 0.0125, -0.017, 0.01, 0, 0.0125, -0.018, 0.01
 289430848, 0, 0.0125, -0.015, 0.01, 0, 0.0125, -0.017, 0.01
 289630768, 0, 0.0125, -0.011, 0.01, 0, 0.0125, -0.015, 0.01
 289830688, 0, 0.0125, -0.007, 0.01, 0, 0.0125, -0.011, 0.01
 290031441, 0, 0.0125, -0.003, 0.01, 0, 0.0125, -0.007, 0.01
 290231361, 0, 0.0125, 0, 0.01, 0, 0.0125, -0.003, 0.01
 290431281, 0, 0.0125, 0.001, 0.01, 0, 0.0125, 0, 0.01
 290631201, 0, 0.0125, 0.002, 0.01, 0, 0.0125, 0.001, 0.01
 290831121, 0, 0.0125, 0.003, 0.01, 0, 0.0125, 0.002, 0.01
 291031041, 0, 0.0125, 0.003, 0.01, 0, 0.0125, 0.003, 0.01
 291230961, 0, 0.0125, 0.003, 0.01, 0, 0.0125, 0.003, 0.01
 291430881, 0, 0.0125, 0.002, 0.01, 0, 0.0125, 0.003, 0.01
 291630801, 0, 0.0125, 0.002, 0.01, 0, 0.0125, 0.002, 0.01
 291830721, 0, 0.0125, 0.002, 0.01, 0, 0.0125, 0.002, 0.01
 292031474, 0, 0.0125, 0.001, 0.01, 0, 0.0125, 0.002, 0.01
 292231394, 0, 0.0125, 0.001, 0.01, 0, 0.0125, 0.001, 0.01
 292431314, 0, 0.0125, 0.001, 0.01, 0, 0.0125, 0.001, 0.01
 292631234, 0, 0.0125, 0.001, 0.01, 0, 0.0125, 0.001, 0.01
 292831154, 0, 0.0125, 0.001, 0.01, 0, 0.0125, 0.001, 0.01
 293031074, 0, 0.0125, 0.001, 0.01, 0, 0.0125, 0.001, 0.01
 293230994, 0, 0.0125, 0.001, 0.01, 0, 0.0125, 0.001, 0.01
 293430914, 0, 0.0125, 0.001, 0.01, 0, 0.0125, 0.001, 0.01
 293630834, 0, 0.0125, 0.001, 0.01, 0, 0.0125, 0.001, 0.01
 293830754, 0, 0.0125, 0, 0.01, 0, 0.0125, 0.001, 0.01
 294030674, 0, 0.0125, 0, 0.01, 0, 0.0125, 0, 0.01
 294231427, 0, 0.0125, 0, 0.01, 0, 0.0125, 0, 0.01
 294431347, 0, 0.0125, 0, 0.01, 0, 0.0125, 0, 0.01
 294631267, 0, 0.0125, 0, 0.01, 0, 0.0125, 0, 0.01
 294831187, 0, 0.0125, 0, 0.01, 0, 0.0125, 0, 0.01
 295031107, 0, 0.0125, 0.001, 0.01, 0, 0.0125, 0, 0.01
 295231027, 0, 0.0125, 0.001, 0.01, 0, 0.0125, 0.001, 0.01
 295430947, 0, 0.0125, 0.002, 0.01, 0, 0.0125, 0.001, 0.01
 295630867, 0, 0.0125, 0.002, 0.01, 0, 0.0125, 0.002, 0.01
 295830787, 0, 0.0125, 0.002, 0.01, 0, 0.0125, 0.002, 0.01
 296030707, 0, 0.0125, 0.002, 0.01, 0, 0.0125, 0.002, 0.01
 296231460, 0, 0.0125, 0.002, 0.01, 0, 0.0125, 0.002, 0.01
 296431380, 0, 0.0125, 0.002, 0.01, 0, 0.0125, 0.002, 0.01
 296631300, 0, 0.0125, 0.003, 0.01, 0, 0.0125, 0.002, 0.01
 296831220, 0, 0.0125, 0.003, 0.01, 0, 0.0125, 0.003, 0.01
 297031140, 0, 0.0125, 0.003, 0.01, 0, 0.0125, 0.003, 0.01
 297231060, 0, 0.0125, 0.004, 0.01, 0, 0.0125, 0.003, 0.01
 297430980, 0, 0.0125, 0.005, 0.01, 0, 0.0125, 0.004, 0.01
 297630900, 0, 0.0125, 0.006, 0.01, 0, 0.0125, 0.005, 0.01
 297830820, 0, 0.0125, 0.005, 0.01, 0, 0.0125, 0.006, 0.01
 298030740, 0, 0.0125, 0.006, 0.01, 0, 0.0125, 0.005, 0.01
 298230660, 0, 0.0125, 0.006, 0.01, 0, 0.0125, 0.006, 0.01
 298431413, 0, 0.0125, 0.007, 0.01, 0, 0.0125, 0.006, 0.01
 298631333, 0, 0.0125, 0.007, 0.01, 0, 0.0125, 0.007, 0.01
 298831253, 0, 0.0125, 0.007, 0.01, 0, 0.0125, 0.007, 0.01
 299031173, 0, 0.0125, 0.007, 0.01, 0, 0.0125, 0.007, 0.01
 299231093, 0, 0.0125, 0.007, 0.01, 0, 0.0125, 0.007, 0.01
 299431013, 0, 0.0125, 0.007, 0.01, 0, 0.0125, 0.007, 0.01
 299630933, 0, 0.0125, 0.006, 0.01, 0, 0.0125, 0.007, 0.01
 299830853, 0, 0.0125, 0.006, 0.01, 0, 0.0125, 0.006, 0.01
 300030773, 0, 0.0125, 0.006, 0.01, 0, 0.0125, 0.006, 0.01
 300230693, 0, 0.0125, 0.006, 0.01, 0, 0.0125, 0.006, 0.01
 300431446, 0, 0.0125, 0.005, 0.01, 0, 0.0125, 0.006, 0.01
 300631366, 0, 0.0125, 0.004, 0.01, 0, 0.0125, 0.005, 0.01
 300831286, 0, 0.0125, 0.004, 0.01, 0, 0.0125, 0.004, 0.01
 301031206, 0, 0.0125, 0.004, 0.01, 0, 0.0125, 0.004, 0.01
 301231126, 0, 0.0125, 0.003, 0.01, 0, 0.0125, 0.004, 0.01
 301431046, 0, 0.0125, 0.003, 0.01, 0, 0.0125, 0.003, 0.01
 301630966, 0, 0.0125, 0.003, 0.01, 0, 0.0125, 0.003, 0.01
 301830886, 0, 0.0125, 0.001, 0.01, 0, 0.0125, 0.003, 0.01
 302030806, 0, 0.0125, 0.002, 0.01, 0, 0.0125, 0.001, 0.01
 302230726, 0, 0.0125, 0.002, 0.01, 0, 0.0125, 0.002, 0.01
 302431479, 0, 0.0125, 0.002, 0.01, 0, 0.0125, 0.002, 0.01
 302631399, 0, 0.0125, 0.002, 0.01, 0, 0.0125, 0.002, 0.01
 302831319, 0, 0.0125, 0.002, 0.01, 0, 0.0125, 0.002, 0.01
 303031239, 0, 0.0125, 0.001, 0.01, 0, 0.0125, 0.002, 0.01
 303231159, 0, 0.0125, 0.001, 0.01, 0, 0.0125, 0.001, 0.01
 303431079, 0, 0.0125, 0, 0.01, 0, 0.0125, 0.001, 0.01
 303630999, 0, 0.0125, 0, 0.01, 0, 0.0125, 0, 0.01
 303830919, 0, 0.0125, 0, 0.01, 0, 0.0125, 0, 0.01
 304030839, 0, 0.0125, -0.001, 0.01, 0, 0.0125, 0, 0.01
 304230759, 0, 0.0125, 0, 0.01, 0, 0.0125, -0.001, 0.01
 304430679, 0, 0.0125, -0.001, 0.01, 0, 0.0125, 0, 0.01
 304631432, 0, 0.0125, -0.001, 0.01, 0, 0.0125, -0.001, 0.01
 304831352, 0, 0.0125, 0, 0.01, 0, 0.0125, -0.001, 0.01
 305031272, 0, 0.0125, 0, 0.01, 0, 0.0125, 0, 0.01
 305231192, 0, 0.0125, -0.001, 0.01, 0, 0.0125, 0, 0.01
 305431112, 0, 0.0125, 0, 0.01, 0, 0.0125, -0.001, 0.01
 305631032, 0, 0.0125, 0, 0.01, 0, 0.0125, 0, 0.01
 305830952, 0, 0.0125, -0.001, 0.01, 0, 0.0125, 0, 0.01
 306030872, 0, 0.0125, -0.001, 0.01, 0, 0.0125, -0.001, 0.01
 306230792, 0, 0.0125, -0.002, 0.01, 0, 0.0125, -0.001, 0.01
 306430712, 0, 0.0125, -0.001, 0.01, 0, 0.0125, -0.002, 0.01
 306631465, 0, 0.0125, -0.001, 0.01, 0, 0.0125, -0.001, 0.01
 306831385, 0, 0.0125, -0.002, 0.01, 0, 0.0125, -0.001, 0.01
 307031305, 0, 0.0125, -0.002, 0.01, 0, 0.0125, -0.002, 0.01
 307231225, 0, 0.0125, -0.002, 0.01, 0, 0.0125, -0.002, 0.01
 307431145, 0, 0.0125, -0.002, 0.01, 0, 0.0125, -0.002, 0.01
 307631065, 0, 0.0125, -0.002, 0.01, 0, 0.0125, -0.002, 0.01
 307830985, 0, 0.0125, -0.002, 0.01, 0, 0.0125, -0.002, 0.01
 308030905, 0, 0.0125, -0.002, 0.01, 0, 0.0125, -0.002, 0.01
 308230825, 0, 0.0125, -0.001, 0.01, 0, 0.0125, -0.002, 0.01
 308430745, 0, 0.0125, -0.002, 0.01, 0, 0.0125, -0.001, 0.01
 308630665, 0, 0.0125, -0.002, 0.01, 0, 0.0125, -0.002, 0.01
 308831418, 0, 0.0125, -0.002, 0.01, 0, 0.0125, -0.002, 0.01
 309031338, 0, 0.0125, -0.001, 0.01, 0, 0.0125, -0.002, 0.01
 309231258, 0, 0.0125, -0.001, 0.01, 0, 0.0125, -0.001, 0.01
 309431178, 0, 0.0125, -0.001, 0.01, 0, 0.0125, -0.001, 0.01
 309631098, 0, 0.0125, -0.001, 0.01, 0, 0.0125, -0.001, 0.01
 309831018, 0, 0.0125, -0.001, 0.01, 0, 0.0125, -0.001, 0.01
 310030938, 0, 0.0125, -0.001, 0.01, 0, 0.0125, -0.001, 0.01
 310230858, 0, 0.0125, -0.002, 0.01, 0, 0.0125, -0.001, 0.01
 310430778, 0, 0.0125, -0.002, 0.01, 0, 0.0125, -0.002, 0.01
 310630698, 0, 0.0125, -0.001, 0.01, 0, 0.0125, -0.002, 0.01
 310831451, 0, 0.0125, 0, 0.01, 0, 0.0125, -0.001, 0.01
 311031371, 0, 0.0125, -0.001, 0.01, 0, 0.0125, 0, 0.01
 311231291, 0, 0.0125, -0.001, 0.01, 0, 0.0125, -0.001, 0.01
 311431211, 0, 0.0125, -0.001, 0.01, 0, 0.0125, -0.001, 0.01
 311631131, 0, 0.0125, -0.001, 0.01, 0, 0.0125, -0.001, 0.01
 311831051, 0, 0.0125, -0.002, 0.01, 0, 0.0125, -0.001, 0.01
 312030971, 0, 0.0125, -0.002, 0.01, 0, 0.0125, -0.002, 0.01
 312230891, 0, 0.0125, -0.002, 0.01, 0, 0.0125, -0.002, 0.01
 312430811, 0, 0.0125, -0.002, 0.01, 0, 0.0125, -0.002, 0.01
 312630731, 0, 0.0125, -0.002, 0.01, 0, 0.0125, -0.002, 0.01
 312831484, 0, 0.0125, -0.002, 0.01, 0, 0.0125, -0.002, 0.01
 313031404, 0, 0.0125, -0.001, 0.01, 0, 0.0125, -0.002, 0.01
 313231324, 0, 0.0125, -0.001, 0.01, 0, 0.0125, -0.001, 0.01
 313431244, 0, 0.0125, -0.001, 0.01, 0, 0.0125, -0.001, 0.01
 313631164, 0, 0.0125, 0, 0.01, 0, 0.0125, -0.001, 0.01
 313831084, 0, 0.0125, 0, 0.01, 0, 0.0125, 0, 0.01
 314031004, 0, 0.0125, 0, 0.01, 0, 0.0125, 0, 0.01
 314230924, 0, 0.0125, 0, 0.01, 0, 0.0125, 0, 0.01
 314430844, 0, 0.0125, 0, 0.01, 0, 0.0125, 0, 0.01
 314630764, 0, 0.0125, 0, 0.01, 0, 0.0125, 0, 0.01
 314830684, 0, 0.0125, 0, 0.01, 0, 0.0125, 0, 0.01
 315031437, 0, 0.0125, 0, 0.01, 0, 0.0125, 0, 0.01
 315231357, 0, 0.0125, 0, 0.01, 0, 0.0125, 0, 0.01
 315431277, 0, 0.0125, 0, 0.01, 0, 0.0125, 0, 0.01
 315631197, 0, 0.0125, 0.001, 0.01, 0, 0.0125, 0, 0.01
 315831117, 0, 0.0125, 0.001, 0.01, 0, 0.0125, 0.001, 0.01
 316031037, 0, 0.0125, 0, 0.01, 0, 0.0125, 0.001, 0.01
 316230957, 0, 0.0125, 0, 0.01, 0, 0.0125, 0, 0.01
 316430877, 0, 0.0125, 0.001, 0.01, 0, 0.0125, 0, 0.01
 316630797, 0, 0.0125, 0.001, 0.01, 0, 0.0125, 0.001, 0.01
 316830717, 0, 0.0125, 0.001, 0.01, 0, 0.0125, 0.001, 0.01
 317031470, 0, 0.0125, 0.001, 0.01, 0, 0.0125, 0.001, 0.01
 317231390, 0, 0.0125, 0.001, 0.01, 0, 0.0125, 0.001, 0.01
 317431310, 0, 0.0125, 0.002, 0.01, 0, 0.0125, 0.001, 0.01
 317631230, 0, 0.0125, 0.002, 0.01, 0, 0.0125, 0.002, 0.01
 317831150, 0, 0.0125, 0.001, 0.01, 0, 0.0125, 0.002, 0.01
 318031070, 0, 0.0125, 0.001, 0.01, 0, 0.0125, 0.001, 0.01
 318230990, 0, 0.0125, 0, 0.01, 0, 0.0125, 0.001, 0.01
 318430910, 0, 0.0125, 0, 0.01, 0, 0.0125, 0, 0.01
 318630830, 0, 0.0125, 0, 0.01, 0, 0.0125, 0, 0.01
 318830750, 0, 0.0125, -0.001, 0.01, 0, 0.0125, 0, 0.01
 319030670, 0, 0.0125, -0.001, 0.01, 0, 0.0125, -0.001, 0.01
 319231423, 0, 0.0125, -0.001, 0.01, 0, 0.0125, -0.001, 0.01
 319431343, 0, 0.0125, 0, 0.01, 0, 0.0125, -0.001, 0.01
 319631263, 0, 0.0125, 0, 0.01, 0, 0.0125, 0, 0.01
 319831183, 0, 0.0125, 0, 0.01, 0, 0.0125, 0, 0.01
 320031103, 0, 0.0125, -0.001, 0.01, 0, 0.0125, 0, 0.01
 320231023, 0, 0.0125, 0, 0.01, 0, 0.0125, -0.001, 0.01
 320430943, 0, 0.0125, 0, 0.01, 0, 0.0125, 0, 0.01
 320630863, 0, 0.0125, 0, 0.01, 0, 0.0125, 0, 0.01
 320830783, 0, 0.0125, 0, 0.01, 0, 0.0125, 0, 0.01
 321030703, 0, 0.0125, 0, 0.01, 0, 0.0125, 0, 0.01
 321231456, 0, 0.0125, 0, 0.01, 0, 0.0125, 0, 0.01
 321431376, 0, 0.0125, 0, 0.01, 0, 0.0125, 0, 0.01
 321631296, 0, 0.0125, 0, 0.01, 0, 0.0125, 0, 0.01
 321831216, 0, 0.0125, 0, 0.01, 0, 0.0125, 0, 0.01
 322031136, 0, 0.0125, 0, 0.01, 0, 0.0125, 0, 0.01
 322231056, 0, 0.0125, 0, 0.01, 0, 0.0125, 0, 0.01
 322430976, 0, 0.0125, 0, 0.01, 0, 0.0125, 0, 0.01
 322630896, 0, 0.0125, 0, 0.01, 0, 0.0125, 0, 0.01
 322830816, 14.257, -4.918, 0, 0.01, 0, 0.0125, 0, 0.01
 323030736, 14.251, -4.927, -0.001, 0.01, 14.257, -4.918, 0, 0.01
 323230656, 14.248, -4.934, -0.001, 0.01, 14.251, -4.927, -0.001, 0.01
 323431409, 14.216, -4.933, -0.012, 0.01, 14.248, -4.934, -0.001, 0.01
 323631329, 13.946, -4.851, -0.024, 0.01, 14.216, -4.933, -0.012, 0.01
 323831249, 13.715, -4.78, 0.075, 0.01, 13.946, -4.851, -0.024, 0.01
 324031169, 13.593, -4.72, 0.202, 0.01, 13.715, -4.78, 0.075, 0.01
 324231089, 12.881, -4.222, 0.218, 0.01, 13.593, -4.72, 0.202, 0.01
 324431009, 10.854, -3.227, 0.474, 0.01, 12.881, -4.222, 0.218, 0.01
 324630929, 8.295, -1.845, 0.841, 0.01, 10.854, -3.227, 0.474, 0.01
 324830849, 5.9, -0.35, 1.087, 0.01, 8.295, -1.845, 0.841, 0.01
 325030769, 3.844, 0.7730001, 1.249, 0.01, 5.9, -0.35, 1.087, 0.01
 325230689, 2.011, 1.443, 1.355, 0.01, 3.844, 0.7730001, 1.249, 0.01
 325431442, 0.521, 1.687, 1.389, 0.01, 2.011, 1.443, 1.355, 0.01
 325631362, -0.571, 1.609, 1.401, 0.01, 0.521, 1.687, 1.389, 0.01
 325831282, -1.403, 1.278, 1.436, 0.01, -0.571, 1.609, 1.401, 0.01
 326031202, -2.083, 0.724, 1.523, 0.01, -1.403, 1.278, 1.436, 0.01
 326231122, -2.622, 0.011, 1.657, 0.01, -2.083, 0.724, 1.523, 0.01
 326431042, -2.995, -0.761, 1.804, 0.01, -2.622, 0.011, 1.657, 0.01
 326630962, -3.184, -1.5, 1.915, 0.01, -2.995, -0.761, 1.804, 0.01
 326830882, -3.169, -2.12, 1.95, 0.01, -3.184, -1.5, 1.915, 0.01
 327030802, -2.954, -2.559, 1.9, 0.01, -3.169, -2.12, 1.95, 0.01
 327230722, -2.579, -2.805, 1.778, 0.01, -2.954, -2.559, 1.9, 0.01
 327431475, -2.103, -2.882, 1.611, 0.01, -2.579, -2.805, 1.778, 0.01
 327631395, -1.571, -2.824, 1.428, 0.01, -2.103, -2.882, 1.611, 0.01
 327831315, -1.011, -2.66, 1.254, 0.01, -1.571, -2.824, 1.428, 0.01
 328031235, -0.455, -2.4, 1.107, 0.01, -1.011, -2.66, 1.254, 0.01
 328231155, -0.031, -2.067, 0.997, 0.01, -0.455, -2.4, 1.107, 0.01
 328431075, 0.207, -1.708, 0.947, 0.01, -0.031, -2.067, 0.997, 0.01
 328630995, 0.358, -1.336, 0.955, 0.01, 0.207, -1.708, 0.947, 0.01
 328830915, 0.483, -0.965, 1.004, 0.01, 0.358, -1.336, 0.955, 0.01
 329030835, 0.58, -0.608, 1.079, 0.01, 0.483, -0.965, 1.004, 0.01
 329230755, 0.6390001, -0.282, 1.165, 0.01, 0.58, -0.608, 1.079, 0.01
 329430675, 0.665, 0.01, 1.252, 0.01, 0.6390001, -0.282, 1.165, 0.01
 329631428, 0.673, 0.269, 1.332, 0.01, 0.665, 0.01, 1.252, 0.01
 329831348, 0.668, 0.499, 1.401, 0.01, 0.673, 0.269, 1.332, 0.01
 330031268, 0.654, 0.696, 1.455, 0.01, 0.668, 0.499, 1.401, 0.01
 330231188, 0.613, 0.85, 1.496, 0.01, 0.654, 0.696, 1.455, 0.01
 330431108, 0.545, 0.951, 1.525, 0.01, 0.613, 0.85, 1.496, 0.01
 330631028, 0.437, 1.003, 1.546, 0.01, 0.545, 0.951, 1.525, 0.01
 330830948, 0.361, 1.015, 1.56, 0.01, 0.437, 1.003, 1.546, 0.01
 331030868, 0.323, 0.993, 1.571, 0.01, 0.361, 1.015, 1.56, 0.01
 331230788, 0.221, 0.9400001, 1.579, 0.01, 0.323, 0.993, 1.571, 0.01
 331430708, 0.08400001, 0.863, 1.583, 0.01, 0.221, 0.9400001, 1.579, 0.01
 331631461, 0.051, 0.768, 1.583, 0.01, 0.08400001, 0.863, 1.583, 0.01
 331831381, -0.012, 0.6670001, 1.579, 0.01, 0.051, 0.768, 1.583, 0.01
 332031301, -0.089, 0.568, 1.572, 0.01, -0.012, 0.6670001, 1.579, 0.01
 332231221, -0.162, 0.472, 1.563, 0.01, -0.089, 0.568, 1.572, 0.01
 332431141, -0.203, 0.381, 1.55, 0.01, -0.162, 0.472, 1.563, 0.01
 332631061, -0.216, 0.298, 1.537, 0.01, -0.203, 0.381, 1.55, 0.01
 332830981, -0.237, 0.225, 1.523, 0.01, -0.216, 0.298, 1.537, 0.01
 333030901, -0.251, 0.159, 1.51, 0.01, -0.237, 0.225, 1.523, 0.01
 333230821, -0.235, 0.097, 1.497, 0.01, -0.251, 0.159, 1.51, 0.01
 333430741, -0.152, 0.038, 1.485, 0.01, -0.235, 0.097, 1.497, 0.01
 333630661, -0.132, -0.013, 1.474, 0.01, -0.152, 0.038, 1.485, 0.01
 333831414, -0.124, -0.055, 1.464, 0.01, -0.132, -0.013, 1.474, 0.01
 334031334, -0.101, -0.086, 1.455, 0.01, -0.124, -0.055, 1.464, 0.01
 334231254, -0.075, -0.107, 1.448, 0.01, -0.101, -0.086, 1.455, 0.01
 334431174, -0.07, -0.118, 1.442, 0.01, -0.075, -0.107, 1.448, 0.01
 334631094, -0.014, -0.121, 1.437, 0.01, -0.07, -0.118, 1.442, 0.01
 334831014, 0.039, -0.117, 1.432, 0.01, -0.014, -0.121, 1.437, 0.01
 335030934, 0.089, -0.106, 1.429, 0.01, 0.039, -0.117, 1.432, 0.01
 335230854, 0.128, -0.09100001, 1.426, 0.01, 0.089, -0.106, 1.429, 0.01
 335430774, 0.144, -0.074, 1.424, 0.01, 0.128, -0.09100001, 1.426, 0.01
 335630694, 0.156, -0.054, 1.422, 0.01, 0.144, -0.074, 1.424, 0.01
 335831447, 0.167, -0.032, 1.421, 0.01, 0.156, -0.054, 1.422, 0.01
 336031367, 0.175, -0.007, 1.419, 0.01, 0.167, -0.032, 1.421, 0.01
 336231287, 0.176, 0.016, 1.419, 0.01, 0.175, -0.007, 1.419, 0.01
 336431207, 0.168, 0.04, 1.418, 0.01, 0.176, 0.016, 1.419, 0.01
 336631127, 0.156, 0.061, 1.417, 0.01, 0.168, 0.04, 1.418, 0.01
 336831047, 0.139, 0.079, 1.417, 0.01, 0.156, 0.061, 1.417, 0.01
 337030967, 0.123, 0.09500001, 1.417, 0.01, 0.139, 0.079, 1.417, 0.01
 337230887, 0.105, 0.105, 1.417, 0.01, 0.123, 0.09500001, 1.417, 0.01
 337430807, 0.058, 0.111, 1.417, 0.01, 0.105, 0.105, 1.417, 0.01
 337630727, 0.005, 0.114, 1.418, 0.01, 0.058, 0.111, 1.417, 0.01
 337831480, 0.004, 0.113, 1.417, 0.01, 0.005, 0.114, 1.418, 0.01
 338031400, 0.007, 0.108, 1.417, 0.01, 0.004, 0.113, 1.417, 0.01
 338231320, -0.003, 0.1, 1.418, 0.01, 0.007, 0.108, 1.417, 0.01
 338431240, -0.02, 0.089, 1.418, 0.01, -0.003, 0.1, 1.418, 0.01
 338631160, -0.034, 0.074, 1.418, 0.01, -0.02, 0.089, 1.418, 0.01
 338831080, -0.042, 0.059, 1.419, 0.01, -0.034, 0.074, 1.418, 0.01
 339031000, -0.049, 0.045, 1.419, 0.01, -0.042, 0.059, 1.419, 0.01
 339230920, -0.054, 0.03, 1.42, 0.01, -0.049, 0.045, 1.419, 0.01
 339430840, -0.059, 0.017, 1.42, 0.01, -0.054, 0.03, 1.42, 0.01
 339630760, -0.062, 0.003, 1.421, 0.01, -0.059, 0.017, 1.42, 0.01
 339830680, -0.06, -0.01, 1.421, 0.01, -0.062, 0.003, 1.421, 0.01
 340031433, -0.056, -0.019, 1.421, 0.01, -0.06, -0.01, 1.421, 0.01
 340231353, -0.053, -0.029, 1.421, 0.01, -0.056, -0.019, 1.421, 0.01
 340431273, -0.049, -0.038, 1.422, 0.01, -0.053, -0.029, 1.421, 0.01
 340631193, -0.044, -0.04, 1.422, 0.01, -0.049, -0.038, 1.422, 0.01
 340831113, -0.036, -0.041, 1.41, 0.01, -0.044, -0.04, 1.422, 0.01
 341031033, -0.026, -0.041, 1.365, 0.01, -0.036, -0.041, 1.41, 0.01
 341230953, -0.016, -0.043, 1.279, 0.01, -0.026, -0.041, 1.365, 0.01
 341430873, -0.006, -0.043, 1.147, 0.01, -0.016, -0.043, 1.279, 0.01
 341630793, -0.001, -0.041, 0.9680001, 0.01, -0.006, -0.043, 1.147, 0.01
 341830713, 0.001, -0.037, 0.768, 0.01, -0.001, -0.041, 0.9680001, 0.01
 342031466, 0.005, -0.033, 0.587, 0.01, 0.001, -0.037, 0.768, 0.01
 342231386, 0.007, -0.022, 0.445, 0.01, 0.005, -0.033, 0.587, 0.01
 342431306, 0.007, -0.014, 0.354, 0.01, 0.007, -0.022, 0.445, 0.01
 342631226, 0.005, -0.01, 0.317, 0.01, 0.007, -0.014, 0.354, 0.01
 342831146, 0.004, -0.009000001, 0.322, 0.01, 0.005, -0.01, 0.317, 0.01
 343031066, 0.002, -0.003, 0.348, 0.01, 0.004, -0.009000001, 0.322, 0.01
 343230986, -0.002, 0.007, 0.38, 0.01, 0.002, -0.003, 0.348, 0.01
 343430906, -0.008, 0.021, 0.412, 0.01, -0.002, 0.007, 0.38, 0.01
 343630826, -0.01, 0.024, 0.439, 0.01, -0.008, 0.021, 0.412, 0.01
 343830746, -0.011, 0.023, 0.46, 0.01, -0.01, 0.024, 0.439, 0.01
 344030666, -0.014, 0.024, 0.474, 0.01, -0.011, 0.023, 0.46, 0.01
 344231419, -0.019, 0.025, 0.483, 0.01, -0.014, 0.024, 0.474, 0.01
 344431339, -0.021, 0.024, 0.488, 0.01, -0.019, 0.025, 0.483, 0.01
 344631259, -0.022, 0.021, 0.49, 0.01, -0.021, 0.024, 0.488, 0.01
 344831179, -0.027, 0.019, 0.49, 0.01, -0.022, 0.021, 0.49, 0.01
 345031099, -0.033, 0.017, 0.489, 0.01, -0.027, 0.019, 0.49, 0.01
 345231019, -0.035, 0.014, 0.488, 0.01, -0.033, 0.017, 0.489, 0.01
 345430939, -0.033, 0.011, 0.487, 0.01, -0.035, 0.014, 0.488, 0.01
 345630859, -0.03, 0, 0.485, 0.01, -0.033, 0.011, 0.487, 0.01
 345830779, -0.029, 0, 0.485, 0.01, -0.03, 0, 0.485, 0.01
 346030699, -0.029, 0, 0.484, 0.01, -0.029, 0, 0.485, 0.01
 346231452, -0.028, -0.001, 0.483, 0.01, -0.029, 0, 0.484, 0.01
 346431372, -0.025, -0.004, 0.482, 0.01, -0.028, -0.001, 0.483, 0.01
 346631292, -0.021, -0.008, 0.481, 0.01, -0.025, -0.004, 0.482, 0.01
 346831212, -0.021, -0.008, 0.482, 0.01, -0.021, -0.008, 0.481, 0.01
 347031132, -0.022, -0.009000001, 0.482, 0.01, -0.021, -0.008, 0.482, 0.01
 347231052, -0.024, -0.009000001, 0.481, 0.01, -0.022, -0.009000001, 0.482, 0.01
 347430972, -0.023, -0.009000001, 0.481, 0.01, -0.024, -0.009000001, 0.481, 0.01
 347630892, -0.019, -0.009000001, 0.481, 0.01, -0.023, -0.009000001, 0.481, 0.01
 347830812, -0.018, -0.01, 0.481, 0.01, -0.019, -0.009000001, 0.481, 0.01
 348030732, -0.021, -0.006, 0.482, 0.01, -0.018, -0.01, 0.481, 0.01
 348231485, -0.024, -0.001, 0.482, 0.01, -0.021, -0.006, 0.482, 0.01
 348431405, -0.025, 0.003, 0.483, 0.01, -0.024, -0.001, 0.482, 0.01
 348631325, -0.023, 0.007, 0.483, 0.01, -0.025, 0.003, 0.483, 0.01
 348831245, -0.021, 0.009000001, 0.483, 0.01, -0.023, 0.007, 0.483, 0.01
 349031165, -0.021, 0.013, 0.482, 0.01, -0.021, 0.009000001, 0.483, 0.01
 349231085, -0.021, 0.012, 0.481, 0.01, -0.021, 0.013, 0.482, 0.01
 349431005, -0.019, 0.004, 0.48, 0.01, -0.021, 0.012, 0.481, 0.01
 349630925, -0.018, 0.003, 0.48, 0.01, -0.019, 0.004, 0.48, 0.01
 349830845, -0.022, 0.019, 0.48, 0.01, -0.018, 0.003, 0.48, 0.01
 350030765, -0.026, 0.02, 0.479, 0.01, -0.022, 0.019, 0.48, 0.01
 350230685, -0.026, 0.007, 0.479, 0.01, -0.026, 0.02, 0.479, 0.01
 350431438, -0.023, -0.004, 0.478, 0.01, -0.026, 0.007, 0.479, 0.01
 350631358, -0.019, -0.003, 0.477, 0.01, -0.023, -0.004, 0.478, 0.01
 350831278, -0.019, 0.001, 0.478, 0.01, -0.019, -0.003, 0.477, 0.01
 351031198, -0.022, 0.016, 0.479, 0.01, -0.019, 0.001, 0.478, 0.01
 351231118, -0.023, 0.015, 0.48, 0.01, -0.022, 0.016, 0.479, 0.01
 351431038, -0.024, -0.004, 0.481, 0.01, -0.023, 0.015, 0.48, 0.01
 351630958, -0.027, -0.005, 0.482, 0.01, -0.024, -0.004, 0.481, 0.01
 351830878, -0.032, 0.002, 0.482, 0.01, -0.027, -0.005, 0.482, 0.01
 352030798, -0.036, 0.019, 0.481, 0.01, -0.032, 0.002, 0.482, 0.01
 352230718, -0.035, 0.017, 0.48, 0.01, -0.036, 0.019, 0.481, 0.01
 352431471, -0.032, 0, 0.479, 0.01, -0.035, 0.017, 0.48, 0.01
 352631391, -0.028, -0.008, 0.479, 0.01, -0.032, 0, 0.479, 0.01
 352831311, -0.022, -0.006, 0.478, 0.01, -0.028, -0.008, 0.479, 0.01
 353031231, -0.018, -0.003, 0.476, 0.01, -0.022, -0.006, 0.478, 0.01
 353231151, -0.014, -0.004, 0.475, 0.01, -0.018, -0.003, 0.476, 0.01
 353431071, -0.012, -0.006, 0.475, 0.01, -0.014, -0.004, 0.475, 0.01
 353630991, -0.011, -0.006, 0.475, 0.01, -0.012, -0.006, 0.475, 0.01
 353830911, -0.012, -0.005, 0.475, 0.01, -0.011, -0.006, 0.475, 0.01
 354030831, -0.013, -0.004, 0.475, 0.01, -0.012, -0.005, 0.475, 0.01
 354230751, -0.012, -0.003, 0.476, 0.01, -0.013, -0.004, 0.475, 0.01
 354430671, -0.008, -0.001, 0.476, 0.01, -0.012, -0.003, 0.476, 0.01
 354631424, -0.005, 0.002, 0.477, 0.01, -0.008, -0.001, 0.476, 0.01
 354831344, -0.005, 0.017, 0.477, 0.01, -0.005, 0.002, 0.477, 0.01
 355031264, -0.006, 0.021, 0.477, 0.01, -0.005, 0.017, 0.477, 0.01
 355231184, -0.005, 0.017, 0.477, 0.01, -0.006, 0.021, 0.477, 0.01
 355431104, -0.006, 0.004, 0.479, 0.01, -0.005, 0.017, 0.477, 0.01
 355631024, -0.013, 0.008, 0.481, 0.01, -0.006, 0.004, 0.479, 0.01
 355830944, -0.023, 0.027, 0.482, 0.01, -0.013, 0.008, 0.481, 0.01
 356030864, -0.03, 0.026, 0.484, 0.01, -0.023, 0.027, 0.482, 0.01
 356230784, -0.033, 0.035, 0.484, 0.01, -0.03, 0.026, 0.484, 0.01
 356430704, -0.033, 0.034, 0.484, 0.01, -0.033, 0.035, 0.484, 0.01
 356631457, -0.036, 0.018, 0.486, 0.01, -0.033, 0.034, 0.484, 0.01
 356831377, -0.042, 0.013, 0.489, 0.01, -0.036, 0.018, 0.486, 0.01
 357031297, -0.051, 0.017, 0.49, 0.01, -0.042, 0.013, 0.489, 0.01
 357231217, -0.056, 0.025, 0.489, 0.01, -0.051, 0.017, 0.49, 0.01
 357431137, -0.057, 0.02, 0.488, 0.01, -0.056, 0.025, 0.489, 0.01
 357631057, -0.054, 0.008, 0.487, 0.01, -0.057, 0.02, 0.488, 0.01
 357830977, -0.047, 0.008, 0.486, 0.01, -0.054, 0.008, 0.487, 0.01
 358030897, -0.036, 0.007, 0.487, 0.01, -0.047, 0.008, 0.486, 0.01
 358230817, -0.03, 0.009000001, 0.489, 0.01, -0.036, 0.007, 0.487, 0.01
 358430737, -0.03, 0.008, 0.488, 0.01, -0.03, 0.009000001, 0.489, 0.01
 358630657, -0.025, 0.01, 0.485, 0.01, -0.03, 0.008, 0.488, 0.01
 358831410, -0.017, 0.012, 0.481, 0.01, -0.025, 0.01, 0.485, 0.01
 359031330, -0.011, 0.01, 0.479, 0.01, -0.017, 0.012, 0.481, 0.01
 359231250, -0.009000001, 0.007, 0.478, 0.01, -0.011, 0.01, 0.479, 0.01
 359431170, -0.007, 0.005, 0.479, 0.01, -0.009000001, 0.007, 0.478, 0.01
 359631090, -0.004, 0.003, 0.481, 0.01, -0.007, 0.005, 0.479, 0.01
 359831010, -0.003, 0.004, 0.484, 0.01, -0.004, 0.003, 0.481, 0.01
 360030930, -0.005, 0.009000001, 0.489, 0.01, -0.003, 0.004, 0.484, 0.01
 360230850, -0.03, 0.002, 0.165, 0.01, -0.005, 0.009000001, 0.489, 0.01
 360430770, -0.047, -0.004, -0.137, 0.01, -0.03, 0.002, 0.165, 0.01
 360630690, -0.049, -0.005, -0.005, 0.01, -0.047, -0.004, -0.137, 0.01
 360831443, -0.05, -0.006, 0.019, 0.01, -0.049, -0.005, -0.005, 0.01
 361031363, -0.05, -0.006, -0.001, 0.01, -0.05, -0.006, 0.019, 0.01
 361231283, -0.05, -0.006, -0.002, 0.01, -0.05, -0.006, -0.001, 0.01
 361431203, -0.05, -0.006, 0, 0.01, -0.05, -0.006, -0.002, 0.01
 361631123, -0.05, -0.006, 0, 0.01, -0.05, -0.006, 0, 0.01
 361831043, -0.05, -0.006, 0, 0.01, -0.05, -0.006, 0, 0.01
 362030963, -0.05, -0.006, 0, 0.01, -0.05, -0.006, 0, 0.01
 362230883, -0.05, -0.006, 0, 0.01, -0.05, -0.006, 0, 0.01
 362430803, -0.05, -0.006, 0, 0.01, -0.05, -0.006, 0, 0.01
