TimeUS,CGpN,CGpE,CGpD,CGpe,PGpN,PGpE,PGpD,PGpe
 170765833, 0, 0, 0, 2.5, 0, 0, 0, 0
 170830807, 0, 0, 0, 2.5, 0, 0, 0, 2.5
 171030727, 0, 0, 0, 2.5, 0, 0, 0, 2.5
 171231480, 0, 0, 0, 2.5, 0, 0, 0, 2.5
 171431400, 0, 0, 0, 2.5, 0, 0, 0, 2.5
 171631320, 0, 0, 0, 2.5, 0, 0, 0, 2.5
 171831240, 0, 0, 0, 2.5, 0, 0, 0, 2.5
 172031160, 0, 0, 0, 2.5, 0, 0, 0, 2.5
 172231080, 0, 0, 0, 2.5, 0, 0, 0, 2.5
 172431000, 0, 0, 0, 2.5, 0, 0, 0, 2.5
 172630920, 0, 0, 0, 2.5, 0, 0, 0, 2.5
 172830840, 0, 0, 0, 2.5, 0, 0, 0, 2.5
 173030760, 0, 0, 0, 2.5, 0, 0, 0, 2.5
 173230680, 0, 0, 0, 2.5, 0, 0, 0, 2.5
 173431433, 0, 0, 0, 2.5, 0, 0, 0, 2.5
 173631353, 0, 0, 0, 2.5, 0, 0, 0, 2.5
 173831273, 0, 0, 0, 2.5, 0, 0, 0, 2.5
 174031193, 0, 0, 0, 2.5, 0, 0, 0, 2.5
 174231113, 0, 0, 0, 2.5, 0, 0, 0, 2.5
 174431033, 0, 0, 0, 2.5, 0, 0, 0, 2.5
 174630953, 0, 0, 0, 2.5, 0, 0, 0, 2.5
 174830873, 0, 0, 0, 2.5, 0, 0, 0, 2.5
 175030793, 0, 0, 0, 2.5, 0, 0, 0, 2.5
 175230713, 0, 0, 0, 2.5, 0, 0, 0, 2.5
 175431466, 0, 0, 0, 2.5, 0, 0, 0, 2.5
 175631386, 0, 0, 0, 2.5, 0, 0, 0, 2.5
 175831306, 0, 0, 0, 2.5, 0, 0, 0, 2.5
 176031226, 0, 0, 0, 2.5, 0, 0, 0, 2.5
 176231146, 0, 0, 0, 2.5, 0, 0, 0, 2.5
 176431066, 0, 0, 0, 2.5, 0, 0, 0, 2.5
 176630986, 0, 0, 0, 2.5, 0, 0, 0, 2.5
 176830906, 0, 0, 0, 2.5, 0, 0, 0, 2.5
 177030826, 0, 0, 0, 2.5, 0, 0, 0, 2.5
 177230746, 0, 0, 0, 2.5, 0, 0, 0, 2.5
 177430666, 0, 0, 0, 2.5, 0, 0, 0, 2.5
 177631419, 0, 0, 0, 2.5, 0, 0, 0, 2.5
 177831339, 0, 0, 0, 2.5, 0, 0, 0, 2.5
 178031259, 0, 0, 0, 2.5, 0, 0, 0, 2.5
 178231179, 0, 0, 0, 2.5, 0, 0, 0, 2.5
 178431099, 0, 0, 0, 2.5, 0, 0, 0, 2.5
 178631019, 0, 0, 0, 2.5, 0, 0, 0, 2.5
 178830939, 0, 0, 0, 2.5, 0, 0, 0, 2.5
 179030859, 0, 0, 0, 2.5, 0, 0, 0, 2.5
 179230779, 0, 0, 0, 2.5, 0, 0, 0, 2.5
 179430699, 0, 0, 0, 2.5, 0, 0, 0, 2.5
 179631452, 0, 0, 0, 2.5, 0, 0, 0, 2.5
 179831372, 0, 0, 0, 2.5, 0, 0, 0, 2.5
 180031292, 0, 0, 0, 2.5, 0, 0, 0, 2.5
 180231212, 0, 0, 0, 2.5, 0, 0, 0, 2.5
 180431132, 0, 0, 0, 2.5, 0, 0, 0, 2.5
 180631052, 0, 0, 0, 2.5, 0, 0, 0, 2.5
 180830972, 0, 0, 0, 2.5, 0, 0, 0, 2.5
 181030892, 0, 0, 0, 2.5, 0, 0, 0, 2.5
 181230812, 0, 0, 0, 2.5, 0, 0, 0, 2.5
 181430732, 0, 0, 0, 2.5, 0, 0, 0, 2.5
 181631485, 0, 0, 0, 2.5, 0, 0, 0, 2.5
 181831405, 0, 0, 0, 2.5, 0, 0, 0, 2.5
 182031325, 0, 0, 0, 2.5, 0, 0, 0, 2.5
 182231245, 0, 0, 0, 2.5, 0, 0, 0, 2.5
 182431165, 0, 0, 0, 2.5, 0, 0, 0, 2.5
 182631085, 0, 0, 0, 2.5, 0, 0, 0, 2.5
 182831005, 0, 0, 0, 2.5, 0, 0, 0, 2.5
 183030925, 0, 0, 0, 2.5, 0, 0, 0, 2.5
 183230845, 0, 0, 0, 2.5, 0, 0, 0, 2.5
 183430765, 0, 0, 0, 2.5, 0, 0, 0, 2.5
 183630685, 0, 0, 0, 2.5, 0, 0, 0, 2.5
 183831438, 0, 0, 0, 2.5, 0, 0, 0, 2.5
 184031358, 0, 0, 0, 2.5, 0, 0, 0, 2.5
 184231278, 0, 0, 0, 2.5, 0, 0, 0, 2.5
 184431198, 0, 0, 0, 2.5, 0, 0, 0, 2.5
 184631118, 0, 0, 0, 2.5, 0, 0, 0, 2.5
 184831038, 0, 0, 0, 2.5, 0, 0, 0, 2.5
 185030958, 0, 0, 0, 2.5, 0, 0, 0, 2.5
 185230878, 0, 0, 0, 2.5, 0, 0, 0, 2.5
 185430798, 0, 0, 0, 2.5, 0, 0, 0, 2.5
 185630718, 0, 0, 0, 2.5, 0, 0, 0, 2.5
 185831471, 0, 0, 0, 2.5, 0, 0, 0, 2.5
 186031391, 0, 0, 0, 2.5, 0, 0, 0, 2.5
 186231311, 0, 0, 0, 2.5, 0, 0, 0, 2.5
 186431231, 0, 0, 0, 2.5, 0, 0, 0, 2.5
 186631151, 0, 0, 0, 2.5, 0, 0, 0, 2.5
 186831071, 0, 0, 0, 2.5, 0, 0, 0, 2.5
 187030991, 0, 0, 0, 2.5, 0, 0, 0, 2.5
 187230911, 0, 0, 0, 2.5, 0, 0, 0, 2.5
 187430831, 0, 0, 0, 2.5, 0, 0, 0, 2.5
 187630751, 0, 0, 0, 2.5, 0, 0, 0, 2.5
 187830671, 0, 0, 0, 2.5, 0, 0, 0, 2.5
 188031424, 0, 0, 0, 2.5, 0, 0, 0, 2.5
 188231344, 0, 0, 0, 2.5, 0, 0, 0, 2.5
 188431264, 0, 0, 0, 2.5, 0, 0, 0, 2.5
 188631184, 0, 0, 0, 2.5, 0, 0, 0, 2.5
 188831104, 0, 0, 0, 2.5, 0, 0, 0, 2.5
 189031024, 0, 0, 0, 2.5, 0, 0, 0, 2.5
 189230944, 0, 0, 0, 2.5, 0, 0, 0, 2.5
 189430864, 0, 0, 0, 2.5, 0, 0, 0, 2.5
 189630784, 0, 0, 0, 2.5, 0, 0, 0, 2.5
 189830704, 0, 0, 0, 2.5, 0, 0, 0, 2.5
 190031457, 0, 0, 0, 2.5, 0, 0, 0, 2.5
 190231377, 0, 0, 0, 2.5, 0, 0, 0, 2.5
 190431297, 0, 0, 0, 2.5, 0, 0, 0, 2.5
 190631217, 0, 0, 0, 2.5, 0, 0, 0, 2.5
 190831137, 0, 0, 0, 2.5, 0, 0, 0, 2.5
 191031057, 0, 0, 0, 2.5, 0, 0, 0, 2.5
 191230977, 0, 0, 0, 2.5, 0, 0, 0, 2.5
 191430897, 0, 0, 0, 2.5, 0, 0, 0, 2.5
 191630817, 0, 0, 0, 2.5, 0, 0, 0, 2.5
 191830737, 0, 0, 0, 2.5, 0, 0, 0, 2.5
 192030657, 0, 0, 0, 2.5, 0, 0, 0, 2.5
 192231410, 0, 0, 0, 2.5, 0, 0, 0, 2.5
 192431330, 0, 0, 0, 2.5, 0, 0, 0, 2.5
 192631250, 0, 0, 0, 2.5, 0, 0, 0, 2.5
 192831170, 0, 0, 0, 2.5, 0, 0, 0, 2.5
 193031090, 0, 0, 0, 2.5, 0, 0, 0, 2.5
 193231010, 0, 0, 0, 2.5, 0, 0, 0, 2.5
 193430930, 0, 0, 0, 2.5, 0, 0, 0, 2.5
 193630850, 0, 0, 0, 2.5, 0, 0, 0, 2.5
 193830770, 0, 0, 0, 2.5, 0, 0, 0, 2.5
 194030690, 0, 0, 0, 2.5, 0, 0, 0, 2.5
 194231443, 0, 0, 0, 2.5, 0, 0, 0, 2.5
 194431363, 0, 0, 0, 2.5, 0, 0, 0, 2.5
 194631283, 0, 0, 0, 2.5, 0, 0, 0, 2.5
 194831203, 0, 0, 0, 2.5, 0, 0, 0, 2.5
 195031123, 0, 0, 0, 2.5, 0, 0, 0, 2.5
 195231043, 0, 0, 0, 2.5, 0, 0, 0, 2.5
 195430963, 0, 0, 0, 2.5, 0, 0, 0, 2.5
 195630883, 0, 0, 0, 2.5, 0, 0, 0, 2.5
 195830803, 0, 0, 0, 2.5, 0, 0, 0, 2.5
 196030723, 0, 0, 0, 2.5, 0, 0, 0, 2.5
 196231476, 0, 0, 0, 2.5, 0, 0, 0, 2.5
 196431396, 0, 0, 0, 2.5, 0, 0, 0, 2.5
 196631316, 0, 0, 0, 2.5, 0, 0, 0, 2.5
 196831236, 0, 0, 0, 2.5, 0, 0, 0, 2.5
 197031156, 0, 0, 0, 2.5, 0, 0, 0, 2.5
 197231076, 0, 0, 0, 2.5, 0, 0, 0, 2.5
 197430996, 0, 0, 0, 2.5, 0, 0, 0, 2.5
 197630916, 0, 0, 0, 2.5, 0, 0, 0, 2.5
 197830836, 0, 0, 0, 2.5, 0, 0, 0, 2.5
 198030756, 0, 0, 0, 2.5, 0, 0, 0, 2.5
 198230676, 0, 0, 0, 2.5, 0, 0, 0, 2.5
 198431429, 0, 0, 0, 2.5, 0, 0, 0, 2.5
 198631349, 0, 0, 0, 2.5, 0, 0, 0, 2.5
 198831269, 0, 0, 0, 2.5, 0, 0, 0, 2.5
 199031189, 0, 0, 0, 2.5, 0, 0, 0, 2.5
 199231109, 0, 0, 0, 2.5, 0, 0, 0, 2.5
 199431029, 0, 0, 0, 2.5, 0, 0, 0, 2.5
 199630949, 0, 0, 0, 2.5, 0, 0, 0, 2.5
 199830869, 0, 0, 0, 2.5, 0, 0, 0, 2.5
 200030789, 0, 0, 0, 2.5, 0, 0, 0, 2.5
 200230709, 0, 0, 0, 2.5, 0, 0, 0, 2.5
 200431462, 0, 0, 0, 2.5, 0, 0, 0, 2.5
 200631382, 0, 0, 0, 2.5, 0, 0, 0, 2.5
 200831302, 0, 0, 0, 2.5, 0, 0, 0, 2.5
 201031222, 0, 0, 0, 2.5, 0, 0, 0, 2.5
 201231142, 0, 0, 0, 2.5, 0, 0, 0, 2.5
 201431062, 0, 0, 0, 2.5, 0, 0, 0, 2.5
 201630982, 0, 0, 0, 2.5, 0, 0, 0, 2.5
 201830902, 0, 0, 0, 2.5, 0, 0, 0, 2.5
 202030822, 0, 0, 0, 2.5, 0, 0, 0, 2.5
 202230742, 0, 0, 0, 2.5, 0, 0, 0, 2.5
 202430662, 0, 0, 0, 2.5, 0, 0, 0, 2.5
 202631415, 0, 0, 0, 2.5, 0, 0, 0, 2.5
 202831335, 0, 0, 0, 2.5, 0, 0, 0, 2.5
 203031255, 0, 0, 0, 2.5, 0, 0, 0, 2.5
 203231175, 0, 0, 0, 2.5, 0, 0, 0, 2.5
 203431095, 0, 0, 0, 2.5, 0, 0, 0, 2.5
 203631015, 0, 0, 0, 2.5, 0, 0, 0, 2.5
 203830935, 0, 0, 0, 2.5, 0, 0, 0, 2.5
 204030855, 0, 0, 0, 2.5, 0, 0, 0, 2.5
 204230775, 0, 0, 0, 2.5, 0, 0, 0, 2.5
 204430695, 0, 0, 0, 2.5, 0, 0, 0, 2.5
 204631448, 0, 0, 0, 2.5, 0, 0, 0, 2.5
 204831368, 0, 0, 0, 2.5, 0, 0, 0, 2.5
 205031288, 0, 0, 0, 2.5, 0, 0, 0, 2.5
 205231208, 0, 0, 0, 2.5, 0, 0, 0, 2.5
 205431128, 0, 0, 0, 2.5, 0, 0, 0, 2.5
 205631048, 0, 0, 0, 2.5, 0, 0, 0, 2.5
 205830968, 0, 0, 0, 2.5, 0, 0, 0, 2.5
 206030888, 0, 0, 0, 2.5, 0, 0, 0, 2.5
 206230808, 0, 0, 0, 2.5, 0, 0, 0, 2.5
 206430728, 0, 0, 0, 2.5, 0, 0, 0, 2.5
 206631481, 0, 0, 0, 2.5, 0, 0, 0, 2.5
 206831401, 0, 0, 0, 2.5, 0, 0, 0, 2.5
 207031321, 0, 0, 0, 2.5, 0, 0, 0, 2.5
 207231241, 0, 0, 0, 2.5, 0, 0, 0, 2.5
 207431161, 0, 0, 0, 2.5, 0, 0, 0, 2.5
 207631081, 0, 0, 0, 2.5, 0, 0, 0, 2.5
 207831001, 0, 0, 0, 2.5, 0, 0, 0, 2.5
 208030921, 0, 0, 0, 2.5, 0, 0, 0, 2.5
 208230841, 0, 0, 0, 2.5, 0, 0, 0, 2.5
 208430761, 0, 0, 0, 2.5, 0, 0, 0, 2.5
 208630681, 0, 0, 0, 2.5, 0, 0, 0, 2.5
 208831434, 0, 0, 0, 2.5, 0, 0, 0, 2.5
 209031354, 0, 0, 0, 2.5, 0, 0, 0, 2.5
 209231274, 0, 0, 0, 2.5, 0, 0, 0, 2.5
 209431194, 0, 0, 0, 2.5, 0, 0, 0, 2.5
 209631114, 0, 0, 0, 2.5, 0, 0, 0, 2.5
 209831034, 0, 0, 0, 2.5, 0, 0, 0, 2.5
 210030954, 0, 0, 0, 2.5, 0, 0, 0, 2.5
 210230874, 0, 0, 0, 2.5, 0, 0, 0, 2.5
 210430794, 0, 0, 0, 2.5, 0, 0, 0, 2.5
 210630714, 0, 0, 0, 2.5, 0, 0, 0, 2.5
 210831467, 0, 0, 0, 2.5, 0, 0, 0, 2.5
 211031387, 0, 0, 0, 2.5, 0, 0, 0, 2.5
 211231307, 0, 0, 0, 2.5, 0, 0, 0, 2.5
 211431227, 0, 0, 0, 2.5, 0, 0, 0, 2.5
 211631147, 0, 0, 0, 2.5, 0, 0, 0, 2.5
 211831067, 0, 0, 0, 2.5, 0, 0, 0, 2.5
 212030987, 0, 0, 0, 2.5, 0, 0, 0, 2.5
 212230907, 0, 0, 0, 2.5, 0, 0, 0, 2.5
 212430827, 0, 0, 0, 2.5, 0, 0, 0, 2.5
 212630747, 0, 0, 0, 2.5, 0, 0, 0, 2.5
 212830667, 0, 0, 0, 2.5, 0, 0, 0, 2.5
 213031420, 0, 0, 0, 2.5, 0, 0, 0, 2.5
 213231340, 0, 0, 0, 2.5, 0, 0, 0, 2.5
 213431260, 0, 0, 0, 2.5, 0, 0, 0, 2.5
 213631180, 0, 0, 0, 2.5, 0, 0, 0, 2.5
 213831100, 0, 0, 0, 2.5, 0, 0, 0, 2.5
 214031020, 0, 0, 0, 2.5, 0, 0, 0, 2.5
 214230940, 0, 0, 0, 2.5, 0, 0, 0, 2.5
 214430860, 0, 0, 0, 2.5, 0, 0, 0, 2.5
 214630780, 0, 0, 0, 2.5, 0, 0, 0, 2.5
 214830700, 0, 0, 0, 2.5, 0, 0, 0, 2.5
 215031453, 0, 0, 0, 2.5, 0, 0, 0, 2.5
 215231373, 0, 0, 0, 2.5, 0, 0, 0, 2.5
 215431293, 0, 0, 0, 2.5, 0, 0, 0, 2.5
 215631213, 0, 0, 0, 2.5, 0, 0, 0, 2.5
 215831133, 0, 0, 0, 2.5, 0, 0, 0, 2.5
 216031053, 0, 0, 0, 2.5, 0, 0, 0, 2.5
 216230973, 0, 0, 0, 2.5, 0, 0, 0, 2.5
 216430893, 0, 0, 0, 2.5, 0, 0, 0, 2.5
 216630813, 0, 0, 0, 2.5, 0, 0, 0, 2.5
 216830733, 0, 0, 0, 2.5, 0, 0, 0, 2.5
 217031486, 0, 0, 0, 2.5, 0, 0, 0, 2.5
 217231406, 0, 0, 0, 2.5, 0, 0, 0, 2.5
 217431326, 0, 0, 0, 2.5, 0, 0, 0, 2.5
 217631246, 0, 0, 0, 2.5, 0, 0, 0, 2.5
 217831166, 0, 0, 0, 2.5, 0, 0, 0, 2.5
 218031086, 0, 0, 0, 2.5, 0, 0, 0, 2.5
 218231006, 0, 0, 0, 2.5, 0, 0, 0, 2.5
 218430926, 0, 0, 0, 2.5, 0, 0, 0, 2.5
 218630846, 0, 0, 0, 2.5, 0, 0, 0, 2.5
 218830766, 0, 0, 0, 2.5, 0, 0, 0, 2.5
 219030686, 0, 0, 0, 2.5, 0, 0, 0, 2.5
 219231439, 0, 0, 0, 2.5, 0, 0, 0, 2.5
 219431359, 0, 0, 0, 2.5, 0, 0, 0, 2.5
 219631279, 0, 0, 0, 2.5, 0, 0, 0, 2.5
 219831199, 0, 0, 0, 2.5, 0, 0, 0, 2.5
 220031119, 0, 0, 0, 2.5, 0, 0, 0, 2.5
 220231039, 0, 0, 0, 2.5, 0, 0, 0, 2.5
 220430959, 0, 0, 0, 2.5, 0, 0, 0, 2.5
 220630879, 0, 0, 0, 2.5, 0, 0, 0, 2.5
 220830799, 0, 0, 0, 2.5, 0, 0, 0, 2.5
 221030719, 0, 0, 0, 2.5, 0, 0, 0, 2.5
 221231472, 0, 0, 0, 2.5, 0, 0, 0, 2.5
 221431392, 0, 0, 0, 2.5, 0, 0, 0, 2.5
 221631312, 0, 0, 0, 2.5, 0, 0, 0, 2.5
 221831232, 0, 0, 0, 2.5, 0, 0, 0, 2.5
 222031152, 0, 0, 0, 2.5, 0, 0, 0, 2.5
 222231072, 0, 0, 0, 2.5, 0, 0, 0, 2.5
 222430992, 0, 0, 0, 2.5, 0, 0, 0, 2.5
 222630912, 0, 0, 0, 2.5, 0, 0, 0, 2.5
 222830832, 0, 0, -0.004, 2.5, 0, 0, 0, 2.5
 223030752, 0, 0, -0.305, 2.5, 0, 0, -0.004, 2.5
 223230672, 0, 0, -0.251, 2.5, 0, 0, -0.305, 2.5
 223431425, 0, 0, -0.309, 2.5, 0, 0, -0.251, 2.5
 223631345, -0.005, -0.006, -1.626, 2.5, 0, 0, -0.309, 2.5
 223831265, -0.019, -0.02, -2.103, 2.5, -0.005, -0.006, -1.626, 2.5
 224031185, -0.036, -0.036, -2.224, 2.5, -0.019, -0.02, -2.103, 2.5
 224231105, -0.051, -0.05, -2.457, 2.5, -0.036, -0.036, -2.224, 2.5
 224431025, -0.064, -0.062, -2.687, 2.5, -0.051, -0.05, -2.457, 2.5
 224630945, -0.075, -0.071, -2.868, 2.5, -0.064, -0.062, -2.687, 2.5
 224830865, -0.08400001, -0.079, -3.027, 2.5, -0.075, -0.071, -2.868, 2.5
 225030785, -0.09100001, -0.085, -3.168, 2.5, -0.08400001, -0.079, -3.027, 2.5
 225230705, -0.096, -0.09100001, -3.293, 2.5, -0.09100001, -0.085, -3.168, 2.5
 225431458, -0.1, -0.09500001, -3.401, 2.5, -0.096, -0.09100001, -3.293, 2.5
 225631378, -0.102, -0.09900001, -3.497, 2.5, -0.1, -0.09500001, -3.401, 2.5
 225831298, -0.103, -0.102, -3.58, 2.5, -0.102, -0.09900001, -3.497, 2.5
 226031218, -0.104, -0.104, -3.652, 2.5, -0.103, -0.102, -3.58, 2.5
 226231138, -0.106, -0.106, -3.717, 2.5, -0.104, -0.104, -3.652, 2.5
 226431058, -0.108, -0.108, -3.774, 2.5, -0.106, -0.106, -3.717, 2.5
 226630978, -0.111, -0.11, -3.823, 2.5, -0.108, -0.108, -3.774, 2.5
 226830898, -0.111, -0.11, -3.495, 2.5, -0.111, -0.11, -3.823, 2.5
 227030818, -0.11, -0.109, -2.968, 2.5, -0.111, -0.11, -3.495, 2.5
 227230738, -0.108, -0.11, -2.507, 2.5, -0.11, -0.109, -2.968, 2.5
 227430658, -0.106, -0.11, -2.135, 2.5, -0.108, -0.11, -2.507, 2.5
 227631411, -0.102, -0.111, -1.842, 2.5, -0.106, -0.11, -2.135, 2.5
 227831331, -0.096, -0.11, -1.623, 2.5, -0.102, -0.111, -1.842, 2.5
 228031251, -0.053, -0.101, -1.488, 2.5, -0.096, -0.11, -1.623, 2.5
 228231171, 0.097, -0.086, -1.402, 2.5, -0.053, -0.101, -1.488, 2.5
 228431091, 0.34, -0.086, -1.348, 2.5, 0.097, -0.086, -1.402, 2.5
 228631011, 0.603, -0.104, -1.32, 2.5, 0.34, -0.086, -1.348, 2.5
 228830931, 0.836, -0.117, -1.324, 2.5, 0.603, -0.104, -1.32, 2.5
 229030851, 1.039, -0.083, -1.357, 2.5, 0.836, -0.117, -1.324, 2.5
 229230771, 1.245, 0, -1.41, 2.5, 1.039, -0.083, -1.357, 2.5
 229430691, 1.472, 0.127, -1.487, 2.5, 1.245, 0, -1.41, 2.5
 229631444, 1.706, 0.249, -1.591, 2.5, 1.472, 0.127, -1.487, 2.5
 229831364, 1.924, 0.312, -1.703, 2.5, 1.706, 0.249, -1.591, 2.5
 230031284, 2.133, 0.317, -1.804, 2.5, 1.924, 0.312, -1.703, 2.5
 230231204, 2.344, 0.283, -1.887, 2.5, 2.133, 0.317, -1.804, 2.5
 230431124, 2.54, 0.233, -1.956, 2.5, 2.344, 0.283, -1.887, 2.5
 230631044, 2.704, 0.188, -2.01, 2.5, 2.54, 0.233, -1.956, 2.5
 230830964, 2.854, 0.106, -2.049, 2.5, 2.704, 0.188, -2.01, 2.5
 231030884, 3.009, -0.003, -2.086, 2.5, 2.854, 0.106, -2.049, 2.5
 231230804, 3.143, -0.075, -2.121, 2.5, 3.009, -0.003, -2.086, 2.5
 231430724, 3.235, -0.06500001, -2.12, 2.5, 3.143, -0.075, -2.121, 2.5
 231631477, 3.286, 0.026, -2.1, 2.5, 3.235, -0.06500001, -2.12, 2.5
 231831397, 3.316, 0.144, -2.068, 2.5, 3.286, 0.026, -2.1, 2.5
 232031317, 3.344, 0.227, -2.045, 2.5, 3.316, 0.144, -2.068, 2.5
 232231237, 3.368, 0.271, -2.039, 2.5, 3.344, 0.227, -2.045, 2.5
 232431157, 3.38, 0.301, -2.038, 2.5, 3.368, 0.271, -2.039, 2.5
 232631077, 3.384, 0.349, -2.029, 2.5, 3.38, 0.301, -2.038, 2.5
 232830997, 3.39, 0.409, -2.028, 2.5, 3.384, 0.349, -2.029, 2.5
 233030917, 3.395, 0.454, -2.02, 2.5, 3.39, 0.409, -2.028, 2.5
 233230837, 3.405, 0.46, -2.012, 2.5, 3.395, 0.454, -2.02, 2.5
 233430757, 3.419, 0.431, -2.005, 2.5, 3.405, 0.46, -2.012, 2.5
 233630677, 3.429, 0.385, -1.998, 2.5, 3.419, 0.431, -2.005, 2.5
 233831430, 3.436, 0.353, -1.995, 2.5, 3.429, 0.385, -1.998, 2.5
 234031350, 3.437, 0.34, -1.975, 2.5, 3.436, 0.353, -1.995, 2.5
 234231270, 3.438, 0.314, -1.942, 2.5, 3.437, 0.34, -1.975, 2.5
 234431190, 3.451, 0.254, -1.931, 2.5, 3.438, 0.314, -1.942, 2.5
 234631110, 3.467, 0.187, -1.934, 2.5, 3.451, 0.254, -1.931, 2.5
 234831030, 3.476, 0.143, -1.939, 2.5, 3.467, 0.187, -1.934, 2.5
 235030950, 3.482, 0.141, -1.943, 2.5, 3.476, 0.143, -1.939, 2.5
 235230870, 3.486, 0.188, -1.942, 2.5, 3.482, 0.141, -1.943, 2.5
 235430790, 3.488, 0.252, -1.937, 2.5, 3.486, 0.188, -1.942, 2.5
 235630710, 3.491, 0.295, -1.933, 2.5, 3.488, 0.252, -1.937, 2.5
 235831463, 3.499, 0.304, -1.943, 2.5, 3.491, 0.295, -1.933, 2.5
 236031383, 3.502, 0.289, -1.956, 2.5, 3.499, 0.304, -1.943, 2.5
 236231303, 3.502, 0.251, -1.966, 2.5, 3.502, 0.289, -1.956, 2.5
 236431223, 3.504, 0.199, -1.976, 2.5, 3.502, 0.251, -1.966, 2.5
 236631143, 3.506, 0.155, -1.988, 2.5, 3.504, 0.199, -1.976, 2.5
 236831063, 3.505, 0.136, -1.994, 2.5, 3.506, 0.155, -1.988, 2.5
 237030983, 3.504, 0.123, -1.998, 2.5, 3.505, 0.136, -1.994, 2.5
 237230903, 3.505, 0.111, -2.001, 2.5, 3.504, 0.123, -1.998, 2.5
 237430823, 3.505, 0.11, -2.002, 2.5, 3.505, 0.111, -2.001, 2.5
 237630743, 3.505, 0.114, -2.003, 2.5, 3.505, 0.11, -2.002, 2.5
 237830663, 3.502, 0.126, -1.997, 2.5, 3.505, 0.114, -2.003, 2.5
 238031416, 3.501, 0.148, -1.983, 2.5, 3.502, 0.126, -1.997, 2.5
 238231336, 3.507, 0.154, -1.969, 2.5, 3.501, 0.148, -1.983, 2.5
 238431256, 3.516, 0.126, -1.96, 2.5, 3.507, 0.154, -1.969, 2.5
 238631176, 3.52, 0.106, -1.956, 2.5, 3.516, 0.126, -1.96, 2.5
 238831096, 3.52, 0.112, -1.956, 2.5, 3.52, 0.106, -1.956, 2.5
 239031016, 3.521, 0.124, -1.961, 2.5, 3.52, 0.112, -1.956, 2.5
 239230936, 3.52, 0.131, -1.97, 2.5, 3.521, 0.124, -1.961, 2.5
 239430856, 3.518, 0.132, -1.976, 2.5, 3.52, 0.131, -1.97, 2.5
 239630776, 3.516, 0.136, -1.975, 2.5, 3.518, 0.132, -1.976, 2.5
 239830696, 3.518, 0.143, -1.981, 2.5, 3.516, 0.136, -1.975, 2.5
 240031449, 3.52, 0.147, -2.002, 2.5, 3.518, 0.143, -1.981, 2.5
 240231369, 3.513, 0.139, -2.016, 2.5, 3.52, 0.147, -2.002, 2.5
 240431289, 3.503, 0.122, -2.01, 2.5, 3.513, 0.139, -2.016, 2.5
 240631209, 3.503, 0.118, -1.985, 2.5, 3.503, 0.122, -2.01, 2.5
 240831129, 3.513, 0.126, -1.957, 2.5, 3.503, 0.118, -1.985, 2.5
 241031049, 3.525, 0.122, -1.935, 2.5, 3.513, 0.126, -1.957, 2.5
 241230969, 3.53, 0.09, -1.92, 2.5, 3.525, 0.122, -1.935, 2.5
 241430889, 3.532, 0.047, -1.912, 2.5, 3.53, 0.09, -1.92, 2.5
 241630809, 3.532, 0.025, -1.901, 2.5, 3.532, 0.047, -1.912, 2.5
 241830729, 3.537, 0.042, -1.899, 2.5, 3.532, 0.025, -1.901, 2.5
 242031482, 3.54, 0.086, -1.906, 2.5, 3.537, 0.042, -1.899, 2.5
 242231402, 3.539, 0.133, -1.922, 2.5, 3.54, 0.086, -1.906, 2.5
 242431322, 3.531, 0.159, -1.931, 2.5, 3.539, 0.133, -1.922, 2.5
 242631242, 3.527, 0.169, -1.934, 2.5, 3.531, 0.159, -1.931, 2.5
 242831162, 3.531, 0.164, -1.947, 2.5, 3.527, 0.169, -1.934, 2.5
 243031082, 3.531, 0.157, -1.96, 2.5, 3.531, 0.164, -1.947, 2.5
 243231002, 3.524, 0.173, -1.971, 2.5, 3.531, 0.157, -1.96, 2.5
 243430922, 3.517, 0.207, -1.985, 2.5, 3.524, 0.173, -1.971, 2.5
 243630842, 3.512, 0.243, -2.01, 2.5, 3.517, 0.207, -1.985, 2.5
 243830762, 3.502, 0.261, -2.026, 2.5, 3.512, 0.243, -2.01, 2.5
 244030682, 3.495, 0.254, -2.044, 2.5, 3.502, 0.261, -2.026, 2.5
 244231435, 3.489, 0.253, -2.067, 2.5, 3.495, 0.254, -2.044, 2.5
 244431355, 3.478, 0.276, -2.075, 2.5, 3.489, 0.253, -2.067, 2.5
 244631275, 3.47, 0.314, -2.077, 2.5, 3.478, 0.276, -2.075, 2.5
 244831195, 3.468, 0.345, -2.077, 2.5, 3.47, 0.314, -2.077, 2.5
 245031115, 3.466, 0.374, -2.077, 2.5, 3.468, 0.345, -2.077, 2.5
 245231035, 3.464, 0.398, -2.078, 2.5, 3.466, 0.374, -2.077, 2.5
 245430955, 3.463, 0.403, -2.083, 2.5, 3.464, 0.398, -2.078, 2.5
 245630875, 3.461, 0.385, -2.086, 2.5, 3.463, 0.403, -2.083, 2.5
 245830795, 3.462, 0.339, -2.085, 2.5, 3.461, 0.385, -2.086, 2.5
 246030715, 3.464, 0.272, -2.079, 2.5, 3.462, 0.339, -2.085, 2.5
 246231468, 3.467, 0.225, -2.07, 2.5, 3.464, 0.272, -2.079, 2.5
 246431388, 3.471, 0.209, -2.058, 2.5, 3.467, 0.225, -2.07, 2.5
 246631308, 3.475, 0.207, -2.042, 2.5, 3.471, 0.209, -2.058, 2.5
 246831228, 3.48, 0.187, -2.017, 2.5, 3.475, 0.207, -2.042, 2.5
 247031148, 3.489, 0.167, -1.992, 2.5, 3.48, 0.187, -2.017, 2.5
 247231068, 3.501, 0.183, -1.976, 2.5, 3.489, 0.167, -1.992, 2.5
 247430988, 3.507, 0.21, -1.97, 2.5, 3.501, 0.183, -1.976, 2.5
 247630908, 3.509, 0.197, -1.967, 2.5, 3.507, 0.21, -1.97, 2.5
 247830828, 3.513, 0.148, -1.964, 2.5, 3.509, 0.197, -1.967, 2.5
 248030748, 3.519, 0.1, -1.972, 2.5, 3.513, 0.148, -1.964, 2.5
 248230668, 3.521, 0.106, -1.981, 2.5, 3.519, 0.1, -1.972, 2.5
 248431421, 3.518, 0.157, -1.991, 2.5, 3.521, 0.106, -1.981, 2.5
 248631341, 3.515, 0.213, -2.008, 2.5, 3.518, 0.157, -1.991, 2.5
 248831261, 3.51, 0.262, -2.032, 2.5, 3.515, 0.213, -2.008, 2.5
 249031181, 3.5, 0.283, -2.038, 2.5, 3.51, 0.262, -2.032, 2.5
 249231101, 3.496, 0.3, -2.026, 2.5, 3.5, 0.283, -2.038, 2.5
 249431021, 3.503, 0.318, -2.011, 2.5, 3.496, 0.3, -2.026, 2.5
 249630941, 3.512, 0.33, -2.002, 2.5, 3.503, 0.318, -2.011, 2.5
 249830861, 3.48, 0.336, -1.899, 2.5, 3.512, 0.33, -2.002, 2.5
 250030781, 3.351, 0.361, -1.722, 2.5, 3.48, 0.336, -1.899, 2.5
 250230701, 3.14, 0.412, -1.501, 2.5, 3.351, 0.361, -1.722, 2.5
 250431454, 2.9, 0.476, -1.246, 2.5, 3.14, 0.412, -1.501, 2.5
 250631374, 2.694, 0.515, -0.9350001, 2.5, 2.9, 0.476, -1.246, 2.5
 250831294, 2.609, 0.5190001, -0.625, 2.5, 2.694, 0.515, -0.9350001, 2.5
 251031214, 2.627, 0.483, -0.349, 2.5, 2.609, 0.5190001, -0.625, 2.5
 251231134, 2.688, 0.387, -0.121, 2.5, 2.627, 0.483, -0.349, 2.5
 251431054, 2.756, 0.265, 0.056, 2.5, 2.688, 0.387, -0.121, 2.5
 251630974, 2.841, 0.184, 0.192, 2.5, 2.756, 0.265, 0.056, 2.5
 251830894, 2.963, 0.146, 0.291, 2.5, 2.841, 0.184, 0.192, 2.5
 252030814, 3.104, 0.109, 0.359, 2.5, 2.963, 0.146, 0.291, 2.5
 252230734, 3.24, 0.07300001, 0.403, 2.5, 3.104, 0.109, 0.359, 2.5
 252430654, 3.365, 0.041, 0.43, 2.5, 3.24, 0.07300001, 0.403, 2.5
 252631407, 3.473, -0.007, 0.447, 2.5, 3.365, 0.041, 0.43, 2.5
 252831327, 3.572, -0.081, 0.459, 2.5, 3.473, -0.007, 0.447, 2.5
 253031247, 3.669, -0.14, 0.468, 2.5, 3.572, -0.081, 0.459, 2.5
 253231167, 3.757, -0.16, 0.473, 2.5, 3.669, -0.14, 0.468, 2.5
 253431087, 3.824, -0.167, 0.475, 2.5, 3.757, -0.16, 0.473, 2.5
 253631007, 3.875, -0.196, 0.478, 2.5, 3.824, -0.167, 0.475, 2.5
 253830927, 3.93, -0.229, 0.483, 2.5, 3.875, -0.196, 0.478, 2.5
 254030847, 3.995, -0.225, 0.486, 2.5, 3.93, -0.229, 0.483, 2.5
 254230767, 4.059, -0.19, 0.488, 2.5, 3.995, -0.225, 0.486, 2.5
 254430687, 4.118, -0.144, 0.488, 2.5, 4.059, -0.19, 0.488, 2.5
 254631440, 4.171, -0.103, 0.489, 2.5, 4.118, -0.144, 0.488, 2.5
 254831360, 4.23, -0.07700001, 0.49, 2.5, 4.171, -0.103, 0.489, 2.5
 255031280, 4.296, -0.063, 0.491, 2.5, 4.23, -0.07700001, 0.49, 2.5
 255231200, 4.361, -0.053, 0.491, 2.5, 4.296, -0.063, 0.491, 2.5
 255431120, 4.418, -0.032, 0.49, 2.5, 4.361, -0.053, 0.491, 2.5
 255631040, 4.466, 0, 0.488, 2.5, 4.418, -0.032, 0.49, 2.5
 255830960, 4.497, 0.017, 0.486, 2.5, 4.466, 0, 0.488, 2.5
 256030880, 4.521, 0.012, 0.486, 2.5, 4.497, 0.017, 0.486, 2.5
 256230800, 4.556, 0.008, 0.487, 2.5, 4.521, 0.012, 0.486, 2.5
 256430720, 4.597, 0.019, 0.487, 2.5, 4.556, 0.008, 0.487, 2.5
 256631473, 4.635, 0.027, 0.486, 2.5, 4.597, 0.019, 0.487, 2.5
 256831393, 4.672, 0.011, 0.486, 2.5, 4.635, 0.027, 0.486, 2.5
 257031313, 4.706, 0.001, 0.485, 2.5, 4.672, 0.011, 0.486, 2.5
 257231233, 4.733, 0.024, 0.484, 2.5, 4.706, 0.001, 0.485, 2.5
 257431153, 4.757, 0.06, 0.484, 2.5, 4.733, 0.024, 0.484, 2.5
 257631073, 4.787, 0.087, 0.48, 2.5, 4.757, 0.06, 0.484, 2.5
 257830993, 4.825, 0.102, 0.465, 2.5, 4.787, 0.087, 0.48, 2.5
 258030913, 4.843, 0.118, 0.453, 2.5, 4.825, 0.102, 0.465, 2.5
 258230833, 4.84, 0.11, 0.45, 2.5, 4.843, 0.118, 0.453, 2.5
 258430753, 4.832, 0.08400001, 0.451, 2.5, 4.84, 0.11, 0.45, 2.5
 258630673, 4.819, 0.061, 0.456, 2.5, 4.832, 0.08400001, 0.451, 2.5
 258831426, 4.806, 0.057, 0.461, 2.5, 4.819, 0.061, 0.456, 2.5
 259031346, 4.801, 0.06500001, 0.467, 2.5, 4.806, 0.057, 0.461, 2.5
 259231266, 4.805, 0.072, 0.472, 2.5, 4.801, 0.06500001, 0.467, 2.5
 259431186, 4.804, 0.07300001, 0.474, 2.5, 4.805, 0.072, 0.472, 2.5
 259631106, 4.793, 0.06900001, 0.476, 2.5, 4.804, 0.07300001, 0.474, 2.5
 259831026, 4.789, 0.052, 0.479, 2.5, 4.793, 0.06900001, 0.476, 2.5
 260030946, 4.793, 0.017, 0.481, 2.5, 4.789, 0.052, 0.479, 2.5
 260230866, 4.798, -0.011, 0.481, 2.5, 4.793, 0.017, 0.481, 2.5
 260430786, 4.8, -0.018, 0.477, 2.5, 4.798, -0.011, 0.481, 2.5
 260630706, 4.8, -0.01, 0.473, 2.5, 4.8, -0.018, 0.477, 2.5
 260831459, 4.796, -0.002, 0.471, 2.5, 4.8, -0.01, 0.473, 2.5
 261031379, 4.789, 0.01, 0.471, 2.5, 4.796, -0.002, 0.471, 2.5
 261231299, 4.787, 0.021, 0.472, 2.5, 4.789, 0.01, 0.471, 2.5
 261431219, 4.794, 0.01, 0.47, 2.5, 4.787, 0.021, 0.472, 2.5
 261631139, 4.799, -0.015, 0.47, 2.5, 4.794, 0.01, 0.47, 2.5
 261831059, 4.797, -0.039, 0.47, 2.5, 4.799, -0.015, 0.47, 2.5
 262030979, 4.791, -0.071, 0.472, 2.5, 4.797, -0.039, 0.47, 2.5
 262230899, 4.784, -0.104, 0.473, 2.5, 4.791, -0.071, 0.472, 2.5
 262430819, 4.768, -0.115, 0.474, 2.5, 4.784, -0.104, 0.473, 2.5
 262630739, 4.749, -0.106, 0.475, 2.5, 4.768, -0.115, 0.474, 2.5
 262830659, 4.75, -0.09100001, 0.478, 2.5, 4.749, -0.106, 0.475, 2.5
 263031412, 4.77, -0.082, 0.48, 2.5, 4.75, -0.09100001, 0.478, 2.5
 263231332, 4.796, -0.089, 0.473, 2.5, 4.77, -0.082, 0.48, 2.5
 263431252, 4.805, -0.101, 0.466, 2.5, 4.796, -0.089, 0.473, 2.5
 263631172, 4.805, -0.105, 0.462, 2.5, 4.805, -0.101, 0.466, 2.5
 263831092, 4.806, -0.111, 0.457, 2.5, 4.805, -0.105, 0.462, 2.5
 264031012, 4.811, -0.117, 0.453, 2.5, 4.806, -0.111, 0.457, 2.5
 264230932, 4.818, -0.114, 0.451, 2.5, 4.811, -0.117, 0.453, 2.5
 264430852, 4.82, -0.102, 0.453, 2.5, 4.818, -0.114, 0.451, 2.5
 264630772, 4.822, -0.086, 0.453, 2.5, 4.82, -0.102, 0.453, 2.5
 264830692, 4.825, -0.074, 0.456, 2.5, 4.822, -0.086, 0.453, 2.5
 265031445, 4.827, -0.07300001, 0.46, 2.5, 4.825, -0.074, 0.456, 2.5
 265231365, 4.828, -0.078, 0.463, 2.5, 4.827, -0.07300001, 0.46, 2.5
 265431285, 4.831, -0.085, 0.46, 2.5, 4.828, -0.078, 0.463, 2.5
 265631205, 4.834, -0.086, 0.458, 2.5, 4.831, -0.085, 0.46, 2.5
 265831125, 4.834, -0.083, 0.46, 2.5, 4.834, -0.086, 0.458, 2.5
 266031045, 4.827, -0.082, 0.462, 2.5, 4.834, -0.083, 0.46, 2.5
 266230965, 4.813, -0.074, 0.465, 2.5, 4.827, -0.082, 0.462, 2.5
 266430885, 4.796, -0.06900001, 0.469, 2.5, 4.813, -0.074, 0.465, 2.5
 266630805, 4.789, -0.06500001, 0.474, 2.5, 4.796, -0.06900001, 0.469, 2.5
 266830725, 4.791, -0.053, 0.478, 2.5, 4.789, -0.06500001, 0.474, 2.5
 267031478, 4.8, -0.042, 0.48, 2.5, 4.791, -0.053, 0.478, 2.5
 267231398, 4.811, -0.04, 0.482, 2.5, 4.8, -0.042, 0.48, 2.5
 267431318, 4.825, -0.034, 0.478, 2.5, 4.811, -0.04, 0.482, 2.5
 267631238, 4.834, -0.023, 0.476, 2.5, 4.825, -0.034, 0.478, 2.5
 267831158, 4.832, -0.016, 0.475, 2.5, 4.834, -0.023, 0.476, 2.5
 268031078, 4.822, -0.034, 0.475, 2.5, 4.832, -0.016, 0.475, 2.5
 268230998, 4.81, -0.072, 0.476, 2.5, 4.822, -0.034, 0.475, 2.5
 268430918, 4.81, -0.11, 0.479, 2.5, 4.81, -0.072, 0.476, 2.5
 268630838, 4.816, -0.127, 0.48, 2.5, 4.81, -0.11, 0.479, 2.5
 268830758, 4.816, -0.115, 0.481, 2.5, 4.816, -0.127, 0.48, 2.5
 269030678, 4.813, -0.07700001, 0.481, 2.5, 4.816, -0.115, 0.481, 2.5
 269231431, 4.816, -0.041, 0.482, 2.5, 4.813, -0.07700001, 0.481, 2.5
 269431351, 4.823, -0.015, 0.482, 2.5, 4.816, -0.041, 0.482, 2.5
 269631271, 4.823, 0.009000001, 0.481, 2.5, 4.823, -0.015, 0.482, 2.5
 269831191, 4.819, 0.028, 0.48, 2.5, 4.823, 0.009000001, 0.481, 2.5
 270031111, 4.83, 0.037, 0.471, 2.5, 4.819, 0.028, 0.48, 2.5
 270231031, 4.843, 0.048, 0.463, 2.5, 4.83, 0.037, 0.471, 2.5
 270430951, 4.845, 0.07600001, 0.456, 2.5, 4.843, 0.048, 0.463, 2.5
 270630871, 4.847, 0.119, 0.45, 2.5, 4.845, 0.07600001, 0.456, 2.5
 270830791, 4.856, 0.143, 0.405, 2.5, 4.847, 0.119, 0.45, 2.5
 271030711, 4.811, 0.14, 0.327, 2.5, 4.856, 0.143, 0.405, 2.5
 271231464, 4.667, 0.137, 0.27, 2.5, 4.811, 0.14, 0.327, 2.5
 271431384, 4.495, 0.149, 0.297, 2.5, 4.667, 0.137, 0.27, 2.5
 271631304, 4.418, 0.153, 0.358, 2.5, 4.495, 0.149, 0.297, 2.5
 271831224, 4.418, 0.134, 0.424, 2.5, 4.418, 0.153, 0.358, 2.5
 272031144, 4.42, 0.11, 0.481, 2.5, 4.418, 0.134, 0.424, 2.5
 272231064, 4.404, 0.094, 0.529, 2.5, 4.42, 0.11, 0.481, 2.5
 272430984, 4.394, 0.082, 0.569, 2.5, 4.404, 0.094, 0.529, 2.5
 272630904, 4.408, 0.07300001, 0.6, 2.5, 4.394, 0.082, 0.569, 2.5
 272830824, 4.43, 0.06900001, 0.6210001, 2.5, 4.408, 0.07300001, 0.6, 2.5
 273030744, 4.447, 0.067, 0.634, 2.5, 4.43, 0.06900001, 0.6210001, 2.5
 273230664, 4.462, 0.066, 0.641, 2.5, 4.447, 0.067, 0.634, 2.5
 273431417, 4.488, 0.06500001, 0.634, 2.5, 4.462, 0.066, 0.641, 2.5
 273631337, 4.508, 0.068, 0.618, 2.5, 4.488, 0.06500001, 0.634, 2.5
 273831257, 4.515, 0.09, 0.599, 2.5, 4.508, 0.068, 0.618, 2.5
 274031177, 4.518, 0.117, 0.583, 2.5, 4.515, 0.09, 0.599, 2.5
 274231097, 4.521, 0.124, 0.5700001, 2.5, 4.518, 0.117, 0.583, 2.5
 274431017, 4.527, 0.125, 0.557, 2.5, 4.521, 0.124, 0.5700001, 2.5
 274630937, 4.529, 0.116, 0.5470001, 2.5, 4.527, 0.125, 0.557, 2.5
 274830857, 4.526, 0.101, 0.554, 2.5, 4.529, 0.116, 0.5470001, 2.5
 275030777, 4.524, 0.085, 0.565, 2.5, 4.526, 0.101, 0.554, 2.5
 275230697, 4.524, 0.068, 0.574, 2.5, 4.524, 0.085, 0.565, 2.5
 275431450, 4.52, 0.048, 0.588, 2.5, 4.524, 0.068, 0.574, 2.5
 275631370, 4.51, 0.034, 0.604, 2.5, 4.52, 0.048, 0.588, 2.5
 275831290, 4.512, 0.027, 0.609, 2.5, 4.51, 0.034, 0.604, 2.5
 276031210, 4.523, 0.019, 0.61, 2.5, 4.512, 0.027, 0.609, 2.5
 276231130, 4.523, 0.002, 0.612, 2.5, 4.523, 0.019, 0.61, 2.5
 276431050, 4.519, -0.008, 0.611, 2.5, 4.523, 0.002, 0.612, 2.5
 276630970, 4.518, -0.003, 0.609, 2.5, 4.519, -0.008, 0.611, 2.5
 276830890, 4.508, 0.007, 0.611, 2.5, 4.518, -0.003, 0.609, 2.5
 277030810, 4.521, 0.02, 0.605, 2.5, 4.508, 0.007, 0.611, 2.5
 277230730, 4.532, 0.045, 0.595, 2.5, 4.521, 0.02, 0.605, 2.5
 277431483, 4.533, 0.079, 0.581, 2.5, 4.532, 0.045, 0.595, 2.5
 277631403, 4.533, 0.1, 0.561, 2.5, 4.533, 0.079, 0.581, 2.5
 277831323, 4.533, 0.09100001, 0.543, 2.5, 4.533, 0.1, 0.561, 2.5
 278031243, 4.531, 0.06900001, 0.538, 2.5, 4.533, 0.09100001, 0.543, 2.5
 278231163, 4.529, 0.067, 0.544, 2.5, 4.531, 0.06900001, 0.538, 2.5
 278431083, 4.528, 0.081, 0.558, 2.5, 4.529, 0.067, 0.544, 2.5
 278631003, 4.53, 0.102, 0.569, 2.5, 4.528, 0.081, 0.558, 2.5
 278830923, 4.532, 0.119, 0.58, 2.5, 4.53, 0.102, 0.569, 2.5
 279030843, 4.532, 0.123, 0.588, 2.5, 4.532, 0.119, 0.58, 2.5
 279230763, 4.531, 0.126, 0.5930001, 2.5, 4.532, 0.123, 0.588, 2.5
 279430683, 4.533, 0.123, 0.592, 2.5, 4.531, 0.126, 0.5930001, 2.5
 279631436, 4.527, 0.101, 0.599, 2.5, 4.533, 0.123, 0.592, 2.5
 279831356, 4.517, 0.072, 0.608, 2.5, 4.527, 0.101, 0.599, 2.5
 280031276, 4.504, 0.07700001, 0.62, 2.5, 4.517, 0.072, 0.608, 2.5
 280231196, 4.506, 0.111, 0.629, 2.5, 4.504, 0.07700001, 0.62, 2.5
 280431116, 4.521, 0.147, 0.626, 2.5, 4.506, 0.111, 0.629, 2.5
 280631036, 4.533, 0.172, 0.609, 2.5, 4.521, 0.147, 0.626, 2.5
 280830956, 4.53, 0.192, 0.591, 2.5, 4.533, 0.172, 0.609, 2.5
 281030876, 4.527, 0.204, 0.578, 2.5, 4.53, 0.192, 0.591, 2.5
 281230796, 4.527, 0.189, 0.574, 2.5, 4.527, 0.204, 0.578, 2.5
 281430716, 4.525, 0.147, 0.576, 2.5, 4.527, 0.189, 0.574, 2.5
 281631469, 4.517, 0.109, 0.586, 2.5, 4.525, 0.147, 0.576, 2.5
 281831389, 4.515, 0.094, 0.595, 2.5, 4.517, 0.109, 0.586, 2.5
 282031309, 4.515, 0.08800001, 0.594, 2.5, 4.515, 0.094, 0.595, 2.5
 282231229, 4.516, 0.074, 0.591, 2.5, 4.515, 0.08800001, 0.594, 2.5
 282431149, 4.513, 0.049, 0.594, 2.5, 4.516, 0.074, 0.591, 2.5
 282631069, 4.515, 0.037, 0.5840001, 2.5, 4.513, 0.049, 0.594, 2.5
 282830989, 4.523, 0.038, 0.564, 2.5, 4.515, 0.037, 0.5840001, 2.5
 283030909, 4.524, 0.023, 0.545, 2.5, 4.523, 0.038, 0.564, 2.5
 283230829, 4.52, -0.002, 0.538, 2.5, 4.524, 0.023, 0.545, 2.5
 283430749, 4.513, -0.02, 0.546, 2.5, 4.52, -0.002, 0.538, 2.5
 283630669, 4.509, -0.024, 0.559, 2.5, 4.513, -0.02, 0.546, 2.5
 283831422, 4.521, -0.006, 0.568, 2.5, 4.509, -0.024, 0.559, 2.5
 284031342, 4.53, 0.019, 0.573, 2.5, 4.521, -0.006, 0.568, 2.5
 284231262, 4.529, 0.035, 0.5790001, 2.5, 4.53, 0.019, 0.573, 2.5
 284431182, 4.527, 0.041, 0.586, 2.5, 4.529, 0.035, 0.5790001, 2.5
 284631102, 4.529, 0.045, 0.59, 2.5, 4.527, 0.041, 0.586, 2.5
 284831022, 4.532, 0.048, 0.591, 2.5, 4.529, 0.045, 0.59, 2.5
 285030942, 4.532, 0.052, 0.591, 2.5, 4.532, 0.048, 0.591, 2.5
 285230862, 4.526, 0.041, 0.599, 2.5, 4.532, 0.052, 0.591, 2.5
 285430782, 4.518, 0.017, 0.609, 2.5, 4.526, 0.041, 0.599, 2.5
 285630702, 4.514, 0, 0.615, 2.5, 4.518, 0.017, 0.609, 2.5
 285831455, 4.525, -0.007, 0.62, 2.5, 4.514, 0, 0.615, 2.5
 286031375, 4.524, -0.014, 0.62, 2.5, 4.525, -0.007, 0.62, 2.5
 286231295, 4.522, -0.029, 0.61, 2.5, 4.524, -0.014, 0.62, 2.5
 286431215, 4.507, -0.05, 0.604, 2.5, 4.522, -0.029, 0.61, 2.5
 286631135, 4.505, -0.068, 0.603, 2.5, 4.507, -0.05, 0.604, 2.5
 286831055, 4.521, -0.068, 0.598, 2.5, 4.505, -0.068, 0.603, 2.5
 287030975, 4.528, -0.054, 0.596, 2.5, 4.521, -0.068, 0.598, 2.5
 287230895, 4.53, -0.04, 0.566, 2.5, 4.528, -0.054, 0.596, 2.5
 287430815, 4.562, -0.039, 0.405, 2.5, 4.53, -0.04, 0.566, 2.5
 287630735, 4.609, -0.052, 0.205, 2.5, 4.562, -0.039, 0.405, 2.5
 287830655, 4.65, -0.062, 0.003, 2.5, 4.609, -0.052, 0.205, 2.5
 288031408, 4.677, -0.06500001, -0.176, 2.5, 4.65, -0.062, 0.003, 2.5
 288231328, 4.697, -0.064, -0.324, 2.5, 4.677, -0.06500001, -0.176, 2.5
 288431248, 4.712, -0.06500001, -0.438, 2.5, 4.697, -0.064, -0.324, 2.5
 288631168, 4.713, -0.066, -0.521, 2.5, 4.712, -0.06500001, -0.438, 2.5
 288831088, 4.7, -0.067, -0.577, 2.5, 4.713, -0.066, -0.521, 2.5
 289031008, 4.684, -0.078, -0.613, 2.5, 4.7, -0.067, -0.577, 2.5
 289230928, 4.685, -0.08800001, -0.633, 2.5, 4.684, -0.078, -0.613, 2.5
 289430848, 4.702, -0.094, -0.645, 2.5, 4.685, -0.08800001, -0.633, 2.5
 289630768, 4.714, -0.104, -0.6530001, 2.5, 4.702, -0.094, -0.645, 2.5
 289830688, 4.715, -0.109, -0.6580001, 2.5, 4.714, -0.104, -0.6530001, 2.5
 290031441, 4.714, -0.11, -0.66, 2.5, 4.715, -0.109, -0.6580001, 2.5
 290231361, 4.722, -0.098, -0.661, 2.5, 4.714, -0.11, -0.66, 2.5
 290431281, 4.732, -0.058, -0.663, 2.5, 4.722, -0.098, -0.661, 2.5
 290631201, 4.735, -0.025, -0.666, 2.5, 4.732, -0.058, -0.663, 2.5
 290831121, 4.747, -0.032, -0.6670001, 2.5, 4.735, -0.025, -0.666, 2.5
 291031041, 4.771, -0.06, -0.668, 2.5, 4.747, -0.032, -0.6670001, 2.5
 291230961, 4.794, -0.071, -0.67, 2.5, 4.771, -0.06, -0.668, 2.5
 291430881, 4.817, -0.066, -0.6720001, 2.5, 4.794, -0.071, -0.67, 2.5
 291630801, 4.839, -0.062, -0.673, 2.5, 4.817, -0.066, -0.6720001, 2.5
 291830721, 4.857, -0.072, -0.673, 2.5, 4.839, -0.062, -0.673, 2.5
 292031474, 4.876, -0.093, -0.673, 2.5, 4.857, -0.072, -0.673, 2.5
 292231394, 4.887, -0.09900001, -0.674, 2.5, 4.876, -0.093, -0.673, 2.5
 292431314, 4.887, -0.098, -0.674, 2.5, 4.887, -0.09900001, -0.674, 2.5
 292631234, 4.887, -0.082, -0.674, 2.5, 4.887, -0.098, -0.674, 2.5
 292831154, 4.893, -0.045, -0.6720001, 2.5, 4.887, -0.082, -0.674, 2.5
 293031074, 4.901, 0, -0.6720001, 2.5, 4.893, -0.045, -0.6720001, 2.5
 293230994, 4.907, 0.02, -0.673, 2.5, 4.901, 0, -0.6720001, 2.5
 293430914, 4.92, 0.008, -0.6720001, 2.5, 4.907, 0.02, -0.673, 2.5
 293630834, 4.938, -0.009000001, -0.6720001, 2.5, 4.92, 0.008, -0.6720001, 2.5
 293830754, 4.946, -0.027, -0.673, 2.5, 4.938, -0.009000001, -0.6720001, 2.5
 294030674, 4.942, -0.037, -0.674, 2.5, 4.946, -0.027, -0.673, 2.5
 294231427, 4.932, -0.038, -0.673, 2.5, 4.942, -0.037, -0.674, 2.5
 294431347, 4.931, -0.023, -0.671, 2.5, 4.932, -0.038, -0.673, 2.5
 294631267, 4.941, -0.006, -0.669, 2.5, 4.931, -0.023, -0.671, 2.5
 294831187, 4.956, 0.005, -0.669, 2.5, 4.941, -0.006, -0.669, 2.5
 295031107, 4.96, -0.005, -0.671, 2.5, 4.956, 0.005, -0.669, 2.5
 295231027, 4.951, -0.028, -0.6720001, 2.5, 4.96, -0.005, -0.671, 2.5
 295430947, 4.941, -0.053, -0.671, 2.5, 4.951, -0.028, -0.6720001, 2.5
 295630867, 4.934, -0.082, -0.669, 2.5, 4.941, -0.053, -0.671, 2.5
 295830787, 4.93, -0.09500001, -0.671, 2.5, 4.934, -0.082, -0.669, 2.5
 296030707, 4.921, -0.086, -0.671, 2.5, 4.93, -0.09500001, -0.671, 2.5
 296231460, 4.904, -0.067, -0.671, 2.5, 4.921, -0.086, -0.671, 2.5
 296431380, 4.89, -0.044, -0.669, 2.5, 4.904, -0.067, -0.671, 2.5
 296631300, 4.89, -0.02, -0.6670001, 2.5, 4.89, -0.044, -0.669, 2.5
 296831220, 4.894, 0, -0.666, 2.5, 4.89, -0.02, -0.6670001, 2.5
 297031140, 4.908, 0.003, -0.666, 2.5, 4.894, 0, -0.666, 2.5
 297231060, 4.92, -0.022, -0.666, 2.5, 4.908, 0.003, -0.666, 2.5
 297430980, 4.922, -0.059, -0.668, 2.5, 4.92, -0.022, -0.666, 2.5
 297630900, 4.924, -0.072, -0.6670001, 2.5, 4.922, -0.059, -0.668, 2.5
 297830820, 4.943, -0.05, -0.6670001, 2.5, 4.924, -0.072, -0.6670001, 2.5
 298030740, 4.944, -0.044, -0.668, 2.5, 4.943, -0.05, -0.6670001, 2.5
 298230660, 4.944, -0.075, -0.6670001, 2.5, 4.944, -0.044, -0.668, 2.5
 298431413, 4.964, -0.1, -0.66, 2.5, 4.944, -0.075, -0.6670001, 2.5
 298631333, 4.983, -0.079, -0.6530001, 2.5, 4.964, -0.1, -0.66, 2.5
 298831253, 5.011, -0.043, -0.654, 2.5, 4.983, -0.079, -0.6530001, 2.5
 299031173, 5.013, -0.028, -0.657, 2.5, 5.011, -0.043, -0.654, 2.5
 299231093, 4.983, -0.034, -0.659, 2.5, 5.013, -0.028, -0.657, 2.5
 299431013, 4.969, -0.042, -0.66, 2.5, 4.983, -0.034, -0.659, 2.5
 299630933, 4.964, -0.031, -0.6620001, 2.5, 4.969, -0.042, -0.66, 2.5
 299830853, 4.961, -0.002, -0.664, 2.5, 4.964, -0.031, -0.6620001, 2.5
 300030773, 4.945, 0.027, -0.666, 2.5, 4.961, -0.002, -0.664, 2.5
 300230693, 4.937, 0.043, -0.665, 2.5, 4.945, 0.027, -0.666, 2.5
 300431446, 4.941, 0.054, -0.665, 2.5, 4.937, 0.043, -0.665, 2.5
 300631366, 4.944, 0.06900001, -0.665, 2.5, 4.941, 0.054, -0.665, 2.5
 300831286, 4.94, 0.081, -0.666, 2.5, 4.944, 0.06900001, -0.665, 2.5
 301031206, 4.92, 0.098, -0.6670001, 2.5, 4.94, 0.081, -0.666, 2.5
 301231126, 4.911, 0.115, -0.666, 2.5, 4.92, 0.098, -0.6670001, 2.5
 301431046, 4.938, 0.116, -0.666, 2.5, 4.911, 0.115, -0.666, 2.5
 301630966, 4.953, 0.089, -0.665, 2.5, 4.938, 0.116, -0.666, 2.5
 301830886, 4.948, 0.059, -0.6580001, 2.5, 4.953, 0.089, -0.665, 2.5
 302030806, 4.946, 0.044, -0.65, 2.5, 4.948, 0.059, -0.6580001, 2.5
 302230726, 4.956, 0.03, -0.643, 2.5, 4.946, 0.044, -0.65, 2.5
 302431479, 4.962, -0.007, -0.636, 2.5, 4.956, 0.03, -0.643, 2.5
 302631399, 4.986, -0.058, -0.626, 2.5, 4.962, -0.007, -0.636, 2.5
 302831319, 5.008, -0.086, -0.6160001, 2.5, 4.986, -0.058, -0.626, 2.5
 303031239, 5.014, -0.08400001, -0.603, 2.5, 5.008, -0.086, -0.6160001, 2.5
 303231159, 5.013, -0.075, -0.589, 2.5, 5.014, -0.08400001, -0.603, 2.5
 303431079, 5.021, -0.06900001, -0.586, 2.5, 5.013, -0.075, -0.589, 2.5
 303630999, 5.029, -0.063, -0.59, 2.5, 5.021, -0.06900001, -0.586, 2.5
 303830919, 5.027, -0.062, -0.597, 2.5, 5.029, -0.063, -0.59, 2.5
 304030839, 5.025, -0.082, -0.6020001, 2.5, 5.027, -0.062, -0.597, 2.5
 304230759, 5.025, -0.123, -0.608, 2.5, 5.025, -0.082, -0.6020001, 2.5
 304430679, 5.014, -0.15, -0.615, 2.5, 5.025, -0.123, -0.608, 2.5
 304631432, 4.978, -0.141, -0.62, 2.5, 5.014, -0.15, -0.615, 2.5
 304831352, 4.966, -0.11, -0.622, 2.5, 4.978, -0.141, -0.62, 2.5
 305031272, 4.98, -0.09200001, -0.622, 2.5, 4.966, -0.11, -0.622, 2.5
 305231192, 4.997, -0.104, -0.624, 2.5, 4.98, -0.09200001, -0.622, 2.5
 305431112, 5.002, -0.116, -0.626, 2.5, 4.997, -0.104, -0.624, 2.5
 305631032, 5.011, -0.116, -0.625, 2.5, 5.002, -0.116, -0.626, 2.5
 305830952, 5.011, -0.123, -0.626, 2.5, 5.011, -0.116, -0.625, 2.5
 306030872, 4.985, -0.14, -0.627, 2.5, 5.011, -0.123, -0.626, 2.5
 306230792, 4.968, -0.147, -0.627, 2.5, 4.985, -0.14, -0.627, 2.5
 306430712, 4.967, -0.136, -0.626, 2.5, 4.968, -0.147, -0.627, 2.5
 306631465, 4.975, -0.118, -0.626, 2.5, 4.967, -0.136, -0.626, 2.5
 306831385, 4.991, -0.108, -0.626, 2.5, 4.975, -0.118, -0.626, 2.5
 307031305, 5.018, -0.115, -0.627, 2.5, 4.991, -0.108, -0.626, 2.5
 307231225, 5.013, -0.126, -0.629, 2.5, 5.018, -0.115, -0.627, 2.5
 307431145, 4.984, -0.109, -0.629, 2.5, 5.013, -0.126, -0.629, 2.5
 307631065, 4.998, -0.07600001, -0.627, 2.5, 4.984, -0.109, -0.629, 2.5
 307830985, 5.03, -0.045, -0.627, 2.5, 4.998, -0.07600001, -0.627, 2.5
 308030905, 5.025, -0.012, -0.629, 2.5, 5.03, -0.045, -0.627, 2.5
 308230825, 5.002, 0.035, -0.6300001, 2.5, 5.025, -0.012, -0.629, 2.5
 308430745, 4.969, 0.086, -0.6300001, 2.5, 5.002, 0.035, -0.6300001, 2.5
 308630665, 4.966, 0.135, -0.629, 2.5, 4.969, 0.086, -0.6300001, 2.5
 308831418, 4.955, 0.16, -0.629, 2.5, 4.966, 0.135, -0.629, 2.5
 309031338, 4.946, 0.157, -0.629, 2.5, 4.955, 0.16, -0.629, 2.5
 309231258, 4.942, 0.142, -0.628, 2.5, 4.946, 0.157, -0.629, 2.5
 309431178, 4.941, 0.133, -0.628, 2.5, 4.942, 0.142, -0.628, 2.5
 309631098, 4.938, 0.131, -0.628, 2.5, 4.941, 0.133, -0.628, 2.5
 309831018, 4.943, 0.131, -0.627, 2.5, 4.938, 0.131, -0.628, 2.5
 310030938, 4.962, 0.126, -0.627, 2.5, 4.943, 0.131, -0.627, 2.5
 310230858, 4.987, 0.115, -0.628, 2.5, 4.962, 0.126, -0.627, 2.5
 310430778, 4.989, 0.114, -0.6300001, 2.5, 4.987, 0.115, -0.628, 2.5
 310630698, 4.979, 0.138, -0.631, 2.5, 4.989, 0.114, -0.6300001, 2.5
 310831451, 4.972, 0.163, -0.6300001, 2.5, 4.979, 0.138, -0.631, 2.5
 311031371, 4.954, 0.161, -0.6300001, 2.5, 4.972, 0.163, -0.6300001, 2.5
 311231291, 4.973, 0.138, -0.629, 2.5, 4.954, 0.161, -0.6300001, 2.5
 311431211, 4.969, 0.131, -0.632, 2.5, 4.973, 0.138, -0.629, 2.5
 311631131, 4.929, 0.155, -0.632, 2.5, 4.969, 0.131, -0.632, 2.5
 311831051, 4.938, 0.183, -0.628, 2.5, 4.929, 0.155, -0.632, 2.5
 312030971, 4.962, 0.199, -0.627, 2.5, 4.938, 0.183, -0.628, 2.5
 312230891, 4.983, 0.212, -0.6300001, 2.5, 4.962, 0.199, -0.627, 2.5
 312430811, 4.995, 0.209, -0.6300001, 2.5, 4.983, 0.212, -0.6300001, 2.5
 312630731, 4.998, 0.199, -0.6300001, 2.5, 4.995, 0.209, -0.6300001, 2.5
 312831484, 4.988, 0.206, -0.631, 2.5, 4.998, 0.199, -0.6300001, 2.5
 313031404, 4.967, 0.216, -0.632, 2.5, 4.988, 0.206, -0.631, 2.5
 313231324, 4.945, 0.206, -0.631, 2.5, 4.967, 0.216, -0.632, 2.5
 313431244, 4.922, 0.185, -0.6300001, 2.5, 4.945, 0.206, -0.631, 2.5
 313631164, 4.911, 0.179, -0.629, 2.5, 4.922, 0.185, -0.6300001, 2.5
 313831084, 4.909, 0.166, -0.628, 2.5, 4.911, 0.179, -0.629, 2.5
 314031004, 4.9, 0.123, -0.629, 2.5, 4.909, 0.166, -0.628, 2.5
 314230924, 4.891, 0.081, -0.628, 2.5, 4.9, 0.123, -0.629, 2.5
 314430844, 4.885, 0.063, -0.627, 2.5, 4.891, 0.081, -0.628, 2.5
 314630764, 4.903, 0.058, -0.627, 2.5, 4.885, 0.063, -0.627, 2.5
 314830684, 4.922, 0.048, -0.627, 2.5, 4.903, 0.058, -0.627, 2.5
 315031437, 4.926, 0.034, -0.628, 2.5, 4.922, 0.048, -0.627, 2.5
 315231357, 4.93, 0.021, -0.628, 2.5, 4.926, 0.034, -0.628, 2.5
 315431277, 4.943, 0.009000001, -0.628, 2.5, 4.93, 0.021, -0.628, 2.5
 315631197, 4.951, -0.004, -0.629, 2.5, 4.943, 0.009000001, -0.628, 2.5
 315831117, 4.958, -0.014, -0.6300001, 2.5, 4.951, -0.004, -0.629, 2.5
 316031037, 4.97, -0.022, -0.629, 2.5, 4.958, -0.014, -0.6300001, 2.5
 316230957, 4.976, -0.026, -0.6300001, 2.5, 4.97, -0.022, -0.629, 2.5
 316430877, 4.978, -0.03, -0.6300001, 2.5, 4.976, -0.026, -0.6300001, 2.5
 316630797, 4.988, -0.03, -0.629, 2.5, 4.978, -0.03, -0.6300001, 2.5
 316830717, 4.976, -0.019, -0.575, 2.5, 4.988, -0.03, -0.629, 2.5
 317031470, 4.877, -0.008, -0.487, 2.5, 4.976, -0.019, -0.575, 2.5
 317231390, 4.698, 0.005, -0.389, 2.5, 4.877, -0.008, -0.487, 2.5
 317431310, 4.501, 0.02, -0.255, 2.5, 4.698, 0.005, -0.389, 2.5
 317631230, 4.377, 0.023, -0.101, 2.5, 4.501, 0.02, -0.255, 2.5
 317831150, 4.345, 0.003, 0.037, 2.5, 4.377, 0.023, -0.101, 2.5
 318031070, 4.333, -0.036, 0.148, 2.5, 4.345, 0.003, 0.037, 2.5
 318230990, 4.311, -0.062, 0.231, 2.5, 4.333, -0.036, 0.148, 2.5
 318430910, 4.299, -0.063, 0.295, 2.5, 4.311, -0.062, 0.231, 2.5
 318630830, 4.309, -0.06500001, 0.34, 2.5, 4.299, -0.063, 0.295, 2.5
 318830750, 4.343, -0.08800001, 0.371, 2.5, 4.309, -0.06500001, 0.34, 2.5
 319030670, 4.391, -0.102, 0.388, 2.5, 4.343, -0.08800001, 0.371, 2.5
 319231423, 4.428, -0.101, 0.399, 2.5, 4.391, -0.102, 0.388, 2.5
 319431343, 4.468, -0.1, 0.405, 2.5, 4.428, -0.101, 0.399, 2.5
 319631263, 4.512, -0.115, 0.409, 2.5, 4.468, -0.1, 0.405, 2.5
 319831183, 4.552, -0.149, 0.412, 2.5, 4.512, -0.115, 0.409, 2.5
 320031103, 4.585, -0.187, 0.413, 2.5, 4.552, -0.149, 0.412, 2.5
 320231023, 4.611, -0.214, 0.415, 2.5, 4.585, -0.187, 0.413, 2.5
 320430943, 4.635, -0.218, 0.417, 2.5, 4.611, -0.214, 0.415, 2.5
 320630863, 4.656, -0.205, 0.418, 2.5, 4.635, -0.218, 0.417, 2.5
 320830783, 4.678, -0.175, 0.42, 2.5, 4.656, -0.205, 0.418, 2.5
 321030703, 4.696, -0.157, 0.421, 2.5, 4.678, -0.175, 0.42, 2.5
 321231456, 4.703, -0.168, 0.421, 2.5, 4.696, -0.157, 0.421, 2.5
 321431376, 4.699, -0.181, 0.421, 2.5, 4.703, -0.168, 0.421, 2.5
 321631296, 4.695, -0.17, 0.422, 2.5, 4.699, -0.181, 0.421, 2.5
 321831216, 4.692, -0.138, 0.422, 2.5, 4.695, -0.17, 0.422, 2.5
 322031136, 4.686, -0.116, 0.422, 2.5, 4.692, -0.138, 0.422, 2.5
 322231056, 4.689, -0.106, 0.423, 2.5, 4.686, -0.116, 0.422, 2.5
 322430976, 4.706, -0.06900001, 0.424, 2.5, 4.689, -0.106, 0.423, 2.5
 322630896, 4.719, -0.004, 0.424, 2.5, 4.706, -0.06900001, 0.424, 2.5
 322830816, 4.734, 0.04, 0.422, 2.5, 4.719, -0.004, 0.424, 2.5
 323030736, 4.763, 0.045, 0.422, 2.5, 4.734, 0.04, 0.422, 2.5
 323230656, 4.784, 0.033, 0.422, 2.5, 4.763, 0.045, 0.422, 2.5
 323431409, 4.804, 0.019, 0.422, 2.5, 4.784, 0.033, 0.422, 2.5
 323631329, 4.842, -0.001, 0.421, 2.5, 4.804, 0.019, 0.422, 2.5
 323831249, 4.852, -0.011, 0.419, 2.5, 4.842, -0.001, 0.421, 2.5
 324031169, 4.846, 0.013, 0.418, 2.5, 4.852, -0.011, 0.419, 2.5
 324231089, 4.843, 0.071, 0.42, 2.5, 4.846, 0.013, 0.418, 2.5
 324431009, 4.842, 0.126, 0.42, 2.5, 4.843, 0.071, 0.42, 2.5
 324630929, 4.836, 0.136, 0.419, 2.5, 4.842, 0.126, 0.42, 2.5
 324830849, 4.829, 0.121, 0.419, 2.5, 4.836, 0.136, 0.419, 2.5
 325030769, 4.821, 0.121, 0.419, 2.5, 4.829, 0.121, 0.419, 2.5
 325230689, 4.802, 0.134, 0.42, 2.5, 4.821, 0.121, 0.419, 2.5
 325431442, 4.809, 0.136, 0.421, 2.5, 4.802, 0.134, 0.42, 2.5
 325631362, 4.84, 0.114, 0.42, 2.5, 4.809, 0.136, 0.421, 2.5
 325831282, 4.838, 0.09, 0.419, 2.5, 4.84, 0.114, 0.42, 2.5
 326031202, 4.809, 0.07300001, 0.417, 2.5, 4.838, 0.09, 0.419, 2.5
 326231122, 4.786, 0.054, 0.417, 2.5, 4.809, 0.07300001, 0.417, 2.5
 326431042, 4.781, 0.036, 0.417, 2.5, 4.786, 0.054, 0.417, 2.5
 326630962, 4.781, 0.024, 0.417, 2.5, 4.781, 0.036, 0.417, 2.5
 326830882, 4.781, 0.029, 0.417, 2.5, 4.781, 0.024, 0.417, 2.5
 327030802, 4.786, 0.054, 0.418, 2.5, 4.781, 0.029, 0.417, 2.5
 327230722, 4.8, 0.07700001, 0.418, 2.5, 4.786, 0.054, 0.418, 2.5
 327431475, 4.829, 0.067, 0.418, 2.5, 4.8, 0.07700001, 0.418, 2.5
 327631395, 4.853, 0.019, 0.411, 2.5, 4.829, 0.067, 0.418, 2.5
 327831315, 4.847, -0.044, 0.404, 2.5, 4.853, 0.019, 0.411, 2.5
 328031235, 4.838, -0.09900001, 0.403, 2.5, 4.847, -0.044, 0.404, 2.5
 328231155, 4.831, -0.132, 0.404, 2.5, 4.838, -0.09900001, 0.403, 2.5
 328431075, 4.831, -0.131, 0.407, 2.5, 4.831, -0.132, 0.404, 2.5
 328630995, 4.825, -0.108, 0.409, 2.5, 4.831, -0.131, 0.407, 2.5
 328830915, 4.818, -0.102, 0.411, 2.5, 4.825, -0.108, 0.409, 2.5
 329030835, 4.824, -0.129, 0.415, 2.5, 4.818, -0.102, 0.411, 2.5
 329230755, 4.83, -0.156, 0.417, 2.5, 4.824, -0.129, 0.415, 2.5
 329430675, 4.831, -0.156, 0.417, 2.5, 4.83, -0.156, 0.417, 2.5
 329631428, 4.832, -0.136, 0.418, 2.5, 4.831, -0.156, 0.417, 2.5
 329831348, 4.838, -0.118, 0.418, 2.5, 4.832, -0.136, 0.418, 2.5
 330031268, 4.839, -0.121, 0.418, 2.5, 4.838, -0.118, 0.418, 2.5
 330231188, 4.846, -0.136, 0.411, 2.5, 4.839, -0.121, 0.418, 2.5
 330431108, 4.855, -0.15, 0.404, 2.5, 4.846, -0.136, 0.411, 2.5
 330631028, 4.864, -0.141, 0.397, 2.5, 4.855, -0.15, 0.404, 2.5
 330830948, 4.868, -0.113, 0.395, 2.5, 4.864, -0.141, 0.397, 2.5
 331030868, 4.87, -0.09100001, 0.394, 2.5, 4.868, -0.113, 0.395, 2.5
 331230788, 4.871, -0.07600001, 0.395, 2.5, 4.87, -0.09100001, 0.394, 2.5
 331430708, 4.874, -0.053, 0.397, 2.5, 4.871, -0.07600001, 0.395, 2.5
 331631461, 4.88, -0.019, 0.396, 2.5, 4.874, -0.053, 0.397, 2.5
 331831381, 4.886, 0.022, 0.396, 2.5, 4.88, -0.019, 0.396, 2.5
 332031301, 4.897, 0.052, 0.396, 2.5, 4.886, 0.022, 0.396, 2.5
 332231221, 4.899, 0.055, 0.398, 2.5, 4.897, 0.052, 0.396, 2.5
 332431141, 4.873, 0.051, 0.398, 2.5, 4.899, 0.055, 0.398, 2.5
 332631061, 4.873, 0.06500001, 0.401, 2.5, 4.873, 0.051, 0.398, 2.5
 332830981, 4.9, 0.081, 0.404, 2.5, 4.873, 0.06500001, 0.401, 2.5
 333030901, 4.903, 0.072, 0.404, 2.5, 4.9, 0.081, 0.404, 2.5
 333230821, 4.864, 0.048, 0.401, 2.5, 4.903, 0.072, 0.404, 2.5
 333430741, 4.861, 0.018, 0.397, 2.5, 4.864, 0.048, 0.401, 2.5
 333630661, 4.869, -0.013, 0.396, 2.5, 4.861, 0.018, 0.397, 2.5
 333831414, 4.869, -0.033, 0.396, 2.5, 4.869, -0.013, 0.396, 2.5
 334031334, 4.863, -0.05, 0.398, 2.5, 4.869, -0.033, 0.396, 2.5
 334231254, 4.855, -0.079, 0.401, 2.5, 4.863, -0.05, 0.398, 2.5
 334431174, 4.855, -0.109, 0.405, 2.5, 4.855, -0.079, 0.401, 2.5
 334631094, 4.855, -0.11, 0.407, 2.5, 4.855, -0.109, 0.405, 2.5
 334831014, 4.856, -0.075, 0.406, 2.5, 4.855, -0.11, 0.407, 2.5
 335030934, 4.858, -0.036, 0.405, 2.5, 4.856, -0.075, 0.406, 2.5
 335230854, 4.859, -0.017, 0.402, 2.5, 4.858, -0.036, 0.405, 2.5
 335430774, 4.859, -0.018, 0.401, 2.5, 4.859, -0.017, 0.402, 2.5
 335630694, 4.861, -0.029, 0.393, 2.5, 4.859, -0.018, 0.401, 2.5
 335831447, 4.865, -0.048, 0.382, 2.5, 4.861, -0.029, 0.393, 2.5
 336031367, 4.867, -0.058, 0.377, 2.5, 4.865, -0.048, 0.382, 2.5
 336231287, 4.867, -0.049, 0.375, 2.5, 4.867, -0.058, 0.377, 2.5
 336431207, 4.867, -0.028, 0.374, 2.5, 4.867, -0.049, 0.375, 2.5
 336631127, 4.868, -0.003, 0.378, 2.5, 4.867, -0.028, 0.374, 2.5
 336831047, 4.868, 0.02, 0.384, 2.5, 4.868, -0.003, 0.378, 2.5
 337030967, 4.867, 0.042, 0.39, 2.5, 4.868, 0.02, 0.384, 2.5
 337230887, 4.867, 0.054, 0.394, 2.5, 4.867, 0.042, 0.39, 2.5
 337430807, 4.868, 0.053, 0.394, 2.5, 4.867, 0.054, 0.394, 2.5
 337630727, 4.869, 0.045, 0.392, 2.5, 4.868, 0.053, 0.394, 2.5
 337831480, 4.868, 0.032, 0.393, 2.5, 4.869, 0.045, 0.392, 2.5
 338031400, 4.862, 0.012, 0.396, 2.5, 4.868, 0.032, 0.393, 2.5
 338231320, 4.855, 0.006, 0.4, 2.5, 4.862, 0.012, 0.396, 2.5
 338431240, 4.845, 0.034, 0.404, 2.5, 4.855, 0.006, 0.4, 2.5
 338631160, 4.831, 0.07700001, 0.409, 2.5, 4.845, 0.034, 0.404, 2.5
 338831080, 4.832, 0.098, 0.412, 2.5, 4.831, 0.07700001, 0.409, 2.5
 339031000, 4.847, 0.09500001, 0.411, 2.5, 4.832, 0.098, 0.412, 2.5
 339230920, 4.858, 0.09500001, 0.407, 2.5, 4.847, 0.09500001, 0.411, 2.5
 339430840, 4.855, 0.09200001, 0.406, 2.5, 4.858, 0.09500001, 0.407, 2.5
 339630760, 4.839, 0.07600001, 0.406, 2.5, 4.855, 0.09200001, 0.406, 2.5
 339830680, 4.834, 0.055, 0.407, 2.5, 4.839, 0.07600001, 0.406, 2.5
 340031433, 4.826, 0.032, 0.408, 2.5, 4.834, 0.055, 0.407, 2.5
 340231353, 4.817, 0.007, 0.41, 2.5, 4.826, 0.032, 0.408, 2.5
 340431273, 4.814, -0.002, 0.413, 2.5, 4.817, 0.007, 0.41, 2.5
 340631193, 4.811, 0.02, 0.388, 2.5, 4.814, -0.002, 0.413, 2.5
 340831113, 4.776, 0.058, 0.327, 2.5, 4.811, 0.02, 0.388, 2.5
 341031033, 4.665, 0.071, 0.326, 2.5, 4.776, 0.058, 0.327, 2.5
 341230953, 4.594, 0.042, 0.364, 2.5, 4.665, 0.071, 0.326, 2.5
 341430873, 4.599, -0.007, 0.412, 2.5, 4.594, 0.042, 0.364, 2.5
 341630793, 4.629, -0.048, 0.452, 2.5, 4.599, -0.007, 0.412, 2.5
 341830713, 4.644, -0.067, 0.483, 2.5, 4.629, -0.048, 0.452, 2.5
 342031466, 4.647, -0.049, 0.509, 2.5, 4.644, -0.067, 0.483, 2.5
 342231386, 4.652, -0.007, 0.529, 2.5, 4.647, -0.049, 0.509, 2.5
 342431306, 4.663, 0.033, 0.5420001, 2.5, 4.652, -0.007, 0.529, 2.5
 342631226, 4.675, 0.072, 0.553, 2.5, 4.663, 0.033, 0.5420001, 2.5
 342831146, 4.677, 0.118, 0.56, 2.5, 4.675, 0.072, 0.553, 2.5
 343031066, 4.66, 0.166, 0.567, 2.5, 4.677, 0.118, 0.56, 2.5
 343230986, 4.675, 0.201, 0.574, 2.5, 4.66, 0.166, 0.567, 2.5
 343430906, 4.692, 0.214, 0.576, 2.5, 4.675, 0.201, 0.574, 2.5
 343630826, 4.667, 0.21, 0.578, 2.5, 4.692, 0.214, 0.576, 2.5
 343830746, 4.649, 0.2, 0.582, 2.5, 4.667, 0.21, 0.578, 2.5
 344030666, 4.679, 0.194, 0.5840001, 2.5, 4.649, 0.2, 0.582, 2.5
 344231419, 4.707, 0.183, 0.583, 2.5, 4.679, 0.194, 0.5840001, 2.5
 344431339, 4.702, 0.164, 0.582, 2.5, 4.707, 0.183, 0.583, 2.5
 344631259, 4.69, 0.162, 0.583, 2.5, 4.702, 0.164, 0.582, 2.5
 344831179, 4.686, 0.184, 0.583, 2.5, 4.69, 0.162, 0.583, 2.5
 345031099, 4.693, 0.196, 0.576, 2.5, 4.686, 0.184, 0.583, 2.5
 345231019, 4.699, 0.192, 0.564, 2.5, 4.693, 0.196, 0.576, 2.5
 345430939, 4.699, 0.194, 0.5560001, 2.5, 4.699, 0.192, 0.564, 2.5
 345630859, 4.698, 0.211, 0.55, 2.5, 4.699, 0.194, 0.5560001, 2.5
 345830779, 4.699, 0.213, 0.544, 2.5, 4.698, 0.211, 0.55, 2.5
 346030699, 4.701, 0.189, 0.536, 2.5, 4.699, 0.213, 0.544, 2.5
 346231452, 4.702, 0.16, 0.529, 2.5, 4.701, 0.189, 0.536, 2.5
 346431372, 4.696, 0.149, 0.5330001, 2.5, 4.702, 0.16, 0.529, 2.5
 346631292, 4.682, 0.143, 0.541, 2.5, 4.696, 0.149, 0.5330001, 2.5
 346831212, 4.662, 0.134, 0.551, 2.5, 4.682, 0.143, 0.541, 2.5
 347031132, 4.624, 0.119, 0.56, 2.5, 4.662, 0.134, 0.551, 2.5
 347231052, 4.617, 0.105, 0.5700001, 2.5, 4.624, 0.119, 0.56, 2.5
 347430972, 4.619, 0.093, 0.576, 2.5, 4.617, 0.105, 0.5700001, 2.5
 347630892, 4.612, 0.08000001, 0.58, 2.5, 4.619, 0.093, 0.576, 2.5
 347830812, 4.606, 0.057, 0.5840001, 2.5, 4.612, 0.08000001, 0.58, 2.5
 348030732, 4.617, 0.031, 0.587, 2.5, 4.606, 0.057, 0.5840001, 2.5
 348231485, 4.643, 0.011, 0.587, 2.5, 4.617, 0.031, 0.587, 2.5
 348431405, 4.688, -0.01, 0.586, 2.5, 4.643, 0.011, 0.587, 2.5
 348631325, 4.659, -0.043, 0.582, 2.5, 4.688, -0.01, 0.586, 2.5
 348831245, 4.598, -0.067, 0.5840001, 2.5, 4.659, -0.043, 0.582, 2.5
 349031165, 4.614, -0.087, 0.589, 2.5, 4.598, -0.067, 0.5840001, 2.5
 349231085, 4.683, -0.127, 0.589, 2.5, 4.614, -0.087, 0.589, 2.5
 349431005, 4.707, -0.183, 0.581, 2.5, 4.683, -0.127, 0.589, 2.5
 349630925, 4.696, -0.213, 0.566, 2.5, 4.707, -0.183, 0.581, 2.5
 349830845, 4.689, -0.201, 0.554, 2.5, 4.696, -0.213, 0.566, 2.5
 350030765, 4.694, -0.188, 0.543, 2.5, 4.689, -0.201, 0.554, 2.5
 350230685, 4.702, -0.191, 0.532, 2.5, 4.694, -0.188, 0.543, 2.5
 350431438, 4.699, -0.214, 0.5330001, 2.5, 4.702, -0.191, 0.532, 2.5
 350631358, 4.686, -0.237, 0.539, 2.5, 4.699, -0.214, 0.5330001, 2.5
 350831278, 4.66, -0.235, 0.548, 2.5, 4.686, -0.237, 0.539, 2.5
 351031198, 4.615, -0.225, 0.559, 2.5, 4.66, -0.235, 0.548, 2.5
 351231118, 4.641, -0.215, 0.569, 2.5, 4.615, -0.225, 0.559, 2.5
 351431038, 4.715, -0.21, 0.571, 2.5, 4.641, -0.215, 0.569, 2.5
 351630958, 4.719, -0.223, 0.569, 2.5, 4.715, -0.21, 0.571, 2.5
 351830878, 4.699, -0.245, 0.571, 2.5, 4.719, -0.223, 0.569, 2.5
 352030798, 4.689, -0.246, 0.575, 2.5, 4.699, -0.245, 0.571, 2.5
 352230718, 4.699, -0.219, 0.576, 2.5, 4.689, -0.246, 0.575, 2.5
 352431471, 4.713, -0.183, 0.571, 2.5, 4.699, -0.219, 0.576, 2.5
 352631391, 4.72, -0.156, 0.557, 2.5, 4.713, -0.183, 0.571, 2.5
 352831311, 4.721, -0.136, 0.543, 2.5, 4.72, -0.156, 0.557, 2.5
 353031231, 4.72, -0.13, 0.5330001, 2.5, 4.721, -0.136, 0.543, 2.5
 353231151, 4.722, -0.133, 0.524, 2.5, 4.72, -0.13, 0.5330001, 2.5
 353431071, 4.724, -0.127, 0.5190001, 2.5, 4.722, -0.133, 0.524, 2.5
 353630991, 4.724, -0.118, 0.521, 2.5, 4.724, -0.127, 0.5190001, 2.5
 353830911, 4.722, -0.112, 0.526, 2.5, 4.724, -0.118, 0.521, 2.5
 354030831, 4.72, -0.106, 0.534, 2.5, 4.722, -0.112, 0.526, 2.5
 354230751, 4.717, -0.1, 0.544, 2.5, 4.72, -0.106, 0.534, 2.5
 354430671, 4.71, -0.09900001, 0.554, 2.5, 4.717, -0.1, 0.544, 2.5
 354631424, 4.708, -0.094, 0.558, 2.5, 4.71, -0.09900001, 0.554, 2.5
 354831344, 4.717, -0.079, 0.55, 2.5, 4.708, -0.094, 0.558, 2.5
 355031264, 4.724, -0.047, 0.54, 2.5, 4.717, -0.079, 0.55, 2.5
 355231184, 4.724, -0.011, 0.528, 2.5, 4.724, -0.047, 0.54, 2.5
 355431104, 4.717, 0.024, 0.529, 2.5, 4.724, -0.011, 0.528, 2.5
 355631024, 4.709, 0.064, 0.536, 2.5, 4.717, 0.024, 0.529, 2.5
 355830944, 4.703, 0.098, 0.545, 2.5, 4.709, 0.064, 0.536, 2.5
 356030864, 4.702, 0.116, 0.555, 2.5, 4.703, 0.098, 0.545, 2.5
 356230784, 4.707, 0.117, 0.5560001, 2.5, 4.702, 0.116, 0.555, 2.5
 356430704, 4.71, 0.127, 0.561, 2.5, 4.707, 0.117, 0.5560001, 2.5
 356631457, 4.705, 0.161, 0.564, 2.5, 4.71, 0.127, 0.561, 2.5
 356831377, 4.698, 0.188, 0.566, 2.5, 4.705, 0.161, 0.564, 2.5
 357031297, 4.701, 0.184, 0.562, 2.5, 4.698, 0.188, 0.566, 2.5
 357231217, 4.701, 0.151, 0.562, 2.5, 4.701, 0.184, 0.562, 2.5
 357431137, 4.693, 0.107, 0.564, 2.5, 4.701, 0.151, 0.562, 2.5
 357631057, 4.683, 0.081, 0.568, 2.5, 4.693, 0.107, 0.564, 2.5
 357830977, 4.684, 0.079, 0.561, 2.5, 4.683, 0.081, 0.568, 2.5
 358030897, 4.697, 0.093, 0.537, 2.5, 4.684, 0.079, 0.561, 2.5
 358230817, 4.712, 0.106, 0.509, 2.5, 4.697, 0.093, 0.537, 2.5
 358430737, 4.724, 0.1, 0.482, 2.5, 4.712, 0.106, 0.509, 2.5
 358630657, 4.725, 0.072, 0.459, 2.5, 4.724, 0.1, 0.482, 2.5
 358831410, 4.729, 0.036, 0.441, 2.5, 4.725, 0.072, 0.459, 2.5
 359031330, 4.754, -0.009000001, 0.428, 2.5, 4.729, 0.036, 0.441, 2.5
 359231250, 4.784, -0.061, 0.418, 2.5, 4.754, -0.009000001, 0.428, 2.5
 359431170, 4.82, -0.098, 0.411, 2.5, 4.784, -0.061, 0.418, 2.5
 359631090, 4.842, -0.121, 0.405, 2.5, 4.82, -0.098, 0.411, 2.5
 359831010, 4.854, -0.139, 0.397, 2.5, 4.842, -0.121, 0.405, 2.5
 360030930, 4.858, -0.154, 0.389, 2.5, 4.854, -0.139, 0.397, 2.5
 360230850, 4.86, -0.16, 0.381, 2.5, 4.858, -0.154, 0.389, 2.5
 360430770, 4.864, -0.16, 0.373, 2.5, 4.86, -0.16, 0.381, 2.5
 360630690, 4.866, -0.145, 0.372, 2.5, 4.864, -0.16, 0.373, 2.5
 360831443, 4.868, -0.105, 0.373, 2.5, 4.866, -0.145, 0.372, 2.5
 361031363, 4.864, -0.067, 0.375, 2.5, 4.868, -0.105, 0.373, 2.5
 361231283, 4.854, -0.058, 0.379, 2.5, 4.864, -0.067, 0.375, 2.5
 361431203, 4.85, -0.081, 0.384, 2.5, 4.854, -0.058, 0.379, 2.5
 361631123, 4.856, -0.101, 0.386, 2.5, 4.85, -0.081, 0.384, 2.5
 361831043, 4.861, -0.1, 0.386, 2.5, 4.856, -0.101, 0.386, 2.5
 362030963, 4.861, -0.09, 0.382, 2.5, 4.861, -0.1, 0.386, 2.5
 362230883, 4.857, -0.087, 0.382, 2.5, 4.861, -0.09, 0.382, 2.5
 362430803, 4.848, -0.086, 0.384, 2.5, 4.857, -0.087, 0.382, 2.5
 362630723, 4.846, -0.083, 0.384, 2.5, 4.848, -0.086, 0.384, 2.5
 362831476, 4.855, -0.085, 0.379, 2.5, 4.846, -0.083, 0.384, 2.5
 363031396, 4.86, -0.089, 0.375, 2.5, 4.855, -0.085, 0.379, 2.5
 363231316, 4.857, -0.085, 0.375, 2.5, 4.86, -0.089, 0.375, 2.5
 363431236, 4.853, -0.07700001, 0.376, 2.5, 4.857, -0.085, 0.375, 2.5
 363631156, 4.853, -0.07700001, 0.375, 2.5, 4.853, -0.07700001, 0.376, 2.5
 363831076, 4.855, -0.06900001, 0.377, 2.5, 4.853, -0.07700001, 0.375, 2.5
 364030996, 4.857, -0.036, 0.376, 2.5, 4.855, -0.06900001, 0.377, 2.5
 364230916, 4.86, 0.004, 0.372, 2.5, 4.857, -0.036, 0.376, 2.5
 364430836, 4.861, 0.019, 0.373, 2.5, 4.86, 0.004, 0.372, 2.5
 364630756, 4.858, 0.005, 0.375, 2.5, 4.861, 0.019, 0.373, 2.5
 364830676, 4.855, -0.011, 0.378, 2.5, 4.858, 0.005, 0.375, 2.5
 365031429, 4.847, -0.021, 0.381, 2.5, 4.855, -0.011, 0.378, 2.5
 365231349, 4.833, -0.035, 0.384, 2.5, 4.847, -0.021, 0.381, 2.5
 365431269, 4.823, -0.047, 0.388, 2.5, 4.833, -0.035, 0.384, 2.5
 365631189, 4.826, -0.047, 0.391, 2.5, 4.823, -0.047, 0.388, 2.5
 365831109, 4.827, -0.038, 0.393, 2.5, 4.826, -0.047, 0.391, 2.5
 366031029, 4.823, -0.033, 0.393, 2.5, 4.827, -0.038, 0.393, 2.5
 366230949, 4.821, -0.019, 0.394, 2.5, 4.823, -0.033, 0.393, 2.5
 366430869, 4.829, 0.008, 0.394, 2.5, 4.821, -0.019, 0.394, 2.5
 366630789, 4.84, 0.034, 0.391, 2.5, 4.829, 0.008, 0.394, 2.5
 366830709, 4.844, 0.044, 0.387, 2.5, 4.84, 0.034, 0.391, 2.5
 367031462, 4.84, 0.043, 0.387, 2.5, 4.844, 0.044, 0.387, 2.5
 367231382, 4.835, 0.047, 0.388, 2.5, 4.84, 0.043, 0.387, 2.5
 367431302, 4.839, 0.059, 0.387, 2.5, 4.835, 0.047, 0.388, 2.5
 367631222, 4.847, 0.063, 0.384, 2.5, 4.839, 0.059, 0.387, 2.5
 367831142, 4.849, 0.06500001, 0.384, 2.5, 4.847, 0.063, 0.384, 2.5
 368031062, 4.845, 0.066, 0.385, 2.5, 4.849, 0.06500001, 0.384, 2.5
 368230982, 4.841, 0.063, 0.387, 2.5, 4.845, 0.066, 0.385, 2.5
 368430902, 4.84, 0.057, 0.389, 2.5, 4.841, 0.063, 0.387, 2.5
 368630822, 4.842, 0.056, 0.393, 2.5, 4.84, 0.057, 0.389, 2.5
 368830742, 4.845, 0.062, 0.391, 2.5, 4.842, 0.056, 0.393, 2.5
 369030662, 4.846, 0.066, 0.389, 2.5, 4.845, 0.062, 0.391, 2.5
 369231415, 4.846, 0.056, 0.387, 2.5, 4.846, 0.066, 0.389, 2.5
 369431335, 4.846, 0.041, 0.386, 2.5, 4.846, 0.056, 0.387, 2.5
 369631255, 4.847, 0.019, 0.383, 2.5, 4.846, 0.041, 0.386, 2.5
 369831175, 4.847, 0.004, 0.38, 2.5, 4.847, 0.019, 0.383, 2.5
 370031095, 4.848, 0.014, 0.38, 2.5, 4.847, 0.004, 0.38, 2.5
 370231015, 4.85, 0.041, 0.378, 2.5, 4.848, 0.014, 0.38, 2.5
 370430935, 4.849, 0.07300001, 0.379, 2.5, 4.85, 0.041, 0.378, 2.5
 370630855, 4.837, 0.102, 0.381, 2.5, 4.849, 0.07300001, 0.379, 2.5
 370830775, 4.821, 0.128, 0.385, 2.5, 4.837, 0.102, 0.381, 2.5
 371030695, 4.815, 0.14, 0.387, 2.5, 4.821, 0.128, 0.385, 2.5
 371231448, 4.818, 0.125, 0.39, 2.5, 4.815, 0.14, 0.387, 2.5
 371431368, 4.812, 0.09100001, 0.392, 2.5, 4.818, 0.125, 0.39, 2.5
 371631288, 4.761, 0.068, 0.393, 2.5, 4.812, 0.09100001, 0.392, 2.5
 371831208, 4.755, 0.07, 0.396, 2.5, 4.761, 0.068, 0.393, 2.5
 372031128, 4.763, 0.078, 0.396, 2.5, 4.755, 0.07, 0.396, 2.5
 372231048, 4.76, 0.08000001, 0.397, 2.5, 4.763, 0.078, 0.396, 2.5
 372430968, 4.751, 0.071, 0.397, 2.5, 4.76, 0.08000001, 0.397, 2.5
 372630888, 4.748, 0.056, 0.399, 2.5, 4.751, 0.071, 0.397, 2.5
 372830808, 4.762, 0.045, 0.402, 2.5, 4.748, 0.056, 0.399, 2.5
 373030728, 4.818, 0.042, 0.401, 2.5, 4.762, 0.045, 0.402, 2.5
 373231481, 4.836, 0.036, 0.397, 2.5, 4.818, 0.042, 0.401, 2.5
 373431401, 4.772, 0.022, 0.396, 2.5, 4.836, 0.036, 0.397, 2.5
 373631321, 4.749, 0.015, 0.399, 2.5, 4.772, 0.022, 0.396, 2.5
 373831241, 4.781, 0.021, 0.401, 2.5, 4.749, 0.015, 0.399, 2.5
 374031161, 4.855, 0.041, 0.398, 2.5, 4.781, 0.021, 0.401, 2.5
 374231081, 4.863, 0.072, 0.391, 2.5, 4.855, 0.041, 0.398, 2.5
 374431001, 4.851, 0.09100001, 0.388, 2.5, 4.863, 0.072, 0.391, 2.5
 374630921, 4.847, 0.1, 0.388, 2.5, 4.851, 0.09100001, 0.388, 2.5
 374830841, 4.852, 0.109, 0.388, 2.5, 4.847, 0.1, 0.388, 2.5
 375030761, 4.854, 0.121, 0.389, 2.5, 4.852, 0.109, 0.388, 2.5
