TimeUS,CAN,CAE,CAD,CAe,NAN,NAE,NAD,NAe,m10,m00,Gye
 202381376, -0.1128251, 0.02141842, 0.003009342, 0.07465004, -0.04083816, 0.008312826, -0.0008185185, 0.03737448, -0.9753146, -0.1923074, 123.1775
 202601476, -0.1218044, 0.02353695, 0.0001841835, 0.07875416, -0.04841777, 0.009277533, 0.00183118, 0.04091416, -0.9754019, -0.1918277, 133.2815
 202781483, -0.1146313, 0.02154965, 0.001974444, 0.07485463, -0.03665122, 0.006334357, -0.001026204, 0.03347626, -0.9754977, -0.1913374, 126.6821
 202981482, -0.1087536, 0.01983034, 0.0009823046, 0.07113604, -0.03881189, 0.006928128, -0.0004298468, 0.0371952, -0.9755497, -0.1910655, 120.3889
 203181363, -0.1119737, 0.02071599, 0.0001470771, 0.07485427, -0.04059305, 0.007498882, 0.001191545, 0.03719409, -0.9756147, -0.190734, 126.6815
 203381478, -0.1140093, 0.02133425, 0.001955036, 0.07485408, -0.04152048, 0.006991929, -0.0002333205, 0.03719538, -0.975695, -0.1903338, 126.6811
 203581375, -0.115521, 0.02041004, -0.0001563995, 0.07485501, -0.04102025, 0.007727895, 0.0003319091, 0.03719464, -0.975788, -0.1898657, 126.6827
 203781490, -0.1140644, 0.02220456, 0.001403032, 0.07485462, -0.04168455, 0.007347476, -0.0003461192, 0.03719632, -0.9758781, -0.1894137, 126.6821
 203981635, -0.1155839, 0.02026507, 0.001790393, 0.07485593, -0.04017335, 0.006479769, 0.00222016, 0.03719408, -0.9759554, -0.1890257, 126.6843
 204181490, -0.1145676, 0.0198211, 0.001792034, 0.0748537, -0.04026893, 0.008266761, 0.0006107641, 0.03719464, -0.9760173, -0.1886868, 126.6805
 204381474, -0.1139242, 0.02316315, 0.0008703381, 0.07485519, -0.04011324, 0.007853063, 0.002366181, 0.03719502, -0.9760821, -0.188334, 126.683
 204601481, -0.1219918, 0.02268038, 0.004054489, 0.07857452, -0.04906799, 0.006561569, 0.0008379715, 0.04091452, -0.9761645, -0.1879137, 132.9775
 204781633, -0.1161103, 0.01852722, 0.001023318, 0.07485501, -0.03592314, 0.00719463, -0.0001283668, 0.03347551, -0.9762279, -0.1875464, 126.6827
 205001382, -0.1176962, 0.0224227, -0.0009648305, 0.07485498, -0.04860186, 0.007821974, 0.001369688, 0.04091452, -0.9763097, -0.1871312, 126.6827
 205181456, -0.1153007, 0.02093347, 0.001959978, 0.074855, -0.03652921, 0.007701439, 0.0002517635, 0.03347551, -0.976391, -0.1867085, 126.6827
 205401502, -0.1172158, 0.02358958, 0.002488071, 0.074855, -0.04748993, 0.008597724, 0.003865973, 0.0409149, -0.976464, -0.1862886, 126.6827
 205581466, -0.1139945, 0.01971032, 0.004876066, 0.07485501, -0.03793317, 0.005612623, 0.0005195933, 0.03347514, -0.9765298, -0.1859316, 126.6827
 205781617, -0.1123401, 0.01864873, 0.001101341, 0.07113512, -0.0409979, 0.007658569, 0.000495073, 0.03719501, -0.9766195, -0.185474, 120.3873
 205981472, -0.1155135, 0.02105331, 0.002349196, 0.07485555, -0.04114706, 0.00744625, 0.001185886, 0.03719502, -0.9766787, -0.1851569, 126.6837
 206181465, -0.1151528, 0.02128697, 0.003474817, 0.07485724, -0.03906743, 0.008406777, 0.0003684309, 0.03719502, -0.976752, -0.1847682, 126.6865
 206381467, -0.1132791, 0.02263209, 0.001843653, 0.07485501, -0.03911752, 0.009639151, -0.001118349, 0.03719502, -0.9768032, -0.1844873, 126.6827
 206581375, -0.1090387, 0.02393487, -0.003552848, 0.07485501, -0.008518667, 0.01540565, -0.002655966, 0.03719502, -0.9767786, -0.1845199, 126.6827
 206781480, -0.07927621, 0.02876255, -0.002222917, 0.07485501, -0.04137021, 0.008321137, 0.003426258, 0.03719538, -0.9768661, -0.1840071, 126.6827
 206981472, -0.1056073, 0.021628, -0.0005828422, 0.07485498, -0.03466948, 0.004675185, 0.003086469, 0.0371952, -0.9772984, -0.1816721, 126.6827
 207181454, -0.1062025, 0.01755648, -0.002352194, 0.07485779, -0.08406021, -0.01022079, -0.04120307, 0.03719651, -0.9768097, -0.1841795, 126.6874
 207381485, -0.1763724, 0.001812318, -0.0476196, 0.07485595, -0.07535406, -0.007316294, -0.006414097, 0.03719446, -0.9768631, -0.1841386, 126.6843
 207581616, -0.1491259, 0.005571457, -0.006141333, 0.07485423, -0.006437598, 0.009348454, 0.009842599, 0.03719538, -0.9769515, -0.1836244, 126.6815
 207781484, -0.08273879, 0.02426968, 0.01104795, 0.07485481, -0.03342753, 0.006425974, -0.007986419, 0.03719502, -0.9770052, -0.1832412, 126.6824
 207981478, -0.1118471, 0.01924997, -0.01048655, 0.07485445, -0.05576983, -0.001200179, 0.004971254, 0.03719464, -0.9771369, -0.1827054, 126.6818
 208201468, -0.1319349, 0.01685657, 0.005960499, 0.07857411, -0.05060478, 0.01236592, -0.004840659, 0.04091452, -0.9771916, -0.1823488, 132.9769
 208401471, -0.1233107, 0.02402532, -0.002696497, 0.078576, -0.02758565, 0.006863909, -0.00218301, 0.0371952, -0.9773211, -0.1818395, 132.98
 208581463, -0.09028985, 0.01846739, -0.008377196, 0.0711364, -0.02073385, 0.002373133, 0.008271093, 0.03347551, -0.9774501, -0.1811703, 120.3895
 208781478, -0.09179171, 0.01850771, 0.006000595, 0.07113511, -0.03071537, 0.004531137, 0.0003374302, 0.0371952, -0.9775072, -0.1807371, 120.3873
 208981642, -0.10401, 0.02067824, -0.003563636, 0.0748533, -0.03916808, 0.02026826, -0.02334017, 0.03719334, -0.9775692, -0.180313, 126.6799
 209181477, -0.1160184, 0.02979334, -0.02519574, 0.07485445, -0.04365937, 0.002998359, 0.02526339, 0.03719483, -0.9776572, -0.1798866, 126.6818
 209381628, -0.1197026, 0.01504823, 0.02474025, 0.07485592, -0.0408537, 0.001720018, -0.003674792, 0.03719706, -0.9776977, -0.1794646, 126.6843
 209581358, -0.1173945, 0.01772021, -0.00831611, 0.07485499, -0.05234954, 0.01269465, -0.004109116, 0.03719353, -0.9778185, -0.1789181, 126.6827
 209781491, -0.1247432, 0.0243536, -0.003723619, 0.07485427, -0.0371403, 0.01080455, -0.01048725, 0.03719595, -0.9778957, -0.1784532, 126.6815
 209981525, -0.1105484, 0.02383983, -0.01121045, 0.0748563, -0.04125012, 0.005434156, 0.01213273, 0.03719502, -0.9779869, -0.1779072, 126.6849
 210181487, -0.1146126, 0.01593283, 0.01329405, 0.07485481, -0.04108842, 0.007217052, -0.01365451, 0.03719502, -0.9780249, -0.177577, 126.6824
 210381496, -0.109173, 0.01829722, -0.01739498, 0.07485482, -0.01362395, 0.004111462, 0.009492555, 0.03719521, -0.9781535, -0.1770576, 126.6824
 210601486, -0.06342629, 0.02153165, 0.005056301, 0.07857301, -0.07122836, 0.006732227, 0.001762059, 0.04091303, -0.9783469, -0.1763177, 132.975
 210781504, -0.1375102, 0.0205123, 0.003114172, 0.07485463, -0.0546497, -0.00662817, 0.01600743, 0.03347719, -0.9784157, -0.1763017, 126.6821
 210981500, -0.1365636, 0.004692686, 0.01224557, 0.0711366, -0.04069974, 0.01545962, -0.0291888, 0.03719464, -0.978523, -0.1769354, 120.3898
 211181629, -0.1184404, 0.02532369, -0.04117898, 0.07485552, -0.05546732, 0.01777317, 0.04110688, 0.03719521, -0.9791141, -0.177188, 126.6837
 211381486, -0.1309036, 0.02993198, 0.02184801, 0.07485481, -0.04292344, -0.01877197, -0.05171813, 0.03719483, -0.9799352, -0.1797859, 126.6824
 211581490, -0.1602721, -0.08835042, -0.1254404, 0.07485463, -0.03915422, -0.05490646, -0.07846073, 0.03719538, -0.9755778, -0.1891641, 126.6821
 211781496, -0.1956866, -0.2659201, -0.1548754, 0.07485351, -0.1259604, -0.1791793, 0.07010701, 0.03719371, -0.9735601, -0.1769644, 126.6802
 211981497, -0.2677519, -0.3559986, -0.05280566, 0.07485499, -0.06220894, 0.006955244, -0.2006776, 0.03719595, -0.9817513, -0.1725817, 126.6827
 212181495, -0.1810468, -0.04185911, -0.3742187, 0.07485574, 0.03000158, -0.03022254, -0.06044493, 0.03719595, -0.9833634, -0.1816404, 126.684
 212381518, -0.122997, 0.1025675, -0.14469, 0.07485481, -0.1076485, -0.05649281, 0.06508525, 0.03719465, -0.9812096, -0.1857551, 126.6824
 212581478, -0.2763648, 0.153132, 0.02363021, 0.07485389, -0.1758449, 0.1278213, 0.0003048282, 0.03719539, -0.9826065, -0.1830156, 126.6808
 212781525, -0.3505533, 0.2110828, -0.07692648, 0.07485426, -0.1067162, 0.1081392, -0.1256432, 0.03719502, -0.9819379, -0.1846112, 126.6815
 212981648, -0.2565674, 0.01209281, -0.1213578, 0.07485387, 0.003765763, -0.1545263, 0.02177828, 0.03719409, -0.9758731, -0.1848304, 126.6808
 213181652, -0.1366997, -0.3264067, 0.01203312, 0.07485445, -0.09502608, -0.1870898, 0.1551022, 0.0371952, -0.9721431, -0.1825609, 126.6818
 213381516, -0.3030098, -0.3268144, 0.122161, 0.07485481, -0.2163747, -0.01641221, -0.03331853, 0.03719484, -0.9728696, -0.1947728, 126.6824
 213581477, -0.5140225, -0.08370876, 0.03153688, 0.07485463, -0.1914641, 0.08132099, -0.04783778, 0.03719502, -0.975428, -0.1948295, 126.6821
 213781508, -0.5379685, 0.01362727, 0.002138549, 0.0748563, -0.137331, -0.1225389, 0.0301412, 0.03719539, -0.9747716, -0.1921771, 126.6849
 213981510, -0.4950432, -0.1669169, 0.009948055, 0.07485927, -0.2135429, -0.01996534, -0.001551944, 0.03719465, -0.9746548, -0.1901966, 126.69
 214181507, -0.5408592, -0.06450257, 0.001487535, 0.07485646, -0.1969002, 0.01768584, -0.07986482, 0.03719502, -0.9747171, -0.1923457, 126.6852
 214381508, -0.469525, -0.05210193, -0.07952169, 0.07485481, -0.09922314, -0.0722639, -0.007984538, 0.03719502, -0.9743689, -0.1863934, 126.6824
 214581522, -0.3312679, -0.1301998, -0.0227016, 0.07485478, -0.1499976, 0.03456748, -0.0764783, 0.03719502, -0.9759334, -0.1829432, 126.6824
 214781665, -0.3366827, -0.01248225, -0.05473915, 0.07485481, -0.1020342, -0.01699893, 0.0115435, 0.0371965, -0.9771025, -0.1877093, 126.6824
 215001517, -0.3039759, -0.01526571, 0.04415002, 0.07857727, -0.08905377, -0.01472136, 0.05739811, 0.04091471, -0.9770943, -0.1942324, 132.9822
 215181493, -0.2595875, 0.001368236, 0.07023156, 0.07485332, -0.1119613, 0.04763005, -0.05002576, 0.03347421, -0.9749714, -0.2024965, 126.6799
 215381503, -0.2832932, 0.02342848, -0.03540536, 0.07113361, -0.08986764, -0.0751934, 0.04171121, 0.03719576, -0.9691049, -0.2146968, 120.3848
 215601499, -0.2957856, -0.09170129, 0.05935092, 0.07857393, -0.1347959, 0.02966843, -0.001965442, 0.0409134, -0.9681466, -0.2227242, 132.9766
 215801523, -0.3344728, 0.03366367, -0.03933632, 0.07857319, -0.1100359, 0.001804957, -0.0001648092, 0.03719594, -0.9666905, -0.2281698, 132.9753
 215981511, -0.2855648, 0.01107134, -0.0217291, 0.0711353, -0.08783366, 0.002748229, 0.002055145, 0.03347458, -0.9637646, -0.2362581, 120.3876
 216181493, -0.2721803, 0.01525419, 0.01844756, 0.07113438, -0.1156178, 0.02598091, -0.01951451, 0.03719502, -0.9601594, -0.255845, 120.386
 216381516, -0.2769158, 0.04963443, 0.03256418, 0.07485628, -0.05584844, -0.01327604, 0.0955173, 0.0371952, -0.9506702, -0.2891972, 126.6849
 216581634, -0.2243077, 0.0540638, 0.1315044, 0.07485481, -0.1233331, 0.06746007, -0.0123716, 0.03719483, -0.9405971, -0.3231252, 126.6824
 216782033, -0.277211, 0.1465334, 0.02156009, 0.07496415, -0.06816712, 0.008479304, 0.0638779, 0.03730289, -0.9307236, -0.3512578, 126.8675
 216982890, -0.1933128, 0.1150307, 0.06447417, 0.07511146, -0.05655622, 0.06751925, -0.00743291, 0.03734211, -0.922575, -0.3724751, 125.5278
 217182880, -0.1371025, 0.143861, 0.02730999, 0.07500415, -0.01917579, 0.008063251, 0.01863795, 0.03719501, -0.9154221, -0.3872907, 126.9351
 217386973, -0.04182253, 0.06771165, 0.05173426, 0.07531992, 0.0008831773, 0.05377091, -0.03340303, 0.03765995, -0.9140081, -0.3943556, 127.4696
 217587002, 0.07510567, 0.1574367, -0.02305536, 0.07532326, 0.04963921, 0.08449997, 0.005021396, 0.03719576, -0.9170886, -0.3971767, 127.4752
 217787039, 0.1850517, 0.279147, -0.002502023, 0.07485516, 0.09093782, 0.1563465, 0.0008508451, 0.03719446, -0.9154021, -0.4016511, 126.683
 218006059, 0.2860344, 0.4605275, -0.009879649, 0.0786896, 0.1131087, 0.2141902, 0.01344453, 0.04102964, -0.9099975, -0.4099556, 133.1723
 218189173, 0.2765067, 0.4944655, 0.004658235, 0.07558735, 0.07989968, 0.1514321, 0.000901949, 0.03409034, -0.9073025, -0.4145931, 127.9222
 218409593, 0.2884891, 0.4847298, -0.01171364, 0.07547034, 0.1273682, 0.1975703, -0.01978831, 0.04091675, -0.9064625, -0.416838, 127.7242
 218589328, 0.2881396, 0.4155075, 0.0176306, 0.07485573, 0.1366312, 0.141171, -0.008958364, 0.03347551, -0.9061947, -0.4221864, 126.684
 218790017, 0.397165, 0.2692254, 0.01443081, 0.07122009, 0.1775673, 0.1010421, -0.05993696, 0.0372815, -0.9044206, -0.4264015, 120.5311
 218990255, 0.5271226, 0.1497249, -0.05441083, 0.0750138, 0.183683, -0.04267608, 0.09301358, 0.03726717, -0.9053654, -0.4245812, 125.3646
 219192798, 0.4715082, -0.02650962, 0.1033406, 0.07508317, 0.1643795, 0.09992424, -0.08038384, 0.03734918, -0.9023628, -0.4300341, 127.0689
 219392776, 0.3888457, 0.08027656, -0.06646029, 0.07501045, 0.06946633, -0.07859395, 0.04186523, 0.0371952, -0.8969229, -0.4375602, 126.9458
 219592914, 0.2180791, -0.1081496, 0.02855068, 0.07485627, 0.0503538, -0.1276764, 0.09576544, 0.03719519, -0.8923811, -0.4396458, 126.6849
 219794341, 0.1205062, -0.2338955, 0.1042977, 0.07546385, 0.03983033, -0.01704216, -0.03217246, 0.03780017, -0.8882942, -0.4391432, 127.7132
 219997094, 0.04103361, -0.173104, -0.004947082, 0.0759851, -0.04623407, -0.08749469, -0.03784112, 0.03773211, -0.8829499, -0.436764, 128.5954
 220199648, -0.08604978, -0.2773554, -0.04997126, 0.07584436, -0.01287172, -0.1881297, 0.07859129, 0.03764675, -0.8806863, -0.4341437, 128.3571
 220380605, -0.06404323, -0.3743116, 0.03742231, 0.07173581, -0.01325667, -0.03617905, -0.1286392, 0.03362578, -0.8826283, -0.4313329, 119.8864
 220580364, -0.07169058, -0.219748, -0.1198837, 0.07128389, -0.07605416, -0.116868, 0.04575027, 0.03719446, -0.8829921, -0.43519, 120.6391
 220780546, -0.128983, -0.2387438, 0.04801665, 0.0748758, -0.06533341, -0.1269801, 0.155086, 0.0371939, -0.8882667, -0.4348165, 126.718
 220980575, -0.09202668, -0.1433955, 0.1298555, 0.07488193, -0.0182088, 0.05934152, -0.0394217, 0.03719557, -0.8946368, -0.4325733, 126.7283
 221180470, -0.0350116, 0.09324229, -0.07859273, 0.07485497, 0.07017642, 0.1711677, -0.1993813, 0.0371952, -0.8986609, -0.433495, 126.6827
 221380369, 0.08239933, 0.2377104, -0.2457645, 0.0748544, 0.1117202, 0.09635773, -0.110149, 0.03719483, -0.9000107, -0.4330716, 126.6818
 221580598, 0.1230704, 0.1575204, -0.1275252, 0.07485424, 0.09090968, -0.007537302, -0.002763244, 0.03719502, -0.8979381, -0.4353452, 126.6815
 221781134, 0.05865287, 0.01138284, 0.02735607, 0.07498889, -0.05830863, -0.1402781, 0.1400107, 0.03732891, -0.8955128, -0.4316103, 126.9093
 221982105, -0.08889321, -0.1737406, 0.2412917, 0.07515253, -0.03638432, -0.0612391, 0.1872962, 0.03735868, -0.8905852, -0.427362, 127.1863
 222182111, -0.08944075, -0.1684062, 0.3217542, 0.07501861, -0.05817054, 0.02392923, -0.0835086, 0.03721268, -0.8831178, -0.4280843, 126.9597
 222382339, -0.1222284, -0.1968806, -0.02326561, 0.07492082, -0.02960577, -0.16476, 0.0004179724, 0.0372456, -0.8743846, -0.4258062, 125.2092
 222587849, -0.1397468, -0.440116, -0.1057607, 0.07583319, -0.07751566, -0.1565613, -0.07003357, 0.03812322, -0.8748104, -0.4235497, 128.3382
 222787735, -0.1728287, -0.3755106, -0.1414917, 0.07578245, -0.05909925, -0.05379748, -0.04024106, 0.03719725, -0.8810398, -0.4235066, 128.2523
 222988531, -0.1556539, -0.1770246, -0.09496251, 0.07499317, -0.02923105, -0.1183726, 0.05394381, 0.03733133, -0.8904294, -0.4232858, 126.9166
 223189671, -0.1051077, -0.06951888, -0.01019237, 0.07520796, -0.0760365, 0.09476957, 0.01429555, 0.03740964, -0.90073, -0.4255237, 127.2801
 223389642, -0.1162089, 0.309174, -0.003497857, 0.07513115, 0.005255991, 0.2554059, -0.05445387, 0.03725768, -0.9064616, -0.4222212, 127.1501
 223589725, 0.006906263, 0.5839846, 0.0005209316, 0.07493959, 0.01803688, 0.1126281, 0.08770096, 0.03719632, -0.9088759, -0.4142639, 126.8259
 223790289, 0.06959366, 0.4695478, 0.1789455, 0.07491861, 0.03454221, 0.269461, -0.02458236, 0.03725713, -0.9109212, -0.4070229, 125.2055
 223990313, 0.1197195, 0.5904458, 0.0152095, 0.07497811, 0.08552189, 0.1504455, -0.009394113, 0.03725657, -0.9121234, -0.4055924, 126.8911
 224190314, 0.1997817, 0.4707471, -0.01581626, 0.07491617, 0.04073488, 0.02887101, 0.08062431, 0.03719557, -0.9131329, -0.4049941, 126.7863
 224371484, 0.1281833, 0.3055969, 0.07970454, 0.07134713, -0.01577051, 0.1127848, 0.07017811, 0.03368901, -0.9156548, -0.3983445, 120.7461
 224591464, 0.09253581, 0.4265161, 0.02276043, 0.07506625, 0.05385655, 0.3009192, -0.1322094, 0.04091229, -0.9162155, -0.398066, 127.0403
 224791822, 0.1182366, 0.5004902, -0.1246131, 0.07863624, 0.108755, 0.09960312, 0.01173868, 0.0372588, -0.9146604, -0.4041648, 133.082
 224991802, 0.1464486, 0.2427265, 0.05720565, 0.07491729, -0.01301894, -0.05762143, 0.1246509, 0.03719408, -0.9124495, -0.4073791, 126.7882
 225212881, -0.006885561, 0.002720428, 0.1943984, 0.078573, -0.07331945, 0.05676097, 0.06820843, 0.04091452, -0.9096673, -0.4123445, 132.975
 225412905, -0.1502768, 0.1119714, 0.1403127, 0.07857393, -0.01272552, 0.1361386, -0.1156672, 0.03719706, -0.9104854, -0.4122638, 132.9766
 225592490, -0.02030546, 0.3413712, -0.1198701, 0.07126397, 0.04649345, 0.1078751, 0.0004203686, 0.03360198, -0.9103321, -0.4080524, 119.0978
 225792689, 0.1309866, 0.4983945, 0.04550835, 0.07126196, 0.03331887, 0.188291, 0.08123675, 0.03719538, -0.9011834, -0.3988832, 120.6019
 226012488, 0.1737078, 0.682785, 0.08349405, 0.07857446, 0.1178288, 0.3734665, -0.05113012, 0.0409173, -0.9029928, -0.4059737, 132.9775
 226212616, 0.1885777, 0.7541267, -0.1332752, 0.07857411, 0.02059787, 0.1098762, 0.02863449, 0.03719186, -0.9063475, -0.4133018, 132.9769
 226392495, 0.03075125, 0.3024399, 0.02528749, 0.07113232, 0.005195702, 0.1527465, -0.0330052, 0.03347811, -0.9075202, -0.4175768, 120.3826
 226612349, -0.02405233, 0.3461289, -0.06093543, 0.07485367, -0.02152227, 0.1072741, -0.01786655, 0.04091359, -0.9055703, -0.4239054, 126.6805
 226793272, -0.06032051, 0.1591463, -0.02803834, 0.07499409, -0.03948459, -0.05515584, 0.07703146, 0.03361741, -0.9034895, -0.4261465, 126.9181
 226993252, -0.1076067, -0.05533192, 0.07176246, 0.07127569, -0.05432701, 0.06922727, -0.04965833, 0.03719316, -0.9017685, -0.4298524, 120.6252
 227193253, -0.1292647, 0.04935734, -0.01166964, 0.07485387, -0.04324383, 0.1134053, -0.1040212, 0.03719539, -0.9005533, -0.4325199, 126.6808
 227413498, -0.1502941, 0.1591039, -0.1110381, 0.07857782, -0.09176824, -0.03700022, -0.003743766, 0.04092364, -0.899105, -0.4341195, 132.9832
 227593473, -0.1754121, -0.01963383, 0.004524659, 0.07485462, -0.03641813, -0.1098132, 0.1267973, 0.03346603, -0.8986734, -0.4353147, 126.6821
 227813286, -0.1397406, -0.1249563, 0.1779719, 0.07484607, -0.03528331, -0.008185972, 0.06141528, 0.04093051, -0.8999599, -0.435141, 126.6676
 228014077, -0.1202851, -0.03553522, 0.1932993, 0.07873218, -0.06506478, 0.07561523, -0.01112974, 0.03733803, -0.899121, -0.4367537, 133.2444
 228194503, -0.1424272, 0.1054733, 0.01091835, 0.0712783, -0.04953008, 0.0506429, -0.05851393, 0.03347365, -0.8985575, -0.4373197, 120.6296
 228414105, -0.1644298, 0.06123226, -0.06602588, 0.07485329, -0.06870922, -0.09936433, 0.06155092, 0.04091451, -0.898025, -0.4366485, 126.6799
 228634078, -0.2010431, -0.149825, 0.07756833, 0.08229455, -0.09912158, 0.007251784, -0.01958034, 0.04091545, -0.8962549, -0.437974, 139.2732
 228814350, -0.2199339, 0.02356291, -0.07937755, 0.07491525, -0.07662261, -0.009586315, -0.06461987, 0.03353688, -0.8948858, -0.4391861, 126.7847
 229014342, -0.2028523, -0.06022376, -0.07367167, 0.07119481, -0.06850411, -0.1023259, 0.1064485, 0.0371939, -0.895797, -0.4386521, 120.4883
 229195128, -0.1807579, -0.1689486, 0.1171932, 0.07127663, -0.07387067, 0.03126435, -0.06909283, 0.03362057, -0.8960711, -0.4395019, 119.119
 229395127, -0.1832862, -0.01201092, -0.02540978, 0.07127794, -0.05396464, 0.1154354, -0.09194515, 0.03719222, -0.8958023, -0.4422883, 120.629
 229595731, -0.1630355, 0.1332911, -0.07517499, 0.07491394, -0.07054783, 0.0363447, -0.04636087, 0.03725917, -0.8960011, -0.4430861, 126.7825
 229818067, -0.2135856, 0.1099506, -0.08627123, 0.07910097, -0.08774191, -0.05155292, 0.08464618, 0.04137853, -0.895358, -0.4435342, 133.8685
 229998057, -0.203706, -0.05367641, 0.08564129, 0.0753188, -0.05916758, -0.04572594, 0.05511346, 0.03347532, -0.8941476, -0.4445388, 127.4677
 230198053, -0.1981207, -0.09276704, 0.06770679, 0.07113454, -0.1029712, 0.04930925, -0.05534524, 0.03719446, -0.8928702, -0.4459157, 120.3863
 230398303, -0.2257476, -0.02461676, -0.01984675, 0.07491484, -0.06985934, 0.01498447, -0.1182609, 0.03725304, -0.8911904, -0.4460461, 126.7841
 230599080, -0.1964097, -0.05784476, -0.1366606, 0.07505956, -0.08378408, -0.1426686, 0.1075456, 0.03734064, -0.8898746, -0.4453962, 127.0289
 230799116, -0.1904266, -0.2569373, 0.1207006, 0.07500136, -0.06977478, -0.0370652, 0.00436015, 0.03719519, -0.8907414, -0.4443643, 126.9304
 230999100, -0.1662459, -0.1580552, 0.04087386, 0.07485515, -0.03894642, -0.01134325, -0.04283082, 0.03719483, -0.8901818, -0.4447697, 126.683
 231199090, -0.1340031, -0.08312801, -0.005443147, 0.07485498, -0.0542423, -0.138011, 0.1747453, 0.03719799, -0.8907058, -0.4467759, 126.6827
 231399097, -0.1557649, -0.1800779, 0.2206732, 0.07485738, -0.06449392, 0.007659241, -0.04227611, 0.03719427, -0.8932461, -0.4462444, 126.6868
 231599101, -0.1831437, 0.01427607, -0.01936555, 0.07485276, -0.06409055, 0.1109959, -0.04768786, 0.03719594, -0.8934639, -0.4477085, 126.6789
 231799328, -0.1922111, 0.1863521, -0.04119987, 0.07485349, -0.08816215, -0.04641351, 0.07840545, 0.03719241, -0.8940007, -0.446888, 126.6802
 232001801, -0.2095994, 0.03204176, 0.06590321, 0.07502754, -0.06453386, 0.03182111, 0.05129986, 0.0373717, -0.89417, -0.4474334, 125.3876
 232180089, -0.1676102, 0.1103252, 0.06323827, 0.07131028, -0.05353249, 0.1404248, -0.06781353, 0.0334718, -0.8942092, -0.4475878, 120.6838
 232400520, -0.1677233, 0.2439462, -0.07947698, 0.07485421, -0.05283193, 0.1495386, -0.09583895, 0.04091936, -0.8937492, -0.4485166, 126.6815
 232601250, -0.159412, 0.2557177, -0.1174427, 0.07858042, -0.08042978, -0.03382983, 0.05742865, 0.03719296, -0.8938491, -0.4477049, 132.9876
 232801307, -0.1838912, 0.04374036, 0.02206269, 0.07485253, -0.05593022, -0.08326762, 0.1064776, 0.03719483, -0.8941659, -0.446221, 126.6786
 233000532, -0.1446213, -0.06138143, 0.09404364, 0.07485422, -0.0334377, -0.006350405, 0.03355879, 0.03719687, -0.8956107, -0.4432173, 126.6815
 233201038, -0.1220715, -0.04038613, 0.08357061, 0.07498051, -0.06554345, 0.07932495, -0.06481245, 0.03731944, -0.8951401, -0.4437652, 126.8952
 233401226, -0.1364052, 0.05277703, -0.03351374, 0.07497866, -0.03795402, 0.01520033, -0.04775937, 0.03719427, -0.8936282, -0.4442606, 126.892
 233601240, -0.1208565, -0.01759054, -0.05321557, 0.07485424, -0.05697728, -0.1265145, 0.08372202, 0.03719595, -0.8917061, -0.4456443, 126.6815
 233820879, -0.139277, -0.2489659, 0.1384456, 0.07857449, -0.04282691, -0.05643246, 0.0455003, 0.04091378, -0.8927572, -0.445886, 132.9775
 234201026, -0.1385148, 0.0461565, -0.089733, 0.07113549, -0.04890585, -0.00201765, 0.01338337, 0.03719613, -0.8923521, -0.4472563, 120.3879
 234401738, -0.1588954, 0.01809929, -0.02269962, 0.07501566, -0.0575849, -0.08502702, 0.1167637, 0.03735569, -0.8927661, -0.4476267, 126.9546
 234622028, -0.1653219, -0.1054655, 0.1343493, 0.07879522, -0.08704632, 0.05143382, -0.03968167, 0.04097477, -0.8939862, -0.4464374, 133.3511
 234781949, -0.166524, 0.08204877, -0.04935014, 0.07119537, -0.04478694, 0.0509682, -0.07850314, 0.02975601, -0.8943917, -0.4461624, 120.4893
 235001939, -0.1401921, 0.07382853, -0.06453747, 0.07113512, -0.04599888, -0.03896575, 0.03339943, 0.04091583, -0.8958721, -0.4428787, 120.3873
 235201923, -0.1244821, -0.01584748, 0.04447287, 0.0785795, -0.04042346, 0.0552719, -0.03435764, 0.03719334, -0.8969569, -0.4411397, 132.986
 235402530, -0.1066886, 0.09807346, -0.04062025, 0.07492396, -0.03898197, -0.0111274, 0.07085051, 0.03726754, -0.8974728, -0.440066, 126.7995
 235605663, -0.09944312, 0.0183025, 0.07680529, 0.07551557, -0.03716705, 0.04038977, -0.006704602, 0.03778307, -0.8977473, -0.4399808, 126.2032
 235805508, -0.09194234, 0.08970573, 0.01020058, 0.07544303, -0.03294047, 0.04111822, -0.0208482, 0.03719483, -0.8971498, -0.4412981, 127.6779
 235985898, -0.08843973, 0.09442727, -0.01881565, 0.07119796, -0.0275064, -0.03487865, 0.104778, 0.03354134, -0.8965548, -0.4424815, 120.4937
 236189593, -0.08987313, 0.01921823, 0.1405551, 0.07166679, -0.05790269, 0.07929993, -0.006698271, 0.03766144, -0.8953382, -0.4449931, 121.2871
 236410828, -0.1256785, 0.1562141, 0.0169566, 0.07950081, -0.03854732, 0.09365833, -0.06099412, 0.04141424, -0.8936338, -0.4483675, 134.5452
 236610835, -0.1090148, 0.2161199, -0.1233504, 0.07903421, -0.06568605, -0.02597111, 0.0754268, 0.03715558, -0.8936847, -0.4485931, 133.7555
 236790845, -0.1234453, 0.05294295, 0.06090375, 0.07109605, -0.02681807, -0.004177918, 0.02455592, 0.03347513, -0.8939463, -0.4481425, 120.3212
 236991665, -0.09816188, 0.0727085, 0.005594707, 0.07129373, -0.01542682, 0.1469534, -0.08620875, 0.03735477, -0.8937013, -0.4486623, 120.6558
 237191680, -0.07112514, 0.1856282, -0.09468951, 0.0750123, -0.04932275, -0.01579714, -0.003885251, 0.03719427, -0.8932176, -0.4487791, 126.949
 237391772, -0.09885044, -0.01554398, -0.04123856, 0.07485721, -0.01258687, -0.05600499, 0.03747755, 0.03719557, -0.8926355, -0.4479074, 126.6865
 237591667, -0.06205375, -0.1001181, 0.02015727, 0.07485276, -0.02026404, 0.02915648, -0.06505421, 0.03719297, -0.8931192, -0.4462534, 126.6789
 237791719, -0.07856116, -0.02293141, -0.03797321, 0.07485236, -0.05618561, -0.08068906, 0.06060309, 0.03719576, -0.8927564, -0.4462277, 126.6783
 237991807, -0.1194205, -0.1155822, 0.076876, 0.07485422, -0.03943181, -0.005165122, 0.01912252, 0.03719744, -0.8934531, -0.4461077, 126.6815
 238215275, -0.1107142, 0.0103185, 0.051239, 0.07924159, -0.02005726, 0.03937121, -0.01491774, 0.04159742, -0.8918276, -0.4497446, 134.1065
 238415285, -0.09024389, 0.09914221, -0.02195906, 0.07923768, -0.06676742, -0.06300001, 0.08167172, 0.03719185, -0.8914563, -0.4516888, 134.0999
 238595255, -0.1448377, -0.008118143, 0.06845941, 0.0711167, -0.05034042, -0.02770266, 0.07223172, 0.03345878, -0.8918167, -0.4521192, 120.3561
 238815409, -0.1507815, 0.03570789, 0.08270426, 0.07483822, -0.06467222, 0.1385029, -0.05308225, 0.0409612, -0.8913152, -0.453284, 126.6544
 238955246, -0.1283024, 0.208456, -0.0584418, 0.06741598, 0, 0, 0, 0, -0.8909037, -0.4541913, 112.667
 239155254, -0.11161, 0.2305864, -0.146772, 0.0636498, -0.06195142, 0.2875496, -0.2672217, 0.06318484, -0.8904272, -0.4550701, 96.9474
 239355271, -0.1351324, 0.3233184, -0.2894219, 0.1008453, -0.01479327, 0.07262881, -0.0872435, 0.03719817, -0.8894467, -0.4564097, 168.5349
 239555235, -0.08070932, 0.04585227, -0.05782286, 0.074855, -0.0471594, -0.1143614, 0.06023244, 0.03719427, -0.8885102, -0.4564417, 126.6827
 239755400, -0.09336326, -0.1557562, 0.09925577, 0.07485349, -0.05567714, -0.1476596, 0.1491318, 0.03719259, -0.8888844, -0.4544732, 126.6802
 239936114, -0.0974607, -0.174758, 0.1721603, 0.0713023, -0.003174875, -0.05256782, 0.09341455, 0.03364121, -0.8895691, -0.4538814, 119.1619
 240156143, -0.06143195, -0.05680048, 0.09750704, 0.0750205, -0.01336207, 0.1004734, -0.08585846, 0.04091414, -0.8904995, -0.4528748, 123.7888
 240358970, -0.07612304, 0.06245261, -0.09631081, 0.07903941, -0.05542094, -0.0377455, -0.01818693, 0.03766274, -0.8895599, -0.4532734, 133.7644
 240559886, -0.1269083, -0.07197151, -0.05927788, 0.07531971, -0.03158029, -0.1062179, 0.07462362, 0.03719223, -0.8890074, -0.4527484, 127.4692
 240798677, -0.1347264, -0.1284048, 0.03650496, 0.08229099, -0.05481219, 0.03115556, -0.06271917, 0.0446357, -0.8897882, -0.4523002, 139.2673
 240938994, -0.1152539, 0.04131254, -0.08586543, 0.07119536, -0.03387951, 0.0001066851, -0.001255355, 0.02609528, -0.8913766, -0.4511479, 118.9832
 241160144, -0.1236131, 0.02650791, -0.01012482, 0.06768285, -0.0376193, -0.03148694, 0.09118788, 0.04112225, -0.8930143, -0.4491383, 114.5448
 241344591, -0.0979729, 0.03402389, 0.1062666, 0.07569148, -0.02658832, 0.1079135, -0.02623726, 0.03410745, -0.8923418, -0.4512605, 128.0984
 241543782, -0.08351831, 0.202439, -0.04239899, 0.07176425, -0.02610943, 0.1205203, -0.09244826, 0.03719185, -0.8924525, -0.4511063, 121.4521
 241763484, -0.09000774, 0.1993402, -0.0998719, 0.07857133, -0.04811665, -0.06673992, 0.1109765, 0.04091711, -0.892081, -0.4517382, 132.9722
 241944910, -0.09093185, -0.0005119704, 0.09129215, 0.07506678, -0.02179726, 0.05796288, -0.03117044, 0.03368492, -0.8916941, -0.4522988, 125.4532
 242145911, -0.07067096, 0.1054188, -0.06931202, 0.07156192, -0.01324405, 0.06156903, -0.06621839, 0.03741317, -0.8929638, -0.4496073, 121.1096
 242346569, -0.07121365, 0.06899881, -0.04318889, 0.07520965, -0.03504786, -0.07413923, 0.08708064, 0.03733375, -0.8919491, -0.450944, 125.6919
 242546535, -0.08801836, -0.03930392, 0.08269557, 0.07499075, -0.01776926, 0.04965041, -0.02780617, 0.03719185, -0.8934097, -0.4483091, 126.9125
 242746552, -0.08249523, 0.07742305, -0.004080621, 0.07485442, -0.04968067, 0.02021102, 0.002704475, 0.03719502, -0.8941616, -0.4471364, 125.0982
 242946555, -0.1189205, 0.06144193, 0.02062541, 0.07485516, -0.03806215, -0.0004114213, 0.04051711, 0.0371965, -0.8944355, -0.4466395, 126.683
 243146710, -0.111496, 0.05713727, 0.05608375, 0.07485517, -0.02644233, 0.0672033, -0.02227656, 0.03719558, -0.8946219, -0.4464588, 126.683
 243347776, -0.1057499, 0.1125469, -0.001126055, 0.07508595, -0.04296665, -0.006591121, 0.03236533, 0.03742544, -0.8943206, -0.4468589, 125.4852
 243548351, -0.1170224, 0.0370029, 0.060814, 0.07521279, -0.03891431, 0.0155217, 0.01597495, 0.0373213, -0.8937524, -0.4476937, 127.2883
 243752088, -0.1059554, 0.05263884, 0.03231161, 0.07557674, -0.02806125, 0.05966493, -0.03492993, 0.03779125, -0.8933113, -0.448838, 127.9042
 243951918, -0.08925086, 0.08049281, -0.01411401, 0.07545047, -0.03326363, -0.03385864, 0.04652725, 0.03719445, -0.8926026, -0.4498196, 127.6905
 244152728, -0.08733103, -0.006782472, 0.0595308, 0.07485422, -0.03850727, 0.05062471, 0.001816325, 0.03719483, -0.8927705, -0.4497512, 126.6815
 244351943, -0.09377754, 0.06829372, 0.01964515, 0.07485534, -0.02026153, -0.003907539, 0.002343077, 0.03719613, -0.8926184, -0.4499691, 126.6833
 244551932, -0.07383807, 0.02285596, 0.02223215, 0.07485497, -0.03578328, 0.007145522, 0.05668582, 0.03719446, -0.892924, -0.4493959, 126.6827
 244753011, -0.09287977, 0.02613554, 0.07507858, 0.07510344, -0.01577717, 0.07246187, -0.0666329, 0.03744422, -0.8926728, -0.4499497, 125.5144
 244953760, -0.07607797, 0.08104212, -0.009304887, 0.07524961, -0.03993594, -0.07984348, 0.1236291, 0.03734119, -0.8900896, -0.4542895, 127.3506
 245153908, -0.09730109, -0.05425607, 0.1428068, 0.07500154, -0.03115993, 0.03369686, -0.003423039, 0.03719799, -0.8888981, -0.4570241, 126.9307
 245354121, -0.09937581, 0.05964576, 0.01094832, 0.07492845, -0.03291473, 0.1041824, -0.07436347, 0.03726568, -0.8890169, -0.457513, 126.807
 245554108, -0.107762, 0.1401793, -0.09575429, 0.07492603, -0.05502377, -0.07258902, 0.08673459, 0.03719446, -0.8888901, -0.4572921, 126.8029
 245754134, -0.1195639, -0.04483419, 0.07471165, 0.07485498, -0.04333581, 0.067477, -0.0892285, 0.03719501, -0.8894837, -0.4557315, 126.6827
 245955021, -0.09129428, 0.06726559, -0.1102576, 0.07499722, -0.01768392, 0.04838387, -0.06650041, 0.03733729, -0.8895141, -0.4553391, 125.3369
 246135721, -0.05791677, 0.03925041, -0.04873959, 0.07142337, -0.03424532, -0.1027321, 0.05962653, 0.03362095, -0.88837, -0.4576961, 120.8752
 246359213, -0.08347946, -0.09004127, 0.0692123, 0.07562918, -0.04012394, 0.02772293, 0.03926293, 0.04154106, -0.8891544, -0.4569805, 127.993
 246559144, -0.09160983, 0.05834275, 0.02179178, 0.07920285, -0.02724186, 0.0976491, -0.09226521, 0.03719501, -0.8895584, -0.4564357, 134.041
 246739371, -0.08396727, 0.1273008, -0.08583397, 0.07120352, -0.04481541, -0.074756, 0.05690547, 0.03354358, -0.889234, -0.4566903, 120.5031
 246959373, -0.1312707, -0.02688422, 0.06475926, 0.07492305, -0.04829032, 0.09183782, -0.02668015, 0.040916, -0.8899257, -0.4556582, 126.7979
 247140085, -0.1225234, 0.1271968, -0.02232908, 0.0749844, -0.05079826, 0.0227065, -0.04283953, 0.03360254, -0.8901364, -0.4552078, 125.3155
 247341059, -0.1269084, 0.04976507, -0.003967164, 0.07140476, -0.02480687, -0.06831289, 0.06985717, 0.03733822, -0.8893713, -0.4564157, 120.8437
 247544998, -0.1032364, -0.005003024, 0.03391078, 0.07552207, -0.04345039, 0.1068006, -0.06104383, 0.03772002, -0.8903181, -0.4547357, 127.8117
 247744695, -0.1106409, 0.1269824, -0.0633203, 0.07554254, -0.05171743, -0.01299635, -0.01149813, 0.03732947, -0.8897828, -0.4552003, 127.8463
 247944467, -0.1151946, -0.00815103, -0.04057977, 0.07498944, -0.02191235, -0.03996697, 0.02477219, 0.03719502, -0.8910202, -0.4519942, 126.9103
 248146941, -0.08808591, -0.01970886, -0.003916971, 0.0753205, -0.0264718, 0.06919884, -0.08516809, 0.03766162, -0.8922786, -0.4502984, 127.4705
 248346981, -0.09943892, 0.07648804, -0.08107902, 0.07532123, -0.05497644, -0.04987841, 0.04779948, 0.03719334, -0.8924448, -0.4499407, 127.4718
 248547735, -0.1276453, -0.0157544, 0.05872459, 0.07499894, -0.03927734, 0.02637208, 0.006407492, 0.03733914, -0.8928601, -0.4492118, 125.3397
 248747727, -0.1130797, 0.06312107, 0.03562632, 0.07499857, -0.03096798, 0.08142991, -0.0390926, 0.03719464, -0.8927007, -0.4501834, 126.9257
 248948086, -0.1039697, 0.1114142, 0.01249734, 0.07492845, -0.04990228, -0.08878279, 0.107961, 0.03726866, -0.8908287, -0.4534768, 126.807
 249148103, -0.1081615, -0.03978783, 0.1174995, 0.07492936, -0.03428007, 0.04053608, 0.01577661, 0.03719576, -0.8896123, -0.4559486, 126.8086
 249348098, -0.09788764, 0.08241109, 0.009162203, 0.07485517, -0.03339351, 0.1147168, -0.1244649, 0.03719557, -0.8900409, -0.4555845, 126.683
 249548619, -0.1060554, 0.1441106, -0.1210788, 0.07491783, -0.0501559, -0.07156557, 0.07939035, 0.03725731, -0.8900939, -0.4550595, 126.7891
 249751974, -0.1144188, -0.02130554, 0.07363981, 0.07554216, -0.04072982, 0.03263725, 0.05003189, 0.03782267, -0.8897498, -0.4556921, 127.8457
 249952798, -0.1113615, 0.06719767, 0.04725882, 0.07565949, -0.03928845, 0.1258052, -0.1519723, 0.0373717, -0.8894961, -0.45655, 126.4437
 250152789, -0.1005698, 0.1572578, -0.1438635, 0.07503109, -0.03888119, -0.0009763567, 0.01046654, 0.03719576, -0.8896305, -0.4561856, 126.9808
 250334516, -0.09481924, 0.03789546, 0.0239639, 0.07113494, -0.04681464, -0.08413208, 0.09717534, 0.03347774, -0.8903193, -0.4550043, 120.387
 250552794, -0.1009064, -0.02326954, 0.09102233, 0.07485349, -0.03693521, 0.06256635, -0.02547058, 0.04091154, -0.8912019, -0.4532976, 126.6802
 250752816, -0.08547727, 0.09122133, -0.0131274, 0.07857112, -0.0115041, 0.1106769, -0.1087041, 0.03719502, -0.8910933, -0.4533388, 132.9718
 250956614, -0.07258981, 0.1199695, -0.1028281, 0.07546983, -0.05748358, -0.06517209, 0.05188432, 0.03780948, -0.8900008, -0.4538049, 127.7232
 251156755, -0.119464, -0.06441122, 0.02368476, 0.07546963, -0.04112749, 0.003535552, 0.03002163, 0.03719557, -0.8901027, -0.453068, 127.7229
 251356624, -0.1104209, -0.02247877, 0.01844625, 0.07485535, -0.02598695, 0.04327482, -0.1116458, 0.03719743, -0.8898874, -0.4535995, 126.6833
 251556365, -0.08695246, 0.02147262, -0.0952642, 0.07491393, -0.04927278, -0.09548976, 0.1013481, 0.03725174, -0.8885753, -0.4555036, 126.7825
 251756851, -0.1107447, -0.09252264, 0.09144907, 0.07497289, -0.04174862, 0.02682638, -0.0180613, 0.03725843, -0.8892791, -0.4557724, 125.2962
 251956739, -0.09390142, 0.04326488, -0.008485163, 0.07491577, -0.008913554, 0.05986051, -0.02304571, 0.03719352, -0.8907983, -0.4536687, 126.7856
 252156870, -0.07864843, 0.1080176, -0.01931335, 0.07485256, -0.04409395, -0.03567557, 0.07015504, 0.03719446, -0.8916899, -0.4520873, 126.6786
 252357347, -0.1054088, 0.03208257, 0.05815462, 0.07498013, -0.03819039, 0.09831096, -0.07071894, 0.03732316, -0.8933238, -0.4493723, 126.8945
 252557316, -0.08465162, 0.1684544, -0.05474858, 0.07498071, -0.02210044, 0.05942919, -0.04136594, 0.0371926, -0.8922501, -0.4514974, 126.8955
 252757351, -0.0786497, 0.1349232, -0.03603544, 0.07485257, -0.02991, -0.06017944, 0.104524, 0.0371952, -0.8919617, -0.451838, 126.6786
 252937774, -0.0767645, 0.004593818, 0.09307386, 0.07120039, -0.03152876, 0.03961458, 0.01874938, 0.03354098, -0.8912458, -0.4531447, 120.4978
 253157771, -0.1000907, 0.1046532, -0.009427167, 0.0749197, -0.03333552, 0.1549, -0.1880469, 0.04091507, -0.8912865, -0.4533089, 126.7923
 253357858, -0.09290946, 0.2007448, -0.1972706, 0.0785743, -0.0453735, -0.001894207, -0.01273946, 0.03719632, -0.8902385, -0.4549176, 132.9772
 253558619, -0.112312, 0.03745463, -0.01203821, 0.07498236, -0.05019275, -0.09485806, 0.1105391, 0.03732259, -0.8891939, -0.4560219, 126.8983
 253762736, -0.1120316, -0.08606861, 0.1258232, 0.07566007, -0.04746392, 0.04168821, -0.05493934, 0.03787438, -0.8899051, -0.4548858, 126.4447
 253942626, -0.1102496, 0.03644506, -0.05314048, 0.07187715, -0.02191608, 0.1060878, -0.1472204, 0.03353781, -0.889472, -0.4554042, 121.6431
 254142768, -0.09184478, 0.09246284, -0.1459171, 0.07125766, -0.05209874, -0.01668034, 0.01264676, 0.0372549, -0.8888176, -0.4565655, 120.5947
 254343223, -0.1263081, -0.03211718, 0.02826362, 0.07499669, -0.05135127, -0.09738269, 0.1216206, 0.03727647, -0.8879735, -0.457266, 126.9225
 254547455, -0.1196873, -0.0920122, 0.1180104, 0.07540065, -0.03814263, 0.04328675, -0.04188013, 0.0376594, -0.8890054, -0.4550316, 127.6062
 254748894, -0.1114167, 0.02199356, -0.0619591, 0.07591058, -0.04508999, 0.01000053, -0.05531643, 0.03782398, -0.8900771, -0.4528596, 128.4692
 254949267, -0.1171348, -0.001906951, -0.05465305, 0.07551909, -0.0411343, -0.06944448, 0.06880582, 0.03725062, -0.8914559, -0.4503841, 126.2091
 255149284, -0.1074102, -0.05574142, 0.0924878, 0.07489011, -0.04203237, 0.005149865, 0.07558754, 0.03720041, -0.890791, -0.45251, 126.7422
 255369661, -0.1240849, 0.01852903, 0.1342669, 0.07855366, -0.05539445, 0.1190458, -0.08902385, 0.04088867, -0.8907017, -0.4544236, 132.9422
 255549294, -0.1200124, 0.1956525, -0.08245336, 0.07482913, -0.0118896, 0.1536163, -0.08496331, 0.03350843, -0.8910947, -0.4536982, 126.639
 255749294, -0.08242562, 0.2673344, -0.07598255, 0.07113546, -0.05780444, 0.06119492, -0.04591789, 0.03722384, -0.8905713, -0.4543758, 120.3879
 255950072, -0.1288039, 0.1972421, -0.03591793, 0.07497939, -0.04128904, -0.04890874, 0.09037664, 0.03729116, -0.8902048, -0.4555033, 126.8933
 256150991, -0.1257422, 0.0611731, 0.0534796, 0.07508875, -0.0644188, 0.05942206, 0.03374733, 0.03733282, -0.8899661, -0.4555103, 127.0783
 256355251, -0.1495841, 0.0621874, 0.008904697, 0.07559349, -0.04512209, 0.02004345, -0.1097131, 0.03779702, -0.8888573, -0.4539907, 126.3334
 256555272, -0.1336443, -0.04046961, -0.1117113, 0.07545718, -0.05520343, -0.08108731, 0.08338895, 0.03719557, -0.8882717, -0.4506076, 127.7018
 256755775, -0.1357163, -0.1659329, 0.1107398, 0.07491915, -0.04317213, -0.01630731, -0.03597641, 0.03726177, -0.8896936, -0.4492523, 126.7913
 256954771, -0.1143252, -0.07512257, 0.0005716793, 0.07491969, -0.03229475, -0.007791975, 0.006661031, 0.03719185, -0.891124, -0.4491878, 126.7923
 257154733, -0.09534206, -0.03194319, 0.0599531, 0.07485183, -0.03234087, -0.07483269, 0.08740459, 0.03719501, -0.8919011, -0.4491723, 126.6774
 257355660, -0.08842423, -0.05371784, 0.07531451, 0.07499295, -0.02675914, 0.04535284, -0.009212356, 0.03733282, -0.8930452, -0.4488521, 126.9162
 257556128, -0.0747793, 0.07639693, 0.007555756, 0.07516669, -0.02909361, 0.06100218, -0.05564969, 0.03736648, -0.8933827, -0.4488017, 127.2102
 257756094, -0.07782426, 0.1151081, -0.07035039, 0.07503165, -0.02952919, -0.02577354, 0.07394756, 0.03719817, -0.8946292, -0.4463965, 126.9817
 257956084, -0.0823893, 0.04621151, 0.04439747, 0.0748544, -0.008951982, 0.07915834, -0.06297096, 0.03719241, -0.8953897, -0.445188, 126.6818
 258136495, -0.05580641, 0.1367968, -0.0664092, 0.07119089, -0.02798348, 0.009368536, 0.02518535, 0.03353391, -0.8960304, -0.4438975, 118.9757
 258356627, -0.0800138, 0.08105104, 0.02337243, 0.07491376, -0.03315484, 0.0540923, 0.000872527, 0.04091414, -0.8961505, -0.443589, 126.7822
 258576480, -0.09002856, 0.1271346, 0.002747002, 0.08229434, -0.03029083, 0.03760475, 0.002913866, 0.04091787, -0.8956661, -0.4444318, 139.2729
 258757138, -0.0789675, 0.0888693, 0.00402723, 0.07499578, -0.03174102, 0.02224524, 0.01947125, 0.03361481, -0.8956015, -0.4445749, 126.921
 258957806, -0.07741891, 0.07140198, 0.03760369, 0.07139175, -0.01666238, 0.05944381, -0.002692598, 0.03731236, -0.895824, -0.4440547, 120.8216
 259157826, -0.06222229, 0.09515535, 0.008196894, 0.07497214, -0.03525636, -0.01781583, 0.03293543, 0.03719501, -0.8951679, -0.4447093, 126.881
 259360308, -0.08454849, 0.006845747, 0.03842696, 0.07532455, -0.02812083, 0.02332538, -0.01709675, 0.03765848, -0.8950296, -0.4450539, 127.4774
 259544513, -0.07069045, 0.0360758, -0.01185567, 0.0720652, -0.003819899, 0.03778254, 0.006370924, 0.03394398, -0.8949445, -0.4450293, 121.9613
 259746101, -0.05641291, 0.03488107, 0.02560982, 0.07219869, -0.03166996, -0.05648154, 0.03815291, 0.03780873, -0.8940686, -0.4461493, 122.1873
 259946211, -0.09258656, -0.03648809, 0.01131427, 0.07545045, -0.04740866, 0.05275595, -0.07470233, 0.03717548, -0.8950652, -0.4446773, 127.6905
 260146125, -0.1100143, 0.0691374, -0.06740815, 0.0748388, -0.03239134, -0.01084865, 0.03265578, 0.03719279, -0.8952026, -0.4445404, 126.6553
 260346351, -0.09962723, 0.01948971, 0.04795112, 0.07485664, -0.04558666, 0.006864633, 0.03294417, 0.03719594, -0.8949277, -0.4448127, 126.6855
 260546126, -0.1150879, 0.03749865, 0.02489304, 0.07485721, -0.03123753, 0.05910986, -0.09338227, 0.03719725, -0.8950569, -0.4448794, 126.6865
 260746122, -0.1064918, 0.07324424, -0.08396831, 0.07485832, -0.03695031, -0.04081794, 0.05742221, 0.03719408, -0.8952079, -0.4440619, 126.6884
 260946489, -0.1085031, -0.01510242, 0.04290261, 0.0749262, -0.03955778, 0.05045801, -0.04208076, 0.03726829, -0.8962376, -0.4420134, 125.2182
 261147522, -0.1020103, 0.05625847, -0.05422617, 0.07508875, -0.03918322, -0.01345497, -0.02511491, 0.03735496, -0.8959431, -0.4425436, 127.0783
 261347302, -0.09435893, -0.0005543538, -0.02957718, 0.07501548, -0.01923537, -0.03675912, 0.03610215, 0.03719725, -0.8955275, -0.4435667, 126.9543
 261547269, -0.07261484, 0.002136124, 0.03870786, 0.0748557, -0.03084228, 0.09386632, -0.03462182, 0.03719297, -0.8954759, -0.4445609, 126.684
 261751855, -0.09026283, 0.1310253, -0.03020647, 0.07539261, -0.0365812, 0.0335796, -0.04107633, 0.03773471, -0.8941361, -0.4474857, 127.5926
 261951813, -0.09929705, 0.09136165, -0.0602315, 0.07539356, -0.03406639, -0.08959082, 0.0831701, 0.0371939, -0.8927565, -0.4501307, 127.5942
 262153316, -0.1012979, -0.00624945, 0.04528867, 0.07544211, -0.03601515, 0.07663285, -0.02391701, 0.03778214, -0.8936101, -0.4487279, 127.6764
 262354032, -0.1041153, 0.1279228, -0.0461611, 0.07556559, -0.02824131, 0.125611, -0.1263631, 0.0373185, -0.8937941, -0.4481602, 126.2868
 262554025, -0.08580078, 0.1576735, -0.1626641, 0.07497846, -0.04905858, -0.02897605, 0.02558534, 0.03719594, -0.8923469, -0.4503716, 126.8917
 262754059, -0.1027011, 0.01183956, -0.003025986, 0.07485553, -0.02596806, -0.1078799, 0.1081064, 0.03719632, -0.8919724, -0.4508129, 126.6837
 262954327, -0.07184242, -0.0653128, 0.09633338, 0.07492919, -0.02198039, -0.010921, 0.0235251, 0.03726773, -0.8925356, -0.4501933, 126.8083
 263154326, -0.08926015, 0.007155962, 0.06220938, 0.07492768, -0.02951695, 0.1241705, -0.07539418, 0.0371952, -0.8928064, -0.449876, 126.8058
 263334334, -0.08354477, 0.1365458, -0.05642649, 0.07113603, -0.02305809, 0.06333709, -0.04887845, 0.03347626, -0.8924174, -0.4500419, 120.3889
 263555386, -0.1014478, 0.04402574, -0.04400304, 0.07500489, -0.04895208, -0.1134461, 0.07832211, 0.04106367, -0.8903436, -0.4517926, 126.9364
 263757796, -0.1125666, -0.1239141, 0.09360021, 0.07886758, -0.01819303, -0.04665939, 0.04430285, 0.03733952, -0.8902249, -0.4517545, 133.4735
 263957986, -0.09230769, -0.07380179, 0.05984742, 0.07505882, -0.04440067, 0.05370065, -0.1031447, 0.03725582, -0.8921552, -0.4487862, 127.0277
 264157973, -0.1137895, 0.03056707, -0.1193719, 0.07491431, -0.04533052, -0.05499271, 0.03423855, 0.03719408, -0.8931009, -0.4465228, 126.7831
 264358025, -0.1203929, -0.04323961, 0.03849615, 0.07485349, -0.04872376, 0.02821355, 0.01953462, 0.03719427, -0.8947902, -0.4448269, 126.6802
 264559115, -0.1307925, 0.06262629, 0.04534053, 0.07538204, -0.0429141, 0.04958871, -0.05761397, 0.03775517, -0.895063, -0.4452016, 125.98
 264739133, -0.1104553, 0.100744, -0.03000993, 0.07166345, -0.02646569, 0.003982191, 0.02800553, 0.03344278, -0.8953025, -0.4451317, 121.2815
 264959996, -0.1061883, 0.0813952, 0.06796508, 0.07497697, -0.04353086, 0.04341865, 0.01589391, 0.0410685, -0.8957155, -0.444439, 126.8892
 265141755, -0.105662, 0.107081, 0.02799893, 0.07513525, -0.01815327, 0.07333941, -0.01343361, 0.03360198, -0.8958365, -0.4441893, 127.157
 265341903, -0.0888018, 0.1233393, -0.00666857, 0.07126195, -0.04947833, -0.03773711, 0.05949561, 0.03719557, -0.8952489, -0.4450928, 120.6019
 265540946, -0.1178453, 0.006661343, 0.04897993, 0.07485555, -0.03517223, 0.04778842, -0.02430001, 0.0371965, -0.8948558, -0.4451272, 126.6837
 265741094, -0.1002106, 0.07899541, -0.03864421, 0.07485499, -0.02489165, 0.05864587, -0.1025587, 0.03719316, -0.8948727, -0.4451913, 126.6827
 265940933, -0.08952837, 0.06255601, -0.09966278, 0.07485294, -0.0340495, -0.06213143, 0.07355849, 0.03719483, -0.8944459, -0.4456431, 126.6793
 266140942, -0.08989453, -0.03110765, 0.04429993, 0.07485482, -0.03275814, 0.04547507, -0.03015689, 0.03719501, -0.8954558, -0.4439761, 126.6824
 266361614, -0.08301933, 0.07315226, -0.05100156, 0.07875154, -0.01939096, 0.01549833, -0.03217822, 0.04109157, -0.8952769, -0.4441597, 131.6112
 266541627, -0.06144505, 0.03398531, -0.03280672, 0.07504356, -0.02687318, -0.05000336, 0.06018205, 0.03347551, -0.8952094, -0.4444416, 127.0019
 266762737, -0.07494691, -0.02372064, 0.07173169, 0.07485479, -0.03229082, 0.06376544, -0.02550369, 0.04091619, -0.8948706, -0.445936, 126.6824
 266946916, -0.07161459, 0.09256316, 0.01394412, 0.07584532, -0.01507781, 0.1167862, -0.08790405, 0.03446472, -0.8933, -0.4493236, 128.3587
 267149720, -0.06338137, 0.1705337, -0.07119837, 0.07258905, -0.05751233, -0.002937515, 0.01800256, 0.03765939, -0.8924826, -0.4510764, 122.8479
 267349735, -0.1085168, 0.08329374, 0.02411115, 0.07532029, -0.05683298, -0.06746775, 0.1050989, 0.03719501, -0.8922032, -0.4515393, 127.4702
 267550623, -0.108925, 0.023238, 0.09721956, 0.07507497, -0.03215295, 0.0885943, -0.0313563, 0.03741892, -0.8923699, -0.4511983, 127.055
 267750653, -0.08454321, 0.1230946, -0.05337266, 0.07507607, -0.0202293, 0.04553269, -0.05683236, 0.03719185, -0.8921674, -0.4507429, 127.0569
 267950637, -0.07395457, 0.0283566, -0.05095375, 0.07486276, -0.02157589, -0.09297445, 0.07563673, 0.03719464, -0.8903904, -0.4513665, 126.6959
 268150707, -0.07706153, -0.1318719, 0.08302088, 0.07485199, -0.02361234, 0.03781534, -0.06193245, 0.03719538, -0.8912617, -0.449558, 126.6777
 268350637, -0.07927874, -0.01919167, -0.05047185, 0.07485457, -0.03992615, -0.06574721, 0.03340399, 0.03719632, -0.8917946, -0.4485324, 126.6821
 268550612, -0.09391148, -0.08738276, 0.03935253, 0.07485423, -0.03645651, -0.01315849, 0.02475967, 0.03719446, -0.8938161, -0.445872, 126.6815
 268751898, -0.09516884, -0.007041197, 0.05146514, 0.07505472, -0.02812627, 0.0664438, -0.0370793, 0.0373953, -0.8945437, -0.4461214, 125.433
 268951692, -0.08049199, 0.1051902, -0.003072865, 0.07505526, -0.03007173, 0.02636885, -0.01071364, 0.03719762, -0.8932607, -0.4492377, 127.0217
 269151716, -0.09507287, 0.09603163, 0.02836415, 0.07485741, -0.03576015, -0.08822682, 0.1569767, 0.0371926, -0.8917387, -0.452376, 126.6868
 269351705, -0.1003141, 0.02278971, 0.125342, 0.07485311, -0.03799025, 0.04390877, -0.0008714654, 0.03719669, -0.8916206, -0.4527653, 126.6796
 269551723, -0.1079095, 0.1543955, 0.008505142, 0.07485647, -0.04109403, 0.1520078, -0.039298, 0.03719334, -0.8914351, -0.4528755, 126.6852
 269751760, -0.1015454, 0.2404197, -0.06427787, 0.07485313, -0.01632654, 0.1320862, -0.1163575, 0.03719464, -0.8912149, -0.4535407, 126.6796
 269952614, -0.08269229, 0.1941815, -0.121194, 0.07499706, -0.05213246, -0.07581727, 0.0647243, 0.03733654, -0.8907997, -0.4540125, 126.9232
 270152354, -0.1140889, -0.04238877, 0.02438255, 0.07499651, -0.03304817, -0.002564232, -0.006497826, 0.03719502, -0.8911909, -0.4519306, 126.9222
 270352487, -0.09842999, -0.03555976, 0.006093801, 0.07485496, -0.02679388, 0.07000586, -0.09638743, 0.03719557, -0.8909854, -0.4510622, 126.6827
 270572376, -0.08910473, 0.03041271, -0.1179946, 0.07857561, -0.04430259, -0.06591594, 0.02636024, 0.04091397, -0.8896777, -0.4514486, 132.9794
 270752495, -0.07965954, -0.1143261, 0.0424485, 0.074855, -0.005656265, -0.09061609, 0.05131838, 0.0334757, -0.8900977, -0.4512867, 126.6827
 270952461, -0.0564568, -0.125042, 0.05328893, 0.07113548, -0.02978282, 0.05761817, -0.01979451, 0.03719483, -0.8920817, -0.4497333, 120.3879
 271133088, -0.07930993, 0.04140081, -0.001920132, 0.07119908, -0.02784947, 0.01506217, -0.01175748, 0.03354172, -0.8923971, -0.4499023, 120.4956
 271353085, -0.09812246, 0.01437993, 0.01867287, 0.07498109, -0.02465668, -0.04226011, 0.03058359, 0.04097924, -0.8933921, -0.4480808, 126.8961
 271553090, -0.09133657, 0.003648326, 0.01922195, 0.07863474, -0.03480984, 0.08115996, -0.002561071, 0.03719018, -0.8955518, -0.444763, 133.0795
 271753301, -0.0914983, 0.1306377, 0.002039697, 0.07485015, -0.0464852, 0.01025408, -0.01795893, 0.03719781, -0.8966762, -0.4426031, 126.6745
 271953091, -0.09738281, 0.08638604, -0.01872052, 0.07485517, -0.02215153, 0.04503906, 0.009224789, 0.03719278, -0.8976248, -0.4407489, 126.683
 272153111, -0.08127204, 0.1211357, 0.003890476, 0.07485351, -0.01707687, 0.05762355, 0.002060193, 0.03719446, -0.8982328, -0.4395139, 126.6802
 272356039, -0.07501853, 0.1243547, -0.001053152, 0.07509155, -0.05185104, 0.009904967, 0.01606241, 0.03743212, -0.8981182, -0.4395992, 125.4945
 272554712, -0.1085427, 0.05924885, 0.01790968, 0.07509209, -0.04030626, 0.04999275, -0.02598302, 0.03719501, -0.897374, -0.440974, 127.084
 272755559, -0.1002976, 0.08953886, 0.00549543, 0.07498386, -0.02485341, 0.03911658, 0.01749413, 0.03732463, -0.8967335, -0.4419763, 126.9008
 272956076, -0.09570789, 0.06647111, 0.02916288, 0.0750493, -0.04750212, -0.02809641, 0.05325823, 0.03725973, -0.8961023, -0.4425544, 127.0116
 273156520, -0.1273445, -0.01711231, 0.06563004, 0.0749197, -0.04428406, 0.03875081, -0.0689457, 0.03719576, -0.8961836, -0.4420697, 126.7923
 273356540, -0.1303353, 0.04174072, -0.06531922, 0.07485497, -0.04091584, -0.02722949, 0.04178574, 0.03719743, -0.896076, -0.4417479, 126.6827
 273555869, -0.1327923, -0.01083571, 0.01927347, 0.07485422, -0.05738343, 0.02985761, 0.0005355044, 0.03719186, -0.896797, -0.4409544, 126.6815
 273735676, -0.1398937, 0.05003038, -0.007872834, 0.07113289, -0.04395835, 0.02578892, -0.06320067, 0.03347607, -0.8973753, -0.4401111, 120.3835
 273955741, -0.1472403, 0.05287877, -0.06463789, 0.07485497, -0.05595671, -0.003789962, 0.001316599, 0.04091396, -0.8980878, -0.4386439, 126.6827
 274155720, -0.1411396, 0.01759349, 0.01265667, 0.07857392, -0.04502583, 0.03610605, -0.0419638, 0.03719502, -0.8981138, -0.4385796, 132.9766
 274355897, -0.1324884, 0.0534526, -0.02721932, 0.07492268, -0.05045956, -0.02974681, 0.05178531, 0.0372629, -0.8978031, -0.4387245, 126.7973
 274555886, -0.1402642, -0.008572647, 0.05384703, 0.07492324, -0.05967967, 0.02257494, 0.02421637, 0.03719482, -0.8981709, -0.438203, 126.7982
 274756470, -0.1412213, 0.04384398, 0.0179061, 0.0748548, -0.03954249, 0.002464421, 0.006889156, 0.03719502, -0.898182, -0.4381948, 126.6824
 274955878, -0.1154636, 0.02317954, 0.01231006, 0.07485499, -0.04022519, 0.01737946, 0.001169157, 0.03719706, -0.8984709, -0.4377283, 126.6827
 275155883, -0.1114938, 0.03572707, -0.003247439, 0.07485554, -0.02903942, 0.01825839, -0.009583849, 0.03719502, -0.8980953, -0.4384778, 126.6837
 275356028, -0.08997194, 0.03940815, -0.02843748, 0.07485626, -0.04409702, 0.0169828, -0.01252679, 0.03719762, -0.898079, -0.4389337, 126.6849
 275555880, -0.1009887, 0.04004864, -0.01273045, 0.0748561, -0.03140745, 0.02198539, -0.05815725, 0.03719463, -0.8982939, -0.438637, 126.6846
 275757071, -0.08922751, 0.04112802, -0.03135499, 0.07485144, -0.03177361, -0.01522058, 0.05614978, 0.0371978, -0.8980923, -0.4386648, 126.6767
 275955880, -0.08963075, 0.008954125, 0.07140394, 0.07485069, -0.03166702, 0.03214848, 0.003860532, 0.03718813, -0.8977802, -0.4395738, 126.6755
 276155843, -0.09785554, 0.05297061, 0.006921568, 0.07484885, -0.04637763, -0.01269199, 0.01828285, 0.03719483, -0.8971016, -0.4405788, 126.6723
 276336259, -0.110755, 0.007419867, 0.02080294, 0.07120261, -0.03929133, 0.03500959, -0.0008898686, 0.03354377, -0.8971, -0.4403563, 120.5015
 276556242, -0.1145467, 0.05018667, -0.009411715, 0.07492232, -0.03907507, 0.0268198, -0.03992833, 0.04091359, -0.897085, -0.4406901, 126.7966
 276756256, -0.1113604, 0.04381425, -0.02554975, 0.07857355, -0.03889243, -0.07778866, 0.08581387, 0.03719576, -0.8953271, -0.4440261, 132.9759
 276956235, -0.09174227, -0.0407371, 0.1151515, 0.07485554, -0.04087144, 0.02716551, 0.04187373, 0.03719446, -0.8944876, -0.4465869, 126.6837
 277156415, -0.1095678, 0.08315495, 0.04269945, 0.07485424, -0.03505684, 0.1492478, -0.06822776, 0.03719502, -0.8945628, -0.446912, 126.6815
 277356270, -0.09435703, 0.2323266, -0.09327278, 0.07485478, -0.01258607, 0.1528946, -0.1201553, 0.03719743, -0.8940852, -0.4477583, 126.6824
 277556235, -0.0745331, 0.2511888, -0.1369464, 0.07485534, -0.06227236, 0.01554617, 0.01319791, 0.03719297, -0.8942026, -0.4476023, 126.6833
 277756274, -0.1182968, 0.1195729, -0.02250095, 0.0748529, -0.01735151, -0.06650154, 0.07515012, 0.03719446, -0.8941358, -0.4477206, 126.6793
 277956244, -0.05602282, -0.008435885, 0.05037862, 0.07485442, -0.007452541, -0.011288, 0.03381141, 0.03719502, -0.8934769, -0.4482398, 126.6818
 278156259, -0.05868857, -0.02797371, 0.04238858, 0.07485498, -0.03801164, 0.07847495, -0.07404871, 0.03719502, -0.8928108, -0.4478434, 126.6827
 278356260, -0.08834621, -0.008993657, -0.03915611, 0.07485593, -0.02129235, 0.02098774, -0.1013999, 0.03719613, -0.8899619, -0.4497082, 126.6843
 278556587, -0.07160504, -0.09707871, -0.06903359, 0.07492956, -0.03503964, -0.1556816, 0.1115733, 0.03726977, -0.8878279, -0.4492627, 126.8089
 278756615, -0.05888068, -0.2851225, 0.1062093, 0.07492901, -0.003589739, -0.1279207, 0.07243615, 0.03719408, -0.8885499, -0.448247, 126.808
 278936586, -0.01830217, -0.2342484, 0.07546496, 0.07113417, 0.007093443, 0.00637232, -0.07084466, 0.03347588, -0.8899694, -0.4478305, 120.3857
 279156591, -0.01871607, -0.05551168, -0.06300531, 0.07485443, 0.00793392, 0.04598261, -0.04544084, 0.04091414, -0.892253, -0.4491698, 126.6818
 279356595, -0.05296326, 0.08768585, -0.05332368, 0.07857541, -0.06512265, -0.04116656, 0.07278378, 0.03719502, -0.893566, -0.4486915, 132.9791
 279556605, -0.1618851, 0.1215966, 0.05249236, 0.07485461, -0.05841061, 0.04137887, 0.0351419, 0.03719594, -0.8937855, -0.447723, 126.6821
 279756591, -0.1931876, 0.2650682, 0.03232817, 0.0748548, -0.06774572, 0.222288, -0.0625475, 0.03719371, -0.8931837, -0.4467885, 126.6824
 279956581, -0.193147, 0.4515104, -0.05287359, 0.07485386, -0.06748702, 0.2232514, -0.08332994, 0.03719725, -0.8926917, -0.4469472, 126.6808
 280156589, -0.1680495, 0.4357272, -0.08660144, 0.07485554, -0.06560762, 0.01951461, 0.05882751, 0.03719297, -0.8942125, -0.4464349, 126.6837
 280356608, -0.1348259, 0.1630718, 0.07109554, 0.07485276, -0.01847493, 0.003491198, 0.03329071, 0.03719502, -0.8952653, -0.4455222, 126.6789
 280557082, -0.08898862, 0.03866316, 0.05020265, 0.07496154, -0.02942963, 0.07407665, -0.008560199, 0.03730102, -0.8943238, -0.4453069, 126.8631
 280757313, -0.08001771, -0.002300365, -0.02006513, 0.07496098, -0.02613561, -0.03481115, -0.03791476, 0.03719557, -0.8912327, -0.4452907, 126.8621
 280957091, -0.0581484, -0.1773073, -0.05075923, 0.07485778, -0.03376454, -0.1722556, 0.07806449, 0.0371978, -0.8869082, -0.4474016, 126.6874
 281157083, -0.05440508, -0.3437476, 0.05887557, 0.07485626, -0.01240958, -0.08048853, -0.03182128, 0.03719557, -0.8877609, -0.446002, 126.6849
 281359672, -0.0355022, -0.2433191, -0.02923827, 0.07531658, -0.008724426, -0.0184987, -0.08777554, 0.0376579, -0.8911209, -0.4448301, 127.4639
 281539591, -0.03783661, -0.09280381, -0.07359398, 0.07159523, -0.03975688, -0.07769215, 0.06013167, 0.03347366, -0.8945914, -0.4432455, 121.166
 281759677, -0.1124537, -0.03379719, 0.06688341, 0.07485314, -0.04943512, 0.05626571, 0.01084681, 0.04091676, -0.8986932, -0.4385736, 126.6796
 281939651, -0.1439887, 0.2021462, 0.004670672, 0.07485499, -0.0318154, 0.1240256, 0.01359084, 0.03347328, -0.898602, -0.4374191, 126.6827
 282159653, -0.169392, 0.3871243, 0.03110369, 0.07485273, -0.08538481, 0.1311384, 0.05296796, 0.0409147, -0.8970998, -0.4369493, 126.6789
 282339670, -0.1978766, 0.3968896, 0.05794478, 0.07485498, -0.05775158, 0.1572996, 0.003098306, 0.033477, -0.8965068, -0.4367742, 126.6827
 282559674, -0.1952869, 0.4591882, 0.006801106, 0.07485481, -0.07624921, 0.1941832, -0.03017045, 0.04091284, -0.8978814, -0.4359534, 126.6824
 282739638, -0.1676955, 0.3670808, -0.01101311, 0.0748537, -0.04233536, 0.01983984, 0.07616001, 0.03347551, -0.8992306, -0.4364398, 126.6805
 282939792, -0.106534, 0.1061219, 0.1169427, 0.07113528, -0.03773225, 0.03689744, -0.02501554, 0.0371952, -0.8984827, -0.4381838, 120.3876
 283159635, -0.06786963, -0.02791425, -0.01576722, 0.07857858, -0.00430238, -0.0507866, -0.02080157, 0.04091433, -0.8929459, -0.4417489, 132.9844
 283359692, -0.01412764, -0.2492917, -0.01700301, 0.07857485, -0.005736455, -0.1851108, 0.09050535, 0.03719594, -0.8847676, -0.4446007, 132.9781
 283539653, 0.008011225, -0.4263076, 0.08970199, 0.07113549, 0.005420976, -0.1041711, -0.03761877, 0.03347458, -0.8823488, -0.4451473, 120.3879
 283759686, 0.03321844, -0.3902867, -0.05396491, 0.07485592, 0.01838478, -0.1553786, -0.07155156, 0.04091525, -0.8872608, -0.4432736, 126.6843
 283959654, 0.03124093, -0.324854, -0.09771308, 0.07857521, -0.001418919, -0.09855531, 0.05019785, 0.03719483, -0.8933833, -0.4413516, 132.9788
 284139820, -0.02238606, -0.1383554, 0.03858937, 0.07113343, -0.01018552, 0.03676488, -0.001860328, 0.03347495, -0.8969113, -0.4404255, 120.3845
 284339677, -0.07902428, 0.1081026, 0.01274682, 0.07113492, -0.05289931, 0.0380505, -0.0188257, 0.03719929, -0.8983945, -0.4391182, 120.387
 284539659, -0.1543061, 0.2289503, -0.01303299, 0.07485497, -0.06177825, 0.09869816, 0.06445484, 0.03719353, -0.8973352, -0.438754, 126.6827
 284739837, -0.1825283, 0.3854677, 0.06976227, 0.0748507, -0.06511865, 0.2407192, -0.1035377, 0.03719241, -0.8955282, -0.437678, 126.6755
 284959675, -0.2041836, 0.5780383, -0.09264307, 0.07857651, -0.08983351, 0.110578, 0.06436091, 0.04091433, -0.8954974, -0.4375368, 132.981
 285139713, -0.1894412, 0.3712274, 0.06974784, 0.07487377, -0.05226715, 0.1269352, 0.05279934, 0.0334757, -0.8966238, -0.4380175, 126.7145
 285359653, -0.1281488, 0.3375172, 0.05584547, 0.07485833, -0.02709903, 0.1504724, -0.09102181, 0.04091432, -0.8967962, -0.4420992, 126.6884
 285559637, -0.07390437, 0.1800186, -0.06890003, 0.07857428, -0.02500443, -0.1168632, 0.1228504, 0.03719502, -0.892876, -0.4468965, 132.9772
 285761647, -0.05147575, -0.2395306, 0.1055285, 0.07492452, -0.0160924, -0.06599976, -0.05787068, 0.03726625, -0.8877062, -0.4478979, 125.2154
 285961262, -0.008359893, -0.3020933, -0.1021583, 0.07492473, 0.0167665, -0.1343496, -0.07296142, 0.03719297, -0.8843899, -0.4473646, 126.8008
 286160548, 0.02620108, -0.3825879, -0.09921061, 0.07485291, -0.005204507, -0.1837612, 0.08188046, 0.03719576, -0.8847654, -0.4451905, 126.6793
 286340087, -0.007608071, -0.3724851, 0.07391817, 0.07113547, -0.004209574, -0.06284475, -0.02021753, 0.03347477, -0.8892624, -0.4425267, 120.3879
