TimeUS,CGpN,CGpE,CGpD,CGpe,PGpN,PGpE,PGpD,PGpe
 202381376, 0.034, 0.002, -0.026, 1.272, -0.048, 0.188, 0.059, 1.272
 202601476, 0.021, 0.052, -0.039, 1.272, 0.034, 0.002, -0.026, 1.272
 202781483, -0.025, 0.067, 0.025, 1.272, 0.021, 0.052, -0.039, 1.272
 202981482, -0.033, 0.011, 0.003, 1.271, -0.025, 0.067, 0.025, 1.272
 203181363, 0.003, 0.026, -0.026, 1.27, -0.033, 0.011, 0.003, 1.271
 203381478, 0.015, -0.001, 0.07300001, 1.27, 0.003, 0.026, -0.026, 1.27
 203581375, 0.015, -0.041, -0.057, 1.269, 0.015, -0.001, 0.07300001, 1.27
 203781490, -0.024, 0.062, 0, 1.268, 0.015, -0.041, -0.057, 1.269
 203981635, -0.006, -0.063, -0.037, 1.268, -0.024, 0.062, 0, 1.268
 204181490, 0.01, 0.015, -0.004, 1.267, -0.006, -0.063, -0.037, 1.268
 204381474, 0.018, 0.011, -0.038, 1.266, 0.01, 0.015, -0.004, 1.267
 204601481, -0.002, -0.035, -0.032, 1.265, 0.018, 0.011, -0.038, 1.266
 204781633, 0.038, 0.01, -0.027, 1.264, -0.002, -0.035, -0.032, 1.265
 205001382, -0.006, -0.012, -0.025, 1.263, 0.038, 0.01, -0.027, 1.264
 205181456, 0.011, -0.06900001, -0.034, 1.263, -0.006, -0.012, -0.025, 1.263
 205401502, -0.002, -0.015, -0.014, 1.262, 0.011, -0.06900001, -0.034, 1.263
 205581466, -0.018, -0.057, -0.062, 1.261, -0.002, -0.015, -0.014, 1.262
 205781617, 0.014, -0.014, -0.039, 1.26, -0.018, -0.057, -0.062, 1.261
 205981472, 0.023, -0.036, -0.08800001, 1.258, 0.014, -0.014, -0.039, 1.26
 206181465, -0.007, 0.034, -0.045, 1.257, 0.023, -0.036, -0.08800001, 1.258
 206381467, 0.03, -0.009000001, -0.037, 1.255, -0.007, 0.034, -0.045, 1.257
 206581375, -0.04, 0.01, -0.015, 1.255, 0.03, -0.009000001, -0.037, 1.255
 206781480, -0.054, -0.029, -0.067, 1.253, -0.04, 0.01, -0.015, 1.255
 206981472, -0.031, 0.003, -0.068, 1.252, -0.054, -0.029, -0.067, 1.253
 207181454, 0.024, 0.025, -0.029, 1.25, -0.031, 0.003, -0.068, 1.252
 207381485, 0.058, 0.038, -0.044, 1.248, 0.024, 0.025, -0.029, 1.25
 207581616, 0.01, -0.071, -0.102, 1.247, 0.058, 0.038, -0.044, 1.248
 207781484, 0.001, -0.041, -0.083, 1.246, 0.01, -0.071, -0.102, 1.247
 207981478, 0.06, -0.048, -0.051, 1.245, 0.001, -0.041, -0.083, 1.246
 208201468, -0.004, -0.021, -0.105, 1.245, 0.06, -0.048, -0.051, 1.245
 208401471, 0.016, -0.034, -0.102, 1.244, -0.004, -0.021, -0.105, 1.245
 208581463, 0.029, -0.027, -0.057, 1.244, 0.016, -0.034, -0.102, 1.244
 208781478, -0.024, -0.017, -0.022, 1.243, 0.029, -0.027, -0.057, 1.244
 208981642, -0.032, 0, 0.032, 1.242, -0.024, -0.017, -0.022, 1.243
 209181477, 0.047, -0.038, -0.075, 1.241, -0.032, 0, 0.032, 1.242
 209381628, -0.01, 0.005, 0.014, 1.24, 0.047, -0.038, -0.075, 1.241
 209581358, -0.041, -0.053, -0.009000001, 1.24, -0.01, 0.005, 0.014, 1.24
 209781491, 0.025, -0.068, -0.011, 1.24, -0.041, -0.053, -0.009000001, 1.24
 209981525, 0.042, -0.054, -0.11, 1.24, 0.025, -0.068, -0.011, 1.24
 210181487, -0.033, -0.002, -0.015, 1.24, 0.042, -0.054, -0.11, 1.24
 210381496, -0.02, 0.014, -0.016, 1.239, -0.033, -0.002, -0.015, 1.24
 210601486, 0.021, -0.009000001, 0.011, 1.239, -0.02, 0.014, -0.016, 1.239
 210781504, -0.013, 0.029, -0.009000001, 1.239, 0.021, -0.009000001, 0.011, 1.239
 210981500, 0.015, 0.006, -0.096, 1.238, -0.013, 0.029, -0.009000001, 1.239
 211181629, -0.004, -0.034, -0.096, 1.237, 0.015, 0.006, -0.096, 1.238
 211381486, 0.054, 0, -0.023, 1.237, -0.004, -0.034, -0.096, 1.237
 211581490, -0.007, -0.05, -0.103, 1.236, 0.054, 0, -0.023, 1.237
 211781496, -0.013, -0.09, -0.116, 1.235, -0.007, -0.05, -0.103, 1.236
 211981497, -0.07700001, -0.35, -0.17, 1.23, -0.013, -0.09, -0.116, 1.235
 212181495, -0.04, -0.812, -0.345, 1.228, -0.07700001, -0.35, -0.17, 1.23
 212381518, -0.199, -0.208, -0.588, 1.224, -0.04, -0.812, -0.345, 1.228
 212581478, -0.126, -0.6300001, -0.5190001, 1.224, -0.199, -0.208, -0.588, 1.224
 212781525, -0.244, -0.6440001, -0.6440001, 1.226, -0.126, -0.6300001, -0.5190001, 1.224
 212981648, -0.266, -0.473, -0.818, 1.229, -0.244, -0.6440001, -0.6440001, 1.226
 213181652, -0.441, -0.532, -0.723, 1.234, -0.266, -0.473, -0.818, 1.229
 213381516, -0.6160001, -0.762, -0.636, 1.237, -0.441, -0.532, -0.723, 1.234
 213581477, -0.77, -0.7820001, -0.6950001, 1.241, -0.6160001, -0.762, -0.636, 1.237
 213781508, -1.11, -1.054, -0.52, 1.244, -0.77, -0.7820001, -0.6950001, 1.241
 213981510, -1.208, -0.9630001, -0.748, 1.244, -1.11, -1.054, -0.52, 1.244
 214181507, -1.494, -1.159, -0.524, 1.245, -1.208, -0.9630001, -0.748, 1.244
 214381508, -1.639, -1.802, -0.663, 1.243, -1.494, -1.159, -0.524, 1.245
 214581522, -2.019, -2.018, -0.564, 1.244, -1.639, -1.802, -0.663, 1.243
 214781665, -2.183, -1.832, -0.629, 1.246, -2.019, -2.018, -0.564, 1.244
 215001517, -2.387, -1.689, -0.531, 1.244, -2.183, -1.832, -0.629, 1.246
 215181493, -2.487, -2.372, -0.513, 1.242, -2.387, -1.689, -0.531, 1.244
 215381503, -2.413, -2.464, -0.463, 1.235, -2.487, -2.372, -0.513, 1.242
 215601499, -2.94, -2.308, -0.566, 1.232, -2.413, -2.464, -0.463, 1.235
 215801523, -2.924, -2.527, -0.739, 1.231, -2.94, -2.308, -0.566, 1.232
 215981511, -3.193, -2.834, -0.988, 1.229, -2.924, -2.527, -0.739, 1.231
 216181493, -3.682, -2.886, -0.715, 1.233, -3.193, -2.834, -0.988, 1.229
 216381516, -3.737, -2.765, -0.679, 1.229, -3.682, -2.886, -0.715, 1.233
 216581634, -3.931, -2.984, -0.8430001, 1.225, -3.737, -2.765, -0.679, 1.229
 216782033, -3.891, -2.921, -0.818, 1.232, -3.931, -2.984, -0.8430001, 1.225
 216982890, -4.358, -3.199, -0.521, 1.24, -3.891, -2.921, -0.818, 1.232
 217182880, -4.412, -2.816, -0.438, 1.242, -4.358, -3.199, -0.521, 1.24
 217386973, -4.648, -3.268, -0.577, 1.242, -4.412, -2.816, -0.438, 1.242
 217587002, -4.762, -3.223, -0.269, 1.247, -4.648, -3.268, -0.577, 1.242
 217787039, -4.661, -3.086, -0.09500001, 1.245, -4.762, -3.223, -0.269, 1.247
 218006059, -4.596, -3.023, -0.422, 1.227, -4.661, -3.086, -0.09500001, 1.245
 218189173, -4.426, -2.733, -0.636, 1.222, -4.596, -3.023, -0.422, 1.227
 218409593, -4.462, -2.501, -0.392, 1.215, -4.426, -2.733, -0.636, 1.222
 218589328, -4.569, -2.307, -0.572, 1.214, -4.462, -2.501, -0.392, 1.215
 218790017, -4.112, -2.153, -0.558, 1.216, -4.569, -2.307, -0.572, 1.214
 218990255, -4.07, -1.852, -0.58, 1.22, -4.112, -2.153, -0.558, 1.216
 219192798, -3.549, -1.822, -0.392, 1.222, -4.07, -1.852, -0.58, 1.22
 219392776, -3.493, -1.662, -0.618, 1.224, -3.549, -1.822, -0.392, 1.222
 219592914, -3.071, -1.717, -0.349, 1.226, -3.493, -1.662, -0.618, 1.224
 219794341, -3.291, -1.834, -0.262, 1.228, -3.071, -1.717, -0.349, 1.226
 219997094, -2.866, -1.73, -0.588, 1.228, -3.291, -1.834, -0.262, 1.228
 220199648, -2.854, -2.155, -0.382, 1.228, -2.866, -1.73, -0.588, 1.228
 220380605, -2.756, -2.227, -0.34, 1.229, -2.854, -2.155, -0.382, 1.228
 220580364, -2.626, -2.468, -0.354, 1.231, -2.756, -2.227, -0.34, 1.229
 220780546, -2.542, -2.559, -0.385, 1.233, -2.626, -2.468, -0.354, 1.231
 220980575, -2.553, -2.815, -0.434, 1.231, -2.542, -2.559, -0.385, 1.233
 221180470, -2.501, -2.752, -0.379, 1.232, -2.553, -2.815, -0.434, 1.231
 221380369, -2.763, -2.986, -0.431, 1.232, -2.501, -2.752, -0.379, 1.232
 221580598, -2.147, -2.877, -0.677, 1.234, -2.763, -2.986, -0.431, 1.232
 221781134, -2.331, -2.907, -0.512, 1.234, -2.147, -2.877, -0.677, 1.234
 221982105, -2.383, -2.8, -0.34, 1.236, -2.331, -2.907, -0.512, 1.234
 222182111, -2.162, -3.082, -0.168, 1.238, -2.383, -2.8, -0.34, 1.236
 222382339, -2.264, -3.172, -0.06, 1.237, -2.162, -3.082, -0.168, 1.238
 222587849, -2.107, -3.526, -0.203, 1.237, -2.264, -3.172, -0.06, 1.237
 222787735, -2.073, -3.877, -0.094, 1.233, -2.107, -3.526, -0.203, 1.237
 222988531, -1.872, -4.246, -0.181, 1.232, -2.073, -3.877, -0.094, 1.233
 223189671, -1.921, -4.392, -0.387, 1.231, -1.872, -4.246, -0.181, 1.232
 223389642, -1.916, -4.224, -0.395, 1.23, -1.921, -4.392, -0.387, 1.231
 223589725, -1.765, -4.318, -0.445, 1.231, -1.916, -4.224, -0.395, 1.23
 223790289, -1.85, -3.989, -0.331, 1.228, -1.765, -4.318, -0.445, 1.231
 223990313, -1.933, -3.725, -0.266, 1.227, -1.85, -3.989, -0.331, 1.228
 224190314, -1.63, -3.519, -0.098, 1.229, -1.933, -3.725, -0.266, 1.227
 224371484, -1.565, -3.173, -0.251, 1.228, -1.63, -3.519, -0.098, 1.229
 224591464, -1.401, -3.112, -0.223, 1.228, -1.565, -3.173, -0.251, 1.228
 224791822, -1.441, -2.721, -0.563, 1.23, -1.401, -3.112, -0.223, 1.228
 224991802, -1.117, -2.674, -0.337, 1.229, -1.441, -2.721, -0.563, 1.23
 225212881, -1.133, -2.496, -0.277, 1.23, -1.117, -2.674, -0.337, 1.229
 225412905, -0.929, -2.445, -0.314, 1.227, -1.133, -2.496, -0.277, 1.23
 225592490, -0.9350001, -2.197, -0.351, 1.226, -0.929, -2.445, -0.314, 1.227
 225792689, -0.706, -1.976, -0.22, 1.226, -0.9350001, -2.197, -0.351, 1.226
 226012488, -0.74, -1.826, -0.231, 1.223, -0.706, -1.976, -0.22, 1.226
 226212616, -0.6390001, -1.166, -0.25, 1.223, -0.74, -1.826, -0.231, 1.223
 226392495, -0.522, -0.929, -0.257, 1.222, -0.6390001, -1.166, -0.25, 1.223
 226612349, -0.333, -0.565, -0.315, 1.224, -0.522, -0.929, -0.257, 1.222
 226793272, -0.278, -0.399, -0.134, 1.229, -0.333, -0.565, -0.315, 1.224
 226993252, -0.09200001, -0.251, -0.402, 1.229, -0.278, -0.399, -0.134, 1.229
 227193253, -0.22, -0.298, -0.283, 1.229, -0.09200001, -0.251, -0.402, 1.229
 227413498, -0.146, -0.191, -0.217, 1.223, -0.22, -0.298, -0.283, 1.229
 227593473, -0.011, -0.06, -0.122, 1.222, -0.146, -0.191, -0.217, 1.223
 227813286, -0.026, -0.071, -0.078, 1.222, -0.011, -0.06, -0.122, 1.222
 228014077, 0.114, -0.09, 0.444, 1.223, -0.026, -0.071, -0.078, 1.222
 228194503, 0.136, -0.011, 0.101, 1.212, 0.114, -0.09, 0.444, 1.223
 228414105, 0.124, 0.093, 0.041, 1.205, 0.136, -0.011, 0.101, 1.212
 228634078, 0.07700001, 0.087, 0.07700001, 1.201, 0.124, 0.093, 0.041, 1.205
 228814350, 0.05, 0.161, -0.079, 1.197, 0.07700001, 0.087, 0.07700001, 1.201
 229014342, 0.046, 0.123, -0.038, 1.191, 0.05, 0.161, -0.079, 1.197
 229195128, 0.181, 0.134, 0.022, 1.192, 0.046, 0.123, -0.038, 1.191
 229395127, 0.17, 0.083, -0.08400001, 1.195, 0.181, 0.134, 0.022, 1.192
 229595731, 0.185, 0.082, 0.116, 1.197, 0.17, 0.083, -0.08400001, 1.195
 229818067, 0.172, 0.134, -0.015, 1.194, 0.185, 0.082, 0.116, 1.197
 229998057, 0.174, 0.138, 0.041, 1.182, 0.172, 0.134, -0.015, 1.194
 230198053, 0.124, 0.16, -0.08400001, 1.183, 0.174, 0.138, 0.041, 1.182
 230398303, 0.103, 0.231, -0.296, 1.184, 0.124, 0.16, -0.08400001, 1.183
 230599080, 0.161, 0.309, -0.28, 1.185, 0.103, 0.231, -0.296, 1.184
 230799116, 0.079, -0.031, 0.027, 1.182, 0.161, 0.309, -0.28, 1.185
 230999100, 0.241, -0.05, -0.027, 1.176, 0.079, -0.031, 0.027, 1.182
 231199090, 0.166, -0.139, -0.046, 1.163, 0.241, -0.05, -0.027, 1.176
 231399097, 0.232, -0.19, -0.049, 1.15, 0.166, -0.139, -0.046, 1.163
 231599101, 0.205, -0.225, 0.024, 1.146, 0.232, -0.19, -0.049, 1.15
 231799328, 0.151, -0.204, 0.06900001, 1.145, 0.205, -0.225, 0.024, 1.146
 232001801, 0.175, -0.272, 0.09100001, 1.146, 0.151, -0.204, 0.06900001, 1.145
 232180089, 0.101, -0.164, 0.06900001, 1.148, 0.175, -0.272, 0.09100001, 1.146
 232400520, 0.044, -0.054, 0.003, 1.149, 0.101, -0.164, 0.06900001, 1.148
 232601250, 0.05, 0.017, 0.016, 1.151, 0.044, -0.054, 0.003, 1.149
 232801307, 0.044, 0.085, 0.012, 1.152, 0.05, 0.017, 0.016, 1.151
 233000532, 0.035, 0.05, -0.04, 1.153, 0.044, 0.085, 0.012, 1.152
 233201038, 0.003, 0.06900001, -0.07600001, 1.153, 0.035, 0.05, -0.04, 1.153
 233401226, 0.104, 0.121, -0.089, 1.154, 0.003, 0.06900001, -0.07600001, 1.153
 233601240, 0.043, -0.004, 0.024, 1.156, 0.104, 0.121, -0.089, 1.154
 233820879, 0.04, 0.045, 0.019, 1.157, 0.043, -0.004, 0.024, 1.156
 234201026, 0.125, -0.149, 0.058, 1.162, 0.054, 0.009000001, 0.083, 1.159
 234401738, 0.079, -0.171, 0.009000001, 1.166, 0.125, -0.149, 0.058, 1.162
 234622028, 0.03, -0.184, 0.098, 1.17, 0.079, -0.171, 0.009000001, 1.166
 234781949, 0.042, -0.171, 0.044, 1.173, 0.03, -0.184, 0.098, 1.17
 235001939, 0.055, -0.158, -0.078, 1.177, 0.042, -0.171, 0.044, 1.173
 235201923, -0.085, -0.193, 0.013, 1.181, 0.055, -0.158, -0.078, 1.177
 235402530, -0.036, -0.131, -0.047, 1.184, -0.085, -0.193, 0.013, 1.181
 235605663, -0.048, -0.229, -0.046, 1.188, -0.036, -0.131, -0.047, 1.184
 235805508, -0.037, -0.06500001, -0.02, 1.191, -0.048, -0.229, -0.046, 1.188
 235985898, 0.028, -0.112, -0.006, 1.195, -0.037, -0.06500001, -0.02, 1.191
 236189593, -0.071, -0.104, -0.033, 1.198, 0.028, -0.112, -0.006, 1.195
 236410828, 0.015, -0.038, 0.051, 1.201, -0.071, -0.104, -0.033, 1.198
 236610835, -0.049, 0.051, 0.054, 1.204, 0.015, -0.038, 0.051, 1.201
 236790845, -0.136, -0.041, 0.054, 1.205, -0.049, 0.051, 0.054, 1.204
 236991665, -0.098, 0.14, 0.033, 1.204, -0.136, -0.041, 0.054, 1.205
 237191680, -0.068, 0.174, 0.004, 1.204, -0.098, 0.14, 0.033, 1.204
 237391772, -0.057, 0.162, -0.028, 1.203, -0.068, 0.174, 0.004, 1.204
 237591667, -0.01, 0.156, -0.056, 1.202, -0.057, 0.162, -0.028, 1.203
 237791719, 0.019, 0.115, -0.12, 1.202, -0.01, 0.156, -0.056, 1.202
 237991807, 0.072, 0.063, -0.055, 1.201, 0.019, 0.115, -0.12, 1.202
 238215275, 0.221, 0.017, 0.014, 1.207, 0.072, 0.063, -0.055, 1.201
 238415285, 0.06500001, 0.028, 0.17, 1.2, 0.221, 0.017, 0.014, 1.207
 238595255, 0.06, -0.003, 0.048, 1.199, 0.06500001, 0.028, 0.17, 1.2
 238815409, 0.056, 0.015, 0.102, 1.194, 0.06, -0.003, 0.048, 1.199
 238955246, 0.037, 0.07300001, 0.012, 1.187, 0.056, 0.015, 0.102, 1.194
 239155254, -0.017, 0.146, -0.111, 1.185, 0.037, 0.07300001, 0.012, 1.187
 239355271, -0.053, 0.217, -0.057, 1.185, -0.017, 0.146, -0.111, 1.185
 239555235, 0.149, 0.027, 0.274, 1.187, -0.053, 0.217, -0.057, 1.185
 239755400, -0.036, 0.192, 0.04, 1.188, 0.149, 0.027, 0.274, 1.187
 239936114, -0.023, 0.106, 0.144, 1.188, -0.036, 0.192, 0.04, 1.188
 240156143, 0.032, 0.04, 0.09900001, 1.187, -0.023, 0.106, 0.144, 1.188
 240358970, 0.086, 0.101, 0.09200001, 1.185, 0.032, 0.04, 0.09900001, 1.187
 240559886, 0.06500001, 0.104, 0.09200001, 1.186, 0.086, 0.101, 0.09200001, 1.185
 240798677, 0.01, -0.136, 0.024, 1.188, 0.06500001, 0.104, 0.09200001, 1.186
 240938994, -0.026, -0.116, 0.058, 1.19, 0.01, -0.136, 0.024, 1.188
 241160144, 0.074, -0.188, 0.04, 1.191, -0.026, -0.116, 0.058, 1.19
 241344591, 0.018, -0.14, 0.036, 1.186, 0.074, -0.188, 0.04, 1.191
 241543782, -0.012, -0.129, 0.072, 1.184, 0.018, -0.14, 0.036, 1.186
 241763484, 0.036, -0.101, 0.133, 1.18, -0.012, -0.129, 0.072, 1.184
 241944910, 0.033, -0.056, -0.004, 1.176, 0.036, -0.101, 0.133, 1.18
 242145911, 0.011, 0.06900001, -0.136, 1.178, 0.033, -0.056, -0.004, 1.176
 242346569, 0.024, -0.005, -0.08000001, 1.181, 0.011, 0.06900001, -0.136, 1.178
 242546535, 0.045, 0.031, -0.09500001, 1.185, 0.024, -0.005, -0.08000001, 1.181
 242746552, 0.083, 0.018, -0.008, 1.187, 0.045, 0.031, -0.09500001, 1.185
 242946555, 0.08000001, 0.021, 0.011, 1.186, 0.083, 0.018, -0.008, 1.187
 243146710, 0.118, 0, -0.169, 1.185, 0.08000001, 0.021, 0.011, 1.186
 243347776, -0.015, 0.038, -0.1, 1.184, 0.118, 0, -0.169, 1.185
 243548351, -0.018, 0.042, -0.03, 1.182, -0.015, 0.038, -0.1, 1.184
 243752088, 0.042, 0.07700001, -0.056, 1.183, -0.018, 0.042, -0.03, 1.182
 243951918, 0.016, 0.049, -0.032, 1.183, 0.042, 0.07700001, -0.056, 1.183
 244152728, -0.032, 0.039, -0.097, 1.183, 0.016, 0.049, -0.032, 1.183
 244351943, 0.028, 0.053, -0.115, 1.183, -0.032, 0.039, -0.097, 1.183
 244551932, -0.025, -0.035, -0.111, 1.183, 0.028, 0.053, -0.115, 1.183
 244753011, 0.068, 0.112, -0.011, 1.183, -0.025, -0.035, -0.111, 1.183
 244953760, 0.136, 0.1, 0.054, 1.182, 0.068, 0.112, -0.011, 1.183
 245153908, 0.023, 0.093, 0.039, 1.18, 0.136, 0.1, 0.054, 1.182
 245354121, 0.082, 0.044, -0.022, 1.176, 0.023, 0.093, 0.039, 1.18
 245554108, -0.013, -0.049, -0.002, 1.175, 0.082, 0.044, -0.022, 1.176
 245754134, -0.021, 0.013, 0.068, 1.177, -0.013, -0.049, -0.002, 1.175
 245955021, 0.072, 0.08800001, 0.037, 1.179, -0.021, 0.013, 0.068, 1.177
 246135721, 0.019, 0.015, 0.023, 1.184, 0.072, 0.08800001, 0.037, 1.179
 246359213, 0.098, 0.035, -0.013, 1.187, 0.019, 0.015, 0.023, 1.184
 246559144, 0.141, 0.009000001, -0.018, 1.19, 0.098, 0.035, -0.013, 1.187
 246739371, 0.071, -0.002, 0.06500001, 1.191, 0.141, 0.009000001, -0.018, 1.19
 246959373, 0.08800001, 0.004, 0.064, 1.19, 0.071, -0.002, 0.06500001, 1.191
 247140085, 0.166, 0.033, -0.015, 1.188, 0.08800001, 0.004, 0.064, 1.19
 247341059, 0.043, 0.08000001, 0.104, 1.183, 0.166, 0.033, -0.015, 1.188
 247544998, -0.025, 0.042, 0.042, 1.18, 0.043, 0.08000001, 0.104, 1.183
 247744695, 0.101, -0.037, 0.1, 1.178, -0.025, 0.042, 0.042, 1.18
 247944467, 0.066, 0.045, -0.119, 1.175, 0.101, -0.037, 0.1, 1.178
 248146941, 0.048, 0.067, -0.08400001, 1.174, 0.066, 0.045, -0.119, 1.175
 248346981, 0.06500001, -0.019, -0.078, 1.17, 0.048, 0.067, -0.08400001, 1.174
 248547735, 0.056, -0.047, 0.057, 1.167, 0.06500001, -0.019, -0.078, 1.17
 248747727, 0.068, -0.075, -0.118, 1.165, 0.056, -0.047, 0.057, 1.167
 248948086, 0.007, -0.012, -0.041, 1.163, 0.068, -0.075, -0.118, 1.165
 249148103, 0.068, 0.014, -0.145, 1.161, 0.007, -0.012, -0.041, 1.163
 249348098, 0.019, 0.016, 0.093, 1.16, 0.068, 0.014, -0.145, 1.161
 249548619, 0.045, -0.013, -0.057, 1.16, 0.019, 0.016, 0.093, 1.16
 249751974, -0.055, -0.004, -0.062, 1.161, 0.045, -0.013, -0.057, 1.16
 249952798, 0.008, 0.013, 0.017, 1.161, -0.055, -0.004, -0.062, 1.161
 250152789, -0.07300001, -0.075, -0.09200001, 1.163, 0.008, 0.013, 0.017, 1.161
 250334516, -0.044, -0.009000001, -0.013, 1.165, -0.07300001, -0.075, -0.09200001, 1.163
 250552794, 0.022, 0.036, -0.029, 1.169, -0.044, -0.009000001, -0.013, 1.165
 250752816, 0.056, -0.036, -0.12, 1.173, 0.022, 0.036, -0.029, 1.169
 250956614, 0.045, 0.026, -0.003, 1.176, 0.056, -0.036, -0.12, 1.173
 251156755, 0.013, -0.021, -0.039, 1.18, 0.045, 0.026, -0.003, 1.176
 251356624, 0.038, -0.028, -0.125, 1.186, 0.013, -0.021, -0.039, 1.18
 251556365, -0.102, -0.124, -0.086, 1.191, 0.038, -0.028, -0.125, 1.186
 251756851, 0.066, -0.067, -0.013, 1.196, -0.102, -0.124, -0.086, 1.191
 251956739, -0.299, -0.236, 0.377, 1.2, 0.066, -0.067, -0.013, 1.196
 252156870, 0.051, -0.079, -0.02, 1.205, -0.299, -0.236, 0.377, 1.2
 252357347, 0.101, -0.057, -0.113, 1.211, 0.051, -0.079, -0.02, 1.205
 252557316, -0.022, 0.081, 0.047, 1.216, 0.101, -0.057, -0.113, 1.211
 252757351, 0.093, 0.008, 0.071, 1.22, -0.022, 0.081, 0.047, 1.216
 252937774, 0.07600001, 0, 0.002, 1.224, 0.093, 0.008, 0.071, 1.22
 253157771, 0.09900001, 0.059, -0.047, 1.228, 0.07600001, 0, 0.002, 1.224
 253357858, 0.013, 0.062, 0.032, 1.231, 0.09900001, 0.059, -0.047, 1.228
 253558619, -0.163, 0.055, 0.09100001, 1.234, 0.013, 0.062, 0.032, 1.231
 253762736, 0.049, 0.113, -0.013, 1.237, -0.163, 0.055, 0.09100001, 1.234
 253942626, -0.024, 0.07600001, 0.037, 1.239, 0.049, 0.113, -0.013, 1.237
 254142768, 0.006, 0.075, 0.047, 1.241, -0.024, 0.07600001, 0.037, 1.239
 254343223, 0.059, 0.06500001, 0.003, 1.243, 0.006, 0.075, 0.047, 1.241
 254547455, -0.028, 0.036, 0.012, 1.246, 0.059, 0.06500001, 0.003, 1.243
 254748894, 0.049, -0.056, 0.052, 1.25, -0.028, 0.036, 0.012, 1.246
 254949267, 0.179, 0.047, 0.021, 1.254, 0.049, -0.056, 0.052, 1.25
 255149284, 0.097, -0.082, -0.02, 1.258, 0.179, 0.047, 0.021, 1.254
 255369661, -0.026, -0.191, 0.16, 1.257, 0.097, -0.082, -0.02, 1.258
 255549294, 0.104, -0.067, -0.006, 1.258, -0.026, -0.191, 0.16, 1.257
 255749294, 0.1, 0.034, -0.026, 1.262, 0.104, -0.067, -0.006, 1.258
 255950072, 0.013, -0.001, 0.09, 1.265, 0.1, 0.034, -0.026, 1.262
 256150991, 0.04, 0.171, -0.121, 1.269, 0.013, -0.001, 0.09, 1.265
 256355251, -0.058, 0.115, -0.09500001, 1.273, 0.04, 0.171, -0.121, 1.269
 256555272, -0.165, 0.117, -0.041, 1.277, -0.058, 0.115, -0.09500001, 1.273
 256755775, -0.112, 0.135, -0.048, 1.279, -0.165, 0.117, -0.041, 1.277
 256954771, -0.038, -0.004, 0.079, 1.279, -0.112, 0.135, -0.048, 1.279
 257154733, -0.159, -0.164, 0.121, 1.28, -0.038, -0.004, 0.079, 1.279
 257355660, -0.033, -0.193, 0.079, 1.281, -0.159, -0.164, 0.121, 1.28
 257556128, 0.019, 0.02, -0.148, 1.284, -0.033, -0.193, 0.079, 1.281
 257756094, -0.193, -0.196, 0.128, 1.285, 0.019, 0.02, -0.148, 1.284
 257956084, -0.165, -0.226, -0.018, 1.285, -0.193, -0.196, 0.128, 1.285
 258136495, -0.018, -0.159, -0.063, 1.286, -0.165, -0.226, -0.018, 1.285
 258356627, -0.06500001, -0.06500001, 0.116, 1.264, -0.018, -0.159, -0.063, 1.286
 258576480, -0.116, -0.11, -0.093, 1.255, -0.06500001, -0.06500001, 0.116, 1.264
 258757138, -0.078, -0.02, -0.002, 1.24, -0.116, -0.11, -0.093, 1.255
 258957806, -0.07, -0.053, 0.032, 1.226, -0.078, -0.02, -0.002, 1.24
 259157826, -0.105, 0.033, -0.086, 1.214, -0.07, -0.053, 0.032, 1.226
 259360308, -0.047, 0.058, -0.098, 1.202, -0.105, 0.033, -0.086, 1.214
 259544513, -0.002, 0.013, -0.09500001, 1.192, -0.047, 0.058, -0.098, 1.202
 259746101, -0.072, -0.005, -0.078, 1.181, -0.002, 0.013, -0.09500001, 1.192
 259946211, 0.006, -0.03, -0.029, 1.168, -0.072, -0.005, -0.078, 1.181
 260146125, -0.034, 0.011, 0.016, 1.166, 0.006, -0.03, -0.029, 1.168
 260346351, 0.013, 0.042, -0.043, 1.165, -0.034, 0.011, 0.016, 1.166
 260546126, 0.053, -0.014, 0.007, 1.165, 0.013, 0.042, -0.043, 1.165
 260746122, -0.1, 0.044, 0.111, 1.166, 0.053, -0.014, 0.007, 1.165
 260946489, -0.033, -0.11, -0.026, 1.168, -0.1, 0.044, 0.111, 1.166
 261147522, -0.031, -0.08400001, -0.043, 1.172, -0.033, -0.11, -0.026, 1.168
 261347302, -0.019, -0.061, 0.061, 1.178, -0.031, -0.08400001, -0.043, 1.172
 261547269, -0.024, -0.045, 0.071, 1.177, -0.019, -0.061, 0.061, 1.178
 261751855, -0.002, -0.132, -0.038, 1.176, -0.024, -0.045, 0.071, 1.177
 261951813, 0.042, -0.07600001, 0.008, 1.176, -0.002, -0.132, -0.038, 1.176
 262153316, 0.008, -0.171, -0.026, 1.178, 0.042, -0.07600001, 0.008, 1.176
 262354032, -0.012, -0.033, -0.022, 1.18, 0.008, -0.171, -0.026, 1.178
 262554025, -0.011, 0.102, -0.058, 1.183, -0.012, -0.033, -0.022, 1.18
 262754059, -0.094, 0.038, -0.06500001, 1.187, -0.011, 0.102, -0.058, 1.183
 262954327, -0.031, 0.063, -0.273, 1.189, -0.094, 0.038, -0.06500001, 1.187
 263154326, 0.028, 0.122, -0.227, 1.19, -0.031, 0.063, -0.273, 1.189
 263334334, 0.04, 0.13, -0.187, 1.187, 0.028, 0.122, -0.227, 1.19
 263555386, 0.002, 0.022, -0.155, 1.187, 0.04, 0.13, -0.187, 1.187
 263757796, -0.024, -0.018, -0.098, 1.188, 0.002, 0.022, -0.155, 1.187
 263957986, 0.06900001, -0.075, -0.144, 1.187, -0.024, -0.018, -0.098, 1.188
 264157973, 0.072, -0.216, -0.194, 1.188, 0.06900001, -0.075, -0.144, 1.187
 264358025, -0.054, -0.132, -0.145, 1.192, 0.072, -0.216, -0.194, 1.188
 264559115, -0.02, -0.126, -0.066, 1.195, -0.054, -0.132, -0.145, 1.192
 264739133, -0.037, -0.053, -0.098, 1.199, -0.02, -0.126, -0.066, 1.195
 264959996, -0.082, -0.173, 0.038, 1.202, -0.037, -0.053, -0.098, 1.199
 265141755, 0.02, 0.133, -0.1, 1.205, -0.082, -0.173, 0.038, 1.202
 265341903, -0.085, -0.101, 0.119, 1.208, 0.02, 0.133, -0.1, 1.205
 265540946, -0.07700001, -0.045, 0, 1.213, -0.085, -0.101, 0.119, 1.208
 265741094, -0.041, 0.021, -0.033, 1.218, -0.07700001, -0.045, 0, 1.213
 265940933, -0.14, -0.017, 0.09100001, 1.223, -0.041, 0.021, -0.033, 1.218
 266140942, -0.072, -0.039, -0.071, 1.228, -0.14, -0.017, 0.09100001, 1.223
 266361614, -0.132, -0.089, -0.017, 1.231, -0.072, -0.039, -0.071, 1.228
 266541627, -0.06900001, -0.109, -0.045, 1.234, -0.132, -0.089, -0.017, 1.231
 266762737, -0.071, -0.07300001, -0.162, 1.234, -0.06900001, -0.109, -0.045, 1.234
 266946916, -0.058, -0.041, 0.01, 1.233, -0.071, -0.07300001, -0.162, 1.234
 267149720, -0.071, 0.023, -0.13, 1.233, -0.058, -0.041, 0.01, 1.233
 267349735, -0.029, 0.003, -0.066, 1.232, -0.071, 0.023, -0.13, 1.233
 267550623, -0.002, 0.061, -0.054, 1.23, -0.029, 0.003, -0.066, 1.232
 267750653, -0.029, 0.086, -0.021, 1.227, -0.002, 0.061, -0.054, 1.23
 267950637, -0.036, 0.096, -0.009000001, 1.224, -0.029, 0.086, -0.021, 1.227
 268150707, 0.035, 0.041, -0.058, 1.223, -0.036, 0.096, -0.009000001, 1.224
 268350637, -0.055, 0.028, -0.054, 1.222, 0.035, 0.041, -0.058, 1.223
 268550612, 0.029, -0.136, -0.063, 1.223, -0.055, 0.028, -0.054, 1.222
 268751898, -0.006, -0.09, -0.04, 1.225, 0.029, -0.136, -0.063, 1.223
 268951692, 0.032, -0.104, 0.008, 1.226, -0.006, -0.09, -0.04, 1.225
 269151716, -0.037, -0.108, 0.087, 1.228, 0.032, -0.104, 0.008, 1.226
 269351705, 0.045, -0.003, -0.007, 1.228, -0.037, -0.108, 0.087, 1.228
 269551723, 0.09900001, -0.016, 0.05, 1.229, 0.045, -0.003, -0.007, 1.228
 269751760, -0.005, 0.102, 0.151, 1.229, 0.09900001, -0.016, 0.05, 1.229
 269952614, -0.02, 0.103, 0.031, 1.227, -0.005, 0.102, 0.151, 1.229
 270152354, 0.107, 0.136, -0.097, 1.226, -0.02, 0.103, 0.031, 1.227
 270352487, -0.06500001, 0.126, -0.061, 1.223, 0.107, 0.136, -0.097, 1.226
 270572376, -0.019, 0.157, 0.005, 1.222, -0.06500001, 0.126, -0.061, 1.223
 270752495, 0.075, 0.07300001, 0.033, 1.222, -0.019, 0.157, 0.005, 1.222
 270952461, 0.08400001, 0.041, -0.05, 1.222, 0.075, 0.07300001, 0.033, 1.222
 271133088, 0.015, -0.054, -0.009000001, 1.221, 0.08400001, 0.041, -0.05, 1.222
 271353085, -0.017, -0.086, 0.031, 1.22, 0.015, -0.054, -0.009000001, 1.221
 271553090, 0.105, -0.119, 0.082, 1.22, -0.017, -0.086, 0.031, 1.22
 271753301, 0.142, -0.114, 0.013, 1.22, 0.105, -0.119, 0.082, 1.22
 271953091, 0.094, -0.064, -0.037, 1.22, 0.142, -0.114, 0.013, 1.22
 272153111, 0.09100001, 0.009000001, -0.18, 1.22, 0.094, -0.064, -0.037, 1.22
 272356039, 0.089, 0.072, -0.046, 1.22, 0.09100001, 0.009000001, -0.18, 1.22
 272554712, 0.089, 0.037, -0.09, 1.221, 0.089, 0.072, -0.046, 1.22
 272755559, 0.165, 0.111, -0.006, 1.221, 0.089, 0.037, -0.09, 1.221
 272956076, 0.062, 0.036, -0.074, 1.219, 0.165, 0.111, -0.006, 1.221
 273156520, 0.175, 0.124, 0.018, 1.219, 0.062, 0.036, -0.074, 1.219
 273356540, 0.089, 0.04, 0.015, 1.218, 0.175, 0.124, 0.018, 1.219
 273555869, 0.09200001, 0.063, 0.041, 1.217, 0.089, 0.04, 0.015, 1.218
 273735676, 0.094, 0.042, 0.06900001, 1.215, 0.09200001, 0.063, 0.041, 1.217
 273955741, 0.08000001, 0.045, -0.052, 1.214, 0.094, 0.042, 0.06900001, 1.215
 274155720, 0.081, 0.06500001, 0.008, 1.213, 0.08000001, 0.045, -0.052, 1.214
 274355897, -0.066, 0.027, 0.121, 1.21, 0.081, 0.06500001, 0.008, 1.213
 274555886, -0.04, 0.004, 0.024, 1.208, -0.066, 0.027, 0.121, 1.21
 274756470, -0.082, -0.01, -0.059, 1.206, -0.04, 0.004, 0.024, 1.208
 274955878, -0.02, 0.062, 0.005, 1.202, -0.082, -0.01, -0.059, 1.206
 275155883, -0.049, 0.008, -0.07700001, 1.2, -0.02, 0.062, 0.005, 1.202
 275356028, -0.108, -0.031, 0.012, 1.197, -0.049, 0.008, -0.07700001, 1.2
 275555880, -0.184, -0.134, 0.079, 1.197, -0.108, -0.031, 0.012, 1.197
 275757071, -0.136, -0.046, 0.032, 1.196, -0.184, -0.134, 0.079, 1.197
 275955880, -0.09200001, -0.083, -0.07300001, 1.194, -0.136, -0.046, 0.032, 1.196
 276155843, -0.172, -0.085, -0.047, 1.194, -0.09200001, -0.083, -0.07300001, 1.194
 276336259, -0.129, -0.043, -0.048, 1.194, -0.172, -0.085, -0.047, 1.194
 276556242, -0.188, -0.098, -0.004, 1.194, -0.129, -0.043, -0.048, 1.194
 276756256, -0.127, -0.118, -0.012, 1.194, -0.188, -0.098, -0.004, 1.194
 276956235, -0.096, -0.013, 0.08400001, 1.195, -0.127, -0.118, -0.012, 1.194
 277156415, -0.07, -0.027, 0.048, 1.196, -0.096, -0.013, 0.08400001, 1.195
 277356270, -0.148, -0.114, 0.053, 1.194, -0.07, -0.027, 0.048, 1.196
 277556235, -0.167, 0.004, 0.001, 1.194, -0.148, -0.114, 0.053, 1.194
 277756274, -0.171, 0.001, -0.03, 1.192, -0.167, 0.004, 0.001, 1.194
 277956244, -0.148, 0.074, -0.048, 1.189, -0.171, 0.001, -0.03, 1.192
 278156259, -0.127, 0.113, -0.08000001, 1.188, -0.148, 0.074, -0.048, 1.189
 278356260, -0.124, 0.043, -0.11, 1.188, -0.127, 0.113, -0.08000001, 1.188
 278556587, -0.111, -0.07300001, -0.018, 1.19, -0.124, 0.043, -0.11, 1.188
 278756615, -0.057, -0.209, -0.016, 1.191, -0.111, -0.07300001, -0.018, 1.19
 278936586, -0.018, -0.318, -0.046, 1.19, -0.057, -0.209, -0.016, 1.191
 279156591, 0.124, -0.538, -0.07, 1.191, -0.018, -0.318, -0.046, 1.19
 279356595, 0.131, -0.535, 0.017, 1.19, 0.124, -0.538, -0.07, 1.191
 279556605, 0.07, -0.55, 0.016, 1.188, 0.131, -0.535, 0.017, 1.19
 279756591, 0.037, -0.399, -0.103, 1.184, 0.07, -0.55, 0.016, 1.188
 279956581, -0.045, -0.2, -0.041, 1.179, 0.037, -0.399, -0.103, 1.184
 280156589, -0.211, -0.061, -0.024, 1.178, -0.045, -0.2, -0.041, 1.179
 280356608, -0.201, 0.125, -0.055, 1.174, -0.211, -0.061, -0.024, 1.178
 280557082, -0.296, 0.199, 0.044, 1.171, -0.201, 0.125, -0.055, 1.174
 280757313, -0.236, 0.11, 0.001, 1.167, -0.296, 0.199, 0.044, 1.171
 280957091, -0.253, -0.037, 0.001, 1.163, -0.236, 0.11, 0.001, 1.167
 281157083, -0.215, -0.213, -0.017, 1.164, -0.253, -0.037, 0.001, 1.163
 281359672, -0.067, -0.336, 0.012, 1.165, -0.215, -0.213, -0.017, 1.164
 281539591, 0.02, -0.404, -0.016, 1.165, -0.067, -0.336, 0.012, 1.165
 281759677, 0.063, -0.488, 0.112, 1.165, 0.02, -0.404, -0.016, 1.165
 281939651, -0.029, -0.422, 0.098, 1.166, 0.063, -0.488, 0.112, 1.165
 282159653, -0.064, -0.4, 0.094, 1.167, -0.029, -0.422, 0.098, 1.166
 282339670, -0.231, -0.059, 0.174, 1.165, -0.064, -0.4, 0.094, 1.167
 282559674, -0.283, 0.105, 0.09500001, 1.164, -0.231, -0.059, 0.174, 1.165
 282739638, -0.423, 0.306, 0.101, 1.163, -0.283, 0.105, 0.09500001, 1.164
 282939792, -0.465, 0.369, 0.083, 1.161, -0.423, 0.306, 0.101, 1.163
 283159635, -0.419, 0.426, 0.208, 1.159, -0.465, 0.369, 0.083, 1.161
 283359692, -0.41, 0.205, -0.019, 1.156, -0.419, 0.426, 0.208, 1.159
 283539653, -0.292, 0.043, -0.124, 1.156, -0.41, 0.205, -0.019, 1.156
 283759686, -0.153, -0.198, 0.026, 1.155, -0.292, 0.043, -0.124, 1.156
 283959654, -0.08400001, -0.419, 0.085, 1.153, -0.153, -0.198, 0.026, 1.155
 284139820, -0.049, -0.6990001, 0.07700001, 1.153, -0.08400001, -0.419, 0.085, 1.153
 284339677, 0.08000001, -0.651, -0.086, 1.155, -0.049, -0.6990001, 0.07700001, 1.153
 284539659, 0.053, -0.473, 0.006, 1.158, 0.08000001, -0.651, -0.086, 1.155
 284739837, -0.074, -0.396, 0.082, 1.161, 0.053, -0.473, 0.006, 1.158
 284959675, -0.263, -0.106, 0.041, 1.164, -0.074, -0.396, 0.082, 1.161
 285139713, -0.362, 0.191, 0.007, 1.167, -0.263, -0.106, 0.041, 1.164
 285359653, -0.331, 0.261, 0.063, 1.17, -0.362, 0.191, 0.007, 1.167
 285559637, -0.418, 0.374, -0.031, 1.173, -0.331, 0.261, 0.063, 1.17
 285761647, -0.335, 0.361, 0.014, 1.174, -0.418, 0.374, -0.031, 1.173
 285961262, -0.293, 0.207, -0.007, 1.174, -0.335, 0.361, 0.014, 1.174
 286160548, -0.15, -0.058, 0.001, 1.174, -0.293, 0.207, -0.007, 1.174
 286340087, -0.048, -0.205, -0.011, 1.173, -0.15, -0.058, 0.001, 1.174
 286560556, 0.128, -0.465, -0.129, 1.174, -0.048, -0.205, -0.011, 1.173
 286740066, 0.09200001, -0.48, -0.025, 1.175, 0.128, -0.465, -0.129, 1.174
 286960534, 0.002, -0.536, 0.008, 1.175, 0.09200001, -0.48, -0.025, 1.175
 287161280, 0.257, -0.5840001, 0.16, 1.176, 0.002, -0.536, 0.008, 1.175
 287360575, -0.033, -0.242, 0.034, 1.177, 0.257, -0.5840001, 0.16, 1.176
 287560501, -0.215, -0.04, 0.019, 1.178, -0.033, -0.242, 0.034, 1.177
 287740094, -0.278, 0.21, 0.143, 1.181, -0.215, -0.04, 0.019, 1.178
 287940063, -0.312, 0.199, -0.011, 1.182, -0.278, 0.21, 0.143, 1.181
 288140064, -0.327, 0.232, 0.064, 1.183, -0.312, 0.199, -0.011, 1.182
 288340310, -0.287, 0.14, 0.063, 1.184, -0.327, 0.232, 0.064, 1.183
 288561279, -0.2, -0.015, 0.027, 1.185, -0.287, 0.14, 0.063, 1.184
 288760847, -0.107, -0.087, -0.001, 1.185, -0.2, -0.015, 0.027, 1.185
 288940071, -0.168, -0.224, 0.074, 1.185, -0.107, -0.087, -0.001, 1.185
 289160553, -0.078, -0.317, -0.048, 1.184, -0.168, -0.224, 0.074, 1.185
 289340114, -0.046, -0.38, 0.031, 1.182, -0.078, -0.317, -0.048, 1.184
 289561245, -0.093, -0.254, -0.013, 1.183, -0.046, -0.38, 0.031, 1.182
 289740061, -0.072, -0.236, -0.066, 1.184, -0.093, -0.254, -0.013, 1.183
 289940069, 0, -0.158, 0.025, 1.181, -0.072, -0.236, -0.066, 1.184
 290140579, -0.203, -0.034, 0.137, 1.18, 0, -0.158, 0.025, 1.181
 290340371, -0.204, 0.078, 0.08000001, 1.178, -0.203, -0.034, 0.137, 1.18
 290540348, -0.211, 0.15, -0.001, 1.179, -0.204, 0.078, 0.08000001, 1.178
 290740459, -0.19, 0.101, 0.026, 1.178, -0.211, 0.15, -0.001, 1.179
 290940359, -0.172, 0, -0.003, 1.178, -0.19, 0.101, 0.026, 1.178
 291140360, -0.117, 0.06, -0.002, 1.178, -0.172, 0, -0.003, 1.178
 291360827, -0.038, -0.121, 0.004, 1.176, -0.117, 0.06, -0.002, 1.178
 291540358, -0.134, -0.169, -0.021, 1.174, -0.038, -0.121, 0.004, 1.176
 291740350, -0.001, -0.156, -0.058, 1.174, -0.134, -0.169, -0.021, 1.174
 291940577, -0.019, -0.24, -0.041, 1.173, -0.001, -0.156, -0.058, 1.174
 292140358, 0.007, -0.12, -0.071, 1.172, -0.019, -0.24, -0.041, 1.173
 292340375, 0.022, -0.115, 0.001, 1.172, 0.007, -0.12, -0.071, 1.172
 292540557, -0.089, 0.026, -0.002, 1.173, 0.022, -0.115, 0.001, 1.172
 292740461, -0.013, -0.042, 0.033, 1.172, -0.089, 0.026, -0.002, 1.173
 292940360, -0.056, -0.003, -0.035, 1.171, -0.013, -0.042, 0.033, 1.172
 293140375, -0.058, 0.068, -0.01, 1.172, -0.056, -0.003, -0.035, 1.171
 293340378, -0.124, 0.071, 0.147, 1.173, -0.058, 0.068, -0.01, 1.172
 293540568, -0.214, 0.021, 0.101, 1.174, -0.124, 0.071, 0.147, 1.173
 293760807, -0.097, 0.056, -0.01, 1.171, -0.214, 0.021, 0.101, 1.174
 293960927, -0.083, 0.159, -0.035, 1.166, -0.097, 0.056, -0.01, 1.171
 294160780, -0.117, 0.104, 0.016, 1.161, -0.083, 0.159, -0.035, 1.166
 294340375, -0.119, 0.087, -0.014, 1.15, -0.117, 0.104, 0.016, 1.161
 294560793, -0.111, 0.04, 0.057, 1.143, -0.119, 0.087, -0.014, 1.15
 294761620, -0.017, 0.034, -0.097, 1.138, -0.111, 0.04, 0.057, 1.143
 294960790, -0.026, 0.022, -0.05, 1.132, -0.017, 0.034, -0.097, 1.138
 295140381, -0.036, -0.171, 0.029, 1.128, -0.026, 0.022, -0.05, 1.132
 295360935, -0.078, -0.234, -0.074, 1.122, -0.036, -0.171, 0.029, 1.128
 295560804, -0.101, -0.146, -0.06900001, 1.121, -0.078, -0.234, -0.074, 1.122
 295760802, 0.016, -0.21, -0.01, 1.122, -0.101, -0.146, -0.06900001, 1.121
 295961580, -0.124, -0.214, -0.022, 1.123, 0.016, -0.21, -0.01, 1.122
 296140355, -0.14, -0.058, -0.072, 1.124, -0.124, -0.214, -0.022, 1.123
 296340365, -0.186, -0.085, -0.022, 1.126, -0.14, -0.058, -0.072, 1.124
 296561172, -0.167, 0, -0.005, 1.128, -0.186, -0.085, -0.022, 1.126
 296761254, -0.192, -0.071, 0.027, 1.13, -0.167, 0, -0.005, 1.128
 296940789, -0.102, 0.014, -0.02, 1.132, -0.192, -0.071, 0.027, 1.13
 297140794, -0.104, -0.028, 0.001, 1.135, -0.102, 0.014, -0.02, 1.132
 297340966, -0.057, 0.006, 0, 1.138, -0.104, -0.028, 0.001, 1.135
 297540803, 0.042, -0.028, -0.06900001, 1.141, -0.057, 0.006, 0, 1.138
 297740949, 0.192, -0.002, -0.028, 1.143, 0.042, -0.028, -0.06900001, 1.141
 297940795, 0.213, -0.004, -0.079, 1.145, 0.192, -0.002, -0.028, 1.143
 298140809, 0.212, -0.02, -0.011, 1.147, 0.213, -0.004, -0.079, 1.145
 298340821, 0.307, -0.043, -0.029, 1.151, 0.212, -0.02, -0.011, 1.147
 298540801, 0.389, -0.046, 0.016, 1.155, 0.307, -0.043, -0.029, 1.151
 298761993, 0.495, -0.09900001, -0.05, 1.159, 0.389, -0.046, 0.016, 1.155
 298961332, 0.449, -0.04, -0.058, 1.162, 0.495, -0.09900001, -0.05, 1.159
 299161145, 0.539, -0.09, 0.09900001, 1.165, 0.449, -0.04, -0.058, 1.162
 299340820, 0.723, -0.059, 0.116, 1.168, 0.539, -0.09, 0.09900001, 1.165
 299540808, 0.872, 0.064, 0.042, 1.171, 0.723, -0.059, 0.116, 1.168
 299740803, 0.974, 0.066, 0.051, 1.174, 0.872, 0.064, 0.042, 1.171
 299960845, 1.106, -0.006, -0.034, 1.176, 0.974, 0.066, 0.051, 1.174
 300140807, 1.079, 0.103, 0.101, 1.18, 1.106, -0.006, -0.034, 1.176
 300360820, 1.26, -0.03, 0.029, 1.183, 1.079, 0.103, 0.101, 1.18
 300560807, 1.467, 0, 0.075, 1.187, 1.26, -0.03, 0.029, 1.183
 300740798, 1.528, -0.109, 0.02, 1.191, 1.467, 0, 0.075, 1.187
 300941013, 1.698, 0.044, -0.02, 1.196, 1.528, -0.109, 0.02, 1.191
 301140798, 1.879, -0.07, 0.148, 1.2, 1.698, 0.044, -0.02, 1.196
 301360938, 1.988, -0.18, 0.039, 1.204, 1.879, -0.07, 0.148, 1.2
 301540783, 2.094, -0.068, 0.058, 1.208, 1.988, -0.18, 0.039, 1.204
 301760820, 2.198, -0.06900001, 0.066, 1.212, 2.094, -0.068, 0.058, 1.208
 301960800, 2.323, -0.036, 0.155, 1.214, 2.198, -0.06900001, 0.066, 1.212
 302140992, 2.426, -0.175, 0.109, 1.217, 2.323, -0.036, 0.155, 1.214
 302341017, 2.583, -0.096, 0.071, 1.22, 2.426, -0.175, 0.109, 1.217
 302560949, 2.85, -0.144, 0.056, 1.222, 2.583, -0.096, 0.071, 1.22
 302760823, 2.892, -0.06900001, 0.172, 1.223, 2.85, -0.144, 0.056, 1.222
 302964844, 3.209, -0.083, 0.182, 1.222, 2.892, -0.06900001, 0.172, 1.223
 303164805, 3.355, -0.144, 0.316, 1.222, 3.209, -0.083, 0.182, 1.222
 303364844, 3.552, -0.089, 0.072, 1.219, 3.355, -0.144, 0.316, 1.222
 303564812, 3.76, -0.079, 0.333, 1.22, 3.552, -0.089, 0.072, 1.219
 303764873, 4.022, -0.082, 0.123, 1.215, 3.76, -0.079, 0.333, 1.22
 303964858, 4.13, -0.123, 0.21, 1.213, 4.022, -0.082, 0.123, 1.215
 304164829, 4.344, 0.052, 0.149, 1.215, 4.13, -0.123, 0.21, 1.213
 304343325, 4.552, 0.022, 0.102, 1.212, 4.344, 0.052, 0.149, 1.215
 304543304, 4.78, -0.236, 0.393, 1.211, 4.552, 0.022, 0.102, 1.212
 304743560, 5.095, 0.034, 0.252, 1.211, 4.78, -0.236, 0.393, 1.211
 304943314, 5.255, -0.239, 0.086, 1.211, 5.095, 0.034, 0.252, 1.211
 305164841, 5.559, -0.115, 0.265, 1.212, 5.255, -0.239, 0.086, 1.211
 305364867, 5.618, 0.026, 0.143, 1.208, 5.559, -0.115, 0.265, 1.212
 305543289, 5.924, -0.096, 0.203, 1.209, 5.618, 0.026, 0.143, 1.208
 305743291, 6.244, -0.05, 0.182, 1.209, 5.924, -0.096, 0.203, 1.209
 305943283, 6.424, 0.025, 0.055, 1.209, 6.244, -0.05, 0.182, 1.209
 306143291, 6.749001, -0.044, 0.09, 1.212, 6.424, 0.025, 0.055, 1.209
 306343319, 6.985, -0.019, 0.171, 1.212, 6.749001, -0.044, 0.09, 1.212
 306566004, 7.329, -0.007, 0.057, 1.211, 6.985, -0.019, 0.171, 1.212
 306745994, 7.544, 0.021, 0.004, 1.209, 7.329, -0.007, 0.057, 1.211
 306945853, 7.861001, 0.08000001, -0.053, 1.208, 7.544, 0.021, 0.004, 1.209
 307145851, 8.05, -0.015, 0.045, 1.206, 7.861001, 0.08000001, -0.053, 1.208
 307345998, 8.293, -0.032, -0.002, 1.203, 8.05, -0.015, 0.045, 1.206
 307545862, 8.411, 0.003, 0.037, 1.202, 8.293, -0.032, -0.002, 1.203
 307745853, 8.506001, 0.134, -0.227, 1.202, 8.411, 0.003, 0.037, 1.202
 307945873, 8.277, 0.3, -0.159, 1.2, 8.506001, 0.134, -0.227, 1.202
 308145856, 8.107, 0.588, -0.202, 1.198, 8.277, 0.3, -0.159, 1.2
 308346022, 7.823, 0.529, -0.249, 1.194, 8.107, 0.588, -0.202, 1.198
 308546001, 7.389, 0.823, -0.291, 1.194, 7.823, 0.529, -0.249, 1.194
 308766018, 7.042, 1.009, -0.134, 1.193, 7.389, 0.823, -0.291, 1.194
 308945852, 6.726, 1.181, -0.189, 1.194, 7.042, 1.009, -0.134, 1.193
 309166125, 6.263, 1.182, -0.157, 1.195, 6.726, 1.181, -0.189, 1.194
 309366227, 5.721, 1.418, -0.123, 1.189, 6.263, 1.182, -0.157, 1.195
 309547218, 5.122, 1.669, -0.248, 1.188, 5.721, 1.418, -0.123, 1.189
 309746474, 4.394, 1.751, -0.346, 1.189, 5.122, 1.669, -0.248, 1.188
 309946470, 3.738, 1.972, -0.386, 1.189, 4.394, 1.751, -0.346, 1.189
 310146249, 2.965, 2.118, -0.333, 1.191, 3.738, 1.972, -0.386, 1.189
 310346580, 1.652, 2.295, -1.424, 1.194, 2.965, 2.118, -0.333, 1.191
 310565974, -0.19, 2.318, -3.666, 1.197, 1.652, 2.295, -1.424, 1.194
 310746995, -1.602, 2.344, -5.551, 1.201, -0.19, 2.318, -3.666, 1.197
 310946243, -1.903, 2.374, -6.738, 1.204, -1.602, 2.344, -5.551, 1.201
 311146260, -1.461, 2.521, -7.767, 1.206, -1.903, 2.374, -6.738, 1.204
 311365982, -0.659, 2.478, -8.496, 1.198, -1.461, 2.521, -7.767, 1.206
 311546463, 0.344, 2.569, -8.893001, 1.193, -0.659, 2.478, -8.496, 1.198
 311746248, 0.9960001, 2.354, -8.522, 1.187, 0.344, 2.569, -8.893001, 1.193
 311947018, 1.327, 2.216, -7.596, 1.182, 0.9960001, 2.354, -8.522, 1.187
 312146421, 1.476, 2.032, -6.397, 1.175, 1.327, 2.216, -7.596, 1.182
 312365984, 1.715, 1.972, -5.554, 1.169, 1.476, 2.032, -6.397, 1.175
 312565999, 1.877, 2.156, -4.752, 1.167, 1.715, 1.972, -5.554, 1.169
 312746235, 1.781, 1.995, -3.861, 1.166, 1.877, 2.156, -4.752, 1.167
 312946249, 1.703, 1.859, -3.117, 1.169, 1.781, 1.995, -3.861, 1.166
 313146972, 1.514, 1.826, -2.317, 1.171, 1.703, 1.859, -3.117, 1.169
 313347017, 1.308, 1.415, -1.572, 1.168, 1.514, 1.826, -2.317, 1.171
 313546309, 1.047, 1.014, -1.014, 1.166, 1.308, 1.415, -1.572, 1.168
 313746263, 0.558, 0.548, -0.352, 1.165, 1.047, 1.014, -1.014, 1.166
 313946372, -0.016, 0.24, 0.098, 1.164, 0.558, 0.548, -0.352, 1.165
 314146265, -0.617, -0.09900001, 0.568, 1.164, -0.016, 0.24, 0.098, 1.164
 314347003, -1.02, -0.129, 1.266, 1.166, -0.617, -0.09900001, 0.568, 1.164
 314546983, -1.473, -0.413, 1.763, 1.171, -1.02, -0.129, 1.266, 1.166
 314746255, -1.863, -0.282, 2.258, 1.178, -1.473, -0.413, 1.763, 1.171
 314946251, -2.062, -0.219, 2.583, 1.183, -1.863, -0.282, 2.258, 1.178
 315146240, -2.336, -0.185, 3.067, 1.188, -2.062, -0.219, 2.583, 1.183
 315346265, -2.549, -0.024, 3.305, 1.192, -2.336, -0.185, 3.067, 1.188
 315546246, -2.608, -0.016, 3.636, 1.196, -2.549, -0.024, 3.305, 1.192
 315826017, -2.743, 0.028, 4.079, 1.559, -2.608, -0.016, 3.636, 1.196
 315946237, -2.81, -0.057, 4.52, 1.561, -2.743, 0.028, 4.079, 1.559
 316146261, -2.975, -0.367, 4.665, 1.559, -2.81, -0.057, 4.52, 1.561
 316346263, -3.183, -0.478, 4.951, 1.54, -2.975, -0.367, 4.665, 1.559
 316546255, -3.324, -0.487, 4.998, 1.538, -3.183, -0.478, 4.951, 1.54
 316765998, -3.495, -0.281, 5.028, 1.526, -3.324, -0.487, 4.998, 1.538
 316965999, -3.695, -0.027, 5.224, 1.51, -3.495, -0.281, 5.028, 1.526
 317166131, -3.689, 0.224, 5.238, 1.508, -3.695, -0.027, 5.224, 1.51
 317346287, -4.011, 0.321, 5.113, 1.506, -3.689, 0.224, 5.238, 1.508
 317546462, -4.083, 0.292, 4.683, 1.503, -4.011, 0.321, 5.113, 1.506
 317805996, -4.219, 0.302, 4.009, 1.499, -4.083, 0.292, 4.683, 1.503
 317946240, -4.402, 0.285, 3.388, 1.496, -4.219, 0.302, 4.009, 1.499
 318146998, -4.432, 0.327, 2.372, 1.493, -4.402, 0.285, 3.388, 1.496
 318347012, -4.598, 0.625, 1.238, 1.488, -4.432, 0.327, 2.372, 1.493
 318565988, -4.791, 0.883, 0.131, 1.484, -4.598, 0.625, 1.238, 1.488
 318746271, -4.967, 0.7270001, -0.825, 1.479, -4.791, 0.883, 0.131, 1.484
 318946251, -5.406, 0.536, -1.825, 1.474, -4.967, 0.7270001, -0.825, 1.479
 319166017, -5.734, -0.227, -2.576, 1.468, -5.406, 0.536, -1.825, 1.474
 319365974, -6.549, -0.932, -3.165, 1.462, -5.734, -0.227, -2.576, 1.468
 319547053, -7.121, -1.699, -3.661, 1.458, -6.549, -0.932, -3.165, 1.462
 319746296, -7.729001, -2.15, -3.981, 1.452, -7.121, -1.699, -3.661, 1.458
 319946498, -8.096001, -2.319, -4.143, 1.447, -7.729001, -2.15, -3.981, 1.452
 320166018, -8.071, -2.401, -4.45, 1.444, -8.096001, -2.319, -4.143, 1.447
 320346322, -7.722001, -2.196, -4.384, 1.441, -8.071, -2.401, -4.45, 1.444
 320526254, -7.087, -1.782, -4.153, 1.44, -7.722001, -2.196, -4.384, 1.441
 320747032, -6.716001, -1.815, -3.68, 1.423, -7.087, -1.782, -4.153, 1.44
 320946527, -6.238, -1.602, -3.045, 1.407, -6.716001, -1.815, -3.68, 1.423
 321146498, -5.835001, -1.511, -2.553, 1.388, -6.238, -1.602, -3.045, 1.407
 321346314, -5.422, -1.131, -2.093, 1.373, -5.835001, -1.511, -2.553, 1.388
 321546300, -5.408, -1.211, -0.86, 1.371, -5.422, -1.131, -2.093, 1.373
 321746332, -4.31, -0.891, -0.978, 1.366, -5.408, -1.211, -0.86, 1.371
 321966022, -4.062, -0.544, -0.738, 1.36, -4.31, -0.891, -0.978, 1.366
 322166025, -3.384, -0.193, -0.47, 1.352, -4.062, -0.544, -0.738, 1.36
 322346334, -2.734, 0.162, -0.605, 1.339, -3.384, -0.193, -0.47, 1.352
 322566048, -2.318, 0.312, -0.634, 1.335, -2.734, 0.162, -0.605, 1.339
 322746313, -1.741, 0.716, -0.565, 1.329, -2.318, 0.312, -0.634, 1.335
 322946513, -1.345, 0.762, -0.708, 1.317, -1.741, 0.716, -0.565, 1.329
 323147053, -1.054, 0.686, -0.474, 1.306, -1.345, 0.762, -0.708, 1.317
 323347081, -0.974, 0.7220001, -0.019, 1.295, -1.054, 0.686, -0.474, 1.306
 323546290, -1.111, 0.249, 0.409, 1.292, -0.974, 0.7220001, -0.019, 1.295
 323746281, -0.697, -0.017, 0.522, 1.29, -1.111, 0.249, 0.409, 1.292
 323946284, -0.495, 0.074, 1.001, 1.288, -0.697, -0.017, 0.522, 1.29
 324146502, -0.5100001, -0.115, 1.228, 1.287, -0.495, 0.074, 1.001, 1.288
 324346311, -0.498, -0.157, 1.267, 1.283, -0.5100001, -0.115, 1.228, 1.287
 324566096, -0.376, -0.162, 1.481, 1.282, -0.498, -0.157, 1.267, 1.283
 324746515, -0.18, -0.094, 1.516, 1.281, -0.376, -0.162, 1.481, 1.282
 324946305, -0.078, 0.018, 1.65, 1.28, -0.18, -0.094, 1.516, 1.281
 325166003, -0.094, 0.213, 1.874, 1.279, -0.078, 0.018, 1.65, 1.28
 325346319, 0.083, 0.291, 2.022, 1.279, -0.094, 0.213, 1.874, 1.279
 325546318, 0.24, 0.354, 2.146, 1.278, 0.083, 0.291, 2.022, 1.279
 325746052, 0.182, 0.476, 2.397, 1.278, 0.24, 0.354, 2.146, 1.278
 325946059, 0.053, 0.691, 2.703, 1.278, 0.182, 0.476, 2.397, 1.278
 326146047, -0.21, 0.278, 2.531, 1.279, 0.053, 0.691, 2.703, 1.278
 326346087, -0.47, 0.174, 2.619, 1.277, -0.21, 0.278, 2.531, 1.279
 326566036, -0.648, -0.319, 2.777, 1.274, -0.47, 0.174, 2.619, 1.277
 326746058, -0.358, -0.6160001, 2.771, 1.272, -0.648, -0.319, 2.777, 1.274
 326946015, -0.235, -0.351, 2.82, 1.271, -0.358, -0.6160001, 2.771, 1.272
 327146021, 0.264, -0.292, 2.848, 1.272, -0.235, -0.351, 2.82, 1.271
 327346083, 0.874, -0.001, 2.611, 1.27, 0.264, -0.292, 2.848, 1.272
 327546046, 1.025, 0.217, 2.806, 1.27, 0.874, -0.001, 2.611, 1.27
 327767678, 1.066, 0.127, 2.681, 1.271, 1.025, 0.217, 2.806, 1.27
 327967630, 0.8420001, 0.397, 2.796, 1.27, 1.066, 0.127, 2.681, 1.271
 328146053, 0.502, 0.416, 3.151, 1.271, 0.8420001, 0.397, 2.796, 1.27
 328346097, 0.415, -0.272, 3.157, 1.271, 0.502, 0.416, 3.151, 1.271
 328567635, 0.223, -0.415, 2.969, 1.267, 0.415, -0.272, 3.157, 1.271
 328767782, 0.332, -0.534, 2.989, 1.266, 0.223, -0.415, 2.969, 1.267
 328967638, 0.59, -0.468, 2.602, 1.266, 0.332, -0.534, 2.989, 1.266
 329167660, 0.883, 0.245, 2.66, 1.266, 0.59, -0.468, 2.602, 1.266
 329367692, 1.138, 0.418, 2.535, 1.266, 0.883, 0.245, 2.66, 1.266
 329546050, 1.351, 0.47, 2.524, 1.271, 1.138, 0.418, 2.535, 1.266
 329746074, 1.355, 0.591, 2.606, 1.274, 1.351, 0.47, 2.524, 1.271
 329946062, 1.131, 0.597, 2.638, 1.274, 1.355, 0.591, 2.606, 1.274
 330146233, 0.878, 0.664, 2.794, 1.274, 1.131, 0.597, 2.638, 1.274
 330346080, 0.583, 0.7920001, 2.777, 1.272, 0.878, 0.664, 2.794, 1.274
 330567665, 0.193, 1.052, 2.531, 1.269, 0.583, 0.7920001, 2.777, 1.272
 330746034, -0.052, 1.285, 2.363, 1.261, 0.193, 1.052, 2.531, 1.269
 330946055, 0.041, 1.335, 2.291, 1.254, -0.052, 1.285, 2.363, 1.261
 331167621, 0.368, 1.357, 2.413, 1.251, 0.041, 1.335, 2.291, 1.254
 331367677, 0.798, 1.125, 2.372, 1.242, 0.368, 1.357, 2.413, 1.251
 331567674, 1.605, 1.044, 2.592, 1.237, 0.798, 1.125, 2.372, 1.242
 331767855, 0.131, 0.426, 1.517, 1.229, 1.605, 1.044, 2.592, 1.237
 331967660, 0.169, 0.395, -0.039, 1.227, 0.131, 0.426, 1.517, 1.229
 332167652, 0.16, 0.192, -0.027, 1.224, 0.169, 0.395, -0.039, 1.227
 332367680, -0.171, -0.056, -0.054, 1.219, 0.16, 0.192, -0.027, 1.224
 332567634, 0.001, -0.087, -0.01, 1.211, -0.171, -0.056, -0.054, 1.219
 332746043, 0.023, 0.029, -0.086, 1.201, 0.001, -0.087, -0.01, 1.211
 332946044, -0.008, 0.017, -0.013, 1.192, 0.023, 0.029, -0.086, 1.201
 333146050, 0.019, 0.001, 0.017, 1.184, -0.008, 0.017, -0.013, 1.192
 333346064, 0.06, 0, -0.052, 1.177, 0.019, 0.001, 0.017, 1.184
 333546239, 0.015, 0, 0.025, 1.17, 0.06, 0, -0.052, 1.177
 333746072, -0.056, -0.026, 0.025, 1.163, 0.015, 0, 0.025, 1.17
 333967767, -0.002, -0.009000001, -0.026, 1.157, -0.056, -0.026, 0.025, 1.163
 334167633, 0.064, -0.015, -0.006, 1.15, -0.002, -0.009000001, -0.026, 1.157
 334346043, 0.01, 0.01, -0.021, 1.144, 0.064, -0.015, -0.006, 1.15
 334567617, 0.002, -0.008, 0.09, 1.137, 0.01, 0.01, -0.021, 1.144
 334767650, 0.014, 0.035, 0.041, 1.131, 0.002, -0.008, 0.09, 1.137
 334967600, -0.019, 0.021, -0.044, 1.126, 0.014, 0.035, 0.041, 1.131
 335167602, -0.019, 0.001, 0.017, 1.121, -0.019, 0.021, -0.044, 1.126
 335367778, -0.041, 0.021, -0.024, 1.115, -0.019, 0.001, 0.017, 1.121
 335567589, -0.013, -0.044, 0.021, 1.11, -0.041, 0.021, -0.024, 1.115
 335766599, 0.026, -0.018, -0.041, 1.104, -0.013, -0.044, 0.021, 1.11
 335966853, -0.009000001, -0.001, -0.053, 1.098, 0.026, -0.018, -0.041, 1.104
 336145915, 0.026, -0.021, 0.013, 1.093, -0.009000001, -0.001, -0.053, 1.098
 336366630, 0.02, -0.019, -0.032, 1.088, 0.026, -0.021, 0.013, 1.093
 336566575, 0.007, 0.003, -0.003, 1.083, 0.02, -0.019, -0.032, 1.088
 336766636, -0.022, 0, -0.022, 1.079, 0.007, 0.003, -0.003, 1.083
 336966591, 0.003, -0.032, 0.013, 1.075, -0.022, 0, -0.022, 1.079
 337166886, -0.023, 0.022, -0.02, 1.071, 0.003, -0.032, 0.013, 1.075
 337366618, 0.039, -0.01, 0.006, 1.067, -0.023, 0.022, -0.02, 1.071
 337545940, -0.001, -0.013, 0.028, 1.063, 0.039, -0.01, 0.006, 1.067
 337766614, 0.022, -0.03, -0.03, 1.06, -0.001, -0.013, 0.028, 1.063
 337966591, 0, -0.006, 0.037, 1.056, 0.022, -0.03, -0.03, 1.06
 338166705, -0.021, 0.016, -0.025, 1.054, 0, -0.006, 0.037, 1.056
 338366623, -0.025, 0.005, -0.007, 1.051, -0.021, 0.016, -0.025, 1.054
 338566590, 0.029, -0.039, 0.03, 1.048, -0.025, 0.005, -0.007, 1.051
 338745946, 0.014, -0.024, 0.04, 1.045, 0.029, -0.039, 0.03, 1.048
 338966748, -0.004, -0.01, 0.028, 1.042, 0.014, -0.024, 0.04, 1.045
 339166595, -0.028, -0.002, -0.061, 1.039, -0.004, -0.01, 0.028, 1.042
 339366612, -0.005, -0.01, 0.068, 1.036, -0.028, -0.002, -0.061, 1.039
 339545898, -0.008, 0.009000001, 0.018, 1.033, -0.005, -0.01, 0.068, 1.036
 339745903, -0.01, 0.028, 0.024, 1.031, -0.008, 0.009000001, 0.018, 1.033
 339945913, 0.011, -0.02, -0.054, 1.028, -0.01, 0.028, 0.024, 1.031
 340166584, 0.003, 0.023, -0.028, 1.026, 0.011, -0.02, -0.054, 1.028
 340366609, 0.008, 0.046, 0.035, 1.023, 0.003, 0.023, -0.028, 1.026
 340567031, -0.021, 0.009000001, 0.027, 1.021, 0.008, 0.046, 0.035, 1.023
 340767249, 0.001, 0.003, 0.032, 1.019, -0.021, 0.009000001, 0.027, 1.021
 340966604, -0.023, -0.034, -0.057, 1.017, 0.001, 0.003, 0.032, 1.019
 341166604, 0.004, 0.01, -0.052, 1.015, -0.023, -0.034, -0.057, 1.017
 341345949, -0.004, 0.003, 0.045, 1.013, 0.004, 0.01, -0.052, 1.015
 341566569, 0.033, -0.023, -0.004, 1.011, -0.004, 0.003, 0.045, 1.013
 341766621, -0.024, -0.009000001, 0.034, 1.009, 0.033, -0.023, -0.004, 1.011
 341966601, -0.007, 0.007, 0.044, 1.006, -0.024, -0.009000001, 0.034, 1.009
 342145896, 0.028, 0.021, 0.002, 1.004, -0.007, 0.007, 0.044, 1.006
 342366753, 0.019, 0.009000001, -0.044, 1.001, 0.028, 0.021, 0.002, 1.004
 342585925, -0.05, 0.028, 0.008, 0.998, 0.019, 0.009000001, -0.044, 1.001
 342766599, -0.057, 0.02, 0.034, 0.9960001, -0.05, 0.028, 0.008, 0.998
 342966588, 0.016, -0.064, 0.014, 0.994, -0.057, 0.02, 0.034, 0.9960001
 343166604, -0.001, -0.004, -0.034, 0.9910001, 0.016, -0.064, 0.014, 0.994
 343366615, 0.035, 0.029, -0.033, 0.989, -0.001, -0.004, -0.034, 0.9910001
 343567038, -0.032, 0.015, -0.034, 0.987, 0.035, 0.029, -0.033, 0.989
 343766617, 0.016, 0.016, -0.025, 0.9850001, -0.032, 0.015, -0.034, 0.987
 343945934, -0.009000001, -0.017, -0.085, 0.984, 0.016, 0.016, -0.025, 0.9850001
 344166598, -0.002, 0.008, -0.047, 0.9820001, -0.009000001, -0.017, -0.085, 0.984
 344366772, -0.01, 0.033, -0.07600001, 0.9810001, -0.002, 0.008, -0.047, 0.9820001
 344566604, -0.004, 0.005, 0.037, 0.98, -0.01, 0.033, -0.07600001, 0.9810001
 344745898, -0.004, -0.009000001, 0.044, 0.978, -0.004, 0.005, 0.037, 0.98
 344945896, -0.028, -0.012, 0.024, 0.9760001, -0.004, -0.009000001, 0.044, 0.978
 345145947, 0.005, 0.017, 0.02, 0.974, -0.028, -0.012, 0.024, 0.9760001
 345366616, 0.002, 0.008, -0.04, 0.9720001, 0.005, 0.017, 0.02, 0.974
 345545916, -0.032, 0.028, -0.063, 0.97, 0.002, 0.008, -0.04, 0.9720001
 345766632, -0.024, -0.008, 0.041, 0.9680001, -0.032, 0.028, -0.063, 0.97
 345966607, 0.021, -0.032, 0.062, 0.9670001, -0.024, -0.008, 0.041, 0.9680001
 346166737, -0.054, -0.015, -0.071, 0.965, 0.021, -0.032, 0.062, 0.9670001
 346366645, -0.049, 0.004, -0.061, 0.9630001, -0.054, -0.015, -0.071, 0.965
 346545926, 0.012, 0.02, -0.044, 0.9620001, -0.049, 0.004, -0.061, 0.9630001
 346766646, -0.012, -0.015, 0.059, 0.961, 0.012, 0.02, -0.044, 0.9620001
 346966587, -0.034, 0.023, -0.038, 0.9590001, -0.012, -0.015, 0.059, 0.961
 347166596, 0.041, -0.002, 0.06, 0.9580001, -0.034, 0.023, -0.038, 0.9590001
 347366625, -0.007, -0.02, 0.02, 0.957, 0.041, -0.002, 0.06, 0.9580001
 347545938, -0.009000001, -0.002, -0.035, 0.957, -0.007, -0.02, 0.02, 0.957
 347745928, 0, -0.027, 0.033, 0.955, -0.009000001, -0.002, -0.035, 0.957
 347945936, -0.046, -0.043, 0.002, 0.9540001, 0, -0.027, 0.033, 0.955
 348145959, 0.016, 0.014, 0.007, 0.9530001, -0.046, -0.043, 0.002, 0.9540001
 348345916, 0.002, -0.024, 0.005, 0.952, 0.016, 0.014, 0.007, 0.9530001
 348585917, 0.001, 0.002, 0.09100001, 0.951, 0.002, -0.024, 0.005, 0.952
 348766620, 0.038, -0.012, 0.058, 0.95, 0.001, 0.002, 0.09100001, 0.951
 348966585, 0.019, -0.008, -0.161, 0.9490001, 0.038, -0.012, 0.058, 0.95
 349145896, 0.049, -0.009000001, -0.036, 0.9480001, 0.019, -0.008, -0.161, 0.9490001
 349366601, -0.014, -0.004, 0.004, 0.947, 0.049, -0.009000001, -0.036, 0.9480001
 349566609, -0.014, 0.026, -0.053, 0.947, -0.014, -0.004, 0.004, 0.947
 349766880, -0.019, -0.024, -0.002, 0.946, -0.014, 0.026, -0.053, 0.947
 349966633, 0.008, 0.056, 0.042, 0.9450001, -0.019, -0.024, -0.002, 0.946
 350165932, 0.011, 0.036, 0.035, 0.9440001, 0.008, 0.056, 0.042, 0.9450001
 350345998, -0.006, -0.015, -0.008, 0.9440001, 0.011, 0.036, 0.035, 0.9440001
 350565938, -0.019, -0.012, -0.152, 0.943, -0.006, -0.015, -0.008, 0.9440001
