TimeUS,CGpN,CGpE,CGpD,CGpe,PGpN,PGpE,PGpD,PGpe
 222311188, 0.042, 0.039, -0.032, 1.222, 0.026, -0.052, -0.06900001, 1.221
 222511163, -0.012, 0.001, 0.005, 1.223, 0.042, 0.039, -0.032, 1.222
 222711166, -0.004, -0.002, 0.016, 1.224, -0.012, 0.001, 0.005, 1.223
 222911145, 0.02, -0.034, 0.019, 1.225, -0.004, -0.002, 0.016, 1.224
 223111168, -0.02, 0.001, -0.055, 1.224, 0.02, -0.034, 0.019, 1.225
 223311185, 0.022, 0.041, -0.025, 1.224, -0.02, 0.001, -0.055, 1.224
 223511424, 0.005, 0.047, -0.016, 1.224, 0.022, 0.041, -0.025, 1.224
 223711176, 0.04, -0.021, -0.031, 1.224, 0.005, 0.047, -0.016, 1.224
 223911177, -0.042, -0.018, -0.014, 1.224, 0.04, -0.021, -0.031, 1.224
 224111140, -0.014, 0.034, -0.012, 1.224, -0.042, -0.018, -0.014, 1.224
 224291647, -0.054, 0.045, 0.011, 1.223, -0.014, 0.034, -0.012, 1.224
 224511137, 0.033, 0.022, 0.009000001, 1.223, -0.054, 0.045, 0.011, 1.223
 224711178, -0.018, 0.033, -0.024, 1.222, 0.033, 0.022, 0.009000001, 1.223
 224911187, 0.005, 0.014, 0.017, 1.222, -0.018, 0.033, -0.024, 1.222
 225111178, -0.023, 0.029, 0.007, 1.221, 0.005, 0.014, 0.017, 1.222
 225311427, -0.031, -0.043, -0.086, 1.221, -0.023, 0.029, 0.007, 1.221
 225531200, 0.022, 0.054, -0.054, 1.22, -0.031, -0.043, -0.086, 1.221
 225711166, -0.033, -0.012, -0.055, 1.219, 0.022, 0.054, -0.054, 1.22
 225911183, -0.008, -0.039, 0.027, 1.219, -0.033, -0.012, -0.055, 1.219
 226111184, -0.047, -0.017, -0.087, 1.219, -0.008, -0.039, 0.027, 1.219
 226311179, 0.018, -0.052, -0.032, 1.218, -0.047, -0.017, -0.087, 1.219
 226511171, 0.053, -0.008, -0.093, 1.218, 0.018, -0.052, -0.032, 1.218
 226711189, 0.013, 0.008, 0.035, 1.218, 0.053, -0.008, -0.093, 1.218
 226891588, 0.015, 0.018, -0.043, 1.218, 0.013, 0.008, 0.035, 1.218
 227111418, -0.019, -0.047, 0.011, 1.218, 0.015, 0.018, -0.043, 1.218
 227311207, -0.024, -0.01, 0.035, 1.218, -0.019, -0.047, 0.011, 1.218
 227511184, 0.014, -0.017, 0.047, 1.218, -0.024, -0.01, 0.035, 1.218
 227711177, 0.03, 0.033, -0.002, 1.218, 0.014, -0.017, 0.047, 1.218
 227911173, -0.021, -0.013, 0.046, 1.218, 0.03, 0.033, -0.002, 1.218
 228111184, -0.045, 0.094, 0.017, 1.218, -0.021, -0.013, 0.046, 1.218
 228311194, 0.025, -0.019, 0.048, 1.217, -0.045, 0.094, 0.017, 1.218
 228511164, -0.056, 0.002, 0.016, 1.217, 0.025, -0.019, 0.048, 1.217
 228711186, -0.04, 0.048, -0.035, 1.216, -0.056, 0.002, 0.016, 1.217
 228911400, -0.06, -0.003, 0.018, 1.216, -0.04, 0.048, -0.035, 1.216
 229111188, -0.001, 0.013, -0.03, 1.216, -0.06, -0.003, 0.018, 1.216
 229311238, -0.03, -0.022, -0.058, 1.216, -0.001, 0.013, -0.03, 1.216
 229491642, -0.007, -0.024, -0.017, 1.215, -0.03, -0.022, -0.058, 1.216
 229711462, -0.009000001, 0.072, -0.061, 1.215, -0.007, -0.024, -0.017, 1.215
 229911191, -0.009000001, 0.038, -0.01, 1.214, -0.009000001, 0.072, -0.061, 1.215
 230111214, 0.038, -0.027, 0.026, 1.214, -0.009000001, 0.038, -0.01, 1.214
 230311222, -0.013, -0.061, 0.007, 1.214, 0.038, -0.027, 0.026, 1.214
 230511214, -0.021, -0.027, -0.062, 1.214, -0.013, -0.061, 0.007, 1.214
 230711450, -0.033, -0.109, -0.071, 1.213, -0.021, -0.027, -0.062, 1.214
 230911207, -0.024, -0.263, -0.277, 1.214, -0.033, -0.109, -0.071, 1.213
 231111224, -0.06500001, -0.281, -0.475, 1.213, -0.024, -0.263, -0.277, 1.214
 231311229, -0.137, -0.61, -0.201, 1.21, -0.06500001, -0.281, -0.475, 1.213
 231511228, -0.344, -0.145, -0.659, 1.211, -0.137, -0.61, -0.201, 1.21
 231711214, -0.416, -0.25, -0.776, 1.21, -0.344, -0.145, -0.659, 1.211
 231911217, -0.631, -0.44, -0.679, 1.207, -0.416, -0.25, -0.776, 1.21
 232091668, -1.001, -0.372, -0.98, 1.208, -0.631, -0.44, -0.679, 1.207
 232311237, -1.198, -0.393, -0.77, 1.204, -1.001, -0.372, -0.98, 1.208
 232511449, -1.308, -0.348, -0.663, 1.198, -1.198, -0.393, -0.77, 1.204
 232711194, -1.107, -0.431, -0.527, 1.191, -1.308, -0.348, -0.663, 1.198
 232911206, -0.712, -0.532, -0.605, 1.182, -1.107, -0.431, -0.527, 1.191
 233111199, -0.655, -0.8340001, -0.637, 1.18, -0.712, -0.532, -0.605, 1.182
 233311226, -0.9490001, -0.7320001, -0.4, 1.176, -0.655, -0.8340001, -0.637, 1.18
 233511202, -0.553, -1.092, -0.475, 1.176, -0.9490001, -0.7320001, -0.4, 1.176
 233711216, -0.559, -0.998, -0.427, 1.173, -0.553, -1.092, -0.475, 1.176
 233911464, -0.809, -1.065, -0.8290001, 1.166, -0.559, -0.998, -0.427, 1.173
 234111413, -0.96, -1.516, -0.688, 1.165, -0.809, -1.065, -0.8290001, 1.166
 234311565, -0.723, -1.727, -0.641, 1.162, -0.96, -1.516, -0.688, 1.165
 234511406, -0.522, -1.575, -0.62, 1.16, -0.723, -1.727, -0.641, 1.162
 234692853, -0.604, -1.727, -0.712, 1.156, -0.522, -1.575, -0.62, 1.16
 234915888, -0.632, -1.845, -0.378, 1.153, -0.604, -1.727, -0.712, 1.156
 235115871, -0.419, -1.659, -0.439, 1.151, -0.632, -1.845, -0.378, 1.153
 235295173, -0.595, -1.438, -0.455, 1.144, -0.419, -1.659, -0.439, 1.151
 235515510, -0.274, -1.049, -0.456, 1.14, -0.595, -1.438, -0.455, 1.144
 235695622, -0.328, -0.809, -0.789, 1.14, -0.274, -1.049, -0.456, 1.14
 235896485, -0.121, -0.641, -0.756, 1.137, -0.328, -0.809, -0.789, 1.14
 236096489, 0.027, -0.407, -0.6720001, 1.136, -0.121, -0.641, -0.756, 1.137
 236296501, 0.122, -0.422, -0.784, 1.133, 0.027, -0.407, -0.6720001, 1.136
 236496539, 0.234, -0.272, -0.66, 1.131, 0.122, -0.422, -0.784, 1.133
 236717039, -0.07600001, -0.072, -0.407, 1.128, 0.234, -0.272, -0.66, 1.131
 236897053, 0.303, -0.143, -0.738, 1.122, -0.07600001, -0.072, -0.407, 1.128
 237097053, 0.369, 0.066, -0.715, 1.121, 0.303, -0.143, -0.738, 1.122
 237297090, 0.18, 0.64, -0.631, 1.12, 0.369, 0.066, -0.715, 1.121
 237520328, 0.35, 0.267, -0.451, 1.117, 0.18, 0.64, -0.631, 1.12
 237700957, 0.198, 0.507, -0.413, 1.114, 0.35, 0.267, -0.451, 1.117
 237901583, 0.194, 0.614, -0.165, 1.11, 0.198, 0.507, -0.413, 1.114
 238101515, 0.233, 0.647, -0.571, 1.108, 0.194, 0.614, -0.165, 1.11
 238301529, 0.417, 0.7500001, -0.432, 1.105, 0.233, 0.647, -0.571, 1.108
 238501561, 0.508, 0.608, -0.312, 1.102, 0.417, 0.7500001, -0.432, 1.105
 238701703, 0.457, 0.259, -0.118, 1.1, 0.508, 0.608, -0.312, 1.102
 238901607, 0.447, 0.175, -0.006, 1.097, 0.457, 0.259, -0.118, 1.1
 239101595, 0.391, 0.049, 0.136, 1.095, 0.447, 0.175, -0.006, 1.097
 239301622, 0.569, -0.068, 0.015, 1.093, 0.391, 0.049, 0.136, 1.095
 239502161, 0.491, -0.198, 0.151, 1.091, 0.569, -0.068, 0.015, 1.093
 239702269, 0.338, -0.227, 0.075, 1.09, 0.491, -0.198, 0.151, 1.091
 239902455, 0.133, -0.336, -0.041, 1.087, 0.338, -0.227, 0.075, 1.09
 240102283, -0.135, -0.417, -0.125, 1.085, 0.133, -0.336, -0.041, 1.087
 240302296, -0.457, -0.356, -0.08400001, 1.082, -0.135, -0.417, -0.125, 1.085
 240502694, -0.708, -0.381, -0.2, 1.079, -0.457, -0.356, -0.08400001, 1.082
 240702553, -1.037, -0.5700001, -0.03, 1.076, -0.708, -0.381, -0.2, 1.079
 240902587, -1.364, -0.553, -0.202, 1.074, -1.037, -0.5700001, -0.03, 1.076
 241102548, -1.553, -0.8610001, -0.068, 1.072, -1.364, -0.553, -0.202, 1.074
 241302546, -1.847, -0.8790001, -0.024, 1.069, -1.553, -0.8610001, -0.068, 1.072
 241503144, -2.055, -0.957, 0.038, 1.066, -1.847, -0.8790001, -0.024, 1.069
 241703719, -2.196, -0.932, 0.056, 1.064, -2.055, -0.957, 0.038, 1.066
 241904093, -2.293, -0.831, -0.086, 1.061, -2.196, -0.932, 0.056, 1.064
 242104117, -2.364, -0.756, -0.042, 1.062, -2.293, -0.831, -0.086, 1.061
 242304740, -2.459, -0.7130001, 0.016, 1.064, -2.364, -0.756, -0.042, 1.062
 242504590, -2.508, -0.552, 0.022, 1.065, -2.459, -0.7130001, 0.016, 1.064
 242705167, -2.54, -0.439, -0.115, 1.067, -2.508, -0.552, 0.022, 1.065
 242910945, -2.556, -0.487, -0.109, 1.067, -2.54, -0.439, -0.115, 1.067
 243110919, -2.467, -0.506, -0.209, 1.07, -2.556, -0.487, -0.109, 1.067
 243310952, -2.424, -0.534, -0.036, 1.069, -2.467, -0.506, -0.209, 1.07
 243510913, -2.265, -0.58, -0.165, 1.069, -2.424, -0.534, -0.036, 1.069
 243711615, -2.338, -0.442, 0.009000001, 1.065, -2.265, -0.58, -0.165, 1.069
 243892573, -2.203, -0.818, 0, 1.064, -2.338, -0.442, 0.009000001, 1.065
 244112564, -2.042, -0.892, 0.043, 1.066, -2.203, -0.818, 0, 1.064
 244315216, -1.875, -1.193, -0.044, 1.069, -2.042, -0.892, 0.043, 1.066
 244515076, -1.737, -1.134, -0.098, 1.071, -1.875, -1.193, -0.044, 1.069
 244715286, -1.515, -1.451, -0.123, 1.074, -1.737, -1.134, -0.098, 1.071
 244915070, -1.351, -1.615, -0.172, 1.074, -1.515, -1.451, -0.123, 1.074
 245095422, -1.157, -1.756, -0.038, 1.073, -1.351, -1.615, -0.172, 1.074
 245315227, -1.178, -1.915, -0.12, 1.071, -1.157, -1.756, -0.038, 1.073
 245515454, -1.123, -2.17, -0.09100001, 1.071, -1.178, -1.915, -0.12, 1.071
 245700452, -1.118, -2.279, -0.191, 1.07, -1.123, -2.17, -0.09100001, 1.071
 245900471, -1.132, -2.322, -0.109, 1.067, -1.118, -2.279, -0.191, 1.07
 246100577, -1.15, -2.355, -0.089, 1.062, -1.132, -2.322, -0.109, 1.067
 246300956, -1.192, -2.342, -0.177, 1.051, -1.15, -2.355, -0.089, 1.062
 246501610, -1.289, -2.22, -0.165, 1.044, -1.192, -2.342, -0.177, 1.051
 246701635, -1.259, -2.193, 0.023, 1.034, -1.289, -2.22, -0.165, 1.044
 246901604, -1.269, -2.162, -0.08400001, 1.026, -1.259, -2.193, 0.023, 1.034
 247101614, -1.107, -2.228, 0.058, 1.02, -1.269, -2.162, -0.08400001, 1.026
 247302387, -0.979, -2.239, 0.038, 1.015, -1.107, -2.228, 0.058, 1.02
 247522888, -0.9590001, -2.302, 0.019, 1.013, -0.979, -2.239, 0.038, 1.015
 247705696, -0.9260001, -2.184, 0.072, 1.013, -0.9590001, -2.302, 0.019, 1.013
 247906136, -0.929, -2.169, -0.015, 1.014, -0.9260001, -2.184, 0.072, 1.013
 248106091, -0.895, -1.956, -0.015, 1.015, -0.929, -2.169, -0.015, 1.014
 248306150, -1.01, -1.381, 0.093, 1.016, -0.895, -1.956, -0.015, 1.015
 248506955, -0.706, -0.9170001, -0.067, 1.018, -1.01, -1.381, 0.093, 1.016
 248706960, -0.552, -0.532, -0.225, 1.018, -0.706, -0.9170001, -0.067, 1.018
 248907959, -0.413, -0.339, -0.326, 1.018, -0.552, -0.532, -0.225, 1.018
 249107959, -0.507, -0.208, -0.258, 1.018, -0.413, -0.339, -0.326, 1.018
 249308221, -0.386, -0.165, -0.28, 1.02, -0.507, -0.208, -0.258, 1.018
 249527940, -0.361, 0.011, -0.25, 1.023, -0.386, -0.165, -0.28, 1.02
 249708026, -0.303, 0.015, -0.083, 1.025, -0.361, 0.011, -0.25, 1.023
 249907958, -0.19, 0.058, 0.028, 1.026, -0.303, 0.015, -0.083, 1.025
 250108027, -0.081, -0.045, 0.082, 1.026, -0.19, 0.058, 0.028, 1.026
 250308038, 0.015, -0.012, 0.129, 1.022, -0.081, -0.045, 0.082, 1.026
 250507962, 0.124, 0.039, -0.031, 1.02, 0.015, -0.012, 0.129, 1.022
 250708059, 0.199, 0.192, 0.011, 1.02, 0.124, 0.039, -0.031, 1.02
 250913377, 0.383, 0.139, 0.064, 1.019, 0.199, 0.192, 0.011, 1.02
 251113375, 0.385, 0.231, -0.038, 1.016, 0.383, 0.139, 0.064, 1.019
 251313794, 0.511, 0.306, -0.002, 1.013, 0.385, 0.231, -0.038, 1.016
 251514637, 0.499, 0.315, -0.052, 1.009, 0.511, 0.306, -0.002, 1.013
 251714457, 0.551, 0.214, -0.058, 1.005, 0.499, 0.315, -0.052, 1.009
 251914853, 0.574, 0.458, -0.086, 1.002, 0.551, 0.214, -0.058, 1.005
 252114880, 0.531, 0.437, -0.014, 1.002, 0.574, 0.458, -0.086, 1.002
 252314912, 0.702, 0.244, -0.005, 1.002, 0.531, 0.437, -0.014, 1.002
 252515338, 0.638, 0.494, -0.094, 1.001, 0.702, 0.244, -0.005, 1.002
 252715334, 0.608, 0.423, -0.011, 1, 0.638, 0.494, -0.094, 1.001
 252915350, 0.511, 0.435, 0.09100001, 0.998, 0.608, 0.423, -0.011, 1
 253121231, 0.501, 0.514, -0.021, 0.9990001, 0.511, 0.435, 0.09100001, 0.998
 253321661, 0.439, 0.538, 0.064, 0.998, 0.501, 0.514, -0.021, 0.9990001
 253501617, 0.5100001, 0.456, 0.038, 0.9990001, 0.439, 0.538, 0.064, 0.998
 253701618, 0.491, 0.352, 0.012, 0.9990001, 0.5100001, 0.456, 0.038, 0.9990001
 253905497, 0.5190001, 0.276, -0.107, 0.997, 0.491, 0.352, 0.012, 0.9990001
 254104735, 0.355, 0.369, 0.071, 0.9950001, 0.5190001, 0.276, -0.107, 0.997
 254304889, 0.251, 0.428, 0.049, 0.994, 0.355, 0.369, 0.071, 0.9950001
 254504856, 0.301, 0.216, 0.047, 0.994, 0.251, 0.428, 0.049, 0.994
 254704733, 0.27, 0.274, 0.062, 0.992, 0.301, 0.216, 0.047, 0.994
 254908105, 0.067, 0.333, 0.07300001, 0.9910001, 0.27, 0.274, 0.062, 0.992
 255108867, 0.086, 0.217, -0.045, 0.993, 0.067, 0.333, 0.07300001, 0.9910001
 255331919, -0.058, 0.318, 0.014, 0.9960001, 0.086, 0.217, -0.045, 0.993
 255512963, -0.02, 0.215, 0.001, 1, -0.058, 0.318, 0.014, 0.9960001
 255712246, -0.075, 0.213, -0.098, 1.003, -0.02, 0.215, 0.001, 1
 255912279, -0.122, 0.072, -0.083, 1.005, -0.075, 0.213, -0.098, 1.003
 256093668, -0.094, 0.022, -0.066, 1.006, -0.122, 0.072, -0.083, 1.005
 256314320, -0.086, -0.04, -0.097, 1.007, -0.094, 0.022, -0.066, 1.006
 256514302, -0.138, -0.146, 0.031, 1.009, -0.086, -0.04, -0.097, 1.007
 256717405, -0.136, -0.23, -0.029, 1.011, -0.138, -0.146, 0.031, 1.009
 256917826, -0.045, -0.253, 0.007, 1.013, -0.136, -0.23, -0.029, 1.011
 257117929, -0.086, -0.351, 0.058, 1.016, -0.045, -0.253, 0.007, 1.013
 257317809, -0.235, -0.16, 0.033, 1.018, -0.086, -0.351, 0.058, 1.016
 257517714, -0.202, -0.308, 0.038, 1.021, -0.235, -0.16, 0.033, 1.018
 257717809, -0.314, -0.237, 0.02, 1.023, -0.202, -0.308, 0.038, 1.021
 257917826, -0.238, -0.303, 0.093, 1.024, -0.314, -0.237, 0.02, 1.023
 258097741, -0.377, -0.143, -0.057, 1.026, -0.238, -0.303, 0.093, 1.024
 258318501, -0.274, -0.266, -0.054, 1.024, -0.377, -0.143, -0.057, 1.026
 258518487, -0.284, -0.249, 0.011, 1.023, -0.274, -0.266, -0.054, 1.024
 258698486, -0.306, -0.202, 0, 1.02, -0.284, -0.249, 0.011, 1.023
 258898521, -0.274, -0.243, -0.042, 1.019, -0.306, -0.202, 0, 1.02
 259098614, -0.217, -0.151, -0.081, 1.007, -0.274, -0.243, -0.042, 1.019
 259298506, -0.187, -0.109, -0.06900001, 0.997, -0.217, -0.151, -0.081, 1.007
 259518818, -0.137, -0.079, 0.024, 0.989, -0.187, -0.109, -0.06900001, 0.997
 259702065, -0.025, -0.07, 0.028, 0.9820001, -0.137, -0.079, 0.024, 0.989
 259902492, 0.032, -0.048, 0.009000001, 0.973, -0.025, -0.07, 0.028, 0.9820001
 260102488, 0.057, -0.011, 0.097, 0.966, 0.032, -0.048, 0.009000001, 0.973
 260303053, 0.024, -0.026, 0.277, 0.964, 0.057, -0.011, 0.097, 0.966
 260503895, 0.029, 0.078, 0.256, 0.9630001, 0.024, -0.026, 0.277, 0.964
 260704750, 0.035, 0.132, 0.312, 0.9590001, 0.029, 0.078, 0.256, 0.9630001
 260907505, 0.103, 0.09200001, 0.192, 0.9480001, 0.035, 0.132, 0.312, 0.9590001
 261108578, 0.061, 0.159, 0.287, 0.946, 0.103, 0.09200001, 0.192, 0.9480001
 261308742, 0.093, 0.257, 0.267, 0.942, 0.061, 0.159, 0.287, 0.946
 261527481, 0.045, 0.334, 0.344, 0.942, 0.093, 0.257, 0.267, 0.942
 261708691, 0.163, 0.041, 0.291, 0.941, 0.045, 0.334, 0.344, 0.942
 261907864, 0.146, 0.295, 0.254, 0.9400001, 0.163, 0.041, 0.291, 0.941
 262107857, 0.112, 0.253, 0.373, 0.936, 0.146, 0.295, 0.254, 0.9400001
 262309297, 0.123, 0.279, 0.161, 0.9310001, 0.112, 0.253, 0.373, 0.936
 262509880, 0.096, 0.244, 0.162, 0.9300001, 0.123, 0.279, 0.161, 0.9310001
 262710692, 0.085, 0.223, 0.105, 0.9250001, 0.096, 0.244, 0.162, 0.9300001
 262910699, 0.029, 0.239, 0.014, 0.9220001, 0.085, 0.223, 0.105, 0.9250001
 263110831, 0.11, 0.112, 0.094, 0.92, 0.029, 0.239, 0.014, 0.9220001
 263311175, 0.113, 0.07, -0.007, 0.9160001, 0.11, 0.112, 0.094, 0.92
 263511567, 0.046, 0.13, 0.09, 0.913, 0.113, 0.07, -0.007, 0.9160001
 263712185, 0.035, 0.09500001, 0.009000001, 0.9120001, 0.046, 0.13, 0.09, 0.913
 263915317, 0.048, 0.019, 0.053, 0.91, 0.035, 0.09500001, 0.009000001, 0.9120001
 264115147, 0.028, 0, 0.038, 0.909, 0.048, 0.019, 0.053, 0.91
 264315911, 0.106, 0.05, 0.176, 0.9080001, 0.028, 0, 0.038, 0.909
 264515860, 0.153, 0.01, -0.087, 0.909, 0.106, 0.05, 0.176, 0.9080001
 264715831, 0.039, -0.011, -0.07600001, 0.9110001, 0.153, 0.01, -0.087, 0.909
 264915096, 0.074, 0.004, -0.052, 0.914, 0.039, -0.011, -0.07600001, 0.9110001
 265115902, 0.052, 0.003, 0.001, 0.918, 0.074, 0.004, -0.052, 0.914
 265316567, -0.007, 0.025, -0.007, 0.9210001, 0.052, 0.003, 0.001, 0.918
 265516402, 0.036, -0.028, -0.046, 0.924, -0.007, 0.025, -0.007, 0.9210001
 265719907, 0.061, 0.023, 0.063, 0.927, 0.036, -0.028, -0.046, 0.924
 265901077, 0.034, 0.007, -0.067, 0.929, 0.061, 0.023, 0.063, 0.927
 266120060, 0.127, 0.034, 0.011, 0.933, 0.034, 0.007, -0.067, 0.929
 266319890, 0.107, -0.02, 0.082, 0.937, 0.127, 0.034, 0.011, 0.933
 266520354, 0.035, -0.07700001, 0.009000001, 0.941, 0.107, -0.02, 0.082, 0.937
 266720392, 0.078, -0.07600001, 0.009000001, 0.947, 0.035, -0.07700001, 0.009000001, 0.941
 266900777, 0.123, -0.11, -0.044, 0.952, 0.078, -0.07600001, 0.009000001, 0.947
 267102329, 0.106, -0.055, 0.062, 0.955, 0.123, -0.11, -0.044, 0.952
 267301873, 0.061, -0.156, 0.006, 0.9540001, 0.106, -0.055, 0.062, 0.955
 267523327, 0.08000001, -0.083, -0.075, 0.9540001, 0.061, -0.156, 0.006, 0.9540001
 267703803, 0.109, -0.156, 0.033, 0.955, 0.08000001, -0.083, -0.075, 0.9540001
 267903812, 0.147, -0.149, -0.019, 0.957, 0.109, -0.156, 0.033, 0.955
 268103933, 0.038, -0.168, 0.048, 0.957, 0.147, -0.149, -0.019, 0.957
 268309495, 0.023, -0.104, -0.025, 0.956, 0.038, -0.168, 0.048, 0.957
 268509589, 0.021, -0.118, -0.169, 0.956, 0.023, -0.104, -0.025, 0.956
 268729117, -0.022, -0.078, -0.064, 0.9540001, 0.021, -0.118, -0.169, 0.956
 268909463, -0.013, -0.164, -0.064, 0.95, -0.022, -0.078, -0.064, 0.9540001
 269109787, -0.044, -0.163, -0.09, 0.95, -0.013, -0.164, -0.064, 0.95
 269310545, -0.003, -0.122, -0.046, 0.952, -0.044, -0.163, -0.09, 0.95
 269530815, 0.015, -0.189, -0.051, 0.9540001, -0.003, -0.122, -0.046, 0.952
 269711197, 0.007, -0.172, -0.093, 0.955, 0.015, -0.189, -0.051, 0.9540001
 269911646, 0.066, -0.198, -0.07700001, 0.952, 0.007, -0.172, -0.093, 0.955
 270111647, 0.024, -0.14, -0.031, 0.9530001, 0.066, -0.198, -0.07700001, 0.952
 270315256, 0.019, -0.136, -0.043, 0.955, 0.024, -0.14, -0.031, 0.9530001
 270515839, 0.035, -0.105, 0.123, 0.9590001, 0.019, -0.136, -0.043, 0.955
 270716037, 0.004, -0.07300001, 0.064, 0.9580001, 0.035, -0.105, 0.123, 0.9590001
 270915865, -0.013, -0.043, 0.008, 0.9540001, 0.004, -0.07300001, 0.064, 0.9580001
 271097533, 0.004, -0.038, 0.039, 0.9530001, -0.013, -0.043, 0.008, 0.9540001
 271315862, 0.005, 0.044, -0.056, 0.9540001, 0.004, -0.038, 0.039, 0.9530001
 271515856, -0.045, 0.013, -0.058, 0.955, 0.005, 0.044, -0.056, 0.9540001
 271715847, -0.032, 0.164, 0.023, 0.9580001, -0.045, 0.013, -0.058, 0.955
 271917050, -0.112, 0.111, 0.009000001, 0.961, -0.032, 0.164, 0.023, 0.9580001
 272117046, -0.133, 0.173, -0.025, 0.964, -0.112, 0.111, 0.009000001, 0.961
 272317085, -0.018, 0.186, -0.058, 0.9670001, -0.133, 0.173, -0.025, 0.964
 272517284, -0.06900001, 0.188, 0.021, 0.97, -0.018, 0.186, -0.058, 0.9670001
 272717077, -0.07, 0.265, -0.086, 0.97, -0.06900001, 0.188, 0.021, 0.97
 272921354, 0.007, 0.121, -0.097, 0.9680001, -0.07, 0.265, -0.086, 0.97
 273100954, 0.059, 0.109, 0, 0.9680001, 0.007, 0.121, -0.097, 0.9680001
 273300955, -0.002, 0.148, -0.03, 0.966, 0.059, 0.109, 0, 0.9680001
 273521169, 0.009000001, 0.106, 0.019, 0.964, -0.002, 0.148, -0.03, 0.966
 273701956, 0.089, 0.08000001, -0.055, 0.9620001, 0.009000001, 0.106, 0.019, 0.964
 273902030, 0.068, 0.064, -0.041, 0.9590001, 0.089, 0.08000001, -0.055, 0.9620001
 274102034, 0.104, 0.052, 0.082, 0.9580001, 0.068, 0.064, -0.041, 0.9590001
 274302083, 0.127, 0.062, -0.06, 0.9580001, 0.104, 0.052, 0.082, 0.9580001
 274502044, 0.089, 1.862645E-09, -0.009000001, 0.956, 0.127, 0.062, -0.06, 0.9580001
 274702153, 0.042, 0, -0.043, 0.956, 0.089, 1.862645E-09, -0.009000001, 0.956
 274901961, 0, 0, 0.07700001, 0.956, 0.042, 0, -0.043, 0.956
 275122286, 0, 0, -0.081, 0.955, 0, 0, 0.07700001, 0.956
 275324827, 0, 0, -0.068, 0.956, 0, 0, -0.081, 0.955
 275527408, 0, 0, 0.007, 0.9540001, 0, 0, -0.068, 0.956
 275707558, 0, 0, -0.176, 0.952, 0, 0, 0.007, 0.9540001
 275908842, 0, 0, -0.067, 0.9490001, 0, 0, -0.176, 0.952
 276109275, 0, 0, -0.06900001, 0.9480001, 0, 0, -0.067, 0.9490001
 276309175, 0, 0, -0.06900001, 0.946, 0, 0, -0.06900001, 0.9480001
 276509305, 0, 0, 0.023, 0.9440001, 0, 0, -0.06900001, 0.946
 276709385, 0, 0, -0.016, 0.942, 0, 0, 0.023, 0.9440001
 276909417, 0, 0, -0.004, 0.941, 0, 0, -0.016, 0.942
 277109167, 0, 0, 0.009000001, 0.9400001, 0, 0, -0.004, 0.941
 277309294, 0, 0, 0.015, 0.9390001, 0, 0, 0.009000001, 0.9400001
 277529187, 0, 0, 0.027, 0.938, 0, 0, 0.015, 0.9390001
 277709288, 0, 0, 0.04, 0.941, 0, 0, 0.027, 0.938
 277909287, 0, 0, -0.071, 0.9450001, 0, 0, 0.04, 0.941
 278109281, 0, 0, 0.008, 0.9490001, 0, 0, -0.071, 0.9450001
 278310675, 0, 0, -0.06500001, 0.9530001, 0, 0, 0.008, 0.9490001
 278510534, 0, 0, -0.079, 0.956, 0, 0, -0.06500001, 0.9530001
 278710691, 0, 0, -0.048, 0.9590001, 0, 0, -0.079, 0.956
 278911217, 0, 0, -0.087, 0.96, 0, 0, -0.048, 0.9590001
 279112465, 0, 0, -0.056, 0.961, 0, 0, -0.087, 0.96
 279312489, 0, 0, -0.001, 0.9580001, 0, 0, -0.056, 0.961
 279532473, 0, 0, 0.004, 0.9540001, 0, 0, -0.001, 0.9580001
 279712450, 0, 0, -0.026, 0.952, 0, 0, 0.004, 0.9540001
 279918339, 0, 0, -0.035, 0.9490001, 0, 0, -0.026, 0.952
 280118317, 0, 0, -0.021, 0.9480001, 0, 0, -0.035, 0.9490001
 280318444, 0, 0, -0.089, 0.9480001, 0, 0, -0.021, 0.9480001
 280518561, 0, 0, -0.013, 0.9480001, 0, 0, -0.089, 0.9480001
 280721073, 0, 0, 0.043, 0.9490001, 0, 0, -0.013, 0.9480001
 280920941, 0, 0, -0.052, 0.9490001, 0, 0, 0.043, 0.9490001
 281121102, 0, 0, 0.134, 0.9490001, 0, 0, -0.052, 0.9490001
 281320966, 0, 0, 0.041, 0.9490001, 0, 0, 0.134, 0.9490001
 281521175, 0, 0, 0.07300001, 0.947, 0, 0, 0.041, 0.9490001
 281721241, 0, 0, 0.156, 0.946, 0, 0, 0.07300001, 0.947
 281904503, 0, 0, -0.014, 0.941, 0, 0, 0.156, 0.946
 282104893, 0, 0, -0.129, 0.9390001, 0, 0, -0.014, 0.941
 282305355, 0, 0, 0.07, 0.933, 0, 0, -0.129, 0.9390001
 282505342, 0, 0, -0.064, 0.927, 0, 0, 0.07, 0.933
 282705335, 0, 0, -0.034, 0.923, 0, 0, -0.064, 0.927
 282905333, 0, 0, 0.028, 0.915, 0, 0, -0.034, 0.923
 283105702, 0, 0, 0.117, 0.915, 0, 0, 0.028, 0.915
 283305743, 0, 0, -0.089, 0.9170001, 0, 0, 0.117, 0.915
 283510624, 0, 0, 0.114, 0.918, 0, 0, -0.089, 0.9170001
 283710764, 0, 0, 0.079, 0.9030001, 0, 0, 0.114, 0.918
 283912126, 0, 0, 0.12, 0.891, 0, 0, 0.079, 0.9030001
 284111931, 0, 0.006000042, 0.024, 0.8940001, 0, 0, 0.12, 0.891
 284311918, 0, 0.02400005, -0.009000001, 0.9020001, 0, 0.006000042, 0.024, 0.8940001
 284512700, 0, 0, 0.06500001, 0.9020001, 0, 0.02400005, -0.009000001, 0.9020001
 284713476, 0, 0.0430001, -0.03, 0.892, 0, 0, 0.06500001, 0.9020001
 284914129, 0, 0.06700015, -0.029, 0.8880001, 0, 0.0430001, -0.03, 0.892
 285117799, 0, 0.03499997, -0.07, 0.8890001, 0, 0.06700015, -0.029, 0.8880001
 285317865, 0, 0.115, -0.042, 0.886, 0, 0.03499997, -0.07, 0.8890001
 285517055, 0, 0.07000005, -0.029, 0.8790001, 0, 0.115, -0.042, 0.886
 285696723, 0, 0.01400006, 0.046, 0.876, 0, 0.07000005, -0.029, 0.8790001
 285898083, 0, 0.01300013, 0.029, 0.873, 0, 0.01400006, 0.046, 0.876
 286098893, 0, 0, 0.03, 0.872, 0, 0.01300013, 0.029, 0.873
 286299098, 0, 0, 0.042, 0.8710001, 0, 0, 0.03, 0.872
 286498891, 0, 0, 0.006, 0.8710001, 0, 0, 0.042, 0.8710001
 286699478, 0, 0, 0.042, 0.8710001, 0, 0, 0.006, 0.8710001
 286919539, 0, 0, 0.072, 0.873, 0, 0, 0.042, 0.8710001
 287120677, 0, 0, 0.004, 0.876, 0, 0, 0.072, 0.873
 287320701, 0, 0, 0.009000001, 0.878, 0, 0, 0.004, 0.876
 287520704, 0, 0, -0.081, 0.881, 0, 0, 0.009000001, 0.878
 287720749, 0, 0, -0.059, 0.883, 0, 0, -0.081, 0.881
 287921421, 0, 0, -0.014, 0.8850001, 0, 0, -0.059, 0.883
 288101703, 0, 0, 0.009000001, 0.8880001, 0, 0, -0.014, 0.8850001
 288302384, 0, 0, 0.063, 0.8880001, 0, 0, 0.009000001, 0.8880001
 288505297, 0, 0, 0.141, 0.8890001, 0, 0, 0.063, 0.8880001
 288705854, 0, 0, 0.149, 0.891, 0, 0, 0.141, 0.8890001
 288905118, 0, 0, -0.097, 0.89, 0, 0, 0.149, 0.891
 289105109, 0, 0, 0.025, 0.892, 0, 0, -0.097, 0.89
 289305125, 0, 0, 0.06, 0.896, 0, 0, 0.025, 0.892
 289505112, 0, 0, 0.016, 0.896, 0, 0, 0.06, 0.896
 289705721, 0, 0, 0.096, 0.8930001, 0, 0, 0.016, 0.896
 289906643, 0, 0, -0.044, 0.891, 0, 0, 0.096, 0.8930001
 290106541, 0, 0, 0.064, 0.891, 0, 0, -0.044, 0.891
 290305956, 0, 0, 0.045, 0.8850001, 0, 0, 0.064, 0.891
 290505736, 0, 0, 0.139, 0.8840001, 0, 0, 0.045, 0.8850001
 290705719, 0, 0, 0.119, 0.8800001, 0, 0, 0.139, 0.8840001
 290906172, 0, 0, 0.156, 0.8700001, 0, 0, 0.119, 0.8800001
 291106961, 0, 0, 0.057, 0.8700001, 0, 0, 0.156, 0.8700001
 291306949, 0, 0, 0.175, 0.873, 0, 0, 0.057, 0.8700001
 291506958, 0, 0, 0.115, 0.8750001, 0, 0, 0.175, 0.873
 291707168, 2.703, -2.708, 0.036, 0.877, 0, 0, 0.115, 0.8750001
 291906951, 2.803, -2.827, 0.101, 0.8790001, 2.703, -2.708, 0.036, 0.877
 292107031, 2.786, -3.009, 0.043, 0.8800001, 2.803, -2.827, 0.101, 0.8790001
 292307069, 2.725, -3.067, 0.12, 0.8710001, 2.786, -3.009, 0.043, 0.8800001
 292506958, 2.715, -3.122, 0.02, 0.864, 2.725, -3.067, 0.12, 0.8710001
 292706956, 2.666, -3.252, -0.019, 0.862, 2.715, -3.122, 0.02, 0.864
 292906843, 2.501, -3.279, -0.05, 0.859, 2.666, -3.252, -0.019, 0.862
 293106872, 1.917, -3.067, 0, 0.859, 2.501, -3.279, -0.05, 0.859
 293306854, 1.366, -2.806, 0.01, 0.855, 1.917, -3.067, 0, 0.859
 293506804, 0.758, -2.273, -0.044, 0.835, 1.366, -2.806, 0.01, 0.855
 293706833, 0.033, -1.917, -0.08800001, 0.8280001, 0.758, -2.273, -0.044, 0.835
 293906871, -0.427, -1.478, -0.075, 0.8240001, 0.033, -1.917, -0.08800001, 0.8280001
 294106902, -0.9620001, -1.249, -0.226, 0.822, -0.427, -1.478, -0.075, 0.8240001
 294306907, -1.461, -1.202, -0.159, 0.817, -0.9620001, -1.249, -0.226, 0.822
 294506842, -1.756, -1.212, -0.202, 0.8190001, -1.461, -1.202, -0.159, 0.817
 294706871, -1.84, -1.448, -0.103, 0.814, -1.756, -1.212, -0.202, 0.8190001
 294906870, -1.81, -1.685, 0.024, 0.811, -1.84, -1.448, -0.103, 0.814
 295106872, -1.628, -1.968, -0.046, 0.812, -1.81, -1.685, 0.024, 0.811
 295306898, -1.341, -2.102, -0.013, 0.813, -1.628, -1.968, -0.046, 0.812
 295506870, -1.198, -2.287, 0.107, 0.812, -1.341, -2.102, -0.013, 0.813
 295706873, -1.027, -2.438, 0.034, 0.816, -1.198, -2.287, 0.107, 0.812
 295906892, -1.064, -2.468, -0.019, 0.822, -1.027, -2.438, 0.034, 0.816
 296106909, -1.098, -2.437, 0.008, 0.826, -1.064, -2.468, -0.019, 0.822
 296306893, -1.231, -2.443, -0.081, 0.8290001, -1.098, -2.437, 0.008, 0.826
 296506863, -1.271, -2.393, -0.082, 0.832, -1.231, -2.443, -0.081, 0.8290001
 296707267, -1.373, -2.425, -0.147, 0.835, -1.271, -2.393, -0.082, 0.832
 296907662, -1.415, -2.292, -0.109, 0.837, -1.373, -2.425, -0.147, 0.835
 297107632, -1.476, -2.253, -0.058, 0.841, -1.415, -2.292, -0.109, 0.837
 297307601, -1.54, -2.087, 0.181, 0.845, -1.476, -2.253, -0.058, 0.841
 297527930, -1.491, -2.075, 0.431, 0.849, -1.54, -2.087, 0.181, 0.845
 297707618, -1.707, -1.591, 0.315, 0.8470001, -1.491, -2.075, 0.431, 0.849
 297907633, -1.873, -1.51, 0.408, 0.849, -1.707, -1.591, 0.315, 0.8470001
 298107607, -1.807, -0.887, 0.227, 0.848, -1.873, -1.51, 0.408, 0.849
 298307644, -1.812, -0.543, 0.273, 0.849, -1.807, -0.887, 0.227, 0.848
 298507604, -1.819, -0.197, 0.371, 0.85, -1.812, -0.543, 0.273, 0.849
 298707583, -1.853, 0.154, 0.274, 0.853, -1.819, -0.197, 0.371, 0.85
 298907608, -1.811, 0.411, 0.371, 0.8570001, -1.853, 0.154, 0.274, 0.853
 299107572, -1.978, 0.609, 0.289, 0.8570001, -1.811, 0.411, 0.371, 0.8570001
 299307630, -1.853, 0.836, 0.26, 0.858, -1.978, 0.609, 0.289, 0.8570001
 299507597, -1.797, 0.906, 0.524, 0.8610001, -1.853, 0.836, 0.26, 0.858
 299707635, -2.029, 1.014, 0.498, 0.864, -1.797, 0.906, 0.524, 0.8610001
 299907587, -1.63, 1.299, 0.216, 0.8660001, -2.029, 1.014, 0.498, 0.864
 300107653, -1.795, 1.34, 0.22, 0.868, -1.63, 1.299, 0.216, 0.8660001
 300307620, -1.703, 1.574, 0.198, 0.8700001, -1.795, 1.34, 0.22, 0.868
 300507603, -1.73, 1.436, 0.281, 0.873, -1.703, 1.574, 0.198, 0.8700001
 300707589, -1.793, 1.549, 0.481, 0.878, -1.73, 1.436, 0.281, 0.873
 300907653, -1.544, 1.36, 0.66, 0.8800001, -1.793, 1.549, 0.481, 0.878
 301107679, -1.806, 1.317, 0.55, 0.881, -1.544, 1.36, 0.66, 0.8800001
 301307684, -1.509, 1.291, 0.312, 0.8800001, -1.806, 1.317, 0.55, 0.881
 301507659, -1.49, 1.378, 0.04, 0.881, -1.509, 1.291, 0.312, 0.8800001
 301707773, -1.389, 1.347, 0.003, 0.882, -1.49, 1.378, 0.04, 0.881
 302107711, -1.2, 1.518, -0.117, 0.881, -1.301, 1.365, -0.036, 0.881
 302307727, -1.039, 1.572, -0.102, 0.882, -1.2, 1.518, -0.117, 0.881
 302507841, -1.015, 1.829, -0.159, 0.8840001, -1.039, 1.572, -0.102, 0.882
 302707701, -0.814, 1.753, -0.186, 0.886, -1.015, 1.829, -0.159, 0.8840001
 302907728, -0.734, 1.878, -0.05, 0.874, -0.814, 1.753, -0.186, 0.886
 303107716, -0.53, 2.06, -0.295, 0.8750001, -0.734, 1.878, -0.05, 0.874
 303307877, -0.247, 1.974, -0.193, 0.8750001, -0.53, 2.06, -0.295, 0.8750001
 303528051, -0.111, 1.897, -0.033, 0.867, -0.247, 1.974, -0.193, 0.8750001
 303707720, 0.044, 1.826, -0.096, 0.86, -0.111, 1.897, -0.033, 0.867
 303907720, 0.166, 1.814, -0.08800001, 0.854, 0.044, 1.826, -0.096, 0.86
 304107700, 0.228, 1.855, -0.182, 0.8560001, 0.166, 1.814, -0.08800001, 0.854
 304307858, 0.377, 1.86, -0.283, 0.859, 0.228, 1.855, -0.182, 0.8560001
 304507733, 0.467, 1.722, -0.25, 0.8520001, 0.377, 1.86, -0.283, 0.859
 304707714, 0.524, 1.652, -0.144, 0.8520001, 0.467, 1.722, -0.25, 0.8520001
 304907719, 0.545, 1.658, -0.118, 0.8520001, 0.524, 1.652, -0.144, 0.8520001
 305107856, 0.729, 1.595, -0.245, 0.8560001, 0.545, 1.658, -0.118, 0.8520001
 305307739, 0.753, 1.436, -0.067, 0.854, 0.729, 1.595, -0.245, 0.8560001
 305507772, 0.839, 1.171, 0.012, 0.85, 0.753, 1.436, -0.067, 0.854
 305707747, 0.8010001, 1.021, 0.058, 0.85, 0.839, 1.171, 0.012, 0.85
 305907749, 0.758, 0.859, 0.18, 0.8520001, 0.8010001, 1.021, 0.058, 0.85
 306107756, 0.8010001, 0.678, 0.15, 0.854, 0.758, 0.859, 0.18, 0.8520001
 306307776, 0.853, 0.504, 0.112, 0.853, 0.8010001, 0.678, 0.15, 0.854
 306507757, 0.947, 0.506, 0.019, 0.8520001, 0.853, 0.504, 0.112, 0.853
 306707844, 1.058, 0.478, 0.089, 0.8520001, 0.947, 0.506, 0.019, 0.8520001
 306907857, 1.1, 0.386, 0.118, 0.854, 1.058, 0.478, 0.089, 0.8520001
 307108088, 1.219, 0.349, -0.022, 0.8560001, 1.1, 0.386, 0.118, 0.854
 307308104, 1.175, 0.22, -0.023, 0.855, 1.219, 0.349, -0.022, 0.8560001
 307508103, 1.146, 0.114, -0.066, 0.854, 1.175, 0.22, -0.023, 0.855
 307708088, 1.148, -0.005, -0.006, 0.854, 1.146, 0.114, -0.066, 0.854
 307908092, 1.09, -0.043, 0.123, 0.851, 1.148, -0.005, -0.006, 0.854
 308108444, 1.051, -0.015, 0.04, 0.844, 1.09, -0.043, 0.123, 0.851
 308308923, 1.036, -0.174, 0.021, 0.837, 1.051, -0.015, 0.04, 0.844
 308509127, 0.98, -0.201, 0.059, 0.832, 1.036, -0.174, 0.021, 0.837
 308709132, 0.9220001, -0.244, 0.072, 0.831, 0.98, -0.201, 0.059, 0.832
 308908897, 0.845, -0.312, 0.058, 0.83, 0.9220001, -0.244, 0.072, 0.831
 309108897, 0.807, -0.343, 0.06, 0.832, 0.845, -0.312, 0.058, 0.83
 309308937, 0.712, -0.348, 0.07600001, 0.8340001, 0.807, -0.343, 0.06, 0.832
 309528900, 0.615, -0.413, -0.044, 0.835, 0.712, -0.348, 0.07600001, 0.8340001
 309708889, 0.487, -0.365, 0.061, 0.835, 0.615, -0.413, -0.044, 0.835
 309908907, 0.333, -0.372, -0.068, 0.8340001, 0.487, -0.365, 0.061, 0.835
 310108922, 0.322, -0.339, -0.044, 0.8340001, 0.333, -0.372, -0.068, 0.8340001
 310309042, 0.192, -0.368, -0.003, 0.8340001, 0.322, -0.339, -0.044, 0.8340001
 310509134, -0.007, -0.331, 0.017, 0.8340001, 0.192, -0.368, -0.003, 0.8340001
 310708918, -0.08000001, -0.378, -0.045, 0.832, -0.007, -0.331, 0.017, 0.8340001
 310909320, -0.164, -0.354, -0.058, 0.8280001, -0.08000001, -0.378, -0.045, 0.832
 311112419, -0.269, -0.362, 0.058, 0.826, -0.164, -0.354, -0.058, 0.8280001
 311312442, -0.41, -0.339, -0.031, 0.826, -0.269, -0.362, 0.058, 0.826
 311512486, -0.493, -0.37, -0.01, 0.825, -0.41, -0.339, -0.031, 0.826
 311712554, -0.5470001, -0.399, 0.034, 0.8240001, -0.493, -0.37, -0.01, 0.825
 311912881, -0.674, -0.379, -0.022, 0.823, -0.5470001, -0.399, 0.034, 0.8240001
 312112408, -0.669, -0.344, -0.037, 0.823, -0.674, -0.379, -0.022, 0.823
 312312449, -0.719, -0.319, -0.07700001, 0.822, -0.669, -0.344, -0.037, 0.823
 312512560, -0.682, -0.125, 0.03, 0.8200001, -0.719, -0.319, -0.07700001, 0.822
 312712437, -0.61, 0.004, -0.011, 0.817, -0.682, -0.125, 0.03, 0.8200001
 312912428, -0.529, 0.102, 0.021, 0.814, -0.61, 0.004, -0.011, 0.817
 313112896, -0.487, 0.224, -0.007, 0.811, -0.529, 0.102, 0.021, 0.814
 313312447, -0.35, 0.358, 0.011, 0.809, -0.487, 0.224, -0.007, 0.811
 313512455, -0.282, 0.469, 0.02, 0.807, -0.35, 0.358, 0.011, 0.809
 313712443, -0.12, 0.65, 0.018, 0.807, -0.282, 0.469, 0.02, 0.807
 313912441, -0.053, 0.7830001, 0.031, 0.809, -0.12, 0.65, 0.018, 0.807
 314112578, 0.062, 1.055, 0.011, 0.812, -0.053, 0.7830001, 0.031, 0.809
 314312622, 0.109, 1.184, -0.071, 0.8150001, 0.062, 1.055, 0.011, 0.812
 314512448, 0.279, 1.381, 0.027, 0.813, 0.109, 1.184, -0.071, 0.8150001
 314712442, 0.418, 1.62, 0.167, 0.8150001, 0.279, 1.381, 0.027, 0.813
 314912445, 0.573, 1.696, 0.149, 0.818, 0.418, 1.62, 0.167, 0.8150001
 315112434, 0.71, 1.951, 0.07300001, 0.8200001, 0.573, 1.696, 0.149, 0.818
 315312442, 0.8560001, 1.958, 0.115, 0.821, 0.71, 1.951, 0.07300001, 0.8200001
 315532038, 0.9030001, 2.008, 0.119, 0.823, 0.8560001, 1.958, 0.115, 0.821
 315712670, 0.863, 2.078, -0.032, 0.822, 0.9030001, 2.008, 0.119, 0.823
 315912528, 0.901, 2.107, 0.027, 0.8200001, 0.863, 2.078, -0.032, 0.822
 316112567, 0.812, 1.929, 0.048, 0.8200001, 0.901, 2.107, 0.027, 0.8200001
 316312432, 0.812, 1.797, 0.18, 0.8190001, 0.812, 1.929, 0.048, 0.8200001
 316512409, 0.7820001, 1.707, 0.101, 0.818, 0.812, 1.797, 0.18, 0.8190001
 316712394, 0.686, 1.665, 0.193, 0.8200001, 0.7820001, 1.707, 0.101, 0.818
 316912877, 0.578, 1.79, 0.098, 0.822, 0.686, 1.665, 0.193, 0.8200001
 317112408, 0.619, 1.827, 0.086, 0.8200001, 0.578, 1.79, 0.098, 0.822
 317312476, 0.6810001, 1.901, 0.203, 0.818, 0.619, 1.827, 0.086, 0.8200001
 317512461, 0.721, 2.136, 0.07300001, 0.814, 0.6810001, 1.901, 0.203, 0.818
 317712459, 0.758, 2.18, -0.016, 0.814, 0.721, 2.136, 0.07300001, 0.814
 317912595, 0.663, 2.156, 0.001, 0.814, 0.758, 2.18, -0.016, 0.814
 318112682, 0.631, 1.981, 0.051, 0.813, 0.663, 2.156, 0.001, 0.814
 318312615, 0.546, 1.685, 0.124, 0.811, 0.631, 1.981, 0.051, 0.813
 318512430, 0.375, 1.399, 0.183, 0.811, 0.546, 1.685, 0.124, 0.811
 318712436, 0.19, 1.225, 0.079, 0.807, 0.375, 1.399, 0.183, 0.811
 318912423, 0.152, 1.056, 0.037, 0.8, 0.19, 1.225, 0.079, 0.807
 319112408, 0.106, 0.957, -0.163, 0.795, 0.152, 1.056, 0.037, 0.8
 319312895, 0.037, 0.984, -0.042, 0.7920001, 0.106, 0.957, -0.163, 0.795
 319512853, 0.156, 1.096, 0.013, 0.79, 0.037, 0.984, -0.042, 0.7920001
 319712584, 0.083, 1.162, -0.07700001, 0.79, 0.156, 1.096, 0.013, 0.79
 319912384, 0.182, 1.205, -0.048, 0.7870001, 0.083, 1.162, -0.07700001, 0.79
 320112561, 0.249, 1.27, -0.05, 0.785, 0.182, 1.205, -0.048, 0.7870001
 320312420, 0.319, 1.241, -0.019, 0.784, 0.249, 1.27, -0.05, 0.785
 320512832, 0.358, 1.358, 0.094, 0.781, 0.319, 1.241, -0.019, 0.784
 320712448, 0.39, 1.342, 0.054, 0.779, 0.358, 1.358, 0.094, 0.781
 320912448, 0.288, 1.24, 0.212, 0.779, 0.39, 1.342, 0.054, 0.779
 321112450, 0.306, 1.267, 0.046, 0.781, 0.288, 1.24, 0.212, 0.779
 321312488, 0.272, 1.169, 0.102, 0.7780001, 0.306, 1.267, 0.046, 0.781
 321532058, 0.265, 1.196, 0.144, 0.774, 0.272, 1.169, 0.102, 0.7780001
 321712855, 0.101, 1.181, 0.08800001, 0.7690001, 0.265, 1.196, 0.144, 0.774
 321912892, 0.074, 0.984, 0.066, 0.765, 0.101, 1.181, 0.08800001, 0.7690001
 322112490, -0.044, 0.906, 0.034, 0.7640001, 0.074, 0.984, 0.066, 0.765
 322312422, 0.047, 0.802, 0.121, 0.765, -0.044, 0.906, 0.034, 0.7640001
 322512539, -0.007, 0.9080001, 0.102, 0.768, 0.047, 0.802, 0.121, 0.765
 322712401, 0.137, 1.025, 0.056, 0.7690001, -0.007, 0.9080001, 0.102, 0.768
 322912394, 0.278, 1.13, -0.044, 0.7690001, 0.137, 1.025, 0.056, 0.7690001
 323092046, 0.259, 1.227, -0.009000001, 0.767, 0.278, 1.13, -0.044, 0.7690001
 323312619, 0.33, 1.178, -0.035, 0.767, 0.259, 1.227, -0.009000001, 0.767
 323512426, 0.285, 1.289, -0.07700001, 0.77, 0.33, 1.178, -0.035, 0.767
 323712393, 0.348, 1.288, -0.132, 0.772, 0.285, 1.289, -0.07700001, 0.77
 323912384, 0.283, 1.253, -0.003, 0.7730001, 0.348, 1.288, -0.132, 0.772
 324112331, 0.229, 1.157, 0.035, 0.776, 0.283, 1.253, -0.003, 0.7730001
 324312476, 0.273, 1.075, 0.096, 0.78, 0.229, 1.157, 0.035, 0.776
 324492382, 0.268, 1.091, 0.009000001, 0.785, 0.273, 1.075, 0.096, 0.78
 324712368, 0.142, 0.974, 0.032, 0.791, 0.268, 1.091, 0.009000001, 0.785
 324912396, 0.155, 0.951, -0.094, 0.7960001, 0.142, 0.974, 0.032, 0.791
 325112521, -0.068, 0.72, 0.048, 0.8, 0.155, 0.951, -0.094, 0.7960001
 325312382, 0.157, 0.6620001, 0.024, 0.803, -0.068, 0.72, 0.048, 0.8
 325512289, -0.002, 0.484, 0.123, 0.807, 0.157, 0.6620001, 0.024, 0.803
 325692378, -0.163, 0.254, -0.09, 0.811, -0.002, 0.484, 0.123, 0.807
 325912404, -0.28, 0.199, -0.089, 0.814, -0.163, 0.254, -0.09, 0.811
 326112388, -0.334, 0.024, -0.121, 0.818, -0.28, 0.199, -0.089, 0.814
 326312385, -0.403, -0.146, -0.019, 0.821, -0.334, 0.024, -0.121, 0.818
 326512388, -0.474, -0.357, 0.021, 0.8240001, -0.403, -0.146, -0.019, 0.821
 326712512, -0.498, -0.42, -0.019, 0.8240001, -0.474, -0.357, 0.021, 0.8240001
 326912854, -0.577, -0.613, 0.043, 0.822, -0.498, -0.42, -0.019, 0.8240001
 327112674, -0.56, -0.735, -0.037, 0.822, -0.577, -0.613, 0.043, 0.822
 327312712, -0.509, -0.998, 0.249, 0.821, -0.56, -0.735, -0.037, 0.822
 327512700, -0.614, -1.194, 0.295, 0.821, -0.509, -0.998, 0.249, 0.821
 327712679, -0.463, -1.275, 0.263, 0.8190001, -0.614, -1.194, 0.295, 0.821
 327912671, -0.67, -1.462, 0.452, 0.817, -0.463, -1.275, 0.263, 0.8190001
 328112673, -0.421, -1.483, 0.821, 0.818, -0.67, -1.462, 0.452, 0.817
 328292716, -0.256, -1.622, 0.887, 0.8200001, -0.421, -1.483, 0.821, 0.818
 328512825, -0.352, -1.562, 0.795, 0.823, -0.256, -1.622, 0.887, 0.8200001
 328712856, -0.159, -1.423, 0.744, 0.825, -0.352, -1.562, 0.795, 0.823
 328912689, 0.002, -1.691, 0.7180001, 0.826, -0.159, -1.423, 0.744, 0.825
 329113481, 0.09900001, -1.824, 0.7220001, 0.827, 0.002, -1.691, 0.7180001, 0.826
 329313514, 0.047, -1.575, 0.729, 0.825, 0.09900001, -1.824, 0.7220001, 0.827
 329513126, -0.06500001, -1.506, 0.851, 0.8240001, 0.047, -1.575, 0.729, 0.825
 329693130, -0.014, -1.433, 0.929, 0.8240001, -0.06500001, -1.506, 0.851, 0.8240001
 329913120, 0.358, -1.237, 0.8190001, 0.823, -0.014, -1.433, 0.929, 0.8240001
 330113945, 0.415, -1.101, 0.9, 0.822, 0.358, -1.237, 0.8190001, 0.823
 330313135, 0.86, -0.785, 0.648, 0.822, 0.415, -1.101, 0.9, 0.822
 330513333, 0.538, -1.279, 0.851, 0.825, 0.86, -0.785, 0.648, 0.822
 330713107, 0.595, -1.433, 0.648, 0.8240001, 0.538, -1.279, 0.851, 0.825
 330893101, 0.308, -0.53, -0.429, 0.8240001, 0.595, -1.433, 0.648, 0.8240001
 331115926, 0.181, -0.013, 0.281, 0.825, 0.308, -0.53, -0.429, 0.8240001
 331295797, 0.07300001, -0.093, 0.048, 0.8240001, 0.181, -0.013, 0.281, 0.825
 331515654, 0.344, 0.104, 0.277, 0.8240001, 0.07300001, -0.093, 0.048, 0.8240001
 331715776, 0.041, -0.129, -0.052, 0.8240001, 0.344, 0.104, 0.277, 0.8240001
 331895650, 0.08400001, -0.205, -0.08800001, 0.8240001, 0.041, -0.129, -0.052, 0.8240001
 332095647, 0.16, -0.173, -0.055, 0.823, 0.08400001, -0.205, -0.08800001, 0.8240001
 332295732, -0.08000001, 0.078, 0.13, 0.8190001, 0.16, -0.173, -0.055, 0.823
 332495687, -0.014, 0.025, 0.056, 0.8190001, -0.08000001, 0.078, 0.13, 0.8190001
 332695790, 0.041, -0.034, -0.029, 0.8200001, -0.014, 0.025, 0.056, 0.8190001
 332895656, 0.009000001, -0.023, -0.029, 0.8200001, 0.041, -0.034, -0.029, 0.8200001
 333095644, 0.02, -0.045, 0.045, 0.8200001, 0.009000001, -0.023, -0.029, 0.8200001
 333295660, 0.006, 0.02, 0.06, 0.8200001, 0.02, -0.045, 0.045, 0.8200001
 333515644, 0.053, 0.024, 0.017, 0.8190001, 0.006, 0.02, 0.06, 0.8200001
 333696133, -0.015, 0.028, 0.001, 0.8190001, 0.053, 0.024, 0.017, 0.8190001
 333895651, -0.022, 0.066, 0.09900001, 0.818, -0.015, 0.028, 0.001, 0.8190001
 334095669, -0.043, 0.044, 0.028, 0.817, -0.022, 0.066, 0.09900001, 0.818
 334295691, -0.059, 0.032, 0.041, 0.817, -0.043, 0.044, 0.028, 0.817
 334496159, -0.04, 0.046, -0.045, 0.817, -0.059, 0.032, 0.041, 0.817
 334695660, -0.037, 0.021, -0.019, 0.816, -0.04, 0.046, -0.045, 0.817
 334895929, -0.035, 0.004, 0.047, 0.8150001, -0.037, 0.021, -0.019, 0.816
 335095933, -0.052, 0.035, -0.026, 0.814, -0.035, 0.004, 0.047, 0.8150001
 335296490, -0.074, 0.071, -0.046, 0.814, -0.052, 0.035, -0.026, 0.814
 335496659, -0.128, 0.09900001, 0.064, 0.814, -0.074, 0.071, -0.046, 0.814
 335696821, -0.035, 0.174, 0.026, 0.813, -0.128, 0.09900001, 0.064, 0.814
 335897140, 0.044, 0.222, 0.082, 0.8150001, -0.035, 0.174, 0.026, 0.813
 336097124, 0.213, 0.253, -0.015, 0.818, 0.044, 0.222, 0.082, 0.8150001
 336297689, 0.218, 0.124, -0.078, 0.8190001, 0.213, 0.253, -0.015, 0.818
 336517133, 0.313, 0.287, 0.037, 0.814, 0.218, 0.124, -0.078, 0.8190001
 336697121, 0.226, 0.406, 0.402, 0.817, 0.313, 0.287, 0.037, 0.814
 336897139, -0.053, 0.306, 0.26, 0.821, 0.226, 0.406, 0.402, 0.817
 337097928, -0.009000001, -0.021, -0.01, 0.8240001, -0.053, 0.306, 0.26, 0.821
 337297151, -0.01, -0.01, -0.028, 0.8280001, -0.009000001, -0.021, -0.01, 0.8240001
 337497114, -0.029, -0.026, -0.042, 0.8290001, -0.01, -0.01, -0.028, 0.8280001
 337697106, -0.022, 0.025, -0.015, 0.8330001, -0.029, -0.026, -0.042, 0.8290001
 337897239, -0.014, -0.026, 0.041, 0.835, -0.022, 0.025, -0.015, 0.8330001
 338097333, -0.026, -0.022, 0.006, 0.839, -0.014, -0.026, 0.041, 0.835
 338297133, 0.029, 0.041, 0.082, 0.8420001, -0.026, -0.022, 0.006, 0.839
 338497513, -0.032, -0.013, 0.029, 0.845, 0.029, 0.041, 0.082, 0.8420001
 338697324, 0.014, 0.035, 0.027, 0.8470001, -0.032, -0.013, 0.029, 0.845
 338916934, -0.231, -0.365, -0.029, 0.85, 0.014, 0.035, 0.027, 0.8470001
 339116936, -0.023, 0.09900001, -0.7040001, 0.853, -0.231, -0.365, -0.029, 0.85
 339316945, -0.074, -0.058, -0.189, 0.8560001, -0.023, 0.09900001, -0.7040001, 0.853
 339516925, -0.03, -0.041, -0.147, 0.859, -0.074, -0.058, -0.189, 0.8560001
 339717026, -0.053, -0.009000001, -0.157, 0.862, -0.03, -0.041, -0.147, 0.859
 339916938, -0.062, -0.047, -0.282, 0.8650001, -0.053, -0.009000001, -0.157, 0.862
 340097323, 0.016, -0.05, -0.121, 0.868, -0.062, -0.047, -0.282, 0.8650001
 340316947, -0.004, -0.035, -0.123, 0.8710001, 0.016, -0.05, -0.121, 0.868
 340516899, 0.005, -0.007, -0.017, 0.874, -0.004, -0.035, -0.123, 0.8710001
 340697315, 0.044, 0.005, -0.044, 0.877, 0.005, -0.007, -0.017, 0.874
 340897313, 0.038, 0.019, 0.097, 0.8800001, 0.044, 0.005, -0.044, 0.877
 341096942, 0.022, -0.032, -0.031, 0.883, 0.038, 0.019, 0.097, 0.8800001
 341296945, 0.033, 0.003, -0.046, 0.8850001, 0.022, -0.032, -0.031, 0.883
 341516951, 0.009000001, 0.03, -0.03, 0.8880001, 0.033, 0.003, -0.046, 0.8850001
 341697029, 0.028, 0.016, -0.057, 0.891, 0.009000001, 0.03, -0.03, 0.8880001
 341896917, -0.034, 0, -0.009000001, 0.8930001, 0.028, 0.016, -0.057, 0.891
 342097152, -0.01, 0.001, 0.055, 0.895, -0.034, 0, -0.009000001, 0.8930001
 342296937, -0.011, 0.025, 0.024, 0.8980001, -0.01, 0.001, 0.055, 0.895
 342496925, 0.018, -0.003, 0.133, 0.9, -0.011, 0.025, 0.024, 0.8980001
 342696909, -0.007, -0.051, 0.004, 0.9020001, 0.018, -0.003, 0.133, 0.9
 342917336, -0.008, -0.002, 0.03, 0.905, -0.007, -0.051, 0.004, 0.9020001
 343096911, 0.011, 0.002, 0.018, 0.9070001, -0.008, -0.002, 0.03, 0.905
 343296950, -0.025, 0.035, 0.041, 0.909, 0.011, 0.002, 0.018, 0.9070001
 343516953, -0.055, 0.005, 0.025, 0.9120001, -0.025, 0.035, 0.041, 0.909
 343696929, -0.03, 0.015, 0.039, 0.914, -0.055, 0.005, 0.025, 0.9120001
 343896950, 0.033, -0.02, 0.026, 0.9160001, -0.03, 0.015, 0.039, 0.914
 344096918, -0.03, 0.066, 0.06900001, 0.918, 0.033, -0.02, 0.026, 0.9160001
 344296935, 0, 0.02, 0, 0.92, -0.03, 0.066, 0.06900001, 0.918
 344516929, 0.042, -0.001, 0.007, 0.923, 0, 0.02, 0, 0.92
 344696932, -0.054, 0, 0.02, 0.9250001, 0.042, -0.001, 0.007, 0.923
 344897319, -0.046, -0.029, 0.06, 0.927, -0.054, 0, 0.02, 0.9250001
 345097333, -0.012, -0.031, -0.024, 0.929, -0.046, -0.029, 0.06, 0.927
 345297476, 0.028, -0.01, -0.011, 0.9300001, -0.012, -0.031, -0.024, 0.929
 345536915, 0.025, 0.023, -0.005, 0.932, 0.028, -0.01, -0.011, 0.9300001
 345697313, 0.018, -0.002, -0.035, 0.934, 0.025, 0.023, -0.005, 0.932
 345897320, 0.015, -0.007, -0.102, 0.936, 0.018, -0.002, -0.035, 0.934
 346097308, -0.005, -0.115, -0.06500001, 0.938, 0.015, -0.007, -0.102, 0.936
 346297456, 0.041, 0.001, 0.017, 0.9400001, -0.005, -0.115, -0.06500001, 0.938
 346496925, 0.018, 0.027, 0.026, 0.942, 0.041, 0.001, 0.017, 0.9400001
 346696931, -0.009000001, -0.054, 0.036, 0.943, 0.018, 0.027, 0.026, 0.942
 346917639, 0.001, 0.027, -0.029, 0.9450001, -0.009000001, -0.054, 0.036, 0.943
 347117317, 0.016, 0, -0.029, 0.947, 0.001, 0.027, -0.029, 0.9450001
 347296949, 0.028, -0.011, -0.022, 0.9480001, 0.016, 0, -0.029, 0.947
 347517485, -0.027, 0.033, -0.033, 0.95, 0.028, -0.011, -0.022, 0.9480001
 347696921, -0.052, 0.06, 0.053, 0.952, -0.027, 0.033, -0.033, 0.95
 347896918, -0.006, 0.028, 0.006, 0.9530001, -0.052, 0.06, 0.053, 0.952
 348096962, -0.018, -0.03, 0.056, 0.955, -0.006, 0.028, 0.006, 0.9530001
 348296940, -0.053, -0.031, 0.046, 0.956, -0.018, -0.03, 0.056, 0.955
 348517128, -0.022, -0.006, 0.048, 0.957, -0.053, -0.031, 0.046, 0.956
 348716954, 0.041, -0.01, 0.003, 0.9590001, -0.022, -0.006, 0.048, 0.957
 348916933, -0.016, -0.011, -0.025, 0.96, 0.041, -0.01, 0.003, 0.9590001
 349096922, -0.045, 0.014, 0.037, 0.961, -0.016, -0.011, -0.025, 0.96
 349316929, 0.011, 0.014, -0.049, 0.9620001, -0.045, 0.014, 0.037, 0.961
 349516912, -0.037, -0.01, 0.097, 0.9630001, 0.011, 0.014, -0.049, 0.9620001
 349697308, -0.008, 0.022, 0.08400001, 0.965, -0.037, -0.01, 0.097, 0.9630001
 349896940, 0.025, -0.005, 0, 0.966, -0.008, 0.022, 0.08400001, 0.965
 350096921, 0.026, 0.01, 0.041, 0.9670001, 0.025, -0.005, 0, 0.966
 350296950, 0.007, 0.051, -0.054, 0.9680001, 0.026, 0.01, 0.041, 0.9670001
 350497130, 0.004, 0.035, 0.019, 0.969, 0.007, 0.051, -0.054, 0.9680001
 350716920, 0.018, -0.02, 0.063, 0.97, 0.004, 0.035, 0.019, 0.969
 350916938, 0.025, -0.013, -0.004, 0.9710001, 0.018, -0.02, 0.063, 0.97
 351116905, 0.019, -0.027, -0.072, 0.973, 0.025, -0.013, -0.004, 0.9710001
 351296931, 0.012, -0.007, -0.004, 0.974, 0.019, -0.027, -0.072, 0.973
 351516926, -0.013, 0.042, -0.032, 0.975, 0.012, -0.007, -0.004, 0.974
 351696931, 0.03, 0.023, 0.004, 0.9760001, -0.013, 0.042, -0.032, 0.975
 351917320, 0.016, -0.033, 0.004, 0.9770001, 0.03, 0.023, 0.004, 0.9760001
 352096934, 0.03, -0.022, 0.064, 0.978, 0.016, -0.033, 0.004, 0.9770001
 352297133, -0.027, 0.009000001, -0.038, 0.979, 0.03, -0.022, 0.064, 0.978
 352517316, 0.029, -0.023, -0.049, 0.979, -0.027, 0.009000001, -0.038, 0.979
 352717482, 0.024, -0.07, -0.07700001, 0.98, 0.029, -0.023, -0.049, 0.979
 352917318, 0.019, -0.006, -0.011, 0.98, 0.024, -0.07, -0.07700001, 0.98
 353096912, -0.001, 0.046, -0.09, 0.9810001, 0.019, -0.006, -0.011, 0.98
 353296952, 0.017, -0.017, -0.022, 0.9820001, -0.001, 0.046, -0.09, 0.9810001
 353517325, -0.056, -0.026, -0.016, 0.9820001, 0.017, -0.017, -0.022, 0.9820001
 353717368, 0.009000001, -0.041, -0.108, 0.983, -0.056, -0.026, -0.016, 0.9820001
 353896906, -0.01, 0.012, -0.195, 0.983, 0.009000001, -0.041, -0.108, 0.983
 354096932, 0.014, 0.057, -0.011, 0.983, -0.01, 0.012, -0.195, 0.983
 354297048, -0.04, -0.057, -0.137, 0.984, 0.014, 0.057, -0.011, 0.983
 354496901, 0.013, 0.048, 0.02, 0.984, -0.04, -0.057, -0.137, 0.984
 354696961, 0.05, -0.023, -0.042, 0.9850001, 0.013, 0.048, 0.02, 0.984
 354896916, -0.006, 0.014, -0.012, 0.9860001, 0.05, -0.023, -0.042, 0.9850001
 355096920, 0.037, -0.041, -0.09100001, 0.987, -0.006, 0.014, -0.012, 0.9860001
 355296938, -0.081, -0.009000001, 0.054, 0.988, 0.037, -0.041, -0.09100001, 0.987
 355516943, -0.024, -0.04, -0.08000001, 0.989, -0.081, -0.009000001, 0.054, 0.988
 355716914, -0.002, -0.062, -0.006, 0.9900001, -0.024, -0.04, -0.08000001, 0.989
 355896909, 0.002, -0.016, 0.03, 0.9900001, -0.002, -0.062, -0.006, 0.9900001
 356096951, -0.004, 0.125, -0.075, 0.987, 0.002, -0.016, 0.03, 0.9900001
 356296937, -0.018, 0.01, 0.018, 0.9860001, -0.004, 0.125, -0.075, 0.987
 356496931, 0.067, 0.164, 0.074, 0.988, -0.018, 0.01, 0.018, 0.9860001
 356696942, 0.007, -0.216, 0.075, 0.9860001, 0.067, 0.164, 0.074, 0.988
 356896895, 0.057, 0.055, 0.058, 0.988, 0.007, -0.216, 0.075, 0.9860001
 357096919, -0.163, -0.196, 0.181, 0.992, 0.057, 0.055, 0.058, 0.988
 357296917, -0.086, 0.121, 0.196, 0.9960001, -0.163, -0.196, 0.181, 0.992
 357496926, 0.05, -0.207, 0.566, 1.002, -0.086, 0.121, 0.196, 0.9960001
 357696916, 0.012, 0.006, -0.143, 1.011, 0.05, -0.207, 0.566, 1.002
 357896958, -0.186, -0.006, 0.06900001, 1.024, 0.012, 0.006, -0.143, 1.011
 358096910, -0.07300001, -0.057, -0.054, 1.039, -0.186, -0.006, 0.06900001, 1.024
 358296939, -0.29, -0.128, -0.141, 1.053, -0.07300001, -0.057, -0.054, 1.039
