TimeUS,CAN,CAE,CAD,CAe,NAN,NAE,NAD,NAe,m10,m00
 117030669, -0.008257807, 0.01051904, -0.0001044702, 0.000940312, -0.003461419, 0.004409561, -4.380618E-05, 0.0005187925, -0.1251794, 0.9921329
 117231422, -0.008269691, 0.01053548, -0.0001047192, 0.0009424736, -0.003468981, 0.00442, -4.404649E-05, 0.0005209542, -0.1251932, 0.9921312
 117431342, -0.008246922, 0.01050679, -0.0001047271, 0.0009424737, -0.003453443, 0.004399419, -4.390032E-05, 0.0005187925, -0.1252037, 0.9921299
 117631262, -0.008226817, 0.0104805, -0.0001045856, 0.000940312, -0.003450609, 0.004395996, -4.390032E-05, 0.0005187925, -0.1252131, 0.9921287
 117831182, -0.008220221, 0.01047312, -0.0001045856, 0.000940312, -0.003447623, 0.004393246, -4.390032E-05, 0.0005187925, -0.125221, 0.9921277
 118031102, -0.008213527, 0.01046753, -0.0001045856, 0.000940312, -0.003445462, 0.004391563, -4.390032E-05, 0.0005187925, -0.1252285, 0.9921268
 118231022, -0.008208489, 0.01046312, -0.0001045856, 0.000940312, -0.003443658, 0.004389968, -4.390032E-05, 0.0005187925, -0.1252358, 0.9921259
 118430942, -0.008205176, 0.01045973, -0.0001045856, 0.000940312, -0.003443083, 0.004389429, -4.390032E-05, 0.0005187925, -0.1252418, 0.9921251
 118630862, -0.008204287, 0.01045888, -0.0001045856, 0.000940312, -0.003443259, 0.004389532, -4.390032E-05, 0.0005187925, -0.1252466, 0.9921245
 118830782, -0.008205543, 0.01045977, -0.0001045856, 0.000940312, -0.003444376, 0.004390274, -4.390032E-05, 0.0005187925, -0.1252515, 0.9921239
 119030702, -0.008208517, 0.01046307, -0.0001045856, 0.000940312, -0.003446238, 0.004391988, -4.390032E-05, 0.0005187925, -0.1252558, 0.9921233
 119231455, -0.008238168, 0.01049796, -0.0001048967, 0.0009424736, -0.003460827, 0.004409607, -4.405365E-05, 0.0005209542, -0.1252611, 0.9921226
 119431375, -0.008231721, 0.01048727, -0.000104739, 0.0009424737, -0.003450867, 0.00439552, -4.390032E-05, 0.0005187925, -0.1252642, 0.9921223
 119631295, -0.008226031, 0.01047778, -0.0001045856, 0.000940312, -0.00345455, 0.004399888, -4.390032E-05, 0.0005187925, -0.1252651, 0.9921221
 119831215, -0.008235148, 0.01048894, -0.000104544, 0.000940312, -0.003458638, 0.004405188, -4.380618E-05, 0.0005187925, -0.1252673, 0.9921218
 120031135, -0.008244709, 0.0105005, -0.0001044189, 0.000940312, -0.003462627, 0.004410244, -4.380857E-05, 0.0005187925, -0.1252684, 0.9921217
 120231055, -0.008255175, 0.01051342, -0.0001044034, 0.000940312, -0.003467743, 0.004415614, -4.388364E-05, 0.0005187925, -0.1252686, 0.9921217
 120430975, -0.008267307, 0.01052667, -0.0001044857, 0.000940312, -0.003472942, 0.004422053, -4.379785E-05, 0.0005187925, -0.1252698, 0.9921215
 120630895, -0.00827939, 0.01054247, -0.0001043689, 0.000940312, -0.003478611, 0.004429734, -4.378831E-05, 0.0005187925, -0.1252709, 0.9921213
 120830815, -0.008293269, 0.01056106, -0.0001043189, 0.000940312, -0.003484429, 0.00443724, -4.378831E-05, 0.0005187925, -0.1252716, 0.9921212
 121030735, -0.008342311, 0.0106296, -0.02558219, 0.000940312, -0.003598133, 0.004601964, -0.07910581, 0.0005187925, -0.1252716, 0.9921212
 121230655, -0.008617854, 0.01102968, -0.2172264, 0.000940312, -0.003627216, 0.00464303, -0.09545236, 0.0005187925, -0.125271, 0.9921213
 121431408, -0.008635444, 0.01104857, -0.2065222, 0.0009424736, -0.003601121, 0.004604198, -0.07288882, 0.0005209542, -0.1252911, 0.9921188
 121631328, -0.008384895, 0.01072072, -0.5118001, 0.0009424737, -0.002337396, 0.0028478, -0.7624233, 0.0005187925, -0.1253243, 0.9921156
 121831248, -0.001598834, 0.0009378717, -1.427373, 0.000940312, 0.002436445, -0.00423391, -0.1789881, 0.0005187925, -0.1253381, 0.9921003
 122031168, 0.006815309, -0.01220927, -0.2092015, 0.000940312, 0.002352399, -0.005360165, -0.008120825, 0.0005187925, -0.1254386, 0.9920925
 122231088, 0.001359047, -0.007904824, -0.1024372, 0.000940312, -0.00334926, 0.001725646, -0.1089109, 0.0005187925, -0.1255931, 0.9920819
 122431008, -0.01087168, 0.009158441, -0.2655587, 0.000940312, -0.006259724, 0.007267454, -0.1027461, 0.0005187925, -0.1256933, 0.9920664
 122630928, -0.01424387, 0.01769572, -0.2037304, 0.000940312, -0.005002166, 0.007198033, -0.03007687, 0.0005187925, -0.1256875, 0.9920686
 122830848, -0.01148244, 0.01722738, 0.0306067, 0.000940312, -0.00443265, 0.007120842, 0.07589841, 0.0005187925, -0.1256267, 0.9920766
 123030768, -0.009858508, 0.015799, 0.217919, 0.000940312, -0.003360349, 0.00535664, 0.121103, 0.0005187925, -0.1255458, 0.9920878
 123230688, -0.006857572, 0.01134711, 0.3111387, 0.000940312, -0.00197084, 0.00377712, 0.1486292, 0.0005187925, -0.125453, 0.992099
 123431441, -0.002471049, 0.00881136, 0.3680203, 0.0009424736, 0.003119032, 0.003584551, 0.1643723, 0.0005209542, -0.1253982, 0.9920754
 123631361, 0.02202015, 0.008295906, 0.3968627, 0.0009424737, 0.02514782, 0.003179129, 0.171616, 0.0005187925, -0.1253427, 0.9915646
 123831281, 0.08540469, 0.006973878, 0.3982474, 0.000940312, 0.0590179, 0.002322827, 0.1551584, 0.0005187925, -0.1252279, 0.9896119
 124031201, 0.1633216, 0.005441263, 0.3480515, 0.000940312, 0.08546986, 0.002508535, 0.1269887, 0.0005187925, -0.1251474, 0.9869844
 124231121, 0.2124796, 0.00698624, 0.278624, 0.000940312, 0.0943386, 0.003898544, 0.0967871, 0.0005187925, -0.1252522, 0.9852538
 124431041, 0.2260347, 0.0100771, 0.2086127, 0.000940312, 0.09586547, 0.004631654, 0.06932195, 0.0005187925, -0.1255049, 0.9838869
 124630961, 0.2307386, 0.01093465, 0.1474051, 0.000940312, 0.09887663, 0.004508011, 0.04755807, 0.0005187925, -0.1257668, 0.9821832
 124830881, 0.2362653, 0.01091639, 0.09873513, 0.000940312, 0.09860262, 0.004759593, 0.02968429, 0.0005187925, -0.126019, 0.9808592
 125030801, 0.230985, 0.01149217, 0.06051123, 0.000940312, 0.09291592, 0.004979282, 0.01641355, 0.0005187925, -0.126295, 0.9801511
 125230721, 0.216403, 0.01275388, 0.03182233, 0.000940312, 0.08701666, 0.007746326, 0.008304028, 0.0005187925, -0.124918, 0.9796283
 125431474, 0.2073614, 0.02959008, 0.01675758, 0.000940312, 0.08964789, 0.02142137, 0.002302078, 0.0005209541, -0.09205692, 0.9813744
 125631394, 0.2179781, 0.04986677, 0.001735695, 0.0009424736, 0.09581492, 0.01553687, -0.001089238, 0.0005187925, -0.02637665, 0.9821985
 125831314, 0.2335019, 0.02084631, -0.003613087, 0.000940312, 0.1026369, -0.006049219, -0.00401886, 0.0005187925, 0.03576756, 0.9788078
 126031234, 0.2480429, -0.02671531, -0.01292317, 0.000940312, 0.1064325, -0.01902899, -0.009249995, 0.0005187925, 0.0696352, 0.9745671
 126231154, 0.2531474, -0.04331489, -0.0228645, 0.000940312, 0.1055809, -0.01369552, -0.01038749, 0.0005187925, 0.07007037, 0.9722342
 126431074, 0.2511314, -0.02184558, -0.02482471, 0.000940312, 0.1057766, 0.0008503129, -0.01150651, 0.0005187925, 0.04693747, 0.9707271
 126630994, 0.2532066, 0.01212764, -0.02508914, 0.000940312, 0.1072864, 0.01285678, -0.007614856, 0.0005187925, 0.01600091, 0.9683821
 126830914, 0.2564435, 0.03538767, -0.0183686, 0.000940312, 0.1076613, 0.0179307, -0.009786484, 0.0005187925, -0.00890504, 0.965876
 127030834, 0.2508796, 0.04288677, -0.02129724, 0.000940312, 0.09875207, 0.01722124, -0.006169312, 0.0005187925, -0.02043193, 0.9647628
 127230754, 0.2263796, 0.03753586, -0.01157935, 0.000940312, 0.08747136, 0.01216388, -0.002426314, 0.0005187925, -0.01865202, 0.9642914
 127430674, 0.201896, 0.0242053, -0.004474411, 0.000940312, 0.08003467, 0.00596471, -0.002465114, 0.0005187925, -0.008532668, 0.9635145
 127631427, 0.1874899, 0.01021967, -0.008368037, 0.0009424736, 0.07471893, 0.001167699, -0.003879342, 0.0005209542, 0.003360689, 0.9626309
 127831347, 0.1720527, 0.0007136668, -0.007990103, 0.0009424737, 0.06716473, -0.001202232, -0.002407758, 0.0005187925, 0.01182554, 0.9620233
 128031267, 0.154428, -0.003246176, -0.003477861, 0.000940312, 0.06026098, -0.001334892, -5.755029E-05, 0.0005187925, 0.01451674, 0.9614401
 128231187, 0.1393331, -0.001563254, -5.668396E-05, 0.000940312, 0.05489926, 0.001148769, -0.0004487959, 0.0005187925, 0.01195536, 0.9609304
 128431107, 0.1263163, 0.005259196, 0.0007950368, 0.000940312, 0.04907481, 0.00444047, 0.00234309, 0.0005187925, 0.006447328, 0.9604689
 128631027, 0.1138063, 0.01228726, 0.004691352, 0.000940312, 0.04532992, 0.006400695, 0.0003182926, 0.0005187925, 0.0007801553, 0.9599738
 128830947, 0.105414, 0.01578412, -0.001027706, 0.000940312, 0.04129103, 0.006880851, 6.72429E-05, 0.0005187925, -0.003062944, 0.9595567
 129030867, 0.09506128, 0.01614513, -9.139458E-05, 0.000940312, 0.03677034, 0.00637727, 0.0007904466, 0.0005187925, -0.004486862, 0.9592655
 129230787, 0.08472117, 0.01455087, 0.002189923, 0.000940312, 0.03253172, 0.005529364, 0.003194825, 0.0005187925, -0.003824058, 0.9589126
 129430707, 0.07477091, 0.01258949, 0.009273952, 0.000940312, 0.0295452, 0.004872125, 0.003916466, 0.0005187925, -0.002016075, 0.9584789
 129631460, 0.06826794, 0.01127807, 0.01136531, 0.0009424736, 0.02708908, 0.00442027, 0.005009236, 0.0005209542, -0.0002651541, 0.9580098
 129831380, 0.06292702, 0.01022012, 0.01090293, 0.0009424737, 0.02506871, 0.00404494, 0.003696431, 0.0005187925, 0.0006610709, 0.9576362
 130031300, 0.0584777, 0.009700489, 0.007631292, 0.000940312, 0.02356898, 0.004176722, 0.001659161, 0.0005187925, 0.0005742963, 0.9572825
 130231220, 0.05366129, 0.01035865, 0.006453943, 0.000940312, 0.0204474, 0.004847758, 0.004781532, 0.0005187925, -0.0004800505, 0.9569784
 130431140, 0.04803619, 0.01229585, 0.009742474, 0.000940312, 0.0193815, 0.00586128, 0.003726467, 0.0005187925, -0.002093308, 0.9565415
 130631060, 0.04471887, 0.01462879, 0.01042761, 0.000940312, 0.01766501, 0.006529641, 0.004985321, 0.0005187925, -0.003709984, 0.9561533
 130830980, 0.0418706, 0.01551568, 0.009305191, 0.000940312, 0.01736502, 0.006363389, 0.001539146, 0.0005187925, -0.00489978, 0.9558175
 131030900, 0.0402882, 0.01493921, 0.00287586, 0.000940312, 0.01570157, 0.006112066, 0.001390343, 0.0005187925, -0.005825663, 0.9555913
 131230820, 0.03650087, 0.01434844, 0.001972189, 0.000940312, 0.01473714, 0.005781509, -0.0008628684, 0.0005187925, -0.006496731, 0.9554008
 131430740, 0.03461969, 0.01336473, -0.004216701, 0.000940312, 0.013739, 0.005211052, -0.002731461, 0.0005187925, -0.006986094, 0.9552509
 131630660, 0.0319482, 0.01197748, -0.008326647, 0.000940312, 0.01241352, 0.004641589, -0.004532863, 0.0005187925, -0.00741749, 0.955231
 131831413, 0.02725566, 0.0106884, -0.007474467, 0.0009424736, 0.009219952, 0.004123672, 0.000629159, 0.0005209542, -0.007807943, 0.955157
 132031333, 0.02062291, 0.009251841, 0.004421155, 0.0009424737, 0.00818431, 0.003379537, 0.002664471, 0.0005187925, -0.008165363, 0.954818
 132231253, 0.01967943, 0.007564202, 0.006620963, 0.000940312, 0.008653251, 0.002785245, 0.002815234, 0.0005187925, -0.00854309, 0.9542932
 132431173, 0.02128221, 0.006867523, 0.004717788, 0.000940312, 0.009160017, 0.003279748, 0.001041184, 0.0005187925, -0.008970618, 0.9539239
 132631093, 0.02100474, 0.008261351, 0.003597458, 0.000940312, 0.007525, 0.003697714, 0.003455485, 0.0005187925, -0.009415606, 0.9537817
 132831013, 0.0165655, 0.008962101, 0.009795194, 0.000940312, 0.006078123, 0.003951479, 0.005370979, 0.0005187925, -0.009931882, 0.9535763
 133030933, 0.01382632, 0.009760913, 0.01510212, 0.000940312, 0.006406046, 0.004369798, 0.005170305, 0.0005187925, -0.01048378, 0.9531183
 133230853, 0.01603187, 0.01044152, 0.01175107, 0.000940312, 0.00774199, 0.004390508, 0.002820063, 0.0005187925, -0.01104399, 0.9526355
 133430773, 0.01842668, 0.01039002, 0.005471748, 0.000940312, 0.006859347, 0.004348898, 0.002584957, 0.0005187925, -0.01164317, 0.9525478
 133630693, 0.01571806, 0.01034202, 0.003549567, 0.000940312, 0.005715752, 0.004274909, 0.000488808, 0.0005187925, -0.01222297, 0.9526402
 133831446, 0.01290515, 0.0101103, 0.0003975577, 0.0009424736, 0.004733974, 0.004157235, -0.0004130364, 0.0005209542, -0.01267848, 0.9526536
 134031366, 0.010771, 0.009977942, -0.0008509769, 0.0009424737, 0.004111824, 0.004247821, 7.345121E-05, 0.0005187925, -0.0131562, 0.95249
 134231286, 0.009120014, 0.01011449, 0.002529015, 0.000940312, 0.003589846, 0.004191621, 0.002572267, 0.0005187925, -0.01358819, 0.9521483
 134431206, 0.009470773, 0.01012152, 0.00402842, 0.000940312, 0.003781773, 0.004393488, 0.002516503, 0.0005187925, -0.01395423, 0.9518794
 134631126, 0.009624871, 0.01048434, 0.003145653, 0.000940312, 0.003977609, 0.004406499, 0.0006556736, 0.0005187925, -0.01428357, 0.9517301
 134831046, 0.00818465, 0.01061815, 0.00398593, 0.000940312, 0.0026345, 0.004561082, 0.002670651, 0.0005187925, -0.0146445, 0.9516662
 135030966, 0.006738595, 0.01097047, 0.004097225, 0.000940312, 0.002892192, 0.004657533, 0.001143722, 0.0005187925, -0.0150872, 0.9514789
 135230886, 0.007322864, 0.01094391, 0.001234175, 0.000940312, 0.003085153, 0.004383243, 0.0004174195, 0.0005187925, -0.01568686, 0.9512724
 135430806, 0.007820062, 0.01032094, -0.001590978, 0.000940312, 0.003265135, 0.004256592, -0.001721698, 0.0005187925, -0.01637146, 0.9511999
 135630726, 0.007834438, 0.01027489, -0.007108563, 0.000940312, 0.003110089, 0.004436086, -0.005219385, 0.0005187925, -0.01697078, 0.9513587
 135831479, 0.006172358, 0.01070531, -0.01261692, 0.000940312, 0.001484771, 0.004635043, -0.004765812, 0.0005209541, -0.01733329, 0.9515429
 136031399, 0.002064991, 0.01086984, -0.008815818, 0.0009424736, -0.0004573041, 0.004392484, -0.0009427196, 0.0005187925, -0.01755503, 0.9515715
 136231319, -0.001288426, 0.01028933, -0.000848211, 0.000940312, -0.0009219006, 0.004154069, 0.002062814, 0.0005187925, -0.01778652, 0.9513129
 136431239, -0.001363175, 0.009696592, 0.005105115, 0.000940312, 0.0001338346, 0.003896669, 0.002266873, 0.0005187925, -0.01801629, 0.9509156
 136631159, 0.001370047, 0.009070666, 0.003537471, 0.000940312, 0.00126666, 0.003565212, 5.750744E-06, 0.0005187925, -0.0183646, 0.950698
 136831079, 0.002678845, 0.008210029, 0.0001075195, 0.000940312, 0.000657514, 0.003226183, 0.0004976427, 0.0005187925, -0.01876984, 0.9506704
 137030999, 0.001147428, 0.007873942, 0.0006905929, 0.000940312, 0.000232585, 0.003511271, -0.0006360214, 0.0005187925, -0.01918081, 0.9507545
 137230919, 5.897773E-05, 0.008827718, -0.003330286, 0.000940312, -0.0005574835, 0.004016701, -0.002375274, 0.0005187925, -0.01956958, 0.9509753
 137430839, -0.001222126, 0.009745854, -0.008116813, 0.000940312, -0.0005324552, 0.004209164, -0.004968992, 0.0005187925, -0.01989649, 0.9510933
 137630759, -0.001357614, 0.009881501, -0.01336584, 0.000940312, -0.0009455926, 0.003979188, -0.006140593, 0.0005187925, -0.02010651, 0.95125
 137830679, -0.00299543, 0.009260944, -0.01428374, 0.000940312, -0.001569392, 0.003734144, -0.006504795, 0.0005187925, -0.02026915, 0.9513858
 138031432, -0.003397676, 0.009647228, -0.01613422, 0.0009424736, -0.001170138, 0.004817824, -0.007026359, 0.0005209542, -0.02050277, 0.9513149
 138231352, -0.00281466, 0.0123364, -0.01599793, 0.0009424737, -0.001155245, 0.005893549, -0.006379997, 0.0005187925, -0.02077281, 0.9512698
 138431272, -0.003379375, 0.01414528, -0.01367567, 0.000940312, -0.00181714, 0.00548022, -0.004882934, 0.0005187925, -0.02114297, 0.9512917
 138631192, -0.00538513, 0.01162953, -0.009438829, 0.000940312, -0.003087708, 0.003700384, -0.00256364, 0.0005187925, -0.02172427, 0.9513999
 138831112, -0.008040334, 0.008399931, -0.003628816, 0.000940312, -0.003327442, 0.003508525, -0.0007335601, 0.0005187925, -0.02227385, 0.9512677
 139031032, -0.007598442, 0.008985282, -0.0008856435, 0.000940312, -0.002813152, 0.004340135, 6.9047E-05, 0.0005187925, -0.02271584, 0.9510645
 139230952, -0.006835091, 0.01057238, 0.00200863, 0.000940312, -0.002866328, 0.004274434, 0.002041213, 0.0005187925, -0.02299088, 0.9508854
 139430872, -0.006334085, 0.009525108, 0.004657265, 0.000940312, -0.002391424, 0.003439236, 0.002305115, 0.0005187925, -0.02307196, 0.950698
 139630792, -0.005752595, 0.007868082, 0.00620656, 0.000940312, -0.00237566, 0.00320123, 0.002947539, 0.0005187925, -0.02320182, 0.9505764
 139830712, -0.00630501, 0.007985136, 0.009041108, 0.000940312, -0.003155555, 0.003690741, 0.005563956, 0.0005187925, -0.02345509, 0.950472
 140031465, -0.007416267, 0.00944604, 0.0140196, 0.0009424736, -0.002820664, 0.004516132, 0.005919314, 0.0005209542, -0.02359603, 0.9502829
 140231385, -0.005603739, 0.01117585, 0.01152378, 0.0009424737, -0.001587886, 0.004942892, 0.0031798, 0.0005187925, -0.02374343, 0.9501123
 140431305, -0.003076863, 0.01184177, 0.005271235, 0.000940312, -0.0008831429, 0.004917329, 0.0006084416, 0.0005187925, -0.02401148, 0.9500743
 140631225, -0.002312942, 0.01155405, -9.535177E-05, 0.000940312, -0.001904655, 0.004683372, 0.0005794985, 0.0005187925, -0.02453574, 0.9502543
 140831145, -0.004763185, 0.01114259, 0.0001784209, 0.000940312, -0.001765818, 0.004677969, -0.001466652, 0.0005187925, -0.02507532, 0.9502741
 141031065, -0.003956045, 0.01110903, -0.003780087, 0.000940312, -0.001535987, 0.004626584, -0.001564671, 0.0005187925, -0.02552284, 0.9501663
 141230985, -0.004148053, 0.01093268, -0.002414953, 0.000940312, -0.002271776, 0.004358897, 5.630267E-05, 0.0005187925, -0.0258233, 0.9501767
 141430905, -0.006029502, 0.009908448, 0.001187438, 0.000940312, -0.00318076, 0.003780365, 0.00198115, 0.0005187925, -0.02589636, 0.9501677
 141630825, -0.007209642, 0.009132069, 0.005408809, 0.000940312, -0.002071691, 0.003997847, 0.001241881, 0.0005187925, -0.02607211, 0.9498888
 141830745, -0.004682825, 0.00981754, 0.003301625, 0.000940312, -0.002455409, 0.004330905, 0.003077003, 0.0005187925, -0.02635513, 0.9498023
 142030665, -0.005122266, 0.0103268, 0.004422875, 0.000940312, -0.001888794, 0.004255023, 0.0005009459, 0.0005187925, -0.02663891, 0.9497926
 142231418, -0.003991861, 0.009921802, -0.001684013, 0.0009424736, -0.001680078, 0.003916872, -0.001948091, 0.0005209542, -0.02693083, 0.9498953
 142431338, -0.00475381, 0.009303348, -0.004829193, 0.0009424737, -0.002809816, 0.003904172, -0.001753449, 0.0005187925, -0.02725546, 0.9501236
 142631258, -0.007694401, 0.009555404, -0.001722617, 0.000940312, -0.003329412, 0.004237906, 4.104639E-05, 0.0005187925, -0.02759488, 0.9500358
 142831178, -0.007481441, 0.01020194, -4.427333E-05, 0.000940312, -0.002540381, 0.004344496, -0.0007176328, 0.0005187925, -0.0279212, 0.9498827
 143031098, -0.005681654, 0.01043148, -0.002631825, 0.000940312, -0.001960016, 0.004461202, -0.002497004, 0.0005187925, -0.02825756, 0.9498869
 143231018, -0.004836471, 0.01080114, -0.007407422, 0.000940312, -0.002479677, 0.004668411, -0.003493381, 0.0005187925, -0.02858203, 0.9500753
 143430938, -0.006593344, 0.01106543, -0.007912489, 0.000940312, -0.003152727, 0.004400055, -0.003281285, 0.0005187925, -0.02891023, 0.9502013
 143630858, -0.007977502, 0.01005759, -0.006703158, 0.000940312, -0.003388526, 0.003919722, -0.002405124, 0.0005187925, -0.02918042, 0.9501711
 143830778, -0.008263241, 0.009248891, -0.00442756, 0.000940312, -0.003076473, 0.003889431, -0.00237122, 0.0005187925, -0.0293953, 0.9500994
 144030698, -0.008182512, 0.009440415, -0.002865771, 0.000940312, -0.003734789, 0.004131838, -0.0002445173, 0.0005187925, -0.02959015, 0.9501025
 144231451, -0.009558999, 0.009948392, 0.001675179, 0.0009424736, -0.004264075, 0.004162054, 0.001995703, 0.0005209542, -0.02978915, 0.9500334
 144431371, -0.009881486, 0.009830201, 0.004670252, 0.0009424737, -0.003919479, 0.004060531, 0.002043353, 0.0005187925, -0.02996571, 0.9499182
 144631291, -0.009359051, 0.009549219, 0.007215736, 0.000940312, -0.003565068, 0.003879347, 0.004042891, 0.0005187925, -0.03011653, 0.9496276
 144831211, -0.008037394, 0.009245018, 0.01040125, 0.000940312, -0.002742915, 0.003986109, 0.004213439, 0.0005187925, -0.03041473, 0.9493575
 145031131, -0.006095486, 0.009778197, 0.009414343, 0.000940312, -0.002271587, 0.004354089, 0.00343057, 0.0005187925, -0.03077359, 0.9492392
 145231051, -0.00461214, 0.01057303, 0.005250775, 0.000940312, -0.001630725, 0.004508888, 0.0003158259, 0.0005187925, -0.03107019, 0.9493012
 145430971, -0.004959927, 0.01055248, 0.0007921136, 0.000940312, -0.003022516, 0.00428078, 0.0004182345, 0.0005187925, -0.03128193, 0.9495751
 145630891, -0.007239925, 0.01005453, -0.0002236331, 0.000940312, -0.002422492, 0.004056709, -0.001914523, 0.0005187925, -0.03149936, 0.9495203
 145830811, -0.005903217, 0.00947339, -0.003646831, 0.000940312, -0.002659362, 0.003884056, -0.001193076, 0.0005187925, -0.03158449, 0.9495367
 146030731, -0.006654927, 0.009374616, -0.003406331, 0.000940312, -0.00317535, 0.004043226, -0.001630355, 0.0005187925, -0.03159151, 0.9496922
 146231484, -0.008098536, 0.009737891, -0.003605371, 0.000940312, -0.003966358, 0.004188576, -0.0007011553, 0.0005209541, -0.03161215, 0.9497865
 146431404, -0.009888643, 0.01006544, -6.56318E-05, 0.0009424736, -0.004319278, 0.004309901, 0.0007301341, 0.0005187925, -0.03181954, 0.9497409
 146631324, -0.009545698, 0.01040292, 0.0007404857, 0.000940312, -0.002981484, 0.004536649, -0.001510034, 0.0005187925, -0.03204358, 0.9495952
 146831244, -0.005950385, 0.01108095, -0.004813501, 0.000940312, -0.002457257, 0.004903222, -0.003045711, 0.0005187925, -0.03229422, 0.9496983
 147031164, -0.007353066, 0.01183161, -0.006233951, 0.000940312, -0.004292038, 0.005030508, -0.001210603, 0.0005187925, -0.03243434, 0.949938
 147231084, -0.009747773, 0.01202256, -0.004517268, 0.000940312, -0.003586465, 0.005056956, -0.002944857, 0.0005187925, -0.03265721, 0.9498963
 147431004, -0.009215286, 0.01206571, -0.004316617, 0.000940312, -0.004017207, 0.005081859, -0.0007814439, 0.0005187925, -0.03292814, 0.9498464
 147630924, -0.01000027, 0.01210877, 0.0001573087, 0.000940312, -0.005251067, 0.005053404, 0.001591883, 0.0005187925, -0.03319475, 0.9497565
 147830844, -0.01283006, 0.01197631, 0.003574573, 0.000940312, -0.004297134, 0.004958511, 0.001562216, 0.0005187925, -0.03346502, 0.9495689
 148030764, -0.008785265, 0.01170867, 0.003387798, 0.000940312, -0.001942676, 0.004768958, -9.601447E-05, 0.0005187925, -0.03375555, 0.9492645
 148230684, -0.000606759, 0.01110415, -0.0005735105, 0.000940312, -0.0008759822, 0.004487631, -0.001220178, 0.0005187925, -0.0340291, 0.9494207
 148431437, -0.004216243, 0.01077942, -0.005422177, 0.0009424736, -0.003495533, 0.004605195, -0.003614803, 0.0005209542, -0.03436171, 0.9499386
 148631357, -0.00915526, 0.01081935, -0.00842656, 0.0009424737, -0.004126855, 0.004399988, -0.003536522, 0.0005187925, -0.03473581, 0.9500121
 148831277, -0.009474258, 0.01041424, -0.008318127, 0.000940312, -0.003897293, 0.004276586, -0.002468852, 0.0005187925, -0.03494579, 0.9498942
 149031197, -0.008904877, 0.009999452, -0.005540331, 0.000940312, -0.003412327, 0.004032812, -0.002035152, 0.0005187925, -0.03507805, 0.9497611
 149231117, -0.008710075, 0.00955546, -0.003119295, 0.000940312, -0.004586774, 0.004068142, 0.0003361215, 0.0005187925, -0.03523209, 0.9499267
 149431037, -0.01168147, 0.009998812, 0.001062241, 0.000940312, -0.005189603, 0.004449612, 0.0002808007, 0.0005187925, -0.03544547, 0.9500697
 149630957, -0.01708893, 0.01070786, 0.001823169, 0.000940312, -0.00757077, 0.004484014, 0.002142601, 0.0005187925, -0.03579806, 0.9497543
 149830877, -0.01379891, 0.01067395, 0.00534357, 0.000940312, -0.003023102, 0.004535134, 0.002183881, 0.0005187925, -0.03620365, 0.9492577
 150030797, -0.006824113, 0.01099796, 0.005301454, 0.000940312, -0.002994391, 0.004707879, 0.002548317, 0.0005187925, -0.03659218, 0.9492835
 150230717, -0.002580745, 0.01116851, 0.003866642, 0.000940312, 0.001718701, 0.004590235, 0.0001777831, 0.0005187925, -0.03680919, 0.9495241
 150431470, -0.001830456, 0.01079738, 0.0003182927, 0.0009424736, -0.00449824, 0.004324847, -0.000455324, 0.0005209542, -0.03696271, 0.9500309
 150631390, -0.01816466, 0.01016414, 4.084002E-05, 0.0009424737, -0.00811083, 0.004195095, 0.0008279265, 0.0005187925, -0.03723089, 0.9498665
 150831310, -0.0147809, 0.00991838, 0.003222823, 0.000940312, -0.002891321, 0.004096046, 0.002075245, 0.0005187925, -0.03762052, 0.9490709
 151031230, -0.005115593, 0.00973205, 0.004823926, 0.000940312, -0.0009141843, 0.004114267, 0.001309342, 0.0005187925, -0.03808496, 0.9488176
 151231150, 0.001711349, 0.01021364, 0.002741012, 0.000940312, -0.001044432, 0.004614012, 0.0004324339, 0.0005187925, -0.03850783, 0.94937
 151431070, -0.006199501, 0.01104196, 0.0008923775, 0.000940312, -0.004487657, 0.004484641, -0.0005057397, 0.0005187925, -0.03867123, 0.9497488
 151630990, -0.01037002, 0.01023267, -0.001356015, 0.000940312, -0.004285885, 0.003981473, 0.0006729938, 0.0005187925, -0.0387834, 0.9495373
 151830910, -0.008972416, 0.009537068, -0.0002998333, 0.000940312, -0.003035812, 0.004112658, -0.0008363096, 0.0005187925, -0.03902086, 0.9493486
 152030830, -0.006797697, 0.009940597, -0.002042143, 0.000940312, -0.002490577, 0.004318719, -0.00155976, 0.0005187925, -0.03930765, 0.9493009
 152230750, -0.006382786, 0.01066886, -0.004732303, 0.000940312, -0.0030393, 0.004821535, -0.002882514, 0.0005187925, -0.03971687, 0.9495246
 152430670, -0.008452418, 0.0115883, -0.004950903, 0.000940312, -0.004266064, 0.004857711, -0.0006901328, 0.0005187925, -0.04009467, 0.9496132
 152631423, -0.009511675, 0.01138365, -0.003548673, 0.0009424736, -0.003679652, 0.004454551, -0.002547093, 0.0005209542, -0.04048099, 0.9496358
 152831343, -0.009662156, 0.01031179, -0.003912671, 0.0009424737, -0.004576432, 0.004186564, -0.0003053874, 0.0005187925, -0.04080625, 0.9496806
 153031263, -0.01086321, 0.009999232, -0.0007127975, 0.000940312, -0.00456966, 0.004219519, -0.0002962715, 0.0005187925, -0.04112222, 0.9496835
 153231183, -0.01059156, 0.01005426, -0.00122291, 0.000940312, -0.004280985, 0.004208399, -0.0004901582, 0.0005187925, -0.04134526, 0.9496434
 153431103, -0.010063, 0.01009727, -0.0007438483, 0.000940312, -0.004050852, 0.004314252, -0.000129562, 0.0005187925, -0.0414749, 0.9495778
 153631023, -0.009055279, 0.01036233, -0.00163474, 0.000940312, -0.003879024, 0.004414922, -3.929473E-05, 0.0005187925, -0.04172165, 0.9495361
 153830943, -0.009158076, 0.01059657, 5.492167E-06, 0.000940312, -0.003808107, 0.004505325, 0.0001837317, 0.0005187925, -0.04204594, 0.9494922
 154030863, -0.009868247, 0.01051431, 0.003209422, 0.000940312, -0.004275991, 0.00420938, 0.002201501, 0.0005187925, -0.04241735, 0.9494217
 154230783, -0.009877381, 0.00981818, 0.005076989, 0.000940312, -0.003826964, 0.003941375, 0.001873054, 0.0005187925, -0.04277684, 0.9493067
 154430703, -0.008784804, 0.009401241, 0.004427849, 0.000940312, -0.003433528, 0.004000152, 0.00191186, 0.0005187925, -0.04307628, 0.9491782
 154631456, -0.007625667, 0.009630881, 0.003569312, 0.0009424736, -0.002738777, 0.004094989, 0.0005637542, 0.0005209542, -0.0433188, 0.9490992
 154831376, -0.006984962, 0.009853533, 0.002039711, 0.0009424737, -0.00330564, 0.004228438, 0.001724389, 0.0005187925, -0.04350669, 0.9490914
 155031296, -0.007392868, 0.01018823, 0.002899173, 0.000940312, -0.003075642, 0.004360301, 0.001353563, 0.0005187925, -0.04379517, 0.9490337
 155231216, -0.007425142, 0.01056668, 0.003216288, 0.000940312, -0.003231517, 0.00458824, 0.00147657, 0.0005187925, -0.04412296, 0.9490186
 155431136, -0.007727096, 0.01108636, 0.003384401, 0.000940312, -0.003264164, 0.004780871, 0.001291929, 0.0005187925, -0.04443337, 0.9490021
 155631056, -0.007732048, 0.01140596, 0.00265764, 0.000940312, -0.003148953, 0.004545946, 0.0006160953, 0.0005187925, -0.04469664, 0.948992
 155830976, -0.00689664, 0.0100699, -0.0008300606, 0.000940312, -0.002766911, 0.003557045, -0.001125689, 0.0005187925, -0.04498319, 0.9489943
 156030896, -0.006649646, 0.007860458, -0.002918728, 0.000940312, -0.002625694, 0.003026754, -0.002257552, 0.0005187925, -0.04522464, 0.9490541
 156230816, -0.007033939, 0.007979644, -0.005882927, 0.000940312, -0.003404593, 0.004005427, -0.003343605, 0.0005187925, -0.04534447, 0.9493355
 156430736, -0.008853561, 0.01001487, -0.007609958, 0.000940312, -0.004459795, 0.004505182, -0.002261896, 0.0005187925, -0.04544853, 0.9495161
 156630656, -0.01216725, 0.01063636, -0.0004237893, 0.000940312, -0.007801295, 0.004352051, 0.008688112, 0.0005187925, -0.04558441, 0.9494665
 156831409, -0.01952002, 0.01023738, 0.02579171, 0.0009424736, -0.009166475, 0.004164596, 0.01426934, 0.0005209542, -0.04571331, 0.9491312
 157031329, -0.02524435, 0.009867817, 0.03540665, 0.0009424737, -0.00752332, 0.004103537, 0.01548358, 0.0005187925, -0.04585139, 0.9482902
 157231249, -0.01362939, 0.009742511, 0.03577404, 0.000940312, -0.002762925, 0.004075016, 0.01382884, 0.0005187925, -0.04603359, 0.9475508
 157431169, -0.006204021, 0.01001327, 0.03182945, 0.000940312, -0.002756498, 0.004486466, 0.0128693, 0.0005187925, -0.04627946, 0.9475482
 157631089, -0.006510408, 0.01080231, 0.02854787, 0.000940312, -0.002890095, 0.004548252, 0.01073857, 0.0005187925, -0.04627816, 0.9476088
 157831009, -0.006452207, 0.01073504, 0.02235105, 0.000940312, -0.002686, 0.004427386, 0.007692353, 0.0005187925, -0.04607027, 0.9476901
 158030929, -0.006097337, 0.01051516, 0.016034, 0.000940312, -0.001765882, 0.004453132, 0.004501133, 0.0005187925, -0.04590643, 0.9476942
 158230849, 0.005173375, 0.01071199, 0.00963389, 0.000940312, 0.0007753447, 0.004599056, 0.003173703, 0.0005187925, -0.04587594, 0.9479704
 158430769, -0.00251647, 0.0110609, 0.005507323, 0.000940312, -0.00382027, 0.004731504, 0.0009504663, 0.0005187925, -0.04618316, 0.9484495
 158630689, -0.009633386, 0.01133192, 0.000852332, 0.000940312, -0.003595081, 0.004837132, -0.001456332, 0.0005187925, -0.04656171, 0.9483904
 158831442, -0.007590929, 0.01181471, -0.0033525, 0.0009424736, -0.002753469, 0.005176295, -0.0007477534, 0.0005209542, -0.04690116, 0.9481496
 159031362, -0.007097898, 0.01228092, -0.0003862813, 0.0009424737, -0.002783214, 0.005006323, -0.0009428661, 0.0005187925, -0.04700137, 0.9481537
 159231282, -0.007064616, 0.01179706, -0.001430207, 0.000940312, -0.003232726, 0.004891384, -0.0002610938, 0.0005187925, -0.04703825, 0.9482042
 159431202, -0.008476177, 0.01165768, 0.0005944877, 0.000940312, -0.003964454, 0.004886123, 0.0006385239, 0.0005187925, -0.04716447, 0.9482923
 159631122, -0.00912859, 0.01155564, 0.0005289892, 0.000940312, -0.003674086, 0.004720519, -7.269215E-05, 0.0005187925, -0.04737801, 0.9482581
 159831042, -0.008465335, 0.01113509, -0.0009349609, 0.000940312, -0.00394879, 0.004582105, 0.0008531995, 0.0005187925, -0.04757547, 0.9482498
 160030962, -0.009003752, 0.01092412, 0.0003202634, 0.000940312, -0.004130124, 0.004631671, 0.0007871876, 0.0005187925, -0.04768664, 0.9483054
 160230882, -0.009717746, 0.01115581, 0.001296418, 0.000940312, -0.00404634, 0.004761131, 0.0006713911, 0.0005187925, -0.04787017, 0.9482743
 160430802, -0.009363693, 0.01141327, 0.001615352, 0.000940312, -0.003746575, 0.004844829, 0.0008403015, 0.0005187925, -0.04808106, 0.9481862
 160630722, -0.009457481, 0.01125042, 0.003579149, 0.000940312, -0.004228241, 0.00440764, 0.002198634, 0.0005187925, -0.04819031, 0.9481797
 160831475, -0.009358451, 0.01025734, 0.003339389, 0.000940312, -0.003760453, 0.004191974, 0.001093664, 0.0005209541, -0.04828426, 0.9481338
 161031395, -0.008600071, 0.01007511, 0.00164385, 0.0009424736, -0.003484019, 0.004346498, 0.0002838358, 0.0005187925, -0.04844552, 0.9481302
 161231315, -0.008319633, 0.01050739, 0.000639084, 0.000940312, -0.00350448, 0.004537628, 0.0002340501, 0.0005187925, -0.0486025, 0.948126
 161431235, -0.008254149, 0.01093189, 0.0001719455, 0.000940312, -0.002744404, 0.004716058, -0.002183347, 0.0005187925, -0.04874237, 0.9481261
 161631155, -0.007143501, 0.01126158, -0.003701492, 0.000940312, -0.002965556, 0.004628338, -0.001821247, 0.0005187925, -0.04893196, 0.948139
 161831075, -0.007769039, 0.01075221, -0.002658721, 0.000940312, -0.003103216, 0.004277651, -0.001740829, 0.0005187925, -0.04913537, 0.9481471
 162030995, -0.007478206, 0.01007081, -0.004061563, 0.000940312, -0.00320216, 0.004137068, -0.001734526, 0.0005187925, -0.04929847, 0.948167
 162230915, -0.007893341, 0.009786529, -0.003587606, 0.000940312, -0.003752133, 0.00409439, -0.0004438436, 0.0005187925, -0.04946427, 0.9481984
 162430835, -0.009528467, 0.009911708, 0.0002216477, 0.000940312, -0.004295536, 0.00429059, 0.0006139064, 0.0005187925, -0.04960054, 0.948248
 162630755, -0.01069986, 0.01021465, 0.00310444, 0.000940312, -0.004692851, 0.004136614, 0.002817554, 0.0005187925, -0.04970863, 0.9481353
 162830675, -0.01052236, 0.009584836, 0.006378262, 0.000940312, -0.003323573, 0.003854115, 0.0007921006, 0.0005187925, -0.04979591, 0.9479566
 163031428, -0.008157286, 0.009302421, 0.002611955, 0.0009424736, -0.004050643, 0.004040809, 0.002514864, 0.0005209542, -0.04984622, 0.9480022
 163231348, -0.008798535, 0.009814844, 0.003089081, 0.0009424737, -0.003286223, 0.004283778, 2.819959E-05, 0.0005187925, -0.04990786, 0.9479889
 163431268, -0.007747364, 0.01039098, -7.003724E-05, 0.000940312, -0.003152159, 0.004525373, -0.0004647911, 0.0005187925, -0.04999746, 0.9480176
 163631188, -0.007903688, 0.01090055, -0.001775821, 0.000940312, -0.003871731, 0.004600355, -0.0003618473, 0.0005187925, -0.05026848, 0.9481464
 163831108, -0.008917484, 0.01092065, -0.001728671, 0.000940312, -0.00321813, 0.004501105, -0.001980552, 0.0005187925, -0.05042879, 0.948116
 164031028, -0.008607667, 0.01075333, -0.002244555, 0.000940312, -0.004058535, 0.004569381, 5.6852E-05, 0.0005187925, -0.05053053, 0.9481705
 164230948, -0.01011898, 0.01085544, 0.001787289, 0.000940312, -0.004061724, 0.004446495, 0.001302603, 0.0005187925, -0.05063421, 0.9480304
 164430868, -0.008769985, 0.01049987, 0.002604913, 0.000940312, -0.002836523, 0.004333312, 0.0002699523, 0.0005187925, -0.05072375, 0.9478136
 164630788, -0.006586242, 0.01026692, 0.0005290275, 0.000940312, -0.002589043, 0.004262461, -0.0001086039, 0.0005187925, -0.05079035, 0.9477753
 164830708, -0.006320347, 0.0102244, -0.001802583, 0.000940312, -0.003195445, 0.004368935, -0.001009348, 0.0005187925, -0.05093647, 0.9479886
 165031461, -0.008329358, 0.01051027, -0.001378234, 0.0009424736, -0.003841563, 0.004483288, 2.805739E-05, 0.0005209542, -0.05107602, 0.9480283
 165231381, -0.008975484, 0.01064342, -0.0002040682, 0.0009424737, -0.003547793, 0.004381464, -0.0003473633, 0.0005187925, -0.05117488, 0.9479786
 165431301, -0.008372531, 0.01044886, -0.0003063109, 0.000940312, -0.003395478, 0.004426187, 0.0001708778, 0.0005187925, -0.05117444, 0.9478957
 165631221, -0.007893573, 0.01061084, 0.0004543477, 0.000940312, -0.003148669, 0.004505883, 0.000232719, 0.0005187925, -0.05117255, 0.9478184
 165831141, -0.007346524, 0.01078963, 0.0005907686, 0.000940312, -0.002953961, 0.00457258, 0.0002808031, 0.0005187925, -0.05117161, 0.9477475
 166031061, -0.006989579, 0.01094823, 0.0004157369, 0.000940312, -0.003159972, 0.004650575, 1.225219E-05, 0.0005187925, -0.05121421, 0.9478537
 166230981, -0.008477493, 0.01093003, -0.000495711, 0.000940312, -0.004425845, 0.004351308, -0.000124848, 0.0005187925, -0.05137731, 0.9481544
 166430901, -0.01108465, 0.01001637, -0.0004119058, 0.000940312, -0.004956142, 0.003899418, -0.0003600265, 0.0005187925, -0.0515375, 0.9483061
 166630821, -0.0119262, 0.009003761, -0.0003008711, 0.000940312, -0.004652026, 0.003681952, 0.0002507553, 0.0005187925, -0.05162313, 0.9481457
 166830741, -0.0103675, 0.009290496, 0.00177563, 0.000940312, -0.003269667, 0.004252711, -1.417069E-05, 0.0005187925, -0.05167232, 0.9478706
 167030661, -0.007899225, 0.01037049, 0.0006681951, 0.000940312, -0.003520831, 0.004570826, 0.0004249994, 0.0005187925, -0.05168695, 0.9479342
 167231414, -0.008624634, 0.01115651, 0.0004171022, 0.0009424736, -0.003792953, 0.004826296, -0.0002450141, 0.0005209542, -0.05182935, 0.9480368
 167431334, -0.009786848, 0.01127318, 0.001302568, 0.0009424737, -0.004575853, 0.004468497, 0.001933649, 0.0005187925, -0.05192154, 0.948038
 167631254, -0.01054072, 0.01044554, 0.003988865, 0.000940312, -0.003547275, 0.004300541, -0.0004113137, 0.0005187925, -0.05196455, 0.9479718
 167831174, -0.008319622, 0.01035391, -0.001089931, 0.000940312, -0.003347722, 0.004428768, -0.0007378296, 0.0005187925, -0.05196979, 0.9479682
 168031094, -0.007640044, 0.01046168, -0.003915123, 0.000940312, -0.003653914, 0.004338017, -0.001368498, 0.0005187925, -0.05187077, 0.9481168
 168231014, -0.009352267, 0.01049754, -0.002255641, 0.000940312, -0.004326335, 0.00456995, -0.0004004473, 0.0005187925, -0.05172992, 0.9482235
 168430934, -0.01038782, 0.01106482, -0.001077022, 0.000940312, -0.004307203, 0.00478688, -0.00061827, 0.0005187925, -0.05161527, 0.9482512
 168630854, -0.01720021, 0.01154862, -0.001390885, 0.000940312, -0.0172265, 0.004967379, -0.000756749, 0.0005187925, -0.05157417, 0.9479986
 168830774, -0.01834333, 0.01167915, -0.001369014, 0.000940312, 0.01149485, 0.00459292, -0.0008600429, 0.0005187925, -0.05173004, 0.9469545
 169030694, 0.01784133, 0.01062439, -0.002639683, 0.000940312, 0.001086221, 0.004260405, -0.002994773, 0.0005187925, -0.05187354, 0.9475105
 169231447, -0.00584695, 0.01022789, -0.006524814, 0.0009424736, -0.006341921, 0.004310638, -0.00222242, 0.0005209542, -0.05208583, 0.9485746
 169431367, -0.01503903, 0.01015254, -0.00479699, 0.0009424737, -0.005780085, 0.004176616, -0.001189066, 0.0005187925, -0.05211719, 0.9484821
 169631287, -0.01195938, 0.01001489, -0.003354607, 0.000940312, -0.003694132, 0.004288587, -0.001585513, 0.0005187925, -0.05185607, 0.9481182
 169831207, -0.008328623, 0.01039061, -0.003449098, 0.000940312, -0.003156178, 0.004514059, -0.001348888, 0.0005187925, -0.05155629, 0.9480302
 170031127, -0.007666948, 0.01093796, -0.003305194, 0.000940312, -0.003616572, 0.004755894, -0.001407284, 0.0005187925, -0.05133792, 0.948222
 170231047, -0.009540481, 0.01152339, -0.003660127, 0.000940312, -0.004799501, 0.004989963, -0.001426755, 0.0005187925, -0.05124862, 0.9485407
 170430967, -0.01184165, 0.01195827, -0.00354815, 0.000940312, -0.005130114, 0.004989774, -0.001539347, 0.0005187925, -0.05124739, 0.948646
 170630887, -0.01197, 0.01172016, -0.003064075, 0.000940312, -0.004952492, 0.004643394, 8.371103E-06, 0.0005187925, -0.05137479, 0.9485058
 170830807, -0.01934097, 0.01056892, 0.0004464198, 0.000940312, -0.009425177, 0.004049847, 0.000754406, 0.0005187925, -0.05192677, 0.9480956
 171030727, -0.01532164, 0.009702063, 0.003335434, 0.000940312, 0.002197341, 0.004159998, 0.002806513, 0.0005187925, -0.0525683, 0.9472463
 171231480, 0.01241124, 0.01013311, 0.006797018, 0.000940312, 0.001556696, 0.004560125, 0.00253586, 0.0005209541, -0.05292509, 0.9476046
 171431400, -0.003182408, 0.01103702, 0.005526373, 0.0009424736, -0.006197079, 0.004671654, 0.002138105, 0.0005187925, -0.052917, 0.9486904
 171631320, -0.01909151, 0.01101246, 0.003956054, 0.000940312, -0.01816226, 0.004581208, 0.002489945, 0.0005187925, -0.0528691, 0.9485878
 171831240, -0.03222151, 0.01077521, 0.005626079, 0.000940312, -0.003560386, 0.004419258, 0.001973282, 0.0005187925, -0.05279893, 0.9471593
 172031160, -0.000682238, 0.01050939, 0.005096196, 0.000940312, 0.01190336, 0.004368606, 0.001965557, 0.0005187925, -0.05251193, 0.9464436
 172231080, 0.01908848, 0.01053764, 0.004084891, 0.000940312, -0.0003787912, 0.004491549, 0.0009123323, 0.0005187925, -0.05218379, 0.947632
 172431000, -0.006752239, 0.01037927, 0.001797293, 0.000940312, -0.006520897, 0.004072397, 0.0001698398, 0.0005187925, -0.0520421, 0.9486794
 172630920, -0.01553164, 0.009620744, -0.0003046318, 0.000940312, -0.005858358, 0.004057735, -0.0002211985, 0.0005187925, -0.05192135, 0.9484578
 172830840, -0.01250248, 0.009909444, -0.0001730369, 0.000940312, -0.003809312, 0.004376295, -0.0003950362, 0.0005187925, -0.05204247, 0.9480098
 173030760, -0.007840198, 0.01062695, -0.0009506057, 0.000940312, -0.002108133, 0.004608614, -0.001522291, 0.0005187925, -0.0522753, 0.9477124
 173230680, -0.00491814, 0.01098572, -0.004323747, 0.000940312, -0.002198418, 0.004627632, -0.002026914, 0.0005187925, -0.05254313, 0.9477551
 173431433, -0.005704312, 0.0110916, -0.005017301, 0.0009424736, -0.003133572, 0.004695111, -0.001991449, 0.0005209542, -0.05283624, 0.947995
 173631353, -0.008406473, 0.01116457, -0.005117634, 0.0009424737, -0.004426702, 0.004604056, -0.002156268, 0.0005187925, -0.05309222, 0.9483334
 173831273, -0.01133588, 0.0108047, -0.004951611, 0.000940312, -0.005022013, 0.004378168, -0.002182244, 0.0005187925, -0.05326233, 0.9484813
 174031193, -0.01182352, 0.0102811, -0.005135844, 0.000940312, -0.004830868, 0.004265243, -0.001953366, 0.0005187925, -0.05338853, 0.9484619
 174231113, -0.01105114, 0.01055764, -0.004612681, 0.000940312, -0.004087339, 0.004732432, -0.002000473, 0.0005187925, -0.05347348, 0.9483172
 174431033, -0.009418665, 0.01130846, -0.003675287, 0.000940312, -0.00343416, 0.004752952, -0.000985706, 0.0005187925, -0.05347731, 0.9480868
 174630953, -0.008327146, 0.01118508, 0.0005042956, 0.000940312, -0.003238715, 0.004522005, 0.001455927, 0.0005187925, -0.05330765, 0.9478402
 174830873, -0.007790287, 0.01050743, 0.004743204, 0.000940312, -0.003682867, 0.004066716, 0.003623978, 0.0005187925, -0.05314057, 0.947771
 175030793, -0.008499051, 0.009275605, 0.007733114, 0.000940312, -0.003337347, 0.003665878, 0.002544986, 0.0005187925, -0.05304675, 0.9477406
 175230713, -0.008044696, 0.008927586, 0.005965623, 0.000940312, -0.003039272, 0.003969023, 0.001307578, 0.0005187925, -0.05312692, 0.9477327
 175431466, -0.007112837, 0.009849481, 0.002297702, 0.0009424736, -0.002928496, 0.004465652, 0.0004759564, 0.0005209542, -0.05316298, 0.9477509
 175631386, -0.006914323, 0.01078152, 0.0005690203, 0.0009424737, -0.002644232, 0.004380167, -0.0012259, 0.0005187925, -0.05316118, 0.9478229
 175831306, -0.007618246, 0.01006864, -0.0009585719, 0.000940312, -0.003901614, 0.00394824, 0.0001631025, 0.0005187925, -0.05312877, 0.9480016
 176031226, -0.009776512, 0.009168906, 0.0005879099, 0.000940312, -0.004414368, 0.003776721, 0.000749051, 0.0005187925, -0.05309683, 0.9480426
 176231146, -0.009995297, 0.009629948, 0.002502982, 0.000940312, -0.003830844, 0.004572477, 0.002045786, 0.0005187925, -0.05316198, 0.9478071
 176431066, -0.008206769, 0.01124683, 0.00290575, 0.000940312, -0.002926267, 0.004962381, 7.709161E-05, 0.0005187925, -0.0532217, 0.9477446
 176630986, -0.006918179, 0.01201091, 0.0002500392, 0.000940312, -0.002815073, 0.005194429, 1.567095E-05, 0.0005187925, -0.05325863, 0.9477109
 176830906, -0.006978645, 0.01223835, 2.97773E-05, 0.000940312, -0.003205609, 0.004894921, 6.290303E-05, 0.0005187925, -0.05327296, 0.9477837
 177030826, -0.007910679, 0.01129431, 0.0001170953, 0.000940312, -0.003537571, 0.004388009, -4.801021E-05, 0.0005187925, -0.05328267, 0.9478557
 177230746, -0.00918196, 0.009772699, 0.0008949061, 0.000940312, -0.003990548, 0.003491037, -0.0002663667, 0.0005187925, -0.05333263, 0.9479744
 177430666, -0.009723512, 0.007971901, -0.0006274015, 0.000940312, -0.00428307, 0.003154468, -0.0001708682, 0.0005187925, -0.05341981, 0.948041
 177631419, -0.01024647, 0.008005816, -0.0001957476, 0.0009424736, -0.004113449, 0.003813134, -0.0003718358, 0.0005209542, -0.05346807, 0.9480301
 177831339, -0.009692745, 0.009559482, -0.0008362921, 0.0009424737, -0.003996449, 0.004416802, -0.0002651382, 0.0005187925, -0.05350373, 0.9480172
 178031259, -0.009432767, 0.01074075, -0.0006525005, 0.000940312, -0.003886458, 0.004671159, -0.0002728014, 0.0005187925, -0.05354746, 0.9480038
 178231179, -0.008996389, 0.01106674, -0.001142172, 0.000940312, -0.003446906, 0.004327944, -0.001340536, 0.0005187925, -0.05346922, 0.9479928
 178431099, -0.008742832, 0.009742038, -0.001851496, 0.000940312, -0.003924205, 0.003611048, -0.0001912555, 0.0005187925, -0.05314289, 0.9480324
 178631019, -0.009421648, 0.008336372, -0.0003668103, 0.000940312, -0.004147168, 0.003411505, 0.0003459464, 0.0005187925, -0.05282824, 0.9480668
 178830939, -0.010147, 0.008934824, 0.002515682, 0.000940312, -0.004047207, 0.004453592, 0.002040303, 0.0005187925, -0.05276326, 0.9478827
 179030859, -0.008102647, 0.01115925, 0.00271643, 0.000940312, -0.002355537, 0.004941384, 5.022066E-05, 0.0005187925, -0.05294463, 0.947612
 179230779, -0.005222382, 0.01180868, 3.94663E-05, 0.000940312, -0.004296467, 0.004980426, -0.0006034987, 0.0005187925, -0.05315235, 0.9475392
 179430699, -0.009822296, 0.01144344, -0.001341337, 0.000940312, -0.003712592, 0.004365371, -0.0001276912, 0.0005187925, -0.05325532, 0.9477912
 179631452, -0.008332576, 0.01025728, -0.001950235, 0.0009424736, -0.003244972, 0.004205964, -0.001288763, 0.0005209542, -0.05305228, 0.9478603
 179831372, -0.008352483, 0.01008438, -0.001571268, 0.0009424737, -0.003811623, 0.004295493, -8.141716E-05, 0.0005187925, -0.05272389, 0.9479424
 180031292, -0.009142024, 0.01031224, -0.0003193924, 0.000940312, -0.003823449, 0.004387218, -9.592748E-05, 0.0005187925, -0.05242941, 0.9479551
 180231212, -0.008708678, 0.01050432, -0.0005562154, 0.000940312, -0.003397242, 0.004443685, 8.329158E-05, 0.0005187925, -0.05223611, 0.9478333
 180431132, -0.007764431, 0.01064084, 0.0004721837, 0.000940312, -0.002902368, 0.004543673, 0.0001877784, 0.0005187925, -0.05212881, 0.9476971
 180631052, -0.007712539, 0.01094009, 0.00122897, 0.000940312, -0.003134251, 0.004652305, 0.0001517988, 0.0005187925, -0.05219329, 0.9475704
 180830972, -0.007790567, 0.01110974, -0.0007589819, 0.000940312, -8.000538E-05, 0.004638035, -0.001224814, 0.0005187925, -0.05256471, 0.9476207
 181030892, -0.002336948, 0.01077858, -0.00390355, 0.000940312, -0.00246825, 0.004283984, -0.001986232, 0.0005187925, -0.05311369, 0.9477505
 181230812, -0.006694377, 0.009955637, -0.004654562, 0.000940312, -0.003713168, 0.003960588, -0.0009688589, 0.0005187925, -0.05360366, 0.9478773
 181430732, -0.009279056, 0.009224572, -0.002040017, 0.000940312, -0.004177946, 0.003758583, -0.0006840863, 0.0005187925, -0.0536446, 0.9479631
 181631485, -0.01031696, 0.009630024, -0.0008689577, 0.000940312, -0.004685709, 0.004845131, 0.0003926999, 0.0005209541, -0.05329967, 0.9480431
 181831405, -0.0150849, 0.0123024, 0.001301616, 0.0009424736, -0.01334159, 0.005618787, 0.0009945371, 0.0005187925, -0.05290428, 0.9478291
 182031325, -0.01801631, 0.01301463, 0.002259159, 0.000940312, 0.0153281, 0.004997175, 0.0009707679, 0.0005187925, -0.05246167, 0.947099
 182231245, 0.02724234, 0.01134694, 0.001466854, 0.000940312, 0.0003917164, 0.004170666, 8.342505E-05, 0.0005187925, -0.05218624, 0.9479198
 182431165, -0.00699487, 0.009128308, 0.000682635, 0.000940312, -0.007971424, 0.003260134, 1.190663E-05, 0.0005187925, -0.05220363, 0.9490209
 182631085, -0.04349079, 0.00788655, -2.111424E-05, 0.000940312, -0.01728013, 0.003456507, -4.073897E-05, 0.0005187925, -0.05240559, 0.9479721
 182831005, -0.02282201, 0.008409739, 0.0002897808, 0.000940312, 0.003111797, 0.003808109, 8.160663E-05, 0.0005187925, -0.05250519, 0.9456326
 183030925, 0.03366818, 0.009470865, -0.001008057, 0.000940312, 0.01307822, 0.004421541, -0.00146301, 0.0005187925, -0.05245458, 0.9464709
 183230845, 0.01278688, 0.01072794, -0.004747114, 0.000940312, -0.007653246, 0.004559968, -0.003068122, 0.0005187925, -0.05233665, 0.9494745
 183430765, -0.0235056, 0.01076269, -0.005691456, 0.000940312, -0.01176014, 0.004349178, -0.001815184, 0.0005187925, -0.05229646, 0.9499303
 183630685, -0.04407613, 0.01017365, -0.003659284, 0.000940312, -0.01664467, 0.004264943, -0.000173317, 0.0005187925, -0.05223917, 0.9481201
 183831438, -0.02179916, 0.01067034, -0.0001772211, 0.0009424736, 0.002191682, 0.004947227, 0.0004468568, 0.0005209542, -0.05203637, 0.9459602
 184031358, 0.02714661, 0.01181468, 0.0003603956, 0.0009424737, 0.01251552, 0.004846536, -0.0002764037, 0.0005187925, -0.05183979, 0.9468863
 184231278, 0.01135846, 0.01135535, -0.001554441, 0.000940312, -0.008441585, 0.00455542, -0.0005320053, 0.0005187925, -0.0518084, 0.9496652
 184431198, -0.028343, 0.01054119, -0.0005177918, 0.000940312, -0.02976268, 0.004221175, 0.0005007003, 0.0005187925, -0.05183395, 0.9499878
 184631118, -0.05611756, 0.009666472, 0.00236297, 0.000940312, -0.007453504, 0.003885542, 0.00268469, 0.0005187925, -0.05190671, 0.9474497
 184831038, -0.006571564, 0.00968695, 0.006425516, 0.000940312, 0.004283904, 0.0044555, 0.001896675, 0.0005187925, -0.05174032, 0.945689
 185030958, 0.02426619, 0.01085073, 0.002675578, 0.000940312, 0.01628991, 0.004814792, -0.0004524542, 0.0005187925, -0.05146363, 0.9469094
 185230878, 0.01783169, 0.01158879, -0.001931549, 0.000940312, -0.006933062, 0.004568361, -0.001124362, 0.0005187925, -0.05126956, 0.9494855
 185430798, -0.02651479, 0.00996097, -0.003136733, 0.000940312, -0.03122238, 0.003483713, -0.0008031182, 0.0005187925, -0.05112479, 0.9499345
 185630718, -0.05551215, 0.008387387, -0.0009443131, 0.000940312, -0.006159136, 0.003767285, 0.0006338074, 0.0005187925, -0.05088115, 0.947395
 185831471, -0.003998204, 0.00939399, 0.001875557, 0.0009424736, 0.004723253, 0.004280195, 0.001009097, 0.0005209542, -0.05065158, 0.9456804
 186031391, 0.02869756, 0.01061047, 0.00232871, 0.0009424737, 0.01156219, 0.004756758, 3.592723E-06, 0.0005187925, -0.05047506, 0.9470087
 186231311, 0.009230415, 0.0111849, 0.0005117312, 0.000940312, -0.008868819, 0.004466051, 0.001079977, 0.0005187925, -0.05047624, 0.9496157
 186431231, -0.03151808, 0.01021544, 0.003767821, 0.000940312, -0.03197697, 0.003991891, 0.001687167, 0.0005187925, -0.05059889, 0.9495146
 186631151, -0.05189128, 0.00972837, 0.004054481, 0.000940312, -0.003689481, 0.004322269, 0.001232179, 0.0005187925, -0.05069569, 0.9468413
 186831071, -6.119299E-06, 0.01067463, 0.002085632, 0.000940312, 0.007028329, 0.00478014, 0.0001781979, 0.0005187925, -0.05064746, 0.9457304
 187030991, 0.03043474, 0.01177259, 0.0002421935, 0.000940312, 0.005036146, 0.005127953, -0.0006109821, 0.0005187925, -0.05053598, 0.9475906
 187230911, -0.002494863, 0.01140846, -0.000398593, 0.000940312, -0.01062338, 0.004053521, 0.0005345304, 0.0005187925, -0.05045658, 0.9498146
 187430831, -0.0378824, 0.009343361, 0.002476844, 0.000940312, -0.02732631, 0.003914408, 0.001219042, 0.0005187925, -0.05035034, 0.9489852
 187630751, -0.04141868, 0.009578361, 0.003903466, 0.000940312, -0.001545089, 0.004216996, 0.002813491, 0.0005187925, -0.05016239, 0.94636
 187830671, 0.006916971, 0.01014622, 0.004453931, 0.000940312, 0.02250857, 0.004279349, 0.0007372874, 0.0005187925, -0.0500256, 0.945827
 188031424, 0.0378751, 0.01028039, 0.0004847735, 0.0009424736, -0.0005007757, 0.004352915, -0.0008100638, 0.0005209542, -0.04997013, 0.9483396
 188231344, -0.01155986, 0.01041223, -0.002065698, 0.0009424737, -0.01092799, 0.004440536, -0.0005237593, 0.0005187925, -0.05013832, 0.9497976
 188431264, -0.04049018, 0.01089776, -0.002612849, 0.000940312, -0.02197763, 0.004810949, -0.001391996, 0.0005187925, -0.05017431, 0.9486322
 188631184, -0.03174964, 0.01143316, -0.001277796, 0.000940312, 0.0003983239, 0.004776332, 0.001192152, 0.0005187925, -0.05000329, 0.9461329
 188831104, 0.02123001, 0.01119745, 0.001122294, 0.000940312, 0.02039766, 0.004628083, -0.0002212271, 0.0005187925, -0.04978103, 0.946108
 189031024, 0.02647172, 0.01098683, -0.001347296, 0.000940312, -0.004438813, 0.004382282, -0.00146444, 0.0005187925, -0.04969644, 0.9489138
 189230944, -0.01763631, 0.009916984, -0.004522899, 0.000940312, -0.01112733, 0.003711343, -0.002093502, 0.0005187925, -0.04980458, 0.9499202
 189430864, -0.04116352, 0.008996809, -0.005133107, 0.000940312, -0.02049629, 0.004207248, -0.002545962, 0.0005187925, -0.04992066, 0.948451
 189630784, -0.02802805, 0.01090098, -0.005405462, 0.000940312, 0.002165795, 0.005224859, -0.002145625, 0.0005187925, -0.04985843, 0.94605
 189830704, 0.02906097, 0.0129851, -0.003918873, 0.000940312, 0.0130424, 0.005850096, -0.002234869, 0.0005187925, -0.04969741, 0.9467242
 190031457, 0.01292358, 0.01349864, -0.005185138, 0.0009424736, -0.00794681, 0.004932438, -0.0006576005, 0.0005209542, -0.04975738, 0.9495252
 190231377, -0.02419899, 0.01075553, 0.0002537726, 0.0009424737, -0.01295856, 0.00387183, 0.001212976, 0.0005187925, -0.04990669, 0.9498618
 190431297, -0.04601084, 0.009438885, 0.00371553, 0.000940312, -0.01197784, 0.004059283, 0.002800265, 0.0005187925, -0.05005198, 0.9477426
 190631217, -0.01371829, 0.009839617, 0.005912887, 0.000940312, 0.003816865, 0.004328402, 0.001471886, 0.0005187925, -0.05006304, 0.9456818
 190831137, 0.0279814, 0.01029824, 0.002872578, 0.000940312, 0.01127984, 0.004348636, 0.0006593546, 0.0005187925, -0.04988314, 0.9469773
 191031057, 0.008919484, 0.01005259, 0.0005079156, 0.000940312, -0.008795831, 0.003936077, 0.000420737, 0.0005187925, -0.04975083, 0.9496382
 191230977, -0.02889261, 0.00889525, 0.0007730049, 0.000940312, -0.03022983, 0.003376705, 0.0004867669, 0.0005187925, -0.04966871, 0.9497967
 191430897, -0.0536017, 0.008148632, 0.002292287, 0.000940312, -0.005661026, 0.003511887, 0.002074952, 0.0005187925, -0.04948949, 0.9471598
 191630817, -0.002793331, 0.009025833, 0.003546966, 0.000940312, 0.005297069, 0.004332032, -3.229281E-06, 0.0005187925, -0.04928051, 0.9456652
 191830737, 0.03001383, 0.01074374, -0.001243436, 0.000940312, 0.007650102, 0.004784906, -0.001155858, 0.0005187925, -0.04920084, 0.9474804
 192030657, 0.002186384, 0.01126186, -0.002562673, 0.000940312, -0.009837319, 0.004462556, -4.933288E-07, 0.0005187925, -0.04931448, 0.9497753
 192231410, -0.03175246, 0.01037419, -0.0006497065, 0.0009424736, -0.03092147, 0.004351979, -0.001534639, 0.0005209542, -0.04943885, 0.9494126
 192431330, -0.04927105, 0.01051822, -0.002904516, 0.0009424737, -0.002867015, 0.004514363, -0.00108227, 0.0005187925, -0.04943608, 0.9468784
 192631250, 0.006166754, 0.01083833, -0.004533286, 0.000940312, 0.02446467, 0.004559457, -0.003571744, 0.0005187925, -0.04938524, 0.945991
 192831170, 0.04047352, 0.01092898, -0.008122084, 0.000940312, 0.0002254965, 0.004658538, -0.003744284, 0.0005187925, -0.04935358, 0.9485075
 193031090, -0.01097188, 0.01102433, -0.008138629, 0.000940312, -0.01160901, 0.004456177, -0.003075877, 0.0005187925, -0.04941025, 0.9503278
 193231010, -0.03819419, 0.01054282, -0.00563944, 0.000940312, -0.02761809, 0.004408565, -0.002092077, 0.0005187925, -0.04947458, 0.9493504
 193430930, -0.04187307, 0.01050394, -0.003447634, 0.000940312, -0.001762253, 0.004395441, 0.0002950275, 0.0005187925, -0.049422, 0.9468259
 193630850, 0.006132325, 0.0104837, 0.0008689754, 0.000940312, 0.02235997, 0.004282957, 0.0011836, 0.0005187925, -0.04930923, 0.9462828
 193830770, 0.03690435, 0.01025118, 0.001912624, 0.000940312, -0.001294825, 0.004304351, 0.00104696, 0.0005187925, -0.0493494, 0.9486437
 194030690, -0.0138686, 0.01005246, 0.003073011, 0.000940312, -0.01310339, 0.004091716, 0.002596292, 0.0005187925, -0.04943563, 0.9501798
 194231443, -0.04952181, 0.009763429, 0.007732082, 0.0009424736, -0.01503298, 0.003904034, 0.00419681, 0.0005209542, -0.04943645, 0.9484059
 194431363, -0.01981134, 0.009363361, 0.01024854, 0.0009424737, 0.002379765, 0.004194862, 0.004606946, 0.0005187925, -0.04926952, 0.9458336
 194631283, 0.01163554, 0.01044901, 0.008763007, 0.000940312, 0.02092488, 0.004764831, 0.002053942, 0.0005187925, -0.04906965, 0.9461667
 194831203, 0.03444669, 0.01124432, 0.002243241, 0.000940312, -0.001413414, 0.004438599, -0.001285288, 0.0005187925, -0.04895533, 0.9487078
 195031123, -0.01278241, 0.009981803, -0.004209398, 0.000940312, -0.01118034, 0.00361953, -0.001877053, 0.0005187925, -0.04907194, 0.950035
 195231043, -0.04543336, 0.008731407, -0.003494147, 0.000940312, -0.014443, 0.003854247, -0.0008489739, 0.0005187925, -0.04908102, 0.9483582
 195430963, -0.01844383, 0.009418372, -0.0008686904, 0.000940312, 0.002754696, 0.00420548, 0.0005919865, 0.0005187925, -0.04891489, 0.9460049
 195630883, 0.02359469, 0.01037502, 0.001513777, 0.000940312, 0.01755691, 0.004560133, 0.001209683, 0.0005187925, -0.04863015, 0.9465446
 195830803, 0.02098938, 0.01088772, 0.00133188, 0.000940312, -0.005529716, 0.004598966, -0.001040736, 0.0005187925, -0.04854117, 0.9491904
 196030723, -0.01934279, 0.01073979, -0.001363401, 0.000940312, -0.01231081, 0.004201974, 0.0001796718, 0.0005187925, -0.04858322, 0.949756
 196231476, -0.04527507, 0.009515098, 0.0009538493, 0.000940312, -0.011673, 0.003667981, 0.0009330544, 0.0005209541, -0.04860845, 0.9477845
 196431396, -0.0129442, 0.009274454, 0.001836018, 0.0009424736, 0.004412286, 0.004401501, -4.223445E-05, 0.0005187925, -0.04857831, 0.945688
 196631316, 0.03183671, 0.01089593, -0.001514859, 0.000940312, 0.0104315, 0.004748398, -0.0009230567, 0.0005187925, -0.04862393, 0.9468995
 196831236, 0.007868888, 0.01124993, -0.002816697, 0.000940312, -0.00868592, 0.00457288, -0.001337672, 0.0005187925, -0.04876083, 0.9496906
 197031156, -0.02462911, 0.01066064, -0.002123941, 0.000940312, -0.01295319, 0.004413318, -0.0004957993, 0.0005187925, -0.04882092, 0.9498063
 197231076, -0.04468695, 0.01077168, -0.0001578155, 0.000940312, -0.01083401, 0.004665163, 0.0001786864, 0.0005187925, -0.04873464, 0.948148
 197430996, -0.02908767, 0.01112107, -0.002056936, 0.000940312, -0.02768013, 0.004033887, -0.003786311, 0.0005187925, -0.04893655, 0.9562126
 197630916, -0.09435832, 0.004201902, -0.009661787, 0.000940312, -0.07793935, -0.004924121, -0.003439932, 0.0005187925, -0.05190099, 0.9695255
 197830836, -0.2248987, -0.0244386, -0.006624177, 0.000940312, -0.1196548, -0.02218533, -0.0006268675, 0.0005187925, -0.06123619, 0.9761471
 198030756, -0.2869153, -0.06502651, -0.0003002181, 0.000940312, -0.1181349, -0.03641753, 0.0009048512, 0.0005187925, -0.07959619, 0.9766686
 198230676, -0.2772167, -0.09219779, 0.002239963, 0.000940312, -0.1147895, -0.04228672, 0.001205522, 0.0005187925, -0.1081872, 0.9757349
 198431429, -0.2800778, -0.1031398, 0.002142112, 0.0009424736, -0.1243221, -0.04528327, 0.0003900382, 0.0005209542, -0.1464021, 0.9741929
 198631349, -0.3069664, -0.1114793, 0.001345163, 0.0009424737, -0.1383627, -0.05082905, 0.001371451, 0.0005187925, -0.1928002, 0.9696769
 198831269, -0.3382458, -0.1283033, 0.003397573, 0.000940312, -0.1486278, -0.06060736, 0.001238234, 0.0005187925, -0.2468439, 0.959851
 199031189, -0.3599935, -0.1525402, 0.004433262, 0.000940312, -0.1564215, -0.07114003, 0.003093462, 0.0005187925, -0.3101684, 0.9430795
 199231109, -0.3795286, -0.1775708, 0.007747699, 0.000940312, -0.165729, -0.08140681, 0.003665074, 0.0005187925, -0.3859118, 0.9161397
 199431029, -0.4037032, -0.2011846, 0.008257695, 0.000940312, -0.1775901, -0.09029473, 0.003402778, 0.0005187925, -0.4767148, 0.873422
 199630949, -0.432997, -0.2202749, 0.007514345, 0.000940312, -0.1901862, -0.09624519, 0.002286653, 0.0005187925, -0.5823672, 0.8072678
 199830869, -0.4613949, -0.2315342, 0.004583043, 0.000940312, -0.2001339, -0.09869183, 0.001387073, 0.0005187925, -0.6970002, 0.7098641
 200030789, -0.4811349, -0.2372368, 0.003406761, 0.000940312, -0.2041884, -0.10162, 0.001556335, 0.0005187925, -0.8079986, 0.5766197
 200230709, -0.4830627, -0.2452142, 0.00372589, 0.000940312, -0.197112, -0.1056599, 0.001696625, 0.0005187925, -0.8978649, 0.4124124
 200431462, -0.4558868, -0.255623, 0.003976762, 0.0009424736, -0.1756058, -0.1100297, 0.001597351, 0.0005209542, -0.9522972, 0.2374092
 200631382, -0.3931947, -0.2646416, 0.004113695, 0.0009424737, -0.1422289, -0.1136409, 0.001692383, 0.0005187925, -0.9713858, 0.08186433
 200831302, -0.3138612, -0.2736233, 0.003358069, 0.000940312, -0.1109347, -0.1168244, 0.0006912195, 0.0005187925, -0.9695686, -0.02904688
 201031222, -0.2473471, -0.278659, 2.931137E-05, 0.000940312, -0.09086326, -0.1165151, -0.001235855, 0.0005187925, -0.9629138, -0.08745079
 201231142, -0.2074683, -0.2758318, -0.004126673, 0.000940312, -0.08105782, -0.1138708, -0.002333099, 0.0005187925, -0.958912, -0.101245
 201431062, -0.1902805, -0.267549, -0.00594447, 0.000940312, -0.07782137, -0.1080841, -0.002598421, 0.0005187925, -0.9583243, -0.08789963
 201630982, -0.1819024, -0.2506778, -0.006380352, 0.000940312, -0.07315882, -0.09894607, -0.003249321, 0.0005187925, -0.9591766, -0.06585555
 201830902, -0.168988, -0.2284115, -0.00730595, 0.000940312, -0.0655164, -0.08978553, -0.003052067, 0.0005187925, -0.9594674, -0.04890079
 202030822, -0.1474686, -0.2080711, -0.007755002, 0.000940312, -0.05355, -0.08217143, -0.003525307, 0.0005187925, -0.9589592, -0.04344607
