TimeUS,COFN,COFE,COFD,CNe,CEe,CDe,POFN,POFE,POFD,PNe,PEe,PDe
 117030669, -0.00748134, 0.005340244, 2.052033E-05, -0.7465152, 0.5671217, 10.00214, -0.006110913, 0.0009636938, 1.012137E-05, -0.6018355, 0.1050781, 10.00105
 117231422, 0.006034712, -0.003872129, -1.564305E-05, 0.6801125, -0.4052411, 9.998326, -0.00748134, 0.005340244, 2.052033E-05, -0.7465152, 0.5671217, 10.00214
 117431342, 0.003914488, 0.0005399572, -4.15466E-06, 0.4562353, 0.060537, 9.999539, 0.006034712, -0.003872129, -1.564305E-05, 0.6801125, -0.4052411, 9.998326
 117631262, 0.005993237, 0.008051823, 7.721342E-06, 0.6756446, 0.8535657, 10.00079, 0.003914488, 0.0005399572, -4.15466E-06, 0.4562353, 0.060537, 9.999539
 117831182, -0.002240915, 0.002228197, 7.298364E-06, -0.1935712, 0.2388259, 10.00075, 0.005993237, 0.008051823, 7.721342E-06, 0.6756446, 0.8535657, 10.00079
 118031102, 0.0004397823, 0.007871725, 1.470266E-05, 0.08937317, 0.8345995, 10.00153, -0.002240915, 0.002228197, 7.298364E-06, -0.1935712, 0.2388259, 10.00075
 118231022, 0.0001769707, -0.005657479, -1.121015E-05, 0.06160715, -0.5934963, 9.998796, 0.0004397823, 0.007871725, 1.470266E-05, 0.08937317, 0.8345995, 10.00153
 118430942, -0.006811083, 0.007406319, 2.333507E-05, -0.675994, 0.7854818, 10.00244, 0.0001769707, -0.005657479, -1.121015E-05, 0.06160715, -0.5934963, 9.998796
 118630862, -0.004120213, -0.002227223, 1.113502E-06, -0.3920031, -0.2314047, 10.0001, -0.006811083, 0.007406319, 2.333507E-05, -0.675994, 0.7854818, 10.00244
 118830782, 0.003984188, 0.0005164848, -4.249071E-06, 0.4634651, 0.05820064, 9.99953, -0.004120213, -0.002227223, 1.113502E-06, -0.3920031, -0.2314047, 10.0001
 119030702, 0.002599011, 0.007989995, 1.205887E-05, 0.3172579, 0.8471224, 10.00125, 0.003984188, 0.0005164848, -4.249071E-06, 0.4634651, 0.05820064, 9.99953
 119231455, 0.001066494, 0.001549933, 1.598532E-06, 0.1554932, 0.1672722, 10.00015, 0.002599011, 0.007989995, 1.205887E-05, 0.3172579, 0.8471224, 10.00125
 119431375, -0.0007370305, -0.006349467, -1.135309E-05, -0.03485094, -0.6665458, 9.998779, 0.001066494, 0.001549933, 1.598532E-06, 0.1554932, 0.1672722, 10.00015
 119631295, -0.001035063, -0.002693665, -3.861999E-06, -0.06629796, -0.28069, 9.999571, -0.0007370305, -0.006349467, -1.135309E-05, -0.03485094, -0.6665458, 9.998779
 119831215, -0.004838356, -0.005128302, -3.559701E-06, -0.4677132, -0.5376932, 9.999602, -0.001035063, -0.002693665, -3.861999E-06, -0.06629796, -0.28069, 9.999571
 120031135, -0.002195076, 0.0008154644, 4.50936E-06, -0.188677, 0.08963536, 10.00045, -0.004838356, -0.005128302, -3.559701E-06, -0.4677132, -0.5376932, 9.999602
 120231055, -0.007481555, -0.005456843, -6.865512E-07, -0.7466243, -0.572453, 9.999906, -0.002195076, 0.0008154644, 4.50936E-06, -0.188677, 0.08963536, 10.00045
 120430975, -0.007109832, -0.002740829, 4.139498E-06, -0.7073497, -0.2858339, 10.00041, -0.007481555, -0.005456843, -6.865512E-07, -0.7466243, -0.572453, 9.999906
 120630895, -0.003838056, 0.007019509, 1.89365E-05, -0.3619638, 0.7444007, 10.00198, -0.007109832, -0.002740829, 4.139498E-06, -0.7073497, -0.2858339, 10.00041
 120830815, -0.007743335, -0.004856567, 8.576408E-07, -0.7741212, -0.5092615, 10.00007, -0.003838056, 0.007019509, 1.89365E-05, -0.3619638, 0.7444007, 10.00198
 121030735, 0.00722829, 0.008136788, 6.316749E-06, 0.8062673, 0.8622333, 10.00064, -0.007743335, -0.004856567, 8.576408E-07, -0.7741212, -0.5092615, 10.00007
 121230655, 0.007418145, -0.005095129, -2.017168E-05, 0.8263741, -0.5345886, 9.997848, 0.00722829, 0.008136788, 6.316749E-06, 0.8062673, 0.8622333, 10.00064
 121431408, -0.006257813, -0.004410929, -2.557672E-07, -0.6171753, -0.4624271, 9.999949, 0.007418145, -0.005095129, -2.017168E-05, 0.8263741, -0.5345886, 9.997848
 121631328, 0.00604728, -0.003740127, 0.06504361, 0.6810212, -0.3885963, 16.50426, -0.006257813, -0.004410929, -2.557672E-07, -0.6171753, -0.4624271, 9.999949
 121831248, 0.0007850915, 0.006331016, 0.1495593, 0.1273736, 0.6749373, 24.95596, 0.00604728, -0.003740127, 0.06504361, 0.6810212, -0.3885963, 16.50426
 122031168, 0.005569456, -0.008270806, 0.3325906, 0.5953623, -0.7866219, 43.25914, 0.0007850915, 0.006331016, 0.1495593, 0.1273736, 0.6749373, 24.95596
 122231088, 0.001483906, 0.02180964, 0.6952457, 0.1769257, 2.344721, 79.52389, 0.005569456, -0.008270806, 0.3325906, 0.5953623, -0.7866219, 43.25914
 122431008, 0.02259238, 0.004579136, 0.9599041, 2.378255, 0.5693631, 105.9902, 0.001483906, 0.02180964, 0.6952457, 0.1769257, 2.344721, 79.52389
 122630928, 0.04328367, 0.03670157, 1.21923, 4.523942, 3.808061, 131.9228, 0.02259238, 0.004579136, 0.9599041, 2.378255, 0.5693631, 105.9902
 122830848, -0.005326257, -0.0005236119, 1.480197, -0.3508658, 0.06184062, 158.0196, 0.04328367, 0.03670157, 1.21923, 4.523942, 3.808061, 131.9228
 123030768, 0.05390831, -0.04547425, 1.672829, 5.662831, -4.429011, 177.2828, -0.005326257, -0.0005236119, 1.480197, -0.3508658, 0.06184062, 158.0196
 123230688, 0.01957182, -0.05049447, 1.745229, 2.251263, -4.880392, 184.523, 0.05390831, -0.04547425, 1.672829, 5.662831, -4.429011, 177.2828
 123431441, 0.004327815, 0.06675811, 1.793693, 0.7625421, 6.963009, 189.3695, 0.01957182, -0.05049447, 1.745229, 2.251263, -4.880392, 184.523
 123631361, -0.04422992, -0.03407753, 1.796969, -4.07781, -3.117498, 189.6978, 0.004327815, 0.06675811, 1.793693, 0.7625421, 6.963009, 189.3695
 123831281, 0.04615892, -0.007151882, 1.720726, 4.898751, -0.3684907, 182.0795, -0.04422992, -0.03407753, 1.796969, -4.07781, -3.117498, 189.6978
 124031201, 0.04828734, 0.1009634, 1.594457, 4.838612, 10.52507, 169.4594, 0.04615892, -0.007151882, 1.720726, 4.898751, -0.3684907, 182.0795
 124231121, -0.2274626, 0.2435522, 1.371205, -23.12926, 24.8653, 147.1251, 0.04828734, 0.1009634, 1.594457, 4.838612, 10.52507, 169.4594
 124431041, 0.03506793, 0.3818517, 1.206079, 3.014266, 38.75371, 130.6146, -0.2274626, 0.2435522, 1.371205, -23.12926, 24.8653, 147.1251
 124630961, 0.03564581, 0.3227756, 1.01274, 2.981153, 32.83873, 111.2781, 0.03506793, 0.3818517, 1.206079, 3.014266, 38.75371, 130.6146
 124830881, -0.007578984, 0.5496168, 0.8403134, -1.44902, 55.60277, 94.02945, 0.03564581, 0.3227756, 1.01274, 2.981153, 32.83873, 111.2781
 125030801, 0.08612876, 0.8403608, 0.6958187, 7.851195, 84.77123, 79.57786, -0.007578984, 0.5496168, 0.8403134, -1.44902, 55.60277, 94.02945
 125230721, 0.04556639, 0.7190561, 0.5296494, 3.733426, 72.61136, 62.95631, 0.08612876, 0.8403608, 0.6958187, 7.851195, 84.77123, 79.57786
 125431474, -0.01360975, 1.113425, 0.4510713, -2.221365, 112.1607, 55.09604, 0.04556639, 0.7190561, 0.5296494, 3.733426, 72.61136, 62.95631
 125631394, -0.02352583, 1.04541, 0.3292678, -3.300291, 105.2417, 42.916, -0.01360975, 1.113425, 0.4510713, -2.221365, 112.1607, 55.09604
 125831314, -0.2216517, 1.68358, 0.2633847, -23.32412, 169.2532, 36.30764, -0.02352583, 1.04541, 0.3292678, -3.300291, 105.2417, 42.916
 126031234, -0.08317889, 1.846119, 0.2139215, -9.650583, 185.7577, 31.32397, -0.2216517, 1.68358, 0.2633847, -23.32412, 169.2532, 36.30764
 126231154, 0.1625697, 1.838991, 0.1780629, 14.80225, 185.237, 27.70147, -0.08317889, 1.846119, 0.2139215, -9.650583, 185.7577, 31.32397
 126431074, -0.1597569, 2.189705, 0.09889524, -17.62214, 220.468, 19.743, 0.1625697, 1.838991, 0.1780629, 14.80225, 185.237, 27.70147
 126630994, 0.1456199, 1.962884, 0.2001009, 12.89663, 197.6125, 29.87967, -0.1597569, 2.189705, 0.09889524, -17.62214, 220.468, 19.743
 126830914, -0.1305604, 2.608943, 0.1261153, -14.8873, 262.3174, 22.46383, 0.1456199, 1.962884, 0.2001009, 12.89663, 197.6125, 29.87967
 127030834, -0.1482848, 2.408686, 0.1723494, -16.7569, 242.1308, 27.07965, -0.1305604, 2.608943, 0.1261153, -14.8873, 262.3174, 22.46383
 127230754, -0.06002207, 2.73285, 0.1725461, -7.962002, 274.6277, 27.09989, -0.1482848, 2.408686, 0.1723494, -16.7569, 242.1308, 27.07965
 127430674, -0.06505978, 3.251693, 0.1598685, -8.477114, 326.7242, 25.82984, -0.06002207, 2.73285, 0.1725461, -7.962002, 274.6277, 27.09989
 127631427, -0.2418789, 2.846641, 0.1114963, -26.21874, 286.1077, 20.9703, -0.06505978, 3.251693, 0.1598685, -8.477114, 326.7242, 25.82984
 127831347, -0.03605186, 3.083579, 0.1691805, -5.636007, 309.9421, 26.7347, -0.2418789, 2.846641, 0.1114963, -26.21874, 286.1077, 20.9703
 128031267, -0.2118691, 3.3877, 0.1035566, -23.28275, 340.5074, 20.15061, -0.03605186, 3.083579, 0.1691805, -5.636007, 309.9421, 26.7347
 128231187, -0.1588406, 3.678931, 0.1402642, -17.98801, 369.7631, 23.81736, -0.2118691, 3.3877, 0.1035566, -23.28275, 340.5074, 20.15061
 128431107, 0.0576023, 3.577846, 0.1762294, 3.683337, 359.6028, 27.42464, -0.1588406, 3.678931, 0.1402642, -17.98801, 369.7631, 23.81736
 128631027, 0.1325381, 4.135556, 0.2295422, 7.078916, 416.8278, 47.18986, 0.0576023, 3.577846, 0.1762294, 3.683337, 359.6028, 27.42464
 128830947, -0.1568176, 3.664262, 0.1638453, -22.03366, 369.2934, 40.57688, 0.1325381, 4.135556, 0.2295422, 7.078916, 416.8278, 47.18986
 129030867, 0.1744711, 3.923949, 0.2357886, 11.2235, 395.4054, 47.813, -0.1568176, 3.664262, 0.1638453, -22.03366, 369.2934, 40.57688
 129230787, -0.04137312, 3.734835, 0.1897751, -10.48447, 376.3441, 43.17668, 0.1744711, 3.923949, 0.2357886, 11.2235, 395.4054, 47.813
 129430707, -0.2293952, 4.313052, 0.1418593, -29.39756, 434.5736, 38.35265, -0.04137312, 3.734835, 0.1897751, -10.48447, 376.3441, 43.17668
 129631460, 0.1993774, 4.694136, 0.2525392, 13.65578, 472.9601, 49.47242, -0.2293952, 4.313052, 0.1418593, -29.39756, 434.5736, 38.35265
 129831380, -0.08719333, 4.704432, 0.1473892, -15.18013, 473.9928, 38.90429, 0.1993774, 4.694136, 0.2525392, 13.65578, 472.9601, 49.47242
 130031300, 0.1385112, 4.568528, 0.2197166, 7.466933, 460.2995, 46.15977, -0.08719333, 4.704432, 0.1473892, -15.18013, 473.9928, 38.90429
 130231220, 0.20175, 4.260942, 0.2472101, 13.79384, 429.3132, 48.9108, 0.1385112, 4.568528, 0.2197166, 7.466933, 460.2995, 46.15977
 130431140, 0.1937964, 4.182006, 0.229017, 12.97101, 421.3463, 47.08521, 0.20175, 4.260942, 0.2472101, 13.79384, 429.3132, 48.9108
 130631060, -0.1087622, 4.490695, 0.1224713, -17.45501, 452.398, 36.38317, 0.1937964, 4.182006, 0.229017, 12.97101, 421.3463, 47.08521
 130830980, 0.1991005, 4.646042, 0.245947, 13.44951, 468.005, 48.77153, -0.1087622, 4.490695, 0.1224713, -17.45501, 452.398, 36.38317
 131030900, -0.1869833, 4.28011, 0.1074547, -25.36623, 431.1411, 34.85992, 0.1991005, 4.646042, 0.245947, 13.44951, 468.005, 48.77153
 131230820, -0.1517668, 4.895552, 0.1487503, -21.83925, 493.1024, 38.99287, -0.1869833, 4.28011, 0.1074547, -25.36623, 431.1411, 34.85992
 131430740, -0.003849376, 4.563181, 0.2068878, -6.988313, 459.6205, 44.8245, -0.1517668, 4.895552, 0.1487503, -21.83925, 493.1024, 38.99287
 131630660, -0.03711269, 4.950547, 0.2434272, -10.33235, 498.6181, 48.47325, -0.003849376, 4.563181, 0.2068878, -6.988313, 459.6205, 44.8245
 131831413, -0.326811, 4.340651, 0.1553426, -39.42984, 437.2048, 39.623, -0.03711269, 4.950547, 0.2434272, -10.33235, 498.6181, 48.47325
 132031333, -0.3262367, 5.214238, 0.1590717, -39.36242, 525.155, 39.99874, -0.326811, 4.340651, 0.1553426, -39.42984, 437.2048, 39.623
 132231253, -0.1098934, 4.728642, 0.197761, -17.64875, 476.2599, 43.89009, -0.3262367, 5.214238, 0.1590717, -39.36242, 525.155, 39.99874
 132431173, -0.2258342, 4.873517, 0.2006845, -29.3144, 490.8441, 44.15903, -0.1098934, 4.728642, 0.197761, -17.64875, 476.2599, 43.89009
 132631093, 0.2026303, 4.425298, 0.3200525, 13.68546, 445.7141, 56.14474, -0.2258342, 4.873517, 0.2006845, -29.3144, 490.8441, 44.15903
 132831013, 0.09631615, 4.373724, 0.326344, 2.995531, 440.4987, 56.75776, 0.2026303, 4.425298, 0.3200525, 13.68546, 445.7141, 56.14474
 133030933, 0.04882192, 5.142831, 0.2951767, -1.774822, 517.896, 53.63543, 0.09631615, 4.373724, 0.326344, 2.995531, 440.4987, 56.75776
 133230853, 0.1782352, 4.967758, 0.3342625, 11.20037, 500.2477, 57.55684, 0.04882192, 5.142831, 0.2951767, -1.774822, 517.896, 53.63543
 133430773, -0.3197772, 4.38752, 0.1597017, -38.8471, 441.8345, 40.02401, 0.1782352, 4.967758, 0.3342625, 11.20037, 500.2477, 57.55684
 133630693, -0.2098314, 4.779871, 0.1915324, -27.82263, 481.3045, 43.21756, -0.3197772, 4.38752, 0.1597017, -38.8471, 441.8345, 40.02401
 133831446, -0.07966305, 4.831155, 0.2220178, -14.7389, 486.4525, 46.28716, -0.2098314, 4.779871, 0.1915324, -27.82263, 481.3045, 43.21756
 134031366, -0.1226867, 4.573582, 0.2128056, -19.04792, 460.5243, 45.36304, -0.07966305, 4.831155, 0.2220178, -14.7389, 486.4525, 46.28716
 134231286, -0.004695423, 4.815218, 0.241177, -7.200274, 484.8259, 48.21609, -0.1226867, 4.573582, 0.2128056, -19.04792, 460.5243, 45.36304
 134431206, -0.163208, 4.61109, 0.1968048, -23.12716, 464.2746, 43.75529, -0.004695423, 4.815218, 0.241177, -7.200274, 484.8259, 48.21609
 134631126, 0.1135737, 4.611431, 0.2760457, 4.63992, 464.2969, 51.70918, -0.163208, 4.61109, 0.1968048, -23.12716, 464.2746, 43.75529
 134831046, 0.1749337, 4.737206, 0.3038613, 10.79349, 476.9381, 54.49735, 0.1135737, 4.611431, 0.2760457, 4.63992, 464.2969, 51.70918
 135030966, -0.1902646, 4.523081, 0.1919283, -25.87144, 455.3827, 43.25776, 0.1749337, 4.737206, 0.3038613, 10.79349, 476.9381, 54.49735
 135230886, 0.00317762, 4.520339, 0.2442781, -6.455933, 455.0938, 48.51653, -0.1902646, 4.523081, 0.1919283, -25.87144, 455.3827, 43.25776
 135430806, 0.1753374, 5.237613, 0.3076488, 10.82161, 527.244, 54.87461, 0.00317762, 4.520339, 0.2442781, -6.455933, 455.0938, 48.51653
 135630726, 0.2568176, 5.014907, 0.3284619, 18.99629, 504.8315, 56.9641, 0.1753374, 5.237613, 0.3076488, 10.82161, 527.244, 54.87461
 135831479, -0.2936543, 4.935726, 0.1620275, -36.25025, 496.8513, 40.25613, 0.2568176, 5.014907, 0.3284619, 18.99629, 504.8315, 56.9641
 136031399, -0.07189339, 4.556092, 0.2278334, -13.96842, 458.6532, 46.87036, -0.2936543, 4.935726, 0.1620275, -36.25025, 496.8513, 40.25613
 136231319, -0.3716278, 4.548299, 0.1391094, -44.03604, 457.8602, 37.96712, -0.07189339, 4.556092, 0.2278334, -13.96842, 458.6532, 46.87036
 136431239, 0.03163154, 4.809454, 0.2767439, -3.561892, 484.1224, 51.77836, -0.3716278, 4.548299, 0.1391094, -44.03604, 457.8602, 37.96712
 136631159, 0.2024361, 5.083419, 0.3319939, 13.56145, 511.6736, 57.31797, 0.03163154, 4.809454, 0.2767439, -3.561892, 484.1224, 51.77836
 136831079, -0.2916135, 4.621594, 0.1574109, -36.04585, 465.2219, 39.79379, 0.2024361, 5.083419, 0.3319939, 13.56145, 511.6736, 57.31797
 137030999, -0.3666358, 5.39957, 0.1402985, -43.57063, 543.4667, 38.07438, -0.2916135, 4.621594, 0.1574109, -36.04585, 465.2219, 39.79379
 137230919, 0.1134361, 5.361746, 0.2976752, 4.618484, 539.6532, 53.87104, -0.3666358, 5.39957, 0.1402985, -43.57063, 543.4667, 38.07438
 137430839, 0.1872386, 5.327, 0.2970133, 12.04376, 536.1394, 53.82003, 0.1134361, 5.361746, 0.2976752, 4.618484, 539.6532, 53.87104
 137630759, 0.1501566, 5.404389, 0.2969981, 8.341783, 543.9086, 53.82057, 0.1872386, 5.327, 0.2970133, 12.04376, 536.1394, 53.82003
 137830679, 0.2850569, 5.432568, 0.3450763, 21.89809, 546.7343, 58.64908, 0.1501566, 5.404389, 0.2969981, 8.341783, 543.9086, 53.82057
 138031432, 0.2860716, 5.359482, 0.3471595, 22.02011, 539.3802, 58.86227, 0.2850569, 5.432568, 0.3450763, 21.89809, 546.7343, 58.64908
 138231352, 0.01041329, 5.164754, 0.2631188, -5.638667, 519.7755, 50.42966, 0.2860716, 5.359482, 0.3471595, 22.02011, 539.3802, 58.86227
 138431272, -0.1188576, 5.158196, 0.2238013, -18.6097, 519.0801, 46.48741, 0.01041329, 5.164754, 0.2631188, -5.638667, 519.7755, 50.42966
 138631192, 0.09139113, 4.860189, 0.3170589, 2.496954, 489.0964, 55.84082, -0.1188576, 5.158196, 0.2238013, -18.6097, 519.0801, 46.48741
 138831112, 0.09832297, 5.333141, 0.3456471, 3.212618, 536.6714, 58.70262, 0.09139113, 4.860189, 0.3170589, 2.496954, 489.0964, 55.84082
 139031032, -0.3046183, 5.25169, 0.1856342, -37.21022, 528.4879, 42.65692, 0.09832297, 5.333141, 0.3456471, 3.212618, 536.6714, 58.70262
 139230952, -0.2680579, 4.98289, 0.2152925, -33.54795, 501.4414, 45.62701, -0.3046183, 5.25169, 0.1856342, -37.21022, 528.4879, 42.65692
 139430872, -0.3344631, 4.899139, 0.2222075, -40.21331, 493.0031, 46.31229, -0.2680579, 4.98289, 0.2152925, -33.54795, 501.4414, 45.62701
 139630792, -0.08254232, 5.131918, 0.2707625, -14.94662, 516.4121, 51.19055, -0.3344631, 4.899139, 0.2222075, -40.21331, 493.0031, 46.31229
 139830712, 0.06640672, 4.69098, 0.3411964, -0.004283905, 472.0961, 58.24803, -0.08254232, 5.131918, 0.2707625, -14.94662, 516.4121, 51.19055
 140031465, 0.2259091, 5.160664, 0.4005564, 16.00286, 519.2928, 64.20359, 0.06640672, 4.69098, 0.3411964, -0.004283905, 472.0961, 58.24803
 140231385, 0.2659182, 4.825264, 0.399953, 20.00838, 485.5595, 64.14714, 0.2259091, 5.160664, 0.4005564, 16.00286, 519.2928, 64.20359
 140431305, -0.2719562, 5.314313, 0.2017625, -33.96058, 534.6902, 44.27153, 0.2659182, 4.825264, 0.399953, 20.00838, 485.5595, 64.14714
 140631225, 0.1950858, 4.581339, 0.3695441, 12.89136, 461.0156, 61.0984, -0.2719562, 5.314313, 0.2017625, -33.96058, 534.6902, 44.27153
 140831145, 0.03101268, 5.138691, 0.306972, -3.553548, 517.0223, 54.82855, 0.1950858, 4.581339, 0.3695441, 12.89136, 461.0156, 61.0984
 141031065, -0.3087959, 4.891996, 0.2242625, -37.61724, 492.2216, 46.52959, 0.03101268, 5.138691, 0.306972, -3.553548, 517.0223, 54.82855
 141230985, 0.2668544, 4.858471, 0.4031673, 20.12908, 488.8484, 64.47965, -0.3087959, 4.891996, 0.2242625, -37.61724, 492.2216, 46.52959
 141430905, -0.1804348, 4.417346, 0.2302772, -24.74044, 444.5186, 47.14446, 0.2668544, 4.858471, 0.4031673, 20.12908, 488.8484, 64.47965
 141630825, -0.1654407, 5.015701, 0.2279486, -23.22327, 504.6465, 46.916, -0.1804348, 4.417346, 0.2302772, -24.74044, 444.5186, 47.14446
 141830745, -0.3425831, 4.286997, 0.1511631, -41.00051, 431.4297, 39.21691, -0.1654407, 5.015701, 0.2279486, -23.22327, 504.6465, 46.916
 142030665, 0.1413175, 5.195324, 0.3332029, 7.532152, 522.6807, 57.46974, -0.3425831, 4.286997, 0.1511631, -41.00051, 431.4297, 39.21691
 142231418, 0.03318441, 5.252492, 0.2934903, -3.307301, 528.4171, 53.49007, 0.1413175, 5.195324, 0.3332029, 7.532152, 522.6807, 57.46974
 142431338, 0.135905, 4.433838, 0.3217108, 7.003693, 446.1697, 56.32351, 0.03318441, 5.252492, 0.2934903, -3.307301, 528.4171, 53.49007
 142631258, 0.1415345, 4.927466, 0.3560814, 7.595222, 495.7589, 59.76883, 0.135905, 4.433838, 0.3217108, 7.003693, 446.1697, 56.32351
 142831178, 0.02516434, 4.997142, 0.2979303, -4.062816, 502.7492, 53.9469, 0.1415345, 4.927466, 0.3560814, 7.595222, 495.7589, 59.76883
 143031098, -0.4216965, 5.150395, 0.1464567, -48.88169, 518.1349, 38.75719, 0.02516434, 4.997142, 0.2979303, -4.062816, 502.7492, 53.9469
 143231018, -0.2699041, 4.622727, 0.1865067, -33.66113, 465.1202, 42.77605, -0.4216965, 5.150395, 0.1464567, -48.88169, 518.1349, 38.75719
 143430938, 0.09189576, 5.132519, 0.3175008, 2.644375, 516.3242, 55.91686, -0.2699041, 4.622727, 0.1865067, -33.66113, 465.1202, 42.77605
 143630858, -0.3419227, 4.980978, 0.1721382, -40.84074, 501.0929, 41.34606, 0.09189576, 5.132519, 0.3175008, 2.644375, 516.3242, 55.91686
 143830778, -0.334346, 5.05526, 0.1625699, -40.0685, 508.5619, 40.39225, -0.3419227, 4.980978, 0.1721382, -40.84074, 501.0929, 41.34606
 144030698, -0.05684737, 5.318193, 0.2814511, -12.23386, 534.9763, 52.30782, -0.334346, 5.05526, 0.1625699, -40.0685, 508.5619, 40.39225
 144231451, -0.2545142, 4.676772, 0.2080541, -32.05439, 470.5386, 44.95087, -0.05684737, 5.318193, 0.2814511, -12.23386, 534.9763, 52.30782
 144431371, -0.1098897, 4.600138, 0.2696636, -17.54445, 462.8372, 51.12769, -0.2545142, 4.676772, 0.2080541, -32.05439, 470.5386, 44.95087
 144631291, 0.06601773, 4.26297, 0.3521228, 0.09867668, 428.9778, 59.39071, -0.1098897, 4.600138, 0.2696636, -17.54445, 462.8372, 51.12769
 144831211, -0.09746996, 4.66893, 0.2570361, -16.30678, 469.7456, 49.8641, 0.06601773, 4.26297, 0.3521228, 0.09867668, 428.9778, 59.39071
 145031131, -0.2781834, 4.929865, 0.1909995, -34.44041, 495.9495, 43.24097, -0.09746996, 4.66893, 0.2570361, -16.30678, 469.7456, 49.8641
 145231051, 0.2369593, 4.532341, 0.3816744, 17.20939, 456.0212, 62.35455, -0.2781834, 4.929865, 0.1909995, -34.44041, 495.9495, 43.24097
 145430971, -0.4133202, 4.57871, 0.1590124, -47.99157, 460.6657, 40.03223, 0.2369593, 4.532341, 0.3816744, 17.20939, 456.0212, 62.35455
 145630891, -0.0931555, 5.021161, 0.2573316, -15.86387, 505.0998, 49.8996, -0.4133202, 4.57871, 0.1590124, -47.99157, 460.6657, 40.03223
 145830811, -0.1161751, 4.711115, 0.2436019, -18.15338, 473.9651, 48.52941, -0.0931555, 5.021161, 0.2573316, -15.86387, 505.0998, 49.8996
 146030731, -0.0662063, 5.020003, 0.2758006, -13.1402, 504.9875, 51.75434, -0.1161751, 4.711115, 0.2436019, -18.15338, 473.9651, 48.52941
 146231484, 0.1831562, 4.495213, 0.3543882, 11.87691, 452.2893, 59.63914, -0.0662063, 5.020003, 0.2758006, -13.1402, 504.9875, 51.75434
 146431404, -0.09094651, 4.446202, 0.2475909, -15.59038, 447.3639, 48.94024, 0.1831562, 4.495213, 0.3543882, 11.87691, 452.2893, 59.63914
 146631324, 0.2159951, 5.209124, 0.3457867, 15.1972, 523.9671, 58.79079, -0.09094651, 4.446202, 0.2475909, -15.59038, 447.3639, 48.94024
 146831244, 0.1113503, 4.612393, 0.3093348, 4.701421, 464.0422, 55.13601, 0.2159951, 5.209124, 0.3457867, 15.1972, 523.9671, 58.79079
 147031164, 0.2446198, 4.523199, 0.3350983, 18.06063, 455.0786, 57.72436, 0.1113503, 4.612393, 0.3093348, 4.701421, 464.0422, 55.13601
 147231084, -0.1193026, 4.746356, 0.253744, -18.39279, 477.4735, 49.56828, 0.2446198, 4.523199, 0.3350983, 18.06063, 455.0786, 57.72436
 147431004, -0.1335798, 4.398412, 0.2786672, -19.80918, 442.5381, 52.06399, -0.1193026, 4.746356, 0.253744, -18.39279, 477.4735, 49.56828
 147630924, 0.2990938, 4.525891, 0.4121803, 23.57347, 455.3347, 65.45362, -0.1335798, 4.398412, 0.2786672, -19.80918, 442.5381, 52.06399
 147830844, -0.485486, 4.811272, 0.1306342, -55.08069, 483.9776, 37.23544, 0.2990938, 4.525891, 0.4121803, 23.57347, 455.3347, 65.45362
 148030764, 0.1062467, 4.834589, 0.3017729, 4.237833, 486.3199, 54.39743, -0.485486, 4.811272, 0.1306342, -55.08069, 483.9776, 37.23544
 148230684, 0.4171174, 5.271357, 0.4312286, 35.3951, 530.1716, 67.3677, 0.1062467, 4.834589, 0.3017729, 4.237833, 486.3199, 54.39743
 148431437, -0.3411443, 5.016412, 0.2038493, -40.62296, 504.5743, 44.56632, 0.4171174, 5.271357, 0.4312286, 35.3951, 530.1716, 67.3677
 148631357, 0.1817392, 4.828148, 0.3631057, 11.83631, 485.6751, 60.54581, -0.3411443, 5.016412, 0.2038493, -40.62296, 504.5743, 44.56632
 148831277, -0.07334042, 4.229619, 0.269401, -13.70527, 425.5947, 51.16224, 0.1817392, 4.828148, 0.3631057, 11.83631, 485.6751, 60.54581
 149031197, 0.1118138, 4.869172, 0.3236342, 4.861582, 489.7929, 56.60273, -0.07334042, 4.229619, 0.269401, -13.70527, 425.5947, 51.16224
 149231117, -0.01264927, 4.123601, 0.3018725, -7.619015, 414.9621, 54.41508, 0.1118138, 4.869172, 0.3236342, 4.861582, 489.7929, 56.60273
 149431037, -0.2193408, 4.904186, 0.2390314, -28.32824, 493.3121, 48.11789, -0.01264927, 4.123601, 0.3018725, -7.619015, 414.9621, 54.41508
 149630957, 0.3632276, 4.331611, 0.42383, 30.0961, 435.8369, 66.6511, -0.2193408, 4.904186, 0.2390314, -28.32824, 493.3121, 48.11789
 149830877, -0.07597856, 4.537875, 0.2714164, -13.92705, 456.5331, 51.37753, 0.3632276, 4.331611, 0.42383, 30.0961, 435.8369, 66.6511
 150030797, 0.1050293, 4.395021, 0.3439016, 4.182262, 442.1966, 58.63165, -0.07597856, 4.537875, 0.2714164, -13.92705, 456.5331, 51.37753
 150230717, -0.2176401, 5.066578, 0.250098, -28.16321, 509.5926, 49.22736, 0.1050293, 4.395021, 0.3439016, 4.182262, 442.1966, 58.63165
 150431470, 0.3890306, 5.013654, 0.4360223, 32.66737, 504.2819, 67.87283, -0.2176401, 5.066578, 0.250098, -28.16321, 509.5926, 49.22736
 150631390, 0.4156906, 4.200248, 0.4320352, 35.37861, 422.6506, 67.48552, 0.3890306, 5.013654, 0.4360223, 32.66737, 504.2819, 67.87283
 150831310, 0.01017075, 4.798684, 0.301389, -5.238461, 482.7117, 54.39771, 0.4156906, 4.200248, 0.4320352, 35.37861, 422.6506, 67.48552
 151031230, 0.06876029, 4.944904, 0.3128701, 0.5929508, 497.3886, 55.54003, 0.01017075, 4.798684, 0.301389, -5.238461, 482.7117, 54.39771
 151231150, -0.4554684, 4.961947, 0.155768, -51.98586, 499.0972, 39.78135, 0.06876029, 4.944904, 0.3128701, 0.5929508, 497.3886, 55.54003
 151431070, -0.1337729, 4.922738, 0.2474813, -19.7203, 495.1545, 48.98423, -0.4554684, 4.961947, 0.155768, -51.98586, 499.0972, 39.78135
 151630990, 0.3636315, 4.144216, 0.416786, 30.19205, 417.0283, 65.96763, -0.1337729, 4.922738, 0.2474813, -19.7203, 495.1545, 48.98423
 151830910, 0.4058456, 4.967953, 0.4217668, 34.43231, 499.702, 66.47103, 0.3636315, 4.144216, 0.416786, 30.19205, 417.0283, 65.96763
 152030830, 0.2622907, 4.651316, 0.3549164, 20.03049, 467.9272, 59.77167, 0.4058456, 4.967953, 0.4217668, 34.43231, 499.702, 66.47103
 152230750, -0.1008913, 4.856511, 0.2359157, -16.37558, 488.5139, 47.84408, 0.2622907, 4.651316, 0.3549164, 20.03049, 467.9272, 59.77167
 152430670, -0.5688367, 4.565979, 0.08317658, -63.25193, 459.3488, 32.54324, -0.1008913, 4.856511, 0.2359157, -16.37558, 488.5139, 47.84408
 152631423, 0.2649845, 4.860446, 0.3401237, 20.33763, 488.8961, 58.3057, -0.5688367, 4.565979, 0.08317658, -63.25193, 459.3488, 32.54324
 152831343, 0.0672863, 4.146054, 0.2592488, 0.5263157, 417.2169, 50.20377, 0.2649845, 4.860446, 0.3401237, 20.33763, 488.8961, 58.3057
 153031263, 0.5007035, 5.268717, 0.4035479, 43.98661, 529.8812, 64.67131, 0.0672863, 4.146054, 0.2592488, 0.5263157, 417.2169, 50.20377
 153231183, 0.1654741, 4.439015, 0.3002828, 10.3911, 446.6223, 54.32065, 0.5007035, 5.268717, 0.4035479, 43.98661, 529.8812, 64.67131
 153431103, 0.1969159, 5.247865, 0.3117106, 13.55365, 527.7863, 55.46965, 0.1654741, 4.439015, 0.3002828, 10.3911, 446.6223, 54.32065
 153631023, 0.04805829, 4.064627, 0.2929212, -1.366107, 409.0617, 53.57961, 0.1969159, 5.247865, 0.3117106, 13.55365, 527.7863, 55.46965
 153830943, -0.1753152, 3.98821, 0.2115343, -23.74915, 401.3943, 45.42639, 0.04805829, 4.064627, 0.2929212, -1.366107, 409.0617, 53.57961
 154030863, 0.1861284, 4.339565, 0.3304814, 12.48009, 436.6441, 57.34946, -0.1753152, 3.98821, 0.2115343, -23.74915, 401.3943, 45.42639
 154230783, 0.02413137, 4.654234, 0.2977499, -3.746912, 468.2182, 54.06724, 0.1861284, 4.339565, 0.3304814, 12.48009, 436.6441, 57.34946
 154430703, 0.4351814, 3.992345, 0.4165751, 37.44591, 401.8239, 65.97815, 0.02413137, 4.654234, 0.2977499, -3.746912, 468.2182, 54.06724
 154631456, 0.2912721, 4.613311, 0.3727204, 23.0235, 464.1236, 61.58289, 0.4351814, 3.992345, 0.4165751, 37.44591, 401.8239, 65.97815
 154831376, 0.2565222, 4.031187, 0.3487885, 19.53562, 405.724, 59.18612, 0.2912721, 4.613311, 0.3727204, 23.0235, 464.1236, 61.58289
 155031296, 0.3166054, 4.079886, 0.3690589, 25.56507, 410.6096, 61.22023, 0.2565222, 4.031187, 0.3487885, 19.53562, 405.724, 59.18612
 155231216, -0.6261278, 4.115924, 0.06513971, -68.90173, 414.2191, 30.76531, 0.3166054, 4.079886, 0.3690589, 25.56507, 410.6096, 61.22023
 155431136, -0.2118237, 4.4176, 0.201033, -27.38068, 444.4816, 44.38507, -0.6261278, 4.115924, 0.06513971, -68.90173, 414.2191, 30.76531
 155631056, 0.01781091, 4.273491, 0.2626097, -4.364181, 430.0228, 50.5607, -0.2118237, 4.4176, 0.201033, -27.38068, 444.4816, 44.38507
 155830976, -0.4683347, 4.535067, 0.09270452, -53.07024, 456.259, 33.54049, 0.01781091, 4.273491, 0.2626097, -4.364181, 430.0228, 50.5607
 156030896, 0.1163503, 5.046371, 0.2873572, 5.529003, 507.5782, 53.04654, -0.4683347, 4.535067, 0.09270452, -53.07024, 456.259, 33.54049
 156230816, 0.418678, 4.911475, 0.3920368, 35.83521, 494.0668, 63.53597, 0.1163503, 5.046371, 0.2873572, 5.529003, 507.5782, 53.04654
 156430736, 0.06851517, 4.052905, 0.2861711, 0.7649384, 407.9271, 52.93166, 0.418678, 4.911475, 0.3920368, 35.83521, 494.0668, 63.53597
 156630656, 0.02595926, 4.324795, 0.2797875, -3.473715, 435.1882, 52.29895, 0.06851517, 4.052905, 0.2861711, 0.7649384, 407.9271, 52.93166
 156831409, -0.4995906, 4.244762, 0.11174, -56.12212, 427.1595, 35.46328, 0.02595926, 4.324795, 0.2797875, -3.473715, 435.1882, 52.29895
 157031329, -0.0303603, 4.52489, 0.2525911, -9.111442, 455.2673, 49.57756, -0.4995906, 4.244762, 0.11174, -56.12212, 427.1595, 35.46328
 157231249, 0.4985498, 4.235305, 0.4176123, 43.8487, 426.2265, 66.10577, -0.0303603, 4.52489, 0.2525911, -9.111442, 455.2673, 49.57756
 157431169, -0.4947581, 4.238168, 0.07762398, -55.74973, 426.5126, 32.02371, 0.4985498, 4.235305, 0.4176123, 43.8487, 426.2265, 66.10577
 157631089, -0.4180306, 4.404511, 0.08212432, -48.07677, 443.1941, 32.47595, -0.4947581, 4.238168, 0.07762398, -55.74973, 426.5126, 32.02371
 157831009, 0.07146407, 4.295613, 0.1891174, 0.9742708, 432.2701, 43.20936, -0.4180306, 4.404511, 0.08212432, -48.07677, 443.1941, 32.47595
 158030929, 0.4482034, 4.35232, 0.335656, 38.73777, 437.9639, 57.89241, 0.07146407, 4.295613, 0.1891174, 0.9742708, 432.2701, 43.20936
 158230849, -0.03520222, 4.093134, 0.1261999, -9.698763, 411.9687, 36.91429, 0.4482034, 4.35232, 0.335656, 38.73777, 437.9639, 57.89241
 158430769, -0.0788836, 5.085017, 0.1412529, -14.06377, 511.4587, 38.42118, -0.03520222, 4.093134, 0.1261999, -9.698763, 411.9687, 36.91429
 158630689, 0.5248566, 5.270263, 0.30707, 46.47796, 530.0432, 55.05554, -0.0788836, 5.085017, 0.1412529, -14.06377, 511.4587, 38.42118
 158831442, -0.5950279, 4.215667, -0.09133974, -65.71298, 424.2499, 15.14585, 0.5248566, 5.270263, 0.30707, 46.47796, 530.0432, 55.05554
 159031362, 0.4405636, 5.170411, 0.2760175, 38.03445, 520.0164, 51.94695, -0.5950279, 4.215667, -0.09133974, -65.71298, 424.2499, 15.14585
 159231282, 0.1923698, 4.693604, 0.1615886, 13.15983, 472.1827, 40.4862, 0.4405636, 5.170411, 0.2760175, 38.03445, 520.0164, 51.94695
 159431202, -0.476999, 5.255289, -0.01012118, -53.8957, 528.5263, 23.27559, 0.1923698, 4.693604, 0.1615886, 13.15983, 472.1827, 40.4862
 159631122, 0.24421, 4.550034, 0.1912892, 18.36901, 457.7858, 43.46359, -0.476999, 5.255289, -0.01012118, -53.8957, 528.5263, 23.27559
 159831042, 0.2581328, 4.143419, 0.2062898, 19.76808, 417.0048, 44.96548, 0.24421, 4.550034, 0.1912892, 18.36901, 457.7858, 43.46359
 160030962, 0.1643135, 4.348786, 0.1753453, 10.3707, 437.6054, 41.86572, 0.2581328, 4.143419, 0.2062898, 19.76808, 417.0048, 44.96548
 160230882, 0.5026612, 4.04255, 0.2566687, 44.2767, 406.8943, 50.0213, 0.1643135, 4.348786, 0.1753453, 10.3707, 437.6054, 41.86572
 160430802, -0.2278844, 4.632488, 0.03224389, -28.9142, 466.0559, 27.53408, 0.5026612, 4.04255, 0.2566687, 44.2767, 406.8943, 50.0213
 160630722, -0.1661646, 4.49565, 0.05700654, -22.73425, 452.3293, 30.01379, -0.2278844, 4.632488, 0.03224389, -28.9142, 466.0559, 27.53408
 160831475, 0.4196088, 4.42921, 0.2225946, 35.95748, 445.6728, 46.61015, -0.1661646, 4.49565, 0.05700654, -22.73425, 452.3293, 30.01379
 161031395, -0.2498056, 4.539085, 0.02987989, -31.11147, 456.6984, 27.29569, 0.4196088, 4.42921, 0.2225946, 35.95748, 445.6728, 46.61015
 161231315, 0.09730059, 4.820956, 0.1170383, 3.66653, 484.9716, 36.03419, -0.2498056, 4.539085, 0.02987989, -31.11147, 456.6984, 27.29569
 161431235, -0.2506415, 5.336702, 0.02050761, -31.18789, 536.7001, 26.36181, 0.09730059, 4.820956, 0.1170383, 3.66653, 484.9716, 36.03419
 161631155, -0.2193399, 4.976523, 0.03633677, -28.05028, 500.5673, 27.9475, -0.2506415, 5.336702, 0.02050761, -31.18789, 536.7001, 26.36181
 161831075, -0.02682393, 5.238914, 0.0742199, -8.757856, 526.8862, 31.74961, -0.2193399, 4.976523, 0.03633677, -28.05028, 500.5673, 27.9475
 162030995, -0.5744289, 5.064534, -0.09791698, -63.61488, 509.3973, 14.50285, -0.02682393, 5.238914, 0.0742199, -8.757856, 526.8862, 31.74961
 162230915, 0.4418793, 4.735128, 0.2391322, 38.21103, 476.3678, 48.27168, -0.5744289, 5.064534, -0.09791698, -63.61488, 509.3973, 14.50285
 162430835, -0.5137033, 4.443621, -0.1012559, -57.52803, 447.1287, 14.17235, 0.4418793, 4.735128, 0.2391322, 38.21103, 476.3678, 48.27168
 162630755, -0.3466596, 4.156028, 0.01114625, -40.78471, 418.2853, 25.42535, -0.5137033, 4.443621, -0.1012559, -57.52803, 447.1287, 14.17235
 162830675, -0.330714, 5.188485, -0.01453131, -39.18012, 521.8385, 22.86118, -0.3466596, 4.156028, 0.01114625, -40.78471, 418.2853, 25.42535
 163031428, 0.4846803, 3.927596, 0.2601158, 42.49989, 395.3911, 50.37231, -0.330714, 5.188485, -0.01453131, -39.18012, 521.8385, 22.86118
 163231348, 0.6131094, 5.319532, 0.3023991, 55.37175, 534.9999, 54.61087, 0.4846803, 3.927596, 0.2601158, 42.49989, 395.3911, 50.37231
 163431268, -0.07609002, 4.632328, 0.04911524, -13.68271, 466.0629, 29.23796, 0.6131094, 5.319532, 0.3023991, 55.37175, 534.9999, 54.61087
 163631188, 0.3375775, 4.528618, 0.2424226, 27.76642, 455.6599, 48.59677, -0.07609002, 4.632328, 0.04911524, -13.68271, 466.0629, 29.23796
 163831108, 0.5208717, 5.214172, 0.2712682, 46.14909, 524.4191, 51.49854, 0.3375775, 4.528618, 0.2424226, 27.76642, 455.6599, 48.59677
 164031028, -0.1738609, 4.067281, 0.01552926, -23.46081, 409.3887, 25.87877, 0.5208717, 5.214172, 0.2712682, 46.14909, 524.4191, 51.49854
 164230948, 0.1237174, 4.788183, 0.1704992, 6.363463, 481.6907, 41.39782, -0.1738609, 4.067281, 0.01552926, -23.46081, 409.3887, 25.87877
 164430868, -0.02767289, 4.758441, 0.08774461, -8.803329, 478.7073, 33.11315, 0.1237174, 4.788183, 0.1704992, 6.363463, 481.6907, 41.39782
 164630788, 0.2693926, 4.560534, 0.1613441, 20.94092, 458.8639, 40.48674, -0.02767289, 4.758441, 0.08774461, -8.803329, 478.7073, 33.11315
 164830708, 0.1884128, 4.411536, 0.1711016, 12.82281, 443.9232, 41.45628, 0.2693926, 4.560534, 0.1613441, 20.94092, 458.8639, 40.48674
 165031461, -0.1257884, 4.594224, 0.04717811, -18.64518, 462.2433, 29.04734, 0.1884128, 4.411536, 0.1711016, 12.82281, 443.9232, 41.45628
 165231381, 0.1358933, 4.682442, 0.1181463, 7.585234, 471.0909, 36.1641, -0.1257884, 4.594224, 0.04717811, -18.64518, 462.2433, 29.04734
 165431301, -0.03166974, 4.119646, 0.07482329, -9.203588, 414.649, 31.821, 0.1358933, 4.682442, 0.1181463, 7.585234, 471.0909, 36.1641
 165631221, -0.2951296, 4.003427, -0.009733304, -35.60249, 402.9953, 23.34818, -0.03166974, 4.119646, 0.07482329, -9.203588, 414.649, 31.821
 165831141, -0.3474064, 4.97915, -0.04821756, -40.84021, 500.847, 19.49737, -0.2951296, 4.003427, -0.009733304, -35.60249, 402.9953, 23.34818
 166031061, -0.6119661, 4.989615, -0.07827786, -67.3432, 501.8941, 16.4764, -0.3474064, 4.97915, -0.04821756, -40.84021, 500.847, 19.49737
 166230981, 0.4954317, 4.147591, 0.2577537, 43.59673, 417.4534, 50.14625, -0.6119661, 4.989615, -0.07827786, -67.3432, 501.8941, 16.4764
 166430901, 0.06425564, 5.330516, 0.09194824, 0.4258766, 536.0923, 33.5461, 0.4954317, 4.147591, 0.2577537, 43.59673, 417.4534, 50.14625
 166630821, -0.5069469, 4.036459, -0.07854298, -56.78345, 406.3171, 16.46456, 0.06425564, 5.330516, 0.09194824, 0.4258766, 536.0923, 33.5461
 166830741, 0.5977507, 5.135243, 0.292583, 53.90668, 516.5297, 53.64849, -0.5069469, 4.036459, -0.07854298, -56.78345, 406.3171, 16.46456
 167030661, 0.1176129, 4.540412, 0.1110826, 5.771892, 456.8608, 35.46167, 0.5977507, 5.135243, 0.292583, 53.90668, 516.5297, 53.64849
 167231414, 0.1866275, 4.262526, 0.1716261, 12.68121, 428.9881, 41.52005, 0.1176129, 4.540412, 0.1110826, 5.771892, 456.8608, 35.46167
 167431334, -0.3700373, 4.09357, -0.03968826, -43.07827, 412.0365, 20.35771, 0.1866275, 4.262526, 0.1716261, 12.68121, 428.9881, 41.52005
 167631254, -0.5664366, 5.355218, -0.124458, -62.73935, 538.5679, 11.87338, -0.3700373, 4.09357, -0.03968826, -43.07827, 412.0365, 20.35771
 167831174, -0.006493591, 5.275331, 0.1126278, -6.642654, 530.5667, 35.61518, -0.5664366, 5.355218, -0.124458, -62.73935, 538.5679, 11.87338
 168031094, 0.01540754, 4.283576, 0.09046731, -4.456729, 431.1021, 33.39808, -0.006493591, 5.275331, 0.1126278, -6.642654, 530.5667, 35.61518
 168231014, 0.3356598, 4.328084, 0.1758471, 27.63614, 435.569, 41.95777, 0.01540754, 4.283576, 0.09046731, -4.456729, 431.1021, 33.39808
 168430934, -0.2278275, 4.791163, 0.03650734, -28.80082, 482.0046, 27.99419, 0.3356598, 4.328084, 0.1758471, 27.63614, 435.569, 41.95777
 168630854, 0.07496473, 4.98395, 0.1156877, 1.541171, 501.3371, 35.93319, -0.2278275, 4.791163, 0.03650734, -28.80082, 482.0046, 27.99419
 168830774, 0.3422219, 5.074498, 0.1825916, 28.3134, 510.4164, 42.63992, 0.07496473, 4.98395, 0.1156877, 1.541171, 501.3371, 35.93319
 169030694, -0.2346343, 5.121948, 0.0273644, -29.53315, 515.1723, 27.06887, 0.3422219, 5.074498, 0.1825916, 28.3134, 510.4164, 42.63992
 169231447, -0.09318521, 4.394481, 0.03950443, -15.39882, 442.2275, 28.28067, -0.2346343, 5.121948, 0.0273644, -29.53315, 515.1723, 27.06887
 169431367, 0.6343228, 5.105177, 0.2777326, 57.58827, 513.507, 52.1739, -0.09318521, 4.394481, 0.03950443, -15.39882, 442.2275, 28.28067
 169631287, 0.3732836, 5.182769, 0.2600316, 31.47705, 521.2907, 50.39783, 0.6343228, 5.105177, 0.2777326, 57.58827, 513.507, 52.1739
 169831207, 0.5674316, 5.236294, 0.274923, 50.89779, 526.6611, 51.89176, 0.3732836, 5.182769, 0.2600316, 31.47705, 521.2907, 50.39783
 170031127, 0.04013019, 5.057896, 0.1178896, -1.947832, 508.7626, 36.15226, 0.5674316, 5.236294, 0.274923, 50.89779, 526.6611, 51.89176
 170231047, 0.3026149, 4.582994, 0.2096772, 24.35089, 461.1338, 45.34806, 0.04013019, 5.057896, 0.1178896, -1.947832, 508.7626, 36.15226
 170430967, -0.5390039, 5.430871, -0.0935984, -59.93245, 546.1579, 14.97926, 0.3026149, 4.582994, 0.2096772, 24.35089, 461.1338, 45.34806
 170630887, 0.5460358, 4.049309, 0.316533, 48.78481, 407.611, 56.06119, -0.5390039, 5.430871, -0.0935984, -59.93245, 546.1579, 14.97926
 170830807, -0.03341505, 4.801809, 0.09212699, -9.268793, 483.0711, 33.58519, 0.5460358, 4.049309, 0.316533, 48.78481, 407.611, 56.06119
 171030727, -0.2536338, 4.168641, 0.02926096, -31.34188, 419.5906, 27.28102, -0.03341505, 4.801809, 0.09212699, -9.268793, 483.0711, 33.58519
 171231480, -0.291729, 4.71218, 0.003997877, -35.20982, 474.0975, 24.74006, -0.2536338, 4.168641, 0.02926096, -31.34188, 419.5906, 27.28102
 171431400, 0.07214119, 4.72005, 0.1619156, 1.217128, 474.8831, 40.54848, -0.291729, 4.71218, 0.003997877, -35.20982, 474.0975, 24.74006
 171631320, 0.2722102, 3.962328, 0.2080205, 21.34106, 398.8971, 45.19127, 0.07214119, 4.72005, 0.1619156, 1.217128, 474.8831, 40.54848
 171831240, 0.2661773, 4.460449, 0.1201557, 20.77807, 448.8477, 36.41412, 0.2722102, 3.962328, 0.2080205, 21.34106, 398.8971, 45.19127
 172031160, -0.2892651, 4.81511, -0.03987114, -34.93217, 484.4131, 20.36257, 0.2661773, 4.460449, 0.1201557, 20.77807, 448.8477, 36.41412
 172231080, -0.2382134, 4.442502, -0.04083906, -29.92036, 447.0491, 20.24305, -0.2892651, 4.81511, -0.03987114, -34.93217, 484.4131, 20.36257
 172431000, 0.2695114, 4.74021, 0.1211122, 20.96602, 476.9044, 36.47489, -0.2382134, 4.442502, -0.04083906, -29.92036, 447.0491, 20.24305
 172630920, 0.450053, 4.324251, 0.1244796, 39.16127, 435.2007, 36.84756, 0.2695114, 4.74021, 0.1211122, 20.96602, 476.9044, 36.47489
 172830840, 0.2541189, 4.848333, 0.07877088, 19.5582, 487.7595, 32.27087, 0.450053, 4.324251, 0.1244796, 39.16127, 435.2007, 36.84756
 173030760, -0.445403, 5.026814, -0.1490341, -50.5524, 505.6501, 9.44174, 0.2541189, 4.848333, 0.07877088, 19.5582, 487.7595, 32.27087
 173230680, 0.5268359, 5.336591, 0.1632491, 46.81464, 536.718, 40.72112, -0.445403, 5.026814, -0.1490341, -50.5524, 505.6501, 9.44174
 173431433, 0.5205047, 4.53505, 0.1651694, 46.17282, 456.3315, 40.91062, 0.5268359, 5.336591, 0.1632491, 46.81464, 536.718, 40.72112
 173631353, 0.4150265, 4.529274, 0.1334527, 35.61475, 455.7498, 37.73485, 0.5205047, 4.53505, 0.1651694, 46.17282, 456.3315, 40.91062
 173831273, -0.05005559, 5.443937, -0.01711347, -10.94613, 547.4748, 22.65879, 0.4150265, 4.529274, 0.1334527, 35.61475, 455.7498, 37.73485
 174031193, 0.1720667, 5.327138, 0.06954454, 11.33131, 535.7654, 31.34344, -0.05005559, 5.443937, -0.01711347, -10.94613, 547.4748, 22.65879
 174231113, -0.1384038, 4.952946, -0.0743793, -19.77408, 498.2396, 16.93102, 0.1720667, 5.327138, 0.06954454, 11.33131, 535.7654, 31.34344
 174431033, 0.1893385, 5.151261, 0.08733571, 13.05615, 518.1221, 33.12257, -0.1384038, 4.952946, -0.0743793, -19.77408, 498.2396, 16.93102
 174630953, 0.4729286, 3.928118, 0.1753315, 41.44864, 395.4649, 41.93448, 0.1893385, 5.151261, 0.08733571, 13.05615, 518.1221, 33.12257
 174830873, -0.09335809, 3.938821, -0.02846992, -15.30684, 396.5373, 21.51406, 0.4729286, 3.928118, 0.1753315, 41.44864, 395.4649, 41.93448
 175030793, 0.1443164, 4.76624, 0.05063902, 8.493767, 479.5143, 29.43663, -0.09335809, 3.938821, -0.02846992, -15.30684, 396.5373, 21.51406
 175230713, -0.1307919, 5.060795, -0.04273124, -19.06702, 509.0656, 20.08166, 0.1443164, 4.76624, 0.05063902, 8.493767, 479.5143, 29.43663
 175431466, -0.3578405, 5.332367, -0.1174917, -41.8103, 536.2995, 12.59305, -0.1307919, 5.060795, -0.04273124, -19.06702, 509.0656, 20.08166
 175631386, 0.6611128, 4.767791, 0.2224535, 60.26756, 479.6763, 46.64917, -0.3578405, 5.332367, -0.1174917, -41.8103, 536.2995, 12.59305
 175831306, -0.03258485, 3.958475, -0.04553311, -9.237338, 398.5117, 19.80615, 0.6611128, 4.767791, 0.2224535, 60.26756, 479.6763, 46.64917
 176031226, 0.6313012, 3.949929, 0.1521919, 57.28625, 397.6679, 39.62098, -0.03258485, 3.958475, -0.04553311, -9.237338, 398.5117, 19.80615
 176231146, 0.4711266, 4.201143, 0.1278075, 41.25203, 422.8643, 37.17496, 0.6313012, 3.949929, 0.1521919, 57.28625, 397.6679, 39.62098
 176431066, 0.1284138, 5.086768, 0.01708783, 6.906382, 511.6623, 26.0811, 0.4711266, 4.201143, 0.1278075, 41.25203, 422.8643, 37.17496
 176630986, -0.2432548, 5.07407, -0.1022299, -30.33935, 510.3745, 14.12563, 0.1284138, 5.086768, 0.01708783, 6.906382, 511.6623, 26.0811
 176830906, 0.01630487, 4.209894, -0.008688923, -4.345697, 423.7084, 23.49305, -0.2432548, 5.07407, -0.1022299, -30.33935, 510.3745, 14.12563
 177030826, 0.1067123, 4.469841, 0.02719126, 4.714972, 449.774, 27.08768, 0.01630487, 4.209894, -0.008688923, -4.345697, 423.7084, 23.49305
 177230746, 0.5364515, 5.290086, 0.1729415, 47.77967, 532.0447, 41.69152, 0.1067123, 4.469841, 0.02719126, 4.714972, 449.774, 27.08768
 177430666, -0.6070099, 4.19647, -0.207428, -66.76733, 422.3834, 3.584826, 0.5364515, 5.290086, 0.1729415, 47.77967, 532.0447, 41.69152
 177631419, -0.5436124, 5.184532, -0.1720171, -60.40276, 521.4825, 7.131844, -0.6070099, 4.19647, -0.207428, -66.76733, 422.3834, 3.584826
 177831339, 0.09888698, 4.307707, 0.03939655, 3.956903, 433.5503, 28.31002, -0.5436124, 5.184532, -0.1720171, -60.40276, 521.4825, 7.131844
 178031259, 0.375705, 4.748188, 0.1317783, 31.69066, 477.7108, 37.56699, 0.09888698, 4.307707, 0.03939655, 3.956903, 433.5503, 28.31002
 178231179, 0.1766055, 4.827998, 0.002714671, 11.7374, 485.705, 24.64735, 0.375705, 4.748188, 0.1317783, 31.69066, 477.7108, 37.56699
 178431099, 0.6038409, 4.903719, 0.1600175, 54.54052, 493.3001, 40.40417, 0.1766055, 4.827998, 0.002714671, 11.7374, 485.705, 24.64735
 178631019, 0.2126382, 3.954362, 0.03851794, 15.34272, 398.115, 28.22638, 0.6038409, 4.903719, 0.1600175, 54.54052, 493.3001, 40.40417
 178830939, 0.5501458, 4.695677, 0.1566227, 49.16234, 472.4644, 40.05809, 0.2126382, 3.954362, 0.03851794, 15.34272, 398.115, 28.22638
 179030859, -0.3949735, 5.215416, -0.1470515, -45.5243, 524.5698, 9.634901, 0.5501458, 4.695677, 0.1566227, 49.16234, 472.4644, 40.05809
 179230779, -0.4615428, 5.015277, -0.1691145, -52.21676, 504.4802, 7.420685, -0.3949735, 5.215416, -0.1470515, -45.5243, 524.5698, 9.634901
 179430699, 0.4671165, 4.411219, 0.1387889, 40.7974, 443.9053, 38.26183, -0.4615428, 5.015277, -0.1691145, -52.21676, 504.4802, 7.420685
 179631452, 0.280796, 4.439075, 0.08105288, 22.14377, 446.7037, 32.47912, 0.4671165, 4.411219, 0.1387889, 40.7974, 443.9053, 38.26183
 179831372, 0.5714713, 4.235869, 0.1947208, 51.28051, 426.3357, 43.86675, 0.280796, 4.439075, 0.08105288, 22.14377, 446.7037, 32.47912
 180031292, 0.4073088, 4.305072, 0.13957, 34.83577, 433.2745, 38.34199, 0.5714713, 4.235869, 0.1947208, 51.28051, 426.3357, 43.86675
 180231212, -0.1791288, 3.984572, -0.1187411, -23.91927, 401.1321, 12.47384, 0.4073088, 4.305072, 0.13957, 34.83577, 433.2745, 38.34199
 180431132, 0.2725064, 5.017375, 0.04804284, 21.32433, 504.7025, 29.17968, -0.1791288, 3.984572, -0.1187411, -23.91927, 401.1321, 12.47384
 180631052, -0.5571789, 5.428122, -0.21477, -61.80166, 545.8914, 2.847422, 0.2725064, 5.017375, 0.04804284, 21.32433, 504.7025, 29.17968
 180830972, -0.5473329, 4.949704, -0.210199, -60.83026, 497.9053, 3.301386, -0.5571789, 5.428122, -0.21477, -61.80166, 545.8914, 2.847422
 181030892, -0.4208938, 4.921507, -0.1655735, -48.16685, 495.0766, 7.770676, -0.5473329, 4.949704, -0.210199, -60.83026, 497.9053, 3.301386
 181230812, -0.4472435, 4.355064, -0.1529276, -50.79821, 438.2759, 9.034939, -0.4208938, 4.921507, -0.1655735, -48.16685, 495.0766, 7.770676
 181430732, 0.5701149, 4.865468, 0.1855895, 51.14042, 489.4722, 42.95207, -0.4472435, 4.355064, -0.1529276, -50.79821, 438.2759, 9.034939
 181631485, 0.1003216, 4.309203, 0.02968877, 4.080363, 433.6925, 27.33347, 0.5701149, 4.865468, 0.1855895, 51.14042, 489.4722, 42.95207
 181831405, -0.4686367, 4.765236, -0.1550631, -52.91028, 479.4089, 8.827977, 0.1003216, 4.309203, 0.02968877, 4.080363, 433.6925, 27.33347
 182031325, -0.4965481, 4.620229, -0.1589203, -55.71215, 464.8432, 8.441916, -0.4686367, 4.765236, -0.1550631, -52.91028, 479.4089, 8.827977
 182231245, 0.5012882, 3.922647, 0.1639805, 44.2044, 394.9004, 40.77946, -0.4965481, 4.620229, -0.1589203, -55.71215, 464.8432, 8.441916
 182431165, -0.0663014, 4.999262, -0.03006952, -12.67166, 502.8749, 21.33547, 0.5012882, 3.922647, 0.1639805, 44.2044, 394.9004, 40.77946
 182631085, -0.2554497, 5.127727, -0.1387088, -31.50957, 515.7806, 10.48465, -0.0663014, 4.999262, -0.03006952, -12.67166, 502.8749, 21.33547
 182831005, 0.6775185, 4.94099, 0.1943557, 61.97479, 497.0633, 43.85072, -0.2554497, 5.127727, -0.1387088, -31.50957, 515.7806, 10.48465
 183030925, -0.07262154, 4.94907, -0.04796323, -13.35716, 497.8649, 19.52934, 0.6775185, 4.94099, 0.1943557, 61.97479, 497.0633, 43.85072
 183230845, -0.4120385, 4.769921, -0.1644599, -47.44556, 479.8847, 7.838624, -0.07262154, 4.94907, -0.04796323, -13.35716, 497.8649, 19.52934
 183430765, 0.2591336, 5.401592, 0.04522321, 20.00443, 543.2334, 28.90157, -0.4120385, 4.769921, -0.1644599, -47.44556, 479.8847, 7.838624
 183630685, 0.3979979, 4.203795, 0.1461231, 34.05652, 423.1121, 39.0327, 0.2591336, 5.401592, 0.04522321, 20.00443, 543.2334, 28.90157
 183831438, 0.2320792, 4.424298, 0.08040655, 17.37142, 445.2304, 32.43538, 0.3979979, 4.203795, 0.1461231, 34.05652, 423.1121, 39.0327
 184031358, -0.2673631, 5.039638, -0.1256229, -32.86052, 506.926, 11.75547, 0.2320792, 4.424298, 0.08040655, 17.37142, 445.2304, 32.43538
 184231278, -0.4177904, 5.080245, -0.1338179, -47.9847, 510.9897, 10.91436, -0.2673631, 5.039638, -0.1256229, -32.86052, 506.926, 11.75547
 184431198, -0.4870113, 5.436337, -0.1865007, -54.72815, 546.7093, 5.689457, -0.4177904, 5.080245, -0.1338179, -47.9847, 510.9897, 10.91436
 184631118, 0.1541202, 4.058916, 0.006086696, 9.626877, 408.5844, 25.01439, -0.4870113, 5.436337, -0.1865007, -54.72815, 546.7093, 5.689457
 184831038, 0.06789229, 5.39951, 0.01877767, 0.8948231, 543.037, 26.25566, 0.1541202, 4.058916, 0.006086696, 9.626877, 408.5844, 25.01439
 185030958, -0.06975047, 5.266941, -0.0485424, -13.10767, 529.7315, 19.46346, 0.06789229, 5.39951, 0.01877767, 0.8948231, 543.037, 26.25566
 185230878, -0.04452002, 5.023523, -0.01947276, -10.59404, 505.3089, 22.3695, -0.06975047, 5.266941, -0.0485424, -13.10767, 529.7315, 19.46346
 185430798, -0.03146981, 4.804835, -0.006756451, -9.110361, 483.371, 23.68629, -0.04452002, 5.023523, -0.01947276, -10.59404, 505.3089, 22.3695
 185630718, 0.4328124, 5.082877, 0.1232212, 37.54158, 511.2836, 36.74226, -0.03146981, 4.804835, -0.006756451, -9.110361, 483.371, 23.68629
 185831471, 0.4169082, 4.792994, 0.1158048, 35.84638, 482.2162, 35.97462, 0.4328124, 5.082877, 0.1232212, 37.54158, 511.2836, 36.74226
 186031391, 0.06479288, 5.15959, 0.02183315, 0.361784, 518.972, 26.50603, 0.4169082, 4.792994, 0.1158048, 35.84638, 482.2162, 35.97462
 186231311, -0.3936082, 4.155926, -0.1498117, -45.58113, 418.3042, 9.309252, 0.06479288, 5.15959, 0.02183315, 0.361784, 518.972, 26.50603
 186431231, 0.3823537, 5.285019, 0.1262447, 32.36082, 531.5418, 37.01374, -0.3936082, 4.155926, -0.1498117, -45.58113, 418.3042, 9.309252
 186631151, -0.3957906, 4.920671, -0.1267501, -45.48598, 495.0065, 11.69265, 0.3823537, 5.285019, 0.1262447, 32.36082, 531.5418, 37.01374
 186831071, -0.577031, 4.319907, -0.2116091, -63.78385, 434.757, 3.161095, -0.3957906, 4.920671, -0.1267501, -45.48598, 495.0065, 11.69265
 187030991, -0.09912406, 4.291612, -0.03310568, -16.08513, 431.9123, 20.99639, -0.577031, 4.319907, -0.2116091, -63.78385, 434.757, 3.161095
 187230911, -0.1225481, 4.626953, -0.03564221, -18.39825, 465.5276, 20.75153, -0.09912406, 4.291612, -0.03310568, -16.08513, 431.9123, 20.99639
 187430831, -0.2916754, 4.750765, -0.104927, -35.13084, 477.9575, 13.86364, -0.1225481, 4.626953, -0.03564221, -18.39825, 465.5276, 20.75153
 187630751, -0.3704354, 4.501951, -0.1739292, -42.9723, 453.0185, 6.968576, -0.2916754, 4.750765, -0.104927, -35.13084, 477.9575, 13.86364
 187830671, 0.3401596, 4.199198, 0.1126996, 28.0495, 422.6564, 35.634, -0.3704354, 4.501951, -0.1739292, -42.9723, 453.0185, 6.968576
 188031424, -0.2261386, 4.66792, -0.1160119, -28.83416, 469.6534, 12.69073, 0.3401596, 4.199198, 0.1126996, 28.0495, 422.6564, 35.634
 188231344, -0.1229455, 5.277049, -0.05250113, -18.39669, 530.7443, 19.07382, -0.2261386, 4.66792, -0.1160119, -28.83416, 469.6534, 12.69073
 188431264, 0.349218, 4.511263, 0.08504388, 29.09924, 453.9441, 32.90379, -0.1229455, 5.277049, -0.05250113, -18.39669, 530.7443, 19.07382
 188631184, -0.3352104, 4.221131, -0.1163407, -39.4659, 424.8398, 12.72574, 0.349218, 4.511263, 0.08504388, 29.09924, 453.9441, 32.90379
 188831104, 0.3131722, 4.331352, 0.06597482, 25.30906, 435.8928, 30.95201, -0.3352104, 4.221131, -0.1163407, -39.4659, 424.8398, 12.72574
 189031024, 0.1226553, 5.2206, 0.03616029, 6.1078, 525.0751, 27.93061, 0.3131722, 4.331352, 0.06597482, 25.30906, 435.8928, 30.95201
 189230944, 0.6245831, 4.959441, 0.1672055, 56.53713, 498.8856, 41.10175, 0.1226553, 5.2206, 0.03616029, 6.1078, 525.0751, 27.93061
 189430864, 0.6623396, 4.832985, 0.1854316, 60.49385, 486.217, 42.96653, 0.6245831, 4.959441, 0.1672055, 56.53713, 498.8856, 41.10175
 189630784, 0.3618829, 4.352743, 0.0690067, 30.35957, 438.0575, 31.29696, 0.6623396, 4.832985, 0.1854316, 60.49385, 486.217, 42.96653
 189830704, 0.1545342, 5.385668, 0.05914604, 9.405394, 541.6256, 30.25783, 0.3618829, 4.352743, 0.0690067, 30.35957, 438.0575, 31.29696
 190031457, 0.06111942, 3.99757, -0.003214445, -0.05711079, 402.3969, 23.99065, 0.1545342, 5.385668, 0.05914604, 9.405394, 541.6256, 30.25783
 190231377, -0.2193164, 5.094491, -0.0504724, -27.95246, 512.4037, 19.29846, 0.06111942, 3.99757, -0.003214445, -0.05711079, 402.3969, 23.99065
 190431297, -0.5852729, 4.820916, -0.2001726, -64.47621, 484.9895, 4.337341, -0.2193164, 5.094491, -0.0504724, -27.95246, 512.4037, 19.29846
 190631217, 0.1334702, 5.182919, 0.02826374, 7.448236, 521.3018, 27.20383, -0.5852729, 4.820916, -0.2001726, -64.47621, 484.9895, 4.337341
 190831137, -0.5563945, 4.410511, -0.1729978, -61.87334, 443.8292, 6.983866, 0.1334702, 5.182919, 0.02826374, 7.448236, 521.3018, 27.20383
 191031057, -0.3422955, 4.717682, -0.129147, -40.46048, 474.6312, 11.37322, -0.5563945, 4.410511, -0.1729978, -61.87334, 443.8292, 6.983866
 191230977, 0.2770626, 4.385307, 0.04978144, 21.78968, 441.3085, 29.35303, -0.3422955, 4.717682, -0.129147, -40.46048, 474.6312, 11.37322
 191430897, 0.2338683, 4.480111, 0.05303668, 17.58091, 450.8293, 29.70295, 0.2770626, 4.385307, 0.04978144, 21.78968, 441.3085, 29.35303
 191630817, 0.3948326, 4.970064, 0.1027477, 33.59398, 499.9702, 34.65648, 0.2338683, 4.480111, 0.05303668, 17.58091, 450.8293, 29.70295
 191830737, 0.5027728, 4.05877, 0.1215951, 44.19823, 408.5692, 36.49725, 0.3948326, 4.970064, 0.1027477, 33.59398, 499.9702, 34.65648
 192030657, 0.5406315, 5.062894, 0.1446318, 48.01027, 509.2558, 38.8102, 0.5027728, 4.05877, 0.1215951, 44.19823, 408.5692, 36.49725
 192231410, -0.3706409, 4.970109, -0.1889219, -43.07489, 499.9453, 5.450246, 0.5406315, 5.062894, 0.1446318, 48.01027, 509.2558, 38.8102
 192431330, 0.5105419, 5.382886, 0.07969044, 45.27765, 541.36, 32.38094, -0.3706409, 4.970109, -0.1889219, -43.07489, 499.9453, 5.450246
 192631250, 0.4877039, 5.237645, 0.04670097, 42.84906, 526.7853, 29.04708, 0.5105419, 5.382886, 0.07969044, 45.27765, 541.36, 32.38094
 192831170, -0.363807, 5.38714, -0.1794281, -42.62507, 541.7711, 6.34056, 0.4877039, 5.237645, 0.04670097, 42.84906, 526.7853, 29.04708
 193031090, 0.007621387, 5.172617, -0.0932823, -5.343269, 520.2541, 14.99559, -0.363807, 5.38714, -0.1794281, -42.62507, 541.7711, 6.34056
 193231010, 0.3209971, 5.245899, 0.02178494, 26.27038, 527.606, 26.57488, 0.007621387, 5.172617, -0.0932823, -5.343269, 520.2541, 14.99559
 193430930, -0.06582156, 4.121478, -0.1324729, -12.47443, 414.8375, 11.12615, 0.3209971, 5.245899, 0.02178494, 26.27038, 527.606, 26.57488
 193630850, -0.2633898, 4.160993, -0.204657, -32.43177, 418.7971, 3.855253, -0.06582156, 4.121478, -0.1324729, -12.47443, 414.8375, 11.12615
 193830770, 0.3303693, 4.766709, 0.05402898, 26.91755, 479.5445, 29.7271, -0.2633898, 4.160993, -0.204657, -32.43177, 418.7971, 3.855253
 194030690, 0.1561011, 4.237306, -0.04745533, 9.536032, 426.4505, 19.58631, 0.3303693, 4.766709, 0.05402898, 26.91755, 479.5445, 29.7271
 194231443, -0.3170722, 4.450548, -0.1897867, -37.67197, 447.8371, 5.372403, 0.1561011, 4.237306, -0.04745533, 9.536032, 426.4505, 19.58631
 194431363, 0.05058661, 4.121658, -0.07693537, -0.8514409, 414.8589, 16.67564, -0.3170722, 4.450548, -0.1897867, -37.67197, 447.8371, 5.372403
 194631283, 0.04143511, 5.099804, -0.07274013, -1.990783, 512.96, 17.03976, 0.05058661, 4.121658, -0.07693537, -0.8514409, 414.8589, 16.67564
 194831203, -0.3495138, 5.418819, -0.2128974, -41.24648, 544.944, 2.978484, 0.04143511, 5.099804, -0.07274013, -1.990783, 512.96, 17.03976
 195031123, -0.5227516, 4.05268, -0.2890033, -58.48344, 407.9234, -4.613266, -0.3495138, 5.418819, -0.2128974, -41.24648, 544.944, 2.978484
 195231043, 0.4174303, 5.267131, 0.03005798, 35.90023, 529.7453, 27.3966, -0.5227516, 4.05268, -0.2890033, -58.48344, 407.9234, -4.613266
 195430963, 0.5874087, 4.04735, 0.0560324, 52.90719, 407.4133, 29.99737, 0.4174303, 5.267131, 0.03005798, 35.90023, 529.7453, 27.3966
 195630883, 0.5686472, 4.268251, 0.1235949, 50.81922, 429.559, 36.70262, 0.5874087, 4.04735, 0.0560324, 52.90719, 407.4133, 29.99737
 195830803, -0.05286866, 5.409755, -0.09673179, -11.5262, 544.0372, 14.61243, 0.5686472, 4.268251, 0.1235949, 50.81922, 429.559, 36.70262
 196030723, 0.1889633, 5.046763, -0.02155747, 12.85733, 507.6261, 22.18382, -0.05286866, 5.409755, -0.09673179, -11.5262, 544.0372, 14.61243
 196231476, 0.3721513, 5.033697, 0.04882554, 31.35284, 506.3198, 29.2677, 0.1889633, 5.046763, -0.02155747, 12.85733, 507.6261, 22.18382
 196431396, -0.04291739, 5.068165, -0.1347362, -10.29958, 509.7893, 10.86704, 0.3721513, 5.033697, 0.04882554, 31.35284, 506.3198, 29.2677
 196631316, 0.004716957, 4.184721, -0.06839786, -5.734969, 421.1742, 17.45219, -0.04291739, 5.068165, -0.1347362, -10.29958, 509.7893, 10.86704
 196831236, 0.3962079, 4.955987, 0.03604344, 33.4446, 498.5163, 27.91225, 0.004716957, 4.184721, -0.06839786, -5.734969, 421.1742, 17.45219
 197031156, 0.6021023, 4.954083, 0.1006876, 54.28391, 498.3263, 34.44204, 0.3962079, 4.955987, 0.03604344, 33.4446, 498.5163, 27.91225
 197231076, -0.1691264, 5.098924, -0.183928, -22.87454, 512.8557, 5.958238, 0.6021023, 4.954083, 0.1006876, 54.28391, 498.3263, 34.44204
 197430996, -0.4879825, 4.292836, -0.2681129, -54.91035, 431.9978, -2.502289, -0.1691264, 5.098924, -0.183928, -22.87454, 512.8557, 5.958238
 197630916, 0.1686407, 5.024433, -0.01896833, 11.00389, 505.377, 22.48476, -0.4879825, 4.292836, -0.2681129, -54.91035, 431.9978, -2.502289
 197830836, -0.09957653, 5.089803, -0.130481, -14.73438, 512.0482, 11.55008, 0.1686407, 5.024433, -0.01896833, 11.00389, 505.377, 22.48476
 198030756, -0.2602373, 4.98498, -0.2467853, -29.69561, 501.8812, 0.06031132, -0.09957653, 5.089803, -0.130481, -14.73438, 512.0482, 11.55008
 198230676, -0.2341149, 4.405934, -0.3237944, -26.58234, 444.2116, -7.625978, -0.2602373, 4.98498, -0.2467853, -29.69561, 501.8812, 0.06031132
 198431429, 0.4035599, 4.825992, -0.2545471, 37.56047, 486.5971, -0.6916714, -0.2341149, 4.405934, -0.3237944, -26.58234, 444.2116, -7.625978
 198631349, 0.8000023, 4.08129, -0.1915562, 77.75105, 412.0416, 5.657031, 0.4035599, 4.825992, -0.2545471, 37.56047, 486.5971, -0.6916714
 198831269, 0.5156241, 3.802387, -0.2618499, 49.94351, 384.2202, -1.350386, 0.8000023, 4.08129, -0.1915562, 77.75105, 412.0416, 5.657031
 199031189, -0.09261604, 3.319706, -0.3520198, -10.30016, 336.0477, -10.37875, 0.5156241, 3.802387, -0.2618499, 49.94351, 384.2202, -1.350386
 199231109, -0.09201, 3.311368, -0.4274095, -9.570926, 335.4922, -17.95026, -0.09261604, 3.319706, -0.3520198, -10.30016, 336.0477, -10.37875
 199431029, 0.4616421, 3.030766, -0.3713196, 46.59698, 307.6464, -12.38058, -0.09201, 3.311368, -0.4274095, -9.570926, 335.4922, -17.95026
 199630949, 1.400598, 2.974703, -0.4057964, 141.4759, 302.2852, -15.89587, 0.4616421, 3.030766, -0.3713196, 46.59698, 307.6464, -12.38058
 199830869, 0.7169393, 2.918331, -0.5280607, 73.82302, 296.7449, -28.2164, 1.400598, 2.974703, -0.4057964, 141.4759, 302.2852, -15.89587
 200030789, 0.5253873, 2.406742, -0.4834763, 55.43517, 245.4451, -23.82779, 0.7169393, 2.918331, -0.5280607, 73.82302, 296.7449, -28.2164
 200230709, 0.6867036, 2.00256, -0.4621818, 72.27866, 204.8483, -21.76617, 0.5253873, 2.406742, -0.4834763, 55.43517, 245.4451, -23.82779
 200431462, 1.008045, 2.047313, -0.5385478, 104.8989, 209.2349, -29.46388, 0.6867036, 2.00256, -0.4621818, 72.27866, 204.8483, -21.76617
 200631382, 2.021352, 1.225199, -0.4822094, 206.4433, 126.8135, -23.81113, 1.008045, 2.047313, -0.5385478, 104.8989, 209.2349, -29.46388
 200831302, 1.779153, 1.611162, -0.5181491, 181.7537, 165.4872, -27.35748, 2.021352, 1.225199, -0.4822094, 206.4433, 126.8135, -23.81113
 201031222, 1.89753, 1.249893, -0.466539, 193.0528, 129.4346, -22.13261, 1.779153, 1.611162, -0.5181491, 181.7537, 165.4872, -27.35748
 201231142, 1.586074, 0.7916093, -0.3254907, 161.4366, 83.7161, -7.993967, 1.89753, 1.249893, -0.466539, 193.0528, 129.4346, -22.13261
 201431062, 1.792946, 0.04042269, -0.1386947, 182.0699, 8.66503, 10.69277, 1.586074, 0.7916093, -0.3254907, 161.4366, 83.7161, -7.993967
 201630982, 3.085039, 0.7477853, -0.4161406, 311.706, 79.74201, -17.15232, 1.792946, 0.04042269, -0.1386947, 182.0699, 8.66503, 10.69277
 201830902, 3.326184, 0.5088934, -0.3743572, 336.0455, 55.95625, -13.01499, 3.085039, 0.7477853, -0.4161406, 311.706, 79.74201, -17.15232
 202030822, 3.500619, 0.4907956, -0.3761277, 353.6297, 54.24898, -13.22748, 3.326184, 0.5088934, -0.3743572, 336.0455, 55.95625, -13.01499
 202230742, 2.482575, 0.6663881, -0.3693205, 251.5153, 71.94757, -12.56205, 3.500619, 0.4907956, -0.3761277, 353.6297, 54.24898, -13.22748
 202430662, 2.891414, -0.3533135, -0.06658626, 292.348, -30.14573, 17.76991, 2.482575, 0.6663881, -0.3693205, 251.5153, 71.94757, -12.56205
 202631415, 3.468696, -0.4155462, -0.03328611, 349.993, -36.3097, 21.11442, 2.891414, -0.3533135, -0.06658626, 292.348, -30.14573, 17.76991
 202831335, 2.848621, -0.3688349, -0.0006957725, 287.5691, -31.54901, 24.38557, 3.468696, -0.4155462, -0.03328611, 349.993, -36.3097, 21.11442
 203031255, 3.863135, 0.2603862, -0.1725101, 389.1182, 31.54106, 7.173621, 2.848621, -0.3688349, -0.0006957725, 287.5691, -31.54901, 24.38557
