TimeUS,CGpN,CGpE,CGpD,CGpe,PGpN,PGpE,PGpD,PGpe
 117030669, 0, 0, 0, 0.05, 0, 0, 0, 0.05
 117231422, 0, 0, 0, 0.05, 0, 0, 0, 0.05
 117431342, 0, 0, 0, 0.05, 0, 0, 0, 0.05
 117631262, 0, 0, 0, 0.05, 0, 0, 0, 0.05
 117831182, 0, 0, 0, 0.05, 0, 0, 0, 0.05
 118031102, 0, 0, 0, 0.05, 0, 0, 0, 0.05
 118231022, 0, 0, 0, 0.05, 0, 0, 0, 0.05
 118430942, 0, 0, 0, 0.05, 0, 0, 0, 0.05
 118630862, 0, 0, 0, 0.05, 0, 0, 0, 0.05
 118830782, 0, 0, 0, 0.05, 0, 0, 0, 0.05
 119030702, 0, 0, 0, 0.05, 0, 0, 0, 0.05
 119231455, 0, 0, 0, 0.05, 0, 0, 0, 0.05
 119431375, 0, 0, 0, 0.05, 0, 0, 0, 0.05
 119631295, 0, 0, 0, 0.05, 0, 0, 0, 0.05
 119831215, 0, 0, 0, 0.05, 0, 0, 0, 0.05
 120031135, 0, 0, 0, 0.05, 0, 0, 0, 0.05
 120231055, 0, 0, 0, 0.05, 0, 0, 0, 0.05
 120430975, 0, 0, 0, 0.05, 0, 0, 0, 0.05
 120630895, 0, 0, 0, 0.05, 0, 0, 0, 0.05
 120830815, 0, 0, 0, 0.05, 0, 0, 0, 0.05
 121030735, 0, 0, 0, 0.05, 0, 0, 0, 0.05
 121230655, 0, 0, -0.046, 0.05, 0, 0, 0, 0.05
 121431408, 0, 0, -0.214, 0.05, 0, 0, -0.046, 0.05
 121631328, 0, 0, -0.348, 0.05, 0, 0, -0.214, 0.05
 121831248, 0, -0.001, -0.983, 0.05, 0, 0, -0.348, 0.05
 122031168, 0.008, -0.012, -1.739, 0.05, 0, -0.001, -0.983, 0.05
 122231088, 0.019, -0.029, -1.779, 0.05, 0.008, -0.012, -1.739, 0.05
 122431008, 0.024, -0.04, -1.901, 0.05, 0.019, -0.029, -1.779, 0.05
 122630928, 0.021, -0.039, -2.09, 0.05, 0.024, -0.04, -1.901, 0.05
 122830848, 0.018, -0.034, -2.203, 0.05, 0.021, -0.039, -2.09, 0.05
 123030768, 0.015, -0.029, -2.123, 0.05, 0.018, -0.034, -2.203, 0.05
 123230688, 0.014, -0.025, -1.944, 0.05, 0.015, -0.029, -2.123, 0.05
 123431441, 0.016, -0.025, -1.708, 0.05, 0.014, -0.025, -1.944, 0.05
 123631361, 0.021, -0.026, -1.439, 0.05, 0.016, -0.025, -1.708, 0.05
 123831281, 0.05, -0.027, -1.152, 0.05, 0.021, -0.026, -1.439, 0.05
 124031201, 0.129, -0.029, -0.8750001, 0.05, 0.05, -0.027, -1.152, 0.05
 124231121, 0.261, -0.031, -0.641, 0.05, 0.129, -0.029, -0.8750001, 0.05
 124431041, 0.422, -0.032, -0.457, 0.05, 0.261, -0.031, -0.641, 0.05
 124630961, 0.589, -0.031, -0.321, 0.05, 0.422, -0.032, -0.457, 0.05
 124830881, 0.761, -0.03, -0.226, 0.05, 0.589, -0.031, -0.321, 0.05
 125030801, 0.9350001, -0.029, -0.165, 0.05, 0.761, -0.03, -0.226, 0.05
 125230721, 1.103, -0.028, -0.128, 0.05, 0.9350001, -0.029, -0.165, 0.05
 125431474, 1.261, -0.025, -0.109, 0.05, 1.103, -0.028, -0.128, 0.05
 125631394, 1.414, -0.006, -0.09900001, 0.05, 1.261, -0.025, -0.109, 0.05
 125831314, 1.577, 0.021, -0.1, 0.05, 1.414, -0.006, -0.09900001, 0.05
 126031234, 1.752, 0.021, -0.103, 0.05, 1.577, 0.021, -0.1, 0.05
 126231154, 1.936, -0.009000001, -0.114, 0.05, 1.752, 0.021, -0.103, 0.05
 126431074, 2.122, -0.045, -0.131, 0.05, 1.936, -0.009000001, -0.114, 0.05
 126630994, 2.306, -0.062, -0.149, 0.05, 2.122, -0.045, -0.131, 0.05
 126830914, 2.493, -0.056, -0.165, 0.05, 2.306, -0.062, -0.149, 0.05
 127030834, 2.682, -0.037, -0.178, 0.05, 2.493, -0.056, -0.165, 0.05
 127230754, 2.863, -0.014, -0.191, 0.05, 2.682, -0.037, -0.178, 0.05
 127430674, 3.025, 0.003, -0.197, 0.05, 2.863, -0.014, -0.191, 0.05
 127631427, 3.171, 0.011, -0.2, 0.05, 3.025, 0.003, -0.197, 0.05
 127831347, 3.308, 0.009000001, -0.207, 0.05, 3.171, 0.011, -0.2, 0.05
 128031267, 3.433, 0.002, -0.211, 0.05, 3.308, 0.009000001, -0.207, 0.05
 128231187, 3.546, -0.007, -0.212, 0.05, 3.433, 0.002, -0.211, 0.05
 128431107, 3.649, -0.014, -0.212, 0.05, 3.546, -0.007, -0.212, 0.05
 128631027, 3.742, -0.016, -0.21, 0.05, 3.649, -0.014, -0.212, 0.05
 128830947, 3.828, -0.014, -0.207, 0.05, 3.742, -0.016, -0.21, 0.05
 129030867, 3.908, -0.01, -0.208, 0.05, 3.828, -0.014, -0.207, 0.05
 129230787, 3.979, -0.006, -0.208, 0.05, 3.908, -0.01, -0.208, 0.05
 129430707, 4.044, -0.004, -0.205, 0.05, 3.979, -0.006, -0.208, 0.05
 129631460, 4.101, -0.002, -0.198, 0.05, 4.044, -0.004, -0.205, 0.05
 129831380, 4.154, -0.002, -0.189, 0.05, 4.101, -0.002, -0.198, 0.05
 130031300, 4.204, -0.002, -0.181, 0.05, 4.154, -0.002, -0.189, 0.05
 130231220, 4.251, -0.003, -0.177, 0.05, 4.204, -0.002, -0.181, 0.05
 130431140, 4.294, -0.002, -0.17, 0.05, 4.251, -0.003, -0.177, 0.05
 130631060, 4.334, -0.001, -0.164, 0.05, 4.294, -0.002, -0.17, 0.05
 130830980, 4.371, 0.002, -0.156, 0.05, 4.334, -0.001, -0.164, 0.05
 131030900, 4.407, 0.005, -0.151, 0.05, 4.371, 0.002, -0.156, 0.05
 131230820, 4.441, 0.008, -0.149, 0.05, 4.407, 0.005, -0.151, 0.05
 131430740, 4.472, 0.011, -0.148, 0.05, 4.441, 0.008, -0.149, 0.05
 131630660, 4.503, 0.013, -0.152, 0.05, 4.472, 0.011, -0.148, 0.05
 131831413, 4.531, 0.013, -0.159, 0.05, 4.503, 0.013, -0.152, 0.05
 132031333, 4.555, 0.013, -0.162, 0.05, 4.531, 0.013, -0.159, 0.05
 132231253, 4.575, 0.012, -0.157, 0.05, 4.555, 0.013, -0.162, 0.05
 132431173, 4.595, 0.01, -0.152, 0.05, 4.575, 0.012, -0.157, 0.05
 132631093, 4.617, 0.008, -0.15, 0.05, 4.595, 0.01, -0.152, 0.05
 132831013, 4.637, 0.007, -0.146, 0.05, 4.617, 0.008, -0.15, 0.05
 133030933, 4.654, 0.006, -0.138, 0.05, 4.637, 0.007, -0.146, 0.05
 133230853, 4.67, 0.005, -0.126, 0.05, 4.654, 0.006, -0.138, 0.05
 133430773, 4.688, 0.006, -0.119, 0.05, 4.67, 0.005, -0.126, 0.05
 133630693, 4.707, 0.006, -0.115, 0.05, 4.688, 0.006, -0.119, 0.05
 133831446, 4.724, 0.006, -0.114, 0.05, 4.707, 0.006, -0.115, 0.05
 134031366, 4.739, 0.005, -0.114, 0.05, 4.724, 0.006, -0.114, 0.05
 134231286, 4.752, 0.005, -0.114, 0.05, 4.739, 0.005, -0.114, 0.05
 134431206, 4.764, 0.005, -0.111, 0.05, 4.752, 0.005, -0.114, 0.05
 134631126, 4.778, 0.005, -0.109, 0.05, 4.764, 0.005, -0.111, 0.05
 134831046, 4.791, 0.005, -0.108, 0.05, 4.778, 0.005, -0.109, 0.05
 135030966, 4.802, 0.005, -0.103, 0.05, 4.791, 0.005, -0.108, 0.05
 135230886, 4.813, 0.006, -0.101, 0.05, 4.802, 0.005, -0.103, 0.05
 135430806, 4.825, 0.006, -0.101, 0.05, 4.813, 0.006, -0.101, 0.05
 135630726, 4.837, 0.006, -0.103, 0.05, 4.825, 0.006, -0.101, 0.05
 135831479, 4.849, 0.006, -0.11, 0.05, 4.837, 0.006, -0.103, 0.05
 136031399, 4.858, 0.007, -0.119, 0.05, 4.849, 0.006, -0.11, 0.05
 136231319, 4.865, 0.007, -0.123, 0.05, 4.858, 0.007, -0.119, 0.05
 136431239, 4.87, 0.007, -0.122, 0.05, 4.865, 0.007, -0.123, 0.05
 136631159, 4.876, 0.006, -0.119, 0.05, 4.87, 0.007, -0.122, 0.05
 136831079, 4.884, 0.005, -0.117, 0.05, 4.876, 0.006, -0.119, 0.05
 137030999, 4.892, 0.004, -0.117, 0.05, 4.884, 0.005, -0.117, 0.05
 137230919, 4.899, 0.002, -0.117, 0.05, 4.892, 0.004, -0.117, 0.05
 137430839, 4.905, 0.001, -0.12, 0.05, 4.899, 0.002, -0.117, 0.05
 137630759, 4.91, 0.001, -0.127, 0.05, 4.905, 0.001, -0.12, 0.05
 137830679, 4.915, 0.001, -0.137, 0.05, 4.91, 0.001, -0.127, 0.05
 138031432, 4.919, 0, -0.147, 0.05, 4.915, 0.001, -0.137, 0.05
 138231352, 4.923, 0, -0.159, 0.05, 4.919, 0, -0.147, 0.05
 138431272, 4.927, 0.002, -0.17, 0.05, 4.923, 0, -0.159, 0.05
 138631192, 4.93, 0.004, -0.179, 0.05, 4.927, 0.002, -0.17, 0.05
 138831112, 4.932, 0.005, -0.184, 0.05, 4.93, 0.004, -0.179, 0.05
 139031032, 4.932, 0.003, -0.185, 0.05, 4.932, 0.005, -0.184, 0.05
 139230952, 4.933, 0.003, -0.185, 0.05, 4.932, 0.003, -0.185, 0.05
 139430872, 4.935, 0.003, -0.183, 0.05, 4.933, 0.003, -0.185, 0.05
 139630792, 4.936, 0.002, -0.179, 0.05, 4.935, 0.003, -0.183, 0.05
 139830712, 4.939, 0, -0.174, 0.05, 4.936, 0.002, -0.179, 0.05
 140031465, 4.94, 0, -0.167, 0.05, 4.939, 0, -0.174, 0.05
 140231385, 4.941, 0, -0.156, 0.05, 4.94, 0, -0.167, 0.05
 140431305, 4.944, 0, -0.149, 0.05, 4.941, 0, -0.156, 0.05
 140631225, 4.948, 0.001, -0.147, 0.05, 4.944, 0, -0.149, 0.05
 140831145, 4.952, 0.001, -0.147, 0.05, 4.948, 0.001, -0.147, 0.05
 141031065, 4.955, 0.002, -0.148, 0.05, 4.952, 0.001, -0.147, 0.05
 141230985, 4.959, 0.002, -0.15, 0.05, 4.955, 0.002, -0.148, 0.05
 141430905, 4.962, 0.003, -0.151, 0.05, 4.959, 0.002, -0.15, 0.05
 141630825, 4.963, 0.002, -0.149, 0.05, 4.962, 0.003, -0.151, 0.05
 141830745, 4.965, 0.002, -0.145, 0.05, 4.963, 0.002, -0.149, 0.05
 142030665, 4.968, 0.001, -0.142, 0.05, 4.965, 0.002, -0.145, 0.05
 142231418, 4.971, 0.001, -0.141, 0.05, 4.968, 0.001, -0.142, 0.05
 142431338, 4.974, 0.001, -0.143, 0.05, 4.971, 0.001, -0.141, 0.05
 142631258, 4.977, 0, -0.147, 0.05, 4.974, 0.001, -0.143, 0.05
 142831178, 4.977, 0, -0.147, 0.05, 4.977, 0, -0.147, 0.05
 143031098, 4.978, 0, -0.147, 0.05, 4.977, 0, -0.147, 0.05
 143231018, 4.981, 0, -0.149, 0.05, 4.978, 0, -0.147, 0.05
 143430938, 4.983, 0, -0.155, 0.05, 4.981, 0, -0.149, 0.05
 143630858, 4.985, 0.001, -0.16, 0.05, 4.983, 0, -0.155, 0.05
 143830778, 4.985, 0, -0.165, 0.05, 4.985, 0.001, -0.16, 0.05
 144030698, 4.985, 0, -0.167, 0.05, 4.985, 0, -0.165, 0.05
 144231451, 4.985, 0, -0.168, 0.05, 4.985, 0, -0.167, 0.05
 144431371, 4.984, 0, -0.165, 0.05, 4.985, 0, -0.168, 0.05
 144631291, 4.984, -0.001, -0.162, 0.05, 4.984, 0, -0.165, 0.05
 144831211, 4.983, -0.001, -0.155, 0.05, 4.984, -0.001, -0.162, 0.05
 145031131, 4.984, -0.002, -0.148, 0.05, 4.983, -0.001, -0.155, 0.05
 145231051, 4.986, -0.002, -0.141, 0.05, 4.984, -0.002, -0.148, 0.05
 145430971, 4.989, -0.002, -0.139, 0.05, 4.986, -0.002, -0.141, 0.05
 145630891, 4.992, -0.002, -0.138, 0.05, 4.989, -0.002, -0.139, 0.05
 145830811, 4.993, -0.002, -0.139, 0.05, 4.992, -0.002, -0.138, 0.05
 146030731, 4.995, -0.003, -0.141, 0.05, 4.993, -0.002, -0.139, 0.05
 146231484, 4.996, -0.004, -0.144, 0.05, 4.995, -0.003, -0.141, 0.05
 146431404, 4.996, -0.004, -0.146, 0.05, 4.996, -0.004, -0.144, 0.05
 146631324, 4.995, -0.004, -0.145, 0.05, 4.996, -0.004, -0.146, 0.05
 146831244, 4.995, -0.004, -0.145, 0.05, 4.995, -0.004, -0.145, 0.05
 147031164, 4.998, -0.004, -0.149, 0.05, 4.995, -0.004, -0.145, 0.05
 147231084, 4.998, -0.003, -0.153, 0.05, 4.998, -0.004, -0.149, 0.05
 147431004, 4.998, -0.001, -0.157, 0.05, 4.998, -0.003, -0.153, 0.05
 147630924, 4.997, 0, -0.158, 0.05, 4.998, -0.001, -0.157, 0.05
 147830844, 4.996, 0, -0.157, 0.05, 4.997, 0, -0.158, 0.05
 148030764, 4.993, 0.001, -0.154, 0.05, 4.996, 0, -0.157, 0.05
 148230684, 4.994, 0.002, -0.152, 0.05, 4.993, 0.001, -0.154, 0.05
 148431437, 5.001, 0.002, -0.153, 0.05, 4.994, 0.002, -0.152, 0.05
 148631357, 5.003, 0.003, -0.158, 0.05, 5.001, 0.002, -0.153, 0.05
 148831277, 5.003, 0.003, -0.164, 0.05, 5.003, 0.003, -0.158, 0.05
 149031197, 5.002, 0.003, -0.169, 0.05, 5.003, 0.003, -0.164, 0.05
 149231117, 5.002, 0.002, -0.173, 0.05, 5.002, 0.003, -0.169, 0.05
 149431037, 5.002, 0.002, -0.174, 0.05, 5.002, 0.002, -0.173, 0.05
 149630957, 4.999, 0.002, -0.173, 0.05, 5.002, 0.002, -0.174, 0.05
 149830877, 4.991, 0.002, -0.171, 0.05, 4.999, 0.002, -0.173, 0.05
 150030797, 4.99, 0.002, -0.167, 0.05, 4.991, 0.002, -0.171, 0.05
 150230717, 4.992, 0.003, -0.163, 0.05, 4.99, 0.002, -0.167, 0.05
 150431470, 4.998, 0.003, -0.161, 0.05, 4.992, 0.003, -0.163, 0.05
 150631390, 5, 0.003, -0.161, 0.05, 4.998, 0.003, -0.161, 0.05
 150831310, 4.99, 0.003, -0.16, 0.05, 5, 0.003, -0.161, 0.05
 151031230, 4.989, 0.003, -0.157, 0.05, 4.99, 0.003, -0.16, 0.05
 151231150, 4.992, 0.002, -0.154, 0.05, 4.989, 0.003, -0.157, 0.05
 151431070, 5.001, 0.002, -0.152, 0.05, 4.992, 0.002, -0.154, 0.05
 151630990, 5.001, 0.003, -0.152, 0.05, 5.001, 0.002, -0.152, 0.05
 151830910, 5, 0.002, -0.152, 0.05, 5.001, 0.003, -0.152, 0.05
 152030830, 5.001, 0.002, -0.153, 0.05, 5, 0.002, -0.152, 0.05
 152230750, 5.002, 0.001, -0.155, 0.05, 5.001, 0.002, -0.153, 0.05
 152430670, 5.004, 0.002, -0.159, 0.05, 5.002, 0.001, -0.155, 0.05
 152631423, 5.003, 0.002, -0.161, 0.05, 5.004, 0.002, -0.159, 0.05
 152831343, 5.003, 0.003, -0.165, 0.05, 5.003, 0.002, -0.161, 0.05
 153031263, 5.002, 0.002, -0.166, 0.05, 5.003, 0.003, -0.165, 0.05
 153231183, 5.001, 0.002, -0.166, 0.05, 5.002, 0.002, -0.166, 0.05
 153431103, 4.999, 0.002, -0.167, 0.05, 5.001, 0.002, -0.166, 0.05
 153631023, 4.999, 0.002, -0.168, 0.05, 4.999, 0.002, -0.167, 0.05
 153830943, 4.998, 0.002, -0.169, 0.05, 4.999, 0.002, -0.168, 0.05
 154030863, 4.998, 0.002, -0.169, 0.05, 4.998, 0.002, -0.169, 0.05
 154230783, 4.997, 0.002, -0.165, 0.05, 4.998, 0.002, -0.169, 0.05
 154430703, 4.996, 0.001, -0.161, 0.05, 4.997, 0.002, -0.165, 0.05
 154631456, 4.996, 0, -0.158, 0.05, 4.996, 0.001, -0.161, 0.05
 154831376, 4.997, 0, -0.156, 0.05, 4.996, 0, -0.158, 0.05
 155031296, 4.998, 0, -0.154, 0.05, 4.997, 0, -0.156, 0.05
 155231216, 5, 0, -0.152, 0.05, 4.998, 0, -0.154, 0.05
 155431136, 5, 0, -0.15, 0.05, 5, 0, -0.152, 0.05
 155631056, 5.001, 0, -0.148, 0.05, 5, 0, -0.15, 0.05
 155830976, 5.002, 0, -0.146, 0.05, 5.001, 0, -0.148, 0.05
 156030896, 5.004, 0, -0.148, 0.05, 5.002, 0, -0.146, 0.05
 156230816, 5.005, -0.002, -0.15, 0.05, 5.004, 0, -0.148, 0.05
 156430736, 5.006, -0.003, -0.154, 0.05, 5.005, -0.002, -0.15, 0.05
 156630656, 5.006, -0.003, -0.159, 0.05, 5.006, -0.003, -0.154, 0.05
 156831409, 5.002, -0.003, -0.155, 0.05, 5.006, -0.003, -0.159, 0.05
 157031329, 4.993, -0.004, -0.134, 0.05, 5.002, -0.003, -0.155, 0.05
 157231249, 4.98, -0.004, -0.108, 0.05, 4.993, -0.004, -0.134, 0.05
 157431169, 4.979, -0.005, -0.083, 0.05, 4.98, -0.004, -0.108, 0.05
 157631089, 4.981, -0.005, -0.061, 0.05, 4.979, -0.005, -0.083, 0.05
 157831009, 4.982, -0.005, -0.041, 0.05, 4.981, -0.005, -0.061, 0.05
 158030929, 4.984, -0.005, -0.027, 0.05, 4.982, -0.005, -0.041, 0.05
 158230849, 4.987, -0.005, -0.017, 0.05, 4.984, -0.005, -0.027, 0.05
 158430769, 5, -0.004, -0.011, 0.05, 4.987, -0.005, -0.017, 0.05
 158630689, 5.002, -0.004, -0.008, 0.05, 5, -0.004, -0.011, 0.05
 158831442, 5.001, -0.003, -0.008, 0.05, 5.002, -0.004, -0.008, 0.05
 159031362, 5.003, -0.002, -0.01, 0.05, 5.001, -0.003, -0.008, 0.05
 159231282, 5.003, -0.001, -0.01, 0.05, 5.003, -0.002, -0.01, 0.05
 159431202, 5.004, 0, -0.01, 0.05, 5.003, -0.001, -0.01, 0.05
 159631122, 5.004, 0, -0.009000001, 0.05, 5.004, 0, -0.01, 0.05
 159831042, 5.004, 0, -0.009000001, 0.05, 5.004, 0, -0.009000001, 0.05
 160030962, 5.004, 0, -0.01, 0.05, 5.004, 0, -0.009000001, 0.05
 160230882, 5.004, 0.001, -0.01, 0.05, 5.004, 0, -0.01, 0.05
 160430802, 5.003, 0.001, -0.009000001, 0.05, 5.004, 0.001, -0.01, 0.05
 160630722, 5.003, 0.002, -0.008, 0.05, 5.003, 0.001, -0.009000001, 0.05
 160831475, 5.002, 0.002, -0.004, 0.05, 5.003, 0.002, -0.008, 0.05
 161031395, 5.002, 0.002, -0.003, 0.05, 5.002, 0.002, -0.004, 0.05
 161231315, 5.002, 0.001, -0.002, 0.05, 5.002, 0.002, -0.003, 0.05
 161431235, 5.002, 0.002, -0.001, 0.05, 5.002, 0.001, -0.002, 0.05
 161631155, 5.003, 0.002, -0.002, 0.05, 5.002, 0.002, -0.001, 0.05
 161831075, 5.004, 0.002, -0.004, 0.05, 5.003, 0.002, -0.002, 0.05
 162030995, 5.004, 0.002, -0.005, 0.05, 5.004, 0.002, -0.004, 0.05
 162230915, 5.005, 0.002, -0.008, 0.05, 5.004, 0.002, -0.005, 0.05
 162430835, 5.005, 0.001, -0.009000001, 0.05, 5.005, 0.002, -0.008, 0.05
 162630755, 5.004, 0.001, -0.009000001, 0.05, 5.005, 0.001, -0.009000001, 0.05
 162830675, 5.003, 0.001, -0.005, 0.05, 5.004, 0.001, -0.009000001, 0.05
 163031428, 5.002, 0, -0.001, 0.05, 5.003, 0.001, -0.005, 0.05
 163231348, 5.002, 0, 0, 0.05, 5.002, 0, -0.001, 0.05
 163431268, 5.003, -0.001, 0.001, 0.05, 5.002, 0, 0, 0.05
 163631188, 5.003, -0.001, 0.001, 0.05, 5.003, -0.001, 0.001, 0.05
 163831108, 5.003, 0, 0, 0.05, 5.003, -0.001, 0.001, 0.05
 164031028, 5.003, 0, -0.001, 0.05, 5.003, 0, 0, 0.05
 164230948, 5.003, 0, -0.001, 0.05, 5.003, 0, -0.001, 0.05
 164430868, 5.002, 0, 0, 0.05, 5.003, 0, -0.001, 0.05
 164630788, 5.002, 0, 0.002, 0.05, 5.002, 0, 0, 0.05
 164830708, 5.004, 0, 0.002, 0.05, 5.002, 0, 0.002, 0.05
 165031461, 5.005, -0.001, 0, 0.05, 5.004, 0, 0.002, 0.05
 165231381, 5.005, -0.001, 0, 0.05, 5.005, -0.001, 0, 0.05
 165431301, 5.005, -0.001, 0, 0.05, 5.005, -0.001, 0, 0.05
 165631221, 5.005, -0.001, 0, 0.05, 5.005, -0.001, 0, 0.05
 165831141, 5.006, -0.001, 0, 0.05, 5.005, -0.001, 0, 0.05
 166031061, 5.007, 0, 0.001, 0.05, 5.006, -0.001, 0, 0.05
 166230981, 5.008, 0, 0.001, 0.05, 5.007, 0, 0.001, 0.05
 166430901, 5.008, 0, 0.001, 0.05, 5.008, 0, 0.001, 0.05
 166630821, 5.006, -0.001, 0.001, 0.05, 5.008, 0, 0.001, 0.05
 166830741, 5.003, -0.002, 0.001, 0.05, 5.006, -0.001, 0.001, 0.05
 167030661, 5.003, -0.002, 0.003, 0.05, 5.003, -0.002, 0.001, 0.05
 167231414, 5.003, -0.003, 0.003, 0.05, 5.003, -0.002, 0.003, 0.05
 167431334, 5.003, -0.002, 0.004, 0.05, 5.003, -0.003, 0.003, 0.05
 167631254, 5.002, -0.002, 0.006, 0.05, 5.003, -0.002, 0.004, 0.05
 167831174, 5.001, -0.002, 0.008, 0.05, 5.002, -0.002, 0.006, 0.05
 168031094, 5.001, -0.002, 0.007, 0.05, 5.001, -0.002, 0.008, 0.05
 168231014, 5.002, -0.002, 0.003, 0.05, 5.001, -0.002, 0.007, 0.05
 168430934, 5.001, -0.002, 0.002, 0.05, 5.002, -0.002, 0.003, 0.05
 168630854, 5, -0.002, 0.002, 0.05, 5.001, -0.002, 0.002, 0.05
 168830774, 4.989, -0.001, 0.001, 0.05, 5, -0.002, 0.002, 0.05
 169030694, 4.995, 0, 0, 0.05, 4.989, -0.001, 0.001, 0.05
 169231447, 5.009, 0, -0.001, 0.05, 4.995, 0, 0, 0.05
 169431367, 5.007, -0.001, -0.006, 0.05, 5.009, 0, -0.001, 0.05
 169631287, 5.002, -0.001, -0.008, 0.05, 5.007, -0.001, -0.006, 0.05
 169831207, 5.001, -0.001, -0.011, 0.05, 5.002, -0.001, -0.008, 0.05
 170031127, 5.001, -0.001, -0.013, 0.05, 5.001, -0.001, -0.011, 0.05
 170231047, 5.002, -0.001, -0.015, 0.05, 5.001, -0.001, -0.013, 0.05
 170430967, 5.001, 0, -0.018, 0.05, 5.002, -0.001, -0.015, 0.05
 170630887, 4.998, 0, -0.021, 0.05, 5.001, 0, -0.018, 0.05
 170830807, 4.996, 0.001, -0.022, 0.05, 4.998, 0, -0.021, 0.05
 171030727, 4.985, 0, -0.021, 0.05, 4.996, 0.001, -0.022, 0.05
 171231480, 4.985, 0, -0.018, 0.05, 4.985, 0, -0.021, 0.05
 171431400, 5.003, 0, -0.013, 0.05, 4.985, 0, -0.018, 0.05
 171631320, 5.003, 0, -0.009000001, 0.05, 5.003, 0, -0.013, 0.05
 171831240, 4.991, 0.001, -0.006, 0.05, 5.003, 0, -0.009000001, 0.05
 172031160, 4.98, 0.001, -0.003, 0.05, 4.991, 0.001, -0.006, 0.05
 172231080, 4.992, 0.001, 0, 0.05, 4.98, 0.001, -0.003, 0.05
 172431000, 5.007, 0.001, 0.003, 0.05, 4.992, 0.001, 0, 0.05
 172630920, 5.005, 0.001, 0.004, 0.05, 5.007, 0.001, 0.003, 0.05
 172830840, 5, 0, 0.004, 0.05, 5.005, 0.001, 0.004, 0.05
 173030760, 4.999, 0, 0.004, 0.05, 5, 0, 0.004, 0.05
 173230680, 5, 0, 0.003, 0.05, 4.999, 0, 0.004, 0.05
 173431433, 5.003, 0, 0, 0.05, 5, 0, 0.003, 0.05
 173631353, 5.004, 0, -0.003, 0.05, 5.003, 0, 0, 0.05
 173831273, 5.004, 0.001, -0.007, 0.05, 5.004, 0, -0.003, 0.05
 174031193, 5.002, 0.001, -0.01, 0.05, 5.004, 0.001, -0.007, 0.05
 174231113, 5, 0.001, -0.014, 0.05, 5.002, 0.001, -0.01, 0.05
 174431033, 4.998, 0.001, -0.017, 0.05, 5, 0.001, -0.014, 0.05
 174630953, 4.998, 0.002, -0.019, 0.05, 4.998, 0.001, -0.017, 0.05
 174830873, 4.998, 0.002, -0.017, 0.05, 4.998, 0.002, -0.019, 0.05
 175030793, 4.998, 0.002, -0.012, 0.05, 4.998, 0.002, -0.017, 0.05
 175230713, 4.998, 0.001, -0.007, 0.05, 4.998, 0.002, -0.012, 0.05
 175431466, 4.999, 0, -0.003, 0.05, 4.998, 0.001, -0.007, 0.05
 175631386, 5, 0, -0.002, 0.05, 4.999, 0, -0.003, 0.05
 175831306, 5.001, 0, -0.002, 0.05, 5, 0, -0.002, 0.05
 176031226, 5.001, 0, -0.001, 0.05, 5.001, 0, -0.002, 0.05
 176231146, 5, 0, -0.001, 0.05, 5.001, 0, -0.001, 0.05
 176431066, 4.999, 0, 0.001, 0.05, 5, 0, -0.001, 0.05
 176630986, 5, 0, 0.002, 0.05, 4.999, 0, 0.001, 0.05
 176830906, 5.001, 0.001, 0.002, 0.05, 5, 0, 0.002, 0.05
 177030826, 5.003, 0.002, 0.002, 0.05, 5.001, 0.001, 0.002, 0.05
 177230746, 5.003, 0.002, 0.002, 0.05, 5.003, 0.002, 0.002, 0.05
 177430666, 5.002, 0.001, 0.003, 0.05, 5.003, 0.002, 0.002, 0.05
 177631419, 5.001, 0, 0.003, 0.05, 5.002, 0.001, 0.003, 0.05
 177831339, 5, -0.001, 0.003, 0.05, 5.001, 0, 0.003, 0.05
 178031259, 5, -0.002, 0.003, 0.05, 5, -0.001, 0.003, 0.05
 178231179, 4.999, -0.001, 0.002, 0.05, 5, -0.002, 0.003, 0.05
 178431099, 4.999, -0.001, 0.001, 0.05, 4.999, -0.001, 0.002, 0.05
 178631019, 4.999, -0.002, 0.001, 0.05, 4.999, -0.001, 0.001, 0.05
 178830939, 4.998, -0.003, 0.001, 0.05, 4.999, -0.002, 0.001, 0.05
 179030859, 4.997, -0.004, 0.004, 0.05, 4.998, -0.003, 0.001, 0.05
 179230779, 4.998, -0.003, 0.004, 0.05, 4.997, -0.004, 0.004, 0.05
 179430699, 5, -0.002, 0.005, 0.05, 4.998, -0.003, 0.004, 0.05
 179631452, 4.999, -0.002, 0.004, 0.05, 5, -0.002, 0.005, 0.05
 179831372, 5, -0.002, 0.002, 0.05, 4.999, -0.002, 0.004, 0.05
 180031292, 5, -0.002, 0.002, 0.05, 5, -0.002, 0.002, 0.05
 180231212, 4.999, -0.002, 0.001, 0.05, 5, -0.002, 0.002, 0.05
 180431132, 4.999, -0.002, 0.001, 0.05, 4.999, -0.002, 0.001, 0.05
 180631052, 5, -0.002, 0.002, 0.05, 4.999, -0.002, 0.001, 0.05
 180830972, 5, -0.001, 0.003, 0.05, 5, -0.002, 0.002, 0.05
 181030892, 5.001, -0.001, 0.002, 0.05, 5, -0.001, 0.003, 0.05
 181230812, 5.005, -0.001, 0, 0.05, 5.001, -0.001, 0.002, 0.05
 181430732, 5.005, -0.001, -0.003, 0.05, 5.005, -0.001, 0, 0.05
 181631485, 5.005, -0.002, -0.004, 0.05, 5.005, -0.001, -0.003, 0.05
 181831405, 5.003, -0.002, -0.004, 0.05, 5.005, -0.002, -0.004, 0.05
 182031325, 4.996, -0.001, -0.003, 0.05, 5.003, -0.002, -0.004, 0.05
 182231245, 5, 0, -0.001, 0.05, 4.996, -0.001, -0.003, 0.05
 182431165, 5.02, 0, -0.001, 0.05, 5, 0, -0.001, 0.05
 182631085, 5.017, 0, 0, 0.05, 5.02, 0, -0.001, 0.05
 182831005, 4.983, -0.002, 0, 0.05, 5.017, 0, 0, 0.05
 183030925, 4.983, -0.003, 0, 0.05, 4.983, -0.002, 0, 0.05
 183230845, 5.023, -0.003, -0.001, 0.05, 4.983, -0.003, 0, 0.05
 183430765, 5.029, -0.003, -0.005, 0.05, 5.023, -0.003, -0.001, 0.05
 183630685, 5.016, -0.003, -0.008, 0.05, 5.029, -0.003, -0.005, 0.05
 183831438, 4.984, -0.003, -0.01, 0.05, 5.016, -0.003, -0.008, 0.05
 184031358, 4.984, -0.003, -0.01, 0.05, 4.984, -0.003, -0.01, 0.05
 184231278, 5.019, -0.002, -0.01, 0.05, 4.984, -0.003, -0.01, 0.05
 184431198, 5.023, -0.001, -0.011, 0.05, 5.019, -0.002, -0.01, 0.05
 184631118, 5.001, -0.001, -0.011, 0.05, 5.023, -0.001, -0.011, 0.05
 184831038, 4.976, -0.002, -0.008, 0.05, 5.001, -0.001, -0.011, 0.05
 185030958, 4.983, -0.002, -0.004, 0.05, 4.976, -0.002, -0.008, 0.05
 185230878, 5.013, -0.002, -0.003, 0.05, 4.983, -0.002, -0.004, 0.05
 185430798, 5.021, -0.001, -0.004, 0.05, 5.013, -0.002, -0.003, 0.05
 185630718, 4.999, -0.002, -0.007, 0.05, 5.021, -0.001, -0.004, 0.05
 185831471, 4.976, -0.003, -0.007, 0.05, 4.999, -0.002, -0.007, 0.05
 186031391, 4.985, -0.003, -0.005, 0.05, 4.976, -0.003, -0.007, 0.05
 186231311, 5.018, -0.003, -0.003, 0.05, 4.985, -0.003, -0.005, 0.05
 186431231, 5.021, -0.002, -0.003, 0.05, 5.018, -0.003, -0.003, 0.05
 186631151, 4.996, -0.003, 0, 0.05, 5.021, -0.002, -0.003, 0.05
 186831071, 4.978, -0.003, 0.003, 0.05, 4.996, -0.003, 0, 0.05
 187030991, 4.99, -0.003, 0.004, 0.05, 4.978, -0.003, 0.003, 0.05
 187230911, 5.022, -0.001, 0.004, 0.05, 4.99, -0.003, 0.004, 0.05
 187430831, 5.019, -0.001, 0.004, 0.05, 5.022, -0.001, 0.004, 0.05
 187630751, 4.99, -0.002, 0.007, 0.05, 5.019, -0.001, 0.004, 0.05
 187830671, 4.98, -0.003, 0.01, 0.05, 4.99, -0.002, 0.007, 0.05
 188031424, 5, -0.003, 0.012, 0.05, 4.98, -0.003, 0.01, 0.05
 188231344, 5.024, -0.003, 0.012, 0.05, 5, -0.003, 0.012, 0.05
 188431264, 5.017, -0.003, 0.011, 0.05, 5.024, -0.003, 0.012, 0.05
 188631184, 4.988, -0.002, 0.008, 0.05, 5.017, -0.003, 0.011, 0.05
 188831104, 4.982, -0.001, 0.009000001, 0.05, 4.988, -0.002, 0.008, 0.05
 189031024, 5.014, -0.001, 0.009000001, 0.05, 4.982, -0.001, 0.009000001, 0.05
 189230944, 5.027, 0, 0.007, 0.05, 5.014, -0.001, 0.009000001, 0.05
 189430864, 5.017, -0.001, 0.004, 0.05, 5.027, 0, 0.007, 0.05
 189630784, 4.987, -0.002, 0, 0.05, 5.017, -0.001, 0.004, 0.05
 189830704, 4.985, -0.001, -0.003, 0.05, 4.987, -0.002, 0, 0.05
 190031457, 5.021, 0, -0.005, 0.05, 4.985, -0.001, -0.003, 0.05
 190231377, 5.026, 0.002, -0.008, 0.05, 5.021, 0, -0.005, 0.05
 190431297, 5.013, 0.002, -0.007, 0.05, 5.026, 0.002, -0.008, 0.05
 190631217, 4.981, 0.001, -0.003, 0.05, 5.013, 0.002, -0.007, 0.05
 190831137, 4.985, 0.001, 0, 0.05, 4.981, 0.001, -0.003, 0.05
 191031057, 5.018, 0.001, 0.001, 0.05, 4.985, 0.001, 0, 0.05
 191230977, 5.021, 0.001, 0.001, 0.05, 5.018, 0.001, 0.001, 0.05
 191430897, 4.999, 0, 0.002, 0.05, 5.021, 0.001, 0.001, 0.05
 191630817, 4.977, -0.001, 0.004, 0.05, 4.999, 0, 0.002, 0.05
 191830737, 4.987, -0.001, 0.006, 0.05, 4.977, -0.001, 0.004, 0.05
 192030657, 5.021, -0.001, 0.005, 0.05, 4.987, -0.001, 0.006, 0.05
 192231410, 5.02, 0, 0.003, 0.05, 5.021, -0.001, 0.005, 0.05
 192431330, 4.996, 0, 0.003, 0.05, 5.02, 0, 0.003, 0.05
 192631250, 4.98, 0, 0.001, 0.05, 4.996, 0, 0.003, 0.05
 192831170, 5.002, 0, -0.002, 0.05, 4.98, 0, 0.001, 0.05
 193031090, 5.026, 0, -0.008, 0.05, 5.002, 0, -0.002, 0.05
 193231010, 5.019, 0, -0.013, 0.05, 5.026, 0, -0.008, 0.05
 193430930, 4.991, 0, -0.016, 0.05, 5.019, 0, -0.013, 0.05
 193630850, 4.981, 0, -0.018, 0.05, 4.991, 0, -0.016, 0.05
 193830770, 5.001, 0, -0.017, 0.05, 4.981, 0, -0.018, 0.05
 194030690, 5.023, 0, -0.016, 0.05, 5.001, 0, -0.017, 0.05
 194231443, 5.014, 0, -0.013, 0.05, 5.023, 0, -0.016, 0.05
 194431363, 4.978, 0, -0.006, 0.05, 5.014, 0, -0.013, 0.05
 194631283, 4.979, 0, 0, 0.05, 4.978, 0, -0.006, 0.05
 194831203, 5, 0, 0.005, 0.05, 4.979, 0, 0, 0.05
 195031123, 5.022, 0, 0.006, 0.05, 5, 0, 0.005, 0.05
 195231043, 5.014, 0, 0.002, 0.05, 5.022, 0, 0.006, 0.05
 195430963, 4.981, -0.001, 0.001, 0.05, 5.014, 0, 0.002, 0.05
 195630883, 4.982, -0.001, 0.001, 0.05, 4.981, -0.001, 0.001, 0.05
 195830803, 5.014, -0.001, 0.002, 0.05, 4.982, -0.001, 0.001, 0.05
 196030723, 5.024, -0.001, 0.002, 0.05, 5.014, -0.001, 0.002, 0.05
 196231476, 5.012, -0.001, 0.002, 0.05, 5.024, -0.001, 0.002, 0.05
 196431396, 4.981, -0.002, 0.003, 0.05, 5.012, -0.001, 0.002, 0.05
 196631316, 4.985, -0.002, 0.004, 0.05, 4.981, -0.002, 0.003, 0.05
 196831236, 5.022, -0.001, 0.003, 0.05, 4.985, -0.002, 0.004, 0.05
 197031156, 5.025, -0.001, 0, 0.05, 5.022, -0.001, 0.003, 0.05
 197231076, 5.011, -0.001, 0, 0.05, 5.025, -0.001, 0, 0.05
 197430996, 4.981, 0, 0, 0.05, 5.011, -0.001, 0, 0.05
 197630916, 4.964, 0, -0.002, 0.05, 4.981, 0, 0, 0.05
 197830836, 4.886, -0.008, -0.009000001, 0.05, 4.964, 0, -0.002, 0.05
 198030756, 4.713, -0.04, -0.013, 0.05, 4.886, -0.008, -0.009000001, 0.05
 198230676, 4.516, -0.101, -0.013, 0.05, 4.713, -0.04, -0.013, 0.05
 198431429, 4.327, -0.178, -0.012, 0.05, 4.516, -0.101, -0.013, 0.05
 198631349, 4.132, -0.261, -0.011, 0.05, 4.327, -0.178, -0.012, 0.05
 198831269, 3.915, -0.351, -0.009000001, 0.05, 4.132, -0.261, -0.011, 0.05
 199031189, 3.676, -0.455, -0.007, 0.05, 3.915, -0.351, -0.009000001, 0.05
 199231109, 3.424, -0.577, -0.004, 0.05, 3.676, -0.455, -0.007, 0.05
 199431029, 3.157, -0.716, 0.001, 0.05, 3.424, -0.577, -0.004, 0.05
 199630949, 2.872, -0.872, 0.006, 0.05, 3.157, -0.716, 0.001, 0.05
 199830869, 2.563, -1.042, 0.011, 0.05, 2.872, -0.872, 0.006, 0.05
 200030789, 2.237, -1.217, 0.013, 0.05, 2.563, -1.042, 0.011, 0.05
 200230709, 1.897, -1.396, 0.016, 0.05, 2.237, -1.217, 0.013, 0.05
 200431462, 1.561, -1.582, 0.019, 0.05, 1.897, -1.396, 0.016, 0.05
 200631382, 1.249, -1.773, 0.022, 0.05, 1.561, -1.582, 0.019, 0.05
 200831302, 0.987, -1.97, 0.026, 0.05, 1.249, -1.773, 0.022, 0.05
 201031222, 0.78, -2.174, 0.028, 0.05, 0.987, -1.97, 0.026, 0.05
 201231142, 0.617, -2.38, 0.027, 0.05, 0.78, -2.174, 0.028, 0.05
 201431062, 0.48, -2.582, 0.024, 0.05, 0.617, -2.38, 0.027, 0.05
 201630982, 0.352, -2.778, 0.02, 0.05, 0.48, -2.582, 0.024, 0.05
 201830902, 0.23, -2.96, 0.015, 0.05, 0.352, -2.778, 0.02, 0.05
 202030822, 0.118, -3.126, 0.011, 0.05, 0.23, -2.96, 0.015, 0.05
 202230742, 0.023, -3.278, 0.005, 0.05, 0.118, -3.126, 0.011, 0.05
 202430662, -0.048, -3.418, 0, 0.05, 0.023, -3.278, 0.005, 0.05
 202631415, -0.094, -3.546, 0, 0.05, -0.048, -3.418, 0, 0.05
 202831335, -0.118, -3.665, 0, 0.05, -0.094, -3.546, 0, 0.05
 203031255, -0.125, -3.774, 0, 0.05, -0.118, -3.665, 0, 0.05
 203231175, -0.124, -3.873, 0, 0.05, -0.125, -3.774, 0, 0.05
 203431095, -0.12, -3.962, 0, 0.05, -0.124, -3.873, 0, 0.05
 203631015, -0.118, -4.043, 0, 0.05, -0.12, -3.962, 0, 0.05
 203830935, -0.116, -4.114, 0.001, 0.05, -0.118, -4.043, 0, 0.05
 204030855, -0.114, -4.179, 0.003, 0.05, -0.116, -4.114, 0.001, 0.05
 204230775, -0.109, -4.238, 0.006, 0.05, -0.114, -4.179, 0.003, 0.05
 204430695, -0.102, -4.293, 0.004, 0.05, -0.109, -4.238, 0.006, 0.05
 204631448, -0.093, -4.342, 0.002, 0.05, -0.102, -4.293, 0.004, 0.05
 204831368, -0.08400001, -4.383, 0, 0.05, -0.093, -4.342, 0.002, 0.05
 205031288, -0.074, -4.42, -0.002, 0.05, -0.08400001, -4.383, 0, 0.05
 205231208, -0.064, -4.454, -0.006, 0.05, -0.074, -4.42, -0.002, 0.05
 205431128, -0.056, -4.487, -0.01, 0.05, -0.064, -4.454, -0.006, 0.05
 205631048, -0.043, -4.515, -0.012, 0.05, -0.056, -4.487, -0.01, 0.05
 205830968, -0.04, -4.539, -0.013, 0.05, -0.043, -4.515, -0.012, 0.05
 206030888, -0.039, -4.562, -0.011, 0.05, -0.04, -4.539, -0.013, 0.05
 206230808, -0.039, -4.582, -0.009000001, 0.05, -0.039, -4.562, -0.011, 0.05
 206430728, -0.037, -4.6, -0.006, 0.05, -0.039, -4.582, -0.009000001, 0.05
 206631481, -0.034, -4.617, -0.005, 0.05, -0.037, -4.6, -0.006, 0.05
 206831401, -0.032, -4.633, -0.005, 0.05, -0.034, -4.617, -0.005, 0.05
 207031321, -0.03, -4.649, -0.005, 0.05, -0.032, -4.633, -0.005, 0.05
 207231241, -0.028, -4.663, -0.005, 0.05, -0.03, -4.649, -0.005, 0.05
 207431161, -0.027, -4.677, -0.005, 0.05, -0.028, -4.663, -0.005, 0.05
 207631081, -0.026, -4.69, -0.003, 0.05, -0.027, -4.677, -0.005, 0.05
 207831001, -0.025, -4.702, -0.001, 0.05, -0.026, -4.69, -0.003, 0.05
 208030921, -0.025, -4.714, 0.001, 0.05, -0.025, -4.702, -0.001, 0.05
 208230841, -0.027, -4.726, 0.003, 0.05, -0.025, -4.714, 0.001, 0.05
 208430761, -0.028, -4.738, 0.004, 0.05, -0.027, -4.726, 0.003, 0.05
 208630681, -0.03, -4.752, 0.004, 0.05, -0.028, -4.738, 0.004, 0.05
 208831434, -0.031, -4.764, 0.002, 0.05, -0.03, -4.752, 0.004, 0.05
 209031354, -0.03, -4.775, 0, 0.05, -0.031, -4.764, 0.002, 0.05
 209231274, -0.029, -4.786, -0.005, 0.05, -0.03, -4.775, 0, 0.05
 209431194, -0.029, -4.795, -0.006, 0.05, -0.029, -4.786, -0.005, 0.05
 209631114, -0.029, -4.803, -0.005, 0.05, -0.029, -4.795, -0.006, 0.05
 209831034, -0.029, -4.811, -0.003, 0.05, -0.029, -4.803, -0.005, 0.05
 210030954, -0.03, -4.82, 0, 0.05, -0.029, -4.811, -0.003, 0.05
 210230874, -0.03, -4.829, 0.001, 0.05, -0.03, -4.82, 0, 0.05
 210430794, -0.03, -4.84, 0.002, 0.05, -0.03, -4.829, 0.001, 0.05
 210630714, -0.029, -4.849, 0.003, 0.05, -0.03, -4.84, 0.002, 0.05
 210831467, -0.029, -4.856, 0.003, 0.05, -0.029, -4.849, 0.003, 0.05
 211031387, -0.029, -4.862, 0.003, 0.05, -0.029, -4.856, 0.003, 0.05
 211231307, -0.03, -4.866, 0.001, 0.05, -0.029, -4.862, 0.003, 0.05
 211431227, -0.031, -4.872, -0.001, 0.05, -0.03, -4.866, 0.001, 0.05
 211631147, -0.031, -4.878, -0.004, 0.05, -0.031, -4.872, -0.001, 0.05
 211831067, -0.031, -4.884, -0.006, 0.05, -0.031, -4.878, -0.004, 0.05
 212030987, -0.029, -4.89, -0.007, 0.05, -0.031, -4.884, -0.006, 0.05
 212230907, -0.026, -4.895, -0.007, 0.05, -0.029, -4.89, -0.007, 0.05
 212430827, -0.022, -4.9, -0.004, 0.05, -0.026, -4.895, -0.007, 0.05
 212630747, -0.019, -4.905, -0.001, 0.05, -0.022, -4.9, -0.004, 0.05
 212830667, -0.018, -4.909, 0.001, 0.05, -0.019, -4.905, -0.001, 0.05
 213031420, -0.016, -4.914, 0.003, 0.05, -0.018, -4.909, 0.001, 0.05
 213231340, -0.009000001, -4.919, 0.002, 0.05, -0.016, -4.914, 0.003, 0.05
 213431260, -0.004, -4.924, 0, 0.05, -0.009000001, -4.919, 0.002, 0.05
 213631180, -0.001, -4.93, -0.005, 0.05, -0.004, -4.924, 0, 0.05
 213831100, 0, -4.935, -0.008, 0.05, -0.001, -4.93, -0.005, 0.05
 214031020, 0.002, -4.938, -0.009000001, 0.05, 0, -4.935, -0.008, 0.05
 214230940, 0.004, -4.94, -0.007, 0.05, 0.002, -4.938, -0.009000001, 0.05
 214430860, 0.005, -4.943, -0.002, 0.05, 0.004, -4.94, -0.007, 0.05
 214630780, 0.007, -4.946, 0.005, 0.05, 0.005, -4.943, -0.002, 0.05
 214830700, 0.009000001, -4.949, 0.011, 0.05, 0.007, -4.946, 0.005, 0.05
 215031453, 0.01, -4.952, 0.017, 0.05, 0.009000001, -4.949, 0.011, 0.05
 215231373, 0.011, -4.956, 0.02, 0.05, 0.01, -4.952, 0.017, 0.05
 215431293, 0.01, -4.96, 0.02, 0.05, 0.011, -4.956, 0.02, 0.05
 215631213, 0.009000001, -4.965, 0.016, 0.05, 0.01, -4.96, 0.02, 0.05
 215831133, 0.009000001, -4.968, 0.012, 0.05, 0.009000001, -4.965, 0.016, 0.05
 216031053, 0.009000001, -4.97, 0.007, 0.05, 0.009000001, -4.968, 0.012, 0.05
 216230973, 0.009000001, -4.971, 0.005, 0.05, 0.009000001, -4.97, 0.007, 0.05
 216430893, 0.009000001, -4.973, 0.002, 0.05, 0.009000001, -4.971, 0.005, 0.05
 216630813, 0.01, -4.974, 0.001, 0.05, 0.009000001, -4.973, 0.002, 0.05
 216830733, 0.01, -4.976, -0.001, 0.05, 0.01, -4.974, 0.001, 0.05
 217031486, 0.011, -4.979, -0.005, 0.05, 0.01, -4.976, -0.001, 0.05
 217231406, 0.011, -4.981, -0.007, 0.05, 0.011, -4.979, -0.005, 0.05
 217431326, 0.01, -4.981, -0.008, 0.05, 0.011, -4.981, -0.007, 0.05
 217631246, 0.009000001, -4.98, -0.009000001, 0.05, 0.01, -4.981, -0.008, 0.05
 217831166, 0.007, -4.98, -0.01, 0.05, 0.009000001, -4.98, -0.009000001, 0.05
 218031086, 0.007, -4.98, -0.01, 0.05, 0.007, -4.98, -0.01, 0.05
 218231006, 0.006, -4.98, -0.01, 0.05, 0.007, -4.98, -0.01, 0.05
 218430926, 0.006, -4.981, -0.009000001, 0.05, 0.006, -4.98, -0.01, 0.05
 218630846, 0.005, -4.981, -0.005, 0.05, 0.006, -4.981, -0.009000001, 0.05
 218830766, 0.005, -4.981, -0.001, 0.05, 0.005, -4.981, -0.005, 0.05
 219030686, 0.005, -4.982, 0.002, 0.05, 0.005, -4.981, -0.001, 0.05
 219231439, 0.004, -4.984, 0.002, 0.05, 0.005, -4.982, 0.002, 0.05
 219431359, 0.004, -4.985, 0.002, 0.05, 0.004, -4.984, 0.002, 0.05
 219631279, 0.004, -4.986, 0.002, 0.05, 0.004, -4.985, 0.002, 0.05
 219831199, 0.003, -4.986, 0.001, 0.05, 0.004, -4.986, 0.002, 0.05
 220031119, 0.002, -4.985, 0.002, 0.05, 0.003, -4.986, 0.001, 0.05
 220231039, 0.003, -4.985, 0.001, 0.05, 0.002, -4.985, 0.002, 0.05
 220430959, 0.003, -4.986, -0.001, 0.05, 0.003, -4.985, 0.001, 0.05
 220630879, 0.004, -4.986, -0.002, 0.05, 0.003, -4.986, -0.001, 0.05
 220830799, 0.004, -4.987, -0.004, 0.05, 0.004, -4.986, -0.002, 0.05
 221030719, 0.005, -4.987, -0.005, 0.05, 0.004, -4.987, -0.004, 0.05
 221231472, 0.006, -4.985, -0.005, 0.05, 0.005, -4.987, -0.005, 0.05
 221431392, 0.007, -4.983, -0.004, 0.05, 0.006, -4.985, -0.005, 0.05
 221631312, 0.007, -4.984, -0.002, 0.05, 0.007, -4.983, -0.004, 0.05
 221831232, 0.007, -4.989, -0.001, 0.05, 0.007, -4.984, -0.002, 0.05
 222031152, 0.007, -4.991, 0.001, 0.05, 0.007, -4.989, -0.001, 0.05
 222231072, 0.007, -4.991, 0.003, 0.05, 0.007, -4.991, 0.001, 0.05
 222430992, 0.007, -4.991, 0.005, 0.05, 0.007, -4.991, 0.003, 0.05
 222630912, 0.008, -4.991, 0.006, 0.05, 0.007, -4.991, 0.005, 0.05
 222830832, 0.008, -4.992, 0.006, 0.05, 0.008, -4.991, 0.006, 0.05
 223030752, 0.007, -4.992, 0.009000001, 0.05, 0.008, -4.992, 0.006, 0.05
 223230672, 0.006, -4.993, 0.011, 0.05, 0.007, -4.992, 0.009000001, 0.05
 223431425, 0.006, -4.993, 0.009000001, 0.05, 0.006, -4.993, 0.011, 0.05
 223631345, 0.006, -4.993, 0.006, 0.05, 0.006, -4.993, 0.009000001, 0.05
 223831265, 0.006, -4.992, 0.004, 0.05, 0.006, -4.993, 0.006, 0.05
 224031185, 0.005, -4.991, 0.003, 0.05, 0.006, -4.992, 0.004, 0.05
 224231105, 0.004, -4.99, 0.003, 0.05, 0.005, -4.991, 0.003, 0.05
 224431025, 0.004, -4.992, 0.004, 0.05, 0.004, -4.99, 0.003, 0.05
 224630945, 0.005, -4.993, 0.004, 0.05, 0.004, -4.992, 0.004, 0.05
 224830865, 0.006, -4.993, 0.001, 0.05, 0.005, -4.993, 0.004, 0.05
 225030785, 0.006, -4.993, 0, 0.05, 0.006, -4.993, 0.001, 0.05
 225230705, 0.006, -4.993, 0, 0.05, 0.006, -4.993, 0, 0.05
 225431458, 0.005, -4.993, 0, 0.05, 0.006, -4.993, 0, 0.05
 225631378, 0.005, -4.994, 0, 0.05, 0.005, -4.993, 0, 0.05
 225831298, 0.005, -4.995, 0, 0.05, 0.005, -4.994, 0, 0.05
 226031218, 0.007, -4.995, 0, 0.05, 0.005, -4.995, 0, 0.05
 226231138, 0.007, -4.995, -0.004, 0.05, 0.007, -4.995, 0, 0.05
 226431058, 0.006, -4.995, -0.007, 0.05, 0.007, -4.995, -0.004, 0.05
 226630978, 0.005, -4.994, -0.008, 0.05, 0.006, -4.995, -0.007, 0.05
 226830898, 0.005, -4.995, -0.01, 0.05, 0.005, -4.994, -0.008, 0.05
 227030818, 0.005, -4.994, -0.011, 0.05, 0.005, -4.995, -0.01, 0.05
 227230738, 0.005, -4.994, -0.009000001, 0.05, 0.005, -4.994, -0.011, 0.05
 227430658, 0.004, -4.994, -0.005, 0.05, 0.005, -4.994, -0.009000001, 0.05
 227631411, 0.004, -4.992, 0, 0.05, 0.004, -4.994, -0.005, 0.05
 227831331, 0.003, -4.987, 0.005, 0.05, 0.004, -4.992, 0, 0.05
 228031251, 0.002, -4.99, 0.011, 0.05, 0.003, -4.987, 0.005, 0.05
 228231171, 0.001, -4.999, 0.018, 0.05, 0.002, -4.99, 0.011, 0.05
 228431091, 0.001, -4.999, 0.024, 0.05, 0.001, -4.999, 0.018, 0.05
 228631011, 0, -4.985, 0.028, 0.05, 0.001, -4.999, 0.024, 0.05
 228830931, 0, -4.996, 0.03, 0.05, 0, -4.985, 0.028, 0.05
 229030851, 0, -5.009, 0.029, 0.05, 0, -4.996, 0.03, 0.05
 229230771, 0, -5.006, 0.025, 0.05, 0, -5.009, 0.029, 0.05
 229430691, 0, -5.005, 0.02, 0.05, 0, -5.006, 0.025, 0.05
 229631444, 0, -5.005, 0.015, 0.05, 0, -5.005, 0.02, 0.05
 229831364, 0, -5.006, 0.012, 0.05, 0, -5.005, 0.015, 0.05
 230031284, 0, -5.007, 0.011, 0.05, 0, -5.006, 0.012, 0.05
 230231204, 0, -5.008, 0.007, 0.05, 0, -5.007, 0.011, 0.05
 230431124, 0.001, -5.008, 0.002, 0.05, 0, -5.008, 0.007, 0.05
 230631044, 0.002, -5.007, -0.002, 0.05, 0.001, -5.008, 0.002, 0.05
 230830964, 0.002, -5.005, -0.006, 0.05, 0.002, -5.007, -0.002, 0.05
 231030884, 0.001, -5.001, -0.007, 0.05, 0.002, -5.005, -0.006, 0.05
 231230804, 0.001, -5, -0.006, 0.05, 0.001, -5.001, -0.007, 0.05
 231430724, 0.001, -5, -0.005, 0.05, 0.001, -5, -0.006, 0.05
 231631477, 0.001, -5.002, -0.004, 0.05, 0.001, -5, -0.005, 0.05
 231831397, 0, -5.002, -0.007, 0.05, 0.001, -5.002, -0.004, 0.05
 232031317, 0, -5, -0.01, 0.05, 0, -5.002, -0.007, 0.05
 232231237, 0, -4.998, -0.01, 0.05, 0, -5, -0.01, 0.05
 232431157, -0.001, -4.997, -0.009000001, 0.05, 0, -4.998, -0.01, 0.05
 232631077, -0.001, -4.997, -0.008, 0.05, -0.001, -4.997, -0.009000001, 0.05
 232830997, -0.001, -4.999, -0.009000001, 0.05, -0.001, -4.997, -0.008, 0.05
 233030917, -0.001, -5.001, -0.011, 0.05, -0.001, -4.999, -0.009000001, 0.05
 233230837, 0, -5.001, -0.012, 0.05, -0.001, -5.001, -0.011, 0.05
 233430757, 0, -5, -0.011, 0.05, 0, -5.001, -0.012, 0.05
 233630677, 0, -5, -0.009000001, 0.05, 0, -5, -0.011, 0.05
 233831430, -0.001, -5, -0.009000001, 0.05, 0, -5, -0.009000001, 0.05
 234031350, 0, -5, -0.008, 0.05, -0.001, -5, -0.009000001, 0.05
 234231270, 0, -5.001, -0.007, 0.05, 0, -5, -0.008, 0.05
 234431190, 0, -5.001, -0.003, 0.05, 0, -5.001, -0.007, 0.05
 234631110, 0, -5.001, -0.001, 0.05, 0, -5.001, -0.003, 0.05
 234831030, 0, -5, 0, 0.05, 0, -5.001, -0.001, 0.05
 235030950, -0.001, -5, 0.004, 0.05, 0, -5, 0, 0.05
 235230870, 0, -5, 0.006, 0.05, -0.001, -5, 0.004, 0.05
 235430790, 0, -5.003, 0.005, 0.05, 0, -5, 0.006, 0.05
 235630710, 0, -5.005, 0.006, 0.05, 0, -5.003, 0.005, 0.05
 235831463, 0.001, -5.006, 0.007, 0.05, 0, -5.005, 0.006, 0.05
 236031383, 0.002, -5.006, 0.007, 0.05, 0.001, -5.006, 0.007, 0.05
 236231303, 0.001, -5.006, 0.004, 0.05, 0.002, -5.006, 0.007, 0.05
 236431223, 0, -5.007, 0, 0.05, 0.001, -5.006, 0.004, 0.05
 236631143, 0, -5.008, -0.005, 0.05, 0, -5.007, 0, 0.05
 236831063, 0, -5.006, -0.009000001, 0.05, 0, -5.008, -0.005, 0.05
 237030983, -0.001, -5.004, -0.011, 0.05, 0, -5.006, -0.009000001, 0.05
 237230903, -0.002, -5.003, -0.014, 0.05, -0.001, -5.004, -0.011, 0.05
 237430823, -0.001, -5.002, -0.016, 0.05, -0.002, -5.003, -0.014, 0.05
 237630743, -0.001, -5.002, -0.019, 0.05, -0.001, -5.002, -0.016, 0.05
 237830663, -0.001, -5.002, -0.02, 0.05, -0.001, -5.002, -0.019, 0.05
 238031416, -0.002, -5.001, -0.021, 0.05, -0.001, -5.002, -0.02, 0.05
 238231336, -0.003, -4.999, -0.019, 0.05, -0.002, -5.001, -0.021, 0.05
 238431256, -0.003, -4.998, -0.016, 0.05, -0.003, -4.999, -0.019, 0.05
 238631176, -0.004, -4.998, -0.014, 0.05, -0.003, -4.998, -0.016, 0.05
 238831096, -0.006, -4.998, -0.012, 0.05, -0.004, -4.998, -0.014, 0.05
 239031016, -0.005, -4.997, -0.01, 0.05, -0.006, -4.998, -0.012, 0.05
 239230936, -0.004, -4.995, -0.004, 0.05, -0.005, -4.997, -0.01, 0.05
 239430856, -0.004, -4.996, 0, 0.05, -0.004, -4.995, -0.004, 0.05
 239630776, -0.004, -4.998, 0.006, 0.05, -0.004, -4.996, 0, 0.05
 239830696, -0.004, -4.999, 0.009000001, 0.05, -0.004, -4.998, 0.006, 0.05
 240031449, -0.003, -5.002, 0.006, 0.05, -0.004, -4.999, 0.009000001, 0.05
 240231369, -0.002, -5.004, 0.001, 0.05, -0.003, -5.002, 0.006, 0.05
 240431289, -0.002, -5, -0.007, 0.05, -0.002, -5.004, 0.001, 0.05
 240631209, -0.003, -4.934, -0.02, 0.05, -0.002, -5, -0.007, 0.05
 240831129, -0.017, -4.787, -0.025, 0.05, -0.003, -4.934, -0.02, 0.05
 241031049, -0.057, -4.605, -0.022, 0.05, -0.017, -4.787, -0.025, 0.05
 241230969, -0.119, -4.42, -0.016, 0.05, -0.057, -4.605, -0.022, 0.05
 241430889, -0.189, -4.229, -0.01, 0.05, -0.119, -4.42, -0.016, 0.05
 241630809, -0.265, -4.023, -0.006, 0.05, -0.189, -4.229, -0.01, 0.05
 241830729, -0.352, -3.794, 0, 0.05, -0.265, -4.023, -0.006, 0.05
 242031482, -0.456, -3.549, 0.006, 0.05, -0.352, -3.794, 0, 0.05
 242231402, -0.5790001, -3.291, 0.014, 0.05, -0.456, -3.549, 0.006, 0.05
 242431322, -0.72, -3.019, 0.023, 0.05, -0.5790001, -3.291, 0.014, 0.05
 242631242, -0.876, -2.73, 0.03, 0.05, -0.72, -3.019, 0.023, 0.05
 242831162, -1.043, -2.419, 0.035, 0.05, -0.876, -2.73, 0.03, 0.05
 243031082, -1.213, -2.087, 0.036, 0.05, -1.043, -2.419, 0.035, 0.05
 243231002, -1.385, -1.745, 0.037, 0.05, -1.213, -2.087, 0.036, 0.05
 243430922, -1.561, -1.41, 0.036, 0.05, -1.385, -1.745, 0.037, 0.05
 243630842, -1.748, -1.106, 0.032, 0.05, -1.561, -1.41, 0.036, 0.05
 243830762, -1.946, -0.8570001, 0.03, 0.05, -1.748, -1.106, 0.032, 0.05
 244030682, -2.154, -0.6620001, 0.029, 0.05, -1.946, -0.8570001, 0.03, 0.05
 244231435, -2.363, -0.508, 0.028, 0.05, -2.154, -0.6620001, 0.029, 0.05
 244431355, -2.569, -0.378, 0.025, 0.05, -2.363, -0.508, 0.028, 0.05
 244631275, -2.768, -0.258, 0.021, 0.05, -2.569, -0.378, 0.025, 0.05
 244831195, -2.956, -0.145, 0.018, 0.05, -2.768, -0.258, 0.021, 0.05
 245031115, -3.129, -0.042, 0.013, 0.05, -2.956, -0.145, 0.018, 0.05
 245231035, -3.286, 0.043, 0.007, 0.05, -3.129, -0.042, 0.013, 0.05
 245430955, -3.433, 0.104, 0, 0.05, -3.286, 0.043, 0.007, 0.05
 245630875, -3.569, 0.14, -0.006, 0.05, -3.433, 0.104, 0, 0.05
 245830795, -3.694, 0.153, -0.011, 0.05, -3.569, 0.14, -0.006, 0.05
 246030715, -3.808, 0.151, -0.014, 0.05, -3.694, 0.153, -0.011, 0.05
 246231468, -3.911, 0.144, -0.017, 0.05, -3.808, 0.151, -0.014, 0.05
 246431388, -4.002, 0.135, -0.017, 0.05, -3.911, 0.144, -0.017, 0.05
 246631308, -4.084, 0.126, -0.017, 0.05, -4.002, 0.135, -0.017, 0.05
 246831228, -4.158, 0.118, -0.017, 0.05, -4.084, 0.126, -0.017, 0.05
 247031148, -4.223, 0.108, -0.017, 0.05, -4.158, 0.118, -0.017, 0.05
 247231068, -4.279, 0.1, -0.015, 0.05, -4.223, 0.108, -0.017, 0.05
 247430988, -4.33, 0.09200001, -0.012, 0.05, -4.279, 0.1, -0.015, 0.05
 247630908, -4.375, 0.07700001, -0.008, 0.05, -4.33, 0.09200001, -0.012, 0.05
 247830828, -4.416, 0.062, -0.005, 0.05, -4.375, 0.07700001, -0.008, 0.05
 248030748, -4.451, 0.058, -0.002, 0.05, -4.416, 0.062, -0.005, 0.05
 248230668, -4.484, 0.048, -0.001, 0.05, -4.451, 0.058, -0.002, 0.05
 248431421, -4.512, 0.031, -0.003, 0.05, -4.484, 0.048, -0.001, 0.05
 248631341, -4.536, 0.027, -0.004, 0.05, -4.512, 0.031, -0.003, 0.05
 248831261, -4.557, 0.028, -0.004, 0.05, -4.536, 0.027, -0.004, 0.05
 249031181, -4.578, 0.027, -0.003, 0.05, -4.557, 0.028, -0.004, 0.05
 249231101, -4.597, 0.027, -0.001, 0.05, -4.578, 0.027, -0.003, 0.05
 249431021, -4.613, 0.027, -0.001, 0.05, -4.597, 0.027, -0.001, 0.05
 249630941, -4.629, 0.027, 0, 0.05, -4.613, 0.027, -0.001, 0.05
 249830861, -4.648, 0.026, 0, 0.05, -4.629, 0.027, 0, 0.05
 250030781, -4.663, 0.026, -0.001, 0.05, -4.648, 0.026, 0, 0.05
 250230701, -4.669, 0.027, -0.004, 0.05, -4.663, 0.026, -0.001, 0.05
 250431454, -4.683, 0.03, -0.007, 0.05, -4.669, 0.027, -0.004, 0.05
 250631374, -4.696, 0.031, -0.007, 0.05, -4.683, 0.03, -0.007, 0.05
 250831294, -4.705, 0.032, -0.005, 0.05, -4.696, 0.031, -0.007, 0.05
 251031214, -4.713, 0.034, -0.002, 0.05, -4.705, 0.032, -0.005, 0.05
 251231134, -4.726, 0.036, 0, 0.05, -4.713, 0.034, -0.002, 0.05
 251431054, -4.737, 0.038, 0, 0.05, -4.726, 0.036, 0, 0.05
 251630974, -4.744, 0.039, 0, 0.05, -4.737, 0.038, 0, 0.05
 251830894, -4.752, 0.038, 0, 0.05, -4.744, 0.039, 0, 0.05
 252030814, -4.763, 0.038, -0.001, 0.05, -4.752, 0.038, 0, 0.05
 252230734, -4.774, 0.038, 0, 0.05, -4.763, 0.038, -0.001, 0.05
 252430654, -4.796, 0.038, 0.003, 0.05, -4.774, 0.038, 0, 0.05
 252631407, -4.804, 0.039, 0.007, 0.05, -4.796, 0.038, 0.003, 0.05
 252831327, -4.81, 0.039, 0.009000001, 0.05, -4.804, 0.039, 0.007, 0.05
 253031247, -4.817, 0.038, 0.009000001, 0.05, -4.81, 0.039, 0.009000001, 0.05
 253231167, -4.817, 0.038, 0.006, 0.05, -4.817, 0.038, 0.009000001, 0.05
 253431087, -4.828, 0.038, 0.004, 0.05, -4.817, 0.038, 0.006, 0.05
 253631007, -4.838, 0.038, 0.002, 0.05, -4.828, 0.038, 0.004, 0.05
 253830927, -4.846, 0.038, -0.001, 0.05, -4.838, 0.038, 0.002, 0.05
 254030847, -4.855, 0.037, -0.006, 0.05, -4.846, 0.038, -0.001, 0.05
 254230767, -4.867, 0.036, -0.012, 0.05, -4.855, 0.037, -0.006, 0.05
 254430687, -4.874, 0.036, -0.017, 0.05, -4.867, 0.036, -0.012, 0.05
 254631440, -4.879, 0.035, -0.022, 0.05, -4.874, 0.036, -0.017, 0.05
 254831360, -4.882, 0.034, -0.023, 0.05, -4.879, 0.035, -0.022, 0.05
 255031280, -4.886, 0.032, -0.021, 0.05, -4.882, 0.034, -0.023, 0.05
 255231200, -4.89, 0.032, -0.018, 0.05, -4.886, 0.032, -0.021, 0.05
 255431120, -4.893, 0.031, -0.015, 0.05, -4.89, 0.032, -0.018, 0.05
 255631040, -4.9, 0.03, -0.011, 0.05, -4.893, 0.031, -0.015, 0.05
 255830960, -4.904, 0.027, -0.007, 0.05, -4.9, 0.03, -0.011, 0.05
 256030880, -4.91, 0.021, -0.004, 0.05, -4.904, 0.027, -0.007, 0.05
 256230800, -4.916, 0.033, -0.003, 0.05, -4.91, 0.021, -0.004, 0.05
 256430720, -4.92, 0.036, -0.001, 0.05, -4.916, 0.033, -0.003, 0.05
 256631473, -4.923, 0.016, 0.001, 0.05, -4.92, 0.036, -0.001, 0.05
 256831393, -4.927, 0.014, 0.003, 0.05, -4.923, 0.016, 0.001, 0.05
 257031313, -4.933, 0.021, 0.003, 0.05, -4.927, 0.014, 0.003, 0.05
 257231233, -4.939, 0.037, 0.001, 0.05, -4.933, 0.021, 0.003, 0.05
 257431153, -4.943, 0.031, 0, 0.05, -4.939, 0.037, 0.001, 0.05
 257631073, -4.947, 0.011, 0, 0.05, -4.943, 0.031, 0, 0.05
 257830993, -4.95, 0.011, 0, 0.05, -4.947, 0.011, 0, 0.05
 258030913, -4.955, 0.011, -0.001, 0.05, -4.95, 0.011, 0, 0.05
 258230833, -4.96, 0.003, -0.004, 0.05, -4.955, 0.011, -0.001, 0.05
 258430753, -4.963, -0.003, -0.006, 0.05, -4.96, 0.003, -0.004, 0.05
 258630673, -4.964, -0.008, -0.006, 0.05, -4.963, -0.003, -0.006, 0.05
 258831426, -4.965, -0.01, -0.004, 0.05, -4.964, -0.008, -0.006, 0.05
 259031346, -4.966, -0.015, -0.001, 0.05, -4.965, -0.01, -0.004, 0.05
 259231266, -4.968, -0.018, 0, 0.05, -4.966, -0.015, -0.001, 0.05
 259431186, -4.968, -0.02, 0.003, 0.05, -4.968, -0.018, 0, 0.05
 259631106, -4.969, -0.021, 0.006, 0.05, -4.968, -0.02, 0.003, 0.05
 259831026, -4.97, -0.022, 0.01, 0.05, -4.969, -0.021, 0.006, 0.05
 260030946, -4.971, -0.022, 0.015, 0.05, -4.97, -0.022, 0.01, 0.05
 260230866, -4.973, -0.022, 0.021, 0.05, -4.971, -0.022, 0.015, 0.05
 260430786, -4.976, -0.021, 0.024, 0.05, -4.973, -0.022, 0.021, 0.05
 260630706, -4.98, -0.02, 0.022, 0.05, -4.976, -0.021, 0.024, 0.05
 260831459, -4.984, -0.019, 0.017, 0.05, -4.98, -0.02, 0.022, 0.05
 261031379, -4.984, -0.018, 0.015, 0.05, -4.984, -0.019, 0.017, 0.05
 261231299, -4.984, -0.017, 0.012, 0.05, -4.984, -0.018, 0.015, 0.05
 261431219, -4.985, -0.016, 0.007, 0.05, -4.984, -0.017, 0.012, 0.05
 261631139, -4.987, -0.015, 0.004, 0.05, -4.985, -0.016, 0.007, 0.05
 261831059, -4.987, -0.013, 0.004, 0.05, -4.987, -0.015, 0.004, 0.05
 262030979, -4.987, -0.012, 0.003, 0.05, -4.987, -0.013, 0.004, 0.05
 262230899, -4.987, -0.011, 0.003, 0.05, -4.987, -0.012, 0.003, 0.05
 262430819, -4.988, -0.011, 0.004, 0.05, -4.987, -0.011, 0.003, 0.05
 262630739, -4.989, -0.011, 0.004, 0.05, -4.988, -0.011, 0.004, 0.05
 262830659, -4.989, -0.012, 0.004, 0.05, -4.989, -0.011, 0.004, 0.05
 263031412, -4.99, -0.012, 0.001, 0.05, -4.989, -0.012, 0.004, 0.05
 263231332, -4.991, -0.011, 0, 0.05, -4.99, -0.012, 0.001, 0.05
 263431252, -4.992, -0.011, -0.003, 0.05, -4.991, -0.011, 0, 0.05
 263631172, -4.993, -0.01, -0.006, 0.05, -4.992, -0.011, -0.003, 0.05
 263831092, -4.993, -0.003, -0.01, 0.05, -4.993, -0.01, -0.006, 0.05
 264031012, -4.994, -0.002, -0.012, 0.05, -4.993, -0.003, -0.01, 0.05
 264230932, -4.993, -0.016, -0.013, 0.05, -4.994, -0.002, -0.012, 0.05
 264430852, -4.992, -0.017, -0.012, 0.05, -4.993, -0.016, -0.013, 0.05
 264630772, -4.991, 0.001, -0.008, 0.05, -4.992, -0.017, -0.012, 0.05
 264830692, -4.99, 0.005, -0.005, 0.05, -4.991, 0.001, -0.008, 0.05
 265031445, -4.991, 0, -0.003, 0.05, -4.99, 0.005, -0.005, 0.05
 265231365, -4.991, -0.01, -0.002, 0.05, -4.991, 0, -0.003, 0.05
 265431285, -4.991, -0.017, -0.001, 0.05, -4.991, -0.01, -0.002, 0.05
 265631205, -4.991, 0.001, 0, 0.05, -4.991, -0.017, -0.001, 0.05
 265831125, -4.992, 0.007, 0, 0.05, -4.991, 0.001, 0, 0.05
 266031045, -4.994, 0.002, 0, 0.05, -4.992, 0.007, 0, 0.05
 266230965, -4.994, -0.001, 0, 0.05, -4.994, 0.002, 0, 0.05
 266430885, -4.995, 0, 0, 0.05, -4.994, -0.001, 0, 0.05
 266630805, -4.995, 0.001, 0.004, 0.05, -4.995, 0, 0, 0.05
 266830725, -4.996, 0.002, 0.01, 0.05, -4.995, 0.001, 0.004, 0.05
 267031478, -4.998, 0.001, 0.013, 0.05, -4.996, 0.002, 0.01, 0.05
 267231398, -5.001, 0.001, 0.015, 0.05, -4.998, 0.001, 0.013, 0.05
 267431318, -5.002, 0.001, 0.015, 0.05, -5.001, 0.001, 0.015, 0.05
 267631238, -5.003, 0.002, 0.014, 0.05, -5.002, 0.001, 0.015, 0.05
 267831158, -5.003, 0.004, 0.013, 0.05, -5.003, 0.002, 0.014, 0.05
 268031078, -5.004, 0.005, 0.012, 0.05, -5.003, 0.004, 0.013, 0.05
 268230998, -5.004, 0.006, 0.011, 0.05, -5.004, 0.005, 0.012, 0.05
 268430918, -5.003, 0.006, 0.01, 0.05, -5.004, 0.006, 0.011, 0.05
 268630838, -5.003, 0.005, 0.011, 0.05, -5.003, 0.006, 0.01, 0.05
 268830758, -5.003, 0.004, 0.012, 0.05, -5.003, 0.005, 0.011, 0.05
 269030678, -5.003, 0.004, 0.012, 0.05, -5.003, 0.004, 0.012, 0.05
 269231431, -5.004, 0.004, 0.009000001, 0.05, -5.003, 0.004, 0.012, 0.05
 269431351, -5.005, 0.003, 0.007, 0.05, -5.004, 0.004, 0.009000001, 0.05
 269631271, -5.004, 0.002, 0.006, 0.05, -5.005, 0.003, 0.007, 0.05
 269831191, -5.004, 0.002, 0.003, 0.05, -5.004, 0.002, 0.006, 0.05
 270031111, -5.004, 0.001, 0.002, 0.05, -5.004, 0.002, 0.003, 0.05
 270231031, -5.004, 0.001, 0.002, 0.05, -5.004, 0.001, 0.002, 0.05
 270430951, -5.004, 0.001, 0.001, 0.05, -5.004, 0.001, 0.002, 0.05
 270630871, -5.005, 0.001, 0.002, 0.05, -5.004, 0.001, 0.001, 0.05
 270830791, -5.005, 0, 0.002, 0.05, -5.005, 0.001, 0.002, 0.05
 271030711, -5.005, 0, 0.002, 0.05, -5.005, 0, 0.002, 0.05
 271231464, -5.005, 0, 0.002, 0.05, -5.005, 0, 0.002, 0.05
 271431384, -5.004, 0, 0.001, 0.05, -5.005, 0, 0.002, 0.05
 271631304, -5.003, 0, 0, 0.05, -5.004, 0, 0.001, 0.05
 271831224, -5.002, 0, 0, 0.05, -5.003, 0, 0, 0.05
 272031144, -5.001, 0, 0, 0.05, -5.002, 0, 0, 0.05
 272231064, -5.001, 0, 0, 0.05, -5.001, 0, 0, 0.05
 272430984, -5, 0.001, 0.001, 0.05, -5.001, 0, 0, 0.05
 272630904, -5.001, 0.001, -0.001, 0.05, -5, 0.001, 0.001, 0.05
 272830824, -5.001, 0.002, -0.002, 0.05, -5.001, 0.001, -0.001, 0.05
 273030744, -5.001, 0.001, -0.003, 0.05, -5.001, 0.002, -0.002, 0.05
 273230664, -5.002, 0.001, -0.003, 0.05, -5.001, 0.001, -0.003, 0.05
 273431417, -5.002, 0.001, -0.004, 0.05, -5.002, 0.001, -0.003, 0.05
 273631337, -5.002, 0.002, -0.003, 0.05, -5.002, 0.001, -0.004, 0.05
 273831257, -5.003, 0.003, -0.002, 0.05, -5.002, 0.002, -0.003, 0.05
 274031177, -5.003, 0.003, -0.001, 0.05, -5.003, 0.003, -0.002, 0.05
 274231097, -5.003, 0.002, 0, 0.05, -5.003, 0.003, -0.001, 0.05
 274431017, -5.004, 0.001, 0, 0.05, -5.003, 0.002, 0, 0.05
 274630937, -5.004, 0.002, 0, 0.05, -5.004, 0.001, 0, 0.05
 274830857, -5.003, 0.003, 0.002, 0.05, -5.004, 0.002, 0, 0.05
 275030777, -5.002, 0.003, 0.004, 0.05, -5.003, 0.003, 0.002, 0.05
 275230697, -5.003, 0.003, 0.003, 0.05, -5.002, 0.003, 0.004, 0.05
 275431450, -5.003, 0.003, 0, 0.05, -5.003, 0.003, 0.003, 0.05
 275631370, -5.002, 0.004, 0, 0.05, -5.003, 0.003, 0, 0.05
 275831290, -5.001, 0.004, -0.001, 0.05, -5.002, 0.004, 0, 0.05
 276031210, -5.001, 0.003, -0.002, 0.05, -5.001, 0.004, -0.001, 0.05
 276231130, -5.002, 0.004, -0.005, 0.05, -5.001, 0.003, -0.002, 0.05
 276431050, -5.002, 0.003, -0.006, 0.05, -5.002, 0.004, -0.005, 0.05
 276630970, -5.003, 0.003, -0.009000001, 0.05, -5.002, 0.003, -0.006, 0.05
 276830890, -5.003, 0.003, -0.011, 0.05, -5.003, 0.003, -0.009000001, 0.05
 277030810, -5.003, 0.003, -0.012, 0.05, -5.003, 0.003, -0.011, 0.05
 277230730, -5.003, 0.003, -0.011, 0.05, -5.003, 0.003, -0.012, 0.05
 277431483, -5.003, 0.004, -0.011, 0.05, -5.003, 0.003, -0.011, 0.05
 277631403, -5.004, 0.004, -0.012, 0.05, -5.003, 0.004, -0.011, 0.05
 277831323, -5.004, 0.003, -0.014, 0.05, -5.004, 0.004, -0.012, 0.05
 278031243, -5.002, 0.003, -0.014, 0.05, -5.004, 0.003, -0.014, 0.05
 278231163, -5.001, 0.003, -0.012, 0.05, -5.002, 0.003, -0.014, 0.05
 278431083, -5.002, 0.004, -0.012, 0.05, -5.001, 0.003, -0.012, 0.05
 278631003, -5.001, 0.004, -0.012, 0.05, -5.002, 0.004, -0.012, 0.05
 278830923, -5, 0.003, -0.011, 0.05, -5.001, 0.004, -0.012, 0.05
 279030843, -4.999, 0.002, -0.011, 0.05, -5, 0.003, -0.011, 0.05
 279230763, -4.999, 0.003, -0.009000001, 0.05, -4.999, 0.002, -0.011, 0.05
 279430683, -4.999, 0.003, -0.006, 0.05, -4.999, 0.003, -0.009000001, 0.05
 279631436, -4.999, 0.004, -0.004, 0.05, -4.999, 0.003, -0.006, 0.05
 279831356, -5, 0.004, -0.003, 0.05, -4.999, 0.004, -0.004, 0.05
 280031276, -5.001, 0.005, -0.002, 0.05, -5, 0.004, -0.003, 0.05
 280231196, -5, 0.004, -0.001, 0.05, -5.001, 0.005, -0.002, 0.05
 280431116, -5, 0.004, -0.001, 0.05, -5, 0.004, -0.001, 0.05
 280631036, -5.001, 0.004, -0.003, 0.05, -5, 0.004, -0.001, 0.05
 280830956, -5.001, 0.004, -0.004, 0.05, -5.001, 0.004, -0.003, 0.05
 281030876, -5.002, 0.005, -0.006, 0.05, -5.001, 0.004, -0.004, 0.05
 281230796, -5.003, 0.006, -0.007, 0.05, -5.002, 0.005, -0.006, 0.05
 281430716, -5.003, 0.007, -0.009000001, 0.05, -5.003, 0.006, -0.007, 0.05
 281631469, -5.003, 0.008, -0.011, 0.05, -5.003, 0.007, -0.009000001, 0.05
 281831389, -5.004, 0.008, -0.013, 0.05, -5.003, 0.008, -0.011, 0.05
 282031309, -5.002, 0.009000001, -0.013, 0.05, -5.004, 0.008, -0.013, 0.05
 282231229, -5.001, 0.009000001, -0.013, 0.05, -5.002, 0.009000001, -0.013, 0.05
 282431149, -4.982, 0.008, -0.014, 0.05, -5.001, 0.009000001, -0.013, 0.05
 282631069, -4.884, 0.009000001, -0.02, 0.05, -4.982, 0.008, -0.014, 0.05
 282830989, -4.715, 0.024, -0.022, 0.05, -4.884, 0.009000001, -0.02, 0.05
 283030909, -4.526, 0.083, -0.018, 0.05, -4.715, 0.024, -0.022, 0.05
 283230829, -4.339, 0.15, -0.016, 0.05, -4.526, 0.083, -0.018, 0.05
 283430749, -4.142, 0.217, -0.013, 0.05, -4.339, 0.15, -0.016, 0.05
 283630669, -3.925, 0.291, -0.01, 0.05, -4.142, 0.217, -0.013, 0.05
 283831422, -3.689, 0.381, -0.006, 0.05, -3.925, 0.291, -0.01, 0.05
 284031342, -3.438, 0.489, -0.001, 0.05, -3.689, 0.381, -0.006, 0.05
 284231262, -3.171, 0.615, 0.003, 0.05, -3.438, 0.489, -0.001, 0.05
 284431182, -2.885, 0.758, 0.007, 0.05, -3.171, 0.615, 0.003, 0.05
 284631102, -2.577, 0.9160001, 0.013, 0.05, -2.885, 0.758, 0.007, 0.05
 284831022, -2.246, 1.082, 0.018, 0.05, -2.577, 0.9160001, 0.013, 0.05
 285030942, -1.901, 1.249, 0.022, 0.05, -2.246, 1.082, 0.018, 0.05
 285230862, -1.554, 1.417, 0.025, 0.05, -1.901, 1.249, 0.022, 0.05
 285430782, -1.229, 1.593, 0.024, 0.05, -1.554, 1.417, 0.025, 0.05
 285630702, -0.947, 1.782, 0.024, 0.05, -1.229, 1.593, 0.024, 0.05
 285831455, -0.723, 1.986, 0.026, 0.05, -0.947, 1.782, 0.024, 0.05
 286031375, -0.555, 2.199, 0.027, 0.05, -0.723, 1.986, 0.026, 0.05
 286231295, -0.422, 2.41, 0.026, 0.05, -0.555, 2.199, 0.027, 0.05
 286431215, -0.303, 2.612, 0.023, 0.05, -0.422, 2.41, 0.026, 0.05
 286631135, -0.186, 2.806, 0.021, 0.05, -0.303, 2.612, 0.023, 0.05
 286831055, -0.074, 2.989, 0.019, 0.05, -0.186, 2.806, 0.021, 0.05
 287030975, 0.022, 3.159, 0.016, 0.05, -0.074, 2.989, 0.019, 0.05
 287230895, 0.09500001, 3.318, 0.012, 0.05, 0.022, 3.159, 0.016, 0.05
 287430815, 0.142, 3.465, 0.009000001, 0.05, 0.09500001, 3.318, 0.012, 0.05
 287630735, 0.165, 3.604, 0.005, 0.05, 0.142, 3.465, 0.009000001, 0.05
 287830655, 0.169, 3.732, 0.001, 0.05, 0.165, 3.604, 0.005, 0.05
 288031408, 0.163, 3.846, -0.001, 0.05, 0.169, 3.732, 0.001, 0.05
 288231328, 0.153, 3.947, -0.003, 0.05, 0.163, 3.846, -0.001, 0.05
 288431248, 0.144, 4.036, -0.002, 0.05, 0.153, 3.947, -0.003, 0.05
 288631168, 0.136, 4.116, -0.001, 0.05, 0.144, 4.036, -0.002, 0.05
 288831088, 0.129, 4.189, -0.001, 0.05, 0.136, 4.116, -0.001, 0.05
 289031008, 0.121, 4.253, -0.005, 0.05, 0.129, 4.189, -0.001, 0.05
 289230928, 0.112, 4.309, -0.009000001, 0.05, 0.121, 4.253, -0.005, 0.05
 289430848, 0.101, 4.357, -0.013, 0.05, 0.112, 4.309, -0.009000001, 0.05
 289630768, 0.087, 4.399, -0.014, 0.05, 0.101, 4.357, -0.013, 0.05
 289830688, 0.07300001, 4.436, -0.013, 0.05, 0.087, 4.399, -0.014, 0.05
 290031441, 0.059, 4.469, -0.012, 0.05, 0.07300001, 4.436, -0.013, 0.05
 290231361, 0.046, 4.497, -0.011, 0.05, 0.059, 4.469, -0.012, 0.05
 290431281, 0.035, 4.522, -0.01, 0.05, 0.046, 4.497, -0.011, 0.05
 290631201, 0.028, 4.544, -0.008, 0.05, 0.035, 4.522, -0.01, 0.05
 290831121, 0.024, 4.566, -0.008, 0.05, 0.028, 4.544, -0.008, 0.05
 291031041, 0.022, 4.585, -0.007, 0.05, 0.024, 4.566, -0.008, 0.05
 291230961, 0.02, 4.603, -0.006, 0.05, 0.022, 4.585, -0.007, 0.05
 291430881, 0.017, 4.618, -0.004, 0.05, 0.02, 4.603, -0.006, 0.05
 291630801, 0.014, 4.632, 0, 0.05, 0.017, 4.618, -0.004, 0.05
 291830721, 0.011, 4.646, 0.003, 0.05, 0.014, 4.632, 0, 0.05
 292031474, 0.01, 4.66, 0.007, 0.05, 0.011, 4.646, 0.003, 0.05
 292231394, 0.01, 4.673, 0.01, 0.05, 0.01, 4.66, 0.007, 0.05
 292431314, 0.012, 4.686, 0.012, 0.05, 0.01, 4.673, 0.01, 0.05
 292631234, 0.014, 4.7, 0.012, 0.05, 0.012, 4.686, 0.012, 0.05
 292831154, 0.016, 4.712, 0.009000001, 0.05, 0.014, 4.7, 0.012, 0.05
 293031074, 0.018, 4.723, 0.007, 0.05, 0.016, 4.712, 0.009000001, 0.05
 293230994, 0.021, 4.734, 0.003, 0.05, 0.018, 4.723, 0.007, 0.05
 293430914, 0.024, 4.744, 0.001, 0.05, 0.021, 4.734, 0.003, 0.05
 293630834, 0.026, 4.754, 0, 0.05, 0.024, 4.744, 0.001, 0.05
 293830754, 0.028, 4.764, 0, 0.05, 0.026, 4.754, 0, 0.05
 294030674, 0.03, 4.774, 0, 0.05, 0.028, 4.764, 0, 0.05
 294231427, 0.031, 4.783, 0.001, 0.05, 0.03, 4.774, 0, 0.05
 294431347, 0.032, 4.794, 0, 0.05, 0.031, 4.783, 0.001, 0.05
 294631267, 0.033, 4.804, 0, 0.05, 0.032, 4.794, 0, 0.05
 294831187, 0.033, 4.813, -0.002, 0.05, 0.033, 4.804, 0, 0.05
 295031107, 0.033, 4.823, -0.005, 0.05, 0.033, 4.813, -0.002, 0.05
 295231027, 0.034, 4.832, -0.006, 0.05, 0.033, 4.823, -0.005, 0.05
 295430947, 0.034, 4.841, -0.008, 0.05, 0.034, 4.832, -0.006, 0.05
 295630867, 0.033, 4.851, -0.01, 0.05, 0.034, 4.841, -0.008, 0.05
 295830787, 0.033, 4.86, -0.011, 0.05, 0.033, 4.851, -0.01, 0.05
 296030707, 0.032, 4.868, -0.012, 0.05, 0.033, 4.86, -0.011, 0.05
 296231460, 0.032, 4.873, -0.01, 0.05, 0.032, 4.868, -0.012, 0.05
 296431380, 0.032, 4.878, -0.008, 0.05, 0.032, 4.873, -0.01, 0.05
 296631300, 0.032, 4.882, -0.002, 0.05, 0.032, 4.878, -0.008, 0.05
 296831220, 0.032, 4.888, 0.001, 0.05, 0.032, 4.882, -0.002, 0.05
 297031140, 0.031, 4.896, 0.003, 0.05, 0.032, 4.888, 0.001, 0.05
 297231060, 0.03, 4.903, 0.002, 0.05, 0.031, 4.896, 0.003, 0.05
 297430980, 0.028, 4.908, 0.001, 0.05, 0.03, 4.903, 0.002, 0.05
 297630900, 0.026, 4.912, 0.002, 0.05, 0.028, 4.908, 0.001, 0.05
 297830820, 0.025, 4.916, 0.002, 0.05, 0.026, 4.912, 0.002, 0.05
 298030740, 0.023, 4.922, 0, 0.05, 0.025, 4.916, 0.002, 0.05
 298230660, 0.021, 4.926, 0, 0.05, 0.023, 4.922, 0, 0.05
 298431413, 0.02, 4.931, -0.003, 0.05, 0.021, 4.926, 0, 0.05
 298631333, 0.018, 4.935, -0.006, 0.05, 0.02, 4.931, -0.003, 0.05
 298831253, 0.017, 4.938, -0.007, 0.05, 0.018, 4.935, -0.006, 0.05
 299031173, 0.017, 4.939, -0.006, 0.05, 0.017, 4.938, -0.007, 0.05
 299231093, 0.016, 4.942, -0.005, 0.05, 0.017, 4.939, -0.006, 0.05
 299431013, 0.015, 4.945, -0.004, 0.05, 0.016, 4.942, -0.005, 0.05
 299630933, 0.013, 4.947, -0.002, 0.05, 0.015, 4.945, -0.004, 0.05
 299830853, 0.012, 4.951, -0.001, 0.05, 0.013, 4.947, -0.002, 0.05
