TimeUS,COFN,COFE,COFD,CNe,CEe,CDe,POFN,POFE,POFD,PNe,PEe,PDe
 183335803, -0.005190325, 0.006359311, 2.036171E-05, 0.01063023, 0.008528779, 0.1000023, 0.00263274, 0.00732909, 1.109487E-05, 0.01107748, 0.008593614, 0.1000018
 183435763, 0.008711794, 0.006801578, 1.187045E-06, 0.01144903, 0.008562849, 0.1000012, -0.005190325, 0.006359311, 2.036171E-05, 0.01063023, 0.008528779, 0.1000023
 183535723, -0.00256901, 0.003440815, 1.064334E-05, 0.01077405, 0.008353568, 0.1000017, 0.008711794, 0.006801578, 1.187045E-06, 0.01144903, 0.008562849, 0.1000012
 183635683, 0.001952773, -0.008102333, -1.916479E-05, 0.01103922, 0.007696015, 0.1000001, -0.00256901, 0.003440815, 1.064334E-05, 0.01077405, 0.008353568, 0.1000017
 183736476, 0.003914674, -0.00514653, -1.600047E-05, 0.01115536, 0.007856183, 0.1000002, 0.001952773, -0.008102333, -1.916479E-05, 0.01103922, 0.007696015, 0.1000001
 183836436, 0.0008510398, -0.001461008, -4.164227E-06, 0.01097008, 0.008066066, 0.1000009, 0.003914674, -0.00514653, -1.600047E-05, 0.01115536, 0.007856183, 0.1000002
 183936396, 0.00383946, -0.007110821, -1.978321E-05, 0.01115156, 0.007748698, 0.1000001, 0.0008510398, -0.001461008, -4.164227E-06, 0.01097008, 0.008066066, 0.1000009
 184036356, -0.005406676, -0.0009659833, 5.748169E-06, 0.01061246, 0.008095025, 0.1000015, 0.00383946, -0.007110821, -1.978321E-05, 0.01115156, 0.007748698, 0.1000001
 184136316, 0.007219271, -0.008863037, -2.808684E-05, 0.01136298, 0.007650832, 0.09999952, -0.005406676, -0.0009659833, 5.748169E-06, 0.01061246, 0.008095025, 0.1000015
 184236276, -0.004294214, -0.004558084, -3.024477E-06, 0.01067478, 0.007892803, 0.100001, 0.007219271, -0.008863037, -2.808684E-05, 0.01136298, 0.007650832, 0.09999952
 184336236, -0.007493135, 0.003044073, 1.681296E-05, 0.01050151, 0.008327956, 0.1000021, -0.004294214, -0.004558084, -3.024477E-06, 0.01067478, 0.007892803, 0.100001
 184436196, -0.002845671, -0.004292844, -4.547519E-06, 0.01075637, 0.007907733, 0.1000009, -0.007493135, 0.003044073, 1.681296E-05, 0.01050151, 0.008327956, 0.1000021
 184536156, 0.008680067, -0.001035606, -1.450724E-05, 0.01144883, 0.008088383, 0.1000002, -0.002845671, -0.004292844, -4.547519E-06, 0.01075637, 0.007907733, 0.1000009
 184636116, 0.006657832, -0.007045851, -2.372249E-05, 0.01132692, 0.007749894, 0.09999966, 0.008680067, -0.001035606, -1.450724E-05, 0.01144883, 0.008088383, 0.1000002
 184736076, 0.00715269, -0.002838202, -1.599226E-05, 0.01135455, 0.007985202, 0.1, 0.006657832, -0.007045851, -2.372249E-05, 0.01132692, 0.007749894, 0.09999966
 184836036, -0.002147582, 0.0001713602, 3.439264E-06, 0.01079756, 0.008161623, 0.1000012, 0.00715269, -0.002838202, -1.599226E-05, 0.01135455, 0.007985202, 0.1
 184935996, 0.004191488, -0.001832346, -9.70328E-06, 0.01117111, 0.008044857, 0.1000004, -0.002147582, 0.0001713602, 3.439264E-06, 0.01079756, 0.008161623, 0.1000012
 185035956, 0.007457247, -0.003559868, -1.784606E-05, 0.01137393, 0.007944115, 0.09999993, 0.004191488, -0.001832346, -9.70328E-06, 0.01117111, 0.008044857, 0.1000004
 185135916, 0.0011003, -0.001028388, -3.643017E-06, 0.01098518, 0.008091667, 0.1000009, 0.007457247, -0.003559868, -1.784606E-05, 0.01137393, 0.007944115, 0.09999993
 185235876, -0.006380339, -0.005256378, -1.44844E-06, 0.01055939, 0.007854127, 0.1000011, 0.0011003, -0.001028388, -3.643017E-06, 0.01098518, 0.008091667, 0.1000009
 185335836, 0.005338374, 0.004805809, 2.006252E-06, 0.01123939, 0.008439131, 0.1000012, -0.006380339, -0.005256378, -1.44844E-06, 0.01055939, 0.007854127, 0.1000011
 185435796, -0.002522801, 0.006872417, 1.743682E-05, 0.01077885, 0.008563858, 0.1000021, 0.005338374, 0.004805809, 2.006252E-06, 0.01123939, 0.008439131, 0.1000012
 185535756, 0.002482652, 0.005092557, 6.689613E-06, 0.01106778, 0.008455931, 0.1000015, -0.002522801, 0.006872417, 1.743682E-05, 0.01077885, 0.008563858, 0.1000021
 185635716, -0.007202735, -0.005506084, -7.532999E-07, 0.01051523, 0.007839846, 0.1000011, 0.002482652, 0.005092557, 6.689613E-06, 0.01106778, 0.008455931, 0.1000015
 185735676, 0.00623784, -0.0006092144, -1.022369E-05, 0.0112965, 0.008113268, 0.1000005, -0.007202735, -0.005506084, -7.532999E-07, 0.01051523, 0.007839846, 0.1000011
 185836469, -0.00691068, -0.007842966, -5.86855E-06, 0.0105319, 0.007713926, 0.1000007, 0.00623784, -0.0006092144, -1.022369E-05, 0.0112965, 0.008113268, 0.1000005
 185936429, -0.007017005, -0.004873602, 2.913002E-07, 0.01052585, 0.007874431, 0.1000011, -0.00691068, -0.007842966, -5.86855E-06, 0.0105319, 0.007713926, 0.1000007
 186036389, -0.001272584, 0.0083078, 1.861784E-05, 0.01085154, 0.008653589, 0.1000022, -0.007017005, -0.004873602, 2.913002E-07, 0.01052585, 0.007874431, 0.1000011
 186136349, 0.007647398, 0.003709567, -3.556099E-06, 0.01138311, 0.00837102, 0.1000008, -0.001272584, 0.0083078, 1.861784E-05, 0.01085154, 0.008653589, 0.1000022
 186236309, 0.003212201, -0.001825056, -8.322027E-06, 0.01111231, 0.008044264, 0.1000005, 0.007647398, 0.003709567, -3.556099E-06, 0.01138311, 0.00837102, 0.1000008
 186336269, 0.001487826, -0.006357522, -1.500784E-05, 0.01101152, 0.007790503, 0.1000002, 0.003212201, -0.001825056, -8.322027E-06, 0.01111231, 0.008044264, 0.1000005
 186436229, 0.003789893, 0.0003718794, -4.742423E-06, 0.01114711, 0.008171208, 0.1000007, 0.001487826, -0.006357522, -1.500784E-05, 0.01101152, 0.007790503, 0.1000002
 186536189, -0.005519731, -0.007788777, -7.763931E-06, 0.0106096, 0.007715849, 0.1000006, 0.003789893, 0.0003718794, -4.742423E-06, 0.01114711, 0.008171208, 0.1000007
 186636149, 0.0006214915, 0.004471178, 8.17724E-06, 0.01096009, 0.008415749, 0.1000015, -0.005519731, -0.007788777, -7.763931E-06, 0.0106096, 0.007715849, 0.1000006
 186736109, -0.004455129, -0.001002737, 4.452169E-06, 0.01066874, 0.00809066, 0.1000013, 0.0006214915, 0.004471178, 8.17724E-06, 0.01096009, 0.008415749, 0.1000015
 186836069, -0.008910587, -0.002755926, 7.357915E-06, 0.01042519, 0.007990107, 0.1000014, -0.004455129, -0.001002737, 4.452169E-06, 0.01066874, 0.00809066, 0.1000013
 186936029, -0.0009321565, -0.00196918, -2.6526E-06, 0.01086828, 0.008035439, 0.1000009, -0.008910587, -0.002755926, 7.357915E-06, 0.01042519, 0.007990107, 0.1000014
 187035989, -0.001461474, 0.005454377, 1.321295E-05, 0.01083923, 0.008474759, 0.1000019, -0.0009321565, -0.00196918, -2.6526E-06, 0.01086828, 0.008035439, 0.1000009
 187135949, -0.0003741139, -0.004553224, -8.711579E-06, 0.01090051, 0.007890042, 0.1000007, -0.001461474, 0.005454377, 1.321295E-05, 0.01083923, 0.008474759, 0.1000019
 187235909, -0.004039588, 0.007741077, 2.153752E-05, 0.01069487, 0.008614756, 0.1000025, -0.0003741139, -0.004553224, -8.711579E-06, 0.01090051, 0.007890042, 0.1000007
 187335869, -0.003431652, -0.005308455, -5.918108E-06, 0.01072389, 0.007848245, 0.100001, -0.004039588, 0.007741077, 2.153752E-05, 0.01069487, 0.008614756, 0.1000025
 187435829, 0.005236825, 0.005474066, 3.752032E-06, 0.01123248, 0.008476477, 0.1000017, -0.003431652, -0.005308455, -5.918108E-06, 0.01072389, 0.007848245, 0.100001
 187535789, -0.004720256, 0.0054167, 1.785946E-05, 0.01065416, 0.008468602, 0.1000025, 0.005236825, 0.005474066, 3.752032E-06, 0.01123248, 0.008476477, 0.1000017
 187635749, -0.0003251891, -0.002640478, -4.957416E-06, 0.01090123, 0.007995384, 0.1000012, -0.004720256, 0.0054167, 1.785946E-05, 0.01065416, 0.008468602, 0.1000025
 187735709, -0.0003469912, -0.003769548, -7.272715E-06, 0.01090036, 0.007930993, 0.1000011, -0.0003251891, -0.002640478, -4.957416E-06, 0.01090123, 0.007995384, 0.1000012
 187835669, -0.001703861, 0.008153711, 1.930681E-05, 0.01082544, 0.008638958, 0.1000027, -0.0003469912, -0.003769548, -7.272715E-06, 0.01090036, 0.007930993, 0.1000011
 187936462, 0.006487981, -0.003416409, -1.639474E-05, 0.01131298, 0.007946678, 0.1000006, -0.001703861, 0.008153711, 1.930681E-05, 0.01082544, 0.008638958, 0.1000027
 188036422, 0.004677188, -0.0004103165, -7.59387E-06, 0.01120021, 0.008120636, 0.1000011, 0.006487981, -0.003416409, -1.639474E-05, 0.01131298, 0.007946678, 0.1000006
 188136382, -0.001735961, 0.004861501, 1.25377E-05, 0.01082171, 0.008435217, 0.1000023, 0.004677188, -0.0004103165, -7.59387E-06, 0.01120021, 0.008120636, 0.1000011
 188236342, -0.006813389, -0.0006742014, 8.344961E-06, 0.01053613, 0.008106036, 0.100002, -0.001735961, 0.004861501, 1.25377E-05, 0.01082171, 0.008435217, 0.1000023
 188336302, -0.006652658, -0.004045821, 1.201111E-06, 0.01054445, 0.007916433, 0.1000016, -0.006813389, -0.0006742014, 8.344961E-06, 0.01053613, 0.008106036, 0.100002
 188436262, 0.002203739, -0.002760713, -8.836982E-06, 0.01105119, 0.007987517, 0.1000009, -0.006652658, -0.004045821, 1.201111E-06, 0.01054445, 0.007916433, 0.1000016
 188536222, -0.00320317, 0.004587573, 1.400047E-05, 0.01073863, 0.008419115, 0.1000022, 0.002203739, -0.002760713, -8.836982E-06, 0.01105119, 0.007987517, 0.1000009
 188636182, 0.001729896, 0.007503632, 1.288184E-05, 0.0110235, 0.008602253, 0.1000022, -0.00320317, 0.004587573, 1.400047E-05, 0.01073863, 0.008419115, 0.1000022
 188736142, 0.006865843, 0.0001214935, -9.547313E-06, 0.01133371, 0.00815375, 0.1000008, 0.001729896, 0.007503632, 1.288184E-05, 0.0110235, 0.008602253, 0.1000022
 188836102, 0.007612235, -0.003696269, -1.83488E-05, 0.01138235, 0.007932951, 0.1000003, 0.006865843, 0.0001214935, -9.547313E-06, 0.01133371, 0.00815375, 0.1000008
 188936062, 0.004424784, 0.007713603, 9.394917E-06, 0.01118297, 0.008618038, 0.100002, 0.007612235, -0.003696269, -1.83488E-05, 0.01138235, 0.007932951, 0.1000003
 189036022, 0.007805686, -0.005417433, -2.203371E-05, 0.01139549, 0.007836698, 0.1000001, 0.004424784, 0.007713603, 9.394917E-06, 0.01118297, 0.008618038, 0.100002
 189135982, 0.002817027, 0.008596092, 1.341749E-05, 0.01108636, 0.008674008, 0.1000023, 0.007805686, -0.005417433, -2.203371E-05, 0.01139549, 0.007836698, 0.1000001
 189235942, 0.0084471, 0.002077395, -7.678607E-06, 0.01143006, 0.008271615, 0.100001, 0.002817027, 0.008596092, 1.341749E-05, 0.01108636, 0.008674008, 0.1000023
 189335902, -0.003368254, 0.005290962, 1.540169E-05, 0.01072688, 0.008464828, 0.1000024, 0.0084471, 0.002077395, -7.678607E-06, 0.01143006, 0.008271615, 0.100001
 189435862, -0.003156702, -0.001753139, 8.767906E-07, 0.01073593, 0.00804913, 0.1000016, -0.003368254, 0.005290962, 1.540169E-05, 0.01072688, 0.008464828, 0.1000024
 189535822, 0.00887347, 0.000254714, -1.188752E-05, 0.01145711, 0.008163116, 0.1000008, -0.003156702, -0.001753139, 8.767906E-07, 0.01073593, 0.00804913, 0.1000016
 189635782, -0.001936672, 0.005512321, 1.378736E-05, 0.01080728, 0.008480027, 0.1000023, 0.00887347, 0.000254714, -1.188752E-05, 0.01145711, 0.008163116, 0.1000008
 189735742, -0.007943365, 0.001863427, 1.482763E-05, 0.01047351, 0.008257366, 0.1000023, -0.001936672, 0.005512321, 1.378736E-05, 0.01080728, 0.008480027, 0.1000023
 189835702, -0.008532674, -0.001151193, 9.581872E-06, 0.0104402, 0.008082836, 0.100002, -0.007943365, 0.001863427, 1.482763E-05, 0.01047351, 0.008257366, 0.1000023
 189935662, 0.003977567, -0.004170799, -1.393215E-05, 0.01115527, 0.00791124, 0.1000007, -0.008532674, -0.001151193, 9.581872E-06, 0.0104402, 0.008082836, 0.100002
 190036455, 0.002463529, 0.001145785, -1.144242E-06, 0.01106233, 0.00821865, 0.1000014, 0.003977567, -0.004170799, -1.393215E-05, 0.01115527, 0.00791124, 0.1000007
 190136415, -0.0002472092, -0.008801658, -1.730411E-05, 0.01090558, 0.007661166, 0.1000005, 0.002463529, 0.001145785, -1.144242E-06, 0.01106233, 0.00821865, 0.1000014
 190236375, -0.003843411, -0.007139863, -8.972189E-06, 0.01069747, 0.007751804, 0.100001, -0.0002472092, -0.008801658, -1.730411E-05, 0.01090558, 0.007661166, 0.1000005
 190336335, 0.00619518, 0.0004056374, -7.81817E-06, 0.01128885, 0.008173956, 0.100001, -0.003843411, -0.007139863, -8.972189E-06, 0.01069747, 0.007751804, 0.100001
 190436295, -0.004499795, -0.002432941, 1.389988E-06, 0.01066009, 0.008011399, 0.1000016, 0.00619518, 0.0004056374, -7.81817E-06, 0.01128885, 0.008173956, 0.100001
 190536255, -0.004184071, -0.007590923, -9.401576E-06, 0.0106786, 0.007727631, 0.100001, -0.004499795, -0.002432941, 1.389988E-06, 0.01066009, 0.008011399, 0.1000016
 190636215, 0.0003504916, -2.874498E-05, -5.472839E-07, 0.01093756, 0.008149453, 0.1000014, -0.004184071, -0.007590923, -9.401576E-06, 0.0106786, 0.007727631, 0.100001
 190736175, -0.0001795961, -0.005674129, 0.07015803, 0.01130087, 0.008157341, 0.1000009, 0.0003504916, -2.874498E-05, -5.472839E-07, 0.01093756, 0.008149453, 0.1000014
 190836135, -0.0003498209, -0.0002207235, 0.09673197, 0.0118383, 0.008883353, 0.1000016, -0.0001795961, -0.005674129, 0.07015803, 0.01130087, 0.008157341, 0.1000009
 190936095, -0.003709835, 0.004545559, 0.1169287, 0.01232196, 0.009663679, 0.1000024, -0.0003498209, -0.0002207235, 0.09673197, 0.0118383, 0.008883353, 0.1000016
 191036055, -0.00256802, -0.002764503, 0.2070872, 0.0133293, 0.01048492, 0.1000054, -0.003709835, 0.004545559, 0.1169287, 0.01232196, 0.009663679, 0.1000024
 191136015, -0.006718104, 0.005242849, 0.3042761, 0.01458972, 0.01253534, 0.1000065, -0.00256802, -0.002764503, 0.2070872, 0.0133293, 0.01048492, 0.1000054
 191235975, 0.001829406, -0.01153346, 0.4722743, 0.01740503, 0.01427724, 0.1000161, -0.006718104, 0.005242849, 0.3042761, 0.01458972, 0.01253534, 0.1000065
 191335935, 0.006465991, 0.01769072, 0.652726, 0.02119258, 0.01811232, 0.1000139, 0.001829406, -0.01153346, 0.4722743, 0.01740503, 0.01427724, 0.1000161
 191435895, 0.01250214, 0.01286745, 0.827858, 0.02612429, 0.02139592, 0.1000248, 0.006465991, 0.01769072, 0.652726, 0.02119258, 0.01811232, 0.1000139
 191535855, -0.007293086, 0.03958787, 0.9219419, 0.03108218, 0.02580287, 0.1000268, 0.01250214, 0.01286745, 0.827858, 0.02612429, 0.02139592, 0.1000248
 191635815, -0.006752091, 0.03187754, 1.066084, 0.03741508, 0.02987925, 0.1000309, -0.007293086, 0.03958787, 0.9219419, 0.03108218, 0.02580287, 0.1000268
 191735775, 0.04979366, 0.04205051, 1.190471, 0.04541329, 0.03502538, 0.1000226, -0.006752091, 0.03187754, 1.066084, 0.03741508, 0.02987925, 0.1000309
 191835735, 0.06144596, 0.02452148, 1.296712, 0.05300538, 0.04017708, 0.1000022, 0.04979366, 0.04205051, 1.190471, 0.04541329, 0.03502538, 0.1000226
 191935695, 0.03800501, -0.02514718, 1.424963, 0.06061431, 0.04575245, 0.09999391, 0.06144596, 0.02452148, 1.296712, 0.05300538, 0.04017708, 0.1000022
 192035655, 0.08152848, 0.0470193, 1.532271, 0.06981596, 0.05351239, 0.1000204, 0.03800501, -0.02514718, 1.424963, 0.06061431, 0.04575245, 0.09999391
 192136448, 0.08375127, 0.05135868, 1.627646, 0.07884594, 0.06076822, 0.1000756, 0.08152848, 0.0470193, 1.532271, 0.06981596, 0.05351239, 0.1000204
 192236408, 0.07846298, 0.03774099, 1.70646, 0.0882449, 0.06812479, 0.1001402, 0.08375127, 0.05135868, 1.627646, 0.07884594, 0.06076822, 0.1000756
 192336368, 0.08523636, 0.06185936, 1.811118, 0.09847093, 0.07639016, 0.100181, 0.07846298, 0.03774099, 1.70646, 0.0882449, 0.06812479, 0.1001402
 192436328, -0.07155741, 0.04293998, 1.900106, 0.1078948, 0.08446089, 0.100173, 0.08523636, 0.06185936, 1.811118, 0.09847093, 0.07639016, 0.100181
 192536288, 0.1071596, -0.06860968, 1.978074, 0.1207497, 0.09231043, 0.100127, -0.07155741, 0.04293998, 1.900106, 0.1078948, 0.08446089, 0.100173
 192636248, 0.1102754, 0.07658282, 2.010058, 0.1321229, 0.1022454, 0.1000401, 0.1071596, -0.06860968, 1.978074, 0.1207497, 0.09231043, 0.100127
 192736208, 0.1031613, -0.00612208, 2.072016, 0.1438437, 0.1105668, 0.0999525, 0.1102754, 0.07658282, 2.010058, 0.1321229, 0.1022454, 0.1000401
 192836168, 0.0689451, -0.01353863, 2.151776, 0.1557207, 0.1199737, 0.09990178, 0.1031613, -0.00612208, 2.072016, 0.1438437, 0.1105668, 0.0999525
 192936128, 0.1380538, 0.06315085, 2.193315, 0.1687635, 0.1301672, 0.09988704, 0.0689451, -0.01353863, 2.151776, 0.1557207, 0.1199737, 0.09990178
 193036088, 0.1378598, 0.02531505, 2.22965, 0.1813416, 0.1396866, 0.09988586, 0.1380538, 0.06315085, 2.193315, 0.1687635, 0.1301672, 0.09988704
 193136048, -0.1187138, 0.0132606, 2.296664, 0.1928108, 0.1497301, 0.09987757, 0.1378598, 0.02531505, 2.22965, 0.1813416, 0.1396866, 0.09988586
 193236008, 0.1877508, 0.02395475, 2.318647, 0.2078786, 0.1600001, 0.09986254, -0.1187138, 0.0132606, 2.296664, 0.1928108, 0.1497301, 0.09987757
 193335968, -0.1276155, -0.04933939, 2.329921, 0.219133, 0.1699382, 0.099848, 0.1877508, 0.02395475, 2.318647, 0.2078786, 0.1600001, 0.09986254
 193435928, 0.00933161, -0.1686162, 2.35429, 0.2330955, 0.1799788, 0.09983766, -0.1276155, -0.04933939, 2.329921, 0.219133, 0.1699382, 0.099848
 193535888, 0.07357568, 0.1226308, 2.393847, 0.2470402, 0.1916937, 0.09984738, 0.00933161, -0.1686162, 2.35429, 0.2330955, 0.1799788, 0.09983766
 193635848, -0.1496039, 0.0689376, 2.401241, 0.2598337, 0.201713, 0.09986684, 0.07357568, 0.1226308, 2.393847, 0.2470402, 0.1916937, 0.09984738
 193735808, -0.1191206, 0.09924478, 2.444664, 0.2738367, 0.2125585, 0.09988653, -0.1496039, 0.0689376, 2.401241, 0.2598337, 0.201713, 0.09986684
 193835768, -0.03055, 0.04205974, 2.445363, 0.2885112, 0.2240946, 0.2499197, -0.1191206, 0.09924478, 2.444664, 0.2738367, 0.2125585, 0.09988653
 193935728, -0.1013029, -0.1009356, 2.446511, 0.3019809, 0.2338398, 0.2499521, -0.03055, 0.04205974, 2.445363, 0.2885112, 0.2240946, 0.2499197
 194035688, 0.07015169, 0.287764, 2.439234, 0.3171093, 0.2478726, 0.2500173, -0.1013029, -0.1009356, 2.446511, 0.3019809, 0.2338398, 0.2499521
 194136481, -0.1997744, 0.0796534, 2.447624, 0.3294173, 0.2561841, 0.2501423, 0.07015169, 0.287764, 2.439234, 0.3171093, 0.2478726, 0.2500173
 194236441, 0.07722013, -0.1971416, 2.475997, 0.3452064, 0.2652866, 0.2503081, -0.1997744, 0.0796534, 2.447624, 0.3294173, 0.2561841, 0.2501423
 194336401, 0.2136177, -0.0004235879, 2.472064, 0.3604676, 0.2768672, 0.2504664, 0.07722013, -0.1971416, 2.475997, 0.3452064, 0.2652866, 0.2503081
 194436361, 0.1922569, -0.07966676, 2.469311, 0.3743949, 0.2869631, 0.2505928, 0.2136177, -0.0004235879, 2.472064, 0.3604676, 0.2768672, 0.2504664
 194536321, 0.3364207, -0.2461259, 2.432873, 0.3899965, 0.2965031, 0.2506742, 0.1922569, -0.07966676, 2.469311, 0.3743949, 0.2869631, 0.2505928
 194636281, 0.2702748, -0.06125288, 2.435283, 0.403072, 0.3078872, 0.2506559, 0.3364207, -0.2461259, 2.432873, 0.3899965, 0.2965031, 0.2506742
 194736241, -0.3466273, -0.2436912, 2.393127, 0.4133271, 0.3176387, 0.2505383, 0.2702748, -0.06125288, 2.435283, 0.403072, 0.3078872, 0.2506559
 194836201, 0.07779121, 0.005892173, 2.374767, 0.4288978, 0.3289201, 0.2503466, -0.3466273, -0.2436912, 2.393127, 0.4133271, 0.3176387, 0.2505383
 194936161, 0.3517804, 0.2040613, 2.341882, 0.4447526, 0.340494, 0.2500823, 0.07779121, 0.005892173, 2.374767, 0.4288978, 0.3289201, 0.2503466
 195036121, -0.1409059, 0.2661465, 2.294381, 0.4547377, 0.3507719, 0.2497804, 0.3517804, 0.2040613, 2.341882, 0.4447526, 0.340494, 0.2500823
 195136081, -0.2643186, 0.4406182, 2.24672, 0.46766, 0.3618928, 0.2495331, -0.1409059, 0.2661465, 2.294381, 0.4547377, 0.3507719, 0.2497804
 195236041, -0.0394132, 0.3907665, 2.16899, 0.480991, 0.370683, 0.2493749, -0.2643186, 0.4406182, 2.24672, 0.46766, 0.3618928, 0.2495331
 195336001, -0.126965, 0.4292567, 2.11273, 0.4929962, 0.3797953, 0.2493651, -0.0394132, 0.3907665, 2.16899, 0.480991, 0.370683, 0.2493749
 195435961, 0.1872787, -0.3772046, 2.008104, 0.5063578, 0.3834903, 0.2494837, -0.126965, 0.4292567, 2.11273, 0.4929962, 0.3797953, 0.2493651
 195535921, 0.457007, -0.143137, 1.899768, 0.5195398, 0.3920162, 0.2497729, 0.1872787, -0.3772046, 2.008104, 0.5063578, 0.3834903, 0.2494837
 195635881, -0.3767923, 0.2731058, 1.849917, 0.525535, 0.4021927, 0.250203, 0.457007, -0.143137, 1.899768, 0.5195398, 0.3920162, 0.2497729
 195735841, 0.2392118, 0.07098602, 1.719765, 0.5378147, 0.4080128, 0.2510707, -0.3767923, 0.2731058, 1.849917, 0.525535, 0.4021927, 0.250203
 195835801, -0.2902438, 0.04890449, 1.542684, 0.5431037, 0.4141364, 0.2538184, 0.2392118, 0.07098602, 1.719765, 0.5378147, 0.4080128, 0.2510707
 195935761, 0.2226646, 0.2116098, 1.470287, 0.5517045, 0.4215166, 0.2591763, -0.2902438, 0.04890449, 1.542684, 0.5431037, 0.4141364, 0.2538184
 196035721, -0.0004323795, -0.1427055, 1.363404, 0.5544717, 0.4254045, 0.267105, 0.2226646, 0.2116098, 1.470287, 0.5517045, 0.4215166, 0.2591763
 196135681, 0.2019079, -0.1518746, 1.25133, 0.5582334, 0.4308285, 0.2770562, -0.0004323795, -0.1427055, 1.363404, 0.5544717, 0.4254045, 0.267105
 196236474, 0.2930144, 0.06605434, 1.145093, 0.5601156, 0.4370514, 0.2876025, 0.2019079, -0.1518746, 1.25133, 0.5582334, 0.4308285, 0.2770562
 196336434, -0.3104933, -0.02153011, 1.001901, 0.5578329, 0.4412665, 0.2965218, 0.2930144, 0.06605434, 1.145093, 0.5601156, 0.4370514, 0.2876025
 196436394, -0.1154931, -0.3848126, 0.9268829, 0.5602837, 0.4444841, 0.3036167, -0.3104933, -0.02153011, 1.001901, 0.5578329, 0.4412665, 0.2965218
 196536354, 0.3901494, 0.1614636, 0.8894874, 0.565932, 0.4505018, 0.3089344, -0.1154931, -0.3848126, 0.9268829, 0.5602837, 0.4444841, 0.3036167
 196636314, 0.3484902, 0.04210483, 0.7538614, 0.567635, 0.4530092, 0.3125254, 0.3901494, 0.1614636, 0.8894874, 0.565932, 0.4505018, 0.3089344
 196736274, 0.5439368, 0.3059724, 0.7412869, 0.5715362, 0.457978, 0.316121, 0.3484902, 0.04210483, 0.7538614, 0.567635, 0.4530092, 0.3125254
 196836234, 0.06563031, 0.1538195, 0.5866421, 0.5688439, 0.4595081, 0.3192386, 0.5439368, 0.3059724, 0.7412869, 0.5715362, 0.457978, 0.316121
 196936194, 0.686218, -0.4189768, 0.6030681, 0.5756038, 0.4589798, 0.3241688, 0.06563031, 0.1538195, 0.5866421, 0.5688439, 0.4595081, 0.3192386
 197036154, 1.046976, -0.4147332, 0.6033131, 0.5807423, 0.4605539, 0.3295096, 0.686218, -0.4189768, 0.6030681, 0.5756038, 0.4589798, 0.3241688
 197136114, 0.2542978, -0.6288246, 0.4217074, 0.5710245, 0.4632788, 0.332665, 1.046976, -0.4147332, 0.6033131, 0.5807423, 0.4605539, 0.3295096
 197236074, 0.4482737, 0.3276361, 0.422051, 0.5722031, 0.4687034, 0.3362479, 0.2542978, -0.6288246, 0.4217074, 0.5710245, 0.4632788, 0.332665
 197336034, 1.05097, -0.1918603, 0.4821229, 0.5806614, 0.4662194, 0.3395973, 0.4482737, 0.3276361, 0.422051, 0.5722031, 0.4687034, 0.3362479
 197435994, 1.266229, -0.8177748, 0.470374, 0.5863499, 0.4658118, 0.3415644, 1.05097, -0.1918603, 0.4821229, 0.5806614, 0.4662194, 0.3395973
 197535954, 1.15551, -0.463456, 0.4170473, 0.5843911, 0.4674534, 0.3420863, 1.266229, -0.8177748, 0.470374, 0.5863499, 0.4658118, 0.3415644
 197635914, 1.111589, -0.6058375, 0.3647834, 0.5843153, 0.4681711, 0.3431585, 1.15551, -0.463456, 0.4170473, 0.5843911, 0.4674534, 0.3420863
 197735874, 1.232352, -0.6458448, 0.3596493, 0.5861049, 0.4684533, 0.3458362, 1.111589, -0.6058375, 0.3647834, 0.5843153, 0.4681711, 0.3431585
 197835834, 1.333502, -0.7541047, 0.3400073, 0.5844624, 0.4703277, 0.3513178, 1.232352, -0.6458448, 0.3596493, 0.5861049, 0.4684533, 0.3458362
 197935794, 1.086972, -0.594025, 0.3153905, 0.569345, 0.4806758, 0.3566473, 1.333502, -0.7541047, 0.3400073, 0.5844624, 0.4703277, 0.3513178
 198035754, 1.90203, -0.3559004, 0.4564781, 0.567557, 0.4985223, 0.3629029, 1.086972, -0.594025, 0.3153905, 0.569345, 0.4806758, 0.3566473
 198135714, 1.805146, -0.03215534, 0.4279468, 0.5433489, 0.5243229, 0.3620923, 1.90203, -0.3559004, 0.4564781, 0.567557, 0.4985223, 0.3629029
 198235674, 1.130651, -0.5020741, 0.2688201, 0.5075659, 0.5486351, 0.355559, 1.805146, -0.03215534, 0.4279468, 0.5433489, 0.5243229, 0.3620923
 198336467, 1.546596, 0.5421937, 0.4114964, 0.4945106, 0.5769212, 0.3512421, 1.130651, -0.5020741, 0.2688201, 0.5075659, 0.5486351, 0.355559
 198436427, 2.151397, 0.6613699, 0.5001996, 0.4915138, 0.5963206, 0.3487133, 1.546596, 0.5421937, 0.4114964, 0.4945106, 0.5769212, 0.3512421
 198536387, 1.600372, 0.4391703, 0.3601965, 0.4661087, 0.6052287, 0.3430277, 2.151397, 0.6613699, 0.5001996, 0.4915138, 0.5963206, 0.3487133
 198636347, 1.732086, 0.1853354, 0.4114542, 0.4620101, 0.6087157, 0.3442089, 1.600372, 0.4391703, 0.3601965, 0.4661087, 0.6052287, 0.3430277
 198736307, 1.462815, -0.02622808, 0.3820551, 0.4549612, 0.6064741, 0.3471943, 1.732086, 0.1853354, 0.4114542, 0.4620101, 0.6087157, 0.3442089
 198836267, 1.992561, 0.4485816, 0.4803897, 0.4696739, 0.6038537, 0.3571401, 1.462815, -0.02622808, 0.3820551, 0.4549612, 0.6064741, 0.3471943
 198936227, 1.786954, -0.1720498, 0.4293792, 0.4694808, 0.5908391, 0.3649019, 1.992561, 0.4485816, 0.4803897, 0.4696739, 0.6038537, 0.3571401
 199036187, 2.651353, -0.1371038, 0.6673951, 0.4994614, 0.58034, 0.3804495, 1.786954, -0.1720498, 0.4293792, 0.4694808, 0.5908391, 0.3649019
 199136147, 2.005516, 0.0802318, 0.5263337, 0.4888914, 0.5684891, 0.3855925, 2.651353, -0.1371038, 0.6673951, 0.4994614, 0.58034, 0.3804495
 199236107, 2.430317, 0.5213045, 0.6271749, 0.5063848, 0.5607309, 0.3968782, 2.005516, 0.0802318, 0.5263337, 0.4888914, 0.5684891, 0.3855925
 199336067, 2.639733, 0.4773666, 0.6809058, 0.5175293, 0.5509834, 0.4048431, 2.430317, 0.5213045, 0.6271749, 0.5063848, 0.5607309, 0.3968782
 199436027, 2.812386, -0.07038723, 0.7519182, 0.5271624, 0.5402901, 0.4104564, 2.639733, 0.4773666, 0.6809058, 0.5175293, 0.5509834, 0.4048431
 199535987, 2.642545, -0.4044721, 0.7411481, 0.524632, 0.5355539, 0.4112063, 2.812386, -0.07038723, 0.7519182, 0.5271624, 0.5402901, 0.4104564
 199635947, 2.247231, 0.384101, 0.6261731, 0.51327, 0.5390803, 0.4083495, 2.642545, -0.4044721, 0.7411481, 0.524632, 0.5355539, 0.4112063
 199735907, 2.460957, -0.5585924, 0.6064702, 0.5177658, 0.5357636, 0.4092249, 2.247231, 0.384101, 0.6261731, 0.51327, 0.5390803, 0.4083495
 199835867, 2.305344, -0.5772836, 0.577494, 0.5104545, 0.5390341, 0.4066417, 2.460957, -0.5585924, 0.6064702, 0.5177658, 0.5357636, 0.4092249
 199935827, 2.495199, -0.4206611, 0.645909, 0.511875, 0.5434359, 0.4065304, 2.305344, -0.5772836, 0.577494, 0.5104545, 0.5390341, 0.4066417
 200035787, 2.822603, 0.3104948, 0.739264, 0.5173395, 0.5515425, 0.4077219, 2.495199, -0.4206611, 0.645909, 0.511875, 0.5434359, 0.4065304
 200135747, 2.857455, -0.4959519, 0.7638192, 0.5140122, 0.5530404, 0.4066164, 2.822603, 0.3104948, 0.739264, 0.5173395, 0.5515425, 0.4077219
 200235707, 2.721327, 0.5560517, 0.7212864, 0.5055417, 0.5622727, 0.4041987, 2.857455, -0.4959519, 0.7638192, 0.5140122, 0.5530404, 0.4066164
 200335667, 3.444374, 0.2711317, 0.9373155, 0.5279635, 0.56308, 0.4109028, 2.721327, 0.5560517, 0.7212864, 0.5055417, 0.5622727, 0.4041987
 200436460, 3.317169, -0.1689972, 0.9087711, 0.5204971, 0.5625901, 0.4092999, 3.444374, 0.2711317, 0.9373155, 0.5279635, 0.56308, 0.4109028
 200536420, 3.301717, -0.3715861, 0.9166359, 0.5185969, 0.5626413, 0.4095151, 3.317169, -0.1689972, 0.9087711, 0.5204971, 0.5625901, 0.4092999
 200636380, 3.189411, -0.1116257, 0.8850054, 0.514176, 0.5623975, 0.4091499, 3.301717, -0.3715861, 0.9166359, 0.5185969, 0.5626413, 0.4095151
 200736340, 3.268819, -0.2617797, 0.9113867, 0.517404, 0.5603787, 0.4112631, 3.189411, -0.1116257, 0.8850054, 0.514176, 0.5623975, 0.4091499
 200836300, 3.914609, 0.3829669, 1.110157, 0.5452412, 0.5615994, 0.4206782, 3.268819, -0.2617797, 0.9113867, 0.517404, 0.5603787, 0.4112631
 200936260, 2.894664, -0.006690361, 0.8179929, 0.5065301, 0.5560746, 0.4104429, 3.914609, 0.3829669, 1.110157, 0.5452412, 0.5615994, 0.4206782
 201036220, 3.872987, -0.0007276076, 1.115397, 0.546102, 0.5537189, 0.4232226, 2.894664, -0.006690361, 0.8179929, 0.5065301, 0.5560746, 0.4104429
 201136180, 3.050392, 0.5126386, 0.8650261, 0.5146254, 0.554719, 0.4148422, 3.872987, -0.0007276076, 1.115397, 0.546102, 0.5537189, 0.4232226
 201236140, 3.902959, -0.4201304, 1.052382, 0.5485311, 0.5473182, 0.4257917, 3.050392, 0.5126386, 0.8650261, 0.5146254, 0.554719, 0.4148422
 201336100, 4.062322, -0.3854997, 1.118102, 0.5564433, 0.5452588, 0.4289256, 3.902959, -0.4201304, 1.052382, 0.5485311, 0.5473182, 0.4257917
 201436060, 3.223508, 0.1015978, 0.8849924, 0.5217979, 0.5457224, 0.4192335, 4.062322, -0.3854997, 1.118102, 0.5564433, 0.5452588, 0.4289256
 201536020, 4.199723, -0.2964114, 1.190184, 0.5632522, 0.5430945, 0.4320963, 3.223508, 0.1015978, 0.8849924, 0.5217979, 0.5457224, 0.4192335
 201635980, 4.005509, -0.544073, 1.128626, 0.553781, 0.5425106, 0.4294772, 4.199723, -0.2964114, 1.190184, 0.5632522, 0.5430945, 0.4320963
 201735940, 4.273299, -0.36937, 1.222455, 0.5658637, 0.5426701, 0.433228, 4.005509, -0.544073, 1.128626, 0.553781, 0.5425106, 0.4294772
 201835900, 3.257875, 0.2804494, 0.9289443, 0.5213654, 0.546231, 0.4198336, 4.273299, -0.36937, 1.222455, 0.5658637, 0.5426701, 0.433228
 201935860, 3.272863, -0.535906, 0.9412139, 0.5211896, 0.5436674, 0.419848, 3.257875, 0.2804494, 0.9289443, 0.5213654, 0.546231, 0.4198336
 202035820, 3.280647, 0.5259826, 0.9538225, 0.5206743, 0.5494376, 0.4197812, 3.272863, -0.535906, 0.9412139, 0.5211896, 0.5436674, 0.419848
 202135780, 3.605204, 0.3216859, 1.059138, 0.5329428, 0.5480965, 0.4235523, 3.280647, 0.5259826, 0.9538225, 0.5206743, 0.5494376, 0.4197812
 202235740, 3.66172, -0.159039, 1.068327, 0.5344706, 0.5456994, 0.42417, 3.605204, 0.3216859, 1.059138, 0.5329428, 0.5480965, 0.4235523
 202335700, 4.069299, 0.3176299, 1.163179, 0.551423, 0.5483563, 0.4295971, 3.66172, -0.159039, 1.068327, 0.5344706, 0.5456994, 0.42417
 202435660, 3.688019, -0.1318603, 1.02473, 0.5335023, 0.5453532, 0.4245155, 4.069299, 0.3176299, 1.163179, 0.551423, 0.5483563, 0.4295971
 202536453, 3.455984, 0.2914902, 0.9712739, 0.5235806, 0.5471094, 0.4221162, 3.688019, -0.1318603, 1.02473, 0.5335023, 0.5453532, 0.4245155
 202636413, 3.748637, 0.451666, 1.076765, 0.5354974, 0.547756, 0.4264386, 3.455984, 0.2914902, 0.9712739, 0.5235806, 0.5471094, 0.4221162
 202736373, 4.251469, -0.3547575, 1.229597, 0.5582044, 0.5425763, 0.434011, 3.748637, 0.451666, 1.076765, 0.5354974, 0.547756, 0.4264386
 202836333, 4.147035, -0.216667, 1.211845, 0.5532287, 0.5419863, 0.4330617, 4.251469, -0.3547575, 1.229597, 0.5582044, 0.5425763, 0.434011
 202936293, 3.680636, -0.4355134, 1.079611, 0.5323787, 0.540687, 0.4271332, 4.147035, -0.216667, 1.211845, 0.5532287, 0.5419863, 0.4330617
 203036253, 3.582072, -0.4233806, 1.059241, 0.5283966, 0.5397156, 0.4264992, 3.680636, -0.4355134, 1.079611, 0.5323787, 0.540687, 0.4271332
 203136213, 3.461615, 0.3048722, 1.031946, 0.5235825, 0.5420275, 0.4255901, 3.582072, -0.4233806, 1.059241, 0.5283966, 0.5397156, 0.4264992
 203236173, 3.847949, 0.3180264, 1.144928, 0.5399228, 0.5411963, 0.4310627, 3.461615, 0.3048722, 1.031946, 0.5235825, 0.5420275, 0.4255901
 203336133, 3.525447, -0.1544411, 1.051914, 0.526418, 0.5377512, 0.4270854, 3.847949, 0.3180264, 1.144928, 0.5399228, 0.5411963, 0.4310627
 203436093, 3.509923, 0.293383, 1.055986, 0.5258675, 0.5397738, 0.4270818, 3.525447, -0.1544411, 1.051914, 0.526418, 0.5377512, 0.4270854
 203536053, 3.532137, -0.4557512, 1.068101, 0.5269603, 0.5360304, 0.4276761, 3.509923, 0.293383, 1.055986, 0.5258675, 0.5397738, 0.4270818
 203636013, 4.28145, -0.2179244, 1.310402, 0.5606483, 0.5359275, 0.4386269, 3.532137, -0.4557512, 1.068101, 0.5269603, 0.5360304, 0.4276761
 203735973, 4.458163, -0.5350941, 1.371461, 0.5695078, 0.5350914, 0.4417326, 4.28145, -0.2179244, 1.310402, 0.5606483, 0.5359275, 0.4386269
 203835933, 4.482546, 0.3804821, 1.372512, 0.5700388, 0.5390295, 0.4422418, 4.458163, -0.5350941, 1.371461, 0.5695078, 0.5350914, 0.4417326
 203935893, 4.050918, 0.0528424, 1.317621, 0.5499184, 0.5369861, 0.4363682, 4.482546, 0.3804821, 1.372512, 0.5700388, 0.5390295, 0.4422418
 204035853, 3.663621, -0.5017864, 1.191163, 0.5324968, 0.535638, 0.4312453, 4.050918, 0.0528424, 1.317621, 0.5499184, 0.5369861, 0.4363682
 204135813, 3.657907, -0.05020186, 1.187202, 0.5320569, 0.536985, 0.4313251, 3.663621, -0.5017864, 1.191163, 0.5324968, 0.535638, 0.4312453
 204235773, 4.697682, -0.0751187, 1.498179, 0.582007, 0.5365461, 0.4472181, 3.657907, -0.05020186, 1.187202, 0.5320569, 0.536985, 0.4313251
 204335733, 3.936973, 0.1968789, 1.257619, 0.5441688, 0.5383131, 0.4353932, 4.697682, -0.0751187, 1.498179, 0.582007, 0.5365461, 0.4472181
 204435693, 4.432191, -0.5714105, 1.413185, 0.5684735, 0.5352584, 0.4432291, 3.936973, 0.1968789, 1.257619, 0.5441688, 0.5383131, 0.4353932
 204536486, 4.320565, -0.2810255, 1.378121, 0.5629001, 0.5353453, 0.4417063, 4.432191, -0.5714105, 1.413185, 0.5684735, 0.5352584, 0.4432291
 204636446, 4.362245, -0.0540128, 1.464885, 0.5664238, 0.5362002, 0.4429929, 4.320565, -0.2810255, 1.378121, 0.5629001, 0.5353453, 0.4417063
 204736406, 4.306993, -0.4138207, 1.434849, 0.5641748, 0.5350907, 0.4422536, 4.362245, -0.0540128, 1.464885, 0.5664238, 0.5362002, 0.4429929
 204836366, 4.352921, -0.2284907, 1.43911, 0.5668285, 0.5354937, 0.4428648, 4.306993, -0.4138207, 1.434849, 0.5641748, 0.5350907, 0.4422536
 204936326, 4.15487, -0.3029342, 1.366951, 0.557558, 0.5353653, 0.4396891, 4.352921, -0.2284907, 1.43911, 0.5668285, 0.5354937, 0.4428648
 205036286, 3.808916, -0.1527822, 1.250656, 0.5418406, 0.5360073, 0.4346247, 4.15487, -0.3029342, 1.366951, 0.557558, 0.5353653, 0.4396891
 205136246, 4.806115, 0.4286264, 1.561335, 0.5912245, 0.5393881, 0.4502358, 3.808916, -0.1527822, 1.250656, 0.5418406, 0.5360073, 0.4346247
 205236206, 3.953723, -0.5547732, 1.286026, 0.5489793, 0.5350684, 0.4369391, 4.806115, 0.4286264, 1.561335, 0.5912245, 0.5393881, 0.4502358
 205336166, 3.91835, -0.6004891, 1.306918, 0.5481322, 0.5351695, 0.4368342, 3.953723, -0.5547732, 1.286026, 0.5489793, 0.5350684, 0.4369391
 205436126, 3.715568, 0.4397322, 1.260348, 0.5391344, 0.5402303, 0.4343495, 3.91835, -0.6004891, 1.306918, 0.5481322, 0.5351695, 0.4368342
 205536086, 4.224954, -0.5115768, 1.412672, 0.5630958, 0.5351635, 0.4424095, 3.715568, 0.4397322, 1.260348, 0.5391344, 0.5402303, 0.4343495
 205636046, 4.400373, 0.08682724, 1.462248, 0.5714987, 0.5371843, 0.4454901, 4.224954, -0.5115768, 1.412672, 0.5630958, 0.5351635, 0.4424095
 205736006, 4.12543, -0.4208783, 1.368146, 0.5583169, 0.5354034, 0.4416886, 4.400373, 0.08682724, 1.462248, 0.5714987, 0.5371843, 0.4454901
 205835966, 3.704079, 0.1065889, 1.25282, 0.5392982, 0.5379184, 0.4360116, 4.12543, -0.4208783, 1.368146, 0.5583169, 0.5354034, 0.4416886
 205935926, 4.517349, 0.3472927, 1.528666, 0.5780735, 0.5395226, 0.4488192, 3.704079, 0.1065889, 1.25282, 0.5392982, 0.5379184, 0.4360116
 206035886, 4.814482, -0.05233983, 1.615458, 0.5941782, 0.5366904, 0.4543115, 4.517349, 0.3472927, 1.528666, 0.5780735, 0.5395226, 0.4488192
 206135846, 4.031958, 0.1068471, 1.355758, 0.554575, 0.5382291, 0.4417562, 4.814482, -0.05233983, 1.615458, 0.5941782, 0.5366904, 0.4543115
 206235806, 4.122641, 0.05145487, 1.378643, 0.5589426, 0.5378743, 0.4434301, 4.031958, 0.1068471, 1.355758, 0.554575, 0.5382291, 0.4417562
 206335766, 4.654111, -0.4450761, 1.581871, 0.5867839, 0.535789, 0.4526483, 4.122641, 0.05145487, 1.378643, 0.5589426, 0.5378743, 0.4434301
 206435726, 4.090614, -0.03814524, 1.382225, 0.5583, 0.5376142, 0.443662, 4.654111, -0.4450761, 1.581871, 0.5867839, 0.535789, 0.4526483
 206535686, 4.290941, -0.02425366, 1.46695, 0.5686098, 0.5377055, 0.4471246, 4.090614, -0.03814524, 1.382225, 0.5583, 0.5376142, 0.443662
 206636479, 4.380669, -0.115911, 1.485038, 0.5733004, 0.5373405, 0.4487473, 4.290941, -0.02425366, 1.46695, 0.5686098, 0.5377055, 0.4471246
 206736439, 4.147475, 0.246299, 1.400325, 0.5619093, 0.5398842, 0.4450607, 4.380669, -0.115911, 1.485038, 0.5733004, 0.5373405, 0.4487473
 206836399, 4.163501, -0.2690567, 1.396493, 0.5631976, 0.537105, 0.4455284, 4.147475, 0.246299, 1.400325, 0.5619093, 0.5398842, 0.4450607
 206936359, 4.404829, -0.2704441, 1.467498, 0.5752045, 0.5368809, 0.4495097, 4.163501, -0.2690567, 1.396493, 0.5631976, 0.537105, 0.4455284
 207036319, 3.988659, -0.207655, 1.36323, 0.5559202, 0.5375739, 0.4434344, 4.404829, -0.2704441, 1.467498, 0.5752045, 0.5368809, 0.4495097
 207136279, 3.887361, 0.2996361, 1.360113, 0.5518209, 0.5410116, 0.4422685, 3.988659, -0.207655, 1.36323, 0.5559202, 0.5375739, 0.4434344
 207236239, 4.021407, 0.3400894, 1.390678, 0.5580529, 0.5415592, 0.4444523, 3.887361, 0.2996361, 1.360113, 0.5518209, 0.5410116, 0.4422685
 207336199, 4.367043, -0.1687544, 1.490954, 0.5751152, 0.5382268, 0.4501271, 4.021407, 0.3400894, 1.390678, 0.5580529, 0.5415592, 0.4444523
 207436159, 4.09706, -0.5285698, 1.394264, 0.5624523, 0.5377801, 0.4461988, 4.367043, -0.1687544, 1.490954, 0.5751152, 0.5382268, 0.4501271
 207536119, 4.174978, -0.3784707, 1.41257, 0.5661314, 0.5380538, 0.4475675, 4.09706, -0.5285698, 1.394264, 0.5624523, 0.5377801, 0.4461988
 207636079, 4.105952, -0.01852867, 1.407979, 0.5631043, 0.5396854, 0.4467556, 4.174978, -0.3784707, 1.41257, 0.5661314, 0.5380538, 0.4475675
 207736039, 4.605098, -0.3188094, 1.597594, 0.5888224, 0.5382976, 0.4553821, 4.105952, -0.01852867, 1.407979, 0.5631043, 0.5396854, 0.4467556
 207835999, 3.919908, 0.002848961, 1.36252, 0.5553713, 0.5405105, 0.444722, 4.605098, -0.3188094, 1.597594, 0.5888224, 0.5382976, 0.4553821
 207935959, 4.276267, -0.1420769, 1.468449, 0.5722383, 0.5396426, 0.4505298, 3.919908, 0.002848961, 1.36252, 0.5553713, 0.5405105, 0.444722
 208035919, 4.758667, 0.132982, 1.617924, 0.596718, 0.5408356, 0.4589, 4.276267, -0.1420769, 1.468449, 0.5722383, 0.5396426, 0.4505298
 208135879, 4.544868, 0.06977436, 1.539603, 0.5856907, 0.5405986, 0.4554901, 4.758667, 0.132982, 1.617924, 0.596718, 0.5408356, 0.4589
 208235839, 3.999041, -0.684518, 1.382892, 0.5606377, 0.5390584, 0.4473059, 4.544868, 0.06977436, 1.539603, 0.5856907, 0.5405986, 0.4554901
 208335799, 4.68941, 0.3118196, 1.627953, 0.5946244, 0.5426272, 0.458395, 3.999041, -0.684518, 1.382892, 0.5606377, 0.5390584, 0.4473059
 208435759, 4.945543, -0.02737187, 1.697818, 0.6090618, 0.5400875, 0.463082, 4.68941, 0.3118196, 1.627953, 0.5946244, 0.5426272, 0.458395
 208535719, 4.647912, 0.1828001, 1.589408, 0.5930414, 0.5419186, 0.4578366, 4.945543, -0.02737187, 1.697818, 0.6090618, 0.5400875, 0.463082
 208635679, 4.262881, -0.5053084, 1.452674, 0.574504, 0.5394919, 0.4517225, 4.647912, 0.1828001, 1.589408, 0.5930414, 0.5419186, 0.4578366
 208736472, 4.448382, -0.4514679, 1.51246, 0.5839347, 0.5395411, 0.4547209, 4.262881, -0.5053084, 1.452674, 0.574504, 0.5394919, 0.4517225
 208836432, 3.908793, -0.03459707, 1.335271, 0.5583335, 0.5417222, 0.4462801, 4.448382, -0.4514679, 1.51246, 0.5839347, 0.5395411, 0.4547209
 208936392, 4.001991, -0.5214683, 1.385132, 0.56363, 0.5403211, 0.4480101, 3.908793, -0.03459707, 1.335271, 0.5583335, 0.5417222, 0.4462801
 209036352, 4.265771, -0.2580418, 1.491745, 0.5765142, 0.5408926, 0.4523042, 4.001991, -0.5214683, 1.385132, 0.56363, 0.5403211, 0.4480101
 209136312, 4.442368, 0.02577409, 1.53581, 0.5852242, 0.542256, 0.4551183, 4.265771, -0.2580418, 1.491745, 0.5765142, 0.5408926, 0.4523042
 209236272, 4.525556, -0.5710772, 1.55069, 0.5902281, 0.5403323, 0.4567837, 4.442368, 0.02577409, 1.53581, 0.5852242, 0.542256, 0.4551183
 209336232, 3.922069, -0.1770415, 1.344338, 0.5612489, 0.5420784, 0.4473166, 4.525556, -0.5710772, 1.55069, 0.5902281, 0.5403323, 0.4567837
 209436192, 4.28846, -0.215419, 1.455868, 0.5784842, 0.5416675, 0.4529569, 3.922069, -0.1770415, 1.344338, 0.5612489, 0.5420784, 0.4473166
 209536152, 3.918238, 0.06750976, 1.366684, 0.5618879, 0.5437532, 0.4475855, 4.28846, -0.215419, 1.455868, 0.5784842, 0.5416675, 0.4529569
 209636112, 4.076291, -0.2081471, 1.44322, 0.5700628, 0.5425428, 0.4504161, 3.918238, 0.06750976, 1.366684, 0.5618879, 0.5437532, 0.4475855
 209736072, 5.009351, -0.2372809, 1.736426, 0.6177564, 0.5416386, 0.4663424, 4.076291, -0.2081471, 1.44322, 0.5700628, 0.5425428, 0.4504161
 209836032, 4.509681, -0.5133966, 1.555078, 0.5912614, 0.5418302, 0.4581106, 5.009351, -0.2372809, 1.736426, 0.6177564, 0.5416386, 0.4663424
 209935992, 3.948298, -0.5089182, 1.355761, 0.5643195, 0.5426984, 0.4496334, 4.509681, -0.5133966, 1.555078, 0.5912614, 0.5418302, 0.4581106
 210035952, 4.154231, -0.4132718, 1.456859, 0.5742726, 0.5429692, 0.4532315, 3.948298, -0.5089182, 1.355761, 0.5643195, 0.5426984, 0.4496334
 210135912, 4.424809, -0.6384264, 1.571255, 0.5883131, 0.5428571, 0.4580289, 4.154231, -0.4132718, 1.456859, 0.5742726, 0.5429692, 0.4532315
 210235872, 4.352192, -0.3285053, 1.53111, 0.5846966, 0.5437708, 0.4566171, 4.424809, -0.6384264, 1.571255, 0.5883131, 0.5428571, 0.4580289
 210335832, 4.650073, -0.425313, 1.614114, 0.6001846, 0.5434479, 0.4613557, 4.352192, -0.3285053, 1.53111, 0.5846966, 0.5437708, 0.4566171
 210435792, 3.909994, -0.6846749, 1.357792, 0.565204, 0.5443851, 0.4496107, 4.650073, -0.425313, 1.614114, 0.6001846, 0.5434479, 0.4613557
 210535752, 4.821418, -0.3173476, 1.648304, 0.6095575, 0.5438647, 0.4641795, 3.909994, -0.6846749, 1.357792, 0.565204, 0.5443851, 0.4496107
 210635712, 4.18172, 0.08413659, 1.429541, 0.5772102, 0.5466166, 0.4536617, 4.821418, -0.3173476, 1.648304, 0.6095575, 0.5438647, 0.4641795
 210735672, 4.936191, -0.4849938, 1.744304, 0.617748, 0.5435913, 0.467099, 4.18172, 0.08413659, 1.429541, 0.5772102, 0.5466166, 0.4536617
 210836465, 4.777133, -0.6974216, 1.675974, 0.6095933, 0.5439953, 0.4645324, 4.936191, -0.4849938, 1.744304, 0.617748, 0.5435913, 0.467099
 210936425, 3.975716, -0.1756162, 1.397639, 0.5700169, 0.54634, 0.4514675, 4.777133, -0.6974216, 1.675974, 0.6095933, 0.5439953, 0.4645324
 211036385, 5.011522, 0.2471618, 1.727813, 0.6214069, 0.5480275, 0.4685196, 3.975716, -0.1756162, 1.397639, 0.5700169, 0.54634, 0.4514675
 211136345, 4.255681, -0.009443941, 1.46813, 0.5830219, 0.5473418, 0.4559201, 5.011522, 0.2471618, 1.727813, 0.6214069, 0.5480275, 0.4685196
 211236305, 4.739755, -0.5699595, 1.640896, 0.6084408, 0.5451425, 0.4642244, 4.255681, -0.009443941, 1.46813, 0.5830219, 0.5473418, 0.4559201
 211336265, 4.126974, -0.3234534, 1.434606, 0.5782667, 0.5467228, 0.4541388, 4.739755, -0.5699595, 1.640896, 0.6084408, 0.5451425, 0.4642244
 211436225, 4.468765, 0.09090595, 1.564575, 0.5948864, 0.5487034, 0.4595104, 4.126974, -0.3234534, 1.434606, 0.5782667, 0.5467228, 0.4541388
 211536185, 3.978584, -0.1282071, 1.389684, 0.572275, 0.5482817, 0.4520481, 4.468765, 0.09090595, 1.564575, 0.5948864, 0.5487034, 0.4595104
 211636145, 4.7464, 0.2167163, 1.632294, 0.6091896, 0.5498084, 0.4642674, 3.978584, -0.1282071, 1.389684, 0.572275, 0.5482817, 0.4520481
 211736105, 4.03114, -0.6367395, 1.387398, 0.5754657, 0.5474029, 0.4532822, 4.7464, 0.2167163, 1.632294, 0.6091896, 0.5498084, 0.4642674
 211836065, 4.476047, -0.7083178, 1.558109, 0.5972279, 0.5470634, 0.460694, 4.03114, -0.6367395, 1.387398, 0.5754657, 0.5474029, 0.4532822
 211936025, 3.990795, -0.307227, 1.416732, 0.5744529, 0.5485922, 0.4534065, 4.476047, -0.7083178, 1.558109, 0.5972279, 0.5470634, 0.460694
 212035985, 3.878141, 0.2008248, 1.366715, 0.5691504, 0.5517431, 0.4518214, 3.990795, -0.307227, 1.416732, 0.5744529, 0.5485922, 0.4534065
 212135945, 4.537701, -0.3823228, 1.57187, 0.6007628, 0.548139, 0.4623259, 3.878141, 0.2008248, 1.366715, 0.5691504, 0.5517431, 0.4518214
 212235905, 4.431457, 0.1427027, 1.527551, 0.5949932, 0.5510902, 0.4605256, 4.537701, -0.3823228, 1.57187, 0.6007628, 0.548139, 0.4623259
 212335865, 4.411277, 0.08748067, 1.51261, 0.5941508, 0.5508953, 0.4603561, 4.431457, 0.1427027, 1.527551, 0.5949932, 0.5510902, 0.4605256
 212435825, 4.587112, -0.3198955, 1.63727, 0.6047921, 0.5490781, 0.4639803, 4.411277, 0.08748067, 1.51261, 0.5941508, 0.5508953, 0.4603561
 212535785, 4.617333, -0.7590368, 1.630573, 0.6070216, 0.548903, 0.4648634, 4.587112, -0.3198955, 1.63727, 0.6047921, 0.5490781, 0.4639803
 212635745, 4.7889, -0.207687, 1.674453, 0.6152344, 0.549943, 0.4677753, 4.617333, -0.7590368, 1.630573, 0.6070216, 0.548903, 0.4648634
 212735705, 4.58842, -0.7208903, 1.595843, 0.6056377, 0.5495275, 0.4647881, 4.7889, -0.207687, 1.674453, 0.6152344, 0.549943, 0.4677753
 212835665, 4.789581, -0.174302, 1.638785, 0.6150021, 0.5505173, 0.4681306, 4.58842, -0.7208903, 1.595843, 0.6056377, 0.5495275, 0.4647881
 212936458, 4.628335, -0.5539713, 1.651938, 0.6086035, 0.5501182, 0.4661635, 4.789581, -0.174302, 1.638785, 0.6150021, 0.5505173, 0.4681306
 213036418, 4.956415, -0.4296579, 1.744013, 0.6258321, 0.5502326, 0.4718847, 4.628335, -0.5539713, 1.651938, 0.6086035, 0.5501182, 0.4661635
 213136378, 4.040359, 0.3154549, 1.425665, 0.5800653, 0.555969, 0.4563854, 4.956415, -0.4296579, 1.744013, 0.6258321, 0.5502326, 0.4718847
 213236338, 4.616486, 0.1262249, 1.602151, 0.6079392, 0.5540824, 0.465276, 4.040359, 0.3154549, 1.425665, 0.5800653, 0.555969, 0.4563854
 213336298, 4.222924, -0.6801953, 1.46641, 0.5902725, 0.5520602, 0.459104, 4.616486, 0.1262249, 1.602151, 0.6079392, 0.5540824, 0.465276
 213436258, 4.935781, 0.1149827, 1.698241, 0.6253614, 0.5541706, 0.4703721, 4.222924, -0.6801953, 1.46641, 0.5902725, 0.5520602, 0.459104
 213536218, 3.923257, -0.573977, 1.352204, 0.5773773, 0.5530552, 0.4542386, 4.935781, 0.1149827, 1.698241, 0.6253614, 0.5541706, 0.4703721
 213636178, 3.906089, 0.06652699, 1.413072, 0.5773295, 0.5559257, 0.4542031, 3.923257, -0.573977, 1.352204, 0.5773773, 0.5530552, 0.4542386
 213736138, 4.1529, -0.3495136, 1.462531, 0.5887222, 0.5540161, 0.4580723, 3.906089, 0.06652699, 1.413072, 0.5773295, 0.5559257, 0.4542031
 213836098, 3.996766, 0.2160776, 1.399967, 0.5812269, 0.557487, 0.4558356, 4.1529, -0.3495136, 1.462531, 0.5887222, 0.5540161, 0.4580723
 213936058, 3.905102, 0.069796, 1.359577, 0.5774993, 0.5567184, 0.4548358, 3.996766, 0.2160776, 1.399967, 0.5812269, 0.557487, 0.4558356
 214036018, 3.840425, -0.1828377, 1.367743, 0.5757281, 0.5557032, 0.4545276, 3.905102, 0.069796, 1.359577, 0.5774993, 0.5567184, 0.4548358
 214135978, 4.665983, -0.2302758, 1.66406, 0.6150217, 0.5547686, 0.4678146, 3.840425, -0.1828377, 1.367743, 0.5757281, 0.5557032, 0.4545276
 214235938, 3.820466, 0.1928203, 1.369356, 0.5753845, 0.5586944, 0.454971, 4.665983, -0.2302758, 1.66406, 0.6150217, 0.5547686, 0.4678146
 214335898, 3.838139, -0.8128777, 1.360348, 0.5773978, 0.5557712, 0.4558852, 3.820466, 0.1928203, 1.369356, 0.5753845, 0.5586944, 0.454971
 214435858, 3.905042, 0.04731943, 1.37263, 0.5793849, 0.5580667, 0.4567944, 3.838139, -0.8128777, 1.360348, 0.5773978, 0.5557712, 0.4558852
 214535818, 4.7658, -0.3919272, 1.671977, 0.6210827, 0.5551532, 0.47088, 3.905042, 0.04731943, 1.37263, 0.5793849, 0.5580667, 0.4567944
 214635778, 4.153411, -0.654955, 1.492128, 0.5924154, 0.5560911, 0.4615814, 4.7658, -0.3919272, 1.671977, 0.6210827, 0.5551532, 0.47088
 214735738, 4.024579, -0.1076208, 1.435608, 0.5861198, 0.5580319, 0.4597025, 4.153411, -0.654955, 1.492128, 0.5924154, 0.5560911, 0.4615814
 214835698, 4.775437, -0.3881783, 1.672529, 0.6225253, 0.556147, 0.4719375, 4.024579, -0.1076208, 1.435608, 0.5861198, 0.5580319, 0.4597025
 214935658, 4.757334, -0.6455465, 1.654422, 0.6222293, 0.5560787, 0.4715708, 4.775437, -0.3881783, 1.672529, 0.6225253, 0.556147, 0.4719375
 215036451, 4.868854, -0.586252, 1.681583, 0.6281962, 0.5561941, 0.4732764, 4.757334, -0.6455465, 1.654422, 0.6222293, 0.5560787, 0.4715708
 215136411, 4.005081, -0.2736683, 1.385104, 0.5865372, 0.5584343, 0.4591194, 4.868854, -0.586252, 1.681583, 0.6281962, 0.5561941, 0.4732764
 215236371, 4.336078, 0.2150875, 1.523861, 0.6017597, 0.5611016, 0.4641279, 4.005081, -0.2736683, 1.385104, 0.5865372, 0.5584343, 0.4591194
 215336331, 4.599354, 0.01685318, 1.638524, 0.6155937, 0.5596725, 0.4687622, 4.336078, 0.2150875, 1.523861, 0.6017597, 0.5611016, 0.4641279
 215436291, 4.431065, -0.2292306, 1.566454, 0.607951, 0.5589212, 0.4662046, 4.599354, 0.01685318, 1.638524, 0.6155937, 0.5596725, 0.4687622
 215536251, 4.287007, 0.2772222, 1.504273, 0.6008407, 0.5626009, 0.4636508, 4.431065, -0.2292306, 1.566454, 0.607951, 0.5589212, 0.4662046
 215636211, 4.152739, 0.1957642, 1.44762, 0.5950223, 0.5623458, 0.4616497, 4.287007, 0.2772222, 1.504273, 0.6008407, 0.5626009, 0.4636508
 215736171, 4.565273, -0.2313316, 1.573685, 0.6151258, 0.5593808, 0.4682863, 4.152739, 0.1957642, 1.44762, 0.5950223, 0.5623458, 0.4616497
 215836131, 4.815015, -0.005015793, 1.648059, 0.6275344, 0.5602789, 0.4723808, 4.565273, -0.2313316, 1.573685, 0.6151258, 0.5593808, 0.4682863
 215936091, 3.924414, -0.3593268, 1.383076, 0.5868778, 0.5602035, 0.4589526, 4.815015, -0.005015793, 1.648059, 0.6275344, 0.5602789, 0.4723808
 216036051, 4.315067, -0.03974479, 1.502045, 0.6040659, 0.5612176, 0.4648041, 3.924414, -0.3593268, 1.383076, 0.5868778, 0.5602035, 0.4589526
 216136011, 4.533638, -0.7992939, 1.598358, 0.6163808, 0.5592984, 0.4688926, 4.315067, -0.03974479, 1.502045, 0.6040659, 0.5612176, 0.4648041
 216235971, 5.072186, -0.1703438, 1.764539, 0.6433197, 0.5599331, 0.4777966, 4.533638, -0.7992939, 1.598358, 0.6163808, 0.5592984, 0.4688926
 216335931, 4.488255, -0.1956838, 1.558992, 0.6137125, 0.5610034, 0.467935, 5.072186, -0.1703438, 1.764539, 0.6433197, 0.5599331, 0.4777966
 216435891, 4.908659, -0.1039149, 1.688936, 0.6348292, 0.5609652, 0.474976, 4.488255, -0.1956838, 1.558992, 0.6137125, 0.5610034, 0.467935
 216535851, 4.043453, -0.7757849, 1.392078, 0.5944675, 0.5609752, 0.4614402, 4.908659, -0.1039149, 1.688936, 0.6348292, 0.5609652, 0.474976
 216635811, 4.21778, -0.237714, 1.502263, 0.6028101, 0.5619597, 0.4640166, 4.043453, -0.7757849, 1.392078, 0.5944675, 0.5609752, 0.4614402
 216735771, 4.919334, 0.1120137, 1.719644, 0.6369584, 0.563149, 0.4751327, 4.21778, -0.237714, 1.502263, 0.6028101, 0.5619597, 0.4640166
 216835731, 4.501896, -0.6566016, 1.566513, 0.6174501, 0.5610453, 0.4684605, 4.919334, 0.1120137, 1.719644, 0.6369584, 0.563149, 0.4751327
 216935691, 4.079589, -0.3170618, 1.415241, 0.5978186, 0.5625002, 0.4618052, 4.501896, -0.6566016, 1.566513, 0.6174501, 0.5610453, 0.4684605
 217036484, 4.770291, -0.810693, 1.634014, 0.6315316, 0.5607874, 0.4729774, 4.079589, -0.3170618, 1.415241, 0.5978186, 0.5625002, 0.4618052
 217136444, 4.882653, -0.7971739, 1.663175, 0.6374429, 0.5606702, 0.474923, 4.770291, -0.810693, 1.634014, 0.6315316, 0.5607874, 0.4729774
 217236404, 4.009213, -0.17952, 1.442414, 0.5963709, 0.5638115, 0.4613429, 4.882653, -0.7971739, 1.663175, 0.6374429, 0.5606702, 0.474923
 217336364, 4.765223, -0.1451907, 1.676824, 0.6320338, 0.5631804, 0.4731797, 4.009213, -0.17952, 1.442414, 0.5963709, 0.5638115, 0.4613429
 217436324, 4.190744, -0.2087677, 1.473247, 0.604847, 0.5641224, 0.4642421, 4.765223, -0.1451907, 1.676824, 0.6320338, 0.5631804, 0.4731797
 217536284, 4.697688, -0.7549751, 1.628409, 0.6299599, 0.5623873, 0.4725258, 4.190744, -0.2087677, 1.473247, 0.604847, 0.5641224, 0.4642421
 217636244, 4.52023, 0.1558855, 1.590853, 0.620616, 0.5663812, 0.4694168, 4.697688, -0.7549751, 1.628409, 0.6299599, 0.5623873, 0.4725258
 217736204, 4.38321, -0.4415804, 1.559394, 0.6157463, 0.563983, 0.467712, 4.52023, 0.1558855, 1.590853, 0.620616, 0.5663812, 0.4694168
 217836164, 4.017258, -0.1791478, 1.423054, 0.5991588, 0.5658029, 0.4622355, 4.38321, -0.4415804, 1.559394, 0.6157463, 0.563983, 0.467712
 217936124, 4.007148, -0.5049296, 1.421017, 0.5996079, 0.5651579, 0.4624315, 4.017258, -0.1791478, 1.423054, 0.5991588, 0.5658029, 0.4622355
 218036084, 3.91747, -0.2627032, 1.364343, 0.5953436, 0.5662233, 0.4611757, 4.007148, -0.5049296, 1.421017, 0.5996079, 0.5651579, 0.4624315
 218136044, 4.754669, -0.439506, 1.632741, 0.6343004, 0.5644757, 0.4742331, 3.91747, -0.2627032, 1.364343, 0.5953436, 0.5662233, 0.4611757
 218236004, 4.156987, -0.8724622, 1.500674, 0.6080284, 0.5657736, 0.4656661, 4.754669, -0.439506, 1.632741, 0.6343004, 0.5644757, 0.4742331
 218335964, 4.127499, -0.6204563, 1.474399, 0.6065196, 0.5661615, 0.4652956, 4.156987, -0.8724622, 1.500674, 0.6080284, 0.5657736, 0.4656661
 218435924, 4.09737, -0.5367072, 1.450426, 0.6052139, 0.5666504, 0.4650341, 4.127499, -0.6204563, 1.474399, 0.6065196, 0.5661615, 0.4652956
 218535884, 4.569584, -0.350966, 1.595951, 0.6267653, 0.5665777, 0.4724184, 4.09737, -0.5367072, 1.450426, 0.6052139, 0.5666504, 0.4650341
 218635844, 4.90626, -0.8936484, 1.728549, 0.6451527, 0.5657811, 0.4787426, 4.569584, -0.350966, 1.595951, 0.6267653, 0.5665777, 0.4724184
 218735804, 4.257389, -0.2340683, 1.529891, 0.613167, 0.5684025, 0.4683071, 4.90626, -0.8936484, 1.728549, 0.6451527, 0.5657811, 0.4787426
 218835764, 4.273713, -0.86705, 1.519894, 0.6150674, 0.5679004, 0.4689498, 4.257389, -0.2340683, 1.529891, 0.613167, 0.5684025, 0.4683071
 218935724, 4.882523, 0.1050622, 1.709712, 0.6432403, 0.5701847, 0.4780173, 4.273713, -0.86705, 1.519894, 0.6150674, 0.5679004, 0.4689498
 219035684, 4.099267, -0.4119923, 1.436839, 0.6072375, 0.5692767, 0.4657049, 4.882523, 0.1050622, 1.709712, 0.6432403, 0.5701847, 0.4780173
 219136477, 4.319965, 0.02550693, 1.500016, 0.6167192, 0.5711976, 0.4686024, 4.099267, -0.4119923, 1.436839, 0.6072375, 0.5692767, 0.4657049
 219236437, 4.287344, -0.7991014, 1.515592, 0.6174124, 0.5691928, 0.4685629, 4.319965, 0.02550693, 1.500016, 0.6167192, 0.5711976, 0.4686024
 219336397, 4.108995, 0.1869625, 1.479543, 0.6090298, 0.5733643, 0.4655875, 4.287344, -0.7991014, 1.515592, 0.6174124, 0.5691928, 0.4685629
 219436357, 4.539151, -0.404003, 1.604352, 0.6298614, 0.5697907, 0.4724094, 4.108995, 0.1869625, 1.479543, 0.6090298, 0.5733643, 0.4655875
 219536317, 4.62364, 0.2304945, 1.631643, 0.6334974, 0.573488, 0.4735419, 4.539151, -0.404003, 1.604352, 0.6298614, 0.5697907, 0.4724094
 219636277, 5.052975, -0.7171749, 1.757943, 0.6570035, 0.5687636, 0.4813344, 4.62364, 0.2304945, 1.631643, 0.6334974, 0.573488, 0.4735419
 219736237, 3.979605, 0.2540115, 1.391551, 0.6047715, 0.5750568, 0.4642531, 5.052975, -0.7171749, 1.757943, 0.6570035, 0.5687636, 0.4813344
 219836197, 4.90905, -0.7929255, 1.689521, 0.6497, 0.5694333, 0.479507, 3.979605, 0.2540115, 1.391551, 0.6047715, 0.5750568, 0.4642531
 219936157, 4.860236, 0.1090909, 1.726567, 0.6467409, 0.5731162, 0.4788971, 4.90905, -0.7929255, 1.689521, 0.6497, 0.5694333, 0.479507
 220036117, 3.837967, -0.2516995, 1.371757, 0.6007013, 0.5731177, 0.4638036, 4.860236, 0.1090909, 1.726567, 0.6467409, 0.5731162, 0.4788971
 220136077, 4.615267, 0.1071843, 1.61633, 0.6350091, 0.5742165, 0.475067, 3.837967, -0.2516995, 1.371757, 0.6007013, 0.5731177, 0.4638036
 220236037, 4.669954, -0.3486447, 1.621659, 0.638706, 0.5719453, 0.4759898, 4.615267, 0.1071843, 1.61633, 0.6350091, 0.5742165, 0.475067
 220335997, 4.796272, 0.06714206, 1.652852, 0.6445594, 0.5740586, 0.4776861, 4.669954, -0.3486447, 1.621659, 0.638706, 0.5719453, 0.4759898
 220435957, 4.300345, -0.4452281, 1.517033, 0.6227953, 0.5727239, 0.4704112, 4.796272, 0.06714206, 1.652852, 0.6445594, 0.5740586, 0.4776861
 220535917, 4.109265, -0.1530566, 1.476214, 0.6147575, 0.5744733, 0.4678065, 4.300345, -0.4452281, 1.517033, 0.6227953, 0.5727239, 0.4704112
 220635877, 4.488974, -0.4129008, 1.585513, 0.6325084, 0.5731361, 0.4737474, 4.109265, -0.1530566, 1.476214, 0.6147575, 0.5744733, 0.4678065
 220735837, 4.391852, -0.8218806, 1.538268, 0.628912, 0.5731534, 0.4725654, 4.488974, -0.4129008, 1.585513, 0.6325084, 0.5731361, 0.4737474
 220835797, 4.44319, 0.047593, 1.544571, 0.6300571, 0.5759777, 0.4729308, 4.391852, -0.8218806, 1.538268, 0.628912, 0.5731534, 0.4725654
 220935757, 3.823341, -0.6375471, 1.356384, 0.6048919, 0.5748045, 0.4645756, 4.44319, 0.047593, 1.544571, 0.6300571, 0.5759777, 0.4729308
 221035717, 4.962765, -0.3561705, 1.752291, 0.657445, 0.5736991, 0.4820002, 3.823341, -0.6375471, 1.356384, 0.6048919, 0.5748045, 0.4645756
 221135677, 4.353969, 0.03715171, 1.536074, 0.6275855, 0.5771959, 0.4721356, 4.962765, -0.3561705, 1.752291, 0.657445, 0.5736991, 0.4820002
 221236470, 4.492519, -0.3605689, 1.568467, 0.6347552, 0.5752875, 0.4745187, 4.353969, 0.03715171, 1.536074, 0.6275855, 0.5771959, 0.4721356
 221336430, 4.096766, 0.123458, 1.427241, 0.616529, 0.5787849, 0.4684948, 4.492519, -0.3605689, 1.568467, 0.6347552, 0.5752875, 0.4745187
 221436390, 4.598242, -0.3929034, 1.622974, 0.6407125, 0.5756098, 0.4766879, 4.096766, 0.123458, 1.427241, 0.616529, 0.5787849, 0.4684948
 221536350, 4.07372, 0.2022991, 1.464877, 0.6167728, 0.5802202, 0.4689333, 4.598242, -0.3929034, 1.622974, 0.6407125, 0.5756098, 0.4766879
 221636310, 4.487092, -0.3429129, 1.579564, 0.6360217, 0.5767612, 0.4754455, 4.07372, 0.2022991, 1.464877, 0.6167728, 0.5802202, 0.4689333
 221736270, 4.366603, 0.06502716, 1.52763, 0.6300309, 0.5793622, 0.4735098, 4.487092, -0.3429129, 1.579564, 0.6360217, 0.5767612, 0.4754455
 221836230, 4.55795, 0.1322174, 1.580188, 0.6389267, 0.5797482, 0.4764343, 4.366603, 0.06502716, 1.52763, 0.6300309, 0.5793622, 0.4735098
 221936190, 3.856348, -0.5916, 1.336774, 0.6095708, 0.5779594, 0.4667073, 4.55795, 0.1322174, 1.580188, 0.6389267, 0.5797482, 0.4764343
 222036150, 4.980308, -0.9265877, 1.776521, 0.6631883, 0.5761248, 0.4846467, 3.856348, -0.5916, 1.336774, 0.6095708, 0.5779594, 0.4667073
 222136110, 3.851758, -0.413644, 1.385551, 0.6106955, 0.5790885, 0.4673562, 4.980308, -0.9265877, 1.776521, 0.6631883, 0.5761248, 0.4846467
 222236070, 4.625689, -0.4117281, 1.628941, 0.6449711, 0.5779836, 0.4788926, 3.851758, -0.413644, 1.385551, 0.6106955, 0.5790885, 0.4673562
 222336030, 4.4478, -0.3660633, 1.557191, 0.6367747, 0.5787002, 0.4762136, 4.625689, -0.4117281, 1.628941, 0.6449711, 0.5779836, 0.4788926
 222435990, 3.818016, -0.4116844, 1.336653, 0.6100736, 0.5798887, 0.4672769, 4.4478, -0.3660633, 1.557191, 0.6367747, 0.5787002, 0.4762136
 222535950, 3.978953, -0.02292607, 1.419424, 0.6169442, 0.5816644, 0.4694426, 3.818016, -0.4116844, 1.336653, 0.6100736, 0.5798887, 0.4672769
 222635910, 4.477306, 0.03923808, 1.60794, 0.6394494, 0.5816877, 0.4769432, 3.978953, -0.02292607, 1.419424, 0.6169442, 0.5816644, 0.4694426
 222735870, 4.909827, -0.04976669, 1.735729, 0.6605858, 0.5807071, 0.4840087, 4.477306, 0.03923808, 1.60794, 0.6394494, 0.5816877, 0.4769432
 222835830, 4.999635, -0.6111183, 1.752049, 0.6662939, 0.5787202, 0.486016, 4.909827, -0.04976669, 1.735729, 0.6605858, 0.5807071, 0.4840087
 222935790, 4.026361, -0.8701081, 1.41592, 0.6216475, 0.5809679, 0.4712715, 4.999635, -0.6111183, 1.752049, 0.6662939, 0.5787202, 0.486016
 223035750, 4.659447, -0.9892346, 1.609124, 0.6502815, 0.579988, 0.4809278, 4.026361, -0.8701081, 1.41592, 0.6216475, 0.5809679, 0.4712715
 223135710, 4.802341, -0.1166869, 1.715848, 0.6569657, 0.5817434, 0.4830804, 4.659447, -0.9892346, 1.609124, 0.6502815, 0.579988, 0.4809278
 223235670, 3.849843, 0.01736003, 1.38028, 0.6148545, 0.5845357, 0.468753, 4.802341, -0.1166869, 1.715848, 0.6569657, 0.5817434, 0.4830804
 223336463, 3.982069, -0.2481153, 1.422666, 0.6212894, 0.5832332, 0.470613, 3.849843, 0.01736003, 1.38028, 0.6148545, 0.5845357, 0.468753
 223436423, 4.716739, -0.01458662, 1.651587, 0.6540143, 0.5834482, 0.4812688, 3.982069, -0.2481153, 1.422666, 0.6212894, 0.5832332, 0.470613
 223536383, 4.091332, -0.235852, 1.430528, 0.6265072, 0.5836519, 0.4719699, 4.716739, -0.01458662, 1.651587, 0.6540143, 0.5834482, 0.4812688
 223636343, 4.486257, -0.9341288, 1.549982, 0.6453158, 0.5820317, 0.4782275, 4.091332, -0.235852, 1.430528, 0.6265072, 0.5836519, 0.4719699
 223736303, 4.412601, -0.1391432, 1.517702, 0.6406941, 0.5838938, 0.4767229, 4.486257, -0.9341288, 1.549982, 0.6453158, 0.5820317, 0.4782275
 223836263, 4.388759, 0.1183323, 1.576346, 0.6406428, 0.5859981, 0.4767331, 4.412601, -0.1391432, 1.517702, 0.6406941, 0.5838938, 0.4767229
 223936223, 4.077177, -0.7858895, 1.454466, 0.6288529, 0.5837308, 0.4728361, 4.388759, 0.1183323, 1.576346, 0.6406428, 0.5859981, 0.4767331
 224036183, 4.899283, 0.07148399, 1.714099, 0.6651851, 0.5854405, 0.4849404, 4.077177, -0.7858895, 1.454466, 0.6288529, 0.5837308, 0.4728361
 224136143, 4.830091, 0.0806154, 1.678956, 0.6619278, 0.5859455, 0.4838677, 4.899283, 0.07148399, 1.714099, 0.6651851, 0.5854405, 0.4849404
 224236103, 4.487081, -0.3409634, 1.547604, 0.6464503, 0.5845777, 0.4787902, 4.830091, 0.0806154, 1.678956, 0.6619278, 0.5859455, 0.4838677
 224336063, 5.057768, -0.0003659723, 1.724104, 0.6732791, 0.5853457, 0.4878207, 4.487081, -0.3409634, 1.547604, 0.6464503, 0.5845777, 0.4787902
 224436023, 3.946699, -0.5137185, 1.349814, 0.6234922, 0.5854079, 0.4713848, 5.057768, -0.0003659723, 1.724104, 0.6732791, 0.5853457, 0.4878207
