TimeUS,COFN,COFE,COFD,CNe,CEe,CDe,POFN,POFE,POFD,PNe,PEe,PDe
 183430765, 0.008548487, 0.001546014, -9.160144E-06, 0.01158966, 0.008353874, 0.1000007, 0.0001941116, -0.006486468, -1.357012E-05, 0.01108385, 0.007897247, 0.1000005
 183630685, -0.005190325, 0.006359311, 2.036171E-05, 0.01077905, 0.008644899, 0.1000023, 0.008548487, 0.001546014, -9.160144E-06, 0.01158966, 0.008353874, 0.1000007
 183831438, -0.00256901, 0.003440815, 1.064334E-05, 0.01092295, 0.008469386, 0.1000018, -0.005190325, 0.006359311, 2.036171E-05, 0.01077905, 0.008644899, 0.1000023
 184031358, 0.003914674, -0.00514653, -1.600047E-05, 0.01130481, 0.007971392, 0.1000003, -0.00256901, 0.003440815, 1.064334E-05, 0.01092295, 0.008469386, 0.1000018
 184231278, 0.00383946, -0.007110821, -1.978321E-05, 0.01130102, 0.007863846, 0.1000001, 0.003914674, -0.00514653, -1.600047E-05, 0.01130481, 0.007971392, 0.1000003
 184431198, 0.007219271, -0.008863037, -2.808684E-05, 0.0115129, 0.007765899, 0.09999954, 0.00383946, -0.007110821, -1.978321E-05, 0.01130102, 0.007863846, 0.1000001
 184631118, -0.007493135, 0.003044073, 1.681296E-05, 0.01065025, 0.008443695, 0.1000021, 0.007219271, -0.008863037, -2.808684E-05, 0.0115129, 0.007765899, 0.09999954
 184831038, 0.008680067, -0.001035606, -1.450724E-05, 0.01159887, 0.008203784, 0.1000002, -0.007493135, 0.003044073, 1.681296E-05, 0.01065025, 0.008443695, 0.1000021
 185030958, 0.00715269, -0.002838202, -1.599226E-05, 0.01150438, 0.008100491, 0.1000001, 0.008680067, -0.001035606, -1.450724E-05, 0.01159887, 0.008203784, 0.1000002
 185230878, 0.004191488, -0.001832346, -9.70328E-06, 0.01132056, 0.008160233, 0.1000004, 0.00715269, -0.002838202, -1.599226E-05, 0.01150438, 0.008100491, 0.1000001
 185430798, 0.0011003, -0.001028388, -3.643017E-06, 0.01113432, 0.008207111, 0.1000009, 0.004191488, -0.001832346, -9.70328E-06, 0.01132056, 0.008160233, 0.1000004
 185630718, 0.005338374, 0.004805809, 2.006252E-06, 0.01138895, 0.008555125, 0.1000012, 0.0011003, -0.001028388, -3.643017E-06, 0.01113432, 0.008207111, 0.1000009
 185831471, 0.002482652, 0.005092557, 6.689613E-06, 0.01121705, 0.008571952, 0.1000015, 0.005338374, 0.004805809, 2.006252E-06, 0.01138895, 0.008555125, 0.1000012
 186031391, 0.00623784, -0.0006092144, -1.022369E-05, 0.01144619, 0.008228719, 0.1000005, 0.002482652, 0.005092557, 6.689613E-06, 0.01121705, 0.008571952, 0.1000015
 186231311, -0.007017005, -0.004873602, 2.913002E-07, 0.01067456, 0.007989694, 0.1000011, 0.00623784, -0.0006092144, -1.022369E-05, 0.01144619, 0.008228719, 0.1000005
 186431231, 0.007647398, 0.003709567, -3.556099E-06, 0.01153296, 0.00848688, 0.1000008, -0.007017005, -0.004873602, 2.913002E-07, 0.01067456, 0.007989694, 0.1000011
 186631151, 0.001487826, -0.006357522, -1.500784E-05, 0.01116073, 0.007905691, 0.1000002, 0.007647398, 0.003709567, -3.556099E-06, 0.01153296, 0.00848688, 0.1000008
 186831071, -0.005519731, -0.007788777, -7.763931E-06, 0.01075836, 0.007831061, 0.1000006, 0.001487826, -0.006357522, -1.500784E-05, 0.01116073, 0.007905691, 0.1000002
 187030991, -0.004455129, -0.001002737, 4.452169E-06, 0.01081754, 0.008206104, 0.1000013, -0.005519731, -0.007788777, -7.763931E-06, 0.01075836, 0.007831061, 0.1000006
 187230911, -0.0009321565, -0.00196918, -2.6526E-06, 0.01101727, 0.008150828, 0.1000009, -0.004455129, -0.001002737, 4.452169E-06, 0.01081754, 0.008206104, 0.1000013
 187430831, -0.0003741139, -0.004553224, -8.711579E-06, 0.01104955, 0.008005304, 0.1000007, -0.0009321565, -0.00196918, -2.6526E-06, 0.01101727, 0.008150828, 0.1000009
 187630751, -0.003431652, -0.005308455, -5.918108E-06, 0.01087273, 0.007963493, 0.100001, -0.0003741139, -0.004553224, -8.711579E-06, 0.01104955, 0.008005304, 0.1000007
 187830671, -0.004720256, 0.0054167, 1.785946E-05, 0.01080299, 0.008584612, 0.1000025, -0.003431652, -0.005308455, -5.918108E-06, 0.01087273, 0.007963493, 0.100001
 188031424, -0.0003469912, -0.003769548, -7.272715E-06, 0.01104939, 0.008046288, 0.1000011, -0.004720256, 0.0054167, 1.785946E-05, 0.01080299, 0.008584612, 0.1000025
 188231344, 0.006487981, -0.003416409, -1.639474E-05, 0.01146272, 0.008061946, 0.1000006, -0.0003469912, -0.003769548, -7.272715E-06, 0.01104939, 0.008046288, 0.1000011
 188431264, -0.001735961, 0.004861501, 1.25377E-05, 0.01097067, 0.008551192, 0.1000023, 0.006487981, -0.003416409, -1.639474E-05, 0.01146272, 0.008061946, 0.1000006
 188631184, -0.006652658, -0.004045821, 1.201111E-06, 0.01069316, 0.008031724, 0.1000016, -0.001735961, 0.004861501, 1.25377E-05, 0.01097067, 0.008551192, 0.1000023
 188831104, -0.00320317, 0.004587573, 1.400047E-05, 0.01088752, 0.008535046, 0.1000023, -0.006652658, -0.004045821, 1.201111E-06, 0.01069316, 0.008031724, 0.1000016
 189031024, 0.006865843, 0.0001214935, -9.547313E-06, 0.01148348, 0.008269258, 0.1000009, -0.00320317, 0.004587573, 1.400047E-05, 0.01088752, 0.008535046, 0.1000023
 189230944, 0.004424784, 0.007713603, 9.394917E-06, 0.01133245, 0.008734411, 0.100002, 0.006865843, 0.0001214935, -9.547313E-06, 0.01148348, 0.008269258, 0.1000009
 189430864, 0.002817027, 0.008596092, 1.341749E-05, 0.01123569, 0.0087905, 0.1000023, 0.004424784, 0.007713603, 9.394917E-06, 0.01133245, 0.008734411, 0.100002
 189630784, -0.003368254, 0.005290962, 1.540169E-05, 0.01087576, 0.008580834, 0.1000024, 0.002817027, 0.008596092, 1.341749E-05, 0.01123569, 0.0087905, 0.1000023
 189830704, 0.00887347, 0.000254714, -1.188752E-05, 0.01160716, 0.008278618, 0.1000008, -0.003368254, 0.005290962, 1.540169E-05, 0.01087576, 0.008580834, 0.1000024
 190031457, -0.007943365, 0.001863427, 1.482763E-05, 0.01062224, 0.008372991, 0.1000024, 0.00887347, 0.000254714, -1.188752E-05, 0.01160716, 0.008278618, 0.1000008
 190231377, 0.003977567, -0.004170799, -1.393215E-05, 0.01130473, 0.008026483, 0.1000007, -0.007943365, 0.001863427, 1.482763E-05, 0.01062224, 0.008372991, 0.1000024
 190431297, -0.0002472092, -0.008801658, -1.730411E-05, 0.01105467, 0.00777633, 0.1000005, 0.003977567, -0.004170799, -1.393215E-05, 0.01130473, 0.008026483, 0.1000007
 190631217, 0.00619518, 0.0004056374, -7.81817E-06, 0.01143853, 0.008289488, 0.100001, -0.0002472092, -0.008801658, -1.730411E-05, 0.01105467, 0.00777633, 0.1000005
 190831137, -0.004184071, -0.007590923, -9.401576E-06, 0.01082742, 0.007842832, 0.100001, 0.00619518, 0.0004056374, -7.81817E-06, 0.01143853, 0.008289488, 0.100001
 191031057, -0.0001795961, -0.005674129, 0.07015803, 0.01145543, 0.008276824, 0.100001, -0.004184071, -0.007590923, -9.401576E-06, 0.01082742, 0.007842832, 0.100001
 191230977, -0.003709835, 0.004545559, 0.1169287, 0.01249308, 0.009796861, 0.1000025, -0.0001795961, -0.005674129, 0.07015803, 0.01145543, 0.008276824, 0.100001
 191430897, -0.006718104, 0.005242849, 0.3042761, 0.01480089, 0.01269947, 0.1000067, -0.003709835, 0.004545559, 0.1169287, 0.01249308, 0.009796861, 0.1000025
 191630817, 0.006465991, 0.01769072, 0.652726, 0.0214935, 0.01834561, 0.1000142, -0.006718104, 0.005242849, 0.3042761, 0.01480089, 0.01269947, 0.1000067
 191830737, -0.007293086, 0.03958787, 0.9219419, 0.03151946, 0.02614533, 0.1000272, 0.006465991, 0.01769072, 0.652726, 0.0214935, 0.01834561, 0.1000142
 192030657, 0.04979366, 0.04205051, 1.190471, 0.04603334, 0.0355059, 0.1000229, -0.007293086, 0.03958787, 0.9219419, 0.03151946, 0.02614533, 0.1000272
 192231410, 0.03800501, -0.02514718, 1.424963, 0.06144609, 0.04639138, 0.09999385, 0.04979366, 0.04205051, 1.190471, 0.04603334, 0.0355059, 0.1000229
 192431330, 0.08375127, 0.05135868, 1.627646, 0.07993183, 0.06160589, 0.1000766, 0.03800501, -0.02514718, 1.424963, 0.06144609, 0.04639138, 0.09999385
 192631250, 0.08523636, 0.06185936, 1.811118, 0.09983288, 0.07744218, 0.1001835, 0.08375127, 0.05135868, 1.627646, 0.07993183, 0.06160589, 0.1000766
 192831170, 0.1071596, -0.06860968, 1.978074, 0.1224193, 0.0935875, 0.1001287, 0.08523636, 0.06185936, 1.811118, 0.09983288, 0.07744218, 0.1001835
 193031090, 0.1031613, -0.00612208, 2.072016, 0.1458311, 0.1120958, 0.09995184, 0.1071596, -0.06860968, 1.978074, 0.1224193, 0.0935875, 0.1001287
 193231010, 0.1380538, 0.06315085, 2.193315, 0.1710956, 0.1319665, 0.09988549, 0.1031613, -0.00612208, 2.072016, 0.1458311, 0.1120958, 0.09995184
 193430930, -0.1187138, 0.0132606, 2.296664, 0.1954788, 0.151799, 0.09987587, 0.1380538, 0.06315085, 2.193315, 0.1710956, 0.1319665, 0.09988549
 193630850, -0.1276155, -0.04933939, 2.329921, 0.2221656, 0.1722851, 0.09984591, -0.1187138, 0.0132606, 2.296664, 0.1954788, 0.151799, 0.09987587
 193830770, 0.07357568, 0.1226308, 2.393847, 0.2504594, 0.1943419, 0.09984525, -0.1276155, -0.04933939, 2.329921, 0.2221656, 0.1722851, 0.09984591
 194030690, -0.1191206, 0.09924478, 2.444664, 0.2776255, 0.2154955, 0.09988493, 0.07357568, 0.1226308, 2.393847, 0.2504594, 0.1943419, 0.09984525
 194231443, -0.1013029, -0.1009356, 2.446511, 0.3061675, 0.2370672, 0.2499514, -0.1191206, 0.09924478, 2.444664, 0.2776255, 0.2154955, 0.09988493
 194431363, -0.1997744, 0.0796534, 2.447624, 0.3339868, 0.2597162, 0.2501443, -0.1013029, -0.1009356, 2.446511, 0.3061675, 0.2370672, 0.2499514
 194631283, 0.2136177, -0.0004235879, 2.472064, 0.3654582, 0.2806906, 0.2504728, -0.1997744, 0.0796534, 2.447624, 0.3339868, 0.2597162, 0.2501443
 194831203, 0.3364207, -0.2461259, 2.432873, 0.3953925, 0.3006063, 0.2506835, 0.2136177, -0.0004235879, 2.472064, 0.3654582, 0.2806906, 0.2504728
 195031123, -0.3466273, -0.2436912, 2.393127, 0.4190509, 0.3220364, 0.2505457, 0.3364207, -0.2461259, 2.432873, 0.3953925, 0.3006063, 0.2506835
 195231043, 0.3517804, 0.2040613, 2.341882, 0.4508992, 0.3452048, 0.2500834, -0.3466273, -0.2436912, 2.393127, 0.4190509, 0.3220364, 0.2505457
 195430963, -0.2643186, 0.4406182, 2.24672, 0.4741219, 0.3669012, 0.2495267, 0.3517804, 0.2040613, 2.341882, 0.4508992, 0.3452048, 0.2500834
 195630883, -0.126965, 0.4292567, 2.11273, 0.4998005, 0.3850602, 0.2493564, -0.2643186, 0.4406182, 2.24672, 0.4741219, 0.3669012, 0.2495267
 195830803, 0.457007, -0.143137, 1.899768, 0.5267084, 0.397458, 0.2497699, -0.126965, 0.4292567, 2.11273, 0.4998005, 0.3850602, 0.2493564
 196030723, 0.2392118, 0.07098602, 1.719765, 0.5452381, 0.4136845, 0.2510858, 0.457007, -0.143137, 1.899768, 0.5267084, 0.397458, 0.2497699
 196231476, 0.2226646, 0.2116098, 1.470287, 0.5593673, 0.4273797, 0.2593035, 0.2392118, 0.07098602, 1.719765, 0.5452381, 0.4136845, 0.2510858
 196431396, 0.2019079, -0.1518746, 1.25133, 0.5660993, 0.4368147, 0.2774337, 0.2226646, 0.2116098, 1.470287, 0.5593673, 0.4273797, 0.2593035
 196631316, -0.3104933, -0.02153011, 1.001901, 0.5658143, 0.4473904, 0.2971756, 0.2019079, -0.1518746, 1.25133, 0.5660993, 0.4368147, 0.2774337
 196831236, 0.3901494, 0.1614636, 0.8894874, 0.5740982, 0.4567502, 0.3097662, -0.3104933, -0.02153011, 1.001901, 0.5658143, 0.4473904, 0.2971756
 197031156, 0.5439368, 0.3059724, 0.7412869, 0.5798197, 0.4643283, 0.3170564, 0.3901494, 0.1614636, 0.8894874, 0.5740982, 0.4567502, 0.3097662
 197231076, 0.686218, -0.4189768, 0.6030681, 0.5839895, 0.4653384, 0.3252209, 0.5439368, 0.3059724, 0.7412869, 0.5798197, 0.4643283, 0.3170564
 197430996, 0.2542978, -0.6288246, 0.4217074, 0.5793976, 0.4696932, 0.3338412, 0.686218, -0.4189768, 0.6030681, 0.5839895, 0.4653384, 0.3252209
 197630916, 1.05097, -0.1918603, 0.4821229, 0.5892046, 0.4726726, 0.3408748, 0.2542978, -0.6288246, 0.4217074, 0.5793976, 0.4696932, 0.3338412
 197830836, 1.15551, -0.463456, 0.4170473, 0.5929996, 0.4739188, 0.3434002, 1.05097, -0.1918603, 0.4821229, 0.5892046, 0.4726726, 0.3408748
 198030756, 1.232352, -0.6458448, 0.3596493, 0.5947553, 0.4749335, 0.3472048, 1.15551, -0.463456, 0.4170473, 0.5929996, 0.4739188, 0.3434002
 198230676, 1.086972, -0.594025, 0.3153905, 0.5778008, 0.487371, 0.3581718, 1.232352, -0.6458448, 0.3596493, 0.5947553, 0.4749335, 0.3472048
 198431429, 1.805146, -0.03215534, 0.4279468, 0.5515031, 0.5316226, 0.3637026, 1.086972, -0.594025, 0.3153905, 0.5778008, 0.487371, 0.3581718
 198631349, 1.546596, 0.5421937, 0.4114964, 0.5020425, 0.5848825, 0.3527125, 1.805146, -0.03215534, 0.4279468, 0.5515031, 0.5316226, 0.3637026
 198831269, 1.600372, 0.4391703, 0.3601965, 0.4732984, 0.6135232, 0.344396, 1.546596, 0.5421937, 0.4114964, 0.5020425, 0.5848825, 0.3527125
 199031189, 1.462815, -0.02622808, 0.3820551, 0.4620377, 0.6147835, 0.3486296, 1.600372, 0.4391703, 0.3601965, 0.4732984, 0.6135232, 0.344396
 199231109, 1.786954, -0.1720498, 0.4293792, 0.4768025, 0.5989727, 0.366592, 1.462815, -0.02622808, 0.3820551, 0.4620377, 0.6147835, 0.3486296
 199431029, 2.005516, 0.0802318, 0.5263337, 0.4965312, 0.5763584, 0.3875812, 1.786954, -0.1720498, 0.4293792, 0.4768025, 0.5989727, 0.366592
 199630949, 2.639733, 0.4773666, 0.6809058, 0.5256136, 0.5586376, 0.4071113, 2.005516, 0.0802318, 0.5263337, 0.4965312, 0.5763584, 0.3875812
 199830869, 2.642545, -0.4044721, 0.7411481, 0.5328341, 0.5429965, 0.413568, 2.639733, 0.4773666, 0.6809058, 0.5256136, 0.5586376, 0.4071113
 200030789, 2.460957, -0.5585924, 0.6064702, 0.5258758, 0.5432011, 0.41156, 2.642545, -0.4044721, 0.7411481, 0.5328341, 0.5429965, 0.413568
 200230709, 2.495199, -0.4206611, 0.645909, 0.5199122, 0.5509641, 0.4088306, 2.460957, -0.5585924, 0.6064702, 0.5258758, 0.5432011, 0.41156
 200431462, 2.857455, -0.4959519, 0.7638192, 0.5220959, 0.5606843, 0.4089226, 2.495199, -0.4206611, 0.645909, 0.5199122, 0.5509641, 0.4088306
 200631382, 3.444374, 0.2711317, 0.9373155, 0.5362614, 0.5708544, 0.4132746, 2.857455, -0.4959519, 0.7638192, 0.5220959, 0.5606843, 0.4089226
 200831302, 3.301717, -0.3715861, 0.9166359, 0.5267707, 0.5704064, 0.4118693, 3.444374, 0.2711317, 0.9373155, 0.5362614, 0.5708544, 0.4132746
 201031222, 3.268819, -0.2617797, 0.9113867, 0.5255657, 0.5681191, 0.4136429, 3.301717, -0.3715861, 0.9166359, 0.5267707, 0.5704064, 0.4118693
 201231142, 2.894664, -0.006690361, 0.8179929, 0.5145399, 0.5637657, 0.4128109, 3.268819, -0.2617797, 0.9113867, 0.5255657, 0.5681191, 0.4136429
 201431062, 3.050392, 0.5126386, 0.8650261, 0.522754, 0.5624002, 0.4172731, 2.894664, -0.006690361, 0.8179929, 0.5145399, 0.5637657, 0.4128109
 201630982, 4.062322, -0.3854997, 1.118102, 0.5651753, 0.5528092, 0.4315588, 3.050392, 0.5126386, 0.8650261, 0.522754, 0.5624002, 0.4172731
 201830902, 4.199723, -0.2964114, 1.190184, 0.5720862, 0.5506166, 0.4347758, 4.062322, -0.3854997, 1.118102, 0.5651753, 0.5528092, 0.4315588
 202030822, 4.273299, -0.36937, 1.222455, 0.5747392, 0.5501839, 0.4359248, 4.199723, -0.2964114, 1.190184, 0.5720862, 0.5506166, 0.4347758
 202230742, 3.272863, -0.535906, 0.9412139, 0.5294285, 0.5511912, 0.4223542, 4.273299, -0.36937, 1.222455, 0.5747392, 0.5501839, 0.4359248
 202430662, 3.605204, 0.3216859, 1.059138, 0.5413536, 0.5556822, 0.4261125, 3.272863, -0.535906, 0.9412139, 0.5294285, 0.5511912, 0.4223542
 202631415, 4.069299, 0.3176299, 1.163179, 0.5601031, 0.5559435, 0.4322452, 3.605204, 0.3216859, 1.059138, 0.5413536, 0.5556822, 0.4261125
 202831335, 3.455984, 0.2914902, 0.9712739, 0.5318663, 0.5546798, 0.4246581, 4.069299, 0.3176299, 1.163179, 0.5601031, 0.5559435, 0.4322452
 203031255, 4.251469, -0.3547575, 1.229597, 0.5669924, 0.5500827, 0.4367246, 3.455984, 0.2914902, 0.9712739, 0.5318663, 0.5546798, 0.4246581
 203231175, 3.680636, -0.4355134, 1.079611, 0.5408004, 0.5481682, 0.429749, 4.251469, -0.3547575, 1.229597, 0.5669924, 0.5500827, 0.4367246
 203431095, 3.461615, 0.3048722, 1.031946, 0.531881, 0.5495335, 0.4281841, 3.680636, -0.4355134, 1.079611, 0.5408004, 0.5481682, 0.429749
 203631015, 3.525447, -0.1544411, 1.051914, 0.5347597, 0.5451972, 0.4297013, 3.461615, 0.3048722, 1.031946, 0.531881, 0.5495335, 0.4281841
 203830935, 3.532137, -0.4557512, 1.068101, 0.5353121, 0.5434506, 0.4303009, 3.525447, -0.1544411, 1.051914, 0.5347597, 0.5451972, 0.4297013
 204030855, 4.458163, -0.5350941, 1.371461, 0.5784753, 0.5424978, 0.4445605, 3.532137, -0.4557512, 1.068101, 0.5353121, 0.5434506, 0.4303009
 204230775, 4.050918, 0.0528424, 1.317621, 0.558608, 0.5444208, 0.4391198, 4.458163, -0.5350941, 1.371461, 0.5784753, 0.5424978, 0.4445605
 204430695, 3.657907, -0.05020186, 1.187202, 0.5404939, 0.5444182, 0.4340053, 4.050918, 0.0528424, 1.317621, 0.558608, 0.5444208, 0.4391198
 204631448, 3.936973, 0.1968789, 1.257619, 0.5527816, 0.5457644, 0.4381322, 3.657907, -0.05020186, 1.187202, 0.5404939, 0.5444182, 0.4340053
 204831368, 4.320565, -0.2810255, 1.378121, 0.5717843, 0.5427535, 0.4445366, 3.936973, 0.1968789, 1.257619, 0.5527816, 0.5457644, 0.4381322
 205031288, 4.306993, -0.4138207, 1.434849, 0.5730764, 0.5424957, 0.4450914, 4.320565, -0.2810255, 1.378121, 0.5717843, 0.5427535, 0.4445366
 205231208, 4.15487, -0.3029342, 1.366951, 0.5663628, 0.5427733, 0.4424898, 4.306993, -0.4138207, 1.434849, 0.5730764, 0.5424957, 0.4450914
 205431128, 4.806115, 0.4286264, 1.561335, 0.6005139, 0.5468534, 0.4531883, 4.15487, -0.3029342, 1.366951, 0.5663628, 0.5427733, 0.4424898
 205631048, 3.91835, -0.6004891, 1.306918, 0.5568027, 0.5425718, 0.4395941, 4.806115, 0.4286264, 1.561335, 0.6005139, 0.5468534, 0.4531883
 205830968, 4.224954, -0.5115768, 1.412672, 0.5719849, 0.5425666, 0.4452503, 3.91835, -0.6004891, 1.306918, 0.5568027, 0.5425718, 0.4395941
 206030888, 4.12543, -0.4208783, 1.368146, 0.5671408, 0.5428107, 0.4445197, 4.224954, -0.5115768, 1.412672, 0.5719849, 0.5425666, 0.4452503
 206230808, 4.517349, 0.3472927, 1.528666, 0.5871859, 0.5469893, 0.451754, 4.12543, -0.4208783, 1.368146, 0.5671408, 0.5428107, 0.4445197
 206430728, 4.031958, 0.1068471, 1.355758, 0.5633509, 0.5456766, 0.4445897, 4.517349, 0.3472927, 1.528666, 0.5871859, 0.5469893, 0.451754
 206631481, 4.654111, -0.4450761, 1.581871, 0.5960258, 0.5432008, 0.4556391, 4.031958, 0.1068471, 1.355758, 0.5633509, 0.5456766, 0.4445897
 206831401, 4.290941, -0.02425366, 1.46695, 0.57759, 0.5451467, 0.4500356, 4.654111, -0.4450761, 1.581871, 0.5960258, 0.5432008, 0.4556391
 207031321, 4.147475, 0.246299, 1.400325, 0.5707929, 0.5473567, 0.4479418, 4.290941, -0.02425366, 1.46695, 0.57759, 0.5451467, 0.4500356
 207231241, 4.404829, -0.2704441, 1.467498, 0.5842801, 0.5443101, 0.452455, 4.147475, 0.246299, 1.400325, 0.5707929, 0.5473567, 0.4479418
 207431161, 3.887361, 0.2996361, 1.360113, 0.5605609, 0.5485007, 0.4451098, 4.404829, -0.2704441, 1.467498, 0.5842801, 0.5443101, 0.452455
 207631081, 4.367043, -0.1687544, 1.490954, 0.5841922, 0.5456747, 0.4530818, 3.887361, 0.2996361, 1.360113, 0.5605609, 0.5485007, 0.4451098
 207831001, 4.174978, -0.3784707, 1.41257, 0.5750815, 0.5454971, 0.4504861, 4.367043, -0.1687544, 1.490954, 0.5841922, 0.5456747, 0.4530818
 208030921, 4.605098, -0.3188094, 1.597594, 0.5981013, 0.5457435, 0.4584137, 4.174978, -0.3784707, 1.41257, 0.5750815, 0.5454971, 0.4504861
 208230841, 4.276267, -0.1420769, 1.468449, 0.5812805, 0.5471086, 0.4534919, 4.605098, -0.3188094, 1.597594, 0.5981013, 0.5457435, 0.4584137
 208430761, 4.544868, 0.06977436, 1.539603, 0.5949275, 0.5480803, 0.4585236, 4.276267, -0.1420769, 1.468449, 0.5812805, 0.5471086, 0.4534919
 208630681, 4.68941, 0.3118196, 1.627953, 0.6039897, 0.5501382, 0.4614703, 4.544868, 0.06977436, 1.539603, 0.5949275, 0.5480803, 0.4585236
 208831434, 4.647912, 0.1828001, 1.589408, 0.6023827, 0.5494192, 0.4609035, 4.68941, 0.3118196, 1.627953, 0.6039897, 0.5501382, 0.4614703
 209031354, 4.448382, -0.4514679, 1.51246, 0.5931442, 0.5470054, 0.4577428, 4.647912, 0.1828001, 1.589408, 0.6023827, 0.5494192, 0.4609035
 209231274, 4.001991, -0.5214683, 1.385132, 0.5725465, 0.5477961, 0.4509352, 4.448382, -0.4514679, 1.51246, 0.5931442, 0.5470054, 0.4577428
 209431194, 4.442368, 0.02577409, 1.53581, 0.5944516, 0.5497603, 0.4581457, 4.001991, -0.5214683, 1.385132, 0.5725465, 0.5477961, 0.4509352
 209631114, 3.922069, -0.1770415, 1.344338, 0.5701314, 0.549579, 0.4502317, 4.442368, 0.02577409, 1.53581, 0.5944516, 0.5497603, 0.4581457
 209831034, 3.918238, 0.06750976, 1.366684, 0.57078, 0.5512775, 0.4505047, 3.922069, -0.1770415, 1.344338, 0.5701314, 0.549579, 0.4502317
 210030954, 5.009351, -0.2372809, 1.736426, 0.6274563, 0.5491306, 0.4695325, 3.918238, 0.06750976, 1.366684, 0.57078, 0.5512775, 0.4505047
 210230874, 3.948298, -0.5089182, 1.355761, 0.5732529, 0.5502039, 0.4525835, 5.009351, -0.2372809, 1.736426, 0.6274563, 0.5491306, 0.4695325
 210430794, 4.424809, -0.6384264, 1.571255, 0.5975946, 0.5503629, 0.4611005, 3.948298, -0.5089182, 1.355761, 0.5732529, 0.5502039, 0.4525835
 210630714, 4.650073, -0.425313, 1.614114, 0.6096347, 0.550962, 0.4644747, 4.424809, -0.6384264, 1.571255, 0.5975946, 0.5503629, 0.4611005
 210831467, 4.821418, -0.3173476, 1.648304, 0.6191418, 0.5513844, 0.4673391, 4.650073, -0.425313, 1.614114, 0.6096347, 0.550962, 0.4644747
 211031387, 4.936191, -0.4849938, 1.744304, 0.6274505, 0.5511077, 0.4703006, 4.821418, -0.3173476, 1.648304, 0.6191418, 0.5513844, 0.4673391
 211231307, 3.975716, -0.1756162, 1.397639, 0.5790313, 0.5538967, 0.4544437, 4.936191, -0.4849938, 1.744304, 0.6274505, 0.5511077, 0.4703006
 211431227, 4.255681, -0.009443941, 1.46813, 0.5922236, 0.5549133, 0.4589604, 3.975716, -0.1756162, 1.397639, 0.5790313, 0.5538967, 0.4544437
 211631147, 4.126974, -0.3234534, 1.434606, 0.5873981, 0.5542842, 0.4571528, 4.255681, -0.009443941, 1.46813, 0.5922236, 0.5549133, 0.4589604
 211831067, 3.978584, -0.1282071, 1.389684, 0.5813194, 0.5558661, 0.4550319, 4.126974, -0.3234534, 1.434606, 0.5873981, 0.5542842, 0.4571528
 212030987, 4.03114, -0.6367395, 1.387398, 0.5845568, 0.554972, 0.456284, 3.978584, -0.1282071, 1.389684, 0.5813194, 0.5558661, 0.4550319
 212230907, 3.990795, -0.307227, 1.416732, 0.5835317, 0.5561792, 0.4564105, 4.03114, -0.6367395, 1.387398, 0.5845568, 0.554972, 0.456284
 212430827, 4.537701, -0.3823228, 1.57187, 0.6102203, 0.5557202, 0.4654582, 3.990795, -0.307227, 1.416732, 0.5835317, 0.5561792, 0.4564105
 212630747, 4.411277, 0.08748067, 1.51261, 0.6035132, 0.5585174, 0.46346, 4.537701, -0.3823228, 1.57187, 0.6102203, 0.5557202, 0.4654582
 212830667, 4.617333, -0.7590368, 1.630573, 0.6165702, 0.5564933, 0.4680324, 4.411277, 0.08748067, 1.51261, 0.6035132, 0.5585174, 0.46346
 213031420, 4.58842, -0.7208903, 1.595843, 0.6151675, 0.5571273, 0.4679562, 4.617333, -0.7590368, 1.630573, 0.6165702, 0.5564933, 0.4680324
 213231340, 4.628335, -0.5539713, 1.651938, 0.6181766, 0.5577281, 0.4693513, 4.58842, -0.7208903, 1.595843, 0.6151675, 0.5571273, 0.4679562
 213431260, 4.040359, 0.3154549, 1.425665, 0.5892254, 0.5636651, 0.4594319, 4.628335, -0.5539713, 1.651938, 0.6181766, 0.5577281, 0.4693513
 213631180, 4.222924, -0.6801953, 1.46641, 0.5995764, 0.5596955, 0.4621889, 4.040359, 0.3154549, 1.425665, 0.5892254, 0.5636651, 0.4594319
 213831100, 3.923257, -0.573977, 1.352204, 0.5864937, 0.5607042, 0.4572532, 4.222924, -0.6801953, 1.46641, 0.5995764, 0.5596955, 0.4621889
 214031020, 4.1529, -0.3495136, 1.462531, 0.5980023, 0.561679, 0.4611422, 3.923257, -0.573977, 1.352204, 0.5864937, 0.5607042, 0.4572532
 214230940, 3.905102, 0.069796, 1.359577, 0.5866193, 0.5644214, 0.4578593, 4.1529, -0.3495136, 1.462531, 0.5980023, 0.561679, 0.4611422
 214430860, 4.665983, -0.2302758, 1.66406, 0.6246836, 0.5624436, 0.4710252, 3.905102, 0.069796, 1.359577, 0.5866193, 0.5644214, 0.4578593
 214630780, 3.838139, -0.8128777, 1.360348, 0.586519, 0.5634577, 0.4589241, 4.665983, -0.2302758, 1.66406, 0.6246836, 0.5624436, 0.4710252
 214830700, 4.7658, -0.3919272, 1.671977, 0.6308354, 0.5628337, 0.4741353, 3.838139, -0.8128777, 1.360348, 0.586519, 0.5634577, 0.4589241
 215031453, 4.024579, -0.1076208, 1.435608, 0.5953694, 0.5657548, 0.4627969, 4.7658, -0.3919272, 1.671977, 0.6308354, 0.5628337, 0.4741353
 215231373, 4.757334, -0.6455465, 1.654422, 0.6319997, 0.5637695, 0.4748365, 4.024579, -0.1076208, 1.435608, 0.5953694, 0.5657548, 0.4627969
 215431293, 4.005081, -0.2736683, 1.385104, 0.5957918, 0.5661582, 0.4622054, 4.757334, -0.6455465, 1.654422, 0.6319997, 0.5637695, 0.4748365
 215631213, 4.599354, 0.01685318, 1.638524, 0.6252668, 0.5674143, 0.4719872, 4.005081, -0.2736683, 1.385104, 0.5957918, 0.5661582, 0.4622054
 215831133, 4.287007, 0.2772222, 1.504273, 0.6102989, 0.5703862, 0.4668015, 4.599354, 0.01685318, 1.638524, 0.6252668, 0.5674143, 0.4719872
 216031053, 4.565273, -0.2313316, 1.573685, 0.6247882, 0.5671191, 0.4715032, 4.287007, 0.2772222, 1.504273, 0.6102989, 0.5703862, 0.4668015
 216230973, 3.924414, -0.3593268, 1.383076, 0.5961326, 0.5679537, 0.4620348, 4.565273, -0.2313316, 1.573685, 0.6247882, 0.5671191, 0.4715032
 216430893, 4.533638, -0.7992939, 1.598358, 0.6260602, 0.567034, 0.4721178, 3.924414, -0.3593268, 1.383076, 0.5961326, 0.5679537, 0.4620348
 216630813, 4.488255, -0.1956838, 1.558992, 0.6233527, 0.5687662, 0.4711462, 4.533638, -0.7992939, 1.598358, 0.6260602, 0.567034, 0.4721178
 216830733, 4.043453, -0.7757849, 1.392078, 0.6038302, 0.5687337, 0.4645578, 4.488255, -0.1956838, 1.558992, 0.6233527, 0.5687662, 0.4711462
 217031486, 4.919334, 0.1120137, 1.719644, 0.6469324, 0.5709412, 0.4784474, 4.043453, -0.7757849, 1.392078, 0.6038302, 0.5687337, 0.4645578
 217231406, 4.079589, -0.3170618, 1.415241, 0.6072259, 0.5702813, 0.4649272, 4.919334, 0.1120137, 1.719644, 0.6469324, 0.5709412, 0.4784474
 217431326, 4.882653, -0.7971739, 1.663175, 0.6474214, 0.5684224, 0.4782341, 4.079589, -0.3170618, 1.415241, 0.6072259, 0.5702813, 0.4649272
 217631246, 4.765223, -0.1451907, 1.676824, 0.6419347, 0.570971, 0.4764658, 4.882653, -0.7971739, 1.663175, 0.6474214, 0.5684224, 0.4782341
 217831166, 4.697688, -0.7549751, 1.628409, 0.6398307, 0.5701628, 0.4758024, 4.765223, -0.1451907, 1.676824, 0.6419347, 0.570971, 0.4764658
 218031086, 4.38321, -0.4415804, 1.559394, 0.6254112, 0.5717828, 0.4709189, 4.697688, -0.7549751, 1.628409, 0.6398307, 0.5701628, 0.4758024
 218231006, 4.007148, -0.5049296, 1.421017, 0.6090394, 0.5729743, 0.465562, 4.38321, -0.4415804, 1.559394, 0.6254112, 0.5717828, 0.4709189
 218430926, 4.754669, -0.439506, 1.632741, 0.6442336, 0.5722825, 0.4775341, 4.007148, -0.5049296, 1.421017, 0.6090394, 0.5729743, 0.465562
 218630846, 4.127499, -0.6204563, 1.474399, 0.6160526, 0.5739912, 0.4684677, 4.754669, -0.439506, 1.632741, 0.6442336, 0.5722825, 0.4775341
 218830766, 4.569584, -0.350966, 1.595951, 0.6365912, 0.5744149, 0.4756933, 4.127499, -0.6204563, 1.474399, 0.6160526, 0.5739912, 0.4684677
 219030686, 4.257389, -0.2340683, 1.529891, 0.6227986, 0.5762655, 0.4715231, 4.569584, -0.350966, 1.595951, 0.6365912, 0.5744149, 0.4756933
 219231439, 4.882523, 0.1050622, 1.709712, 0.653306, 0.5780716, 0.4813736, 4.257389, -0.2340683, 1.529891, 0.6227986, 0.5762655, 0.4715231
 219431359, 4.319965, 0.02550693, 1.500016, 0.6264014, 0.5790954, 0.471823, 4.882523, 0.1050622, 1.709712, 0.653306, 0.5780716, 0.4813736
 219631279, 4.108995, 0.1869625, 1.479543, 0.6185987, 0.5812938, 0.4687641, 4.319965, 0.02550693, 1.500016, 0.6264014, 0.5790954, 0.471823
 219831199, 4.62364, 0.2304945, 1.631643, 0.6434163, 0.5814216, 0.4768323, 4.108995, 0.1869625, 1.479543, 0.6185987, 0.5812938, 0.4687641
 220031119, 3.979605, 0.2540115, 1.391551, 0.6142747, 0.5830147, 0.4674089, 4.62364, 0.2304945, 1.631643, 0.6434163, 0.5814216, 0.4768323
 220231039, 4.860236, 0.1090909, 1.726567, 0.6568517, 0.5810471, 0.4822645, 3.979605, 0.2540115, 1.391551, 0.6142747, 0.5830147, 0.4674089
 220430959, 4.615267, 0.1071843, 1.61633, 0.6449504, 0.5821624, 0.478379, 4.860236, 0.1090909, 1.726567, 0.6568517, 0.5810471, 0.4822645
 220630879, 4.796272, 0.06714206, 1.652852, 0.6546379, 0.5820001, 0.481036, 4.615267, 0.1071843, 1.61633, 0.6449504, 0.5821624, 0.478379
 220830799, 4.109265, -0.1530566, 1.476214, 0.6244042, 0.5824204, 0.4710132, 4.796272, 0.06714206, 1.652852, 0.6546379, 0.5820001, 0.481036
 221030719, 4.391852, -0.8218806, 1.538268, 0.6387616, 0.5810784, 0.4758403, 4.109265, -0.1530566, 1.476214, 0.6244042, 0.5824204, 0.4710132
 221231472, 3.823341, -0.6375471, 1.356384, 0.6143948, 0.582754, 0.4677353, 4.391852, -0.8218806, 1.538268, 0.6387616, 0.5810784, 0.4758403
 221431392, 4.353969, 0.03715171, 1.536074, 0.6374156, 0.5851828, 0.4754041, 3.823341, -0.6375471, 1.356384, 0.6143948, 0.582754, 0.4677353
 221631312, 4.096766, 0.123458, 1.427241, 0.6262001, 0.586794, 0.471711, 4.353969, 0.03715171, 1.536074, 0.6374156, 0.5851828, 0.4754041
 221831232, 4.07372, 0.2022991, 1.464877, 0.6264483, 0.5882497, 0.472156, 4.096766, 0.123458, 1.427241, 0.6262001, 0.586794, 0.471711
 222031152, 4.366603, 0.06502716, 1.52763, 0.6398976, 0.5873785, 0.4767984, 4.07372, 0.2022991, 1.464877, 0.6264483, 0.5882497, 0.472156
 222231072, 3.856348, -0.5916, 1.336774, 0.6191423, 0.5859523, 0.4698977, 4.366603, 0.06502716, 1.52763, 0.6398976, 0.5873785, 0.4767984
 222430992, 3.851758, -0.413644, 1.385551, 0.6202836, 0.5870985, 0.4705559, 3.856348, -0.5916, 1.336774, 0.6191423, 0.5859523, 0.4698977
 222630912, 4.4478, -0.3660633, 1.557191, 0.6467391, 0.586705, 0.4795411, 3.851758, -0.413644, 1.385551, 0.6202836, 0.5870985, 0.4705559
 222830832, 3.978953, -0.02292607, 1.419424, 0.6266218, 0.5897126, 0.4726722, 4.4478, -0.3660633, 1.557191, 0.6467391, 0.586705, 0.4795411
 223030752, 4.909827, -0.04976669, 1.735729, 0.6708943, 0.5887401, 0.4874489, 3.978953, -0.02292607, 1.419424, 0.6266218, 0.5897126, 0.4726722
 223230672, 4.026361, -0.8701081, 1.41592, 0.6313943, 0.588999, 0.4745278, 4.909827, -0.04976669, 1.735729, 0.6708943, 0.5887401, 0.4874489
 223431425, 4.802341, -0.1166869, 1.715848, 0.667222, 0.5897903, 0.4865071, 4.026361, -0.8701081, 1.41592, 0.6313943, 0.588999, 0.4745278
 223631345, 3.982069, -0.2481153, 1.422666, 0.6310264, 0.5913014, 0.4738586, 4.802341, -0.1166869, 1.715848, 0.667222, 0.5897903, 0.4865071
 223831265, 4.091332, -0.235852, 1.430528, 0.6363178, 0.591726, 0.4752347, 3.982069, -0.2481153, 1.422666, 0.6310264, 0.5913014, 0.4738586
 224031185, 4.412601, -0.1391432, 1.517702, 0.6507087, 0.5919721, 0.480056, 4.091332, -0.235852, 1.430528, 0.6363178, 0.591726, 0.4752347
 224231105, 4.077177, -0.7858895, 1.454466, 0.638696, 0.5918025, 0.4761128, 4.412601, -0.1391432, 1.517702, 0.6507087, 0.5919721, 0.480056
 224431025, 4.830091, 0.0806154, 1.678956, 0.6722486, 0.5940537, 0.4873038, 4.077177, -0.7858895, 1.454466, 0.638696, 0.5918025, 0.4761128
 224630945, 5.057768, -0.0003659723, 1.724104, 0.6837667, 0.5934428, 0.4913148, 4.830091, 0.0806154, 1.678956, 0.6722486, 0.5940537, 0.4873038
 224830865, 3.870779, -0.2629699, 1.318729, 0.6300315, 0.5944375, 0.4733846, 5.057768, -0.0003659723, 1.724104, 0.6837667, 0.5934428, 0.4913148
 225030785, 4.594662, -0.2708456, 1.560634, 0.6626552, 0.5928833, 0.4836753, 3.870779, -0.2629699, 1.318729, 0.6300315, 0.5944375, 0.4733846
 225230705, 4.375869, -0.1832385, 1.550297, 0.6541494, 0.5939621, 0.4807323, 4.594662, -0.2708456, 1.560634, 0.6626552, 0.5928833, 0.4836753
 225431458, 4.947473, -0.6402617, 1.705504, 0.6819589, 0.5917, 0.4911488, 4.375869, -0.1832385, 1.550297, 0.6541494, 0.5939621, 0.4807323
 225631378, 4.135929, -0.9348182, 1.419108, 0.6439976, 0.5937961, 0.4799956, 4.947473, -0.6402617, 1.705504, 0.6819589, 0.5917, 0.4911488
 225831298, 5.098222, -0.6132154, 1.733923, 0.6899956, 0.5918589, 0.4939557, 4.135929, -0.9348182, 1.419108, 0.6439976, 0.5937961, 0.4799956
 226031218, 4.573681, -0.6159918, 1.552892, 0.6658049, 0.5933208, 0.4834598, 5.098222, -0.6132154, 1.733923, 0.6899956, 0.5918589, 0.4939557
 226231138, 4.454532, -0.08691014, 1.533556, 0.6602817, 0.5958804, 0.4817103, 4.573681, -0.6159918, 1.552892, 0.6658049, 0.5933208, 0.4834598
 226431058, 4.76096, -0.08822667, 1.643219, 0.6750623, 0.5955052, 0.4876211, 4.454532, -0.08691014, 1.533556, 0.6602817, 0.5958804, 0.4817103
 226630978, 4.656141, -0.05692155, 1.592694, 0.6701238, 0.5962089, 0.4863366, 4.76096, -0.08822667, 1.643219, 0.6750623, 0.5955052, 0.4876211
 226830898, 3.900548, -0.8350211, 1.327735, 0.638721, 0.5957398, 0.475835, 4.656141, -0.05692155, 1.592694, 0.6701238, 0.5962089, 0.4863366
 227030818, 4.767735, -0.8464441, 1.64429, 0.6783167, 0.5939192, 0.4890877, 3.900548, -0.8350211, 1.327735, 0.638721, 0.5957398, 0.475835
 227230738, 3.790085, -0.7652974, 1.335692, 0.6359027, 0.5967065, 0.4753751, 4.767735, -0.8464441, 1.64429, 0.6783167, 0.5939192, 0.4890877
 227430658, 4.513075, -0.7810682, 1.55539, 0.6672538, 0.5955547, 0.4858235, 3.790085, -0.7652974, 1.335692, 0.6359027, 0.5967065, 0.4753751
 227631411, 4.162787, -0.7451313, 1.423431, 0.6519248, 0.5967411, 0.4805675, 4.513075, -0.7810682, 1.55539, 0.6672538, 0.5955547, 0.4858235
 227831331, 3.91655, -0.2150787, 1.361399, 0.6415475, 0.598974, 0.4769246, 4.162787, -0.7451313, 1.423431, 0.6519248, 0.5967411, 0.4805675
 228031251, 3.904748, -0.6548167, 1.369513, 0.6423054, 0.5981675, 0.4773428, 3.91655, -0.2150787, 1.361399, 0.6415475, 0.598974, 0.4769246
 228231171, 3.874189, 0.107985, 1.337765, 0.6389657, 0.6017218, 0.4780356, 3.904748, -0.6548167, 1.369513, 0.6423054, 0.5981675, 0.4773428
 228431091, 3.840682, -0.2595522, 1.313392, 0.6389207, 0.5998195, 0.4771164, 3.874189, 0.107985, 1.337765, 0.6389657, 0.6017218, 0.4780356
 228631011, 4.203688, -0.2205961, 1.435418, 0.6554698, 0.5995159, 0.4805328, 3.840682, -0.2595522, 1.313392, 0.6389207, 0.5998195, 0.4771164
 228830931, 4.166218, -0.3526491, 1.412382, 0.6542011, 0.5992033, 0.4804275, 4.203688, -0.2205961, 1.435418, 0.6554698, 0.5995159, 0.4805328
 229030851, 4.459513, -0.4270453, 1.504557, 0.6670486, 0.5983685, 0.4854405, 4.166218, -0.3526491, 1.412382, 0.6542011, 0.5992033, 0.4804275
 229230771, 4.012399, -0.1481732, 1.410849, 0.6467451, 0.6007175, 0.4812903, 4.459513, -0.4270453, 1.504557, 0.6670486, 0.5983685, 0.4854405
 229430691, 4.191472, -0.8148376, 1.448956, 0.656229, 0.5989787, 0.483692, 4.012399, -0.1481732, 1.410849, 0.6467451, 0.6007175, 0.4812903
 229631444, 3.907529, -0.01393761, 1.279607, 0.6442339, 0.6020436, 0.4767504, 4.191472, -0.8148376, 1.448956, 0.656229, 0.5989787, 0.483692
 229831364, 4.685112, -1.010417, 1.606867, 0.6817719, 0.5978494, 0.4890661, 3.907529, -0.01393761, 1.279607, 0.6442339, 0.6020436, 0.4767504
 230031284, 4.814488, 0.1338717, 1.640465, 0.6855295, 0.6012983, 0.4912206, 4.685112, -1.010417, 1.606867, 0.6817719, 0.5978494, 0.4890661
 230231204, 4.208489, -0.9808721, 1.418062, 0.6599551, 0.598842, 0.4835259, 4.814488, 0.1338717, 1.640465, 0.6855295, 0.6012983, 0.4912206
 230431124, 5.029946, -0.1044322, 1.682278, 0.6966277, 0.599033, 0.495185, 4.208489, -0.9808721, 1.418062, 0.6599551, 0.598842, 0.4835259
 230631044, 3.833856, 0.06016486, 1.355942, 0.644869, 0.6037245, 0.4771289, 5.029946, -0.1044322, 1.682278, 0.6966277, 0.599033, 0.495185
 230830964, 4.673405, -0.06776202, 1.608302, 0.6815484, 0.602353, 0.4885154, 3.833856, 0.06016486, 1.355942, 0.644869, 0.6037245, 0.4771289
 231030884, 4.531394, -0.8931667, 1.545979, 0.676693, 0.6009176, 0.4872173, 4.673405, -0.06776202, 1.608302, 0.6815484, 0.602353, 0.4885154
 231230804, 3.78036, -0.3512011, 1.336671, 0.6451813, 0.6038435, 0.4772736, 4.531394, -0.8931667, 1.545979, 0.676693, 0.6009176, 0.4872173
 231430724, 4.916498, -0.4591628, 1.689409, 0.6957331, 0.6011938, 0.4942131, 3.78036, -0.3512011, 1.336671, 0.6451813, 0.6038435, 0.4772736
 231631477, 4.577439, -0.8083102, 1.561256, 0.6806628, 0.6016639, 0.4894488, 4.916498, -0.4591628, 1.689409, 0.6957331, 0.6011938, 0.4942131
 231831397, 4.786619, -0.2936685, 1.684062, 0.6909949, 0.6032739, 0.4928565, 4.577439, -0.8083102, 1.561256, 0.6806628, 0.6016639, 0.4894488
 232031317, 4.3453, -0.1592398, 1.511707, 0.6709899, 0.6058798, 0.485742, 4.786619, -0.2936685, 1.684062, 0.6909949, 0.6032739, 0.4928565
 232231237, 3.834322, -0.6229086, 1.385626, 0.6525114, 0.6066074, 0.4792322, 4.3453, -0.1592398, 1.511707, 0.6709899, 0.6058798, 0.485742
 232431157, 3.971992, 0.09943116, 1.400707, 0.6569089, 0.6101729, 0.4813424, 3.834322, -0.6229086, 1.385626, 0.6525114, 0.6066074, 0.4792322
 232631077, 4.381974, -0.7305704, 1.51351, 0.6757185, 0.6065595, 0.4880601, 3.971992, 0.09943116, 1.400707, 0.6569089, 0.6101729, 0.4813424
 232830997, 4.584785, -0.221684, 1.617279, 0.6848847, 0.6085989, 0.4913777, 4.381974, -0.7305704, 1.51351, 0.6757185, 0.6065595, 0.4880601
 233030917, 4.945355, -0.5978754, 1.71008, 0.7032065, 0.6070827, 0.4971736, 4.584785, -0.221684, 1.617279, 0.6848847, 0.6085989, 0.4913777
 233230837, 4.026873, -0.2857124, 1.454744, 0.6633081, 0.6111263, 0.4836173, 4.945355, -0.5978754, 1.71008, 0.7032065, 0.6070827, 0.4971736
 233430757, 4.989965, -0.2314755, 1.742784, 0.7067559, 0.6100547, 0.4981, 4.026873, -0.2857124, 1.454744, 0.6633081, 0.6111263, 0.4836173
 233630677, 4.950138, -0.6035205, 1.707928, 0.705879, 0.6093745, 0.4980273, 4.989965, -0.2314755, 1.742784, 0.7067559, 0.6100547, 0.4981
 233831430, 4.679188, -1.030008, 1.662425, 0.6958033, 0.6108212, 0.4946245, 4.950138, -0.6035205, 1.707928, 0.705879, 0.6093745, 0.4980273
 234031350, 4.153046, -0.03804597, 1.457527, 0.6712536, 0.6151016, 0.486312, 4.679188, -1.030008, 1.662425, 0.6958033, 0.6108212, 0.4946245
 234231270, 4.406552, -0.910607, 1.576765, 0.6852441, 0.6127391, 0.490848, 4.153046, -0.03804597, 1.457527, 0.6712536, 0.6151016, 0.486312
 234431190, 4.948846, -1.093139, 1.725802, 0.71123, 0.6123012, 0.4994987, 4.406552, -0.910607, 1.576765, 0.6852441, 0.6127391, 0.490848
 234631110, 3.742802, 0.0448822, 1.307171, 0.6572999, 0.6185898, 0.4817434, 4.948846, -1.093139, 1.725802, 0.71123, 0.6123012, 0.4994987
 234831030, 4.588444, -0.1756293, 1.622721, 0.6939223, 0.6164498, 0.4938632, 3.742802, 0.0448822, 1.307171, 0.6572999, 0.6185898, 0.4817434
 235030950, 4.746978, 0.04025492, 1.648782, 0.7010321, 0.6178481, 0.4966422, 4.588444, -0.1756293, 1.622721, 0.6939223, 0.6164498, 0.4938632
 235230870, 3.703493, -1.054325, 1.320412, 0.6604424, 0.6178507, 0.4836094, 4.746978, 0.04025492, 1.648782, 0.7010321, 0.6178481, 0.4966422
 235430790, 3.715984, -0.5299006, 1.333784, 0.6607008, 0.618885, 0.4840562, 3.703493, -1.054325, 1.320412, 0.6604424, 0.6178507, 0.4836094
 235630710, 4.210257, -1.023252, 1.469635, 0.681783, 0.6183091, 0.4907341, 3.715984, -0.5299006, 1.333784, 0.6607008, 0.618885, 0.4840562
 235831463, 4.750218, -0.5912826, 1.665717, 0.7058578, 0.6177391, 0.4980752, 4.210257, -1.023252, 1.469635, 0.681783, 0.6183091, 0.4907341
 236031383, 4.987225, -0.5853744, 1.752079, 0.7182154, 0.617936, 0.5021147, 4.750218, -0.5912826, 1.665717, 0.7058578, 0.6177391, 0.4980752
 236231303, 4.245654, -1.018304, 1.482595, 0.6861333, 0.6201937, 0.4917004, 4.987225, -0.5853744, 1.752079, 0.7182154, 0.617936, 0.5021147
 236431223, 3.950215, 0.1736756, 1.359653, 0.6721737, 0.6249123, 0.4873351, 4.245654, -1.018304, 1.482595, 0.6861333, 0.6201937, 0.4917004
 236631143, 4.529674, -0.7521074, 1.600168, 0.7001524, 0.6201341, 0.495912, 3.950215, 0.1736756, 1.359653, 0.6721737, 0.6249123, 0.4873351
 236831063, 4.862016, -0.5526862, 1.684316, 0.7159277, 0.6202867, 0.5000342, 4.529674, -0.7521074, 1.600168, 0.7001524, 0.6201341, 0.495912
 237030983, 4.282782, -0.7612697, 1.511307, 0.6915984, 0.6221265, 0.4920459, 4.862016, -0.5526862, 1.684316, 0.7159277, 0.6202867, 0.5000342
 237230903, 4.716225, -0.1929948, 1.663799, 0.70988, 0.6238418, 0.4988839, 4.282782, -0.7612697, 1.511307, 0.6915984, 0.6221265, 0.4920459
 237430823, 4.014502, -1.015759, 1.391815, 0.6818613, 0.6245743, 0.4897185, 4.716225, -0.1929948, 1.663799, 0.70988, 0.6238418, 0.4988839
 237630743, 3.963433, -0.7752952, 1.432187, 0.6807932, 0.6253397, 0.4893243, 4.014502, -1.015759, 1.391815, 0.6818613, 0.6245743, 0.4897185
 237830663, 4.726433, -0.7703468, 1.653109, 0.7135251, 0.6243582, 0.5001042, 3.963433, -0.7752952, 1.432187, 0.6807932, 0.6253397, 0.4893243
 238031416, 3.867048, -0.2674034, 1.350551, 0.6775619, 0.6283247, 0.4874232, 4.726433, -0.7703468, 1.653109, 0.7135251, 0.6243582, 0.5001042
 238231336, 4.910349, -1.079661, 1.731647, 0.7254955, 0.625397, 0.5030631, 3.867048, -0.2674034, 1.350551, 0.6775619, 0.6283247, 0.4874232
 238431256, 4.080777, -1.089884, 1.429837, 0.6897931, 0.6283795, 0.4913771, 4.910349, -1.079661, 1.731647, 0.7254955, 0.625397, 0.5030631
 238631176, 4.565393, -0.1595746, 1.641309, 0.7093869, 0.6298828, 0.4985296, 4.080777, -1.089884, 1.429837, 0.6897931, 0.6283795, 0.4913771
 238831096, 3.695104, -0.6077817, 1.320521, 0.6757355, 0.6310166, 0.4879321, 4.565393, -0.1595746, 1.641309, 0.7093869, 0.6298828, 0.4985296
 239031016, 4.270615, -0.6290373, 1.507774, 0.69881, 0.6305835, 0.4954439, 3.695104, -0.6077817, 1.320521, 0.6757355, 0.6310166, 0.4879321
 239230936, 4.50617, -0.3057847, 1.592232, 0.7090261, 0.6321431, 0.4987169, 4.270615, -0.6290373, 1.507774, 0.69881, 0.6305835, 0.4954439
 239430856, 4.070367, -0.2547009, 1.410071, 0.6909217, 0.6340991, 0.4929816, 4.50617, -0.3057847, 1.592232, 0.7090261, 0.6321431, 0.4987169
 239630776, 4.960803, -0.09402951, 1.758012, 0.7301705, 0.63394, 0.5067298, 4.070367, -0.2547009, 1.410071, 0.6909217, 0.6340991, 0.4929816
 239830696, 4.94082, -1.181575, 1.723495, 0.7321642, 0.6323498, 0.507746, 4.960803, -0.09402951, 1.758012, 0.7301705, 0.63394, 0.5067298
 240031449, 5.045929, -0.1152303, 1.765759, 0.7354118, 0.6346679, 0.5088285, 4.94082, -1.181575, 1.723495, 0.7321642, 0.6323498, 0.507746
 240231369, 5.100752, -0.1921122, 1.801386, 0.7396855, 0.6347695, 0.5096816, 5.045929, -0.1152303, 1.765759, 0.7354118, 0.6346679, 0.5088285
 240431289, 3.775364, -0.2373456, 1.330283, 0.6847499, 0.6383195, 0.4906642, 5.100752, -0.1921122, 1.801386, 0.7396855, 0.6347695, 0.5096816
 240631209, 4.218261, 0.1532364, 1.453671, 0.7015685, 0.640525, 0.4956377, 3.775364, -0.2373456, 1.330283, 0.6847499, 0.6383195, 0.4906642
 240831129, 3.965935, -0.4450623, 1.4179, 0.6943905, 0.6387252, 0.4933984, 4.218261, 0.1532364, 1.453671, 0.7015685, 0.640525, 0.4956377
 241031049, 5.05407, -0.04147679, 1.751483, 0.7401564, 0.638866, 0.5089664, 3.965935, -0.4450623, 1.4179, 0.6943905, 0.6387252, 0.4933984
 241230969, 4.613213, -0.0555193, 1.625327, 0.721159, 0.6403763, 0.5029929, 5.05407, -0.04147679, 1.751483, 0.7401564, 0.638866, 0.5089664
 241430889, 4.604195, -0.9198629, 1.615792, 0.7236581, 0.6382734, 0.5038847, 4.613213, -0.0555193, 1.625327, 0.721159, 0.6403763, 0.5029929
 241630809, 3.764367, -0.9807702, 1.314049, 0.6908558, 0.6408201, 0.4929305, 4.604195, -0.9198629, 1.615792, 0.7236581, 0.6382734, 0.5038847
 241830729, 4.659235, -0.2027208, 1.668228, 0.7265707, 0.6409415, 0.5048591, 3.764367, -0.9807702, 1.314049, 0.6908558, 0.6408201, 0.4929305
 242031482, 3.719796, 0.06749698, 1.325023, 0.689212, 0.6454635, 0.492767, 4.659235, -0.2027208, 1.668228, 0.7265707, 0.6409415, 0.5048591
 242231402, 3.958396, -0.7985027, 1.38006, 0.6997052, 0.642644, 0.4964111, 3.719796, 0.06749698, 1.325023, 0.689212, 0.6454635, 0.492767
 242431322, 3.927336, 0.06593274, 1.423999, 0.6980664, 0.6471473, 0.4961737, 3.958396, -0.7985027, 1.38006, 0.6997052, 0.642644, 0.4964111
 242631242, 4.637487, -0.7840148, 1.616365, 0.7283645, 0.6432924, 0.5064237, 3.927336, 0.06593274, 1.423999, 0.6980664, 0.6471473, 0.4961737
 242831162, 3.866589, -0.7712712, 1.339907, 0.6978028, 0.6458517, 0.4958333, 4.637487, -0.7840148, 1.616365, 0.7283645, 0.6432924, 0.5064237
 243031082, 4.654117, -1.186161, 1.649176, 0.7324245, 0.6447664, 0.5071476, 3.866589, -0.7712712, 1.339907, 0.6978028, 0.6458517, 0.4958333
 243231002, 4.95456, -0.05788608, 1.722381, 0.7437164, 0.6468566, 0.5109895, 4.654117, -1.186161, 1.649176, 0.7324245, 0.6447664, 0.5071476
 243430922, 4.068164, 0.0499142, 1.40932, 0.7066377, 0.6499665, 0.4989561, 4.95456, -0.05788608, 1.722381, 0.7437164, 0.6468566, 0.5109895
 243630842, 3.815907, -0.6738592, 1.381912, 0.7002701, 0.648137, 0.4964051, 4.068164, 0.0499142, 1.40932, 0.7066377, 0.6499665, 0.4989561
 243830762, 3.734908, -0.1046984, 1.336685, 0.6974303, 0.6511726, 0.4947748, 3.815907, -0.6738592, 1.381912, 0.7002701, 0.648137, 0.4964051
 244030682, 4.855708, -1.142831, 1.681737, 0.7450389, 0.6472089, 0.5106687, 3.734908, -0.1046984, 1.336685, 0.6974303, 0.6511726, 0.4947748
 244231435, 3.995442, -0.4391306, 1.366979, 0.7076617, 0.650528, 0.4986588, 4.855708, -1.142831, 1.681737, 0.7450389, 0.6472089, 0.5106687
 244431355, 4.829362, -0.7611822, 1.635489, 0.7425343, 0.6481654, 0.5105166, 3.995442, -0.4391306, 1.366979, 0.7076617, 0.650528, 0.4986588
 244631275, 4.6436, -0.289895, 1.563933, 0.7335004, 0.650203, 0.5074021, 4.829362, -0.7611822, 1.635489, 0.7425343, 0.6481654, 0.5105166
 244831195, 4.368519, -1.002709, 1.47688, 0.7242512, 0.6495498, 0.5040054, 4.6436, -0.289895, 1.563933, 0.7335004, 0.650203, 0.5074021
 245031115, 5.094682, -0.1427678, 1.709481, 0.7541588, 0.6499475, 0.5138518, 4.368519, -1.002709, 1.47688, 0.7242512, 0.6495498, 0.5040054
 245231035, 4.678978, 0.02682863, 1.491654, 0.7341664, 0.651796, 0.5072099, 5.094682, -0.1427678, 1.709481, 0.7541588, 0.6499475, 0.5138518
 245430955, 4.402648, -0.444599, 1.41499, 0.7235079, 0.6496379, 0.5034423, 4.678978, 0.02682863, 1.491654, 0.7341664, 0.651796, 0.5072099
 245630875, 3.711258, -0.8521825, 1.197602, 0.698054, 0.6503735, 0.4947852, 4.402648, -0.444599, 1.41499, 0.7235079, 0.6496379, 0.5034423
 245830795, 4.908556, -0.3595605, 1.603177, 0.7447966, 0.6484087, 0.5100554, 3.711258, -0.8521825, 1.197602, 0.698054, 0.6503735, 0.4947852
 246030715, 3.814931, -0.5550469, 1.24633, 0.7009678, 0.65001, 0.4957291, 4.908556, -0.3595605, 1.603177, 0.7447966, 0.6484087, 0.5100554
 246231468, 4.07903, -0.27557, 1.337892, 0.7101573, 0.6499966, 0.4990223, 3.814931, -0.5550469, 1.24633, 0.7009678, 0.65001, 0.4957291
 246431388, 4.731506, 0.02717378, 1.558453, 0.7359949, 0.6500733, 0.5078262, 4.07903, -0.27557, 1.337892, 0.7101573, 0.6499966, 0.4990223
 246631308, 3.810347, -0.1119515, 1.25623, 0.6998262, 0.6509595, 0.496047, 4.731506, 0.02717378, 1.558453, 0.7359949, 0.6500733, 0.5078262
 246831228, 4.569318, -0.1048369, 1.510436, 0.7292479, 0.6492273, 0.5060018, 3.810347, -0.1119515, 1.25623, 0.6998262, 0.6509595, 0.496047
 247031148, 3.818451, -0.4710791, 1.263327, 0.7006319, 0.6491104, 0.4967802, 4.569318, -0.1048369, 1.510436, 0.7292479, 0.6492273, 0.5060018
 247231068, 3.728265, -0.138965, 1.228067, 0.6966439, 0.6505125, 0.4957035, 3.818451, -0.4710791, 1.263327, 0.7006319, 0.6491104, 0.4967802
 247430988, 4.318885, -0.5587209, 1.427257, 0.7197631, 0.6473404, 0.5032516, 3.728265, -0.138965, 1.228067, 0.6966439, 0.6505125, 0.4957035
 247630908, 4.058226, 0.09058282, 1.349162, 0.7086759, 0.6509215, 0.4994134, 4.318885, -0.5587209, 1.427257, 0.7197631, 0.6473404, 0.5032516
 247830828, 4.99648, -0.3387277, 1.660115, 0.7488525, 0.6461369, 0.5126277, 4.058226, 0.09058282, 1.349162, 0.7086759, 0.6509215, 0.4994134
 248030748, 5.126234, -0.2400296, 1.689958, 0.7543166, 0.6460866, 0.5146565, 4.99648, -0.3387277, 1.660115, 0.7488525, 0.6461369, 0.5126277
 248230668, 4.113001, 0.09422106, 1.364243, 0.7107236, 0.6504556, 0.5001708, 5.126234, -0.2400296, 1.689958, 0.7543166, 0.6460866, 0.5146565
 248431421, 4.16888, -0.9408292, 1.318103, 0.7140206, 0.6462782, 0.501052, 4.113001, 0.09422106, 1.364243, 0.7107236, 0.6504556, 0.5001708
 248631341, 4.077122, -0.9921032, 1.303778, 0.7104192, 0.6459566, 0.499859, 4.16888, -0.9408292, 1.318103, 0.7140206, 0.6462782, 0.501052
 248831261, 3.795845, -1.022171, 1.221933, 0.700083, 0.646182, 0.4962212, 4.077122, -0.9921032, 1.303778, 0.7104192, 0.6459566, 0.499859
 249031181, 4.838937, -1.195544, 1.577002, 0.7427627, 0.643227, 0.5101037, 3.795845, -1.022171, 1.221933, 0.700083, 0.646182, 0.4962212
 249231101, 4.299503, -0.3940996, 1.405742, 0.7180138, 0.6451598, 0.5016502, 4.838937, -1.195544, 1.577002, 0.7427627, 0.643227, 0.5101037
 249431021, 4.081422, -0.8357362, 1.338267, 0.7104102, 0.644546, 0.4991885, 4.299503, -0.3940996, 1.405742, 0.7180138, 0.6451598, 0.5016502
 249630941, 4.931949, -1.141774, 1.623508, 0.7468369, 0.6421241, 0.5114746, 4.081422, -0.8357362, 1.338267, 0.7104102, 0.644546, 0.4991885
 249830861, 4.909977, -0.2922679, 1.619725, 0.7435452, 0.6434601, 0.5105836, 4.931949, -1.141774, 1.623508, 0.7468369, 0.6421241, 0.5114746
 250030781, 4.194944, -0.7932785, 1.385475, 0.7143787, 0.6440793, 0.5008544, 4.909977, -0.2922679, 1.619725, 0.7435452, 0.6434601, 0.5105836
 250230701, 4.351456, -0.7738833, 1.441449, 0.7202595, 0.6440368, 0.5028972, 4.194944, -0.7932785, 1.385475, 0.7143787, 0.6440793, 0.5008544
 250431454, 4.118458, -0.1747247, 1.296039, 0.7083048, 0.6461588, 0.4990156, 4.351456, -0.7738833, 1.441449, 0.7202595, 0.6440368, 0.5028972
 250631374, 4.433048, -0.4801678, 1.417108, 0.7212778, 0.6436378, 0.5030134, 4.118458, -0.1747247, 1.296039, 0.7083048, 0.6461588, 0.4990156
 250831294, 4.491384, -1.205601, 1.452403, 0.7260207, 0.6425585, 0.5036771, 4.433048, -0.4801678, 1.417108, 0.7212778, 0.6436378, 0.5030134
 251031214, 4.718259, -0.1614002, 1.543569, 0.7332529, 0.6433613, 0.5063402, 4.491384, -1.205601, 1.452403, 0.7260207, 0.6425585, 0.5036771
 251231134, 4.879525, -0.9284309, 1.591018, 0.7418905, 0.6402153, 0.5096803, 4.718259, -0.1614002, 1.543569, 0.7332529, 0.6433613, 0.5063402
 251431054, 4.398714, 0.015322, 1.439753, 0.7189387, 0.6444995, 0.5021567, 4.879525, -0.9284309, 1.591018, 0.7418905, 0.6402153, 0.5096803
 251630974, 3.820007, 0.1306374, 1.25272, 0.6965575, 0.6462703, 0.494767, 4.398714, 0.015322, 1.439753, 0.7189387, 0.6444995, 0.5021567
 251830894, 4.367772, -0.5263914, 1.437016, 0.7188331, 0.6414527, 0.5021803, 3.820007, 0.1306374, 1.25272, 0.6965575, 0.6462703, 0.494767
 252030814, 4.173909, -0.005935278, 1.376632, 0.7099582, 0.6442803, 0.4993346, 4.367772, -0.5263914, 1.437016, 0.7188331, 0.6414527, 0.5021803
 252230734, 4.143653, -0.1632687, 1.368454, 0.7091619, 0.6432192, 0.4990385, 4.173909, -0.005935278, 1.376632, 0.7099582, 0.6442803, 0.4993346
 252430654, 4.579125, -0.5570189, 1.513093, 0.7279058, 0.6403955, 0.5050333, 4.143653, -0.1632687, 1.368454, 0.7091619, 0.6432192, 0.4990385
 252631407, 3.92253, 0.04916282, 1.231488, 0.6994135, 0.6446133, 0.4957716, 4.579125, -0.5570189, 1.513093, 0.7279058, 0.6403955, 0.5050333
 252831327, 4.615795, -1.028573, 1.475664, 0.7288374, 0.6390197, 0.5059133, 3.92253, 0.04916282, 1.231488, 0.6994135, 0.6446133, 0.4957716
 253031247, 4.702357, -0.5926324, 1.51977, 0.7312661, 0.6385981, 0.5068931, 4.615795, -1.028573, 1.475664, 0.7288374, 0.6390197, 0.5059133
 253231167, 3.925603, -0.2425837, 1.272893, 0.6990124, 0.6413608, 0.496306, 4.702357, -0.5926324, 1.51977, 0.7312661, 0.6385981, 0.5068931
 253431087, 4.894496, -0.9256631, 1.601309, 0.7406486, 0.6369448, 0.5097878, 3.925603, -0.2425837, 1.272893, 0.6990124, 0.6413608, 0.496306
 253631007, 4.955364, -0.348314, 1.633473, 0.7422878, 0.6379793, 0.5097265, 4.894496, -0.9256631, 1.601309, 0.7406486, 0.6369448, 0.5097878
 253830927, 5.01822, -0.7128155, 1.663892, 0.7463419, 0.6364056, 0.5111286, 4.955364, -0.348314, 1.633473, 0.7422878, 0.6379793, 0.5097265
 254030847, 4.155712, -0.1475979, 1.370666, 0.7080244, 0.6405843, 0.4985853, 5.01822, -0.7128155, 1.663892, 0.7463419, 0.6364056, 0.5111286
 254230767, 4.976608, -1.132903, 1.651058, 0.7456971, 0.636022, 0.5110502, 4.155712, -0.1475979, 1.370666, 0.7080244, 0.6405843, 0.4985853
 254430687, 4.418681, -0.5259927, 1.463349, 0.7197107, 0.6382315, 0.502087, 4.976608, -1.132903, 1.651058, 0.7456971, 0.636022, 0.5110502
 254631440, 5.096018, -1.171486, 1.684355, 0.7516257, 0.6359499, 0.5122699, 4.418681, -0.5259927, 1.463349, 0.7197107, 0.6382315, 0.502087
 254831360, 4.00316, -0.2611348, 1.32296, 0.7028834, 0.6404291, 0.4959851, 5.096018, -1.171486, 1.684355, 0.7516257, 0.6359499, 0.5122699
 255031280, 4.800566, -0.3247336, 1.58648, 0.735756, 0.6382203, 0.5069195, 4.00316, -0.2611348, 1.32296, 0.7028834, 0.6404291, 0.4959851
 255231200, 4.445065, -0.3131098, 1.473975, 0.7200062, 0.6392477, 0.5025278, 4.800566, -0.3247336, 1.58648, 0.735756, 0.6382203, 0.5069195
 255431120, 4.124292, -0.4557145, 1.362392, 0.7064209, 0.6393981, 0.4994255, 4.445065, -0.3131098, 1.473975, 0.7200062, 0.6392477, 0.5025278
 255631040, 5.121292, -0.6923435, 1.688771, 0.7505971, 0.6357539, 0.5131029, 4.124292, -0.4557145, 1.362392, 0.7064209, 0.6393981, 0.4994255
 255830960, 4.344148, -0.612261, 1.407351, 0.718232, 0.63794, 0.4983324, 5.121292, -0.6923435, 1.688771, 0.7505971, 0.6357539, 0.5131029
 256030880, 4.182605, -0.7630723, 1.366512, 0.7102869, 0.6379192, 0.4987191, 4.344148, -0.612261, 1.407351, 0.718232, 0.63794, 0.4983324
 256230800, 3.838488, -1.159178, 1.276103, 0.6947835, 0.639119, 0.4993029, 4.182605, -0.7630723, 1.366512, 0.7102869, 0.6379192, 0.4987191
 256430720, 4.354433, -0.01533575, 1.446651, 0.7122, 0.6402841, 0.5047484, 3.838488, -1.159178, 1.276103, 0.6947835, 0.639119, 0.4993029
 256631473, 4.832299, 0.05707661, 1.540398, 0.7360454, 0.6396058, 0.5044191, 4.354433, -0.01533575, 1.446651, 0.7122, 0.6402841, 0.5047484
 256831393, 4.617815, -0.8220016, 1.498454, 0.7308443, 0.6366173, 0.4994323, 4.832299, 0.05707661, 1.540398, 0.7360454, 0.6396058, 0.5044191
 257031313, 4.666143, 0.07347689, 1.516843, 0.7267918, 0.6400698, 0.5048933, 4.617815, -0.8220016, 1.498454, 0.7308443, 0.6366173, 0.4994323
 257231233, 4.806606, 0.04731201, 1.616192, 0.7300446, 0.6394047, 0.5125373, 4.666143, 0.07347689, 1.516843, 0.7267918, 0.6400698, 0.5048933
 257431153, 4.269682, -1.016377, 1.433016, 0.7115632, 0.6373726, 0.5028354, 4.806606, 0.04731201, 1.616192, 0.7300446, 0.6394047, 0.5125373
 257631073, 4.704029, -0.3711793, 1.520288, 0.7317711, 0.6372351, 0.501956, 4.269682, -1.016377, 1.433016, 0.7115632, 0.6373726, 0.5028354
 257830993, 4.958758, -0.01120275, 1.61928, 0.7426164, 0.6386713, 0.5053772, 4.704029, -0.3711793, 1.520288, 0.7317711, 0.6372351, 0.501956
 258030913, 5.034913, -0.7835693, 1.64528, 0.7437845, 0.6349339, 0.5131953, 4.958758, -0.01120275, 1.61928, 0.7426164, 0.6386713, 0.5053772
 258230833, 4.476442, -0.3196467, 1.517519, 0.7164732, 0.6376541, 0.5076331, 5.034913, -0.7835693, 1.64528, 0.7437845, 0.6349339, 0.5131953
 258430753, 3.781891, 0.003187015, 1.20908, 0.6911083, 0.6409014, 0.4933276, 4.476442, -0.3196467, 1.517519, 0.7164732, 0.6376541, 0.5076331
 258630673, 5.037994, -0.3935947, 1.579427, 0.7463987, 0.6354994, 0.505178, 3.781891, 0.003187015, 1.20908, 0.6911083, 0.6409014, 0.4933276
 258831426, 4.772612, -0.2133696, 1.517904, 0.7328497, 0.6366279, 0.5027853, 5.037994, -0.3935947, 1.579427, 0.7463987, 0.6354994, 0.505178
 259031346, 3.848841, -0.07382741, 1.277682, 0.6915115, 0.6392511, 0.4968603, 4.772612, -0.2133696, 1.517904, 0.7328497, 0.6366279, 0.5027853
 259231266, 4.313567, -0.3236919, 1.428432, 0.7084274, 0.6364736, 0.5047655, 3.848841, -0.07382741, 1.277682, 0.6915115, 0.6392511, 0.4968603
 259431186, 4.513079, -1.186549, 1.506786, 0.7223437, 0.6347977, 0.503634, 4.313567, -0.3236919, 1.428432, 0.7084274, 0.6364736, 0.5047655
 259631106, 3.856369, -1.17014, 1.234455, 0.6987632, 0.6363071, 0.4899256, 4.513079, -1.186549, 1.506786, 0.7223437, 0.6347977, 0.503634
 259831026, 3.731833, -1.103787, 1.205955, 0.6923614, 0.6361284, 0.4911793, 3.856369, -1.17014, 1.234455, 0.6987632, 0.6363071, 0.4899256
 260030946, 4.039572, -0.7152719, 1.362845, 0.6991251, 0.6349089, 0.5007707, 3.731833, -1.103787, 1.205955, 0.6923614, 0.6361284, 0.4911793
 260230866, 4.7333, -0.7883533, 1.595063, 0.7275999, 0.6328749, 0.5110425, 4.039572, -0.7152719, 1.362845, 0.6991251, 0.6349089, 0.5007707
 260430786, 4.905187, -0.3220938, 1.582677, 0.7363079, 0.6337746, 0.5079272, 4.7333, -0.7883533, 1.595063, 0.7275999, 0.6328749, 0.5110425
 260630706, 4.264228, 0.07980059, 1.317802, 0.7095885, 0.6375211, 0.4944803, 4.905187, -0.3220938, 1.582677, 0.7363079, 0.6337746, 0.5079272
 260831459, 4.123618, -1.067527, 1.302703, 0.7050599, 0.6339272, 0.4952894, 4.264228, 0.07980059, 1.317802, 0.7095885, 0.6375211, 0.4944803
 261031379, 4.899415, -0.4527121, 1.629084, 0.7332045, 0.6324928, 0.5116192, 4.123618, -1.067527, 1.302703, 0.7050599, 0.6339272, 0.4952894
 261231299, 4.539029, -0.7864522, 1.495491, 0.7171721, 0.6323783, 0.5069038, 4.899415, -0.4527121, 1.629084, 0.7332045, 0.6324928, 0.5116192
 261431219, 4.138374, -0.3196192, 1.303178, 0.7032383, 0.6344442, 0.4942817, 4.539029, -0.7864522, 1.495491, 0.7171721, 0.6323783, 0.5069038
 261631139, 4.918507, 0.02327803, 1.585912, 0.7379126, 0.6345062, 0.5017047, 4.138374, -0.3196192, 1.303178, 0.7032383, 0.6344442, 0.4942817
 261831059, 4.020733, -0.6592892, 1.298388, 0.6991895, 0.6332689, 0.4938456, 4.918507, 0.02327803, 1.585912, 0.7379126, 0.6345062, 0.5017047
 262030979, 4.981915, 0.01093541, 1.66306, 0.7346636, 0.6333281, 0.5127348, 4.020733, -0.6592892, 1.298388, 0.6991895, 0.6332689, 0.4938456
 262230899, 4.036107, -0.1092725, 1.324449, 0.6949113, 0.634602, 0.4986216, 4.981915, 0.01093541, 1.66306, 0.7346636, 0.6333281, 0.5127348
 262430819, 4.793822, -0.9146067, 1.567959, 0.7323552, 0.6301092, 0.5035499, 4.036107, -0.1092725, 1.324449, 0.6949113, 0.634602, 0.4986216
 262630739, 4.073349, -0.1103011, 1.274678, 0.7008519, 0.6341354, 0.4902049, 4.793822, -0.9146067, 1.567959, 0.7323552, 0.6301092, 0.5035499
 262830659, 4.332361, -0.3077849, 1.418604, 0.7086018, 0.6321295, 0.4987578, 4.073349, -0.1103011, 1.274678, 0.7008519, 0.6341354, 0.4902049
 263031412, 4.264159, -0.04211117, 1.415965, 0.7017127, 0.6334301, 0.5029473, 4.332361, -0.3077849, 1.418604, 0.7086018, 0.6321295, 0.4987578
 263231332, 4.382304, -1.022028, 1.450314, 0.7099853, 0.6302526, 0.502951, 4.264159, -0.04211117, 1.415965, 0.7017127, 0.6334301, 0.5029473
 263431252, 5.134342, -0.7476233, 1.642709, 0.746477, 0.6279911, 0.5073773, 4.382304, -1.022028, 1.450314, 0.7099853, 0.6302526, 0.502951
 263631172, 4.91453, -0.9915231, 1.584471, 0.7376845, 0.6282716, 0.5032631, 5.134342, -0.7476233, 1.642709, 0.746477, 0.6279911, 0.5073773
 263831092, 4.387721, -0.8320278, 1.428571, 0.7107332, 0.6296074, 0.500384, 4.91453, -0.9915231, 1.584471, 0.7376845, 0.6282716, 0.5032631
 264031012, 4.014118, -0.2889674, 1.357111, 0.6921166, 0.6319422, 0.4994043, 4.387721, -0.8320278, 1.428571, 0.7107332, 0.6296074, 0.500384
 264230932, 4.954563, -1.033845, 1.622036, 0.7352558, 0.6279029, 0.5100304, 4.014118, -0.2889674, 1.357111, 0.6921166, 0.6319422, 0.4994043
 264430852, 4.588108, -0.06229733, 1.433101, 0.7192631, 0.6314508, 0.4972818, 4.954563, -1.033845, 1.622036, 0.7352558, 0.6279029, 0.5100304
 264630772, 4.482715, -1.083597, 1.423205, 0.7170008, 0.6286492, 0.4970631, 4.588108, -0.06229733, 1.433101, 0.7192631, 0.6314508, 0.4972818
 264830692, 3.743747, -0.4281055, 1.188997, 0.6822623, 0.6306202, 0.4923537, 4.482715, -1.083597, 1.423205, 0.7170008, 0.6286492, 0.4970631
 265031445, 4.768322, -0.6189325, 1.537094, 0.7212755, 0.6265178, 0.5095671, 3.743747, -0.4281055, 1.188997, 0.6822623, 0.6306202, 0.4923537
 265231365, 4.835293, -0.307645, 1.497995, 0.7247945, 0.6266175, 0.5058136, 4.768322, -0.6189325, 1.537094, 0.7212755, 0.6265178, 0.5095671
 265431285, 4.188605, -0.2634564, 1.264499, 0.6999849, 0.6277229, 0.4906831, 4.835293, -0.307645, 1.497995, 0.7247945, 0.6266175, 0.5058136
 265631205, 4.546748, -0.6776391, 1.419185, 0.7151216, 0.6248152, 0.4964636, 4.188605, -0.2634564, 1.264499, 0.6999849, 0.6277229, 0.4906831
 265831125, 4.709696, -1.183681, 1.483465, 0.7187476, 0.623454, 0.5053735, 4.546748, -0.6776391, 1.419185, 0.7151216, 0.6248152, 0.4964636
 266031045, 4.159269, 0.01785793, 1.310779, 0.6903493, 0.6270447, 0.4983955, 4.709696, -1.183681, 1.483465, 0.7187476, 0.623454, 0.5053735
 266230965, 3.904416, -1.078589, 1.173687, 0.6849304, 0.6239431, 0.4905488, 4.159269, 0.01785793, 1.310779, 0.6903493, 0.6270447, 0.4983955
 266430885, 3.881253, -0.8111098, 1.155252, 0.6856793, 0.6228928, 0.4852015, 3.904416, -1.078589, 1.173687, 0.6849304, 0.6239431, 0.4905488
 266630805, 4.094271, -1.089932, 1.252027, 0.6922572, 0.6215791, 0.4907373, 3.881253, -0.8111098, 1.155252, 0.6856793, 0.6228928, 0.4852015
 266830725, 4.197228, -1.011486, 1.296845, 0.6907114, 0.6200126, 0.4982775, 4.094271, -1.089932, 1.252027, 0.6922572, 0.6215791, 0.4907373
 267031478, 3.995285, -0.9876688, 1.257933, 0.6816138, 0.6197516, 0.4957489, 4.197228, -1.011486, 1.296845, 0.6907114, 0.6200126, 0.4982775
 267231398, 4.653294, -1.140465, 1.399384, 0.7113836, 0.6170365, 0.4983848, 3.995285, -0.9876688, 1.257933, 0.6816138, 0.6197516, 0.4957489
