TimeUS,CAN,CAE,CAD,CAe
 183335803, -0.003105453, 0.003642214, 5.934844E-05, 0.0002593961
 183435763, -0.002820403, 0.003678763, -6.320213E-05, 0.0002593961
 183535723, -0.003244163, 0.003757256, -1.562686E-05, 0.0002593961
 183635683, -0.003020428, 0.003918047, -2.188402E-05, 0.0002593961
 183736476, -0.003207765, 0.003725328, 5.644208E-05, 0.0002615578
 183836436, -0.002989043, 0.003750497, -0.0002649439, 0.0002593961
 183936396, -0.003011864, 0.003593294, -0.0002454371, 0.0002593961
 184036356, -0.002920944, 0.003829791, 9.182584E-06, 0.0002593961
 184136316, -0.003032638, 0.003671764, -7.644576E-05, 0.0002593961
 184236276, -0.003098268, 0.003924513, -0.0001373469, 0.0002593961
 184336236, -0.003058391, 0.003835252, -0.0001241831, 0.0002593961
 184436196, -0.003075045, 0.003792404, -9.771202E-08, 0.0002593961
 184536156, -0.003225932, 0.003856482, -4.773017E-05, 0.0002593961
 184636116, -0.003012192, 0.003781469, 6.970001E-05, 0.0002593961
 184736076, -0.002956782, 0.003780194, -0.0001242367, 0.0002593961
 184836036, -0.002955061, 0.003702581, 2.097286E-07, 0.0002593961
 184935996, -0.002913187, 0.003876977, 0.0002577299, 0.0002593961
 185035956, -0.00320141, 0.00388455, -0.0001966762, 0.0002593961
 185135916, -0.003230964, 0.003857781, -0.0002910832, 0.0002593961
 185235876, -0.003189811, 0.003654275, -0.0001066818, 0.0002593961
 185335836, -0.003197466, 0.003789253, 0.0001021251, 0.0002593961
 185435796, -0.002991989, 0.003771919, 2.16183E-05, 0.0002593961
 185535756, -0.002884116, 0.003738125, 1.559826E-06, 0.0002593961
 185635716, -0.003039798, 0.003842605, -0.0004037064, 0.0002593961
 185735676, -0.003251558, 0.003831209, -0.0001217653, 0.0002593961
 185836469, -0.002879516, 0.003862983, -0.0001611768, 0.0002615578
 185936429, -0.003053564, 0.004004815, -0.0001798065, 0.0002593961
 186036389, -0.002981167, 0.003709578, -0.0002616241, 0.0002593961
 186136349, -0.002905841, 0.003960875, 8.651045E-07, 0.0002593961
 186236309, -0.002991615, 0.0039042, 2.255134E-05, 0.0002593961
 186336269, -0.003220828, 0.003820536, -6.239184E-05, 0.0002593961
 186436229, -0.003260086, 0.00371729, -0.0001990738, 0.0002593961
 186536189, -0.003191915, 0.00371344, -0.0002596448, 0.0002593961
 186636149, -0.003173404, 0.003982607, -0.0001589735, 0.0002593961
 186736109, -0.003241563, 0.004222219, -6.967736E-05, 0.0002593961
 186836069, -0.003355242, 0.0037301, 0.0001745908, 0.0002593961
 186936029, -0.00301103, 0.00373705, -0.0001008965, 0.0002593961
 187035989, -0.003019561, 0.003869296, -0.0001542678, 0.0002593961
 187135949, -0.003134793, 0.003896398, -6.012179E-05, 0.0002593961
 187235909, -0.003098503, 0.003812512, 3.778376E-05, 0.0002593961
 187335869, -0.003176478, 0.003800053, -7.145526E-05, 0.0002593961
 187435829, -0.003238533, 0.003820591, -8.305685E-05, 0.0002593961
 187535789, -0.00307966, 0.003763888, -0.0001022132, 0.0002593961
 187635749, -0.003099012, 0.003708555, -0.0001572671, 0.0002593961
 187735709, -0.002962291, 0.003740279, 4.549948E-05, 0.0002593961
 187835669, -0.003405637, 0.003896518, -0.0001091413, 0.0002593961
 187936462, -0.002991714, 0.003804092, -3.032305E-05, 0.0002615578
 188036422, -0.003020917, 0.003993747, 4.217845E-05, 0.0002593961
 188136382, -0.00319343, 0.003935051, -3.26193E-05, 0.0002593961
 188236342, -0.002964039, 0.004004787, 3.349871E-05, 0.0002593961
 188336302, -0.003070411, 0.003761885, 6.13015E-05, 0.0002593961
 188436262, -0.003182917, 0.004017736, 7.091307E-05, 0.0002593961
 188536222, -0.003030138, 0.003743634, 6.167923E-05, 0.0002593961
 188636182, -0.002996017, 0.003813057, -0.0001368738, 0.0002593961
 188736142, -0.003233141, 0.003814108, -6.733831E-06, 0.0002593961
 188836102, -0.003145205, 0.003765123, 0.0001561672, 0.0002593961
 188936062, -0.003127896, 0.003926725, -0.0002280193, 0.0002593961
 189036022, -0.002944655, 0.003842029, -3.409094E-05, 0.0002593961
 189135982, -0.003005981, 0.003958349, 0.0001436445, 0.0002593961
 189235942, -0.003054904, 0.003824309, -0.0001403128, 0.0002593961
 189335902, -0.002958968, 0.003904725, -0.0001023479, 0.0002593961
 189435862, -0.003089069, 0.0038204, 4.799826E-05, 0.0002593961
 189535822, -0.003186776, 0.003984233, -3.345701E-05, 0.0002593961
 189635782, -0.003002194, 0.00367594, -7.125506E-05, 0.0002593961
 189735742, -0.003013236, 0.003788837, -0.0002058314, 0.0002593961
 189835702, -0.003066117, 0.003803099, -0.0001962151, 0.0002593961
 189935662, -0.002856815, 0.003777409, -0.0001465699, 0.0002593961
 190036455, -0.003079601, 0.003680344, -0.0001593985, 0.0002615578
 190136415, -0.0029614, 0.003732306, -0.0001129628, 0.0002593961
 190236375, -0.002990078, 0.003802683, -7.366927E-05, 0.0002593961
 190336335, -0.003030563, 0.003795891, -0.0001077483, 0.0002593961
 190436295, -0.003114164, 0.003956852, -0.04041019, 0.0002593961
 190536255, -0.003210014, 0.003928261, -0.0825398, 0.0002593961
 190636215, -0.003253971, 0.00387338, -0.08345994, 0.0002593961
 190736175, -0.003267601, 0.003811144, -0.07258538, 0.0002593961
 190836135, -0.003184728, 0.003982423, -0.06301854, 0.0002593961
 190936095, -0.003027174, 0.003700675, -0.06621705, 0.0002593961
 191036055, -0.002146191, 0.002864677, -0.5220717, 0.0002593961
 191136015, 0.001338496, -0.001188649, -0.5382422, 0.0002593961
 191235975, 0.004275237, -0.004577149, -0.2439633, 0.0002593961
 191335935, 0.006146485, -0.006816398, -0.04698409, 0.0002593961
 191435895, 0.006187313, -0.006906499, -0.0003906679, 0.0002593961
 191535855, 0.003799637, -0.00395696, -0.03639793, 0.0002593961
 191635815, 1.510464E-05, 0.0006977114, -0.07971208, 0.0002593961
 191735775, -0.003722784, 0.005064378, -0.09710786, 0.0002593961
 191835735, -0.006246082, 0.00762764, -0.09124288, 0.0002593961
 191935695, -0.006932891, 0.008103766, -0.07651632, 0.0002593961
 192035655, -0.005898372, 0.007025098, -0.06184892, 0.0002593961
 192136448, -0.003925176, 0.005274262, -0.0530152, 0.0002615578
 192236408, -0.002001783, 0.003648364, -0.04575949, 0.0002593961
 192336368, -0.0006507484, 0.002709683, -0.04081595, 0.0002593961
 192436328, -0.0004984633, 0.002281414, -0.03506608, 0.0002593961
 192536288, -0.001160819, 0.002392379, -0.02965119, 0.0002593961
 192636248, -0.002479156, 0.003024635, -0.02485, 0.0002593961
 192736208, -0.003608475, 0.003472621, -0.0208653, 0.0002593961
 192836168, -0.004419755, 0.00378976, -0.01664152, 0.0002593961
 192936128, -0.004596114, 0.00406105, -0.01326023, 0.0002593961
 193036088, -0.00415778, 0.003686482, -0.01061443, 0.0002593961
 193136048, -0.003524435, 0.002945514, -0.008420305, 0.0002593961
 193236008, -0.002956047, 0.002309868, -0.003715855, 0.0002593961
 193335968, -0.002630568, 0.001787138, 1.614526E-05, 0.0002593961
 193435928, -0.002365174, 0.001558619, 0.00210446, 0.0002593961
 193535888, -0.002236167, 0.001642537, 0.003686899, 0.0002593961
 193635848, -0.002348641, 0.001928646, 0.004404006, 0.0002593961
 193735808, -0.00238933, 0.00199258, 0.004341397, 0.0002593961
 193835768, -0.001993743, 0.001989325, 0.004965578, 0.0002593961
 193935728, -0.001990942, 0.002040144, 0.006140712, 0.0002593961
 194035688, -0.001805251, 0.001954068, 0.01014522, 0.0002593961
 194136481, -0.001749956, 0.002165418, 0.01566233, 0.0002615578
 194236441, -0.001414754, 0.002746201, 0.02253745, 0.0002593961
 194336401, -0.001553083, 0.003365846, 0.03059243, 0.0002593961
 194436361, -0.001719727, 0.004042459, 0.03868463, 0.0002593961
 194536321, -0.002279001, 0.004739502, 0.04757126, 0.0002593961
 194636281, -0.002835372, 0.005357724, 0.05695573, 0.0002593961
 194736241, -0.003409009, 0.005690165, 0.06757759, 0.0002593961
 194836201, -0.003932499, 0.005783962, 0.07759518, 0.0002593961
 194936161, -0.004753573, 0.005753304, 0.08806647, 0.0002593961
 195036121, -0.005314075, 0.006010047, 0.105618, 0.0002593961
 195136081, -0.005762313, 0.006071646, 0.1387409, 0.0002593961
 195236041, -0.006697997, 0.006591992, 0.1394089, 0.0002593961
 195336001, -0.007414699, 0.007510914, 0.1345657, 0.0002593961
 195435961, -0.007701419, 0.008225917, 0.1448764, 0.0002593961
 195535921, -0.007499335, 0.008789843, 0.1581112, 0.0002593961
 195635881, -0.007150472, 0.008898044, 0.1599918, 0.0002593961
 195735841, -0.006906551, 0.01002636, 0.1414463, 0.0002593961
 195835801, -0.004740849, 0.01072675, 0.1302467, 0.0002593961
 195935761, 0.001099323, 0.01091488, 0.1172935, 0.0002593961
 196035721, 0.01127195, 0.0103976, 0.1041586, 0.0002593961
 196135681, 0.02535359, 0.00934413, 0.09120958, 0.0002593961
 196236474, 0.04093144, 0.00793561, 0.08016282, 0.0002615578
 196336434, 0.05424702, 0.006879726, 0.06843332, 0.0002593961
 196436394, 0.06421842, 0.006033551, 0.0579977, 0.0002593961
 196536354, 0.06982723, 0.005458393, 0.04860408, 0.0002593961
 196636314, 0.07204629, 0.004902135, 0.04010795, 0.0002593961
 196736274, 0.07306238, 0.004771689, 0.03286353, 0.0002593961
 196836234, 0.07407609, 0.004376553, 0.02670596, 0.0002593961
 196936194, 0.07557187, 0.003846961, 0.02175565, 0.0002593961
 197036154, 0.07823134, 0.003342712, 0.01742985, 0.0002593961
 197136114, 0.08059501, 0.00315266, 0.01412413, 0.0002593961
 197236074, 0.08207194, 0.002922345, 0.01113248, 0.0002593961
 197336034, 0.08149257, 0.002475125, 0.008805268, 0.0002593961
 197435994, 0.07896125, 0.001965755, 0.007120651, 0.0002593961
 197535954, 0.07583061, 0.001530278, 0.005538221, 0.0002593961
 197635914, 0.07251415, 0.001188757, 0.004942597, 0.0002593961
 197735874, 0.07021885, 0.001556996, 0.003917885, 0.0002593961
 197835834, 0.06915127, 0.004418608, 0.004194234, 0.0002593961
 197935794, 0.06977646, 0.0112832, 0.004935386, 0.0002593961
 198035754, 0.07241987, 0.01609571, 0.002745718, 0.0002593961
 198135714, 0.07540262, 0.01499507, 0.001565805, 0.0002593961
 198235674, 0.07807039, 0.008344091, 0.001703445, 0.0002593961
 198336467, 0.08150115, -0.001864027, 0.002308368, 0.0002615578
 198436427, 0.08320875, -0.01205967, 0.002519198, 0.0002593961
 198536387, 0.08505359, -0.01928313, 0.002612731, 0.0002593961
 198636347, 0.08617219, -0.02184552, 0.002865633, 0.0002593961
 198736307, 0.08665852, -0.02006909, 0.002302269, 0.0002593961
 198836267, 0.08699745, -0.01471559, 0.001787839, 0.0002593961
 198936227, 0.08730715, -0.007603922, 0.001718596, 0.0002593961
 199036187, 0.08785139, -0.0003148738, 0.002167321, 0.0002593961
 199136147, 0.08932863, 0.006244315, 0.002618097, 0.0002593961
 199236107, 0.09051363, 0.01112985, 0.002911283, 0.0002593961
 199336067, 0.09106949, 0.01419238, 0.002577384, 0.0002593961
 199436027, 0.08962589, 0.01570775, 0.001886667, 0.0002593961
 199535987, 0.08676303, 0.01562825, 0.001488366, 0.0002593961
 199635947, 0.08286802, 0.0147123, 0.0004874937, 0.0002593961
 199735907, 0.07829074, 0.01285406, -4.822946E-05, 0.0002593961
 199835867, 0.07411331, 0.01031551, -0.0007737008, 0.0002593961
 199935827, 0.07051729, 0.007660476, -0.0004946422, 0.0002593961
 200035787, 0.06733529, 0.00493429, 5.385509E-05, 0.0002593961
 200135747, 0.06465925, 0.002274098, 0.0003806617, 0.0002593961
 200235707, 0.06212685, 0.0004731211, 0.0008409889, 0.0002593961
 200335667, 0.0597169, -0.001273551, 0.001045401, 0.0002593961
 200436460, 0.05784351, -0.001731954, 0.0008706218, 0.0002615578
 200536420, 0.05444946, -0.001536306, 0.0009821062, 0.0002593961
 200636380, 0.05175781, -0.0008202706, 0.0005150106, 0.0002593961
 200736340, 0.04930593, 0.0007216775, -9.482045E-05, 0.0002593961
 200836300, 0.04689992, 0.00217433, -0.0007757123, 0.0002593961
 200936260, 0.04463455, 0.003540501, -0.0009199253, 0.0002593961
 201036220, 0.04213429, 0.004914489, -0.001269321, 0.0002593961
 201136180, 0.04043939, 0.005617716, -0.001883383, 0.0002593961
 201236140, 0.03828769, 0.006206932, -0.001597375, 0.0002593961
 201336100, 0.03645447, 0.006651151, -0.00150959, 0.0002593961
 201436060, 0.03465054, 0.006706571, -0.001199326, 0.0002593961
 201536020, 0.03302377, 0.006852384, -0.001477293, 0.0002593961
 201635980, 0.03148671, 0.006514043, -0.001675717, 0.0002593961
 201735940, 0.02995417, 0.005996555, -0.001938136, 0.0002593961
 201835900, 0.02814706, 0.005257954, -0.001592265, 0.0002593961
 201935860, 0.02664136, 0.004822643, -0.001602068, 0.0002593961
 202035820, 0.02558706, 0.004437617, -0.00237804, 0.0002593961
 202135780, 0.0241581, 0.003881051, -0.002133678, 0.0002593961
 202235740, 0.02273091, 0.00358412, -0.0009264491, 0.0002593961
 202335700, 0.02111575, 0.00343815, 0.0005072149, 0.0002593961
 202435660, 0.02015188, 0.003216092, 0.0009327315, 0.0002593961
 202536453, 0.01915073, 0.003417015, 0.002340854, 0.0002615578
 202636413, 0.01854811, 0.003604786, 0.001509124, 0.0002593961
 202736373, 0.01776191, 0.003716973, 0.001790134, 0.0002593961
 202836333, 0.0172177, 0.003945316, 0.001985784, 0.0002593961
 202936293, 0.01658396, 0.004030352, 0.002056235, 0.0002593961
 203036253, 0.01589603, 0.004387342, 0.001498102, 0.0002593961
 203136213, 0.01544358, 0.004723917, 0.001128265, 0.0002593961
 203236173, 0.01473889, 0.005008113, 0.0005787512, 0.0002593961
 203336133, 0.01386834, 0.005061746, 0.000927536, 0.0002593961
 203436093, 0.01280522, 0.005156443, 0.001843813, 0.0002593961
 203536053, 0.01202578, 0.004771913, 0.001752538, 0.0002593961
 203636013, 0.01175458, 0.00483515, 0.002194101, 0.0002593961
 203735973, 0.01124562, 0.004561301, 0.002130921, 0.0002593961
 203835933, 0.01079416, 0.004312022, 0.002333787, 0.0002593961
 203935893, 0.01044554, 0.00445556, 0.001916004, 0.0002593961
 204035853, 0.0106513, 0.004252004, 0.001277709, 0.0002593961
 204135813, 0.01074338, 0.004161687, -0.0001596777, 0.0002593961
 204235773, 0.01050477, 0.003966296, -0.001260869, 0.0002593961
 204335733, 0.01003625, 0.003788344, -0.001154247, 0.0002593961
 204435693, 0.009541187, 0.003592746, -0.0008761893, 0.0002593961
 204536486, 0.009198578, 0.003664201, -0.001384232, 0.0002593961
 204636446, 0.008748611, 0.003753177, -0.001581296, 0.0002615578
 204736406, 0.00812747, 0.003866321, -0.001539638, 0.0002593961
 204836366, 0.007616321, 0.003783715, -0.002597844, 0.0002593961
 204936326, 0.006698464, 0.003582424, -0.002713053, 0.0002593961
 205036286, 0.006062137, 0.003526823, -0.002901687, 0.0002593961
 205136246, 0.005464005, 0.003343931, -0.002453269, 0.0002593961
 205236206, 0.004941402, 0.003195158, -0.002189717, 0.0002593961
 205336166, 0.004440932, 0.003091746, -0.000824646, 0.0002593961
 205436126, 0.004586953, 0.003229103, -0.001443232, 0.0002593961
 205536086, 0.00430901, 0.003298735, -0.0007434054, 0.0002593961
 205636046, 0.00400974, 0.003495925, -0.0001208644, 0.0002593961
 205736006, 0.004234067, 0.003596779, 0.0003257151, 0.0002593961
 205835966, 0.003958506, 0.003479519, 0.001299464, 0.0002593961
 205935926, 0.004375354, 0.003550027, 0.0008290073, 0.0002593961
 206035886, 0.004464482, 0.003377462, 0.001081998, 0.0002593961
 206135846, 0.00395679, 0.00362456, 0.002090689, 0.0002593961
 206235806, 0.004083137, 0.003355556, 0.001107497, 0.0002593961
 206335766, 0.004003845, 0.003479142, 0.0008931531, 0.0002593961
 206435726, 0.003876513, 0.003720969, 0.0004400734, 0.0002593961
 206535686, 0.003659368, 0.003831884, 5.349998E-05, 0.0002593961
 206636479, 0.003606381, 0.003900171, -0.0009933712, 0.0002615578
 206736439, 0.003281503, 0.003913152, -0.0008066549, 0.0002593961
 206836399, 0.002667712, 0.003841291, -0.0006612183, 0.0002593961
 206936359, 0.002598386, 0.003881331, -0.0006760229, 0.0002593961
 207036319, 0.002106407, 0.004036289, -0.0002641538, 0.0002593961
 207136279, 0.001852479, 0.003996257, 0.0001919753, 0.0002593961
 207236239, 0.001994164, 0.003977802, -0.0002101558, 0.0002593961
 207336199, 0.001698426, 0.00395125, 0.0005925823, 0.0002593961
 207436159, 0.00169201, 0.003631598, 0.001046547, 0.0002593961
 207536119, 0.001709659, 0.003593685, 0.001086653, 0.0002593961
 207636079, 0.001566593, 0.003413798, 0.001280282, 0.0002593961
 207736039, 0.001773571, 0.003283021, 0.001193249, 0.0002593961
 207835999, 0.00180067, 0.003247563, 0.001389016, 0.0002593961
 207935959, 0.001651282, 0.003452165, 0.001143347, 0.0002593961
 208035919, 0.001829035, 0.003419615, 0.0005522186, 0.0002593961
 208135879, 0.001980564, 0.003889093, 0.0003609179, 0.0002593961
 208235839, 0.001566929, 0.004127451, 0.000178093, 0.0002593961
 208335799, 0.001481693, 0.004041647, -0.0003559703, 0.0002593961
 208435759, 0.001218288, 0.003853156, -0.0005736665, 0.0002593961
 208535719, 0.0007662937, 0.004065812, -0.0007435637, 0.0002593961
 208635679, 0.001002722, 0.003878539, -0.001745069, 0.0002593961
 208736472, 0.0008654094, 0.003732169, -0.00228981, 0.0002615578
 208836432, 0.0006584516, 0.00377318, -0.002300502, 0.0002593961
 208936392, 0.000480005, 0.003701092, -0.002534759, 0.0002593961
 209036352, 0.0002690935, 0.003879302, -0.00217451, 0.0002593961
 209136312, 2.45762E-05, 0.003952139, -0.001944564, 0.0002593961
 209236272, -0.0005895827, 0.003798488, -0.000650899, 0.0002593961
 209336232, -0.001074029, 0.003805332, 0.0002638381, 0.0002593961
 209436192, -0.0008924961, 0.003647202, 0.0002645685, 0.0002593961
 209536152, -0.0009883151, 0.003373433, 0.0002319636, 0.0002593961
 209636112, -0.000834406, 0.003434951, 0.0003709954, 0.0002593961
 209736072, -0.0007603675, 0.003348869, 0.0006557607, 0.0002593961
 209836032, -0.0007195088, 0.003128618, 0.001495462, 0.0002593961
 209935992, -0.0002811635, 0.003162624, 0.002139082, 0.0002593961
 210035952, 0.0002970737, 0.003177223, 0.0009977438, 0.0002593961
 210135912, 0.0008176598, 0.003043751, 0.0005495554, 0.0002593961
 210235872, 0.0004393792, 0.002927986, 0.0006557155, 0.0002593961
 210335832, -0.0001230749, 0.002946168, 0.0004892728, 0.0002593961
 210435792, -0.0005307908, 0.002926746, 0.0004805954, 0.0002593961
 210535752, -0.0005001171, 0.002807335, 5.754433E-05, 0.0002593961
 210635712, -0.000542426, 0.002926968, -0.0009307808, 0.0002593961
 210735672, -0.001025485, 0.00324529, -0.0001251435, 0.0002593961
 210836465, -0.0007694875, 0.003445644, -0.0009066137, 0.0002615578
 210936425, -0.0008533334, 0.003359189, -0.000994436, 0.0002593961
 211036385, -0.0008926, 0.00358406, -0.001106595, 0.0002593961
 211136345, -0.0007026084, 0.003595225, -0.001478414, 0.0002593961
 211236305, -0.0008191199, 0.003491066, -0.001607069, 0.0002593961
 211336265, -0.0009801015, 0.003541986, -0.002271491, 0.0002593961
 211436225, -0.001488016, 0.003581795, -0.001564548, 0.0002593961
 211536185, -0.001544966, 0.003726999, -0.002128648, 0.0002593961
 211636145, -0.001942842, 0.003702995, -0.001051426, 0.0002593961
 211736105, -0.00188462, 0.003662999, -0.0006644045, 0.0002593961
 211836065, -0.001717763, 0.00352783, -0.0006061, 0.0002593961
 211936025, -0.001638378, 0.003634313, -0.0003243579, 0.0002593961
 212035985, -0.001465508, 0.003636336, 9.945265E-06, 0.0002593961
 212135945, -0.001669768, 0.003763828, 0.0006734668, 0.0002593961
 212235905, -0.002234089, 0.003903513, 0.001596025, 0.0002593961
 212335865, -0.002097315, 0.003891733, 0.001658811, 0.0002593961
 212435825, -0.001945108, 0.004023573, 0.00143167, 0.0002593961
 212535785, -0.00217306, 0.003966896, 0.001487303, 0.0002593961
 212635745, -0.002012245, 0.004189007, 0.001441837, 0.0002593961
 212735705, -0.001791121, 0.004099239, 0.001418712, 0.0002593961
 212835665, -0.001463952, 0.004040424, 0.0002419433, 0.0002593961
 212936458, -0.0009899185, 0.004427979, -0.000615017, 0.0002615578
 213036418, -0.001063446, 0.004450836, -0.0009158164, 0.0002593961
 213136378, -0.001105194, 0.004553016, -0.002056835, 0.0002593961
 213236338, -0.001429673, 0.004195343, -0.002309036, 0.0002593961
 213336298, -0.001873754, 0.004110206, -0.002426144, 0.0002593961
 213436258, -0.002278671, 0.003947844, -0.002269732, 0.0002593961
 213536218, -0.002615175, 0.003810694, -0.002266649, 0.0002593961
 213636178, -0.003046998, 0.003634795, -0.001277688, 0.0002593961
 213736138, -0.003107999, 0.003510753, -0.001033024, 0.0002593961
 213836098, -0.002863947, 0.003711945, -8.395891E-05, 0.0002593961
 213936058, -0.002761493, 0.003701462, 0.0001516188, 0.0002593961
 214036018, -0.003253372, 0.003802647, 0.002055208, 0.0002593961
 214135978, -0.002935074, 0.00399528, 0.001978661, 0.0002593961
 214235938, -0.003000306, 0.004000084, 0.003225755, 0.0002593961
 214335898, -0.003092907, 0.004381436, 0.00365429, 0.0002593961
 214435858, -0.002859384, 0.004318622, 0.003552128, 0.0002593961
 214535818, -0.002672684, 0.00433024, 0.003348516, 0.0002593961
 214635778, -0.002506398, 0.004429173, 0.003199097, 0.0002593961
 214735738, -0.002364008, 0.004435507, 0.003020034, 0.0002593961
 214835698, -0.002210323, 0.004344371, 0.002845639, 0.0002593961
 214935658, -0.00175875, 0.004087246, 0.001534762, 0.0002593961
 215036451, -0.001776977, 0.003849821, 0.001248028, 0.0002615578
 215136411, -0.001978545, 0.003361245, 0.000726309, 0.0002593961
 215236371, -0.001793914, 0.003097987, -0.000575404, 0.0002593961
 215336331, -0.001387105, 0.00317473, -0.001548936, 0.0002593961
 215436291, -0.0009953264, 0.003414208, -0.002320529, 0.0002593961
 215536251, -0.001574654, 0.003399211, -0.002372635, 0.0002593961
 215636211, -0.001871472, 0.003657811, -0.002524179, 0.0002593961
 215736171, -0.001850963, 0.003938825, -0.002667572, 0.0002593961
 215836131, -0.002295043, 0.003945902, -0.002122004, 0.0002593961
 215936091, -0.002739338, 0.004067032, -0.001000913, 0.0002593961
 216036051, -0.002516821, 0.004197191, -0.001439215, 0.0002593961
 216136011, -0.002451774, 0.004290824, -0.002071078, 0.0002593961
 216235971, -0.002867065, 0.004409638, -0.0007287494, 0.0002593961
 216335931, -0.002988124, 0.004418309, -0.0006505687, 0.0002593961
 216435891, -0.003137668, 0.004312868, -0.0004481311, 0.0002593961
 216535851, -0.002641752, 0.004219424, -0.001731311, 0.0002593961
 216635811, -0.002692626, 0.003834298, -0.001791876, 0.0002593961
 216735771, -0.002679654, 0.003616114, -0.00216249, 0.0002593961
 216835731, -0.003124003, 0.003616645, -0.001729366, 0.0002593961
 216935691, -0.003837326, 0.003763504, -0.0005139261, 0.0002593961
 217036484, -0.003760487, 0.003762834, -0.0008237127, 0.0002615578
 217136444, -0.003454099, 0.003757288, -0.001017378, 0.0002593961
 217236404, -0.003787267, 0.003605983, -4.951761E-05, 0.0002593961
 217336364, -0.003405812, 0.00356848, -0.0005638274, 0.0002593961
 217436324, -0.003033014, 0.003540862, -0.001202624, 0.0002593961
 217536284, -0.00336873, 0.003349047, -0.0001983445, 0.0002593961
 217636244, -0.003216541, 0.003339573, -0.0006340447, 0.0002593961
 217736204, -0.003617002, 0.003500293, 0.0001580869, 0.0002593961
 217836164, -0.003527944, 0.003590452, -0.0001108954, 0.0002593961
 217936124, -0.003738386, 0.003694294, -0.000223801, 0.0002593961
 218036084, -0.003605512, 0.003642961, 0.0001248587, 0.0002593961
 218136044, -0.003325714, 0.003767927, 0.0002493135, 0.0002593961
 218236004, -0.003150999, 0.003916447, 0.0003828794, 0.0002593961
 218335964, -0.003658641, 0.003831024, 0.001997934, 0.0002593961
 218435924, -0.003561356, 0.003997495, 0.002057424, 0.0002593961
 218535884, -0.003179079, 0.004003734, 0.001759412, 0.0002593961
 218635844, -0.002938396, 0.003854471, 0.001977772, 0.0002593961
 218735804, -0.0026067, 0.003694893, 0.002111148, 0.0002593961
 218835764, -0.002296383, 0.003728776, 0.001545732, 0.0002593961
 218935724, -0.0008462783, 0.00317463, 0.0002947558, 0.0002593961
 219035684, -0.001414569, 0.002719382, -0.0002322757, 0.0002593961
 219136477, -0.002091488, 0.002627611, -0.0001218837, 0.0002615578
 219236437, -0.00209311, 0.002179566, -0.0005111591, 0.0002593961
 219336397, -0.002492132, 0.002461925, -0.0003514505, 0.0002593961
 219436357, -0.003027126, 0.003034536, -0.0004122921, 0.0002593961
 219536317, -0.003413613, 0.003232542, -0.0006188945, 0.0002593961
 219636277, -0.003614176, 0.003618387, -0.00041606, 0.0002593961
 219736237, -0.003824265, 0.003943365, -0.0003876338, 0.0002593961
 219836197, -0.003589363, 0.004359679, -0.0003516841, 0.0002593961
 219936157, -0.003135206, 0.004363448, -0.0004612818, 0.0002593961
 220036117, -0.002830602, 0.004408992, -0.0005084793, 0.0002593961
 220136077, -0.00255022, 0.004533053, -0.001074228, 0.0002593961
 220236037, -0.002422722, 0.004123262, -0.001734998, 0.0002593961
 220335997, -0.00292168, 0.003768797, -0.0009542305, 0.0002593961
 220435957, -0.003202336, 0.003780221, -0.0006543496, 0.0002593961
 220535917, -0.003149172, 0.003822318, -0.001045324, 0.0002593961
 220635877, -0.003277862, 0.004110917, -0.001296115, 0.0002593961
 220735837, -0.003379473, 0.004158412, -0.0007680337, 0.0002593961
 220835797, -0.003788535, 0.004249676, -0.0001688341, 0.0002593961
 220935757, -0.003646716, 0.004346919, -5.185675E-05, 0.0002593961
 221035717, -0.003691691, 0.004215715, 0.0001450555, 0.0002593961
 221135677, -0.003638183, 0.004367271, 0.0001175803, 0.0002593961
 221236470, -0.003526143, 0.004214562, 0.0001619072, 0.0002615578
 221336430, -0.003452216, 0.003971652, 0.0001519072, 0.0002593961
 221436390, -0.003472243, 0.004071782, 0.000501749, 0.0002593961
 221536350, -0.003036626, 0.004021554, 0.0002633614, 0.0002593961
 221636310, -0.002919616, 0.004115901, 0.0008922679, 0.0002593961
 221736270, -0.002688923, 0.003877412, 0.0005248939, 0.0002593961
 221836230, -0.003127622, 0.003922167, 0.0009652935, 0.0002593961
 221936190, -0.00315662, 0.004049581, 0.0008376929, 0.0002593961
 222036150, -0.003022146, 0.004079723, 0.0006646989, 0.0002593961
 222136110, -0.002720989, 0.004106597, 0.0002141119, 0.0002593961
 222236070, -0.002819866, 0.004070527, 0.001020325, 0.0002593961
 222336030, -0.002537842, 0.00399357, -0.0001033751, 0.0002593961
 222435990, -0.002700121, 0.004016913, 0.0003364981, 0.0002593961
 222535950, -0.002550999, 0.003769763, 7.37813E-05, 0.0002593961
 222635910, -0.00247639, 0.003861424, 2.196269E-05, 0.0002593961
 222735870, -0.003572784, 0.00389146, 0.0007719396, 0.0002593961
 222835830, -0.003316135, 0.003788283, 0.001316425, 0.0002593961
 222935790, -0.002665407, 0.003544913, 0.0008462499, 0.0002593961
 223035750, -0.00222257, 0.003582772, 0.0001436815, 0.0002593961
 223135710, -0.001885125, 0.003708743, -0.0002095636, 0.0002593961
 223235670, -0.00229382, 0.003673049, -0.0007488554, 0.0002593961
 223336463, -0.002635153, 0.003931732, -0.001572481, 0.0002615578
 223436423, -0.002865521, 0.003926923, -0.00187071, 0.0002593961
 223536383, -0.003443774, 0.004047559, -0.0009683322, 0.0002593961
 223636343, -0.003767339, 0.003870268, -0.0003506462, 0.0002593961
 223736303, -0.00380564, 0.004041063, -0.0002839013, 0.0002593961
 223836263, -0.003900258, 0.003976343, -0.0002512546, 0.0002593961
 223936223, -0.003901984, 0.004006696, -9.855737E-05, 0.0002593961
 224036183, -0.003807758, 0.004039218, -0.000135109, 0.0002593961
 224136143, -0.00373272, 0.004116544, -0.0001199719, 0.0002593961
 224236103, -0.003936389, 0.003942938, 0.0005733139, 0.0002593961
 224336063, -0.004366832, 0.003687595, 2.623104E-05, 0.0002593961
 224436023, -0.001697533, 0.00342592, -2.780875E-05, 0.0002593961
 224535983, -0.0001913107, 0.003183754, -0.0005999417, 0.0002593961
 224635943, -0.001726421, 0.003448484, -0.001743182, 0.0002593961
 224735903, -0.003048991, 0.00381151, -0.001024992, 0.0002593961
 224835863, -0.003818928, 0.003832006, -0.0001286171, 0.0002593961
 224935823, -0.004145962, 0.004010469, 4.033262E-05, 0.0002593961
 225035783, -0.007704349, 0.004037902, 4.933171E-05, 0.0002593961
 225135743, -0.0061238, 0.004279467, 0.0002341823, 0.0002593961
 225235703, -0.00341035, 0.004297797, 0.0002413035, 0.0002593961
 225335663, -0.0004059593, 0.004355507, 0.0002938764, 0.0002593961
 225436456, 0.002920059, 0.004294266, -0.0002319763, 0.0002615578
 225536416, -0.0002608143, 0.003749697, -0.0002501166, 0.0002593961
 225636376, -0.002800967, 0.003292255, -5.725119E-05, 0.0002593961
 225736336, -0.004358523, 0.003101611, -0.0004997018, 0.0002593961
 225836296, -0.004978352, 0.002976721, -0.0008568673, 0.0002593961
 225936256, -0.004406037, 0.002890232, -0.001491548, 0.0002593961
 226036216, -0.003607839, 0.003118481, -0.002147016, 0.0002593961
 226136176, -0.003540878, 0.003593032, -0.0007526234, 0.0002593961
 226236136, -0.00348546, 0.003910434, -0.0002630195, 0.0002593961
 226336096, -0.003172182, 0.003817979, -0.0006206926, 0.0002593961
 226436056, -0.003138905, 0.003935709, -0.0008933092, 0.0002593961
 226536016, -0.003157248, 0.004062262, -0.001181846, 0.0002593961
 226635976, -0.003279708, 0.004074678, -0.001168717, 0.0002593961
 226735936, -0.003325021, 0.004103512, -0.0004638759, 0.0002593961
 226835896, -0.003535246, 0.004170792, 0.0003759072, 0.0002593961
 226935856, -0.003295821, 0.003959587, 0.0004515188, 0.0002593961
 227035816, -0.003052683, 0.004074026, 0.0004944873, 0.0002593961
 227135776, -0.003413384, 0.004307567, 0.0008477503, 0.0002593961
 227235736, -0.003745869, 0.004053184, 0.002067544, 0.0002593961
 227335696, -0.003862142, 0.004064003, 0.002137254, 0.0002593961
 227435656, -0.003957327, 0.003990156, 0.001984494, 0.0002593961
 227536449, -0.004140839, 0.003895637, 0.001908868, 0.0002615578
 227636409, -0.004314873, 0.003702218, 0.002365633, 0.0002593961
 227736369, -0.0101416, 0.003548661, 0.00249117, 0.0002593961
 227836329, -0.006076375, 0.003174852, 0.002925196, 0.0002593961
 227936289, -0.0005473165, 0.003061474, 0.002885116, 0.0002593961
 228036249, 0.007090556, 0.003117339, 0.002840045, 0.0002593961
 228136209, 0.00185064, 0.002987422, 0.002619229, 0.0002593961
 228236169, -0.002014649, 0.003064868, 0.002337323, 0.0002593961
 228336129, -0.004016044, 0.003138744, 0.00138843, 0.0002593961
 228436089, -0.004533151, 0.003528707, 0.0008046234, 0.0002593961
 228536049, -0.004346117, 0.003471359, 0.000321075, 0.0002593961
 228636009, -0.004740042, 0.003774974, 0.0002934616, 0.0002593961
 228735969, -0.01299789, 0.003893685, -0.0002620805, 0.0002593961
 228835929, -0.008822203, 0.003967884, -0.0008049212, 0.0002593961
 228935889, 0.003458868, 0.003982971, -0.0008475227, 0.0002593961
 229035849, 0.007924141, 0.003800159, -0.001194943, 0.0002593961
 229135809, 0.003360123, 0.003746746, -0.003398946, 0.0002593961
 229235769, -0.002944709, 0.003967728, -0.00478636, 0.0002593961
 229335729, -0.005421147, 0.004234912, -0.005503153, 0.0002593961
 229435689, -0.004903628, 0.004180994, -0.005208753, 0.0002593961
 229536482, -0.004446129, 0.004158847, -0.004666425, 0.0002615578
 229636442, -0.003630699, 0.004081842, -0.004157946, 0.0002593961
 229736402, -0.00336695, 0.003969981, -0.003676126, 0.0002593961
 229836362, -0.002715186, 0.004212976, -0.003293746, 0.0002593961
 229936322, -0.001895757, 0.004079283, -0.003798724, 0.0002593961
 230036282, -0.00169497, 0.004209845, -0.004085356, 0.0002593961
 230136242, -0.002073369, 0.004390067, -0.003901082, 0.0002593961
 230236202, -0.003109698, 0.004623657, -0.0035398, 0.0002593961
 230336162, -0.003553234, 0.004443438, -0.003645022, 0.0002593961
 230436122, -0.003585666, 0.003925098, -0.003856871, 0.0002593961
 230536082, -0.003978093, 0.003694919, -0.002968956, 0.0002593961
 230636042, -0.004168657, 0.003455694, -0.001764279, 0.0002593961
 230736002, -0.004307277, 0.003353455, -0.001161179, 0.0002593961
 230835962, -0.004061282, 0.003694892, -0.000641802, 0.0002593961
 230935922, -0.004117701, 0.003890165, -0.000109158, 0.0002593961
 231035882, -0.004054774, 0.004244477, 0.000196544, 0.0002593961
 231135842, -0.004079507, 0.004313756, 0.0001144321, 0.0002593961
 231235802, -0.004108819, 0.004366036, 0.0002916206, 0.0002593961
 231335762, -0.003814372, 0.004231117, 0.0002342598, 0.0002593961
 231435722, -0.003602031, 0.00438254, 0.0001319703, 0.0002593961
 231535682, -0.003171296, 0.004105128, -0.0007424137, 0.0002593961
 231636475, -0.002758108, 0.003465584, -0.0014259, 0.0002615578
 231736435, -0.002809811, 0.003312627, -0.00133669, 0.0002593961
 231836395, -0.003050829, 0.00310722, -0.001273588, 0.0002593961
 231936355, -0.003272314, 0.003094618, -0.001034147, 0.0002593961
 232036315, -0.003487845, 0.003337143, -1.542546E-05, 0.0002593961
 232136275, -0.003569811, 0.003961464, 3.355472E-05, 0.0002593961
 232236235, -0.003662669, 0.004323475, 0.0003832953, 0.0002593961
 232336195, -0.003551033, 0.004668598, 0.0003461776, 0.0002593961
 232436155, -0.003457496, 0.004640788, 0.000669556, 0.0002593961
 232536115, -0.002968152, 0.004436377, -0.0001320025, 0.0002593961
 232636075, -0.002888139, 0.004630893, -0.0002672461, 0.0002593961
 232736035, -0.002846352, 0.004396328, -0.0008996344, 0.0002593961
 232835995, -0.002772068, 0.004237289, -0.001347012, 0.0002593961
 232935955, -0.003364147, 0.003961855, -0.000150065, 0.0002593961
 233035915, -0.003343133, 0.004100486, -0.0005418624, 0.0002593961
 233135875, -0.003371595, 0.003865379, 0.0001930096, 0.0002593961
 233235835, -0.003208808, 0.003740447, 0.0005396043, 0.0002593961
 233335795, -0.003113676, 0.003660936, 0.0007677213, 0.0002593961
 233435755, -0.002877828, 0.003649802, 0.0004588675, 0.0002593961
 233535715, -0.003010467, 0.0038072, 0.0003760286, 0.0002593961
 233635675, -0.00298511, 0.003799086, -0.0007283979, 0.0002593961
 233736468, -0.003600943, 0.004053208, 0.000312574, 0.0002615578
 233836428, -0.003636958, 0.004307037, 0.0002101749, 0.0002593961
 233936388, -0.003867473, 0.004394076, 0.0004344346, 0.0002593961
 234036348, -0.00371062, 0.004292974, 0.0002115833, 0.0002593961
 234136308, -0.003882915, 0.004146168, 0.001171096, 0.0002593961
 234236268, -0.003679935, 0.003935077, 0.001605644, 0.0002593961
 234336228, -0.003241734, 0.003479364, 0.0009668166, 0.0002593961
 234436188, -0.002779181, 0.003158764, 0.0003357247, 0.0002593961
 234536148, -0.002907978, 0.002984083, 0.0002753003, 0.0002593961
 234636108, -0.003076272, 0.003072335, 0.001217817, 0.0002593961
 234736068, -0.003351127, 0.003614993, 0.001871718, 0.0002593961
 234836028, -0.003363271, 0.004179449, 0.001627203, 0.0002593961
 234935988, -0.002957327, 0.00433722, 0.0007453022, 0.0002593961
 235035948, -0.002619888, 0.004254627, 0.0001594358, 0.0002593961
 235135908, -0.002373487, 0.004304196, -0.000207999, 0.0002593961
 235235868, -0.002155192, 0.004193908, 1.960327E-05, 0.0002593961
 235335828, -0.002575491, 0.00431526, 1.809826E-05, 0.0002593961
 235435788, -0.002942878, 0.004267362, -6.281246E-05, 0.0002593961
 235535748, -0.003489977, 0.00421822, 0.0005141907, 0.0002593961
 235635708, -0.003751284, 0.003912897, 0.0003518139, 0.0002593961
 235735668, -0.003328999, 0.003756379, 3.219866E-05, 0.0002593961
 235836461, -0.00304966, 0.003614792, 3.232537E-05, 0.0002615578
 235936421, -0.002442928, 0.003372596, -0.0008137344, 0.0002593961
 236036381, -0.002004981, 0.003206492, -0.001828669, 0.0002593961
 236136341, -0.001963408, 0.003425036, -0.00180023, 0.0002593961
 236236301, -0.002010421, 0.003579687, -0.002002559, 0.0002593961
 236336261, -0.002345824, 0.003654946, -0.002520684, 0.0002593961
 236436221, -0.003163645, 0.00357659, -0.001973978, 0.0002593961
 236536181, -0.003754329, 0.003571243, -0.001734646, 0.0002593961
 236636141, -0.004113781, 0.003423183, -0.001718859, 0.0002593961
 236736101, -0.004100993, 0.003457661, -0.001146902, 0.0002593961
 236836061, -0.003579269, 0.003506185, -0.001015481, 0.0002593961
 236936021, -0.003281485, 0.003668122, -0.001303365, 0.0002593961
 237035981, -0.003077992, 0.003941722, -0.0007543954, 0.0002593961
 237135941, -0.003035853, 0.003691284, -0.0008196674, 0.0002593961
 237235901, -0.003077275, 0.003816186, -0.001120163, 0.0002593961
 237335861, -0.002973611, 0.003843192, -0.001080536, 0.0002593961
 237435821, -0.003189945, 0.003811035, -0.0009694344, 0.0002593961
 237535781, -0.00320836, 0.003762285, -0.0008599476, 0.0002593961
 237635741, -0.003303901, 0.00374513, 0.0001136087, 0.0002593961
 237735701, -0.003872379, 0.003622408, -7.610874E-06, 0.0002593961
 237835661, -0.004110408, 0.003625712, -0.0002206087, 0.0002593961
 237936454, -0.004481818, 0.003588449, 0.0004289869, 0.0002615578
 238036414, -0.004457225, 0.003552251, 0.0007266438, 0.0002593961
 238136374, -0.004294559, 0.003457071, 0.0008388869, 0.0002593961
 238236334, -0.003799195, 0.003412318, 0.0007597291, 0.0002593961
 238336294, -0.003197195, 0.003462771, 0.0005547616, 0.0002593961
 238436254, -0.003057879, 0.003669764, 0.0007094775, 0.0002593961
 238536214, -0.002774735, 0.003755422, 0.0002648438, 0.0002593961
 238636174, -0.002845822, 0.003991186, 0.0002370041, 0.0002593961
 238736134, -0.00303799, 0.003863746, 0.0006829913, 0.0002593961
 238836094, -0.003544094, 0.004076642, 0.001147341, 0.0002593961
 238936054, -0.003919406, 0.004187584, 0.002219511, 0.0002593961
 239036014, -0.003721419, 0.003874205, 0.002266899, 0.0002593961
 239135974, -0.00363457, 0.003869467, 0.002114367, 0.0002593961
 239235934, -0.002898151, 0.003792654, 0.001724991, 0.0002593961
 239335894, -0.002612652, 0.003910786, 0.00198975, 0.0002593961
 239435854, -0.002463049, 0.003896327, 0.002174231, 0.0002593961
 239535814, -0.002033878, 0.003779061, 0.0006989448, 0.0002593961
 239635774, -0.00186765, 0.00394253, 0.0001232024, 0.0002593961
 239735734, -0.002020186, 0.004266419, -0.0003322083, 0.0002593961
 239835694, -0.001799785, 0.004328613, -0.001776764, 0.0002593961
 239935654, -0.002340373, 0.004224138, -0.001684038, 0.0002593961
 240036447, -0.002609761, 0.004388113, -0.001891124, 0.0002615578
 240136407, -0.002524036, 0.004057113, -0.002889856, 0.0002593961
 240236367, -0.002764134, 0.003652334, -0.003330214, 0.0002593961
 240336327, -0.003433522, 0.003734682, -0.002259702, 0.0002593961
 240436287, -0.003638833, 0.003716151, -0.001459601, 0.0002593961
 240536247, -0.003881988, 0.00366647, -0.0007336171, 0.0002593961
 240636207, -0.004084019, 0.003992593, 0.000517066, 0.0002593961
 240736167, -0.003890081, 0.004247818, 0.0004715713, 0.0002593961
 240836127, -0.003794398, 0.004035076, 0.001015989, 0.0002593961
 240936087, -0.003769925, 0.004234158, 0.001492064, 0.0002593961
 241036047, -0.003201305, 0.00403394, 0.0008110757, 0.0002593961
 241136007, -0.003126522, 0.003730345, 0.0006263109, 0.0002593961
 241235967, -0.003061834, 0.003570156, 0.0006805843, 0.0002593961
 241335927, -0.003124257, 0.003691857, 0.0009043376, 0.0002593961
 241435887, -0.003021656, 0.0036123, 0.0007088173, 0.0002593961
 241535847, -0.003132032, 0.003836201, 0.000530349, 0.0002593961
 241635807, -0.00325982, 0.003577074, 0.001297396, 0.0002593961
 241735767, -0.003373588, 0.003974153, 0.001835257, 0.0002593961
 241835727, -0.003242458, 0.004194272, 0.001568466, 0.0002593961
 241935687, -0.003319315, 0.004188997, 0.001575446, 0.0002593961
 242036480, -0.003337309, 0.004103253, 0.001922338, 0.0002615578
 242136440, -0.002895689, 0.003995984, 0.001800271, 0.0002593961
 242236400, -0.002805599, 0.003785228, 0.001860651, 0.0002593961
 242336360, -0.002678656, 0.003674874, 0.001818911, 0.0002593961
 242436320, -0.002388461, 0.003436354, 0.001435253, 0.0002593961
 242536280, -0.002381971, 0.003305356, 0.000632797, 0.0002593961
 242636240, -0.002505804, 0.003361573, 9.079398E-05, 0.0002593961
 242736200, -0.002549375, 0.003359996, -0.0005485283, 0.0002593961
 242836160, -0.002731673, 0.00363189, -0.0002060483, 0.0002593961
 242936120, -0.003188847, 0.003728186, 0.0004010895, 0.0002593961
 243036080, -0.002771897, 0.003783746, -0.0001038767, 0.0002593961
 243136040, -0.002603273, 0.003786181, -0.000463964, 0.0002593961
 243236000, -0.002236477, 0.003814937, -0.001321457, 0.0002593961
 243335960, -0.002310476, 0.003727457, -0.002367542, 0.0002593961
 243435920, -0.002623511, 0.003976272, -0.002207767, 0.0002593961
 243535880, -0.003180104, 0.003961492, -0.002328059, 0.0002593961
 243635840, -0.003408269, 0.003841545, -0.001697444, 0.0002593961
 243735800, -0.003701845, 0.00380537, -0.001149384, 0.0002593961
 243835760, -0.003541291, 0.003793102, -0.0001264376, 0.0002593961
 243935720, -0.003268568, 0.003552658, 0.00021183, 0.0002593961
 244035680, -0.003029208, 0.003573905, 1.015615E-05, 0.0002593961
 244136473, -0.002858183, 0.003433652, -2.107333E-05, 0.0002615578
 244236433, -0.002719092, 0.003383771, 0.000334054, 0.0002593961
 244336393, -0.003043684, 0.003617632, 0.0005470149, 0.0002593961
 244436353, -0.003391483, 0.004017304, 0.0003392328, 0.0002593961
 244536313, -0.003714707, 0.004144584, -7.551153E-05, 0.0002593961
 244636273, -0.003854781, 0.004369419, -0.0001607299, 0.0002593961
 244736233, -0.003957538, 0.004251761, -0.0003487276, 0.0002593961
 244836193, -0.003805732, 0.004260046, -0.0003628805, 0.0002593961
 244936153, -0.004001836, 0.004369979, -0.000335926, 0.0002593961
 245036113, -0.003559862, 0.004277441, -0.001182619, 0.0002593961
 245136073, -0.003238052, 0.004073658, -0.002161996, 0.0002593961
 245236033, -0.003121666, 0.003920718, -0.001965715, 0.0002593961
 245335993, -0.003002959, 0.003457691, -0.001772506, 0.0002593961
 245435953, -0.003020033, 0.00319175, -0.001835963, 0.0002593961
 245535913, -0.002972367, 0.002959552, -0.001715907, 0.0002593961
 245635873, -0.003017195, 0.002869971, -0.0009960814, 0.0002593961
 245735833, -0.002890875, 0.003215565, -0.001129952, 0.0002593961
 245835793, -0.003016808, 0.003571223, -0.001149543, 0.0002593961
 245935753, -0.003257715, 0.003951947, -0.0004974687, 0.0002593961
 246035713, -0.003457553, 0.004121322, 0.0004482967, 0.0002593961
 246135673, -0.003572937, 0.004089107, 0.0005391372, 0.0002593961
 246236466, -0.003407696, 0.004081151, 0.0006094481, 0.0002615578
 246336426, -0.003291993, 0.004071007, 0.000286915, 0.0002593961
 246436386, -0.003220031, 0.004024374, 0.0004562305, 0.0002593961
 246536346, -0.003178286, 0.004172332, 0.0004510685, 0.0002593961
 246636306, -0.0030257, 0.004161861, 0.0004346694, 0.0002593961
 246736266, -0.002860017, 0.004270443, 0.0006320177, 0.0002593961
 246836226, -0.002702601, 0.004045584, 0.0005274128, 0.0002593961
 246936186, -0.002756166, 0.004121582, 0.0005044207, 0.0002593961
 247036146, -0.002802561, 0.004101607, 0.0006830391, 0.0002593961
 247136106, -0.003090336, 0.004177983, 0.001408362, 0.0002593961
 247236066, -0.003466649, 0.003991125, 0.00202535, 0.0002593961
 247336026, -0.003320887, 0.003936737, 0.001004911, 0.0002593961
 247435986, -0.003089566, 0.003838253, 0.0008167396, 0.0002593961
 247535946, -0.003074166, 0.003621924, 0.001063197, 0.0002593961
 247635906, -0.003398848, 0.003510207, 0.001335662, 0.0002593961
 247735866, -0.00328033, 0.003763189, 0.001622171, 0.0002593961
 247835826, -0.002775837, 0.003955021, 0.0003683249, 0.0002593961
 247935786, -0.002692542, 0.003880148, -0.0001961126, 0.0002593961
 248035746, -0.002888783, 0.003883551, -0.0002382636, 0.0002593961
 248135706, -0.003084149, 0.003862236, -0.0001932861, 0.0002593961
 248235666, -0.003087816, 0.003966292, -0.0004603963, 0.0002593961
 248336459, -0.003059111, 0.00403923, -0.0005693863, 0.0002615578
 248436419, -0.003285197, 0.00404163, -0.0005509187, 0.0002593961
 248536379, -0.003280024, 0.004020335, -0.0005585307, 0.0002593961
 248636339, -0.003387842, 0.003832506, -0.0001794514, 0.0002593961
 248736299, -0.003479329, 0.003652697, -0.0002702573, 0.0002593961
 248836259, -0.003456932, 0.003441406, -0.0001714986, 0.0002593961
 248936219, -0.003372883, 0.003443494, -0.0001569775, 0.0002593961
 249036179, -0.003189204, 0.003200564, -0.0004021275, 0.0002593961
 249136139, -0.003282153, 0.003280401, -0.0005780314, 0.0002593961
 249236099, -0.003227329, 0.003543162, -0.0004160135, 0.0002593961
 249336059, -0.003402233, 0.003726135, -0.0004815464, 0.0002593961
 249436019, -0.003356756, 0.003701482, -0.0002711057, 0.0002593961
 249535979, -0.003376516, 0.00392483, -0.0003177861, 0.0002593961
 249635939, -0.003190181, 0.003967879, -0.0006023893, 0.0002593961
 249735899, -0.002796232, 0.003691725, -0.00109481, 0.0002593961
 249835859, -0.002325708, 0.003488457, -0.001478697, 0.0002593961
 249935819, -0.002182211, 0.003266647, -0.001577385, 0.0002593961
 250035779, -0.002244797, 0.003033167, -0.001235059, 0.0002593961
 250135739, -0.002436539, 0.003412699, -0.001415932, 0.0002593961
 250235699, -0.00260004, 0.003456102, -0.0009726709, 0.0002593961
 250335659, -0.00306093, 0.003503916, -0.000602997, 0.0002593961
 250436452, -0.003419243, 0.003569801, -4.933009E-05, 0.0002615578
 250536412, -0.004156559, 0.003732276, 0.0001300017, 0.0002593961
 250636372, -0.004706495, 0.003573476, 0.000538322, 0.0002593961
 250736332, -0.004401106, 0.003568282, 0.0007215663, 0.0002593961
 250836292, -0.003941534, 0.003681077, 0.0003360584, 0.0002593961
 250936252, -0.00353576, 0.003760608, 0.0003659822, 0.0002593961
 251036212, -0.00348779, 0.003667788, 0.0004888294, 0.0002593961
 251136172, -0.003085082, 0.003598267, 0.0003439088, 0.0002593961
 251236132, -0.003167258, 0.003665511, 0.0001310206, 0.0002593961
 251336092, -0.003327189, 0.003757174, 0.0002337486, 0.0002593961
 251436052, -0.003073968, 0.003653185, -0.0004310981, 0.0002593961
 251536012, -0.002893682, 0.003866606, -0.0009195404, 0.0002593961
 251635972, -0.00316366, 0.003837822, -0.0001077269, 0.0002593961
 251735932, -0.003247005, 0.00397958, -0.0002792755, 0.0002593961
 251835892, -0.002884351, 0.003872933, -0.0004592691, 0.0002593961
 251935852, -0.003158064, 0.003737226, 9.630162E-05, 0.0002593961
 252035812, -0.003175587, 0.00357947, 0.0002246423, 0.0002593961
 252135772, -0.003362602, 0.003700453, 9.462741E-05, 0.0002593961
 252235732, -0.003433748, 0.003741297, 0.000677286, 0.0002593961
 252335692, -0.003804364, 0.003414253, 0.001608766, 0.0002593961
 252436485, -0.003153984, 0.003527817, 0.001073113, 0.0002615578
 252536445, -0.002735418, 0.003451548, 0.0003375622, 0.0002593961
 252636405, -0.002477083, 0.00357694, 0.000297512, 0.0002593961
 252736365, -0.002654241, 0.003707472, -5.358697E-05, 0.0002593961
 252836325, -0.003045162, 0.003777191, -5.834748E-05, 0.0002593961
 252936285, -0.001718342, 0.003794941, -0.0009069247, 0.0002593961
 253036245, -0.001447, 0.003920081, -0.001442197, 0.0002593961
 253136205, -0.00195297, 0.003800531, -0.001521658, 0.0002593961
 253236165, -0.002967108, 0.003586064, -8.649822E-05, 0.0002593961
 253336125, -0.002947123, 0.003308807, -0.0009486943, 0.0002593961
 253436085, -0.00291465, 0.003483004, -0.001404143, 0.0002593961
 253536045, -0.002822834, 0.00341458, -0.00152496, 0.0002593961
 253636005, -0.002884216, 0.003544252, -0.001476502, 0.0002593961
 253735965, -0.002876615, 0.003730366, -0.001452881, 0.0002593961
 253835925, -0.002818503, 0.003804327, -0.001706934, 0.0002593961
 253935885, -0.00266585, 0.004021503, -0.002483638, 0.0002593961
 254035845, -0.003057582, 0.00411928, -0.001886091, 0.0002593961
 254135805, -0.00341905, 0.004016509, -0.001509586, 0.0002593961
 254235765, -0.00346011, 0.00431068, -0.001907278, 0.0002593961
 254335725, -0.003453764, 0.004005375, -0.002125897, 0.0002593961
 254435685, -0.003813401, 0.003983652, -0.0009184477, 0.0002593961
 254536478, -0.00390988, 0.004026102, -0.0009800276, 0.0002615578
 254636438, -0.004080878, 0.003982356, -0.0008953422, 0.0002593961
 254736398, -0.004318632, 0.003864112, 0.0005257481, 0.0002593961
 254836358, -0.009999885, 0.003817479, 0.001095307, 0.0002593961
 254936318, -0.006881696, 0.003806677, 0.000788266, 0.0002593961
 255036278, -0.004012831, 0.003692321, 0.001204027, 0.0002593961
 255136238, -0.002283968, 0.003573327, 0.001325617, 0.0002593961
 255236198, 0.009174745, 0.003685253, 0.001039081, 0.0002593961
 255336158, 0.007693206, 0.003926514, 0.001234985, 0.0002593961
 255436118, -0.0009640037, 0.004321071, 0.000771519, 0.0002593961
 255536078, -0.01221189, 0.004283307, 0.001255252, 0.0002593961
 255636038, -0.02523595, 0.004256127, 0.00149471, 0.0002593961
 255735998, -0.0128766, 0.003850613, 0.001580606, 0.0002593961
 255835958, -0.004151958, 0.003500105, 0.001278136, 0.0002593961
 255935918, 0.001192951, 0.003562047, 0.0008135983, 0.0002593961
 256035878, 0.004615386, 0.003596039, 0.0005772331, 0.0002593961
 256135838, 0.01977136, 0.003620255, 3.148845E-05, 0.0002593961
 256235798, 0.009091442, 0.00386783, 0.0001848268, 0.0002593961
 256335758, -0.001936671, 0.003842575, -0.0001363078, 0.0002593961
 256435718, -0.008522113, 0.003391209, 0.0004079688, 0.0002593961
 256535678, -0.01490046, 0.00282878, 0.000711004, 0.0002593961
 256636471, -0.02419923, 0.002813068, 0.0008212288, 0.0002615578
 256736431, -0.01050018, 0.002769018, 0.0001772851, 0.0002593961
 256836391, -0.001563031, 0.00341635, 0.0002088319, 0.0002593961
 256936351, 0.003316221, 0.003848384, -0.0001975342, 0.0002593961
 257036311, 0.01145689, 0.004012194, -0.0009353412, 0.0002593961
 257136271, 0.01420269, 0.004000756, -0.0006430985, 0.0002593961
 257236231, 0.001915662, 0.004233232, -0.001338512, 0.0002593961
 257336191, -0.005762678, 0.004273243, -0.0008606482, 0.0002593961
 257436151, -0.0094963, 0.004089702, -0.0003155149, 0.0002593961
 257536111, -0.01789668, 0.003847818, 5.656958E-05, 0.0002593961
 257636071, -0.01846071, 0.003886807, -0.0002360079, 0.0002593961
 257736031, -0.006442046, 0.003852155, 0.0004326603, 0.0002593961
 257835991, 0.0005447837, 0.003682059, 3.26505E-07, 0.0002593961
 257935951, 0.007576762, 0.003680232, -0.0003639541, 0.0002593961
 258035911, 0.0175705, 0.004000723, -0.001151071, 0.0002593961
 258135871, 0.005090309, 0.003945307, -0.001383777, 0.0002593961
 258235831, -0.003663218, 0.003885381, -0.001284277, 0.0002593961
 258335791, -0.008734868, 0.003796839, -0.0008352622, 0.0002593961
 258435751, -0.0124571, 0.003811626, 0.0002834187, 0.0002593961
 258535711, -0.0239382, 0.003813389, 0.0008846676, 0.0002593961
 258635671, -0.01220463, 0.003708143, 0.001260726, 0.0002593961
 258736464, -0.003061845, 0.003604199, 0.001542999, 0.0002615578
 258836424, 0.001683991, 0.004001134, 0.001574321, 0.0002593961
 258936384, 0.005033103, 0.004298817, 0.0005695007, 0.0002593961
 259036344, 0.0172962, 0.004272861, 0.0004110325, 0.0002593961
 259136304, 0.005553662, 0.004267734, 0.000334632, 0.0002593961
 259236264, -0.003726705, 0.00401789, 0.0002624725, 0.0002593961
 259336224, -0.008996763, 0.004019757, 0.0005046959, 0.0002593961
 259436184, -0.02205171, 0.003750247, 0.001247389, 0.0002593961
 259536144, -0.01820949, 0.003861502, 0.001312669, 0.0002593961
 259636104, -0.007307807, 0.003528188, 0.002116014, 0.0002593961
 259736064, -0.0002766054, 0.003511487, 0.002473434, 0.0002593961
 259836024, 0.003004835, 0.003484281, 0.002005076, 0.0002593961
 259935984, 0.007147919, 0.003534476, 0.001734352, 0.0002593961
 260035944, 0.01612579, 0.003592143, 0.001510577, 0.0002593961
 260135904, 0.003763251, 0.003573699, 0.001177967, 0.0002593961
 260235864, -0.003870968, 0.003310225, 0.0003205817, 0.0002593961
 260335824, -0.007473391, 0.003086449, -0.0007558313, 0.0002593961
 260435784, -0.01429481, 0.003245869, -0.001774048, 0.0002593961
 260535744, -0.02187222, 0.003297955, -0.001723724, 0.0002593961
 260635704, -0.009077609, 0.003197082, -0.0008957116, 0.0002593961
 260735664, -0.001306114, 0.003011355, -0.0005150295, 0.0002593961
 260836457, 0.005841522, 0.003476197, -0.0002518842, 0.0002615578
 260936417, 0.01988436, 0.003754309, -0.0004310576, 0.0002593961
 261036377, 0.007811361, 0.004105373, -0.001687762, 0.0002593961
 261136337, -0.001901298, 0.004501166, -0.002404675, 0.0002593961
 261236297, -0.007878186, 0.003850789, -0.002332405, 0.0002593961
 261336257, -0.01014605, 0.003320433, -0.001808346, 0.0002593961
 261436217, -0.02166275, 0.003198606, -0.0006517114, 0.0002593961
 261536177, -0.01752636, 0.003131535, -7.80461E-05, 0.0002593961
 261636137, -0.006015198, 0.003175443, 0.0002816873, 0.0002593961
 261736097, 0.00078086, 0.003476159, 0.0004500031, 0.0002593961
 261836057, 0.003890717, 0.003742906, 0.0004702832, 0.0002593961
 261936017, 0.01755021, 0.004044757, 0.0002981089, 0.0002593961
 262035977, 0.007729629, 0.004204576, -0.0007313519, 0.0002593961
 262135937, -0.00216273, 0.004135572, -0.0009838472, 0.0002593961
 262235897, -0.007969955, 0.003965692, -0.0001713032, 0.0002593961
 262335857, -0.01383367, 0.003448101, -7.554011E-05, 0.0002593961
 262435817, -0.02378779, 0.003171262, -0.0006660098, 0.0002593961
 262535777, -0.01122086, 0.003270577, 0.0002021577, 0.0002593961
 262635737, -0.002382337, 0.003813644, 0.0004443667, 0.0002593961
 262735697, 0.00267502, 0.00447491, -0.0002854457, 0.0002593961
 262835657, 0.008401501, 0.00471522, -0.0007441451, 0.0002593961
 262936450, 0.01666231, 0.00423447, -0.0009683152, 0.0002615578
 263036410, 0.003879938, 0.004120003, -0.001456266, 0.0002593961
 263136370, -0.004138472, 0.003888994, -0.001777679, 0.0002593961
 263236330, -0.008536899, 0.004003988, -0.001459821, 0.0002593961
 263336290, -0.01249719, 0.004098912, -0.001311356, 0.0002593961
 263436250, -0.02283129, 0.003813036, -0.000927816, 0.0002593961
 263536210, -0.01006704, 0.00363137, -0.001043802, 0.0002593961
 263636170, -0.001448854, 0.003851323, -0.0003799123, 0.0002593961
 263736130, 0.003662234, 0.004107967, -0.001208196, 0.0002593961
 263836090, 0.01828749, 0.003926013, -0.0006994036, 0.0002593961
 263936050, 0.009749347, 0.003946511, -0.0007640952, 0.0002593961
 264036010, -0.0007111132, 0.003693846, -0.0008819007, 0.0002593961
 264135970, -0.007256617, 0.003757019, -2.675656E-05, 0.0002593961
 264235930, -0.009851303, 0.003546551, 0.000406552, 0.0002593961
 264335890, -0.01770803, 0.003494389, 0.0008278277, 0.0002593961
 264435850, -0.01935555, 0.00320106, 0.001461732, 0.0002593961
 264535810, -0.007014691, 0.003059674, 0.002243999, 0.0002593961
 264635770, 1.935455E-05, 0.003472194, 0.001918074, 0.0002593961
 264735730, 0.005360921, 0.003928143, 0.0008629062, 0.0002593961
 264835690, 0.01824494, 0.004333362, 0.0008669639, 0.0002593961
 264936483, 0.006623113, 0.004476958, -2.054502E-05, 0.0002615578
 265036443, -0.002471467, 0.004395735, -0.0007681203, 0.0002593961
 265136403, -0.007958231, 0.003946234, -0.000768752, 0.0002593961
 265236363, -0.01064659, 0.003534411, -3.001443E-05, 0.0002593961
 265336323, -0.02374505, 0.003092163, 0.0001639568, 0.0002593961
 265436283, -0.01406588, 0.003190437, 0.0005160437, 0.0002593961
 265536243, -0.004263903, 0.003565453, 0.000936739, 0.0002593961
 265636203, 0.001482133, 0.003658507, 0.0004154342, 0.0002593961
 265736163, 0.006511433, 0.003791957, 0.0001696277, 0.0002593961
 265836123, 0.01745842, 0.003856753, -0.0007732218, 0.0002593961
 265936083, 0.00496598, 0.003962996, -0.0013227, 0.0002593961
 266036043, -0.004233229, 0.003747982, -0.001156779, 0.0002593961
 266136003, -0.009040162, 0.003677293, -0.0003151229, 0.0002593961
 266235963, -0.0191099, 0.003508373, 0.0009628175, 0.0002593961
 266335923, -0.02064588, 0.003452578, 0.001927827, 0.0002593961
 266435883, -0.008344299, 0.003717218, 0.002751081, 0.0002593961
 266535843, -0.0006186094, 0.003666456, 0.003120034, 0.0002593961
 266635803, 0.003292157, 0.003837537, 0.0026708, 0.0002593961
 266735763, 0.009012124, 0.00374185, 0.002020076, 0.0002593961
 266835723, 0.01550265, 0.003412647, 0.0007520813, 0.0002593961
 266935683, 0.002527468, 0.003347372, -0.0003843331, 0.0002593961
 267036476, -0.005619032, 0.003175604, -0.0003299442, 0.0002615578
 267136436, -0.009508102, 0.003160265, -0.000273943, 0.0002593961
 267236396, -0.02278805, 0.003107142, -7.115019E-05, 0.0002593961
 267336356, -0.01598395, 0.003042592, -0.0004439913, 0.0002593961
 267436316, -0.005164805, 0.003209185, -0.0001843776, 0.0002593961
 267536276, 0.001263379, 0.003601483, -0.0002294064, 0.0002593961
 267636236, 0.004483617, 0.003559837, -2.040403E-05, 0.0002593961
 267736196, 0.01768395, 0.003747401, -0.0005977408, 0.0002593961
 267836156, 0.007705667, 0.003953736, -0.0006834048, 0.0002593961
 267936116, -0.00191707, 0.003668011, -0.001228472, 0.0002593961
 268036076, -0.007656336, 0.003261405, -0.0007845434, 0.0002593961
 268136036, -0.01014519, 0.003004651, -0.0002540967, 0.0002593961
 268235996, -0.02350282, 0.002952924, -0.0001493131, 0.0002593961
 268335956, -0.01423602, 0.002895721, 0.0002950203, 0.0002593961
 268435916, -0.004450764, 0.003284194, 0.0009694251, 0.0002593961
 268535876, 0.00152617, 0.004027785, 0.0008866029, 0.0002593961
 268635836, 0.00682239, 0.004423718, 0.0001318881, 0.0002593961
 268735796, 0.01788938, 0.004731532, 0.0003240719, 0.0002593961
 268835756, 0.005750177, 0.004984648, -0.0009955154, 0.0002593961
 268935716, -0.002835992, 0.004912845, -0.002144858, 0.0002593961
 269035676, -0.008201207, 0.004299764, -0.001985616, 0.0002593961
 269136469, -0.01083606, 0.003974155, -0.001480258, 0.0002615578
 269236429, -0.02362265, 0.003881293, -0.0002942124, 0.0002593961
 269336389, -0.01285257, 0.004153275, -9.544488E-05, 0.0002593961
 269436349, -0.003004631, 0.004147119, 0.0001972804, 0.0002593961
 269536309, 0.002405546, 0.004141294, -0.0003106734, 0.0002593961
 269636269, 0.01445769, 0.004070614, -0.000671316, 0.0002593961
 269736229, 0.01323497, 0.003909814, -0.0006208498, 0.0002593961
 269836189, -0.002544107, 0.004236239, -0.001972432, 0.0002593961
 269936149, -0.02706973, 0.004187514, -0.003805412, 0.0002593961
 270036109, -0.05930224, 0.002983156, -0.004065751, 0.0002593961
 270136069, -0.07736843, -0.0005472925, -0.002966785, 0.0002593961
 270236029, -0.08720932, -0.006132091, -0.001477224, 0.0002593961
 270335989, -0.0910948, -0.01326102, 0.0003255138, 0.0002593961
 270435949, -0.09173462, -0.02046198, 0.001684195, 0.0002593961
 270535909, -0.09232698, -0.02615464, 0.001580616, 0.0002593961
 270635869, -0.09381337, -0.02988012, 0.001684, 0.0002593961
 270735829, -0.09622548, -0.03183899, 0.001540493, 0.0002593961
 270835789, -0.1006741, -0.03337999, 0.0008919545, 0.0002593961
 270935749, -0.1060359, -0.03456076, 0.0006344962, 0.0002593961
 271035709, -0.111276, -0.03650387, 0.0006710825, 0.0002593961
 271135669, -0.1162281, -0.03909317, 0.0009009261, 0.0002593961
 271236462, -0.1213869, -0.04329799, 0.0007471996, 0.0002615578
 271336422, -0.1241834, -0.04749662, 0.001029385, 0.0002593961
 271436382, -0.1281659, -0.05243062, 0.001077375, 0.0002593961
 271536342, -0.1318046, -0.05732987, 0.001187731, 0.0002593961
 271636302, -0.1359961, -0.06170686, 0.001351036, 0.0002593961
 271736262, -0.1403446, -0.06610182, 0.001338031, 0.0002593961
 271836222, -0.1454012, -0.0700359, 0.001646837, 0.0002593961
 271936182, -0.1504848, -0.07369517, 0.001608092, 0.0002593961
 272036142, -0.1556978, -0.07679044, 0.001536623, 0.0002593961
 272136102, -0.1608467, -0.07924081, 0.001434796, 0.0002593961
 272236062, -0.165828, -0.08048528, 0.001243612, 0.0002593961
 272336022, -0.1695854, -0.08144354, 0.0008122782, 0.0002593961
 272435982, -0.1721871, -0.0823331, 0.0005380802, 0.0002593961
 272535942, -0.1733818, -0.08351364, 0.0001856514, 0.0002593961
 272635902, -0.1728592, -0.08511461, 0.0002532136, 0.0002593961
 272735862, -0.1691278, -0.08714183, 0.0002578776, 0.0002593961
 272835822, -0.16246, -0.08934384, 0.000247084, 0.0002593961
 272935782, -0.1518801, -0.09159231, 0.0006622537, 0.0002593961
 273035742, -0.1387537, -0.09391593, 0.0004449042, 0.0002593961
 273135702, -0.1244648, -0.09580991, 0.0007384921, 0.0002593961
 273235662, -0.1102834, -0.09757669, 0.0009816677, 0.0002593961
 273336455, -0.09834907, -0.09956536, 0.001121753, 0.0002615578
 273436415, -0.08699953, -0.09933718, 0.0008407375, 0.0002593961
 273536375, -0.07871282, -0.09908143, 0.0005616134, 0.0002593961
 273636335, -0.07270449, -0.09852293, -7.112636E-05, 0.0002593961
 273736295, -0.06901521, -0.09774269, -0.0006939984, 0.0002593961
 273836255, -0.06707884, -0.09619122, -0.001124684, 0.0002593961
 273936215, -0.06534952, -0.09377139, -0.001106798, 0.0002593961
 274036175, -0.06397983, -0.09054416, -0.001390204, 0.0002593961
 274136135, -0.06216262, -0.08668135, -0.001605984, 0.0002593961
 274236095, -0.05976741, -0.08277187, -0.001616228, 0.0002593961
 274336055, -0.05636478, -0.0791266, -0.001196301, 0.0002593961
 274436015, -0.05180763, -0.07609442, -0.0009902746, 0.0002593961
 274535975, -0.04574522, -0.07318852, -0.0009201932, 0.0002593961
 274635935, -0.03937302, -0.07068414, -0.0004509552, 0.0002593961
 274735895, -0.03276841, -0.06798311, -0.0004523375, 0.0002593961
 274835855, -0.02618632, -0.06568477, -0.0009638029, 0.0002593961
 274935815, -0.01998051, -0.0631189, -0.001597352, 0.0002593961
 275035775, -0.01452485, -0.06046539, -0.002134369, 0.0002593961
