TimeUS,gprLat,gprLng,gprAlt,gprGC,gpGC,gprN,gprE,gprD
 54693947, -353632575, 1491652029, -1132560946, 0, 0, 0, 0, 0
 54713939, -353632575, 1491652029, -1124168853, 0, 0, 0, 0, 0
 54733931, -353632575, 1491652029, -1124408383, 0, 0, 0, 0, 0
 54753923, -353632575, 1491652029, -1124655294, 0, 0, 0, 0, 0
 54773915, -353632575, 1491652029, -1124940534, 0, 0, 0, 0, 0
 54793907, -353632575, 1491652029, -1125191809, 0, 0, 0, 0, 0
 54813899, -353632575, 1491652029, -1125441306, 0, 0, 0, 0, 0
 54833891, -353632473, 1491652861, -1125664769, 0, 0, 0, 0, 0
 54853883, -353632473, 1491652861, -1125953825, 0, 0, 0, 0, 0
 54873875, -353632473, 1491652861, -1126188980, 0, 0, 0, 0, 0
 54893867, -353632473, 1491652861, -1126483771, 0, 0, 0, 0, 0
 54913859, -353632473, 1491652861, 1008920992, 0, 0, 0, 0, 0
 54933851, -353632473, 1491652861, 1009319768, 0, 0, 0, 0, 0
 54953843, -353632473, 1491652861, 1009909602, 0, 0, 0, 0, 0
 54973835, -353632473, 1491652861, 1010506045, 0, 0, 0, 0, 0
 54993827, -353632473, 1491652861, 1011089446, 0, 0, 0, 0, 0
 55013819, -353632473, 1491652861, 1011723697, 0, 0, 0, 0, 0
 55033811, -353633042, 1491652524, 1012331066, 0, 0, 0, 0, 0
 55053803, -353633042, 1491652524, 1012895819, 0, 0, 0, 0, 0
 55073795, -353633042, 1491652524, 1013617783, 0, 0, 0, 0, 0
 55093787, -353633042, 1491652524, 1014291598, 0, 0, 0, 0, 0
 55113779, -353633042, 1491652524, 1019820736, 0, 0, 0, 0, 0
 55133771, -353633042, 1491652524, 1020096545, 0, 0, 0, 0, 0
 55153763, -353633042, 1491652524, 1020398669, 0, 0, 0, 0, 0
 55173755, -353633042, 1491652524, 1020693318, 0, 0, 0, 0, 0
 55193747, -353633042, 1491652524, 1020976181, 0, 0, 0, 0, 0
 55213739, -353633042, 1491652524, 1021165473, 0, 0, 0, 0, 0
 55233731, -353633298, 1491652299, 1021255594, 353.0064, 353.0064, 0.009000001, -0.001, 0
 55253723, -353633298, 1491652299, 1021270696, 353.0064, 353.0064, 0.009000001, -0.001, 0
 55273715, -353633298, 1491652299, 1021051608, 353.0064, 353.0064, 0.009000001, -0.001, 0
 55293707, -353633298, 1491652299, 1020612618, 353.0064, 353.0064, 0.009000001, -0.001, 0
 55313699, -353633298, 1491652299, 1016654322, 353.0064, 353.0064, 0.009000001, -0.001, 0
 55333691, -353633298, 1491652299, 1015738002, 353.0064, 353.0064, 0.009000001, -0.001, 0
 55353683, -353633298, 1491652299, 1014213033, 353.0064, 353.0064, 0.009000001, -0.001, 0
 55373675, -353633298, 1491652299, 1011239993, 353.0064, 353.0064, 0.009000001, -0.001, 0
 55393667, -353633298, 1491652299, 1007517171, 353.0064, 353.0064, 0.009000001, -0.001, 0
 55413659, -353633298, 1491652299, 1000269301, 353.0064, 353.0064, 0.009000001, -0.001, 0
 55433651, -353632937, 1491652395, 978358032, 352.9229, 352.9229, 0.248, -0.03, 0
 55453643, -353632937, 1491652395, -1148737157, 352.9229, 352.9229, 0.248, -0.03, 0
 55473635, -353632937, 1491652395, -1138992914, 352.9229, 352.9229, 0.248, -0.03, 0
 55493627, -353632937, 1491652395, -1133103530, 352.9229, 352.9229, 0.248, -0.03, 0
 55513619, -353632937, 1491652395, -1130510700, 352.9229, 352.9229, 0.248, -0.03, 0
 55533611, -353632937, 1491652395, -1126312533, 352.9229, 352.9229, 0.248, -0.03, 0
 55553603, -353632937, 1491652395, -1123017862, 352.9229, 352.9229, 0.248, -0.03, 0
 55573595, -353632937, 1491652395, -1120579829, 352.9229, 352.9229, 0.248, -0.03, 0
 55593587, -353632937, 1491652395, -1118335377, 352.9229, 352.9229, 0.248, -0.03, 0
 55613579, -353632937, 1491652395, -1115836387, 352.9229, 352.9229, 0.248, -0.03, 0
 55633571, -353632213, 1491652960, -1114323097, 352.9734, 352.9734, 0.932, -0.114, -0.002
 55653563, -353632213, 1491652960, -1112808714, 352.9734, 352.9734, 0.932, -0.114, -0.002
 55673555, -353632213, 1491652960, -1111219812, 352.9734, 352.9734, 0.932, -0.114, -0.002
 55693547, -353632213, 1491652960, -1109686255, 352.9734, 352.9734, 0.932, -0.114, -0.002
 55713539, -353632213, 1491652960, -1113000595, 352.9734, 352.9734, 0.932, -0.114, -0.002
 55733531, -353632213, 1491652960, -1111172324, 352.9734, 352.9734, 0.932, -0.114, -0.002
 55753523, -353632213, 1491652960, -1109462295, 352.9734, 352.9734, 0.932, -0.114, -0.002
 55773515, -353632213, 1491652960, -1107544825, 352.9734, 352.9734, 0.932, -0.114, -0.002
 55793507, -353632213, 1491652960, -1106461554, 352.9734, 352.9734, 0.932, -0.114, -0.002
 55813499, -353632213, 1491652960, -1105389123, 352.9734, 352.9734, 0.932, -0.114, -0.002
 55833491, -353633079, 1491652430, -1104339185, 353.0255, 353.0255, 2.091, -0.255, -0.009000001
 55853483, -353633079, 1491652430, -1103231656, 353.0255, 353.0255, 2.091, -0.255, -0.009000001
 55873475, -353633079, 1491652430, -1102092809, 353.0255, 353.0255, 2.091, -0.255, -0.009000001
 55894300, -353633079, 1491652430, -1100894961, 353.0255, 353.0255, 2.091, -0.255, -0.009000001
 55914292, -353633079, 1491652430, -1099663056, 353.0255, 353.0255, 2.091, -0.255, -0.009000001
 55934284, -353633079, 1491652430, -1098661095, 353.0255, 353.0255, 2.091, -0.255, -0.009000001
 55954276, -353633079, 1491652430, -1098030909, 353.0255, 353.0255, 2.091, -0.255, -0.009000001
 55974268, -353633079, 1491652430, -1097407656, 353.0255, 353.0255, 2.091, -0.255, -0.009000001
 55994260, -353633079, 1491652430, -1096748950, 353.0255, 353.0255, 2.091, -0.255, -0.009000001
 56014252, -353633079, 1491652430, -1096021202, 353.0255, 353.0255, 2.091, -0.255, -0.009000001
 56034244, -353633060, 1491653132, -1095239646, 352.9824, 352.9824, 3.698, -0.455, -0.018
 56054236, -353633060, 1491653132, -1094460239, 352.9824, 352.9824, 3.698, -0.455, -0.018
 56074228, -353633060, 1491653132, -1093694318, 352.9824, 352.9824, 3.698, -0.455, -0.018
 56094220, -353633060, 1491653132, -1092835108, 352.9824, 352.9824, 3.698, -0.455, -0.018
 56114212, -353633060, 1491653132, -1093454053, 352.9824, 352.9824, 3.698, -0.455, -0.018
 56134204, -353633060, 1491653132, -1092693019, 352.9824, 352.9824, 3.698, -0.455, -0.018
 56154196, -353633060, 1491653132, -1091769506, 352.9824, 352.9824, 3.698, -0.455, -0.018
 56174188, -353633060, 1491653132, -1091008863, 352.9824, 352.9824, 3.698, -0.455, -0.018
 56194180, -353633060, 1491653132, -1090275724, 352.9824, 352.9824, 3.698, -0.455, -0.018
 56214172, -353633060, 1491653132, -1089845871, 352.9824, 352.9824, 3.698, -0.455, -0.018
 56234164, -353631891, 1491652006, -1089426724, 352.9972, 352.9972, 5.708, -0.701, -0.03
 56254156, -353631891, 1491652006, -1088955133, 352.9972, 352.9972, 5.708, -0.701, -0.03
 56274148, -353631891, 1491652006, -1088529508, 352.9972, 352.9972, 5.708, -0.701, -0.03
 56294140, -353631891, 1491652006, -1088080781, 352.9972, 352.9972, 5.708, -0.701, -0.03
 56314132, -353631891, 1491652006, -1087047810, 352.9972, 352.9972, 5.708, -0.701, -0.03
 56334124, -353631891, 1491652006, -1086636862, 352.9972, 352.9972, 5.708, -0.701, -0.03
 56354116, -353631891, 1491652006, -1086142866, 352.9972, 352.9972, 5.708, -0.701, -0.03
 56374108, -353631891, 1491652006, -1085653103, 352.9972, 352.9972, 5.708, -0.701, -0.03
 56394100, -353631891, 1491652006, -1085183658, 352.9972, 352.9972, 5.708, -0.701, -0.03
 56414092, -353631891, 1491652006, -1084772543, 352.9972, 352.9972, 5.708, -0.701, -0.03
 56434084, -353632169, 1491653198, -1084347732, 352.9961, 352.9961, 7.831, -0.9620001, -0.044
 56454076, -353632169, 1491653198, -1083872037, 352.9961, 352.9961, 7.831, -0.9620001, -0.044
 56474068, -353632169, 1491653198, -1083417334, 352.9961, 352.9961, 7.831, -0.9620001, -0.044
 56494060, -353632169, 1491653198, -1082962968, 352.9961, 352.9961, 7.831, -0.9620001, -0.044
 56514052, -353632169, 1491653198, -1083296102, 352.9961, 352.9961, 7.831, -0.9620001, -0.044
 56534044, -353632169, 1491653198, -1082861792, 352.9961, 352.9961, 7.831, -0.9620001, -0.044
 56554036, -353632169, 1491653198, -1082461053, 352.9961, 352.9961, 7.831, -0.9620001, -0.044
 56574028, -353632169, 1491653198, -1082087141, 352.9961, 352.9961, 7.831, -0.9620001, -0.044
 56594020, -353632169, 1491653198, -1081882167, 352.9961, 352.9961, 7.831, -0.9620001, -0.044
 56614012, -353632169, 1491653198, -1081691062, 352.9961, 352.9961, 7.831, -0.9620001, -0.044
 56634004, -353632179, 1491651493, -1081503114, 353.0275, 353.0275, 9.802, -1.198, -0.057
 56653996, -353632179, 1491651493, -1081313819, 353.0275, 353.0275, 9.802, -1.198, -0.057
 56673988, -353632179, 1491651493, -1081122272, 353.0275, 353.0275, 9.802, -1.198, -0.057
 56693980, -353632179, 1491651493, -1080930160, 353.0275, 353.0275, 9.802, -1.198, -0.057
 56713972, -353632179, 1491651493, -1080194919, 353.0275, 353.0275, 9.802, -1.198, -0.057
 56733964, -353632179, 1491651493, -1079989194, 353.0275, 353.0275, 9.802, -1.198, -0.057
 56753956, -353632179, 1491651493, -1079772467, 353.0275, 353.0275, 9.802, -1.198, -0.057
 56773948, -353632179, 1491651493, -1079569510, 353.0275, 353.0275, 9.802, -1.198, -0.057
 56793940, -353632179, 1491651493, -1079391711, 353.0275, 353.0275, 9.802, -1.198, -0.057
 56813932, -353632179, 1491651493, -1079202237, 353.0275, 353.0275, 9.802, -1.198, -0.057
 56833924, -353632175, 1491652051, -1079007532, 352.9814, 352.9814, 11.574, -1.424, -0.08400001
 56853916, -353632175, 1491652051, -1078826831, 352.9814, 352.9814, 11.574, -1.424, -0.08400001
 56873908, -353632175, 1491652051, -1078667629, 352.9814, 352.9814, 11.574, -1.424, -0.08400001
 56893900, -353632175, 1491652051, -1078492173, 352.9814, 352.9814, 11.574, -1.424, -0.08400001
 56913892, -353632175, 1491652051, -1078267184, 352.9814, 352.9814, 11.574, -1.424, -0.08400001
 56933884, -353632175, 1491652051, -1078094158, 352.9814, 352.9814, 11.574, -1.424, -0.08400001
 56953876, -353632175, 1491652051, -1077937796, 352.9814, 352.9814, 11.574, -1.424, -0.08400001
 56973868, -353632175, 1491652051, -1077779596, 352.9814, 352.9814, 11.574, -1.424, -0.08400001
 56993860, -353632175, 1491652051, -1077614998, 352.9814, 352.9814, 11.574, -1.424, -0.08400001
 57013852, -353632175, 1491652051, -1077466982, 352.9814, 352.9814, 11.574, -1.424, -0.08400001
 57033844, -353631990, 1491652213, -1077313823, 352.9949, 352.9949, 13.126, -1.612, -0.209
 57053836, -353631990, 1491652213, -1077143574, 352.9949, 352.9949, 13.126, -1.612, -0.209
 57073828, -353631990, 1491652213, -1076987496, 352.9949, 352.9949, 13.126, -1.612, -0.209
 57093820, -353631990, 1491652213, -1076824862, 352.9949, 352.9949, 13.126, -1.612, -0.209
 57113812, -353631990, 1491652213, -1076760618, 352.9949, 352.9949, 13.126, -1.612, -0.209
 57133804, -353631990, 1491652213, -1076604944, 352.9949, 352.9949, 13.126, -1.612, -0.209
 57153796, -353631990, 1491652213, -1076455342, 352.9949, 352.9949, 13.126, -1.612, -0.209
 57173788, -353631990, 1491652213, -1076316671, 352.9949, 352.9949, 13.126, -1.612, -0.209
 57193780, -353631990, 1491652213, -1076204754, 352.9949, 352.9949, 13.126, -1.612, -0.209
 57213772, -353631990, 1491652213, -1076063538, 352.9949, 352.9949, 13.126, -1.612, -0.209
 57233764, -353632070, 1491652355, -1075919355, 352.9871, 352.9871, 14.458, -1.778, -0.194
 57253756, -353632070, 1491652355, -1075787551, 352.9871, 352.9871, 14.458, -1.778, -0.194
 57273748, -353632070, 1491652355, -1075666832, 352.9871, 352.9871, 14.458, -1.778, -0.194
 57293740, -353632070, 1491652355, -1075532199, 352.9871, 352.9871, 14.458, -1.778, -0.194
 57313732, -353632070, 1491652355, -1075529520, 352.9871, 352.9871, 14.458, -1.778, -0.194
 57333724, -353632070, 1491652355, -1075408033, 352.9871, 352.9871, 14.458, -1.778, -0.194
 57353716, -353632070, 1491652355, -1075283689, 352.9871, 352.9871, 14.458, -1.778, -0.194
 57373708, -353632070, 1491652355, -1075173573, 352.9871, 352.9871, 14.458, -1.778, -0.194
 57393700, -353632070, 1491652355, -1075066608, 352.9871, 352.9871, 14.458, -1.778, -0.194
 57413692, -353632070, 1491652355, -1074977185, 352.9871, 352.9871, 14.458, -1.778, -0.194
 57433684, -353630891, 1491652577, -1074873117, 353.0058, 353.0058, 15.605, -1.914, -0.16
 57453676, -353630891, 1491652577, -1074765009, 353.0058, 353.0058, 15.605, -1.914, -0.16
 57473668, -353630891, 1491652577, -1074657844, 353.0058, 353.0058, 15.605, -1.914, -0.16
 57493660, -353630891, 1491652577, -1074540758, 353.0058, 353.0058, 15.605, -1.914, -0.16
 57513652, -353630891, 1491652577, -1074665733, 353.0058, 353.0058, 15.605, -1.914, -0.16
 57533644, -353630891, 1491652577, -1074557276, 353.0058, 353.0058, 15.605, -1.914, -0.16
 57553636, -353630891, 1491652577, -1074457306, 353.0058, 353.0058, 15.605, -1.914, -0.16
 57573628, -353630891, 1491652577, -1074346206, 353.0058, 353.0058, 15.605, -1.914, -0.16
 57593620, -353630891, 1491652577, -1074253277, 353.0058, 353.0058, 15.605, -1.914, -0.16
 57613612, -353630891, 1491652577, -1074157459, 353.0058, 353.0058, 15.605, -1.914, -0.16
 57633604, -353630844, 1491652900, -1074046647, 352.9919, 352.9919, 16.59, -2.039, -0.155
 57653596, -353630844, 1491652900, -1073958491, 352.9919, 352.9919, 16.59, -2.039, -0.155
 57673588, -353630844, 1491652900, -1073850942, 352.9919, 352.9919, 16.59, -2.039, -0.155
 57693580, -353630844, 1491652900, -1073716633, 352.9919, 352.9919, 16.59, -2.039, -0.155
 57713572, -353630844, 1491652900, -1073864884, 352.9919, 352.9919, 16.59, -2.039, -0.155
 57733564, -353630844, 1491652900, -1073705565, 352.9919, 352.9919, 16.59, -2.039, -0.155
 57753556, -353630844, 1491652900, -1073613077, 352.9919, 352.9919, 16.59, -2.039, -0.155
 57773548, -353630844, 1491652900, -1073526924, 352.9919, 352.9919, 16.59, -2.039, -0.155
 57793540, -353630844, 1491652900, -1073446026, 352.9919, 352.9919, 16.59, -2.039, -0.155
 57813532, -353630844, 1491652900, -1073359314, 352.9919, 352.9919, 16.59, -2.039, -0.155
 57833524, -353630671, 1491652298, -1073284733, 353.0136, 353.0136, 18.229, -2.233, -1.032
 57853516, -353630671, 1491652298, -1073214808, 353.0136, 353.0136, 18.229, -2.233, -1.032
 57873508, -353630671, 1491652298, -1073136475, 353.0136, 353.0136, 18.229, -2.233, -1.032
 57893500, -353630671, 1491652298, -1073056265, 353.0136, 353.0136, 18.229, -2.233, -1.032
 57913492, -353630671, 1491652298, -1072968268, 353.0136, 353.0136, 18.229, -2.233, -1.032
 57933484, -353630671, 1491652298, -1072878812, 353.0136, 353.0136, 18.229, -2.233, -1.032
 57953476, -353630671, 1491652298, -1072793686, 353.0136, 353.0136, 18.229, -2.233, -1.032
 57974301, -353630671, 1491652298, -1072707478, 353.0136, 353.0136, 18.229, -2.233, -1.032
 57994293, -353630671, 1491652298, -1072624847, 353.0136, 353.0136, 18.229, -2.233, -1.032
 58014285, -353630671, 1491652298, -1072554749, 353.0136, 353.0136, 18.229, -2.233, -1.032
 58034277, -353630433, 1491651069, -1072462921, 352.9305, 352.9305, 19.657, -2.437, -2.567
 58054269, -353630433, 1491651069, -1072388358, 352.9305, 352.9305, 19.657, -2.437, -2.567
 58074261, -353630433, 1491651069, -1072310604, 352.9305, 352.9305, 19.657, -2.437, -2.567
 58094253, -353630433, 1491651069, -1072239204, 352.9305, 352.9305, 19.657, -2.437, -2.567
 58114245, -353630433, 1491651069, -1071857574, 352.9305, 352.9305, 19.657, -2.437, -2.567
 58134237, -353630433, 1491651069, -1071782587, 352.9305, 352.9305, 19.657, -2.437, -2.567
 58154229, -353630433, 1491651069, -1071707467, 352.9305, 352.9305, 19.657, -2.437, -2.567
 58174221, -353630433, 1491651069, -1071649943, 352.9305, 352.9305, 19.657, -2.437, -2.567
 58194213, -353630433, 1491651069, -1071583021, 352.9305, 352.9305, 19.657, -2.437, -2.567
 58214205, -353630433, 1491651069, -1071518478, 352.9305, 352.9305, 19.657, -2.437, -2.567
 58234197, -353629743, 1491651762, -1071450159, 352.8907, 352.8907, 20.871, -2.603, -3.27
 58254189, -353629743, 1491651762, -1071396781, 352.8907, 352.8907, 20.871, -2.603, -3.27
 58274181, -353629743, 1491651762, -1071335202, 352.8907, 352.8907, 20.871, -2.603, -3.27
 58294173, -353629743, 1491651762, -1071279642, 352.8907, 352.8907, 20.871, -2.603, -3.27
 58314165, -353629743, 1491651762, -1071166491, 352.8907, 352.8907, 20.871, -2.603, -3.27
 58334157, -353629743, 1491651762, -1071121684, 352.8907, 352.8907, 20.871, -2.603, -3.27
 58354149, -353629743, 1491651762, -1071066486, 352.8907, 352.8907, 20.871, -2.603, -3.27
 58374141, -353629743, 1491651762, -1071025323, 352.8907, 352.8907, 20.871, -2.603, -3.27
 58394133, -353629743, 1491651762, -1070968896, 352.8907, 352.8907, 20.871, -2.603, -3.27
 58414125, -353629743, 1491651762, -1070922420, 352.8907, 352.8907, 20.871, -2.603, -3.27
 58434117, -353630346, 1491652017, -1070875623, 352.9229, 352.9229, 21.955, -2.725, -3.615
 58454109, -353630346, 1491652017, -1070832347, 352.9229, 352.9229, 21.955, -2.725, -3.615
 58474101, -353630346, 1491652017, -1070773724, 352.9229, 352.9229, 21.955, -2.725, -3.615
 58494093, -353630346, 1491652017, -1070707166, 352.9229, 352.9229, 21.955, -2.725, -3.615
 58514085, -353630346, 1491652017, -1070693301, 352.9229, 352.9229, 21.955, -2.725, -3.615
 58534077, -353630346, 1491652017, -1070637944, 352.9229, 352.9229, 21.955, -2.725, -3.615
 58554069, -353630346, 1491652017, -1070592362, 352.9229, 352.9229, 21.955, -2.725, -3.615
 58574061, -353630346, 1491652017, -1070533319, 352.9229, 352.9229, 21.955, -2.725, -3.615
 58594053, -353630346, 1491652017, -1070476532, 352.9229, 352.9229, 21.955, -2.725, -3.615
 58614045, -353630346, 1491652017, -1070415598, 352.9229, 352.9229, 21.955, -2.725, -3.615
 58634037, -353629343, 1491651929, -1070358989, 352.873, 352.873, 22.862, -2.858, -4.027
 58654029, -353629343, 1491651929, -1070306549, 352.873, 352.873, 22.862, -2.858, -4.027
 58674021, -353629343, 1491651929, -1070255373, 352.873, 352.873, 22.862, -2.858, -4.027
 58694013, -353629343, 1491651929, -1070211908, 352.873, 352.873, 22.862, -2.858, -4.027
 58714005, -353629343, 1491651929, -1070190883, 352.873, 352.873, 22.862, -2.858, -4.027
 58733997, -353629343, 1491651929, -1070159672, 352.873, 352.873, 22.862, -2.858, -4.027
 58753989, -353629343, 1491651929, -1070133935, 352.873, 352.873, 22.862, -2.858, -4.027
 58773981, -353629343, 1491651929, -1070115107, 352.873, 352.873, 22.862, -2.858, -4.027
 58793973, -353629343, 1491651929, -1070098329, 352.873, 352.873, 22.862, -2.858, -4.027
 58813965, -353629343, 1491651929, -1070098384, 352.873, 352.873, 22.862, -2.858, -4.027
 58833957, -353629287, 1491651810, -1070096262, 352.8762, 352.8762, 23.401, -2.924, -4.447
 58853949, -353629287, 1491651810, -1070091365, 352.8762, 352.8762, 23.401, -2.924, -4.447
 58873941, -353629287, 1491651810, -1070089961, 352.8762, 352.8762, 23.401, -2.924, -4.447
 58893933, -353629287, 1491651810, -1070093935, 352.8762, 352.8762, 23.401, -2.924, -4.447
 58913925, -353629287, 1491651810, -1070070650, 352.8762, 352.8762, 23.401, -2.924, -4.447
 58933917, -353629287, 1491651810, -1070079723, 352.8762, 352.8762, 23.401, -2.924, -4.447
 58953909, -353629287, 1491651810, -1070102683, 352.8762, 352.8762, 23.401, -2.924, -4.447
 58973901, -353629287, 1491651810, -1070114531, 352.8762, 352.8762, 23.401, -2.924, -4.447
 58993893, -353629287, 1491651810, -1070128680, 352.8762, 352.8762, 23.401, -2.924, -4.447
 59013885, -353629287, 1491651810, -1070143933, 352.8762, 352.8762, 23.401, -2.924, -4.447
 59033877, -353628481, 1491651273, -1070159476, 352.9357, 352.9357, 23.466, -2.908, -5.106
 59053869, -353628481, 1491651273, -1070175546, 352.9357, 352.9357, 23.466, -2.908, -5.106
 59073861, -353628481, 1491651273, -1070195075, 352.9357, 352.9357, 23.466, -2.908, -5.106
 59093853, -353628481, 1491651273, -1070215924, 352.9357, 352.9357, 23.466, -2.908, -5.106
 59113845, -353628481, 1491651273, -1070075145, 352.9357, 352.9357, 23.466, -2.908, -5.106
 59133837, -353628481, 1491651273, -1070091821, 352.9357, 352.9357, 23.466, -2.908, -5.106
 59153829, -353628481, 1491651273, -1070113492, 352.9357, 352.9357, 23.466, -2.908, -5.106
 59173821, -353628481, 1491651273, -1070125405, 352.9357, 352.9357, 23.466, -2.908, -5.106
 59193813, -353628481, 1491651273, -1070145911, 352.9357, 352.9357, 23.466, -2.908, -5.106
 59213805, -353628481, 1491651273, -1070155151, 352.9357, 352.9357, 23.466, -2.908, -5.106
 59233797, -353628295, 1491651090, -1070171844, 352.9768, 352.9768, 23.332, -2.874, -5.844
 59253789, -353628295, 1491651090, -1070186012, 352.9768, 352.9768, 23.332, -2.874, -5.844
 59273781, -353628295, 1491651090, -1070199999, 352.9768, 352.9768, 23.332, -2.874, -5.844
 59293773, -353628295, 1491651090, -1070218190, 352.9768, 352.9768, 23.332, -2.874, -5.844
 59313765, -353628295, 1491651090, -1070065699, 352.9768, 352.9768, 23.332, -2.874, -5.844
 59333757, -353628295, 1491651090, -1070076835, 352.9768, 352.9768, 23.332, -2.874, -5.844
 59353749, -353628295, 1491651090, -1070095720, 352.9768, 352.9768, 23.332, -2.874, -5.844
 59373741, -353628295, 1491651090, -1070115480, 352.9768, 352.9768, 23.332, -2.874, -5.844
 59393733, -353628295, 1491651090, -1070131150, 352.9768, 352.9768, 23.332, -2.874, -5.844
 59413725, -353628295, 1491651090, -1070144810, 352.9768, 352.9768, 23.332, -2.874, -5.844
 59433717, -353627650, 1491651795, -1070152009, 352.991, 352.991, 23.182, -2.85, -6.392
 59453709, -353627650, 1491651795, -1070166111, 352.991, 352.991, 23.182, -2.85, -6.392
 59473701, -353627650, 1491651795, -1070172611, 352.991, 352.991, 23.182, -2.85, -6.392
 59493693, -353627650, 1491651795, -1070179020, 352.991, 352.991, 23.182, -2.85, -6.392
 59513685, -353627650, 1491651795, -1070242128, 352.991, 352.991, 23.182, -2.85, -6.392
 59533677, -353627650, 1491651795, -1070242144, 352.991, 352.991, 23.182, -2.85, -6.392
 59553669, -353627650, 1491651795, -1070248000, 352.991, 352.991, 23.182, -2.85, -6.392
 59573661, -353627650, 1491651795, -1070246989, 352.991, 352.991, 23.182, -2.85, -6.392
 59593653, -353627650, 1491651795, -1070253784, 352.991, 352.991, 23.182, -2.85, -6.392
 59613645, -353627650, 1491651795, -1070255206, 352.991, 352.991, 23.182, -2.85, -6.392
 59633637, -353627091, 1491651641, -1070249803, 352.961, 352.961, 23.083, -2.85, -6.674
 59653629, -353627091, 1491651641, -1070255817, 352.961, 352.961, 23.083, -2.85, -6.674
 59673621, -353627091, 1491651641, -1070259342, 352.961, 352.961, 23.083, -2.85, -6.674
 59693613, -353627091, 1491651641, -1070276037, 352.961, 352.961, 23.083, -2.85, -6.674
 59713605, -353627091, 1491651641, -1070304892, 352.961, 352.961, 23.083, -2.85, -6.674
 59733597, -353627091, 1491651641, -1070318606, 352.961, 352.961, 23.083, -2.85, -6.674
 59753589, -353627091, 1491651641, -1070329209, 352.961, 352.961, 23.083, -2.85, -6.674
 59773581, -353627091, 1491651641, -1070348758, 352.961, 352.961, 23.083, -2.85, -6.674
 59793573, -353627091, 1491651641, -1070370640, 352.961, 352.961, 23.083, -2.85, -6.674
 59813565, -353627091, 1491651641, -1070382089, 352.961, 352.961, 23.083, -2.85, -6.674
 59833557, -353626780, 1491651498, -1070397625, 352.9915, 352.9915, 22.998, -2.827, -6.861001
 59853549, -353626780, 1491651498, -1070414574, 352.9915, 352.9915, 22.998, -2.827, -6.861001
 59873541, -353626780, 1491651498, -1070434747, 352.9915, 352.9915, 22.998, -2.827, -6.861001
 59893533, -353626780, 1491651498, -1070467058, 352.9915, 352.9915, 22.998, -2.827, -6.861001
 59913525, -353626780, 1491651498, -1070459032, 352.9915, 352.9915, 22.998, -2.827, -6.861001
 59933517, -353626780, 1491651498, -1070474561, 352.9915, 352.9915, 22.998, -2.827, -6.861001
 59953509, -353626780, 1491651498, -1070486566, 352.9915, 352.9915, 22.998, -2.827, -6.861001
 59973501, -353626780, 1491651498, -1070496346, 352.9915, 352.9915, 22.998, -2.827, -6.861001
 59993493, -353626780, 1491651498, -1070505314, 352.9915, 352.9915, 22.998, -2.827, -6.861001
 60013485, -353626780, 1491651498, -1070510647, 352.9915, 352.9915, 22.998, -2.827, -6.861001
 60033477, -353626295, 1491652050, -1070508488, 353.0154, 353.0154, 22.919, -2.807, -6.977
 60054302, -353626295, 1491652050, -1070509818, 353.0154, 353.0154, 22.919, -2.807, -6.977
 60074294, -353626295, 1491652050, -1070503366, 353.0154, 353.0154, 22.919, -2.807, -6.977
 60094286, -353626295, 1491652050, -1070508721, 353.0154, 353.0154, 22.919, -2.807, -6.977
 60114278, -353626295, 1491652050, -1070657879, 353.0154, 353.0154, 22.919, -2.807, -6.977
 60134270, -353626295, 1491652050, -1070660955, 353.0154, 353.0154, 22.919, -2.807, -6.977
 60154262, -353626295, 1491652050, -1070668771, 353.0154, 353.0154, 22.919, -2.807, -6.977
 60174254, -353626295, 1491652050, -1070676154, 353.0154, 353.0154, 22.919, -2.807, -6.977
 60194246, -353626295, 1491652050, -1070678263, 353.0154, 353.0154, 22.919, -2.807, -6.977
 60214238, -353626295, 1491652050, -1070686801, 353.0154, 353.0154, 22.919, -2.807, -6.977
 60234230, -353626578, 1491651521, -1070692462, 353.0004, 353.0004, 22.835, -2.803, -7.104001
 60254222, -353626578, 1491651521, -1070695853, 353.0004, 353.0004, 22.835, -2.803, -7.104001
 60274214, -353626578, 1491651521, -1070709353, 353.0004, 353.0004, 22.835, -2.803, -7.104001
 60294206, -353626578, 1491651521, -1070719557, 353.0004, 353.0004, 22.835, -2.803, -7.104001
 60314198, -353626578, 1491651521, -1070711228, 353.0004, 353.0004, 22.835, -2.803, -7.104001
 60334190, -353626578, 1491651521, -1070712702, 353.0004, 353.0004, 22.835, -2.803, -7.104001
 60354182, -353626578, 1491651521, -1070714686, 353.0004, 353.0004, 22.835, -2.803, -7.104001
 60374174, -353626578, 1491651521, -1070720099, 353.0004, 353.0004, 22.835, -2.803, -7.104001
 60394166, -353626578, 1491651521, -1070719563, 353.0004, 353.0004, 22.835, -2.803, -7.104001
 60414158, -353626578, 1491651521, -1070718738, 353.0004, 353.0004, 22.835, -2.803, -7.104001
 60434150, -353625554, 1491650985, -1070716793, 352.9941, 352.9941, 22.79, -2.8, -7.133
 60454142, -353625554, 1491650985, -1070722837, 352.9941, 352.9941, 22.79, -2.8, -7.133
 60474134, -353625554, 1491650985, -1070721302, 352.9941, 352.9941, 22.79, -2.8, -7.133
 60494126, -353625554, 1491650985, -1070721241, 352.9941, 352.9941, 22.79, -2.8, -7.133
 60514118, -353625554, 1491650985, -1070595188, 352.9941, 352.9941, 22.79, -2.8, -7.133
 60534110, -353625554, 1491650985, -1070607511, 352.9941, 352.9941, 22.79, -2.8, -7.133
 60554102, -353625554, 1491650985, -1070600578, 352.9941, 352.9941, 22.79, -2.8, -7.133
 60574094, -353625554, 1491650985, -1070596659, 352.9941, 352.9941, 22.79, -2.8, -7.133
 60594086, -353625554, 1491650985, -1070603112, 352.9941, 352.9941, 22.79, -2.8, -7.133
 60614078, -353625554, 1491650985, -1070596483, 352.9941, 352.9941, 22.79, -2.8, -7.133
 60634070, -353624630, 1491651100, -1070596174, 352.9734, 352.9734, 22.769, -2.806, -7.131001
 60654062, -353624630, 1491651100, -1070596111, 352.9734, 352.9734, 22.769, -2.806, -7.131001
 60674054, -353624630, 1491651100, -1070598084, 352.9734, 352.9734, 22.769, -2.806, -7.131001
 60694046, -353624630, 1491651100, -1070590931, 352.9734, 352.9734, 22.769, -2.806, -7.131001
 60714038, -353624630, 1491651100, -1070518540, 352.9734, 352.9734, 22.769, -2.806, -7.131001
 60734030, -353624630, 1491651100, -1070510849, 352.9734, 352.9734, 22.769, -2.806, -7.131001
 60754022, -353624630, 1491651100, -1070498125, 352.9734, 352.9734, 22.769, -2.806, -7.131001
 60774014, -353624630, 1491651100, -1070486690, 352.9734, 352.9734, 22.769, -2.806, -7.131001
 60794006, -353624630, 1491651100, -1070472903, 352.9734, 352.9734, 22.769, -2.806, -7.131001
 60813998, -353624630, 1491651100, -1070462646, 352.9734, 352.9734, 22.769, -2.806, -7.131001
 60833990, -353624798, 1491651944, -1070455009, 352.9162, 352.9162, 22.778, -2.83, -7.08
 60853982, -353624798, 1491651944, -1070444214, 352.9162, 352.9162, 22.778, -2.83, -7.08
 60873974, -353624798, 1491651944, -1070439364, 352.9162, 352.9162, 22.778, -2.83, -7.08
 60893966, -353624798, 1491651944, -1070438127, 352.9162, 352.9162, 22.778, -2.83, -7.08
 60913958, -353624798, 1491651944, -1070607779, 352.9162, 352.9162, 22.778, -2.83, -7.08
 60933950, -353624798, 1491651944, -1070618822, 352.9162, 352.9162, 22.778, -2.83, -7.08
 60953942, -353624798, 1491651944, -1070626851, 352.9162, 352.9162, 22.778, -2.83, -7.08
 60973934, -353624798, 1491651944, -1070644143, 352.9162, 352.9162, 22.778, -2.83, -7.08
 60993926, -353624798, 1491651944, -1070667984, 352.9162, 352.9162, 22.778, -2.83, -7.08
 61013918, -353624798, 1491651944, -1070684827, 352.9162, 352.9162, 22.778, -2.83, -7.08
 61033910, -353624369, 1491651337, -1070698102, 352.9565, 352.9565, 22.804, -2.817, -7.01
 61053902, -353624369, 1491651337, -1070709075, 352.9565, 352.9565, 22.804, -2.817, -7.01
 61073894, -353624369, 1491651337, -1070723737, 352.9565, 352.9565, 22.804, -2.817, -7.01
 61093886, -353624369, 1491651337, -1070731894, 352.9565, 352.9565, 22.804, -2.817, -7.01
 61113878, -353624369, 1491651337, -1070729220, 352.9565, 352.9565, 22.804, -2.817, -7.01
 61133870, -353624369, 1491651337, -1070741463, 352.9565, 352.9565, 22.804, -2.817, -7.01
 61153862, -353624369, 1491651337, -1070741514, 352.9565, 352.9565, 22.804, -2.817, -7.01
 61173854, -353624369, 1491651337, -1070736564, 352.9565, 352.9565, 22.804, -2.817, -7.01
 61193846, -353624369, 1491651337, -1070737174, 352.9565, 352.9565, 22.804, -2.817, -7.01
 61213838, -353624369, 1491651337, -1070742800, 352.9565, 352.9565, 22.804, -2.817, -7.01
 61233830, -353623476, 1491650806, -1070745261, 352.9687, 352.9687, 22.803, -2.812, -7.037
 61253822, -353623476, 1491650806, -1070754004, 352.9687, 352.9687, 22.803, -2.812, -7.037
 61273814, -353623476, 1491650806, -1070756998, 352.9687, 352.9687, 22.803, -2.812, -7.037
 61293806, -353623476, 1491650806, -1070751632, 352.9687, 352.9687, 22.803, -2.812, -7.037
 61313798, -353623476, 1491650806, -1070620346, 352.9687, 352.9687, 22.803, -2.812, -7.037
 61333790, -353623476, 1491650806, -1070619728, 352.9687, 352.9687, 22.803, -2.812, -7.037
 61353782, -353623476, 1491650806, -1070622487, 352.9687, 352.9687, 22.803, -2.812, -7.037
 61373774, -353623476, 1491650806, -1070631028, 352.9687, 352.9687, 22.803, -2.812, -7.037
 61393766, -353623476, 1491650806, -1070644277, 352.9687, 352.9687, 22.803, -2.812, -7.037
 61413758, -353623476, 1491650806, -1070636733, 352.9687, 352.9687, 22.803, -2.812, -7.037
 61433750, -353623267, 1491651012, -1070633258, 352.9467, 352.9467, 22.781, -2.818, -7.099
 61453742, -353623267, 1491651012, -1070631899, 352.9467, 352.9467, 22.781, -2.818, -7.099
 61473734, -353623267, 1491651012, -1070622636, 352.9467, 352.9467, 22.781, -2.818, -7.099
 61493726, -353623267, 1491651012, -1070613491, 352.9467, 352.9467, 22.781, -2.818, -7.099
 61513718, -353623267, 1491651012, -1070570958, 352.9467, 352.9467, 22.781, -2.818, -7.099
 61533710, -353623267, 1491651012, -1070565661, 352.9467, 352.9467, 22.781, -2.818, -7.099
 61553702, -353623267, 1491651012, -1070555991, 352.9467, 352.9467, 22.781, -2.818, -7.099
 61573694, -353623267, 1491651012, -1070546943, 352.9467, 352.9467, 22.781, -2.818, -7.099
 61593686, -353623267, 1491651012, -1070552549, 352.9467, 352.9467, 22.781, -2.818, -7.099
 61613678, -353623267, 1491651012, -1070548750, 352.9467, 352.9467, 22.781, -2.818, -7.099
 61633670, -353622688, 1491650551, -1070543540, 352.9105, 352.9105, 22.789, -2.834, -7.066
 61653662, -353622688, 1491650551, -1070539376, 352.9105, 352.9105, 22.789, -2.834, -7.066
 61673654, -353622688, 1491650551, -1070545727, 352.9105, 352.9105, 22.789, -2.834, -7.066
 61693646, -353622688, 1491650551, -1070556393, 352.9105, 352.9105, 22.789, -2.834, -7.066
 61713638, -353622688, 1491650551, -1070413712, 352.9105, 352.9105, 22.789, -2.834, -7.066
 61733630, -353622688, 1491650551, -1070421536, 352.9105, 352.9105, 22.789, -2.834, -7.066
 61753622, -353622688, 1491650551, -1070427298, 352.9105, 352.9105, 22.789, -2.834, -7.066
 61773614, -353622688, 1491650551, -1070438887, 352.9105, 352.9105, 22.789, -2.834, -7.066
 61793606, -353622688, 1491650551, -1070437708, 352.9105, 352.9105, 22.789, -2.834, -7.066
 61813598, -353622688, 1491650551, -1070449895, 352.9105, 352.9105, 22.789, -2.834, -7.066
 61833590, -353622088, 1491650907, -1070461347, 352.9495, 352.9495, 22.826, -2.823, -6.979001
 61853582, -353622088, 1491650907, -1070471478, 352.9495, 352.9495, 22.826, -2.823, -6.979001
 61873574, -353622088, 1491650907, -1070485437, 352.9495, 352.9495, 22.826, -2.823, -6.979001
 61893566, -353622088, 1491650907, -1070512983, 352.9495, 352.9495, 22.826, -2.823, -6.979001
 61913558, -353622088, 1491650907, -1070496985, 352.9495, 352.9495, 22.826, -2.823, -6.979001
 61933550, -353622088, 1491650907, -1070500440, 352.9495, 352.9495, 22.826, -2.823, -6.979001
 61953542, -353622088, 1491650907, -1070520654, 352.9495, 352.9495, 22.826, -2.823, -6.979001
 61973534, -353622088, 1491650907, -1070539636, 352.9495, 352.9495, 22.826, -2.823, -6.979001
 61993526, -353622088, 1491650907, -1070546813, 352.9495, 352.9495, 22.826, -2.823, -6.979001
 62013518, -353622088, 1491650907, -1070555442, 352.9495, 352.9495, 22.826, -2.823, -6.979001
 62033510, -353621437, 1491650766, -1070562184, 353.0111, 353.0111, 22.859, -2.802, -6.901
 62053502, -353621437, 1491650766, -1070577069, 353.0111, 353.0111, 22.859, -2.802, -6.901
 62073494, -353621437, 1491650766, -1070574218, 353.0111, 353.0111, 22.859, -2.802, -6.901
 62093486, -353621437, 1491650766, -1070577844, 353.0111, 353.0111, 22.859, -2.802, -6.901
 62113478, -353621437, 1491650766, -1070543498, 353.0111, 353.0111, 22.859, -2.802, -6.901
 62134303, -353621437, 1491650766, -1070542886, 353.0111, 353.0111, 22.859, -2.802, -6.901
 62154295, -353621437, 1491650766, -1070541687, 353.0111, 353.0111, 22.859, -2.802, -6.901
 62174287, -353621437, 1491650766, -1070539486, 353.0111, 353.0111, 22.859, -2.802, -6.901
 62194279, -353621437, 1491650766, -1070539714, 353.0111, 353.0111, 22.859, -2.802, -6.901
 62214271, -353621437, 1491650766, -1070541802, 353.0111, 353.0111, 22.859, -2.802, -6.901
 62234263, -353621685, 1491650846, -1070539106, 353.0267, 353.0267, 22.934, -2.805, -6.718
 62254255, -353621685, 1491650846, -1070535011, 353.0267, 353.0267, 22.934, -2.805, -6.718
 62274247, -353621685, 1491650846, -1070525475, 353.0267, 353.0267, 22.934, -2.805, -6.718
 62294239, -353621685, 1491650846, -1070514398, 353.0267, 353.0267, 22.934, -2.805, -6.718
 62314231, -353621685, 1491650846, -1070514202, 353.0267, 353.0267, 22.934, -2.805, -6.718
 62334223, -353621685, 1491650846, -1070500404, 353.0267, 353.0267, 22.934, -2.805, -6.718
 62354215, -353621685, 1491650846, -1070487164, 353.0267, 353.0267, 22.934, -2.805, -6.718
 62374207, -353621685, 1491650846, -1070481132, 353.0267, 353.0267, 22.934, -2.805, -6.718
 62394199, -353621685, 1491650846, -1070475629, 353.0267, 353.0267, 22.934, -2.805, -6.718
 62414191, -353621685, 1491650846, -1070472262, 353.0267, 353.0267, 22.934, -2.805, -6.718
 62434183, -353621297, 1491650583, -1070456731, 353.0025, 353.0025, 23.004, -2.823, -6.545
 62454175, -353621297, 1491650583, -1070452562, 353.0025, 353.0025, 23.004, -2.823, -6.545
 62474167, -353621297, 1491650583, -1070451003, 353.0025, 353.0025, 23.004, -2.823, -6.545
 62494159, -353621297, 1491650583, -1070444840, 353.0025, 353.0025, 23.004, -2.823, -6.545
 62514151, -353621297, 1491650583, -1070393900, 353.0025, 353.0025, 23.004, -2.823, -6.545
 62534143, -353621297, 1491650583, -1070389741, 353.0025, 353.0025, 23.004, -2.823, -6.545
 62554135, -353621297, 1491650583, -1070383078, 353.0025, 353.0025, 23.004, -2.823, -6.545
 62574127, -353621297, 1491650583, -1070377433, 353.0025, 353.0025, 23.004, -2.823, -6.545
 62594119, -353621297, 1491650583, -1070367656, 353.0025, 353.0025, 23.004, -2.823, -6.545
 62614111, -353621297, 1491650583, -1070367715, 353.0025, 353.0025, 23.004, -2.823, -6.545
 62634103, -353620771, 1491650715, -1070363177, 352.9806, 352.9806, 23.039, -2.836, -6.476
 62654095, -353620771, 1491650715, -1070362301, 352.9806, 352.9806, 23.039, -2.836, -6.476
 62674087, -353620771, 1491650715, -1070354472, 352.9806, 352.9806, 23.039, -2.836, -6.476
 62694079, -353620771, 1491650715, -1070350895, 352.9806, 352.9806, 23.039, -2.836, -6.476
 62714071, -353620771, 1491650715, -1070358200, 352.9806, 352.9806, 23.039, -2.836, -6.476
 62734063, -353620771, 1491650715, -1070373293, 352.9806, 352.9806, 23.039, -2.836, -6.476
 62754055, -353620771, 1491650715, -1070378611, 352.9806, 352.9806, 23.039, -2.836, -6.476
 62774047, -353620771, 1491650715, -1070377079, 352.9806, 352.9806, 23.039, -2.836, -6.476
 62794039, -353620771, 1491650715, -1070377636, 352.9806, 352.9806, 23.039, -2.836, -6.476
 62814031, -353620771, 1491650715, -1070380991, 352.9806, 352.9806, 23.039, -2.836, -6.476
 62834023, -353620709, 1491650018, -1070385794, 352.9911, 352.9911, 23.075, -2.836, -6.398
 62854015, -353620709, 1491650018, -1070386061, 352.9911, 352.9911, 23.075, -2.836, -6.398
 62874007, -353620709, 1491650018, -1070381711, 352.9911, 352.9911, 23.075, -2.836, -6.398
 62893999, -353620709, 1491650018, -1070389526, 352.9911, 352.9911, 23.075, -2.836, -6.398
 62913991, -353620709, 1491650018, -1070233447, 352.9911, 352.9911, 23.075, -2.836, -6.398
 62933983, -353620709, 1491650018, -1070242585, 352.9911, 352.9911, 23.075, -2.836, -6.398
 62953975, -353620709, 1491650018, -1070243168, 352.9911, 352.9911, 23.075, -2.836, -6.398
 62973967, -353620709, 1491650018, -1070245278, 352.9911, 352.9911, 23.075, -2.836, -6.398
 62993959, -353620709, 1491650018, -1070246466, 352.9911, 352.9911, 23.075, -2.836, -6.398
 63013951, -353620709, 1491650018, -1070239901, 352.9911, 352.9911, 23.075, -2.836, -6.398
 63033943, -353619934, 1491650564, -1070244247, 353.0077, 353.0077, 23.136, -2.837, -6.264
 63053935, -353619934, 1491650564, -1070240361, 353.0077, 353.0077, 23.136, -2.837, -6.264
 63073927, -353619934, 1491650564, -1070226708, 353.0077, 353.0077, 23.136, -2.837, -6.264
 63093919, -353619934, 1491650564, -1070217738, 353.0077, 353.0077, 23.136, -2.837, -6.264
 63113911, -353619934, 1491650564, -1070229736, 353.0077, 353.0077, 23.136, -2.837, -6.264
 63133903, -353619934, 1491650564, -1070216703, 353.0077, 353.0077, 23.136, -2.837, -6.264
 63153895, -353619934, 1491650564, -1070195832, 353.0077, 353.0077, 23.136, -2.837, -6.264
 63173887, -353619934, 1491650564, -1070181445, 353.0077, 353.0077, 23.136, -2.837, -6.264
 63193879, -353619934, 1491650564, -1070170591, 353.0077, 353.0077, 23.136, -2.837, -6.264
 63213871, -353619934, 1491650564, -1070151940, 353.0077, 353.0077, 23.136, -2.837, -6.264
 63233863, -353619638, 1491650029, -1070141262, 352.9408, 352.9408, 23.187, -2.871, -6.168
 63253855, -353619638, 1491650029, -1070124293, 352.9408, 352.9408, 23.187, -2.871, -6.168
 63273847, -353619638, 1491650029, -1070107186, 352.9408, 352.9408, 23.187, -2.871, -6.168
 63293839, -353619638, 1491650029, -1070089954, 352.9408, 352.9408, 23.187, -2.871, -6.168
 63313831, -353619638, 1491650029, -1069973377, 352.9408, 352.9408, 23.187, -2.871, -6.168
 63333823, -353619638, 1491650029, -1069955231, 352.9408, 352.9408, 23.187, -2.871, -6.168
 63353815, -353619638, 1491650029, -1069936409, 352.9408, 352.9408, 23.187, -2.871, -6.168
 63373807, -353619638, 1491650029, -1069929516, 352.9408, 352.9408, 23.187, -2.871, -6.168
 63393799, -353619638, 1491650029, -1069903746, 352.9408, 352.9408, 23.187, -2.871, -6.168
 63413791, -353619638, 1491650029, -1069884676, 352.9408, 352.9408, 23.187, -2.871, -6.168
 63433783, -353619497, 1491650552, -1069868621, 352.8477, 352.8477, 23.235, -2.915, -6.083
 63453775, -353619497, 1491650552, -1069853429, 352.8477, 352.8477, 23.235, -2.915, -6.083
 63473767, -353619497, 1491650552, -1069835356, 352.8477, 352.8477, 23.235, -2.915, -6.083
 63493759, -353619497, 1491650552, -1069815918, 352.8477, 352.8477, 23.235, -2.915, -6.083
 63513751, -353619497, 1491650552, -1069850783, 352.8477, 352.8477, 23.235, -2.915, -6.083
 63533743, -353619497, 1491650552, -1069806026, 352.8477, 352.8477, 23.235, -2.915, -6.083
 63553735, -353619497, 1491650552, -1069764452, 352.8477, 352.8477, 23.235, -2.915, -6.083
 63573727, -353619497, 1491650552, -1069736361, 352.8477, 352.8477, 23.235, -2.915, -6.083
 63593719, -353619497, 1491650552, -1069706180, 352.8477, 352.8477, 23.235, -2.915, -6.083
 63613711, -353619497, 1491650552, -1069695281, 352.8477, 352.8477, 23.235, -2.915, -6.083
 63633703, -353618862, 1491650949, -1069700085, 352.7502, 352.7502, 23.351, -2.97, -5.646
 63653695, -353618862, 1491650949, -1069721859, 352.7502, 352.7502, 23.351, -2.97, -5.646
 63673687, -353618862, 1491650949, -1069765732, 352.7502, 352.7502, 23.351, -2.97, -5.646
 63693679, -353618862, 1491650949, -1069827540, 352.7502, 352.7502, 23.351, -2.97, -5.646
 63713671, -353618862, 1491650949, -1070047258, 352.7502, 352.7502, 23.351, -2.97, -5.646
 63733663, -353618862, 1491650949, -1070154973, 352.7502, 352.7502, 23.351, -2.97, -5.646
 63753655, -353618862, 1491650949, -1070272530, 352.7502, 352.7502, 23.351, -2.97, -5.646
 63773647, -353618862, 1491650949, -1070397817, 352.7502, 352.7502, 23.351, -2.97, -5.646
 63793639, -353618862, 1491650949, -1070543315, 352.7502, 352.7502, 23.351, -2.97, -5.646
 63813631, -353618862, 1491650949, -1070693275, 352.7502, 352.7502, 23.351, -2.97, -5.646
 63833623, -353618397, 1491650384, -1070840280, 353.4189, 353.4189, 23.511, -2.712, -4.92
 63853615, -353618397, 1491650384, -1070990452, 353.4189, 353.4189, 23.511, -2.712, -4.92
 63873607, -353618397, 1491650384, -1071128394, 353.4189, 353.4189, 23.511, -2.712, -4.92
 63893599, -353618397, 1491650384, -1071266852, 353.4189, 353.4189, 23.511, -2.712, -4.92
 63913591, -353618397, 1491650384, -1071362481, 353.4189, 353.4189, 23.511, -2.712, -4.92
 63933583, -353618397, 1491650384, -1071511223, 353.4189, 353.4189, 23.511, -2.712, -4.92
 63953575, -353618397, 1491650384, -1071651691, 353.4189, 353.4189, 23.511, -2.712, -4.92
 63973567, -353618397, 1491650384, -1071786028, 353.4189, 353.4189, 23.511, -2.712, -4.92
 63993559, -353618397, 1491650384, -1071918902, 353.4189, 353.4189, 23.511, -2.712, -4.92
 64013551, -353618397, 1491650384, -1072032879, 353.4189, 353.4189, 23.511, -2.712, -4.92
 64033543, -353618684, 1491649605, -1072140079, 354.1745, 354.1745, 23.581, -2.405, -4.367
 64053535, -353618684, 1491649605, -1072239237, 354.1745, 354.1745, 23.581, -2.405, -4.367
 64073527, -353618684, 1491649605, -1072323380, 354.1745, 354.1745, 23.581, -2.405, -4.367
 64093519, -353618684, 1491649605, -1072396351, 354.1745, 354.1745, 23.581, -2.405, -4.367
 64113511, -353618684, 1491649605, -1072261342, 354.1745, 354.1745, 23.581, -2.405, -4.367
 64133503, -353618684, 1491649605, -1072309721, 354.1745, 354.1745, 23.581, -2.405, -4.367
 64153495, -353618684, 1491649605, -1072355663, 354.1745, 354.1745, 23.581, -2.405, -4.367
 64173487, -353618684, 1491649605, -1072394221, 354.1745, 354.1745, 23.581, -2.405, -4.367
 64193479, -353618684, 1491649605, -1072424109, 354.1745, 354.1745, 23.581, -2.405, -4.367
 64214304, -353618684, 1491649605, -1072441587, 354.1745, 354.1745, 23.581, -2.405, -4.367
 64234296, -353618345, 1491649956, -1072453700, 354.4221, 354.4221, 23.546, -2.299, -4.084
 64254288, -353618345, 1491649956, -1072461574, 354.4221, 354.4221, 23.546, -2.299, -4.084
 64274280, -353618345, 1491649956, -1072450041, 354.4221, 354.4221, 23.546, -2.299, -4.084
 64294272, -353618345, 1491649956, -1072444619, 354.4221, 354.4221, 23.546, -2.299, -4.084
 64314264, -353618345, 1491649956, -1072410059, 354.4221, 354.4221, 23.546, -2.299, -4.084
 64334256, -353618345, 1491649956, -1072403314, 354.4221, 354.4221, 23.546, -2.299, -4.084
 64354248, -353618345, 1491649956, -1072397838, 354.4221, 354.4221, 23.546, -2.299, -4.084
 64374240, -353618345, 1491649956, -1072394494, 354.4221, 354.4221, 23.546, -2.299, -4.084
 64394232, -353618345, 1491649956, -1072398494, 354.4221, 354.4221, 23.546, -2.299, -4.084
 64414224, -353618345, 1491649956, -1072402485, 354.4221, 354.4221, 23.546, -2.299, -4.084
 64434216, -353617140, 1491649479, -1072411572, 354.4077, 354.4077, 23.465, -2.297, -3.822
 64454208, -353617140, 1491649479, -1072422300, 354.4077, 354.4077, 23.465, -2.297, -3.822
 64474200, -353617140, 1491649479, -1072439256, 354.4077, 354.4077, 23.465, -2.297, -3.822
 64494192, -353617140, 1491649479, -1072451238, 354.4077, 354.4077, 23.465, -2.297, -3.822
 64514184, -353617140, 1491649479, -1072336768, 354.4077, 354.4077, 23.465, -2.297, -3.822
 64534176, -353617140, 1491649479, -1072374243, 354.4077, 354.4077, 23.465, -2.297, -3.822
 64554168, -353617140, 1491649479, -1072412072, 354.4077, 354.4077, 23.465, -2.297, -3.822
 64574160, -353617140, 1491649479, -1072461451, 354.4077, 354.4077, 23.465, -2.297, -3.822
 64594152, -353617140, 1491649479, -1072511488, 354.4077, 354.4077, 23.465, -2.297, -3.822
 64614144, -353617140, 1491649479, -1072575309, 354.4077, 354.4077, 23.465, -2.297, -3.822
 64634136, -353616882, 1491649920, -1072648330, 354.6308, 354.6308, 23.38, -2.197, -3.526
 64654128, -353616882, 1491649920, -1072721134, 354.6308, 354.6308, 23.38, -2.197, -3.526
 64674120, -353616882, 1491649920, -1072793711, 354.6308, 354.6308, 23.38, -2.197, -3.526
 64694112, -353616882, 1491649920, -1072872258, 354.6308, 354.6308, 23.38, -2.197, -3.526
 64714104, -353616882, 1491649920, -1072932767, 354.6308, 354.6308, 23.38, -2.197, -3.526
 64734096, -353616882, 1491649920, -1073018216, 354.6308, 354.6308, 23.38, -2.197, -3.526
 64754088, -353616882, 1491649920, -1073103930, 354.6308, 354.6308, 23.38, -2.197, -3.526
 64774080, -353616882, 1491649920, -1073184719, 354.6308, 354.6308, 23.38, -2.197, -3.526
 64794072, -353616882, 1491649920, -1073263430, 354.6308, 354.6308, 23.38, -2.197, -3.526
 64814064, -353616882, 1491649920, -1073345560, 354.6308, 354.6308, 23.38, -2.197, -3.526
 64834056, -353615812, 1491649679, -1073429065, 355.0684, 355.0684, 23.297, -2.01, -3.267
 64854048, -353615812, 1491649679, -1073503069, 355.0684, 355.0684, 23.297, -2.01, -3.267
 64874040, -353615812, 1491649679, -1073576931, 355.0684, 355.0684, 23.297, -2.01, -3.267
 64894032, -353615812, 1491649679, -1073646087, 355.0684, 355.0684, 23.297, -2.01, -3.267
 64914024, -353615812, 1491649679, -1073645791, 355.0684, 355.0684, 23.297, -2.01, -3.267
 64934016, -353615812, 1491649679, -1073710638, 355.0684, 355.0684, 23.297, -2.01, -3.267
 64954008, -353615812, 1491649679, -1073782388, 355.0684, 355.0684, 23.297, -2.01, -3.267
 64974000, -353615812, 1491649679, -1073891315, 355.0684, 355.0684, 23.297, -2.01, -3.267
 64993992, -353615812, 1491649679, -1073979220, 355.0684, 355.0684, 23.297, -2.01, -3.267
 65013984, -353615812, 1491649679, -1074078948, 355.0684, 355.0684, 23.297, -2.01, -3.267
 65033976, -353616630, 1491649932, -1074168645, 355.3805, 355.3805, 23.216, -1.875, -2.935
 65053968, -353616630, 1491649932, -1074256878, 355.3805, 355.3805, 23.216, -1.875, -2.935
 65073960, -353616630, 1491649932, -1074333137, 355.3805, 355.3805, 23.216, -1.875, -2.935
 65093952, -353616630, 1491649932, -1074400608, 355.3805, 355.3805, 23.216, -1.875, -2.935
 65113944, -353616630, 1491649932, -1074520802, 355.3805, 355.3805, 23.216, -1.875, -2.935
 65133936, -353616630, 1491649932, -1074575005, 355.3805, 355.3805, 23.216, -1.875, -2.935
 65153928, -353616630, 1491649932, -1074628965, 355.3805, 355.3805, 23.216, -1.875, -2.935
 65173920, -353616630, 1491649932, -1074688754, 355.3805, 355.3805, 23.216, -1.875, -2.935
 65193912, -353616630, 1491649932, -1074740687, 355.3805, 355.3805, 23.216, -1.875, -2.935
 65213904, -353616630, 1491649932, -1074790460, 355.3805, 355.3805, 23.216, -1.875, -2.935
 65233896, -353615425, 1491649729, -1074848413, 355.532, 355.532, 23.129, -1.807, -2.637
 65253888, -353615425, 1491649729, -1074900191, 355.532, 355.532, 23.129, -1.807, -2.637
 65273880, -353615425, 1491649729, -1074961045, 355.532, 355.532, 23.129, -1.807, -2.637
 65293872, -353615425, 1491649729, -1075013405, 355.532, 355.532, 23.129, -1.807, -2.637
 65313864, -353615425, 1491649729, -1075048774, 355.532, 355.532, 23.129, -1.807, -2.637
 65333856, -353615425, 1491649729, -1075110265, 355.532, 355.532, 23.129, -1.807, -2.637
 65353848, -353615425, 1491649729, -1075171181, 355.532, 355.532, 23.129, -1.807, -2.637
 65373840, -353615425, 1491649729, -1075232610, 355.532, 355.532, 23.129, -1.807, -2.637
 65393832, -353615425, 1491649729, -1075309699, 355.532, 355.532, 23.129, -1.807, -2.637
 65413824, -353615425, 1491649729, -1075377810, 355.532, 355.532, 23.129, -1.807, -2.637
 65433816, -353615416, 1491649722, -1075453944, 355.7093, 355.7093, 23.039, -1.728, -2.333
 65453808, -353615416, 1491649722, -1075542986, 355.7093, 355.7093, 23.039, -1.728, -2.333
 65473800, -353615416, 1491649722, -1075619952, 355.7093, 355.7093, 23.039, -1.728, -2.333
 65493792, -353615416, 1491649722, -1075713331, 355.7093, 355.7093, 23.039, -1.728, -2.333
 65513784, -353615416, 1491649722, -1075777657, 355.7093, 355.7093, 23.039, -1.728, -2.333
 65533776, -353615416, 1491649722, -1075862595, 355.7093, 355.7093, 23.039, -1.728, -2.333
 65553768, -353615416, 1491649722, -1075960824, 355.7093, 355.7093, 23.039, -1.728, -2.333
 65573760, -353615416, 1491649722, -1076063501, 355.7093, 355.7093, 23.039, -1.728, -2.333
 65593752, -353615416, 1491649722, -1076184041, 355.7093, 355.7093, 23.039, -1.728, -2.333
 65613744, -353615416, 1491649722, -1076279649, 355.7093, 355.7093, 23.039, -1.728, -2.333
 65633736, -353614839, 1491649831, -1076389848, 355.9722, 355.9722, 22.941, -1.615, -2.122
 65653728, -353614839, 1491649831, -1076504831, 355.9722, 355.9722, 22.941, -1.615, -2.122
 65673720, -353614839, 1491649831, -1076615464, 355.9722, 355.9722, 22.941, -1.615, -2.122
 65693712, -353614839, 1491649831, -1076718208, 355.9722, 355.9722, 22.941, -1.615, -2.122
 65713704, -353614839, 1491649831, -1076892349, 355.9722, 355.9722, 22.941, -1.615, -2.122
 65733696, -353614839, 1491649831, -1076995130, 355.9722, 355.9722, 22.941, -1.615, -2.122
 65753688, -353614839, 1491649831, -1077106840, 355.9722, 355.9722, 22.941, -1.615, -2.122
 65773680, -353614839, 1491649831, -1077201746, 355.9722, 355.9722, 22.941, -1.615, -2.122
 65793672, -353614839, 1491649831, -1077301098, 355.9722, 355.9722, 22.941, -1.615, -2.122
 65813664, -353614839, 1491649831, -1077397555, 355.9722, 355.9722, 22.941, -1.615, -2.122
 65833656, -353613607, 1491649808, -1077496309, 356.2528, 356.2528, 22.837, -1.495, -1.954
 65853648, -353613607, 1491649808, -1077563152, 356.2528, 356.2528, 22.837, -1.495, -1.954
 65873640, -353613607, 1491649808, -1077635277, 356.2528, 356.2528, 22.837, -1.495, -1.954
 65893632, -353613607, 1491649808, -1077706331, 356.2528, 356.2528, 22.837, -1.495, -1.954
 65913624, -353613607, 1491649808, -1077848301, 356.2528, 356.2528, 22.837, -1.495, -1.954
 65933616, -353613607, 1491649808, -1077917635, 356.2528, 356.2528, 22.837, -1.495, -1.954
 65953608, -353613607, 1491649808, -1077993830, 356.2528, 356.2528, 22.837, -1.495, -1.954
 65973600, -353613607, 1491649808, -1078054008, 356.2528, 356.2528, 22.837, -1.495, -1.954
 65993592, -353613607, 1491649808, -1078125279, 356.2528, 356.2528, 22.837, -1.495, -1.954
 66013584, -353613607, 1491649808, -1078189310, 356.2528, 356.2528, 22.837, -1.495, -1.954
 66033576, -353613834, 1491649738, -1078250482, 356.4352, 356.4352, 22.738, -1.416, -1.703
 66053568, -353613834, 1491649738, -1078311063, 356.4352, 356.4352, 22.738, -1.416, -1.703
 66073560, -353613834, 1491649738, -1078380434, 356.4352, 356.4352, 22.738, -1.416, -1.703
 66093552, -353613834, 1491649738, -1078458233, 356.4352, 356.4352, 22.738, -1.416, -1.703
 66113544, -353613834, 1491649738, -1078551241, 356.4352, 356.4352, 22.738, -1.416, -1.703
 66133536, -353613834, 1491649738, -1078611519, 356.4352, 356.4352, 22.738, -1.416, -1.703
 66153528, -353613834, 1491649738, -1078663759, 356.4352, 356.4352, 22.738, -1.416, -1.703
 66173520, -353613834, 1491649738, -1078725224, 356.4352, 356.4352, 22.738, -1.416, -1.703
 66193512, -353613834, 1491649738, -1078775602, 356.4352, 356.4352, 22.738, -1.416, -1.703
 66213504, -353613834, 1491649738, -1078834518, 356.4352, 356.4352, 22.738, -1.416, -1.703
 66233496, -353612795, 1491649514, -1078884171, 356.601, 356.601, 22.65, -1.345, -1.419
 66253488, -353612795, 1491649514, -1078954468, 356.601, 356.601, 22.65, -1.345, -1.419
 66273480, -353612795, 1491649514, -1079018656, 356.601, 356.601, 22.65, -1.345, -1.419
 66294305, -353612795, 1491649514, -1079081652, 356.601, 356.601, 22.65, -1.345, -1.419
 66314297, -353612795, 1491649514, -1079071871, 356.601, 356.601, 22.65, -1.345, -1.419
 66334289, -353612795, 1491649514, -1079119693, 356.601, 356.601, 22.65, -1.345, -1.419
 66354281, -353612795, 1491649514, -1079177026, 356.601, 356.601, 22.65, -1.345, -1.419
 66374273, -353612795, 1491649514, -1079232233, 356.601, 356.601, 22.65, -1.345, -1.419
 66394265, -353612795, 1491649514, -1079295742, 356.601, 356.601, 22.65, -1.345, -1.419
 66414257, -353612795, 1491649514, -1079358389, 356.601, 356.601, 22.65, -1.345, -1.419
 66434249, -353613013, 1491650537, -1079413726, 356.7592, 356.7592, 22.572, -1.278, -1.164
 66454241, -353613013, 1491650537, -1079475007, 356.7592, 356.7592, 22.572, -1.278, -1.164
 66474233, -353613013, 1491650537, -1079538430, 356.7592, 356.7592, 22.572, -1.278, -1.164
 66494225, -353613013, 1491650537, -1079605462, 356.7592, 356.7592, 22.572, -1.278, -1.164
 66514217, -353613013, 1491650537, -1080129963, 356.7592, 356.7592, 22.572, -1.278, -1.164
 66534209, -353613013, 1491650537, -1080199617, 356.7592, 356.7592, 22.572, -1.278, -1.164
 66554201, -353613013, 1491650537, -1080261510, 356.7592, 356.7592, 22.572, -1.278, -1.164
 66574193, -353613013, 1491650537, -1080333934, 356.7592, 356.7592, 22.572, -1.278, -1.164
 66594185, -353613013, 1491650537, -1080405119, 356.7592, 356.7592, 22.572, -1.278, -1.164
 66614177, -353613013, 1491650537, -1080481409, 356.7592, 356.7592, 22.572, -1.278, -1.164
 66634169, -353612738, 1491650236, -1080561619, 356.9444, 356.9444, 22.488, -1.2, -1.031
 66654161, -353612738, 1491650236, -1080634559, 356.9444, 356.9444, 22.488, -1.2, -1.031
 66674153, -353612738, 1491650236, -1080688007, 356.9444, 356.9444, 22.488, -1.2, -1.031
 66694145, -353612738, 1491650236, -1080752799, 356.9444, 356.9444, 22.488, -1.2, -1.031
 66714137, -353612738, 1491650236, -1081058419, 356.9444, 356.9444, 22.488, -1.2, -1.031
 66734129, -353612738, 1491650236, -1081115746, 356.9444, 356.9444, 22.488, -1.2, -1.031
 66754121, -353612738, 1491650236, -1081181894, 356.9444, 356.9444, 22.488, -1.2, -1.031
 66774113, -353612738, 1491650236, -1081235091, 356.9444, 356.9444, 22.488, -1.2, -1.031
 66794105, -353612738, 1491650236, -1081299587, 356.9444, 356.9444, 22.488, -1.2, -1.031
 66814097, -353612738, 1491650236, -1081364196, 356.9444, 356.9444, 22.488, -1.2, -1.031
 66834089, -353611558, 1491648868, -1081431534, 357.1102, 357.1102, 22.409, -1.131, -0.8890001
 66854081, -353611558, 1491648868, -1081491711, 357.1102, 357.1102, 22.409, -1.131, -0.8890001
 66874073, -353611558, 1491648868, -1081550824, 357.1102, 357.1102, 22.409, -1.131, -0.8890001
 66894065, -353611558, 1491648868, -1081611541, 357.1102, 357.1102, 22.409, -1.131, -0.8890001
 66914057, -353611558, 1491648868, -1081207490, 357.1102, 357.1102, 22.409, -1.131, -0.8890001
 66934049, -353611558, 1491648868, -1081264147, 357.1102, 357.1102, 22.409, -1.131, -0.8890001
 66954041, -353611558, 1491648868, -1081293688, 357.1102, 357.1102, 22.409, -1.131, -0.8890001
 66974033, -353611558, 1491648868, -1081334909, 357.1102, 357.1102, 22.409, -1.131, -0.8890001
 66994025, -353611558, 1491648868, -1081378096, 357.1102, 357.1102, 22.409, -1.131, -0.8890001
 67014017, -353611558, 1491648868, -1081426714, 357.1102, 357.1102, 22.409, -1.131, -0.8890001
 67034009, -353612095, 1491650453, -1081474405, 357.2475, 357.2475, 22.341, -1.074, -0.686
 67054001, -353612095, 1491650453, -1081528305, 357.2475, 357.2475, 22.341, -1.074, -0.686
 67073993, -353612095, 1491650453, -1081574847, 357.2475, 357.2475, 22.341, -1.074, -0.686
 67093985, -353612095, 1491650453, -1081620278, 357.2475, 357.2475, 22.341, -1.074, -0.686
 67113977, -353612095, 1491650453, -1082070749, 357.2475, 357.2475, 22.341, -1.074, -0.686
 67133969, -353612095, 1491650453, -1082125238, 357.2475, 357.2475, 22.341, -1.074, -0.686
 67153961, -353612095, 1491650453, -1082197508, 357.2475, 357.2475, 22.341, -1.074, -0.686
 67173953, -353612095, 1491650453, -1082280419, 357.2475, 357.2475, 22.341, -1.074, -0.686
 67193945, -353612095, 1491650453, -1082356211, 357.2475, 357.2475, 22.341, -1.074, -0.686
 67213937, -353612095, 1491650453, -1082414401, 357.2475, 357.2475, 22.341, -1.074, -0.686
 67233929, -353610979, 1491649552, -1082493563, 357.3587, 357.3587, 22.277, -1.027, -0.473
 67253921, -353610979, 1491649552, -1082560630, 357.3587, 357.3587, 22.277, -1.027, -0.473
 67273913, -353610979, 1491649552, -1082616921, 357.3587, 357.3587, 22.277, -1.027, -0.473
 67293905, -353610979, 1491649552, -1082669089, 357.3587, 357.3587, 22.277, -1.027, -0.473
 67313897, -353610979, 1491649552, -1082535881, 357.3587, 357.3587, 22.277, -1.027, -0.473
 67333889, -353610979, 1491649552, -1082584794, 357.3587, 357.3587, 22.277, -1.027, -0.473
 67353881, -353610979, 1491649552, -1082641288, 357.3587, 357.3587, 22.277, -1.027, -0.473
 67373873, -353610979, 1491649552, -1082727449, 357.3587, 357.3587, 22.277, -1.027, -0.473
 67393865, -353610979, 1491649552, -1082796571, 357.3587, 357.3587, 22.277, -1.027, -0.473
 67413857, -353610979, 1491649552, -1082852690, 357.3587, 357.3587, 22.277, -1.027, -0.473
 67433849, -353610863, 1491649475, -1082907934, 357.4305, 357.4305, 22.215, -0.9960001, -0.325
 67453841, -353610863, 1491649475, -1082976615, 357.4305, 357.4305, 22.215, -0.9960001, -0.325
 67473833, -353610863, 1491649475, -1083034818, 357.4305, 357.4305, 22.215, -0.9960001, -0.325
 67493825, -353610863, 1491649475, -1083100803, 357.4305, 357.4305, 22.215, -0.9960001, -0.325
 67513817, -353610863, 1491649475, -1082955534, 357.4305, 357.4305, 22.215, -0.9960001, -0.325
 67533809, -353610863, 1491649475, -1083017374, 357.4305, 357.4305, 22.215, -0.9960001, -0.325
 67553801, -353610863, 1491649475, -1083083184, 357.4305, 357.4305, 22.215, -0.9960001, -0.325
 67573793, -353610863, 1491649475, -1083136801, 357.4305, 357.4305, 22.215, -0.9960001, -0.325
 67593785, -353610863, 1491649475, -1083198604, 357.4305, 357.4305, 22.215, -0.9960001, -0.325
 67613777, -353610863, 1491649475, -1083254660, 357.4305, 357.4305, 22.215, -0.9960001, -0.325
 67633769, -353610653, 1491648660, -1083320702, 357.5089, 357.5089, 22.155, -0.9630001, -0.197
 67653761, -353610653, 1491648660, -1083380312, 357.5089, 357.5089, 22.155, -0.9630001, -0.197
 67673753, -353610653, 1491648660, -1083448918, 357.5089, 357.5089, 22.155, -0.9630001, -0.197
 67693745, -353610653, 1491648660, -1083529837, 357.5089, 357.5089, 22.155, -0.9630001, -0.197
 67713737, -353610653, 1491648660, -1082594860, 357.5089, 357.5089, 22.155, -0.9630001, -0.197
 67733729, -353610653, 1491648660, -1082667641, 357.5089, 357.5089, 22.155, -0.9630001, -0.197
 67753721, -353610653, 1491648660, -1082720770, 357.5089, 357.5089, 22.155, -0.9630001, -0.197
 67773713, -353610653, 1491648660, -1082783622, 357.5089, 357.5089, 22.155, -0.9630001, -0.197
 67793705, -353610653, 1491648660, -1082839618, 357.5089, 357.5089, 22.155, -0.9630001, -0.197
 67813697, -353610653, 1491648660, -1082908434, 357.5089, 357.5089, 22.155, -0.9630001, -0.197
 67833689, -353610423, 1491649625, -1082966231, 357.5932, 357.5932, 22.102, -0.928, -0.041
 67853681, -353610423, 1491649625, -1083027799, 357.5932, 357.5932, 22.102, -0.928, -0.041
 67873673, -353610423, 1491649625, -1083089944, 357.5932, 357.5932, 22.102, -0.928, -0.041
 67893665, -353610423, 1491649625, -1083154419, 357.5932, 357.5932, 22.102, -0.928, -0.041
 67913657, -353610423, 1491649625, -1083365671, 357.5932, 357.5932, 22.102, -0.928, -0.041
 67933649, -353610423, 1491649625, -1083420761, 357.5932, 357.5932, 22.102, -0.928, -0.041
 67953641, -353610423, 1491649625, -1083463967, 357.5932, 357.5932, 22.102, -0.928, -0.041
 67973633, -353610423, 1491649625, -1083518335, 357.5932, 357.5932, 22.102, -0.928, -0.041
 67993625, -353610423, 1491649625, -1083572914, 357.5932, 357.5932, 22.102, -0.928, -0.041
 68013617, -353610423, 1491649625, -1083624943, 357.5932, 357.5932, 22.102, -0.928, -0.041
 68033609, -353609829, 1491648773, -1083666101, 357.6618, 357.6618, 22.06, -0.9, 0.083
