TimeUS,COFN,COFE,CNe,CEe,POFN,POFE,PNe,PEe
 85823898, -0.08544806, 0.0138354, 0.009455627, -0.0107378, -0.01467269, 0.007175292, 0.007760096, -0.01082374
 86044017, -0.01352827, 0.01020313, 0.007912489, -0.01104992, -0.08544806, 0.0138354, 0.009455627, -0.0107378
 86223998, -0.02634677, 0.01038532, 0.0080938, -0.01111296, -0.01352827, 0.01020313, 0.007912489, -0.01104992
 86423888, -0.02170573, 0.009331048, 0.008215424, -0.01135909, -0.02634677, 0.01038532, 0.0080938, -0.01111296
 86624104, -0.005935383, 0.0116397, 0.008234596, -0.01154683, -0.02170573, 0.009331048, 0.008215424, -0.01135909
 86823879, -0.006623145, 0.007235306, 0.008140083, -0.01138529, -0.005935383, 0.0116397, 0.008234596, -0.01154683
 87023887, -0.02618027, 0.00622201, 0.008087368, -0.01107567, -0.006623145, 0.007235306, 0.008140083, -0.01138529
 87223896, -0.1607034, -0.004214315, 0.01311001, -0.0122571, -0.02618027, 0.00622201, 0.008087368, -0.01107567
 87423888, -0.02408382, 0.003508202, 0.00795743, -0.01091782, -0.1607034, -0.004214315, 0.01311001, -0.0122571
 87623909, -0.02181318, 0.004039572, 0.008250343, -0.01136705, -0.02408382, 0.003508202, 0.00795743, -0.01091782
 87823903, -0.02141335, 0.01557527, 0.00835386, -0.01153022, -0.02181318, 0.004039572, 0.008250343, -0.01136705
 88043908, -0.1248235, 0.05109185, 0.01174889, -0.01198097, -0.02141335, 0.01557527, 0.00835386, -0.01153022
 88223896, -0.01842783, 0.01757744, 0.008088476, -0.01119926, -0.1248235, 0.05109185, 0.01174889, -0.01198097
 88423889, -0.0110598, 0.007059617, 0.007546977, -0.01047049, -0.01842783, 0.01757744, 0.008088476, -0.01119926
 88623944, 1.09239E-05, 0.006599933, 0.007960348, -0.01109927, -0.0110598, 0.007059617, 0.007546977, -0.01047049
 88823891, 0.00507, 0.004733107, 0.008055839, -0.01121796, 1.09239E-05, 0.006599933, 0.007960348, -0.01109927
 89023906, -0.007872684, 0.00977095, 0.008028043, -0.01116523, 0.00507, 0.004733107, 0.008055839, -0.01121796
 89223896, -0.01094621, 0.009386829, 0.008111066, -0.01123038, -0.007872684, 0.00977095, 0.008028043, -0.01116523
 89423885, -0.006487855, 0.007116091, 0.008057076, -0.0111938, -0.01094621, 0.009386829, 0.008111066, -0.01123038
 89623911, -0.005888805, 0.006760657, 0.007813968, -0.01084865, -0.006487855, 0.007116091, 0.008057076, -0.0111938
 89824018, -0.008286205, 0.01218577, 0.008221465, -0.01143046, -0.005888805, 0.006760657, 0.007813968, -0.01084865
 90023904, -0.006335591, 0.007066845, 0.008037105, -0.01115027, -0.008286205, 0.01218577, 0.008221465, -0.01143046
 90223899, -0.007088247, 0.006317887, 0.007982261, -0.01105188, -0.006335591, 0.007066845, 0.008037105, -0.01115027
 90423913, -0.008137384, 0.007164381, 0.008047742, -0.01113583, -0.007088247, 0.006317887, 0.007982261, -0.01105188
 90623986, -0.008088324, 0.006997501, 0.007999955, -0.01105861, -0.008137384, 0.007164381, 0.008047742, -0.01113583
 90824107, -0.008063601, 0.007304064, 0.008060761, -0.01114442, -0.008088324, 0.006997501, 0.007999955, -0.01105861
 91023917, -0.008089342, 0.007899022, 0.008149007, -0.0112657, -0.008063601, 0.007304064, 0.008060761, -0.01114442
 91223903, -0.00791226, 0.007759069, 0.007975444, -0.01101846, -0.008089342, 0.007899022, 0.008149007, -0.0112657
 91423901, -0.007879285, 0.007542144, 0.008002398, -0.01105678, -0.00791226, 0.007759069, 0.007975444, -0.01101846
 91624142, -0.007576412, 0.007227581, 0.007925288, -0.01093433, -0.007879285, 0.007542144, 0.008002398, -0.01105678
 91823904, -0.007553406, 0.00718856, 0.00791134, -0.01091365, -0.007576412, 0.007227581, 0.007925288, -0.01093433
 92023913, -0.007654004, 0.006801948, 0.007911042, -0.01090192, -0.007553406, 0.00718856, 0.00791134, -0.01091365
 92223917, -0.007761088, 0.007131889, 0.007965693, -0.01097994, -0.007654004, 0.006801948, 0.007911042, -0.01090192
 92423888, -0.008020142, 0.007466796, 0.008218397, -0.01131712, -0.007761088, 0.007131889, 0.007965693, -0.01097994
 92623920, -0.008249758, 0.007878992, 0.008190005, -0.01127552, -0.008020142, 0.007466796, 0.008218397, -0.01131712
 92823919, -0.007847037, 0.007903274, 0.00809061, -0.01113379, -0.008249758, 0.007878992, 0.008190005, -0.01127552
 93023911, -0.007896826, 0.007988385, 0.008119464, -0.01117421, -0.007847037, 0.007903274, 0.00809061, -0.01113379
 93223905, -0.008080085, 0.007767838, 0.008139663, -0.01119139, -0.007896826, 0.007988385, 0.008119464, -0.01117421
 93424015, -0.007531158, 0.007121105, 0.007997171, -0.01098799, -0.008080085, 0.007767838, 0.008139663, -0.01119139
 93623920, -0.00748103, 0.007060078, 0.007949323, -0.01091873, -0.007531158, 0.007121105, 0.007997171, -0.01098799
 93823904, -0.007735564, 0.007387063, 0.008071127, -0.01108634, -0.00748103, 0.007060078, 0.007949323, -0.01091873
 94024103, -0.008438669, 0.007729854, 0.008579354, -0.01177469, -0.007735564, 0.007387063, 0.008071127, -0.01108634
 94223904, -0.008109586, 0.007338495, 0.008180646, -0.01122083, -0.008438669, 0.007729854, 0.008579354, -0.01177469
 94423944, -0.007618471, 0.007384402, 0.007990446, -0.01094703, -0.008109586, 0.007338495, 0.008180646, -0.01122083
 94624018, -0.007505885, 0.007418369, 0.008599193, -0.01178873, -0.007618471, 0.007384402, 0.007990446, -0.01094703
 94843994, -0.007314001, 0.007274448, 0.008017011, -0.01100441, -0.007505885, 0.007418369, 0.008599193, -0.01178873
 95024126, -0.008250577, 0.008801265, 0.008327357, -0.01140908, -0.007314001, 0.007274448, 0.008017011, -0.01100441
 95224030, -0.007274214, 0.00103802, 0.008367025, -0.01144489, -0.008250577, 0.008801265, 0.008327357, -0.01140908
 95423989, -0.0558311, -0.06485077, 0.008455651, -0.01264523, -0.007274214, 0.00103802, 0.008367025, -0.01144489
 95624016, -0.3334104, -0.5867625, 0.01155911, -0.04927314, -0.0558311, -0.06485077, 0.008455651, -0.01264523
 95843993, -0.0427224, -0.3301794, 0.006775406, -0.02653894, -0.3334104, -0.5867625, 0.01155911, -0.04927314
 96044012, -0.09444062, -1.768595, 0.001702056, -0.108053, -0.0427224, -0.3301794, 0.006775406, -0.02653894
 96244003, 0.3920605, -1.623704, 0.02633596, -0.09526997, -0.09444062, -1.768595, 0.001702056, -0.108053
 96443992, 1.13137, -1.67321, 0.0645747, -0.09469766, 0.3920605, -1.623704, 0.02633596, -0.09526997
 96624015, 1.510895, -1.526456, 0.08349853, -0.0872901, 1.13137, -1.67321, 0.0645747, -0.09469766
 96823921, 1.804909, -1.42447, 0.09819435, -0.08479192, 1.510895, -1.526456, 0.08349853, -0.0872901
 97043999, 1.996229, -1.171856, 0.1081573, -0.07859644, 1.804909, -1.42447, 0.09819435, -0.08479192
 97244018, 2.106401, -0.8512127, 0.1139574, -0.07421799, 1.996229, -1.171856, 0.1081573, -0.07859644
 97444001, 2.189544, -0.6235471, 0.1184868, -0.07430287, 2.106401, -0.8512127, 0.1139574, -0.07421799
 97643998, 2.236491, -0.4352884, 0.1216092, -0.07878067, 2.189544, -0.6235471, 0.1184868, -0.07430287
 97843993, 1.958317, -0.6674336, 0.1112749, -0.0858219, 2.236491, -0.4352884, 0.1216092, -0.07878067
 98043984, 1.673335, -0.731006, 0.100483, -0.08855073, 1.958317, -0.6674336, 0.1112749, -0.0858219
 98224115, 1.346835, -1.048581, 0.09012193, -0.09727162, 1.673335, -0.731006, 0.100483, -0.08855073
 98424018, 0.9038667, -1.324266, 0.07714298, -0.108019, 1.346835, -1.048581, 0.09012193, -0.09727162
 98624038, 0.8420599, -1.460852, 0.07862592, -0.1163719, 0.9038667, -1.324266, 0.07714298, -0.108019
 98824014, 0.2218876, -1.803732, 0.06876815, -0.1342165, 0.8420599, -1.460852, 0.07862592, -0.1163719
 99024002, 0.03344178, -1.883552, 0.07013369, -0.142104, 0.2218876, -1.803732, 0.06876815, -0.1342165
 99243989, -0.06462527, -2.050691, 0.07321943, -0.1543173, 0.03344178, -1.883552, 0.07013369, -0.142104
 99423919, -0.4902014, -2.422667, 0.0760615, -0.1760473, -0.06462527, -2.050691, 0.07321943, -0.1543173
 99624028, -0.831879, -2.773572, 0.07838748, -0.1957524, -0.4902014, -2.422667, 0.0760615, -0.1760473
 99823998, -0.9424465, -2.926999, 0.08135317, -0.2070161, -0.831879, -2.773572, 0.07838748, -0.1957524
 100044009, -1.306191, -3.174429, 0.08620793, -0.2226009, -0.9424465, -2.926999, 0.08135317, -0.2070161
 100243920, -1.424824, -3.343163, 0.09007713, -0.2316575, -1.306191, -3.174429, 0.08620793, -0.2226009
 100444029, -1.683494, -3.667058, 0.08992925, -0.2479891, -1.424824, -3.343163, 0.09007713, -0.2316575
 100644015, -1.258723, -4.449852, 0.1426609, -0.2500381, -1.683494, -3.667058, 0.08992925, -0.2479891
 100823996, -1.367773, -4.573485, 0.1483919, -0.2548079, -1.258723, -4.449852, 0.1426609, -0.2500381
 101044129, -1.351361, -4.854533, 0.1573083, -0.2644835, -1.367773, -4.573485, 0.1483919, -0.2548079
 101244100, -1.468818, -5.592781, 0.1659512, -0.2970723, -1.351361, -4.854533, 0.1573083, -0.2644835
 101424086, -1.645676, -5.7812, 0.1816895, -0.3017956, -1.468818, -5.592781, 0.1659512, -0.2970723
 101624107, -1.619011, -5.84571, 0.1856119, -0.3040054, -1.645676, -5.7812, 0.1816895, -0.3017956
 101824092, -1.160471, -5.484081, 0.1766182, -0.2883886, -1.619011, -5.84571, 0.1856119, -0.3040054
 102024089, -1.37465, -5.407866, 0.1850217, -0.2835458, -1.160471, -5.484081, 0.1766182, -0.2883886
 102244326, -1.540544, -5.341589, 0.1844683, -0.2840113, -1.37465, -5.407866, 0.1850217, -0.2835458
 102444082, -1.821658, -4.683187, 0.1854701, -0.2581435, -1.540544, -5.341589, 0.1844683, -0.2840113
 102644095, -1.744783, -4.478507, 0.1851578, -0.249742, -1.821658, -4.683187, 0.1854701, -0.2581435
 102824076, -1.206974, -4.060548, 0.1746302, -0.2332739, -1.744783, -4.478507, 0.1851578, -0.249742
 103024090, -0.8619398, -3.852857, 0.1710309, -0.2266944, -1.206974, -4.060548, 0.1746302, -0.2332739
 103244108, -0.8194911, -3.744199, 0.1724201, -0.2241082, -0.8619398, -3.852857, 0.1710309, -0.2266944
 103424300, -0.6602481, -3.846601, 0.1726268, -0.2285675, -0.8194911, -3.744199, 0.1724201, -0.2241082
 103624123, -0.6790652, -3.533104, 0.170229, -0.2201325, -0.6602481, -3.846601, 0.1726268, -0.2285675
 103824091, -0.6318116, -2.467722, 0.1669738, -0.1886768, -0.6790652, -3.533104, 0.170229, -0.2201325
 104044358, -0.5539162, -1.66536, 0.1659964, -0.1706339, -0.6318116, -2.467722, 0.1669738, -0.1886768
 104244093, -0.511356, -1.176893, 0.1668621, -0.1635737, -0.5539162, -1.66536, 0.1659964, -0.1706339
 104424093, -0.3093458, -0.6138724, 0.1660442, -0.1623724, -0.511356, -1.176893, 0.1668621, -0.1635737
 104644114, -0.01198793, -1.015186, 0.1693504, -0.171199, -0.3093458, -0.6138724, 0.1660442, -0.1623724
 104844091, -0.202366, -1.127459, 0.1731299, -0.1745573, -0.01198793, -1.015186, 0.1693504, -0.171199
 105044102, -0.1088705, -1.192099, 0.1787061, -0.17856, -0.202366, -1.127459, 0.1731299, -0.1745573
 105244094, -0.1917464, -1.280266, 0.1858382, -0.1829742, -0.1088705, -1.192099, 0.1787061, -0.17856
 105444091, -0.1350673, -1.225456, 0.1890721, -0.1848209, -0.1917464, -1.280266, 0.1858382, -0.1829742
 105644111, -0.4854064, -1.056783, 0.1940703, -0.1852918, -0.1350673, -1.225456, 0.1890721, -0.1848209
 105844306, -0.2412748, -0.5584422, 0.1980733, -0.1859135, -0.4854064, -1.056783, 0.1940703, -0.1852918
 106024671, -0.2089445, -0.5603483, 0.2014776, -0.1889662, -0.2412748, -0.5584422, 0.1980733, -0.1859135
 106244517, -0.09296124, -0.2192463, 0.20597, -0.1892948, -0.2089445, -0.5603483, 0.2014776, -0.1889662
 106444534, -0.3712732, -0.00532346, 0.2100501, -0.1928023, -0.09296124, -0.2192463, 0.20597, -0.1892948
 106644541, 0.04537983, 0.3391049, 0.2120412, -0.195252, -0.3712732, -0.00532346, 0.2100501, -0.1928023
 106844883, -0.1689233, 0.5584723, 0.2152247, -0.1985575, 0.04537983, 0.3391049, 0.2120412, -0.195252
 107045340, -0.4324438, 0.4787628, 0.2192625, -0.1991091, -0.1689233, 0.5584723, 0.2152247, -0.1985575
 107245098, -0.4081227, 0.5403689, 0.2201275, -0.200502, -0.4324438, 0.4787628, 0.2192625, -0.1991091
 107445104, -0.3378586, 0.4768758, 0.2208361, -0.2012704, -0.4081227, 0.5403689, 0.2201275, -0.200502
 107645687, -0.3759856, 0.7780567, 0.2219916, -0.204435, -0.3378586, 0.4768758, 0.2208361, -0.2012704
 107845538, -0.2508298, 0.466906, 0.2215212, -0.2020905, -0.3759856, 0.7780567, 0.2219916, -0.204435
 108045694, -0.1139777, 0.849608, 0.221818, -0.2048292, -0.2508298, 0.466906, 0.2215212, -0.2020905
 108245519, -0.002645807, 0.8852605, 0.2212397, -0.2055685, -0.1139777, 0.849608, 0.221818, -0.2048292
 108445540, 0.4696501, 0.7077923, 0.2240636, -0.2029975, -0.002645807, 0.8852605, 0.2212397, -0.2055685
 108645542, 0.3242118, 0.6241546, 0.2237218, -0.2037129, 0.4696501, 0.7077923, 0.2240636, -0.2029975
 108845533, 0.3577522, 0.6338425, 0.2238853, -0.2033687, 0.3242118, 0.6241546, 0.2237218, -0.2037129
 109045908, 0.3266641, 0.3024715, 0.2219899, -0.203418, 0.3577522, 0.6338425, 0.2238853, -0.2033687
 109247162, 0.4063133, 0.4851134, 0.2217274, -0.20405, 0.3266641, 0.3024715, 0.2219899, -0.203418
 109447472, 0.1452746, 0.1688673, 0.2219824, -0.204139, 0.4063133, 0.4851134, 0.2217274, -0.20405
 109647337, 0.3856724, 0.02355247, 0.2236823, -0.2039223, 0.1452746, 0.1688673, 0.2219824, -0.204139
 109847299, 0.04887411, 0.2902424, 0.2231763, -0.2049412, 0.3856724, 0.02355247, 0.2236823, -0.2039223
 110049714, -0.08729067, 0.2412761, 0.2241733, -0.2066595, 0.04887411, 0.2902424, 0.2231763, -0.2049412
 110250310, -0.2471084, -0.1721076, 0.2301885, -0.2044031, -0.08729067, 0.2412761, 0.2241733, -0.2066595
 110450429, -0.6399699, -0.1250883, 0.2591539, -0.1755123, -0.2471084, -0.1721076, 0.2301885, -0.2044031
 110650458, -0.5779027, -0.9321918, 0.3020172, -0.110083, -0.6399699, -0.1250883, 0.2591539, -0.1755123
 110850440, 0.4158664, -0.5244775, 0.3259464, -0.03616919, -0.5779027, -0.9321918, 0.3020172, -0.110083
 111050450, 1.610471, -0.7272741, 0.3459735, 0.01288273, 0.4158664, -0.5244775, 0.3259464, -0.03616919
 111250915, 0.140582, 1.274824, 0.3454224, 0.08057329, 1.610471, -0.7272741, 0.3459735, 0.01288273
 111450916, 1.165729, -1.135106, 0.3648876, 0.07768336, 0.140582, 1.274824, 0.3454224, 0.08057329
 111650805, 1.019947, -0.8960731, 0.3776486, 0.08077645, 1.165729, -1.135106, 0.3648876, 0.07768336
 111830788, 0.4750504, -0.5816445, 0.388326, 0.08570136, 1.019947, -0.8960731, 0.3776486, 0.08077645
 112031093, 0.240963, -0.960514, 0.4056812, 0.0913132, 0.4750504, -0.5816445, 0.388326, 0.08570136
 112231061, 0.3339399, -1.087762, 0.4200934, 0.09668602, 0.240963, -0.960514, 0.4056812, 0.0913132
 112431067, 0.8504869, -2.042531, 0.4485069, 0.1021203, 0.3339399, -1.087762, 0.4200934, 0.09668602
 112631101, 1.356495, -2.082776, 0.4732796, 0.1021177, 0.8504869, -2.042531, 0.4485069, 0.1021203
 112851089, 1.550218, -2.171664, 0.4948958, 0.1037752, 1.356495, -2.082776, 0.4732796, 0.1021177
 113053882, 2.368423, -2.239158, 0.5200324, 0.09451769, 1.550218, -2.171664, 0.4948958, 0.1037752
 113253866, 2.809863, -1.834078, 0.5420992, 0.09037004, 2.368423, -2.239158, 0.5200324, 0.09451769
 113454098, 2.437915, -1.591411, 0.5578434, 0.08827693, 2.809863, -1.834078, 0.5420992, 0.09037004
 113653885, 2.424108, -1.551224, 0.5715018, 0.08352415, 2.437915, -1.591411, 0.5578434, 0.08827693
 113833851, 1.96253, -1.586594, 0.5871874, 0.06628843, 2.424108, -1.551224, 0.5715018, 0.08352415
 114053880, 0.8179446, -2.19895, 0.6039871, 0.02615113, 1.96253, -1.586594, 0.5871874, 0.06628843
 114253860, 0.4521521, -2.533647, 0.6186033, -0.0343903, 0.8179446, -2.19895, 0.6039871, 0.02615113
 114454053, -0.4890335, -1.961784, 0.6053619, -0.1715355, 0.4521521, -2.533647, 0.6186033, -0.0343903
 114653892, -1.68385, -2.164435, 0.5580652, -0.3252071, -0.4890335, -1.961784, 0.6053619, -0.1715355
 114853892, -1.779625, -1.852103, 0.4962276, -0.4185593, -1.68385, -2.164435, 0.5580652, -0.3252071
 115053880, -2.039947, -1.140161, 0.3899172, -0.5186551, -1.779625, -1.852103, 0.4962276, -0.4185593
 115254065, -1.606447, 0.08533731, 0.2518347, -0.5924363, -2.039947, -1.140161, 0.3899172, -0.5186551
 115453843, -1.020082, -0.6214138, 0.1568469, -0.6251944, -1.606447, 0.08533731, 0.2518347, -0.5924363
 115654398, -1.119803, -2.052646, -0.002437167, -0.6570039, -1.020082, -0.6214138, 0.1568469, -0.6251944
 115854397, -2.380531, -2.715218, -0.1853517, -0.6489624, -1.119803, -2.052646, -0.002437167, -0.6570039
 116074395, -3.232926, -2.240264, -0.3422978, -0.5911196, -2.380531, -2.715218, -0.1853517, -0.6489624
 116254386, -4.25421, -1.354903, -0.4429278, -0.5316854, -3.232926, -2.240264, -0.3422978, -0.5911196
 116454761, -4.904109, -0.3886313, -0.5309895, -0.456439, -4.25421, -1.354903, -0.4429278, -0.5316854
 116654728, -5.626902, 0.4126366, -0.5560386, -0.4482653, -4.904109, -0.3886313, -0.5309895, -0.456439
 116854701, -5.78768, 0.8770058, -0.5584296, -0.4499925, -5.626902, 0.4126366, -0.5560386, -0.4482653
 117054992, -6.44433, 0.889642, -0.5739941, -0.448418, -5.78768, 0.8770058, -0.5584296, -0.4499925
 117257745, -5.970305, 0.7534578, -0.5599047, -0.4519069, -6.44433, 0.889642, -0.5739941, -0.448418
 117457619, -5.396845, 0.5510434, -0.5461378, -0.454259, -5.970305, 0.7534578, -0.5599047, -0.4519069
 117657785, -6.20443, -0.1595118, -0.5704337, -0.4563052, -5.396845, 0.5510434, -0.5461378, -0.454259
 117857638, -6.894729, -0.3347651, -0.5912403, -0.4653466, -6.20443, -0.1595118, -0.5704337, -0.4563052
 118057615, -6.558649, -0.7594774, -0.5792667, -0.4701614, -6.894729, -0.3347651, -0.5912403, -0.4653466
 118257635, -7.332833, -0.3602818, -0.6026719, -0.4735187, -6.558649, -0.7594774, -0.5792667, -0.4701614
 118417598, -7.750075, -0.6435859, -0.615009, -0.4804253, -7.332833, -0.3602818, -0.6026719, -0.4735187
 118617654, -7.965384, -0.5882787, -0.6189272, -0.4863529, -7.750075, -0.6435859, -0.615009, -0.4804253
 118817598, -8.692292, -0.2200751, -0.641856, -0.4867588, -7.965384, -0.5882787, -0.6189272, -0.4863529
 119017645, -8.869935, -0.2050849, -0.6480798, -0.4877669, -8.692292, -0.2200751, -0.641856, -0.4867588
 119217606, -8.855895, -0.3029315, -0.6481339, -0.4890339, -8.869935, -0.2050849, -0.6480798, -0.4877669
 119417771, -9.57258, -0.2235442, -0.6718506, -0.4890268, -8.855895, -0.3029315, -0.6481339, -0.4890339
 119617678, -9.664861, -0.2232587, -0.6776943, -0.486761, -9.57258, -0.2235442, -0.6718506, -0.4890268
 119818038, -9.953781, -0.1337393, -0.6877309, -0.4898203, -9.664861, -0.2232587, -0.6776943, -0.486761
 120018220, -11.55738, 0.03643597, -0.7479095, -0.4903062, -9.953781, -0.1337393, -0.6877309, -0.4898203
 120258029, -11.46123, -0.09103034, -0.7411345, -0.4907483, -11.55738, 0.03643597, -0.7479095, -0.4903062
 120418033, -11.07407, -0.2790139, -0.7262869, -0.4909855, -11.46123, -0.09103034, -0.7411345, -0.4907483
 120621120, -10.5925, 0.06988956, -0.7065302, -0.4924471, -11.07407, -0.2790139, -0.7262869, -0.4909855
 120821092, -10.56396, 0.07289439, -0.7033617, -0.4942619, -10.5925, 0.06988956, -0.7065302, -0.4924471
 121021115, -10.4107, 0.1284688, -0.6980956, -0.4895501, -10.56396, 0.07289439, -0.7033617, -0.4942619
 121221109, -10.08043, -0.2798279, -0.6850445, -0.4867541, -10.4107, 0.1284688, -0.6980956, -0.4895501
 121421316, -10.08252, -0.1660215, -0.6821799, -0.485343, -10.08043, -0.2798279, -0.6850445, -0.4867541
 121621616, -10.09542, -0.1152692, -0.6820152, -0.478805, -10.08252, -0.1660215, -0.6821799, -0.485343
 121821574, -10.85144, -0.1778296, -0.7071428, -0.479089, -10.09542, -0.1152692, -0.6820152, -0.478805
 122021598, -10.70783, -0.2037119, -0.7017282, -0.4720234, -10.85144, -0.1778296, -0.7071428, -0.479089
 122221568, -10.79775, -0.2744101, -0.7014504, -0.4706265, -10.70783, -0.2037119, -0.7017282, -0.4720234
 122424448, -11.4023, -0.4246495, -0.7264084, -0.4651676, -10.79775, -0.2744101, -0.7014504, -0.4706265
 122624113, -10.9498, -0.4216903, -0.7110106, -0.4592958, -11.4023, -0.4246495, -0.7264084, -0.4651676
 122824428, -10.97199, -0.3594346, -0.7094326, -0.4601079, -10.9498, -0.4216903, -0.7110106, -0.4592958
 123024416, -11.68001, 0.6546037, -0.7339407, -0.4646748, -10.97199, -0.3594346, -0.7094326, -0.4601079
 123225002, -11.37493, -1.127834, -0.7245183, -0.4625675, -11.68001, 0.6546037, -0.7339407, -0.4646748
 123406422, -11.37073, -0.9829777, -0.7231417, -0.4650306, -11.37493, -1.127834, -0.7245183, -0.4625675
 123625112, -10.5069, -0.5011019, -0.6923709, -0.4519883, -11.37073, -0.9829777, -0.7231417, -0.4650306
 123807873, -10.1288, 0.3445492, -0.6783964, -0.4495491, -10.5069, -0.5011019, -0.6923709, -0.4519883
 124007748, -10.18606, 0.2523959, -0.6772785, -0.4526317, -10.1288, 0.3445492, -0.6783964, -0.4495491
 124207718, -10.89261, 0.7297684, -0.7018729, -0.4519868, -10.18606, 0.2523959, -0.6772785, -0.4526317
 124428242, -10.74006, 0.4967885, -0.6879562, -0.4490118, -10.89261, 0.7297684, -0.7018729, -0.4519868
 124628124, -10.64228, 0.5661801, -0.6830885, -0.4419988, -10.74006, 0.4967885, -0.6879562, -0.4490118
 124828110, -10.59134, 0.4937204, -0.6776803, -0.4412339, -10.64228, 0.5661801, -0.6830885, -0.4419988
 125028231, -10.74968, 0.05581217, -0.6847703, -0.4347129, -10.59134, 0.4937204, -0.6776803, -0.4412339
 125227763, -10.69284, 0.0375241, -0.6814269, -0.4347467, -10.74968, 0.05581217, -0.6847703, -0.4347129
 125427883, -10.56945, 0.1050965, -0.6725724, -0.4357009, -10.69284, 0.0375241, -0.6814269, -0.4347467
 125628074, -9.981074, 0.7064008, -0.6496037, -0.4334535, -10.56945, 0.1050965, -0.6725724, -0.4357009
 125828836, -9.50249, -0.1576701, -0.6322935, -0.4306207, -9.981074, 0.7064008, -0.6496037, -0.4334535
 126011688, -9.364193, -0.1124789, -0.6273286, -0.42683, -9.50249, -0.1576701, -0.6322935, -0.4306207
 126212069, -9.126168, 0.3190559, -0.6169956, -0.4298102, -9.364193, -0.1124789, -0.6273286, -0.42683
 126412593, -8.942437, 0.2036833, -0.6064165, -0.4328958, -9.126168, 0.3190559, -0.6169956, -0.4298102
 126612582, -8.665538, 0.1386714, -0.5887521, -0.438187, -8.942437, 0.2036833, -0.6064165, -0.4328958
 126812567, -6.810851, 0.1283174, -0.5163093, -0.4477813, -8.665538, 0.1386714, -0.5887521, -0.438187
 127013033, -6.50542, -0.2542143, -0.4822759, -0.4696504, -6.810851, 0.1283174, -0.5163093, -0.4477813
 127213031, -6.12039, -0.9384976, -0.4400614, -0.5030205, -6.50542, -0.2542143, -0.4822759, -0.4696504
 127413070, -3.661505, -2.103087, -0.3546249, -0.5181568, -6.12039, -0.9384976, -0.4400614, -0.5030205
 127613270, -3.224008, -2.336469, -0.2981165, -0.5475383, -3.661505, -2.103087, -0.3546249, -0.5181568
 127813030, -2.845709, -2.664833, -0.223415, -0.5791234, -3.224008, -2.336469, -0.2981165, -0.5475383
 128013008, -1.982042, -2.594629, -0.1385016, -0.5958447, -2.845709, -2.664833, -0.223415, -0.5791234
 128213138, -1.650554, -3.015763, -0.03128392, -0.6143161, -1.982042, -2.594629, -0.1385016, -0.5958447
 128413033, -1.144832, -3.362848, 0.0940594, -0.6179119, -1.650554, -3.015763, -0.03128392, -0.6143161
 128613056, -0.7004195, -3.96481, 0.2033439, -0.606913, -1.144832, -3.362848, 0.0940594, -0.6179119
 128813353, -0.3065469, -4.097158, 0.2715636, -0.5889951, -0.7004195, -3.96481, 0.2033439, -0.606913
 129013356, 0.006946689, -4.205209, 0.3367192, -0.56638, -0.3065469, -4.097158, 0.2715636, -0.5889951
 129213508, -0.9814122, -4.166493, 0.3830837, -0.5474733, 0.006946689, -4.205209, 0.3367192, -0.56638
 129413490, -0.842243, -4.193555, 0.4081224, -0.5360038, -0.9814122, -4.166493, 0.3830837, -0.5474733
 129616340, -0.759424, -4.255946, 0.4353698, -0.526449, -0.842243, -4.193555, 0.4081224, -0.5360038
 129816082, -0.3893441, -4.778984, 0.4539244, -0.5308359, -0.759424, -4.255946, 0.4353698, -0.526449
 130016076, -0.5270023, -4.945418, 0.466116, -0.5327332, -0.3893441, -4.778984, 0.4539244, -0.5308359
 130216072, -0.65483, -5.169969, 0.4754352, -0.5369436, -0.5270023, -4.945418, 0.466116, -0.5327332
 130416108, -0.9947935, -5.819157, 0.4832712, -0.5563904, -0.65483, -5.169969, 0.4754352, -0.5369436
 130616230, -0.1659165, -7.30025, 0.4823205, -0.600261, -0.9947935, -5.819157, 0.4832712, -0.5563904
 130816108, -0.1945997, -7.33495, 0.4849811, -0.6063889, -0.1659165, -7.30025, 0.4823205, -0.600261
 131016090, -0.2003099, -7.451767, 0.4818286, -0.607397, -0.1945997, -7.33495, 0.4849811, -0.6063889
 131216736, -0.2086073, -7.900253, 0.4801923, -0.6224145, -0.2003099, -7.451767, 0.4818286, -0.607397
 131416990, -0.2226908, -8.096053, 0.4816112, -0.6278973, -0.2086073, -7.900253, 0.4801923, -0.6224145
 131616702, -0.1084589, -8.216812, 0.4804536, -0.6314321, -0.2226908, -8.096053, 0.4816112, -0.6278973
 131816712, 0.2504487, -9.017591, 0.4767168, -0.6595727, -0.1084589, -8.216812, 0.4804536, -0.6314321
 131996976, 0.2175663, -9.1364, 0.4774485, -0.6615963, 0.2504487, -9.017591, 0.4767168, -0.6595727
 132217118, 0.1940891, -9.214021, 0.4817535, -0.6558516, 0.2175663, -9.1364, 0.4774485, -0.6615963
 132417218, -0.4817536, -10.31146, 0.4903738, -0.6912494, 0.1940891, -9.214021, 0.4817535, -0.6558516
 132617161, -0.4845379, -10.38674, 0.4929423, -0.6959496, -0.4817536, -10.31146, 0.4903738, -0.6912494
 132817136, -0.4116103, -10.34842, 0.4916118, -0.6937975, -0.4845379, -10.38674, 0.4929423, -0.6959496
 133017100, 0.6015478, -10.11246, 0.4870129, -0.6846088, -0.4116103, -10.34842, 0.4916118, -0.6937975
 133217277, 0.6475062, -10.11651, 0.4884696, -0.6817089, 0.6015478, -10.11246, 0.4870129, -0.6846088
 133417116, 0.6291636, -10.14706, 0.4913346, -0.6852218, 0.6475062, -10.11651, 0.4884696, -0.6817089
 133617167, 0.4559233, -10.44069, 0.494038, -0.6933796, 0.6291636, -10.14706, 0.4913346, -0.6852218
 133817153, 0.4256888, -10.90295, 0.4920968, -0.7036335, 0.4559233, -10.44069, 0.494038, -0.6933796
 134017111, 0.3523128, -10.71982, 0.4864498, -0.6881664, 0.4256888, -10.90295, 0.4920968, -0.7036335
 134217116, 0.07291535, -10.77539, 0.4815008, -0.6869384, 0.3523128, -10.71982, 0.4864498, -0.6881664
 134417143, 0.7663386, -10.12062, 0.471463, -0.6591838, 0.07291535, -10.77539, 0.4815008, -0.6869384
 134617177, 0.6682588, -9.951898, 0.464229, -0.6511599, 0.7663386, -10.12062, 0.471463, -0.6591838
 134817510, 0.4156844, -10.10105, 0.4535203, -0.6561469, 0.6682588, -9.951898, 0.464229, -0.6511599
 135037855, 0.1261221, -10.52184, 0.4528161, -0.6685813, 0.4156844, -10.10105, 0.4535203, -0.6561469
 135238020, 0.5225883, -11.90726, 0.4606661, -0.7208239, 0.1261221, -10.52184, 0.4528161, -0.6685813
 135417563, 0.5370815, -11.48708, 0.459402, -0.7015783, 0.5225883, -11.90726, 0.4606661, -0.7208239
 135617648, 1.555876, -11.22483, 0.4630038, -0.6943361, 0.5370815, -11.48708, 0.459402, -0.7015783
 135817574, 1.468265, -11.12939, 0.4631363, -0.6929904, 1.555876, -11.22483, 0.4630038, -0.6943361
 136017883, 1.390022, -10.97092, 0.4584258, -0.6896784, 1.468265, -11.12939, 0.4631363, -0.6929904
 136217875, 0.3123264, -10.18467, 0.4481525, -0.6593748, 1.390022, -10.97092, 0.4584258, -0.6896784
 136417871, 0.04198043, -9.998641, 0.4269472, -0.6584542, 0.3123264, -10.18467, 0.4481525, -0.6593748
 136618067, -0.1654118, -10.07572, 0.4191172, -0.6570187, 0.04198043, -9.998641, 0.4269472, -0.6584542
 136818035, -0.7559807, -10.62989, 0.4200224, -0.6744695, -0.1654118, -10.07572, 0.4191172, -0.6570187
 137017850, -0.6985727, -10.46016, 0.4140591, -0.6630803, -0.7559807, -10.62989, 0.4200224, -0.6744695
 137217851, -0.5399881, -10.50451, 0.4095347, -0.6661959, -0.6985727, -10.46016, 0.4140591, -0.6630803
 137417854, 0.3992532, -10.62019, 0.4070478, -0.6693555, -0.5399881, -10.50451, 0.4095347, -0.6661959
 137617887, 0.3563687, -10.62636, 0.4064922, -0.6692461, 0.3992532, -10.62019, 0.4070478, -0.6693555
 137817845, 0.3122196, -10.63969, 0.4060635, -0.6692191, 0.3563687, -10.62636, 0.4064922, -0.6692461
 138017859, -0.05224679, -10.75291, 0.4104324, -0.671319, 0.3122196, -10.63969, 0.4060635, -0.6692191
 138217837, -0.182215, -10.66862, 0.4069441, -0.6692879, -0.05224679, -10.75291, 0.4104324, -0.671319
 138417847, -0.07223365, -10.69172, 0.4109111, -0.6691758, -0.182215, -10.66862, 0.4069441, -0.6692879
 138618121, 0.6503058, -10.49192, 0.4170367, -0.6629465, -0.07223365, -10.69172, 0.4109111, -0.6691758
 138817863, 0.6576997, -10.52452, 0.4226656, -0.661282, 0.6503058, -10.49192, 0.4170367, -0.6629465
 139017889, 0.6155458, -10.41444, 0.4137734, -0.6539119, 0.6576997, -10.52452, 0.4226656, -0.661282
 139217896, -0.06516234, -11.05964, 0.4088549, -0.6788842, 0.6155458, -10.41444, 0.4137734, -0.6539119
 139417875, -0.4809294, -11.60951, 0.4097575, -0.6985456, -0.06516234, -11.05964, 0.4088549, -0.6788842
 139617902, -0.435612, -11.46338, 0.4111004, -0.6897347, -0.4809294, -11.60951, 0.4097575, -0.6985456
 139818059, -0.3779182, -10.99106, 0.4108869, -0.6685438, -0.435612, -11.46338, 0.4111004, -0.6897347
 140017847, -0.3423854, -11.21303, 0.4095496, -0.6759441, -0.3779182, -10.99106, 0.4108869, -0.6685438
 140217849, -0.3577895, -10.99015, 0.402036, -0.6657408, -0.3423854, -11.21303, 0.4095496, -0.6759441
 140418043, -0.4756368, -10.05833, 0.3946829, -0.631418, -0.3577895, -10.99015, 0.402036, -0.6657408
 140617897, -0.05554742, -9.830519, 0.3882457, -0.6242412, -0.4756368, -10.05833, 0.3946829, -0.631418
 140818376, -0.04846219, -9.971754, 0.3904502, -0.6338006, -0.05554742, -9.830519, 0.3882457, -0.6242412
 141018134, 0.02630639, -10.07759, 0.3951925, -0.6382841, -0.04846219, -9.971754, 0.3904502, -0.6338006
 141218108, 0.1904755, -10.13407, 0.398256, -0.6396531, 0.02630639, -10.07759, 0.3951925, -0.6382841
 141418257, 0.04480018, -10.33353, 0.4011924, -0.6487364, 0.1904755, -10.13407, 0.398256, -0.6396531
 141618565, 0.09207207, -10.3024, 0.4014016, -0.6479568, 0.04480018, -10.33353, 0.4011924, -0.6487364
 141818584, -0.3369497, -10.27246, 0.3983948, -0.6450908, 0.09207207, -10.3024, 0.4014016, -0.6479568
 142018526, -0.3910362, -10.27749, 0.3940199, -0.6465802, -0.3369497, -10.27246, 0.3983948, -0.6450908
 142218720, -0.3440304, -10.233, 0.391752, -0.6446784, -0.3910362, -10.27749, 0.3940199, -0.6465802
 142418561, -0.02495789, -10.43975, 0.3912864, -0.6535161, -0.3440304, -10.233, 0.391752, -0.6446784
 142618550, 0.0196109, -10.36536, 0.390238, -0.6494561, -0.02495789, -10.43975, 0.3912864, -0.6535161
 142818561, -0.0269124, -10.18403, 0.3847538, -0.6410635, 0.0196109, -10.36536, 0.390238, -0.6494561
 143018554, -0.0729102, -9.358341, 0.3713912, -0.6130642, -0.0269124, -10.18403, 0.3847538, -0.6410635
 143218561, -0.1397256, -9.393155, 0.3727261, -0.6150314, -0.0729102, -9.358341, 0.3713912, -0.6130642
 143418560, -0.1355103, -9.622024, 0.3747624, -0.6247224, -0.1397256, -9.393155, 0.3727261, -0.6150314
 143618573, -0.6287646, -10.88285, 0.3776414, -0.6735454, -0.1355103, -9.622024, 0.3747624, -0.6247224
 143818566, -0.6299472, -10.58902, 0.3854955, -0.6577251, -0.6287646, -10.88285, 0.3776414, -0.6735454
 144018746, -0.4494026, -10.59838, 0.3851067, -0.6586886, -0.6299472, -10.58902, 0.3854955, -0.6577251
 144218563, 0.1812332, -10.91899, 0.3837336, -0.6750873, -0.4494026, -10.59838, 0.3851067, -0.6586886
 144418567, 0.2427552, -9.533928, 0.3739293, -0.6269568, 0.1812332, -10.91899, 0.3837336, -0.6750873
 144638572, -0.001352803, -9.340389, 0.3627877, -0.6273111, 0.2427552, -9.533928, 0.3739293, -0.6269568
 144838566, -0.4213046, -8.907819, 0.3612854, -0.613059, -0.001352803, -9.340389, 0.3627877, -0.6273111
 145019053, -0.9102063, -9.793746, 0.3665572, -0.6409735, -0.4213046, -8.907819, 0.3612854, -0.613059
 145298851, -0.9002802, -10.04922, 0.3709496, -0.6389028, -0.9102063, -9.793746, 0.3665572, -0.6409735
 145441407, -1.394414, -11.01747, 0.3717326, -0.6781682, -0.9002802, -10.04922, 0.3709496, -0.6389028
 145641437, -1.301122, -10.86258, 0.369877, -0.6715364, -1.394414, -11.01747, 0.3717326, -0.6781682
 145821871, -1.004278, -10.55432, 0.3667789, -0.6564106, -1.301122, -10.86258, 0.369877, -0.6715364
 146044433, -0.9598026, -10.56286, 0.3705401, -0.6561212, -1.004278, -10.55432, 0.3667789, -0.6564106
 146244289, -0.793226, -10.71277, 0.3843046, -0.6565782, -0.9598026, -10.56286, 0.3705401, -0.6561212
 146444281, -0.7736756, -11.34649, 0.3972949, -0.6788187, -0.793226, -10.71277, 0.3843046, -0.6565782
 146644419, -0.6504411, -10.55744, 0.3968784, -0.6504897, -0.7736756, -11.34649, 0.3972949, -0.6788187
 146824281, -0.5226392, -10.56048, 0.4000805, -0.6494851, -0.6504411, -10.55744, 0.3968784, -0.6504897
 147024270, 0.3592548, -10.12621, 0.4057446, -0.6298308, -0.5226392, -10.56048, 0.4000805, -0.6494851
 147264288, 0.1708252, -10.21763, 0.4024092, -0.639312, 0.3592548, -10.12621, 0.4057446, -0.6298308
 147424289, -0.1834679, -10.37167, 0.4088732, -0.6415369, 0.1708252, -10.21763, 0.4024092, -0.639312
 147624313, -0.1082306, -10.11157, 0.4150057, -0.6250814, -0.1834679, -10.37167, 0.4088732, -0.6415369
 147824292, -0.0263594, -10.28331, 0.4200344, -0.6272501, -0.1082306, -10.11157, 0.4150057, -0.6250814
 148024426, -0.1203779, -9.972734, 0.4190728, -0.6124256, -0.0263594, -10.28331, 0.4200344, -0.6272501
 148227759, 0.06435253, -10.12761, 0.4184877, -0.6217993, -0.1203779, -9.972734, 0.4190728, -0.6124256
 148427152, -0.1227788, -9.918628, 0.4131745, -0.6201901, 0.06435253, -10.12761, 0.4184877, -0.6217993
 148627178, -0.1416684, -9.778156, 0.4107436, -0.6196959, -0.1227788, -9.918628, 0.4131745, -0.6201901
 148829654, 0.06384207, -8.188804, 0.4036292, -0.5586367, -0.1416684, -9.778156, 0.4107436, -0.6196959
 149029624, 0.04268533, -8.211252, 0.4030127, -0.5593925, 0.06384207, -8.188804, 0.4036292, -0.5586367
 149229627, 0.05280231, -8.052089, 0.4008251, -0.5470386, 0.04268533, -8.211252, 0.4030127, -0.5593925
 149429761, 0.6441159, -8.084436, 0.4059261, -0.5381585, 0.05280231, -8.052089, 0.4008251, -0.5470386
 149629640, 0.9326343, -7.890105, 0.4201619, -0.5179029, 0.6441159, -8.084436, 0.4059261, -0.5381585
 149829611, 1.396679, -7.518483, 0.4498993, -0.479959, 0.9326343, -7.890105, 0.4201619, -0.5179029
 150029644, 1.524545, -5.2691, 0.4764321, -0.3692511, 1.396679, -7.518483, 0.4498993, -0.479959
 150209633, 1.95337, -4.963065, 0.5074452, -0.3218164, 1.524545, -5.2691, 0.4764321, -0.3692511
 150429920, 2.412526, -4.367086, 0.5460066, -0.2371963, 1.95337, -4.963065, 0.5074452, -0.3218164
 150629901, 1.844961, -1.387454, 0.5440259, -0.09405757, 2.412526, -4.367086, 0.5460066, -0.2371963
 150829907, 1.856828, -0.5588173, 0.5470188, -0.00830374, 1.844961, -1.387454, 0.5440259, -0.09405757
 151029996, 1.295901, -0.5673138, 0.5350497, 0.0946734, 1.856828, -0.5588173, 0.5470188, -0.00830374
 151229906, 1.580983, -0.7715701, 0.5137182, 0.1814686, 1.295901, -0.5673138, 0.5350497, 0.0946734
 151429902, 3.169851, -2.627589, 0.5280099, 0.2321888, 1.580983, -0.7715701, 0.5137182, 0.1814686
 151629921, 3.439509, -2.104599, 0.5040895, 0.2912563, 3.169851, -2.627589, 0.5280099, 0.2321888
 151829911, 3.823913, -1.97585, 0.4857988, 0.3375501, 3.439509, -2.104599, 0.5040895, 0.2912563
 152030173, 3.928024, -0.06198416, 0.4691355, 0.354369, 3.823913, -1.97585, 0.4857988, 0.3375501
 152230305, 4.155791, 0.03605417, 0.4626946, 0.3765909, 3.928024, -0.06198416, 0.4691355, 0.354369
 152433242, 4.176191, 0.1782276, 0.4544119, 0.3903282, 4.155791, 0.03605417, 0.4626946, 0.3765909
 152633481, 4.888889, 0.2781233, 0.4721577, 0.4008733, 4.176191, 0.1782276, 0.4544119, 0.3903282
 152812899, 4.953474, 0.2319814, 0.4725981, 0.4075583, 4.888889, 0.2781233, 0.4721577, 0.4008733
 153033454, 5.117287, 0.2489573, 0.476981, 0.4156527, 4.953474, 0.2319814, 0.4725981, 0.4075583
 153233483, 6.208996, -0.161786, 0.515871, 0.415684, 5.117287, 0.2489573, 0.476981, 0.4156527
 153433429, 6.320931, -0.2100934, 0.5280812, 0.4167166, 6.208996, -0.161786, 0.515871, 0.415684
 153633472, 6.481125, -0.4334249, 0.542932, 0.4122102, 6.320931, -0.2100934, 0.5280812, 0.4167166
 153833437, 7.729293, -1.193523, 0.5872782, 0.4124813, 6.481125, -0.4334249, 0.542932, 0.4122102
 154033606, 7.861807, -1.229677, 0.5951752, 0.4060733, 7.729293, -1.193523, 0.5872782, 0.4124813
 154233428, 7.897847, -1.189515, 0.5961264, 0.4086429, 7.861807, -1.229677, 0.5951752, 0.4060733
 154433421, 7.808886, -0.6648731, 0.5940976, 0.4066185, 7.897847, -1.189515, 0.5961264, 0.4086429
 154633456, 7.772859, -0.09996923, 0.5939926, 0.4079036, 7.808886, -0.6648731, 0.5940976, 0.4066185
 154833455, 7.877208, -0.07580223, 0.5951356, 0.4138869, 7.772859, -0.09996923, 0.5939926, 0.4079036
 155033486, 8.293603, -0.5323799, 0.6063427, 0.4212933, 7.877208, -0.07580223, 0.5951356, 0.4138869
 155253460, 8.830719, -0.1951023, 0.6240767, 0.4180566, 8.293603, -0.5323799, 0.6063427, 0.4212933
 155433805, 9.695963, -0.6061007, 0.6580831, 0.4189099, 8.830719, -0.1951023, 0.6240767, 0.4180566
 155633835, 9.541012, -1.088483, 0.6502266, 0.4181657, 9.695963, -0.6061007, 0.6580831, 0.4189099
 155834050, 9.69049, -1.805529, 0.6558571, 0.4224545, 9.541012, -1.088483, 0.6502266, 0.4181657
 156033833, 9.567671, -1.656599, 0.6495315, 0.423239, 9.69049, -1.805529, 0.6558571, 0.4224545
 156234124, 9.556446, -1.631817, 0.648219, 0.4231406, 9.567671, -1.656599, 0.6495315, 0.423239
 156434125, 9.420671, -0.8781762, 0.6432866, 0.4168033, 9.556446, -1.631817, 0.648219, 0.4231406
 156634133, 9.34128, -0.8644946, 0.6384408, 0.4117843, 9.420671, -0.8781762, 0.6432866, 0.4168033
 156834329, 9.14448, -0.8529458, 0.6301628, 0.4087661, 9.34128, -0.8644946, 0.6384408, 0.4117843
 157034141, 9.209093, -0.9395776, 0.6311387, 0.4079423, 9.14448, -0.8529458, 0.6301628, 0.4087661
 157234123, 9.249317, -0.8833362, 0.6289351, 0.4105234, 9.209093, -0.9395776, 0.6311387, 0.4079423
 157434122, 9.256438, -0.8067615, 0.6247704, 0.4083221, 9.249317, -0.8833362, 0.6289351, 0.4105234
 157634356, 10.3848, -0.3522811, 0.660728, 0.408261, 9.256438, -0.8067615, 0.6247704, 0.4083221
 157834123, 11.41057, -1.070874, 0.6981317, 0.409549, 10.3848, -0.3522811, 0.660728, 0.408261
 158034128, 11.06608, -1.120519, 0.6823941, 0.4003205, 11.41057, -1.070874, 0.6981317, 0.409549
 158234101, 10.61613, -1.010452, 0.6648301, 0.3920088, 11.06608, -1.120519, 0.6823941, 0.4003205
 158434129, 9.911931, -1.029007, 0.633497, 0.3915087, 10.61613, -1.010452, 0.6648301, 0.3920088
 158634141, 9.662936, -0.9094675, 0.6179724, 0.3937018, 9.911931, -1.029007, 0.633497, 0.3915087
 158834137, 8.919744, -0.6819165, 0.5831703, 0.3947403, 9.662936, -0.9094675, 0.6179724, 0.3937018
 159034139, 9.701944, 0.4646477, 0.6149189, 0.3871154, 8.919744, -0.6819165, 0.5831703, 0.3947403
 159234141, 9.793582, 0.215816, 0.615407, 0.3807387, 9.701944, 0.4646477, 0.6149189, 0.3871154
 159434348, 10.23838, -0.972661, 0.6337456, 0.3813589, 9.793582, 0.215816, 0.615407, 0.3807387
 159634597, 10.89522, -1.164001, 0.6630349, 0.3728005, 10.23838, -0.972661, 0.6337456, 0.3813589
 159834546, 10.86614, -1.131885, 0.6622323, 0.3715388, 10.89522, -1.164001, 0.6630349, 0.3728005
 160034751, 10.87812, -0.9991224, 0.6645643, 0.3676409, 10.86614, -1.131885, 0.6622323, 0.3715388
 160234584, 10.13441, 0.2658526, 0.6318806, 0.3697235, 10.87812, -0.9991224, 0.6645643, 0.3676409
 160434593, 10.07213, 0.1548486, 0.6304967, 0.3666695, 10.13441, 0.2658526, 0.6318806, 0.3697235
 160634894, 9.832449, 0.1789119, 0.6172655, 0.3638035, 10.07213, 0.1548486, 0.6304967, 0.3666695
 160834880, 9.68395, 0.004548693, 0.6126356, 0.3650753, 9.832449, 0.1789119, 0.6172655, 0.3638035
 161035085, 9.670406, -0.07606748, 0.6119686, 0.3616396, 9.68395, 0.004548693, 0.6126356, 0.3650753
 161235065, 9.5828, -0.1687497, 0.6062187, 0.3588231, 9.670406, -0.07606748, 0.6119686, 0.3616396
 161434887, 9.4811, -0.4737665, 0.5987387, 0.362927, 9.5828, -0.1687497, 0.6062187, 0.3588231
 161634892, 9.363866, -0.4740384, 0.5970423, 0.3598361, 9.4811, -0.4737665, 0.5987387, 0.362927
 161834859, 9.006256, -0.3727473, 0.5770422, 0.3651392, 9.363866, -0.4740384, 0.5970423, 0.3598361
 162034884, 6.989094, -0.1125613, 0.4954597, 0.3704204, 9.006256, -0.3727473, 0.5770422, 0.3651392
 162234867, 6.370022, 0.06812983, 0.467782, 0.3785094, 6.989094, -0.1125613, 0.4954597, 0.3704204
 162434881, 6.117842, 0.257318, 0.4461818, 0.3932682, 6.370022, 0.06812983, 0.467782, 0.3785094
 162634886, 4.816154, 0.6384869, 0.3815412, 0.414463, 6.117842, 0.257318, 0.4461818, 0.3932682
 162834890, 5.197196, 0.6498235, 0.3660602, 0.4400506, 4.816154, 0.6384869, 0.3815412, 0.414463
 163035088, 4.934031, 1.289134, 0.3079826, 0.48192, 5.197196, 0.6498235, 0.3660602, 0.4400506
 163234873, 3.450396, 2.273875, 0.2079393, 0.5120842, 4.934031, 1.289134, 0.3079826, 0.48192
 163434869, 2.635192, 3.004514, 0.1308529, 0.5383322, 3.450396, 2.273875, 0.2079393, 0.5120842
 163634854, 1.907562, 3.446356, 0.0177254, 0.5559818, 2.635192, 3.004514, 0.1308529, 0.5383322
 163834868, 1.591037, 3.282029, -0.09047328, 0.5480159, 1.907562, 3.446356, 0.0177254, 0.5559818
 164054867, 0.9302327, 2.908967, -0.1851595, 0.5204301, 1.591037, 3.282029, -0.09047328, 0.5480159
 164238373, 0.8196375, 3.728122, -0.2377682, 0.5145069, 0.9302327, 2.908967, -0.1851595, 0.5204301
 164437919, 0.808581, 3.890271, -0.2959592, 0.4898348, 0.8196375, 3.728122, -0.2377682, 0.5145069
 164637912, 0.4852166, 4.174207, -0.3406649, 0.4725511, 0.808581, 3.890271, -0.2959592, 0.4898348
 164837871, 0.4540132, 4.325135, -0.3649507, 0.4648265, 0.4852166, 4.174207, -0.3406649, 0.4725511
 165038049, 1.095419, 5.269142, -0.3864339, 0.4794087, 0.4540132, 4.325135, -0.3649507, 0.4648265
 165237869, 1.415929, 5.785524, -0.3960011, 0.4931454, 1.095419, 5.269142, -0.3864339, 0.4794087
 165437874, 1.355278, 5.787005, -0.4033469, 0.4926137, 1.415929, 5.785524, -0.3960011, 0.4931454
 165637881, 1.390488, 5.937413, -0.4102126, 0.5017284, 1.355278, 5.787005, -0.4033469, 0.4926137
 165817857, 1.423879, 6.303612, -0.4112722, 0.5199515, 1.390488, 5.937413, -0.4102126, 0.5017284
 166017850, 1.306849, 6.417101, -0.415289, 0.5312551, 1.423879, 6.303612, -0.4112722, 0.5199515
 166237855, 1.37749, 6.648686, -0.4179129, 0.5459915, 1.306849, 6.417101, -0.415289, 0.5312551
 166437853, 0.7502285, 7.487267, -0.4170347, 0.5768555, 1.37749, 6.648686, -0.4179129, 0.5459915
 166637877, 1.296979, 7.25328, -0.4232001, 0.5720564, 0.7502285, 7.487267, -0.4170347, 0.5768555
 166838052, 1.267134, 7.451535, -0.4310291, 0.5816537, 1.296979, 7.25328, -0.4232001, 0.5720564
 167037852, 0.8996705, 8.264167, -0.4336917, 0.6111687, 1.267134, 7.451535, -0.4310291, 0.5816537
 167237862, 1.178086, 9.124356, -0.4389756, 0.6430782, 0.8996705, 8.264167, -0.4336917, 0.6111687
 167438081, 1.181244, 9.280134, -0.4402783, 0.6527029, 1.178086, 9.124356, -0.4389756, 0.6430782
 167637892, 0.860065, 9.833143, -0.4455193, 0.678641, 1.181244, 9.280134, -0.4402783, 0.6527029
 167837891, 1.673528, 10.13486, -0.4542902, 0.6933946, 0.860065, 9.833143, -0.4455193, 0.678641
 168037849, 1.756196, 10.21532, -0.4561533, 0.7000976, 1.673528, 10.13486, -0.4542902, 0.6933946
 168237903, 1.519281, 9.80435, -0.4612907, 0.6851671, 1.756196, 10.21532, -0.4561533, 0.7000976
 168417884, 1.161787, 11.24924, -0.4599142, 0.7428756, 1.519281, 9.80435, -0.4612907, 0.6851671
 168638075, 1.156778, 11.00702, -0.4554656, 0.7370083, 1.161787, 11.24924, -0.4599142, 0.7428756
 168837857, 1.310494, 10.52041, -0.4563399, 0.72133, 1.156778, 11.00702, -0.4554656, 0.7370083
 169037873, 1.523727, 10.34311, -0.4507475, 0.7203354, 1.310494, 10.52041, -0.4563399, 0.72133
 169237845, 1.468318, 10.22018, -0.4586335, 0.711417, 1.523727, 10.34311, -0.4507475, 0.7203354
 169437861, 1.360974, 10.04557, -0.4667852, 0.6986702, 1.468318, 10.22018, -0.4586335, 0.711417
 169637873, 0.843986, 8.468155, -0.4730963, 0.6407093, 1.360974, 10.04557, -0.4667852, 0.6986702
 169837860, 0.6760798, 8.461038, -0.4784259, 0.6331377, 0.843986, 8.468155, -0.4730963, 0.6407093
 170038274, 0.7152059, 8.625978, -0.4808406, 0.6326938, 0.6760798, 8.461038, -0.4784259, 0.6331377
 170238136, 1.015377, 10.42051, -0.4782667, 0.6939262, 0.7152059, 8.625978, -0.4808406, 0.6326938
 170438369, 1.17463, 10.42868, -0.4763949, 0.6947683, 1.015377, 10.42051, -0.4782667, 0.6939262
 170638249, 1.245969, 10.68597, -0.4686189, 0.7133026, 1.17463, 10.42868, -0.4763949, 0.6947683
 170838239, 1.404927, 11.23747, -0.4574813, 0.7383087, 1.245969, 10.68597, -0.4686189, 0.7133026
 171038549, 0.7409444, 10.78405, -0.4581325, 0.7181554, 1.404927, 11.23747, -0.4574813, 0.7383087
 171238490, 0.5986536, 10.72445, -0.4541642, 0.7150411, 0.7409444, 10.78405, -0.4581325, 0.7181554
 171438521, 0.1265715, 10.59999, -0.4492868, 0.7109769, 0.5986536, 10.72445, -0.4541642, 0.7150411
 171638724, 0.9360875, 11.00821, -0.4468361, 0.7297169, 0.1265715, 10.59999, -0.4492868, 0.7109769
 171838544, 0.7805778, 10.8501, -0.4532619, 0.7194247, 0.9360875, 11.00821, -0.4468361, 0.7297169
 172038507, -0.4061607, 9.922454, -0.4532784, 0.6794333, 0.7805778, 10.8501, -0.4532619, 0.7194247
 172238683, 0.09691488, 10.27036, -0.4495366, 0.6956795, -0.4061607, 9.922454, -0.4532784, 0.6794333
 172441829, 0.2360099, 10.39627, -0.4464073, 0.7005257, 0.09691488, 10.27036, -0.4495366, 0.6956795
 172641720, 0.790281, 11.32034, -0.4428708, 0.7338202, 0.2360099, 10.39627, -0.4464073, 0.7005257
 172841746, 1.158904, 11.41125, -0.4386021, 0.7369564, 0.790281, 11.32034, -0.4428708, 0.7338202
 173041727, 0.3355956, 10.20246, -0.4357033, 0.686141, 1.158904, 11.41125, -0.4386021, 0.7369564
 173242228, 0.3737528, 10.25825, -0.4357009, 0.684677, 0.3355956, 10.20246, -0.4357033, 0.686141
 173442140, 0.7624704, 10.49508, -0.4336748, 0.6927566, 0.3737528, 10.25825, -0.4357009, 0.684677
 173642148, 0.9163172, 11.22234, -0.4320135, 0.7158235, 0.7624704, 10.49508, -0.4336748, 0.6927566
 173842583, 0.9177362, 11.24667, -0.4316637, 0.7171201, 0.9163172, 11.22234, -0.4320135, 0.7158235
 174042620, 1.250461, 11.0748, -0.4322005, 0.7111169, 0.9177362, 11.24667, -0.4316637, 0.7171201
 174242746, 0.7073008, 11.37858, -0.4291657, 0.7228346, 1.250461, 11.0748, -0.4322005, 0.7111169
 174442589, 0.6777545, 11.25993, -0.4263919, 0.7205482, 0.7073008, 11.37858, -0.4291657, 0.7228346
 174645445, 0.6441379, 10.12264, -0.4282473, 0.6769314, 0.6777545, 11.25993, -0.4263919, 0.7205482
 174845561, -0.2366028, 10.01108, -0.4346781, 0.6688781, 0.6441379, 10.12264, -0.4282473, 0.6769314
 175045455, -0.247147, 9.969682, -0.4307616, 0.6683365, -0.2366028, 10.01108, -0.4346781, 0.6688781
 175245444, -0.009377102, 10.38375, -0.4315917, 0.6792169, -0.247147, 9.969682, -0.4307616, 0.6683365
 175445430, 0.2754971, 10.12026, -0.4208647, 0.6676964, -0.009377102, 10.38375, -0.4315917, 0.6792169
 175645442, 0.2476247, 10.05123, -0.4212357, 0.6604897, 0.2754971, 10.12026, -0.4208647, 0.6676964
 175845429, 1.094786, 11.10519, -0.4241269, 0.7008163, 0.2476247, 10.05123, -0.4212357, 0.6604897
 176065572, 0.3941706, 10.67463, -0.4214618, 0.6848561, 1.094786, 11.10519, -0.4241269, 0.7008163
 176228021, 0.8081052, 11.39257, -0.4169053, 0.7192131, 0.3941706, 10.67463, -0.4214618, 0.6848561
 176448562, 0.9790339, 10.98307, -0.4127948, 0.7017797, 0.8081052, 11.39257, -0.4169053, 0.7192131
 176648455, 0.9928616, 10.74823, -0.4144832, 0.6892832, 0.9790339, 10.98307, -0.4127948, 0.7017797
 176848403, 0.446256, 10.66923, -0.4140884, 0.6854324, 0.9928616, 10.74823, -0.4144832, 0.6892832
 177048551, 0.9288642, 10.31222, -0.41686, 0.666314, 0.446256, 10.66923, -0.4140884, 0.6854324
 177228026, 0.8489331, 9.953498, -0.4175231, 0.6515394, 0.9288642, 10.31222, -0.41686, 0.666314
 177427990, 0.5230113, 10.00822, -0.4279862, 0.6450914, 0.8489331, 9.953498, -0.4175231, 0.6515394
 177648381, 0.5870025, 10.09808, -0.4255089, 0.6472318, 0.5230113, 10.00822, -0.4279862, 0.6450914
 177828047, 0.2465875, 10.50838, -0.4270605, 0.6614801, 0.5870025, 10.09808, -0.4255089, 0.6472318
 178027990, 0.2708918, 10.47891, -0.4164296, 0.6602042, 0.2465875, 10.50838, -0.4270605, 0.6614801
 178248552, 0.2923423, 10.60616, -0.4135724, 0.6675298, 0.2708918, 10.47891, -0.4164296, 0.6602042
 178448437, 0.3265261, 11.52994, -0.4119949, 0.7074711, 0.2923423, 10.60616, -0.4135724, 0.6675298
 178648488, 0.6032078, 11.50523, -0.4110777, 0.7085238, 0.3265261, 11.52994, -0.4119949, 0.7074711
 178828025, 0.6209423, 11.53308, -0.4109596, 0.7116364, 0.6032078, 11.50523, -0.4110777, 0.7085238
 179048438, 0.892384, 11.68412, -0.4079006, 0.7196705, 0.6209423, 11.53308, -0.4109596, 0.7116364
 179248429, 0.3870399, 11.10515, -0.4076352, 0.6948429, 0.892384, 11.68412, -0.4079006, 0.7196705
 179448372, 0.3990382, 11.1519, -0.4038638, 0.70188, 0.3870399, 11.10515, -0.4076352, 0.6948429
 179648443, 0.3599267, 10.72725, -0.4006437, 0.6851933, 0.3990382, 11.1519, -0.4038638, 0.70188
 179848425, 1.167452, 10.46471, -0.402754, 0.6752329, 0.3599267, 10.72725, -0.4006437, 0.6851933
 180028070, 1.183636, 10.43846, -0.4065778, 0.6730393, 1.167452, 10.46471, -0.402754, 0.6752329
 180228215, 0.6250355, 10.09478, -0.4109159, 0.6569905, 1.183636, 10.43846, -0.4065778, 0.6730393
 180428065, 0.6147672, 9.990414, -0.4129821, 0.6520587, 0.6250355, 10.09478, -0.4109159, 0.6569905
 180628319, 0.7212438, 10.14793, -0.4096499, 0.6603351, 0.6147672, 9.990414, -0.4129821, 0.6520587
 180828407, 0.7833442, 10.17314, -0.412836, 0.6581803, 0.7212438, 10.14793, -0.4096499, 0.6603351
 181028282, 1.004928, 10.24442, -0.4128116, 0.662819, 0.7833442, 10.17314, -0.412836, 0.6581803
 181228327, 0.8100551, 10.14808, -0.4188072, 0.6555246, 1.004928, 10.24442, -0.4128116, 0.662819
 181428281, 0.8987082, 10.34379, -0.4210694, 0.6593397, 0.8100551, 10.14808, -0.4188072, 0.6555246
 181648728, 0.9662755, 10.92984, -0.4174832, 0.683847, 0.8987082, 10.34379, -0.4210694, 0.6593397
 181848847, 0.5915164, 12.62846, -0.4166234, 0.7545573, 0.9662755, 10.92984, -0.4174832, 0.683847
 182048728, 0.5587525, 12.58874, -0.4138252, 0.7567025, 0.5915164, 12.62846, -0.4166234, 0.7545573
 182248851, -0.1790941, 11.61352, -0.4145919, 0.7163453, 0.5587525, 12.58874, -0.4138252, 0.7567025
 182428703, -0.1417509, 11.53129, -0.4102548, 0.7122411, -0.1790941, 11.61352, -0.4145919, 0.7163453
 182648723, -0.01982358, 11.33354, -0.4087233, 0.7079719, -0.1417509, 11.53129, -0.4102548, 0.7122411
 182828717, 0.2462139, 9.806773, -0.4172017, 0.644524, -0.01982358, 11.33354, -0.4087233, 0.7079719
 183048710, 0.2520137, 10.20402, -0.4225924, 0.6599761, 0.2462139, 9.806773, -0.4172017, 0.644524
 183228705, 0.2657802, 10.09218, -0.4198954, 0.6582874, 0.2520137, 10.20402, -0.4225924, 0.6599761
 183428710, 1.069806, 11.0728, -0.4232259, 0.69807, 0.2657802, 10.09218, -0.4198954, 0.6582874
 183628730, 1.035036, 11.03691, -0.4258533, 0.6958427, 1.069806, 11.0728, -0.4232259, 0.69807
 183828840, 0.8930432, 10.72585, -0.4251756, 0.681097, 1.035036, 11.03691, -0.4258533, 0.6958427
 184028722, 0.8045601, 9.099907, -0.4227535, 0.6158206, 0.8930432, 10.72585, -0.4251756, 0.681097
 184228718, 0.8286227, 9.058017, -0.4228811, 0.6125508, 0.8045601, 9.099907, -0.4227535, 0.6158206
 184428701, 0.8423096, 8.756463, -0.418633, 0.6023815, 0.8286227, 9.058017, -0.4228811, 0.6125508
 184649063, 0.8033108, 8.559991, -0.418267, 0.5923948, 0.8423096, 8.756463, -0.418633, 0.6023815
 184849073, 0.6558901, 6.83342, -0.4203593, 0.5344555, 0.8033108, 8.559991, -0.418267, 0.5923948
 185049072, 0.07782135, 6.207573, -0.4174078, 0.51767, 0.6558901, 6.83342, -0.4203593, 0.5344555
 185249051, 0.1805489, 5.85686, -0.4116177, 0.5127723, 0.07782135, 6.207573, -0.4174078, 0.51767
 185449312, 0.2889518, 4.445964, -0.4128063, 0.4828046, 0.1805489, 5.85686, -0.4116177, 0.5127723
 185649053, -0.2966177, 3.213053, -0.4102944, 0.4597889, 0.2889518, 4.445964, -0.4128063, 0.4828046
 185849051, -0.20394, 3.1262, -0.409225, 0.4558204, -0.2966177, 3.213053, -0.4102944, 0.4597889
 186069439, 0.3218026, 2.533361, -0.4080366, 0.4434555, -0.20394, 3.1262, -0.409225, 0.4558204
 186249388, 0.3373778, 1.898417, -0.4121282, 0.4305772, 0.3218026, 2.533361, -0.4080366, 0.4434555
 186449550, 0.1741345, 1.726965, -0.4190972, 0.4237931, 0.3373778, 1.898417, -0.4121282, 0.4305772
 186629393, 0.1145096, 1.748086, -0.4233618, 0.4233598, 0.1741345, 1.726965, -0.4190972, 0.4237931
 186829867, -0.004822101, 1.692844, -0.4286872, 0.4241855, 0.1145096, 1.748086, -0.4233618, 0.4233598
 187049886, -0.05613174, 1.74469, -0.4338823, 0.4253969, -0.004822101, 1.692844, -0.4286872, 0.4241855
 187229880, -1.106444, 1.089009, -0.4379385, 0.4229859, -0.05613174, 1.74469, -0.4338823, 0.4253969
 187430002, -1.187463, 1.102806, -0.438215, 0.4265536, -1.106444, 1.089009, -0.4379385, 0.4229859
 187650096, -1.035731, 1.074966, -0.4391578, 0.4322704, -1.187463, 1.102806, -0.438215, 0.4265536
 187853039, 0.1212654, 1.353396, -0.4377019, 0.438697, -1.035731, 1.074966, -0.4391578, 0.4322704
 188053422, 0.0643467, 0.7003991, -0.4390257, 0.4389425, 0.1212654, 1.353396, -0.4377019, 0.438697
 188253858, -0.6760529, -0.2170578, -0.4441471, 0.4398043, 0.0643467, 0.7003991, -0.4390257, 0.4389425
 188433820, -0.2110515, -0.6384441, -0.4463781, 0.4455017, -0.6760529, -0.2170578, -0.4441471, 0.4398043
 188654063, 0.1949607, -0.2642986, -0.4484357, 0.4471329, -0.2110515, -0.6384441, -0.4463781, 0.4455017
 188853835, 0.01271167, -0.5600997, -0.4494303, 0.4508588, 0.1949607, -0.2642986, -0.4484357, 0.4471329
 189054503, -0.07778191, -0.9294802, -0.4493433, 0.455671, 0.01271167, -0.5600997, -0.4494303, 0.4508588
 189234650, -0.08178858, 0.01176968, -0.448878, 0.4553085, -0.07778191, -0.9294802, -0.4493433, 0.455671
 189434678, -0.02855817, -0.03376625, -0.4502527, 0.456904, -0.08178858, 0.01176968, -0.448878, 0.4553085
 189634548, -0.07924834, -0.006788849, -0.4890209, 0.4158204, -0.02855817, -0.03376625, -0.4502527, 0.456904
 189834867, 0.200786, -0.4645164, -0.5461405, 0.3386388, -0.07924834, -0.006788849, -0.4890209, 0.4158204
 190038233, 0.1715546, -0.4514367, -0.559393, 0.3197278, 0.200786, -0.4645164, -0.5461405, 0.3386388
 190238074, 0.2341799, -0.02013628, -0.5624003, 0.3165003, 0.1715546, -0.4514367, -0.559393, 0.3197278
 190438137, 0.1716031, 0.8369961, -0.5651703, 0.3190636, 0.2341799, -0.02013628, -0.5624003, 0.3165003
 190638119, 0.1495626, 0.9629788, -0.567189, 0.3186301, 0.1716031, 0.8369961, -0.5651703, 0.3190636
 190838205, 0.0661495, 1.163095, -0.5692217, 0.3182356, 0.1495626, 0.9629788, -0.567189, 0.3186301
 191057765, -0.4554831, 1.890375, -0.5738382, 0.323802, 0.0661495, 1.163095, -0.5692217, 0.3182356
 191237988, -0.3151341, 2.969902, -0.5809594, 0.3355786, -0.4554831, 1.890375, -0.5738382, 0.323802
 191438317, -0.4034408, 3.039874, -0.5838768, 0.3382015, -0.3151341, 2.969902, -0.5809594, 0.3355786
 191638018, -0.6347312, 3.067217, -0.5859357, 0.342125, -0.4034408, 3.039874, -0.5838768, 0.3382015
 191838046, -0.6160084, 3.599468, -0.5898684, 0.3512312, -0.6347312, 3.067217, -0.5859357, 0.342125
 192058110, -0.6277643, 3.656974, -0.5929185, 0.3525785, -0.6160084, 3.599468, -0.5898684, 0.3512312
 192238470, -0.4670106, 3.837611, -0.5961791, 0.3569159, -0.6277643, 3.656974, -0.5929185, 0.3525785
 192438616, -1.06128, 3.761519, -0.5983627, 0.3594547, -0.4670106, 3.837611, -0.5961791, 0.3569159
 192638473, -1.138165, 3.790566, -0.5978167, 0.3642559, -1.06128, 3.761519, -0.5983627, 0.3594547
 192838790, -1.268574, 4.38404, -0.6046166, 0.3798597, -1.138165, 3.790566, -0.5978167, 0.3642559
 193038918, -1.427181, 4.610734, -0.6085465, 0.3877389, -1.268574, 4.38404, -0.6046166, 0.3798597
 193242449, -1.432912, 4.635121, -0.6107543, 0.391066, -1.427181, 4.610734, -0.6085465, 0.3877389
 193442572, -1.713211, 4.460857, -0.6126142, 0.3960058, -1.432912, 4.635121, -0.6107543, 0.391066
 193642510, -1.429798, 4.58399, -0.6177611, 0.3979374, -1.713211, 4.460857, -0.6126142, 0.3960058
 193842428, -1.560094, 4.549326, -0.6199008, 0.3958584, -1.429798, 4.58399, -0.6177611, 0.3979374
 194062086, -1.727436, 5.039981, -0.6238252, 0.4102093, -1.560094, 4.549326, -0.6199008, 0.3958584
 194242793, -1.246607, 5.289844, -0.6272935, 0.4156007, -1.727436, 5.039981, -0.6238252, 0.4102093
 194422756, -1.2535, 5.362945, -0.6310691, 0.4152681, -1.246607, 5.289844, -0.6272935, 0.4156007
 194642998, -1.123424, 5.354246, -0.6302392, 0.4176194, -1.2535, 5.362945, -0.6310691, 0.4152681
 194842750, -1.396185, 4.215788, -0.6267017, 0.3931388, -1.123424, 5.354246, -0.6302392, 0.4176194
 195042727, -1.046427, 4.513499, -0.6278743, 0.3996979, -1.396185, 4.215788, -0.6267017, 0.3931388
 195243010, -0.9649251, 4.48001, -0.6278101, 0.4010066, -1.046427, 4.513499, -0.6278743, 0.3996979
 195442750, -0.9126381, 3.99071, -0.6264557, 0.3943037, -0.9649251, 4.48001, -0.6278101, 0.4010066
 195642993, -0.6229718, 3.896876, -0.6307839, 0.3896396, -0.9126381, 3.99071, -0.6264557, 0.3943037
 195842770, -0.6026959, 3.779254, -0.6329353, 0.3883891, -0.6229718, 3.896876, -0.6307839, 0.3896396
 196042714, -0.259391, 3.408952, -0.6373048, 0.378728, -0.6026959, 3.779254, -0.6329353, 0.3883891
 196243105, -0.601869, 2.295296, -0.6321936, 0.3711576, -0.259391, 3.408952, -0.6373048, 0.378728
 196423066, -0.55315, 2.063552, -0.632942, 0.3663425, -0.601869, 2.295296, -0.6321936, 0.3711576
 196643532, -0.09924176, 0.8548033, -0.6292724, 0.3543524, -0.55315, 2.063552, -0.632942, 0.3663425
 196843465, 0.39564, 1.391077, -0.6329135, 0.3532788, -0.09924176, 0.8548033, -0.6292724, 0.3543524
 197023503, 0.3853503, 1.324682, -0.629316, 0.3535562, 0.39564, 1.391077, -0.6329135, 0.3532788
 197243464, 0.1454714, 1.099671, -0.6243417, 0.3518129, 0.3853503, 1.324682, -0.629316, 0.3535562
 197443988, 0.3023697, 1.152373, -0.621372, 0.3559692, 0.1454714, 1.099671, -0.6243417, 0.3518129
 197644003, 0.2604131, 0.969963, -0.6189824, 0.3550157, 0.3023697, 1.152373, -0.621372, 0.3559692
 197844004, -0.1477668, 0.4235373, -0.6169279, 0.3530069, 0.2604131, 0.969963, -0.6189824, 0.3550157
 198044033, -0.1320496, 0.2702354, -0.6172485, 0.3529355, -0.1477668, 0.4235373, -0.6169279, 0.3530069
 198247396, -0.03422731, 0.2507529, -0.6172568, 0.3523957, -0.1320496, 0.2702354, -0.6172485, 0.3529355
 198427277, -0.08471758, 0.2308532, -0.6072602, 0.3613985, -0.03422731, 0.2507529, -0.6172568, 0.3523957
 198627573, -0.1870006, 0.1161844, -0.6073059, 0.3622132, -0.08471758, 0.2308532, -0.6072602, 0.3613985
 198827565, -0.1445385, -0.2405862, -0.6134014, 0.3558967, -0.1870006, 0.1161844, -0.6073059, 0.3622132
 199027635, -0.1830132, -0.2009487, -0.6113154, 0.35498, -0.1445385, -0.2405862, -0.6134014, 0.3558967
 199247585, -0.8032579, -1.10465, -0.6072695, 0.3594795, -0.1830132, -0.2009487, -0.6113154, 0.35498
 199427619, -0.8634781, -0.6912697, -0.5995255, 0.358272, -0.8032579, -1.10465, -0.6072695, 0.3594795
 199627622, -0.8205721, -0.7486292, -0.5880605, 0.3586538, -0.8634781, -0.6912697, -0.5995255, 0.358272
 199847622, -0.5161204, -1.652739, -0.5751231, 0.363829, -0.8205721, -0.7486292, -0.5880605, 0.3586538
 200047580, -1.086142, -1.212097, -0.5680434, 0.3593751, -0.5161204, -1.652739, -0.5751231, 0.363829
 200247585, -0.8757706, -1.141668, -0.562667, 0.3531667, -1.086142, -1.212097, -0.5680434, 0.3593751
 200448016, -0.1482608, 0.01293651, -0.5550265, 0.345538, -0.8757706, -1.141668, -0.562667, 0.3531667
 200648060, 0.5191691, -1.22234, -0.5519513, 0.3413127, -0.1482608, 0.01293651, -0.5550265, 0.345538
 200848162, 0.5059198, -1.264544, -0.5457162, 0.343071, 0.5191691, -1.22234, -0.5519513, 0.3413127
 201048040, 0.6085143, -0.8635801, -0.5371246, 0.339019, 0.5059198, -1.264544, -0.5457162, 0.343071
 201248288, 0.6976113, -0.6589772, -0.5309323, 0.333297, 0.6085143, -0.8635801, -0.5371246, 0.339019
 201448278, 0.6788781, -0.6429384, -0.5224286, 0.3318427, 0.6976113, -0.6589772, -0.5309323, 0.333297
 201648294, 0.6615213, -0.6222157, -0.5157557, 0.3253351, 0.6788781, -0.6429384, -0.5224286, 0.3318427
 201829813, 0.8871474, -0.3742718, -0.5125635, 0.3199253, 0.6615213, -0.6222157, -0.5157557, 0.3253351
 202048449, 0.8193353, -0.4497314, -0.5087277, 0.3120206, 0.8871474, -0.3742718, -0.5125635, 0.3199253
 202229831, 0.814792, -0.4849528, -0.5024149, 0.3062502, 0.8193353, -0.4497314, -0.5087277, 0.3120206
 202429802, 0.7199817, -0.6246824, -0.4975624, 0.3029667, 0.814792, -0.4849528, -0.5024149, 0.3062502
 202630070, 0.6258811, -0.5824994, -0.4896386, 0.2982775, 0.7199817, -0.6246824, -0.4975624, 0.3029667
 202830474, 0.592598, -0.5256722, -0.4823467, 0.292627, 0.6258811, -0.5824994, -0.4896386, 0.2982775
 203030660, -0.303308, -0.03344721, -0.479248, 0.2868332, 0.592598, -0.5256722, -0.4823467, 0.292627
 203230680, -0.3638708, 0.05247896, -0.4726251, 0.2824745, -0.303308, -0.03344721, -0.479248, 0.2868332
 203430659, -0.3200876, 0.1032098, -0.4681955, 0.2799518, -0.3638708, 0.05247896, -0.4726251, 0.2824745
 203649072, -0.4219675, 0.2887069, -0.4601997, 0.2789176, -0.3200876, 0.1032098, -0.4681955, 0.2799518
