TimeUS,COFN,COFE,CNe,CEe,POFN,POFE,PNe,PEe
 140956331, -0.006468965, 0.01658452, 0.008928869, -0.01098364, -0.005272015, 0.0125875, 0.009144109, -0.01122129
 141156333, -0.001543355, 0.008163518, 0.008856672, -0.01085934, -0.006468965, 0.01658452, 0.008928869, -0.01098364
 141356311, -0.008858787, 0.005176959, 0.008929941, -0.01091096, -0.001543355, 0.008163518, 0.008856672, -0.01085934
 141556332, -0.008502805, 0.007758725, 0.008593739, -0.01050352, -0.008858787, 0.005176959, 0.008929941, -0.01091096
 141756317, 0.002651515, -0.007186418, 0.008741095, -0.01070282, -0.008502805, 0.007758725, 0.008593739, -0.01050352
 141956375, -0.01160384, -0.006736482, 0.008587726, -0.01048463, 0.002651515, -0.007186418, 0.008741095, -0.01070282
 142156432, -0.007903695, -0.007454151, 0.009239547, -0.0112989, -0.01160384, -0.006736482, 0.008587726, -0.01048463
 142356303, -0.01397898, -0.005126096, 0.008902949, -0.01083984, -0.007903695, -0.007454151, 0.009239547, -0.0112989
 142556327, -0.003558576, 0.008890916, 0.008612027, -0.01053632, -0.01397898, -0.005126096, 0.008902949, -0.01083984
 142756292, -0.002917537, 0.0056812, 0.008675832, -0.01059853, -0.003558576, 0.008890916, 0.008612027, -0.01053632
 142956334, -0.001830883, 0.006436084, 0.00887387, -0.01084073, -0.002917537, 0.0056812, 0.008675832, -0.01059853
 143156308, 0.01393041, -0.008435894, 0.008978531, -0.01090906, -0.001830883, 0.006436084, 0.00887387, -0.01084073
 143356314, 0.01555011, -0.002682255, 0.00885063, -0.01072433, 0.01393041, -0.008435894, 0.008978531, -0.01090906
 143556592, 0.006749367, -0.005305461, 0.008882592, -0.01082273, 0.01555011, -0.002682255, 0.00885063, -0.01072433
 143756328, -0.009650773, 0.02546563, 0.008606926, -0.01063292, 0.006749367, -0.005305461, 0.008882592, -0.01082273
 143956485, -0.01244004, 0.02670397, 0.008911479, -0.01097773, -0.009650773, 0.02546563, 0.008606926, -0.01063292
 144156310, -0.009624972, 0.02314216, 0.008961219, -0.01101887, -0.01244004, 0.02670397, 0.008911479, -0.01097773
 144356319, 0.005349081, 0.01143384, 0.008892597, -0.01087094, -0.009624972, 0.02314216, 0.008961219, -0.01101887
 144556350, 0.002788248, 0.01144149, 0.008757429, -0.01070838, 0.005349081, 0.01143384, 0.008892597, -0.01087094
 144775858, -0.01027999, -0.001799204, 0.008592739, -0.01043015, 0.002788248, 0.01144149, 0.008757429, -0.01070838
 144956344, 0.009666798, 0.01748923, 0.008804431, -0.01078655, -0.01027999, -0.001799204, 0.008592739, -0.01043015
 145156341, 0.005956262, 0.01691386, 0.008759221, -0.01074066, 0.009666798, 0.01748923, 0.008804431, -0.01078655
 145356317, -0.002489259, 0.02967298, 0.008428997, -0.01050208, 0.005956262, 0.01691386, 0.008759221, -0.01074066
 145556387, -0.001804328, 0.02990878, 0.008753169, -0.01088363, -0.002489259, 0.02967298, 0.008428997, -0.01050208
 145756507, 0.006380721, 0.006819568, 0.008940635, -0.01086564, -0.001804328, 0.02990878, 0.008753169, -0.01088363
 145956353, 0.001839838, 0.004501608, 0.008964897, -0.01088814, 0.006380721, 0.006819568, 0.008940635, -0.01086564
 146156321, 0.003250596, 0.008985178, 0.008740835, -0.01063657, 0.001839838, 0.004501608, 0.008964897, -0.01088814
 146335872, 0.0007960981, 0.01617252, 0.008903027, -0.01087194, 0.003250596, 0.008985178, 0.008740835, -0.01063657
 146556344, 0.0008834466, 0.01551274, 0.009222691, -0.01124768, 0.0007960981, 0.01617252, 0.008903027, -0.01087194
 146756334, -0.004486356, 0.01124749, 0.008906391, -0.01082721, 0.0008834466, 0.01551274, 0.009222691, -0.01124768
 146956343, 0.002463732, 0.002604498, 0.008858783, -0.01073799, -0.004486356, 0.01124749, 0.008906391, -0.01082721
 147156367, 0.01370358, 0.01850217, 0.00897367, -0.01094343, 0.002463732, 0.002604498, 0.008858783, -0.01073799
 147356366, 0.009782891, 0.01578952, 0.008992792, -0.01094963, 0.01370358, 0.01850217, 0.00897367, -0.01094343
 147556538, 0.008437818, 0.02566162, 0.00858832, -0.0105907, 0.009782891, 0.01578952, 0.008992792, -0.01094963
 147756647, 0.01261477, 0.02930592, 0.008716844, -0.01078814, 0.008437818, 0.02566162, 0.00858832, -0.0105907
 147956382, 0.005398672, 0.02818048, 0.00884871, -0.01094906, 0.01261477, 0.02930592, 0.008716844, -0.01078814
 148156346, 0.008386445, 0.02752283, 0.008966044, -0.01105043, 0.005398672, 0.02818048, 0.00884871, -0.01094906
 148356419, 0.02133423, -0.009835357, 0.008900612, -0.01060024, 0.008386445, 0.02752283, 0.008966044, -0.01105043
 148556347, 0.06584451, -0.1285535, 0.01013657, -0.01412639, 0.02133423, -0.009835357, 0.008900612, -0.01060024
 148756366, 0.1943716, -0.5931568, 0.01632297, -0.04182278, 0.06584451, -0.1285535, 0.01013657, -0.01412639
 148935929, 0.2284199, -0.3499348, 0.01889453, -0.02643381, 0.1943716, -0.5931568, 0.01632297, -0.04182278
 149156343, 0.3889119, -0.6484078, 0.02828791, -0.04229654, 0.2284199, -0.3499348, 0.01889453, -0.02643381
 149356472, 1.238142, -2.337007, 0.0705, -0.1279538, 0.3889119, -0.6484078, 0.02828791, -0.04229654
 149556359, 1.2103, -2.124647, 0.07089748, -0.1169965, 1.238142, -2.337007, 0.0705, -0.1279538
 149756331, 1.49713, -2.508497, 0.08754746, -0.1379374, 1.2103, -2.124647, 0.07089748, -0.1169965
 149956375, 1.477311, -1.674395, 0.09027439, -0.1037784, 1.49713, -2.508497, 0.08754746, -0.1379374
 150156342, 1.72767, -1.308033, 0.1049968, -0.09541218, 1.477311, -1.674395, 0.09027439, -0.1037784
 150356332, 1.88241, -1.457352, 0.116336, -0.1085436, 1.72767, -1.308033, 0.1049968, -0.09541218
 150556359, 1.331459, -1.33325, 0.09987409, -0.1114893, 1.88241, -1.457352, 0.116336, -0.1085436
 150756343, 1.019402, -1.482027, 0.09395646, -0.1210316, 1.331459, -1.33325, 0.09987409, -0.1114893
 150956361, 0.9491981, -1.661949, 0.09613222, -0.1324819, 1.019402, -1.482027, 0.09395646, -0.1210316
 151156466, 0.854328, -1.855461, 0.09880891, -0.144424, 0.9491981, -1.661949, 0.09613222, -0.1324819
 151356351, -0.07912505, -2.539356, 0.08953237, -0.175016, 0.854328, -1.855461, 0.09880891, -0.144424
 151535941, -0.131741, -2.797719, 0.0959058, -0.188182, -0.07912505, -2.539356, 0.08953237, -0.175016
 151756338, -0.2550288, -2.974088, 0.09951587, -0.1988547, -0.131741, -2.797719, 0.0959058, -0.188182
 151956680, -0.8136997, -3.509851, 0.1015438, -0.2247402, -0.2550288, -2.974088, 0.09951587, -0.1988547
 152175933, -0.9080234, -3.545231, 0.1048343, -0.2267551, -0.8136997, -3.509851, 0.1015438, -0.2247402
 152356333, -0.9498952, -3.544444, 0.1074146, -0.2269699, -0.9080234, -3.545231, 0.1048343, -0.2267551
 152556452, -0.9935529, -3.607448, 0.14148, -0.2114526, -0.9498952, -3.544444, 0.1074146, -0.2269699
 152756335, -0.9506595, -3.607689, 0.1418074, -0.2116245, -0.9935529, -3.607448, 0.14148, -0.2114526
 152956489, -0.9511551, -3.588943, 0.1410921, -0.2131112, -0.9506595, -3.607689, 0.1418074, -0.2116245
 153156374, -0.592399, -3.307695, 0.1347628, -0.2043499, -0.9511551, -3.588943, 0.1410921, -0.2131112
 153356332, -0.5631442, -3.355988, 0.139214, -0.2078268, -0.592399, -3.307695, 0.1347628, -0.2043499
 153556346, -0.6169105, -3.412933, 0.1415144, -0.2138752, -0.5631442, -3.355988, 0.139214, -0.2078268
 153756459, -0.3987067, -3.086982, 0.13884, -0.2048292, -0.6169105, -3.412933, 0.1415144, -0.2138752
 153956429, -0.3100238, -3.175711, 0.1419825, -0.2097688, -0.3987067, -3.086982, 0.13884, -0.2048292
 154136069, -0.3037699, -3.241393, 0.1444886, -0.2135274, -0.3100238, -3.175711, 0.1419825, -0.2097688
 154356482, -0.2898448, -3.345502, 0.1525478, -0.2147567, -0.3037699, -3.241393, 0.1444886, -0.2135274
 154556443, -0.1981885, -3.273602, 0.1602995, -0.2100277, -0.2898448, -3.345502, 0.1525478, -0.2147567
 154756585, -0.1899079, -3.115136, 0.1647144, -0.2059875, -0.1981885, -3.273602, 0.1602995, -0.2100277
 154956490, -0.1761481, -1.987761, 0.1603572, -0.175988, -0.1899079, -3.115136, 0.1647144, -0.2059875
 155156451, -0.2760653, -2.001641, 0.1620456, -0.1796595, -0.1761481, -1.987761, 0.1603572, -0.175988
 155356447, -0.3497244, -1.962551, 0.1651102, -0.1816082, -0.2760653, -2.001641, 0.1620456, -0.1796595
 155556514, -0.9030632, -1.208242, 0.17168, -0.1690774, -0.3497244, -1.962551, 0.1651102, -0.1816082
 155756420, -0.9317084, -1.160953, 0.172519, -0.1718828, -0.9030632, -1.208242, 0.17168, -0.1690774
 155956474, -0.8256943, -1.074813, 0.1728505, -0.1740091, -0.9317084, -1.160953, 0.172519, -0.1718828
 156156774, 0.1177503, -0.5560812, 0.167831, -0.1728318, -0.8256943, -1.074813, 0.1728505, -0.1740091
 156356415, 0.1083639, -0.5370644, 0.1683412, -0.1770716, 0.1177503, -0.5560812, 0.167831, -0.1728318
 156556614, 0.1061471, -0.6043183, 0.1717578, -0.1817639, 0.1083639, -0.5370644, 0.1683412, -0.1770716
 156756832, -0.04834838, -0.8607993, 0.1755601, -0.1890429, 0.1061471, -0.6043183, 0.1717578, -0.1817639
 156957183, -0.02433329, -0.8926398, 0.1803273, -0.1916369, -0.04834838, -0.8607993, 0.1755601, -0.1890429
 157157290, -0.09947131, -0.969465, 0.1858494, -0.1964622, -0.02433329, -0.8926398, 0.1803273, -0.1916369
 157357203, -0.3336945, -1.037386, 0.1943138, -0.1996246, -0.09947131, -0.969465, 0.1858494, -0.1964622
 157557310, -0.3137409, -1.012516, 0.1984785, -0.2017229, -0.3336945, -1.037386, 0.1943138, -0.1996246
 157757146, -0.2838541, -0.9133897, 0.2037463, -0.2043358, -0.3137409, -1.012516, 0.1984785, -0.2017229
 157957175, -0.08348712, -0.1297664, 0.2050899, -0.2022755, -0.2838541, -0.9133897, 0.2037463, -0.2043358
 158157156, -0.05735014, -0.1122901, 0.2054789, -0.2062986, -0.08348712, -0.1297664, 0.2050899, -0.2022755
 158357374, -0.1067233, -0.1553545, 0.2062437, -0.2092701, -0.05735014, -0.1122901, 0.2054789, -0.2062986
 158557562, -0.2432976, -0.1023151, 0.2088825, -0.2099159, -0.1067233, -0.1553545, 0.2062437, -0.2092701
 158757543, 0.01911095, -0.182809, 0.2087727, -0.2121199, -0.2432976, -0.1023151, 0.2088825, -0.2099159
 158957567, 0.0920148, -0.08916755, 0.2094816, -0.2131633, 0.01911095, -0.182809, 0.2087727, -0.2121199
 159157549, 0.2419626, 0.598116, 0.2099924, -0.2155909, 0.0920148, -0.08916755, 0.2094816, -0.2131633
 159337541, -0.1072421, 0.4950703, 0.2103896, -0.2155501, 0.2419626, 0.598116, 0.2099924, -0.2155909
 159557562, -0.06093721, 0.4927219, 0.2102281, -0.215366, -0.1072421, 0.4950703, 0.2103896, -0.2155501
 159757547, -0.06594514, 0.4800641, 0.2097451, -0.2166487, -0.06093721, 0.4927219, 0.2102281, -0.215366
 159957918, 0.3594497, 0.2722653, 0.2119198, -0.2160883, -0.06594514, 0.4800641, 0.2097451, -0.2166487
 160138595, 0.1020881, 0.6130857, 0.2116699, -0.2177134, 0.3594497, 0.2722653, 0.2119198, -0.2160883
 160358747, 0.07296714, 0.55107, 0.2118426, -0.2166422, 0.1020881, 0.6130857, 0.2116699, -0.2177134
 160558598, 0.03062329, 0.1295738, 0.2116608, -0.2135155, 0.07296714, 0.55107, 0.2118426, -0.2166422
 160758589, -0.5477501, 0.4688786, 0.2125388, -0.2148429, 0.03062329, 0.1295738, 0.2116608, -0.2135155
 160958607, -0.4668006, 0.4743084, 0.2108605, -0.2157382, -0.5477501, 0.4688786, 0.2125388, -0.2148429
 161158586, -0.4509308, 0.1689294, 0.2101753, -0.2155824, -0.4668006, 0.4743084, 0.2108605, -0.2157382
 161358594, 0.2190886, 0.2681015, 0.211206, -0.2133715, -0.4509308, 0.1689294, 0.2101753, -0.2155824
 161558609, 0.2902671, 0.3493799, 0.2115523, -0.2114173, 0.2190886, 0.2681015, 0.211206, -0.2133715
 161758594, 0.2375369, 0.3997527, 0.2088866, -0.2121639, 0.2902671, 0.3493799, 0.2115523, -0.2114173
 161958746, -0.01923497, 0.6656018, 0.2080903, -0.2149999, 0.2375369, 0.3997527, 0.2088866, -0.2121639
 162158917, -0.05920815, 0.6190102, 0.2061782, -0.2166554, -0.01923497, 0.6656018, 0.2080903, -0.2149999
 162358906, -0.1109415, 0.5696207, 0.2077145, -0.2154152, -0.05920815, 0.6190102, 0.2061782, -0.2166554
 162558937, -0.2335144, 0.2637496, 0.209026, -0.2137191, -0.1109415, 0.5696207, 0.2077145, -0.2154152
 162758910, -0.4198773, -0.06090079, 0.2090141, -0.2152025, -0.2335144, 0.2637496, 0.209026, -0.2137191
 162958939, -0.4924445, -0.1323094, 0.2087798, -0.2174462, -0.4198773, -0.06090079, 0.2090141, -0.2152025
 163159316, -0.9259875, -0.6640465, 0.2131337, -0.2207158, -0.4924445, -0.1323094, 0.2087798, -0.2174462
 163359638, -0.5222354, -0.166786, 0.2107585, -0.2181749, -0.9259875, -0.6640465, 0.2131337, -0.2207158
 163562777, -0.4218343, -0.203127, 0.2110333, -0.2196832, -0.5222354, -0.166786, 0.2107585, -0.2181749
 163762150, -0.4435108, -0.1588628, 0.2133483, -0.2209371, -0.4218343, -0.203127, 0.2110333, -0.2196832
 163942146, 0.06566132, -0.09279518, 0.2150519, -0.2191973, -0.4435108, -0.1588628, 0.2133483, -0.2209371
 164142650, 0.08340403, -0.03640426, 0.2151726, -0.2202424, 0.06566132, -0.09279518, 0.2150519, -0.2191973
 164542518, 0.5401098, 0.4298102, 0.215108, -0.2227134, 0.1149124, 0.003234368, 0.2146826, -0.2208801
 164762582, 0.4538373, 0.3895704, 0.2130587, -0.2236092, 0.5401098, 0.4298102, 0.215108, -0.2227134
 164962901, 0.4038319, 0.4063642, 0.2151427, -0.2209958, 0.4538373, 0.3895704, 0.2130587, -0.2236092
 165162902, -0.2128118, -0.1555188, 0.2138155, -0.2201437, 0.4038319, 0.4063642, 0.2151427, -0.2209958
 165362899, -0.003839898, 0.2571034, 0.2127882, -0.2200325, -0.2128118, -0.1555188, 0.2138155, -0.2201437
 165562900, -0.02080618, 0.2595931, 0.2135599, -0.2204829, -0.003839898, 0.2571034, 0.2127882, -0.2200325
 165765724, -0.06067671, 0.2882374, 0.2128193, -0.2211637, -0.02080618, 0.2595931, 0.2135599, -0.2204829
 165945744, -0.2099824, 0.5225383, 0.2132814, -0.2214821, -0.06067671, 0.2882374, 0.2128193, -0.2211637
 166145865, -0.1789484, 0.5110501, 0.2140314, -0.2202556, -0.2099824, 0.5225383, 0.2132814, -0.2214821
 166346254, -0.213117, 0.5378387, 0.2141555, -0.2216312, -0.1789484, 0.5110501, 0.2140314, -0.2202556
 166546466, -0.05388358, 0.5568008, 0.2124476, -0.2221414, -0.213117, 0.5378387, 0.2141555, -0.2216312
 166766650, -0.03852971, 0.4895763, 0.2128321, -0.2218332, -0.05388358, 0.5568008, 0.2124476, -0.2221414
 166946478, 0.003491665, 0.5490184, 0.2118443, -0.2225496, -0.03852971, 0.4895763, 0.2128321, -0.2218332
 167146496, 0.1954837, 0.4313393, 0.2109738, -0.2226484, 0.003491665, 0.5490184, 0.2118443, -0.2225496
 167346470, 0.1929868, 0.4671578, 0.2111537, -0.223136, 0.1954837, 0.4313393, 0.2109738, -0.2226484
 167546502, 0.1551434, 0.3779512, 0.2132646, -0.2216432, 0.1929868, 0.4671578, 0.2111537, -0.223136
 167746487, 0.1646546, 0.3107634, 0.2153409, -0.2198533, 0.1551434, 0.3779512, 0.2132646, -0.2216432
 167946637, 0.2139851, -0.2185958, 0.2175748, -0.2187959, 0.1646546, 0.3107634, 0.2153409, -0.2198533
 168146473, 0.2078544, -0.147692, 0.2189951, -0.2190983, 0.2139851, -0.2185958, 0.2175748, -0.2187959
 168346451, 0.182461, -0.1825665, 0.2190453, -0.2201641, 0.2078544, -0.147692, 0.2189951, -0.2190983
 168546494, -0.1319223, -0.3269365, 0.2182997, -0.2212649, 0.182461, -0.1825665, 0.2190453, -0.2201641
 168746471, -0.06715163, -0.2963802, 0.2192875, -0.2214855, -0.1319223, -0.3269365, 0.2182997, -0.2212649
 168966774, -0.1269879, -0.2888951, 0.2181566, -0.2204693, -0.06715163, -0.2963802, 0.2192875, -0.2214855
 169166744, -0.2342772, 0.4796571, 0.2176404, -0.2197385, -0.1269879, -0.2888951, 0.2181566, -0.2204693
 169346465, -0.1119607, -0.561417, 0.2163689, -0.2198117, -0.2342772, 0.4796571, 0.2176404, -0.2197385
 169546905, -0.07914272, -0.4860493, 0.2162313, -0.2187922, -0.1119607, -0.561417, 0.2163689, -0.2198117
 169747078, -0.09134117, -0.4896339, 0.2149496, -0.2189721, -0.07914272, -0.4860493, 0.2162313, -0.2187922
 169947162, -0.1537854, 0.1512378, 0.2151256, -0.2173325, -0.09134117, -0.4896339, 0.2149496, -0.2189721
 170149950, -0.1547653, 0.1420791, 0.2152945, -0.2170402, -0.1537854, 0.1512378, 0.2151256, -0.2173325
 170350394, -0.1718454, 0.05273694, 0.21494, -0.2172454, -0.1547653, 0.1420791, 0.2152945, -0.2170402
 170550897, -0.1757108, -0.096077, 0.2151182, -0.2179466, -0.1718454, 0.05273694, 0.21494, -0.2172454
 170750873, -0.2006099, -0.1146471, 0.2148034, -0.2187809, -0.1757108, -0.096077, 0.2151182, -0.2179466
 170950903, -0.2298751, -0.1554265, 0.2149061, -0.2186104, -0.2006099, -0.1146471, 0.2148034, -0.2187809
 171150867, -0.1003921, -0.3682857, 0.2157191, -0.2187464, -0.2298751, -0.1554265, 0.2149061, -0.2186104
 171350849, -0.3955803, -0.3548213, 0.2162292, -0.2190635, -0.1003921, -0.3682857, 0.2157191, -0.2187464
 171550832, -0.3310794, -0.2848349, 0.2146912, -0.2200909, -0.3955803, -0.3548213, 0.2162292, -0.2190635
 171751043, -0.2756188, -0.21424, 0.2131945, -0.2202722, -0.3310794, -0.2848349, 0.2146912, -0.2200909
 171951159, 0.5502688, 0.1088323, 0.2145512, -0.220294, -0.2756188, -0.21424, 0.2131945, -0.2202722
 172151142, 0.4774447, 0.1585157, 0.2153493, -0.2197955, 0.5502688, 0.1088323, 0.2145512, -0.220294
 172351116, 0.4568119, 0.1261187, 0.2163005, -0.2197123, 0.4774447, 0.1585157, 0.2153493, -0.2197955
 172551555, 0.1240553, 0.2835503, 0.215396, -0.2196066, 0.4568119, 0.1261187, 0.2163005, -0.2197123
 172751563, 0.1157499, 0.3015862, 0.2146197, -0.2207511, 0.1240553, 0.2835503, 0.215396, -0.2196066
 172951579, 0.1485586, 0.2492219, 0.2139393, -0.2229284, 0.1157499, 0.3015862, 0.2146197, -0.2207511
 173151556, 0.3775311, 0.1480112, 0.2150834, -0.2222477, 0.1485586, 0.2492219, 0.2139393, -0.2229284
 173351547, -0.2863997, -0.04282423, 0.2150119, -0.220538, 0.3775311, 0.1480112, 0.2150834, -0.2222477
 173551718, -0.3683443, -0.1226107, 0.217103, -0.2199989, -0.2863997, -0.04282423, 0.2150119, -0.220538
 173752164, -0.32034, -0.1024314, 0.216605, -0.2192349, -0.3683443, -0.1226107, 0.217103, -0.2199989
 173971960, -0.3373554, -0.1662531, 0.2155825, -0.2183437, -0.32034, -0.1024314, 0.216605, -0.2192349
 174151959, -0.381864, 0.3749555, 0.2165144, -0.2176336, -0.3373554, -0.1662531, 0.2155825, -0.2183437
 174351921, -0.3849169, 0.316897, 0.2160313, -0.2165114, -0.381864, 0.3749555, 0.2165144, -0.2176336
 174556951, -0.183716, 0.1398161, 0.2162625, -0.2172563, -0.3849169, 0.316897, 0.2160313, -0.2165114
 174756922, -0.005800255, 0.5980393, 0.216347, -0.2190928, -0.183716, 0.1398161, 0.2162625, -0.2172563
 174956961, -0.01185764, 0.5666722, 0.2171706, -0.2188274, -0.005800255, 0.5980393, 0.216347, -0.2190928
 175157344, 0.006894143, 0.5654581, 0.2177366, -0.2198588, -0.01185764, 0.5666722, 0.2171706, -0.2188274
 175357334, -0.5099047, 0.4715009, 0.2188528, -0.2213701, 0.006894143, 0.5654581, 0.2177366, -0.2198588
 175557361, -0.5575692, 0.2881798, 0.2187727, -0.220029, -0.5099047, 0.4715009, 0.2188528, -0.2213701
 175757919, -0.4682105, 0.3265069, 0.2186408, -0.2198686, -0.5575692, 0.2881798, 0.2187727, -0.220029
 175957908, 0.2371178, 0.3462139, 0.2156823, -0.2195548, -0.4682105, 0.3265069, 0.2186408, -0.2198686
 176157769, -0.06813391, 0.0003364808, 0.2144533, -0.2181929, 0.2371178, 0.3462139, 0.2156823, -0.2195548
 176357739, -0.009144215, 0.03012398, 0.2141301, -0.2181436, -0.06813391, 0.0003364808, 0.2144533, -0.2181929
 176558094, 0.2512387, 0.4286996, 0.2153763, -0.2191269, -0.009144215, 0.03012398, 0.2141301, -0.2181436
 176738501, -0.1043074, 0.1586154, 0.2143252, -0.2187731, 0.2512387, 0.4286996, 0.2153763, -0.2191269
 176959046, -0.1848978, 0.04291375, 0.2125261, -0.218992, -0.1043074, 0.1586154, 0.2143252, -0.2187731
 177158961, -0.8497335, -0.5350119, 0.2175411, -0.2183437, -0.1848978, 0.04291375, 0.2125261, -0.218992
 177361762, 0.02971245, -0.5220962, 0.2136432, -0.2164383, -0.8497335, -0.5350119, 0.2175411, -0.2183437
 177541780, 0.07419543, -0.4680364, 0.2153575, -0.2139113, 0.02971245, -0.5220962, 0.2136432, -0.2164383
 177741763, 0.04449122, -0.4531599, 0.2162672, -0.2118397, 0.07419543, -0.4680364, 0.2153575, -0.2139113
 177962130, -0.004436868, 0.3148739, 0.2149978, -0.2139796, 0.04449122, -0.4531599, 0.2162672, -0.2118397
 178162129, 0.4247865, 0.5638258, 0.2145257, -0.2173538, -0.004436868, 0.3148739, 0.2149978, -0.2139796
 178362143, 0.3619818, 0.5759427, 0.2121012, -0.2202878, 0.4247865, 0.5638258, 0.2145257, -0.2173538
 178562146, 0.05955497, 0.6139691, 0.2112798, -0.2228636, 0.3619818, 0.5759427, 0.2121012, -0.2202878
 178762141, -0.1982248, 0.1951922, 0.2126037, -0.2204509, 0.05955497, 0.6139691, 0.2112798, -0.2228636
 178962135, -0.2413738, 0.1489338, 0.2128354, -0.2200951, -0.1982248, 0.1951922, 0.2126037, -0.2204509
 179162301, -0.2201326, 0.1328051, 0.2114162, -0.2197616, -0.2413738, 0.1489338, 0.2128354, -0.2200951
 179362114, -0.3112282, -0.3079357, 0.2123484, -0.217042, -0.2201326, 0.1328051, 0.2114162, -0.2197616
 179562360, -0.279863, -0.8715312, 0.2127026, -0.2201338, -0.3112282, -0.3079357, 0.2123484, -0.217042
 179742352, -0.2372807, -0.788982, 0.2122375, -0.2182399, -0.279863, -0.8715312, 0.2127026, -0.2201338
 179942608, -0.06132352, 0.06030804, 0.2104315, -0.2145054, -0.2372807, -0.788982, 0.2122375, -0.2182399
 180142499, -0.01825292, 0.02651458, 0.2097854, -0.2145883, -0.06132352, 0.06030804, 0.2104315, -0.2145054
 180362531, -0.03449704, 0.08699447, 0.209843, -0.2142591, -0.01825292, 0.02651458, 0.2097854, -0.2145883
 180562531, -0.1959687, 0.3609681, 0.209874, -0.2148317, -0.03449704, 0.08699447, 0.209843, -0.2142591
 180762519, 0.08966022, 0.1438304, 0.2096053, -0.2148011, -0.1959687, 0.3609681, 0.209874, -0.2148317
 180962957, 0.08911188, 0.2038528, 0.2090695, -0.2155327, 0.08966022, 0.1438304, 0.2096053, -0.2148011
 181162922, 0.08377117, 0.1452962, 0.2083521, -0.2158198, 0.08911188, 0.2038528, 0.2090695, -0.2155327
 181363129, -0.1632139, -0.3484877, 0.210462, -0.2146713, 0.08377117, 0.1452962, 0.2083521, -0.2158198
 181562952, 0.02228808, 0.6248715, 0.2110994, -0.2157348, -0.1632139, -0.3484877, 0.210462, -0.2146713
 181762912, 0.1100658, 0.6141263, 0.2118937, -0.2164919, 0.02228808, 0.6248715, 0.2110994, -0.2157348
 181963524, 0.4069952, 0.5919212, 0.2111676, -0.2200411, 0.1100658, 0.6141263, 0.2118937, -0.2164919
 182143482, 0.9289756, 0.6900478, 0.2138712, -0.2239217, 0.4069952, 0.5919212, 0.2111676, -0.2200411
 182363506, 0.8097896, 0.6565393, 0.214455, -0.2237421, 0.9289756, 0.6900478, 0.2138712, -0.2239217
 182563527, 0.6296065, 0.459602, 0.2124988, -0.2235711, 0.8097896, 0.6565393, 0.214455, -0.2237421
 182743517, 0.1897587, 0.5971437, 0.2092331, -0.2239768, 0.6296065, 0.459602, 0.2124988, -0.2235711
 182964336, 0.2175393, 0.5594809, 0.207107, -0.2242817, 0.1897587, 0.5971437, 0.2092331, -0.2239768
 183166326, 0.1788603, 0.5489848, 0.205863, -0.2245815, 0.2175393, 0.5594809, 0.207107, -0.2242817
 183366424, 0.2370007, 0.5278949, 0.2055758, -0.2247398, 0.1788603, 0.5489848, 0.205863, -0.2245815
 183566349, -0.08017232, 0.3407788, 0.2062557, -0.223036, 0.2370007, 0.5278949, 0.2055758, -0.2247398
 183766328, -0.1438756, 0.2360295, 0.2088451, -0.2228626, -0.08017232, 0.3407788, 0.2062557, -0.223036
 183966348, -0.5751379, -0.2094972, 0.2131832, -0.2209341, -0.1438756, 0.2360295, 0.2088451, -0.2228626
 184146327, -0.6060853, -0.6159664, 0.2142324, -0.2221399, -0.5751379, -0.2094972, 0.2131832, -0.2209341
 184346319, -0.514289, -0.5362641, 0.2149302, -0.2217057, -0.6060853, -0.6159664, 0.2142324, -0.2221399
 184546348, -0.1273528, -0.1113594, 0.2144531, -0.2202666, -0.514289, -0.5362641, 0.2149302, -0.2217057
 184766321, -0.08425271, -0.08084831, 0.2146641, -0.2219237, -0.1273528, -0.1113594, 0.2144531, -0.2202666
 184946338, -0.0127086, 0.06250466, 0.2133395, -0.2235075, -0.08425271, -0.08084831, 0.2146641, -0.2219237
 185146328, 8.795934E-05, 0.05016122, 0.2134767, -0.2238764, -0.0127086, 0.06250466, 0.2133395, -0.2235075
 185347343, 0.1706608, 0.03519343, 0.2137829, -0.2232256, 8.795934E-05, 0.05016122, 0.2134767, -0.2238764
 185567149, 0.1004135, -0.009669015, 0.2140945, -0.222588, 0.1706608, 0.03519343, 0.2137829, -0.2232256
 185767142, 0.06966858, -0.08572602, 0.2119727, -0.2220573, 0.1004135, -0.009669015, 0.2140945, -0.222588
 185967124, -0.4865338, -0.2791489, 0.2125427, -0.2217673, 0.06966858, -0.08572602, 0.2119727, -0.2220573
 186167131, -0.1311578, 0.1606204, 0.2113593, -0.2202172, -0.4865338, -0.2791489, 0.2125427, -0.2217673
 186367130, -0.1183198, 0.2095907, 0.2111847, -0.2206289, -0.1311578, 0.1606204, 0.2113593, -0.2202172
 186567302, 0.09999275, 0.2034198, 0.2111594, -0.2209483, -0.1183198, 0.2095907, 0.2111847, -0.2206289
 186767129, -0.08650319, 0.3396536, 0.2129194, -0.2214109, 0.09999275, 0.2034198, 0.2111594, -0.2209483
 186967368, 0.1078293, 0.3626088, 0.2137777, -0.2214236, -0.08650319, 0.3396536, 0.2129194, -0.2214109
 187167107, 0.06058544, 0.333592, 0.2126484, -0.2224148, 0.1078293, 0.3626088, 0.2137777, -0.2214236
 187347567, -0.4478164, 0.2094628, 0.2136743, -0.2224921, 0.06058544, 0.333592, 0.2126484, -0.2224148
 187550473, -0.3767521, 0.2046406, 0.2131881, -0.2220337, -0.4478164, 0.2094628, 0.2136743, -0.2224921
 187750428, -0.3283073, 0.2664517, 0.2122789, -0.2228584, -0.3767521, 0.2046406, 0.2131881, -0.2220337
 187950504, 0.2418552, 0.6000441, 0.2129236, -0.2240178, -0.3283073, 0.2664517, 0.2122789, -0.2228584
 188150423, 0.2645617, 0.5810781, 0.2126375, -0.2236399, 0.2418552, 0.6000441, 0.2129236, -0.2240178
 188350492, 0.3214844, 0.5732616, 0.2150115, -0.2236522, 0.2645617, 0.5810781, 0.2126375, -0.2236399
 188570522, 0.2074197, 0.2764133, 0.2144108, -0.223754, 0.3214844, 0.5732616, 0.2150115, -0.2236522
 188770498, 0.2384241, 0.3650219, 0.2146577, -0.2234565, 0.2074197, 0.2764133, 0.2144108, -0.223754
 188970646, -0.6671599, -0.09521296, 0.2177293, -0.2215205, 0.2384241, 0.3650219, 0.2146577, -0.2234565
 189170478, -0.5500228, -0.1124101, 0.216318, -0.2204439, -0.6671599, -0.09521296, 0.2177293, -0.2215205
 189371312, -0.215839, -0.4992465, 0.2135438, -0.2202228, -0.5500228, -0.1124101, 0.216318, -0.2204439
 189550900, -0.03329099, 0.2135337, 0.211968, -0.219178, -0.215839, -0.4992465, 0.2135438, -0.2202228
 189771531, 0.02266955, 0.2579682, 0.2115497, -0.2201504, -0.03329099, 0.2135337, 0.211968, -0.219178
 189971200, 0.1867907, 0.4847665, 0.2123091, -0.2202826, 0.02266955, 0.2579682, 0.2115497, -0.2201504
 190151114, 0.01486395, -0.02832542, 0.2133094, -0.2188331, 0.1867907, 0.4847665, 0.2123091, -0.2202826
 190351532, 0.002915648, 0.007664889, 0.2137545, -0.220355, 0.01486395, -0.02832542, 0.2133094, -0.2188331
 190551931, -0.01559829, -0.001494373, 0.2149313, -0.2220033, 0.002915648, 0.007664889, 0.2137545, -0.220355
 190751922, 0.2844613, 0.5728954, 0.2156379, -0.2241617, -0.01559829, -0.001494373, 0.2149313, -0.2220033
 190951977, 0.204952, 0.4960451, 0.2170846, -0.2249526, 0.2844613, 0.5728954, 0.2156379, -0.2241617
 191151917, 0.1804654, 0.3893298, 0.2169221, -0.2239509, 0.204952, 0.4960451, 0.2170846, -0.2249526
 191351913, -0.6626232, -0.568512, 0.2185608, -0.2242118, 0.1804654, 0.3893298, 0.2169221, -0.2239509
 191551937, -0.6198035, -0.5155084, 0.217171, -0.2224854, -0.6626232, -0.568512, 0.2185608, -0.2242118
 191751910, -0.6382461, -0.5186519, 0.2164482, -0.2216407, -0.6198035, -0.5155084, 0.217171, -0.2224854
 191951933, -0.1353438, -0.1300548, 0.2143044, -0.2198531, -0.6382461, -0.5186519, 0.2164482, -0.2216407
 192151902, -0.1081597, 0.05870887, 0.2144372, -0.2195362, -0.1353438, -0.1300548, 0.2143044, -0.2198531
 192371941, -0.04225697, 0.08717965, 0.2139551, -0.2198442, -0.1081597, 0.05870887, 0.2144372, -0.2195362
 192555615, -0.01204247, 0.123068, 0.2133853, -0.2203655, -0.04225697, 0.08717965, 0.2139551, -0.2198442
 192755377, -0.2537533, -0.1467232, 0.2137093, -0.2212035, -0.01204247, 0.123068, 0.2133853, -0.2203655
 192955534, -0.2298472, -0.03545066, 0.213492, -0.2212316, -0.2537533, -0.1467232, 0.2137093, -0.2212035
 193155353, -0.2492874, -0.005478198, 0.2122038, -0.2217453, -0.2298472, -0.03545066, 0.213492, -0.2212316
 193355394, -0.2191741, 0.3610339, 0.2131948, -0.2221059, -0.2492874, -0.005478198, 0.2122038, -0.2217453
 193555326, -0.2364835, 0.344161, 0.2130298, -0.2216607, -0.2191741, 0.3610339, 0.2131948, -0.2221059
 193755300, -0.2421113, 0.3644092, 0.2131239, -0.2222828, -0.2364835, 0.344161, 0.2130298, -0.2216607
 193955319, 0.1979968, 0.6323599, 0.2122767, -0.2239358, -0.2421113, 0.3644092, 0.2131239, -0.2222828
 194155901, 0.1457604, 0.1878735, 0.2114444, -0.2223871, 0.1979968, 0.6323599, 0.2122767, -0.2239358
 194355886, 0.1369921, 0.1952259, 0.2113688, -0.2220573, 0.1457604, 0.1878735, 0.2114444, -0.2223871
 194555921, 0.1534564, 0.179374, 0.2126632, -0.2221003, 0.1369921, 0.1952259, 0.2113688, -0.2220573
 194756105, 0.3674042, 0.2098029, 0.2120281, -0.2230616, 0.1534564, 0.179374, 0.2126632, -0.2221003
 194976393, 0.2785107, 0.1306181, 0.2115969, -0.2231446, 0.3674042, 0.2098029, 0.2120281, -0.2230616
 195155886, 0.2514133, 0.1284598, 0.2124139, -0.2230047, 0.2785107, 0.1306181, 0.2115969, -0.2231446
 195355884, -0.1468582, 0.08031622, 0.2123799, -0.2232106, 0.2514133, 0.1284598, 0.2124139, -0.2230047
 195555910, -0.1262223, -0.07280298, 0.2122469, -0.2223942, -0.1468582, 0.08031622, 0.2123799, -0.2232106
 195756291, -0.1361808, -0.03614899, 0.2123156, -0.221982, -0.1262223, -0.07280298, 0.2122469, -0.2223942
 195956650, -0.1830619, -0.07076877, 0.2143939, -0.2206528, -0.1361808, -0.03614899, 0.2123156, -0.221982
 196156668, -0.1877642, -0.1028972, 0.2160279, -0.2209387, -0.1830619, -0.07076877, 0.2143939, -0.2206528
 196356641, -0.2593969, -0.1400592, 0.2180696, -0.2206993, -0.1877642, -0.1028972, 0.2160279, -0.2209387
 196557135, -0.2473126, -0.09505906, 0.2174556, -0.2219489, -0.2593969, -0.1400592, 0.2180696, -0.2206993
 196757124, -0.1758275, -0.3003705, 0.2161843, -0.2231393, -0.2473126, -0.09505906, 0.2174556, -0.2219489
 196956914, -0.1265151, -0.253907, 0.21527, -0.2240584, -0.1758275, -0.3003705, 0.2161843, -0.2231393
 197156901, -0.09837438, -0.2164047, 0.216722, -0.2234206, -0.1265151, -0.253907, 0.21527, -0.2240584
 197356900, 0.144527, 0.0285511, 0.2177822, -0.2241024, -0.09837438, -0.2164047, 0.216722, -0.2234206
 197556928, 0.03846509, 0.1544116, 0.2179278, -0.2247244, 0.144527, 0.0285511, 0.2177822, -0.2241024
 197756904, 0.06867733, 0.1323669, 0.2181892, -0.2251726, 0.03846509, 0.1544116, 0.2179278, -0.2247244
 197957296, 0.0494272, 0.127776, 0.2185436, -0.2248948, 0.06867733, 0.1323669, 0.2181892, -0.2251726
 198160172, 0.1034615, 0.3243812, 0.2174894, -0.2249273, 0.0494272, 0.127776, 0.2185436, -0.2248948
 198360263, 0.07959003, 0.292089, 0.2155843, -0.2257106, 0.1034615, 0.3243812, 0.2174894, -0.2249273
 198560380, 0.1048004, 0.288302, 0.216828, -0.2250187, 0.07959003, 0.292089, 0.2155843, -0.2257106
 198760287, 0.02673166, -0.2220983, 0.2160701, -0.2235519, 0.1048004, 0.288302, 0.216828, -0.2250187
 198960191, 0.3433752, 0.6445412, 0.2153978, -0.2251791, 0.02673166, -0.2220983, 0.2160701, -0.2235519
 199160110, 0.2863701, 0.6136152, 0.2151418, -0.2262344, 0.3433752, 0.6445412, 0.2153978, -0.2251791
 199360124, 0.07596385, 0.4269191, 0.2147522, -0.2258224, 0.2863701, 0.6136152, 0.2151418, -0.2262344
 199560209, -0.01687923, 0.02798636, 0.2165317, -0.2249344, 0.07596385, 0.4269191, 0.2147522, -0.2258224
 199740131, -0.01912641, 0.06344079, 0.2170031, -0.2252176, -0.01687923, 0.02798636, 0.2165317, -0.2249344
 199960758, -0.01914715, 0.07925649, 0.217033, -0.2253004, -0.01912641, 0.06344079, 0.2170031, -0.2252176
 200160591, 0.5469128, 0.494577, 0.2190552, -0.2273654, -0.01914715, 0.07925649, 0.217033, -0.2253004
 200360724, 0.5490196, 0.5223577, 0.2185829, -0.2269787, 0.5469128, 0.494577, 0.2190552, -0.2273654
 200560597, 0.5101666, 0.4153171, 0.2187791, -0.2263668, 0.5490196, 0.5223577, 0.2185829, -0.2269787
 200760588, -0.09630687, -0.3112822, 0.2172611, -0.2244459, 0.5101666, 0.4153171, 0.2187791, -0.2263668
 200940608, -0.1373668, 0.6165912, 0.2170909, -0.2258406, -0.09630687, -0.3112822, 0.2172611, -0.2244459
 201160577, -0.174266, 0.5633463, 0.216543, -0.2257245, -0.1373668, 0.6165912, 0.2170909, -0.2258406
 201360583, -0.240861, 0.3239113, 0.2156129, -0.2252977, -0.174266, 0.5633463, 0.216543, -0.2257245
 201560597, -0.7303713, -0.06709777, 0.2173551, -0.2243118, -0.240861, 0.3239113, 0.2156129, -0.2252977
 201760578, -0.7127816, -0.1017554, 0.2170475, -0.2244482, -0.7303713, -0.06709777, 0.2173551, -0.2243118
 201960609, -0.72362, -0.1651274, 0.2165117, -0.2234497, -0.7127816, -0.1017554, 0.2170475, -0.2244482
 202160725, -0.3240364, -0.1210742, 0.2129938, -0.2217591, -0.72362, -0.1651274, 0.2165117, -0.2234497
 202360578, -0.2820591, -0.08506481, 0.2110899, -0.2208874, -0.3240364, -0.1210742, 0.2129938, -0.2217591
 202560583, -0.2057498, -0.05515167, 0.2104336, -0.2199639, -0.2820591, -0.08506481, 0.2110899, -0.2208874
 202760583, -0.1279405, -0.2799535, 0.2094554, -0.2204298, -0.2057498, -0.05515167, 0.2104336, -0.2199639
 202960584, 0.1517689, 0.02413127, 0.2088197, -0.2200536, -0.1279405, -0.2799535, 0.2094554, -0.2204298
 203160703, 0.1802775, 0.03655924, 0.2102379, -0.2207093, 0.1517689, 0.02413127, 0.2088197, -0.2200536
 203360581, 0.2516835, 0.137505, 0.2113553, -0.2190489, 0.1802775, 0.03655924, 0.2102379, -0.2207093
 203540588, 0.05545774, 0.3003995, 0.2111855, -0.2184478, 0.2516835, 0.137505, 0.2113553, -0.2190489
 203760570, 0.07597984, 0.2733002, 0.2107601, -0.21731, 0.05545774, 0.3003995, 0.2111855, -0.2184478
 203960748, 0.01697872, 0.280605, 0.2111792, -0.2161374, 0.07597984, 0.2733002, 0.2107601, -0.21731
 204160708, -0.08306584, -0.05772762, 0.2103508, -0.2158983, 0.01697872, 0.280605, 0.2111792, -0.2161374
 204360575, -0.1014169, -0.0322141, 0.2114497, -0.2149452, -0.08306584, -0.05772762, 0.2103508, -0.2158983
 204560597, -0.1332238, -0.02631544, 0.2119833, -0.2153487, -0.1014169, -0.0322141, 0.2114497, -0.2149452
 204760585, -0.3344692, 0.1466063, 0.213782, -0.2155242, -0.1332238, -0.02631544, 0.2119833, -0.2153487
 204960596, -0.2099661, 0.1142219, 0.2137519, -0.2165218, -0.3344692, 0.1466063, 0.213782, -0.2155242
 205160588, -0.1858793, 0.1736605, 0.2122407, -0.2183383, -0.2099661, 0.1142219, 0.2137519, -0.2165218
 205360575, -0.2333979, 0.1353277, 0.2121363, -0.2185068, -0.1858793, 0.1736605, 0.2122407, -0.2183383
 205560602, -0.4633023, 0.549281, 0.2131907, -0.2195124, -0.2333979, 0.1353277, 0.2121363, -0.2185068
 205760747, -0.4770738, 0.5376337, 0.2126426, -0.2192297, -0.4633023, 0.549281, 0.2131907, -0.2195124
 205960617, -0.3877013, 0.5497254, 0.2121021, -0.2191652, -0.4770738, 0.5376337, 0.2126426, -0.2192297
 206140583, 0.147089, 0.3467439, 0.2117508, -0.2188154, -0.3877013, 0.5497254, 0.2121021, -0.2191652
 206360577, 0.1788469, 0.3804805, 0.2126337, -0.2195474, 0.147089, 0.3467439, 0.2117508, -0.2188154
 206560596, 0.164531, 0.3750633, 0.2131981, -0.2192742, 0.1788469, 0.3804805, 0.2126337, -0.2195474
 206760581, 0.08241031, 0.5444818, 0.2129725, -0.2199828, 0.164531, 0.3750633, 0.2131981, -0.2192742
 206960595, -0.4933781, -0.02310807, 0.2143103, -0.2191896, 0.08241031, 0.5444818, 0.2129725, -0.2199828
 207160585, -0.3967188, -0.03303769, 0.2139616, -0.2187782, -0.4933781, -0.02310807, 0.2143103, -0.2191896
 207360719, -0.3179221, 0.0214161, 0.2147626, -0.2197142, -0.3967188, -0.03303769, 0.2139616, -0.2187782
 207560743, 0.459015, 0.5449118, 0.2168099, -0.2218124, -0.3179221, 0.0214161, 0.2147626, -0.2197142
 207760585, 0.4377724, 0.537074, 0.2174997, -0.2223376, 0.459015, 0.5449118, 0.2168099, -0.2218124
 207960611, 0.4036798, 0.4998212, 0.2172115, -0.2231988, 0.4377724, 0.537074, 0.2174997, -0.2223376
 208160580, -0.05817885, -0.06957348, 0.217605, -0.2225837, 0.4036798, 0.4998212, 0.2172115, -0.2231988
 208360716, 0.2061705, 0.07557324, 0.2172135, -0.2232981, -0.05817885, -0.06957348, 0.217605, -0.2225837
 208560597, 0.05136245, 0.03450825, 0.2171759, -0.2232329, 0.2061705, 0.07557324, 0.2172135, -0.2232981
 208760583, -0.5810435, 0.1773764, 0.2190038, -0.2220019, 0.05136245, 0.03450825, 0.2171759, -0.2232329
 208940604, -0.5159096, -0.4208878, 0.2168692, -0.2228663, -0.5810435, 0.1773764, 0.2190038, -0.2220019
 209140568, -0.4012845, -0.2929433, 0.2168324, -0.2226141, -0.5159096, -0.4208878, 0.2168692, -0.2228663
 209340606, -0.4628629, -0.3797839, 0.2168206, -0.2233373, -0.4012845, -0.2929433, 0.2168324, -0.2226141
 209560593, -0.3707355, -0.302768, 0.2176582, -0.2226439, -0.4628629, -0.3797839, 0.2168206, -0.2233373
 209740577, -0.4453697, -0.401165, 0.2181309, -0.2240899, -0.3707355, -0.302768, 0.2176582, -0.2226439
 209960603, -0.424636, -0.4076917, 0.2180036, -0.2239702, -0.4453697, -0.401165, 0.2181309, -0.2240899
 210160579, 0.240252, -0.1622458, 0.2174595, -0.2231273, -0.424636, -0.4076917, 0.2180036, -0.2239702
 210360586, 0.09358746, 0.1311941, 0.2167921, -0.2229581, 0.240252, -0.1622458, 0.2174595, -0.2231273
 210560602, 0.04796567, 0.08581445, 0.2159338, -0.2219628, 0.09358746, 0.1311941, 0.2167921, -0.2229581
 210760580, 0.07473839, 0.1336709, 0.2165271, -0.221799, 0.04796567, 0.08581445, 0.2159338, -0.2219628
 210960609, 0.07166697, 0.1233871, 0.2165204, -0.2208994, 0.07473839, 0.1336709, 0.2165271, -0.221799
 211160731, 0.08316213, 0.1390471, 0.2157127, -0.2212804, 0.07166697, 0.1233871, 0.2165204, -0.2208994
 211340720, 0.07699358, 0.1724617, 0.2148449, -0.2225729, 0.08316213, 0.1390471, 0.2157127, -0.2212804
 211560728, 0.102297, 0.1423421, 0.2150709, -0.2231759, 0.07699358, 0.1724617, 0.2148449, -0.2225729
 211760586, 0.07266262, 0.1093493, 0.2152998, -0.2221212, 0.102297, 0.1423421, 0.2150709, -0.2231759
 211960599, 0.06265781, 0.1734008, 0.2150107, -0.2211086, 0.07266262, 0.1093493, 0.2152998, -0.2221212
 212140708, 0.2841106, 0.6046315, 0.2148755, -0.2222894, 0.06265781, 0.1734008, 0.2150107, -0.2211086
 212360619, 0.2580955, 0.5713866, 0.2150863, -0.223081, 0.2841106, 0.6046315, 0.2148755, -0.2222894
 212561133, 0.2197526, 0.5602238, 0.2159877, -0.2224964, 0.2580955, 0.5713866, 0.2150863, -0.223081
 212760939, -0.3331037, -0.01166596, 0.2156538, -0.2210777, 0.2197526, 0.5602238, 0.2159877, -0.2224964
 212961166, 0.4339986, 0.1457192, 0.2164707, -0.2195717, -0.3331037, -0.01166596, 0.2156538, -0.2210777
 213161180, 0.461997, 0.1522084, 0.2164026, -0.2209631, 0.4339986, 0.1457192, 0.2164707, -0.2195717
 213361158, 0.4283533, 0.1691635, 0.2158915, -0.2203482, 0.461997, 0.1522084, 0.2164026, -0.2209631
 213561190, 0.1269889, -0.1519461, 0.2155108, -0.2202535, 0.4283533, 0.1691635, 0.2158915, -0.2203482
 213761175, -0.008548665, 0.09324969, 0.2159985, -0.2200473, 0.1269889, -0.1519461, 0.2155108, -0.2202535
 213961192, 0.03040176, 0.09690299, 0.2168994, -0.2188272, -0.008548665, 0.09324969, 0.2159985, -0.2200473
 214161171, 0.1710796, 0.1852663, 0.21705, -0.2201779, 0.03040176, 0.09690299, 0.2168994, -0.2188272
 214361182, 0.05272389, 0.07868611, 0.2173782, -0.2193373, 0.1710796, 0.1852663, 0.21705, -0.2201779
 214561196, 0.04951219, 0.06911804, 0.2182439, -0.2176009, 0.05272389, 0.07868611, 0.2173782, -0.2193373
 214761391, 0.0255387, 0.08690722, 0.2186811, -0.2178168, 0.04951219, 0.06911804, 0.2182439, -0.2176009
 214961196, 0.06387103, 0.5502887, 0.2173802, -0.2197483, 0.0255387, 0.08690722, 0.2186811, -0.2178168
 215161176, -0.2814985, 0.1508728, 0.2168881, -0.2184988, 0.06387103, 0.5502887, 0.2173802, -0.2197483
 215341713, -0.2036209, 0.2065189, 0.2164758, -0.2183202, -0.2814985, 0.1508728, 0.2168881, -0.2184988
 215561184, 0.3591394, 0.8161595, 0.2174819, -0.2199889, -0.2036209, 0.2065189, 0.2164758, -0.2183202
 215761374, -0.06840346, 0.4167507, 0.2168829, -0.2168238, 0.3591394, 0.8161595, 0.2174819, -0.2199889
 215961176, 0.001045248, 0.4602593, 0.2170885, -0.2165137, -0.06840346, 0.4167507, 0.2168829, -0.2168238
 216161176, 0.3800288, 1.008488, 0.2179394, -0.2208484, 0.001045248, 0.4602593, 0.2170885, -0.2165137
 216361189, 0.4768315, 0.5718037, 0.219414, -0.2168271, 0.3800288, 1.008488, 0.2179394, -0.2208484
 216561405, 0.4575995, 0.5836247, 0.2196968, -0.2167513, 0.4768315, 0.5718037, 0.219414, -0.2168271
 216761384, 0.4477085, 0.6112447, 0.2196552, -0.2163717, 0.4575995, 0.5836247, 0.2196968, -0.2167513
 216961308, 0.2157383, 0.7562968, 0.2202445, -0.2174805, 0.4477085, 0.6112447, 0.2196552, -0.2163717
 217161182, 0.1900562, 1.209383, 0.2206287, -0.2222174, 0.2157383, 0.7562968, 0.2202445, -0.2174805
 217341577, 0.2348867, 1.230881, 0.2215914, -0.2224971, 0.1900562, 1.209383, 0.2206287, -0.2222174
 217541559, 0.3599885, 1.395272, 0.2223638, -0.2250152, 0.2348867, 1.230881, 0.2215914, -0.2224971
 217761295, 0.3441092, 1.423314, 0.2235928, -0.226047, 0.3599885, 1.395272, 0.2223638, -0.2250152
 217961184, 0.3559176, 1.429268, 0.2236578, -0.2266421, 0.3441092, 1.423314, 0.2235928, -0.226047
 218161180, 0.2829417, 1.401141, 0.2233369, -0.2274486, 0.3559176, 1.429268, 0.2236578, -0.2266421
 218361415, 0.2283854, 1.462499, 0.2239274, -0.2289085, 0.2829417, 1.401141, 0.2233369, -0.2274486
 218561192, 0.2249071, 1.447823, 0.2239584, -0.2290505, 0.2283854, 1.462499, 0.2239274, -0.2289085
 218761180, 0.2251228, 1.45532, 0.2244221, -0.2293951, 0.2249071, 1.447823, 0.2239584, -0.2290505
 218961194, 0.1163216, 1.24479, 0.2246061, -0.227089, 0.2251228, 1.45532, 0.2244221, -0.2293951
 219141557, 0.1141828, 1.132785, 0.2241008, -0.2254795, 0.1163216, 1.24479, 0.2246061, -0.227089
 219361177, 0.09896097, 1.157015, 0.2232931, -0.2259046, 0.1141828, 1.132785, 0.2241008, -0.2254795
 219561196, 0.03442845, 1.244543, 0.2234734, -0.2270888, 0.09896097, 1.157015, 0.2232931, -0.2259046
 219761187, 0.226585, 1.30531, 0.2229289, -0.2284366, 0.03442845, 1.244543, 0.2234734, -0.2270888
 219961403, 0.1960471, 1.290506, 0.2213344, -0.2289431, 0.226585, 1.30531, 0.2229289, -0.2284366
 220161403, 0.201472, 1.305261, 0.2200115, -0.2296247, 0.1960471, 1.290506, 0.2213344, -0.2289431
 220361190, 0.172472, 1.435729, 0.2194648, -0.2322258, 0.201472, 1.305261, 0.2200115, -0.2296247
 220561175, 0.1913252, 1.450684, 0.2192415, -0.2322188, 0.172472, 1.435729, 0.2194648, -0.2322258
 220761165, 0.208104, 1.414828, 0.2185791, -0.2314887, 0.1913252, 1.450684, 0.2192415, -0.2322188
 220941558, 0.3270206, 1.138524, 0.2176181, -0.2281567, 0.208104, 1.414828, 0.2185791, -0.2314887
 221161178, 0.3090165, 1.080932, 0.2167381, -0.2270628, 0.3270206, 1.138524, 0.2176181, -0.2281567
 221361164, 0.3156944, 1.050171, 0.2162277, -0.2268948, 0.3090165, 1.080932, 0.2167381, -0.2270628
 221561198, 0.4527013, 0.9121627, 0.2167004, -0.2250385, 0.3156944, 1.050171, 0.2162277, -0.2268948
 221761188, 0.2011663, 0.5866681, 0.2153632, -0.2225526, 0.4527013, 0.9121627, 0.2167004, -0.2250385
 221961428, 0.1899763, 0.588138, 0.2144165, -0.2234778, 0.2011663, 0.5866681, 0.2153632, -0.2225526
 222161177, 0.2172612, 0.5452214, 0.2145939, -0.2230742, 0.1899763, 0.588138, 0.2144165, -0.2234778
 222361172, 0.3106703, 0.07439425, 0.2148571, -0.2221344, 0.2172612, 0.5452214, 0.2145939, -0.2230742
 222561186, 0.4078148, 0.3612753, 0.2158031, -0.2235299, 0.3106703, 0.07439425, 0.2148571, -0.2221344
 222761174, 0.4319743, 0.3081675, 0.215977, -0.2248773, 0.4078148, 0.3612753, 0.2158031, -0.2235299
 222961198, 0.2983122, -0.1466529, 0.2152603, -0.2261005, 0.4319743, 0.3081675, 0.215977, -0.2248773
 223161166, 0.2328778, 0.08108892, 0.2143429, -0.2271589, 0.2983122, -0.1466529, 0.2152603, -0.2261005
 223361180, 0.2295407, -0.01128413, 0.2152813, -0.2267465, 0.2328778, 0.08108892, 0.2143429, -0.2271589
 223561192, 0.2377946, -0.7070758, 0.2141075, -0.229624, 0.2295407, -0.01128413, 0.2152813, -0.2267465
 223761398, 0.3305436, -0.8847623, 0.2144347, -0.2307527, 0.2377946, -0.7070758, 0.2141075, -0.229624
 223961186, 0.3088475, -0.9533927, 0.2139565, -0.2317133, 0.3305436, -0.8847623, 0.2144347, -0.2307527
 224161391, 0.3070614, -1.03006, 0.2127197, -0.2325829, 0.3088475, -0.9533927, 0.2139565, -0.2317133
 224341532, 0.2821235, -1.280185, 0.2126818, -0.2343266, 0.3070614, -1.03006, 0.2127197, -0.2325829
 224561200, 0.30762, -1.346087, 0.2136059, -0.2315977, 0.2821235, -1.280185, 0.2126818, -0.2343266
 224761177, 0.2787898, -1.412718, 0.2131427, -0.2322437, 0.30762, -1.346087, 0.2136059, -0.2315977
 224961287, 0.4923814, -1.785974, 0.2142667, -0.2380553, 0.2787898, -1.412718, 0.2131427, -0.2322437
 225161389, 0.3334248, -2.131516, 0.2146449, -0.2437951, 0.4923814, -1.785974, 0.2142667, -0.2380553
 225361166, 0.3686861, -2.191095, 0.2164107, -0.2438528, 0.3334248, -2.131516, 0.2146449, -0.2437951
 225561411, 0.3927119, -2.201874, 0.2175821, -0.243141, 0.3686861, -2.191095, 0.2164107, -0.2438528
 225761181, 0.224592, -2.337125, 0.2177726, -0.2451953, 0.3927119, -2.201874, 0.2175821, -0.243141
 225961175, 0.2157369, -2.361195, 0.2165731, -0.2450811, 0.224592, -2.337125, 0.2177726, -0.2451953
 226161182, 0.160601, -2.435764, 0.2138502, -0.2458329, 0.2157369, -2.361195, 0.2165731, -0.2450811
 226361172, -0.2322925, -3.025987, 0.2117988, -0.2607811, 0.160601, -2.435764, 0.2138502, -0.2458329
 226561183, 0.1151504, -2.866288, 0.2107232, -0.2556072, -0.2322925, -3.025987, 0.2117988, -0.2607811
 226761177, 0.1255664, -2.93696, 0.2098772, -0.2565473, 0.1151504, -2.866288, 0.2107232, -0.2556072
 226941561, 0.00486794, -3.513977, 0.2091204, -0.2742134, 0.1255664, -2.93696, 0.2098772, -0.2565473
 227161199, 0.08867866, -3.507792, 0.2092573, -0.273007, 0.00486794, -3.513977, 0.2091204, -0.2742134
 227361389, 0.06462452, -3.457905, 0.2099236, -0.2698272, 0.08867866, -3.507792, 0.2092573, -0.273007
 227561182, 0.01964458, -3.409547, 0.2103846, -0.2665836, 0.06462452, -3.457905, 0.2099236, -0.2698272
 227761165, -0.1187559, -3.025453, 0.2100497, -0.2546352, 0.01964458, -3.409547, 0.2103846, -0.2665836
 227961184, -0.0615058, -3.031813, 0.209424, -0.2559438, -0.1187559, -3.025453, 0.2100497, -0.2546352
 228161167, -0.006510219, -3.072974, 0.211182, -0.257757, -0.0615058, -3.031813, 0.209424, -0.2559438
 228361380, 0.3920196, -3.22533, 0.2137372, -0.2633865, -0.006510219, -3.072974, 0.211182, -0.257757
 228561189, 0.8418805, -2.71177, 0.2184832, -0.2503303, 0.3920196, -3.22533, 0.2137372, -0.2633865
 228761176, 0.8626038, -2.518735, 0.2203667, -0.2484391, 0.8418805, -2.71177, 0.2184832, -0.2503303
 228961190, 1.142518, -1.640214, 0.2239819, -0.2321974, 0.8626038, -2.518735, 0.2203667, -0.2484391
 229161394, 0.8597585, -0.8131445, 0.2202821, -0.2234042, 1.142518, -1.640214, 0.2239819, -0.2321974
 229361379, 0.8538508, -0.8226442, 0.2193258, -0.2265329, 0.8597585, -0.8131445, 0.2202821, -0.2234042
 229541610, 0.853852, -0.7399526, 0.218802, -0.2270288, 0.8538508, -0.8226442, 0.2193258, -0.2265329
 229761170, 0.879094, -0.7407581, 0.2182267, -0.2282816, 0.853852, -0.7399526, 0.218802, -0.2270288
 229961287, 1.026509, -0.505284, 0.2201949, -0.2260309, 0.879094, -0.7407581, 0.2182267, -0.2282816
 230141579, 0.9497524, -0.4934784, 0.2210858, -0.2247941, 1.026509, -0.505284, 0.2201949, -0.2260309
 230341549, 0.6804092, -0.2757328, 0.2213639, -0.2201863, 0.9497524, -0.4934784, 0.2210858, -0.2247941
 230541550, 0.6775017, -0.2802992, 0.2202707, -0.2215543, 0.6804092, -0.2757328, 0.2213639, -0.2201863
 230761180, 0.638136, -0.2175594, 0.2197238, -0.2220604, 0.6775017, -0.2802992, 0.2202707, -0.2215543
 230961411, 0.68003, -0.51504, 0.2192604, -0.2241861, 0.638136, -0.2175594, 0.2197238, -0.2220604
 231161168, 0.7461817, 0.457843, 0.2179689, -0.2238988, 0.68003, -0.51504, 0.2192604, -0.2241861
 231361171, 0.7334729, 0.5296758, 0.2179503, -0.2238652, 0.7461817, 0.457843, 0.2179689, -0.2238988
 231561184, 0.7150849, 0.5534496, 0.2174007, -0.2238856, 0.7334729, 0.5296758, 0.2179503, -0.2238652
 231761172, 0.4938712, 0.6633535, 0.2157179, -0.2235639, 0.7150849, 0.5534496, 0.2174007, -0.2238856
 231961192, 0.7652045, 0.9918221, 0.2169715, -0.2251063, 0.4938712, 0.6633535, 0.2157179, -0.2235639
 232141657, 0.8072874, 1.078228, 0.2169547, -0.2237345, 0.7652045, 0.9918221, 0.2169715, -0.2251063
 232361169, 1.373489, 1.71705, 0.2242833, -0.230951, 0.8072874, 1.078228, 0.2169547, -0.2237345
 232561434, 0.9669411, 1.648815, 0.2205138, -0.2275109, 1.373489, 1.71705, 0.2242833, -0.230951
 232761394, 0.9483123, 1.688377, 0.219371, -0.2271896, 0.9669411, 1.648815, 0.2205138, -0.2275109
 232961184, 0.8548533, 1.871039, 0.2184823, -0.2286515, 0.9483123, 1.688377, 0.219371, -0.2271896
 233161174, 0.9512053, 2.218096, 0.2182517, -0.2352605, 0.8548533, 1.871039, 0.2184823, -0.2286515
 233361172, 0.9249183, 2.28635, 0.217918, -0.2359945, 0.9512053, 2.218096, 0.2182517, -0.2352605
 233541597, 0.9403746, 2.442518, 0.2159875, -0.2388524, 0.9249183, 2.28635, 0.217918, -0.2359945
 233761160, 0.9130471, 2.549358, 0.2148366, -0.2397193, 0.9403746, 2.442518, 0.2159875, -0.2388524
 233981400, 0.9041817, 3.673371, 0.2119581, -0.2736604, 0.9130471, 2.549358, 0.2148366, -0.2397193
 234161181, 0.7570806, 3.598673, 0.2110678, -0.2694122, 0.9041817, 3.673371, 0.2119581, -0.2736604
 234361177, 1.267982, 4.55828, 0.2167429, -0.3042093, 0.7570806, 3.598673, 0.2110678, -0.2694122
 234561449, 1.122449, 3.992299, 0.2155373, -0.2828463, 1.267982, 4.55828, 0.2167429, -0.3042093
 234761174, 1.135205, 4.049909, 0.214655, -0.2859977, 1.122449, 3.992299, 0.2155373, -0.2828463
 234961194, 1.145254, 4.045287, 0.2143012, -0.2866885, 1.135205, 4.049909, 0.214655, -0.2859977
 235161183, 1.458263, 4.481193, 0.207408, -0.3111209, 1.145254, 4.045287, 0.2143012, -0.2866885
 235361178, 1.608118, 4.218694, 0.1989461, -0.3095383, 1.458263, 4.481193, 0.207408, -0.3111209
 235561188, 1.50587, 3.823526, 0.2001237, -0.2997225, 1.608118, 4.218694, 0.1989461, -0.3095383
 235761165, 0.537098, 2.176254, 0.2017317, -0.2522689, 1.50587, 3.823526, 0.2001237, -0.2997225
 235961199, -0.1528057, 1.264256, 0.206531, -0.238079, 0.537098, 2.176254, 0.2017317, -0.2522689
 236161178, -0.325986, 1.108328, 0.2147278, -0.2387161, -0.1528057, 1.264256, 0.206531, -0.238079
 236341693, -0.9860007, 0.3885633, 0.2215987, -0.2354032, -0.325986, 1.108328, 0.2147278, -0.2387161
 236541696, -1.151776, 0.4116204, 0.2227885, -0.2410558, -0.9860007, 0.3885633, 0.2215987, -0.2354032
 236741542, -1.377277, 0.4066699, 0.2251057, -0.2467233, -1.151776, 0.4116204, 0.2227885, -0.2410558
 236961183, -1.445563, 0.2676217, 0.2251166, -0.2478922, -1.377277, 0.4066699, 0.2251057, -0.2467233
 237161181, -2.687068, -0.3514219, 0.2519958, -0.2471922, -1.445563, 0.2676217, 0.2251166, -0.2478922
 237341667, -2.363053, -0.4551883, 0.2441527, -0.2448967, -2.687068, -0.3514219, 0.2519958, -0.2471922
 237561283, -2.265957, -0.5175337, 0.2420627, -0.2426992, -2.363053, -0.4551883, 0.2441527, -0.2448967
 237761379, -1.892577, -0.7270654, 0.2289174, -0.2455501, -2.265957, -0.5175337, 0.2420627, -0.2426992
 237961196, -2.415269, -1.242324, 0.2362046, -0.2515652, -1.892577, -0.7270654, 0.2289174, -0.2455501
 238161392, -2.460191, -1.320146, 0.2367017, -0.2482345, -2.415269, -1.242324, 0.2362046, -0.2515652
 238361181, -2.824353, -1.778377, 0.2448702, -0.2512226, -2.460191, -1.320146, 0.2367017, -0.2482345
 238561197, -2.763491, -2.101238, 0.2418263, -0.2513952, -2.824353, -1.778377, 0.2448702, -0.2512226
 238761190, -2.739322, -2.071567, 0.2386297, -0.2487913, -2.763491, -2.101238, 0.2418263, -0.2513952
 238961197, -2.678544, -1.988611, 0.2361431, -0.2435128, -2.739322, -2.071567, 0.2386297, -0.2487913
 239161193, -2.743026, -1.763921, 0.2366941, -0.2383206, -2.678544, -1.988611, 0.2361431, -0.2435128
 239361171, -2.19082, -1.187413, 0.2218578, -0.2285257, -2.743026, -1.763921, 0.2366941, -0.2383206
 239561181, -2.150398, -1.178813, 0.2191908, -0.2275919, -2.19082, -1.187413, 0.2218578, -0.2285257
 239761179, -1.950848, -1.238193, 0.2141299, -0.22559, -2.150398, -1.178813, 0.2191908, -0.2275919
 239941615, -1.903037, -0.7785863, 0.213107, -0.2184463, -1.950848, -1.238193, 0.2141299, -0.22559
 240161176, -1.821261, -0.7605548, 0.2078824, -0.2179718, -1.903037, -0.7785863, 0.213107, -0.2184463
 240361151, -1.755324, -0.7258362, 0.2037346, -0.2167476, -1.821261, -0.7605548, 0.2078824, -0.2179718
 240561196, -1.439948, -0.6376585, 0.1958397, -0.2155078, -1.755324, -0.7258362, 0.2037346, -0.2167476
 240761162, -1.421465, -0.5239906, 0.1950915, -0.2141232, -1.439948, -0.6376585, 0.1958397, -0.2155078
 240961391, -1.324077, -0.5013214, 0.1933242, -0.2127316, -1.421465, -0.5239906, 0.1950915, -0.2141232
 241161146, -0.7339641, -0.1828769, 0.1847996, -0.2108871, -1.324077, -0.5013214, 0.1933242, -0.2127316
 241361178, -0.5827664, 0.4182358, 0.1819614, -0.2118693, -0.7339641, -0.1828769, 0.1847996, -0.2108871
 241561189, -0.6525412, 0.3640961, 0.1814859, -0.2116913, -0.5827664, 0.4182358, 0.1819614, -0.2118693
 241761392, -0.8258182, -0.01652539, 0.1825911, -0.2106761, -0.6525412, 0.3640961, 0.1814859, -0.2116913
 241961402, -0.4800005, -0.117595, 0.1791967, -0.210828, -0.8258182, -0.01652539, 0.1825911, -0.2106761
 242161187, -0.4812248, -0.009841307, 0.1805525, -0.2118725, -0.4800005, -0.117595, 0.1791967, -0.210828
 242361175, -0.4604218, -0.004749295, 0.183449, -0.2127875, -0.4812248, -0.009841307, 0.1805525, -0.2118725
 242561180, -0.6045002, 0.1626979, 0.1864971, -0.2140533, -0.4604218, -0.004749295, 0.183449, -0.2127875
 242761182, -0.06452025, 0.5247854, 0.1849978, -0.2182817, -0.6045002, 0.1626979, 0.1864971, -0.2140533
 242961204, -0.07121689, 0.5263084, 0.1864433, -0.220878, -0.06452025, 0.5247854, 0.1849978, -0.2182817
 243161175, 0.1509598, 0.3792621, 0.187852, -0.2226074, -0.07121689, 0.5263084, 0.1864433, -0.220878
 243361184, 0.1100788, 0.2658355, 0.1882554, -0.2230844, 0.1509598, 0.3792621, 0.187852, -0.2226074
 243561414, -0.05757185, 0.2091405, 0.188595, -0.2232374, 0.1100788, 0.2658355, 0.1882554, -0.2230844
 243761177, -0.2480453, 0.3118189, 0.1884283, -0.2230232, -0.05757185, 0.2091405, 0.188595, -0.2232374
 243961206, -0.5903693, -0.8343539, 0.1894279, -0.2278095, -0.2480453, 0.3118189, 0.1884283, -0.2230232
 244161184, -0.653441, -0.9235313, 0.1892754, -0.2312562, -0.5903693, -0.8343539, 0.1894279, -0.2278095
 244361184, -0.6884596, -0.891988, 0.1920595, -0.230998, -0.653441, -0.9235313, 0.1892754, -0.2312562
 244561205, -0.5667186, -0.2792172, 0.1926732, -0.2275246, -0.6884596, -0.891988, 0.1920595, -0.230998
 244761171, -0.8936188, -0.9959193, 0.1968035, -0.2339102, -0.5667186, -0.2792172, 0.1926732, -0.2275246
 244961184, -0.916273, -1.027225, 0.1999746, -0.2362086, -0.8936188, -0.9959193, 0.1968035, -0.2339102
 245161384, -1.105672, -1.231767, 0.2057148, -0.2394277, -0.916273, -1.027225, 0.1999746, -0.2362086
 245361423, -0.9311135, -1.301144, 0.2059743, -0.2410367, -1.105672, -1.231767, 0.2057148, -0.2394277
 245561193, -0.9675609, -1.287874, 0.2090914, -0.2432031, -0.9311135, -1.301144, 0.2059743, -0.2410367
 245761192, -0.9736469, -1.302402, 0.2096083, -0.2457213, -0.9675609, -1.287874, 0.2090914, -0.2432031
 245961198, -1.052639, -1.316206, 0.2104524, -0.2479132, -0.9736469, -1.302402, 0.2096083, -0.2457213
 246161388, -1.028825, -1.342664, 0.2107144, -0.2491069, -1.052639, -1.316206, 0.2104524, -0.2479132
 246361169, -0.9893402, -1.349513, 0.212261, -0.2482587, -1.028825, -1.342664, 0.2107144, -0.2491069
 246561186, -0.8548065, -1.640627, 0.2109744, -0.2535694, -0.9893402, -1.349513, 0.212261, -0.2482587
 246761177, -0.8862199, -1.39283, 0.2130627, -0.2496661, -0.8548065, -1.640627, 0.2109744, -0.2535694
 246961197, -0.8444171, -1.346285, 0.212665, -0.2491046, -0.8862199, -1.39283, 0.2130627, -0.2496661
 247161392, -0.8862793, -1.160669, 0.2140991, -0.2470444, -0.8444171, -1.346285, 0.212665, -0.2491046
 247341670, -0.2668467, -0.7588741, 0.2113641, -0.242411, -0.8862793, -1.160669, 0.2140991, -0.2470444
 247541558, -0.2781877, -0.8014416, 0.2091168, -0.2433823, -0.2668467, -0.7588741, 0.2113641, -0.242411
 247741581, -0.4390861, -0.8400836, 0.2094387, -0.2439858, -0.2781877, -0.8014416, 0.2091168, -0.2433823
 247941588, -0.395066, -0.7964503, 0.209018, -0.2419392, -0.4390861, -0.8400836, 0.2094387, -0.2439858
 248141529, -0.3256237, -0.7453856, 0.2080539, -0.2389389, -0.395066, -0.7964503, 0.209018, -0.2419392
 248361174, -0.2618653, -0.6702062, 0.2053193, -0.2367655, -0.3256237, -0.7453856, 0.2080539, -0.2389389
 248561186, -0.09662171, -0.4827139, 0.2032286, -0.2359741, -0.2618653, -0.6702062, 0.2053193, -0.2367655
 248761186, -0.07807221, -0.7682806, 0.2003741, -0.2393288, -0.09662171, -0.4827139, 0.2032286, -0.2359741
 248961412, -0.07829621, -0.6747215, 0.1990523, -0.2386184, -0.07807221, -0.7682806, 0.2003741, -0.2393288
 249161188, 0.02131105, -0.1499351, 0.1987951, -0.235779, -0.07829621, -0.6747215, 0.1990523, -0.2386184
 249361380, -0.3482938, -0.2074958, 0.2003231, -0.2349927, 0.02131105, -0.1499351, 0.1987951, -0.235779
 249561289, -0.3750957, -0.2242813, 0.2002036, -0.2338195, -0.3482938, -0.2074958, 0.2003231, -0.2349927
 249761178, -0.3234326, -0.1472853, 0.20121, -0.232703, -0.3750957, -0.2242813, 0.2002036, -0.2338195
 249961289, -0.01313706, 0.4531811, 0.2003908, -0.2330412, -0.3234326, -0.1472853, 0.20121, -0.232703
 250161180, -0.02803922, 0.3894382, 0.2005921, -0.2327982, -0.01313706, 0.4531811, 0.2003908, -0.2330412
 250341547, 0.004292205, 0.4888526, 0.2005294, -0.23459, -0.02803922, 0.3894382, 0.2005921, -0.2327982
 250561197, 0.01064228, 0.9218792, 0.1992334, -0.2376683, 0.004292205, 0.4888526, 0.2005294, -0.23459
 250761395, -0.0711262, 1.401798, 0.2004252, -0.2425098, 0.01064228, 0.9218792, 0.1992334, -0.2376683
 250961192, -0.08570638, 1.392854, 0.2010786, -0.2411642, -0.0711262, 1.401798, 0.2004252, -0.2425098
 251161155, -0.08191966, 1.446151, 0.2010989, -0.2395882, -0.08570638, 1.392854, 0.2010786, -0.2411642
 251341538, 0.3458372, 1.655733, 0.2002587, -0.2437986, -0.08191966, 1.446151, 0.2010989, -0.2395882
 251561191, 0.3963252, 1.752508, 0.2002492, -0.244008, 0.3458372, 1.655733, 0.2002587, -0.2437986
 251761179, 0.4021723, 1.787302, 0.1995083, -0.2428003, 0.3963252, 1.752508, 0.2002492, -0.244008
 251961199, 0.4300121, 2.092933, 0.1985845, -0.2481277, 0.4021723, 1.787302, 0.1995083, -0.2428003
 252161169, 0.2854088, 2.64036, 0.1964933, -0.2604555, 0.4300121, 2.092933, 0.1985845, -0.2481277
 252361175, 0.3356212, 2.692269, 0.1953823, -0.2612807, 0.2854088, 2.64036, 0.1964933, -0.2604555
 252561414, 0.7602968, 2.973559, 0.1959878, -0.2686207, 0.3356212, 2.692269, 0.1953823, -0.2612807
 252761184, 0.6986197, 2.862998, 0.1967114, -0.2641945, 0.7602968, 2.973559, 0.1959878, -0.2686207
 252941551, 0.7567505, 2.876284, 0.1968505, -0.2650804, 0.6986197, 2.862998, 0.1967114, -0.2641945
 253161177, 0.6859179, 2.918931, 0.1962485, -0.26704, 0.7567505, 2.876284, 0.1968505, -0.2650804
 253361175, 0.4149381, 3.228024, 0.1952192, -0.2764568, 0.6859179, 2.918931, 0.1962485, -0.26704
 253561396, 0.4670581, 3.231032, 0.1957217, -0.2775145, 0.4149381, 3.228024, 0.1952192, -0.2764568
 253761147, 0.4533754, 3.148588, 0.1973171, -0.2763305, 0.4670581, 3.231032, 0.1957217, -0.2775145
 253961187, 0.7039081, 2.487768, 0.2014578, -0.2594605, 0.4533754, 3.148588, 0.1973171, -0.2763305
 254161178, 0.6665565, 2.789477, 0.2010747, -0.2692268, 0.7039081, 2.487768, 0.2014578, -0.2594605
 254361387, 0.704449, 2.733691, 0.2012382, -0.2691431, 0.6665565, 2.789477, 0.2010747, -0.2692268
 254561403, 0.9686579, 2.656951, 0.2040405, -0.269308, 0.704449, 2.733691, 0.2012382, -0.2691431
 254761162, 0.2808117, 2.298256, 0.2016298, -0.2605025, 0.9686579, 2.656951, 0.2040405, -0.269308
 254961181, 0.3022224, 2.247583, 0.2038779, -0.260304, 0.2808117, 2.298256, 0.2016298, -0.2605025
 255161180, 0.3690809, 2.207244, 0.2061678, -0.2606216, 0.3022224, 2.247583, 0.2038779, -0.260304
 255361195, 0.8117043, 2.21313, 0.2093978, -0.2621501, 0.3690809, 2.207244, 0.2061678, -0.2606216
 255561196, 0.3172371, 2.061556, 0.2072284, -0.2594135, 0.8117043, 2.21313, 0.2093978, -0.2621501
 255761189, 0.3295797, 2.007835, 0.2078689, -0.2582891, 0.3172371, 2.061556, 0.2072284, -0.2594135
 255961200, 0.4203019, 1.642171, 0.2102713, -0.251768, 0.3295797, 2.007835, 0.2078689, -0.2582891
 256161404, 0.7535451, 2.04504, 0.2119291, -0.259771, 0.4203019, 1.642171, 0.2102713, -0.251768
 256361178, 0.7617169, 2.032169, 0.2117568, -0.2601024, 0.7535451, 2.04504, 0.2119291, -0.259771
 256541564, 0.6567254, 1.947451, 0.2107416, -0.2588039, 0.7617169, 2.032169, 0.2117568, -0.2601024
 256761181, 0.6217027, 1.896132, 0.2105118, -0.258828, 0.6567254, 1.947451, 0.2107416, -0.2588039
 256941576, 0.5772592, 1.893389, 0.2108052, -0.258139, 0.6217027, 1.896132, 0.2105118, -0.258828
 257141595, 0.5472804, 1.86476, 0.2101516, -0.2581778, 0.5772592, 1.893389, 0.2108052, -0.258139
 257341734, 0.5583828, 1.870165, 0.2106042, -0.2580966, 0.5472804, 1.86476, 0.2101516, -0.2581778
