TimeUS,CAN,CAE,CAD,CAe
 85574919, -0.01752057, 0.003261958, -0.0002609048, 0.009064239
 85740068, -0.02045191, 0.00338104, -7.252756E-05, 0.01043804
 85789341, -0.01834625, 0.00294362, -0.0007747926, 0.009298753
 85843904, -0.01980931, 0.003299298, -0.0003623928, 0.01022937
 85898874, -0.01991405, 0.003538527, -0.0003811732, 0.01022788
 85954013, -0.01952508, 0.003425835, -0.0004693991, 0.01022863
 86008876, -0.02018571, 0.00363642, -0.0001521753, 0.01022956
 86064350, -0.0194788, 0.003708156, -0.0006866612, 0.0102277
 86118889, -0.02020771, 0.00340873, -0.0005424385, 0.01022974
 86173903, -0.01972777, 0.002946663, -0.0002670938, 0.01022788
 86228881, -0.01955433, 0.00352996, -0.0001944998, 0.01022826
 86283896, -0.01961839, 0.003299501, -0.0004502415, 0.01022863
 86333897, -0.01756781, 0.003238508, -0.0007151448, 0.009299682
 86389649, -0.01998134, 0.003806782, 0.0001381466, 0.0102277
 86443882, -0.01962394, 0.003803927, 5.512821E-06, 0.01022863
 86498894, -0.01940671, 0.002892462, -0.0003600994, 0.010229
 86553914, -0.01993723, 0.004121934, -0.0005712155, 0.01022826
 86608889, -0.01974315, 0.002866551, -5.941401E-05, 0.01022863
 86664347, -0.01956178, 0.003775935, 0.0003595843, 0.01022919
 86718985, -0.02001465, 0.0037312, -0.0009781916, 0.01022807
 86773888, -0.01945173, 0.00349051, -0.000819563, 0.01022863
 86828857, -0.02010787, 0.003862283, -0.0009673147, 0.01022863
 86883905, -0.01974848, 0.003479435, -0.0009853294, 0.01022863
 86933862, -0.01761902, 0.003397574, -0.0003513473, 0.009298754
 86990002, -0.01973768, 0.003608819, -1.807817E-05, 0.01022844
 87044095, -0.01984294, 0.003250752, 0.0001218035, 0.01022881
 87098896, -0.02034308, 0.002919136, -2.470769E-05, 0.01023011
 87153898, -0.01941953, 0.003503658, 2.63664E-05, 0.01022751
 87208876, -0.01995829, 0.002783998, -0.0008714889, 0.01022826
 87264320, -0.01989421, 0.003499028, 7.729184E-05, 0.01022863
 87318889, -0.0196854, 0.003362154, 2.228084E-05, 0.010229
 87373891, -0.01912946, 0.003438415, -0.0002132802, 0.01022826
 87428871, -0.01950494, 0.003672124, -0.0003821424, 0.010229
 87483997, -0.01977579, 0.003520986, -6.39284E-05, 0.01022844
 87533984, -0.01817289, 0.003101134, -0.0004296958, 0.009298939
 87589713, -0.01985884, 0.003733419, -3.328698E-05, 0.01022826
 87643911, -0.02001707, 0.003693926, -0.0001778683, 0.010229
 87698892, -0.01931599, 0.002894087, -0.0005528725, 0.01022826
 87754009, -0.01966737, 0.003124021, 0.0006322714, 0.01022863
 87808873, -0.01996081, 0.003406897, 0.0006108758, 0.01022844
 87864392, -0.01963757, 0.003136086, -0.0002547469, 0.01022882
 87918870, -0.01970954, 0.003021403, -0.0002621365, 0.01022863
 87973883, -0.01966491, 0.003254225, -0.0006475464, 0.01022863
 88028905, -0.01979589, 0.003032831, -0.0002956829, 0.01022863
 88078896, -0.01796649, 0.002767026, 7.638001E-05, 0.009298753
 88133917, -0.0197439, 0.002965892, 7.088872E-05, 0.01022863
 88189637, -0.02029675, 0.002716749, -0.0007051829, 0.01022919
 88243892, -0.02025445, 0.003410554, -0.0005162379, 0.01022993
 88298896, -0.01963842, 0.003371952, 5.159654E-05, 0.01022714
 88354088, -0.02028336, 0.003100443, -0.0004791923, 0.01022826
 88409082, -0.01965507, 0.002944347, -0.001644557, 0.01023012
 88464308, -0.02017991, 0.002854235, -0.001014169, 0.01022714
 88518991, -0.02036057, 0.003673922, -0.0002715417, 0.01023068
 88573897, -0.0199444, 0.0031375, -0.0003829925, 0.01022714
 88628886, -0.01952279, 0.00305094, -0.001035953, 0.01022807
 88678875, -0.01775517, 0.003278296, -0.0006900636, 0.009299126
 88733887, -0.01951041, 0.003563921, -0.0001617139, 0.01023012
 88789836, -0.01962633, 0.002896732, 5.417202E-05, 0.01022733
 88843886, -0.01988431, 0.003050586, -0.0001575312, 0.01022807
 88898857, -0.01966567, 0.003109809, 0.0002311195, 0.01022863
 88953943, -0.01993062, 0.003141968, -0.00106248, 0.01022863
 89008866, -0.01993185, 0.003328703, -0.0007581072, 0.01022974
 89064366, -0.01994639, 0.003237752, -0.0007509559, 0.01022751
 89118878, -0.01994717, 0.003096775, -0.0004474842, 0.01022956
 89173892, -0.01954581, 0.003280261, -0.000888956, 0.01022807
 89224027, -0.01418955, 0.002950771, -4.836812E-05, 0.009298938
 89278900, -0.02583443, 0.003241627, -0.0007724775, 0.01022807
 89333909, -0.01870058, 0.002141017, 0.001215639, 0.01022919
 89389631, -0.01905937, 0.004375749, -0.00143374, 0.01022807
 89443890, -0.01905358, 0.003649134, 0.0001183565, 0.01023012
 89498892, -0.0208281, 0.002609103, 0.0001559372, 0.01022714
 89554026, -0.02000094, 0.003853401, -0.0004996755, 0.01022863
 89608911, -0.01857311, 0.002843626, 0.0001169451, 0.01022863
 89664354, -0.02182465, 0.003020147, -0.0008192154, 0.01022863
 89718944, -0.01690259, 0.001728024, 0.001397434, 0.01022919
 89768883, -0.02218615, 0.004942661, -0.006417486, 0.009302473
 89824344, -0.02124889, 0.002242511, -0.002691417, 0.01022565
 89878920, -0.006836954, 0.001389066, 0.01266558, 0.01022863
 89933911, -0.0295073, 0.005780437, -0.005629522, 0.0102277
 89989645, -0.02141427, 0.002822555, -0.0007296155, 0.01023012
 90043982, -0.01886832, 0.00414822, -0.001310176, 0.01022807
 90098889, -0.01933201, 0.002654633, -0.0002722056, 0.01022863
 90153995, -0.01880819, 0.004082325, -0.0007323381, 0.01022863
 90208906, -0.01999856, 0.003742669, -0.0004668206, 0.01022919
 90264332, -0.02026368, 0.002375727, 0.0004682677, 0.01022677
 90318937, -0.02020997, 0.001982495, -0.0001666755, 0.01023067
 90368871, -0.01707807, 0.003162954, -0.001012977, 0.00929838
 90424077, -0.0189798, 0.003351586, -0.0004763495, 0.01022695
 90478872, -0.02026643, 0.004062809, -0.0004261421, 0.01022863
 90533983, -0.02006758, 0.003015909, -0.000243687, 0.01022919
 90589816, -0.01978994, 0.002749835, -0.0002668222, 0.01022807
 90643892, -0.0198271, 0.003134083, 0.0003019574, 0.01023179
 90698888, -0.02051921, 0.002428168, 0.0008506913, 0.01022584
 90753921, -0.01937532, 0.004070053, -0.002795655, 0.01022826
 90808887, -0.01979239, 0.003524266, -0.0009809479, 0.01022863
 90864377, -0.01741405, 0.004024051, 0.001047415, 0.01022863
 90914341, -0.01942175, 0.002719589, -0.0001557414, 0.009298753
 90968893, -0.02025682, 0.002800679, 0.001085043, 0.01022863
 91024034, -0.02014112, 0.002940348, -1.019338E-05, 0.01022863
 91078991, -0.01976486, 0.003382608, -0.00252634, 0.01023049
 91133916, -0.01908625, 0.003398255, -0.001471143, 0.010229
 91189783, -0.01787067, 0.003720153, -0.0003566542, 0.01022695
 91243997, -0.01834112, 0.003415086, -0.0003508201, 0.01022919
 91298892, -0.02113719, 0.002582287, -6.384728E-05, 0.01022789
 91354004, -0.02072832, 0.002255327, 0.0001444934, 0.01022826
 91408899, -0.01885421, 0.003261621, -0.0008818342, 0.01022863
 91464337, -0.02042627, 0.003686165, -0.0007442564, 0.01022863
 91514357, -0.01489952, 0.003016906, -0.000782456, 0.009298753
 91568884, -0.02072744, 0.003861721, 0.0003668066, 0.01022863
 91624338, -0.02078934, 0.002569034, -0.0005844281, 0.01022919
 91678890, -0.02120116, 0.00308762, -0.0004798039, 0.01022807
 91733891, -0.02023066, 0.002726462, -2.395225E-05, 0.01022863
 91789691, -0.01861729, 0.00347947, -0.0001295077, 0.01022919
 91843894, -0.01843641, 0.003166189, -0.001205382, 0.01022956
 91898897, -0.01753697, 0.002798656, 0.0002363893, 0.01022714
 91953987, -0.01940142, 0.002972413, 0.000695454, 0.01022863
 92008877, -0.02060783, 0.003872443, -0.001009285, 0.010229
 92064361, -0.02013892, 0.003602574, -0.0007733101, 0.01022826
 92114362, -0.01763887, 0.002189141, -3.718614E-05, 0.009300427
 92168886, -0.01966085, 0.001901428, 0.0004084033, 0.01022733
 92224088, -0.0187529, 0.002336461, -0.000831222, 0.01024258
 92278887, -0.01956348, 0.003289583, -0.0008708591, 0.01021728
 92333900, -0.020097, 0.004067707, -0.001864016, 0.01022695
 92389791, -0.02039753, 0.003126698, 5.254784E-05, 0.010229
 92443882, -0.01928319, 0.002750027, 0.0003852402, 0.01022733
 92498890, -0.02011257, 0.003024478, 0.000372055, 0.01022826
 92554109, -0.01928351, 0.002405464, 0.0003776719, 0.01022956
 92609001, -0.0197338, 0.002861631, 8.076153E-06, 0.0102277
 92664338, -0.01959059, 0.003036337, 0.000143605, 0.01022844
 92714471, -0.01707225, 0.003325626, -0.0005188651, 0.009298939
 92768879, -0.02005971, 0.002980513, -0.0002939186, 0.01022919
 92824091, -0.01928472, 0.002309021, -0.0002236061, 0.01022807
 92878894, -0.01992237, 0.002843644, -0.0004005142, 0.01022956
 92933895, -0.01984465, 0.002783849, 0.0009913968, 0.01022807
 92989643, -0.01935016, 0.00328925, -0.002086471, 0.01022863
 93043996, -0.01979503, 0.003613688, -0.001322076, 0.01022826
 93098900, -0.019558, 0.002967661, -4.468954E-05, 0.01022863
 93154027, -0.01864491, 0.003659329, -3.652033E-05, 0.010229
 93208889, -0.01957262, 0.002985376, -0.0003174282, 0.01022826
 93264339, -0.02013689, 0.003496112, -0.000936557, 0.01022863
 93314383, -0.01826121, 0.003149212, 0.000649524, 0.009298753
 93368897, -0.01882961, 0.00310888, 6.515675E-05, 0.01022863
 93424257, -0.01988004, 0.002762843, -7.704191E-05, 0.01022863
 93478884, -0.01806096, 0.002835501, 0.001525182, 0.01022863
 93533988, -0.02013089, 0.003056353, -0.001219851, 0.01023049
 93589715, -0.01996332, 0.003641511, -0.0005584568, 0.01022733
 93643905, -0.0194067, 0.003178622, -0.001370036, 0.01022789
 93698887, -0.02107747, 0.003174136, -0.001279976, 0.01022937
 93754007, -0.01965262, 0.002801775, 0.0005666554, 0.01022807
 93808891, -0.01813896, 0.003812334, -0.000405966, 0.01022863
 93864349, -0.01869716, 0.002629808, -0.0008720157, 0.01022863
 93918994, -0.01945428, 0.002661684, 0.000231677, 0.0102303
 93968878, -0.01858775, 0.003233244, -0.0004893304, 0.009297451
 94024162, -0.02048776, 0.00380068, -0.0006079915, 0.01022826
 94081570, -0.02042586, 0.003622961, 0.000251214, 0.01069617
 94136577, -0.01942137, 0.003154231, 0.0007430947, 0.01022937
 94186555, -0.01615389, 0.001549338, 0.0004126002, 0.009296707
 94241554, -0.01934215, 0.00295726, -0.0007948257, 0.01022733
 94296587, -0.01961592, 0.003091716, -0.0001938676, 0.01022863
 94351849, -0.01990732, 0.003173738, -0.0006092091, 0.01022863
 94406568, -0.02010776, 0.00292574, -4.849941E-05, 0.01022863
 94461519, -0.01970077, 0.003202603, 0.0003498372, 0.01022863
 94516549, -0.01775616, 0.0036677, -0.0007388981, 0.01022863
 94571739, -0.01869443, 0.003198635, 0.0005537986, 0.01022956
 94626958, -0.0202252, 0.00323673, -0.0001816726, 0.01022789
 94681584, -0.02199349, 0.002547847, 0.0006285211, 0.01022974
 94736581, -0.01689213, 0.003628402, -0.00060139, 0.01022863
 94791603, -0.02211506, 0.002331685, -0.001026755, 0.01022919
 94841693, -0.01663982, 0.003298537, -0.001756606, 0.009298195
 94896592, -0.01765476, 0.003675054, 0.001185553, 0.01022956
 94951913, -0.02316136, 0.001216738, -1.583985E-05, 0.0102277
 95006587, -0.02131198, 0.003300209, -0.0004821253, 0.01022881
 95061603, -0.01466241, 7.049798E-05, -0.001116703, 0.01022863
 95116594, -0.01917826, -0.009327109, -0.005058961, 0.01022844
 95171601, -0.02291862, 0.01063769, 0.0002199939, 0.01022881
 95226951, -0.0208847, -0.005065887, -0.01161628, 0.01022844
 95281585, -0.01936646, 0.0001535756, -0.002671229, 0.0102277
 95336770, -0.0178255, -0.01349895, -0.01740436, 0.01022826
 95386582, -0.01343003, -0.01927886, -0.01535648, 0.009298753
 95441682, -0.04092628, -0.02211776, -0.02027156, 0.01022881
 95491585, -0.01983976, -0.05319506, -0.003393571, 0.009298567
 95546725, -0.02512539, -0.0493523, -0.05527487, 0.01023086
 95602109, -0.0658592, -0.0467521, -0.04910202, 0.0102277
 95656564, -0.0323481, -0.098874, 0.0100937, 0.01022956
 95711591, -0.06803687, -0.02872797, -0.1223865, 0.0102277
 95761580, -0.06563755, -0.0628169, -0.02169487, 0.009298753
 95816578, -0.0741301, -0.05346039, -0.01058616, 0.010229
 95871600, -0.1014675, 0.003326394, -0.03621196, 0.01022937
 95926917, -0.09265734, -0.05414, 0.02623216, 0.01022751
 95981580, -0.1130797, -0.00995336, -0.03128336, 0.01022919
 96036677, -0.1259933, 0.01568593, -0.02645506, 0.0102316
 96091615, -0.1159458, -0.04252498, 0.03345095, 0.01022509
 96146757, -0.120338, 0.03503152, -0.05306311, 0.01022863
 96201920, -0.1307733, 0.006063143, -0.003904914, 0.01022863
 96251886, -0.09803662, -0.01120776, -0.01510018, 0.009298939
 96306567, -0.09744428, 0.05703554, -0.07211413, 0.0102303
 96361568, -0.09742877, -0.009695863, 0.02990717, 0.01022695
 96416617, -0.061824, 0.02455614, -0.03561816, 0.01023179
 96471592, -0.08991753, 0.05777384, -0.05792549, 0.01022528
 96526936, -0.0603018, -0.00573411, 0.009670965, 0.01022881
 96581583, -0.04772718, 0.07143467, -0.04920032, 0.01022956
 96636601, -0.07249624, 0.03851695, -0.004088553, 0.01022826
 96691577, -0.0286053, 0.02829693, 0.001150988, 0.01022807
 96746597, -0.05800125, 0.0903185, -0.03091787, 0.01023012
 96796603, -0.04335654, 0.01409888, 0.02284961, 0.009297824
 96851898, -0.01698399, 0.08190433, -0.03621272, 0.01022807
 96906587, -0.05698905, 0.0582951, -0.005930521, 0.01023198
 96961587, -0.004038095, 0.03547634, 0.0123471, 0.01022509
 97016705, -0.02924344, 0.08693904, -0.01038963, 0.01022937
 97071714, -0.03039387, 0.02489621, 0.04665564, 0.01022844
 97127059, 0.004786845, 0.04128725, 0.01140546, 0.01022974
 97181620, -0.02245424, 0.06083985, 0.006337146, 0.01022696
 97236569, -0.005582864, -0.006806103, 0.0566496, 0.01022881
 97286587, 0.01974124, 0.0377527, -0.009201173, 0.009298567
 97341585, -0.01332493, 0.003240078, 0.02337597, 0.01022863
 97396577, 0.0317166, -0.0263298, 0.04988408, 0.01022919
 97452118, 0.01138585, 0.01984544, 0.01999967, 0.01022919
 97506572, 0.01645927, -0.04294885, 0.07191288, 0.0102277
 97561599, 0.03907096, -0.03104428, 0.04830359, 0.01022844
 97616574, 0.02083218, -0.01061233, 0.03838185, 0.01022863
 97671577, 0.03635811, -0.07242669, 0.08445938, 0.01022863
 97726974, 0.05296338, -0.03677746, 0.015609, 0.0102316
 97776959, 0.02246933, -0.05054636, 0.03880134, 0.009296892
 97836542, 0.06039253, -0.09358637, 0.06314511, 0.01115739
 97886575, 0.04730211, -0.03064348, -0.03151471, 0.009298753
 97941577, 0.04844375, -0.09387438, 0.02974255, 0.01022863
 97996576, 0.07109728, -0.08148067, 0.00313283, 0.01022937
 98051991, 0.05686986, -0.0507715, -0.05483415, 0.01022807
 98106540, 0.05824919, -0.1064081, 0.002991124, 0.01022881
 98161599, 0.07663406, -0.08040508, -0.05390012, 0.01022844
 98216604, 0.05647632, -0.0550217, -0.06023947, 0.01022844
 98266574, 0.05395932, -0.1021456, 0.01167575, 0.009300799
 98321575, 0.05770528, -0.05382419, -0.06583135, 0.01022695
 98376967, 0.05147853, -0.0690455, -0.05032931, 0.01022956
 98436788, 0.0626393, -0.08983919, -0.04262384, 0.01115776
 98486623, 0.03732068, -0.03935831, -0.07475852, 0.009298195
 98541736, 0.02434993, -0.04612135, -0.04158407, 0.01022881
 98596595, 0.03832502, -0.0656965, -0.01910618, 0.01022956
 98651989, 0.02792335, -0.02464899, -0.03936967, 0.0102277
 98706587, 0.0211242, -0.03508442, -0.006739316, 0.01022993
 98756736, 0.02698896, -0.05747009, 0.02749454, 0.009297824
 98811565, 0.01425056, -0.0172054, -0.01246222, 0.01022826
 98866554, 0.02455072, -0.05923283, 0.03085092, 0.01023049
 98921583, 0.0318214, -0.05549828, 0.0139786, 0.01022658
 98976957, 0.01695965, -0.02807898, -0.02566466, 0.01022993
 99031604, 0.02642518, -0.07703175, 0.03043216, 0.01022528
 99086596, 0.01993159, -0.04101647, -0.01637712, 0.01023142
 99141584, 0.01038132, -0.0410155, -0.0001419885, 0.01022807
 99191582, 0.02247836, -0.07242599, 0.04014432, 0.009298753
 99246580, 0.007384778, -0.02714333, -0.01688893, 0.01022919
 99301896, 0.01049117, -0.06259591, 0.02386444, 0.01022788
 99356590, 0.01199041, -0.06296592, 0.007161228, 0.01022937
 99411540, -0.002141647, -0.0310839, -0.02215729, 0.01022807
 99466554, 0.004826501, -0.0692954, 0.03388804, 0.01022937
 99521615, 0.001365937, -0.05785128, 0.009062058, 0.0102277
 99577062, -0.01197601, -0.03720051, -0.003418102, 0.01022863
 99631605, 0.003957439, -0.0806689, 0.02812132, 0.01023067
 99686576, -0.001912737, -0.05815427, -0.008892241, 0.01022658
 99736581, -0.008663014, -0.05235912, -0.008968695, 0.009298753
 99791770, 0.007458172, -0.08794929, 0.02492898, 0.01022937
 99846590, -0.01367198, -0.04948322, -0.01788603, 0.01022863
 99901895, -0.002738376, -0.06781301, 0.01963217, 0.01022807
 99956733, 0.007516528, -0.07674889, 0.02716059, 0.01023179
 100011731, -0.01202616, -0.03939392, -0.01784213, 0.01022528
 100066639, 0.002463618, -0.07319126, 0.03000372, 0.01022863
 100121594, 0.00600574, -0.05946139, 0.002139434, 0.01022937
 100177036, 0.0004211467, -0.04303145, -0.02273328, 0.01022789
 100226949, 0.003034487, -0.06111087, 0.009312693, 0.009300613
 100286742, 0.009697836, -0.05786222, -0.007620844, 0.01115664
 100336604, -0.002434696, -0.02781498, -0.02544998, 0.009298753
 100391590, 0.009953836, -0.06217813, 0.02072303, 0.01023309
 100446564, 0.001968442, -0.03298466, -0.02471665, 0.01022807
 100502324, -0.00118588, -0.03182029, -0.007458366, 0.01022472
 100556751, 0.008575905, -0.05211525, 0.01434779, 0.01022863
 100608943, -0.008044852, -0.01807012, -0.03121982, 0.009765177
 100664410, -0.01271369, -0.01738097, -0.003769359, 0.01022714
 100718906, 0.0003502821, -0.03457347, 0.01603741, 0.01023105
 100773902, -0.01556408, 0.001834749, -0.03191816, 0.01022695
 100828995, -0.01335649, -0.008448344, -0.004493411, 0.01022937
 100878892, -0.01198621, -0.00895693, -0.00338996, 0.009297265
 100933987, -0.02130763, 0.0188306, -0.04971712, 0.01022863
 100990718, -0.02832741, 0.01486652, -0.02223566, 0.01022863
 101044333, -0.01886483, 0.01475818, -0.008382243, 0.01022863
 101099116, -0.02955744, 0.0230785, -0.0112173, 0.01023049
 101154106, -0.03649765, 0.04294785, -0.01421471, 0.01022677
 101209291, -0.02126402, 0.02214346, 0.0002318734, 0.01022863
 101264468, -0.03767304, 0.05527275, -0.01424495, 0.01022919
 101319092, -0.0487451, 0.06118621, 0.007685195, 0.01023216
 101369111, -0.04067525, 0.02391286, 0.01898983, 0.009296335
 101424284, -0.0457006, 0.07456674, -0.002432354, 0.01022695
 101481792, -0.04714773, 0.05379912, 0.02870649, 0.01069524
 101534328, -0.04130401, 0.02926736, 0.02964838, 0.009762203
 101590769, -0.03511736, 0.0739355, 0.01657304, 0.01022919
 101644120, -0.04102807, 0.04358929, 0.04302388, 0.01022807
 101699054, -0.02121279, 0.03539398, 0.02624926, 0.01022844
 101754116, -0.02056764, 0.08140057, -0.01360629, 0.01022863
 101809075, -0.0347499, 0.03657822, 0.0348301, 0.01022863
 101859069, -0.000560914, 0.06667248, 0.01233733, 0.009298753
 101914477, -0.02325473, 0.08474573, 0.009551425, 0.01023049
 101969065, -0.02236474, 0.05361513, 0.005958162, 0.01022695
 102024280, 0.00257358, 0.1097913, -0.04119708, 0.01023086
 102081687, -0.04051874, 0.1055007, -0.04065464, 0.01069078
 102134135, -0.02400451, 0.07555719, -0.02689612, 0.009764994
 102190698, -0.03389782, 0.1390225, -0.03930123, 0.0102277
 102244434, -0.07702968, 0.07513274, 0.0135196, 0.01023123
 102299075, -0.04484443, 0.1024744, -0.02050338, 0.01022658
 102349066, -0.08415166, 0.1114158, -0.003878682, 0.009298194
 102404105, -0.077099, 0.06384352, 0.02969444, 0.01022863
 102459074, -0.07133249, 0.1279651, 0.006378402, 0.01022863
 102514657, -0.1006474, 0.07775243, 0.02951005, 0.01022863
 102569088, -0.07359218, 0.08419643, -0.0009072798, 0.01023105
 102624110, -0.09337342, 0.1157186, -0.01247942, 0.01022621
 102681694, -0.09579376, 0.06588376, 0.03145055, 0.01069822
 102734076, -0.05562301, 0.0858179, 0.006748641, 0.009759227
 102784319, -0.0841847, 0.07440098, 0.007691849, 0.009299682
 102839473, -0.05940518, 0.04597546, 0.01647681, 0.01022993
 102899221, -0.06196288, 0.0932415, 0.004596325, 0.01115608
 102949188, -0.07035673, 0.03653319, 0.03912725, 0.009298754
 103004309, -0.0346529, 0.04359194, 0.01465336, 0.01022863
 103059115, -0.04773301, 0.07476301, -0.006710365, 0.0102316
 103114523, -0.05241474, 0.02384926, 0.03173922, 0.01022565
 103169300, -0.0151211, 0.06255969, -0.006765188, 0.01023086
 103219081, -0.04426274, 0.07214644, -0.007508346, 0.009297078
 103274111, -0.02358587, 0.04470794, -0.002470434, 0.01022826
 103329035, -0.02178514, 0.1347536, -0.03914934, 0.01022844
 103384076, -0.04679334, 0.09264604, 0.005676616, 0.01022863
 103439482, -0.01550273, 0.1222722, -0.005851345, 0.01023012
 103494078, -0.03652603, 0.1755337, -0.004815489, 0.01023644
 103549301, -0.04523073, 0.1151566, 0.01833405, 0.01021933
 103604111, -0.01972526, 0.1687045, -0.001532408, 0.01022863
 103659016, -0.0462759, 0.1728902, -0.003973975, 0.01022919
 103709035, -0.02408884, 0.09506759, 0.01538867, 0.009299497
 103764508, -0.0337186, 0.1891409, -0.02274474, 0.01022733
 103819291, -0.04584298, 0.1017053, 0.02866822, 0.01022937
 103874088, -0.02733534, 0.1198873, 0.004503607, 0.01022788
 103929048, -0.0454885, 0.1379828, -0.01544742, 0.01022863
 103984081, -0.04356473, 0.04932657, 0.02245911, 0.01022863
 104039507, -0.03296628, 0.103463, -0.03996641, 0.01023123
 104094124, -0.0493673, 0.07160776, -0.01198629, 0.0102727
 104144121, -0.03367485, 0.01149052, 0.003212627, 0.009252632
 104199090, -0.04027336, 0.0742799, -0.04734061, 0.01022807
 104254087, -0.03863546, -0.007145712, 0.01383237, 0.010229
 104309070, -0.03217807, -0.007166101, -0.01244652, 0.01022826
 104364475, -0.0339214, 0.02173478, -0.03851262, 0.01022863
 104419308, -0.03546448, -0.05876103, 0.02261543, 0.01023049
 104474299, -0.03351557, -0.02095196, -0.05820092, 0.01022677
 104529077, -0.03506712, -0.02021203, -0.02569561, 0.01022974
 104579337, -0.03059396, -0.06937472, 0.03952189, 0.009297638
 104634114, -0.03210544, -0.006134775, -0.03830313, 0.01022956
 104694073, -0.03005153, -0.04874633, 0.01131014, 0.01116538
 104744109, -0.01665831, -0.05039963, 0.02565697, 0.009290942
 104798980, -0.02576699, 0.005697492, -0.02553144, 0.01022863
 104854314, -0.007383266, -0.05056884, 0.03815633, 0.01023067
 104909084, -0.01511505, -0.01217352, -0.008600897, 0.01022714
 104964496, -0.007967191, 0.006211502, -0.02526181, 0.01022807
 105014484, -0.0008554913, -0.03922722, 0.01926821, 0.009298753
 105069066, -0.01518902, 0.02882791, -0.03889304, 0.01022863
 105124331, 0.006010349, -0.007090683, 0.01680386, 0.0102303
 105179098, -0.01285123, 0.01109917, 0.009070783, 0.01022937
 105234096, -0.008867305, 0.04209955, -0.0106533, 0.01022621
 105286690, 0.005896138, -0.003203351, 0.03132446, 0.009764249
 105344080, -0.03195732, 0.04928111, -0.008921592, 0.01069673
 105399069, 0.004689876, 0.03109531, -0.001177904, 0.01022528
 105449066, -0.01151627, 0.01809768, 0.00717041, 0.009298381
 105504093, -0.02564182, 0.05549207, -0.01196484, 0.01022974
 105559085, 0.01084853, 0.01037436, 0.02574923, 0.01022993
 105614475, -0.02904749, 0.05396559, -0.02209895, 0.01022751
 105669088, -0.003394562, 0.02962977, 0.003699817, 0.01022733
 105724086, -0.004292925, 0.02254849, 0.01254822, 0.01022863
 105779106, -0.02257209, 0.05966536, -0.0241202, 0.01022863
 105834100, 0.003850993, 0.004263856, 0.02623889, 0.010229
 105884103, -0.02015266, 0.04638263, -0.01659567, 0.009298752
 105939843, -0.01028912, 0.03112392, 0.008957333, 0.01029855
 105999525, -0.005260846, 0.01042767, 0.01559606, 0.0111572
 106049681, -0.02758507, 0.05772725, -0.01863606, 0.009296893
 106104538, -0.000591966, 0.008567576, 0.02662061, 0.01022937
 106159694, -0.0207961, 0.02958944, -0.005599838, 0.01023049
 106214847, -0.01789149, 0.04122202, -0.005142346, 0.01022602
 106269517, -0.001887589, -0.006767883, 0.03290964, 0.01022863
 106319526, -0.02329916, 0.03885872, -0.0119636, 0.009298939
 106374503, 0.0009379063, 0.003702536, 0.02339522, 0.01022844
 106429626, -0.01589194, -0.001004596, 0.02745885, 0.01022881
 106487091, -0.02179257, 0.02692878, -0.001167796, 0.0106945
 106539859, 0.003747551, -0.01435661, 0.03664868, 0.009765923
 106594560, -0.02066362, -0.001907023, 0.008620345, 0.01025541
 106649525, -0.01652903, 0.009572257, -0.0006639419, 0.01020166
 106704528, 0.003935248, -0.03127775, 0.03470467, 0.0102264
 106754536, -0.02707177, 0.008841855, -0.009827249, 0.009298009
 106809873, -0.001544284, -0.02292811, 0.02628229, 0.01028926
 106865352, -0.01292339, -0.02086176, 0.02682342, 0.01022956
 106920119, -0.02650483, 0.004485331, 0.001252542, 0.01029093
 106975471, -0.002907008, -0.04052059, 0.02999677, 0.01022547
 107027751, -0.03503267, 0.00180049, -0.01827725, 0.009764993
 107082865, -0.01549416, -0.0222281, 0.006143933, 0.01023216
 107138249, -0.02717564, -0.01690533, 0.01322506, 0.01022807
 107192731, -0.03412655, 0.01582857, -0.01631659, 0.01026229
 107247759, -0.02153566, -0.0332819, 0.0293266, 0.01019218
 107305091, -0.04885571, 0.01832774, 0.004255561, 0.01069301
 107355120, -0.02159614, 0.001755332, 0.01469727, 0.009300054
 107407766, -0.04150026, -0.003240979, 0.02168102, 0.009763691
 107463104, -0.04265524, 0.02786859, -0.007339993, 0.01022789
 107520663, -0.02913202, -0.01642354, 0.03050141, 0.01075996
 107570694, -0.05630359, 0.01918496, -0.009292599, 0.009297823
 107628104, -0.02863257, 0.006474921, 0.004336283, 0.01069338
 107683021, -0.03632168, -0.01225407, 0.02492536, 0.01023086
 107735677, -0.0597827, 0.0172174, -0.01793922, 0.009763318
 107793031, -0.02162975, -0.02630291, 0.0126073, 0.01071198
 107843053, -0.05970675, 0.004591466, -0.0162827, 0.009278482
 107898120, -0.03620433, -0.01809854, 0.006640337, 0.01022863
 107950851, -0.03572725, -0.02129997, 0.004212367, 0.009764249
 108008120, -0.06187834, -0.003983347, -0.02468034, 0.01069654
 108063467, -0.02205406, -0.0560048, 0.01320074, 0.01022528
 108115569, -0.0539926, -0.007022507, -0.03374444, 0.00976555
 108170515, -0.02869988, -0.05745713, 0.02580404, 0.01022863
 108223038, -0.03681671, -0.02458732, -0.01346349, 0.00976276
 108278112, -0.04123496, -0.02895303, 0.0115419, 0.01022956
 108335551, -0.02824933, -0.05684093, 0.03387169, 0.01069152
 108385517, -0.03906133, 0.008403109, -0.02897407, 0.009299497
 108443042, -0.02357733, -0.06209483, 0.03433757, 0.01069357
 108498032, -0.03719329, -0.01048183, -0.02131398, 0.01022788
 108550868, -0.01913788, -0.02830692, 0.01133805, 0.009764435
 108603058, -0.02368558, -0.04447893, 0.01910445, 0.009763133
 108658324, -0.02455319, -0.00899112, -0.015848, 0.01022956
 108715551, -0.00849913, -0.06555124, 0.02906058, 0.01069264
 108770682, -0.02941898, -0.02401577, -0.01629905, 0.010229
 108823042, -0.006348982, -0.03833984, 0.008419582, 0.009764434
 108878042, -0.0149972, -0.05002292, 0.01550796, 0.01022807
 108930564, -0.01868493, -0.01704673, -0.0200702, 0.009763134
 108985560, 0.00997444, -0.06120877, 0.01892389, 0.0102303
 109038488, -0.03207135, -0.03026705, -0.02876119, 0.009837709
 109098274, 0.006220665, -0.04737309, -0.009744592, 0.01077335
 109151830, -0.002656414, -0.05619672, -0.006880151, 0.01030116
 109206815, -0.0260013, -0.02294503, -0.03106564, 0.01023179
 109256737, 0.01733739, -0.05886401, 0.01579105, 0.009295963
 109311919, -0.02335288, -0.02273282, -0.02594882, 0.01022807
 109366793, -0.005794828, -0.04276486, 0.005298865, 0.01023049
 109422265, 0.006915663, -0.04974982, 0.01245703, 0.01022695
 109476815, -0.01316288, -0.01113536, -0.0126053, 0.01022863
 109531845, 0.005805243, -0.05060777, 0.0184382, 0.01022974
 109586820, 0.009630743, -0.03449601, -0.005725491, 0.01022733
 109636906, 0.004461182, -0.008316073, -0.02481755, 0.009301543
 109691779, 0.01454842, -0.05935533, 0.01167803, 0.01022677
 109747365, 0.01843664, -0.01472461, -0.03252775, 0.0102277
 109807001, 0.01832903, -0.01535628, -0.02162718, 0.01115869
 109856816, 0.02810804, -0.05056723, 0.01577607, 0.009302474
 109912126, 0.02331417, -0.01063778, -0.04691856, 0.01030581
 109967187, 0.03251199, -0.02241146, -0.03035613, 0.01022863
 110020051, 0.0282632, -0.04715694, -0.01162393, 0.009765737
 110074707, 0.02690806, 0.006700753, -0.06451967, 0.01022658
 110130106, 0.03840926, -0.04217413, 0.005213816, 0.01030451
 110185105, 0.02067081, -0.01636639, -0.03068319, 0.01022677
 110240082, 0.03645357, -0.0006059401, -0.03984302, 0.01022956
 110290106, 0.03180252, -0.04621725, 0.008585775, 0.009300426
 110345028, 0.02274803, -0.007897506, -0.07554955, 0.01022751
 110402872, 0.04600612, -0.04644431, -0.02747214, 0.01075252
 110452846, 0.001590098, -0.04211585, -0.04875671, 0.009298753
 110508057, 0.01627808, -0.02981321, -0.05785239, 0.01023123
 110562877, 0.02949487, -0.06162193, -0.007014243, 0.01022602
 110618747, -0.01039912, -0.03280067, -0.06138465, 0.01023049
 110673082, 0.04588035, -0.04426707, -0.02187515, 0.01022677
 110727998, 0.01201972, -0.03986883, -0.05696003, 0.0102303
 110782907, 0.01101825, -0.03506386, -0.04724811, 0.01022807
 110838063, 0.05202597, -0.03835915, -0.02679777, 0.01022789
 110888218, -0.008162701, -0.02420791, -0.07396372, 0.009298567
 110943334, 0.04549081, -0.04913016, -0.003053998, 0.01022844
 111002844, 0.01565658, -0.02714722, -0.07038292, 0.01115906
 111052873, -0.004285093, -0.04076507, -0.04144168, 0.009298195
 111108172, 0.02006126, -0.04498743, -0.02963724, 0.01028926
 111163250, -0.04273544, -0.02380304, -0.08931536, 0.01022937
 111216123, 0.006459507, -0.04371924, -0.02251088, 0.00976462
 111271003, -0.04410192, -0.01072024, -0.06301423, 0.0102277
 111325808, -0.03606414, -0.01371332, -0.02813614, 0.01023086
 111380773, -0.008781136, -0.0115772, 0.008869493, 0.01022677
 111435757, -0.0487996, 0.008273861, -0.04051954, 0.01022807
 111492468, -0.001843191, -0.001915638, -0.0008939051, 0.01022881
 111541360, -0.003260983, -0.006395655, -0.01231339, 0.009298009
 111600767, -0.01586952, 0.007891074, -0.03281937, 0.01115906
 111650913, 0.02817748, -0.01301387, 0.02027786, 0.009298567
 111705776, 0.009157793, -0.01552726, -0.02555435, 0.01022826
 111760809, 0.01342863, -0.01313711, -0.01234517, 0.01022881
 111816250, 0.04490454, -0.03222743, 0.02538428, 0.01023086
 111870753, 0.01967232, -0.03961714, -0.02918115, 0.01022695
 111925758, 0.03933888, -0.03572833, -0.006789058, 0.01022937
 111975747, 0.04889114, -0.05237728, 0.01178929, 0.009299682
 112031288, 0.02823443, -0.05945703, -0.0303438, 0.01028461
 112086053, 0.05630472, -0.06629391, 0.01100489, 0.01022919
 112141651, 0.04251445, -0.07944239, -0.01114802, 0.01022788
 112196282, 0.02725663, -0.08425754, -0.03156416, 0.01023625
 112251050, 0.04400878, -0.07984062, 0.007978584, 0.01022268
 112306304, 0.01870718, -0.08761059, -0.01495906, 0.01022714
 112356071, 0.01169042, -0.07731086, -0.002860417, 0.009302101
 112411074, 0.02442063, -0.07579651, 0.01033197, 0.01022509
 112466451, -0.00790579, -0.08527728, -0.01603691, 0.01023105
 112521086, -0.002492595, -0.08179094, 0.005546006, 0.01022621
 112576322, 0.005804228, -0.07096935, 0.01026855, 0.01022919
 112631297, -0.04900509, -0.07605055, -0.02712843, 0.01023086
 112688717, -0.01597475, -0.07739829, 0.013869, 0.01069133
 112741473, -0.04622127, -0.05268554, -0.00351513, 0.009763133
 112792714, -0.06176717, -0.05595932, 0.01110932, 0.009298753
 112846307, -0.03360009, -0.06262014, 0.04222727, 0.01022937
 112901997, -0.1038843, -0.03776548, -0.009043026, 0.01029335
 112956430, -0.05398631, -0.04932747, 0.03128118, 0.01022826
 113008869, -0.07648299, -0.03083079, 0.009488826, 0.009764249
 113064357, -0.1053216, -0.01740141, -0.005965868, 0.0102303
 113121438, -0.06916967, -0.0337093, 0.04619082, 0.01069152
 113176741, -0.08492737, -0.00861883, 0.02436185, 0.01022826
 113226736, -0.09692524, 0.007467672, 0.01252421, 0.009299125
 113281448, -0.05200446, -0.01054969, 0.04955192, 0.010229
 113336400, -0.09421965, 0.04277794, -0.01042078, 0.01022974
 113391423, -0.07479408, 0.01324491, 0.02239657, 0.01022695
 113446420, -0.04564285, 0.02715895, 0.01643412, 0.01022863
 113503048, -0.09646411, 0.06605137, -0.04726222, 0.01022844
 113556429, -0.06280249, 0.01744519, 0.01263504, 0.01022882
 113611629, -0.05780714, 0.05856979, -0.008661874, 0.01022993
 113661429, -0.09796149, 0.03947296, -0.00666534, 0.009298567
 113716548, -0.052589, 0.0145007, 0.02722083, 0.01023011
 113771546, -0.09475108, 0.06150018, -0.01985396, 0.01022603
 113826702, -0.09685294, 0.009741134, 0.02184273, 0.01022881
 113881627, -0.07054931, 0.01515344, 0.03266595, 0.01022919
 113936412, -0.1191607, 0.04179498, 0.01084448, 0.01022789
 113991430, -0.0878098, -0.02216823, 0.05593501, 0.01022863
 114046444, -0.09235242, 0.02746013, 0.007060481, 0.01023012
 114096434, -0.1084267, -0.005211099, 0.03606188, 0.00929801
 114151892, -0.08115478, -0.004625378, 0.04306683, 0.01023012
 114211425, -0.1290766, 0.02333834, 0.01397183, 0.01115609
 114261418, -0.09994031, -0.03198935, 0.06339762, 0.009298753
 114316427, -0.1071477, 0.02200072, 0.03001044, 0.01022863
 114371421, -0.1214056, 0.007029641, 0.06682768, 0.01023012
 114426739, -0.09779038, -0.01225948, 0.1001944, 0.01022789
 114476762, -0.09397849, 0.04088811, 0.07628523, 0.009298195
 114531460, -0.1114532, -0.01823073, 0.103456, 0.01022863
 114586437, -0.0991643, 0.01124018, 0.05790734, 0.01022974
 114641432, -0.1328086, 0.02568813, 0.05076009, 0.01022863
 114696421, -0.1185982, -0.02034745, 0.07946623, 0.01023012
 114751752, -0.123869, 0.02736518, 0.04650173, 0.01022603
 114806433, -0.1435652, 0.02082147, 0.05992161, 0.01023904
 114861426, -0.1426785, -0.01859041, 0.0747896, 0.01021803
 114916573, -0.1594207, 0.03983894, 0.004538245, 0.01022881
 114966435, -0.166354, 0.01075673, 0.03925635, 0.009299497
 115021466, -0.1704914, -0.001254594, 0.04102543, 0.01022956
 115076756, -0.1932962, 0.05588595, -0.00716249, 0.01022695
 115131408, -0.197674, 0.002169836, 0.03887666, 0.01022844
 115186601, -0.2007901, 0.01281339, 0.005394813, 0.01022974
 115241549, -0.2063258, 0.05352908, -0.02928494, 0.0102277
 115299078, -0.2083981, 0.003025159, 0.01132222, 0.01069524
 115351735, -0.1925088, 0.01842092, -0.0235527, 0.009764062
 115403018, -0.1816424, 0.03706484, -0.03575395, 0.009296708
 115456559, -0.1882778, -0.009821179, -0.007387905, 0.010229
 115511868, -0.1929536, 0.04762878, -0.04541361, 0.01031473
 115566952, -0.1716172, 0.01229001, -0.005813145, 0.01022788
 115621887, -0.1666506, 0.009464736, 0.0002876131, 0.01023142
 115677426, -0.1557884, 0.05071645, -0.03459279, 0.01022733
 115727572, -0.1341751, 5.728751E-05, 0.006920432, 0.009297451
 115781880, -0.1339257, 0.03617023, -0.02006858, 0.01022844
 115836915, -0.1210971, 0.04421997, -0.02088041, 0.01022881
 115891854, -0.1144045, 0.005133785, 0.01427566, 0.01022863
 115946923, -0.09014515, 0.05622319, -0.03556385, 0.01022844
 116003528, -0.08721161, 0.02517883, -0.003681786, 0.01023067
 116056938, -0.07220189, 0.02217881, 0.0006228257, 0.01022677
 116111860, -0.04215959, 0.05358313, -0.03083077, 0.01022937
 116166935, -0.0571532, 0.01293114, 0.01525658, 0.01022826
 116216970, -0.02536919, 0.03144607, -0.01992825, 0.009298939
 116271872, -0.02211012, 0.02692541, -0.009879068, 0.01022788
 116327438, -0.03792519, -0.00148784, 0.02525816, 0.01022937
 116381838, 0.004354753, 0.02008909, -0.02012811, 0.01022789
 116437670, -0.02263814, -0.001312464, 0.006788766, 0.01028963
 116489784, -0.0198462, 0.004597485, -0.01336038, 0.00976369
 116544711, 0.01514598, 0.02133748, -0.04143103, 0.01022919
 116601454, -0.03476818, -0.009080353, 0.01527396, 0.01022826
 116654845, 0.03193497, 0.03468727, -0.05746744, 0.01022714
 116709852, -0.004408186, 0.003403542, -2.648914E-05, 0.01023253
 116764853, 0.0136516, 0.01892017, -0.01559644, 0.01022603
 116814848, 0.03816962, 0.02972832, -0.0280996, 0.009298753
 116869872, -0.002174523, 0.01201604, 0.01182249, 0.01022863
 116925125, 0.05855953, 0.05398767, -0.04972775, 0.01022863
 116979800, 0.003328162, 0.007235368, 0.00791612, 0.01022919
 117034704, 0.04363839, 0.0527622, -0.03664804, 0.01022863
 117089751, 0.02301149, 0.02939836, -0.01604917, 0.01022807
 117142586, 0.01432159, 0.03333889, -0.01489292, 0.009827293
 117197610, 0.03869959, 0.05086569, -0.0310983, 0.01022844
 117250442, -0.0110499, 0.01667411, 0.00524618, 0.009764062
 117310036, 0.02974998, 0.06155847, -0.03140575, 0.01115813
 117362884, -0.009822555, 0.01973363, 0.01121446, 0.009764249
 117415285, -0.002292583, 0.03057387, -0.0106344, 0.009763132
 117470010, -0.006306166, 0.03583659, -0.006520758, 0.01022937
 117522542, -0.03894966, 0.003770524, 0.01287026, 0.009762947
 117577659, 0.0007963767, 0.03364938, -0.03244608, 0.01022881
 117635083, -0.05690195, -0.004998112, 0.02412019, 0.01069412
 117690060, -0.0258887, 0.008138929, -0.02064444, 0.01022881
 117742555, -0.03038999, 0.01093641, -0.005169041, 0.009762947
 117797819, -0.05769616, -0.01213225, 0.01547386, 0.010229
 117850439, -0.008987305, 0.01236846, -0.04005729, 0.009763131
 117905040, -0.0650316, -0.01481386, 0.02879198, 0.01024313
 117957587, -0.01350681, -0.0002633077, -0.02052925, 0.009751231
 118015041, -0.03884257, -0.004419865, 0.01745918, 0.01069245
 118070069, -0.05285074, -0.01910085, 0.02696734, 0.01022788
 118122582, -0.002622845, -0.003544762, -0.03470958, 0.009764248
 118177675, -0.06702508, -0.01712871, 0.0364063, 0.010229
 118230064, -0.01125587, -0.009043349, -0.03596086, 0.009762574
 118285182, -0.03479568, -0.01043618, 0.002329697, 0.01022919
 118338335, -0.04041822, -0.01373725, 0.002661283, 0.009764993
 118392677, 0.001855255, -0.003524059, -0.04365801, 0.01022677
 118450593, -0.04266244, -0.01230475, 0.01079935, 0.01069357
 118505041, -0.0003756592, 0.0007892679, -0.0257031, 0.01024648
 118557663, 0.002864245, 0.006652095, -0.001725371, 0.009746023
 118610073, -0.01853486, 0.001081492, 0.01412111, 0.009764062
 118665064, 0.0333611, 0.01955802, -0.02877693, 0.01023198
 118722536, -0.0106184, 0.004147312, 0.02390506, 0.01068985
 118772545, 0.02081422, 0.02229663, -0.01970221, 0.009300613
 118830061, 0.02392431, 0.02106373, -0.0002917091, 0.01069152
 118885056, -0.001291976, 0.01139393, 0.02714103, 0.01022863
 118938048, 0.0419635, 0.03642939, -0.02591836, 0.009763877
 118992553, 0.004518545, 0.009185607, 0.02461339, 0.01022863
 119045070, 0.02954857, 0.0334091, -0.009761645, 0.009763691
 119101747, 0.03151532, 0.0284511, -0.0004391407, 0.01023086
 119157657, 0.01271397, 0.01613174, 0.01006129, 0.01069189
 119210065, 0.04389388, 0.04089976, -0.02844029, 0.00976555
 119265052, 0.01522291, 0.02443767, 0.01136112, 0.01022695
 119322562, 0.02911616, 0.02568796, -0.0001267903, 0.01069282
 119372700, 0.04626375, 0.03912533, -0.0006942663, 0.009299869
 119425464, 0.00793841, 0.01315693, 0.02629308, 0.009762761
 119480003, 0.06826225, 0.03927755, -0.03296627, 0.01022826
 119538098, 0.02140633, 0.01928433, 0.02726488, 0.01069468
 119592550, 0.05469862, 0.02410986, -0.007321358, 0.01022751
 119645042, 0.06313363, 0.02905571, -0.005415203, 0.009763691
 119701677, 0.0385004, 0.008553397, 0.02068539, 0.01022863
 119752557, 0.09117717, 0.02898186, -0.02305682, 0.009763877
 119811143, 0.06234469, 0.0175904, 0.02892095, 0.01076424
 119860858, 0.07392956, 0.008576126, 0.003366051, 0.009299126
 119920408, 0.1096632, 0.02446974, 0.0002262951, 0.01116073
 119970436, 0.04592607, 0.008840176, 0.03439292, 0.009295219
 120023353, 0.1073298, 0.01716338, -0.008456626, 0.009762947
 120078078, 0.06661545, 0.02036234, 0.02986868, 0.01022993
 120135788, 0.08353588, 0.001457692, 0.01606791, 0.01069338
 120190409, 0.113733, 0.01307773, -0.001846921, 0.0102277
 120242857, 0.04273963, 0.01628761, 0.03595448, 0.009764993
 120299640, 0.1165644, -0.006950871, -0.02749437, 0.01022826
 120350430, 0.06541862, 0.02250155, -0.01012717, 0.00976555
 120408220, 0.09586193, -0.01409949, -0.01972621, 0.01069059
 120458059, 0.106202, 0.0109624, -0.007643428, 0.009298752
 120518247, 0.07063102, 0.006011265, 0.03798245, 0.0112208
 120568283, 0.1092505, -0.01997696, 0.004337453, 0.009299868
 120621313, 0.0756546, 0.02120288, 0.01150882, 0.009842544
 120676096, 0.08407505, -0.02202491, 0.0233413, 0.01022844
 120731523, 0.1122407, 0.008044312, 0.009035599, 0.01022863
 120786121, 0.05746919, 0.01260882, 0.04409324, 0.01022844
 120844087, 0.09614568, -0.01090464, 0.03974001, 0.01069468
 120895361, 0.07246122, 0.02641091, 0.03706838, 0.009301542
 120951099, 0.0579804, -0.003633257, 0.05585945, 0.01068966
 121003707, 0.07738892, 0.007795838, 0.036414, 0.009764806
 121058701, 0.03229056, 0.02538897, 0.05898303, 0.0102303
 121116119, 0.04499638, -0.009472792, 0.04570615, 0.01069133
 121166072, 0.04985783, 0.03005126, 0.0007906862, 0.009298568
 121223676, 0.0004759962, 0.02409391, 0.03647472, 0.01069375
 121273704, 0.04145136, 0.009319905, 0.001591472, 0.009298567
 121331775, 0.008408934, 0.04345037, 0.02038807, 0.01069598
 121386319, -0.01147737, 0.0186143, 0.02689591, 0.01022863
 121438824, 0.03147959, 0.03376326, -0.02709026, 0.009761272
 121495374, -0.0224183, 0.04672993, 0.02097343, 0.01022844
 121546145, 0.01803899, 0.01647596, -0.03805692, 0.009764994
 121604113, 0.02024304, 0.06006126, -0.01262136, 0.01077298
 121654518, -0.004110709, 0.02320546, 0.01659408, 0.009296893
 121711604, 0.04733817, 0.03169511, -0.0284211, 0.01069226
 121766606, 0.008950609, 0.05520741, -0.0001398702, 0.01023123
 121821711, 0.02157303, 0.002647795, -0.01707423, 0.01022881
 121871759, 0.05369552, 0.03827101, -0.03361582, 0.009295964
 121929073, 0.008278595, 0.0170864, -0.002812669, 0.01069505
 121984309, 0.06403857, 0.002781624, -0.05295487, 0.01022714
 122036607, 0.04163631, 0.04073095, -0.01493751, 0.009763692
 122091642, 0.02799963, 0.006553048, -0.01958752, 0.01023067
 122144082, 0.08005361, 0.01736896, -0.04911424, 0.009761645
 122199042, 0.03580953, 0.03205187, 0.007215825, 0.01023123
 122256594, 0.06074502, -0.008764993, 0.004616882, 0.01069133
 122311613, 0.07890274, 0.02070742, -0.01424727, 0.0102316
 122364505, 0.02957909, 0.007883505, 0.009776112, 0.009760158
 122419093, 0.06975596, -0.01614771, -0.03080325, 0.01022937
 122474513, 0.05969495, 0.02166442, -0.02190232, 0.01022788
 122526603, 0.02904041, -0.008275203, 0.002968692, 0.009763877
 122581632, 0.07730381, 0.002609876, -0.01259611, 0.01023514
 122634098, 0.02180431, 0.02561894, 0.009833745, 0.009756995
 122689059, 0.04901312, -0.002821719, -0.003698781, 0.01022993
 122741612, 0.06100422, 0.02977045, -0.02061291, 0.009764062
 122799399, 0.02673776, 0.02077398, 0.0208448, 0.0107501
 122854886, 0.077413, 0.004693359, -0.02614692, 0.01023253
 122909554, 0.04961409, 0.04496706, -0.01334276, 0.01022993
 122959535, 0.05220204, -0.005165584, -0.003624696, 0.009296149
 123014542, 0.08506372, 0.03635142, -0.02686604, 0.01023086
 123069455, 0.04302264, 0.01953873, 0.0043229, 0.01022733
 123124858, 0.1056754, 0.01500505, -0.03940474, 0.01028758
 123180275, 0.05692608, 0.046828, 0.007105627, 0.01023068
 123234826, 0.08759679, 0.005201865, 0.003822683, 0.01022733
 123290034, 0.09646586, 0.03865292, 0.008493222, 0.0102277
 123339826, 0.05569524, 0.01216135, 0.04361788, 0.009298939
 123394749, 0.1010744, 0.02910254, 0.057492, 0.01022844
 123449776, 0.05032496, 0.03613353, 0.0677776, 0.01023012
 123506553, 0.07560758, -0.005071798, 0.04176752, 0.0102303
 123560001, 0.06284289, 0.04289014, 0.01983037, 0.0102264
 123615682, 0.03244506, 0.00255853, 0.01828679, 0.01029893
 123670120, 0.07580569, 0.02417123, -0.008745717, 0.0102277
 123722624, 0.01526442, 0.01772067, 0.03190157, 0.009764435
 123778208, 0.06063836, -0.008317354, 0.001921508, 0.010229
 123832647, 0.03163917, 0.03858013, 0.02226673, 0.0102277
 123887764, 0.03054105, -0.01569442, 0.01787275, 0.01022863
 123940503, 0.06496638, 0.0237707, -0.007465588, 0.009764064
 123995104, 0.01096813, 0.008480544, 0.02639969, 0.01022807
 124047782, 0.07563297, 0.0004619113, -0.01245745, 0.009765551
 124104342, 0.02747976, 0.02805475, 0.01967569, 0.01022807
 124155118, 0.05034549, -0.005829438, 0.01918519, 0.009762389
 124212767, 0.07268775, 0.02546029, 0.002909805, 0.01069375
 124267759, 0.02615094, 0.01158447, 0.02426035, 0.01023086
 124320095, 0.07945002, 0.001694531, -0.00247846, 0.009759971
 124375081, 0.04998808, 0.02753846, 0.003305982, 0.01023105
 124428349, 0.04781863, -0.003504131, 0.003103015, 0.009764621
 124482826, 0.08330938, 0.01421646, -0.02293422, 0.01022677
 124535320, 0.03113891, 0.009150132, 0.01984996, 0.009764806
 124590665, 0.07747976, -0.007097546, -0.03277217, 0.01022733
 124647745, 0.06185448, 0.01596888, -0.02353316, 0.01069468
 124704333, 0.03124612, -0.005026047, -0.004410422, 0.01023012
 124755105, 0.08211709, -0.004147625, -0.0499452, 0.009761087
 124812650, 0.04067728, 0.01283751, -0.01875361, 0.01069375
 124862654, 0.04868659, -0.01198328, -0.008168306, 0.009299125
 124920089, 0.08440893, 0.01050048, -0.03931911, 0.01069338
 124970114, 0.02523001, 0.001836244, 0.01522702, 0.009302472
 125028338, 0.09450908, -0.001151135, -0.03394343, 0.01068966
 125082692, 0.05983719, 0.02770395, -0.01178411, 0.01022863
 125135354, 0.04840925, -8.272426E-05, 0.01130699, 0.009763505
 125190513, 0.09561282, 0.02842445, -0.02521056, 0.01022863
 125242634, 0.03421468, 0.02685211, 0.006784705, 0.009765364
 125297767, 0.09003832, 0.01409379, -0.0370306, 0.01023105
 125352641, 0.07729125, 0.04654879, -0.0214455, 0.01022528
 125410098, 0.07146831, 0.02055844, 0.009941856, 0.01069468
 125460088, 0.09164448, 0.02071167, 0.00512207, 0.009298196
 125517898, 0.07608712, 0.04713501, 0.02929474, 0.01070584
 125573047, 0.08949538, 0.003553616, 0.01027833, 0.01021673
 125623376, 0.09840103, 0.02917267, -0.008455234, 0.009355475
 125678004, 0.07807963, 0.02543745, 0.02427143, 0.01022863
 125733659, 0.1034002, 0.01179613, 0.006049541, 0.01029856
 125788468, 0.1056318, 0.04040474, -0.005077248, 0.01022863
 125841310, 0.07660236, 0.02409405, 0.01179925, 0.009853702
 125898880, 0.1237528, 0.01726118, -0.01449317, 0.01073151
 125951323, 0.1026308, 0.04338491, -0.01250258, 0.009726124
 126008104, 0.09561731, 0.02909568, 0.01636241, 0.01022826
 126061837, 0.1255683, 0.01916335, -0.006279074, 0.01029837
 126117153, 0.1157601, 0.0473225, 0.002027341, 0.01030079
 126167274, 0.09802555, 0.01325925, 0.009125781, 0.009302287
 126222200, 0.1305895, 0.03087295, -0.007457801, 0.01022435
 126277132, 0.1079418, 0.04300834, 0.002018274, 0.01022937
 126332581, 0.1339624, -0.007859433, -0.01442633, 0.01032162
 126387721, 0.1376168, 0.04361153, -0.01590734, 0.01022733
 126440067, 0.1124024, 0.004218644, -0.002174606, 0.00976518
 126495017, 0.1564883, 0.005443214, -0.03448679, 0.01022714
 126550056, 0.1341256, 0.04229107, -0.01287877, 0.01022919
 126606740, 0.1328393, -0.01531221, -0.006057022, 0.01023067
 126655491, 0.164246, 0.04538231, -0.03006819, 0.00929615
 126715053, 0.129285, 0.008219209, 0.002976486, 0.01116092
 126765040, 0.1809212, 0.02450343, -0.03829494, 0.009298939
 126820071, 0.1242281, 0.03712344, 0.009377347, 0.01022602
 126875058, 0.1561866, 0.01924556, 0.003585857, 0.01023086
 126930461, 0.1701214, 0.05097415, 0.005397777, 0.0102264
 126985053, 0.1040399, 0.01338774, 0.04112264, 0.01022863
 127035575, 0.1737886, 0.04489599, -0.02335405, 0.009386719
 127091860, 0.09617167, 0.009794764, 0.02915056, 0.01022919
 127148107, 0.1590909, 0.006974032, -0.02176166, 0.01069338
 127204665, 0.127066, 0.01618801, -0.01398988, 0.01022807
 127253606, 0.0745622, -0.03241167, 0.004977947, 0.009298754
 127313053, 0.1516248, -0.009904923, -0.05633921, 0.01115925
 127366067, 0.0365623, -0.04823818, 0.0308595, 0.009762947
 127418039, 0.1014118, -0.04979609, -0.05771562, 0.009765364
 127473034, 0.04655479, -0.05856908, -0.01304877, 0.01022751
 127525529, 0.02904838, -0.09037016, -0.003252606, 0.009764249
 127580560, 0.07169778, -0.07338593, -0.06326926, 0.0102303
 127638306, -0.004279041, -0.1167875, 0.01765349, 0.01069226
 127688185, 0.05072884, -0.09896529, -0.05920941, 0.009299497
 127745533, 0.01439605, -0.1174515, -0.01026547, 0.01069226
 127800586, 0.003575974, -0.1402595, -0.006899967, 0.01022826
 127853460, 0.05156204, -0.1108296, -0.07936856, 0.009766666
 127908229, -0.01260304, -0.1529746, 0.00845762, 0.01024258
 127960537, 0.03541034, -0.1309747, -0.0708375, 0.009748998
 128018254, 0.03058376, -0.1470352, -0.05759269, 0.01069078
 128068064, 0.002137874, -0.1523665, -0.01185105, 0.009299682
 128125535, 0.05418126, -0.1410646, -0.1026491, 0.01069264
 128180564, 0.02516909, -0.159245, -0.02890269, 0.01022956
 128233015, 0.03453226, -0.1494192, -0.06198236, 0.00976276
 128288220, 0.05701833, -0.1290355, -0.1007018, 0.01022993
 128340863, 0.03167039, -0.141211, -0.03545296, 0.009762576
 128395544, 0.04923392, -0.1218792, -0.07795663, 0.01022863
 128453458, 0.05483298, -0.1023829, -0.07569863, 0.01069338
 128504691, 0.036942, -0.1000374, -0.01886423, 0.009300614
 128560536, 0.05067883, -0.08580746, -0.05698355, 0.01069208
 128613245, 0.04595478, -0.05397644, -0.05768547, 0.009763319
 128668127, 0.0416743, -0.0729471, -0.0184352, 0.01022863
 128725890, 0.04423736, -0.04416332, -0.04644765, 0.01075401
 128775889, 0.03734005, -0.02108301, -0.03902605, 0.009298939
 128833349, 0.03450153, -0.04377922, 0.005040131, 0.01069357
 128888312, 0.02864709, -0.02034901, -0.02436193, 0.01022863
 128941464, 0.02799877, -0.002318996, -0.03148211, 0.009766479
 128995997, 0.02414529, -0.03238988, 0.002018206, 0.01022565
 129048387, 0.01998926, -0.004480991, -0.02883446, 0.009764806
 129104993, 0.01463333, -0.005087864, -0.01727991, 0.0102277
 129155995, 0.009720787, -0.02560431, 0.01279562, 0.009763692
 129213616, -0.0004680024, -0.008972986, -0.01173116, 0.01069357
 129268381, -0.009273426, -0.009988636, -0.004982252, 0.01023049
 129325828, -0.01204442, -0.0318227, 0.01230998, 0.01069152
 129376002, -0.01873015, -0.01809011, -0.0103606, 0.009301541
 129428635, -0.02619574, -0.018812, -0.0003072921, 0.009761645
 129483360, -0.03240615, -0.03779975, 0.02302147, 0.010229
 129538693, -0.0421092, -0.02756494, -0.00224203, 0.01029391
 129593870, -0.04487965, -0.02970424, 0.007703972, 0.01022677
 129646144, -0.04386183, -0.0469111, 0.02571175, 0.009763691
 129702781, -0.05555023, -0.03708914, -0.006136511, 0.01022863
 129756108, -0.06393047, -0.04507698, 0.004465567, 0.01022863
 129811103, -0.06254859, -0.05885841, 0.02067126, 0.01022863
 129866115, -0.07259969, -0.04622342, -0.002191479, 0.01022863
 129916138, -0.0671517, -0.04691691, 0.01698813, 0.009298753
 129971113, -0.07775631, -0.06431319, 0.02906979, 0.01023012
 130026577, -0.09376115, -0.06067737, 0.01789572, 0.01022826
 130081134, -0.0937393, -0.07232126, 0.02404928, 0.01022751
 130136147, -0.1017241, -0.07951158, 0.01930335, 0.01022881
 130191126, -0.1096518, -0.07547238, 0.01656241, 0.01022844
 130246344, -0.1054678, -0.08171857, 0.03048074, 0.01022863
 130296157, -0.09675377, -0.07673859, 0.0211674, 0.009298753
 130351520, -0.1140658, -0.08426689, 0.005239102, 0.01022882
 130411082, -0.1190411, -0.09560605, -0.0005626294, 0.01116111
 130461097, -0.1005923, -0.07471265, -0.008160424, 0.00929615
 130516371, -0.1143449, -0.07099166, 0.007514474, 0.01022844
 130571106, -0.1119762, -0.07265532, 0.01984914, 0.01022733
 130626546, -0.1059048, -0.06504291, 0.01362905, 0.01022993
 130676535, -0.1003117, -0.05747602, 0.001828085, 0.009298753
 130731105, -0.1055694, -0.07006858, 0.001222328, 0.01022881
 130786388, -0.09960459, -0.06357566, -0.002619884, 0.01022844
 130841339, -0.1026661, -0.05609961, -0.001872632, 0.01022863
 130896139, -0.09687115, -0.0640088, 0.0142455, 0.01023235
 130951532, -0.09118317, -0.05232372, 0.01251678, 0.01022584
 131006118, -0.09549208, -0.04740158, -0.0080553, 0.01023216
 131061126, -0.09475821, -0.04971479, 0.001980163, 0.01022826
 131111724, -0.08275622, -0.04501268, 0.006602623, 0.009391926
 131166723, -0.09153909, -0.03264347, 0.002639581, 0.01022863
 131221736, -0.08666611, -0.04649709, 0.02497886, 0.01022788
 131277172, -0.08985456, -0.03080758, 0.002387803, 0.01022919
 131331738, -0.09274075, -0.02853794, -0.01123539, 0.01022956
 131386770, -0.07965325, -0.03171195, 0.007743754, 0.01022714
 131441759, -0.08261296, -0.01291931, -0.004636887, 0.01022974
 131491671, -0.07397288, -0.01401971, 0.01221199, 0.009299125
 131546720, -0.07727542, -0.01467942, 0.03817555, 0.01022844
 131603443, -0.07995872, 0.006172807, 0.01615329, 0.01022807
 131656739, -0.07553433, -0.01457273, 0.04145168, 0.01022844
 131711700, -0.06985679, -0.005068436, 0.01297049, 0.01022937
 131766740, -0.08085853, 0.009864629, -0.005484354, 0.01022733
 131821916, -0.06240198, -0.0218533, 0.02506895, 0.01022956
 131871748, -0.07524075, 0.01770219, -0.02848595, 0.009298939
 131927169, -0.07435816, -0.00638052, 0.01627633, 0.01022937
 131981706, -0.07492029, 0.0114824, -0.01457963, 0.01022677
 132036807, -0.07915851, 0.02310756, -0.01863327, 0.01022919
 132091843, -0.0684953, -0.005740953, 0.02540078, 0.01022881
 132147163, -0.08652064, 0.04285051, -0.0240263, 0.01029577
 132203724, -0.06535921, 0.02654531, 0.02074302, 0.010229
 132257271, -0.07543706, 0.02935104, 0.0114638, 0.0102277
 132312253, -0.08081022, 0.05524616, 0.0009621922, 0.01022863
 132362348, -0.05932072, 0.02414511, 0.03966174, 0.009298754
 132417466, -0.08640119, 0.0696319, 0.01390796, 0.01022863
 132472062, -0.0587749, 0.04100136, 0.02907807, 0.01023328
 132527569, -0.0752027, 0.05379075, 0.02646482, 0.01022509
 132582086, -0.06979506, 0.05743144, 0.04390281, 0.01022751
 132637149, -0.0541942, 0.0388101, 0.04574995, 0.01023086
 132687153, -0.06715041, 0.05725941, -0.002140427, 0.009296522
 132742093, -0.0528215, 0.02829888, 0.02405272, 0.01022993
 132797173, -0.07701316, 0.05375684, -0.014653, 0.01022937
 132852466, -0.06063106, 0.03969677, 0.001139754, 0.0102277
 132907137, -0.06692109, 0.04380952, 0.01356472, 0.01026843
 132962082, -0.06973369, 0.0621024, 0.01625261, 0.01018864
 133017304, -0.05365564, 0.02609557, 0.03835511, 0.0102277
 133072104, -0.0840244, 0.06141086, -0.004166092, 0.01023253
 133122089, -0.03860591, 0.03165847, 0.01164149, 0.009296335
 133177561, -0.0706403, 0.04518953, -0.01141791, 0.0102316
 133232090, -0.05951172, 0.03051046, 0.00657054, 0.01022416
 133287153, -0.0518594, 0.03850609, 0.0005554484, 0.01022881
 133342089, -0.07057647, 0.04156423, -0.004358278, 0.01022937
 133397279, -0.03761503, 0.02134426, 0.01555632, 0.01022826
 133452468, -0.071045, 0.05553321, -0.009404032, 0.01023123
 133507157, -0.0459877, 0.01123296, 0.01995173, 0.01024723
 133557176, -0.0601313, 0.0541887, -0.02489873, 0.009276994
 133612117, -0.0606786, 0.03209779, 0.04080611, 0.01022863
 133667407, -0.05686683, 0.03851336, 0.01179212, 0.01022919
 133722098, -0.0735276, 0.06620736, -0.02726197, 0.01022826
 133777585, -0.05663778, 0.0111525, -0.005003687, 0.01022844
 133832215, -0.0668534, 0.07299933, -0.04460987, 0.01022881
 133887257, -0.05792808, 0.03721981, 0.01189877, 0.010229
 133937398, -0.05318177, 0.04094671, 0.01829625, 0.009298753
 133992304, -0.0523954, 0.0657576, -0.01073086, 0.01022826
 134047159, -0.05561431, 0.02511065, 0.02777737, 0.01022974
 134103823, -0.05768241, 0.07030679, -0.0009380336, 0.01022788
 134157155, -0.04785128, 0.04663429, 0.02266317, 0.01022807
 134212087, -0.05442595, 0.03844085, 0.04342234, 0.01022863
 134267141, -0.0501307, 0.06401886, -0.0004833406, 0.01022863
 134322072, -0.04251479, 0.02360704, 0.03863497, 0.01022863
 134372103, -0.06068993, 0.03096073, 0.0002817085, 0.009301729
 134427572, -0.02587182, 0.02550677, 0.01649478, 0.01022565
 134482100, -0.07387548, 0.007922809, 0.02821911, 0.01022863
 134537157, -0.03700959, 0.01151981, 0.0417858, 0.01022863
 134592103, -0.04703175, 0.0144456, 0.02594819, 0.01022974
 134647163, -0.07423148, -0.01233137, 0.03104884, 0.01022937
 134703893, -0.04377861, -0.01101125, -0.01721277, 0.01022677
 134752454, -0.08336382, -0.002990456, -0.03273215, 0.009367564
 134809854, -0.06723815, -0.03435715, 0.004624896, 0.01069338
 134864896, -0.07545627, 0.02216095, -0.06260634, 0.01022881
 134919845, -0.08385328, -0.01426013, -0.007830519, 0.01022733
 134969901, -0.06327476, 0.01133463, -0.05182688, 0.009298939
 135025336, -0.09305719, 0.03672908, -0.03205201, 0.01023067
 135079880, -0.07340763, 0.005905941, 0.00786636, 0.01022658
 135134873, -0.07525443, 0.0755229, -0.03908966, 0.01023309
 135189885, -0.103006, 0.02601521, -0.007324106, 0.01022398
 135244917, -0.05594757, 0.06168201, -0.04386654, 0.0102303
 135297584, -0.08483528, 0.06784368, -0.05311525, 0.009765921
 135355166, -0.06779838, 0.04926087, -0.0328684, 0.01068966
 135410078, -0.05206185, 0.1017696, -0.03545853, 0.01022863
 135460066, -0.07075083, 0.03568945, 0.01256607, 0.009299869
 135515079, -0.03172014, 0.1015181, -0.01873347, 0.01022974
 135569906, -0.06391677, 0.05567551, 0.009570463, 0.0102277
 135625528, -0.0244288, 0.06673298, 0.01035726, 0.01022788
 135679913, -0.04426756, 0.08818043, 0.02753252, 0.01022807
 135734866, -0.04342632, 0.02976977, 0.07195093, 0.01022919
 135784860, -0.01517889, 0.07805618, 0.0507611, 0.009301357
 135842520, -0.04783478, 0.02879485, 0.07995202, 0.01069078
 135899277, -0.01676247, 0.02834048, 0.03359676, 0.01022826
 135948350, -0.0295248, 0.03994931, 0.01743058, 0.009359753
 136002845, -0.02895015, -0.004557099, 0.07752144, 0.01022844
 136060605, -0.01463572, 0.03825573, 0.01806882, 0.01069822
 136115294, -0.04332456, -0.006068839, 0.06030338, 0.01025169
 136165428, -0.008718835, -0.01120322, 0.01014347, 0.009273647
 136220285, -0.03501097, -0.004601794, -0.02280101, 0.01022714
 136275283, -0.02676689, -0.04778158, 0.02744745, 0.01022863
 136330254, -0.02314669, -0.01192757, -0.04528637, 0.01022919
 136385575, -0.03652498, -0.04432009, 0.006771741, 0.01022696
 136440277, -0.02088999, -0.04130023, -0.02801918, 0.0102303
 136495280, -0.0438568, -0.01536173, -0.08486035, 0.01022695
 136550314, -0.03892456, -0.04140582, -0.03624323, 0.01022956
 136600300, -0.04394367, -0.01817198, -0.0754541, 0.009298939
 136655272, -0.05203025, -0.002189907, -0.06172304, 0.01022751
 136711864, -0.04389125, -0.01998547, -0.02310855, 0.01023012
 136765263, -0.06610826, 0.01986404, -0.0611507, 0.01022733
 136820292, -0.05028001, 0.003526466, -0.02279936, 0.01022956
 136875276, -0.05543719, 0.006899319, -0.02446027, 0.01022751
 136930432, -0.05824307, 0.02741316, -0.02455945, 0.01022974
 136980254, -0.03233394, -0.0009812361, 0.01104936, 0.009298381
 137035737, -0.05687872, 0.03175624, -0.01700988, 0.01022825
 137090410, -0.03753237, 0.01475369, 0.001425667, 0.01022993
 137145320, -0.03092031, 0.006581285, -0.001749445, 0.01022751
 137200438, -0.04250829, 0.03045239, -0.02096573, 0.01022863
 137255274, -0.01693003, 0.0006791821, 0.01931854, 0.01022807
 137307880, -0.03613579, 0.02734625, -0.02035894, 0.009763691
 137365261, -0.02731355, 0.01503815, -0.008980572, 0.01069543
 137420287, -0.01893845, 0.008013682, 0.01756296, 0.01022863
 137470420, -0.03292009, 0.03805082, -0.004617824, 0.009297451
 137525293, -0.01501904, 0.006887418, 0.03384531, 0.01023105
 137580265, -0.02958551, 0.03250709, -0.01070758, 0.01022751
 137635602, -0.01132112, 0.02364451, -0.01347311, 0.01022714
 137690267, -0.01989267, 0.01530918, 0.02129846, 0.01023328
 137745289, -0.03139272, 0.03626327, -0.007474547, 0.01022621
 137800280, -0.006792762, 0.01894207, 0.004231721, 0.01022602
 137850259, -0.02627545, 0.02716213, -0.003208622, 0.009299869
 137907885, -0.02488361, 0.03137013, 0.005968844, 0.01069412
 137960565, -0.01269651, 0.01993952, 0.0313726, 0.009763877
 138015278, -0.03450781, 0.03442504, -0.01026013, 0.01026155
 138070306, -0.01686929, 0.01848119, -0.0004649368, 0.01019497
 138125317, -0.02417178, 0.02760646, -0.008222603, 0.01022751
 138180240, -0.02873867, 0.02914547, -0.007524082, 0.01023309
 138230267, -0.0103751, 0.01056994, 0.001287153, 0.009296149
 138285600, -0.0285716, 0.04123122, -0.02227123, 0.01022788
 138340280, -0.006912816, 0.01194636, 0.01589582, 0.01022863
 138395285, -0.02085036, 0.02987068, 0.0102643, 0.0102277
 138450277, -0.02229252, 0.03354667, 0.004549346, 0.01022956
 138508074, -0.005254002, 0.008739926, 0.02305265, 0.01069264
 138560733, -0.02615787, 0.02773278, -0.01512929, 0.009765179
 138615293, -0.01406248, 0.02276778, -0.01290536, 0.01026508
 138665436, -0.01762122, 0.009610663, -0.01145715, 0.009261372
 138720281, -0.02313818, 0.02881343, -0.02189067, 0.01022826
 138775420, -0.01308919, 0.01633322, 0.008058223, 0.01023105
 138830263, -0.03153197, 0.02024398, 0.01328251, 0.01022844
 138885620, -0.02557148, 0.03038874, 0.01186965, 0.01022602
 138940244, -0.0213694, 0.01455534, 0.0191652, 0.01022993
 138995251, -0.03497655, 0.01952731, -0.01154069, 0.01022733
 139050292, -0.02331968, 0.009872267, -0.01109909, 0.01022974
