TimeUS,COFN,COFE,CNe,CEe,POFN,POFE,PNe,PEe
 146191909, -0.00280313, -0.01035236, 0.008601988, -0.009656368, 0.01199048, -0.0186847, 0.008594347, -0.009663875
 146245565, 0.007511192, 0.03484116, 0.00867899, -0.01008096, -0.00280313, -0.01035236, 0.008601988, -0.009656368
 146300758, 0.00614693, 0.0119975, 0.00866877, -0.009735014, 0.007511192, 0.03484116, 0.00867899, -0.01008096
 146355904, 0.00559813, 0.004355141, 0.00860504, -0.009622953, 0.00614693, 0.0119975, 0.00866877, -0.009735014
 146410604, 0.00527189, -0.003119315, 0.008575719, -0.009584662, 0.00559813, 0.004355141, 0.00860504, -0.009622953
 146460633, 0.004853313, -0.01058822, 0.008542707, -0.009579157, 0.00527189, -0.003119315, 0.008575719, -0.009584662
 146515622, 0.006499623, 0.01917593, 0.00851796, -0.009640237, 0.004853313, -0.01058822, 0.008542707, -0.009579157
 146570772, 0.00554718, 0.004346347, 0.00851442, -0.009519462, 0.006499623, 0.01917593, 0.00851796, -0.009640237
 146625604, 0.005453076, 0.004252144, 0.008385845, -0.009374671, 0.00554718, 0.004346347, 0.00851442, -0.009519462
 146680957, 0.004543015, -0.0101608, 0.008253645, -0.009253512, 0.005453076, 0.004252144, 0.008385845, -0.009374671
 146735610, 0.005467705, 0.004359297, 0.008504724, -0.009506382, 0.004543015, -0.0101608, 0.008253645, -0.009253512
 146790619, 0.006392128, 0.01935293, 0.008614122, -0.009743883, 0.005467705, 0.004359297, 0.008504724, -0.009506382
 146845573, 0.00537498, 0.004501852, 0.008573432, -0.009582052, 0.006392128, 0.01935293, 0.008614122, -0.009743883
 146900681, 0.005315645, 0.004449332, 0.008607228, -0.00961941, 0.00537498, 0.004501852, 0.008573432, -0.009582052
 146955938, 0.004616834, -0.01085725, 0.008731419, -0.009784608, 0.005315645, 0.004449332, 0.008607228, -0.00961941
 147006298, 0.01320024, 0.004061786, 0.008768194, -0.009753226, 0.004616834, -0.01085725, 0.008731419, -0.009784608
 147060598, 0.006777594, 0.02710736, 0.008631645, -0.009873146, 0.01320024, 0.004061786, 0.008768194, -0.009753226
 147115623, 0.005583658, 0.004402822, 0.008590189, -0.009595362, 0.006777594, 0.02710736, 0.008631645, -0.009873146
 147170667, 0.005612424, 0.004379268, 0.008565635, -0.009567113, 0.005583658, 0.004402822, 0.008590189, -0.009595362
 147225808, 0.003961935, -0.0258028, 0.00864888, -0.009857154, 0.005612424, 0.004379268, 0.008565635, -0.009567113
 147280926, 0.005709875, 0.004514355, 0.008767771, -0.009790592, 0.003961935, -0.0258028, 0.00864888, -0.009857154
 147335776, 0.007066804, 0.02772204, 0.008826338, -0.01008436, 0.005709875, 0.004514355, 0.008767771, -0.009790592
 147390593, 0.006203473, 0.0123091, 0.008868693, -0.009941678, 0.007066804, 0.02772204, 0.008826338, -0.01008436
 147445613, 0.005303531, -0.003149753, 0.008785775, -0.009802649, 0.006203473, 0.0123091, 0.008868693, -0.009941678
 147500584, 0.005234223, -0.003128505, 0.00868307, -0.00968713, 0.005303531, -0.003149753, 0.008785775, -0.009802649
 147555933, 0.005590845, 0.004443261, 0.008616683, -0.009616772, 0.005234223, -0.003128505, 0.00868307, -0.00968713
 147608084, 0.005968107, 0.01184767, 0.008584337, -0.00962026, 0.005590845, 0.004443261, 0.008616683, -0.009616772
 147663031, 0.005749877, 0.004461012, 0.008722831, -0.009731866, 0.005968107, 0.01184767, 0.008584337, -0.00962026
 147718692, 0.005650593, 0.00453718, 0.008746173, -0.009757374, 0.005749877, 0.004461012, 0.008722831, -0.009731866
 147773055, 0.005233926, -0.003160587, 0.008658903, -0.00965415, 0.005650593, 0.00453718, 0.008746173, -0.009757374
 147828035, 0.004326485, -0.01851925, 0.008677605, -0.009775814, 0.005233926, -0.003160587, 0.008658903, -0.00965415
 147883058, 0.007446711, 0.03511293, 0.008766653, -0.01014904, 0.004326485, -0.01851925, 0.008677605, -0.009775814
 147933047, -0.001871329, 0.004873951, 0.008605873, -0.009603216, 0.007446711, 0.03511293, 0.008766653, -0.01014904
 147988086, 0.005658476, 0.004319978, 0.008466125, -0.009438046, -0.001871329, 0.004873951, 0.008605873, -0.009603216
 148043532, -0.002218594, -0.002654684, 0.008423625, -0.009393291, 0.005658476, 0.004319978, 0.008466125, -0.009438046
 148098055, 0.01223966, -0.0110946, 0.008497517, -0.009455279, -0.002218594, -0.002654684, 0.008423625, -0.009393291
 148153075, 0.00675776, 0.02638314, 0.008461171, -0.00965765, 0.01223966, -0.0110946, 0.008497517, -0.009455279
 148208077, 0.005561877, 0.004287407, 0.008480984, -0.009450473, 0.00675776, 0.02638314, 0.008461171, -0.00965765
 148263035, 0.005588779, 0.004391412, 0.008608774, -0.009591606, 0.005561877, 0.004287407, 0.008480984, -0.009450473
 148318507, 0.01305847, -0.00366212, 0.008782269, -0.009734181, 0.005588779, 0.004391412, 0.008608774, -0.009591606
 148373022, -0.003914939, -0.03323289, 0.008631784, -0.009964519, 0.01305847, -0.00366212, 0.008782269, -0.009734181
 148428063, 0.005617127, 0.004412137, 0.008618734, -0.009599126, -0.003914939, -0.03323289, 0.008631784, -0.009964519
 148483116, 0.00613363, 0.01215391, 0.008744601, -0.009778885, 0.005617127, 0.004412137, 0.008618734, -0.009599126
 148533048, 0.00463533, -0.01874257, 0.008824669, -0.009922151, 0.00613363, 0.01215391, 0.008744601, -0.009778885
 148588038, 0.00499356, -0.01095075, 0.008866142, -0.009898499, 0.00463533, -0.01874257, 0.008824669, -0.009922151
 148643957, 0.004932501, -0.01096338, 0.00884187, -0.009871086, 0.00499356, -0.01095075, 0.008866142, -0.009898499
 148698046, 0.007842763, 0.04256972, 0.008696793, -0.01023527, 0.004932501, -0.01096338, 0.00884187, -0.009871086
 148753097, 0.006840601, 0.02666906, 0.008517128, -0.009709804, 0.007842763, 0.04256972, 0.008696793, -0.01023527
 148808065, 0.003569286, -0.03270379, 0.00838718, -0.009678326, 0.006840601, 0.02666906, 0.008517128, -0.009709804
 148863020, 0.004791389, -0.01017412, 0.008273643, -0.009233781, 0.003569286, -0.03270379, 0.00838718, -0.009678326
 148918518, 0.005047078, -0.003060328, 0.008191194, -0.009109862, 0.004791389, -0.01017412, 0.008273643, -0.009233781
 148973062, 0.008299823, 0.05498229, 0.008326592, -0.01025049, 0.005047078, -0.003060328, 0.008191194, -0.009109862
 149028040, 0.005655587, 0.004385477, 0.008530015, -0.009489579, 0.008299823, 0.05498229, 0.008326592, -0.01025049
 149083087, 0.004518515, -0.01832598, 0.008686362, -0.009757727, 0.005655587, 0.004385477, 0.008530015, -0.009489579
 149133086, 0.004587322, -0.01869281, 0.008790534, -0.009874095, 0.004518515, -0.01832598, 0.008686362, -0.009757727
 149188066, 0.005861151, 0.004556563, 0.008843777, -0.009835247, 0.004587322, -0.01869281, 0.008790534, -0.009874095
 149243527, 0.008358908, 0.05092342, 0.008856357, -0.01060459, 0.005861151, 0.004556563, 0.008843777, -0.009835247
 149298021, 0.005450573, -0.00311656, 0.00876011, -0.009734996, 0.008358908, 0.05092342, 0.008856357, -0.01060459
 149353060, 0.004224098, -0.02586269, 0.008664681, -0.009828465, 0.005450573, -0.00311656, 0.00876011, -0.009734996
 149408067, 0.004851222, -0.002706766, 0.008624926, -0.009597975, 0.004224098, -0.02586269, 0.008664681, -0.009828465
 149463022, 0.003555541, -0.01143141, 0.008587457, -0.009579788, 0.004851222, -0.002706766, 0.008624926, -0.009597975
 149518733, 0.008677118, 0.05746299, 0.008512124, -0.01049161, 0.003555541, -0.01143141, 0.008587457, -0.009579788
 149573070, 0.004435882, 0.004415062, 0.008663203, -0.009631809, 0.008677118, 0.05746299, 0.008512124, -0.01049161
 149628070, 0.003777113, -0.03426612, 0.008730981, -0.01005084, 0.004435882, 0.004415062, 0.008663203, -0.009631809
 149678030, 0.004336772, -0.01046151, 0.008709601, -0.009708961, 0.003777113, -0.03426612, 0.008730981, -0.01005084
 149733054, 0.005419365, 0.004486863, 0.008646108, -0.009602728, 0.004336772, -0.01046151, 0.008709601, -0.009708961
 149788099, 0.01602556, 0.04920155, 0.008616989, -0.01029812, 0.005419365, 0.004486863, 0.008646108, -0.009602728
 149843548, 0.004498237, 0.004203671, 0.008577352, -0.009528185, 0.01602556, 0.04920155, 0.008616989, -0.01029812
 149898040, 0.003764578, -0.03259106, 0.008653615, -0.009947455, 0.004498237, 0.004203671, 0.008577352, -0.009528185
 149953068, 0.002043252, -0.008017226, 0.008772716, -0.009780614, 0.003764578, -0.03259106, 0.008653615, -0.009947455
 150008287, 0.01162297, -0.009432659, 0.008857451, -0.009849952, 0.002043252, -0.008017226, 0.008772716, -0.009780614
 150063063, 0.01315721, 0.04563335, 0.008877275, -0.01047283, 0.01162297, -0.009432659, 0.008857451, -0.009849952
 150118553, 0.01178379, 0.003349715, 0.008786341, -0.009735385, 0.01315721, 0.04563335, 0.008877275, -0.01047283
 150173061, 0.001106445, -0.05563793, 0.008620166, -0.01051492, 0.01178379, 0.003349715, 0.008786341, -0.009735385
 150228056, 0.003045385, -0.01857874, 0.008623061, -0.009689996, 0.001106445, -0.05563793, 0.008620166, -0.01051492
 150278083, 0.004221159, 0.004078409, 0.008651918, -0.009617951, 0.003045385, -0.01857874, 0.008623061, -0.009689996
 150333082, 0.007947895, 0.06701475, 0.008700627, -0.01099204, 0.004221159, 0.004078409, 0.008651918, -0.009617951
 150388056, 0.004465325, 0.0125657, 0.008750555, -0.009786759, 0.007947895, 0.06701475, 0.008700627, -0.01099204
 150443557, 0.0008911203, -0.05685003, 0.008618505, -0.01055812, 0.004465325, 0.0125657, 0.008750555, -0.009786759
 150497998, 0.004001565, -0.003123686, 0.008731599, -0.009711285, 0.0008911203, -0.05685003, 0.008618505, -0.01055812
 150553048, 0.003320053, -0.01772284, 0.008818764, -0.009892861, 0.004001565, -0.003123686, 0.008731599, -0.009711285
 150608020, 0.007825372, 0.08226205, 0.008710103, -0.01157937, 0.003320053, -0.01772284, 0.008818764, -0.009892861
 150663018, 0.004822061, 0.01211559, 0.008696807, -0.009709261, 0.007825372, 0.08226205, 0.008710103, -0.01157937
 150718476, 0.000545391, -0.04916507, 0.008710592, -0.01040979, 0.004822061, 0.01211559, 0.008696807, -0.009709261
 150773009, 0.00449292, -0.003000595, 0.008837355, -0.009816844, 0.000545391, -0.04916507, 0.008710592, -0.01040979
 150823052, 0.01059389, -0.01900702, 0.008780562, -0.009827918, 0.00449292, -0.003000595, 0.008837355, -0.009816844
 150877981, -0.002049349, 0.04313218, 0.008643781, -0.01016549, 0.01059389, -0.01900702, 0.008780562, -0.009827918
 150933030, -0.003836567, 0.004636662, 0.008782481, -0.00975877, -0.002049349, 0.04313218, 0.008643781, -0.01016549
 150987998, 0.01012392, -0.03382632, 0.008857699, -0.01012305, -0.003836567, 0.004636662, 0.008782481, -0.00975877
 151043468, 0.0116335, 0.004114104, 0.008925777, -0.009874309, 0.01012392, -0.03382632, 0.008857699, -0.01012305
 151097996, 0.004179317, 0.005352887, 0.008925409, -0.009916186, 0.0116335, 0.004114104, 0.008925777, -0.009874309
 151152984, -0.002305431, 0.03664444, 0.008931839, -0.01029795, 0.004179317, 0.005352887, 0.008925409, -0.009916186
 151208027, -0.003159601, 0.01283863, 0.008959484, -0.009986121, -0.002305431, 0.03664444, 0.008931839, -0.01029795
 151262986, 0.01038519, -0.03486166, 0.00899343, -0.01027839, -0.003159601, 0.01283863, 0.008959484, -0.009986121
 151318664, 0.01199168, 0.005049374, 0.009013666, -0.009971645, 0.01038519, -0.03486166, 0.00899343, -0.01027839
 151373234, 0.003958573, 0.004192549, 0.008982225, -0.009972885, 0.01199168, 0.005049374, 0.009013666, -0.009971645
 151422968, -0.008913822, 0.0529124, 0.008983333, -0.01070559, 0.003958573, 0.004192549, 0.008982225, -0.009972885
 151478027, 0.004094743, 0.00505891, 0.008992376, -0.009974701, -0.008913822, 0.0529124, 0.008983333, -0.01070559
 151533010, 0.01689911, -0.04278048, 0.00894644, -0.01033218, 0.004094743, 0.00505891, 0.008992376, -0.009974701
 151588043, 0.003522598, 0.005000794, 0.008782784, -0.009746219, 0.01689911, -0.04278048, 0.00894644, -0.01033218
 151643492, 0.004047198, 0.004790072, 0.008691457, -0.009642483, 0.003522598, 0.005000794, 0.008782784, -0.009746219
 151697983, -0.008886361, 0.04291077, 0.008639163, -0.01009888, 0.004047198, 0.004790072, 0.008691457, -0.009642483
 151753012, 0.01134839, 0.004308364, 0.008796978, -0.009716149, -0.008886361, 0.04291077, 0.008639163, -0.01009888
 151808010, 0.00963332, -0.03396109, 0.008838959, -0.01009616, 0.01134839, 0.004308364, 0.008796978, -0.009716149
 151862971, 0.003368394, -0.002798079, 0.008882557, -0.009847557, 0.00963332, -0.03396109, 0.008838959, -0.01009616
 151918477, 0.004607474, 0.01297076, 0.008923301, -0.009937399, 0.003368394, -0.002798079, 0.008882557, -0.009847557
 151972970, -0.00889185, 0.05265963, 0.008949094, -0.0106539, 0.004607474, 0.01297076, 0.008923301, -0.009937399
 152022983, 0.01866658, -0.00431534, 0.008994967, -0.009867897, -0.00889185, 0.05265963, 0.008949094, -0.0106539
 152078003, 0.0026044, -0.03345683, 0.008750799, -0.01003299, 0.01866658, -0.00431534, 0.008994967, -0.009867897
 152133024, 0.003394425, -0.002816092, 0.008803586, -0.009749087, 0.0026044, -0.03345683, 0.008750799, -0.01003299
 152188025, 0.004414117, 0.0128165, 0.008852818, -0.009850339, 0.003394425, -0.002816092, 0.008803586, -0.009749087
 152243498, -0.009893494, 0.04424841, 0.008920512, -0.01038849, 0.004414117, 0.0128165, 0.008852818, -0.009850339
 152298009, 0.00481757, 0.004882142, 0.008942526, -0.009904828, -0.009893494, 0.04424841, 0.008920512, -0.01038849
 152353059, 0.01679883, -0.04264295, 0.009035459, -0.01040357, 0.00481757, 0.004882142, 0.008942526, -0.009904828
 152408017, 0.004222722, 0.005572709, 0.008972491, -0.009942234, 0.01679883, -0.04264295, 0.009035459, -0.01040357
 152463017, 0.01186207, 0.01139032, 0.008899314, -0.009849476, 0.004222722, 0.005572709, 0.008972491, -0.009942234
 152518469, -0.01675596, 0.04412149, 0.008823406, -0.01021893, 0.01186207, 0.01139032, 0.008899314, -0.009849476
 152573017, 0.00429483, 0.004650061, 0.008813444, -0.009756651, -0.01675596, 0.04412149, 0.008823406, -0.01021893
 152623065, 0.01696214, -0.04211004, 0.008958125, -0.01030389, 0.00429483, 0.004650061, 0.008813444, -0.009756651
 152677996, 0.01185586, 0.004148725, 0.008962602, -0.009879031, 0.01696214, -0.04211004, 0.008958125, -0.01030389
 152733010, -0.003426252, 0.01329516, 0.00895365, -0.009952255, 0.01185586, 0.004148725, 0.008962602, -0.009879031
 152787999, -0.001716734, 0.04509585, 0.008942666, -0.01046901, -0.003426252, 0.01329516, 0.00895365, -0.009952255
 152843844, -0.003702712, 0.004968891, 0.008921575, -0.009865595, -0.001716734, 0.04509585, 0.008942666, -0.01046901
 152898061, 0.0169895, -0.04215063, 0.008861456, -0.01020157, -0.003702712, 0.004968891, 0.008921575, -0.009865595
 152953011, 0.004180329, 0.00520517, 0.00893847, -0.009883088, 0.0169895, -0.04215063, 0.008861456, -0.01020157
 153008003, 0.004999678, 0.02098044, 0.009068151, -0.01015355, 0.004180329, 0.00520517, 0.00893847, -0.009883088
 153063010, 0.004825005, 0.02934982, 0.009145411, -0.01034975, 0.004999678, 0.02098044, 0.009068151, -0.01015355
 153118698, -0.01130316, 0.01310573, 0.009138951, -0.01010454, 0.004825005, 0.02934982, 0.009145411, -0.01034975
 153168498, 0.01787739, -0.04349942, 0.009160907, -0.01052578, -0.01130316, 0.01310573, 0.009138951, -0.01010454
 153223013, 0.003822923, 0.0052934, 0.009056021, -0.01001504, 0.01787739, -0.04349942, 0.009160907, -0.01052578
 153277991, -0.002683071, 0.02990121, 0.009152367, -0.0103547, 0.003822923, 0.0052934, 0.009056021, -0.01001504
 153333009, 0.005499761, 0.02049727, 0.009276485, -0.01035703, -0.002683071, 0.02990121, 0.009152367, -0.0103547
 153388053, 0.01183661, 0.004301822, 0.009124442, -0.01004789, 0.005499761, 0.02049727, 0.009276485, -0.01035703
 153443471, 0.002383579, -0.03371358, 0.008882804, -0.01013937, 0.01183661, 0.004301822, 0.009124442, -0.01004789
 153497983, 0.004225234, 0.004485007, 0.008773202, -0.009688166, 0.002383579, -0.03371358, 0.008882804, -0.01013937
 153553001, 0.004809957, 0.02016012, 0.008745018, -0.009789242, 0.004225234, 0.004485007, 0.008773202, -0.009688166
 153608013, -0.002526531, 0.03555382, 0.008808637, -0.01009124, 0.004809957, 0.02016012, 0.008745018, -0.009789242
 153662999, -0.003165914, 0.00534589, 0.008891411, -0.009818626, -0.002526531, 0.03555382, 0.008808637, -0.01009124
 153718472, 0.0169056, -0.04262213, 0.009013581, -0.01034526, -0.003165914, 0.00534589, 0.008891411, -0.009818626
 153768470, 0.004284922, 0.004575721, 0.008955992, -0.009891379, 0.0169056, -0.04262213, 0.009013581, -0.01034526
 153822992, 0.004531093, 0.02103686, 0.008973191, -0.01003207, 0.004284922, 0.004575721, 0.008955992, -0.009891379
 153878005, -0.002906158, 0.02910996, 0.008985729, -0.01015159, 0.004531093, 0.02103686, 0.008973191, -0.01003207
 153933005, 0.004550629, 0.0126293, 0.009004968, -0.009973734, -0.002906158, 0.02910996, 0.008985729, -0.01015159
 153987978, 0.009747289, -0.03453473, 0.009027591, -0.01025227, 0.004550629, 0.0126293, 0.009004968, -0.009973734
 154043487, 0.003462416, -0.002645204, 0.00901113, -0.009942161, 0.009747289, -0.03453473, 0.009027591, -0.01025227
 154097984, 0.004969858, 0.02826029, 0.009003079, -0.01016694, 0.003462416, -0.002645204, 0.00901113, -0.009942161
 154153053, -0.01036629, 0.02994107, 0.009042677, -0.01018233, 0.004969858, 0.02826029, 0.009003079, -0.01016694
 154208057, 0.004193395, 0.00431957, 0.008900439, -0.009816829, -0.01036629, 0.02994107, 0.009042677, -0.01018233
 154262979, 0.0166883, -0.04251448, 0.00885115, -0.01017594, 0.004193395, 0.00431957, 0.008900439, -0.009816829
 154318489, 0.004169684, 0.00547232, 0.008864563, -0.009777921, 0.0166883, -0.04251448, 0.00885115, -0.01017594
 154368453, 0.00563049, 0.03613362, 0.008886117, -0.0101856, 0.004169684, 0.00547232, 0.008864563, -0.009777921
 154423049, -0.01067342, 0.02118436, 0.008976008, -0.009981696, 0.00563049, 0.03613362, 0.008886117, -0.0101856
 154478011, 0.004195298, 0.004716386, 0.008976957, -0.009894699, -0.01067342, 0.02118436, 0.008976008, -0.009981696
 154533027, 0.01746541, -0.04230557, 0.009071646, -0.01038396, 0.004195298, 0.004716386, 0.008976957, -0.009894699
 154587970, 0.004546341, 0.005095047, 0.009004653, -0.009923134, 0.01746541, -0.04230557, 0.009071646, -0.01038396
 154643505, -0.002026316, 0.0439523, 0.008990479, -0.01044467, 0.004546341, 0.005095047, 0.009004653, -0.009923134
 154698021, 0.0043638, 0.0127605, 0.009014925, -0.009978, -0.002026316, 0.0439523, 0.008990479, -0.01044467
 154752990, 0.004048816, 0.005214913, 0.009018778, -0.009944847, 0.0043638, 0.0127605, 0.009014925, -0.009978
 154808005, 0.009473477, -0.04259517, 0.009032423, -0.01042027, 0.004048816, 0.005214913, 0.009018778, -0.009944847
 154862978, 0.01229199, 0.00501051, 0.009061236, -0.009948379, 0.009473477, -0.04259517, 0.009032423, -0.01042027
 154912995, -0.01831393, 0.03728799, 0.009237162, -0.01042668, 0.01229199, 0.00501051, 0.009061236, -0.009948379
 154968490, 0.004967344, 0.01307495, 0.009238532, -0.01021547, -0.01831393, 0.03728799, 0.009237162, -0.01042668
 155023012, 0.02016587, 0.004733967, 0.009317842, -0.01015129, 0.004967344, 0.01307495, 0.009238532, -0.01021547
 155078027, 0.002558541, -0.03463117, 0.009135543, -0.01038556, 0.02016587, 0.004733967, 0.009317842, -0.01015129
 155133085, 0.004090018, 0.004481699, 0.009105929, -0.01003015, 0.002558541, -0.03463117, 0.009135543, -0.01038556
 155188115, 0.005540423, 0.03704086, 0.009067532, -0.01037867, 0.004090018, 0.004481699, 0.009105929, -0.01003015
 155243533, -0.002577724, 0.02119897, 0.009064176, -0.01009916, 0.005540423, 0.03704086, 0.009067532, -0.01037867
 155298048, 0.00435508, 0.005041602, 0.009122726, -0.01004132, -0.002577724, 0.02119897, 0.009064176, -0.01009916
 155353079, 0.009963105, -0.04340833, 0.009270822, -0.01066249, 0.00435508, 0.005041602, 0.009122726, -0.01004132
 155408046, 0.004556342, 0.004217335, 0.009261847, -0.01018631, 0.009963105, -0.04340833, 0.009270822, -0.01066249
 155458098, 0.006234055, 0.04477978, 0.00915244, -0.01062973, 0.004556342, 0.004217335, 0.009261847, -0.01018631
 155513064, -0.003781764, 0.005724966, 0.00900723, -0.009916387, 0.006234055, 0.04477978, 0.00915244, -0.01062973
 155568497, 0.004111711, 0.005176255, 0.008899134, -0.009786052, -0.003781764, 0.005724966, 0.00900723, -0.009916387
 155623026, 0.01034127, -0.03476567, 0.008866326, -0.01005606, 0.004111711, 0.005176255, 0.008899134, -0.009786052
 155678016, 0.004237236, 0.004764013, 0.008911308, -0.009803898, 0.01034127, -0.03476567, 0.008866326, -0.01005606
 155733035, -0.001840227, 0.04463828, 0.008933152, -0.0103895, 0.004237236, 0.004764013, 0.008911308, -0.009803898
 155788018, 0.004123249, 0.005103633, 0.008977817, -0.009874681, -0.001840227, 0.04463828, 0.008933152, -0.0103895
 155843514, 0.01969511, -0.004043453, 0.009109236, -0.009894833, 0.004123249, 0.005103633, 0.008977817, -0.009874681
 155898006, 0.002204017, -0.02621925, 0.009003053, -0.01009517, 0.01969511, -0.004043453, 0.009109236, -0.009894833
 155953054, 0.004216787, -0.002520204, 0.008854279, -0.00973274, 0.002204017, -0.02621925, 0.009003053, -0.01009517
 156008023, -0.001054012, 0.05868284, 0.008738744, -0.01061084, 0.004216787, -0.002520204, 0.008854279, -0.00973274
 156062955, -0.01115021, 0.005222519, 0.008907861, -0.009755511, -0.001054012, 0.05868284, 0.008738744, -0.01061084
 156112998, 0.003361044, -0.01063001, 0.008806967, -0.00969978, -0.01115021, 0.005222519, 0.008907861, -0.009755511
 156168484, 0.0180997, -0.02618245, 0.008724505, -0.009672094, 0.003361044, -0.01063001, 0.008806967, -0.00969978
 156223045, 0.003590412, 0.004584855, 0.008503171, -0.00933802, 0.0180997, -0.02618245, 0.008724505, -0.009672094
 156277983, 0.006241427, 0.04163267, 0.008501086, -0.009896397, 0.003590412, 0.004584855, 0.008503171, -0.00933802
 156333017, 0.003659683, 0.004259136, 0.008539792, -0.009381883, 0.006241427, 0.04163267, 0.008501086, -0.009896397
 156388006, 0.00362317, -0.002424393, 0.008547205, -0.00938547, 0.003659683, 0.004259136, 0.008539792, -0.009381883
 156443467, 0.01021771, -0.02538503, 0.008649738, -0.009649807, 0.00362317, -0.002424393, 0.008547205, -0.00938547
 156498013, 0.004169459, 0.004896518, 0.00877461, -0.009631365, 0.01021771, -0.02538503, 0.008649738, -0.009649807
 156553028, -0.002179434, 0.04238126, 0.008728308, -0.01011624, 0.004169459, 0.004896518, 0.00877461, -0.009631365
 156602993, -0.01055008, 0.01314207, 0.00873564, -0.009599543, -0.002179434, 0.04238126, 0.008728308, -0.01011624
 156658007, 0.01097659, -0.01064738, 0.00881403, -0.009659515, -0.01055008, 0.01314207, 0.00873564, -0.009599543
 156713000, 0.01827574, -0.02652701, 0.008970469, -0.009928316, 0.01097659, -0.01064738, 0.00881403, -0.009659515
 156768487, 0.004156121, 0.004547856, 0.00891939, -0.009787861, 0.01827574, -0.02652701, 0.008970469, -0.009928316
 156822992, -0.0019404, 0.04389303, 0.008941233, -0.01036103, 0.004156121, 0.004547856, 0.00891939, -0.009787861
 156877960, -0.01104832, 0.01430409, 0.00902559, -0.00992092, -0.0019404, 0.04389303, 0.008941233, -0.01036103
 156933005, 0.0115774, -0.003617769, 0.009050355, -0.009888336, -0.01104832, 0.01430409, 0.00902559, -0.00992092
 156988043, 0.0104422, -0.02663557, 0.009048972, -0.01008576, 0.0115774, -0.003617769, 0.009050355, -0.009888336
 157043710, 0.01154575, -0.01143798, 0.009073122, -0.009935034, 0.0104422, -0.02663557, 0.009048972, -0.01008576
 157098025, -0.009196181, 0.05353847, 0.009042519, -0.01066529, 0.01154575, -0.01143798, 0.009073122, -0.009935034
 157153018, 0.01194209, 0.004169197, 0.009084202, -0.009916785, -0.009196181, 0.05353847, 0.009042519, -0.01066529
 157203036, 0.00282959, -0.01854822, 0.009045238, -0.0100069, 0.01194209, 0.004169197, 0.009084202, -0.009916785
 157258046, 0.01137289, -0.01113979, 0.009086422, -0.009947058, 0.00282959, -0.01854822, 0.009045238, -0.0100069
 157313013, 0.004246238, 0.004873937, 0.009053273, -0.009923404, 0.01137289, -0.01113979, 0.009086422, -0.009947058
 157368474, -0.009171244, 0.05257466, 0.008989521, -0.01058608, 0.004246238, 0.004873937, 0.009053273, -0.009923404
 157423016, 0.004172507, 0.00440653, 0.008849172, -0.009688229, -0.009171244, 0.05257466, 0.008989521, -0.01058608
 157477995, 0.01882765, -0.0186115, 0.008975365, -0.009810758, 0.004172507, 0.00440653, 0.008849172, -0.009688229
 157533022, 0.002991349, -0.01882926, 0.008935378, -0.009884021, 0.01882765, -0.0186115, 0.008975365, -0.009810758
 157588040, 0.003423405, -0.002673642, 0.008729496, -0.009554517, 0.002991349, -0.01882926, 0.008935378, -0.009884021
 157643531, -0.001276418, 0.04933478, 0.008474123, -0.01005139, 0.003423405, -0.002673642, 0.008729496, -0.009554517
 157698021, -0.003417915, 0.005158871, 0.008707075, -0.009529832, -0.001276418, 0.04933478, 0.008474123, -0.01005139
 157747995, 0.01160035, -0.01061827, 0.00882789, -0.009659389, -0.003417915, 0.005158871, 0.008707075, -0.009529832
 157802988, 0.003217024, -0.01867341, 0.008883344, -0.009827058, 0.01160035, -0.01061827, 0.00882789, -0.009659389
 157858006, 0.003982767, 0.004888571, 0.008948676, -0.009801179, 0.003217024, -0.01867341, 0.008883344, -0.009827058
 157912984, -0.001626415, 0.05215998, 0.008957412, -0.01057302, 0.003982767, 0.004888571, 0.008948676, -0.009801179
 157968505, -0.0108805, 0.005690302, 0.008977168, -0.009790729, -0.001626415, 0.05215998, 0.008957412, -0.01057302
 158023049, 0.02543897, -0.02655002, 0.009011212, -0.009841414, -0.0108805, 0.005690302, 0.008977168, -0.009790729
 158078038, 0.003301078, -0.010924, 0.008736857, -0.009586438, 0.02543897, -0.02655002, 0.009011212, -0.009841414
 158133029, 0.003383324, 0.005310105, 0.008681545, -0.009504673, 0.003301078, -0.010924, 0.008736857, -0.009586438
 158188028, -0.007972711, 0.05792474, 0.008646563, -0.01043182, 0.003383324, 0.005310105, 0.008681545, -0.009504673
 158243473, 0.01115199, 0.004628797, 0.008671425, -0.009445154, -0.007972711, 0.05792474, 0.008646563, -0.01043182
 158297993, 0.01081174, -0.03347461, 0.008769593, -0.009873133, 0.01115199, 0.004628797, 0.008671425, -0.009445154
 158348016, 0.01012081, -0.01902219, 0.008848389, -0.009746102, 0.01081174, -0.03347461, 0.008769593, -0.009873133
 158402990, 0.004268317, 0.005033188, 0.008787723, -0.00961445, 0.01012081, -0.01902219, 0.008848389, -0.009746102
 158457979, -0.00124962, 0.05841684, 0.008673492, -0.0105048, 0.004268317, 0.005033188, 0.008787723, -0.00961445
 158513050, -0.01074325, 0.005241755, 0.008709177, -0.009482791, -0.00124962, 0.05841684, 0.008673492, -0.0105048
 158568451, 0.02486809, -0.03402549, 0.008847232, -0.009788001, -0.01074325, 0.005241755, 0.008709177, -0.009482791
 158623028, 0.004082476, -0.002346382, 0.008635899, -0.009428334, 0.02486809, -0.03402549, 0.008847232, -0.009788001
 158677961, 0.003853956, 0.004144982, 0.008624388, -0.009413346, 0.004082476, -0.002346382, 0.008635899, -0.009428334
 158733010, -0.009055037, 0.0424988, 0.008622448, -0.00993483, 0.003853956, 0.004144982, 0.008624388, -0.009413346
 158788029, 0.004728769, 0.01177735, 0.008675061, -0.009507749, -0.009055037, 0.0424988, 0.008622448, -0.00993483
 158843512, 0.01005886, -0.03298997, 0.008834875, -0.009931587, 0.004728769, 0.01177735, 0.008675061, -0.009507749
 158893465, 0.01211257, -0.003181482, 0.008949718, -0.009720912, 0.01005886, -0.03298997, 0.008834875, -0.009931587
 158947991, 0.003979256, 0.005190408, 0.008948921, -0.009774601, 0.01211257, -0.003181482, 0.008949718, -0.009720912
 159002969, -0.001813689, 0.04379002, 0.008966241, -0.01034455, 0.003979256, 0.005190408, 0.008948921, -0.009774601
 159058056, -0.01136487, 0.01304685, 0.009055174, -0.009892155, -0.001813689, 0.04379002, 0.008966241, -0.01034455
 159113008, 0.02635999, -0.0352078, 0.009235878, -0.0101966, -0.01136487, 0.01304685, 0.009055174, -0.009892155
 159168491, 0.004478159, -0.002686537, 0.009048542, -0.009878678, 0.02635999, -0.0352078, 0.009235878, -0.0101966
 159223001, 0.004122951, 0.004658716, 0.008938384, -0.009758154, 0.004478159, -0.002686537, 0.009048542, -0.009878678
 159277998, -0.01666238, 0.04344194, 0.00889226, -0.0101474, 0.004122951, 0.004658716, 0.008938384, -0.009758154
 159333038, 0.003845323, 0.004902135, 0.008738088, -0.009543481, -0.01666238, 0.04344194, 0.00889226, -0.0101474
 159388014, 0.01800636, -0.02639538, 0.008799931, -0.009698728, 0.003845323, 0.004902135, 0.008738088, -0.009543481
 159438000, 0.01128624, -0.01041426, 0.008705434, -0.009483998, 0.01800636, -0.02639538, 0.008799931, -0.009698728
 159493472, 0.004615, 0.004591804, 0.00871391, -0.009500671, 0.01128624, -0.01041426, 0.008705434, -0.009483998
 159548015, -0.008023856, 0.05919541, 0.00879442, -0.01057038, 0.004615, 0.004591804, 0.00871391, -0.009500671
 159602987, 0.00412893, 0.004744587, 0.008908067, -0.009704494, -0.008023856, 0.05919541, 0.00879442, -0.01057038
 159658030, 0.01781359, -0.04256583, 0.009053252, -0.0102592, 0.00412893, 0.004744587, 0.008908067, -0.009704494
 159712999, 0.004276343, 0.005180098, 0.008943867, -0.009751066, 0.01781359, -0.04256583, 0.009053252, -0.0102592
 159768495, 0.004446738, 0.004905001, 0.00885389, -0.009661366, 0.004276343, 0.005180098, 0.008943867, -0.009751066
 159823070, -0.0170149, 0.05140254, 0.008898445, -0.01036109, 0.004446738, 0.004905001, 0.00885389, -0.009661366
 159878028, 0.01976054, 0.004116461, 0.009021694, -0.00973544, -0.0170149, 0.05140254, 0.008898445, -0.01036109
 159933028, 0.01060115, -0.04227006, 0.008994372, -0.01027088, 0.01976054, 0.004116461, 0.009021694, -0.00973544
 159983054, 0.004077382, -0.002953094, 0.009004605, -0.009812878, 0.01060115, -0.04227006, 0.008994372, -0.01027088
 160037954, 0.004925633, 0.005271827, 0.009153698, -0.009980915, 0.004077382, -0.002953094, 0.009004605, -0.009812878
 160093728, -0.00936929, 0.06963401, 0.00928307, -0.01132708, 0.004925633, 0.005271827, 0.009153698, -0.009980915
 160148019, 0.004654666, 0.004987804, 0.009244143, -0.01007674, -0.00936929, 0.06963401, 0.00928307, -0.01132708
 160202974, 0.01055057, -0.05123957, 0.009201317, -0.01068268, 0.004654666, 0.004987804, 0.009244143, -0.01007674
 160258036, 0.01241357, 0.004559451, 0.009189107, -0.00997321, 0.01055057, -0.05123957, 0.009201317, -0.01068268
 160312996, 0.004319502, -0.003211935, 0.009129794, -0.009941681, 0.01241357, 0.004559451, 0.009189107, -0.00997321
 160368483, -0.01764375, 0.05317805, 0.009189783, -0.01066384, 0.004319502, -0.003211935, 0.009129794, -0.009941681
 160423020, 0.004911865, 0.01333924, 0.009104147, -0.00996642, -0.01764375, 0.05317805, 0.009189783, -0.01066384
 160477977, 0.01832213, -0.0505395, 0.009182188, -0.01057472, 0.004911865, 0.01333924, 0.009104147, -0.00996642
 160527989, 0.003888911, 0.004540429, 0.009094527, -0.009909387, 0.01832213, -0.0505395, 0.009182188, -0.01057472
 160583041, 0.01201892, 0.004356069, 0.008959058, -0.009722264, 0.003888911, 0.004540429, 0.009094527, -0.009909387
 160638045, -0.01735847, 0.05233319, 0.008951576, -0.01041471, 0.01201892, 0.004356069, 0.008959058, -0.009722264
 160693517, 0.004400198, 0.004566411, 0.008950672, -0.009751147, -0.01735847, 0.05233319, 0.008951576, -0.01041471
 160748029, 0.02658464, -0.03479983, 0.009191513, -0.01010561, 0.004400198, 0.004566411, 0.008950672, -0.009751147
 160802984, 0.004638962, 0.004824346, 0.009028274, -0.009821837, 0.02658464, -0.03479983, 0.009191513, -0.01010561
 160858049, 0.003615006, 0.005435536, 0.009166178, -0.009983775, 0.004638962, 0.004824346, 0.009028274, -0.009821837
 160913036, -0.01809422, 0.05453669, 0.009393051, -0.0108634, 0.003615006, 0.005435536, 0.009166178, -0.009983775
 160968480, 0.003717442, 0.005372635, 0.009372838, -0.01020877, -0.01809422, 0.05453669, 0.009393051, -0.0108634
 161023034, 0.02631854, -0.05172462, 0.009609524, -0.01093015, 0.003717442, 0.005372635, 0.009372838, -0.01020877
 161078037, 0.003575949, 0.005492283, 0.009322433, -0.01014099, 0.02631854, -0.05172462, 0.009609524, -0.01093015
 161128040, -0.004509011, 0.01604877, 0.009260908, -0.01014239, 0.003575949, 0.005492283, 0.009322433, -0.01014099
 161183049, 0.003677129, 0.03822277, 0.009181548, -0.01040085, -0.004509011, 0.01604877, 0.009260908, -0.01014239
 161238041, 0.004469767, 0.01499934, 0.009163981, -0.01002601, 0.003677129, 0.03822277, 0.009181548, -0.01040085
 161293502, 0.008420097, -0.0530957, 0.009132473, -0.01067915, 0.004469767, 0.01499934, 0.009163981, -0.01002601
 161348265, 0.0142191, -0.01157222, 0.009172418, -0.009969924, 0.008420097, -0.0530957, 0.009132473, -0.01067915
 161403019, 0.0261582, -0.0104922, 0.009288441, -0.009959144, 0.0142191, -0.01157222, 0.009172418, -0.009969924
 161458038, 0.009870541, 0.02794335, 0.009106547, -0.01013027, 0.0261582, -0.0104922, 0.009288441, -0.009959144
 161512985, 0.08994393, -0.01580031, 0.01113769, -0.01003565, 0.009870541, 0.02794335, 0.009106547, -0.01013027
 161568492, 0.06552778, -0.2225748, 0.01007969, -0.01906641, 0.08994393, -0.01580031, 0.01113769, -0.01003565
 161618501, 0.1237456, -0.3436064, 0.01259914, -0.02716468, 0.06552778, -0.2225748, 0.01007969, -0.01906641
 161673051, 0.2623785, -0.5353954, 0.02156134, -0.04170166, 0.1237456, -0.3436064, 0.01259914, -0.02716468
 161727991, 0.1165065, -0.7487936, 0.01164479, -0.05889062, 0.2623785, -0.5353954, 0.02156134, -0.04170166
 161778004, 0.3082418, -0.7553508, 0.0249736, -0.05874904, 0.1165065, -0.7487936, 0.01164479, -0.05889062
 161833081, 0.06511531, -0.2225893, 0.009523767, -0.0193233, 0.3082418, -0.7553508, 0.0249736, -0.05874904
 161888038, 0.08704033, 0.05098394, 0.01006163, -0.01027838, 0.06511531, -0.2225893, 0.009523767, -0.0193233
 161943479, 0.008042137, 0.02969942, 0.007629553, -0.009023162, 0.08704033, 0.05098394, 0.01006163, -0.01027838
 161998035, 0.09285428, 0.1185406, 0.01062642, -0.01388066, 0.008042137, 0.02969942, 0.007629553, -0.009023162
 162052985, 0.201082, -0.1717553, 0.01708894, -0.01645745, 0.09285428, 0.1185406, 0.01062642, -0.01388066
 162103042, 0.9625415, -0.754241, 0.06373617, -0.05078442, 0.201082, -0.1717553, 0.01708894, -0.01645745
 162158050, 0.9945995, -0.6922114, 0.06391421, -0.04583625, 0.9625415, -0.754241, 0.06373617, -0.05078442
 162213065, 1.079828, -0.6682907, 0.06712911, -0.04351796, 0.9945995, -0.6922114, 0.06391421, -0.04583625
 162268464, 1.102697, -0.561379, 0.06768514, -0.0374179, 1.079828, -0.6682907, 0.06712911, -0.04351796
 162323037, 1.214066, -0.4887248, 0.07203675, -0.03388158, 1.102697, -0.561379, 0.06768514, -0.0374179
 162377994, 1.228885, -0.4721287, 0.07176814, -0.0336103, 1.214066, -0.4887248, 0.07203675, -0.03388158
 162433072, 1.281976, -0.3717906, 0.0738835, -0.03027209, 1.228885, -0.4721287, 0.07176814, -0.0336103
 162488034, 1.420344, -0.3230804, 0.08090612, -0.02919916, 1.281976, -0.3717906, 0.0738835, -0.03027209
 162538042, 1.434627, -0.3295996, 0.08117012, -0.03034002, 1.420344, -0.3230804, 0.08090612, -0.02919916
 162594306, 1.411055, -0.2927462, 0.07958333, -0.03029586, 1.434627, -0.3295996, 0.08117012, -0.03034002
 162648049, 1.373898, -0.244843, 0.07750937, -0.02977034, 1.411055, -0.2927462, 0.07958333, -0.03029586
 162703087, 1.344611, -0.2956788, 0.07599536, -0.03250206, 1.373898, -0.244843, 0.07750937, -0.02977034
 162758023, 1.324693, -0.3101551, 0.07512543, -0.03422711, 1.344611, -0.2956788, 0.07599536, -0.03250206
 162813048, 1.373209, -0.2788453, 0.07778826, -0.03581094, 1.324693, -0.3101551, 0.07512543, -0.03422711
 162868498, 1.265214, -0.3390899, 0.07297254, -0.03787785, 1.373209, -0.2788453, 0.07778826, -0.03581094
 162923042, 1.269026, -0.4312831, 0.07395387, -0.04240285, 1.265214, -0.3390899, 0.07297254, -0.03787785
 162978012, 1.28641, -0.3321816, 0.0753071, -0.0414539, 1.269026, -0.4312831, 0.07395387, -0.04240285
 163033026, 1.244856, -0.4240832, 0.07418966, -0.04529525, 1.28641, -0.3321816, 0.0753071, -0.0414539
 163083034, 1.301274, -0.409238, 0.0770627, -0.0457927, 1.244856, -0.4240832, 0.07418966, -0.04529525
 163138046, 1.290452, -0.4305964, 0.07750423, -0.04822892, 1.301274, -0.409238, 0.0770627, -0.0457927
 163194310, 1.275904, -0.4928322, 0.07768366, -0.05118959, 1.290452, -0.4305964, 0.07750423, -0.04822892
 163248049, 1.321736, -0.4605766, 0.0802101, -0.05130592, 1.275904, -0.4928322, 0.07768366, -0.05118959
 163303014, 1.206998, -0.4125377, 0.07621039, -0.05159264, 1.321736, -0.4605766, 0.0802101, -0.05130592
 163358034, 1.241634, -0.3533317, 0.07887172, -0.05172147, 1.206998, -0.4125377, 0.07621039, -0.05159264
 163412999, 1.354865, -0.3745439, 0.08481255, -0.05395713, 1.241634, -0.3533317, 0.07887172, -0.05172147
 163468652, 1.181855, -0.3844046, 0.07872345, -0.0551237, 1.354865, -0.3745439, 0.08481255, -0.05395713
 163523008, 1.1745, -0.3253474, 0.08002128, -0.05571382, 1.181855, -0.3844046, 0.07872345, -0.0551237
 163573049, 1.095097, -0.3444126, 0.07790338, -0.05704415, 1.1745, -0.3253474, 0.08002128, -0.05571382
 163627999, 1.166882, -0.186015, 0.08220118, -0.05681483, 1.095097, -0.3444126, 0.07790338, -0.05704415
 163683041, 1.052088, -0.3544351, 0.0792501, -0.06055206, 1.166882, -0.186015, 0.08220118, -0.05681483
 163738076, 1.112348, -0.1186412, 0.0827341, -0.06010062, 1.052088, -0.3544351, 0.0792501, -0.06055206
 163794276, 1.105147, -0.219367, 0.08377632, -0.06212481, 1.112348, -0.1186412, 0.0827341, -0.06010062
 163848047, 0.9934422, -0.1347324, 0.08097065, -0.06297345, 1.105147, -0.219367, 0.08377632, -0.06212481
 163903042, 1.093207, -0.09495796, 0.08552662, -0.06359046, 0.9934422, -0.1347324, 0.08097065, -0.06297345
 163958010, 0.8986474, -0.2178312, 0.08113941, -0.0661644, 1.093207, -0.09495796, 0.08552662, -0.06359046
 164008074, 0.8668416, -0.04231994, 0.08083815, -0.06624293, 0.8986474, -0.2178312, 0.08113941, -0.0661644
 164063038, 0.7720043, -0.0809955, 0.07993391, -0.0679942, 0.8668416, -0.04231994, 0.08083815, -0.06624293
 164118518, 0.5624089, -0.08321337, 0.07634179, -0.07013145, 0.7720043, -0.0809955, 0.07993391, -0.0679942
 164173009, 0.5404913, -0.0569605, 0.07767674, -0.07202297, 0.5624089, -0.08321337, 0.07634179, -0.07013145
 164228011, 0.4021384, -0.1399754, 0.07613994, -0.07353509, 0.5404913, -0.0569605, 0.07767674, -0.07202297
 164283025, 0.2189429, -0.1685416, 0.07483903, -0.07546587, 0.4021384, -0.1399754, 0.07613994, -0.07353509
 164338045, 0.1379643, -0.2239902, 0.07526682, -0.07716452, 0.2189429, -0.1685416, 0.07483903, -0.07546587
 164394601, 0.003230053, -0.1734112, 0.07487167, -0.07844988, 0.1379643, -0.2239902, 0.07526682, -0.07716452
 164448032, -0.2158232, -0.1595467, 0.07589486, -0.07956146, 0.003230053, -0.1734112, 0.07487167, -0.07844988
 164503063, -0.2172413, -0.3577465, 0.07650798, -0.0825295, -0.2158232, -0.1595467, 0.07589486, -0.07956146
 164553009, -0.4982823, -0.3730458, 0.0801383, -0.08464993, -0.2172413, -0.3577465, 0.07650798, -0.0825295
 164608056, -0.428742, -0.4468959, 0.07980226, -0.08619758, -0.4982823, -0.3730458, 0.0801383, -0.08464993
 164663007, -0.5345373, -0.5160957, 0.08161896, -0.08892328, -0.428742, -0.4468959, 0.07980226, -0.08619758
 164718506, -0.7670915, -0.603022, 0.08560767, -0.0922376, -0.5345373, -0.5160957, 0.08161896, -0.08892328
 164773075, -0.7047011, -0.7091444, 0.08513464, -0.09579113, -0.7670915, -0.603022, 0.08560767, -0.0922376
 164828033, -0.9196036, -1.009501, 0.0885035, -0.1046174, -0.7047011, -0.7091444, 0.08513464, -0.09579113
 164883015, -0.8581554, -1.045395, 0.0882252, -0.1074031, -0.9196036, -1.009501, 0.0885035, -0.1046174
 164938015, -0.9577581, -1.191219, 0.09109414, -0.113086, -0.8581554, -1.045395, 0.0882252, -0.1074031
 164988004, -1.079131, -1.259616, 0.09397669, -0.1170599, -0.9577581, -1.191219, 0.09109414, -0.113086
 165043629, -0.9449005, -1.450392, 0.09150073, -0.1238172, -1.079131, -1.259616, 0.09397669, -0.1170599
 165098007, -1.269056, -1.558823, 0.09965279, -0.1301885, -0.9449005, -1.450392, 0.09150073, -0.1238172
 165153051, -1.311107, -1.976262, 0.09955279, -0.1472144, -1.269056, -1.558823, 0.09965279, -0.1301885
 165208035, -1.338772, -1.821113, 0.1022619, -0.1422906, -1.311107, -1.976262, 0.09955279, -0.1472144
 165263029, -1.6885, -2.110167, 0.1117932, -0.156226, -1.338772, -1.821113, 0.1022619, -0.1422906
 165318500, -1.40847, -2.226432, 0.1051026, -0.1603182, -1.6885, -2.110167, 0.1117932, -0.156226
 165373025, -1.568775, -2.531659, 0.1103995, -0.1742762, -1.40847, -2.226432, 0.1051026, -0.1603182
 165428004, -1.769419, -2.795952, 0.1157369, -0.1871805, -1.568775, -2.531659, 0.1103995, -0.1742762
 165478021, -1.559358, -2.833799, 0.1130871, -0.1882026, -1.769419, -2.795952, 0.1157369, -0.1871805
 165533022, -1.843674, -3.158775, 0.122349, -0.2035318, -1.559358, -2.833799, 0.1130871, -0.1882026
 165588041, -1.856388, -3.310517, 0.1243667, -0.2103092, -1.843674, -3.158775, 0.122349, -0.2035318
 165643042, -1.786141, -3.457405, 0.1247642, -0.2164045, -1.856388, -3.310517, 0.1243667, -0.2103092
 165698015, -2.055846, -3.859873, 0.1337048, -0.2356674, -1.786141, -3.457405, 0.1247642, -0.2164045
 165753479, -1.89777, -3.855678, 0.1308921, -0.2357737, -2.055846, -3.859873, 0.1337048, -0.2356674
 165808068, -1.843646, -4.127179, 0.1305718, -0.2475964, -1.89777, -3.855678, 0.1308921, -0.2357737
 165863258, -1.925248, -4.478522, 0.1340272, -0.2642775, -1.843646, -4.127179, 0.1305718, -0.2475964
 165918035, -1.4655, -4.567711, 0.125802, -0.2668159, -1.925248, -4.478522, 0.1340272, -0.2642775
 165968263, -1.552318, -4.719296, 0.130185, -0.2739152, -1.4655, -4.567711, 0.125802, -0.2668159
 166023004, -1.62633, -4.764089, 0.1357196, -0.2763355, -1.552318, -4.719296, 0.130185, -0.2739152
 166078654, -1.657385, -4.842549, 0.1386625, -0.2806976, -1.62633, -4.764089, 0.1357196, -0.2763355
 166133061, -1.419483, -5.539033, 0.1337277, -0.3125384, -1.657385, -4.842549, 0.1386625, -0.2806976
 166188087, -1.306957, -5.016242, 0.1345653, -0.2890505, -1.419483, -5.539033, 0.1337277, -0.3125384
 166243050, -1.090477, -5.192871, 0.1318333, -0.2974879, -1.306957, -5.016242, 0.1345653, -0.2890505
 166298039, -1.181462, -5.223974, 0.134539, -0.3000571, -1.090477, -5.192871, 0.1318333, -0.2974879
 166353493, -0.5118013, -5.243241, 0.1617747, -0.2833934, -1.181462, -5.223974, 0.134539, -0.3000571
 166404823, -0.7080344, -4.902664, 0.164442, -0.2678719, -0.5118013, -5.243241, 0.1617747, -0.2833934
 166458055, -0.5153136, -5.300881, 0.1636743, -0.2865131, -0.7080344, -4.902664, 0.164442, -0.2678719
 166513028, -0.4847282, -5.270181, 0.1641135, -0.285933, -0.5153136, -5.300881, 0.1636743, -0.2865131
 166568023, -0.6207102, -5.026412, 0.165181, -0.2753819, -0.4847282, -5.270181, 0.1641135, -0.285933
 166623045, -0.3953994, -5.130465, 0.1633798, -0.2812382, -0.6207102, -5.026412, 0.165181, -0.2753819
 166678501, -0.5758055, -5.435544, 0.1662107, -0.2951756, -0.3953994, -5.130465, 0.1633798, -0.2812382
 166733546, -0.5103673, -4.950671, 0.1633227, -0.2749561, -0.5758055, -5.435544, 0.1662107, -0.2951756
 166789886, -0.4394022, -5.207694, 0.1637055, -0.2864265, -0.5103673, -4.950671, 0.1633227, -0.2749561
 166841018, -0.7185432, -5.357381, 0.1690447, -0.2919903, -0.4394022, -5.207694, 0.1637055, -0.2864265
 166895992, -0.5349322, -4.869442, 0.1653832, -0.2711162, -0.7185432, -5.357381, 0.1690447, -0.2919903
 166948997, -0.6431482, -5.010404, 0.1683949, -0.2763495, -0.5349322, -4.869442, 0.1653832, -0.2711162
 167004032, -0.4590312, -4.935615, 0.1669408, -0.2733232, -0.6431482, -5.010404, 0.1683949, -0.2763495
 167059012, -0.5689576, -4.569928, 0.1695831, -0.2564774, -0.4590312, -4.935615, 0.1669408, -0.2733232
 167115932, -0.7081367, -4.935202, 0.1755271, -0.2712294, -0.5689576, -4.569928, 0.1695831, -0.2564774
 167169266, -0.4747328, -4.618705, 0.171071, -0.2592984, -0.7081367, -4.935202, 0.1755271, -0.2712294
 167221865, -0.554913, -4.232277, 0.1723811, -0.2431603, -0.4747328, -4.618705, 0.171071, -0.2592984
 167276883, -0.5505452, -4.541854, 0.1752243, -0.2559974, -0.554913, -4.232277, 0.1723811, -0.2431603
 167331873, -0.656898, -4.21601, 0.1764519, -0.2426081, -0.5505452, -4.541854, 0.1752243, -0.2559974
 167387555, -0.6691087, -3.967008, 0.1757993, -0.2330567, -0.656898, -4.21601, 0.1764519, -0.2426081
 167441880, -0.8786637, -4.089452, 0.181285, -0.2370901, -0.6691087, -3.967008, 0.1757993, -0.2330567
 167492058, -1.094665, -4.012203, 0.1856584, -0.2335866, -0.8786637, -4.089452, 0.181285, -0.2370901
 167546901, -0.9643748, -3.880883, 0.182733, -0.2294668, -1.094665, -4.012203, 0.1856584, -0.2335866
 167601884, -1.264368, -3.754417, 0.1887859, -0.2237975, -0.9643748, -3.880883, 0.182733, -0.2294668
 167656883, -1.1626, -3.751987, 0.1870987, -0.2247258, -1.264368, -3.754417, 0.1887859, -0.2237975
 167713564, -1.174355, -3.544288, 0.1866966, -0.2180614, -1.1626, -3.751987, 0.1870987, -0.2247258
 167766860, -1.220775, -3.545988, 0.188028, -0.2185384, -1.174355, -3.544288, 0.1866966, -0.2180614
 167822087, -1.12814, -3.354444, 0.1862479, -0.2121146, -1.220775, -3.545988, 0.188028, -0.2185384
 167872110, -0.8505132, -3.328848, 0.1813763, -0.2127565, -1.12814, -3.354444, 0.1862479, -0.2121146
 167927542, -1.279471, -3.148041, 0.1886853, -0.2053737, -0.8505132, -3.328848, 0.1813763, -0.2127565
 167982504, -0.7872, -3.183925, 0.1808653, -0.2086134, -1.279471, -3.148041, 0.1886853, -0.2053737
 168039973, -0.8396521, -3.115477, 0.1826268, -0.2060443, -0.7872, -3.183925, 0.1808653, -0.2086134
 168089980, -0.9025635, -2.909921, 0.1836397, -0.1987463, -0.8396521, -3.115477, 0.1826268, -0.2060443
 168144957, -0.9130661, -3.135602, 0.1862744, -0.2063533, -0.9025635, -2.909921, 0.1836397, -0.1987463
 168199936, -0.9323426, -2.973362, 0.1869631, -0.2010826, -0.9130661, -3.135602, 0.1862744, -0.2063533
 168254935, -0.6807579, -2.852253, 0.1840283, -0.198801, -0.9323426, -2.973362, 0.1869631, -0.2010826
 168311654, -0.7215095, -3.130916, 0.1859871, -0.2085473, -0.6807579, -2.852253, 0.1840283, -0.198801
 168364984, -0.7068121, -2.618425, 0.1847571, -0.1926597, -0.7215095, -3.130916, 0.1859871, -0.2085473
 168420203, -0.5582253, -2.697476, 0.1836697, -0.1964426, -0.7068121, -2.618425, 0.1847571, -0.1926597
 168474982, -0.6207124, -2.843071, 0.1855482, -0.2014093, -0.5582253, -2.697476, 0.1836697, -0.1964426
 168529987, -0.4956343, -2.522022, 0.1830999, -0.1928408, -0.6207124, -2.843071, 0.1855482, -0.2014093
 168580015, -0.2936442, -2.552348, 0.1818905, -0.1955621, -0.4956343, -2.522022, 0.1830999, -0.1928408
 168635469, -0.5428377, -2.352358, 0.1837597, -0.1904855, -0.2936442, -2.552348, 0.1818905, -0.1955621
 168690208, -0.5904916, -2.245303, 0.1835454, -0.1887864, -0.5428377, -2.352358, 0.1837597, -0.1904855
 168744955, -0.2265923, -2.2147, 0.180744, -0.1900071, -0.5904916, -2.245303, 0.1835454, -0.1887864
 168799933, -0.4216948, -2.222716, 0.1815987, -0.1917325, -0.2265923, -2.2147, 0.180744, -0.1900071
 168854925, -0.4298991, -2.183511, 0.1818271, -0.1920255, -0.4216948, -2.222716, 0.1815987, -0.1917325
 168911923, -0.3495885, -2.102964, 0.1813243, -0.1907549, -0.4298991, -2.183511, 0.1818271, -0.1920255
 168964996, -0.1521975, -1.880577, 0.1805653, -0.1868024, -0.3495885, -2.102964, 0.1813243, -0.1907549
 169020068, -0.2208305, -2.099881, 0.1814834, -0.1933713, -0.1521975, -1.880577, 0.1805653, -0.1868024
 169070097, -0.2621338, -2.003976, 0.18223, -0.1920706, -0.2208305, -2.099881, 0.1814834, -0.1933713
 169125097, -0.01631615, -1.67636, 0.1820881, -0.1857925, -0.2621338, -2.003976, 0.18223, -0.1920706
 169180088, 0.2339867, -2.288136, 0.1839548, -0.2023732, -0.01631615, -1.67636, 0.1820881, -0.1857925
 169235513, 0.2260967, -1.892496, 0.1841863, -0.1934244, 0.2339867, -2.288136, 0.1839548, -0.2023732
 169290085, 0.1602184, -1.842017, 0.1851227, -0.1923616, 0.2260967, -1.892496, 0.1841863, -0.1934244
 169345092, 0.1792815, -2.148553, 0.1866342, -0.2004966, 0.1602184, -1.842017, 0.1851227, -0.1923616
 169400031, 0.3031442, -1.608462, 0.1886347, -0.1878896, 0.1792815, -2.148553, 0.1866342, -0.2004966
 169455309, 0.2324252, -1.588262, 0.1898495, -0.1876376, 0.3031442, -1.608462, 0.1886347, -0.1878896
 169505045, 0.3726992, -1.306924, 0.1904273, -0.1831605, 0.2324252, -1.588262, 0.1898495, -0.1876376
 169560531, 0.3134301, -1.288397, 0.191238, -0.1836454, 0.3726992, -1.306924, 0.1904273, -0.1831605
 169620077, 0.1078986, -1.085675, 0.1910281, -0.1823598, 0.3134301, -1.288397, 0.191238, -0.1836454
 169670090, 0.4566861, -0.9269546, 0.1923728, -0.1817188, 0.1078986, -1.085675, 0.1910281, -0.1823598
 169725286, 0.4644104, -0.6992708, 0.1930062, -0.1808882, 0.4566861, -0.9269546, 0.1923728, -0.1817188
 169780084, 0.2584339, -0.4894272, 0.1926916, -0.1812056, 0.4644104, -0.6992708, 0.1930062, -0.1808882
 169835544, 0.5342656, -0.4889958, 0.1952434, -0.1824058, 0.2584339, -0.4894272, 0.1926916, -0.1812056
 169890116, 0.09923825, -0.3259189, 0.1932234, -0.1834586, 0.5342656, -0.4889958, 0.1952434, -0.1824058
 169940090, 0.3949493, -0.1519627, 0.1945952, -0.1843037, 0.09923825, -0.3259189, 0.1932234, -0.1834586
 169995269, 0.06448722, -0.3485755, 0.1941591, -0.1870391, 0.3949493, -0.1519627, 0.1945952, -0.1843037
 170050102, 0.6455865, 0.1018645, 0.1973491, -0.1869542, 0.06448722, -0.3485755, 0.1941591, -0.1870391
 170105085, 0.6131714, -0.4039394, 0.1984626, -0.1894841, 0.6455865, 0.1018645, 0.1973491, -0.1869542
 170160569, 0.0927571, -0.09249715, 0.1972111, -0.1897096, 0.6131714, -0.4039394, 0.1984626, -0.1894841
 170215065, 0.5968581, -0.5693092, 0.2006303, -0.1926654, 0.0927571, -0.09249715, 0.1972111, -0.1897096
 170270071, 0.3267553, -0.3404258, 0.1988424, -0.1924339, 0.5968581, -0.5693092, 0.2006303, -0.1926654
 170325080, 0.2983491, -0.06314415, 0.1997867, -0.1932163, 0.3267553, -0.3404258, 0.1988424, -0.1924339
 170380285, -0.04107067, -0.08823746, 0.1997643, -0.19481, 0.2983491, -0.06314415, 0.1997867, -0.1932163
 170430054, 0.2579219, -0.2705188, 0.2004556, -0.1967701, -0.04107067, -0.08823746, 0.1997643, -0.19481
 170485785, 0.1679026, -0.5783162, 0.2014264, -0.1993722, 0.2579219, -0.2705188, 0.2004556, -0.1967701
 170540077, -0.114294, -0.5042723, 0.2018284, -0.2007446, 0.1679026, -0.5783162, 0.2014264, -0.1993722
 170595072, 0.2889749, -0.6870596, 0.2036745, -0.2030483, -0.114294, -0.5042723, 0.2018284, -0.2007446
 170650094, 0.01093576, -0.5006984, 0.2038526, -0.202207, 0.2889749, -0.6870596, 0.2036745, -0.2030483
 170705055, -0.1134498, -0.7668402, 0.2056016, -0.2049316, 0.01093576, -0.5006984, 0.2038526, -0.202207
 170760650, -0.05281676, -0.6243042, 0.2070277, -0.2040258, -0.1134498, -0.7668402, 0.2056016, -0.2049316
 170815061, 0.1170655, -0.663511, 0.2086217, -0.204961, -0.05281676, -0.6243042, 0.2070277, -0.2040258
 170865058, -0.3524229, -0.7802252, 0.2105988, -0.2057113, 0.1170655, -0.663511, 0.2086217, -0.204961
 170920062, -0.2242832, -0.8853419, 0.2111467, -0.2079436, -0.3524229, -0.7802252, 0.2105988, -0.2057113
 170975074, 0.1999839, -0.5476246, 0.2122449, -0.2055381, -0.2242832, -0.8853419, 0.2111467, -0.2079436
 171030629, -0.3242212, -0.5964316, 0.2134632, -0.2060458, 0.1999839, -0.5476246, 0.2122449, -0.2055381
 171085528, 0.2713545, -0.5667676, 0.2140395, -0.2065951, -0.3242212, -0.5964316, 0.2134632, -0.2060458
 171138016, -0.04982417, -0.6192927, 0.2152029, -0.2068769, 0.2713545, -0.5667676, 0.2140395, -0.2065951
 171193008, -0.0333571, -0.6524514, 0.2155568, -0.207982, -0.04982417, -0.6192927, 0.2152029, -0.2068769
 171248062, 0.02131643, -0.2133998, 0.2158258, -0.2062678, -0.0333571, -0.6524514, 0.2155568, -0.207982
 171303026, -0.1821982, -0.2187949, 0.2163038, -0.2070329, 0.02131643, -0.2133998, 0.2158258, -0.2062678
 171358494, -0.130152, -0.1424297, 0.2162038, -0.2080457, -0.1821982, -0.2187949, 0.2163038, -0.2070329
 171413258, -0.1345948, -0.06404272, 0.2172014, -0.2076493, -0.130152, -0.1424297, 0.2162038, -0.2080457
 171468059, -0.2987547, -0.1738499, 0.2175404, -0.2082416, -0.1345948, -0.06404272, 0.2172014, -0.2076493
 171523061, -0.6507832, -0.2998339, 0.2201453, -0.2085947, -0.2987547, -0.1738499, 0.2175404, -0.2082416
 171573058, -0.5415322, -0.1199665, 0.2194912, -0.2084453, -0.6507832, -0.2998339, 0.2201453, -0.2085947
 171628051, 0.0723218, 0.01859883, 0.2176913, -0.2091183, -0.5415322, -0.1199665, 0.2194912, -0.2084453
 171683748, -0.7121375, -0.4071277, 0.2211957, -0.2097872, 0.0723218, 0.01859883, 0.2176913, -0.2091183
 171738039, -0.5363426, 0.1877023, 0.2194208, -0.2099499, -0.7121375, -0.4071277, 0.2211957, -0.2097872
 171793033, -0.2583634, -0.09064933, 0.2181082, -0.210293, -0.5363426, 0.1877023, 0.2194208, -0.2099499
 171848062, -0.7764604, -0.4625878, 0.2207628, -0.2123925, -0.2583634, -0.09064933, 0.2181082, -0.210293
 171903209, -0.2728517, -0.04313004, 0.218212, -0.2113822, -0.7764604, -0.4625878, 0.2207628, -0.2123925
 171958469, -0.760933, -0.5016504, 0.221277, -0.2133622, -0.2728517, -0.04313004, 0.218212, -0.2113822
 172010004, -0.1948714, 0.06350683, 0.2180388, -0.212487, -0.760933, -0.5016504, 0.221277, -0.2133622
 172063523, -0.6262923, -0.4069871, 0.2208777, -0.2134073, -0.1948714, 0.06350683, 0.2180388, -0.212487
 172121069, -0.7525511, 0.186607, 0.2222266, -0.2128208, -0.6262923, -0.4069871, 0.2208777, -0.2134073
 172176070, -0.1032867, -0.2753086, 0.2197844, -0.212678, -0.7525511, 0.186607, 0.2222266, -0.2128208
 172226023, -0.5797105, -0.2937028, 0.2216665, -0.2128371, -0.1032867, -0.2753086, 0.2197844, -0.212678
 172281462, 0.136631, 0.09140266, 0.2200739, -0.2122957, -0.5797105, -0.2937028, 0.2216665, -0.2128371
 172336255, -0.0524032, -0.2275395, 0.2208343, -0.2119438, 0.136631, 0.09140266, 0.2200739, -0.2122957
 172391049, 0.01351057, 0.1658709, 0.2208162, -0.2120064, -0.0524032, -0.2275395, 0.2208343, -0.2119438
 172446032, -0.2020014, 0.118558, 0.2213883, -0.211979, 0.01351057, 0.1658709, 0.2208162, -0.2120064
 172501064, -0.6266081, 0.06265404, 0.2237346, -0.2118361, -0.2020014, 0.118558, 0.2213883, -0.211979
 172556507, -0.07129188, 0.1974573, 0.2210578, -0.212755, -0.6266081, 0.06265404, 0.2237346, -0.2118361
 172611348, -0.1578817, -0.08582708, 0.221504, -0.2121486, -0.07129188, 0.1974573, 0.2210578, -0.212755
 172661414, -0.3037353, 0.3848507, 0.2215252, -0.213117, -0.1578817, -0.08582708, 0.221504, -0.2121486
 172719463, -0.442262, 0.3588652, 0.2218734, -0.2131469, -0.3037353, 0.3848507, 0.2215252, -0.213117
 172774300, 0.1254998, -0.01563594, 0.2209205, -0.2123625, -0.442262, 0.3588652, 0.2218734, -0.2131469
 172826725, -0.5162838, 0.2942694, 0.2221536, -0.2131543, 0.1254998, -0.01563594, 0.2209205, -0.2123625
 172881753, -0.007192197, 0.1302354, 0.221159, -0.2122119, -0.5162838, 0.2942694, 0.2221536, -0.2131543
 172936720, -0.6789388, 0.154802, 0.2238268, -0.212193, -0.007192197, 0.1302354, 0.221159, -0.2122119
 172993038, -0.5389625, -0.05222839, 0.2234068, -0.2116434, -0.6789388, 0.154802, 0.2238268, -0.212193
 173046730, -0.2688359, 0.204396, 0.2225562, -0.2114994, -0.5389625, -0.05222839, 0.2234068, -0.2116434
 173096752, -0.6008283, -0.06864876, 0.2243049, -0.2112907, -0.2688359, 0.204396, 0.2225562, -0.2114994
 173151768, -0.1388025, 0.1912955, 0.2223084, -0.2114437, -0.6008283, -0.06864876, 0.2243049, -0.2112907
 173206761, -0.5757218, -0.3554257, 0.2240639, -0.2118216, -0.1388025, 0.1912955, 0.2223084, -0.2114437
 173261721, -0.02601669, 0.1383626, 0.2213714, -0.2120483, -0.5757218, -0.3554257, 0.2240639, -0.2118216
 173318520, -0.7166064, -0.4034368, 0.2252603, -0.2118776, -0.02601669, 0.1383626, 0.2213714, -0.2120483
 173371934, -0.4214782, -0.1805562, 0.2237496, -0.2111756, -0.7166064, -0.4034368, 0.2252603, -0.2118776
 173426868, -0.3207604, 0.03788931, 0.2238226, -0.2107063, -0.4214782, -0.1805562, 0.2237496, -0.2111756
 173481751, -0.5296979, -0.06721893, 0.2246769, -0.2103856, -0.3207604, 0.03788931, 0.2238226, -0.2107063
 173531876, -0.5277482, -0.03521155, 0.2242112, -0.2106477, -0.5296979, -0.06721893, 0.2246769, -0.2103856
 173586768, -0.2648852, 0.2416283, 0.223659, -0.2104827, -0.5277482, -0.03521155, 0.2242112, -0.2106477
 173642296, -0.1685673, -0.1545104, 0.222994, -0.2108115, -0.2648852, 0.2416283, 0.223659, -0.2104827
 173696742, -0.3100652, 0.3228189, 0.2236253, -0.2106978, -0.1685673, -0.1545104, 0.222994, -0.2108115
 173751750, -0.3049064, -0.144201, 0.223698, -0.2096197, -0.3100652, 0.3228189, 0.2236253, -0.2106978
 173806753, -0.02901833, 0.6147088, 0.2228454, -0.211553, -0.3049064, -0.144201, 0.223698, -0.2096197
 173861748, 0.08777311, 0.4352098, 0.2227183, -0.2103068, -0.02901833, 0.6147088, 0.2228454, -0.211553
 173918552, -0.1529692, 0.09265369, 0.2224867, -0.2098243, 0.08777311, 0.4352098, 0.2227183, -0.2103068
 173971759, -0.6737106, 0.9057384, 0.2258759, -0.2142744, -0.1529692, 0.09265369, 0.2224867, -0.2098243
 174026738, 0.3549543, 0.5971872, 0.2248146, -0.211179, -0.6737106, 0.9057384, 0.2258759, -0.2142744
 174076763, 0.004001345, 0.4920296, 0.2237798, -0.2108162, 0.3549543, 0.5971872, 0.2248146, -0.211179
 174131779, -0.03550335, 0.8101069, 0.2237185, -0.2131402, 0.004001345, 0.4920296, 0.2237798, -0.2108162
 174186744, -0.3912708, 0.3468724, 0.2241725, -0.2104359, -0.03550335, 0.8101069, 0.2237185, -0.2131402
 174239622, 0.3074842, 0.6744303, 0.2239784, -0.2123687, -0.3912708, 0.3468724, 0.2241725, -0.2104359
 174294790, -0.2533754, 0.6078516, 0.2235004, -0.2121057, 0.3074842, 0.6744303, 0.2239784, -0.2123687
 174352075, 0.007051243, 0.5858128, 0.2230316, -0.2120365, -0.2533754, 0.6078516, 0.2235004, -0.2121057
 174407271, -0.06281092, 0.6892274, 0.2234117, -0.2126134, 0.007051243, 0.5858128, 0.2230316, -0.2120365
 174457068, -0.1735387, 0.6352803, 0.2236729, -0.2121846, -0.06281092, 0.6892274, 0.2234117, -0.2126134
 174513813, -0.1539516, 0.4143028, 0.224338, -0.2104875, -0.1735387, 0.6352803, 0.2236729, -0.2121846
 174567059, -0.272681, 0.5095428, 0.2245397, -0.2112615, -0.1539516, 0.4143028, 0.224338, -0.2104875
 174622062, 0.1550851, 0.2888087, 0.2240954, -0.2105944, -0.272681, 0.5095428, 0.2245397, -0.2112615
 174677289, -0.1064213, 0.4409046, 0.224342, -0.2110531, 0.1550851, 0.2888087, 0.2240954, -0.2105944
 174732074, 0.2070321, -0.2765356, 0.2245477, -0.2105609, -0.1064213, 0.4409046, 0.224342, -0.2110531
 174787526, 0.03885504, 0.307272, 0.2256895, -0.2092657, 0.2070321, -0.2765356, 0.2245477, -0.2105609
 174842592, 0.2442675, 0.2506766, 0.2259584, -0.2093976, 0.03885504, 0.307272, 0.2256895, -0.2092657
 174892452, 0.3894929, 0.1556432, 0.227171, -0.2083706, 0.2442675, 0.2506766, 0.2259584, -0.2093976
 174950202, 0.2948843, 0.06335688, 0.227337, -0.2076607, 0.3894929, 0.1556432, 0.227171, -0.2083706
 175004927, 0.9208439, 0.6568577, 0.2328179, -0.2087386, 0.2948843, 0.06335688, 0.227337, -0.2076607
 175060535, 0.6928273, 0.2221811, 0.2305714, -0.2066757, 0.9208439, 0.6568577, 0.2328179, -0.2087386
 175111705, 0.4782961, 0.3780968, 0.2292614, -0.2076761, 0.6928273, 0.2221811, 0.2305714, -0.2066757
 175164971, 0.7605389, 0.5116565, 0.2316788, -0.2082185, 0.4782961, 0.3780968, 0.2292614, -0.2076761
 175220429, 0.586042, 0.5400974, 0.2298567, -0.2087541, 0.7605389, 0.5116565, 0.2316788, -0.2082185
 175275280, 0.8420394, 0.3814404, 0.2321525, -0.207327, 0.586042, 0.5400974, 0.2298567, -0.2087541
 175330502, 0.6178974, 0.6132976, 0.229797, -0.2093443, 0.8420394, 0.3814404, 0.2321525, -0.207327
 175385677, 0.5571749, 0.6552255, 0.2294488, -0.2096336, 0.6178974, 0.6132976, 0.229797, -0.2093443
 175440265, 0.7541407, 0.2084564, 0.230625, -0.2071001, 0.5571749, 0.6552255, 0.2294488, -0.2096336
 175495285, 0.4888356, 0.9245658, 0.2284049, -0.212262, 0.7541407, 0.2084564, 0.230625, -0.2071001
 175545305, 0.2540179, 0.7062201, 0.2276909, -0.2100994, 0.4888356, 0.9245658, 0.2284049, -0.212262
 175600474, 0.5709645, 0.521612, 0.2286256, -0.2093856, 0.2540179, 0.7062201, 0.2276909, -0.2100994
 175655307, 0.641618, 0.9741248, 0.2290688, -0.2135323, 0.5709645, 0.521612, 0.2286256, -0.2093856
 175711962, 0.5370396, 0.5303023, 0.2273141, -0.2102659, 0.641618, 0.9741248, 0.2290688, -0.2135323
 175765272, 0.3080796, 0.8238593, 0.2241607, -0.2137614, 0.5370396, 0.5303023, 0.2273141, -0.2102659
 175817818, 0.1558415, 1.035946, 0.2241316, -0.2153975, 0.3080796, 0.8238593, 0.2241607, -0.2137614
 175872833, 0.1681558, 0.5154791, 0.2226465, -0.2117716, 0.1558415, 1.035946, 0.2241316, -0.2153975
 175927833, 0.1432806, 0.9386073, 0.2220409, -0.2159407, 0.1681558, 0.5154791, 0.2226465, -0.2117716
 175983348, 0.05655347, 0.4972377, 0.2210516, -0.2124798, 0.1432806, 0.9386073, 0.2220409, -0.2159407
 176035251, 0.2427827, 0.3921574, 0.2193353, -0.2132118, 0.05655347, 0.4972377, 0.2210516, -0.2124798
