TimeUS,gpSA,gpHA,gpVA
 146305887, 0.384, 1.606, 2.156
 146525787, 0.405, 1.605, 2.153
 146706528, 0.366, 1.603, 2.149
 146925590, 0.415, 1.602, 2.146
 147125609, 0.37, 1.601, 2.143
 147325615, 0.375, 1.599, 2.14
 147525633, 0.318, 1.597, 2.137
 147725579, 0.325, 1.594, 2.133
 147925588, 0.347, 1.592, 2.129
 148125620, 0.381, 1.59, 2.126
 148325786, 0.35, 1.587, 2.122
 148525583, 0.34, 1.585, 2.118
 148725588, 0.338, 1.583, 2.115
 148906602, 0.389, 1.581, 2.112
 149125598, 0.35, 1.579, 2.109
 149325798, 0.344, 1.578, 2.106
 149525591, 0.249, 1.576, 2.102
 149725609, 0.383, 1.574, 2.099
 149925617, 0.272, 1.572, 2.096
 150125774, 0.372, 1.571, 2.093
 150325634, 0.366, 1.569, 2.091
 150525536, 0.355, 1.568, 2.088
 150706262, 0.365, 1.567, 2.086
 150925525, 0.385, 1.566, 2.084
 151125566, 0.366, 1.565, 2.082
 151325542, 0.347, 1.563, 2.079
 151506210, 0.376, 1.562, 2.077
 151725542, 0.296, 1.56, 2.074
 151925564, 0.401, 1.56, 2.074
 152125576, 0.341, 1.559, 2.073
 152325552, 0.291, 1.558, 2.071
 152525575, 0.383, 1.557, 2.068
 152725521, 0.368, 1.556, 2.066
 152925554, 0.364, 1.554, 2.064
 153125556, 0.368, 1.553, 2.062
 153325570, 0.324, 1.55, 2.06
 153525716, 0.368, 1.548, 2.057
 153725555, 0.34, 1.546, 2.054
 153925576, 0.365, 1.543, 2.052
 154106234, 0.348, 1.541, 2.049
 154325532, 0.365, 1.54, 2.048
 154525536, 0.349, 1.539, 2.047
 154725554, 0.376, 1.538, 2.046
 154925543, 0.365, 1.537, 2.045
 155125577, 0.376, 1.536, 2.043
 155325653, 0.346, 1.534, 2.041
 155525752, 0.371, 1.533, 2.039
 155725564, 0.348, 1.53, 2.037
 155925549, 0.319, 1.529, 2.035
 156125549, 0.373, 1.528, 2.034
 156325550, 0.384, 1.527, 2.032
 156525558, 0.376, 1.527, 2.031
 156706245, 0.372, 1.524, 2.028
 156925528, 0.391, 1.523, 2.027
 157125582, 0.338, 1.522, 2.026
 157325707, 0.383, 1.522, 2.024
 157525555, 0.363, 1.521, 2.023
 157725711, 0.369, 1.521, 2.022
 157925567, 0.403, 1.52, 2.021
 158125589, 0.357, 1.52, 2.02
 158325544, 0.388, 1.519, 2.019
 158525539, 0.405, 1.519, 2.018
 158725540, 0.338, 1.519, 2.017
 158925562, 0.329, 1.519, 2.016
 159125730, 0.381, 1.519, 2.015
 159306361, 0.367, 1.519, 2.014
 159525549, 0.325, 1.519, 2.013
 159725564, 0.333, 1.519, 2.012
 159925544, 0.429, 1.52, 2.014
 160125576, 0.315, 1.52, 2.013
 160325580, 0.352, 1.52, 2.013
 160525565, 0.405, 1.521, 2.012
 160725592, 0.347, 1.52, 2.011
 160925711, 0.358, 1.519, 2.01
 161125586, 0.344, 1.519, 2.009
 161325559, 0.246, 1.518, 2.008
 161525571, 0.406, 1.519, 2.009
 161725578, 0.368, 1.518, 2.008
 161925748, 0.415, 1.519, 2.011
 162125596, 0.314, 1.52, 2.013
 162325602, 0.344, 1.52, 2.017
 162525592, 0.348, 1.522, 2.021
 162725725, 0.333, 1.523, 2.024
 162925584, 0.373, 1.526, 2.03
 163125601, 0.384, 1.53, 2.035
 163325563, 0.375, 1.533, 2.04
 163506270, 0.424, 1.537, 2.048
 163725572, 0.349, 1.54, 2.05
 163925560, 0.384, 1.541, 2.053
 164125593, 0.462, 1.543, 2.051
 164325591, 0.431, 1.545, 2.053
 164525716, 0.477, 1.548, 2.058
 164725577, 0.351, 1.548, 2.057
 164925585, 0.39, 1.549, 2.063
 165125598, 0.393, 1.549, 2.07
 165325578, 0.324, 1.548, 2.074
 165525586, 0.349, 1.545, 2.078
 165725583, 0.301, 1.54, 2.08
 165925578, 0.394, 1.537, 2.086
 166125757, 0.357, 1.534, 2.091
 166325719, 0.35, 1.531, 2.096
 166528568, 0.37, 1.526, 2.1
 166728563, 0.306, 1.519, 2.102
 166928993, 0.359, 1.513, 2.102
 167109011, 0.33, 1.509, 2.103
 167309246, 0.36, 1.506, 2.105
 167509259, 0.383, 1.505, 2.107
 167729234, 0.392, 1.502, 2.107
 167929978, 0.354, 1.499, 2.109
 168130005, 0.323, 1.496, 2.108
 168329997, 0.296, 1.485, 2.103
 168511823, 0.514, 1.486, 2.111
 168729962, 0.321, 1.482, 2.11
 168929958, 0.367, 1.48, 2.114
 169130063, 0.398, 1.479, 2.119
 169311736, 0.437, 1.479, 2.125
 169530087, 0.366, 1.474, 2.122
 169711793, 0.444, 1.472, 2.126
 169911749, 0.372, 1.469, 2.127
 170130288, 0.448, 1.467, 2.131
 170330077, 0.43, 1.466, 2.137
 170530060, 0.397, 1.464, 2.137
 170730042, 0.374, 1.461, 2.141
 170930077, 0.454, 1.461, 2.147
 171133495, 0.36, 1.457, 2.145
 171313077, 0.322, 1.453, 2.144
 171512985, 0.383, 1.452, 2.147
 171713054, 0.364, 1.452, 2.15
 171913002, 0.399, 1.454, 2.155
 172113741, 0.24, 1.452, 2.142
 172313640, 0.368, 1.453, 2.145
 172513500, 0.372, 1.456, 2.15
 172714317, 0.397, 1.46, 2.156
 172914291, 0.391, 1.465, 2.164
 173134317, 0.352, 1.467, 2.17
 173318335, 0.354, 1.468, 2.174
 173518456, 0.296, 1.466, 2.174
 173718478, 0.275, 1.462, 2.169
 173918359, 0.321, 1.459, 2.168
 174136904, 0.304, 1.456, 2.165
 174319745, 0.272, 1.451, 2.16
 174519792, 0.287, 1.445, 2.159
 174719640, 0.299, 1.44, 2.157
 174919968, 0.326, 1.437, 2.161
 175139943, 0.299, 1.432, 2.161
 175320276, 0.311, 1.429, 2.165
 175523341, 0.353, 1.428, 2.169
 175723441, 0.27, 1.425, 2.164
 175922847, 0.4, 1.424, 2.166
 176122819, 0.251, 1.421, 2.153
 176322826, 0.363, 1.42, 2.154
 176522988, 0.25, 1.417, 2.14
 176722811, 0.292, 1.412, 2.135
 176922804, 0.334, 1.41, 2.133
 177122828, 0.27, 1.408, 2.127
 177322809, 0.282, 1.403, 2.124
 177522933, 0.336, 1.399, 2.12
 177722802, 0.331, 1.396, 2.114
 177922809, 0.36, 1.396, 2.115
 178122881, 0.349, 1.394, 2.115
 178323275, 0.274, 1.391, 2.115
 178524274, 0.274, 1.388, 2.11
 178724216, 0.289, 1.386, 2.105
 178924264, 0.369, 1.386, 2.105
 179124276, 0.36, 1.386, 2.103
 179324207, 0.357, 1.385, 2.101
 179524264, 0.366, 1.384, 2.101
 179724218, 0.349, 1.383, 2.097
 179924196, 0.385, 1.384, 2.098
 180124493, 0.375, 1.384, 2.098
 180324250, 0.356, 1.383, 2.096
 180524208, 0.409, 1.383, 2.098
 180724480, 0.39, 1.384, 2.099
 180924228, 0.416, 1.386, 2.102
 181124293, 0.431, 1.39, 2.106
 181324260, 0.426, 1.392, 2.109
 181524226, 0.426, 1.394, 2.112
 181724347, 0.406, 1.396, 2.116
 181924499, 0.35, 1.396, 2.119
 182124235, 0.255, 1.393, 2.121
 182324210, 0.293, 1.389, 2.122
 182524246, 0.32, 1.387, 2.126
 182703661, 0.337, 1.386, 2.128
 182924232, 0.289, 1.384, 2.124
 183123659, 0.314, 1.383, 2.119
 183323735, 0.293, 1.381, 2.111
 183524021, 0.333, 1.379, 2.109
 183724278, 0.273, 1.376, 2.105
 183924022, 0.271, 1.373, 2.101
 184124039, 0.257, 1.368, 2.097
 184324443, 0.309, 1.366, 2.098
 184524437, 0.253, 1.362, 2.095
 184724670, 0.254, 1.356, 2.092
 184924803, 0.242, 1.35, 2.086
 185125011, 0.287, 1.347, 2.084
 185324941, 0.283, 1.345, 2.08
 185525149, 0.351, 1.343, 2.079
 185724943, 0.335, 1.341, 2.078
 185925187, 0.48, 1.344, 2.085
 186124946, 0.276, 1.345, 2.086
 186324936, 0.313, 1.344, 2.089
 186524952, 0.201, 1.339, 2.077
 186724934, 0.18, 1.331, 2.062
 186925311, 0.309, 1.326, 2.058
 187125342, 0.239, 1.322, 2.054
 187325549, 0.295, 1.32, 2.054
 187525323, 0.259, 1.314, 2.045
 187725732, 0.222, 1.308, 2.039
 187906008, 0.236, 1.303, 2.035
 188125733, 0.362, 1.302, 2.037
 188325730, 0.22, 1.3, 2.035
 188525724, 0.356, 1.299, 2.039
 188725684, 0.282, 1.295, 2.035
 188945861, 0.381, 1.296, 2.041
 189125921, 0.282, 1.294, 2.036
 189325718, 0.299, 1.291, 2.038
 189525721, 0.333, 1.291, 2.04
 189725724, 0.324, 1.29, 2.035
 189925712, 0.383, 1.291, 2.039
 190125869, 0.452, 1.296, 2.048
 190325720, 0.428, 1.302, 2.058
 190506046, 0.426, 1.307, 2.068
 190725725, 0.388, 1.311, 2.076
 190925859, 0.348, 1.313, 2.082
 191125754, 0.448, 1.315, 2.089
 191325718, 0.349, 1.316, 2.097
 191525752, 0.298, 1.316, 2.098
 191725722, 0.27, 1.312, 2.092
 191925715, 0.368, 1.312, 2.098
 192126103, 0.357, 1.313, 2.103
 192326084, 0.348, 1.314, 2.107
 192526094, 0.402, 1.315, 2.113
 192726122, 0.295, 1.313, 2.113
 192906323, 0.328, 1.314, 2.118
 193106113, 0.363, 1.316, 2.124
 193326274, 0.278, 1.319, 2.129
 193526089, 0.352, 1.321, 2.134
 193726989, 0.358, 1.322, 2.137
 193926990, 0.365, 1.323, 2.142
 194126856, 0.294, 1.326, 2.144
 194327311, 0.308, 1.328, 2.147
 194527504, 0.316, 1.33, 2.15
 194727265, 0.322, 1.332, 2.153
 194947630, 0.376, 1.335, 2.16
 195127681, 0.385, 1.337, 2.164
 195327653, 0.338, 1.34, 2.166
 195527648, 0.247, 1.339, 2.159
 195727653, 0.275, 1.336, 2.149
 195927664, 0.333, 1.333, 2.14
 196127702, 0.29, 1.33, 2.133
 196327803, 0.316, 1.325, 2.124
 196527644, 0.324, 1.32, 2.118
 196727643, 0.262, 1.314, 2.11
 196927663, 0.243, 1.308, 2.108
 197127679, 0.172, 1.3, 2.102
 197327708, 0.361, 1.298, 2.105
 197527780, 0.306, 1.298, 2.105
 197727648, 0.324, 1.296, 2.102
 197927665, 0.387, 1.297, 2.104
 198127816, 0.325, 1.298, 2.105
 198308258, 0.332, 1.297, 2.106
 198528234, 0.323, 1.296, 2.105
 198728039, 0.24, 1.293, 2.103
 198928050, 0.318, 1.289, 2.101
 199130875, 0.313, 1.287, 2.101
 199330864, 0.329, 1.286, 2.099
 199530946, 0.33, 1.286, 2.098
 199730871, 0.345, 1.285, 2.094
 199931195, 0.382, 1.285, 2.095
 200131340, 0.345, 1.286, 2.096
 200331190, 0.337, 1.287, 2.098
 200531115, 0.393, 1.289, 2.101
 200711190, 0.269, 1.289, 2.1
 200911186, 0.377, 1.29, 2.102
 201111198, 0.401, 1.291, 2.105
 201311309, 0.363, 1.292, 2.108
 201511113, 0.3, 1.292, 2.111
 201711205, 0.416, 1.294, 2.114
 201911192, 0.378, 1.297, 2.119
 202111352, 0.362, 1.3, 2.123
 202311205, 0.402, 1.304, 2.13
 202511191, 0.408, 1.308, 2.137
 202731606, 0.41, 1.312, 2.143
 202931606, 0.384, 1.315, 2.148
 203131640, 0.313, 1.316, 2.152
 203331983, 0.31, 1.316, 2.154
 203512484, 0.334, 1.317, 2.154
 203712407, 0.302, 1.316, 2.154
 203912587, 0.296, 1.315, 2.158
 204112524, 0.235, 1.311, 2.156
 204312447, 0.325, 1.308, 2.16
 204512598, 0.343, 1.309, 2.164
 204712460, 0.321, 1.308, 2.169
 204932197, 0.345, 1.309, 2.176
 205132033, 0.282, 1.309, 2.183
 205332023, 0.276, 1.308, 2.189
 205532228, 0.35, 1.307, 2.194
 205732074, 0.334, 1.306, 2.198
 205932573, 0.312, 1.305, 2.203
 206112868, 0.261, 1.304, 2.207
 206332445, 0.421, 1.303, 2.213
 206532343, 0.433, 1.302, 2.217
 206732441, 0.29, 1.3, 2.221
 206932775, 0.369, 1.3, 2.227
 207113070, 0.442, 1.299, 2.232
 207313101, 0.351, 1.299, 2.238
 207513264, 0.285, 1.298, 2.241
 207732755, 0.2, 1.29, 2.229
 207913109, 0.357, 1.289, 2.235
 208132786, 0.294, 1.288, 2.237
 208332799, 0.367, 1.285, 2.237
 208513108, 0.393, 1.286, 2.242
 208732773, 0.218, 1.286, 2.242
 208932765, 0.432, 1.286, 2.245
 209132973, 0.366, 1.287, 2.246
 209332769, 0.345, 1.288, 2.248
 209532747, 0.455, 1.291, 2.253
 209732761, 0.306, 1.29, 2.249
 209932754, 0.345, 1.288, 2.245
 210132924, 0.324, 1.288, 2.243
 210332764, 0.329, 1.287, 2.241
 210513089, 0.321, 1.287, 2.239
 210713086, 0.293, 1.285, 2.234
 210913083, 0.345, 1.284, 2.233
 211132774, 0.259, 1.281, 2.23
 211313064, 0.269, 1.277, 2.227
 211532771, 0.289, 1.275, 2.229
 211732762, 0.245, 1.272, 2.224
 211932777, 0.331, 1.272, 2.225
 212133208, 0.285, 1.272, 2.224
 212333220, 0.416, 1.272, 2.224
 212533207, 0.416, 1.272, 2.224
 212713224, 0.309, 1.273, 2.223
 212933204, 0.314, 1.275, 2.223
 213113201, 0.401, 1.278, 2.226
 213313626, 0.365, 1.282, 2.231
 213513631, 0.42, 1.286, 2.237
 213713644, 0.33, 1.287, 2.239
 213913805, 0.339, 1.289, 2.243
 214134220, 0.338, 1.291, 2.246
 214334484, 0.396, 1.292, 2.248
 214534325, 0.328, 1.292, 2.248
 214734193, 0.319, 1.291, 2.247
 214934239, 0.413, 1.293, 2.25
 215134240, 0.356, 1.294, 2.252
 215334218, 0.385, 1.295, 2.257
 215513607, 0.36, 1.296, 2.26
 215713627, 0.315, 1.297, 2.258
 215913642, 0.378, 1.298, 2.259
 216134276, 0.354, 1.3, 2.257
 216314201, 0.341, 1.302, 2.257
 216514320, 0.335, 1.304, 2.258
 216714107, 0.312, 1.305, 2.253
 216914100, 0.331, 1.307, 2.254
 217134119, 0.249, 1.306, 2.25
 217314352, 0.279, 1.304, 2.246
 217518544, 0.302, 1.301, 2.239
 217737091, 0.358, 1.299, 2.233
 217918854, 0.366, 1.299, 2.234
 218137217, 0.352, 1.299, 2.232
 218318818, 0.376, 1.298, 2.233
 218518983, 0.368, 1.3, 2.236
 218720088, 0.265, 1.3, 2.232
 218940641, 0.337, 1.3, 2.233
 219120056, 0.323, 1.301, 2.233
 219320239, 0.362, 1.302, 2.237
 219520046, 0.339, 1.303, 2.238
 219720071, 0.335, 1.304, 2.239
 219920028, 0.374, 1.304, 2.241
 220120073, 0.356, 1.305, 2.239
 220320246, 0.336, 1.304, 2.23
 220520257, 0.289, 1.303, 2.225
 220720059, 0.358, 1.302, 2.22
 220920056, 0.461, 1.303, 2.222
 221120059, 0.379, 1.305, 2.225
 221320491, 0.355, 1.307, 2.228
 221520491, 0.357, 1.31, 2.232
 221720492, 0.246, 1.308, 2.223
 221920491, 0.346, 1.308, 2.223
 222120514, 0.338, 1.309, 2.223
 222320626, 0.347, 1.311, 2.223
 222520487, 0.299, 1.311, 2.221
 222720825, 0.284, 1.309, 2.217
 222920840, 0.286, 1.307, 2.214
 223120858, 0.267, 1.305, 2.211
 223320834, 0.287, 1.303, 2.208
 223520963, 0.375, 1.304, 2.212
 223721267, 0.236, 1.301, 2.199
 223921262, 0.435, 1.303, 2.204
 224121507, 0.253, 1.303, 2.196
 224321251, 0.284, 1.303, 2.19
 224521381, 0.32, 1.304, 2.188
 224721253, 0.317, 1.304, 2.188
 224941388, 0.336, 1.305, 2.187
 225121251, 0.25, 1.301, 2.172
 225321256, 0.351, 1.3, 2.173
 225521255, 0.384, 1.301, 2.175
 225721249, 0.358, 1.303, 2.178
 225921489, 0.358, 1.306, 2.182
 226121268, 0.368, 1.308, 2.187
 226321246, 0.367, 1.308, 2.186
 226521260, 0.38, 1.309, 2.189
 226721252, 0.349, 1.309, 2.191
 226921228, 0.35, 1.309, 2.191
 227121271, 0.335, 1.309, 2.189
 227321255, 0.317, 1.309, 2.186
 227521251, 0.391, 1.31, 2.186
 227721529, 0.334, 1.31, 2.185
 227921245, 0.324, 1.311, 2.185
 228121264, 0.28, 1.311, 2.184
 228321233, 0.31, 1.311, 2.185
 228521259, 0.339, 1.311, 2.183
 228721460, 0.358, 1.311, 2.184
 228921254, 0.335, 1.311, 2.185
 229121275, 0.347, 1.31, 2.186
 229321244, 0.308, 1.309, 2.186
 229501622, 0.309, 1.31, 2.185
 229721262, 0.227, 1.307, 2.178
 229921259, 0.299, 1.304, 2.181
 230121667, 0.285, 1.302, 2.183
 230321648, 0.468, 1.305, 2.192
 230525844, 0.339, 1.309, 2.193
 230704618, 0.268, 1.308, 2.184
 230927542, 0.448, 1.31, 2.191
 231127758, 0.329, 1.313, 2.194
 231308065, 0.325, 1.312, 2.196
 231508035, 0.332, 1.312, 2.197
 231708061, 0.366, 1.312, 2.2
 231908275, 0.354, 1.313, 2.2
 232108044, 0.316, 1.313, 2.199
 232308047, 0.296, 1.313, 2.197
 232508063, 0.427, 1.312, 2.201
 232708055, 0.342, 1.311, 2.204
 232908027, 0.475, 1.313, 2.212
 233128069, 0.357, 1.316, 2.218
 233308501, 0.318, 1.316, 2.22
 233508506, 0.377, 1.317, 2.224
 233708691, 0.354, 1.319, 2.228
 233908840, 0.386, 1.322, 2.233
 234130678, 0.395, 1.324, 2.236
 234309234, 0.346, 1.327, 2.238
 234509236, 0.353, 1.329, 2.242
 234709382, 0.341, 1.331, 2.244
 234909220, 0.335, 1.333, 2.247
 235109252, 0.328, 1.335, 2.248
 235309236, 0.328, 1.337, 2.25
 235530832, 0.345, 1.339, 2.254
 235709261, 0.322, 1.341, 2.256
 235909235, 0.356, 1.343, 2.258
 236109296, 0.351, 1.344, 2.259
 236309221, 0.372, 1.347, 2.262
 236509233, 0.381, 1.35, 2.266
 236730883, 0.308, 1.351, 2.265
 236930854, 0.323, 1.35, 2.267
 237131048, 0.282, 1.348, 2.267
 237312102, 0.3, 1.345, 2.264
 237512306, 0.36, 1.344, 2.268
 237712118, 0.334, 1.343, 2.271
 237912287, 0.31, 1.341, 2.271
 238112121, 0.327, 1.339, 2.271
 238312558, 0.304, 1.339, 2.271
 238512522, 0.338, 1.339, 2.274
 238712552, 0.27, 1.337, 2.274
 238932105, 0.347, 1.336, 2.275
 239132322, 0.259, 1.334, 2.269
 239312686, 0.266, 1.332, 2.267
 239512608, 0.357, 1.333, 2.268
 239712545, 0.353, 1.335, 2.267
 239912520, 0.382, 1.338, 2.271
 240112610, 0.309, 1.34, 2.274
 240312514, 0.349, 1.342, 2.277
 240512832, 0.32, 1.344, 2.28
 240712940, 0.292, 1.344, 2.28
 240912844, 0.329, 1.345, 2.282
 241113226, 0.281, 1.344, 2.279
 241312882, 0.29, 1.342, 2.276
 241513220, 0.316, 1.341, 2.277
 241713218, 0.285, 1.339, 2.274
 241913217, 0.311, 1.336, 2.272
 242113349, 0.294, 1.335, 2.27
 242313200, 0.271, 1.333, 2.266
 242513208, 0.332, 1.332, 2.266
 242713227, 0.31, 1.332, 2.264
 242933205, 0.355, 1.332, 2.264
 243113237, 0.318, 1.332, 2.262
 243313216, 0.27, 1.331, 2.259
 243513508, 0.296, 1.331, 2.258
 243716271, 0.277, 1.33, 2.255
 243919234, 0.306, 1.328, 2.255
 244119196, 0.289, 1.327, 2.252
 244318929, 0.323, 1.326, 2.25
 244518845, 0.323, 1.325, 2.248
 244718848, 0.331, 1.325, 2.247
 244918833, 0.367, 1.326, 2.251
 245119002, 0.332, 1.326, 2.252
 245318872, 0.33, 1.326, 2.25
 245518828, 0.339, 1.326, 2.247
 245718854, 0.302, 1.325, 2.241
 245918840, 0.421, 1.327, 2.244
 246118848, 0.376, 1.328, 2.244
 246318840, 0.436, 1.328, 2.245
 246518837, 0.386, 1.33, 2.247
 246718844, 0.293, 1.33, 2.242
 246918988, 0.328, 1.331, 2.246
 247118850, 0.301, 1.331, 2.246
 247318823, 0.316, 1.33, 2.246
 247518950, 0.33, 1.33, 2.247
 247718838, 0.304, 1.329, 2.242
 247918841, 0.322, 1.329, 2.242
 248118843, 0.291, 1.328, 2.239
 248318827, 0.305, 1.326, 2.237
 248518964, 0.326, 1.326, 2.238
 248718996, 0.32, 1.325, 2.239
 248939596, 0.325, 1.325, 2.24
 249118856, 0.347, 1.326, 2.242
 249318837, 0.328, 1.326, 2.243
 249518842, 0.365, 1.328, 2.246
 249718845, 0.318, 1.327, 2.246
 249918836, 0.345, 1.328, 2.248
 250118946, 0.342, 1.329, 2.252
 250299114, 0.318, 1.329, 2.252
 250518968, 0.255, 1.327, 2.249
 250718840, 0.28, 1.324, 2.246
 250919204, 0.341, 1.324, 2.248
 251119548, 0.304, 1.324, 2.248
 251322519, 0.301, 1.322, 2.248
 251522517, 0.317, 1.321, 2.251
 251722611, 0.278, 1.319, 2.252
 251922541, 0.331, 1.318, 2.255
 252122515, 0.272, 1.317, 2.255
 252302068, 0.353, 1.315, 2.255
 252502072, 0.28, 1.314, 2.253
 252702562, 0.369, 1.312, 2.252
 252902326, 0.301, 1.311, 2.252
 253122803, 0.278, 1.31, 2.254
 253302322, 0.267, 1.309, 2.254
 253522678, 0.328, 1.308, 2.256
 253723024, 0.376, 1.308, 2.256
 253922995, 0.357, 1.31, 2.261
 254123042, 0.29, 1.311, 2.258
 254323239, 0.314, 1.31, 2.254
 254523060, 0.359, 1.31, 2.255
 254723011, 0.364, 1.311, 2.254
 254923234, 0.434, 1.314, 2.259
 255123116, 0.394, 1.317, 2.264
 255302735, 0.394, 1.32, 2.269
 255502870, 0.398, 1.323, 2.274
 255702732, 0.388, 1.325, 2.277
 255923223, 0.363, 1.327, 2.279
 256123246, 0.378, 1.329, 2.284
 256302877, 0.373, 1.331, 2.289
 256502730, 0.375, 1.333, 2.294
 256722994, 0.369, 1.336, 2.3
 256923047, 0.406, 1.34, 2.309
 257123032, 0.37, 1.344, 2.316
 257323029, 0.355, 1.346, 2.319
 257523040, 0.343, 1.349, 2.322
 257723029, 0.286, 1.348, 2.318
 257923218, 0.372, 1.349, 2.32
 258123077, 0.322, 1.351, 2.321
 258323007, 0.421, 1.353, 2.324
 258523019, 0.328, 1.356, 2.324
 258723042, 0.339, 1.355, 2.319
 258942721, 0.291, 1.353, 2.315
 259123220, 0.408, 1.354, 2.316
 259323071, 0.348, 1.354, 2.313
 259523013, 0.352, 1.353, 2.311
 259723232, 0.343, 1.352, 2.309
 259923013, 0.339, 1.352, 2.31
 260123225, 0.322, 1.352, 2.309
 260323009, 0.3, 1.352, 2.308
 260523006, 0.271, 1.35, 2.306
 260723007, 0.277, 1.347, 2.301
 260942768, 0.303, 1.345, 2.3
 261123031, 0.293, 1.343, 2.298
 261323075, 0.336, 1.342, 2.297
 261523214, 0.228, 1.34, 2.289
 261723025, 0.275, 1.337, 2.283
 261923066, 0.319, 1.337, 2.283
 262123031, 0.324, 1.337, 2.278
 262323005, 0.309, 1.336, 2.276
 262523048, 0.327, 1.335, 2.275
 262723075, 0.309, 1.333, 2.27
 262923081, 0.347, 1.333, 2.271
 263123502, 0.369, 1.333, 2.272
 263303479, 0.408, 1.334, 2.273
 263523482, 0.333, 1.335, 2.276
 263723473, 0.373, 1.336, 2.277
 263903609, 0.359, 1.337, 2.281
 264123879, 0.332, 1.339, 2.283
 264303876, 0.403, 1.341, 2.286
 264524548, 0.4, 1.344, 2.291
 264704219, 0.429, 1.347, 2.295
 264904195, 0.416, 1.351, 2.301
 265104222, 0.482, 1.357, 2.31
 265324570, 0.429, 1.363, 2.317
 265504204, 0.405, 1.367, 2.324
 265724780, 0.342, 1.369, 2.327
 265904514, 0.388, 1.371, 2.33
 266104543, 0.432, 1.372, 2.331
 266304780, 0.437, 1.373, 2.333
 266504776, 0.352, 1.375, 2.334
 266725062, 0.336, 1.376, 2.334
 266925303, 0.339, 1.377, 2.334
 267125082, 0.325, 1.378, 2.334
 267325048, 0.352, 1.379, 2.335
 267525444, 0.281, 1.379, 2.328
 267725026, 0.285, 1.377, 2.321
 267925044, 0.465, 1.381, 2.328
 268125205, 0.276, 1.381, 2.317
 268325055, 0.266, 1.375, 2.309
 268504766, 0.281, 1.373, 2.308
 268725327, 0.256, 1.369, 2.304
 268925255, 0.309, 1.366, 2.303
 269125242, 0.332, 1.365, 2.305
 269325259, 0.376, 1.363, 2.304
 269525243, 0.283, 1.362, 2.305
 269725230, 0.291, 1.358, 2.3
 269925240, 0.398, 1.357, 2.303
 270125267, 0.307, 1.357, 2.305
 270325220, 0.303, 1.357, 2.307
 270525465, 0.317, 1.357, 2.307
 270725276, 0.293, 1.355, 2.307
 270905247, 0.398, 1.355, 2.309
 271105274, 0.305, 1.355, 2.307
 271325235, 0.356, 1.353, 2.302
 271525272, 0.331, 1.352, 2.297
 271725395, 0.307, 1.35, 2.286
 271925253, 0.279, 1.35, 2.283
 272125256, 0.328, 1.348, 2.275
 272325474, 0.296, 1.348, 2.268
 272525251, 0.363, 1.346, 2.263
 272725375, 0.331, 1.344, 2.258
 272925249, 0.392, 1.345, 2.256
 273105264, 0.293, 1.345, 2.251
 273305237, 0.296, 1.344, 2.247
 273505244, 0.307, 1.345, 2.248
 273705256, 0.314, 1.346, 2.25
 273905238, 0.322, 1.347, 2.252
 274105654, 0.326, 1.349, 2.254
 274308501, 0.347, 1.352, 2.258
 274508844, 0.377, 1.355, 2.261
 274708564, 0.379, 1.357, 2.263
 274908464, 0.383, 1.36, 2.267
 275128479, 0.308, 1.362, 2.269
 275328465, 0.323, 1.363, 2.272
 275508606, 0.353, 1.365, 2.275
 275728470, 0.337, 1.368, 2.276
 275928589, 0.371, 1.371, 2.279
 276108482, 0.306, 1.373, 2.279
 276308616, 0.374, 1.375, 2.284
 276511501, 0.375, 1.378, 2.289
 276714638, 0.338, 1.38, 2.292
 276914217, 0.308, 1.381, 2.294
 277114617, 0.354, 1.381, 2.294
 277314568, 0.371, 1.38, 2.294
 277514597, 0.354, 1.38, 2.296
 277714770, 0.334, 1.38, 2.297
 277914246, 0.349, 1.38, 2.298
 278114222, 0.356, 1.381, 2.301
 278314196, 0.351, 1.382, 2.304
 278514347, 0.298, 1.382, 2.305
 278714537, 0.356, 1.381, 2.305
 278934511, 0.329, 1.38, 2.304
 279114543, 0.291, 1.377, 2.301
 279314518, 0.293, 1.374, 2.293
 279514808, 0.283, 1.371, 2.292
 279714840, 0.324, 1.368, 2.291
 279914800, 0.378, 1.366, 2.289
 280114848, 0.338, 1.362, 2.283
 280314967, 0.344, 1.362, 2.285
 280517487, 0.394, 1.364, 2.286
 280717271, 0.337, 1.365, 2.288
 280922797, 0.407, 1.366, 2.29
 281122703, 0.382, 1.368, 2.292
 281322622, 0.338, 1.369, 2.294
 281502268, 0.36, 1.371, 2.296
 281722670, 0.358, 1.373, 2.298
 281922657, 0.376, 1.375, 2.301
 282122806, 0.335, 1.376, 2.305
 282322691, 0.327, 1.376, 2.309
 282502656, 0.436, 1.378, 2.315
 282702822, 0.434, 1.38, 2.321
 282902791, 0.441, 1.383, 2.327
 283102668, 0.432, 1.385, 2.329
 283322944, 0.487, 1.386, 2.334
 283522987, 0.418, 1.385, 2.335
 283722937, 0.428, 1.384, 2.335
 283922937, 0.435, 1.383, 2.337
 284123028, 0.424, 1.383, 2.336
 284322950, 0.43, 1.383, 2.336
 284523109, 0.47, 1.385, 2.339
 284722989, 0.45, 1.387, 2.342
 284922967, 0.477, 1.389, 2.348
 285122967, 0.472, 1.392, 2.353
 285322966, 0.477, 1.395, 2.357
 285522950, 0.48, 1.397, 2.362
 285723056, 0.465, 1.399, 2.364
 285923065, 0.476, 1.401, 2.367
 286123067, 0.451, 1.402, 2.368
 286323294, 0.451, 1.404, 2.37
 286523078, 0.429, 1.403, 2.366
 286703076, 0.404, 1.4, 2.36
 286923046, 0.443, 1.4, 2.36
 287123092, 0.452, 1.402, 2.363
 287323603, 0.434, 1.405, 2.364
 287523472, 0.45, 1.408, 2.366
 287723482, 0.414, 1.408, 2.361
 287923478, 0.444, 1.409, 2.365
 288123623, 0.379, 1.41, 2.361
 288323478, 0.364, 1.408, 2.356
 288523462, 0.356, 1.408, 2.351
 288723448, 0.332, 1.407, 2.343
 288923851, 0.381, 1.407, 2.341
 289123867, 0.301, 1.405, 2.333
 289303842, 0.316, 1.403, 2.333
 289523828, 0.292, 1.402, 2.326
 289724287, 0.267, 1.398, 2.317
 289924524, 0.475, 1.4, 2.323
 290124314, 0.209, 1.398, 2.303
 290324289, 0.362, 1.396, 2.3
 290524391, 0.347, 1.396, 2.298
 290724270, 0.335, 1.396, 2.294
 290924295, 0.307, 1.394, 2.293
 291124307, 0.263, 1.391, 2.289
 291304298, 0.303, 1.387, 2.286
 291524448, 0.32, 1.386, 2.288
 291724501, 0.245, 1.382, 2.286
 291904198, 0.299, 1.381, 2.288
 292124091, 0.301, 1.379, 2.286
 292304095, 0.397, 1.378, 2.288
 292504095, 0.387, 1.377, 2.288
 292724082, 0.381, 1.375, 2.287
 292904094, 0.442, 1.376, 2.293
 293124534, 0.402, 1.379, 2.296
 293304112, 0.437, 1.382, 2.302
 293524727, 0.417, 1.384, 2.3
 293724532, 0.405, 1.385, 2.293
 293904078, 0.45, 1.387, 2.293
 294124575, 0.377, 1.388, 2.284
 294324540, 0.375, 1.385, 2.27
 294504095, 0.38, 1.385, 2.261
 294704112, 0.294, 1.384, 2.246
 294904079, 0.349, 1.384, 2.237
 295104090, 0.405, 1.387, 2.236
 295304119, 0.537, 1.394, 2.245
 295524480, 0.387, 1.399, 2.249
 295724653, 0.35, 1.395, 2.247
 295924562, 0.529, 1.398, 2.256
 296124536, 0.385, 1.402, 2.263
 296324514, 0.344, 1.402, 2.264
 296524559, 0.352, 1.4, 2.263
 296724526, 0.346, 1.399, 2.259
 296924579, 0.439, 1.401, 2.264
 297104220, 0.362, 1.404, 2.268
 297324577, 0.312, 1.401, 2.264
 297524563, 0.371, 1.4, 2.267
 297724576, 0.197, 1.394, 2.257
 297904196, 0.368, 1.393, 2.26
 298124559, 0.277, 1.392, 2.262
 298304548, 0.411, 1.393, 2.268
 298524886, 0.32, 1.396, 2.271
 298724831, 0.331, 1.396, 2.27
 298904546, 0.39, 1.397, 2.276
 299124904, 0.385, 1.398, 2.278
 299304552, 0.419, 1.4, 2.284
 299504701, 0.378, 1.403, 2.287
 299704558, 0.285, 1.402, 2.286
 299904551, 0.303, 1.401, 2.29
 300124839, 0.275, 1.399, 2.289
 300304528, 0.279, 1.397, 2.289
 300504551, 0.379, 1.4, 2.294
 300704579, 0.276, 1.4, 2.288
 300904716, 0.373, 1.4, 2.291
 301104557, 0.306, 1.4, 2.29
 301304544, 0.473, 1.402, 2.298
 301504534, 0.282, 1.403, 2.302
 301704549, 0.227, 1.397, 2.295
 301904548, 0.31, 1.396, 2.298
 302124885, 0.29, 1.396, 2.301
 302304543, 0.396, 1.399, 2.308
 302524695, 0.365, 1.403, 2.311
 302704740, 0.299, 1.402, 2.297
 302924563, 0.53, 1.405, 2.302
 303124704, 0.324, 1.404, 2.284
 303324543, 0.307, 1.399, 2.265
 303504865, 0.451, 1.4, 2.264
 303724919, 0.289, 1.397, 2.247
 303904895, 0.298, 1.393, 2.233
 304125189, 0.337, 1.39, 2.223
 304305149, 0.382, 1.39, 2.221
 304505220, 0.328, 1.39, 2.213
 304705202, 0.326, 1.388, 2.208
 304905112, 0.363, 1.388, 2.206
 305105198, 0.239, 1.386, 2.193
 305326805, 0.339, 1.385, 2.193
 305525561, 0.392, 1.387, 2.193
 305725099, 0.326, 1.386, 2.191
 305925187, 0.353, 1.386, 2.189
 306125237, 0.335, 1.387, 2.19
 306325193, 0.293, 1.385, 2.187
 306525594, 0.339, 1.386, 2.19
 306725548, 0.263, 1.385, 2.187
 306925088, 0.412, 1.386, 2.188
 307125204, 0.305, 1.388, 2.189
 307327836, 0.425, 1.391, 2.196
 307507730, 0.394, 1.396, 2.204
 307707968, 0.252, 1.396, 2.203
 307907974, 0.377, 1.395, 2.21
 308107964, 0.308, 1.395, 2.215
 308307997, 0.425, 1.397, 2.224
 308507951, 0.277, 1.399, 2.231
 308707985, 0.274, 1.397, 2.234
 308927956, 0.405, 1.399, 2.244
 309107968, 0.417, 1.402, 2.254
 309327944, 0.331, 1.403, 2.259
 309507968, 0.447, 1.405, 2.269
 309707963, 0.331, 1.406, 2.273
 309907984, 0.392, 1.408, 2.279
 310108257, 0.326, 1.407, 2.279
 310307972, 0.303, 1.406, 2.281
 310507977, 0.395, 1.407, 2.287
 310707973, 0.381, 1.408, 2.293
 310907945, 0.4, 1.411, 2.3
 311127940, 0.356, 1.412, 2.303
 311327926, 0.335, 1.412, 2.304
 311528098, 0.276, 1.411, 2.3
 311708032, 0.342, 1.41, 2.299
 311908109, 0.377, 1.412, 2.303
 312127945, 0.316, 1.412, 2.301
 312327930, 0.328, 1.41, 2.299
 312507970, 0.378, 1.411, 2.304
 312707983, 0.322, 1.411, 2.304
 312907950, 0.325, 1.41, 2.305
 313108304, 0.3, 1.406, 2.3
 313308299, 0.368, 1.406, 2.302
 313508323, 0.306, 1.404, 2.299
 313708356, 0.231, 1.395, 2.286
 313908318, 0.408, 1.395, 2.289
 314128669, 0.345, 1.396, 2.291
 314308501, 0.363, 1.396, 2.293
 314508301, 0.36, 1.397, 2.296
 314708305, 0.37, 1.397, 2.296
 314928650, 0.405, 1.398, 2.299
 315108301, 0.379, 1.4, 2.303
 315308506, 0.379, 1.401, 2.305
 315528650, 0.39, 1.402, 2.307
 315728807, 0.302, 1.401, 2.305
 315908308, 0.339, 1.4, 2.304
 316128687, 0.32, 1.398, 2.301
 316308323, 0.356, 1.395, 2.298
 316508307, 0.416, 1.392, 2.296
 316708324, 0.443, 1.391, 2.294
 316908306, 0.486, 1.391, 2.299
 317108328, 0.423, 1.392, 2.299
 317308341, 0.45, 1.392, 2.299
 317508285, 0.379, 1.392, 2.293
 317708307, 0.385, 1.389, 2.283
 317908314, 0.393, 1.388, 2.278
 318108315, 0.4, 1.389, 2.275
 318308722, 0.418, 1.389, 2.271
 318508846, 0.428, 1.39, 2.271
 318708726, 0.358, 1.384, 2.261
 318908707, 0.48, 1.384, 2.266
 319128735, 0.375, 1.384, 2.265
 319308997, 0.425, 1.384, 2.267
 319509201, 0.351, 1.381, 2.261
 319709017, 0.339, 1.378, 2.254
 319909005, 0.398, 1.377, 2.254
 320109015, 0.373, 1.372, 2.245
 320309013, 0.345, 1.367, 2.235
 320509017, 0.372, 1.365, 2.231
 320708747, 0.328, 1.362, 2.221
 320908869, 0.416, 1.361, 2.22
 321109001, 0.338, 1.36, 2.216
 321309009, 0.437, 1.359, 2.218
 321508988, 0.46, 1.362, 2.224
 321708988, 0.32, 1.359, 2.217
 321909003, 0.385, 1.357, 2.219
 322109005, 0.402, 1.356, 2.218
 322308982, 0.426, 1.358, 2.221
 322508983, 0.425, 1.36, 2.221
 322709037, 0.369, 1.358, 2.216
 322908983, 0.392, 1.357, 2.215
 323109029, 0.368, 1.357, 2.214
 323308982, 0.357, 1.354, 2.21
 323508980, 0.391, 1.353, 2.209
 323709224, 0.366, 1.351, 2.206
 323928960, 0.329, 1.346, 2.201
 324109007, 0.385, 1.344, 2.201
 324308988, 0.317, 1.341, 2.194
 324509029, 0.375, 1.339, 2.192
 324709026, 0.276, 1.335, 2.184
 324908974, 0.368, 1.333, 2.179
 325108993, 0.341, 1.331, 2.173
 325308988, 0.274, 1.328, 2.168
 325508976, 0.271, 1.326, 2.162
 325709320, 0.283, 1.323, 2.157
 325909294, 0.374, 1.321, 2.152
 326109316, 0.379, 1.318, 2.147
 326309334, 0.281, 1.316, 2.141
 326509290, 0.288, 1.313, 2.136
 326709289, 0.337, 1.311, 2.131
 326909481, 0.374, 1.308, 2.127
 327109262, 0.375, 1.306, 2.122
 327330109, 0.306, 1.304, 2.117
 327509673, 0.37, 1.302, 2.113
 327709697, 0.266, 1.3, 2.108
 327929849, 0.34, 1.298, 2.104
 328109845, 0.296, 1.295, 2.1
 328309962, 0.257, 1.293, 2.096
 328509626, 0.293, 1.291, 2.092
 328709583, 0.341, 1.29, 2.089
 328909904, 0.326, 1.288, 2.085
 329109605, 0.311, 1.284, 2.077
 329329931, 0.273, 1.28, 2.07
 329509569, 0.331, 1.278, 2.067
 329709938, 0.324, 1.276, 2.063
 329909655, 0.328, 1.275, 2.059
 330129625, 0.282, 1.273, 2.054
 330309575, 0.304, 1.271, 2.051
 330529582, 0.32, 1.27, 2.047
 330729587, 0.262, 1.268, 2.043
 330909595, 0.357, 1.268, 2.041
 331109758, 0.248, 1.267, 2.038
 331309582, 0.354, 1.265, 2.035
 331509591, 0.347, 1.264, 2.033
 331709625, 0.32, 1.263, 2.03
 331929578, 0.355, 1.262, 2.028
 332109740, 0.333, 1.261, 2.025
 332309608, 0.243, 1.26, 2.021
 332509589, 0.325, 1.259, 2.019
 332709922, 0.247, 1.258, 2.016
 332929587, 0.303, 1.257, 2.014
 333109629, 0.245, 1.256, 2.011
 333309941, 0.271, 1.255, 2.008
 333509657, 0.285, 1.255, 2.006
 333709592, 0.33, 1.253, 2.001
 333909570, 0.347, 1.253, 2.001
 334109592, 0.331, 1.249, 1.991
 334309579, 0.344, 1.248, 1.989
 334509555, 0.373, 1.248, 1.986
 334709608, 0.396, 1.247, 1.983
 334909599, 0.313, 1.248, 1.985
 335129661, 0.309, 1.25, 1.981
 335309621, 0.399, 1.253, 1.98
 335509948, 0.308, 1.257, 1.977
 335729765, 0.379, 1.261, 1.976
 335909563, 0.331, 1.265, 1.974
 336109600, 0.377, 1.265, 1.975
 336310042, 0.38, 1.27, 1.976
 336509572, 0.261, 1.273, 1.97
 336709958, 0.284, 1.274, 1.967
 336909905, 0.346, 1.276, 1.967
 337110051, 0.278, 1.278, 1.964
 337309591, 0.236, 1.275, 1.957
 337509580, 0.271, 1.274, 1.957
 337709619, 0.258, 1.272, 1.95
 337909586, 0.279, 1.271, 1.947
 338109591, 0.311, 1.271, 1.948
 338309614, 0.447, 1.274, 1.951
 338509576, 0.372, 1.278, 1.95
 338709605, 0.326, 1.28, 1.944
 338929564, 0.344, 1.282, 1.939
 339129899, 0.376, 1.284, 1.932
 339329921, 0.446, 1.288, 1.927
 339509720, 0.342, 1.294, 1.924
 339709603, 0.331, 1.298, 1.92
 339929722, 0.441, 1.304, 1.918
 340129609, 0.443, 1.312, 1.919
 340309609, 0.466, 1.318, 1.919
 340509608, 0.535, 1.325, 1.923
 340709602, 0.573, 1.332, 1.927
 340909585, 0.59, 1.344, 1.935
 341109596, 0.495, 1.36, 1.942
 341309575, 0.719, 1.372, 1.955
 341509576, 0.8060001, 1.383, 1.98
 341709590, 0.724, 1.394, 2.008
 341909919, 0.7780001, 1.404, 2.035
 342109624, 0.9310001, 1.414, 2.065
 342309612, 0.5700001, 1.425, 2.093
 342509649, 0.6580001, 1.437, 2.126
 342709594, 0.7, 1.45, 2.151
 342909644, 0.92, 1.462, 2.184
 343109601, 0.909, 1.477, 2.218
 343309579, 1.039, 1.491, 2.252
