TimeUS,CAN,CAE,CAD,CAe
 146191909, -0.00804993, 0.0005052765, 2.76808E-05, 0.007894455
 146245565, -0.01958681, 0.0008510164, 3.910284E-05, 0.009898149
 146300758, -0.01979635, 0.0005063419, -0.001146089, 0.01032292
 146355904, -0.02026915, 0.0003580574, -0.0003701755, 0.01022863
 146410604, -0.01977038, 0.0003097288, -0.001093994, 0.01023142
 146460633, -0.01857646, 0.0001984276, -0.0004780368, 0.009298938
 146515622, -0.02036065, 6.80632E-05, 0.0001219895, 0.01022565
 146570772, -0.02018881, 0.0004058592, -0.0007527631, 0.01022863
 146625604, -0.02041375, 0.0002390895, -0.0009744497, 0.01022974
 146680957, -0.02013833, -0.0002261951, -0.001317748, 0.01022863
 146735610, -0.02085583, 0.0004036474, -4.328888E-05, 0.01022826
 146790619, -0.02029144, 0.0005682469, -0.0002609802, 0.01022789
 146845573, -0.02038644, 0.0001273873, -0.000567381, 0.01022956
 146900681, -0.02021294, 0.0005784567, -0.0002089574, 0.0102277
 146955938, -0.02029171, 0.0006505101, -0.001165651, 0.01022863
 147006298, -0.01817857, 0.000496148, -0.001053271, 0.009298753
 147060598, -0.02023039, 0.0005389958, -0.0008947501, 0.01023216
 147115623, -0.02014502, 0.0004319868, -0.0004874179, 0.01022695
 147170667, -0.02055763, 0.0008367243, -0.0002191528, 0.01022844
 147225808, -0.0204491, -0.0001461588, -0.001027217, 0.01022881
 147280926, -0.02040364, 0.0004583862, -0.0005796663, 0.01022677
 147335776, -0.02060501, 6.732094E-05, -0.001318858, 0.01022863
 147390593, -0.02068063, 0.000288749, -0.001093114, 0.01022863
 147445613, -0.02018366, 0.0002515175, -0.0009663234, 0.01023142
 147500584, -0.02024018, 0.0006546714, -0.0001533212, 0.01022584
 147555933, -0.02009146, 0.000182067, -0.001522581, 0.0102303
 147608084, -0.01930718, 0.0005010383, -0.0003718444, 0.009764434
 147663031, -0.02044457, 0.0005696655, -0.0006594644, 0.01022621
 147718692, -0.02028171, 0.0006871589, -0.0007282599, 0.01022863
 147773055, -0.01999814, 0.000270105, -0.0005586288, 0.010229
 147828035, -0.01994676, 0.0009712034, -0.00123858, 0.01022881
 147883058, -0.02028717, 0.0005330127, -0.0009232362, 0.01022807
 147933047, -0.01870678, 0.0009521151, -0.0002460449, 0.009298752
 147988086, -0.02030098, 0.0006213681, -0.001033082, 0.01022863
 148043532, -0.0205026, 0.0005213268, -0.0008501028, 0.01022863
 148098055, -0.02005398, 0.0002273792, -0.0001303447, 0.01022919
 148153075, -0.02039333, 0.0005263204, -6.238114E-05, 0.01023179
 148208077, -0.01959485, 0.0005736515, -0.0006845872, 0.01022491
 148263035, -0.02018545, 0.0007136742, -0.0006866803, 0.0102316
 148318507, -0.02030837, 0.0004217247, -0.0009024149, 0.01022565
 148373022, -0.01969391, 0.0008404329, -0.0003850408, 0.01022993
 148428063, -0.02011861, 0.0004199682, -0.001570595, 0.01022733
 148483116, -0.02019538, -1.131431E-05, -0.0004906739, 0.01022863
 148533048, -0.01857526, 0.0002002554, -0.0007691323, 0.009300055
 148588038, -0.02022938, 0.0004778592, -0.0006883629, 0.01022733
 148643957, -0.02071692, 0.0002592556, -0.0005318489, 0.01022863
 148698046, -0.020513, -0.0001349748, -0.001027323, 0.01022863
 148753097, -0.02060058, 0.0005962101, -0.0003449075, 0.01022937
 148808065, -0.02054808, 0.0003186496, -0.001003792, 0.01022788
 148863020, -0.02067898, 0.0001035327, -0.0006180691, 0.010229
 148918518, -0.02036429, 0.0003591099, -0.0009338228, 0.01022826
 148973062, -0.02087487, 0.0003524357, -0.0007043902, 0.01023235
 149028040, -0.02024185, 0.0005269598, -0.0006563287, 0.01022491
 149083087, -0.02053521, 0.0002067966, -0.0006575956, 0.01022919
 149133086, -0.01839236, 0.0007277375, -0.0006034487, 0.009298195
 149188066, -0.02058263, 9.658773E-05, -0.001073034, 0.01022863
 149243527, -0.02061304, 4.449245E-05, -0.0007847633, 0.01022993
 149298021, -0.02075362, 0.0006642707, -0.0006734543, 0.01022733
 149353060, -0.01999239, 6.216763E-05, -0.001018332, 0.01023086
 149408067, -0.02262546, -0.001088877, 0.001149726, 0.01022695
 149463022, -0.01466712, 0.00334389, -0.003522077, 0.01022807
 149518733, -0.02366451, -0.001430796, 0.0009721909, 0.01022863
 149573070, -0.0197337, 0.001128544, -0.0005419193, 0.01022919
 149628070, -0.02104861, 0.00100429, -0.0009976818, 0.01022844
 149678030, -0.01920351, 0.0002197493, -0.0006651817, 0.009298753
 149733054, -0.02015627, 0.0005772276, -0.0004624459, 0.010229
 149788099, -0.02187067, 0.0002716504, -0.0001157964, 0.01022788
 149843548, -0.01856008, 0.000513753, -0.0007400683, 0.01022863
 149898040, -0.0263817, -0.0005176119, -0.001713141, 0.01023012
 149953068, -0.01980247, 0.001849922, -0.008379672, 0.01022919
 150008287, -0.0146263, 0.0008063043, 0.003524945, 0.01022788
 150063063, -0.02155971, -0.00249295, 0.009971911, 0.01023012
 150118553, -0.01859975, 0.003097636, -0.001199605, 0.01022993
 150173061, -0.02042675, 0.0007348554, -0.002075393, 0.0102264
 150228056, -0.0200502, -7.39859E-05, -0.0006450755, 0.01022807
 150278083, -0.02246766, -0.001172614, -0.0009715719, 0.009298753
 150333082, -0.02420918, 0.0006324679, -0.002430977, 0.01022937
 150388056, -0.0190168, 0.0016978, -0.0009217855, 0.01023123
 150443557, -0.01612946, 0.001601042, -0.0004273861, 0.01022547
 150497998, -0.01724412, 0.0004268073, -0.0001743168, 0.01022714
 150553048, -0.02032718, 0.0004125514, -0.0005425718, 0.01022919
 150608020, -0.0240561, 0.0007474688, -0.0004574879, 0.01023049
 150663018, -0.02402556, 9.85368E-05, -0.001979402, 0.01022751
 150718476, -0.02003487, 0.0005736526, 0.001758576, 0.01023049
 150773009, -0.01763415, 0.0003374216, -0.001345965, 0.01022919
 150823052, -0.01737987, 0.001355381, -0.0005711982, 0.009298009
 150877981, -0.02051397, 0.001333227, -0.0008052466, 0.01022565
 150933030, -0.01916204, 0.0009056661, -0.001570572, 0.01022863
 150987998, -0.0190623, 0.0001722854, 0.002761632, 0.01022863
 151043468, -0.02362255, 2.301057E-05, -0.001331214, 0.01022993
 151097996, -0.02124302, 0.0004266584, -0.0008687634, 0.01022789
 151152984, -0.01989996, 0.001523736, -0.001600986, 0.01022881
 151208027, -0.01968144, -0.001286502, 0.0007809734, 0.01022788
 151262986, -0.02017166, 0.0006497913, -9.041739E-05, 0.01022863
 151318664, -0.02120742, 0.001153173, -0.002647872, 0.01022863
 151373234, -0.02022539, 0.0006237948, -0.001290334, 0.01023012
 151422968, -0.01741037, -0.0002324213, 0.0002531112, 0.009297265
 151478027, -0.02225989, 0.0005986078, -0.001793121, 0.01022863
 151533010, -0.02182886, 0.0009505977, -0.001404606, 0.01023142
 151588043, -0.01915581, 0.0003809905, -0.0006590253, 0.01022584
 151643492, -0.01783033, -0.0007262367, 0.000670389, 0.01022881
 151697983, -0.02151355, 0.0005838293, -0.001183197, 0.01022826
 151753012, -0.02283018, 0.001105886, -0.002428561, 0.01022956
 151808010, -0.02153812, -0.0006069045, -4.905002E-05, 0.01022788
 151862971, -0.01733298, 0.0003602565, 0.0008571101, 0.01022863
 151918477, -0.0201273, -0.0002086642, -0.0004365132, 0.01022863
 151972970, -0.02238073, 0.001283613, -0.003500449, 0.01022956
 152022983, -0.01917585, 0.0006862127, -0.0004929633, 0.009299126
 152078003, -0.01883608, -0.0006232532, 2.353329E-05, 0.01022733
 152133024, -0.01957788, 0.0007278556, -0.001929317, 0.01022863
 152188025, -0.0203745, 0.001578547, -0.002723684, 0.01022919
 152243498, -0.02161413, 0.001104051, -0.0004642417, 0.01022863
 152298009, -0.02128766, -0.0009834286, 0.002272157, 0.01022956
 152353059, -0.02059253, 0.0002512537, -0.001165565, 0.0102277
 152408017, -0.01897915, 0.001562996, -0.002450231, 0.01022937
 152463017, -0.01968285, 0.001343915, -0.001893192, 0.01022881
 152518469, -0.01982639, 0.0002564183, 0.001280627, 0.010229
 152573017, -0.02089325, 5.884614E-05, -0.0004654176, 0.01022863
 152623065, -0.02092003, 0.0005290676, -0.002004986, 0.009302286
 152677996, -0.01931604, 0.0002214387, 4.365796E-05, 0.01022324
 152733010, -0.02110232, -0.0004248767, 9.404421E-05, 0.01022937
 152787999, -0.02000484, 0.001733701, -0.0008550874, 0.01022844
 152843844, -0.02225455, 0.0007039377, -0.001675063, 0.01022937
 152898061, -0.01988112, 0.0003455021, 0.0003622872, 0.01022733
 152953011, -0.01997818, -0.001350221, 0.001669695, 0.01023198
 153008003, -0.02085911, 0.0003139625, -0.0005692306, 0.01022658
 153063010, -0.02150626, 0.002221148, -0.002404436, 0.01022863
 153118698, -0.02140371, -0.0005088252, -0.0004335326, 0.01022919
 153168498, -0.01602653, -0.0002728514, 0.001365854, 0.009298195
 153223013, -0.01938109, 0.001063966, -0.002078032, 0.01022993
 153277991, -0.02258422, -0.0001892092, -0.0009027402, 0.01022733
 153333009, -0.02125051, 0.001647879, -0.001611943, 0.01022863
 153388053, -0.02066021, -0.0001534912, -9.967131E-05, 0.01022733
 153443471, -0.01952141, -0.000567714, 0.001049597, 0.01022863
 153497983, -0.02193177, 0.001484346, -0.001942888, 0.01022863
 153553001, -0.01873869, 0.001398505, -0.0007409477, 0.01023216
 153608013, -0.01990522, -0.0001948055, -0.0001045972, 0.0102251
 153662999, -0.01968485, -0.0004974351, -0.0006327041, 0.01022974
 153718472, -0.02207145, 0.0008120683, -0.001357561, 0.01022751
 153768470, -0.02008919, 0.001006447, -0.0002813772, 0.009298753
 153822992, -0.01811878, -0.0002228815, -0.0001566849, 0.01023123
 153878005, -0.01961961, 5.189699E-05, -2.050967E-05, 0.01022993
 153933005, -0.02149479, 0.001275734, -0.001875307, 0.01022528
 153987978, -0.02223042, 0.001788746, 8.33238E-05, 0.01023012
 154043487, -0.02038355, -0.001570735, 0.0009761413, 0.01022789
 154097984, -0.0180948, 1.635146E-05, -0.0005290044, 0.01022993
 154153053, -0.02012884, 0.001149537, -0.002224501, 0.01022714
 154208057, -0.02188952, 0.001409149, -0.0006391254, 0.01022751
 154262979, -0.02051628, 8.834375E-05, -1.099135E-06, 0.01022863
 154318489, -0.02036783, -0.0009647016, 8.080529E-05, 0.01022956
 154368453, -0.01911338, 0.0009245485, -0.001360142, 0.009297824
 154423049, -0.02035482, 0.001119091, -0.002207247, 0.01022844
 154478011, -0.01922512, -0.0009356255, 0.0007212992, 0.010229
 154533027, -0.01948879, -0.00018183, -7.253802E-05, 0.010229
 154587970, -0.02157945, 0.001137666, -0.0008714839, 0.01022844
 154643505, -0.02229269, 0.001034627, -0.001790073, 0.01022826
 154698021, -0.0218455, -5.107417E-05, 0.0005061364, 0.01022863
 154752990, -0.01878218, -0.0002542119, 0.0008412965, 0.01022937
 154808005, -0.02023754, 0.0008982588, -0.002257441, 0.01022788
 154862978, -0.0192217, 0.001423423, -0.0005220738, 0.01022863
 154912995, -0.0189805, -0.0001499375, 0.000522697, 0.009299497
 154968490, -0.02096301, -0.0001576604, -0.0003397991, 0.01022919
 155023012, -0.02276122, 0.0001690966, -0.0009141031, 0.01022863
 155078027, -0.02136039, 0.0003963656, -0.001371154, 0.01022919
 155133085, -0.01993625, 0.001049366, -0.000343076, 0.01022881
 155188115, -0.01864091, -0.0004455532, 0.0007472609, 0.01022658
 155243533, -0.01880483, 2.592696E-05, 0.0007246101, 0.0102303
 155298048, -0.0220905, 0.0009021614, -0.001373168, 0.01022826
 155353079, -0.02164333, 0.001239218, -0.0007729514, 0.01022937
 155408046, -0.02146495, 0.0001336934, 0.0008527766, 0.01022658
 155458098, -0.01651735, -0.0006543999, 0.0009897614, 0.009299311
 155513064, -0.02024142, 0.0005560056, -0.001437994, 0.0102303
 155568497, -0.02081401, 0.001632525, -0.001421799, 0.0102264
 155623026, -0.02066891, 0.0006078162, -0.0005095262, 0.01022956
 155678016, -0.02016201, -0.0006851512, 0.0004552974, 0.01022789
 155733035, -0.02263726, 0.0001963338, -0.0009912428, 0.01023049
 155788018, -0.0212993, 0.0009540884, -0.001953352, 0.01022974
 155843514, -0.01940927, 0.0005405976, -0.0007738364, 0.01022547
 155898006, -0.01942253, -0.0005353992, 0.001000606, 0.01023216
 155953054, -0.0198878, 4.658142E-05, 0.0003950905, 0.01022733
 156008023, -0.0198544, 0.0005884077, -0.0003408752, 0.0102264
 156062955, -0.02206913, 0.0003744802, -0.001335259, 0.01022863
 156112998, -0.01812172, 0.001153259, -0.0003285625, 0.009299311
 156168484, -0.019697, -0.0004217524, 0.0002906757, 0.01022974
 156223045, -0.02176718, 0.0004521169, -0.001270073, 0.01022695
 156277983, -0.02129396, 0.001258829, -0.0004737656, 0.01022863
 156333017, -0.02093694, 0.0006707252, -0.0007498962, 0.01022937
 156388006, -0.01847944, -0.0001592857, 8.685803E-05, 0.01022788
 156443467, -0.01983169, 0.0004517772, -0.001027217, 0.01022863
 156498013, -0.02005832, 0.001558424, -0.001998048, 0.01022863
 156553028, -0.02014443, 0.001379824, 0.0001232377, 0.01022937
 156602993, -0.01940182, -0.001157486, 0.001258421, 0.009298009
 156658007, -0.02232853, 0.0002422894, 5.048979E-05, 0.01022863
 156713000, -0.02120891, 0.001406536, -0.002399362, 0.01022863
 156768487, -0.01955592, 0.001130865, -0.0008781487, 0.01022863
 156822992, -0.01915717, -0.0001795718, 0.001065892, 0.01022863
 156877960, -0.02041502, -0.0003482684, -0.0001169822, 0.01022919
 156933005, -0.02124824, 0.0004042318, -0.002231012, 0.01022807
 156988043, -0.0196427, 0.00129703, -0.001151413, 0.01022956
 157043710, -0.02044603, 0.001410291, -0.001143321, 0.0102329
 157098025, -0.01946923, -0.0002654084, 0.0017875, 0.01022472
 157153018, -0.02209072, 0.0003879195, -0.001205403, 0.01023105
 157203036, -0.0220065, 0.0007655125, -0.001395145, 0.009309168
 157258046, -0.02186981, -0.0004567693, 0.0004577234, 0.01021673
 157313013, -0.01827673, 0.000574998, -0.0003818291, 0.01023253
 157368474, -0.02002681, -0.0008174938, 3.127108E-05, 0.01022677
 157423016, -0.02156227, 0.0005693763, -0.001274966, 0.01022584
 157477995, -0.02257855, 0.0003603678, -0.001366709, 0.01022844
 157533022, -0.02103309, 0.0002167317, -0.000796597, 0.01023012
 157588040, -0.02017529, -4.79311E-07, 0.000322664, 0.0102277
 157643531, -0.02009896, -0.0001181482, 0.001517812, 0.01022863
 157698021, -0.02115035, -0.0002514222, -0.000827005, 0.01022696
 157747995, -0.0195093, 0.00193637, -0.001618698, 0.009298938
 157802988, -0.02003053, 0.001553023, -0.0009312442, 0.01022826
 157858006, -0.02017976, -0.0005513433, 0.001299743, 0.01023049
 157912984, -0.01953756, -0.0005784718, 0.0002227961, 0.01022695
 157968505, -0.0210551, -0.0003380913, -0.0005907969, 0.01022974
 158023049, -0.0210291, 0.001144847, -0.001207911, 0.01023253
 158078038, -0.02065366, -0.0002290435, -0.001094442, 0.01022844
 158133029, -0.02044611, -0.0003763374, -0.0006343207, 0.01022584
 158188028, -0.01893388, -0.0004155548, -0.0005744329, 0.01022863
 158243473, -0.02029396, -0.0003368246, 0.0007176499, 0.0102277
 158297993, -0.0224844, 0.0005024734, -0.002527761, 0.01022733
 158348016, -0.01989041, 0.001783164, -0.001139193, 0.009298753
 158402990, -0.01798565, 0.0008902492, -0.001454507, 0.01022863
 158457979, -0.0192984, 7.126816E-05, 0.001999415, 0.01022863
 158513050, -0.01976947, 0.0004517689, -0.0008197282, 0.01022881
 158568451, -0.02058715, 0.000384098, -0.001269855, 0.01022974
 158623028, -0.02063428, 0.0005626944, 0.0003494993, 0.01022733
 158677961, -0.02106264, 0.001060232, -0.001758295, 0.01022863
 158733010, -0.02051835, 4.150724E-05, -4.606223E-05, 0.01022919
 158788029, -0.01987619, -0.0005822166, 0.0009330352, 0.01022807
 158843512, -0.02057047, -0.0007225705, 1.870182E-05, 0.01022881
 158893465, -0.01889226, 0.001680313, -0.002118078, 0.009298567
 158947991, -0.02184501, 0.000804347, 5.107494E-05, 0.01022863
 159002969, -0.0202593, 0.0009095311, -0.001002845, 0.01023123
 159058056, -0.02072074, -0.001225734, 0.001179151, 0.01022733
 159113008, -0.01894181, 0.0002628795, -2.921044E-05, 0.01022974
 159168491, -0.02056925, -0.0001136929, -0.0001479346, 0.01022807
 159223001, -0.02222028, 0.000859382, -0.0002963909, 0.01022863
 159277998, -0.02177483, 0.001264533, -0.002006134, 0.01022807
 159333038, -0.02048182, 0.0001406756, -0.0001995226, 0.01022937
 159388014, -0.01813475, 0.001178578, -0.001025593, 0.01022788
 159438000, -0.01550654, -0.0001851933, 0.0007802155, 0.009299869
 159493472, -0.01982345, -0.0002024796, 0.0005003198, 0.01022919
 159548015, -0.02114451, -0.000617861, 0.00031799, 0.01022751
 159602987, -0.02208626, 0.0004608353, -0.001172042, 0.01022863
 159658030, -0.02111862, 0.0001428263, -0.0008251499, 0.01022863
 159712999, -0.01950883, 0.0008897436, -0.001330481, 0.01023049
 159768495, -0.02106967, -0.0002926209, -0.0003233387, 0.01022621
 159823070, -0.019685, 0.001459973, -0.001239393, 0.01022993
 159878028, -0.01919718, -0.0008150085, -0.0003631709, 0.01022733
 159933028, -0.01839584, 0.0004503721, -0.001493568, 0.01022956
 159983054, -0.01872269, -0.0002168541, 0.0003478828, 0.009297824
 160037954, -0.02246556, 0.0005890595, -0.001036094, 0.01022863
 160093728, -0.02149078, 0.0004537026, -0.001338297, 0.01022956
 160148019, -0.01864284, 0.0007210249, -0.0004447365, 0.01022863
 160202974, -0.01770889, 0.001142898, 8.298208E-05, 0.0102277
 160258036, -0.01880124, 0.0008371122, -0.0005063852, 0.01022733
 160312996, -0.01834627, -8.727776E-05, -3.307822E-05, 0.01023123
 160368483, -0.02098377, 0.0009896918, -0.0003759365, 0.01022733
 160423020, -0.0240847, -0.0006385166, -0.001495323, 0.01023012
 160477977, -0.02161831, -4.261581E-05, -0.0007336613, 0.01022788
 160527989, -0.02044016, 0.001492849, -0.001127548, 0.009298567
 160583041, -0.01765315, 0.0007638435, -0.0001075759, 0.01023049
 160638045, -0.0172211, 0.001365645, -0.001089399, 0.01022621
 160693517, -0.01823953, 0.001009585, -0.001409925, 0.01022974
 160748029, -0.0221556, -0.001130073, 0.0005210718, 0.01022863
 160802984, -0.01763052, 0.0007011251, -0.0001830146, 0.01022733
 160858049, -0.02155027, 0.001090943, -0.001259619, 0.01022881
 160913036, -0.0207773, -0.0007322478, -5.597377E-05, 0.01022937
 160968480, -0.0218731, 0.001456663, -0.0009745328, 0.01022789
 161023034, -0.02089438, -0.0002054634, -0.001797654, 0.01022919
 161078037, -0.02030424, -0.000350804, 0.0008441104, 0.01022937
 161128040, -0.01634795, 0.002317879, -0.002272591, 0.009297451
 161183049, -0.02262154, -1.745881E-05, 0.001049389, 0.01022863
 161238041, -0.02116951, -9.877043E-05, -0.001933139, 0.01022919
 161293502, -0.02035318, 0.001046489, -0.001330288, 0.01022807
 161348265, -0.02163388, -0.007775911, 0.0001080447, 0.010229
 161403019, -0.01808897, 0.003208971, -0.0005271954, 0.01022844
 161458038, -0.02214037, -0.0001548558, -0.01231878, 0.01024481
 161512985, -0.01737612, -0.009588811, -0.0001441003, 0.01021152
 161568492, -0.03413297, -0.01307708, -0.01011085, 0.01022807
 161618501, -0.03675172, -0.0080868, -0.03303696, 0.009298753
 161673051, -0.03457985, -0.04466282, -0.0007283525, 0.01023105
 161727991, -0.04956858, -0.03580283, -0.04117999, 0.01022751
 161778004, -0.07002898, -0.01851896, -0.06131631, 0.009300241
 161833081, -0.04850476, -0.06989175, -0.02363316, 0.01022788
 161888038, -0.09885929, 0.003812113, -0.08352686, 0.01022658
 161943479, -0.06563433, -0.04451797, 0.001206771, 0.0102316
 161998035, -0.07623509, -0.006479031, -0.0277993, 0.01022733
 162052985, -0.1079552, 0.02510463, -0.06396756, 0.010229
 162103042, -0.07899136, -0.03245734, -0.003411826, 0.009298009
 162158050, -0.09966187, 0.05006752, -0.05896302, 0.01022863
 162213065, -0.09077482, -0.0108433, 0.004204287, 0.01022863
 162268464, -0.07651221, 0.01328175, -0.02898838, 0.01023198
 162323037, -0.0984444, 0.04695185, -0.05603988, 0.01023123
 162377994, -0.06289893, -0.02566421, 0.01136741, 0.01022268
 162433072, -0.05673161, 0.04635718, -0.04861588, 0.01022937
 162488034, -0.06391791, -0.0005138307, -0.007738931, 0.01022788
 162538042, -0.0176298, -0.009478373, -0.02854962, 0.009298754
 162594306, -0.04185638, 0.02417383, -0.05291202, 0.01022974
 162648049, -0.01268229, -0.06245938, 0.02209638, 0.01022751
 162703087, -0.0237999, 0.01265218, -0.09789431, 0.01022863
 162758023, -0.01867028, -0.04381014, 0.01226981, 0.01022863
 162813048, 0.004595092, -0.02219965, -0.001612548, 0.01022937
 162868498, -0.02031996, 0.009569785, -0.01974942, 0.01022844
 162923042, -0.001619354, -0.05134935, 0.03299144, 0.01023105
 162978012, -0.02155916, 0.02753949, -0.01626057, 0.01022565
 163033026, -0.01495929, -0.03797118, 0.05985277, 0.01023272
 163083034, 0.0007312158, 0.01276586, -0.007290972, 0.009297824
 163138046, -0.02394272, -6.912416E-05, 0.02497575, 0.01022565
 163194310, 0.01156924, -0.01817064, 0.03616418, 0.01022956
 163248049, -0.008090626, 0.04822764, -0.03568939, 0.01022789
 163303014, 0.01042751, -0.02643026, 0.04109619, 0.01022826
 163358034, 0.01849396, 0.0369337, -0.02596004, 0.01022863
 163412999, -0.003314682, 0.009466501, 0.0135496, 0.01022956
 163468652, 0.02705276, -0.005439417, 0.03551378, 0.0102277
 163523008, 0.009705138, 0.05986054, -0.01558247, 0.01022919
 163573049, 0.02341289, -0.01964332, 0.04909922, 0.009298381
 163627999, 0.01399515, 0.05341629, -0.02554034, 0.01022844
 163683041, 0.01727665, 0.008639363, 0.01985466, 0.0102316
 163738076, 0.03672886, 0.003419511, 0.01640595, 0.01022714
 163794276, 0.01973367, 0.05235167, -0.02535074, 0.01022863
 163848047, 0.04558606, -0.02520983, 0.05657148, 0.0102277
 163903042, 0.04204533, 0.03191599, 0.001477012, 0.01022919
 163958010, 0.05199509, 0.006312182, 0.01863411, 0.01022751
 164008074, 0.05811899, -0.02106606, 0.03140539, 0.009299125
 164063038, 0.05871813, 0.02033636, -0.01289777, 0.01022825
 164118518, 0.0854766, -0.03816444, 0.03599535, 0.01022881
 164173009, 0.076837, -0.01647155, -0.006363983, 0.01022919
 164228011, 0.08122616, -0.01973266, -0.01043354, 0.01023049
 164283025, 0.09553967, -0.06146101, 0.03494748, 0.01022677
 164338045, 0.06787977, -0.02364306, -0.03413351, 0.01022826
 164394601, 0.09013702, -0.06917724, 0.03889762, 0.01022974
 164448032, 0.07477114, -0.07180265, -0.006864687, 0.01022714
 164503063, 0.07089033, -0.07222787, -0.03541477, 0.01022863
 164553009, 0.07434394, -0.1094864, 0.01390409, 0.009300427
 164608056, 0.05985583, -0.1022536, -0.0575597, 0.01022695
 164663007, 0.05985069, -0.1258602, -0.01369133, 0.01023216
 164718506, 0.06195019, -0.1466905, 0.005356599, 0.01022695
 164773075, 0.03731217, -0.1311802, -0.03946501, 0.01022677
 164828033, 0.04751946, -0.1608917, 0.01309755, 0.01022863
 164883015, 0.04543661, -0.1664713, 0.004391634, 0.01022863
 164938015, 0.02621245, -0.1565557, -0.04017429, 0.01022863
 164988004, 0.04335435, -0.1678834, 0.01516883, 0.009300613
 165043629, 0.02630913, -0.1709074, -0.04519551, 0.01022695
 165098007, 0.02323632, -0.1734278, -0.01630482, 0.01022844
 165153051, 0.03823026, -0.1789398, 0.0120998, 0.01023105
 165208035, -0.00741938, -0.1521815, -0.04862685, 0.01022621
 165263029, 0.01313173, -0.1711385, 0.01745614, 0.01022863
 165318500, 0.004717275, -0.1583235, -0.01693703, 0.01022881
 165373025, -0.02566116, -0.1356144, -0.03878632, 0.01022956
 165428004, -0.006375435, -0.1612577, 0.003529882, 0.01022751
 165478021, -0.03461313, -0.117167, -0.05855825, 0.00929987
 165533022, -0.04329932, -0.1294193, -0.02027389, 0.01022826
 165588041, -0.0484331, -0.1237726, -0.01021697, 0.01022807
 165643042, -0.07975258, -0.08010543, -0.04773341, 0.010229
 165698015, -0.06735802, -0.1043701, 0.02295632, 0.01022863
 165753479, -0.07740179, -0.07431038, -0.02330496, 0.01022807
 165808068, -0.0968252, -0.05055662, -0.0199547, 0.01022863
 165863258, -0.07518975, -0.07108261, 0.013441, 0.01022863
 165918035, -0.09722356, -0.01611099, -0.0418545, 0.01022863
 165968263, -0.07531516, -0.0275582, 0.0197046, 0.009298754
 166023004, -0.09443919, -0.01351235, -0.0001599612, 0.01023049
 166078654, -0.1040376, 0.02525567, -0.007774727, 0.01022677
 166133061, -0.07973352, -0.000597747, 0.03338011, 0.01022863
 166188087, -0.09041316, 0.03573563, 0.02611831, 0.01022863
 166243050, -0.08707524, 0.04294888, 0.04540922, 0.01022881
 166298039, -0.05747499, 0.02655846, 0.0386176, 0.01022863
 166353493, -0.07481499, 0.06476428, 0.01111064, 0.0102303
 166404823, -0.04781317, 0.03066965, 0.04468924, 0.009297079
 166458055, -0.04756077, 0.06647757, 0.00607324, 0.01023142
 166513028, -0.04259312, 0.06813463, 0.0213849, 0.01022807
 166568023, -0.03149417, 0.04581294, 0.03362025, 0.01022826
 166623045, -0.03312444, 0.09485881, 0.001164323, 0.01022788
 166678501, -0.02673779, 0.0641707, 0.02765516, 0.01022788
 166733546, -0.0245233, 0.06947061, 0.01317311, 0.01031901
 166789886, -0.02566379, 0.1063954, -0.01142549, 0.01022863
 166841018, -0.01680282, 0.05984051, 0.01540265, 0.009763692
 166895992, -0.02446923, 0.1133751, -0.01104434, 0.01022956
 166948997, -0.01653814, 0.08903218, 0.005992448, 0.009838453
 167004032, -0.007471957, 0.09709662, 0.0209734, 0.01022751
 167059012, -0.01577891, 0.1150675, 0.01677551, 0.01022863
 167115932, -0.006832697, 0.1072538, 0.003482707, 0.01022881
 167169266, -0.000319658, 0.1047068, 0.0220331, 0.01029949
 167221865, -0.004027151, 0.1160532, 0.0224839, 0.009761831
 167276883, -0.008505925, 0.1049679, 0.03757865, 0.01022881
 167331873, -0.006882291, 0.1023371, 0.02865145, 0.01022844
 167387555, -0.007077165, 0.1133026, 0.008084602, 0.01022863
 167441880, -0.02111262, 0.09702026, 0.006288032, 0.01022993
 167492058, -0.01564808, 0.08457883, -0.003714935, 0.009298753
 167546901, -0.01867588, 0.09910434, -0.03137746, 0.01022733
 167601884, -0.02684015, 0.09382171, -0.02202966, 0.01022863
 167656883, -0.03317799, 0.0828779, 0.005880823, 0.01022881
 167713564, -0.04954902, 0.08633702, 0.003082456, 0.01022844
 167766860, -0.0456901, 0.08551706, -0.01133531, 0.01022919
 167822087, -0.05774385, 0.0658849, 0.003239737, 0.01028777
 167872110, -0.05452864, 0.06121368, -0.006393603, 0.009298939
 167927542, -0.0631333, 0.05982658, -0.0110642, 0.01029725
 167982504, -0.07020663, 0.05600033, -0.007958601, 0.01022956
 168039973, -0.07170101, 0.05822542, -0.01817233, 0.01069487
 168089980, -0.06230523, 0.04798801, -0.01045095, 0.009297451
 168144957, -0.07372136, 0.04445187, -0.003294476, 0.01022974
 168199936, -0.06709034, 0.0496567, -0.01061512, 0.0102277
 168254935, -0.07571681, 0.05575753, -0.01015927, 0.01022714
 168311654, -0.06694696, 0.04849471, 0.0002395947, 0.01022919
 168364984, -0.07171476, 0.04382157, -0.0008036266, 0.01023068
 168420203, -0.07653515, 0.05962379, -0.009113735, 0.01022844
 168474982, -0.06538042, 0.04746683, 0.003010992, 0.01022714
 168529987, -0.06223331, 0.04135809, 0.008666183, 0.01022881
 168580015, -0.06472123, 0.05163962, -0.003178794, 0.009298194
 168635469, -0.06319054, 0.0324437, 0.01471155, 0.01022863
 168690208, -0.06255178, 0.03898367, 0.007267605, 0.01022807
 168744955, -0.0753176, 0.05460404, -0.01507446, 0.01022919
 168799933, -0.06133421, 0.01598158, 0.01697755, 0.01022956
 168854925, -0.07251055, 0.04742382, -0.02456705, 0.0102277
 168911923, -0.08524001, 0.04278202, -0.001995406, 0.01022807
 168964996, -0.0657571, 0.01877733, 0.008275683, 0.01022863
 169020068, -0.09454481, 0.06307749, -0.01471026, 0.01022956
 169070097, -0.0505794, 0.001126831, 0.01149415, 0.00929838
 169125097, -0.08190583, 0.0697887, -0.07489891, 0.010229
 169180088, -0.05548371, 0.03788366, 0.00842151, 0.01023049
 169235513, -0.04757268, 0.03833941, 0.02179549, 0.01022621
 169290085, -0.05240844, 0.09837681, 0.002975419, 0.01022826
 169345092, -0.02308821, 0.04037023, 0.04057315, 0.01023049
 169400031, -0.04027286, 0.1023865, -0.009888666, 0.01022677
 169455309, -0.02862203, 0.08736529, 0.006302928, 0.01022937
 169505045, -0.01792783, 0.06415627, -0.001613873, 0.00929987
 169560531, -0.03305051, 0.1157082, -0.01367454, 0.01022677
 169620077, -0.009384596, 0.05636815, 0.02659519, 0.0111585
 169670090, -0.03373056, 0.09183879, -0.0142159, 0.009300241
 169725286, -0.01105518, 0.05595364, 0.017111, 0.01022714
 169780084, -0.01940189, 0.044103, 0.0004433704, 0.01022937
 169835544, -0.0263915, 0.07214754, -0.02374918, 0.01022788
 169890116, -0.0003012207, 0.001763202, 0.0277685, 0.01022937
 169940090, -0.03439551, 0.04385182, -0.02504278, 0.009298009
 169995269, 0.009574456, -0.004991842, 0.01589546, 0.01022863
 170050102, -0.02152568, 0.002493136, -0.005934608, 0.01022863
 170105085, -0.00818936, 0.0004100534, -0.009055965, 0.01022863
 170160569, 0.01222834, -0.03703588, 0.01449, 0.01022863
 170215065, -0.02763645, -0.002659149, -0.03492012, 0.01025541
 170270071, 0.02755736, -0.04389607, 0.01572542, 0.01020427
 170325080, -0.007369666, -0.02192896, -0.008141574, 0.01022807
 170380285, 0.0003557401, -0.03549565, 0.007129507, 0.01022788
 170430054, 0.01824559, -0.04104809, 0.01875952, 0.009298195
 170485785, -0.01290033, -0.02147252, -0.01642069, 0.01022807
 170540077, 0.02764666, -0.06216712, 0.03689209, 0.01022881
 170595072, -0.01193877, -0.01043421, -0.01539847, 0.01022974
 170650094, 0.008263089, -0.04925616, 0.03071354, 0.01022733
 170705055, 0.004751299, -0.02610941, -0.005670141, 0.01022974
 170760650, -0.01070736, -0.002304523, -0.01810368, 0.01022807
 170815061, 0.01026972, -0.04581906, 0.03088184, 0.0102489
 170865058, -0.01400421, 0.02947681, -0.01235154, 0.009278668
 170920062, 0.01286837, -0.03496793, 0.04891791, 0.01022788
 170975074, -0.01061561, 0.02620067, -0.01248193, 0.01023253
 171030629, 0.003882091, 0.01732532, 0.02158395, 0.01029242
 171085528, 0.003092486, -0.009022227, 0.04017818, 0.01022863
 171138016, -0.003754223, 0.05354392, -0.002823114, 0.009763131
 171193008, 0.01388043, -0.002162308, 0.04599186, 0.01022974
 171248062, -0.004621603, 0.02486454, 0.01753929, 0.01022826
 171303026, 0.006244625, 0.034613, 0.01959907, 0.01022844
 171358494, 0.01292434, -0.01923394, 0.03566195, 0.01023049
 171413258, -0.00837123, 0.03832218, -0.02232521, 0.01026062
 171468059, 0.02641504, -0.0175551, 0.03032792, 0.01019497
 171523061, -0.01710102, 0.004995563, -0.01939693, 0.01022956
 171573058, 0.01468369, -0.008275687, -0.003888105, 0.009298938
 171628051, -0.006399573, -0.01462891, -0.004779282, 0.01022677
 171683748, -0.01800353, 0.003009271, -0.01566408, 0.01022863
 171738039, 0.01487275, -0.02919074, 0.02272603, 0.01022863
 171793033, -0.04634388, 0.01258671, -0.01123346, 0.01022937
 171848062, 0.008399764, -0.03513537, 0.03148365, 0.01023142
 171903209, -0.03782845, 0.009865304, -0.02008918, 0.01022509
 171958469, -0.02115108, -0.02006112, 0.008321786, 0.01023142
 172010004, -0.02685897, 0.001104104, -0.009705808, 0.009295964
 172063523, -0.0387251, 0.008365834, 0.01575871, 0.01032608
 172121069, -0.02050358, -0.02967481, 0.04557752, 0.01069115
 172176070, -0.05011982, 0.03727013, -0.01367766, 0.01022956
 172226023, -0.01087547, -0.01472578, 0.02813206, 0.009297824
 172281462, -0.03040725, 0.01036809, -0.009772193, 0.01022919
 172336255, -0.02719089, 0.0228728, -0.006042738, 0.01022807
 172391049, -0.007752159, -0.0242149, 0.0220815, 0.01022919
 172446032, -0.03541787, 0.02405768, -0.02648495, 0.01022937
 172501064, -0.002787509, -0.003829246, 0.01012738, 0.0102277
 172556507, -0.01443756, -0.01747035, 0.01638769, 0.0102303
 172611348, -0.02490383, 0.020282, -0.01470644, 0.01029893
 172661414, 0.01109415, -0.02915744, 0.02365799, 0.009300984
 172719463, -0.02825584, -0.004482822, -0.01358278, 0.01076312
 172774300, -0.009760272, -0.01025249, -0.001877122, 0.01022584
 172826725, 0.004098681, -0.03511415, 0.01568736, 0.009761273
 172881753, -0.03405397, -0.003457762, -0.02248381, 0.01022993
 172936720, 0.006399898, -0.03536315, 0.006869253, 0.01022826
 172993038, -0.0214452, -0.02092345, -0.01789391, 0.01022751
 173046730, -0.03290651, -0.01465067, -0.005020878, 0.01022881
 173096752, 0.002157896, -0.0376392, 0.02444911, 0.009298754
 173151768, -0.04615473, 0.003585055, -0.01380616, 0.01022844
 173206761, -0.01577176, -0.03460586, 0.01465595, 0.01023105
 173261721, -0.02860855, -0.007918524, -0.01048557, 0.0102264
 173318520, -0.03693242, 0.00472177, -0.01212164, 0.01022844
 173371934, -0.0209438, -0.03434531, 0.02878379, 0.01022937
 173426868, -0.04778758, 0.01594385, -0.02193033, 0.0102277
 173481751, -0.03586224, -0.0005910906, 0.00226726, 0.01022881
 173531876, -0.02840139, -0.008458464, 0.01308331, 0.009299869
 173586768, -0.05074516, 0.03223121, -0.01962084, 0.01022751
 173642296, -0.02302016, -0.01963347, 0.01533766, 0.01023105
 173696742, -0.05074303, 0.03133333, -0.01829781, 0.01022733
 173751750, -0.03259854, 0.01464557, -0.0007474183, 0.01022826
 173806753, -0.02675646, -0.007972772, 0.01893328, 0.01022788
 173861748, -0.04869246, 0.03797586, -0.02150153, 0.01022863
 173918552, -0.008575033, -0.01305348, 0.01855151, 0.01022881
 173971759, -0.04423449, 0.003802955, -0.01173072, 0.01022974
 174026738, -0.02913702, 0.01244465, -0.01131421, 0.01022788
 174076763, -0.02020181, -0.02382825, 0.02220347, 0.009298939
 174131779, -0.05128376, 0.01121044, -0.02401828, 0.01022974
 174186744, -0.01346707, -0.02146086, 0.004366738, 0.01022695
 174239622, -0.04619389, -0.0187396, -0.003580688, 0.009835477
 174294790, -0.0396367, -0.01191249, 0.001444911, 0.01022863
 174352075, -0.01965914, -0.04454999, 0.02219491, 0.01069487
 174407271, -0.06368994, -0.01841787, -0.01490252, 0.01022751
 174457068, 0.00179724, -0.04377997, 0.01073005, 0.009298195
 174513813, -0.07055089, -0.02157789, -0.01620095, 0.01023086
 174567059, -0.02177678, -0.05180401, 0.01970736, 0.01022658
 174622062, -0.05572639, -0.0126796, -0.02592304, 0.01023123
 174677289, -0.05614771, -0.05033784, 0.03277606, 0.01022658
 174732074, -0.03921303, -0.01959809, -0.01491632, 0.01022677
 174787526, -0.07151812, -0.01171212, -0.002469038, 0.01022937
 174842592, -0.04004664, -0.0442974, 0.005124206, 0.01028907
 174892452, -0.06069553, 0.03297864, -0.02884121, 0.009297824
 174950202, -0.04412287, -0.04188616, 0.05247082, 0.01069524
 175004927, -0.03919197, 0.03402466, -0.002229401, 0.01023086
 175060535, -0.05128314, -0.006662312, 0.03558822, 0.01022584
 175111705, -0.007895488, 0.005643929, -0.003426158, 0.009298195
 175164971, -0.04025638, 0.02822276, -0.009076398, 0.01022863
 175220429, -0.002008595, -0.02684993, 0.02573807, 0.01029986
 175275280, -0.01378411, 0.0459736, -0.03825057, 0.01022547
 175330502, -0.005164833, -0.02211155, 0.03520212, 0.01022919
 175385677, 0.0084663, 0.02119344, -0.01745486, 0.01022826
 175440265, -0.004305792, 0.02612633, 0.01610004, 0.01022844
 175495285, 0.01870477, -0.02767871, 0.04494415, 0.01022863
 175545305, 0.003782508, 0.04174151, -0.02546071, 0.009298753
 175600474, 0.01517681, -0.02497033, 0.02763797, 0.01022937
 175655307, 0.02600461, -0.006236058, -0.006603837, 0.01022788
 175711962, 0.01320313, 0.006040891, -0.0267939, 0.010229
 175765272, 0.02873148, -0.05912424, 0.0359507, 0.01022993
 175817818, 0.02509813, 0.001431759, -0.04208227, 0.009763319
 175872833, 0.01894249, -0.05737716, 0.02540009, 0.0102303
 175927833, 0.03576769, -0.06805105, 0.00845937, 0.01022696
 175983348, 0.02677278, -0.03414134, -0.02970916, 0.01022919
 176035251, 0.02551196, -0.1052727, 0.0524831, 0.009764062
 176090292, 0.03595987, -0.06310579, -0.03084204, 0.0102264
 176145309, 0.02731666, -0.08406076, -0.02217738, 0.01022919
 176202815, 0.02618223, -0.1178629, -0.009274168, 0.01069598
 176252970, 0.0130824, -0.04720426, -0.0727644, 0.009297451
 176307817, 0.01155037, -0.09864157, 0.02487436, 0.01022919
 176362856, 0.01706742, -0.07127499, -0.02732896, 0.01022937
 176419622, -0.001319971, -0.04423948, -0.01502694, 0.01022789
 176472946, 0.008094178, -0.09082858, 0.0465765, 0.01022993
 176525486, -0.009986386, -0.01842419, -0.0444192, 0.009760159
 176580318, -0.005064513, -0.04934527, -0.01322473, 0.0102303
 176635524, -0.01311023, -0.04106341, -0.01476634, 0.01022937
 176690687, -0.03226693, 0.005368565, -0.05464915, 0.01022621
 176745265, -0.02054509, -0.03840485, -0.009028326, 0.01022863
 176800236, -0.03292362, -0.0154146, -0.02868376, 0.01022974
 176855279, -0.03943082, 0.008378024, -0.02816208, 0.01022751
 176905499, -0.01483203, -0.02639518, 0.02152708, 0.009300241
 176960306, -0.05310809, 0.02625763, -0.02028237, 0.01022714
 177016895, -0.01736651, 0.004474928, 0.001668174, 0.01022863
 177070307, -0.04583622, 0.009354702, -0.004180627, 0.01022919
 177125308, -0.04433415, 0.04083513, -0.01785719, 0.01023086
 177180313, -0.02361741, 0.007479629, 0.02447059, 0.01022658
 177235276, -0.0711446, 0.03906118, -0.008847646, 0.01022788
 177290684, -0.01912088, 0.01773563, 0.006521979, 0.01023049
 177345315, -0.05491493, 0.03429739, -0.00795678, 0.01022677
 177400540, -0.05603235, 0.02834196, 0.01027764, 0.01022863
 177450278, -0.03033442, 0.013645, 0.004841453, 0.009298939
 177505280, -0.07223063, 0.04115963, -0.01240038, 0.01022714
 177560281, -0.02799102, 0.004703085, 0.01870739, 0.01023105
 177614587, -0.07542003, 0.04538349, -0.003192097, 0.009766853
 177667834, -0.05050657, 0.004343875, 0.03764144, 0.01022621
 177722926, -0.0640212, 0.03058496, 0.009919942, 0.01022974
 177777826, -0.07263223, 0.03225701, 0.008096619, 0.01022751
 177832814, -0.05382505, -0.005706433, 0.02651342, 0.0102303
 177888322, -0.0754322, 0.04960136, -0.003692131, 0.010229
 177942950, -0.05444925, 0.0008936764, 0.0390997, 0.0102264
 177997804, -0.05773832, -0.007534662, 0.02667925, 0.01022826
 178052975, -0.05342388, 0.01787903, -0.009224017, 0.01022844
 178107852, -0.03063725, -0.03803057, 0.04736705, 0.01023235
 178157854, -0.04694018, -0.01543209, -0.005182886, 0.009296335
 178214643, -0.01340729, -0.0267162, 0.01565135, 0.01022844
 178268062, -0.02611483, -0.05343772, 0.03062659, 0.01028498
 178323484, -0.01511809, -0.02734452, -0.01580021, 0.01022863
 178378068, 0.01082907, -0.03959971, 0.00878433, 0.01022863
 178433610, -0.006694652, -0.05071947, 0.0006338505, 0.01032124
 178488627, 0.01286526, -0.03875871, -0.009463012, 0.01022807
 178541054, 0.02360448, -0.03515561, 0.002787956, 0.009763504
 178596090, 0.00804711, -0.04011016, -0.001952692, 0.0102303
 178651077, 0.0374609, -0.03053032, 0.003400954, 0.0102277
 178706278, 0.0290521, -0.01362672, -0.01272977, 0.010229
 178756033, 0.01704277, -0.02399238, 0.009168518, 0.009297824
 178812814, 0.04654626, -0.004616686, 0.0004912232, 0.01022844
 178866071, 0.009461252, 0.003383732, -0.001725348, 0.01022863
 178921045, 0.0180303, -0.01856274, 0.04507663, 0.01023012
 178976268, 0.02684057, 0.01214666, 0.006318533, 0.01022714
 179031065, -0.01411632, 0.01246059, -0.01411864, 0.01022919
 179086577, 0.01450003, -0.01985981, 0.02411141, 0.01023123
 179141058, -0.01968965, 0.04839616, -0.03145947, 0.01022677
 179196032, -0.03282044, -0.0001764596, 0.02092937, 0.01022788
 179246252, -0.01854108, 0.02726365, -0.02211512, 0.009298381
 179301075, -0.04489508, 0.05837932, -0.0421004, 0.01022844
 179356082, -0.03205852, 0.007001409, 0.001690469, 0.01022863
 179412909, -0.04504228, 0.06345076, -0.04431189, 0.01023105
 179466250, -0.04520245, 0.04961539, -0.02687261, 0.01022714
 179521051, -0.04175165, 0.01369276, 0.0003138393, 0.0102277
 179576051, -0.05598223, 0.05164836, -0.04130555, 0.01022863
 179631079, -0.03341367, 0.0271344, -0.004919145, 0.01022956
 179681046, -0.04027226, 0.0005674119, 0.002725147, 0.009298753
 179736545, -0.04273446, 0.02359174, -0.02842336, 0.01022788
 179791046, -0.0206099, -0.001648149, 0.00848085, 0.01022937
 179846081, -0.03747708, -0.01690004, -0.005649666, 0.01022993
 179901057, -0.02433873, 0.009595946, -0.03497367, 0.01022695
 179956014, -0.008276371, -0.01445841, 0.02580913, 0.01022807
 180012920, -0.03118301, -0.03095933, 0.02681363, 0.01022974
 180066055, -0.008246536, -0.02012176, 0.02875083, 0.01022751
 180121089, -0.002524105, -0.02277562, 0.0228123, 0.01022863
 180176085, -0.02226595, -0.04769352, 0.03004584, 0.01022974
 180226058, 0.02174565, -0.02505321, 0.003835648, 0.009297636
 180281286, -0.01511737, -0.04280798, 0.001526506, 0.01023067
 180336556, 0.02066066, -0.06973584, 0.0189165, 0.0102277
 180391065, 0.0005739077, -0.02437291, -0.02560262, 0.01022751
 180446045, -0.005037687, -0.05599327, 0.01672657, 0.01022863
 180501080, 0.01661829, -0.04017154, -0.007707133, 0.01022863
 180556034, -0.02256723, -0.009226542, -0.01571709, 0.01022881
 180612853, 0.001086798, -0.04989384, 0.02693371, 0.01022844
 180666102, -0.02234478, 0.01768753, -0.009792963, 0.01022863
 180721047, -0.02576128, -0.007292173, 0.01293786, 0.01022974
 180771068, -0.01857491, -0.004510885, 0.002944781, 0.00930117
 180826073, -0.03867748, 0.04305293, -0.02137438, 0.01022509
 180881257, -0.02544488, -0.002846962, 0.01807554, 0.01022937
 180936639, -0.03916421, 0.0352535, -0.004509571, 0.01022788
 180991054, -0.03507912, 0.04757084, -0.02558847, 0.01022863
 181046274, -0.02543381, 0.006355494, 0.0116692, 0.01023365
 181096081, -0.03582156, 0.05359511, -0.02634936, 0.009293731
 181151088, -0.015139, 0.0471423, 0.001331995, 0.01022919
 181206110, -0.02303271, 0.02108379, 0.02675939, 0.01022956
 181261537, -0.02770161, 0.05929546, 0.019076, 0.0102277
 181321046, -0.002730942, 0.03682577, 0.03925937, 0.01115943
 181371099, -0.003220968, 0.006908123, 0.03353623, 0.00929838
 181426069, 0.005763611, 0.05042997, -0.01724617, 0.01022881
 181481037, 0.009326009, 0.01427274, 0.005348067, 0.01022863
 181536529, 0.003928843, -0.002953771, 0.01512709, 0.01022733
 181586715, -0.002027972, 0.007524849, -0.02399639, 0.009300613
 181641082, -0.001493092, -0.03018109, -0.006162695, 0.01022677
 181696048, -0.01027237, -0.04590758, 0.0006488146, 0.01023272
 181751075, -0.01315952, -0.03087636, -0.005815497, 0.01022454
 181806068, -0.005400778, -0.05712494, 0.01469348, 0.01022863
 181861531, -0.01611975, -0.09052664, 0.01526886, 0.01022733
 181916067, -0.02337444, -0.07055036, -0.0347565, 0.01024313
 181971040, -0.0137589, -0.07772271, -0.003044818, 0.01021542
 182026070, -0.02365782, -0.09062142, 0.01627305, 0.01022863
 182076075, -0.02964932, -0.05619073, -0.01412603, 0.009299126
 182131064, -0.01943275, -0.05552337, 0.002828838, 0.01022937
 182186567, -0.02236435, -0.05570167, 0.003508598, 0.01023049
 182241040, -0.03517621, -0.03722017, -0.004008982, 0.01022565
 182296035, -0.01712669, -0.03655338, 0.01353017, 0.01022863
 182351308, -0.03515784, -0.03223184, -0.003585852, 0.01022863
 182408606, -0.04115973, -0.02161755, -0.004726009, 0.01069691
 182461516, -0.02631862, -0.02245621, 0.004751315, 0.009760343
 182512914, -0.03683516, -0.01342805, -0.01198644, 0.009298753
 182566060, -0.03540048, -0.01322685, -0.001383227, 0.01022863
 182621287, -0.02275984, -0.01172564, 0.008149959, 0.01022863
 182676079, -0.04181819, 0.0008188143, -0.009552193, 0.01023105
 182731049, -0.02950545, -0.0005405892, -0.004270094, 0.01022788
 182786500, -0.02185186, -0.001740102, -0.003751711, 0.01022695
 182841074, -0.04269998, 0.01083141, -0.02719584, 0.01022733
 182896073, -0.01583701, -0.005501785, 0.003876196, 0.01023235
 182951073, -0.02210234, -0.005563917, -0.0185342, 0.01022621
 183006083, -0.03453293, 0.01310185, -0.04191544, 0.01022863
 183058935, -0.02127681, -0.0162733, -0.0006996178, 0.009763691
 183113629, -0.04327582, 0.005513648, -0.01984892, 0.01024704
 183168634, -0.04517734, 0.006852702, -0.0122574, 0.01021096
 183218658, -0.0170444, -0.01117785, 0.01318593, 0.009298196
 183273861, -0.04904127, 0.01873755, -0.01326577, 0.01023067
 183328639, -0.033125, -0.004308622, 0.02036969, 0.01022658
 183384039, -0.03406003, 0.01102885, -0.005045805, 0.01022844
 183438966, -0.0533503, 0.03809689, -0.02682846, 0.01028851
 183494015, -0.02518662, -0.006447267, 0.01118389, 0.01022881
 183548945, -0.05385401, 0.03589598, -0.01390679, 0.01022844
 183604089, -0.04813346, 0.03605064, -0.001362108, 0.01022863
 183654073, -0.0333634, 0.002592397, 0.01972862, 0.009298752
 183710708, -0.05520225, 0.05848926, -0.01878387, 0.01022881
 183764092, -0.02917619, 0.0004627092, 0.0236729, 0.01022844
 183818936, -0.05869659, 0.03224776, -0.006355021, 0.01022919
 183874124, -0.02972822, 0.03135618, 0.001015356, 0.01022826
 183929070, -0.02664809, -0.004678188, 0.03125492, 0.01022863
 183984504, -0.04754061, 0.0243114, -0.01357268, 0.01023123
 184039211, -0.003642593, -0.004602232, 0.01807183, 0.01022584
 184094070, -0.03026298, -0.009989587, 0.001840158, 0.01023086
 184144052, -0.01186715, -0.008408247, -0.0002482922, 0.009297266
 184201472, -0.008238046, -0.02956465, -0.0006606696, 0.01069301
 184254011, -0.03488429, -0.01626493, -0.01295114, 0.009764249
 184310796, 0.02148412, -0.04022918, 0.002786515, 0.01022863
 184364449, -0.04408809, -0.01778874, -0.02867509, 0.01029037
 184419282, 0.0126865, -0.05264681, 0.00708479, 0.01022956
 184469266, -0.03566475, 0.008765618, -0.06425563, 0.009297636
 184524544, -0.01556798, -0.046971, 0.01747442, 0.01022863
 184579527, -0.02089975, 0.01381413, -0.0440363, 0.01022863
 184634664, -0.03868647, -0.003771829, 0.01264116, 0.01029372
 184689637, -0.02313953, -0.01380065, 0.01846678, 0.01022547
 184742029, -0.03483741, 0.04140672, -0.02202392, 0.009763503
 184797015, -0.01242748, -0.01824807, 0.03341571, 0.01022881
 184854652, -0.02171905, 0.0200307, -0.02041928, 0.01069412
 184909602, -0.01222008, 0.01943227, -0.01829235, 0.01022881
 184959622, -0.004473305, -0.02868366, 0.02308665, 0.009297823
 185014604, -0.01210363, 0.02426111, -0.0111609, 0.0102316
 185069940, 0.01062182, -0.03500035, 0.05433672, 0.01022807
 185125151, -0.0001226717, -0.03195711, 0.0005008064, 0.01028442
 185179945, 0.02236315, -0.02366306, -0.02688049, 0.0102316
 185234945, 0.0240272, -0.06939993, 0.01613948, 0.01022807
 185289959, 0.009820403, -0.06006901, -0.03430334, 0.01022919
 185339944, 0.03418963, -0.04943635, -0.02312369, 0.009298195
 185396303, 0.02319972, -0.07733212, -0.007998512, 0.01022937
 185450213, 0.02433119, -0.0594221, -0.04066687, 0.01022788
 185505126, 0.03374842, -0.05132855, -0.03232324, 0.01023123
 185559985, 0.01414369, -0.05217805, -0.007855949, 0.01022826
 185615107, 0.01831065, -0.03843737, 0.000325579, 0.01022974
 185670330, 0.0175279, -0.01905639, -0.001750871, 0.01022528
 185725049, 0.005699962, -0.03456225, 0.01824899, 0.01025392
 185779917, 0.01597752, -0.02171063, 0.01256974, 0.01020334
 185830010, 0.001659001, 0.0005290318, -0.003157515, 0.009300984
 185885192, 0.006642406, -0.03224995, 0.04536685, 0.01022509
 185939978, 0.006516783, 0.006354604, 0.009184944, 0.01022993
 185996299, -0.01082995, 0.002205208, 0.02934876, 0.01022937
 186049924, 0.009048439, -0.01981908, 0.04305129, 0.01022788
 186104950, -0.01739198, 0.04719453, -0.01431306, 0.01023049
 186159983, -0.005386773, -0.01167872, 0.054023, 0.01023012
 186215005, -0.01914114, 0.04153684, -0.01833754, 0.01022547
 186264966, -0.02481324, 0.03393305, 0.004877428, 0.009300427
 186321641, -0.03329118, 0.01977739, -0.005030841, 0.01022677
 186374944, -0.04864182, 0.09091872, -0.0363446, 0.01022863
 186429945, -0.04513374, 0.03808418, 0.01997287, 0.01022993
 186484946, -0.06136178, 0.06425805, -0.01261276, 0.01022733
 186539977, -0.05778684, 0.09086746, -0.01021942, 0.01023012
 186596354, -0.05254793, 0.03244396, 0.02752869, 0.01022733
 186650210, -0.07055178, 0.07837305, -0.03159884, 0.01022844
 186699990, -0.04507182, 0.03649003, 0.02158697, 0.009298753
 186754936, -0.06405793, 0.03656775, 0.00173041, 0.01022863
 186809940, -0.0620542, 0.05606603, -0.01977969, 0.01022863
 186864903, -0.03951595, 0.0002367876, 0.03331399, 0.01023123
 186921925, -0.05224045, 0.01549163, 0.003851855, 0.01022602
 186975561, -0.03532634, 0.01462757, 0.01456425, 0.01031715
 187028031, -0.02713951, -0.03366918, 0.04448397, 0.00976369
 187083052, -0.03377334, -0.007455679, -0.01783736, 0.01022863
 187137943, -0.01439471, -0.023855, 0.005731668, 0.01023086
 187194516, -0.01644298, -0.05837739, 0.01764934, 0.0102264
 187247911, -0.02685409, -0.02491284, -0.02826189, 0.01022863
 187303087, -0.001115732, -0.04060286, 0.01538202, 0.01022882
 187352949, -0.0101192, -0.05327229, 0.008758041, 0.009299312
 187407912, -0.01409354, -0.028471, -0.02630548, 0.01022788
 187462898, 0.009550063, -0.05321652, 0.01821819, 0.01023253
 187519604, -0.01863103, -0.0477999, -0.001705714, 0.01022584
 187573068, -0.003200536, -0.02802465, -0.01577052, 0.01022751
 187628202, 0.00824505, -0.04980104, 0.005431712, 0.01028981
 187683234, -0.01795466, -0.03264888, -0.02494335, 0.01022547
 187733230, -0.00426003, -0.02937295, -0.00855721, 0.009298753
 187788200, -0.01174587, -0.02102754, -0.003113106, 0.01022881
 187843889, -0.02689756, -0.006661751, -0.01474356, 0.01023012
 187898216, -0.0009238945, -0.00907006, 0.01261571, 0.01022695
 187953214, -0.01639821, 0.006743203, -0.004669284, 0.01022937
 188008218, -0.01808053, 0.007361614, -0.001744022, 0.01022788
 188063220, 0.001594926, 0.0019217, 0.02358876, 0.01022863
 188119878, -0.01812169, 0.02064038, -0.01142011, 0.01022993
 188173252, -0.0104104, 0.000238402, 0.02130718, 0.01022788
 188228199, 0.005661992, 0.002638434, 0.008950315, 0.01022844
 188278125, -0.009764357, 0.0122376, -0.005107325, 0.00929838
 188333264, 0.004731195, -0.01144522, 0.01582926, 0.01023049
 188388197, -0.00208335, 0.006739277, -0.01386483, 0.01022677
 188443879, -0.01453995, 0.009357732, -0.02916968, 0.01022863
 188498360, -0.007390453, -0.01522929, 0.004825768, 0.01022881
 188553232, -0.02339091, 0.007287297, -0.0195959, 0.01023067
 188608468, -0.02895942, 0.0136268, -0.005590416, 0.0102264
 188658233, -0.0115899, -0.02147778, 0.02315432, 0.00929894
 188713243, -0.03924806, 0.0231212, -0.02900172, 0.010229
 188768604, -0.02914713, 0.0007681751, -0.0008474463, 0.01022807
 188828207, -0.02883749, -0.008167626, 0.003004897, 0.0111585
 188878366, -0.0456617, 0.02838205, -0.03979582, 0.009299869
 188933230, -0.02814871, -0.008545967, 0.01036151, 0.01022751
 188988204, -0.03735745, 0.006400302, -0.01596673, 0.01022863
 189043644, -0.04098071, 0.03167247, -0.01788437, 0.01022863
 189093639, -0.01348239, -0.01481592, 0.03369038, 0.009300427
 189153253, -0.04806633, 0.02199678, -0.02563286, 0.01116036
 189203246, -0.01637926, 0.008378246, -0.00313026, 0.009297079
 189258217, -0.0280424, -0.001937677, 0.01208368, 0.01022677
 189313226, -0.04307215, 0.02911446, -0.01606517, 0.01022863
 189368640, -0.009601142, -0.0007127888, 0.02640897, 0.01022863
 189423246, -0.03607265, 0.00929632, -0.01625004, 0.01026675
 189478208, -0.02817842, 0.01137225, -0.006057952, 0.0101905
 189528205, -0.005500964, -0.008186113, 0.01255042, 0.009299682
 189583231, -0.03896519, 0.00934143, -0.02994124, 0.0102277
 189638238, -0.006766443, -0.01891302, 0.01857809, 0.010229
 189693656, -0.02032783, -0.005251774, -0.007224509, 0.01022881
 189748225, -0.03224003, -0.008090229, 0.001075411, 0.01022807
 189803203, -0.004843722, -0.03510849, 0.03235101, 0.01022863
 189858219, -0.03656916, -0.0002869684, -0.02492384, 0.01022863
 189913489, -0.0245151, -0.02798896, 0.01120039, 0.01022863
 189968743, -0.02180117, -0.02270805, 0.007880982, 0.01022919
 190019999, -0.03526629, 0.005556272, -0.01805812, 0.009298939
 190073382, -0.02230029, -0.03854498, 0.02359284, 0.01022844
 190128245, -0.03896072, -0.007072586, -0.03437433, 0.01022807
 190183488, -0.0328312, -0.006200775, -0.02144214, 0.01022863
 190238209, -0.02362241, -0.03912749, 0.03183083, 0.01023049
 190293634, -0.04904889, 0.003498949, -0.01184431, 0.01022677
 190348247, -0.02707295, -0.01493267, 0.03210518, 0.01022863
 190403205, -0.02726947, -0.02679377, 0.0274102, 0.01022863
 190453449, -0.04079101, 0.006695361, -0.002635212, 0.009299498
 190508223, -0.01298743, -0.02455568, 0.02836187, 0.01022788
 190563227, -0.02642934, -0.01045265, -0.001263057, 0.01023142
 190619896, -0.02003348, -0.005838046, -0.0005747448, 0.010229
 190673257, -0.0008711087, -0.03468429, 0.03230936, 0.01022584
 190728221, -0.02044954, -0.01458453, -0.01963742, 0.01022826
 190783213, -0.002715244, -0.02281517, -8.223741E-05, 0.01022974
 190838212, 0.007100067, -0.03900033, 0.01124025, 0.01022751
 190888124, -0.008518348, -0.01435139, -0.03016547, 0.009298753
 190943645, 0.01225517, -0.03373056, -0.001774609, 0.01023067
 191003231, 0.002933204, -0.03791713, 0.01055944, 0.01115646
 191053237, -0.007264332, -0.02099229, -0.002669123, 0.009299497
 191108241, 0.01829, -0.03683831, 0.02162199, 0.010229
 191163256, 0.004779364, -0.03361699, -0.004974813, 0.01022751
 191220040, 0.002751791, -0.03486783, -0.00470839, 0.01022863
 191273238, 0.01702831, -0.03415465, 0.002118027, 0.01022863
 191328113, -0.00464707, -0.02758138, -0.01128934, 0.01022863
 191378150, -0.001950096, -0.03371182, 0.002530335, 0.009299497
 191433240, 0.007792532, -0.02662443, 0.0001339304, 0.01023067
 191488496, -0.02217037, -0.02073534, -0.01028033, 0.01022677
 191543832, -0.004765604, -0.03327765, 0.01653315, 0.0102277
 191598247, -0.007063993, -0.0128236, -0.002552845, 0.01024146
 191653250, -0.03024419, -0.005852513, 0.0001105212, 0.01022175
 191708250, -0.005509813, -0.02617747, 0.03380775, 0.01022268
 191758443, -0.0234791, 0.005198284, -0.01283332, 0.009299869
 191813230, -0.0227889, -0.01592868, 0.01565611, 0.01023142
 191868616, -0.006335137, -0.01771907, 0.01634135, 0.01022472
 191928195, -0.04069522, 0.02068298, -0.02820102, 0.0111585
 191978227, -0.01062847, -0.02492959, 0.02957508, 0.009298753
 192033239, -0.03224293, 0.01491457, -0.03410985, 0.010229
 192088208, -0.03088399, 0.0219943, -0.0252545, 0.01023012
 192143759, -0.02189296, -0.008332924, 0.007966835, 0.01030655
 192193625, -0.04423783, 0.04782001, -0.05044574, 0.009298566
 192251100, -0.02638943, 0.002820163, 0.01311644, 0.0106945
 192306101, -0.04444427, 0.02028639, -0.02048928, 0.0102316
 192356101, -0.03739436, 0.03254853, -0.01812699, 0.009297265
 192411312, -0.03081988, -0.001529037, 0.02045354, 0.0102264
 192466537, -0.05882261, 0.04694273, -0.0274136, 0.01023012
 192526259, -0.02254698, 0.005764535, 0.02123728, 0.01115683
 192576113, -0.05411603, 0.02228507, -0.01518796, 0.00930117
 192631125, -0.02429324, 0.01703633, 0.01255305, 0.01022602
 192686096, -0.0405639, 0.01416122, 0.006762041, 0.01023105
 192741540, -0.04718179, 0.02264802, -0.01150508, 0.0102264
 192796086, -0.01744314, 6.545617E-05, 0.006046975, 0.01022733
 192846098, -0.06140759, 0.02571237, -0.02362995, 0.009300798
 192901084, -0.007016145, -0.01006288, 0.03263997, 0.01023067
 192956121, -0.05705914, 0.031645, -0.02828822, 0.01022584
 193011283, -0.01409448, -0.0104462, 0.03202088, 0.01022844
 193066686, -0.02160309, 0.01257864, -0.002507233, 0.01023253
 193121110, -0.02992888, 0.009154777, 0.01257569, 0.01026899
 193176312, -0.004244052, -0.02055887, 0.03826782, 0.0101866
 193226109, -0.02032204, 0.02778986, -0.02039707, 0.009296706
 193281111, 0.008105518, -0.04054066, 0.03538422, 0.01022863
 193336101, -0.008323228, 0.01932585, -0.0351085, 0.01022863
 193392534, 0.0101239, -0.01754706, 0.02516308, 0.01022937
 193446098, 0.01575095, -0.01424463, 0.002797124, 0.01022844
 193501074, 0.01025989, 0.01703143, -0.02043748, 0.01022807
 193556193, 0.03246893, -0.04045438, 0.02854213, 0.01023253
 193611072, 0.01135763, 0.006998227, -0.04153899, 0.01022472
 193666577, 0.0291177, -0.0241049, 0.003846048, 0.01023012
 193718003, 0.0174302, -0.0275368, -0.00936452, 0.009297265
 193771482, 0.01405159, -0.0003648354, -0.02368433, 0.01029093
 193829221, 0.02738351, -0.05093171, 0.05244772, 0.01069747
 193879022, 0.002193574, 0.002480537, -0.03016857, 0.009295778
 193934114, 0.03168758, -0.04330307, 0.007937985, 0.01022733
 193989480, 0.006879956, -0.0367436, -0.0210406, 0.01022863
 194044112, 0.002321087, -0.01170408, -0.04359428, 0.01022863
 194099202, 0.01718981, -0.05012834, 0.02056503, 0.01022919
 194154355, -0.01922809, -0.01708282, -0.02378484, 0.01029465
 194209263, 0.01095935, -0.024544, 0.001090049, 0.0102316
 194262671, -0.007019117, -0.03569267, 0.001023391, 0.009840126
 194317259, -0.01866361, -0.01314501, -0.01893432, 0.01024425
 194372251, 0.01108529, -0.03300503, 0.021364, 0.01021301
 194427274, -0.02992751, -0.01702129, -0.02520573, 0.01023123
 194482532, -0.005069842, -0.02351351, 0.01123427, 0.01022677
 194532255, -0.01897199, -0.01779555, 0.005990142, 0.009298009
 194587795, -0.03396983, -0.01567675, 0.007868648, 0.01022937
 194642496, -0.005957247, -0.02520513, 0.02939803, 0.01023049
 194697667, -0.04257696, -0.002065942, -0.01056762, 0.01022844
 194749792, -0.0220651, -0.02756167, 0.03188742, 0.009763318
 194807275, -0.0312547, -0.001327058, 0.0009137152, 0.01069171
 194860099, -0.04798564, 0.003262295, 0.00624364, 0.009764063
 194914745, -0.02401846, -0.02340838, 0.0333452, 0.01022863
 194967247, -0.05332273, 0.03740314, -0.02263532, 0.009763133
 195024115, -0.03097336, -0.0213674, 0.0432255, 0.01022863
 195077695, -0.04586995, 0.02656865, -0.01561702, 0.01030041
 195130075, -0.04186199, 0.02295298, 0.003257902, 0.009765363
 195185189, -0.03271527, -0.004284104, 0.008277895, 0.01022677
 195240085, -0.04847533, 0.05429027, -0.04043113, 0.01022863
 195295535, -0.03098183, 0.009666585, 0.01304603, 0.01022993
 195350103, -0.03737875, 0.01580005, -0.008743851, 0.01022733
 195405299, -0.0430944, 0.04637326, -0.03125571, 0.01022863
 195460104, -0.02063926, -0.007392257, 0.02603648, 0.01022863
 195515094, -0.04533913, 0.02717697, -0.02082876, 0.01023012
 195565076, -0.01970438, 0.01172984, 0.0006908812, 0.009297637
 195621825, -0.02676436, -0.003304498, 0.009289983, 0.01022826
 195675324, -0.0435389, 0.02770158, -0.02070023, 0.01022863
 195730066, -0.01040316, -0.01287461, 0.02906338, 0.01022937
 195785087, -0.03730454, 0.005885702, -0.006391819, 0.01022658
 195840094, -0.02908166, 0.009663885, -0.003203788, 0.01023142
 195895552, -0.01498298, -0.02344278, 0.0265916, 0.01022714
 195950116, -0.04160482, 0.01164149, -0.02336892, 0.01022863
 196005285, -0.01201595, -0.01964607, 0.01702713, 0.01022919
 196055096, -0.02520375, -0.01340367, -0.009924049, 0.009298196
 196110328, -0.02354937, -0.007240439, -0.02020499, 0.01022863
 196165287, -0.006319971, -0.02529729, 0.01504735, 0.01023012
 196221830, -0.02860837, -0.009247461, -0.009445617, 0.01022714
 196275106, -0.01833537, -0.01095899, 0.008945704, 0.01022919
 196330089, -0.005299481, -0.03285866, 0.02730406, 0.01022807
 196385096, -0.02460844, -0.009434436, -0.01264428, 0.01022863
 196435098, -0.003662772, -0.03207367, 0.01781557, 0.009298753
 196490088, -0.01255836, -0.03213492, -0.003506714, 0.01022881
 196545580, -0.01983809, -0.02095047, -0.01417141, 0.01022844
 196605102, 0.004959592, -0.04343569, 0.01922261, 0.01115757
 196655115, -0.01858038, -0.02021645, -0.02319804, 0.009300055
 196710310, -0.0123172, -0.021064, -0.0008854347, 0.01023123
 196765099, -0.003290639, -0.03173835, 0.017431, 0.01022565
 196821767, -0.02291939, 0.001718127, -0.01281574, 0.01022863
 196870536, -0.01236137, -0.01560549, 0.02171438, 0.009300241
 196930057, -0.01293723, -0.01824171, 0.01046341, 0.01115776
 196980290, -0.02777076, 0.0115321, -0.02550737, 0.009299682
 197035189, -0.01291064, -0.02354207, 0.0275918, 0.01022826
 197090090, -0.02282013, -0.004577868, -0.002353947, 0.01022733
 197145536, -0.02947402, 0.01438158, -0.005941215, 0.01022863
 197200149, -0.01104973, -0.02482862, 0.03358959, 0.01022733
 197255086, -0.02914513, 0.005270321, -0.0115116, 0.01023235
 197310107, -0.02316349, 0.006495751, 0.001866575, 0.01022826
 197360091, -0.0117788, -0.02650533, 0.0168185, 0.009296708
 197415082, -0.03965507, 0.01731672, -0.03258861, 0.01023291
 197470563, -0.01860048, -0.01641059, 0.007184866, 0.01022491
 197530291, -0.02817269, -0.01563242, 0.004911163, 0.01115795
 197580298, -0.03996047, 0.02022643, -0.0255946, 0.009300984
 197635310, -0.01692012, -0.01816979, 0.02629379, 0.0102264
 197690113, -0.03225244, -0.00423416, 0.00434808, 0.01022919
 197742978, -0.03255931, 0.018005, -0.005097455, 0.009764249
 197797648, -0.009473163, -0.02146126, 0.02545538, 0.01022807
 197852630, -0.03957004, 0.02541822, -0.03615279, 0.01022826
 197907666, -0.01564474, -0.01077328, 0.01076239, 0.01023012
 197962613, -0.02117736, -0.005364376, -0.01107682, 0.01022714
 198012636, -0.03172508, 0.02315392, -0.01824955, 0.009298567
 198067992, -0.007756989, -0.0286466, 0.0299709, 0.01023216
 198127927, -0.03975005, 0.02181851, -0.01593946, 0.01115497
 198177666, -0.013359, -0.006318757, 0.01334674, 0.009299497
 198233071, -0.01970475, -0.008760666, -0.005577053, 0.01029614
 198288043, -0.03456054, 0.02177502, -0.03272265, 0.01023086
 198343567, -0.006528273, -0.0248509, 0.01617648, 0.01022863
 198393516, -0.03952509, 0.01051691, -0.02628614, 0.009298009
 198448082, -0.01372546, -0.0003404489, -0.003187635, 0.01022844
 198503071, -0.01579304, -0.01636788, 0.01114612, 0.01022863
 198558068, -0.03807373, 0.01787498, -0.04059481, 0.01022863
 198613062, -0.008742657, -0.011558, -0.002452721, 0.0102303
 198668659, -0.02699117, -0.01225851, -0.007251278, 0.01022695
