TimeUS,COFN,COFE,CNe,CEe,POFN,POFE,PNe,PEe
 85574919, -0.02284431, 0.001859076, 0.007821751, -0.0108088, -0.006226789, 0.006909587, 0.007711492, -0.01082767
 85740068, -0.006157948, 0.006690273, 0.007555997, -0.0106047, -0.044434, 0.01318089, 0.008213889, -0.01082039
 85789341, -0.006017834, 0.006614994, 0.007413582, -0.01040391, -0.006157948, 0.006690273, 0.007555997, -0.0106047
 85843904, -0.005825511, 0.006467586, 0.007264317, -0.01019366, -0.006017834, 0.006614994, 0.007413582, -0.01040391
 85898874, -0.08934842, 0.05909517, 0.009899056, -0.01145853, -0.005825511, 0.006467586, 0.007264317, -0.01019366
 85954013, -0.03028242, 0.003008584, 0.007915246, -0.01079203, -0.08934842, 0.05909517, 0.009899056, -0.01145853
 86008876, -0.006347562, 0.007059664, 0.007867652, -0.01103509, -0.03028242, 0.003008584, 0.007915246, -0.01079203
 86064350, -0.006448793, 0.00717619, 0.007995947, -0.01121286, -0.006347562, 0.007059664, 0.007867652, -0.01103509
 86118889, -0.005083114, 0.01497832, 0.007926253, -0.01116531, -0.006448793, 0.00717619, 0.007995947, -0.01121286
 86173903, -0.2818241, 0.04508942, 0.02086517, -0.01324508, -0.005083114, 0.01497832, 0.007926253, -0.01116531
 86228881, -0.006411804, 0.007145505, 0.008020865, -0.01124189, -0.2818241, 0.04508942, 0.02086517, -0.01324508
 86283896, -0.00647301, 0.007211909, 0.008040772, -0.01126707, -0.006411804, 0.007145505, 0.008020865, -0.01124189
 86333897, -0.006483741, 0.007070633, 0.007986529, -0.0111879, -0.00647301, 0.007211909, 0.008040772, -0.01126707
 86389649, -0.006541946, 0.007217763, 0.008096365, -0.01134046, -0.006483741, 0.007070633, 0.007986529, -0.0111879
 86443882, 0.005916622, 0.08354454, 0.008184562, -0.01333004, -0.006541946, 0.007217763, 0.008096365, -0.01134046
 86498894, -0.006809717, 0.007494623, 0.008450172, -0.01183166, 0.005916622, 0.08354454, 0.008184562, -0.01333004
 86553914, -0.006750986, 0.007478075, 0.008397219, -0.01175485, -0.006809717, 0.007494623, 0.008450172, -0.01183166
 86608889, -0.006700599, 0.00731772, 0.008237769, -0.01152885, -0.006750986, 0.007478075, 0.008397219, -0.01175485
 86664347, -0.006602203, 0.007209389, 0.008093569, -0.01132428, -0.006700599, 0.00731772, 0.008237769, -0.01152885
 86718985, -0.006551366, 0.007322387, 0.008104612, -0.01133803, -0.006602203, 0.007209389, 0.008093569, -0.01132428
 86773888, -0.006678685, 0.007216127, 0.0081403, -0.01138524, -0.006551366, 0.007322387, 0.008104612, -0.01133803
 86828857, -0.00651188, 0.00725752, 0.008072726, -0.01128964, -0.006678685, 0.007216127, 0.0081403, -0.01138524
 86883905, -0.006504335, 0.007073715, 0.007988472, -0.01116861, -0.00651188, 0.00725752, 0.008072726, -0.01128964
 86933862, -0.07845654, 0.01097024, 0.009480319, -0.01135914, -0.006504335, 0.007073715, 0.007988472, -0.01116861
 86990002, -0.2112194, -0.007542726, 0.01590779, -0.01285206, -0.07845654, 0.01097024, 0.009480319, -0.01135914
 87044095, -0.006455805, 0.0071808, 0.008028858, -0.01122095, -0.2112194, -0.007542726, 0.01590779, -0.01285206
 87098896, -0.006506498, 0.007117655, 0.008050853, -0.01124963, -0.006455805, 0.0071808, 0.008028858, -0.01122095
 87153898, -0.006410903, 0.007084704, 0.007996678, -0.01117297, -0.006506498, 0.007117655, 0.008050853, -0.01124963
 87208876, -0.02371805, 0.001791141, 0.008129869, -0.01118431, -0.006410903, 0.007084704, 0.007996678, -0.01117297
 87264320, -0.07858134, 0.01906059, 0.009622007, -0.01154924, -0.02371805, 0.001791141, 0.008129869, -0.01118431
 87318889, -0.006389651, 0.006967664, 0.007936746, -0.01108333, -0.07858134, 0.01906059, 0.009622007, -0.01154924
 87373891, -0.006272755, 0.006927136, 0.007808289, -0.01090263, -0.006389651, 0.006967664, 0.007936746, -0.01108333
 87428871, -0.006367819, 0.00702001, 0.007882473, -0.01100477, -0.006272755, 0.006927136, 0.007808289, -0.01090263
 87483997, -0.01442794, 0.008344445, 0.008063055, -0.01119469, -0.006367819, 0.00702001, 0.007882473, -0.01100477
 87533984, -0.04640728, 0.01376874, 0.008639263, -0.0113641, -0.01442794, 0.008344445, 0.008063055, -0.01119469
 87589713, -0.006498124, 0.007187623, 0.008139071, -0.0113581, -0.04640728, 0.01376874, 0.008639263, -0.0113641
 87643911, -0.006571532, 0.007270181, 0.008180931, -0.01141451, -0.006498124, 0.007187623, 0.008139071, -0.0113581
 87698892, -0.006671483, 0.007284021, 0.00820841, -0.01145064, -0.006571532, 0.007270181, 0.008180931, -0.01141451
 87754009, -0.04763289, 0.06462137, 0.008877154, -0.01233968, -0.006671483, 0.007284021, 0.00820841, -0.01145064
 87808873, -0.1720809, 0.06802121, 0.01435043, -0.01286723, -0.04763289, 0.06462137, 0.008877154, -0.01233968
 87864392, -0.006540777, 0.00713614, 0.00809767, -0.01129092, -0.1720809, 0.06802121, 0.01435043, -0.01286723
 87918870, -0.006368794, 0.00708384, 0.008008838, -0.01116635, -0.006540777, 0.00713614, 0.00809767, -0.01129092
 87973883, -0.006432733, 0.007040082, 0.007969014, -0.01110851, -0.006368794, 0.00708384, 0.008008838, -0.01116635
 88028905, -0.005144973, 0.01499505, 0.007976153, -0.01116826, -0.006432733, 0.007040082, 0.007969014, -0.01110851
 88078896, -0.216786, 0.07466539, 0.01701708, -0.01311025, -0.005144973, 0.01499505, 0.007976153, -0.01116826
 88133917, -0.006472573, 0.007092918, 0.008072456, -0.01124768, -0.216786, 0.07466539, 0.01701708, -0.01311025
 88189637, -0.006396585, 0.00710554, 0.007994242, -0.01113764, -0.006472573, 0.007092918, 0.008072456, -0.01124768
 88243892, -0.006376428, 0.006979419, 0.007944558, -0.01106568, -0.006396585, 0.00710554, 0.007994242, -0.01113764
 88298896, -0.02443987, -0.006069702, 0.008038247, -0.01105817, -0.006376428, 0.006979419, 0.007944558, -0.01106568
 88354088, -0.06701978, 0.02482113, 0.009050598, -0.01109326, -0.02443987, -0.006069702, 0.008038247, -0.01105817
 88409082, -0.006083257, 0.006667663, 0.00751822, -0.01046715, -0.06701978, 0.02482113, 0.009050598, -0.01109326
 88464308, -0.00621151, 0.006795553, 0.007659027, -0.01066138, -0.006083257, 0.006667663, 0.00751822, -0.01046715
 88518991, -0.006333546, 0.006938835, 0.007875175, -0.01096146, -0.00621151, 0.006795553, 0.007659027, -0.01066138
 88573897, 0.08229496, 0.000641354, 0.00956754, -0.01140453, -0.006333546, 0.006938835, 0.007875175, -0.01096146
 88628886, 0.110121, -0.02835171, 0.01095426, -0.01173349, 0.08229496, 0.000641354, 0.00956754, -0.01140453
 88678875, -0.006564619, 0.00723401, 0.008148069, -0.01133722, 0.110121, -0.02835171, 0.01095426, -0.01173349
 88733887, -0.006568407, 0.007154578, 0.008179179, -0.01137984, -0.006564619, 0.00723401, 0.008148069, -0.01133722
 88789836, -0.006470835, 0.007092219, 0.008065698, -0.01122098, -0.006568407, 0.007154578, 0.008179179, -0.01137984
 88843886, -0.03558694, 0.02811945, 0.008417726, -0.01137629, -0.006470835, 0.007092219, 0.008065698, -0.01122098
 88898857, -0.002454147, 0.03137596, 0.00809061, -0.01153318, -0.03558694, 0.02811945, 0.008417726, -0.01137629
 88953943, -0.006494276, 0.007177155, 0.008109071, -0.01127831, -0.002454147, 0.03137596, 0.00809061, -0.01153318
 89008866, -0.006501045, 0.007109125, 0.008021599, -0.01115487, -0.006494276, 0.007177155, 0.008109071, -0.01127831
 89064366, -0.006318651, 0.007063859, 0.007964535, -0.01107506, -0.006501045, 0.007109125, 0.008021599, -0.01115487
 89118878, -0.04960101, 0.03831714, 0.008663816, -0.01137719, -0.006318651, 0.007063859, 0.007964535, -0.01107506
 89173892, -0.02997208, 0.01088967, 0.008211726, -0.01111749, -0.04960101, 0.03831714, 0.008663816, -0.01137719
 89224027, -0.007056893, 0.006919685, 0.008089707, -0.01122053, -0.02997208, 0.01088967, 0.008211726, -0.01111749
 89278900, -0.005948199, 0.007011302, 0.008041478, -0.01118001, -0.007056893, 0.006919685, 0.008089707, -0.01122053
 89333909, -0.006384593, 0.007315584, 0.007995467, -0.01111911, -0.005948199, 0.007011302, 0.008041478, -0.01118001
 89389631, -0.006141759, 0.00696192, 0.008055716, -0.01119327, -0.006384593, 0.007315584, 0.007995467, -0.01111911
 89443890, -0.005963842, 0.007074808, 0.008134288, -0.0113019, -0.006141759, 0.00696192, 0.008055716, -0.01119327
 89498892, -0.005615494, 0.006996637, 0.007890824, -0.01096593, -0.005963842, 0.007074808, 0.008134288, -0.0113019
 89554026, -0.005427196, 0.006832193, 0.007778349, -0.0108108, -0.005615494, 0.006996637, 0.007890824, -0.01096593
 89608911, -0.006016752, 0.006649367, 0.007814454, -0.01084831, -0.005427196, 0.006832193, 0.007778349, -0.0108108
 89664354, 0.08426364, 0.05777441, 0.009137155, -0.01256047, -0.006016752, 0.006649367, 0.007814454, -0.01084831
 89718944, -0.1357904, 0.04474442, 0.01238709, -0.01239277, 0.08426364, 0.05777441, 0.009137155, -0.01256047
 89768883, -0.006221637, 0.004514939, 0.008407584, -0.01166341, -0.1357904, 0.04474442, 0.01238709, -0.01239277
 89824344, 0.001224472, 0.007095539, 0.008198204, -0.01141057, -0.006221637, 0.004514939, 0.008407584, -0.01166341
 89878920, -0.0119736, 0.01229466, 0.008124797, -0.01125981, 0.001224472, 0.007095539, 0.008198204, -0.01141057
 89933911, -0.008511128, 0.005987112, 0.00804381, -0.01115638, -0.0119736, 0.01229466, 0.008124797, -0.01125981
 89989645, -0.007048372, 0.006129973, 0.008039815, -0.01114766, -0.008511128, 0.005987112, 0.00804381, -0.01115638
 90043982, -0.007149084, 0.007402549, 0.008130688, -0.01127223, -0.007048372, 0.006129973, 0.008039815, -0.01114766
 90098889, -0.007316437, 0.006912651, 0.008084842, -0.011204, -0.007149084, 0.007402549, 0.008130688, -0.01127223
 90153995, -0.006877498, 0.007063095, 0.008033979, -0.01113047, -0.007316437, 0.006912651, 0.008084842, -0.011204
 90208906, -0.008214066, 0.006955776, 0.007987637, -0.01105407, -0.006877498, 0.007063095, 0.008033979, -0.01113047
 90264332, -0.007666617, 0.007661792, 0.00795043, -0.01100761, -0.008214066, 0.006955776, 0.007987637, -0.01105407
 90318937, -0.008094121, 0.007629568, 0.008077912, -0.01117789, -0.007666617, 0.007661792, 0.00795043, -0.01100761
 90368871, -0.007465535, 0.007552637, 0.008129667, -0.01125827, -0.008094121, 0.007629568, 0.008077912, -0.01117789
 90424077, -0.007790318, 0.007636792, 0.008046201, -0.01113729, -0.007465535, 0.007552637, 0.008129667, -0.01125827
 90478872, -0.006869292, 0.006871679, 0.007988862, -0.01105499, -0.007790318, 0.007636792, 0.008046201, -0.01113729
 90533983, -0.007921099, 0.006882309, 0.007969785, -0.01101811, -0.006869292, 0.006871679, 0.007988862, -0.01105499
 90589816, -0.008150466, 0.007135, 0.008000299, -0.01105906, -0.007921099, 0.006882309, 0.007969785, -0.01101811
 90643892, -0.006689528, 0.007699848, 0.008100884, -0.01121322, -0.008150466, 0.007135, 0.008000299, -0.01105906
 90698888, -0.008293771, 0.00740628, 0.008121377, -0.01123318, -0.006689528, 0.007699848, 0.008100884, -0.01121322
 90753921, -0.007502357, 0.007496482, 0.008060695, -0.01115249, -0.008293771, 0.00740628, 0.008121377, -0.01123318
 90808887, -0.008052027, 0.007973422, 0.008060867, -0.01114667, -0.007502357, 0.007496482, 0.008060695, -0.01115249
 90864377, -0.008225136, 0.007358014, 0.008150928, -0.01126438, -0.008052027, 0.007973422, 0.008060867, -0.01114667
 90914341, -0.007257975, 0.006966003, 0.008076245, -0.01116228, -0.008225136, 0.007358014, 0.008150928, -0.01126438
 90968893, -0.00766755, 0.007298887, 0.007865619, -0.01087265, -0.007257975, 0.006966003, 0.008076245, -0.01116228
 91024034, -0.00826147, 0.007768598, 0.008149805, -0.01126529, -0.00766755, 0.007298887, 0.007865619, -0.01087265
 91078991, -0.007799779, 0.007397398, 0.008499666, -0.01174639, -0.00826147, 0.007768598, 0.008149805, -0.01126529
 91133916, -0.007967679, 0.007752224, 0.008243745, -0.0113913, -0.007799779, 0.007397398, 0.008499666, -0.01174639
 91189783, -0.00794027, 0.007601074, 0.007975544, -0.01101792, -0.007967679, 0.007752224, 0.008243745, -0.0113913
 91243997, -0.007325293, 0.006635969, 0.008093576, -0.01117851, -0.00794027, 0.007601074, 0.007975544, -0.01101792
 91298892, -0.007950023, 0.00762255, 0.008119478, -0.01120925, -0.007325293, 0.006635969, 0.008093576, -0.01117851
 91354004, -0.007789636, 0.00776389, 0.008061846, -0.01113521, -0.007950023, 0.00762255, 0.008119478, -0.01120925
 91408899, -0.00766431, 0.007312641, 0.008001323, -0.01105597, -0.007789636, 0.00776389, 0.008061846, -0.01113521
 91464337, -0.0082274, 0.007579765, 0.007969969, -0.01100366, -0.00766431, 0.007312641, 0.008001323, -0.01105597
 91514357, -0.007071367, 0.007037707, 0.007951367, -0.010975, -0.0082274, 0.007579765, 0.007969969, -0.01100366
 91568884, -0.00762929, 0.006974109, 0.007939475, -0.01094768, -0.007071367, 0.007037707, 0.007951367, -0.010975
 91624338, -0.007384393, 0.007385629, 0.007924424, -0.01093482, -0.00762929, 0.006974109, 0.007939475, -0.01094768
 91678890, -0.007618445, 0.007136138, 0.007917316, -0.01092423, -0.007384393, 0.007385629, 0.007924424, -0.01093482
 91733891, -0.007266045, 0.007406355, 0.007913324, -0.01091956, -0.007618445, 0.007136138, 0.007917316, -0.01092423
 91789691, -0.007693136, 0.006610456, 0.007911853, -0.01091186, -0.007266045, 0.007406355, 0.007913324, -0.01091956
 91843894, -0.007318601, 0.007259476, 0.007907633, -0.01091085, -0.007693136, 0.006610456, 0.007911853, -0.01091186
 91898897, -0.008162591, 0.007588568, 0.007910478, -0.01091, -0.007318601, 0.007259476, 0.007907633, -0.01091085
 91953987, -0.006949477, 0.007581966, 0.007908705, -0.01090535, -0.008162591, 0.007588568, 0.007910478, -0.01091
 92008877, -0.007762731, 0.00706789, 0.007911634, -0.01090279, -0.006949477, 0.007581966, 0.007908705, -0.01090535
 92064361, -0.008034069, 0.007302612, 0.007910973, -0.01090415, -0.007762731, 0.00706789, 0.007911634, -0.01090279
 92114362, -0.007654059, 0.006966722, 0.007911478, -0.01090073, -0.008034069, 0.007302612, 0.007910973, -0.01090415
 92168886, -0.007042729, 0.006546867, 0.007907277, -0.01089973, -0.007654059, 0.006966722, 0.007911478, -0.01090073
 92224088, -0.007601917, 0.007690693, 0.007965063, -0.0109818, -0.007042729, 0.006546867, 0.007907277, -0.01089973
 92278887, -0.00724997, 0.007698803, 0.008091772, -0.01115546, -0.007601917, 0.007690693, 0.007965063, -0.0109818
 92333900, -0.007872965, 0.007534477, 0.008155666, -0.01123368, -0.00724997, 0.007698803, 0.008091772, -0.01115546
 92389791, -0.008373847, 0.008023718, 0.008220208, -0.01131904, -0.007872965, 0.007534477, 0.008155666, -0.01123368
 92443882, -0.007843699, 0.006848228, 0.008201089, -0.0112918, -0.008373847, 0.008023718, 0.008220208, -0.01131904
 92498890, -0.007988827, 0.007493981, 0.008101122, -0.01115358, -0.007843699, 0.006848228, 0.008201089, -0.0112918
 92554109, -0.007934482, 0.007362146, 0.008109896, -0.01116656, -0.007988827, 0.007493981, 0.008101122, -0.01115358
 92609001, -0.008006093, 0.008228979, 0.008188914, -0.0112767, -0.007934482, 0.007362146, 0.008109896, -0.01116656
 92664338, -0.007794063, 0.007434914, 0.008237357, -0.01134397, -0.008006093, 0.008228979, 0.008188914, -0.0112767
 92714471, -0.007429373, 0.007525991, 0.008263802, -0.01137271, -0.007794063, 0.007434914, 0.008237357, -0.01134397
 92768879, -0.007888611, 0.007035411, 0.008185148, -0.0112602, -0.007429373, 0.007525991, 0.008263802, -0.01137271
 92824091, -0.007912141, 0.007483853, 0.008090827, -0.01113237, -0.007888611, 0.007035411, 0.008185148, -0.0112602
 92878894, -0.007671826, 0.007498744, 0.008030648, -0.01104753, -0.007912141, 0.007483853, 0.008090827, -0.01113237
 92933895, -0.007165608, 0.007000983, 0.008001186, -0.01100654, -0.007671826, 0.007498744, 0.008030648, -0.01104753
 92989643, -0.008151376, 0.007853649, 0.008120655, -0.01117379, -0.007165608, 0.007000983, 0.008001186, -0.01100654
 93043996, -0.007699483, 0.007819511, 0.008139141, -0.01120002, -0.008151376, 0.007853649, 0.008120655, -0.01117379
 93098900, -0.007948264, 0.007697998, 0.008066399, -0.01108942, -0.007699483, 0.007819511, 0.008139141, -0.01120002
 93154027, -0.007889691, 0.00723469, 0.008028913, -0.01103924, -0.007948264, 0.007697998, 0.008066399, -0.01108942
 93208889, -0.007602902, 0.00714385, 0.008137304, -0.01118925, -0.007889691, 0.00723469, 0.008028913, -0.01103924
 93264339, -0.008552896, 0.008043829, 0.008158595, -0.01121058, -0.007602902, 0.00714385, 0.008137304, -0.01118925
 93314383, -0.007295221, 0.007298981, 0.008091154, -0.01113008, -0.008552896, 0.008043829, 0.008158595, -0.01121058
 93368897, -0.007533719, 0.007264252, 0.008035823, -0.011043, -0.007295221, 0.007298981, 0.008091154, -0.01113008
 93424257, -0.007776931, 0.007426066, 0.007998397, -0.01098905, -0.007533719, 0.007264252, 0.008035823, -0.011043
 93478884, -0.007620743, 0.007394174, 0.007971222, -0.0109548, -0.007776931, 0.007426066, 0.007998397, -0.01098905
 93533988, -0.007626709, 0.007230666, 0.007962945, -0.01093569, -0.007620743, 0.007394174, 0.007971222, -0.0109548
 93589715, -0.007626213, 0.00730994, 0.007950062, -0.01091959, -0.007626709, 0.007230666, 0.007962945, -0.01093569
 93643905, -0.007413228, 0.007551153, 0.007940009, -0.01091039, -0.007626213, 0.00730994, 0.007950062, -0.01091959
 93698887, -0.007263047, 0.007190658, 0.008084267, -0.01110222, -0.007413228, 0.007551153, 0.007940009, -0.01091039
 93754007, -0.00799113, 0.007216922, 0.008153361, -0.01119223, -0.007263047, 0.007190658, 0.008084267, -0.01110222
 93808891, -0.008077013, 0.007204826, 0.008072705, -0.01108583, -0.00799113, 0.007216922, 0.008153361, -0.01119223
 93864349, -0.007374279, 0.007433159, 0.008190502, -0.01124701, -0.008077013, 0.007204826, 0.008072705, -0.01108583
 93918994, -0.007899437, 0.008582113, 0.008544561, -0.01172828, -0.007374279, 0.007433159, 0.008190502, -0.01124701
 93968878, -0.008301621, 0.007670841, 0.008703495, -0.01194888, -0.007899437, 0.008582113, 0.008544561, -0.01172828
 94024162, -0.008206937, 0.007875394, 0.008578357, -0.01177508, -0.008301621, 0.007670841, 0.008703495, -0.01194888
 94081570, -0.008219282, 0.00797724, 0.008443335, -0.01158406, -0.008206937, 0.007875394, 0.008578357, -0.01177508
 94136577, -0.008006159, 0.007164873, 0.008262886, -0.01133414, -0.008219282, 0.00797724, 0.008443335, -0.01158406
 94186555, -0.007887047, 0.007583165, 0.00817966, -0.01122157, -0.008006159, 0.007164873, 0.008262886, -0.01133414
 94241554, -0.007079013, 0.007167288, 0.008089745, -0.01110062, -0.007887047, 0.007583165, 0.00817966, -0.01122157
 94296587, -0.007705073, 0.007816458, 0.008036474, -0.01102626, -0.007079013, 0.007167288, 0.008089745, -0.01110062
 94351849, -0.008102548, 0.007895974, 0.008016274, -0.01098857, -0.007705073, 0.007816458, 0.008036474, -0.01102626
 94406568, -0.006808016, 0.006751145, 0.007986694, -0.01094482, -0.008102548, 0.007895974, 0.008016274, -0.01098857
 94461519, -0.007804994, 0.006878523, 0.007970229, -0.01092413, -0.006808016, 0.006751145, 0.007986694, -0.01094482
 94516549, -0.008080868, 0.008101762, 0.008403175, -0.01151858, -0.007804994, 0.006878523, 0.007970229, -0.01092413
 94571739, -0.007918253, 0.008201091, 0.008601032, -0.01179123, -0.008080868, 0.008101762, 0.008403175, -0.01151858
 94626958, -0.008937551, 0.008178782, 0.008369789, -0.01147137, -0.007918253, 0.008201091, 0.008601032, -0.01179123
 94681584, -0.007513213, 0.007690145, 0.008214645, -0.01126002, -0.008937551, 0.008178782, 0.008369789, -0.01147137
 94736581, -0.008804885, 0.007704719, 0.008122182, -0.01112761, -0.007513213, 0.007690145, 0.008214645, -0.01126002
 94791603, -0.008301178, 0.009560503, 0.008076235, -0.0110724, -0.008804885, 0.007704719, 0.008122182, -0.01112761
 94841693, -0.008828321, 0.008858239, 0.008023913, -0.01101125, -0.008301178, 0.009560503, 0.008076235, -0.0110724
 94896592, -0.008060374, 0.007444561, 0.008060159, -0.0110314, -0.008828321, 0.008858239, 0.008023913, -0.01101125
 94951913, -0.005473876, 0.003842654, 0.008123685, -0.01112882, -0.008060374, 0.007444561, 0.008060159, -0.0110314
 95006587, -0.006754503, 0.003266036, 0.008319614, -0.01139501, -0.005473876, 0.003842654, 0.008123685, -0.01112882
 95061603, -0.009789392, -0.008267278, 0.008626421, -0.01183594, -0.006754503, 0.003266036, 0.008319614, -0.01139501
 95116594, -0.007810376, -0.009620043, 0.008507171, -0.01167061, -0.009789392, -0.008267278, 0.008626421, -0.01183594
 95171601, -0.01030981, -0.005971203, 0.00837273, -0.01145997, -0.007810376, -0.009620043, 0.008507171, -0.01167061
 95226951, -0.03288613, -0.00194964, 0.008465331, -0.01128031, -0.01030981, -0.005971203, 0.00837273, -0.01145997
 95281585, -0.09909416, -0.1681343, 0.008367792, -0.01776763, -0.03288613, -0.00194964, 0.008465331, -0.01128031
 95336770, -0.2237401, -0.2281286, 0.01302214, -0.0233618, -0.09909416, -0.1681343, 0.008367792, -0.01776763
 95386582, -0.376724, -0.5641947, 0.0149807, -0.04813047, -0.2237401, -0.2281286, 0.01302214, -0.0233618
 95441682, -0.1771672, -0.7541938, 0.001287522, -0.05693565, -0.376724, -0.5641947, 0.0149807, -0.04813047
 95491585, -0.245735, -0.9589391, -0.0004972293, -0.07185658, -0.1771672, -0.7541938, 0.001287522, -0.05693565
 95546725, -0.4883291, -1.022322, 0.01100796, -0.08177011, -0.245735, -0.9589391, -0.0004972293, -0.07185658
 95602109, -0.03281734, -0.1441763, 0.007190728, -0.01574953, -0.4883291, -1.022322, 0.01100796, -0.08177011
 95656564, 0.01669121, 0.0118269, 0.007913857, -0.01106979, -0.03281734, -0.1441763, 0.007190728, -0.01574953
 95711591, 0.04944237, -0.2700524, 0.008058988, -0.02268129, 0.01669121, 0.0118269, 0.007913857, -0.01106979
 95761580, -0.1193225, -1.251751, -0.002816305, -0.08937805, 0.04944237, -0.2700524, 0.008058988, -0.02268129
 95816578, -0.145819, -1.34662, -0.003129271, -0.09285865, -0.1193225, -1.251751, -0.002816305, -0.08937805
 95871600, -0.001247335, -1.280285, 0.00416348, -0.08541223, -0.145819, -1.34662, -0.003129271, -0.09285865
 95926917, 0.09311073, -1.322808, 0.00960697, -0.0853481, -0.001247335, -1.280285, 0.00416348, -0.08541223
 95981580, 0.2250188, -1.30423, 0.01703359, -0.08214294, 0.09311073, -1.322808, 0.00960697, -0.0853481
 96036677, 0.384665, -1.295665, 0.02589185, -0.07954064, 0.2250188, -1.30423, 0.01703359, -0.08214294
 96091615, 0.4842661, -1.312875, 0.03129468, -0.07953597, 0.384665, -1.295665, 0.02589185, -0.07954064
 96146757, 0.6355135, -1.324533, 0.03935823, -0.07913779, 0.4842661, -1.312875, 0.03129468, -0.07953597
 96201920, 0.8003081, -1.334709, 0.0481552, -0.07904904, 0.6355135, -1.324533, 0.03935823, -0.07913779
 96251886, 0.9548733, -1.325657, 0.05605305, -0.07774171, 0.8003081, -1.334709, 0.0481552, -0.07904904
 96306567, 1.176155, -1.320931, 0.06738622, -0.07697873, 0.9548733, -1.325657, 0.05605305, -0.07774171
 96361568, 1.312655, -1.340633, 0.0741792, -0.0777093, 1.176155, -1.320931, 0.06738622, -0.07697873
 96416617, 1.276707, -1.315949, 0.07206595, -0.07638584, 1.312655, -1.340633, 0.0741792, -0.0777093
 96471592, 1.390162, -1.235672, 0.07768438, -0.07250737, 1.276707, -1.315949, 0.07206595, -0.07638584
 96526936, 1.366048, -1.219127, 0.07625831, -0.07193992, 1.390162, -1.235672, 0.07768438, -0.07250737
 96581583, 1.459319, -1.19908, 0.08076485, -0.07165342, 1.366048, -1.219127, 0.07625831, -0.07193992
 96636601, 1.519571, -1.19407, 0.08374028, -0.07207203, 1.459319, -1.19908, 0.08076485, -0.07165342
 96691577, 1.465396, -1.166018, 0.08108263, -0.07130264, 1.519571, -1.19407, 0.08374028, -0.07207203
 96746597, 1.647651, -1.0864, 0.09002906, -0.06903742, 1.465396, -1.166018, 0.08108263, -0.07130264
 96796603, 1.67556, -1.058603, 0.09154229, -0.06920762, 1.647651, -1.0864, 0.09002906, -0.06903742
 96851898, 1.702192, -0.9684177, 0.09282983, -0.06676117, 1.67556, -1.058603, 0.09154229, -0.06920762
 96906587, 1.756844, -0.8603349, 0.09555608, -0.0645142, 1.702192, -0.9684177, 0.09282983, -0.06676117
 96961587, 1.756457, -0.8328193, 0.09586836, -0.06531829, 1.756844, -0.8603349, 0.09555608, -0.0645142
 97016705, 1.841716, -0.7927087, 0.1000929, -0.06582335, 1.756457, -0.8328193, 0.09586836, -0.06531829
 97071714, 1.851576, -0.7427133, 0.1007873, -0.0659635, 1.841716, -0.7927087, 0.1000929, -0.06582335
 97127059, 1.913335, -0.6391135, 0.1035794, -0.06564177, 1.851576, -0.7427133, 0.1007873, -0.0659635
 97181620, 1.936778, -0.6018742, 0.1049379, -0.06689748, 1.913335, -0.6391135, 0.1035794, -0.06564177
 97236569, 1.917812, -0.5634851, 0.1043423, -0.06765001, 1.936778, -0.6018742, 0.1049379, -0.06689748
 97286587, 2.053488, -0.4736266, 0.1105146, -0.06845763, 1.917812, -0.5634851, 0.1043423, -0.06765001
 97341585, 2.059953, -0.530583, 0.1116319, -0.07036714, 2.053488, -0.4736266, 0.1105146, -0.06845763
 97396577, 2.063749, -0.3718278, 0.1116832, -0.07112513, 2.059953, -0.530583, 0.1116319, -0.07036714
 97452118, 1.95544, -0.4837044, 0.1079877, -0.07213984, 2.063749, -0.3718278, 0.1116832, -0.07112513
 97506572, 2.028616, -0.483783, 0.1119074, -0.07445065, 1.95544, -0.4837044, 0.1079877, -0.07213984
 97561599, 2.01871, -0.3678099, 0.1113746, -0.07541024, 2.028616, -0.483783, 0.1119074, -0.07445065
 97616574, 1.892241, -0.5976745, 0.1074274, -0.07898244, 2.01871, -0.3678099, 0.1113746, -0.07541024
 97671577, 1.880142, -0.520627, 0.1067328, -0.07929028, 1.892241, -0.5976745, 0.1074274, -0.07898244
 97726974, 1.820046, -0.6480292, 0.1051503, -0.08217422, 1.880142, -0.520627, 0.1067328, -0.07929028
 97776959, 1.669555, -0.7503752, 0.09960116, -0.0849445, 1.820046, -0.6480292, 0.1051503, -0.08217422
 97836542, 1.663596, -0.6475253, 0.09913308, -0.0844001, 1.669555, -0.7503752, 0.09960116, -0.0849445
 97886575, 1.590952, -0.8311025, 0.09713951, -0.08832436, 1.663596, -0.6475253, 0.09913308, -0.0844001
 97941577, 1.470454, -0.9595012, 0.0928859, -0.09190694, 1.590952, -0.8311025, 0.09713951, -0.08832436
 97996576, 1.401237, -0.9652502, 0.09061947, -0.09276073, 1.470454, -0.9595012, 0.0928859, -0.09190694
 98051991, 1.253332, -1.058873, 0.08558146, -0.09534379, 1.401237, -0.9652502, 0.09061947, -0.09276073
 98106540, 0.9812473, -1.22036, 0.0766993, -0.1006923, 1.253332, -1.058873, 0.08558146, -0.09534379
 98161599, 0.9791454, -1.127938, 0.07709263, -0.09849384, 0.9812473, -1.22036, 0.0766993, -0.1006923
 98216604, 0.9224449, -1.234761, 0.07590349, -0.1022291, 0.9791454, -1.127938, 0.07709263, -0.09849384
 98266574, 0.8272112, -1.255233, 0.07298827, -0.1033522, 0.9224449, -1.234761, 0.07590349, -0.1022291
 98321575, 0.6618915, -1.433993, 0.06941681, -0.1106658, 0.8272112, -1.255233, 0.07298827, -0.1033522
 98376967, 0.5652416, -1.552754, 0.06768512, -0.115952, 0.6618915, -1.433993, 0.06941681, -0.1106658
 98436788, 0.4568761, -1.655971, 0.06600139, -0.1206423, 0.5652416, -1.552754, 0.06768512, -0.115952
 98486623, 0.6053781, -1.509687, 0.07071339, -0.1155814, 0.4568761, -1.655971, 0.06600139, -0.1206423
 98541736, 0.3853488, -1.592625, 0.06654143, -0.1197351, 0.6053781, -1.509687, 0.07071339, -0.1155814
 98596595, 0.2404786, -1.689124, 0.06479349, -0.1252938, 0.3853488, -1.592625, 0.06654143, -0.1197351
 98651989, 0.1964196, -1.698827, 0.06507249, -0.1267522, 0.2404786, -1.689124, 0.06479349, -0.1252938
 98706587, 0.3142104, -1.760447, 0.06846359, -0.130087, 0.1964196, -1.698827, 0.06507249, -0.1267522
 98756736, -0.04185307, -1.735515, 0.06519964, -0.1318574, 0.3142104, -1.760447, 0.06846359, -0.130087
 98811565, 0.06447366, -1.762637, 0.06694812, -0.1333239, -0.04185307, -1.735515, 0.06519964, -0.1318574
 98866554, -0.01291263, -1.948561, 0.06666553, -0.1418322, 0.06447366, -1.762637, 0.06694812, -0.1333239
 98921583, -0.1058937, -1.83135, 0.0679471, -0.1396797, -0.01291263, -1.948561, 0.06666553, -0.1418322
 98976957, -0.11133, -1.957239, 0.06865562, -0.1454084, -0.1058937, -1.83135, 0.0679471, -0.1396797
 99031604, -0.3546811, -1.860787, 0.06894892, -0.1448797, -0.11133, -1.957239, 0.06865562, -0.1454084
 99086596, -0.05411275, -2.185673, 0.0698823, -0.1563533, -0.3546811, -1.860787, 0.06894892, -0.1448797
 99141584, -0.5740322, -2.140069, 0.07122332, -0.1595198, -0.05411275, -2.185673, 0.0698823, -0.1563533
 99191582, -0.3919204, -2.249352, 0.07078843, -0.1634026, -0.5740322, -2.140069, 0.07122332, -0.1595198
 99246580, -0.4437647, -2.194289, 0.07333665, -0.1630296, -0.3919204, -2.249352, 0.07078843, -0.1634026
 99301896, -0.804064, -2.3506, 0.07515672, -0.1730119, -0.4437647, -2.194289, 0.07333665, -0.1630296
 99356590, -0.6907345, -2.282878, 0.07657181, -0.1713727, -0.804064, -2.3506, 0.07515672, -0.1730119
 99411540, -0.738259, -2.692872, 0.07504268, -0.1881592, -0.6907345, -2.282878, 0.07657181, -0.1713727
 99466554, -0.9422915, -2.500247, 0.07908892, -0.1836513, -0.738259, -2.692872, 0.07504268, -0.1881592
 99521615, -1.036709, -2.589936, 0.08066713, -0.1893533, -0.9422915, -2.500247, 0.07908892, -0.1836513
 99577062, -1.067697, -2.672168, 0.08152432, -0.1937898, -1.036709, -2.589936, 0.08066713, -0.1893533
 99631605, -0.9986583, -2.76167, 0.08028714, -0.1976687, -1.067697, -2.672168, 0.08152432, -0.1937898
 99686576, -1.179348, -2.795426, 0.08339532, -0.201823, -0.9986583, -2.76167, 0.08028714, -0.1976687
 99736581, -1.207717, -2.800429, 0.08511918, -0.203465, -1.179348, -2.795426, 0.08339532, -0.201823
 99791770, -1.240598, -3.070256, 0.08327019, -0.2152786, -1.207717, -2.800429, 0.08511918, -0.203465
 99846590, -1.349139, -3.065169, 0.0856149, -0.2170828, -1.240598, -3.070256, 0.08327019, -0.2152786
 99901895, -1.41389, -3.087715, 0.08678113, -0.2193319, -1.349139, -3.065169, 0.0856149, -0.2170828
 99956733, -1.383668, -3.279222, 0.08521437, -0.2274335, -1.41389, -3.087715, 0.08678113, -0.2193319
 100011731, -1.34267, -3.198918, 0.08648594, -0.2239187, -1.383668, -3.279222, 0.08521437, -0.2274335
 100066639, -1.743541, -3.348141, 0.09241097, -0.2349821, -1.34267, -3.198918, 0.08648594, -0.2239187
 100121594, -1.695543, -3.452678, 0.09211575, -0.2387532, -1.743541, -3.348141, 0.09241097, -0.2349821
 100177036, -1.438888, -3.61712, 0.08801719, -0.2426377, -1.695543, -3.452678, 0.09211575, -0.2387532
 100226949, -1.638068, -3.598439, 0.09115276, -0.244082, -1.438888, -3.61712, 0.08801719, -0.2426377
 100286742, -1.428357, -3.87574, 0.08515461, -0.253558, -1.638068, -3.598439, 0.09115276, -0.244082
 100336604, -1.843811, -3.8371, 0.09274348, -0.2561663, -1.428357, -3.87574, 0.08515461, -0.253558
 100391590, -2.025752, -4.12755, 0.09183029, -0.2708984, -1.843811, -3.8371, 0.09274348, -0.2561663
 100446564, -2.084374, -3.924491, 0.09650415, -0.2628321, -2.025752, -4.12755, 0.09183029, -0.2708984
 100502324, -1.331126, -4.425687, 0.1439936, -0.2487655, -2.084374, -3.924491, 0.09650415, -0.2628321
 100556751, -1.380482, -4.386362, 0.1452437, -0.2471701, -1.331126, -4.425687, 0.1439936, -0.2487655
 100608943, -1.337848, -4.475827, 0.144671, -0.2510823, -1.380482, -4.386362, 0.1452437, -0.2471701
 100664410, -1.334503, -4.808926, 0.1461885, -0.2655328, -1.337848, -4.475827, 0.144671, -0.2510823
 100718906, -1.564474, -4.862002, 0.1522616, -0.2680546, -1.334503, -4.808926, 0.1461885, -0.2655328
 100773902, -1.66258, -4.580615, 0.1566101, -0.2546241, -1.564474, -4.862002, 0.1522616, -0.2680546
 100828995, -1.457952, -5.116221, 0.1545826, -0.2778927, -1.66258, -4.580615, 0.1566101, -0.2546241
 100878892, -1.48111, -5.114514, 0.1563054, -0.2777195, -1.457952, -5.116221, 0.1545826, -0.2778927
 100933987, -1.518578, -5.074895, 0.1598833, -0.274699, -1.48111, -5.114514, 0.1563054, -0.2777195
 100990718, -1.426038, -5.504288, 0.1609017, -0.2934014, -1.518578, -5.074895, 0.1598833, -0.274699
 101044333, -1.510536, -5.472533, 0.1635337, -0.2918224, -1.426038, -5.504288, 0.1609017, -0.2934014
 101099116, -1.291316, -5.455635, 0.1583582, -0.29165, -1.510536, -5.472533, 0.1635337, -0.2918224
 101154106, -1.742039, -5.398634, 0.1723087, -0.2873034, -1.291316, -5.455635, 0.1583582, -0.29165
 101209291, -1.749144, -5.723386, 0.1747201, -0.3020805, -1.742039, -5.398634, 0.1723087, -0.2873034
 101264468, -1.439313, -5.257874, 0.1664485, -0.2813061, -1.749144, -5.723386, 0.1747201, -0.3020805
 101319092, -1.627338, -5.488293, 0.1747826, -0.2904983, -1.439313, -5.257874, 0.1664485, -0.2813061
 101369111, -1.500217, -5.43545, 0.1725453, -0.2881137, -1.627338, -5.488293, 0.1747826, -0.2904983
 101424284, -1.503972, -5.483083, 0.176127, -0.2889674, -1.500217, -5.43545, 0.1725453, -0.2881137
 101481792, -1.503884, -5.324378, 0.1775441, -0.2812138, -1.503972, -5.483083, 0.176127, -0.2889674
 101534328, -1.477558, -5.232698, 0.1772312, -0.2771051, -1.503884, -5.324378, 0.1775441, -0.2812138
 101590769, -1.182882, -5.43272, 0.1715034, -0.2875268, -1.477558, -5.232698, 0.1772312, -0.2771051
 101644120, -1.153129, -5.316526, 0.1709729, -0.2827651, -1.182882, -5.43272, 0.1715034, -0.2875268
 101699054, -1.186303, -5.464881, 0.1751476, -0.2880791, -1.153129, -5.316526, 0.1709729, -0.2827651
 101754116, -1.061504, -5.259053, 0.1728642, -0.2786428, -1.186303, -5.464881, 0.1751476, -0.2880791
 101809075, -1.366317, -5.368683, 0.1814089, -0.2821554, -1.061504, -5.259053, 0.1728642, -0.2786428
 101859069, -1.20351, -5.25269, 0.1761471, -0.2784881, -1.366317, -5.368683, 0.1814089, -0.2821554
 101914477, -1.551578, -5.245473, 0.1854848, -0.2767362, -1.20351, -5.25269, 0.1761471, -0.2784881
 101969065, -1.580917, -5.491035, 0.1890919, -0.2869837, -1.551578, -5.245473, 0.1854848, -0.2767362
 102024280, -1.30373, -5.04575, 0.1810816, -0.2680431, -1.580917, -5.491035, 0.1890919, -0.2869837
 102081687, -1.881415, -5.413243, 0.200204, -0.2812104, -1.30373, -5.04575, 0.1810816, -0.2680431
 102134135, -1.865413, -5.110109, 0.1962309, -0.2694432, -1.881415, -5.413243, 0.200204, -0.2812104
 102190698, -1.742924, -4.680567, 0.1886592, -0.2529717, -1.865413, -5.110109, 0.1962309, -0.2694432
 102244434, -1.612547, -5.00592, 0.1849335, -0.2689433, -1.742924, -4.680567, 0.1886592, -0.2529717
 102299075, -1.839015, -4.44088, 0.1878073, -0.2450016, -1.612547, -5.00592, 0.1849335, -0.2689433
 102349066, -1.672135, -4.640495, 0.1826018, -0.2553081, -1.839015, -4.44088, 0.1878073, -0.2450016
 102404105, -1.805153, -4.54853, 0.184464, -0.2524587, -1.672135, -4.640495, 0.1826018, -0.2553081
 102459074, -1.873301, -4.091568, 0.184403, -0.2336743, -1.805153, -4.54853, 0.184464, -0.2524587
 102514657, -1.598215, -4.160913, 0.1775147, -0.2373701, -1.873301, -4.091568, 0.184403, -0.2336743
 102569088, -1.50897, -3.992308, 0.1753666, -0.2305872, -1.598215, -4.160913, 0.1775147, -0.2373701
 102624110, -1.271871, -4.007552, 0.1708918, -0.2319951, -1.50897, -3.992308, 0.1753666, -0.2305872
 102681694, -1.042165, -4.073446, 0.1678772, -0.2350787, -1.271871, -4.007552, 0.1708918, -0.2319951
 102734076, -1.216024, -3.962509, 0.172542, -0.2296665, -1.042165, -4.073446, 0.1678772, -0.2350787
 102784319, -0.8509479, -3.83149, 0.1664247, -0.2254595, -1.216024, -3.962509, 0.172542, -0.2296665
 102839473, -1.142305, -3.505905, 0.1724997, -0.2114937, -0.8509479, -3.83149, 0.1664247, -0.2254595
 102899221, -0.9451377, -3.68987, 0.1710105, -0.2190991, -1.142305, -3.505905, 0.1724997, -0.2114937
 102949188, -0.6781166, -3.728581, 0.1672947, -0.2217037, -0.9451377, -3.68987, 0.1710105, -0.2190991
 103004309, -0.8498586, -3.669507, 0.1700762, -0.2195432, -0.6781166, -3.728581, 0.1672947, -0.2217037
 103059115, -0.5022436, -3.543696, 0.164829, -0.2168286, -0.8498586, -3.669507, 0.1700762, -0.2195432
 103114523, -0.8396975, -3.955577, 0.1719798, -0.2318975, -0.5022436, -3.543696, 0.164829, -0.2168286
 103169300, -0.7186539, -3.605558, 0.1693576, -0.2188351, -0.8396975, -3.955577, 0.1719798, -0.2318975
 103219081, -0.6652668, -3.827322, 0.1702757, -0.2279584, -0.7186539, -3.605558, 0.1693576, -0.2188351
 103274111, -0.819331, -3.841485, 0.1736856, -0.2277526, -0.6652668, -3.827322, 0.1702757, -0.2279584
 103329035, -0.6813593, -3.797366, 0.1722769, -0.226583, -0.819331, -3.841485, 0.1736856, -0.2277526
 103384076, -0.5589522, -3.697089, 0.1706081, -0.2231438, -0.6813593, -3.797366, 0.1722769, -0.226583
 103439482, -1.177917, -3.457033, 0.1798865, -0.2124543, -0.5589522, -3.697089, 0.1706081, -0.2231438
 103494078, -0.7415428, -3.015503, 0.1696687, -0.1986377, -1.177917, -3.457033, 0.1798865, -0.2124543
 103549301, -0.9169126, -2.86898, 0.1721903, -0.1939872, -0.7415428, -3.015503, 0.1696687, -0.1986377
 103604111, -0.6005593, -2.526971, 0.1662126, -0.1850562, -0.9169126, -2.86898, 0.1721903, -0.1939872
 103659016, -0.7372385, -2.668465, 0.1683728, -0.1911078, -0.6005593, -2.526971, 0.1662126, -0.1850562
 103709035, -0.5105827, -2.205937, 0.1642995, -0.1785342, -0.7372385, -2.668465, 0.1683728, -0.1911078
 103764508, -0.4353807, -2.016252, 0.1637981, -0.1745381, -0.5105827, -2.205937, 0.1642995, -0.1785342
 103819291, -0.5507314, -1.748293, 0.1647957, -0.1687175, -0.4353807, -2.016252, 0.1637981, -0.1745381
 103874088, -0.4922921, -1.477638, 0.1634964, -0.1641714, -0.5507314, -1.748293, 0.1647957, -0.1687175
 103929048, -0.488234, -1.6012, 0.1645592, -0.1676, -0.4922921, -1.477638, 0.1634964, -0.1641714
 103984081, -0.5269591, -1.239368, 0.1648851, -0.1607333, -0.488234, -1.6012, 0.1645592, -0.1676
 104039507, -0.4385158, -1.116627, 0.1644594, -0.1597002, -0.5269591, -1.239368, 0.1648851, -0.1607333
 104094124, -0.5026967, -1.060402, 0.1653812, -0.1592968, -0.4385158, -1.116627, 0.1644594, -0.1597002
 104144121, -0.3567812, -1.081046, 0.1650682, -0.1609138, -0.5026967, -1.060402, 0.1653812, -0.1592968
 104199090, -0.3523319, -0.5302809, 0.1652847, -0.1554504, -0.3567812, -1.081046, 0.1650682, -0.1609138
 104254087, -0.09923571, -0.9650075, 0.1645687, -0.1618453, -0.3523319, -0.5302809, 0.1652847, -0.1554504
 104309070, -0.284537, -0.5964293, 0.1649242, -0.1590244, -0.09923571, -0.9650075, 0.1645687, -0.1618453
 104364475, -0.1786476, -0.7245435, 0.1652315, -0.1619619, -0.284537, -0.5964293, 0.1649242, -0.1590244
 104419308, 0.008374614, -1.014218, 0.1653416, -0.1673123, -0.1786476, -0.7245435, 0.1652315, -0.1619619
 104474299, 0.2633069, -0.7954541, 0.1663594, -0.1652861, 0.008374614, -1.014218, 0.1653416, -0.1673123
 104529077, -0.3755344, -0.9819607, 0.1685654, -0.1681634, 0.2633069, -0.7954541, 0.1663594, -0.1652861
 104579337, -0.2414037, -1.114669, 0.168713, -0.1718069, -0.3755344, -0.9819607, 0.1685654, -0.1681634
 104634114, 0.09372047, -0.8479462, 0.1689842, -0.1683396, -0.2414037, -1.114669, 0.168713, -0.1718069
 104694073, -0.06418842, -1.360938, 0.1705574, -0.1774353, 0.09372047, -0.8479462, 0.1689842, -0.1683396
 104744109, -0.2705502, -0.9879022, 0.1721373, -0.1720073, -0.06418842, -1.360938, 0.1705574, -0.1774353
 104798980, -0.1067592, -1.117294, 0.1728744, -0.1744341, -0.2705502, -0.9879022, 0.1721373, -0.1720073
 104854314, -0.2868833, -1.343031, 0.1742938, -0.1790212, -0.1067592, -1.117294, 0.1728744, -0.1744341
 104909084, 0.0674791, -1.396531, 0.1754077, -0.180955, -0.2868833, -1.343031, 0.1742938, -0.1790212
 104964496, -0.1066716, -1.273643, 0.1776381, -0.1793217, 0.0674791, -1.396531, 0.1754077, -0.180955
 105014484, -0.2025369, -1.224336, 0.1789777, -0.1790394, -0.1066716, -1.273643, 0.1776381, -0.1793217
 105069066, -0.1938343, -1.582949, 0.1817362, -0.1858868, -0.2025369, -1.224336, 0.1789777, -0.1790394
 105124331, -0.291483, -1.288945, 0.1833061, -0.1809866, -0.1938343, -1.582949, 0.1817362, -0.1858868
 105179098, -0.08055473, -1.226113, 0.18413, -0.1812972, -0.291483, -1.288945, 0.1833061, -0.1809866
 105234096, -0.1482544, -1.211782, 0.1851959, -0.1813188, -0.08055473, -1.226113, 0.18413, -0.1812972
 105286690, -0.188889, -1.114118, 0.186396, -0.1813313, -0.1482544, -1.211782, 0.1851959, -0.1813188
 105344080, -0.2231952, -1.061597, 0.1878034, -0.1814458, -0.188889, -1.114118, 0.186396, -0.1813313
 105399069, -0.5519698, -1.132849, 0.1912007, -0.1830845, -0.2231952, -1.061597, 0.1878034, -0.1814458
 105449066, -0.3216148, -0.9343098, 0.1900742, -0.1811679, -0.5519698, -1.132849, 0.1912007, -0.1830845
 105504093, -0.3880126, -0.7531518, 0.1915728, -0.1800326, -0.3216148, -0.9343098, 0.1900742, -0.1811679
 105559085, -0.1430166, -0.9425989, 0.1914199, -0.1835173, -0.3880126, -0.7531518, 0.1915728, -0.1800326
 105614475, -0.2247217, -0.5137209, 0.1924196, -0.1799123, -0.1430166, -0.9425989, 0.1914199, -0.1835173
 105669088, -0.3799945, -0.9459285, 0.19464, -0.184971, -0.2247217, -0.5137209, 0.1924196, -0.1799123
 105724086, 0.02142729, -0.5443933, 0.194474, -0.1829831, -0.3799945, -0.9459285, 0.19464, -0.184971
 105779106, -0.1810618, -0.6262406, 0.1967577, -0.1848535, 0.02142729, -0.5443933, 0.194474, -0.1829831
 105834100, -0.4913451, -0.4662161, 0.1987572, -0.1849675, -0.1810618, -0.6262406, 0.1967577, -0.1848535
 105884103, -0.275662, -0.07819675, 0.1991639, -0.1849083, -0.4913451, -0.4662161, 0.1987572, -0.1849675
 105939843, -0.3321014, -0.5114522, 0.2005145, -0.1876149, -0.275662, -0.07819675, 0.1991639, -0.1849083
 105999525, -0.03284242, -0.259642, 0.2010955, -0.1874492, -0.3321014, -0.5114522, 0.2005145, -0.1876149
 106049681, -0.1911702, -0.09088667, 0.2025488, -0.1868867, -0.03284242, -0.259642, 0.2010955, -0.1874492
 106104538, -0.6173964, -0.3430829, 0.206103, -0.1883599, -0.1911702, -0.09088667, 0.2025488, -0.1868867
 106159694, 0.1693822, 0.1666426, 0.205009, -0.1887013, -0.6173964, -0.3430829, 0.206103, -0.1883599
 106214847, -0.4231243, -0.1090827, 0.2070474, -0.1890078, 0.1693822, 0.1666426, 0.205009, -0.1887013
 106269517, -0.007022047, 0.1034805, 0.2063289, -0.1903583, -0.4231243, -0.1090827, 0.2070474, -0.1890078
 106319526, -0.1835779, 0.5260332, 0.2077895, -0.1926463, -0.007022047, 0.1034805, 0.2063289, -0.1903583
 106374503, -0.7241589, 0.2151706, 0.2110852, -0.1916451, -0.1835779, 0.5260332, 0.2077895, -0.1926463
 106429626, 0.1154164, 0.3034234, 0.2093183, -0.1933861, -0.7241589, 0.2151706, 0.2110852, -0.1916451
 106487091, -0.3185868, 0.4486833, 0.211273, -0.1945421, 0.1154164, 0.3034234, 0.2093183, -0.1933861
 106539859, -0.257068, 0.3494628, 0.2117121, -0.194885, -0.3185868, 0.4486833, 0.211273, -0.1945421
 106594560, -0.1323488, 0.5820857, 0.2121506, -0.1966638, -0.257068, 0.3494628, 0.2117121, -0.194885
 106649525, -0.109422, 0.381468, 0.2130392, -0.1961624, -0.1323488, 0.5820857, 0.2121506, -0.1966638
 106704528, -0.08001421, 0.5396635, 0.213643, -0.1981034, -0.109422, 0.381468, 0.2130392, -0.1961624
 106754536, -0.3555521, 0.4761635, 0.2151039, -0.1977905, -0.08001421, 0.5396635, 0.213643, -0.1981034
 106809873, -0.4595892, 0.4752026, 0.2162409, -0.1980625, -0.3555521, 0.4761635, 0.2151039, -0.1977905
 106865352, -0.4048512, 0.70026, 0.2166279, -0.1996877, -0.4595892, 0.4752026, 0.2162409, -0.1980625
 106920119, -0.2221353, 0.3346034, 0.2172765, -0.1974136, -0.4048512, 0.70026, 0.2166279, -0.1996877
 106975471, -0.2975455, 0.3411659, 0.2179277, -0.1982699, -0.2221353, 0.3346034, 0.2172765, -0.1974136
 107027751, -0.4064499, 0.5559478, 0.2191463, -0.1996018, -0.2975455, 0.3411659, 0.2179277, -0.1982699
 107082865, -0.715961, 0.3803923, 0.2215439, -0.1991043, -0.4064499, 0.5559478, 0.2191463, -0.1996018
 107138249, -0.2394534, 0.5477755, 0.2191297, -0.2006283, -0.715961, 0.3803923, 0.2215439, -0.1991043
 107192731, -0.2965429, 0.4691342, 0.2196829, -0.2000484, -0.2394534, 0.5477755, 0.2191297, -0.2006283
 107247759, -0.4824762, 0.1946608, 0.2204088, -0.1990627, -0.2965429, 0.4691342, 0.2196829, -0.2000484
 107305091, -0.4280798, 0.7244303, 0.2205731, -0.2020869, -0.4824762, 0.1946608, 0.2204088, -0.1990627
 107355120, -0.463365, 0.1470582, 0.2212739, -0.1993811, -0.4280798, 0.7244303, 0.2205731, -0.2020869
 107407766, -0.432038, 0.8421915, 0.2212978, -0.2041929, -0.463365, 0.1470582, 0.2212739, -0.1993811
 107463104, -0.2938733, 0.389952, 0.2215638, -0.2009654, -0.432038, 0.8421915, 0.2212978, -0.2041929
 107520663, -0.1680976, 0.7295148, 0.221057, -0.2039831, -0.2938733, 0.389952, 0.2215638, -0.2009654
 107570694, -0.05887334, 0.9232723, 0.2210812, -0.2059083, -0.1680976, 0.7295148, 0.221057, -0.2039831
 107628104, -0.3250882, 0.3041313, 0.2217342, -0.2013291, -0.05887334, 0.9232723, 0.2210812, -0.2059083
 107683021, -0.05706527, 0.9548821, 0.221078, -0.2065839, -0.3250882, 0.3041313, 0.2217342, -0.2013291
 107735677, 0.1136468, 0.8466946, 0.2214169, -0.2048262, -0.05706527, 0.9548821, 0.221078, -0.2065839
 107793031, -0.1379139, 0.8203498, 0.2211542, -0.2047679, 0.1136468, 0.8466946, 0.2214169, -0.2048262
 107843053, -0.06762683, 1.075372, 0.2214854, -0.2075129, -0.1379139, 0.8203498, 0.2211542, -0.2047679
 107898120, -0.3877527, 0.7944252, 0.2224253, -0.2043452, -0.06762683, 1.075372, 0.2214854, -0.2075129
 107950851, 0.3450346, 0.9674816, 0.2227707, -0.2057207, -0.3877527, 0.7944252, 0.2224253, -0.2043452
 108008120, -0.07853075, 0.897083, 0.2218176, -0.2052946, 0.3450346, 0.9674816, 0.2227707, -0.2057207
 108063467, 0.02384004, 0.9003635, 0.2214022, -0.20574, -0.07853075, 0.897083, 0.2218176, -0.2052946
 108115569, 0.090322, 0.7645425, 0.2214999, -0.2042432, 0.02384004, 0.9003635, 0.2214022, -0.20574
 108170515, 0.07342643, 0.9853384, 0.2213253, -0.2066876, 0.090322, 0.7645425, 0.2214999, -0.2042432
 108223038, 0.5739336, 0.7668445, 0.2233557, -0.2040901, 0.07342643, 0.9853384, 0.2213253, -0.2066876
 108278112, -0.0159549, 0.3462733, 0.2212937, -0.2013675, 0.5739336, 0.7668445, 0.2233557, -0.2040901
 108335551, 0.08283325, 0.9126209, 0.2217305, -0.2056149, -0.0159549, 0.3462733, 0.2212937, -0.2013675
 108385517, 0.2990364, 0.6342998, 0.2229143, -0.2023704, 0.08283325, 0.9126209, 0.2217305, -0.2056149
 108443042, 0.3177962, 0.2424602, 0.222908, -0.2007908, 0.2990364, 0.6342998, 0.2229143, -0.2023704
 108498032, 0.2383077, 1.023423, 0.2233696, -0.2064973, 0.3177962, 0.2424602, 0.222908, -0.2007908
 108550868, 0.6136218, 0.371015, 0.2251699, -0.2015295, 0.2383077, 1.023423, 0.2233696, -0.2064973
 108603058, 0.3578491, 0.6880333, 0.2239061, -0.2041665, 0.6136218, 0.371015, 0.2251699, -0.2015295
 108658324, 0.3204105, 0.8382348, 0.2240263, -0.2051901, 0.3578491, 0.6880333, 0.2239061, -0.2041665
 108715551, 0.4584492, 0.09856021, 0.2240636, -0.2015208, 0.3204105, 0.8382348, 0.2240263, -0.2051901
 108770682, 0.3943012, 0.825037, 0.2244245, -0.2048096, 0.4584492, 0.09856021, 0.2240636, -0.2015208
 108823042, 0.2759947, 0.2069408, 0.2233725, -0.2013926, 0.3943012, 0.825037, 0.2244245, -0.2048096
 108878042, 0.3356073, 0.7779012, 0.2236703, -0.2050518, 0.2759947, 0.2069408, 0.2233725, -0.2013926
 108930564, 0.4374441, 0.5752885, 0.2237924, -0.2037197, 0.3356073, 0.7779012, 0.2236703, -0.2050518
 108985560, 0.4732254, 0.5172926, 0.223187, -0.2042411, 0.4374441, 0.5752885, 0.2237924, -0.2037197
 109038488, 0.5794556, 0.4871228, 0.2236739, -0.2038814, 0.4732254, 0.5172926, 0.223187, -0.2042411
 109098274, -0.1704456, 0.7579647, 0.2210825, -0.2060823, 0.5794556, 0.4871228, 0.2236739, -0.2038814
 109151830, 0.390373, 0.2171888, 0.2213565, -0.2032381, -0.1704456, 0.7579647, 0.2210825, -0.2060823
 109206815, 0.1008427, 0.1978106, 0.2206819, -0.203025, 0.390373, 0.2171888, 0.2213565, -0.2032381
 109256737, 0.06316791, 0.1407546, 0.220855, -0.2035069, 0.1008427, 0.1978106, 0.2206819, -0.203025
 109311919, 0.4179758, 0.2400953, 0.2224261, -0.2037183, 0.06316791, 0.1407546, 0.220855, -0.2035069
 109366793, 0.1170233, 0.004737562, 0.2215013, -0.2040018, 0.4179758, 0.2400953, 0.2224261, -0.2037183
 109422265, 0.4462464, -0.02388681, 0.2229995, -0.2039514, 0.1170233, 0.004737562, 0.2215013, -0.2040018
 109476815, 0.2510438, 0.2251556, 0.2225137, -0.2041131, 0.4462464, -0.02388681, 0.2229995, -0.2039514
 109531845, 0.2090859, 0.03431896, 0.2222376, -0.2039531, 0.2510438, 0.2251556, 0.2225137, -0.2041131
 109586820, 0.01715257, 0.3593495, 0.222454, -0.2049192, 0.2090859, 0.03431896, 0.2222376, -0.2039531
 109636906, 0.3607592, 0.01261461, 0.2234239, -0.2040889, 0.01715257, 0.3593495, 0.222454, -0.2049192
 109691779, 0.1258896, 0.2648453, 0.2224701, -0.2048947, 0.3607592, 0.01261461, 0.2234239, -0.2040889
 109747365, 0.234962, -0.3166432, 0.2228917, -0.2048272, 0.1258896, 0.2648453, 0.2224701, -0.2048947
 109807001, -0.1145898, 0.3855231, 0.2232276, -0.2053441, 0.234962, -0.3166432, 0.2228917, -0.2048272
 109856816, 0.1908373, -0.02967506, 0.2232482, -0.2053008, -0.1145898, 0.3855231, 0.2232276, -0.2053441
 109912126, -0.1961373, -0.2963217, 0.2238437, -0.2058035, 0.1908373, -0.02967506, 0.2232482, -0.2053008
 109967187, 0.1755924, -0.1935023, 0.2241311, -0.2058256, -0.1961373, -0.2963217, 0.2238437, -0.2058035
 110020051, -0.1834363, -0.1683057, 0.2243407, -0.2064544, 0.1755924, -0.1935023, 0.2241311, -0.2058256
 110074707, -0.3101188, 0.07193725, 0.2254635, -0.2060365, -0.1834363, -0.1683057, 0.2243407, -0.2064544
 110130106, -0.242223, -0.3980578, 0.2253507, -0.2079012, -0.3101188, 0.07193725, 0.2254635, -0.2060365
 110185105, -0.6204138, 0.1028542, 0.2283168, -0.207225, -0.242223, -0.3980578, 0.2253507, -0.2079012
 110240082, -0.5147036, -0.3982797, 0.2306895, -0.2058729, -0.6204138, 0.1028542, 0.2283168, -0.207225
 110290106, -0.4901948, -0.158965, 0.2356353, -0.2012473, -0.5147036, -0.3982797, 0.2306895, -0.2058729
 110345028, -0.8564803, -0.6287245, 0.2495345, -0.1915272, -0.4901948, -0.158965, 0.2356353, -0.2012473
 110402872, -0.7755286, -0.6795028, 0.2614343, -0.1766795, -0.8564803, -0.6287245, 0.2495345, -0.1915272
 110452846, 0.4881921, -2.757953, 0.2780048, -0.1990635, -0.7755286, -0.6795028, 0.2614343, -0.1766795
 110508057, -1.088025, -0.2887933, 0.2858537, -0.1401364, 0.4881921, -2.757953, 0.2780048, -0.1990635
 110562877, -1.883444, -1.085721, 0.3113004, -0.1181563, -1.088025, -0.2887933, 0.2858537, -0.1401364
 110618747, -0.06246301, -0.4516616, 0.2976102, -0.1107619, -1.883444, -1.085721, 0.3113004, -0.1181563
 110673082, 1.619975, -0.4477896, 0.3141055, -0.09620487, -0.06246301, -0.4516616, 0.2976102, -0.1107619
 110727998, 0.6283143, -0.5832154, 0.3133805, -0.07945076, 1.619975, -0.4477896, 0.3141055, -0.09620487
 110782907, 1.597506, -1.159789, 0.3301338, -0.07138629, 0.6283143, -0.5832154, 0.3133805, -0.07945076
 110838063, 1.603179, -0.9819033, 0.3357666, -0.05040261, 1.597506, -1.159789, 0.3301338, -0.07138629
 110888218, 0.4304894, -1.165618, 0.3331726, -0.02536896, 1.603179, -0.9819033, 0.3357666, -0.05040261
 110943334, 0.6612889, -2.549252, 0.3562851, -0.01352248, 0.4304894, -1.165618, 0.3331726, -0.02536896
 111002844, 0.1452431, 1.649774, 0.3439208, 0.02512298, 0.6612889, -2.549252, 0.3562851, -0.01352248
 111052873, 0.314488, 3.046901, 0.3654653, 0.05675055, 0.1452431, 1.649774, 0.3439208, 0.02512298
 111108172, 1.315233, -0.224428, 0.3428208, 0.05335033, 0.314488, 3.046901, 0.3654653, 0.05675055
 111163250, 0.8243027, -1.264492, 0.3460114, 0.06462464, 1.315233, -0.224428, 0.3428208, 0.05335033
 111216123, 1.136689, -1.190077, 0.3515819, 0.06972631, 0.8243027, -1.264492, 0.3460114, 0.06462464
 111271003, 1.0146, -0.7595797, 0.3489724, 0.07553254, 1.136689, -1.190077, 0.3515819, 0.06972631
 111325808, 1.126701, -1.684285, 0.3621238, 0.07594025, 1.0146, -0.7595797, 0.3489724, 0.07553254
 111380773, 1.003573, -0.9106618, 0.3571748, 0.07800178, 1.126701, -1.684285, 0.3621238, 0.07594025
 111435757, 1.04247, -0.1732012, 0.3586349, 0.08182678, 1.003573, -0.9106618, 0.3571748, 0.07800178
 111492468, 1.309195, -1.254007, 0.3693405, 0.07648838, 1.04247, -0.1732012, 0.3586349, 0.08182678
 111541360, 0.9468504, -0.7076089, 0.3682135, 0.0815537, 1.309195, -1.254007, 0.3693405, 0.07648838
 111600767, 0.4810926, -0.402697, 0.3688179, 0.08466887, 0.9468504, -0.7076089, 0.3682135, 0.0815537
 111650913, 0.9068993, -0.9950501, 0.377416, 0.08138283, 0.4810926, -0.402697, 0.3688179, 0.08466887
 111705776, 0.4596421, -0.505249, 0.3768524, 0.08490565, 0.9068993, -0.9950501, 0.377416, 0.08138283
 111760809, 0.04553748, -1.689131, 0.3885237, 0.09181169, 0.4596421, -0.505249, 0.3768524, 0.08490565
 111816250, 0.2409821, -0.7877926, 0.3884408, 0.08685963, 0.04553748, -1.689131, 0.3885237, 0.09181169
 111870753, 0.08958485, -1.766507, 0.3981133, 0.09304623, 0.2409821, -0.7877926, 0.3884408, 0.08685963
 111925758, 0.5070025, -0.9705895, 0.3985414, 0.08803356, 0.08958485, -1.766507, 0.3981133, 0.09304623
 111975747, 0.06847306, -1.51827, 0.4049611, 0.09313367, 0.5070025, -0.9705895, 0.3985414, 0.08803356
 112031288, 0.1657993, -1.123789, 0.4064348, 0.09222886, 0.06847306, -1.51827, 0.4049611, 0.09313367
 112086053, 0.8233362, -1.948969, 0.4207239, 0.09050543, 0.1657993, -1.123789, 0.4064348, 0.09222886
 112141651, 0.3191626, -1.786637, 0.4219535, 0.09732182, 0.8233362, -1.948969, 0.4207239, 0.09050543
 112196282, 0.7097669, -2.016039, 0.4298238, 0.09653138, 0.3191626, -1.786637, 0.4219535, 0.09732182
 112251050, 0.9038919, -1.744864, 0.4327109, 0.09542991, 0.7097669, -2.016039, 0.4298238, 0.09653138
 112306304, 0.8986636, -1.620188, 0.4362922, 0.09715313, 0.9038919, -1.744864, 0.4327109, 0.09542991
 112356071, 1.33773, -2.012374, 0.4494388, 0.09583253, 0.8986636, -1.620188, 0.4362922, 0.09715313
 112411074, 1.240013, -1.984094, 0.4510851, 0.09780537, 1.33773, -2.012374, 0.4494388, 0.09583253
 112466451, 1.422573, -1.602639, 0.4547439, 0.09788859, 1.240013, -1.984094, 0.4510851, 0.09780537
 112521086, 1.395949, -2.570305, 0.4701976, 0.1012647, 1.422573, -1.602639, 0.4547439, 0.09788859
 112576322, 1.07935, -1.869008, 0.4650221, 0.1043042, 1.395949, -2.570305, 0.4701976, 0.1012647
 112631297, 2.0303, -2.175336, 0.4818765, 0.09458102, 1.07935, -1.869008, 0.4650221, 0.1043042
 112688717, 1.531225, -2.080116, 0.4801241, 0.1013805, 2.0303, -2.175336, 0.4818765, 0.09458102
 112741473, 2.255819, -1.904567, 0.4919201, 0.09416249, 1.531225, -2.080116, 0.4801241, 0.1013805
 112792714, 2.329185, -2.220615, 0.4989033, 0.09367042, 2.255819, -1.904567, 0.4919201, 0.09416249
 112846307, 1.602932, -2.258368, 0.4963699, 0.1033984, 2.329185, -2.220615, 0.4989033, 0.09367042
 112901997, 2.135594, -1.532206, 0.5007021, 0.09961204, 1.602932, -2.258368, 0.4963699, 0.1033984
 112956430, 2.154586, -2.157695, 0.5125253, 0.09885306, 2.135594, -1.532206, 0.5007021, 0.09961204
 113008869, 2.853975, -1.776097, 0.5222062, 0.09147357, 2.154586, -2.157695, 0.5125253, 0.09885306
 113064357, 2.092446, -1.93539, 0.5186456, 0.09934281, 2.853975, -1.776097, 0.5222062, 0.09147357
 113121438, 2.502876, -1.751749, 0.5269027, 0.09547475, 2.092446, -1.93539, 0.5186456, 0.09934281
 113176741, 2.568941, -1.639969, 0.5336279, 0.09464286, 2.502876, -1.751749, 0.5269027, 0.09547475
 113226736, 2.392672, -1.368481, 0.5324401, 0.09669445, 2.568941, -1.639969, 0.5336279, 0.09464286
 113281448, 2.710626, -1.791724, 0.546972, 0.08991928, 2.392672, -1.368481, 0.5324401, 0.09669445
 113336400, 2.594971, -2.401266, 0.5574252, 0.08730894, 2.710626, -1.791724, 0.546972, 0.08991928
 113391423, 2.535119, -1.447819, 0.5519031, 0.09155393, 2.594971, -2.401266, 0.5574252, 0.08730894
 113446420, 1.66903, -1.810284, 0.5512732, 0.09498042, 2.535119, -1.447819, 0.5519031, 0.09155393
 113503048, 2.321265, -1.237971, 0.5593362, 0.09050804, 1.66903, -1.810284, 0.5512732, 0.09498042
 113556429, 1.549219, -1.653661, 0.5600926, 0.09313332, 2.321265, -1.237971, 0.5593362, 0.09050804
 113611629, 2.19707, -1.345222, 0.5674464, 0.08639431, 1.549219, -1.653661, 0.5600926, 0.09313332
 113661429, 1.635952, -1.081789, 0.5666478, 0.08814299, 2.19707, -1.345222, 0.5674464, 0.08639431
 113716548, 1.655116, -1.84455, 0.577629, 0.07972823, 1.635952, -1.081789, 0.5666478, 0.08814299
 113771546, 0.855142, -2.260746, 0.5799709, 0.08051302, 1.655116, -1.84455, 0.577629, 0.07972823
 113826702, 1.052407, -2.082474, 0.5844934, 0.07232255, 0.855142, -2.260746, 0.5799709, 0.08051302
 113881627, 1.485573, -1.938563, 0.5916529, 0.06063956, 1.052407, -2.082474, 0.5844934, 0.07232255
 113936412, 0.5963857, -1.827288, 0.5908831, 0.05801353, 1.485573, -1.938563, 0.5916529, 0.06063956
 113991430, 0.9073002, -2.538903, 0.6032315, 0.04197765, 0.5963857, -1.827288, 0.5908831, 0.05801353
 114046444, -0.255495, -2.010549, 0.6005114, 0.03695629, 0.9073002, -2.538903, 0.6032315, 0.04197765
 114096434, 0.3878766, -2.082803, 0.607636, 0.01672447, -0.255495, -2.010549, 0.6005114, 0.03695629
 114151892, 0.5334306, -2.112055, 0.6108586, -0.005686031, 0.3878766, -2.082803, 0.607636, 0.01672447
 114211425, -0.02537178, -1.873551, 0.6125476, -0.02879339, 0.5334306, -2.112055, 0.6108586, -0.005686031
 114261418, 0.1003848, -2.19642, 0.6172667, -0.05706877, -0.02537178, -1.873551, 0.6125476, -0.02879339
 114316427, -0.4711359, -2.237472, 0.6180907, -0.08956417, 0.1003848, -2.19642, 0.6172667, -0.05706877
 114371421, 0.04379582, -1.988452, 0.6102033, -0.133959, -0.4711359, -2.237472, 0.6180907, -0.08956417
 114426739, -1.044908, -2.527236, 0.612888, -0.1695909, 0.04379582, -1.988452, 0.6102033, -0.133959
 114476762, -1.297987, -2.636322, 0.6068302, -0.2077504, -1.044908, -2.527236, 0.612888, -0.1695909
 114531460, -1.007022, -1.476735, 0.5851484, -0.2418189, -1.297987, -2.636322, 0.6068302, -0.2077504
 114586437, -1.174519, -2.372208, 0.57681, -0.2845529, -1.007022, -1.476735, 0.5851484, -0.2418189
 114641432, -2.285514, -2.159768, 0.5700192, -0.31339, -1.174519, -2.372208, 0.57681, -0.2845529
 114696421, -1.685577, -1.686077, 0.5414822, -0.3494271, -2.285514, -2.159768, 0.5700192, -0.31339
 114751752, -1.462775, -0.182123, 0.5125715, -0.3805512, -1.685577, -1.686077, 0.5414822, -0.3494271
 114806433, -1.732248, -2.01343, 0.4960072, -0.4201871, -1.462775, -0.182123, 0.5125715, -0.3805512
 114861426, -2.280952, 0.05703557, 0.4758798, -0.4388679, -1.732248, -2.01343, 0.4960072, -0.4201871
 114916573, -1.198067, 0.03134966, 0.4383885, -0.4673131, -2.280952, 0.05703557, 0.4758798, -0.4388679
 114966435, -2.030214, -0.7408472, 0.4206144, -0.49091, -1.198067, 0.03134966, 0.4383885, -0.4673131
 115021466, -1.485915, 0.4232223, 0.3877596, -0.5128074, -2.030214, -0.7408472, 0.4206144, -0.49091
 115076756, -1.311718, -0.6333852, 0.3532273, -0.5362434, -1.485915, 0.4232223, 0.3877596, -0.5128074
 115131408, -2.047567, -0.9013352, 0.3286759, -0.5582899, -1.311718, -0.6333852, 0.3532273, -0.5362434
 115186601, -0.4636665, 0.03186096, 0.2881918, -0.5689804, -2.047567, -0.9013352, 0.3286759, -0.5582899
 115241549, -4.985556, -5.938957, 0.2208295, -0.7140925, -0.4636665, 0.03186096, 0.2881918, -0.5689804
 115299078, -0.4005977, -0.999706, 0.2202482, -0.603107, -4.985556, -5.938957, 0.2208295, -0.7140925
 115351735, -3.862381, -3.635142, 0.1646039, -0.6734837, -0.4005977, -0.999706, 0.2202482, -0.603107
 115403018, -0.5668002, -1.811922, 0.1533652, -0.6304036, -3.862381, -3.635142, 0.1646039, -0.6734837
 115456559, -1.070545, -3.945599, 0.1042086, -0.6672027, -0.5668002, -1.811922, 0.1533652, -0.6304036
 115511868, -0.9571772, -2.562441, 0.07266816, -0.6546673, -1.070545, -3.945599, 0.1042086, -0.6672027
 115566952, -1.120698, -3.522926, 0.02980649, -0.6708128, -0.9571772, -2.562441, 0.07266816, -0.6546673
 115621887, -1.640473, -3.304663, -0.01393039, -0.672227, -1.120698, -3.522926, 0.02980649, -0.6708128
 115677426, -0.9887221, -2.638206, -0.04121288, -0.6614029, -1.640473, -3.304663, -0.01393039, -0.672227
 115727572, -1.794159, -2.574976, -0.08449848, -0.6617899, -0.9887221, -2.638206, -0.04121288, -0.6614029
 115781880, -2.204367, -3.072493, -0.1332157, -0.6638243, -1.794159, -2.574976, -0.08449848, -0.6617899
 115836915, -2.493716, -2.465402, -0.1721502, -0.6511604, -2.204367, -3.072493, -0.1332157, -0.6638243
 115891854, -3.078546, -2.580535, -0.2205721, -0.6447982, -2.493716, -2.465402, -0.1721502, -0.6511604
 115946923, -2.883635, -3.261764, -0.2587197, -0.6365331, -3.078546, -2.580535, -0.2205721, -0.6447982
 116003528, -3.595854, -2.261459, -0.3027553, -0.6169386, -2.883635, -3.261764, -0.2587197, -0.6365331
 116056938, -3.854422, -2.819049, -0.3457111, -0.6045334, -3.595854, -2.261459, -0.3027553, -0.6169386
 116111860, -5.079906, -2.240337, -0.4041663, -0.5854167, -3.854422, -2.819049, -0.3457111, -0.6045334
 116166935, -5.361356, -0.48842, -0.4354763, -0.5583315, -5.079906, -2.240337, -0.4041663, -0.5854167
 116216970, -4.551888, -1.410073, -0.449544, -0.5326724, -5.361356, -0.48842, -0.4354763, -0.5583315
 116271872, -5.675702, 0.2293787, -0.5017608, -0.507516, -4.551888, -1.410073, -0.449544, -0.5326724
 116327438, -4.887463, 0.194316, -0.5074312, -0.4809833, -5.675702, 0.2293787, -0.5017608, -0.507516
 116381838, -5.611571, 0.2211172, -0.5408633, -0.4648445, -4.887463, 0.194316, -0.5074312, -0.4809833
 116437670, -5.576973, 0.3985398, -0.5468041, -0.4571585, -5.611571, 0.2211172, -0.5408633, -0.4648445
 116489784, -5.395098, -0.02004292, -0.5446374, -0.4542277, -5.576973, 0.3985398, -0.5468041, -0.4571585
