TimeUS,CAN,CAE,CAD,CAe,NAN,NAE,NAD,NAe,m10,m00,Gye
 140956331, -0.1043176, 0.01072059, -0.005962416, 0.07368652, -0.03286307, 0.003622991, 0.0003548269, 0.02996338, -0.9887673, -0.1051868, 90.42259
 141156333, -0.105761, 0.01028615, -0.001786979, 0.06762446, -0.03979404, 0.003901634, -0.0005585679, 0.03719446, -0.9888151, -0.1047497, 114.4603
 141356311, -0.1132916, 0.01128894, -0.004089453, 0.07485463, -0.0402768, 0.00439961, -0.003595989, 0.0371952, -0.9888648, -0.1043462, 126.6979
 141556332, -0.1140786, 0.01240124, -0.005519122, 0.07485572, -0.04049447, 0.005018006, -0.0008345386, 0.03719502, -0.9889156, -0.1039076, 126.6998
 141756317, -0.114274, 0.01323774, -0.00284745, 0.07485668, -0.04124728, 0.004439194, -0.002153297, 0.03719558, -0.9889555, -0.1035214, 126.7014
 141956375, -0.1148102, 0.01151406, -0.005036433, 0.07485502, -0.03857371, 0.003590878, -0.0002962392, 0.03719613, -0.9890003, -0.1030988, 126.6986
 142156432, -0.1135838, 0.01243766, -0.002568468, 0.07485648, -0.04016762, 0.00490761, -0.0005658572, 0.03719334, -0.9890443, -0.1026989, 126.7011
 142356303, -0.1160887, 0.01208536, -0.003045505, 0.07485481, -0.04111368, 0.003452753, -0.0003136252, 0.03719502, -0.989093, -0.1022357, 126.6982
 142556327, -0.1150699, 0.01131281, -0.001723471, 0.07485554, -0.0417327, 0.004763244, 0.001350053, 0.03719502, -0.9891307, -0.1018378, 126.6995
 142756292, -0.1157633, 0.01259638, -0.0009403026, 0.07485667, -0.04058727, 0.003289941, -2.17339E-05, 0.03719539, -0.9891716, -0.1014216, 126.7014
 142956334, -0.1144432, 0.01159417, -0.004361428, 0.07485499, -0.04230636, 0.004202245, -0.002849148, 0.03719465, -0.9892034, -0.1011072, 126.6986
 143156308, -0.1157143, 0.01133145, -0.004276465, 0.07485539, -0.04182465, 0.003467866, 0.000728125, 0.03719502, -0.9892352, -0.1007668, 126.6992
 143356314, -0.1152005, 0.01064099, -0.002843453, 0.07485501, -0.04005849, 0.005586877, -0.002639476, 0.03719502, -0.9892644, -0.1004876, 126.6986
 143556592, -0.112755, 0.01360706, -0.004923355, 0.07485557, -0.04118681, 0.006154525, 0.0007272799, 0.03719557, -0.9893034, -0.1001238, 126.6995
 143756328, -0.1130298, 0.01572448, -0.003577609, 0.0748563, -0.04164711, -0.0001506299, 0.001397702, 0.03719576, -0.989344, -0.09976663, 126.7008
 143956485, -0.1150652, 0.006869028, -0.0009010499, 0.07485926, -0.03978999, 0.003573527, -0.0003321485, 0.03719501, -0.989373, -0.09945072, 126.7058
 144156310, -0.1174721, 0.0188999, -0.01406579, 0.07485797, -0.03070724, 0.02321132, -0.01326113, 0.03719502, -0.9895616, -0.0989669, 126.7036
 144356319, -0.1054185, 0.03056755, -0.01248327, 0.0748576, -0.06063491, 0.02398178, -0.02104306, 0.03719483, -0.9895412, -0.09956817, 126.7029
 144556350, -0.1272293, 0.03206788, -0.02302556, 0.07485516, -0.0480272, 0.008490415, -0.003077065, 0.0371952, -0.9895396, -0.09871951, 126.6989
 144775858, -0.1292978, 0.01396855, -0.01304129, 0.07857504, -0.03857644, -0.009269536, 0.007610993, 0.04091526, -0.9895722, -0.09848887, 132.9951
 144956344, -0.1101392, -0.003308924, -0.001789962, 0.07485498, -0.04021116, -0.01000282, 0.004252837, 0.03347477, -0.9896191, -0.09807721, 126.6986
 145156341, -0.1194965, 0.001820578, -0.0003988326, 0.07113457, -0.0352162, 0.006575212, -0.001418797, 0.03719372, -0.9896098, -0.09800039, 120.4014
 145356317, -0.1139278, 0.01441705, -0.001078644, 0.0748537, -0.03604634, 0.0191238, 0.01190443, 0.03719558, -0.9896352, -0.09782809, 126.6963
 145556387, -0.1148287, 0.02215268, 0.008788601, 0.07485629, -0.0203591, 0.001627375, 0.006482446, 0.0371978, -0.9897002, -0.09714798, 126.7008
 145756507, -0.1074758, 0.01102955, 0.004067704, 0.07485647, -0.07033733, 0.01003929, 0.009483179, 0.03719167, -0.9897335, -0.09683668, 126.7011
 145956353, -0.1401818, 0.01496312, 0.01090444, 0.0748561, -0.05536501, 0.01620797, 0.002638796, 0.03719687, -0.9897677, -0.09633334, 126.7004
 146156321, -0.1245444, 0.01969953, 0.005133792, 0.07485984, -0.03260772, -0.01679676, -0.002892656, 0.03719446, -0.9898021, -0.09595532, 126.7067
 146335872, -0.0993953, -0.01174251, -0.003151371, 0.07113495, -0.04801928, -0.002467234, -0.007460999, 0.0334757, -0.9898276, -0.09572117, 120.402
 146556344, -0.118599, 0.005998999, -0.00652138, 0.07485518, -0.03031599, 0.01198996, 0.01348662, 0.04091489, -0.9898554, -0.09526897, 125.1151
 146756334, -0.1070967, 0.02340648, 0.0008002697, 0.07857355, -0.06492389, 7.179158E-06, -0.0230697, 0.03719316, -0.9898897, -0.09524748, 132.9926
 146956343, -0.1480429, 0.008597497, -0.02426262, 0.07485314, -0.05938172, 0.004854207, 0.01365477, 0.03719798, -0.9899011, -0.09484408, 126.6954
 147156367, -0.1337201, 0.0149106, 0.01084169, 0.07485627, -0.05996966, 0.01155425, 0.01361653, 0.03719483, -0.9899548, -0.0942042, 126.7008
 147356366, -0.123747, 0.01495543, 0.01287092, 0.0748533, -0.04324244, 0.00443816, -0.01158274, 0.03719538, -0.9900007, -0.09395165, 126.6957
 147556538, -0.1132866, 0.007312662, -0.00521469, 0.07485554, -0.03765208, -0.004278358, -0.004215069, 0.03719316, -0.9900004, -0.09359507, 126.6995
 147756647, -0.1135841, -0.001329519, -0.001310394, 0.07485443, -0.04136507, -0.005811652, 0.007380678, 0.03719501, -0.9900053, -0.09358989, 126.6976
 147956382, -0.1218134, -0.005767899, 0.006944513, 0.07485646, -0.05668178, -0.01532523, 0.02042568, 0.03719502, -0.9900687, -0.09328479, 126.7011
 148156346, -0.1366483, -0.01262253, 0.01570305, 0.07485927, -0.04473425, 0.009408073, 0.01389741, 0.03719502, -0.9901349, -0.09365129, 126.7058
 148356419, -0.1449071, -0.020355, -0.02547539, 0.07485685, -0.07203221, -0.01720189, 0.03971241, 0.03719502, -0.986662, -0.08894426, 126.7017
 148556347, -0.2869456, -0.2288297, -0.05450794, 0.07485405, -0.1614242, -0.103085, -0.06104368, 0.03719502, -0.9782146, -0.08323549, 126.697
 148756366, -0.459599, -0.4705085, -0.254564, 0.0748561, -0.1589208, -0.2513227, -0.1371048, 0.03719502, -0.9750237, -0.08732503, 126.7004
 148935929, -0.4535327, -0.5473644, -0.3028649, 0.07113549, -0.09875925, -0.1762093, -0.057773, 0.03347774, -0.9792832, -0.09503796, 120.403
 149156343, -0.4391924, -0.3515015, -0.3249552, 0.07485498, -0.2131092, 0.06905398, -0.3150312, 0.04091229, -0.9924641, -0.08645993, 126.6986
 149356472, -0.3987501, 0.08116011, -0.3818124, 0.07857265, -0.0607494, 0.08421035, -0.06094818, 0.03719501, -0.9972881, -0.07335865, 132.991
 149556359, -0.2713258, 0.228372, -0.1229198, 0.07485627, -0.09252745, -0.04245434, 0.07064377, 0.03719501, -0.9966784, -0.07504603, 126.7008
 149756331, -0.2953064, 0.1794638, 0.01941206, 0.07485706, -0.1423281, 0.2024928, -0.09002297, 0.03719687, -0.9961038, -0.07341237, 126.702
 149956375, -0.239871, 0.3236889, 0.008519012, 0.07485666, -0.04900579, 0.06562446, 0.04519064, 0.03719371, -0.9972474, -0.07409054, 126.7014
 150156342, 0.03252932, 0.06200121, 0.2118875, 0.07485385, 0.1187724, -0.1263298, 0.1525575, 0.03719445, -0.9945922, -0.07031188, 126.6967
 150356332, 0.3004788, -0.2413148, 0.2560212, 0.07485461, 0.0759658, -0.03582104, -0.01715183, 0.03719502, -0.9894076, -0.07253287, 126.6979
 150556359, 0.2905426, -0.2601345, 0.08990433, 0.074855, 0.1192333, -0.1122799, 0.001708519, 0.03719557, -0.9821987, -0.08487266, 126.6986
 150756343, 0.3252741, -0.4143049, 0.05045782, 0.07485516, 0.1631329, -0.2183114, 0.165311, 0.03719446, -0.9750428, -0.08931027, 126.6989
 150956361, 0.359839, -0.5356698, 0.1325919, 0.07485444, 0.1044435, -0.1550868, -0.1933233, 0.03719501, -0.9749949, -0.08980381, 126.6976
 151156466, 0.2747865, -0.4773847, -0.2664317, 0.07485851, 0.1146012, -0.1933979, 0.02951925, 0.03719501, -0.9735364, -0.09010062, 126.7045
 151356351, 0.2532002, -0.4248463, 0.04771954, 0.07485608, 0.07058947, -0.1535208, 0.08303117, 0.03719576, -0.9786566, -0.08198913, 126.7004
 151535941, 0.1818254, -0.2431285, 0.1279863, 0.07113604, -0.0158319, 0.04645705, -0.04475592, 0.03347662, -0.9876114, -0.07091521, 120.4039
 151756338, 0.1003427, 0.06719438, 0.02663974, 0.07485779, 0.08243904, 0.00181142, -0.01414129, 0.04091322, -0.9947622, -0.07652599, 126.7033
 151956680, 0.1126629, 0.0638419, 0.0441293, 0.07857318, -0.05886215, -0.06547774, 0.1234042, 0.03719632, -0.9949231, -0.08171992, 132.9919
 152175933, -0.07523778, 0.05682633, 0.1691739, 0.07857412, -0.07038191, 0.1718849, 0.001652504, 0.04091266, -0.9968071, -0.07205798, 132.9935
 152356333, -0.1497437, 0.3010817, -0.09238309, 0.07485311, -0.004474979, 0.1021219, -0.1039276, 0.03347718, -0.9973595, -0.0678217, 126.6954
 152556452, -0.2100452, 0.2544317, -0.07970683, 0.07113902, -0.1230926, -0.04891568, 0.08449651, 0.03719334, -0.9975491, -0.06254166, 120.409
 152756335, -0.3541626, 0.1566112, 0.07052654, 0.0748533, -0.1507007, 0.192988, -0.08396941, 0.03719502, -0.9979541, -0.06320646, 126.6957
 152956489, -0.3990665, 0.3478883, -0.09860045, 0.074855, -0.09668155, 0.004512926, 0.02766511, 0.03719557, -0.9968627, -0.07248697, 126.6986
 153156374, -0.3497622, 0.1286818, 0.004295062, 0.07485572, -0.1905228, 0.1233462, -0.06860386, 0.03719446, -0.9959639, -0.07512321, 126.6998
 153356332, -0.3899427, 0.1755225, -0.1095205, 0.07485516, -0.06451981, -0.002655555, -0.03690802, 0.03719501, -0.9954526, -0.07126606, 126.6989
 153556346, -0.2783507, 0.04207519, 0.03600887, 0.07485776, -0.1379742, 0.01784871, 0.01465902, 0.03719502, -0.9933269, -0.08062933, 126.7033
 153756459, -0.3228066, 0.03123129, 0.04376129, 0.07485499, -0.07472122, 0.03414321, -0.08046967, 0.03719502, -0.9931415, -0.0870309, 126.6986
 153956429, -0.1443304, 0.02984777, -0.0210867, 0.07485665, -0.05467024, -0.1184835, 0.09056163, 0.03719501, -0.9942372, -0.08759094, 126.7014
 154136069, -0.05508658, -0.03069929, 0.006766518, 0.07113566, -0.06637068, 0.1037611, -0.09817439, 0.03347756, -0.9970039, -0.07707229, 120.4033
 154356482, -0.1377727, 0.439468, -0.1879462, 0.07485498, -0.0432971, 0.4177594, -0.08062989, 0.04091545, -0.9924749, -0.04443416, 126.6986
 154556443, -0.1149311, 0.8491532, -0.01715522, 0.07857282, 0.05665929, 0.2460362, 0.03913566, 0.03719074, -0.9894296, -0.02727563, 132.9913
 154756585, 0.02934011, 0.6645552, 0.08946503, 0.07485221, -0.05108092, 0.1402314, 0.03324723, 0.03719632, -0.9960285, -0.02563886, 126.6938
 154956490, -0.04676626, 0.429722, -0.01298464, 0.07485629, -0.009526553, 0.2208553, -0.137073, 0.03720115, -0.9987521, -0.04797309, 126.7008
 155156451, -0.03453642, 0.3955581, -0.1110758, 0.07485516, 0.06557032, 0.1592561, -0.05175441, 0.03718888, -0.9986633, -0.0504663, 126.6989
 155356447, -0.04060693, 0.3581759, -0.04323645, 0.07484902, -0.08326766, -0.006039686, 0.06755759, 0.03719501, -0.9984525, -0.05130697, 126.6885
 155556514, -0.2573905, 0.19092, 0.1063401, 0.07485572, -0.1916503, 0.05816687, 0.04292095, 0.03719502, -0.9984274, -0.05601756, 126.6998
 155756420, -0.3564221, 0.2101368, 0.04224313, 0.07485498, -0.07620613, 0.1834793, -0.07392853, 0.03719502, -0.9977043, -0.06689866, 126.6986
 155956474, -0.2128581, 0.2555511, -0.04993293, 0.07485518, -0.02638661, 0.04861552, 0.09728242, 0.03719557, -0.9967536, -0.07469601, 126.6989
 156156774, -0.1203164, 0.0644009, 0.1130832, 0.07485516, -0.05860433, -0.147743, 0.1161933, 0.03719446, -0.9924538, -0.08860757, 126.6989
 156356415, -0.1502219, -0.2266212, 0.01667417, 0.07485443, -0.09366819, 0.03158018, -0.1978607, 0.03719502, -0.9876901, -0.09656683, 126.6976
 156556614, -0.1882229, -0.1286021, -0.2403018, 0.07485499, -0.04936198, 0.02818331, -0.1700408, 0.03719502, -0.9865938, -0.09670591, 126.6986
 156756832, -0.155902, -0.1525989, -0.2269767, 0.07493718, -0.004278646, -0.2036151, 0.112376, 0.03727833, -0.9861843, -0.09541899, 126.8377
 156957183, -0.1125081, -0.2914506, 0.05674774, 0.07499559, -0.03308036, -0.1451458, 0.1168299, 0.03725434, -0.9926028, -0.08800607, 126.9365
 157157290, -0.129126, -0.07665523, 0.09950651, 0.07491228, 0.009651641, 0.1267066, -0.03952129, 0.03719297, -0.9967228, -0.08048663, 126.7955
 157357203, -0.06711892, 0.3015877, -0.005022198, 0.07485295, -0.09802808, 0.206813, -0.01228394, 0.03719538, -0.9968226, -0.06785522, 126.6951
 157557310, -0.1523689, 0.4052926, 0.07562369, 0.07485498, -0.1757045, 0.1545559, 0.05956891, 0.03719521, -0.9974355, -0.06343747, 126.6986
 157757146, -0.2481477, 0.31375, 0.1449566, 0.0749307, -0.1091566, 0.09812407, 0.03909887, 0.03727052, -0.9980125, -0.06297013, 125.2413
 157957175, -0.1791082, 0.1712898, 0.1140734, 0.07493047, 0.0598065, -0.008380319, 0.01860449, 0.03719557, -0.9972731, -0.06427504, 126.8263
 158157156, 0.009823358, 0.008423128, 0.03931089, 0.07485497, 0.04423069, -0.1038975, 0.03837382, 0.03719446, -0.9953501, -0.07440684, 126.6986
 158357374, -0.003725034, -0.1026973, 0.07456681, 0.07485425, -0.07034861, -0.01447957, 0.06598054, 0.03719669, -0.9956046, -0.07383888, 126.6973
 158557562, -0.1337794, -0.003967484, 0.06751315, 0.07491394, -0.05481128, 0.1282862, -0.1685299, 0.03725211, -0.9973398, -0.06928798, 126.7983
 158757543, -0.1140066, 0.1567394, -0.1458214, 0.0749143, -0.02609655, 0.09593641, -0.03665472, 0.03719501, -0.9970723, -0.07411914, 126.799
 158957567, -0.08623439, 0.1236635, -0.03712287, 0.07485498, -0.01566449, -0.09313617, 0.0669355, 0.03719482, -0.9969237, -0.07418712, 126.6986
 159157549, -0.1025589, -0.06227742, 0.07835364, 0.07485496, 0.001701757, -0.06395257, 0.1217039, 0.0371952, -0.9962026, -0.07279164, 126.6986
 159337541, -0.05863667, -0.08162332, 0.1304587, 0.07113568, -0.08135851, -0.02939541, -0.04282459, 0.03347551, -0.9951975, -0.07061769, 120.4033
 159557562, -0.1461177, -0.09170915, -0.06882483, 0.07485553, -0.1319587, 0.01537526, 0.0379504, 0.04091451, -0.9940078, -0.07152403, 126.6995
 159757547, -0.1557008, -0.07130645, 0.05826505, 0.07857447, -0.007751788, 0.01037666, -0.02416358, 0.03719521, -0.9939849, -0.07438575, 132.9941
 159957918, -0.07219958, -0.07711762, 0.03453095, 0.07491487, 0.003469577, -0.1276032, 0.1196182, 0.03725471, -0.9944848, -0.0719363, 126.7999
 160138595, -0.06943145, -0.1579324, 0.1621349, 0.07133074, -0.03141544, -0.08943581, 0.1451149, 0.03361053, -0.9958892, -0.06693206, 119.2243
 160358747, -0.1239315, -0.09160714, 0.1368489, 0.07499131, 0.03328968, 0.02600315, 0.03819008, 0.04091452, -0.9970487, -0.05926297, 126.9293
 160558598, -0.03243221, 0.01784516, -0.01566594, 0.07857653, -0.07043297, 0.0471749, -0.07702877, 0.03719502, -0.9966987, -0.0548219, 132.9976
 160758589, -0.147427, -0.02738788, -0.03963915, 0.07485554, -0.1708579, -0.05573134, 0.02380547, 0.03719631, -0.993705, -0.05553446, 126.6995
 160958607, -0.2450814, -0.1746611, 0.05254423, 0.07485552, -0.1737072, -0.02285287, -0.08102197, 0.03719427, -0.9917015, -0.05984359, 126.6995
 161158586, -0.2745023, -0.1159066, -0.07815482, 0.07485422, -0.09708264, 0.1238814, -0.1291697, 0.03719687, -0.9946021, -0.0633024, 126.6973
 161358594, -0.2152803, 0.1087188, -0.08082141, 0.07485498, -0.09290816, 0.002241117, -0.03937361, 0.03719558, -0.9981668, -0.05078354, 126.6986
 161558609, -0.167875, 0.05126222, -0.06380748, 0.07485314, -0.01735447, -0.09720842, 0.1302145, 0.03719204, -0.9982863, -0.04465073, 126.6954
 161758594, -0.02341991, -0.094567, 0.120842, 0.07485256, -0.03007679, -0.1110009, 0.1517997, 0.03719668, -0.995876, -0.04802302, 126.6945
 161958746, 0.03535587, -0.2099664, 0.09298992, 0.07485574, 0.01284821, -0.01639773, 0.004771877, 0.03719334, -0.9927416, -0.04795975, 126.6998
 162158917, 0.08115387, -0.1800543, -0.01319548, 0.07492658, -0.001423104, 0.02624977, -0.117514, 0.03726829, -0.9908941, -0.05117619, 126.8197
 162358906, 0.06065309, -0.1451875, -0.1385988, 0.07492825, -0.009121506, -0.123242, 0.003219427, 0.03719576, -0.9885181, -0.05370475, 126.8226
 162558937, -0.001394401, -0.274556, -0.05352071, 0.074855, 0.01147358, -0.1626309, 0.1710221, 0.03719613, -0.9863992, -0.05235165, 126.6986
 162758910, -0.05594641, -0.3050479, 0.1422633, 0.07485422, 0.004665362, -0.0775765, 0.04583738, 0.03719315, -0.9908885, -0.05588898, 126.6973
 162958939, -0.1205826, -0.1686409, 0.0244564, 0.07485312, -0.1786387, 0.05922331, -0.06109447, 0.03719501, -0.9953262, -0.05796888, 126.6954
 163159316, -0.3462639, 0.01764658, -0.0635179, 0.07491783, -0.219383, 0.03828399, -0.04480092, 0.03725806, -0.997209, -0.05666516, 126.8049
 163359638, -0.4139002, 0.0627581, -0.0309024, 0.07497735, -0.1409228, 0.08920219, -0.04768092, 0.03725602, -0.9982023, -0.05212313, 126.9057
 163562777, -0.3724977, 0.1489822, -0.04098378, 0.07537924, -0.1222976, 0.0198642, -0.03669401, 0.0376594, -0.9986838, -0.05105532, 127.5859
 163762150, -0.3573344, 0.1345775, -0.02393886, 0.07531882, -0.0876762, -0.01581642, 0.03014794, 0.0371939, -0.9988058, -0.04345188, 127.4836
 163942146, -0.2601957, 0.08823919, 0.1064993, 0.07113306, -0.06827615, 0.1527295, -0.006435764, 0.0334757, -0.9993756, -0.03000722, 120.3989
 164142650, -0.1704989, 0.2636344, 0.006190364, 0.07120338, -0.09074485, 0.07828961, 0.008779291, 0.0372627, -0.9994578, -0.03215931, 120.5179
 164542518, 0.06054308, -0.06505174, 0.006948536, 0.07485496, 0.03222349, 0.007937671, 0.09035608, 0.03347607, -0.9977204, -0.03776829, 126.6986
 164762582, 0.03402491, -0.04138361, 0.04783612, 0.074855, -0.05312137, 0.04254903, -0.1006302, 0.04091415, -0.9975877, -0.03796044, 126.6986
 164962901, -0.07972947, 0.02705157, -0.1071482, 0.07863791, -0.03674098, 0.01763966, -0.1041282, 0.03725397, -0.9982054, -0.02871617, 133.1015
 165162902, -0.1029833, 0.007857392, -0.09097734, 0.07491579, 0.01375263, -0.0565516, 0.05917474, 0.03719501, -0.9981714, -0.0281458, 126.8015
 165362899, -0.05408487, -0.02759701, 0.07228065, 0.07485516, -0.0784756, 0.08208656, -0.0992147, 0.03719501, -0.9987084, -0.02784223, 126.6989
 165562900, -0.1354061, 0.1289361, -0.1092412, 0.07485553, -0.04197607, 0.08826281, -0.1506173, 0.03719538, -0.9986683, -0.02853474, 126.6995
 165765724, -0.1109373, 0.1147076, -0.1462745, 0.07539506, -0.03259372, -0.07589068, 0.1246727, 0.03773434, -0.998338, -0.02904138, 127.6127
 165945744, -0.0939597, -0.03827235, 0.1324127, 0.071675, -0.06745037, 0.05394373, -0.005294568, 0.03347514, -0.9984604, -0.02305157, 121.3161
 166145865, -0.1509362, 0.1052091, -0.04944175, 0.0711351, -0.05528195, 0.03466379, 0.001111622, 0.03721287, -0.9987413, -0.02229261, 120.4023
 166346254, -0.1529069, 0.02511757, 0.0157247, 0.07492549, -0.0356375, -0.06795246, 0.09343144, 0.03724988, -0.99684, -0.0239195, 125.2326
 166546466, -0.1437471, -0.08647954, 0.1167341, 0.07497548, -0.04554333, 0.01013596, 0.05266432, 0.03726252, -0.9955285, -0.02925723, 126.9025
 166766650, -0.1886811, -0.03230483, 0.03132547, 0.07864051, -0.1275036, 0.05128355, -0.09641485, 0.04091489, -0.9959744, -0.02866332, 133.1059
 166946478, -0.2432776, -0.01629831, -0.08767114, 0.07485311, -0.0968203, -0.0334984, -0.0465259, 0.03347328, -0.9945674, -0.03064786, 126.6954
 167146496, -0.2054362, -0.1400684, -0.02302318, 0.07113715, -0.002020902, -0.1439423, 0.04412278, 0.03719669, -0.9921159, -0.03391014, 120.4058
 167346470, -0.1082125, -0.2535296, 0.02980321, 0.07485498, -0.02840213, -0.06878658, 0.09062837, 0.03719464, -0.9928923, -0.03445351, 126.6986
 167546502, -0.1248427, -0.1631139, 0.0467909, 0.07485386, -0.06287844, -0.01256071, -0.05208381, 0.03719445, -0.9946842, -0.02537364, 126.6967
 167746487, -0.1265116, -0.04555678, -0.09461446, 0.07485536, -0.07792811, 0.04617423, -0.08333624, 0.03719817, -0.9963735, -0.0165998, 126.6992
 167946637, -0.107953, 0.03269272, -0.06281425, 0.07485481, -0.02585463, -0.03391482, 0.06301761, 0.03719129, -0.9964375, -0.01065485, 126.6982
 168146473, -0.02516484, -0.04841544, 0.1081955, 0.07485218, 0.0004240114, -0.08676637, 0.02993522, 0.03719483, -0.9955645, -0.008202579, 126.6938
 168346451, -0.01298433, -0.08903836, 0.03191113, 0.0748548, -0.04879213, 0.0566356, 0.0391598, 0.0371952, -0.9961655, -0.008336389, 126.6982
 168546494, -0.08280931, 0.04131972, 0.04603836, 0.07485517, -0.02312006, 0.09381639, -0.01860236, 0.03719557, -0.9966569, -0.009196058, 126.6989
 168746471, -0.08662, 0.05750829, 0.04700293, 0.07485478, -0.04724902, -0.1180249, 0.03683736, 0.03719464, -0.9964662, -0.01035178, 126.6982
 168966774, -0.1105339, -0.1426065, 0.04237923, 0.07857374, -0.07504604, -0.1086787, 0.04204904, 0.04091489, -0.9965253, -0.01015658, 132.9929
 169166744, -0.1515405, -0.09890953, 0.0255823, 0.07857785, 0.003857717, 0.119077, -0.1419102, 0.03719502, -0.998503, -0.006304479, 132.9998
 169346465, -0.05230928, 0.1301651, -0.1687329, 0.07113547, -0.01165957, 0.1270029, -0.1785659, 0.03347495, -0.9982612, -0.006047375, 120.403
 169546905, -0.1004586, 0.1237543, -0.1581415, 0.07120632, -0.05812665, -0.07353062, 0.08642124, 0.03726476, -0.9978141, -0.008767827, 120.5229
 169747078, -0.1345865, -0.07555093, 0.08282274, 0.07492455, 0.006077043, -0.04678059, 0.04993429, 0.03719483, -0.9958743, -0.009319676, 126.8163
 169947162, -0.07178347, -0.04312161, -0.01407637, 0.07491729, -0.02220521, 0.1000387, -0.1698798, 0.03725303, -0.996941, -0.005247544, 126.804
 170149950, -0.1088418, 0.05133156, -0.1338705, 0.07544318, -0.04259402, -0.1116434, 0.1648932, 0.03772412, -0.9955148, -0.0098698, 127.6942
 170350394, -0.136521, -0.1328849, 0.1914118, 0.07545606, -0.06976101, -0.03135753, 0.03115724, 0.03726791, -0.996137, -0.009868238, 127.7159
 170550897, -0.1451394, -0.02778187, 0.01339, 0.07500633, -0.03068635, 0.06363815, -0.05206768, 0.03727201, -0.9970726, -0.01032586, 126.9548
 170750873, -0.106815, 0.03675346, -0.01925343, 0.07493532, -0.02805046, -0.111674, 0.1771235, 0.03719502, -0.9967737, -0.01525031, 126.8345
 170950903, -0.1164656, -0.07374775, 0.1273312, 0.07485555, -0.02465643, 0.0591133, 0.09674206, 0.03719501, -0.998356, -0.01034063, 126.6995
 171150867, -0.1363645, 0.1390477, 0.08891717, 0.07485815, -0.06750137, 0.1152513, 0.002405662, 0.03719502, -0.9998785, -0.005943253, 126.7039
 171350849, -0.1864911, 0.2145361, 0.01246682, 0.0748561, -0.1515857, 0.1293756, -0.06870019, 0.037195, -0.9998743, -0.008296165, 126.7004
 171550832, -0.2514431, 0.1892042, -0.07583334, 0.07485569, -0.1361825, 0.09185985, -0.0737602, 0.03719799, -0.9991463, -0.01467382, 126.6998
 171751043, -0.2201354, 0.1014173, -0.07199819, 0.07485794, -0.02115008, 0.0408311, -0.1474214, 0.03719204, -0.9979978, -0.01862982, 126.7036
 171951159, -0.1108646, 0.01872806, -0.149429, 0.07492081, -0.05772518, -0.008446598, -0.0141436, 0.03726568, -0.9978588, -0.01862959, 125.2249
 172151142, -0.1309901, -0.003774868, -0.004939603, 0.07492229, 0.006615837, -0.08249749, 0.1506323, 0.03719334, -0.9983792, -0.01426077, 126.8125
 172351116, -0.0417018, -0.02501838, 0.1119212, 0.07485162, 0.008934633, 0.006893043, 0.003313947, 0.03719724, -0.9988939, -0.010185, 126.6929
 172551555, -0.02057847, 0.06521329, 0.00938846, 0.07492491, -0.0694266, 0.09438067, 0.0009009459, 0.0372642, -0.9987807, -0.01024044, 126.8169
 172751563, -0.05824431, 0.05311742, 0.05764196, 0.07492378, -0.02849309, -0.03522716, -0.01166091, 0.03719427, -0.9962271, -0.01551501, 126.815
 172951579, 0.01573462, -0.1519341, 0.0129036, 0.0748535, 0.05192984, -0.08702885, 0.137998, 0.03719501, -0.9933315, -0.02056118, 126.696
 173151556, 0.05249589, -0.2237443, 0.09727778, 0.07485422, 0.06519667, -0.1057902, 0.06851046, 0.03719427, -0.9933263, -0.01824022, 126.6973
 173351547, -0.004405903, -0.2170616, 0.06512241, 0.07485536, -0.1007213, -0.04034512, 0.07483676, 0.03719669, -0.9948704, -0.01167291, 126.6992
 173551718, -0.2137755, -0.06509952, 0.1000228, 0.07485609, -0.146113, 0.06588312, -0.0502717, 0.0371978, -0.9990461, -0.002956096, 126.7004
 173752164, -0.2479115, 0.1139611, -0.03015732, 0.07493828, -0.04276904, 0.1558376, -0.1637448, 0.03727573, -0.9999902, -0.003235722, 126.8396
 173971960, -0.1618084, 0.2464595, -0.2152293, 0.07865463, -0.07875511, -0.06992523, 0.1300702, 0.04091489, -0.9998372, -0.002426979, 133.1298
 174151959, -0.1531173, 0.05286577, 0.03537285, 0.07485498, -0.008960165, 0.007309247, 0.02742881, 0.03347681, -0.9999982, 0.001015714, 126.6986
 174351921, -0.08171482, 0.1505745, -0.02525966, 0.07113473, -0.05053553, 0.164645, -0.08244469, 0.03719408, -0.9999477, 0.005096782, 120.4017
 174556951, -0.1254003, 0.2406698, -0.08076098, 0.07578204, -0.0831559, 0.01159187, -0.05686234, 0.0381234, -0.9993333, 0.004073176, 128.2677
 174756922, -0.1705279, 0.02048737, -0.04765268, 0.07578319, -0.02280366, -0.05359067, 0.0632913, 0.03719464, -0.996914, 0.004656953, 128.2696
 174956961, -0.1132999, -0.11322, 0.08533394, 0.0748546, 0.01651939, 0.02905967, 0.01731859, 0.03719502, -0.9942467, 0.00885638, 126.6979
 175157344, -0.094854, -0.09838014, 0.0902596, 0.07491726, -0.07711464, -0.1542312, 0.08253238, 0.03725825, -0.9904898, 0.006035155, 126.804
 175357334, -0.1941016, -0.2731113, 0.07943646, 0.07491765, -0.1191008, -0.03943158, -0.02273534, 0.03719409, -0.9932212, -0.00010814, 126.8046
 175557361, -0.2632685, -0.05921054, -0.01014991, 0.07485404, -0.1285615, 0.1221714, -0.05611702, 0.03719501, -0.9993045, 0.0005444753, 126.697
 175757919, -0.2784016, 0.1673813, -0.01268456, 0.07493365, -0.0627033, -0.0300749, 0.0323165, 0.03727257, -0.9998195, 0.001234796, 126.8317
 175957908, -0.1832015, 0.04476022, 0.01013043, 0.07493307, -0.005470518, 0.01178718, -0.0004486041, 0.03719222, -0.9991098, -0.0004236644, 126.8308
 176157769, -0.1045544, 0.02911328, -0.01861435, 0.07485479, -0.06804907, 0.07400906, -0.1983942, 0.03719724, -0.9973002, -0.002329485, 126.6982
 176357739, -0.1160765, 0.01049571, -0.2203423, 0.07485628, -0.0102166, -0.1105842, 0.02945287, 0.03719446, -0.994173, -0.001724042, 126.7008
 176558094, -0.01187983, -0.2024441, 0.03618892, 0.07491972, 0.06345581, -0.04053107, -0.06306244, 0.03725805, -0.9920244, 0.001324251, 126.8081
 176738501, 0.07890664, -0.1457188, -0.04088544, 0.07127456, 0.02441955, -0.0478591, 0.01575035, 0.03355176, -0.9918991, -0.00358486, 119.1304
 176959046, -0.02101705, -0.1209868, 0.04810292, 0.07500748, -0.08702341, 0.03947125, -0.04467413, 0.04099115, -0.9945422, -0.004785406, 126.9567
 177158961, -0.1635534, 0.007883195, -0.05037246, 0.07865092, -0.105943, 0.1219973, -0.1888199, 0.03719446, -0.9986238, 0.001412264, 133.1235
 177361762, -0.2170669, 0.1532612, -0.2100067, 0.07538425, -0.06715941, 0.1177754, -0.08425781, 0.03772467, -0.9997206, 0.007303104, 127.5944
 177541780, -0.1715275, 0.2377521, -0.1537209, 0.07166588, -0.02986901, 0.02681747, 0.05050857, 0.03347663, -0.9995652, 0.01745507, 121.3007
 177741763, -0.1548566, 0.214187, 0.05487213, 0.07113548, -0.02971873, -0.01288872, 0.1143278, 0.03719632, -0.9988152, 0.02270345, 120.403
 177962130, -0.1064899, 0.2066038, 0.1375394, 0.07864274, -0.05034862, 0.194184, -0.01014268, 0.04098147, -0.9998588, 0.01495997, 133.1096
 178162129, -0.07138794, 0.1953362, 0.0002847477, 0.07864198, -0.01259428, -0.04207255, -0.06670009, 0.0371952, -0.9946356, 0.004376739, 133.1084
 178362143, -0.02826578, -0.1914341, -0.05427452, 0.07485462, -0.02292445, -0.1466672, 0.0598423, 0.03719483, -0.9866577, -0.002271745, 126.6979
 178562146, -0.04026879, -0.3923621, 0.03235327, 0.07485478, 0.03152099, -0.04155218, -0.2062979, 0.03719464, -0.9848786, -0.006448121, 126.6982
 178762141, -0.04671954, -0.2265789, -0.1753486, 0.07485442, -0.07188002, -0.2085256, 0.1220819, 0.03719595, -0.9871944, -0.003596491, 126.6976
 178962135, -0.187091, -0.3263697, 0.1883098, 0.07485592, -0.09105024, -0.02542078, 0.05910386, 0.0371939, -0.9915602, 0.0007729225, 126.7001
 179162301, -0.1969021, -0.09649183, 0.08200242, 0.07485442, -0.07070403, 0.01711475, -0.08744826, 0.03719502, -0.9955211, -0.001468948, 126.6976
 179362114, -0.1714094, 0.01674034, -0.128451, 0.07485555, -0.0328868, -0.02158885, 0.07202768, 0.03719595, -0.9977475, 0.008429426, 126.6995
 179562360, -0.1442548, 0.03355516, 0.0454556, 0.07485536, -0.08084568, 0.1274812, -0.1070276, 0.03719464, -0.9996024, 0.01309364, 126.6992
 179742352, -0.1736574, 0.2110096, -0.09852654, 0.07113454, -0.06054302, -0.009065695, 0.03583542, 0.03347496, -0.9998018, 0.01321625, 120.4014
 179942608, -0.1455699, 0.08795567, 0.03711598, 0.07120746, -0.03577946, 0.03088091, -0.003334043, 0.03726811, -0.9997292, 0.01064497, 120.5248
 180142499, -0.1246166, 0.1415871, -0.04189865, 0.07492752, -0.06672746, 0.08494923, -0.1348791, 0.03719445, -0.9998632, 0.01249447, 126.8213
 180362531, -0.17381, 0.157349, -0.1363017, 0.07857393, -0.06241612, -0.02148411, 0.05950511, 0.04091508, -0.99932, 0.01290111, 132.9932
 180562531, -0.1590775, 0.01401501, 0.0648333, 0.07857449, -0.005567802, 0.115326, -0.1519121, 0.03719464, -0.9990994, 0.01295609, 132.9941
 180762519, -0.08905657, 0.1458206, -0.163957, 0.07485442, -0.06029355, -0.06201289, 0.05379061, 0.0371967, -0.9984373, 0.01005274, 126.6976
 180962957, -0.1412677, -0.04035785, 0.02903037, 0.0749422, -0.009152883, 0.003087232, 0.05533508, 0.03728409, -0.9982674, 0.01060237, 126.8462
 181162922, -0.1251553, 0.0188788, 0.07880861, 0.0749407, -0.09430864, 0.1302713, -0.1739593, 0.03719204, -0.999533, 0.009186552, 126.8437
 181363129, -0.1991612, 0.2050634, -0.1802015, 0.0748518, -0.1161238, 0.1093058, -0.08115789, 0.03719446, -0.9998247, 0.01778571, 126.6932
 181562952, -0.2097078, 0.1758751, -0.08114536, 0.07485443, -0.1572744, -0.02988835, 0.07687552, 0.03719557, -0.9987459, 0.02037114, 126.6976
 181762912, -0.2377891, -0.04140923, 0.01900551, 0.07485498, -0.1110421, -0.03705607, 0.02791577, 0.03719445, -0.9966028, 0.02014574, 126.6986
 181963524, -0.161589, -0.1282957, 0.01596661, 0.07494684, -0.05929591, 0.09170597, -0.116432, 0.03728931, -0.9963231, 0.005905941, 125.2684
 182143482, -0.1339376, 0.01993822, -0.1251827, 0.0712266, -0.04993425, 0.07365749, -0.1340838, 0.03347551, -0.9979835, -0.0004705446, 120.5572
 182363506, -0.1963613, 0.04546704, 0.004415989, 0.07485313, -0.1014898, -0.02150964, 0.1640266, 0.04091285, -0.9986404, 0.001035274, 126.6954
 182563527, -0.1605196, 0.01454205, 0.2093176, 0.07857376, 0.01591359, -0.1118224, 0.06664639, 0.03719539, -0.9987058, -0.00104066, 132.9929
 182743517, 0.009965642, -0.09777535, 0.06634498, 0.07113604, 0.01949206, -0.129653, 0.1403897, 0.03347514, -0.9978072, -0.006228895, 120.4039
 182964336, 0.06151857, -0.1725629, 0.08141149, 0.07491859, 0.004860723, 0.02828528, -0.12843, 0.04097887, -0.9962197, -0.006065167, 126.8062
 183166326, 0.04548054, -0.08968575, -0.1862822, 0.07910191, -0.003983302, -0.03791193, -0.08720408, 0.03765995, -0.9928052, -0.01474177, 133.8869
 183366424, 0.02019139, -0.1616426, -0.1737416, 0.07531825, 0.007494826, -0.1315891, 0.065426, 0.03719316, -0.9929248, -0.01253558, 127.4827
 183566349, -0.02256438, -0.2397662, 0.06934439, 0.07485369, 0.07283309, -0.1049136, 0.05893696, 0.03719502, -0.9941058, -0.008824426, 126.6963
 183766328, -0.02470308, -0.1675503, 0.04843477, 0.07485518, -0.03937224, -0.09100728, 0.07953737, 0.03719502, -0.9969653, -0.001000863, 126.6989
 183966348, -0.1291712, -0.0820779, 0.08344913, 0.07485554, -0.05733205, 0.004576711, 0.004992271, 0.03719521, -0.9994018, 0.008322684, 126.6995
 184146327, -0.1553862, 0.06367936, 0.01766896, 0.07113662, -0.1064634, 0.118526, -0.06601317, 0.03347589, -0.9997476, 0.01482963, 120.4049
 184346319, -0.2109199, 0.1970289, -0.06379908, 0.07113531, -0.08492694, 0.07137715, -0.02383987, 0.03719446, -0.9998274, 0.01413746, 120.4027
 184546348, -0.1701739, 0.1311352, -0.01197461, 0.07485442, 0.001001454, -0.0154842, 0.1475956, 0.03719668, -0.9996373, 0.01624762, 126.6976
 184766321, -0.08045778, 0.03557931, 0.1798773, 0.07857317, -0.0567575, 0.02085171, 0.03428912, 0.04091321, -0.9991296, 0.01450756, 132.9919
 184946338, -0.1207339, -0.002880779, 0.07639184, 0.07485201, -0.09849642, 0.003433772, -0.03137843, 0.03347514, -0.9976598, 0.007782091, 126.6935
 185146328, -0.1545392, -0.07070324, 0.01429805, 0.07113511, -0.08530977, -0.03633815, 0.01930765, 0.03719613, -0.9965606, 0.006057241, 120.4023
 185347343, -0.1155704, -0.1084331, 0.02138531, 0.07500508, 0.07294081, -0.06556679, 0.001022274, 0.03734379, -0.9966296, 0.008727139, 126.9526
 185567149, 0.005733246, -0.1103736, -0.01092825, 0.07872363, -0.01925169, -0.05762243, -0.02106677, 0.04091433, -0.9983927, 0.01218297, 133.2466
 185767142, -0.09657385, -0.04329242, -0.03826676, 0.07857468, -0.03745191, 0.1045441, -0.1016191, 0.03719557, -0.9999168, 0.009927417, 132.9944
 185967124, -0.1469298, 0.1802962, -0.1365948, 0.07485535, -0.07055784, 0.07883733, -0.03864323, 0.03719446, -0.9999376, 0.008633775, 126.6992
 186167131, -0.1942665, 0.1645196, -0.02269318, 0.07485518, -0.03227035, -0.01614146, 0.1433624, 0.03719501, -0.9997228, 0.01262548, 126.6989
 186367130, -0.1312973, 0.04801545, 0.1401047, 0.07485554, -0.02822352, 0.07738524, -0.05621381, 0.03719502, -0.9997322, 0.01283541, 126.6995
 186567302, -0.1062582, 0.09344206, -0.04510516, 0.07485536, -0.09607014, 0.04213822, -0.08676908, 0.0371952, -0.9992551, 0.009917927, 126.6992
 186767129, -0.1715303, 0.02651886, -0.07989341, 0.07485629, -0.03613959, 0.001285497, 0.01601316, 0.03719483, -0.9981135, 0.01615457, 126.7008
 186967368, -0.1360008, -0.02433199, -0.0003008051, 0.07485553, 0.03666187, -0.05580472, 0.04871444, 0.03719501, -0.9975587, 0.01574403, 126.6995
 187167107, -0.06370755, -0.08676003, 0.05184953, 0.07485554, -0.06408717, -0.05349958, 0.03859499, 0.03719502, -0.998699, 0.01285376, 126.6995
 187347567, -0.1656686, -0.04092129, 0.06095318, 0.07121733, -0.09351045, 0.07180763, -0.03646783, 0.03355734, -0.9993364, 0.01310948, 120.5415
 187550473, -0.1897485, 0.07648146, -0.07605607, 0.07168429, -0.03936052, 0.009431425, -0.02724303, 0.03765995, -0.9994627, 0.01277043, 121.3319
 187750428, -0.1154269, -0.001591749, -0.02874028, 0.07531993, 0.03003928, -0.08761243, 0.1195873, 0.03719687, -0.9988747, 0.008722561, 127.4855
 187950504, -0.04824953, -0.08270407, 0.05603781, 0.07485515, -0.01555311, 0.07028778, -0.09791034, 0.03719315, -0.9988217, 0.01314907, 126.6989
 188150423, -0.09486438, 0.05312165, -0.06708404, 0.07485331, -0.07547058, 0.004024019, -0.06512406, 0.03719519, -0.9985422, 0.01524354, 126.6957
 188350492, -0.1203408, -0.05489996, -0.0589423, 0.07493309, -0.02996691, -0.03144065, 0.07581463, 0.03727313, -0.9971887, 0.01747871, 126.8308
 188570522, -0.0668804, -0.134819, 0.1194771, 0.07865724, 0.06328546, -0.1248255, 0.0390591, 0.04091582, -0.9961838, 0.01235366, 133.1342
 188770498, 0.02915471, -0.2087204, 0.03267282, 0.07857428, -0.003556894, -0.140297, 0.08907419, 0.03719502, -0.9973866, 0.01601229, 132.9938
 188970646, -0.06546506, -0.1875353, 0.1243648, 0.07485479, -0.04404451, -0.07555153, 0.1000693, 0.03719409, -0.9992722, 0.02413755, 126.6982
 189170478, -0.144652, -0.07972489, 0.09468173, 0.07485388, -0.1015904, 0.1070667, -0.0688578, 0.0371952, -0.9996352, 0.02354627, 126.6967
 189371312, -0.2087256, 0.168897, -0.1084474, 0.07491598, -0.04723121, 0.1702064, -0.1243987, 0.03725638, -0.9995323, 0.02319415, 126.8018
 189550900, -0.1285705, 0.2438697, -0.1379188, 0.07119741, -0.03421135, 0.03397073, -0.007407835, 0.03347495, -0.9995052, 0.02093243, 120.5078
 189771531, -0.1275656, 0.09442618, -0.01621667, 0.07485478, -0.03218608, -0.06925733, 0.08412236, 0.04091508, -0.9998204, 0.01824822, 126.6982
 189971200, -0.08345263, -0.03426775, 0.02704728, 0.0785756, 0.01386592, -0.01342341, -0.08209448, 0.037195, -0.999639, 0.02386719, 132.996
 190151114, -0.01161295, -0.01663746, -0.0961066, 0.07119536, -0.02230128, 0.04466241, -0.01038978, 0.03353819, -0.9991995, 0.02623481, 118.998
 190351532, -0.06870526, 0.01628206, 0.010992, 0.07126661, -0.09375235, 0.03804485, -0.001186057, 0.03726345, -0.9988286, 0.02353832, 120.6249
 190551931, -0.1174781, -0.04113472, 0.03915104, 0.07501063, -0.03756797, -0.09325426, 0.01023257, 0.03727889, -0.9975556, 0.02216249, 126.962
 190751922, -0.0475565, -0.1994171, 0.05898509, 0.07493885, 0.03586083, -0.0942952, 0.04435644, 0.03719483, -0.9964316, 0.02016343, 126.8405
 190951977, 0.01122443, -0.2037055, 0.04765358, 0.07485497, -0.02275061, -0.09445488, -0.0176833, 0.03719594, -0.9971618, 0.02331756, 126.6986
 191151917, -0.06372932, -0.1570777, 0.03111683, 0.07485514, -0.09826808, 0.03820691, 0.05150126, 0.03719502, -0.9982292, 0.02516714, 126.6989
 191351913, -0.1721638, 0.02105908, 0.0330139, 0.07485405, -0.07723521, 0.08112246, -0.1409739, 0.03719762, -0.9995686, 0.02668324, 126.697
 191551937, -0.1873877, 0.09657031, -0.1449739, 0.07485461, -0.03063904, -0.04815069, 0.04700235, 0.03719147, -0.9996729, 0.02410361, 126.6979
 191751910, -0.1410828, 0.01992307, 0.02426537, 0.07485143, -0.06295637, 0.02286188, 0.07299034, 0.03719501, -0.999543, 0.02624699, 126.6926
 191951933, -0.1662288, 0.1118753, 0.06204048, 0.07485626, -0.1013529, 0.1154033, -0.03817476, 0.03719725, -0.9992009, 0.02710563, 126.7008
 192151902, -0.1854738, 0.1881111, -0.05229231, 0.074855, 0.004739949, -0.02171892, -0.03989355, 0.03719259, -0.9995189, 0.02672851, 126.6986
 192371941, -0.06722923, 0.05166885, -0.01036198, 0.07857336, -0.006403114, 0.0566826, -0.09609427, 0.04091638, -0.9995951, 0.02844911, 132.9922
 192555615, -0.06271231, 0.09750595, -0.09295847, 0.07539003, -0.08535502, 0.1149327, -0.09333901, 0.0340087, -0.9996813, 0.02496407, 127.6042
 192755377, -0.1574293, 0.159673, -0.08549286, 0.07166608, -0.06522785, 0.02283224, 0.05244618, 0.03719297, -0.9996758, 0.02361383, 121.301
 192955534, -0.1696659, 0.04474422, 0.06854286, 0.07485294, 0.01688743, -0.04885459, 0.009404588, 0.03719464, -0.9995813, 0.02262746, 126.6951
 193155353, -0.1081403, -0.02568769, 0.007197227, 0.0748576, -0.0376991, -0.004168414, -0.02153832, 0.03719594, -0.9993272, 0.01843724, 126.7029
 193355394, -0.1476669, -0.04759993, -0.01274233, 0.0748548, -0.1401563, 0.056592, -0.141742, 0.03719389, -0.9988353, 0.02047714, 126.6982
 193555326, -0.2368786, -0.01473765, -0.1525265, 0.07493179, -0.06500404, -0.04532214, -0.1128005, 0.03727107, -0.9989504, 0.01964224, 126.8286
 193755300, -0.1701012, -0.09652274, -0.1103076, 0.07493049, -0.03332511, -0.1118222, 0.1054216, 0.03719446, -0.9989344, 0.01878801, 126.8263
 193955319, -0.1216605, -0.1340401, 0.08256199, 0.07485443, -0.01918238, -0.1077632, 0.09052861, 0.03719557, -0.9986854, 0.01922247, 126.6976
 194155901, -0.0898639, -0.118736, 0.06410872, 0.07498255, 0.02600114, -0.04056135, -0.007441596, 0.03732148, -0.998937, 0.01458818, 125.328
 194355886, -0.02416331, -0.04008298, -0.008599029, 0.07498164, -0.06573091, 0.03637034, -0.01283066, 0.03719558, -0.9990373, 0.01737269, 126.9129
 194555921, -0.09421563, 0.02680902, -0.01005318, 0.07485648, -0.08874708, 0.05684585, -0.05128811, 0.03719446, -0.998684, 0.01759437, 126.7011
 194756105, -0.1031394, 0.007508911, -0.0335616, 0.07485459, 0.009771684, -0.03018506, -0.04011719, 0.03719502, -0.9980084, 0.01431914, 126.6979
 194976393, -0.03131063, -0.0653666, -0.03496046, 0.07857522, 0.02498757, -0.07431573, 0.1322075, 0.04091694, -0.997442, 0.01408853, 132.9954
 195155886, -0.02579919, -0.1255737, 0.1232598, 0.07485554, -0.008270395, -0.0538943, 0.0208757, 0.03347365, -0.9978863, 0.01728629, 126.6995
 195355884, -0.04365088, -0.08456873, 0.02708847, 0.07113324, -0.04213811, 0.0746147, -0.09133216, 0.03719445, -0.998266, 0.01706528, 121.9042
 195555910, -0.07852472, 0.007143972, -0.117085, 0.07485536, -0.03145508, -0.03295582, -0.05801429, 0.03719649, -0.9972742, 0.01806324, 126.6992
 195756291, -0.04458832, -0.08697614, -0.07438067, 0.07492396, 0.02398288, -0.1091691, 0.03415388, 0.03726253, -0.9970478, 0.02141221, 126.8153
 195956650, 0.01036213, -0.1278677, 0.03238068, 0.07498347, 0.03894522, 0.0285028, 0.0183008, 0.03725601, -0.997218, 0.02885938, 126.9161
 196156668, 0.0003419574, 0.002286454, 0.0252145, 0.07491542, -0.09834649, -0.06466721, 0.02909197, 0.03719631, -0.997396, 0.03473804, 126.8009
 196356641, -0.1714888, -0.05385045, 0.05538265, 0.0748544, -0.1346927, 0.05503277, -0.005821669, 0.03719465, -0.9984934, 0.03733616, 126.6976
 196557135, -0.2210457, 0.09663107, 0.01543375, 0.07491411, -0.002885252, 0.130406, -0.1439345, 0.03725303, -0.9994279, 0.03258746, 126.7986
 196757124, -0.1550896, 0.1762078, -0.1516656, 0.074913, -0.09230878, -0.05871449, 0.09978953, 0.03719613, -0.9994891, 0.02909499, 126.7968
 196956914, -0.2551281, -0.001571169, 0.08318555, 0.07485535, -0.07062214, 0.0670147, 0.1067196, 0.0371937, -0.9992164, 0.02732944, 126.6992
 197156901, -0.2158417, 0.0890825, 0.06469594, 0.07485403, -0.09492344, 0.05784355, -0.09608861, 0.0371952, -0.9989134, 0.02941968, 126.697
 197356900, -0.1930391, 0.06369483, -0.07418085, 0.07485572, -0.03692546, -0.07542946, 0.05260702, 0.03719502, -0.9977784, 0.02904328, 126.6998
 197556928, -0.1228509, -0.07831982, 0.0676374, 0.07485573, -0.0822696, 0.02445085, 0.04673006, 0.03719501, -0.9971809, 0.02963714, 126.6998
 197756904, -0.1596216, 0.0003628572, 0.0699925, 0.07485573, -0.06404322, -0.02773722, -0.04534599, 0.03719575, -0.9970527, 0.02941376, 126.6998
 197957296, -0.1209833, -0.07639256, -0.01842287, 0.07491784, -0.002603468, -0.04619267, 0.06491312, 0.03725732, -0.9968736, 0.03056635, 126.8049
 198160172, -0.05184484, -0.08294062, 0.05993944, 0.07538726, -0.04016276, -0.01814206, 0.08831307, 0.03766125, -0.996985, 0.02947745, 127.5995
 198360263, -0.08838908, -0.02911071, 0.1033605, 0.07532233, -0.07858054, 0.04062647, -0.03588605, 0.03719538, -0.9985935, 0.02646444, 127.4896
 198560380, -0.1446315, 0.05971066, -0.03321157, 0.0748563, -0.09371696, 0.1051409, -0.09591506, 0.03719575, -0.9994688, 0.02772866, 126.7008
 198760287, -0.146314, 0.1772593, -0.1413354, 0.07485703, -0.0537505, 0.01311797, 0.03519427, 0.03719557, -0.9993846, 0.02971232, 126.702
 198960191, -0.1084937, 0.08492821, -0.002179958, 0.07493085, 0.02228807, -0.06409599, 0.2148095, 0.03727108, -0.9991955, 0.02547947, 126.827
 199160110, -0.03628519, -0.01256091, 0.1902435, 0.0749303, -0.007840008, 0.03471539, 0.03127891, 0.03719409, -0.9989356, 0.02637239, 126.826
 199360124, -0.08205412, 0.05435722, 0.03674542, 0.07485424, -0.06419442, 0.05947067, -0.1864123, 0.03719502, -0.9983981, 0.02458556, 126.6973
 199560209, -0.1374817, 0.034911, -0.187316, 0.07485518, -0.1320121, 0.03837231, 0.01596572, 0.03719501, -0.9969472, 0.02708775, 126.6989
 199740131, -0.1864922, -0.02201382, 0.02326027, 0.07113657, -0.1150385, 0.004088332, 0.03077813, 0.03347867, -0.9952646, 0.02731226, 120.4049
 199960758, -0.1688061, -0.07758629, 0.0648734, 0.0749251, 0.009236299, 0.02173949, -0.07300998, 0.0409837, -0.9954758, 0.02752004, 125.232
 200160591, -0.04675351, -0.02202657, -0.0232823, 0.07864159, 0.00360263, -0.08199196, 0.1088363, 0.03719278, -0.9966584, 0.02650102, 133.1078
 200360724, -0.04980223, -0.09041302, 0.1105594, 0.07485275, -0.03300966, -0.0675652, 0.08061184, 0.03719501, -0.9978388, 0.0257035, 126.6948
 200560597, -0.05452317, -0.03180961, 0.04214627, 0.0748559, 0.01087089, 0.1079745, -0.07722461, 0.03719502, -0.9983212, 0.03075482, 126.7001
 200760588, -0.02609972, 0.1066235, -0.0511433, 0.07485498, -0.04179487, 0.02096324, -0.1304789, 0.03719502, -0.9971967, 0.0317011, 126.6986
 200940608, -0.06397025, -0.01413298, -0.1644329, 0.07113659, -0.04144282, -0.09541634, 0.00591166, 0.03347551, -0.9956954, 0.03176894, 120.4049
 201160577, -0.07560387, -0.1671869, 0.02441184, 0.07485499, 0.04009764, -0.05713727, 0.106357, 0.04091451, -0.9949942, 0.0306435, 126.6986
 201360583, -0.02408824, -0.1504927, 0.1244151, 0.07857446, -0.06549872, -0.0235852, -0.08136865, 0.0371952, -0.9951063, 0.0262864, 132.9941
 201560597, -0.1051964, -0.1163694, -0.06201649, 0.07485574, -0.0866042, -0.03372743, -0.1183564, 0.03719557, -0.9954917, 0.02679215, 126.6998
 201760578, -0.1643029, -0.1205881, -0.09649141, 0.07485478, -0.0161834, -0.01774531, -0.003232251, 0.03719445, -0.996567, 0.02303998, 126.6982
 201960609, -0.1450997, -0.06228801, 0.01267498, 0.0748544, -0.04730416, -0.06675215, 0.07136561, 0.0371965, -0.9981494, 0.02631397, 126.6976
 202160725, -0.2189113, -0.05141842, -0.005765675, 0.0748548, -0.04686277, -0.04588395, 0.08110314, 0.03719335, -0.9993109, 0.02724419, 126.6982
 202360578, -0.2276389, 0.01553764, 0.05284496, 0.07485333, -0.06339081, 0.02075043, 0.005902958, 0.03719502, -0.9996666, 0.02568684, 126.6957
 202560583, -0.2059139, 0.1074829, -0.000876863, 0.07485497, -0.1272043, 0.1480001, -0.04773534, 0.03719502, -0.9996029, 0.02665296, 126.6986
 202760583, -0.2047566, 0.2020018, -0.06700324, 0.07485496, -0.1220173, 0.09560421, -0.03933885, 0.0371952, -0.9996773, 0.02528751, 126.6986
 202960584, -0.1685346, 0.1276521, 0.006063675, 0.074855, -0.08571291, 0.06061947, -0.07306767, 0.03719483, -0.9994352, 0.02653149, 126.6986
 203160703, -0.1459799, 0.04856188, -0.08148091, 0.07485611, -0.03308206, 0.03070483, -0.02086127, 0.03719521, -0.9995074, 0.02600107, 126.7004
 203360581, -0.1015878, 0.01866792, 0.03482752, 0.07485497, -0.0009841532, -0.1150085, 0.06452695, 0.03719669, -0.9990247, 0.03334818, 126.6986
 203540588, -0.04143265, -0.09533482, 0.08287097, 0.0711353, 0.01002622, -0.1206445, 0.1761026, 0.03347663, -0.9993098, 0.0363832, 120.4027
 203760570, 0.009808702, -0.0632912, 0.1522333, 0.07485311, 0.02742943, 0.04862953, 0.03001855, 0.04091229, -0.9992418, 0.0387901, 126.6954
 203960748, 0.05290474, 0.06824308, -0.01127441, 0.07857151, 0.01418815, 0.1170927, -0.1481805, 0.03719427, -0.9990734, 0.04147547, 132.9891
 204160708, 0.04578813, 0.1062449, -0.1987137, 0.07485422, -0.03191393, -0.04864123, -0.04094684, 0.03719613, -0.9986163, 0.0397499, 126.6973
 204360575, -0.06015928, -0.06482126, -0.07140082, 0.07485572, 0.01524998, -0.0320923, 0.03235967, 0.0371939, -0.9982753, 0.04403838, 126.6998
 204560597, -0.06248045, -0.03352867, 0.04435537, 0.07485387, -0.06641684, 0.006923033, -0.0154429, 0.03719557, -0.998406, 0.04469373, 126.6967
 204760585, -0.1509347, -0.01056737, -0.0189881, 0.07485554, -0.1043896, 0.005822251, -0.02052823, 0.03719445, -0.99844, 0.04714454, 126.6995
 204960596, -0.2065235, 0.001044036, 0.004868669, 0.07485627, -0.06678471, 0.02585292, -0.01175011, 0.03719502, -0.9987897, 0.04351085, 126.7008
 205160588, -0.1851176, 0.02448502, 0.04880525, 0.07485517, -0.01497672, -0.05666395, 0.03995567, 0.03719929, -0.9991826, 0.03702777, 126.6989
 205360575, -0.1549486, -0.01321559, 0.02186986, 0.07485497, -0.04127388, -0.09625258, 0.1552139, 0.03719093, -0.9992876, 0.03760745, 126.6986
 205560602, -0.2020089, -0.03322098, 0.1098833, 0.07485087, -0.01569269, 0.04606266, 0.005850686, 0.03719781, -0.9992588, 0.03833915, 126.6916
 205760747, -0.1607852, 0.0724282, 0.0005248124, 0.0748576, -0.1404, 0.09648371, -0.1375063, 0.03719205, -0.999154, 0.03984093, 126.7029
 205960617, -0.254146, 0.07752034, -0.1389883, 0.07485221, -0.158929, 0.003718249, -0.09269564, 0.03719502, -0.9987369, 0.03700441, 126.6938
 206140583, -0.2448391, -0.04328398, -0.08203136, 0.07113678, -0.04320105, -0.04407269, -0.02886777, 0.03347812, -0.997757, 0.03748363, 120.4052
 206360577, -0.110542, -0.1274678, -0.01887366, 0.07485498, 0.05318262, -0.07732212, 0.06297403, 0.04091191, -0.9967855, 0.04032723, 126.6986
 206560596, -0.02674391, -0.1512984, 0.04749189, 0.07857262, -0.008738399, -0.1454148, 0.1357968, 0.0371952, -0.9966183, 0.04137657, 132.991
 206760581, -0.1053274, -0.1910692, 0.1145616, 0.07485498, -0.07739577, -0.07297067, 0.05522654, 0.03719595, -0.9982337, 0.04221027, 126.6986
 206960595, -0.1594472, -0.06507103, 0.04604299, 0.07485535, -0.04302591, 0.1001302, -0.07574871, 0.03719389, -0.9988891, 0.03954936, 126.6992
 207160585, -0.105788, 0.08842054, -0.1051522, 0.07485367, -0.03275184, 0.0689268, -0.1843482, 0.03719538, -0.9987965, 0.04115541, 126.6963
 207360719, -0.07709628, 0.04205475, -0.1554973, 0.07485498, -0.01708637, -0.1191369, 0.0680643, 0.03719482, -0.9975142, 0.04154223, 126.6986
 207560743, -0.03908899, -0.1706747, 0.06496381, 0.07485479, 0.06928803, -0.06047605, 0.1250722, 0.03719502, -0.9966096, 0.04396334, 126.6982
 207760585, 0.06932782, -0.1252102, 0.09933551, 0.07485481, -0.03678422, 0.01739824, -0.001789876, 0.03719483, -0.9965445, 0.04619285, 126.6982
 207960611, -0.02711927, -0.04710929, 0.003672148, 0.07485554, -0.03614086, -0.00788138, -0.06290641, 0.03719521, -0.9969865, 0.04076955, 126.6995
 208160580, -0.02936354, -0.05707886, -0.04226162, 0.07485497, 0.04425322, -0.01905877, -0.08298272, 0.03719502, -0.9975246, 0.04350942, 126.6986
 208360716, 0.02994501, -0.03068183, -0.04804785, 0.07485481, 0.05429677, -0.04876648, 0.1367772, 0.03719483, -0.9984123, 0.04025779, 126.6982
 208560597, -0.01778051, 0.001667954, 0.1544681, 0.07485478, -0.03069274, -0.1056196, 0.1542857, 0.03719557, -0.9989408, 0.04349669, 126.6982
 208760583, -0.153699, -0.01372889, 0.0798142, 0.07485498, -0.07490032, 0.07797723, 0.02275156, 0.03719465, -0.9988555, 0.04682843, 126.6986
 208940604, -0.1961891, 0.152362, -0.02339594, 0.07113492, -0.07491597, 0.1360065, -0.07483695, 0.03347979, -0.9990094, 0.04446114, 120.402
 209140568, -0.2034513, 0.1619363, -0.09390111, 0.07113529, -0.06637149, -0.04254397, -0.02155487, 0.03719129, -0.9988801, 0.04226897, 120.4027
 209340606, -0.1448366, -0.08974548, -0.003231983, 0.07485051, -0.01371732, -0.09343433, 0.03775764, 0.03719594, -0.9975318, 0.04175886, 126.691
 209560593, -0.08037098, -0.1718206, 0.03045756, 0.07857374, -0.03297171, -0.03033592, 0.02393382, 0.04091284, -0.9958434, 0.04543123, 132.9929
 209740577, -0.07372405, -0.1293658, 0.05218617, 0.07485329, -0.06455129, -0.0003621742, -0.04275589, 0.03347849, -0.995398, 0.04409949, 126.6957
 209960603, -0.1087401, -0.1011403, 0.01093992, 0.0748559, -0.06797551, -0.007723622, -0.06695256, 0.04091228, -0.9970654, 0.04354936, 126.7001
 210160579, -0.1187404, -0.04527264, -0.08839501, 0.07857151, -0.01061799, -0.0563574, 0.08731847, 0.03719446, -0.998121, 0.04355567, 132.9891
 210360586, -0.08864082, -0.04827161, 0.1062958, 0.07485424, 0.006859057, -0.04053376, 0.03198703, 0.03719482, -0.9984736, 0.04379392, 126.6973
 210560602, -0.08375675, 0.00215755, 0.01493769, 0.07485481, -0.1116706, 0.0846775, -0.07576656, 0.03719483, -0.9988641, 0.04561038, 126.6982
 210760580, -0.1971682, 0.1179375, -0.06618928, 0.07485498, -0.1216271, 0.03832475, -0.04574557, 0.03719539, -0.998886, 0.04467481, 126.6986
 210960609, -0.2050124, 0.06305769, -0.07599103, 0.07485516, -0.01296871, -0.02780198, 0.0734486, 0.03719483, -0.998605, 0.04459147, 126.6989
 211160731, -0.06599324, -0.01454269, 0.05412395, 0.07485478, 0.03157027, -0.02030932, 0.01915381, 0.03719502, -0.9978097, 0.04401526, 126.6982
 211340720, 0.01041778, -0.03629316, 0.01978682, 0.07113548, -0.04202745, -0.01535876, -0.05009753, 0.03347811, -0.9978335, 0.0396305, 120.403
 211560728, -0.07950482, -0.02024079, -0.03347002, 0.07485627, -0.07403692, 0.08615091, -0.04491679, 0.04091191, -0.9987711, 0.03867014, 126.7008
 211760586, -0.1258284, 0.08855902, -0.04557307, 0.07857189, -0.03315937, 0.01718082, -0.05626126, 0.03719501, -0.9988915, 0.04116941, 132.9897
 211960599, -0.1036651, 0.02986136, -0.1003219, 0.07485572, -0.02468163, -0.1050503, 0.09705456, 0.03719557, -0.9986839, 0.0429217, 126.6998
 212140708, -0.09029415, -0.1000661, 0.0750948, 0.07113548, 0.00779563, -0.0004341877, -0.02797476, 0.03347756, -0.9984676, 0.042198, 120.403
 212360619, -0.08885087, -0.0105626, -0.01941925, 0.07485443, -0.127036, 0.04426371, -0.0865831, 0.04091618, -0.9983984, 0.04307049, 126.6976
 212561133, -0.2055367, 0.02284824, -0.1093596, 0.07863324, -0.1188431, 0.01050399, 0.02753634, 0.03725025, -0.9983996, 0.0444425, 133.0936
 212760939, -0.1891838, -0.01407861, 0.03643372, 0.07491022, 0.005099943, -0.01844113, 0.01474403, 0.03719705, -0.9981584, 0.04245299, 126.792
 212961166, -0.05807531, -0.03488443, 0.02833389, 0.07485683, 0.02459496, -0.09008654, 0.1042633, 0.03719409, -0.9980769, 0.04726188, 126.7017
 213161180, -0.02984736, -0.07452765, 0.1308556, 0.07491878, -0.05977226, 0.06311537, -0.008535504, 0.03725974, -0.9986911, 0.04583853, 126.8065
 213361158, -0.1076274, 0.06971355, -0.03492599, 0.07491971, -0.06544863, 0.05945789, -0.04970959, 0.03719614, -0.9988948, 0.04375106, 126.8081
 213561190, -0.1378788, 0.06099498, -0.05152902, 0.07485498, -0.01362629, -0.04853367, -0.0001406599, 0.03719409, -0.9986952, 0.04548877, 126.6986
 213761175, -0.07871458, -0.02501541, 0.0108404, 0.07485387, -0.05883115, 0.04266225, -0.04304836, 0.03719483, -0.9986026, 0.05115296, 126.6967
 213961192, -0.1177218, 0.06051654, -0.06721941, 0.0748548, -0.03023208, -0.01445346, 0.08923279, 0.03719502, -0.9984884, 0.05318319, 126.6982
 214161171, -0.09557578, -0.008413089, 0.1066156, 0.07485499, 0.003037228, -0.02569858, 0.005708493, 0.03719501, -0.9986141, 0.05060414, 126.6986
 214361182, -0.06759583, -0.01446325, 0.03041096, 0.07485554, -0.09313922, 0.02322484, -0.08441465, 0.03719501, -0.998344, 0.05645352, 126.6995
 214561196, -0.1547664, 0.04046083, -0.05863089, 0.07485497, -0.01131828, 0.0103568, 0.05008319, 0.03719503, -0.9981921, 0.05984552, 126.6986
 214761391, -0.06407531, 0.04156506, 0.0825936, 0.07485499, -0.002006881, -0.01918711, 0.1970707, 0.03719614, -0.9981098, 0.06143915, 126.6986
 214961196, -0.07080955, 0.01721694, 0.2209377, 0.07485611, -0.08398403, 0.05571657, 0.03278754, 0.03719445, -0.9982906, 0.05705797, 126.7004
 215161176, -0.1555292, 0.09268714, 0.03042559, 0.07485387, -0.0704179, 0.04667852, 0.006287979, 0.03719502, -0.998467, 0.05256981, 126.6967
 215341713, -0.13692, 0.08295522, -0.01237544, 0.07113494, 0.01443227, -0.05655309, 0.04755499, 0.03347495, -0.9983526, 0.0549376, 120.402
 215561184, -0.07890852, -0.007247829, 0.02015587, 0.0748544, -0.08081821, 0.06554827, -0.05608694, 0.04091582, -0.9979957, 0.06074367, 126.6976
 215761374, -0.1560487, 0.1067915, -0.0860934, 0.07857449, -0.06419767, 0.06357512, -0.02928434, 0.03719372, -0.9979603, 0.06042705, 132.9941
 215961176, -0.136157, 0.09004399, -0.05194232, 0.07485388, 0.002888725, -0.05823052, 0.07244842, 0.03719613, -0.997892, 0.0632778, 126.6967
 216161176, -0.07651269, -0.01950921, 0.04669023, 0.07485499, -0.0566609, 0.06311678, -0.03222225, 0.0371939, -0.9977164, 0.06528918, 126.6986
 216361189, -0.1339163, 0.0830311, -0.04484661, 0.07485387, -0.05656277, 0.03817857, -0.02100299, 0.03719502, -0.9976055, 0.06648801, 126.6967
 216561405, -0.1355032, 0.07958351, -0.0263913, 0.07485556, -0.006414208, -0.02875748, 0.1085607, 0.03719502, -0.9973462, 0.06830916, 126.6995
 216761384, -0.08953127, 0.02246412, 0.1243672, 0.07485498, -0.08565953, 0.07963236, -0.008640789, 0.03719502, -0.9969043, 0.07022433, 126.6986
 216961308, -0.1536775, 0.1269457, -0.007036557, 0.07485499, -0.001497423, -0.0086859, -0.003906297, 0.03719594, -0.9969152, 0.07257126, 126.6986
 217161182, -0.08457667, 0.03584209, -0.02474738, 0.07485498, -0.0405249, 0.04393485, -0.03409711, 0.03719464, -0.9968127, 0.0740144, 126.6986
 217341577, -0.1063062, 0.07103993, -0.03643174, 0.07113455, -0.05838283, 0.03790521, 0.01285293, 0.03347514, -0.9968556, 0.07639576, 120.4014
 217541559, -0.1236332, 0.04567358, 0.02533649, 0.07113548, -0.03227822, -0.01705018, 0.02016419, 0.03719483, -0.9970164, 0.07612133, 120.403
 217761295, -0.1094464, -0.0339557, 0.05608179, 0.07857428, -0.03548193, -0.03731103, 0.006268089, 0.04091638, -0.9970608, 0.07661443, 132.9938
 217961184, -0.1032255, -0.06384095, 0.007943329, 0.07857541, -0.04996764, -0.01731858, 0.003828297, 0.03719334, -0.9971477, 0.07541589, 132.9957
 218161180, -0.1366194, -0.05503532, 0.01093996, 0.07485349, -0.04502869, -0.05164209, 0.08123508, 0.03719483, -0.9972901, 0.07258767, 126.696
 218361415, -0.1240707, -0.1037666, 0.1068205, 0.07485536, -0.05660908, -0.02455008, -0.0157182, 0.03719502, -0.9972099, 0.07305478, 126.6992
 218561192, -0.1329754, -0.09409592, 0.01554174, 0.07485497, 0.0114325, -0.05456019, 0.006977105, 0.03719669, -0.9971601, 0.07250601, 126.6986
 218761180, -0.06369372, -0.120128, 0.005792812, 0.07485498, -0.03963775, -0.002345502, 0.0107962, 0.03719409, -0.9972285, 0.07322786, 126.6986
 218961194, -0.1147555, -0.05960408, 0.01938552, 0.07485332, -0.09185752, -0.04958594, 0.07597275, 0.03719427, -0.997278, 0.072831, 126.6957
 219141557, -0.1563035, -0.09572112, 0.08102114, 0.07113474, -0.04489917, -0.01569261, -0.0480611, 0.03347588, -0.9973682, 0.07126076, 120.4017
 219361177, -0.1074357, -0.08304152, -0.05286982, 0.074855, 0.0001981735, -0.04044134, -0.06761387, 0.04091415, -0.9973965, 0.0689721, 126.6986
 219561196, -0.05818008, -0.09608528, -0.08400705, 0.07857411, -0.03188206, -0.008541802, 0.02789482, 0.03719521, -0.9974209, 0.06824756, 132.9935
 219761187, -0.09859405, -0.05716653, 0.02218997, 0.07485498, -0.04111849, -0.05071228, 0.03314089, 0.03719483, -0.9976778, 0.06434621, 126.6986
 219961403, -0.1075011, -0.08449483, 0.05256261, 0.0748548, -0.04419184, -0.01014533, 0.001132449, 0.03719521, -0.9979503, 0.06141135, 126.6982
 220161403, -0.111009, -0.04867145, 0.03629947, 0.07485499, -0.01616931, -0.05112909, -0.02336216, 0.03719483, -0.998111, 0.05642904, 126.6986
 220361190, -0.08700716, -0.09558064, -0.02741074, 0.07485481, -0.04954502, -0.03475641, -0.07614643, 0.03719781, -0.9981328, 0.05410885, 126.6982
 220561175, -0.1116668, -0.1037549, -0.08140085, 0.07485499, -0.04457364, -0.02785024, -0.09171145, 0.03719223, -0.9978904, 0.05374562, 126.6986
 220761165, -0.09607869, -0.1067313, -0.1146868, 0.07485333, 0.02753568, -0.07771032, 0.0350416, 0.03719502, -0.9972824, 0.05271487, 126.6957
 220941558, -0.03772669, -0.1579573, 0.04188736, 0.07113548, -0.05960604, 0.02853826, -0.003403911, 0.03347551, -0.9970655, 0.04859844, 120.403
 221161178, -0.1383746, -0.07211523, 0.0004885402, 0.07485497, -0.03594493, -0.07214181, 0.07286277, 0.04091452, -0.9973855, 0.04577598, 126.6986
 221361164, -0.1200099, -0.1632411, 0.05608691, 0.07857449, 0.007949054, -0.09216405, 0.09585872, 0.03719576, -0.9971304, 0.04581993, 132.9941
 221561198, -0.06374487, -0.1817697, 0.07469521, 0.07485499, -0.08618912, -0.0007147706, -0.08401251, 0.03719502, -0.9972987, 0.04608622, 126.6986
 221761188, -0.1406647, -0.08336592, -0.0848598, 0.07485425, -0.008357266, -0.04328045, -0.05459645, 0.03719519, -0.9971953, 0.04424137, 126.6973
 221961428, -0.06690048, -0.1147925, -0.07928358, 0.07485609, 0.01429687, -0.07956251, -0.0109133, 0.03719465, -0.9969329, 0.03973759, 126.7004
 222161177, -0.03981885, -0.1665117, -0.02899983, 0.07485461, -0.06715649, 0.02748953, -0.1087133, 0.03719446, -0.9968593, 0.03947888, 126.6979
 222361172, -0.1128305, -0.07340913, -0.1141379, 0.07485442, -0.03785829, -0.08483864, 0.04045979, 0.03719502, -0.9959073, 0.03748419, 126.6976
 222561186, -0.1004869, -0.1929321, 0.001628408, 0.07485498, -0.01118735, -0.07427733, 0.05257167, 0.03719558, -0.9944047, 0.03606785, 126.6986
 222761174, -0.08063046, -0.2091951, 0.08126494, 0.07485554, -0.05775873, -0.01894162, 0.01560473, 0.03719446, -0.9936911, 0.03080654, 126.6995
 222961198, -0.1304611, -0.1674709, 0.01288531, 0.0748544, -0.01475667, -0.1223084, 0.09351915, 0.03719557, -0.9927564, 0.02756173, 126.6976
 223161166, -0.09557144, -0.2305302, 0.108099, 0.07485497, -0.07874205, -0.03521045, -0.08730371, 0.03719446, -0.9940097, 0.02384621, 126.6986
 223361180, -0.1699109, -0.1469022, -0.09207465, 0.07485554, -0.06565069, -0.05756789, -0.04758531, 0.03719557, -0.9938858, 0.02372769, 126.6995
 223561192, -0.1487301, -0.1698313, -0.05623122, 0.07485367, -0.0312303, -0.06657782, 0.1229256, 0.03719335, -0.9930082, 0.02248193, 126.6963
 223761398, -0.1152412, -0.1898982, 0.09860401, 0.07485444, -0.07226077, 0.01264722, -0.05253315, 0.03719688, -0.9931642, 0.0208767, 126.6976
 223961186, -0.142359, -0.1229038, -0.06393205, 0.07485612, -0.02529982, -0.08853702, -0.01215952, 0.03719427, -0.9917877, 0.01660977, 126.7004
 224161391, -0.09366138, -0.2275838, -0.00527757, 0.07485703, 0.01491464, -0.1181359, 0.03183534, 0.03719557, -0.99027, 0.01555582, 126.702
 224341532, -0.04076875, -0.2289971, 0.01978672, 0.07113548, -0.08000066, -0.004702171, -0.05137754, 0.03347737, -0.991227, 0.01826926, 120.403
 224561200, -0.1377145, -0.1191526, -0.06205096, 0.07485443, -0.004635975, -0.1166664, 0.04981505, 0.04091266, -0.9912908, 0.02587274, 126.6976
 224761177, -0.04816945, -0.2102105, 0.02849423, 0.07857224, 0.01750481, -0.06597159, -0.02338956, 0.03719446, -0.9916565, 0.02449319, 132.9903
