TimeUS,CGpN,CGpE,CGpD,CGpe,PGpN,PGpE,PGpD,PGpe
 140956331, 0.029, 0.021, 0.074, 1.588, 0.019, 0.045, 0.045, 1.59
 141156333, 0, 0.009000001, 0.002, 1.585, 0.029, 0.021, 0.074, 1.588
 141356311, 0.028, -0.043, 0.097, 1.583, 0, 0.009000001, 0.002, 1.585
 141556332, -0.011, -0.005, -0.036, 1.581, 0.028, -0.043, 0.097, 1.583
 141756317, 0.012, -0.015, -0.034, 1.579, -0.011, -0.005, -0.036, 1.581
 141956375, 0.046, 0.03, 0.025, 1.577, 0.012, -0.015, -0.034, 1.579
 142156432, 0.01, -0.009000001, 0.072, 1.576, 0.046, 0.03, 0.025, 1.577
 142356303, -0.005, 0.011, -0.023, 1.575, 0.01, -0.009000001, 0.072, 1.576
 142556327, -0.005, -0.019, -0.048, 1.574, -0.005, 0.011, -0.023, 1.575
 142756292, -0.003, -0.06500001, 0.023, 1.574, -0.005, -0.019, -0.048, 1.574
 142956334, -0.032, -0.058, 0.072, 1.573, -0.003, -0.06500001, 0.023, 1.574
 143156308, 0.041, 0.012, -0.058, 1.572, -0.032, -0.058, 0.072, 1.573
 143356314, 0.017, 0.032, -0.125, 1.571, 0.041, 0.012, -0.058, 1.572
 143556592, 0.002, -0.009000001, -0.004, 1.57, 0.017, 0.032, -0.125, 1.571
 143756328, -0.003, 0.029, -0.045, 1.568, 0.002, -0.009000001, -0.004, 1.57
 143956485, 0.011, -0.067, 0.055, 1.567, -0.003, 0.029, -0.045, 1.568
 144156310, 0.015, 0.094, -0.013, 1.566, 0.011, -0.067, 0.055, 1.567
 144356319, 0.002, -0.045, -0.07700001, 1.565, 0.015, 0.094, -0.013, 1.566
 144556350, 0.007, -0.004, -0.07, 1.564, 0.002, -0.045, -0.07700001, 1.565
 144775858, -0.131, -0.115, -0.347, 1.563, 0.007, -0.004, -0.07, 1.564
 144956344, -0.006, -0.009000001, -0.012, 1.562, -0.131, -0.115, -0.347, 1.563
 145156341, -0.009000001, -0.029, -0.055, 1.56, -0.006, -0.009000001, -0.012, 1.562
 145356317, -0.035, -0.051, -0.157, 1.559, -0.009000001, -0.029, -0.055, 1.56
 145556387, -0.046, -0.043, -0.009000001, 1.557, -0.035, -0.051, -0.157, 1.559
 145756507, -0.002, -0.002, -0.143, 1.556, -0.046, -0.043, -0.009000001, 1.557
 145956353, -0.026, 0.062, -0.014, 1.554, -0.002, -0.002, -0.143, 1.556
 146156321, 0.001, -0.082, 0.02, 1.552, -0.026, 0.062, -0.014, 1.554
 146335872, -0.021, -0.018, 0.07300001, 1.551, 0.001, -0.082, 0.02, 1.552
 146556344, 0.025, 0.049, 0.001, 1.55, -0.021, -0.018, 0.07300001, 1.551
 146756334, -0.034, -0.013, 0.004, 1.548, 0.025, 0.049, 0.001, 1.55
 146956343, -0.036, -0.007, -0.023, 1.547, -0.034, -0.013, 0.004, 1.548
 147156367, 0.03, -0.038, 0, 1.546, -0.036, -0.007, -0.023, 1.547
 147356366, -0.038, 0.036, 0.034, 1.546, 0.03, -0.038, 0, 1.546
 147556538, -0.023, 0.012, -0.078, 1.544, -0.038, 0.036, 0.034, 1.546
 147756647, -0.016, -0.019, -0.015, 1.543, -0.023, 0.012, -0.078, 1.544
 147956382, -0.017, -0.049, 0, 1.542, -0.016, -0.019, -0.015, 1.543
 148156346, 0.006, 0.005, 0.028, 1.542, -0.017, -0.049, 0, 1.542
 148356419, -0.05, 0.002, -0.011, 1.542, 0.006, 0.005, 0.028, 1.542
 148556347, -0.09200001, -0.167, -0.126, 1.542, -0.05, 0.002, -0.011, 1.542
 148756366, -0.18, -0.328, -0.263, 1.543, -0.09200001, -0.167, -0.126, 1.542
 148935929, -0.566, -0.7970001, -0.371, 1.542, -0.18, -0.328, -0.263, 1.543
 149156343, -0.7410001, -1.038, -0.225, 1.541, -0.566, -0.7970001, -0.371, 1.542
 149356472, -0.854, -1.052, -1.048, 1.541, -0.7410001, -1.038, -0.225, 1.541
 149556359, -0.9490001, -1.093, -0.8330001, 1.54, -0.854, -1.052, -1.048, 1.541
 149756331, -1.205, -1.272, -1.04, 1.539, -0.9490001, -1.093, -0.8330001, 1.54
 149956375, -1.288, -1.064, -1.004, 1.541, -1.205, -1.272, -1.04, 1.539
 150156342, -1.502, -0.978, -0.9910001, 1.54, -1.288, -1.064, -1.004, 1.541
 150356332, -1.367, -1.218, -0.671, 1.543, -1.502, -0.978, -0.9910001, 1.54
 150556359, -0.9720001, -1.419, -0.64, 1.544, -1.367, -1.218, -0.671, 1.543
 150756343, -0.582, -1.828, -0.398, 1.541, -0.9720001, -1.419, -0.64, 1.544
 150956361, -0.6020001, -2.036, -0.766, 1.54, -0.582, -1.828, -0.398, 1.541
 151156466, 0.124, -2.279, -0.629, 1.54, -0.6020001, -2.036, -0.766, 1.54
 151356351, 0.122, -2.62, -0.712, 1.537, 0.124, -2.279, -0.629, 1.54
 151535941, 0.382, -2.906, -0.355, 1.534, 0.122, -2.62, -0.712, 1.537
 151756338, 0.525, -2.978, -0.334, 1.531, 0.382, -2.906, -0.355, 1.534
 151956680, 0.742, -3.092, -0.118, 1.528, 0.525, -2.978, -0.334, 1.531
 152175933, 0.8340001, -2.977, -0.192, 1.519, 0.742, -3.092, -0.118, 1.528
 152356333, 0.816, -3.066, -0.166, 1.512, 0.8340001, -2.977, -0.192, 1.519
 152556452, 0.751, -2.999, -0.266, 1.503, 0.816, -3.066, -0.166, 1.512
 152756335, 0.832, -2.978, -0.288, 1.493, 0.751, -2.999, -0.266, 1.503
 152956489, 0.554, -2.864, -0.209, 1.484, 0.832, -2.978, -0.288, 1.493
 153156374, 0.551, -2.947, -0.387, 1.478, 0.554, -2.864, -0.209, 1.484
 153356332, 0.393, -2.79, -0.306, 1.475, 0.551, -2.947, -0.387, 1.478
 153556346, 0.215, -2.843, -0.415, 1.469, 0.393, -2.79, -0.306, 1.475
 153756459, 0.072, -2.779, -0.344, 1.463, 0.215, -2.843, -0.415, 1.469
 153956429, 0.121, -2.963, -0.172, 1.457, 0.072, -2.779, -0.344, 1.463
 154136069, 0.137, -3.036, -0.293, 1.453, 0.121, -2.963, -0.172, 1.457
 154356482, 0.156, -2.929, -0.199, 1.448, 0.137, -3.036, -0.293, 1.453
 154556443, 0.151, -2.452, -0.306, 1.442, 0.156, -2.929, -0.199, 1.448
 154756585, 0.174, -2.365, -0.254, 1.44, 0.151, -2.452, -0.306, 1.442
 154956490, 0.238, -1.698, -0.174, 1.438, 0.174, -2.365, -0.254, 1.44
 155156451, 0.39, -1.448, -0.3, 1.434, 0.238, -1.698, -0.174, 1.438
 155356447, 0.237, -1.335, -0.265, 1.436, 0.39, -1.448, -0.3, 1.434
 155556514, 0.227, -1.217, -0.312, 1.436, 0.237, -1.335, -0.265, 1.436
 155756420, 0.124, -0.8850001, -0.234, 1.436, 0.227, -1.217, -0.312, 1.436
 155956474, 0.147, -0.837, -0.269, 1.435, 0.124, -0.8850001, -0.234, 1.436
 156156774, 0.119, -0.703, -0.414, 1.432, 0.147, -0.837, -0.269, 1.435
 156356415, -0.038, -0.785, -0.359, 1.433, 0.119, -0.703, -0.414, 1.432
 156556614, 0.105, -0.643, -0.498, 1.435, -0.038, -0.785, -0.359, 1.433
 156756832, -0.09, -0.8890001, -0.393, 1.436, 0.105, -0.643, -0.498, 1.435
 156957183, -0.102, -0.9720001, -0.37, 1.437, -0.09, -0.8890001, -0.393, 1.436
 157157290, 0.039, -0.7870001, -0.418, 1.44, -0.102, -0.9720001, -0.37, 1.437
 157357203, 0.003, -0.8650001, -0.538, 1.439, 0.039, -0.7870001, -0.418, 1.44
 157557310, -0.161, -0.7, -0.473, 1.437, 0.003, -0.8650001, -0.538, 1.439
 157757146, -0.174, -0.439, -0.149, 1.438, -0.161, -0.7, -0.473, 1.437
 157957175, -0.009000001, -0.426, -0.25, 1.442, -0.174, -0.439, -0.149, 1.438
 158157156, -0.079, -0.218, -0.175, 1.444, -0.009000001, -0.426, -0.25, 1.442
 158357374, -0.064, -0.132, -0.08400001, 1.446, -0.079, -0.218, -0.175, 1.444
 158557562, -0.114, -0.105, -0.181, 1.445, -0.064, -0.132, -0.08400001, 1.446
 158757543, -0.07600001, 0.012, -0.038, 1.447, -0.114, -0.105, -0.181, 1.445
 158957567, -0.119, 0.048, -0.02, 1.451, -0.07600001, 0.012, -0.038, 1.447
 159157549, -0.161, 0.239, -0.178, 1.453, -0.119, 0.048, -0.02, 1.451
 159337541, -0.153, 0.267, -0.181, 1.455, -0.161, 0.239, -0.178, 1.453
 159557562, -0.087, 0.216, -0.116, 1.457, -0.153, 0.267, -0.181, 1.455
 159757547, -0.032, 0.196, -0.131, 1.459, -0.087, 0.216, -0.116, 1.457
 159957918, -0.018, 0.125, 0.023, 1.46, -0.032, 0.196, -0.131, 1.459
 160138595, -0.01, 0.106, 0.145, 1.462, -0.018, 0.125, 0.023, 1.46
 160358747, -0.019, 0.264, 0.103, 1.463, -0.01, 0.106, 0.145, 1.462
 160558598, -0.045, 0.359, 0.031, 1.465, -0.019, 0.264, 0.103, 1.463
 160758589, -0.086, 0.285, -0.024, 1.466, -0.045, 0.359, 0.031, 1.465
 160958607, 0.002, 0.254, 0.175, 1.465, -0.086, 0.285, -0.024, 1.466
 161158586, 0.019, 0.152, 0.12, 1.461, 0.002, 0.254, 0.175, 1.465
 161358594, -0.237, 0.153, 0.129, 1.459, 0.019, 0.152, 0.12, 1.461
 161558609, -0.151, 0.162, 0.183, 1.457, -0.237, 0.153, 0.129, 1.459
 161758594, -0.174, 0.188, -0.071, 1.455, -0.151, 0.162, 0.183, 1.457
 161958746, -0.012, 0.239, 0.057, 1.453, -0.174, 0.188, -0.071, 1.455
 162158917, 0.199, 0.244, 0.018, 1.45, -0.012, 0.239, 0.057, 1.453
 162358906, 0.211, -0.018, -0.055, 1.447, 0.199, 0.244, 0.018, 1.45
 162558937, 0.325, -0.198, -0.011, 1.444, 0.211, -0.018, -0.055, 1.447
 162758910, 0.464, -0.234, -0.219, 1.442, 0.325, -0.198, -0.011, 1.444
 162958939, 0.386, -0.315, -0.107, 1.441, 0.464, -0.234, -0.219, 1.442
 163159316, 0.367, -0.31, -0.155, 1.439, 0.386, -0.315, -0.107, 1.441
 163359638, 0.263, -0.524, -0.136, 1.437, 0.367, -0.31, -0.155, 1.439
 163562777, 0.11, -0.501, -0.137, 1.427, 0.263, -0.524, -0.136, 1.437
 163762150, -0.061, -0.368, -0.06500001, 1.419, 0.11, -0.501, -0.137, 1.427
 163942146, -0.154, -0.279, -0.042, 1.412, -0.061, -0.368, -0.06500001, 1.419
 164142650, -0.198, -0.101, 0.005, 1.406, -0.154, -0.279, -0.042, 1.412
 164542518, -0.192, 0.033, 0.057, 1.39, -0.186, -0.057, 0.158, 1.399
 164762582, -0.074, 0.046, 0.058, 1.383, -0.192, 0.033, 0.057, 1.39
 164962901, -0.047, 0.027, 0.09, 1.377, -0.074, 0.046, 0.058, 1.383
 165162902, 0.031, 0.036, 0.031, 1.371, -0.047, 0.027, 0.09, 1.377
 165362899, 0.004, 0, -0.035, 1.367, 0.031, 0.036, 0.031, 1.371
 165562900, 0.011, -0.005, -0.072, 1.365, 0.004, 0, -0.035, 1.367
 165765724, 0.011, 0.108, -0.054, 1.363, 0.011, -0.005, -0.072, 1.365
 165945744, 0.036, 0.09100001, -0.051, 1.364, 0.011, 0.108, -0.054, 1.363
 166145865, 0.036, 0.191, 0.051, 1.365, 0.036, 0.09100001, -0.051, 1.364
 166346254, 0.067, 0.219, 0.034, 1.368, 0.036, 0.191, 0.051, 1.365
 166546466, -0.018, 0.234, -0.002, 1.366, 0.067, 0.219, 0.034, 1.368
 166766650, 0.017, 0.32, 0.08400001, 1.367, -0.018, 0.234, -0.002, 1.366
 166946478, -0.038, 0.266, 0.132, 1.365, 0.017, 0.32, 0.08400001, 1.367
 167146496, -0.157, 0.125, 0.078, 1.364, -0.038, 0.266, 0.132, 1.365
 167346470, -0.185, 0.093, 0.011, 1.361, -0.157, 0.125, 0.078, 1.364
 167546502, -0.202, 0.025, 0.011, 1.356, -0.185, 0.093, 0.011, 1.361
 167746487, -0.264, -0.07300001, -0.032, 1.354, -0.202, 0.025, 0.011, 1.356
 167946637, -0.157, -0.122, -0.132, 1.353, -0.264, -0.07300001, -0.032, 1.354
 168146473, -0.138, -0.152, -0.044, 1.351, -0.157, -0.122, -0.132, 1.353
 168346451, -0.06, -0.13, -0.105, 1.351, -0.138, -0.152, -0.044, 1.351
 168546494, -0.029, -0.179, -0.011, 1.351, -0.06, -0.13, -0.105, 1.351
 168746471, -0.128, -0.177, 0.003, 1.354, -0.029, -0.179, -0.011, 1.351
 168966774, -0.039, -0.166, 0.08800001, 1.355, -0.128, -0.177, 0.003, 1.354
 169166744, 0.05, -0.114, -0.003, 1.352, -0.039, -0.166, 0.08800001, 1.355
 169346465, 0.107, -0.125, 0.058, 1.35, 0.05, -0.114, -0.003, 1.352
 169546905, -0.035, -0.159, 0.125, 1.347, 0.107, -0.125, 0.058, 1.35
 169747078, 0.015, -0.286, -0.068, 1.346, -0.035, -0.159, 0.125, 1.347
 169947162, -0.026, -0.126, -0.008, 1.345, 0.015, -0.286, -0.068, 1.346
 170149950, -0.085, -0.183, 0.028, 1.343, -0.026, -0.126, -0.008, 1.345
 170350394, 0.055, -0.233, -0.09100001, 1.341, -0.085, -0.183, 0.028, 1.343
 170550897, 0.042, -0.229, -0.015, 1.339, 0.055, -0.233, -0.09100001, 1.341
 170750873, 0.029, -0.219, -0.075, 1.337, 0.042, -0.229, -0.015, 1.339
 170950903, -0.059, -0.13, -0.031, 1.337, 0.029, -0.219, -0.075, 1.337
 171150867, -0.07, -0.243, -0.041, 1.337, -0.059, -0.13, -0.031, 1.337
 171350849, -0.143, -0.106, -0.132, 1.34, -0.07, -0.243, -0.041, 1.337
 171550832, -0.167, -0.022, -0.01, 1.34, -0.143, -0.106, -0.132, 1.34
 171751043, -0.154, -0.03, 0.023, 1.339, -0.167, -0.022, -0.01, 1.34
 171951159, -0.244, -0.064, 0.011, 1.339, -0.154, -0.03, 0.023, 1.339
 172151142, -0.2, 0.023, -0.113, 1.339, -0.244, -0.064, 0.011, 1.339
 172351116, -0.203, -0.044, -0.118, 1.339, -0.2, 0.023, -0.113, 1.339
 172551555, -0.148, 0.015, -0.204, 1.339, -0.203, -0.044, -0.118, 1.339
 172751563, -0.029, 0.134, -0.074, 1.34, -0.148, 0.015, -0.204, 1.339
 172951579, 0.01, 0.108, -0.053, 1.341, -0.029, 0.134, -0.074, 1.34
 173151556, 0.163, -0.111, -0.051, 1.342, 0.01, 0.108, -0.053, 1.341
 173351547, 0.155, -0.196, -0.087, 1.345, 0.163, -0.111, -0.051, 1.342
 173551718, 0.204, -0.224, 0.05, 1.347, 0.155, -0.196, -0.087, 1.345
 173752164, 0.106, -0.328, 0.171, 1.35, 0.204, -0.224, 0.05, 1.347
 173971960, 0.138, -0.21, 0.145, 1.352, 0.106, -0.328, 0.171, 1.35
 174151959, 0.064, -0.07700001, 0.109, 1.354, 0.138, -0.21, 0.145, 1.352
 174351921, 0.23, 0.059, -0.037, 1.356, 0.064, -0.07700001, 0.109, 1.354
 174556951, 0.204, 0.232, 0.022, 1.356, 0.23, 0.059, -0.037, 1.356
 174756922, 0.116, 0.247, -0.086, 1.356, 0.204, 0.232, 0.022, 1.356
 174956961, 0.157, 0.257, 0.009000001, 1.357, 0.116, 0.247, -0.086, 1.356
 175157344, 0.113, 0.106, -0.075, 1.357, 0.157, 0.257, 0.009000001, 1.357
 175357334, 0, -0.037, 0.016, 1.357, 0.113, 0.106, -0.075, 1.357
 175557361, 0.119, -0.022, -0.016, 1.355, 0, -0.037, 0.016, 1.357
 175757919, -0.071, -0.003, 0.032, 1.354, 0.119, -0.022, -0.016, 1.355
 175957908, -0.06, 0.06500001, 0.053, 1.354, -0.071, -0.003, 0.032, 1.354
 176157769, -0.172, 0.082, -0.135, 1.354, -0.06, 0.06500001, 0.053, 1.354
 176357739, -0.142, 0.006, -0.015, 1.355, -0.172, 0.082, -0.135, 1.354
 176558094, -0.074, -0.024, -0.058, 1.355, -0.142, 0.006, -0.015, 1.355
 176738501, -0.07700001, -0.113, 0.059, 1.357, -0.074, -0.024, -0.058, 1.355
 176959046, -0.016, -0.171, -0.046, 1.358, -0.07700001, -0.113, 0.059, 1.357
 177158961, 0.079, -0.194, 0.101, 1.356, -0.016, -0.171, -0.046, 1.358
 177361762, 0.054, -0.254, 0.108, 1.354, 0.079, -0.194, 0.101, 1.356
 177541780, 0.027, -0.205, 0.021, 1.353, 0.054, -0.254, 0.108, 1.354
 177741763, 0.07300001, 0.001, 0.04, 1.352, 0.027, -0.205, 0.021, 1.353
 177962130, 0.09500001, 0.169, -0.164, 1.347, 0.07300001, 0.001, 0.04, 1.352
 178162129, 0.055, 0.279, -0.151, 1.342, 0.09500001, 0.169, -0.164, 1.347
 178362143, 0.093, 0.233, -0.074, 1.339, 0.055, 0.279, -0.151, 1.342
 178562146, 0.183, -0.001, -0.006, 1.335, 0.093, 0.233, -0.074, 1.339
 178762141, 0.074, -0.266, -0.134, 1.333, 0.183, -0.001, -0.006, 1.335
 178962135, 0.196, -0.269, 0.07700001, 1.328, 0.074, -0.266, -0.134, 1.333
 179162301, 0.137, -0.359, 0.04, 1.326, 0.196, -0.269, 0.07700001, 1.328
 179362114, 0.032, -0.434, 0.082, 1.325, 0.137, -0.359, 0.04, 1.326
 179562360, 0.03, -0.412, 0.005, 1.324, 0.032, -0.434, 0.082, 1.325
 179742352, 0.028, -0.361, -0.016, 1.322, 0.03, -0.412, 0.005, 1.324
 179942608, 0.035, -0.316, -0.078, 1.318, 0.028, -0.361, -0.016, 1.322
 180142499, -0.002, -0.172, 0.022, 1.313, 0.035, -0.316, -0.078, 1.318
 180362531, 0.036, -0.09900001, 0.021, 1.312, -0.002, -0.172, 0.022, 1.313
 180562531, -0.043, -0.009000001, -0.055, 1.312, 0.036, -0.09900001, 0.021, 1.312
 180762519, 0.011, -0.032, 0.033, 1.312, -0.043, -0.009000001, -0.055, 1.312
 180962957, -0.032, 0.033, 0.063, 1.312, 0.011, -0.032, 0.033, 1.312
 181162922, -0.083, 0.132, -0.089, 1.311, -0.032, 0.033, 0.063, 1.312
 181363129, -0.17, 0.19, -0.044, 1.308, -0.083, 0.132, -0.089, 1.311
 181562952, -0.192, 0.22, -0.07, 1.307, -0.17, 0.19, -0.044, 1.308
 181762912, -0.24, 0.256, 0.012, 1.309, -0.192, 0.22, -0.07, 1.307
 181963524, -0.111, 0.243, -0.161, 1.313, -0.24, 0.256, 0.012, 1.309
 182143482, -0.208, 0.131, -0.115, 1.315, -0.111, 0.243, -0.161, 1.313
 182363506, -0.171, 0.116, 0.007, 1.317, -0.208, 0.131, -0.115, 1.315
 182563527, -0.314, 0.155, 0.111, 1.32, -0.171, 0.116, 0.007, 1.317
 182743517, -0.192, 0.196, 0.037, 1.32, -0.314, 0.155, 0.111, 1.32
 182964336, -0.208, 0.236, 0.146, 1.317, -0.192, 0.196, 0.037, 1.32
 183166326, -0.006, 0.094, -0.01, 1.314, -0.208, 0.236, 0.146, 1.317
 183366424, 0.145, -0.003, 0.046, 1.313, -0.006, 0.094, -0.01, 1.314
 183566349, 0.131, -0.122, -0.015, 1.313, 0.145, -0.003, 0.046, 1.313
 183766328, 0.208, -0.19, -0.039, 1.314, 0.131, -0.122, -0.015, 1.313
 183966348, 0.191, -0.269, -0.021, 1.314, 0.208, -0.19, -0.039, 1.314
 184146327, 0.235, -0.23, -0.135, 1.315, 0.191, -0.269, -0.021, 1.314
 184346319, 0.114, -0.194, -0.09100001, 1.316, 0.235, -0.23, -0.135, 1.315
 184546348, 0.062, -0.07700001, -0.023, 1.317, 0.114, -0.194, -0.09100001, 1.316
 184766321, 0.106, 0.005, -0.07300001, 1.319, 0.062, -0.07700001, -0.023, 1.317
 184946338, 0.137, -0.035, -0.079, 1.321, 0.106, 0.005, -0.07300001, 1.319
 185146328, 0.128, -0.13, -0.045, 1.323, 0.137, -0.035, -0.079, 1.321
 185347343, 0.164, -0.147, 0.02, 1.325, 0.128, -0.13, -0.045, 1.323
 185567149, 0.156, -0.188, 0.042, 1.327, 0.164, -0.147, 0.02, 1.325
 185767142, 0.109, -0.195, -0.09900001, 1.329, 0.156, -0.188, 0.042, 1.327
 185967124, 0.146, -0.135, -0.089, 1.331, 0.109, -0.195, -0.09900001, 1.329
 186167131, 0.046, -0.075, -0.08400001, 1.333, 0.146, -0.135, -0.089, 1.331
 186367130, 0.05, 0.074, -0.056, 1.335, 0.046, -0.075, -0.08400001, 1.333
 186567302, 0.036, 0.132, -0.106, 1.336, 0.05, 0.074, -0.056, 1.335
 186767129, 0.112, 0.157, -0.021, 1.337, 0.036, 0.132, -0.106, 1.336
 186967368, 0.032, 0.026, -0.009000001, 1.337, 0.112, 0.157, -0.021, 1.337
 187167107, -0.047, 0.027, 0.006, 1.337, 0.032, 0.026, -0.009000001, 1.337
 187347567, 0.006, 0.186, 0.087, 1.337, -0.047, 0.027, 0.006, 1.337
 187550473, -0.037, 0.072, -0.05, 1.337, 0.006, 0.186, 0.087, 1.337
 187750428, -0.082, 0.037, -0.027, 1.338, -0.037, 0.072, -0.05, 1.337
 187950504, -0.081, 0.144, -0.048, 1.338, -0.082, 0.037, -0.027, 1.338
 188150423, -0.097, 0.153, -0.028, 1.339, -0.081, 0.144, -0.048, 1.338
 188350492, -0.103, -0.012, -0.072, 1.339, -0.097, 0.153, -0.028, 1.339
 188570522, -0.085, 0.09500001, -0.075, 1.339, -0.103, -0.012, -0.072, 1.339
 188770498, -0.003, -0.011, 0.07300001, 1.34, -0.085, 0.09500001, -0.075, 1.339
 188970646, -0.032, -0.068, 0.061, 1.34, -0.003, -0.011, 0.07300001, 1.34
 189170478, -0.039, -0.169, 0.094, 1.34, -0.032, -0.068, 0.061, 1.34
 189371312, -0.051, -0.164, 0.035, 1.339, -0.039, -0.169, 0.094, 1.34
 189550900, -0.062, 0.016, -0.009000001, 1.339, -0.051, -0.164, 0.035, 1.339
 189771531, -0.155, -0.058, 0.026, 1.339, -0.062, 0.016, -0.009000001, 1.339
 189971200, -0.09, 0.038, -0.16, 1.339, -0.155, -0.058, 0.026, 1.339
 190151114, -0.066, 0.086, -0.139, 1.339, -0.09, 0.038, -0.16, 1.339
 190351532, -0.049, 0.178, -0.117, 1.338, -0.066, 0.086, -0.139, 1.339
 190551931, 0.085, 0.03, -0.054, 1.338, -0.049, 0.178, -0.117, 1.338
 190751922, 0.09100001, -0.005, 0.115, 1.342, 0.085, 0.03, -0.054, 1.338
 190951977, 0.068, -0.111, 0.002, 1.345, 0.09100001, -0.005, 0.115, 1.342
 191151917, 0.198, -0.177, 0.109, 1.342, 0.068, -0.111, 0.002, 1.345
 191351913, 0.198, -0.164, 0.094, 1.341, 0.198, -0.177, 0.109, 1.342
 191551937, 0.178, -0.273, 0.01, 1.336, 0.198, -0.164, 0.094, 1.341
 191751910, 0.165, -0.22, 0.028, 1.335, 0.178, -0.273, 0.01, 1.336
 191951933, -0.042, -0.085, 0.086, 1.335, 0.165, -0.22, 0.028, 1.335
 192151902, 0.08400001, -0.027, -0.093, 1.336, -0.042, -0.085, 0.086, 1.335
 192371941, 0.121, 0.036, -0.02, 1.337, 0.08400001, -0.027, -0.093, 1.336
 192555615, 0.071, 0.141, -0.004, 1.337, 0.121, 0.036, -0.02, 1.337
 192755377, 0.139, 0.103, 0.007, 1.338, 0.071, 0.141, -0.004, 1.337
 192955534, 0.028, 0.157, -0.063, 1.338, 0.139, 0.103, 0.007, 1.338
 193155353, 0.018, 0.268, -0.054, 1.337, 0.028, 0.157, -0.063, 1.338
 193355394, 0.056, 0.229, 0.021, 1.337, 0.018, 0.268, -0.054, 1.337
 193555326, -0.083, 0.218, -0.005, 1.338, 0.056, 0.229, 0.021, 1.337
 193755300, -0.16, 0.214, 0.025, 1.34, -0.083, 0.218, -0.005, 1.338
 193955319, -0.118, 0.112, -0.06900001, 1.342, -0.16, 0.214, 0.025, 1.34
 194155901, -0.148, 0.131, -0.036, 1.343, -0.118, 0.112, -0.06900001, 1.342
 194355886, -0.128, 0.192, -0.009000001, 1.344, -0.148, 0.131, -0.036, 1.343
 194555921, -0.123, 0.179, 0.079, 1.345, -0.128, 0.192, -0.009000001, 1.344
 194756105, -0.071, 0.11, 0.023, 1.346, -0.123, 0.179, 0.079, 1.345
 194976393, -0.062, 0.089, 0.053, 1.341, -0.071, 0.11, 0.023, 1.346
 195155886, 0.002, 0.081, 0.046, 1.335, -0.062, 0.089, 0.053, 1.341
 195355884, -0.045, -0.031, -0.022, 1.331, 0.002, 0.081, 0.046, 1.335
 195555910, 0.003, -0.087, -0.053, 1.328, -0.045, -0.031, -0.022, 1.331
 195756291, -0.012, -0.017, -0.033, 1.325, 0.003, -0.087, -0.053, 1.328
 195956650, 0.121, -0.159, -0.04, 1.322, -0.012, -0.017, -0.033, 1.325
 196156668, 0.155, -0.154, 0.024, 1.32, 0.121, -0.159, -0.04, 1.322
 196356641, 0.289, -0.173, 0.078, 1.32, 0.155, -0.154, 0.024, 1.32
 196557135, 0.243, -0.119, 0.128, 1.32, 0.289, -0.173, 0.078, 1.32
 196757124, 0.041, -0.082, 0.029, 1.322, 0.243, -0.119, 0.128, 1.32
 196956914, 0.113, -0.005, 0.047, 1.324, 0.041, -0.082, 0.029, 1.322
 197156901, 0.075, -0.023, -0.144, 1.323, 0.113, -0.005, 0.047, 1.324
 197356900, -0.042, 0.033, 0.019, 1.323, 0.075, -0.023, -0.144, 1.323
 197556928, -0.051, 0.056, -0.009000001, 1.32, -0.042, 0.033, 0.019, 1.323
 197756904, -0.046, -0.029, 0.045, 1.316, -0.051, 0.056, -0.009000001, 1.32
 197957296, -0.07700001, 0.025, 0.18, 1.315, -0.046, -0.029, 0.045, 1.316
 198160172, -0.087, 0.019, 0.11, 1.313, -0.07700001, 0.025, 0.18, 1.315
 198360263, -0.09, 0.01, 0.159, 1.312, -0.087, 0.019, 0.11, 1.313
 198560380, -0.056, -0.062, 0.193, 1.31, -0.09, 0.01, 0.159, 1.312
 198760287, -0.071, -0.054, 0.122, 1.31, -0.056, -0.062, 0.193, 1.31
 198960191, -0.033, 0.037, -0.039, 1.311, -0.071, -0.054, 0.122, 1.31
 199160110, -0.054, 0.116, -0.053, 1.312, -0.033, 0.037, -0.039, 1.311
 199360124, -0.028, 0.226, -0.071, 1.312, -0.054, 0.116, -0.053, 1.312
 199560209, 0.052, 0.157, -0.137, 1.312, -0.028, 0.226, -0.071, 1.312
 199740131, -0.086, 0.072, -0.079, 1.313, 0.052, 0.157, -0.137, 1.312
 199960758, 0.026, 0.089, -0.038, 1.312, -0.086, 0.072, -0.079, 1.313
 200160591, -0.049, 0.037, 0.046, 1.31, 0.026, 0.089, -0.038, 1.312
 200360724, -0.013, 0.004, 0.082, 1.309, -0.049, 0.037, 0.046, 1.31
 200560597, 0.071, 0.167, -0.08400001, 1.306, -0.013, 0.004, 0.082, 1.309
 200760588, 0.038, 0.047, 0.019, 1.305, 0.071, 0.167, -0.08400001, 1.306
 200940608, 0.111, 0.007, -0.001, 1.306, 0.038, 0.047, 0.019, 1.305
 201160577, 0.142, 0.019, -0.012, 1.308, 0.111, 0.007, -0.001, 1.306
 201360583, 0.157, 0.029, 0.022, 1.312, 0.142, 0.019, -0.012, 1.308
 201560597, 0.19, -0.161, 0.019, 1.316, 0.157, 0.029, 0.022, 1.312
 201760578, 0.228, -0.215, 0.023, 1.319, 0.19, -0.161, 0.019, 1.316
 201960609, 0.167, -0.297, 0.048, 1.319, 0.228, -0.215, 0.023, 1.319
 202160725, 0.083, -0.456, 0.041, 1.316, 0.167, -0.297, 0.048, 1.319
 202360578, -0.004, -0.287, 0, 1.316, 0.083, -0.456, 0.041, 1.316
 202560583, -0.144, -0.19, 0.116, 1.317, -0.004, -0.287, 0, 1.316
 202760583, -0.08800001, -0.116, -0.015, 1.318, -0.144, -0.19, 0.116, 1.317
 202960584, -0.087, -0.143, -0.01, 1.32, -0.08800001, -0.116, -0.015, 1.318
 203160703, -0.186, -0.078, 0.109, 1.321, -0.087, -0.143, -0.01, 1.32
 203360581, -0.166, -0.194, 0.042, 1.322, -0.186, -0.078, 0.109, 1.321
 203540588, -0.138, 0.035, -0.037, 1.324, -0.166, -0.194, 0.042, 1.322
 203760570, -0.067, -0.082, -0.013, 1.322, -0.138, 0.035, -0.037, 1.324
 203960748, 0.034, 0.001, 0.051, 1.32, -0.067, -0.082, -0.013, 1.322
 204160708, 0.108, -0.009000001, -0.011, 1.321, 0.034, 0.001, 0.051, 1.32
 204360575, 0.183, 0.1, 0.062, 1.321, 0.108, -0.009000001, -0.011, 1.321
 204560597, 0.16, 0.006, -0.128, 1.32, 0.183, 0.1, 0.062, 1.321
 204760585, 0.259, 0, -0.064, 1.321, 0.16, 0.006, -0.128, 1.32
 204960596, 0.183, 0.028, -0.032, 1.323, 0.259, 0, -0.064, 1.321
 205160588, 0.102, 0.012, 0.044, 1.319, 0.183, 0.028, -0.032, 1.323
 205360575, 0.11, 0.148, 0.173, 1.317, 0.102, 0.012, 0.044, 1.319
 205560602, 0.075, 0.163, -0.023, 1.316, 0.11, 0.148, 0.173, 1.317
 205760747, 0.208, 0.385, -0.049, 1.317, 0.075, 0.163, -0.023, 1.316
 205960617, 0.034, 0.277, 0.08400001, 1.315, 0.208, 0.385, -0.049, 1.317
 206140583, -0.113, 0.264, 0.027, 1.311, 0.034, 0.277, 0.08400001, 1.315
 206360577, -0.137, 0.23, 0.096, 1.308, -0.113, 0.264, 0.027, 1.311
 206560596, -0.183, 0.094, 0.05, 1.305, -0.137, 0.23, 0.096, 1.308
 206760581, -0.199, 0.174, 0.078, 1.301, -0.183, 0.094, 0.05, 1.305
 206960595, -0.15, 0.113, -0.007, 1.298, -0.199, 0.174, 0.078, 1.301
 207160585, -0.235, 0.165, 0.006, 1.295, -0.15, 0.113, -0.007, 1.298
 207360719, -0.195, 0.058, -0.07, 1.293, -0.235, 0.165, 0.006, 1.295
 207560743, -0.189, 0.135, 0.043, 1.289, -0.195, 0.058, -0.07, 1.293
 207760585, -0.156, 0.02, -0.054, 1.286, -0.189, 0.135, 0.043, 1.289
 207960611, -0.23, 0.059, -0.152, 1.285, -0.156, 0.02, -0.054, 1.286
 208160580, -0.048, -0.214, -0.085, 1.284, -0.23, 0.059, -0.152, 1.285
 208360716, 0.008, -0.169, -0.07, 1.284, -0.048, -0.214, -0.085, 1.284
 208560597, -0.014, -0.118, -0.053, 1.281, 0.008, -0.169, -0.07, 1.284
 208760583, 0.02, -0.002, 0.108, 1.279, -0.014, -0.118, -0.053, 1.281
 208940604, 0.064, -0.011, 0.082, 1.278, 0.02, -0.002, 0.108, 1.279
 209140568, -0.071, 0.1, -0.046, 1.279, 0.064, -0.011, 0.082, 1.278
 209340606, 0, 0.114, -0.033, 1.28, -0.071, 0.1, -0.046, 1.279
 209560593, 0, 0.016, 0.005, 1.28, 0, 0.114, -0.033, 1.28
 209740577, 0, 0, 0.029, 1.28, 0, 0.016, 0.005, 1.28
 209960603, 0, 0, 0.07300001, 1.28, 0, 0, 0.029, 1.28
 210160579, 0, 0, 0.115, 1.28, 0, 0, 0.07300001, 1.28
 210360586, 0, 0, 0.019, 1.28, 0, 0, 0.115, 1.28
 210560602, 0, 0, 0.135, 1.279, 0, 0, 0.019, 1.28
 210760580, 0, 0, 0.017, 1.28, 0, 0, 0.135, 1.279
 210960609, 0, 0, -0.015, 1.281, 0, 0, 0.017, 1.28
 211160731, 0, 0, -0.042, 1.282, 0, 0, -0.015, 1.281
 211340720, 0, 0, -0.023, 1.285, 0, 0, -0.042, 1.282
 211560728, 0, 0, 0.032, 1.288, 0, 0, -0.023, 1.285
 211760586, 0, 0, 0.011, 1.291, 0, 0, 0.032, 1.288
 211960599, 0, 0, -0.021, 1.292, 0, 0, 0.011, 1.291
 212140708, 0, 0, 0.017, 1.293, 0, 0, -0.021, 1.292
 212360619, 0, 0, -0.025, 1.296, 0, 0, 0.017, 1.293
 212561133, 0, 0, 0.024, 1.299, 0, 0, -0.025, 1.296
 212760939, 0, 0, 0.09, 1.3, 0, 0, 0.024, 1.299
 212961166, 0, 0, 0.134, 1.301, 0, 0, 0.09, 1.3
 213161180, 0, 0, 0.074, 1.302, 0, 0, 0.134, 1.301
 213361158, 0, 0, -0.021, 1.303, 0, 0, 0.074, 1.302
 213561190, 0, 0, -0.002, 1.305, 0, 0, -0.021, 1.303
 213761175, 0, 0, -0.09200001, 1.306, 0, 0, -0.002, 1.305
 213961192, 0, 0, -0.054, 1.308, 0, 0, -0.09200001, 1.306
 214161171, 0, 0, -0.096, 1.309, 0, 0, -0.054, 1.308
 214361182, 0, 0, 0.013, 1.311, 0, 0, -0.096, 1.309
 214561196, 0, 0, -0.041, 1.313, 0, 0, 0.013, 1.311
 214761391, 0, 0, 0.06, 1.315, 0, 0, -0.041, 1.313
 214961196, 0, 0, 0.067, 1.316, 0, 0, 0.06, 1.315
 215161176, 0, 0, 0.032, 1.318, 0, 0, 0.067, 1.316
 215341713, 0, 0, 0.002, 1.317, 0, 0, 0.032, 1.318
 215561184, 0, 0, -0.05, 1.315, 0, 0, 0.002, 1.317
 215761374, 0, 0, -0.063, 1.314, 0, 0, -0.05, 1.315
 215961176, 0, 0, -0.117, 1.312, 0, 0, -0.063, 1.314
 216161176, 0, 0, -0.056, 1.31, 0, 0, -0.117, 1.312
 216361189, 0, 0, 0.054, 1.308, 0, 0, -0.056, 1.31
 216561405, 0, 0.09500003, 0.013, 1.304, 0, 0, 0.054, 1.308
 216761384, 0, 0.01800001, 0.005, 1.301, 0, 0.09500003, 0.013, 1.304
 216961308, 0, 0.09700006, 0.029, 1.299, 0, 0.01800001, 0.005, 1.301
 217161182, 0, 0.1370001, -0.07, 1.296, 0, 0.09700006, 0.029, 1.299
 217341577, 0, 0.194, -0.02, 1.293, 0, 0.1370001, -0.07, 1.296
 217541559, 0, 0.221, -0.13, 1.29, 0, 0.194, -0.02, 1.293
 217761295, 0, 0.2990001, -0.037, 1.288, 0, 0.221, -0.13, 1.29
 217961184, 0, 0.288, -0.098, 1.286, 0, 0.2990001, -0.037, 1.288
 218161180, 0, 0.3290001, -0.106, 1.285, 0, 0.288, -0.098, 1.286
 218361415, 0, 0.1960001, -0.143, 1.286, 0, 0.3290001, -0.106, 1.285
 218561192, 0, 0.1760001, -0.006, 1.283, 0, 0.1960001, -0.143, 1.286
 218761180, 0, 0.2400001, -0.041, 1.28, 0, 0.1760001, -0.006, 1.283
 218961194, 0, 0.206, 0.008, 1.279, 0, 0.2400001, -0.041, 1.28
 219141557, 0, 0.131, -0.016, 1.277, 0, 0.206, 0.008, 1.279
 219361177, 0, 0.1140001, 0.011, 1.275, 0, 0.131, -0.016, 1.277
 219561196, 0, 0.0250001, 0.052, 1.272, 0, 0.1140001, 0.011, 1.275
 219761187, 0, 0, 0.115, 1.273, 0, 0.0250001, 0.052, 1.272
 219961403, 0, 0, -0.055, 1.274, 0, 0, 0.115, 1.273
 220161403, 0, 0, 0.027, 1.274, 0, 0, -0.055, 1.274
 220361190, 0, 0, -0.051, 1.274, 0, 0, 0.027, 1.274
 220561175, 0, 0, -0.038, 1.274, 0, 0, -0.051, 1.274
 220761165, 0, 0, -0.177, 1.275, 0, 0, -0.038, 1.274
 220941558, 0, 0, 0.102, 1.275, 0, 0, -0.177, 1.275
 221161178, 0, 0, 0.13, 1.276, 0, 0, 0.102, 1.275
 221361164, 0, 0, 0.149, 1.277, 0, 0, 0.13, 1.276
 221561198, 0, 0, -0.033, 1.278, 0, 0, 0.149, 1.277
 221761188, 0, 0, 0.032, 1.278, 0, 0, -0.033, 1.278
 221961428, 0, 0, 0.023, 1.279, 0, 0, 0.032, 1.278
 222161177, 0, 0, -0.053, 1.277, 0, 0, 0.023, 1.279
 222361172, 0, 0, 0.033, 1.277, 0, 0, -0.053, 1.277
 222561186, 0, 0, -0.009000001, 1.276, 0, 0, 0.033, 1.277
 222761174, 0, 0, -0.136, 1.275, 0, 0, -0.009000001, 1.276
 222961198, 0, 0, 0.01, 1.274, 0, 0, -0.136, 1.275
 223161166, 0, 0, 0.072, 1.272, 0, 0, 0.01, 1.274
 223361180, 0, 0, 0.051, 1.269, 0, 0, 0.072, 1.272
 223561192, 0, 0, 0.003, 1.267, 0, 0, 0.051, 1.269
 223761398, 0, 0, 0.009000001, 1.265, 0, 0, 0.003, 1.267
 223961186, 0, 0, 0.112, 1.264, 0, 0, 0.009000001, 1.265
 224161391, 0, 0, 0.068, 1.263, 0, 0, 0.112, 1.264
 224341532, 0, 0, -0.003, 1.262, 0, 0, 0.068, 1.263
 224561200, 0, 0, 0.01, 1.262, 0, 0, -0.003, 1.262
 224761177, 0, 0, -0.046, 1.261, 0, 0, 0.01, 1.262
 224961287, 0, 0, -0.034, 1.261, 0, 0, -0.046, 1.261
 225161389, 0, 0, -0.067, 1.261, 0, 0, -0.034, 1.261
 225361166, 0, 0, -0.16, 1.263, 0, 0, -0.067, 1.261
 225561411, 0, 0, -0.13, 1.263, 0, 0, -0.16, 1.263
 225761181, 0, 0, -0.017, 1.261, 0, 0, -0.13, 1.263
 225961175, 0, 0, -0.036, 1.26, 0, 0, -0.017, 1.261
 226161182, 0, 0, 0.03, 1.26, 0, 0, -0.036, 1.26
 226361172, 0, 0, 0.14, 1.26, 0, 0, 0.03, 1.26
 226561183, 0, 0, 0.12, 1.262, 0, 0, 0.14, 1.26
 226761177, 0, 0, 0.103, 1.263, 0, 0, 0.12, 1.262
 226941561, 0, 0, 0.031, 1.264, 0, 0, 0.103, 1.263
 227161199, 0, 0, -0.062, 1.263, 0, 0, 0.031, 1.264
 227361389, 0, 0, 0.066, 1.262, 0, 0, -0.062, 1.263
 227561182, 0, 0, -0.059, 1.262, 0, 0, 0.066, 1.262
 227761165, 0, 0, -0.051, 1.261, 0, 0, -0.059, 1.262
 227961184, 0, 0, -0.114, 1.261, 0, 0, -0.051, 1.261
 228161167, 0, 0, -0.163, 1.259, 0, 0, -0.114, 1.261
 228361380, 0, 0, -0.331, 1.259, 0, 0, -0.163, 1.259
 228561189, 0, 0, -0.132, 1.261, 0, 0, -0.331, 1.259
 228761176, 0, 0, -0.071, 1.264, 0, 0, -0.132, 1.261
 228961190, 0, 0, 0.07600001, 1.268, 0, 0, -0.071, 1.264
 229161394, 0, 0, 0.05, 1.268, 0, 0, 0.07600001, 1.268
 229361379, 0, 0, -0.048, 1.266, 0, 0, 0.05, 1.268
 229541610, 0, 0, 0.027, 1.26, 0, 0, -0.048, 1.266
 229761170, 0, 0, -0.035, 1.259, 0, 0, 0.027, 1.26
 229961287, 0, 0, 0.021, 1.257, 0, 0, -0.035, 1.259
 230141579, 0, 0, -0.045, 1.253, 0, 0, 0.021, 1.257
 230341549, 0, 0, -0.074, 1.25, 0, 0, -0.045, 1.253
 230541550, 0, 0, 0.026, 1.247, 0, 0, -0.074, 1.25
 230761180, 0, 0, -0.009000001, 1.244, 0, 0, 0.026, 1.247
 230961411, 0, 0, 0.096, 1.242, 0, 0, -0.009000001, 1.244
 231161168, 0, 0, 0.113, 1.241, 0, 0, 0.096, 1.242
 231361171, 0, 0, 0.146, 1.241, 0, 0, 0.113, 1.241
 231561184, 0, 0, 0.039, 1.24, 0, 0, 0.146, 1.241
 231761172, 0, 0, 0.192, 1.242, 0, 0, 0.039, 1.24
 231961192, 0, 0, 0.11, 1.246, 0, 0, 0.192, 1.242
 232141657, 0, 0, 0.169, 1.25, 0, 0, 0.11, 1.246
 232361169, 0, 0, 0.175, 1.254, 0, 0, 0.169, 1.25
 232561434, 0, 0, 0.009000001, 1.256, 0, 0, 0.175, 1.254
 232761394, 0, 0, 0.002, 1.259, 0, 0, 0.009000001, 1.256
 232961184, 0, 0, 0.19, 1.257, 0, 0, 0.002, 1.259
 233161174, 0, 0, 0.11, 1.251, 0, 0, 0.19, 1.257
 233361172, 0, 0.01200008, 0.203, 1.248, 0, 0, 0.11, 1.251
 233541597, 0, 0.2420001, 0.05, 1.247, 0, 0.01200008, 0.203, 1.248
 233761160, 0, 0.5670002, 0.002, 1.249, 0, 0.2420001, 0.05, 1.247
 233981400, 0, 0.8460002, 0.127, 1.251, 0, 0.5670002, 0.002, 1.249
 234161181, 0, 0.9580002, 0.031, 1.253, 0, 0.8460002, 0.127, 1.251
 234361177, 0, 1.145, -0.025, 1.257, 0, 0.9580002, 0.031, 1.253
 234561449, 0, 1.255, 0.016, 1.26, 0, 1.145, -0.025, 1.257
 234761174, -0.881, 3.727, 0.004, 1.263, 0, 1.255, 0.016, 1.26
 234961194, -0.7870001, 3.722, -0.07, 1.265, -0.881, 3.727, 0.004, 1.263
 235161183, -0.804, 3.374, -0.001, 1.265, -0.7870001, 3.722, -0.07, 1.265
 235361178, -0.589, 2.932, -0.169, 1.265, -0.804, 3.374, -0.001, 1.265
 235561188, -0.35, 2.226, -0.07700001, 1.266, -0.589, 2.932, -0.169, 1.265
 235761165, 0.012, 1.419, -0.435, 1.268, -0.35, 2.226, -0.07700001, 1.266
 235961199, 0.504, 1.089, -0.334, 1.268, 0.012, 1.419, -0.435, 1.268
 236161178, 1.054, 0.363, -0.301, 1.268, 0.504, 1.089, -0.334, 1.268
 236341693, 1.411, 0.215, -0.504, 1.269, 1.054, 0.363, -0.301, 1.268
 236541696, 1.829, -0.164, -0.191, 1.271, 1.411, 0.215, -0.504, 1.269
 236741542, 1.975, -0.195, -0.148, 1.272, 1.829, -0.164, -0.191, 1.271
 236961183, 2.034, -0.439, -0.057, 1.274, 1.975, -0.195, -0.148, 1.272
 237161181, 2, -0.772, -0.049, 1.274, 2.034, -0.439, -0.057, 1.274
 237341667, 2.003, -0.92, 0.032, 1.274, 2, -0.772, -0.049, 1.274
 237561283, 1.946, -1.062, 0.107, 1.274, 2.003, -0.92, 0.032, 1.274
 237761379, 1.902, -1.27, 0.328, 1.275, 1.946, -1.062, 0.107, 1.274
 237961196, 2.045, -1.418, 0.195, 1.277, 1.902, -1.27, 0.328, 1.275
 238161392, 1.902, -1.746, 0.306, 1.276, 2.045, -1.418, 0.195, 1.277
 238361181, 1.984, -1.828, 0.27, 1.276, 1.902, -1.746, 0.306, 1.276
 238561197, 1.917, -1.895, 0.156, 1.275, 1.984, -1.828, 0.27, 1.276
 238761190, 1.869, -1.982, 0.101, 1.275, 1.917, -1.895, 0.156, 1.275
 238961197, 1.879, -1.73, 0.188, 1.275, 1.869, -1.982, 0.101, 1.275
 239161193, 1.837, -1.479, -0.064, 1.272, 1.879, -1.73, 0.188, 1.275
 239361171, 1.714, -1.403, 0.042, 1.267, 1.837, -1.479, -0.064, 1.272
 239561181, 1.587, -1.116, 0.164, 1.26, 1.714, -1.403, 0.042, 1.267
 239761179, 1.415, -1.154, 0.139, 1.256, 1.587, -1.116, 0.164, 1.26
 239941615, 1.28, -1.054, 0.267, 1.254, 1.415, -1.154, 0.139, 1.256
 240161176, 1.142, -0.791, 0.02, 1.253, 1.28, -1.054, 0.267, 1.254
 240361151, 1.022, -0.629, 0.018, 1.254, 1.142, -0.791, 0.02, 1.253
 240561196, 0.845, -0.608, 0.09100001, 1.254, 1.022, -0.629, 0.018, 1.254
 240761162, 0.763, -0.353, -0.075, 1.255, 0.845, -0.608, 0.09100001, 1.254
 240961391, 0.6950001, -0.196, 0.098, 1.256, 0.763, -0.353, -0.075, 1.255
 241161146, 0.614, -0.173, 0.07300001, 1.257, 0.6950001, -0.196, 0.098, 1.256
 241361178, 0.513, -0.19, 0.105, 1.258, 0.614, -0.173, 0.07300001, 1.257
 241561189, 0.618, -0.184, -0.035, 1.258, 0.513, -0.19, 0.105, 1.258
 241761392, 0.565, -0.017, -0.013, 1.258, 0.618, -0.184, -0.035, 1.258
 241961402, 0.596, -0.114, -0.156, 1.259, 0.565, -0.017, -0.013, 1.258
 242161187, 0.585, 0.11, -0.238, 1.261, 0.596, -0.114, -0.156, 1.259
 242361175, 0.447, 0.155, -0.199, 1.263, 0.585, 0.11, -0.238, 1.261
 242561180, 0.369, 0.169, -0.302, 1.263, 0.447, 0.155, -0.199, 1.263
 242761182, 0.155, 0.237, -0.113, 1.264, 0.369, 0.169, -0.302, 1.263
 242961204, 0.166, 0.109, -0.171, 1.265, 0.155, 0.237, -0.113, 1.264
 243161175, 0.124, -0.074, 0.02, 1.267, 0.166, 0.109, -0.171, 1.265
 243361184, 0.094, -0.191, -0.141, 1.269, 0.124, -0.074, 0.02, 1.267
 243561414, 0.09200001, -0.259, -0.103, 1.269, 0.094, -0.191, -0.141, 1.269
 243761177, 0.236, -0.32, 0.018, 1.271, 0.09200001, -0.259, -0.103, 1.269
 243961206, 0.252, -0.496, -0.087, 1.272, 0.236, -0.32, 0.018, 1.271
 244161184, 0.315, -0.6390001, -0.042, 1.274, 0.252, -0.496, -0.087, 1.272
 244361184, 0.424, -0.915, -0.121, 1.275, 0.315, -0.6390001, -0.042, 1.274
 244561205, 0.505, -1.05, -0.198, 1.276, 0.424, -0.915, -0.121, 1.275
 244761171, 0.633, -1.097, -0.1, 1.277, 0.505, -1.05, -0.198, 1.276
 244961184, 0.717, -1.196, -0.098, 1.279, 0.633, -1.097, -0.1, 1.277
 245161384, 0.737, -1.213, -0.038, 1.279, 0.717, -1.196, -0.098, 1.279
 245361423, 0.682, -1.321, -0.093, 1.281, 0.737, -1.213, -0.038, 1.279
 245561193, 0.817, -1.333, -0.127, 1.283, 0.682, -1.321, -0.093, 1.281
 245761192, 0.7960001, -1.372, -0.213, 1.284, 0.817, -1.333, -0.127, 1.283
 245961198, 0.837, -1.325, -0.381, 1.285, 0.7960001, -1.372, -0.213, 1.284
 246161388, 0.682, -1.493, -0.05, 1.286, 0.837, -1.325, -0.381, 1.285
 246361169, 0.567, -1.585, 0.031, 1.287, 0.682, -1.493, -0.05, 1.286
 246561186, 0.478, -1.556, 0.051, 1.286, 0.567, -1.585, 0.031, 1.287
 246761177, 0.231, -1.341, -0.067, 1.285, 0.478, -1.556, 0.051, 1.286
 246961197, 0.181, -1.329, -0.282, 1.283, 0.231, -1.341, -0.067, 1.285
 247161392, 0.133, -1.217, -0.179, 1.282, 0.181, -1.329, -0.282, 1.283
 247341670, 0.154, -1.109, -0.114, 1.283, 0.133, -1.217, -0.179, 1.282
 247541558, 0.08800001, -1.089, -0.031, 1.284, 0.154, -1.109, -0.114, 1.283
 247741581, 0.16, -1.113, -0.037, 1.287, 0.08800001, -1.089, -0.031, 1.284
 247941588, 0.097, -1.015, 0.13, 1.289, 0.16, -1.113, -0.037, 1.287
 248141529, 0.044, -0.8710001, 0.035, 1.287, 0.097, -1.015, 0.13, 1.289
 248361174, -0.045, -0.576, 0.008, 1.285, 0.044, -0.8710001, 0.035, 1.287
 248561186, 0, -0.479, 0.024, 1.285, -0.045, -0.576, 0.008, 1.285
 248761186, 0.052, -0.399, 0.038, 1.282, 0, -0.479, 0.024, 1.285
 248961412, 0.03, -0.255, -0.003, 1.279, 0.052, -0.399, 0.038, 1.282
 249161188, 0.007, -0.199, 0.044, 1.278, 0.03, -0.255, -0.003, 1.279
 249361380, 0.061, -0.111, 0.011, 1.279, 0.007, -0.199, 0.044, 1.278
 249561289, 0.045, 0.012, -0.111, 1.282, 0.061, -0.111, 0.011, 1.279
 249761178, -0.09500001, 0.555, -0.012, 1.285, 0.045, 0.012, -0.111, 1.282
 249961289, 0.07, 0.304, -0.197, 1.287, -0.09500001, 0.555, -0.012, 1.285
 250161180, 0.135, 0.646, -0.228, 1.29, 0.07, 0.304, -0.197, 1.287
 250341547, 0.185, 0.7040001, -0.001, 1.287, 0.135, 0.646, -0.228, 1.29
 250561197, 0.309, 0.9770001, 0.009000001, 1.285, 0.185, 0.7040001, -0.001, 1.287
 250761395, 0.357, 1.257, -0.026, 1.285, 0.309, 0.9770001, 0.009000001, 1.285
 250961192, 0.259, 1.223, -0.061, 1.285, 0.357, 1.257, -0.026, 1.285
 251161155, 0.267, 1.367, 0.028, 1.285, 0.259, 1.223, -0.061, 1.285
 251341538, 0.193, 1.566, 0.075, 1.287, 0.267, 1.367, 0.028, 1.285
 251561191, 0.061, 1.775, 0.016, 1.287, 0.193, 1.566, 0.075, 1.287
 251761179, 0.049, 1.967, -0.045, 1.285, 0.061, 1.775, 0.016, 1.287
 251961199, 0.049, 2.142, 0.004, 1.282, 0.049, 1.967, -0.045, 1.285
 252161169, -0.072, 2.252, -0.089, 1.279, 0.049, 2.142, 0.004, 1.282
 252361175, -0.11, 2.437, -0.008, 1.276, -0.072, 2.252, -0.089, 1.279
 252561414, -0.09, 2.479, -0.066, 1.274, -0.11, 2.437, -0.008, 1.276
 252761184, -0.13, 2.646, -0.06, 1.273, -0.09, 2.479, -0.066, 1.274
 252941551, -0.225, 2.604, -0.09900001, 1.272, -0.13, 2.646, -0.06, 1.273
 253161177, -0.314, 2.714, -0.08400001, 1.274, -0.225, 2.604, -0.09900001, 1.272
 253361175, -0.248, 2.628, -0.167, 1.275, -0.314, 2.714, -0.08400001, 1.274
 253561396, -0.147, 2.446, -0.168, 1.277, -0.248, 2.628, -0.167, 1.275
 253761147, -0.179, 2.388, -0.283, 1.277, -0.147, 2.446, -0.168, 1.277
 253961187, -0.176, 2.302, -0.221, 1.277, -0.179, 2.388, -0.283, 1.277
 254161178, 0.035, 2.276, -0.307, 1.277, -0.176, 2.302, -0.221, 1.277
 254361387, -0.197, 2.163, 0, 1.278, 0.035, 2.276, -0.307, 1.277
 254561403, -0.13, 2.136, -0.118, 1.279, -0.197, 2.163, 0, 1.278
 254761162, -0.16, 2.008, -0.11, 1.281, -0.13, 2.136, -0.118, 1.279
 254961181, -0.167, 1.957, -0.053, 1.282, -0.16, 2.008, -0.11, 1.281
 255161180, -0.188, 1.79, -0.053, 1.284, -0.167, 1.957, -0.053, 1.282
 255361195, -0.234, 1.767, 0.031, 1.282, -0.188, 1.79, -0.053, 1.284
 255561196, -0.17, 1.685, -0.02, 1.279, -0.234, 1.767, 0.031, 1.282
 255761189, -0.214, 1.53, -0.034, 1.278, -0.17, 1.685, -0.02, 1.279
 255961200, -0.154, 1.574, -0.042, 1.277, -0.214, 1.53, -0.034, 1.278
 256161404, -0.16, 1.578, 0.037, 1.275, -0.154, 1.574, -0.042, 1.277
 256361178, -0.101, 1.48, 0.024, 1.275, -0.16, 1.578, 0.037, 1.275
 256541564, -0.117, 1.516, -0.066, 1.274, -0.101, 1.48, 0.024, 1.275
 256761181, -0.139, 1.552, 0.067, 1.273, -0.117, 1.516, -0.066, 1.274
 256941576, -0.01, 1.405, 0.037, 1.272, -0.139, 1.552, 0.067, 1.273
 257141595, 0.06900001, 1.324, 0.023, 1.271, -0.01, 1.405, 0.037, 1.272
 257341734, 0.086, 1.257, 0.2, 1.272, 0.06900001, 1.324, 0.023, 1.271
 257541557, 0.135, 1.345, 0.242, 1.274, 0.086, 1.257, 0.2, 1.272
 257761413, 0.053, 1.266, -0.008, 1.276, 0.135, 1.345, 0.242, 1.274
 257961412, 0.087, 1.382, 0.082, 1.278, 0.053, 1.266, -0.008, 1.276
 258141700, 0.098, 1.324, 0.204, 1.278, 0.087, 1.382, 0.082, 1.278
 258361171, 0.106, 1.348, 0.037, 1.276, 0.098, 1.324, 0.204, 1.278
 258561187, 0.071, 1.376, 0.019, 1.274, 0.106, 1.348, 0.037, 1.276
 258741533, 0.123, 1.386, -0.009000001, 1.274, 0.071, 1.376, 0.019, 1.274
 258961193, 0.05, 1.368, 0.145, 1.275, 0.123, 1.386, -0.009000001, 1.274
 259161167, 0.024, 1.415, 0.028, 1.276, 0.05, 1.368, 0.145, 1.275
 259341552, 0.008, 1.447, 0.036, 1.277, 0.024, 1.415, 0.028, 1.276
 259561192, -0.021, 1.534, 0.056, 1.279, 0.008, 1.447, 0.036, 1.277
 259761396, -0.067, 1.53, 0.127, 1.282, -0.021, 1.534, 0.056, 1.279
 259961189, -0.026, 1.486, 0.007, 1.285, -0.067, 1.53, 0.127, 1.282
 260161169, -0.011, 1.415, -0.072, 1.285, -0.026, 1.486, 0.007, 1.285
 260361174, 0.087, 1.308, 0.058, 1.285, -0.011, 1.415, -0.072, 1.285
 260561187, -0.018, 1.253, 0.034, 1.283, 0.087, 1.308, 0.058, 1.285
 260741562, 0.11, 1.191, 0.062, 1.281, -0.018, 1.253, 0.034, 1.283
 260961199, 0.14, 0.9490001, 0.049, 1.279, 0.11, 1.191, 0.062, 1.281
 261161187, 0.038, 0.965, 0.003, 1.276, 0.14, 0.9490001, 0.049, 1.279
 261361167, 0.025, 0.751, 0.128, 1.276, 0.038, 0.965, 0.003, 1.276
 261561451, 0.185, 0.563, 0.09900001, 1.276, 0.025, 0.751, 0.128, 1.276
 261761170, 0.06500001, 0.535, 0.097, 1.278, 0.185, 0.563, 0.09900001, 1.276
 261961409, 0.118, 0.43, 0.196, 1.279, 0.06500001, 0.535, 0.097, 1.278
 262161166, 0.015, 0.3, 0.056, 1.279, 0.118, 0.43, 0.196, 1.279
 262341552, 0.049, 0.332, 0.111, 1.279, 0.015, 0.3, 0.056, 1.279
 262561188, 0.053, 0.219, 0.083, 1.277, 0.049, 0.332, 0.111, 1.279
 262761171, -0.053, 0.322, 0.071, 1.275, 0.053, 0.219, 0.083, 1.277
 262941550, -0.052, 0.207, 0.167, 1.273, -0.053, 0.322, 0.071, 1.275
 263161163, -0.136, 0.151, 0.249, 1.27, -0.052, 0.207, 0.167, 1.273
 263341536, -0.027, 0.134, 0.288, 1.269, -0.136, 0.151, 0.249, 1.27
 263561193, 0.07, 0.117, 0.23, 1.267, -0.027, 0.134, 0.288, 1.269
 263761178, 0.037, 0.027, 0.298, 1.267, 0.07, 0.117, 0.23, 1.267
 263961195, -0.007, -0.016, 0.416, 1.265, 0.037, 0.027, 0.298, 1.267
 264161177, 0.041, -0.198, 0.154, 1.261, -0.007, -0.016, 0.416, 1.265
 264361167, 0.14, -0.148, 0.247, 1.261, 0.041, -0.198, 0.154, 1.261
 264561180, -0.04, -0.209, 0.189, 1.262, 0.14, -0.148, 0.247, 1.261
 264761169, 0.02, -0.163, 0.027, 1.262, -0.04, -0.209, 0.189, 1.262
 264961316, -0.042, -0.22, 0.241, 1.262, 0.02, -0.163, 0.027, 1.262
 265161393, -0.075, -0.224, 0.143, 1.261, -0.042, -0.22, 0.241, 1.262
 265341746, 0.048, 0.115, 0.343, 1.262, -0.075, -0.224, 0.143, 1.261
 265541552, -0.02, -0.079, 0.132, 1.262, 0.048, 0.115, 0.343, 1.262
 265761182, -0.175, -0.102, 0.299, 1.262, -0.02, -0.079, 0.132, 1.262
 265941630, -0.067, 0.025, 0.139, 1.261, -0.175, -0.102, 0.299, 1.262
 266141564, -0.074, 0.222, 0.303, 1.262, -0.067, 0.025, 0.139, 1.261
 266361173, 0.081, -0.014, 0.232, 1.263, -0.074, 0.222, 0.303, 1.262
 266561201, -0.006, 0.143, 0.235, 1.263, 0.081, -0.014, 0.232, 1.263
 266761165, -0.086, -0.035, 0.366, 1.263, -0.006, 0.143, 0.235, 1.263
 266961428, -0.07300001, 0.044, 0.093, 1.262, -0.086, -0.035, 0.366, 1.263
 267161387, 0.06900001, 0.052, 0.347, 1.263, -0.07300001, 0.044, 0.093, 1.262
 267361181, -0.009000001, -0.086, 0.485, 1.263, 0.06900001, 0.052, 0.347, 1.263
 267561190, 0.038, 0.055, 0.34, 1.262, -0.009000001, -0.086, 0.485, 1.263
 267761172, -0.006, -0.177, 0.381, 1.26, 0.038, 0.055, 0.34, 1.262
 267961188, -0.02, -0.018, 0.268, 1.257, -0.006, -0.177, 0.381, 1.26
 268161176, 0.11, 0.152, 0.163, 1.255, -0.02, -0.018, 0.268, 1.257
 268361184, -0.17, -0.27, 0.105, 1.255, 0.11, 0.152, 0.163, 1.255
 268541561, -0.022, 0.001, 0.087, 1.253, -0.17, -0.27, 0.105, 1.255
 268761389, -0.013, 0.029, 0.379, 1.251, -0.022, 0.001, 0.087, 1.253
 268961290, 0.043, 0.145, 0.5790001, 1.25, -0.013, 0.029, 0.379, 1.251
 269161172, -0.152, 0.071, 0.5330001, 1.248, 0.043, 0.145, 0.5790001, 1.25
 269361174, 0.055, 0.182, 0.5700001, 1.248, -0.152, 0.071, 0.5330001, 1.248
 269541558, -0.146, 0.201, 0.538, 1.247, 0.055, 0.182, 0.5700001, 1.248
 269761172, 0.002, 0.123, 0.365, 1.248, -0.146, 0.201, 0.538, 1.247
 269961196, 0.055, 0.127, 0.338, 1.248, 0.002, 0.123, 0.365, 1.248
 270161177, -0.169, 0.163, 0.237, 1.248, 0.055, 0.127, 0.338, 1.248
 270361384, 0.034, 0.117, 0.248, 1.247, -0.169, 0.163, 0.237, 1.248
 270561412, -0.071, -0.149, 0.347, 1.247, 0.034, 0.117, 0.248, 1.247
 270761180, 0.034, 0.121, 0.393, 1.248, -0.071, -0.149, 0.347, 1.247
 270961311, -0.055, 0.016, 0.262, 1.249, 0.034, 0.121, 0.393, 1.248
 271161178, 0.08000001, -0.042, 0.303, 1.248, -0.055, 0.016, 0.262, 1.249
 271361443, 0.09900001, 0.144, 0.326, 1.249, 0.08000001, -0.042, 0.303, 1.248
 271561175, 0.043, 0.011, 0.149, 1.251, 0.09900001, 0.144, 0.326, 1.249
 271761173, 0.158, 0.031, 0.384, 1.253, 0.043, 0.011, 0.149, 1.251
 271961187, 0.051, 0.234, 0.16, 1.254, 0.158, 0.031, 0.384, 1.253
 272161187, -0.036, 0.116, 0.16, 1.256, 0.051, 0.234, 0.16, 1.254
 272361403, -0.103, 0.184, 0.169, 1.258, -0.036, 0.116, 0.16, 1.256
 272561196, -0.089, 0.212, 0.201, 1.258, -0.103, 0.184, 0.169, 1.258
 272761167, -0.062, 0.212, 0.167, 1.257, -0.089, 0.212, 0.201, 1.258
 272961190, -0.085, 0.338, 0.117, 1.257, -0.062, 0.212, 0.167, 1.257
 273161178, -0.08000001, 0.433, 0.098, 1.253, -0.085, 0.338, 0.117, 1.257
 273361181, -0.137, 0.525, -0.017, 1.248, -0.08000001, 0.433, 0.098, 1.253
 273561202, -0.039, 0.634, -0.023, 1.244, -0.137, 0.525, -0.017, 1.248
 273741537, 0.001, 0.7600001, -0.031, 1.243, -0.039, 0.634, -0.023, 1.244
 273961290, -0.007, 0.872, -0.002, 1.242, 0.001, 0.7600001, -0.031, 1.243
 274161391, 0.015, 0.955, -0.07, 1.241, -0.007, 0.872, -0.002, 1.242
 274361190, 0.101, 0.8610001, -0.033, 1.241, 0.015, 0.955, -0.07, 1.241
 274561394, 0.171, 1, 0.062, 1.239, 0.101, 0.8610001, -0.033, 1.241
 274761177, 0.179, 1.057, -0.086, 1.239, 0.171, 1, 0.062, 1.239
 274961191, 0.173, 1.012, 0.033, 1.241, 0.179, 1.057, -0.086, 1.239
 275161183, 0.267, 1.272, 0.014, 1.242, 0.173, 1.012, 0.033, 1.241
 275341532, 0.212, 1.256, -0.004, 1.244, 0.267, 1.272, 0.014, 1.242
 275541549, 0.159, 1.223, -0.083, 1.244, 0.212, 1.256, -0.004, 1.244
 275761178, 0.138, 1.218, -0.028, 1.244, 0.159, 1.223, -0.083, 1.244
 275961422, 0.09200001, 1.231, 0.147, 1.244, 0.138, 1.218, -0.028, 1.244
 276161176, 0.07600001, 1.219, -0.12, 1.241, 0.09200001, 1.231, 0.147, 1.244
 276361180, -0.081, 1.062, 0.154, 1.243, 0.07600001, 1.219, -0.12, 1.241
 276561205, -0.006, 1.003, -0.024, 1.247, -0.081, 1.062, 0.154, 1.243
 276741576, -0.035, 0.8290001, 0.063, 1.25, -0.006, 1.003, -0.024, 1.247
 276941562, 0.152, 0.673, 0.14, 1.255, -0.035, 0.8290001, 0.063, 1.25
 277161163, 0.143, 0.455, 0.254, 1.258, 0.152, 0.673, 0.14, 1.255
 277341538, 0.13, 0.346, 0.19, 1.264, 0.143, 0.455, 0.254, 1.258
 277561201, 0.161, 0.156, 0.25, 1.27, 0.13, 0.346, 0.19, 1.264
 277741534, 0.285, 0.234, 0.21, 1.276, 0.161, 0.156, 0.25, 1.27
 277961199, 0.263, 0.207, 0.144, 1.282, 0.285, 0.234, 0.21, 1.276
 278161161, 0.4, 0.139, 0.158, 1.287, 0.263, 0.207, 0.144, 1.282
 278361159, 0.365, -0.022, 0.136, 1.294, 0.4, 0.139, 0.158, 1.287
 278561198, 0.255, 0.059, 0.363, 1.295, 0.365, -0.022, 0.136, 1.294
 278761374, 0.213, 0.033, 0.382, 1.295, 0.255, 0.059, 0.363, 1.295
 278941579, 0.34, 0.09900001, 0.506, 1.299, 0.213, 0.033, 0.382, 1.295
 279161174, 0.061, -0.209, 0.6950001, 1.304, 0.34, 0.09900001, 0.506, 1.299
 279361162, 0.031, -0.153, 0.6160001, 1.308, 0.061, -0.209, 0.6950001, 1.304
 279561408, -0.008, -0.102, 0.671, 1.308, 0.031, -0.153, 0.6160001, 1.308
 279761387, -0.004, -0.178, 0.779, 1.309, -0.008, -0.102, 0.671, 1.308
 279961199, -0.028, -0.288, 0.141, 1.311, -0.004, -0.178, 0.779, 1.309
 280161170, 0.165, 0.038, 0.28, 1.313, -0.028, -0.288, 0.141, 1.311
 280361180, -0.011, 0.058, 0.048, 1.313, 0.165, 0.038, 0.28, 1.313
 280561187, -0.03, 0.023, 0.117, 1.311, -0.011, 0.058, 0.048, 1.313
 280761184, -0.028, 0.079, 0.039, 1.311, -0.03, 0.023, 0.117, 1.311
 280961202, -0.009000001, 0.047, -0.003, 1.31, -0.028, 0.079, 0.039, 1.311
 281161192, -0.006, -0.002, 0.07700001, 1.309, -0.009000001, 0.047, -0.003, 1.31
 281361355, 0.05, 0.083, 0.012, 1.309, -0.006, -0.002, 0.07700001, 1.309
 281541667, 0.018, 0.043, -0.013, 1.308, 0.05, 0.083, 0.012, 1.309
 281761104, 0.018, 0.028, 0.053, 1.307, 0.018, 0.043, -0.013, 1.308
 281961132, 0.021, 0.057, 0.117, 1.306, 0.018, 0.028, 0.053, 1.307
 282161111, 0.016, 0.031, 0.064, 1.306, 0.021, 0.057, 0.117, 1.306
 282361116, -0.024, 0.015, -0.029, 1.305, 0.016, 0.031, 0.064, 1.306
 282561123, 0.034, 0.05, -0.006, 1.304, -0.024, 0.015, -0.029, 1.305
 282761113, 0.007, 0.006, 0.067, 1.303, 0.034, 0.05, -0.006, 1.304
 282961337, 0.029, 0.013, 0.11, 1.302, 0.007, 0.006, 0.067, 1.303
 283161081, 0.009000001, -0.078, -0.018, 1.301, 0.029, 0.013, 0.11, 1.302
 283360955, 0.007, 0.075, 0.016, 1.299, 0.009000001, -0.078, -0.018, 1.301
 283561042, -0.019, -0.001, -0.057, 1.297, 0.007, 0.075, 0.016, 1.299
 283760963, 0.001, 0.036, -0.047, 1.295, -0.019, -0.001, -0.057, 1.297
 283961162, 0, 0.051, -0.038, 1.293, 0.001, 0.036, -0.047, 1.295
 284141423, -0.049, -0.051, 0.085, 1.291, 0, 0.051, -0.038, 1.293
 284360944, -0.02, -0.007, -0.002, 1.29, -0.049, -0.051, 0.085, 1.291
 284560965, 0.025, -0.004, -0.006, 1.288, -0.02, -0.007, -0.002, 1.29
 284760970, -0.02, -0.004, 0.042, 1.286, 0.025, -0.004, -0.006, 1.288
 284961095, -0.005, 0.03, -0.044, 1.284, -0.02, -0.004, 0.042, 1.286
 285160967, -0.028, -0.057, -0.006, 1.281, -0.005, 0.03, -0.044, 1.284
 285361057, -0.031, -0.001, 0.024, 1.279, -0.028, -0.057, -0.006, 1.281
 285561046, -0.007, -0.019, 0.043, 1.279, -0.031, -0.001, 0.024, 1.279
 285760969, 0.009000001, 0.026, -0.005, 1.279, -0.007, -0.019, 0.043, 1.279
 285961048, 0.04, 0.024, 0.042, 1.279, 0.009000001, 0.026, -0.005, 1.279
 286160970, 0.045, 0.06500001, 0.003, 1.279, 0.04, 0.024, 0.042, 1.279
 286360998, 0.005, 0.015, -0.005, 1.279, 0.045, 0.06500001, 0.003, 1.279
 286560966, 0.012, 0.03, -0.028, 1.278, 0.005, 0.015, -0.005, 1.279
 286761067, 0.015, -0.004, 0.002, 1.278, 0.012, 0.03, -0.028, 1.278
 286960965, -0.007, 0.02, 0.016, 1.278, 0.015, -0.004, 0.002, 1.278
 287161154, 0.046, 0.048, 0.122, 1.277, -0.007, 0.02, 0.016, 1.278
 287360951, 0.056, -0.017, -0.049, 1.276, 0.046, 0.048, 0.122, 1.277
 287560973, 0.018, -0.037, 0.023, 1.275, 0.056, -0.017, -0.049, 1.276
 287760957, 0.017, 0.016, 0.062, 1.275, 0.018, -0.037, 0.023, 1.275
 287960973, 0.024, 0.01, 0.046, 1.273, 0.017, 0.016, 0.062, 1.275
 288161095, 0.037, 0.067, 0.103, 1.272, 0.024, 0.01, 0.046, 1.273
 288361050, -0.02, 0.054, 0.056, 1.271, 0.037, 0.067, 0.103, 1.272
 288561083, 0.012, 0.01, -0.037, 1.27, -0.02, 0.054, 0.056, 1.271
 288761053, 0.021, -0.008, 0.055, 1.269, 0.012, 0.01, -0.037, 1.27
 288961055, 0.046, 0.026, 0.048, 1.269, 0.021, -0.008, 0.055, 1.269
 289160967, -0.027, 0.035, 0.123, 1.269, 0.046, 0.026, 0.048, 1.269
 289341426, 0.028, 0.031, 0.08000001, 1.269, -0.027, 0.035, 0.123, 1.269
 289560972, -0.021, -0.06900001, -0.035, 1.267, 0.028, 0.031, 0.08000001, 1.269
 289760961, -0.003, -0.025, 0.028, 1.265, -0.021, -0.06900001, -0.035, 1.267
 289961057, 0.032, -0.028, -0.075, 1.264, -0.003, -0.025, 0.028, 1.265
 290160968, -0.053, -0.066, 0.093, 1.262, 0.032, -0.028, -0.075, 1.264
 290361064, -0.004, 0.036, -0.171, 1.261, -0.053, -0.066, 0.093, 1.262
 290561037, -0.017, -0.035, -0.051, 1.259, -0.004, 0.036, -0.171, 1.261
 290760958, 0.001, 0.023, 0.025, 1.258, -0.017, -0.035, -0.051, 1.259
 290960971, 0.004, -0.039, -0.078, 1.257, 0.001, 0.023, 0.025, 1.258
 291160969, 0.021, 0.039, -0.007, 1.256, 0.004, -0.039, -0.078, 1.257
 291361160, -0.027, -0.038, -0.015, 1.255, 0.021, 0.039, -0.007, 1.256
 291560975, 0.022, 0.03, -0.02, 1.255, -0.027, -0.038, -0.015, 1.255
 291760969, 0.072, 0.003, 0.074, 1.255, 0.022, 0.03, -0.02, 1.255
 291941577, 0.022, -0.06900001, 0.074, 1.256, 0.072, 0.003, 0.074, 1.255
 292161063, 0.002, 0.021, -0.024, 1.256, 0.022, -0.06900001, 0.074, 1.256
 292361176, -0.01, 0.04, 0.093, 1.255, 0.002, 0.021, -0.024, 1.256
 292561043, 0.001, -0.07600001, -0.041, 1.253, -0.01, 0.04, 0.093, 1.255
 292780975, -0.013, 0.094, 0.081, 1.251, 0.001, -0.07600001, -0.041, 1.253
 292961038, -0.006, 0.06900001, 0.026, 1.249, -0.013, 0.094, 0.081, 1.251
 293160955, 0.021, 0.023, -0.022, 1.246, -0.006, 0.06900001, 0.026, 1.249
 293360956, -0.041, 0.023, 0.005, 1.247, 0.021, 0.023, -0.022, 1.246
 293560971, -0.004, 0.026, 0.055, 1.245, -0.041, 0.023, 0.005, 1.247
 293760959, -0.018, -0.061, -0.051, 1.244, -0.004, 0.026, 0.055, 1.245
 293981052, 0.02, 0.001, 0.012, 1.242, -0.018, -0.061, -0.051, 1.244
 294160949, 0.021, -0.07300001, -0.036, 1.24, 0.02, 0.001, 0.012, 1.242
 294360973, 0.034, -0.01, -0.012, 1.238, 0.021, -0.07300001, -0.036, 1.24
 294561051, 0.008, 0.046, -0.057, 1.237, 0.034, -0.01, -0.012, 1.238
 294760998, -0.01, -0.035, -0.044, 1.236, 0.008, 0.046, -0.057, 1.237
 294961050, 0.025, -0.025, 0.008, 1.235, -0.01, -0.035, -0.044, 1.236
 295160964, -0.01, 0.002, -0.009000001, 1.235, 0.025, -0.025, 0.008, 1.235
 295361043, -0.007, 0.031, 0.013, 1.236, -0.01, 0.002, -0.009000001, 1.235
 295561174, 0.005, 0.016, 0.039, 1.236, -0.007, 0.031, 0.013, 1.236
 295761071, 0.061, 0.03, 0.066, 1.235, 0.005, 0.016, 0.039, 1.236
 295960969, -0.002, -0.019, -0.114, 1.236, 0.061, 0.03, 0.066, 1.235
 296160971, 0.02, 0.03, 0.017, 1.236, -0.002, -0.019, -0.114, 1.236
 296360953, 0.02, 0.03, 0.029, 1.238, 0.02, 0.03, 0.017, 1.236
 296561179, 0.006, 0.017, 0.07700001, 1.239, 0.02, 0.03, 0.029, 1.238
 296760965, -0.002, -0.005, 0.047, 1.239, 0.006, 0.017, 0.07700001, 1.239
 296961043, -0.015, 0.06500001, -0.058, 1.24, -0.002, -0.005, 0.047, 1.239
 297141425, -0.039, 0.007, 0.026, 1.24, -0.015, 0.06500001, -0.058, 1.24
 297361039, 0.048, 0.007, 0.026, 1.24, -0.039, 0.007, 0.026, 1.24
 297561087, 0.023, 0.027, 0.021, 1.241, 0.048, 0.007, 0.026, 1.24
 297760965, -0.024, 0.027, 0.05, 1.241, 0.023, 0.027, 0.021, 1.241
 297960961, -0.005, -0.007, 0.061, 1.241, -0.024, 0.027, 0.05, 1.241
 311561129, 0.025, -0.003, 0.016, 1.219, -0.008, -0.003, 0.118, 1.22
 311761107, 0.06, 0.024, -0.02, 1.219, 0.025, -0.003, 0.016, 1.219
 311961146, -0.011, 0.015, 0.059, 1.218, 0.06, 0.024, -0.02, 1.219
 312161329, -0.029, -0.023, -0.003, 1.218, -0.011, 0.015, 0.059, 1.218
 312361331, -0.018, -0.007, -0.03, 1.218, -0.029, -0.023, -0.003, 1.218
 312561111, 0.028, -0.005, 0.06900001, 1.218, -0.018, -0.007, -0.03, 1.218
 312761097, 0.041, 0.028, 0.022, 1.218, 0.028, -0.005, 0.06900001, 1.218
 312961130, 0.01, 0.042, 0.028, 1.217, 0.041, 0.028, 0.022, 1.218
 313161116, -0.055, -0.017, -0.008, 1.216, 0.01, 0.042, 0.028, 1.217
 313361324, 0.029, -0.014, 0.08000001, 1.215, -0.055, -0.017, -0.008, 1.216
 313561106, -0.021, -0.002, -0.002, 1.213, 0.029, -0.014, 0.08000001, 1.215
 313761095, 0.027, 0.06900001, 0.015, 1.212, -0.021, -0.002, -0.002, 1.213
 313961339, 0.019, -0.034, -0.051, 1.211, 0.027, 0.06900001, 0.015, 1.212
 314161094, -0.029, -0.016, -0.059, 1.21, 0.019, -0.034, -0.051, 1.211
 314361087, 0.016, 0.009000001, 0.028, 1.21, -0.029, -0.016, -0.059, 1.21
 314561121, -0.006, 0.009000001, 0, 1.21, 0.016, 0.009000001, 0.028, 1.21
 314761107, 0.034, -0.032, -0.005, 1.21, -0.006, 0.009000001, 0, 1.21
 314961121, 0.06500001, 0.034, -0.009000001, 1.21, 0.034, -0.032, -0.005, 1.21
 315161106, 0.014, 0.03, 0.07, 1.209, 0.06500001, 0.034, -0.009000001, 1.21
 315341498, 0.003, -0.01, -0.011, 1.207, 0.014, 0.03, 0.07, 1.209
 315561334, -0.014, -0.064, -0.08800001, 1.205, 0.003, -0.01, -0.011, 1.207
 315761329, -0.033, -0.002, -0.116, 1.204, -0.014, -0.064, -0.08800001, 1.205
 315961112, -0.013, 0.042, 0.025, 1.205, -0.033, -0.002, -0.116, 1.204
 316161094, -0.016, 0.042, -0.029, 1.205, -0.013, 0.042, 0.025, 1.205
 316361107, 0.014, 0.026, -0.034, 1.205, -0.016, 0.042, -0.029, 1.205
 316561134, -0.057, -0.036, -0.119, 1.206, 0.014, 0.026, -0.034, 1.205
 316781115, -0.015, -0.056, -0.07, 1.206, -0.057, -0.036, -0.119, 1.206
 316961113, -0.016, 0.003, -0.058, 1.206, -0.015, -0.056, -0.07, 1.206
 317161108, -0.006, -0.026, -0.13, 1.206, -0.016, 0.003, -0.058, 1.206
 317361127, 0.035, 0.04, -0.114, 1.206, -0.006, -0.026, -0.13, 1.206
 317561164, -0.03, -0.045, -0.08800001, 1.206, 0.035, 0.04, -0.114, 1.206
 317761125, 0.013, -0.036, 0.002, 1.207, -0.03, -0.045, -0.08800001, 1.206
 317961139, -0.014, 0.039, 0.098, 1.207, 0.013, -0.036, 0.002, 1.207
 318161130, -0.009000001, -0.013, 0.064, 1.207, -0.014, 0.039, 0.098, 1.207
 318361124, -0.006, 0.056, 0.037, 1.207, -0.009000001, -0.013, 0.064, 1.207
 318561140, 0, 0.074, 0.008, 1.208, -0.006, 0.056, 0.037, 1.207
 318761115, 0.012, 0.041, -0.005, 1.208, 0, 0.074, 0.008, 1.208
 318961120, 0.016, 0.036, 0.06500001, 1.208, 0.012, 0.041, -0.005, 1.208
 319161107, 0.027, 0.061, 0.079, 1.208, 0.016, 0.036, 0.06500001, 1.208
 319361146, -0.004, -0.01, 0.075, 1.208, 0.027, 0.061, 0.079, 1.208
 319561118, -0.012, 0.025, 0.064, 1.208, -0.004, -0.01, 0.075, 1.208
 319761307, 0.027, 0.057, 0.004, 1.207, -0.012, 0.025, 0.064, 1.208
 319961128, -0.033, 0.026, -0.049, 1.207, 0.027, 0.057, 0.004, 1.207
 320161158, 0.015, 0.023, -0.026, 1.207, -0.033, 0.026, -0.049, 1.207
 320361179, 0.043, -0.009000001, -0.038, 1.208, 0.015, 0.023, -0.026, 1.207
 320541562, 0.004, -0.001, 0.02, 1.207, 0.043, -0.009000001, -0.038, 1.208
 320761160, -0.024, -0.026, -0.01, 1.207, 0.004, -0.001, 0.02, 1.207
 320961202, -0.02, -0.01, -0.018, 1.206, -0.024, -0.026, -0.01, 1.207
 321161395, -0.019, -0.012, -0.09, 1.205, -0.02, -0.01, -0.018, 1.206
 321361172, 0.03, 0.039, -0.036, 1.206, -0.019, -0.012, -0.09, 1.205
 321561192, -0.007, -0.044, -0.258, 1.206, 0.03, 0.039, -0.036, 1.206
 321761379, -0.107, -0.205, -0.322, 1.207, -0.007, -0.044, -0.258, 1.206
 321961200, -0.149, -0.067, -0.465, 1.209, -0.107, -0.205, -0.322, 1.207
 322161180, -0.199, -0.255, -0.505, 1.209, -0.149, -0.067, -0.465, 1.209
 322361178, -0.22, -0.428, -0.793, 1.209, -0.199, -0.255, -0.505, 1.209
 322561196, -0.032, -0.53, -0.802, 1.211, -0.22, -0.428, -0.793, 1.209
 322781406, -0.407, -0.302, -1.057, 1.214, -0.032, -0.53, -0.802, 1.211
 322961410, -0.411, -0.615, -0.551, 1.218, -0.407, -0.302, -1.057, 1.214
 323161184, -0.411, -1.106, -0.628, 1.224, -0.411, -0.615, -0.551, 1.218
 323361170, -0.221, -1.418, -0.427, 1.231, -0.411, -1.106, -0.628, 1.224
 323561176, -0.261, -1.799, -0.287, 1.237, -0.221, -1.418, -0.427, 1.231
 323761185, 0.09500001, -2.449, -0.09200001, 1.243, -0.261, -1.799, -0.287, 1.237
 323961404, 0.212, -2.427, -0.365, 1.249, 0.09500001, -2.449, -0.09200001, 1.243
 324141550, 0.329, -2.619, -0.221, 1.254, 0.212, -2.427, -0.365, 1.249
 324361173, 0.42, -2.465, -0.317, 1.257, 0.329, -2.619, -0.221, 1.254
 324561281, 0.669, -2.405, -0.388, 1.257, 0.42, -2.465, -0.317, 1.257
 324761396, 0.678, -2.364, -0.214, 1.258, 0.669, -2.405, -0.388, 1.257
 324961193, 0.58, -2.567, -0.249, 1.256, 0.678, -2.364, -0.214, 1.258
 325161158, 0.781, -2.405, -0.287, 1.255, 0.58, -2.567, -0.249, 1.256
 325361152, 0.738, -2.536, -0.251, 1.253, 0.781, -2.405, -0.287, 1.255
 325561192, 0.688, -2.525, -0.201, 1.25, 0.738, -2.536, -0.251, 1.253
 325761186, 0.678, -2.476, -0.207, 1.248, 0.688, -2.525, -0.201, 1.25
 325961403, 0.589, -2.225, -0.216, 1.247, 0.678, -2.476, -0.207, 1.248
 326161175, 0.701, -2.298, -0.24, 1.244, 0.589, -2.225, -0.216, 1.247
 326361182, 0.599, -2.108, -0.208, 1.242, 0.701, -2.298, -0.24, 1.244
 326541593, 0.452, -1.827, -0.178, 1.241, 0.599, -2.108, -0.208, 1.242
 326761165, 0.409, -1.538, -0.284, 1.241, 0.452, -1.827, -0.178, 1.241
 326961199, 0.282, -1.349, -0.16, 1.238, 0.409, -1.538, -0.284, 1.241
 327161187, 0.197, -0.8060001, -0.239, 1.238, 0.282, -1.349, -0.16, 1.238
 327361175, 0.121, -0.52, -0.233, 1.238, 0.197, -0.8060001, -0.239, 1.238
 327561189, 0.156, -0.374, -0.408, 1.238, 0.121, -0.52, -0.233, 1.238
 327761181, 0.204, -0.419, -0.377, 1.238, 0.156, -0.374, -0.408, 1.238
 327961191, 0.247, -0.349, -0.424, 1.237, 0.204, -0.419, -0.377, 1.238
 328161374, 0.086, -0.454, -0.313, 1.236, 0.247, -0.349, -0.424, 1.237
 328341556, 0.057, -0.465, -0.267, 1.235, 0.086, -0.454, -0.313, 1.236
 328561185, 0.003, -0.379, -0.269, 1.235, 0.057, -0.465, -0.267, 1.235
 328761167, -0.115, -0.28, -0.096, 1.233, 0.003, -0.379, -0.269, 1.235
 328961192, -0.159, -0.107, -0.169, 1.232, -0.115, -0.28, -0.096, 1.233
 329161181, -0.112, -0.272, -0.123, 1.232, -0.159, -0.107, -0.169, 1.232
 329361588, -0.125, 0.036, -0.04, 1.232, -0.112, -0.272, -0.123, 1.232
 329561601, -0.134, 0.08800001, -0.071, 1.232, -0.125, 0.036, -0.04, 1.232
