TimeUS,CGpN,CGpE,CGpD,CGpe,PGpN,PGpE,PGpD,PGpe
 146305887, -0.004, -0.047, -0.001, 1.606, -0.03, -0.006, -0.096, 1.608
 146525787, 0.002, -0.018, 0.023, 1.605, -0.004, -0.047, -0.001, 1.606
 146706528, -0.042, -0.026, -0.043, 1.603, 0.002, -0.018, 0.023, 1.605
 146925590, 0.009000001, 0.053, 0.005, 1.602, -0.042, -0.026, -0.043, 1.603
 147125609, 0.011, -0.017, 0.012, 1.601, 0.009000001, 0.053, 0.005, 1.602
 147325615, 0.007, 0.058, 0.038, 1.599, 0.011, -0.017, 0.012, 1.601
 147525633, -0.023, 0.028, -0.005, 1.597, 0.007, 0.058, 0.038, 1.599
 147725579, -0.031, -0.012, -0.017, 1.594, -0.023, 0.028, -0.005, 1.597
 147925588, 0.001, 0, -0.035, 1.592, -0.031, -0.012, -0.017, 1.594
 148125620, 0.007, 0.098, -0.017, 1.59, 0.001, 0, -0.035, 1.592
 148325786, -0.032, -0.029, -0.019, 1.587, 0.007, 0.098, -0.017, 1.59
 148525583, -0.015, 0, 0.044, 1.585, -0.032, -0.029, -0.019, 1.587
 148725588, -0.035, -0.018, -0.021, 1.583, -0.015, 0, 0.044, 1.585
 148906602, 0.025, -0.004, 0.111, 1.581, -0.035, -0.018, -0.021, 1.583
 149125598, -0.008, -0.007, -0.004, 1.579, 0.025, -0.004, 0.111, 1.581
 149325798, -0.043, -0.036, -0.017, 1.578, -0.008, -0.007, -0.004, 1.579
 149525591, 0.051, -0.034, -0.011, 1.576, -0.043, -0.036, -0.017, 1.578
 149725609, -0.032, 0.025, -0.128, 1.574, 0.051, -0.034, -0.011, 1.576
 149925617, -0.07, 0.036, -0.014, 1.572, -0.032, 0.025, -0.128, 1.574
 150125774, 0.005, -0.028, 0.003, 1.571, -0.07, 0.036, -0.014, 1.572
 150325634, -0.011, -0.009000001, -0.008, 1.569, 0.005, -0.028, 0.003, 1.571
 150525536, -0.011, 0.047, 0.011, 1.568, -0.011, -0.009000001, -0.008, 1.569
 150706262, -0.028, -0.02, -0.03, 1.567, -0.011, 0.047, 0.011, 1.568
 150925525, -0.004, -0.06500001, -0.06500001, 1.566, -0.028, -0.02, -0.03, 1.567
 151125566, -0.039, 0.036, -0.057, 1.565, -0.004, -0.06500001, -0.06500001, 1.566
 151325542, 0.013, -0.061, -0.026, 1.563, -0.039, 0.036, -0.057, 1.565
 151506210, -0.025, -0.07600001, -0.06500001, 1.562, 0.013, -0.061, -0.026, 1.563
 151725542, -0.038, 0.003, -0.017, 1.56, -0.025, -0.07600001, -0.06500001, 1.562
 151925564, -0.049, 0.029, -0.083, 1.56, -0.038, 0.003, -0.017, 1.56
 152125576, 0.05, 0.043, -0.081, 1.559, -0.049, 0.029, -0.083, 1.56
 152325552, 0.034, -0.031, 0.002, 1.558, 0.05, 0.043, -0.081, 1.559
 152525575, -0.014, -0.037, 0.018, 1.557, 0.034, -0.031, 0.002, 1.558
 152725521, -0.051, -0.083, -0.112, 1.556, -0.014, -0.037, 0.018, 1.557
 152925554, -0.012, -0.078, -0.078, 1.554, -0.051, -0.083, -0.112, 1.556
 153125556, -0.027, -0.061, -0.064, 1.553, -0.012, -0.078, -0.078, 1.554
 153325570, -0.021, 0.038, -0.006, 1.55, -0.027, -0.061, -0.064, 1.553
 153525716, -0.004, 0.015, -0.09900001, 1.548, -0.021, 0.038, -0.006, 1.55
 153725555, -0.047, -0.052, -0.017, 1.546, -0.004, 0.015, -0.09900001, 1.548
 153925576, -0.011, -0.09, -0.096, 1.543, -0.047, -0.052, -0.017, 1.546
 154106234, -0.02, -0.03, 0.042, 1.541, -0.011, -0.09, -0.096, 1.543
 154325532, 0.061, 0.06900001, -0.014, 1.54, -0.02, -0.03, 0.042, 1.541
 154525536, 0.015, -0.059, 0.001, 1.539, 0.061, 0.06900001, -0.014, 1.54
 154725554, 0.025, 0.06500001, -0.002, 1.538, 0.015, -0.059, 0.001, 1.539
 154925543, -0.024, 0.078, -0.011, 1.537, 0.025, 0.06500001, -0.002, 1.538
 155125577, 0.016, 0.012, 0.075, 1.536, -0.024, 0.078, -0.011, 1.537
 155325653, 0.028, 0.007, -0.11, 1.534, 0.016, 0.012, 0.075, 1.536
 155525752, 0.011, 0.04, 0.079, 1.533, 0.028, 0.007, -0.11, 1.534
 155725564, -0.03, 0.022, -0.045, 1.53, 0.011, 0.04, 0.079, 1.533
 155925549, 0.033, -0.041, -0.067, 1.529, -0.03, 0.022, -0.045, 1.53
 156125549, -0.044, -0.001, -0.081, 1.528, 0.033, -0.041, -0.067, 1.529
 156325550, -0.02, 0.048, -0.096, 1.527, -0.044, -0.001, -0.081, 1.528
 156525558, -0.026, -0.06, -0.086, 1.527, -0.02, 0.048, -0.096, 1.527
 156706245, -0.013, -0.031, -0.034, 1.524, -0.026, -0.06, -0.086, 1.527
 156925528, 0.015, 0.15, 0.011, 1.523, -0.013, -0.031, -0.034, 1.524
 157125582, 0.03, 0.016, 0.02, 1.522, 0.015, 0.15, 0.011, 1.523
 157325707, 0.013, -0.024, 0.024, 1.522, 0.03, 0.016, 0.02, 1.522
 157525555, -0.011, -0.016, 0.025, 1.521, 0.013, -0.024, 0.024, 1.522
 157725711, -0.003, -0.024, -0.031, 1.521, -0.011, -0.016, 0.025, 1.521
 157925567, -0.002, 0.089, -0.066, 1.52, -0.003, -0.024, -0.031, 1.521
 158125589, -0.01, 0.035, 0.093, 1.52, -0.002, 0.089, -0.066, 1.52
 158325544, -0.033, -0.078, -0.001, 1.519, -0.01, 0.035, 0.093, 1.52
 158525539, -0.009000001, -0.06500001, 0.03, 1.519, -0.033, -0.078, -0.001, 1.519
 158725540, -0.002, -0.003, 0.023, 1.519, -0.009000001, -0.06500001, 0.03, 1.519
 158925562, -0.043, -0.002, -0.034, 1.519, -0.002, -0.003, 0.023, 1.519
 159125730, 0.014, -0.121, -0.014, 1.519, -0.043, -0.002, -0.034, 1.519
 159306361, 0.024, 0.027, -0.169, 1.519, 0.014, -0.121, -0.014, 1.519
 159525549, 0.015, -0.027, -0.007, 1.519, 0.024, 0.027, -0.169, 1.519
 159725564, -0.06500001, 0.016, -0.059, 1.519, 0.015, -0.027, -0.007, 1.519
 159925544, -0.012, -0.033, 0.022, 1.52, -0.06500001, 0.016, -0.059, 1.519
 160125576, 0.051, -0.071, -0.004, 1.52, -0.012, -0.033, 0.022, 1.52
 160325580, -0.037, -0.035, -0.003, 1.52, 0.051, -0.071, -0.004, 1.52
 160525565, 0.032, 0.09200001, 0.026, 1.521, -0.037, -0.035, -0.003, 1.52
 160725592, -0.059, -0.014, -0.06500001, 1.52, 0.032, 0.09200001, 0.026, 1.521
 160925711, -0.031, -0.046, 0.012, 1.519, -0.059, -0.014, -0.06500001, 1.52
 161125586, -0.07, 0.023, -0.07700001, 1.519, -0.031, -0.046, 0.012, 1.519
 161325559, -0.037, -0.001, 0.027, 1.518, -0.07, 0.023, -0.07700001, 1.519
 161525571, -0.012, -0.055, -0.064, 1.519, -0.037, -0.001, 0.027, 1.518
 161725578, -0.016, -0.105, 0.013, 1.518, -0.012, -0.055, -0.064, 1.519
 161925748, -0.068, -0.144, -0.208, 1.519, -0.016, -0.105, 0.013, 1.518
 162125596, -0.266, -0.226, -0.187, 1.52, -0.068, -0.144, -0.208, 1.519
 162325602, -0.733, -0.179, -0.413, 1.52, -0.266, -0.226, -0.187, 1.52
 162525592, -0.784, 0.009000001, -0.525, 1.522, -0.733, -0.179, -0.413, 1.52
 162725725, -0.9450001, -0.402, -0.692, 1.523, -0.784, 0.009000001, -0.525, 1.522
 162925584, -0.9590001, -0.302, -0.6950001, 1.526, -0.9450001, -0.402, -0.692, 1.523
 163125601, -0.942, -0.381, -0.597, 1.53, -0.9590001, -0.302, -0.6950001, 1.526
 163325563, -1.136, -0.4, -0.758, 1.533, -0.942, -0.381, -0.597, 1.53
 163506270, -0.8880001, -0.3, -0.937, 1.537, -1.136, -0.4, -0.758, 1.533
 163725572, -0.869, -0.22, -0.648, 1.54, -0.8880001, -0.3, -0.937, 1.537
 163925560, -0.6020001, -0.126, -0.495, 1.541, -0.869, -0.22, -0.648, 1.54
 164125593, -0.473, -1.201, -0.246, 1.543, -0.6020001, -0.126, -0.495, 1.541
 164325591, -0.081, -0.247, -0.384, 1.545, -0.473, -1.201, -0.246, 1.543
 164525716, 0.13, -0.762, -0.46, 1.548, -0.081, -0.247, -0.384, 1.545
 164725577, 0.678, -0.757, -0.483, 1.548, 0.13, -0.762, -0.46, 1.548
 164925585, 1.078, -1.404, -0.354, 1.549, 0.678, -0.757, -0.483, 1.548
 165125598, 1.373, -1.781, -0.449, 1.549, 1.078, -1.404, -0.354, 1.549
 165325578, 1.514, -2.53, -0.184, 1.548, 1.373, -1.781, -0.449, 1.549
 165525586, 1.631, -3.303, -0.478, 1.545, 1.514, -2.53, -0.184, 1.548
 165725583, 1.587, -3.847, -0.839, 1.54, 1.631, -3.303, -0.478, 1.545
 165925578, 1.609, -4.176, -0.532, 1.537, 1.587, -3.847, -0.839, 1.54
 166125757, 1.053, -4.542, -1.018, 1.534, 1.609, -4.176, -0.532, 1.537
 166325719, 1.216, -4.477, -0.412, 1.531, 1.053, -4.542, -1.018, 1.534
 166528568, 1.12, -4.362, -0.614, 1.526, 1.216, -4.477, -0.412, 1.531
 166728563, 1.021, -4.532, -0.278, 1.519, 1.12, -4.362, -0.614, 1.526
 166928993, 0.973, -4.277, -0.349, 1.513, 1.021, -4.532, -0.278, 1.519
 167109011, 1.047, -3.849, -0.36, 1.509, 0.973, -4.277, -0.349, 1.513
 167309246, 1.109, -3.543, -0.31, 1.506, 1.047, -3.849, -0.36, 1.509
 167509259, 1.245, -3.328, -0.08400001, 1.505, 1.109, -3.543, -0.31, 1.506
 167729234, 1.245, -3.055, -0.221, 1.502, 1.245, -3.328, -0.08400001, 1.505
 167929978, 1.033, -2.747, -0.278, 1.499, 1.245, -3.055, -0.221, 1.502
 168130005, 0.994, -2.449, -0.337, 1.496, 1.033, -2.747, -0.278, 1.499
 168329997, 1, -2.621, -0.179, 1.485, 0.994, -2.449, -0.337, 1.496
 168511823, 0.478, -2.089, -0.294, 1.486, 1, -2.621, -0.179, 1.485
 168729962, 0.487, -2.102, -0.348, 1.482, 0.478, -2.089, -0.294, 1.486
 168929958, 0.321, -1.871, -0.393, 1.48, 0.487, -2.102, -0.348, 1.482
 169130063, 0.119, -1.793, -0.367, 1.479, 0.321, -1.871, -0.393, 1.48
 169311736, -0.136, -1.538, -0.333, 1.479, 0.119, -1.793, -0.367, 1.479
 169530087, -0.114, -1.257, -0.319, 1.474, -0.136, -1.538, -0.333, 1.479
 169711793, -0.133, -0.8710001, -0.576, 1.472, -0.114, -1.257, -0.319, 1.474
 169911749, -0.301, -0.742, -0.25, 1.469, -0.133, -0.8710001, -0.576, 1.472
 170130288, -0.102, -0.278, -0.53, 1.467, -0.301, -0.742, -0.25, 1.469
 170330077, -0.165, -0.642, -0.375, 1.466, -0.102, -0.278, -0.53, 1.467
 170530060, -0.018, -0.36, -0.257, 1.464, -0.165, -0.642, -0.375, 1.466
 170730042, -0.032, -0.638, -0.294, 1.461, -0.018, -0.36, -0.257, 1.464
 170930077, -0.068, -0.477, -0.452, 1.461, -0.032, -0.638, -0.294, 1.461
 171133495, 0.093, -0.488, -0.143, 1.457, -0.068, -0.477, -0.452, 1.461
 171313077, 0.18, -0.401, -0.089, 1.453, 0.093, -0.488, -0.143, 1.457
 171512985, 0.188, -0.35, -0.155, 1.452, 0.18, -0.401, -0.089, 1.453
 171713054, 0.263, -0.356, -0.192, 1.452, 0.188, -0.35, -0.155, 1.452
 171913002, 0.264, -0.227, -0.098, 1.454, 0.263, -0.356, -0.192, 1.452
 172113741, 0.306, -0.221, -0.005, 1.452, 0.264, -0.227, -0.098, 1.454
 172313640, 0.239, -0.129, 0.034, 1.453, 0.306, -0.221, -0.005, 1.452
 172513500, 0.201, -0.033, -0.007, 1.456, 0.239, -0.129, 0.034, 1.453
 172714317, 0.232, 0.046, 0.059, 1.46, 0.201, -0.033, -0.007, 1.456
 172914291, 0.245, -0.027, -0.046, 1.465, 0.232, 0.046, 0.059, 1.46
 173134317, 0.316, -0.017, -0.048, 1.467, 0.245, -0.027, -0.046, 1.465
 173318335, 0.259, 0.041, -0.114, 1.468, 0.316, -0.017, -0.048, 1.467
 173518456, 0.251, 0.013, -0.004, 1.466, 0.259, 0.041, -0.114, 1.468
 173718478, 0.147, 0.034, -0.002, 1.462, 0.251, 0.013, -0.004, 1.466
 173918359, 0.137, 0.104, -0.06900001, 1.459, 0.147, 0.034, -0.002, 1.462
 174136904, 0.052, 0.212, -0.107, 1.456, 0.137, 0.104, -0.06900001, 1.459
 174319745, 0.089, 0.239, -0.14, 1.451, 0.052, 0.212, -0.107, 1.456
 174519792, -0.094, 0.201, -0.083, 1.445, 0.089, 0.239, -0.14, 1.451
 174719640, -0.156, 0.118, -0.121, 1.44, -0.094, 0.201, -0.083, 1.445
 174919968, -0.305, 0.081, 0.007, 1.437, -0.156, 0.118, -0.121, 1.44
 175139943, -0.424, 0.165, 0.07600001, 1.432, -0.305, 0.081, 0.007, 1.437
 175320276, -0.436, 0.285, 0.036, 1.429, -0.424, 0.165, 0.07600001, 1.432
 175523341, -0.323, 0.32, -0.114, 1.428, -0.436, 0.285, 0.036, 1.429
 175723441, -0.288, 0.349, 0.04, 1.425, -0.323, 0.32, -0.114, 1.428
 175922847, -0.266, 0.218, -0.144, 1.424, -0.288, 0.349, 0.04, 1.425
 176122819, -0.038, 0.187, -0.01, 1.421, -0.266, 0.218, -0.144, 1.424
 176322826, 0.202, 0, 0.003, 1.42, -0.038, 0.187, -0.01, 1.421
 176522988, 0.27, -0.362, -0.049, 1.417, 0.202, 0, 0.003, 1.42
 176722811, 0.238, -0.437, 0.025, 1.412, 0.27, -0.362, -0.049, 1.417
 176922804, 0.214, -0.534, -0.11, 1.41, 0.238, -0.437, 0.025, 1.412
 177122828, 0.28, -0.47, -0.185, 1.408, 0.214, -0.534, -0.11, 1.41
 177322809, 0.203, -0.456, -0.125, 1.403, 0.28, -0.47, -0.185, 1.408
 177522933, 0.112, -0.18, -0.122, 1.399, 0.203, -0.456, -0.125, 1.403
 177722802, -0.024, -0.212, -0.212, 1.396, 0.112, -0.18, -0.122, 1.399
 177922809, -0.159, -0.115, -0.103, 1.396, -0.024, -0.212, -0.212, 1.396
 178122881, -0.219, 0.007, -0.131, 1.394, -0.159, -0.115, -0.103, 1.396
 178323275, -0.312, -0.046, 0.02, 1.391, -0.219, 0.007, -0.131, 1.394
 178524274, -0.378, -0.12, -0.028, 1.388, -0.312, -0.046, 0.02, 1.391
 178724216, -0.212, -0.207, 0.08000001, 1.386, -0.378, -0.12, -0.028, 1.388
 178924264, -0.062, -0.315, 0.032, 1.386, -0.212, -0.207, 0.08000001, 1.386
 179124276, 0.064, -0.244, 0.09900001, 1.386, -0.062, -0.315, 0.032, 1.386
 179324207, 0.053, -0.216, 0.156, 1.385, 0.064, -0.244, 0.09900001, 1.386
 179524264, 0.014, -0.062, -0.06900001, 1.384, 0.053, -0.216, 0.156, 1.385
 179724218, -0.05, 0.137, -0.09100001, 1.383, 0.014, -0.062, -0.06900001, 1.384
 179924196, -0.141, 0.143, -0.112, 1.384, -0.05, 0.137, -0.09100001, 1.383
 180124493, -0.025, 0.224, -0.148, 1.384, -0.141, 0.143, -0.112, 1.384
 180324250, -0.047, 0.098, 0.094, 1.383, -0.025, 0.224, -0.148, 1.384
 180524208, -0.009000001, -0.061, -0.046, 1.383, -0.047, 0.098, 0.094, 1.383
 180724480, 0.042, -0.15, 0.056, 1.384, -0.009000001, -0.061, -0.046, 1.383
 180924228, 0.115, -0.071, 0.122, 1.386, 0.042, -0.15, 0.056, 1.384
 181124293, 0.038, -0.042, 0.08000001, 1.39, 0.115, -0.071, 0.122, 1.386
 181324260, 0.021, 0.197, 0.07600001, 1.392, 0.038, -0.042, 0.08000001, 1.39
 181524226, 0.059, 0.325, 0.181, 1.394, 0.021, 0.197, 0.07600001, 1.392
 181724347, 0.169, 0.418, 0.033, 1.396, 0.059, 0.325, 0.181, 1.394
 181924499, 0.156, 0.239, 0.123, 1.396, 0.169, 0.418, 0.033, 1.396
 182124235, 0.228, 0.007, 0.032, 1.393, 0.156, 0.239, 0.123, 1.396
 182324210, 0.182, -0.145, 0.087, 1.389, 0.228, 0.007, 0.032, 1.393
 182524246, 0.14, -0.236, 0.045, 1.387, 0.182, -0.145, 0.087, 1.389
 182703661, 0.103, -0.318, 0.09, 1.386, 0.14, -0.236, 0.045, 1.387
 182924232, 0.08000001, -0.321, -0.036, 1.384, 0.103, -0.318, 0.09, 1.386
 183123659, 0.049, -0.326, 0.002, 1.383, 0.08000001, -0.321, -0.036, 1.384
 183323735, 0.114, -0.252, 0.245, 1.381, 0.049, -0.326, 0.002, 1.383
 183524021, 0.021, -0.105, 0.097, 1.379, 0.114, -0.252, 0.245, 1.381
 183724278, -0.136, -0.071, 0.08800001, 1.376, 0.021, -0.105, 0.097, 1.379
 183924022, -0.179, 0.047, -0.033, 1.373, -0.136, -0.071, 0.08800001, 1.376
 184124039, -0.279, 0.06900001, 0.104, 1.368, -0.179, 0.047, -0.033, 1.373
 184324443, -0.289, 0.052, 0.094, 1.366, -0.279, 0.06900001, 0.104, 1.368
 184524437, -0.391, 0.011, 0.027, 1.362, -0.289, 0.052, 0.094, 1.366
 184724670, -0.32, 0.059, -0.078, 1.356, -0.391, 0.011, 0.027, 1.362
 184924803, -0.313, -0.033, -0.041, 1.35, -0.32, 0.059, -0.078, 1.356
 185125011, -0.35, 0.021, -0.047, 1.347, -0.313, -0.033, -0.041, 1.35
 185324941, -0.297, -0.192, -0.093, 1.345, -0.35, 0.021, -0.047, 1.347
 185525149, -0.109, -0.369, -0.263, 1.343, -0.297, -0.192, -0.093, 1.345
 185724943, 0.108, -0.59, -0.155, 1.341, -0.109, -0.369, -0.263, 1.343
 185925187, 0.254, -0.574, -0.194, 1.344, 0.108, -0.59, -0.155, 1.341
 186124946, 0.261, -0.6, 0.02, 1.345, 0.254, -0.574, -0.194, 1.344
 186324936, 0.245, -0.527, 0.09, 1.344, 0.261, -0.6, 0.02, 1.345
 186524952, 0.18, -0.284, 0.043, 1.339, 0.245, -0.527, 0.09, 1.344
 186724934, 0.111, -0.067, -0.033, 1.331, 0.18, -0.284, 0.043, 1.339
 186925311, 0.041, 0.042, -0.09900001, 1.326, 0.111, -0.067, -0.033, 1.331
 187125342, -0.07600001, 0.137, -0.004, 1.322, 0.041, 0.042, -0.09900001, 1.326
 187325549, -0.07700001, 0.127, 0.055, 1.32, -0.07600001, 0.137, -0.004, 1.322
 187525323, -0.031, -0.018, 0.057, 1.314, -0.07700001, 0.127, 0.055, 1.32
 187725732, -0.052, -0.199, 0.11, 1.308, -0.031, -0.018, 0.057, 1.314
 187906008, -0.016, -0.208, 0.023, 1.303, -0.052, -0.199, 0.11, 1.308
 188125733, 0.082, -0.14, 0.136, 1.302, -0.016, -0.208, 0.023, 1.303
 188325730, 0.093, -0.163, 0.039, 1.3, 0.082, -0.14, 0.136, 1.302
 188525724, 0.105, -0.161, 0.09200001, 1.299, 0.093, -0.163, 0.039, 1.3
 188725684, 0.118, -0.096, 0.094, 1.295, 0.105, -0.161, 0.09200001, 1.299
 188945861, 0.07, -0.045, -0.032, 1.296, 0.118, -0.096, 0.094, 1.295
 189125921, 0.111, 0.041, 0.072, 1.294, 0.07, -0.045, -0.032, 1.296
 189325718, 0.007, 0.16, 0.022, 1.291, 0.111, 0.041, 0.072, 1.294
 189525721, 0.074, 0.156, -0.011, 1.291, 0.007, 0.16, 0.022, 1.291
 189725724, -0.062, 0.195, -0.259, 1.29, 0.074, 0.156, -0.011, 1.291
 189925712, 0.066, 0.26, 0.06, 1.291, -0.062, 0.195, -0.259, 1.29
 190125869, -0.043, 0.19, 0.111, 1.296, 0.066, 0.26, 0.06, 1.291
 190325720, -0.161, 0.121, -0.039, 1.302, -0.043, 0.19, 0.111, 1.296
 190506046, -0.169, 0.118, -0.101, 1.307, -0.161, 0.121, -0.039, 1.302
 190725725, -0.201, 0.127, -0.006, 1.311, -0.169, 0.118, -0.101, 1.307
 190925859, -0.245, 0.033, -0.017, 1.313, -0.201, 0.127, -0.006, 1.311
 191125754, -0.033, -0.011, -0.044, 1.315, -0.245, 0.033, -0.017, 1.313
 191325718, -0.039, -0.171, 0.056, 1.316, -0.033, -0.011, -0.044, 1.315
 191525752, 0.036, -0.269, 0.09900001, 1.316, -0.039, -0.171, 0.056, 1.316
 191725722, 0.094, -0.332, -0.015, 1.312, 0.036, -0.269, 0.09900001, 1.316
 191925715, 0.034, -0.344, 0.086, 1.312, 0.094, -0.332, -0.015, 1.312
 192126103, 0.064, -0.307, 0.139, 1.313, 0.034, -0.344, 0.086, 1.312
 192326084, -0.009000001, -0.311, 0.086, 1.314, 0.064, -0.307, 0.139, 1.313
 192526094, 0.005, -0.22, -0.096, 1.315, -0.009000001, -0.311, 0.086, 1.314
 192726122, -0.09100001, -0.034, -0.052, 1.313, 0.005, -0.22, -0.096, 1.315
 192906323, -0.247, 0.108, -0.085, 1.314, -0.09100001, -0.034, -0.052, 1.313
 193106113, -0.187, 0.167, 0.037, 1.316, -0.247, 0.108, -0.085, 1.314
 193326274, -0.152, 0.128, 0.033, 1.319, -0.187, 0.167, 0.037, 1.316
 193526089, -0.14, 0.103, 0.072, 1.321, -0.152, 0.128, 0.033, 1.319
 193726989, -0.004, 0.08800001, 0.058, 1.322, -0.14, 0.103, 0.072, 1.321
 193926990, 0.017, 0.021, -0.016, 1.323, -0.004, 0.08800001, 0.058, 1.322
 194126856, 0.155, 0.021, -0.035, 1.326, 0.017, 0.021, -0.016, 1.323
 194327311, 0.268, -0.09100001, 0.004, 1.328, 0.155, 0.021, -0.035, 1.326
 194527504, 0.344, -0.096, -0.008, 1.33, 0.268, -0.09100001, 0.004, 1.328
 194727265, 0.245, -0.185, 0.016, 1.332, 0.344, -0.096, -0.008, 1.33
 194947630, 0.294, -0.352, 0.096, 1.335, 0.245, -0.185, 0.016, 1.332
 195127681, 0.236, -0.19, 0.196, 1.337, 0.294, -0.352, 0.096, 1.335
 195327653, 0.168, -0.071, 0.05, 1.34, 0.236, -0.19, 0.196, 1.337
 195527648, 0.085, -0.002, 0.003, 1.339, 0.168, -0.071, 0.05, 1.34
 195727653, 0.061, 0.001, -0.093, 1.336, 0.085, -0.002, 0.003, 1.339
 195927664, -0.022, 0.047, -0.081, 1.333, 0.061, 0.001, -0.093, 1.336
 196127702, -0.002, 0.138, -0.068, 1.33, -0.022, 0.047, -0.081, 1.333
 196327803, 0.004, -0.001, -0.067, 1.325, -0.002, 0.138, -0.068, 1.33
 196527644, 0.004, 0.026, -0.063, 1.32, 0.004, -0.001, -0.067, 1.325
 196727643, -0.022, -0.08400001, -0.059, 1.314, 0.004, 0.026, -0.063, 1.32
 196927663, 0.038, -0.176, 0.03, 1.308, -0.022, -0.08400001, -0.059, 1.314
 197127679, -0.025, -0.15, 0.05, 1.3, 0.038, -0.176, 0.03, 1.308
 197327708, -0.009000001, -0.132, 0.07700001, 1.298, -0.025, -0.15, 0.05, 1.3
 197527780, -0.043, -0.152, 0.093, 1.298, -0.009000001, -0.132, 0.07700001, 1.298
 197727648, -0.039, -0.019, 0.057, 1.296, -0.043, -0.152, 0.093, 1.298
 197927665, -0.102, -0.049, 0.158, 1.297, -0.039, -0.019, 0.057, 1.296
 198127816, -0.07300001, -0.047, 0.121, 1.298, -0.102, -0.049, 0.158, 1.297
 198308258, -0.103, 0.035, 0.086, 1.297, -0.07300001, -0.047, 0.121, 1.298
 198528234, -0.148, 0.07300001, 0.121, 1.296, -0.103, 0.035, 0.086, 1.297
 198728039, -0.145, -0.001, 0.017, 1.293, -0.148, 0.07300001, 0.121, 1.296
 198928050, -0.154, 0.054, -0.118, 1.289, -0.145, -0.001, 0.017, 1.293
 199130875, -0.147, -0.023, -0.08400001, 1.287, -0.154, 0.054, -0.118, 1.289
 199330864, -0.126, -0.033, -0.098, 1.286, -0.147, -0.023, -0.08400001, 1.287
 199530946, -0.15, -0.075, -0.055, 1.286, -0.126, -0.033, -0.098, 1.286
 199730871, -0.06500001, -0.096, -0.07700001, 1.285, -0.15, -0.075, -0.055, 1.286
 199931195, -0.183, -0.178, -0.09500001, 1.285, -0.06500001, -0.096, -0.07700001, 1.285
 200131340, -0.018, -0.117, 0.133, 1.286, -0.183, -0.178, -0.09500001, 1.285
 200331190, 0.118, -0.168, -0.018, 1.287, -0.018, -0.117, 0.133, 1.286
 200531115, -0.014, -0.208, -0.151, 1.289, 0.118, -0.168, -0.018, 1.287
 200711190, 0.127, 0.06, -0.011, 1.289, -0.014, -0.208, -0.151, 1.289
 200911186, 0.071, -0.166, 0.105, 1.29, 0.127, 0.06, -0.011, 1.289
 201111198, 0.042, 0.149, 0.106, 1.291, 0.071, -0.166, 0.105, 1.29
 201311309, -0.014, 0.163, 0.057, 1.292, 0.042, 0.149, 0.106, 1.291
 201511113, -0.113, -0.06900001, 0.029, 1.292, -0.014, 0.163, 0.057, 1.292
 201711205, -0.034, 0.11, 0.206, 1.294, -0.113, -0.06900001, 0.029, 1.292
 201911192, -0.16, 0.06, -0.033, 1.297, -0.034, 0.11, 0.206, 1.294
 202111352, -0.183, 0.263, 0.017, 1.3, -0.16, 0.06, -0.033, 1.297
 202311205, -0.055, 0.21, 0.107, 1.304, -0.183, 0.263, 0.017, 1.3
 202511191, -0.029, 0.315, 0.06, 1.308, -0.055, 0.21, 0.107, 1.304
 202731606, 0.057, 0.265, 0.081, 1.312, -0.029, 0.315, 0.06, 1.308
 202931606, 0.037, 0.061, -0.072, 1.315, 0.057, 0.265, 0.081, 1.312
 203131640, 0.148, -0.079, -0.053, 1.316, 0.037, 0.061, -0.072, 1.315
 203331983, 0.259, -0.115, -0.202, 1.316, 0.148, -0.079, -0.053, 1.316
 203512484, 0.341, -0.257, -0.16, 1.317, 0.259, -0.115, -0.202, 1.316
 203712407, 0.311, -0.331, -0.131, 1.316, 0.341, -0.257, -0.16, 1.317
 203912587, 0.239, -0.455, -0.063, 1.315, 0.311, -0.331, -0.131, 1.316
 204112524, 0.271, -0.524, -0.051, 1.311, 0.239, -0.455, -0.063, 1.315
 204312447, 0.349, -0.353, 0.023, 1.308, 0.271, -0.524, -0.051, 1.311
 204512598, 0.194, -0.365, 0.019, 1.309, 0.349, -0.353, 0.023, 1.308
 204712460, 0.037, -0.292, -0.048, 1.308, 0.194, -0.365, 0.019, 1.309
 204932197, -0.051, -0.137, 0.059, 1.309, 0.037, -0.292, -0.048, 1.308
 205132033, -0.055, -0.08800001, 0.016, 1.309, -0.051, -0.137, 0.059, 1.309
 205332023, -0.039, -0.047, 0.026, 1.308, -0.055, -0.08800001, 0.016, 1.309
 205532228, -0.152, 0.061, -0.07700001, 1.307, -0.039, -0.047, 0.026, 1.308
 205732074, -0.129, 0.045, 0.105, 1.306, -0.152, 0.061, -0.07700001, 1.307
 205932573, -0.078, 0.029, 0.029, 1.305, -0.129, 0.045, 0.105, 1.306
 206112868, -0.048, -0.007, 0.001, 1.304, -0.078, 0.029, 0.029, 1.305
 206332445, -0.062, -0.047, -0.087, 1.303, -0.048, -0.007, 0.001, 1.304
 206532343, 0.015, -0.019, 0.108, 1.302, -0.062, -0.047, -0.087, 1.303
 206732441, 0.018, 0, -0.008, 1.3, 0.015, -0.019, 0.108, 1.302
 206932775, 0.001, -0.037, -0.016, 1.3, 0.018, 0, -0.008, 1.3
 207113070, 0.01, 0.078, 0.147, 1.299, 0.001, -0.037, -0.016, 1.3
 207313101, -0.055, 0.151, 0.025, 1.299, 0.01, 0.078, 0.147, 1.299
 207513264, -0.098, 0.127, 0.002, 1.298, -0.055, 0.151, 0.025, 1.299
 207732755, -0.066, 0.122, -0.02, 1.29, -0.098, 0.127, 0.002, 1.298
 207913109, -0.062, 0.075, 0.026, 1.289, -0.066, 0.122, -0.02, 1.29
 208132786, -0.173, 0.248, 0.011, 1.288, -0.062, 0.075, 0.026, 1.289
 208332799, -0.061, -0.005, -0.06, 1.285, -0.173, 0.248, 0.011, 1.288
 208513108, -0.052, 0.021, -0.041, 1.286, -0.061, -0.005, -0.06, 1.285
 208732773, -0.09100001, 0.024, 0.011, 1.286, -0.052, 0.021, -0.041, 1.286
 208932765, -0.003, 0.019, 0.203, 1.286, -0.09100001, 0.024, 0.011, 1.286
 209132973, -0.02, 0.031, -0.012, 1.287, -0.003, 0.019, 0.203, 1.286
 209332769, -0.025, 0.03, 0.008, 1.288, -0.02, 0.031, -0.012, 1.287
 209532747, -0.02, 0.013, -0.04, 1.291, -0.025, 0.03, 0.008, 1.288
 209732761, -0.029, 0.062, -0.04, 1.29, -0.02, 0.013, -0.04, 1.291
 209932754, -0.033, 0.094, -0.049, 1.288, -0.029, 0.062, -0.04, 1.29
 210132924, -0.014, 0.12, -0.038, 1.288, -0.033, 0.094, -0.049, 1.288
 210332764, -0.027, 0.143, 0.004, 1.287, -0.014, 0.12, -0.038, 1.288
 210513089, 0, 0.123, -0.023, 1.287, -0.027, 0.143, 0.004, 1.287
 210713086, 0.019, 0.096, -0.07300001, 1.285, 0, 0.123, -0.023, 1.287
 210913083, 0.003, 0.129, -0.09900001, 1.284, 0.019, 0.096, -0.07300001, 1.285
 211132774, 0.002, 0.111, -0.055, 1.281, 0.003, 0.129, -0.09900001, 1.284
 211313064, 0.017, 0.06500001, 0.013, 1.277, 0.002, 0.111, -0.055, 1.281
 211532771, 0.052, 0.116, 0.012, 1.275, 0.017, 0.06500001, 0.013, 1.277
 211732762, 0.044, 0.152, 0.005, 1.272, 0.052, 0.116, 0.012, 1.275
 211932777, 0.038, 0.169, -0.011, 1.272, 0.044, 0.152, 0.005, 1.272
 212133208, 0.094, 0.103, -0.028, 1.272, 0.038, 0.169, -0.011, 1.272
 212333220, 0.03, 0.008, -0.17, 1.272, 0.094, 0.103, -0.028, 1.272
 212533207, 0.013, 0.022, -0.128, 1.272, 0.03, 0.008, -0.17, 1.272
 212713224, 0.162, 0.1, 0.02, 1.273, 0.013, 0.022, -0.128, 1.272
 212933204, 0.079, 0, -0.015, 1.275, 0.162, 0.1, 0.02, 1.273
 213113201, 0.1, 0.034, 0.047, 1.278, 0.079, 0, -0.015, 1.275
 213313626, 0.031, 0, -0.027, 1.282, 0.1, 0.034, 0.047, 1.278
 213513631, 0.02, 0, -0.043, 1.286, 0.031, 0, -0.027, 1.282
 213713644, 0, 0, -0.019, 1.287, 0.02, 0, -0.043, 1.286
 213913805, 0, 0.023, 0.01, 1.289, 0, 0, -0.019, 1.287
 214134220, 0, 0.104, -0.038, 1.291, 0, 0.023, 0.01, 1.289
 214334484, 0, 0.07300001, 0.119, 1.292, 0, 0.104, -0.038, 1.291
 214534325, 0, 0.169, -0.06500001, 1.292, 0, 0.07300001, 0.119, 1.292
 214734193, 0.001, 0.113, 0.009000001, 1.291, 0, 0.169, -0.06500001, 1.292
 214934239, 0, 0.07600001, -0.041, 1.293, 0.001, 0.113, 0.009000001, 1.291
 215134240, 0.056, 0, -0.012, 1.294, 0, 0.07600001, -0.041, 1.293
 215334218, 0.039, 0, 0.09, 1.295, 0.056, 0, -0.012, 1.294
 215513607, 0.041, 0, 0.036, 1.296, 0.039, 0, 0.09, 1.295
 215713627, 0.075, 0, -0.035, 1.297, 0.041, 0, 0.036, 1.296
 215913642, 0.158, 0, 0.079, 1.298, 0.075, 0, -0.035, 1.297
 216134276, 0.14, 0, -0.103, 1.3, 0.158, 0, 0.079, 1.298
 216314201, 0.212, 0, 0.018, 1.302, 0.14, 0, -0.103, 1.3
 216514320, 0.247, 0, 0.1, 1.304, 0.212, 0, 0.018, 1.302
 216714107, 0.343, 0, 0.147, 1.305, 0.247, 0, 0.1, 1.304
 216914100, 0.212, 0, 0.093, 1.307, 0.343, 0, 0.147, 1.305
 217134119, 0.09900001, 0, 0.01, 1.306, 0.212, 0, 0.093, 1.307
 217314352, 0.035, 0, -0.058, 1.304, 0.09900001, 0, 0.01, 1.306
 217518544, 0, 0, -0.177, 1.301, 0.035, 0, -0.058, 1.304
 217737091, 0, 0, -0.295, 1.299, 0, 0, -0.177, 1.301
 217918854, 0.053, 0, -0.081, 1.299, 0, 0, -0.295, 1.299
 218137217, 0.087, 0, -0.235, 1.299, 0.053, 0, -0.081, 1.299
 218318818, 0.082, 0, -0.075, 1.298, 0.087, 0, -0.235, 1.299
 218518983, 0.19, 0, -0.012, 1.3, 0.082, 0, -0.075, 1.298
 218720088, 0.09100001, 0, -0.004, 1.3, 0.19, 0, -0.012, 1.3
 218940641, 0.125, 0, 0.029, 1.3, 0.09100001, 0, -0.004, 1.3
 219120056, 0.123, 0, 0.089, 1.301, 0.125, 0, 0.029, 1.3
 219320239, 0.045, 0, -0.008, 1.302, 0.123, 0, 0.089, 1.301
 219520046, 0.03, 0, -0.043, 1.303, 0.045, 0, -0.008, 1.302
 219720071, 0, 0, -0.068, 1.304, 0.03, 0, -0.043, 1.303
 219920028, 0.042, 0, -0.178, 1.304, 0, 0, -0.068, 1.304
 220120073, 0, 0, -0.105, 1.305, 0.042, 0, -0.178, 1.304
 220320246, 0, 0, -0.093, 1.304, 0, 0, -0.105, 1.305
 220520257, 0, 0, 0.032, 1.303, 0, 0, -0.093, 1.304
 220720059, 0.059, 0, -0.131, 1.302, 0, 0, 0.032, 1.303
 220920056, 0, 0, -0.115, 1.303, 0.059, 0, -0.131, 1.302
 221120059, 0, 0.075, 0.07, 1.305, 0, 0, -0.115, 1.303
 221320491, 0, 0.07700001, 0.047, 1.307, 0, 0.075, 0.07, 1.305
 221520491, 0, 0.208, -0.026, 1.31, 0, 0.07700001, 0.047, 1.307
 221720492, 0, 0.207, -0.003, 1.308, 0, 0.208, -0.026, 1.31
 221920491, 0, 0.182, -0.046, 1.308, 0, 0.207, -0.003, 1.308
 222120514, 0, 0.223, 0.013, 1.309, 0, 0.182, -0.046, 1.308
 222320626, 0, 0.223, 0.034, 1.311, 0, 0.223, 0.013, 1.309
 222520487, 0, 0.296, -0.001, 1.311, 0, 0.223, 0.034, 1.311
 222720825, 0, 0.379, 0.042, 1.309, 0, 0.296, -0.001, 1.311
 222920840, 0, 0.292, 0.067, 1.307, 0, 0.379, 0.042, 1.309
 223120858, 0, 0.358, -0.137, 1.305, 0, 0.292, 0.067, 1.307
 223320834, 0, 0.345, 0.017, 1.303, 0, 0.358, -0.137, 1.305
 223520963, 0, 0.265, 0, 1.304, 0, 0.345, 0.017, 1.303
 223721267, 0, 0.388, 0.008, 1.301, 0, 0.265, 0, 1.304
 223921262, 0, 0.274, 0.144, 1.303, 0, 0.388, 0.008, 1.301
 224121507, 0, 0.303, 0.129, 1.303, 0, 0.274, 0.144, 1.303
 224321251, 0, 0.289, -0.016, 1.303, 0, 0.303, 0.129, 1.303
 224521381, 0, 0.293, 0.001, 1.304, 0, 0.289, -0.016, 1.303
 224721253, 0, 0.301, -0.094, 1.304, 0, 0.293, 0.001, 1.304
 224941388, 0, 0.486, -0.09100001, 1.305, 0, 0.301, -0.094, 1.304
 225121251, 0, 0.307, 0.158, 1.301, 0, 0.486, -0.09100001, 1.305
 225321256, 0, 0.181, 0.041, 1.3, 0, 0.307, 0.158, 1.301
 225521255, 0.111, 0.508, 0.195, 1.301, 0, 0.181, 0.041, 1.3
 225721249, 0, 0.275, -0.001, 1.303, 0.111, 0.508, 0.195, 1.301
 225921489, 0.041, 0.204, -0.09, 1.306, 0, 0.275, -0.001, 1.303
 226121268, 0.039, 0.117, 0.055, 1.308, 0.041, 0.204, -0.09, 1.306
 226321246, 0.08400001, 0, -0.061, 1.308, 0.039, 0.117, 0.055, 1.308
 226521260, 0, 0.054, -0.042, 1.309, 0.08400001, 0, -0.061, 1.308
 226721252, 0, 0.064, -0.052, 1.309, 0, 0.054, -0.042, 1.309
 226921228, 0, 0.195, 0.057, 1.309, 0, 0.064, -0.052, 1.309
 227121271, 0.036, 0.266, 0.144, 1.309, 0, 0.195, 0.057, 1.309
 227321255, 0.102, 0.064, -0.006, 1.309, 0.036, 0.266, 0.144, 1.309
 227521251, 0.247, 0.015, 0.191, 1.31, 0.102, 0.064, -0.006, 1.309
 227721529, 0.271, 0, 0.186, 1.31, 0.247, 0.015, 0.191, 1.31
 227921245, 0.233, 0, 0.115, 1.311, 0.271, 0, 0.186, 1.31
 228121264, 0.309, 0, 0.018, 1.311, 0.233, 0, 0.115, 1.311
 228321233, 0.261, 0, -0.066, 1.311, 0.309, 0, 0.018, 1.311
 228521259, 0.33, 0, -0.226, 1.311, 0.261, 0, -0.066, 1.311
 228721460, 0.275, 0, -0.132, 1.311, 0.33, 0, -0.226, 1.311
 228921254, 0.226, 0, -0.159, 1.311, 0.275, 0, -0.132, 1.311
 229121275, 0.153, 0, -0.164, 1.31, 0.226, 0, -0.159, 1.311
 229321244, 0.216, 0, -0.086, 1.309, 0.153, 0, -0.164, 1.31
 229501622, 0.273, 0, -0.119, 1.31, 0.216, 0, -0.086, 1.309
 229721262, 0.09200001, 0, -0.039, 1.307, 0.273, 0, -0.119, 1.31
 229921259, 0.105, 0, -0.041, 1.304, 0.09200001, 0, -0.039, 1.307
 230121667, 0.085, 0, 0.06900001, 1.302, 0.105, 0, -0.041, 1.304
 230321648, 0.175, 0, 0.021, 1.305, 0.085, 0, 0.06900001, 1.302
 230525844, 0, 0, -0.075, 1.309, 0.175, 0, 0.021, 1.305
 230704618, 0, 0, -0.09100001, 1.308, 0, 0, -0.075, 1.309
 230927542, 0, 0, -0.124, 1.31, 0, 0, -0.09100001, 1.308
 231127758, 0.017, 0, -0.074, 1.313, 0, 0, -0.124, 1.31
 231308065, 0.002, 0, -0.048, 1.312, 0.017, 0, -0.074, 1.313
 231508035, 0.038, 0, -0.043, 1.312, 0.002, 0, -0.048, 1.312
 231708061, 0.001, 0, 0.163, 1.312, 0.038, 0, -0.043, 1.312
 231908275, 0, 0, 0.061, 1.313, 0.001, 0, 0.163, 1.312
 232108044, 0, 0, 0.041, 1.313, 0, 0, 0.061, 1.313
 232308047, 0, 0, 0.029, 1.313, 0, 0, 0.041, 1.313
 232508063, 0, 0.032, 0.131, 1.312, 0, 0, 0.029, 1.313
 232708055, 0.016, 0.121, 0.064, 1.311, 0, 0.032, 0.131, 1.312
 232908027, 0, 0.116, 0.289, 1.313, 0.016, 0.121, 0.064, 1.311
 233128069, 0, 0.251, 0.09, 1.316, 0, 0.116, 0.289, 1.313
 233308501, 0, 0.18, 0.05, 1.316, 0, 0.251, 0.09, 1.316
 233508506, 0, 0.207, 0.094, 1.317, 0, 0.18, 0.05, 1.316
 233708691, 0.033, 0.103, -0.059, 1.319, 0, 0.207, 0.094, 1.317
 233908840, 0.098, 0.129, 0.07300001, 1.322, 0.033, 0.103, -0.059, 1.319
 234130678, 0.036, 0.116, 0.082, 1.324, 0.098, 0.129, 0.07300001, 1.322
 234309234, 0, 0.089, 0, 1.327, 0.036, 0.116, 0.082, 1.324
 234509236, 0.074, 0.129, -0.023, 1.329, 0, 0.089, 0, 1.327
 234709382, 0.09200001, 0.021, -0.045, 1.331, 0.074, 0.129, -0.023, 1.329
 234909220, 0.169, 0.022, -0.042, 1.333, 0.09200001, 0.021, -0.045, 1.331
 235109252, 0.147, 0.14, -0.087, 1.335, 0.169, 0.022, -0.042, 1.333
 235309236, 0.1, 0.282, -0.043, 1.337, 0.147, 0.14, -0.087, 1.335
 235530832, 0.181, 0.283, -0.062, 1.339, 0.1, 0.282, -0.043, 1.337
 235709261, 0.204, 0.257, 0.043, 1.341, 0.181, 0.283, -0.062, 1.339
 235909235, 0.125, 0.349, 0.082, 1.343, 0.204, 0.257, 0.043, 1.341
 236109296, 0.138, 0.366, -0.003, 1.344, 0.125, 0.349, 0.082, 1.343
 236309221, 0, 0.405, -0.13, 1.347, 0.138, 0.366, -0.003, 1.344
 236509233, 0.066, 0.408, -0.026, 1.35, 0, 0.405, -0.13, 1.347
 236730883, 0.052, 0.436, -0.002, 1.351, 0.066, 0.408, -0.026, 1.35
 236930854, 0, 0.233, -0.079, 1.35, 0.052, 0.436, -0.002, 1.351
 237131048, 0.078, 0.298, 0.031, 1.348, 0, 0.233, -0.079, 1.35
 237312102, 0.019, 0.293, 0.107, 1.345, 0.078, 0.298, 0.031, 1.348
 237512306, 0, 0.141, 0.072, 1.344, 0.019, 0.293, 0.107, 1.345
 237712118, 0, 0.242, 0.117, 1.343, 0, 0.141, 0.072, 1.344
 237912287, 0, 0.283, 0.13, 1.341, 0, 0.242, 0.117, 1.343
 238112121, 0, 0.414, -0.012, 1.339, 0, 0.283, 0.13, 1.341
 238312558, 0, 0.479, 0.034, 1.339, 0, 0.414, -0.012, 1.339
 238512522, 0, 0.357, -0.04, 1.339, 0, 0.479, 0.034, 1.339
 238712552, 0, 0.294, -0.017, 1.337, 0, 0.357, -0.04, 1.339
 238932105, 0, 0.262, -0.015, 1.336, 0, 0.294, -0.017, 1.337
 239132322, 0, 0.181, -0.032, 1.334, 0, 0.262, -0.015, 1.336
 239312686, 0, 0.156, -0.062, 1.332, 0, 0.181, -0.032, 1.334
 239512608, 0, 0.104, -0.1, 1.333, 0, 0.156, -0.062, 1.332
 239712545, 0, 0.141, -0.041, 1.335, 0, 0.104, -0.1, 1.333
 239912520, 0, 0.123, -0.103, 1.338, 0, 0.141, -0.041, 1.335
 240112610, 0, 0, 0.001, 1.34, 0, 0.123, -0.103, 1.338
 240312514, 0, 0, -0.041, 1.342, 0, 0, 0.001, 1.34
 240512832, 0, 0, 0.087, 1.344, 0, 0, -0.041, 1.342
 240712940, 0, 0, 0.014, 1.344, 0, 0, 0.087, 1.344
 240912844, 0, 0, -0.001, 1.345, 0, 0, 0.014, 1.344
 241113226, 0, 0, 0.021, 1.344, 0, 0, -0.001, 1.345
 241312882, 0, 0, -0.068, 1.342, 0, 0, 0.021, 1.344
 241513220, 0, 0, -0.02, 1.341, 0, 0, -0.068, 1.342
 241713218, 0, 0, -0.079, 1.339, 0, 0, -0.02, 1.341
 241913217, 0, 0, -0.026, 1.336, 0, 0, -0.079, 1.339
 242113349, 0.044, 0, 0.036, 1.335, 0, 0, -0.026, 1.336
 242313200, 0.197, 0, 0.027, 1.333, 0.044, 0, 0.036, 1.335
 242513208, 0.21, 0, 0.297, 1.332, 0.197, 0, 0.027, 1.333
 242713227, 0.244, 0, 0.053, 1.332, 0.21, 0, 0.297, 1.332
 242933205, 0.39, 0, 0.195, 1.332, 0.244, 0, 0.053, 1.332
 243113237, 0.379, 0, 0.079, 1.332, 0.39, 0, 0.195, 1.332
 243313216, 0.436, 0, 0.09, 1.331, 0.379, 0, 0.079, 1.332
 243513508, 0.497, 0, 0.126, 1.331, 0.436, 0, 0.09, 1.331
 243716271, 0.404, 0, 0.063, 1.33, 0.497, 0, 0.126, 1.331
 243919234, 0.493, 0, 0.026, 1.328, 0.404, 0, 0.063, 1.33
 244119196, 0.485, 0, 0.119, 1.327, 0.493, 0, 0.026, 1.328
 244318929, 0.375, 0, -0.021, 1.326, 0.485, 0, 0.119, 1.327
 244518845, 0.208, 0, -0.177, 1.325, 0.375, 0, -0.021, 1.326
 244718848, 0.324, 0, -0.166, 1.325, 0.208, 0, -0.177, 1.325
 244918833, 0.161, 0, -0.09100001, 1.326, 0.324, 0, -0.166, 1.325
 245119002, 0.22, 0, -0.137, 1.326, 0.161, 0, -0.09100001, 1.326
 245318872, 0.143, 0, -0.125, 1.326, 0.22, 0, -0.137, 1.326
 245518828, 0.09100001, 0, -0.083, 1.326, 0.143, 0, -0.125, 1.326
 245718854, 0.049, 0, -0.06, 1.325, 0.09100001, 0, -0.083, 1.326
 245918840, 0.274, 0, -0.146, 1.327, 0.049, 0, -0.06, 1.325
 246118848, 0.074, 0, -0.153, 1.328, 0.274, 0, -0.146, 1.327
 246318840, 0, 0, -0.16, 1.328, 0.074, 0, -0.153, 1.328
 246518837, 0.059, 0, -0.064, 1.33, 0, 0, -0.16, 1.328
 246718844, 0, 0.127, -0.057, 1.33, 0.059, 0, -0.064, 1.33
 246918988, 0, 0.318, -0.093, 1.331, 0, 0.127, -0.057, 1.33
 247118850, 0, 0.337, -0.061, 1.331, 0, 0.318, -0.093, 1.331
 247318823, 0, 0.268, -0.071, 1.33, 0, 0.337, -0.061, 1.331
 247518950, 0, 0.331, 0.11, 1.33, 0, 0.268, -0.071, 1.33
 247718838, 0.089, 0.383, 0.014, 1.329, 0, 0.331, 0.11, 1.33
 247918841, 0, 0.431, -0.021, 1.329, 0.089, 0.383, 0.014, 1.329
 248118843, 0, 0.509, 0.035, 1.328, 0, 0.431, -0.021, 1.329
 248318827, 0, 0.619, 0.057, 1.326, 0, 0.509, 0.035, 1.328
 248518964, 0, 0.663, 0.055, 1.326, 0, 0.619, 0.057, 1.326
 248718996, 0, 0.608, 0.11, 1.325, 0, 0.663, 0.055, 1.326
 248939596, 0, 0.61, 0.01, 1.325, 0, 0.608, 0.11, 1.325
 249118856, 0, 0.516, -0.05, 1.326, 0, 0.61, 0.01, 1.325
 249318837, 0, 0.538, 0.06500001, 1.326, 0, 0.516, -0.05, 1.326
 249518842, 0, 0.548, 0.013, 1.328, 0, 0.538, 0.06500001, 1.326
 249718845, 0, 0.447, -0.147, 1.327, 0, 0.548, 0.013, 1.328
 249918836, 0, 0.396, 0.032, 1.328, 0, 0.447, -0.147, 1.327
 250118946, 0, 0.35, 0.018, 1.329, 0, 0.396, 0.032, 1.328
 250299114, 0, 0.371, 0.004, 1.329, 0, 0.35, 0.018, 1.329
 250518968, 0, 0.409, 0.027, 1.327, 0, 0.371, 0.004, 1.329
 250718840, 0, 0.398, 0.072, 1.324, 0, 0.409, 0.027, 1.327
 250919204, 0, 0.341, 0.005, 1.324, 0, 0.398, 0.072, 1.324
 251119548, 0, 0.365, 0.039, 1.324, 0, 0.341, 0.005, 1.324
 251322519, 0, 0.477, 0.07700001, 1.322, 0, 0.365, 0.039, 1.324
 251522517, 0, 0.424, -0.074, 1.321, 0, 0.477, 0.07700001, 1.322
 251722611, 0, 0.361, -0.001, 1.319, 0, 0.424, -0.074, 1.321
 251922541, 0, 0.35, -0.05, 1.318, 0, 0.361, -0.001, 1.319
 252122515, 0, 0.186, 0.055, 1.317, 0, 0.35, -0.05, 1.318
 252302068, 0, 0.013, -0.109, 1.315, 0, 0.186, 0.055, 1.317
 252502072, 0, 0, -0.022, 1.314, 0, 0.013, -0.109, 1.315
 252702562, 0, 0.04, 0.199, 1.312, 0, 0, -0.022, 1.314
 252902326, 0, 0, 0.1, 1.311, 0, 0.04, 0.199, 1.312
 253122803, 0, 0, 0.075, 1.31, 0, 0, 0.1, 1.311
 253302322, 0, 0, 0.058, 1.309, 0, 0, 0.075, 1.31
 253522678, 0.01, 0, 0.114, 1.308, 0, 0, 0.058, 1.309
 253723024, 0.02, 0, 0.134, 1.308, 0.01, 0, 0.114, 1.308
 253922995, 0, 0, 0.004, 1.31, 0.02, 0, 0.134, 1.308
 254123042, 0, 0, -0.003, 1.311, 0, 0, 0.004, 1.31
 254323239, 0.029, 0, -0.01, 1.31, 0, 0, -0.003, 1.311
 254523060, 0.047, 0, -0.059, 1.31, 0.029, 0, -0.01, 1.31
 254723011, 0.038, 0, -0.112, 1.311, 0.047, 0, -0.059, 1.31
 254923234, 0.125, 0, -0.125, 1.314, 0.038, 0, -0.112, 1.311
 255123116, 0.103, 0, 0.062, 1.317, 0.125, 0, -0.125, 1.314
 255302735, 0.127, 0, 0.067, 1.32, 0.103, 0, 0.062, 1.317
 255502870, 0.16, 0, 0.038, 1.323, 0.127, 0, 0.067, 1.32
 255702732, 0.206, 0, 0.042, 1.325, 0.16, 0, 0.038, 1.323
 255923223, 0.217, 0, -0.017, 1.327, 0.206, 0, 0.042, 1.325
 256123246, 0.114, 0, 0.046, 1.329, 0.217, 0, -0.017, 1.327
 256302877, 0.205, 0, -0.026, 1.331, 0.114, 0, 0.046, 1.329
 256502730, 0.256, 0, 0.051, 1.333, 0.205, 0, -0.026, 1.331
 256722994, 0.262, 0, 0.05, 1.336, 0.256, 0, 0.051, 1.333
 256923047, 0.246, 0, 0.009000001, 1.34, 0.262, 0, 0.05, 1.336
 257123032, 0.238, 0, 0.08800001, 1.344, 0.246, 0, 0.009000001, 1.34
 257323029, 0.233, 0, 0.165, 1.346, 0.238, 0, 0.08800001, 1.344
 257523040, 0.131, 0, -0.046, 1.349, 0.233, 0, 0.165, 1.346
 257723029, 0.071, 0, 0.019, 1.348, 0.131, 0, -0.046, 1.349
 257923218, 0.094, 0, 0.147, 1.349, 0.071, 0, 0.019, 1.348
 258123077, 0.261, 0.056, -0.06900001, 1.351, 0.094, 0, 0.147, 1.349
 258323007, 0, 0, 0.142, 1.353, 0.261, 0.056, -0.06900001, 1.351
 258523019, 0.111, 0, -0.027, 1.356, 0, 0, 0.142, 1.353
 258723042, 0.044, 0, 0.063, 1.355, 0.111, 0, -0.027, 1.356
 258942721, 0.043, 0, -0.017, 1.353, 0.044, 0, 0.063, 1.355
 259123220, 0.005, 0, 0.139, 1.354, 0.043, 0, -0.017, 1.353
 259323071, 0.031, 0, -0.04, 1.354, 0.005, 0, 0.139, 1.354
 259523013, 0.046, 0, -0.07300001, 1.353, 0.031, 0, -0.04, 1.354
 259723232, 0.131, 0, -0.143, 1.352, 0.046, 0, -0.07300001, 1.353
 259923013, 0.192, 0.063, -0.103, 1.352, 0.131, 0, -0.143, 1.352
 260123225, 0.119, 0.147, -0.094, 1.352, 0.192, 0.063, -0.103, 1.352
 260323009, 0.057, 0.149, -0.03, 1.352, 0.119, 0.147, -0.094, 1.352
 260523006, 0.026, 0.163, -0.022, 1.35, 0.057, 0.149, -0.03, 1.352
 260723007, 0.008, 0.218, 0.03, 1.347, 0.026, 0.163, -0.022, 1.35
 260942768, 0, 0.164, -0.024, 1.345, 0.008, 0.218, 0.03, 1.347
 261123031, 0, 0.207, -0.018, 1.343, 0, 0.164, -0.024, 1.345
 261323075, 0, 0.141, 0.038, 1.342, 0, 0.207, -0.018, 1.343
 261523214, 0, 0.121, 0.026, 1.34, 0, 0.141, 0.038, 1.342
 261723025, -0.201, 0.258, 0.017, 1.337, 0, 0.121, 0.026, 1.34
 261923066, -0.175, 0.165, -0.016, 1.337, -0.201, 0.258, 0.017, 1.337
 262123031, -0.08000001, 0.175, 0.074, 1.337, -0.175, 0.165, -0.016, 1.337
 262323005, -0.059, 0.27, 0.005, 1.336, -0.08000001, 0.175, 0.074, 1.337
 262523048, -0.09500001, 0.233, 0.086, 1.335, -0.059, 0.27, 0.005, 1.336
 262723075, 0, 0.186, 0.053, 1.333, -0.09500001, 0.233, 0.086, 1.335
 262923081, -0.022, 0.227, 0.012, 1.333, 0, 0.186, 0.053, 1.333
 263123502, -0.023, 0.158, 0.079, 1.333, -0.022, 0.227, 0.012, 1.333
 263303479, -0.015, 0.071, 0.07600001, 1.334, -0.023, 0.158, 0.079, 1.333
 263523482, 0.022, 0.03, -0.034, 1.335, -0.015, 0.071, 0.07600001, 1.334
 263723473, 0.022, -0.017, 0.011, 1.336, 0.022, 0.03, -0.034, 1.335
 263903609, -0.024, -0.09100001, -0.034, 1.337, 0.022, -0.017, 0.011, 1.336
 264123879, -0.062, -0.042, 0.004, 1.339, -0.024, -0.09100001, -0.034, 1.337
 264303876, 0.039, -0.055, -0.048, 1.341, -0.062, -0.042, 0.004, 1.339
 264524548, -0.124, 0.004, 0.09500001, 1.344, 0.039, -0.055, -0.048, 1.341
 264704219, -0.058, -0.061, 0.126, 1.347, -0.124, 0.004, 0.09500001, 1.344
 264904195, 0.024, -0.059, 0.003, 1.351, -0.058, -0.061, 0.126, 1.347
 265104222, -0.019, 0.075, 0.064, 1.357, 0.024, -0.059, 0.003, 1.351
 265324570, -0.089, 0.138, 0.049, 1.363, -0.019, 0.075, 0.064, 1.357
 265504204, -0.09900001, 0.192, 0.005, 1.367, -0.089, 0.138, 0.049, 1.363
 265724780, 0.029, 0.136, 0.015, 1.369, -0.09900001, 0.192, 0.005, 1.367
 265904514, -0.028, 0.028, -0.02, 1.371, 0.029, 0.136, 0.015, 1.369
 266104543, -0.021, 0.008, -0.08400001, 1.372, -0.028, 0.028, -0.02, 1.371
 266304780, 0.012, -0.005, -0.09900001, 1.373, -0.021, 0.008, -0.08400001, 1.372
 266504776, 0.034, -0.06900001, -0.008, 1.375, 0.012, -0.005, -0.09900001, 1.373
 266725062, 0.161, -0.11, 0.044, 1.376, 0.034, -0.06900001, -0.008, 1.375
 266925303, 0.167, -0.137, -0.002, 1.377, 0.161, -0.11, 0.044, 1.376
 267125082, 0.141, -0.046, -0.016, 1.378, 0.167, -0.137, -0.002, 1.377
 267325048, 0.2, -0.149, 0.075, 1.379, 0.141, -0.046, -0.016, 1.378
 267525444, 0.236, -0.12, -0.079, 1.379, 0.2, -0.149, 0.075, 1.379
 267725026, 0.2, -0.136, -0.033, 1.377, 0.236, -0.12, -0.079, 1.379
 267925044, 0.126, -0.144, -0.059, 1.381, 0.2, -0.136, -0.033, 1.377
 268125205, 0.174, -0.054, 0.014, 1.381, 0.126, -0.144, -0.059, 1.381
 268325055, 0.125, 0.012, -0.086, 1.375, 0.174, -0.054, 0.014, 1.381
 268504766, 0.102, 0.043, -0.025, 1.373, 0.125, 0.012, -0.086, 1.375
 268725327, 0.125, 0.014, -0.109, 1.369, 0.102, 0.043, -0.025, 1.373
 268925255, 0.046, 0.008, -0.057, 1.366, 0.125, 0.014, -0.109, 1.369
 269125242, 0.015, 0.127, -0.1, 1.365, 0.046, 0.008, -0.057, 1.366
 269325259, -0.049, 0.017, 0.123, 1.363, 0.015, 0.127, -0.1, 1.365
 269525243, -0.08400001, 0.082, 0.047, 1.362, -0.049, 0.017, 0.123, 1.363
 269725230, -0.09900001, 0.07600001, -0.042, 1.358, -0.08400001, 0.082, 0.047, 1.362
 269925240, -0.151, 0.013, -0.086, 1.357, -0.09900001, 0.07600001, -0.042, 1.358
 270125267, -0.208, 0.013, 0.004, 1.357, -0.151, 0.013, -0.086, 1.357
 270325220, -0.202, 0.015, 0.016, 1.357, -0.208, 0.013, 0.004, 1.357
 270525465, -0.223, 0.026, -0.067, 1.357, -0.202, 0.015, 0.016, 1.357
 270725276, -0.163, 0.05, -0.024, 1.355, -0.223, 0.026, -0.067, 1.357
 270905247, -0.133, -0.027, -0.128, 1.355, -0.163, 0.05, -0.024, 1.355
 271105274, -0.132, -0.019, -0.058, 1.355, -0.133, -0.027, -0.128, 1.355
 271325235, -0.033, -0.002, -0.044, 1.353, -0.132, -0.019, -0.058, 1.355
 271525272, 0.012, -0.058, -0.027, 1.352, -0.033, -0.002, -0.044, 1.353
 271725395, -0.009000001, -0.031, -0.007, 1.35, 0.012, -0.058, -0.027, 1.352
 271925253, -0.13, -0.014, 0.028, 1.35, -0.009000001, -0.031, -0.007, 1.35
 272125256, -0.038, -0.022, 0.082, 1.348, -0.13, -0.014, 0.028, 1.35
 272325474, -0.055, 0.048, 0.003, 1.348, -0.038, -0.022, 0.082, 1.348
 272525251, -0.031, -0.05, -0.062, 1.346, -0.055, 0.048, 0.003, 1.348
 272725375, -0.036, 0.017, 0.046, 1.344, -0.031, -0.05, -0.062, 1.346
 272925249, 0.023, -0.001, 0.061, 1.345, -0.036, 0.017, 0.046, 1.344
 273105264, -0.023, 0.09200001, 0.028, 1.345, 0.023, -0.001, 0.061, 1.345
 273305237, -0.129, 0.124, -0.057, 1.344, -0.023, 0.09200001, 0.028, 1.345
 273505244, -0.129, 0.09100001, -0.064, 1.345, -0.129, 0.124, -0.057, 1.344
 273705256, -0.132, 0.098, -0.052, 1.346, -0.129, 0.09100001, -0.064, 1.345
 273905238, -0.206, 0.205, -0.011, 1.347, -0.132, 0.098, -0.052, 1.346
 274105654, -0.205, 0.106, 0.002, 1.349, -0.206, 0.205, -0.011, 1.347
 274308501, -0.148, 0.089, -0.02, 1.352, -0.205, 0.106, 0.002, 1.349
 274508844, -0.07600001, 0.148, 0.057, 1.355, -0.148, 0.089, -0.02, 1.352
 274708564, -0.016, 0.094, 0.05, 1.357, -0.07600001, 0.148, 0.057, 1.355
 274908464, 0.038, -0.016, -0.009000001, 1.36, -0.016, 0.094, 0.05, 1.357
 275128479, 0.08000001, -0.007, -0.047, 1.362, 0.038, -0.016, -0.009000001, 1.36
 275328465, 0.142, 0.107, -0.048, 1.363, 0.08000001, -0.007, -0.047, 1.362
 275508606, 0.144, -0.056, -0.008, 1.365, 0.142, 0.107, -0.048, 1.363
 275728470, 0.136, -0.02, -0.07700001, 1.368, 0.144, -0.056, -0.008, 1.365
 275928589, 0.156, -0.07700001, -0.024, 1.371, 0.136, -0.02, -0.07700001, 1.368
 276108482, 0.152, -0.056, -0.061, 1.373, 0.156, -0.07700001, -0.024, 1.371
 276308616, 0.108, -0.04, -0.067, 1.375, 0.152, -0.056, -0.061, 1.373
 276511501, -0.064, -0.161, 0.045, 1.378, 0.108, -0.04, -0.067, 1.375
 276714638, -0.085, -0.008, 0.054, 1.38, -0.064, -0.161, 0.045, 1.378
 276914217, -0.196, -0.114, 0.024, 1.381, -0.085, -0.008, 0.054, 1.38
 277114617, -0.111, 0.07300001, 0.123, 1.381, -0.196, -0.114, 0.024, 1.381
 277314568, -0.085, 0.028, -0.06900001, 1.38, -0.111, 0.07300001, 0.123, 1.381
 277514597, -0.024, -0.046, -0.012, 1.38, -0.085, 0.028, -0.06900001, 1.38
 277714770, 0.098, -0.124, 0.061, 1.38, -0.024, -0.046, -0.012, 1.38
 277914246, 0.071, -0.134, -0.035, 1.38, 0.098, -0.124, 0.061, 1.38
 278114222, 0.147, -0.134, -0.052, 1.381, 0.071, -0.134, -0.035, 1.38
 278314196, 0.167, -0.112, -0.046, 1.382, 0.147, -0.134, -0.052, 1.381
 278514347, 0.238, 0.012, 0.002, 1.382, 0.167, -0.112, -0.046, 1.382
 278714537, 0.066, 0.106, 0.044, 1.381, 0.238, 0.012, 0.002, 1.382
 278934511, 0.131, 0.16, 0.023, 1.38, 0.066, 0.106, 0.044, 1.381
 279114543, 0.034, 0.09100001, -0.06900001, 1.377, 0.131, 0.16, 0.023, 1.38
 279314518, -0.067, 0.085, 0.078, 1.374, 0.034, 0.09100001, -0.06900001, 1.377
 279514808, 0.036, -0.09900001, 0.054, 1.371, -0.067, 0.085, 0.078, 1.374
 279714840, 0.047, -0.098, 0.101, 1.368, 0.036, -0.09900001, 0.054, 1.371
 279914800, 0.112, -0.033, 0.109, 1.366, 0.047, -0.098, 0.101, 1.368
 280114848, 0.09900001, -0.052, 0.128, 1.362, 0.112, -0.033, 0.109, 1.366
 280314967, 0.128, -0.071, -0.017, 1.362, 0.09900001, -0.052, 0.128, 1.362
 280517487, 0.089, -0.05, 0.082, 1.364, 0.128, -0.071, -0.017, 1.362
 280717271, 0.06900001, 0.023, 0.004, 1.365, 0.089, -0.05, 0.082, 1.364
 280922797, 0.05, 0.14, 0.186, 1.366, 0.06900001, 0.023, 0.004, 1.365
 281122703, 0.051, 0.111, 0.081, 1.368, 0.05, 0.14, 0.186, 1.366
 281322622, 0.017, 0.17, -0.013, 1.369, 0.051, 0.111, 0.081, 1.368
 281502268, -0.07, 0.179, 0.018, 1.371, 0.017, 0.17, -0.013, 1.369
 281722670, -0.112, 0.234, 0.07600001, 1.373, -0.07, 0.179, 0.018, 1.371
 281922657, -0.09200001, 0.251, 0.051, 1.375, -0.112, 0.234, 0.07600001, 1.373
 282122806, -0.06900001, 0.111, -0.008, 1.376, -0.09200001, 0.251, 0.051, 1.375
 282322691, -0.027, 0.104, 0.019, 1.376, -0.06900001, 0.111, -0.008, 1.376
 282502656, -0.066, 0.089, -0.111, 1.378, -0.027, 0.104, 0.019, 1.376
 282702822, -0.058, 0.07, -0.09, 1.38, -0.066, 0.089, -0.111, 1.378
 282902791, 0.02, 0.053, -0.105, 1.383, -0.058, 0.07, -0.09, 1.38
 283102668, -0.008, 0.06900001, -0.251, 1.385, 0.02, 0.053, -0.105, 1.383
 283322944, 0.042, -0.04, -0.412, 1.386, -0.008, 0.06900001, -0.251, 1.385
 283522987, -0.175, -0.1, -0.403, 1.385, 0.042, -0.04, -0.412, 1.386
 283722937, 0.015, 0.025, -0.763, 1.384, -0.175, -0.1, -0.403, 1.385
 283922937, -0.022, -0.07, -0.936, 1.383, 0.015, 0.025, -0.763, 1.384
 284123028, -0.052, -0.007, -1.266, 1.383, -0.022, -0.07, -0.936, 1.383
 284322950, -0.139, -0.036, -1.442, 1.383, -0.052, -0.007, -1.266, 1.383
 284523109, -0.126, -0.017, -1.707, 1.385, -0.139, -0.036, -1.442, 1.383
 284722989, 0, 0.05, -1.905, 1.387, -0.126, -0.017, -1.707, 1.385
 284922967, -0.272, 0.067, -2.033, 1.389, 0, 0.05, -1.905, 1.387
 285122967, -0.225, -0.015, -2.177, 1.392, -0.272, 0.067, -2.033, 1.389
 285322966, -0.094, 0.033, -2.254, 1.395, -0.225, -0.015, -2.177, 1.392
 285522950, -0.191, 0.132, -2.514, 1.397, -0.094, 0.033, -2.254, 1.395
 285723056, 0.015, -0.007, -2.652, 1.399, -0.191, 0.132, -2.514, 1.397
 285923065, -0.015, -0.172, -2.705, 1.401, 0.015, -0.007, -2.652, 1.399
 286123067, -0.105, -0.143, -2.76, 1.402, -0.015, -0.172, -2.705, 1.401
 286323294, -0.138, -0.119, -2.726, 1.404, -0.105, -0.143, -2.76, 1.402
 286523078, 0.051, -0.004, -2.756, 1.403, -0.138, -0.119, -2.726, 1.404
 286703076, 0.104, -0.09100001, -2.849, 1.4, 0.051, -0.004, -2.756, 1.403
 286923046, 0.304, -0.09, -2.523, 1.4, 0.104, -0.09100001, -2.849, 1.4
 287123092, 0.246, 0.081, -2.566, 1.402, 0.304, -0.09, -2.523, 1.4
 287323603, 0.28, 0.368, -2.398, 1.405, 0.246, 0.081, -2.566, 1.402
 287523472, 0.016, 0.338, -2.294, 1.408, 0.28, 0.368, -2.398, 1.405
 287723482, -0.062, 0.5, -1.896, 1.408, 0.016, 0.338, -2.294, 1.408
 287923478, -0.183, 0.909, -1.817, 1.409, -0.062, 0.5, -1.896, 1.408
 288123623, -0.3, 1.188, -1.373, 1.41, -0.183, 0.909, -1.817, 1.409
 288323478, -0.215, 1.246, -1.267, 1.408, -0.3, 1.188, -1.373, 1.41
 288523462, -0.115, 1.706, -1.058, 1.408, -0.215, 1.246, -1.267, 1.408
 288723448, -0.22, 2.085, -0.9620001, 1.407, -0.115, 1.706, -1.058, 1.408
 288923851, -0.235, 2.264, -0.771, 1.407, -0.22, 2.085, -0.9620001, 1.407
 289123867, -0.3, 2.411, -0.674, 1.405, -0.235, 2.264, -0.771, 1.407
 289303842, -0.312, 2.676, -0.469, 1.403, -0.3, 2.411, -0.674, 1.405
 289523828, -0.389, 2.919, -0.204, 1.402, -0.312, 2.676, -0.469, 1.403
 289724287, -0.35, 2.813, -0.264, 1.398, -0.389, 2.919, -0.204, 1.402
 289924524, -0.6530001, 3.377, 0.212, 1.4, -0.35, 2.813, -0.264, 1.398
 290124314, -0.374, 3.188, 0.152, 1.398, -0.6530001, 3.377, 0.212, 1.4
 290324289, -0.316, 3.229, 0.089, 1.396, -0.374, 3.188, 0.152, 1.398
 290524391, -0.212, 3.214, 0.09, 1.396, -0.316, 3.229, 0.089, 1.396
 290724270, -0.029, 3.582, 0.03, 1.396, -0.212, 3.214, 0.09, 1.396
 290924295, 0.008, 3.731, -0.054, 1.394, -0.029, 3.582, 0.03, 1.396
 291124307, -0.09200001, 3.911, -0.108, 1.391, 0.008, 3.731, -0.054, 1.394
 291304298, -0.044, 3.972, -0.101, 1.387, -0.09200001, 3.911, -0.108, 1.391
 291524448, -0.289, 4.035, -0.164, 1.386, -0.044, 3.972, -0.101, 1.387
 291724501, -0.484, 4.061, -0.032, 1.382, -0.289, 4.035, -0.164, 1.386
 291904198, -0.4, 3.835, -0.223, 1.381, -0.484, 4.061, -0.032, 1.382
 292124091, -0.539, 3.272, -1.969, 1.379, -0.4, 3.835, -0.223, 1.381
 292304095, -1.093, 2.6, -4.067, 1.378, -0.539, 3.272, -1.969, 1.379
 292504095, -2.34, 1.992, -7.305, 1.377, -1.093, 2.6, -4.067, 1.378
 292724082, -4.346, 1.253, -9.794001, 1.375, -2.34, 1.992, -7.305, 1.377
 292904094, -6.779, 0.86, -10.923, 1.376, -4.346, 1.253, -9.794001, 1.375
 293124534, -7.358, 1.144, -9.336, 1.379, -6.779, 0.86, -10.923, 1.376
 293304112, -7.049, 1.059, -7.563, 1.382, -7.358, 1.144, -9.336, 1.379
 293524727, -7.133, 1.303, -6.292, 1.384, -7.049, 1.059, -7.563, 1.382
 293724532, -6.712, 1.664, -5.29, 1.385, -7.133, 1.303, -6.292, 1.384
 293904078, -5.53, 1.722, -4.449, 1.387, -6.712, 1.664, -5.29, 1.385
 294124575, -5.002, 2.012, -3.41, 1.388, -5.53, 1.722, -4.449, 1.387
 294324540, -4.654, 2.189, -1.939, 1.385, -5.002, 2.012, -3.41, 1.388
 294504095, -4.597, 2.24, -0.802, 1.385, -4.654, 2.189, -1.939, 1.385
 294704112, -4.133, 2.622, 0.938, 1.384, -4.597, 2.24, -0.802, 1.385
 294904079, -3.949, 2.825, 2.284, 1.384, -4.133, 2.622, 0.938, 1.384
 295104090, -3.739, 2.607, 3.411, 1.387, -3.949, 2.825, 2.284, 1.384
 295304119, -3.479, 2.9, 4.208, 1.394, -3.739, 2.607, 3.411, 1.387
 295524480, -3.446, 2.512, 4.295, 1.399, -3.479, 2.9, 4.208, 1.394
 295724653, -3.6, 2.383, 4.045, 1.395, -3.446, 2.512, 4.295, 1.399
 295924562, -3.882, 2.138, 3.739, 1.398, -3.6, 2.383, 4.045, 1.395
 296124536, -3.909, 2.474, 3.8, 1.402, -3.882, 2.138, 3.739, 1.398
 296324514, -4.265, 2.168, 3.635, 1.402, -3.909, 2.474, 3.8, 1.402
 296524559, -4.453, 2.299, 3.474, 1.4, -4.265, 2.168, 3.635, 1.402
 296724526, -4.153, 2.407, 3.091, 1.399, -4.453, 2.299, 3.474, 1.4
 296924579, -3.645, 2.923, 2.462, 1.401, -4.153, 2.407, 3.091, 1.399
 297104220, -3.641, 2.599, 2.494, 1.404, -3.645, 2.923, 2.462, 1.401
 297324577, -3.815, 2.591, 2.357, 1.401, -3.641, 2.599, 2.494, 1.404
 297524563, -4.118, 1.981, 1.8, 1.4, -3.815, 2.591, 2.357, 1.401
 297724576, -4.577, 1.743, 1.219, 1.394, -4.118, 1.981, 1.8, 1.4
 297904196, -4.846, 1.558, 0.936, 1.393, -4.577, 1.743, 1.219, 1.394
 298124559, -5.235, 1.392, 0.349, 1.392, -4.846, 1.558, 0.936, 1.393
 298304548, -5.171, 1.96, 0.47, 1.393, -5.235, 1.392, 0.349, 1.392
 298524886, -5.103, 1.879, 0.066, 1.396, -5.171, 1.96, 0.47, 1.393
 298724831, -4.668, 1.643, 0.029, 1.396, -5.103, 1.879, 0.066, 1.396
 298904546, -3.741, 1.02, -0.12, 1.397, -4.668, 1.643, 0.029, 1.396
 299124904, -2.847, 0.249, -0.213, 1.398, -3.741, 1.02, -0.12, 1.397
 299304552, -2.27, -0.41, -0.285, 1.4, -2.847, 0.249, -0.213, 1.398
 299504701, -1.833, -0.9210001, -0.09, 1.403, -2.27, -0.41, -0.285, 1.4
 299704558, -1.592, -1.424, -0.048, 1.402, -1.833, -0.9210001, -0.09, 1.403
 299904551, -1.514, -1.743, 0.035, 1.401, -1.592, -1.424, -0.048, 1.402
 300124839, -1.617, -1.491, 0.205, 1.399, -1.514, -1.743, 0.035, 1.401
 300304528, -2.043, -0.997, 0.204, 1.397, -1.617, -1.491, 0.205, 1.399
 300504551, -2.288, -0.454, -0.06900001, 1.4, -2.043, -0.997, 0.204, 1.397
 300704579, -2.613, 0.43, -0.138, 1.4, -2.288, -0.454, -0.06900001, 1.4
 300904716, -2.697, 0.7960001, 0.105, 1.4, -2.613, 0.43, -0.138, 1.4
 301104557, -2.742, 0.719, 0.172, 1.4, -2.697, 0.7960001, 0.105, 1.4
 301304544, -2.807, 0.481, 0.125, 1.402, -2.742, 0.719, 0.172, 1.4
 301504534, -2.663, 0.18, 0.193, 1.403, -2.807, 0.481, 0.125, 1.402
 301704549, -2.574, -0.355, 0.151, 1.397, -2.663, 0.18, 0.193, 1.403
 301904548, -2.536, -0.844, 0.356, 1.396, -2.574, -0.355, 0.151, 1.397
 302124885, -2.01, -1.078, 0.5840001, 1.396, -2.536, -0.844, 0.356, 1.396
 302304543, -1.978, -0.735, 0.534, 1.399, -2.01, -1.078, 0.5840001, 1.396
 302524695, -1.553, -0.486, 0.5560001, 1.403, -1.978, -0.735, 0.534, 1.399
 302704740, -0.45, -0.139, 0.674, 1.402, -1.553, -0.486, 0.5560001, 1.403
 302924563, 0.286, 0.16, 1.012, 1.405, -0.45, -0.139, 0.674, 1.402
 303124704, 0.6350001, 0.618, 0.5930001, 1.404, 0.286, 0.16, 1.012, 1.405
 303324543, 1.415, 1.162, 0.803, 1.399, 0.6350001, 0.618, 0.5930001, 1.404
 303504865, 1.569, 1.666, 0.8100001, 1.4, 1.415, 1.162, 0.803, 1.399
 303724919, 2.344, 1.74, 0.8930001, 1.397, 1.569, 1.666, 0.8100001, 1.4
 303904895, 2.619, 1.811, 0.974, 1.393, 2.344, 1.74, 0.8930001, 1.397
 304125189, 2.928, 1.995, 0.909, 1.39, 2.619, 1.811, 0.974, 1.393
 304305149, 3.505, 1.829, 0.9770001, 1.39, 2.928, 1.995, 0.909, 1.39
 304505220, 3.735, 1.895, 0.964, 1.39, 3.505, 1.829, 0.9770001, 1.39
 304705202, 4.391, 1.598, 1.18, 1.388, 3.735, 1.895, 0.964, 1.39
 304905112, 4.657, 1.294, 0.867, 1.388, 4.391, 1.598, 1.18, 1.388
 305105198, 5.43, 0.476, 0.904, 1.386, 4.657, 1.294, 0.867, 1.388
 305326805, 5.413, -0.032, 0.488, 1.385, 5.43, 0.476, 0.904, 1.386
 305525561, 6.037, -0.264, 0.716, 1.387, 5.413, -0.032, 0.488, 1.385
 305725099, 6.268, -0.604, 0.5470001, 1.386, 6.037, -0.264, 0.716, 1.387
 305925187, 6.51, -0.989, 0.633, 1.386, 6.268, -0.604, 0.5470001, 1.386
 306125237, 6.162, -0.822, 0.603, 1.387, 6.51, -0.989, 0.633, 1.386
 306325193, 6.15, -0.46, 0.433, 1.385, 6.162, -0.822, 0.603, 1.387
 306525594, 6.099, 0.111, 0.482, 1.386, 6.15, -0.46, 0.433, 1.385
 306725548, 5.533, 0.195, 0.46, 1.385, 6.099, 0.111, 0.482, 1.386
 306925088, 5.721, 0.288, 0.85, 1.386, 5.533, 0.195, 0.46, 1.385
 307125204, 5.374, 0.74, 0.591, 1.388, 5.721, 0.288, 0.85, 1.386
 307327836, 5.582, 0.845, 0.668, 1.391, 5.374, 0.74, 0.591, 1.388
 307507730, 5.124, 0.6850001, 0.398, 1.396, 5.582, 0.845, 0.668, 1.391
 307707968, 4.973, 0.227, 0.356, 1.396, 5.124, 0.6850001, 0.398, 1.396
 307907974, 4.778, -0.015, 0.5930001, 1.395, 4.973, 0.227, 0.356, 1.396
 308107964, 4.74, -1.092, 0.5100001, 1.395, 4.778, -0.015, 0.5930001, 1.395
 308307997, 4.409, -1.729, 0.491, 1.397, 4.74, -1.092, 0.5100001, 1.395
 308507951, 4.371, -2.515, 0.629, 1.399, 4.409, -1.729, 0.491, 1.397
 308707985, 4.898, -3.389, 0.811, 1.397, 4.371, -2.515, 0.629, 1.399
 308927956, 4.871, -3.888, 0.673, 1.399, 4.898, -3.389, 0.811, 1.397
 309107968, 4.649, -4.207, 0.728, 1.402, 4.871, -3.888, 0.673, 1.399
 309327944, 5.219, -5.262, 0.591, 1.403, 4.649, -4.207, 0.728, 1.402
 309507968, 4.538, -5.172, 0.509, 1.405, 5.219, -5.262, 0.591, 1.403
 309707963, 4.297, -5.385, 0.427, 1.406, 4.538, -5.172, 0.509, 1.405
 309907984, 4.319, -5.432, 0.599, 1.408, 4.297, -5.385, 0.427, 1.406
 310108257, 4.187, -5.418, 0.7590001, 1.407, 4.319, -5.432, 0.599, 1.408
 310307972, 4.105, -5.448, 0.841, 1.406, 4.187, -5.418, 0.7590001, 1.407
 310507977, 4.231, -5.45, 0.877, 1.407, 4.105, -5.448, 0.841, 1.406
 310707973, 3.896, -5.418, 0.624, 1.408, 4.231, -5.45, 0.877, 1.407
 310907945, 3.776, -5.242, 0.266, 1.411, 3.896, -5.418, 0.624, 1.408
 311127940, 3.687, -4.915, 0.27, 1.412, 3.776, -5.242, 0.266, 1.411
 311327926, 3.438, -4.501, 0.305, 1.412, 3.687, -4.915, 0.27, 1.412
 311528098, 3.403, -4.282, 0.397, 1.411, 3.438, -4.501, 0.305, 1.412
 311708032, 3.306, -4.019, 0.251, 1.41, 3.403, -4.282, 0.397, 1.411
 311908109, 3.31, -3.8, 0.378, 1.412, 3.306, -4.019, 0.251, 1.41
 312127945, 2.967, -3.939, 0.421, 1.412, 3.31, -3.8, 0.378, 1.412
 312327930, 2.849, -3.78, 0.241, 1.41, 2.967, -3.939, 0.421, 1.412
 312507970, 2.583, -3.487, 0.404, 1.411, 2.849, -3.78, 0.241, 1.41
 312707983, 2.369, -3.309, 0.184, 1.411, 2.583, -3.487, 0.404, 1.411
 312907950, 2.277, -2.989, 0.168, 1.41, 2.369, -3.309, 0.184, 1.411
 313108304, 1.876, -3.007, 0.324, 1.406, 2.277, -2.989, 0.168, 1.41
 313308299, 1.848, -2.98, 0.198, 1.406, 1.876, -3.007, 0.324, 1.406
 313508323, 1.532, -2.894, 0.499, 1.404, 1.848, -2.98, 0.198, 1.406
 313708356, 1.465, -2.899, 0.437, 1.395, 1.532, -2.894, 0.499, 1.404
 313908318, 1.312, -2.635, 0.384, 1.395, 1.465, -2.899, 0.437, 1.395
 314128669, 0.849, -2.182, 0.742, 1.396, 1.312, -2.635, 0.384, 1.395
 314308501, 0.725, -2.038, 0.73, 1.396, 0.849, -2.182, 0.742, 1.396
 314508301, 0.723, -1.709, 0.966, 1.397, 0.725, -2.038, 0.73, 1.396
 314708305, 0.347, -1.275, 1.033, 1.397, 0.723, -1.709, 0.966, 1.397
 314928650, -0.194, -0.506, 1.18, 1.398, 0.347, -1.275, 1.033, 1.397
 315108301, -0.6160001, -0.346, 1.121, 1.4, -0.194, -0.506, 1.18, 1.398
 315308506, -1.256, 0.563, 1.218, 1.401, -0.6160001, -0.346, 1.121, 1.4
 315528650, -1.671, 1.284, 0.965, 1.402, -1.256, 0.563, 1.218, 1.401
 315728807, -1.904, 1.742, 0.682, 1.401, -1.671, 1.284, 0.965, 1.402
 315908308, -1.768, 1.425, 1.016, 1.4, -1.904, 1.742, 0.682, 1.401
 316128687, -1.231, 1.2, 1.059, 1.398, -1.768, 1.425, 1.016, 1.4
 316308323, -0.716, 0.652, 0.975, 1.395, -1.231, 1.2, 1.059, 1.398
 316508307, -0.502, 0.011, 1.061, 1.392, -0.716, 0.652, 0.975, 1.395
 316708324, -0.107, -0.026, 1.25, 1.391, -0.502, 0.011, 1.061, 1.392
 316908306, 0.153, -0.104, 1.358, 1.391, -0.107, -0.026, 1.25, 1.391
 317108328, 0.437, -0.5, 1.579, 1.392, 0.153, -0.104, 1.358, 1.391
 317308341, 0.197, -0.254, 1.45, 1.392, 0.437, -0.5, 1.579, 1.392
 317508285, 0.9080001, -0.169, 1.547, 1.392, 0.197, -0.254, 1.45, 1.392
 317708307, 0.762, 0.143, 1.575, 1.389, 0.9080001, -0.169, 1.547, 1.392
 317908314, 0.62, 0.38, 1.652, 1.388, 0.762, 0.143, 1.575, 1.389
 318108315, 0.489, 0.6210001, 1.669, 1.389, 0.62, 0.38, 1.652, 1.388
 318308722, 0.366, 0.855, 1.755, 1.389, 0.489, 0.6210001, 1.669, 1.389
 318508846, 0.112, 1.127, 1.67, 1.39, 0.366, 0.855, 1.755, 1.389
 318708726, 0.056, 1.201, 1.731, 1.384, 0.112, 1.127, 1.67, 1.39
 318908707, -0.285, 1.242, 1.697, 1.384, 0.056, 1.201, 1.731, 1.384
 319128735, -0.534, 1.241, 1.786, 1.384, -0.285, 1.242, 1.697, 1.384
 319308997, -0.572, 0.9440001, 1.661, 1.384, -0.534, 1.241, 1.786, 1.384
 319509201, -0.8150001, 0.964, 1.489, 1.381, -0.572, 0.9440001, 1.661, 1.384
 319709017, -0.8650001, 0.757, 1.516, 1.378, -0.8150001, 0.964, 1.489, 1.381
 319909005, -0.513, 0.9220001, 1.282, 1.377, -0.8650001, 0.757, 1.516, 1.378
 320109015, -0.313, 0.8280001, 1.664, 1.372, -0.513, 0.9220001, 1.282, 1.377
 320309013, -0.282, 1.165, 1.681, 1.367, -0.313, 0.8280001, 1.664, 1.372
 320509017, -0.219, 1.513, 1.677, 1.365, -0.282, 1.165, 1.681, 1.367
 320708747, -0.129, 1.434, 1.739, 1.362, -0.219, 1.513, 1.677, 1.365
 320908869, -0.09100001, 1.532, 1.684, 1.361, -0.129, 1.434, 1.739, 1.362
 321109001, -0.375, 1.623, 1.663, 1.36, -0.09100001, 1.532, 1.684, 1.361
 321309009, -0.257, 1.414, 1.462, 1.359, -0.375, 1.623, 1.663, 1.36
 321508988, -0.673, 1.414, 1.614, 1.362, -0.257, 1.414, 1.462, 1.359
 321708988, -0.5840001, 1.243, 1.667, 1.359, -0.673, 1.414, 1.614, 1.362
 321909003, -0.9960001, 1.426, 1.527, 1.357, -0.5840001, 1.243, 1.667, 1.359
 322109005, -1.191, 1.48, 1.976, 1.356, -0.9960001, 1.426, 1.527, 1.357
 322308982, -0.9710001, 1.934, 1.834, 1.358, -1.191, 1.48, 1.976, 1.356
 322508983, -0.808, 1.461, 1.858, 1.36, -0.9710001, 1.934, 1.834, 1.358
