TimeUS,CAN,CAE,CAD,CAe
 116335947, -0.003031114, 0.003765928, -0.0001941464, 0.0002593961
 116435907, -0.003064091, 0.003804616, -0.000121751, 0.0002593961
 116535867, -0.003106054, 0.003869356, -0.0001198849, 0.0002593961
 116635827, -0.003014948, 0.004024555, -3.204491E-05, 0.0002593961
 116735787, -0.003026593, 0.003795496, -0.0002092406, 0.0002593961
 116835747, -0.002932175, 0.003989696, -0.0002409364, 0.0002593961
 116935707, -0.00293574, 0.003923804, -6.438778E-05, 0.0002593961
 117035667, -0.002987594, 0.00389527, 0.0001187743, 0.0002593961
 117136460, -0.002989037, 0.003844643, -5.70248E-05, 0.0002615578
 117236420, -0.003127911, 0.003743713, -0.000107647, 0.0002593961
 117336380, -0.003064698, 0.003993576, -2.783377E-05, 0.0002593961
 117436340, -0.002884122, 0.003990127, -4.418514E-06, 0.0002593961
 117536300, -0.003154281, 0.003901002, -0.0001738782, 0.0002593961
 117636260, -0.002926109, 0.003694572, 8.14708E-05, 0.0002593961
 117736220, -0.003095099, 0.004024282, -2.968792E-05, 0.0002593961
 117836180, -0.003097226, 0.003843346, -0.0002405801, 0.0002593961
 117936140, -0.003378973, 0.00379932, -3.088549E-05, 0.0002593961
 118036100, -0.003015268, 0.003813017, -0.0001376674, 0.0002593961
 118136060, -0.003161979, 0.004088779, -8.74098E-05, 0.0002593961
 118236020, -0.002959903, 0.003800381, -0.0001775222, 0.0002593961
 118335980, -0.00311858, 0.0039899, -2.60237E-05, 0.0002593961
 118435940, -0.003145208, 0.003891399, -5.336534E-05, 0.0002593961
 118535900, -0.002854005, 0.003855003, -3.657546E-05, 0.0002593961
 118635860, -0.003143176, 0.003649872, 1.285039E-05, 0.0002593961
 118735820, -0.003069888, 0.003726939, -0.000107759, 0.0002593961
 118835780, -0.002825879, 0.003779218, -0.0001368834, 0.0002593961
 118935740, -0.003066411, 0.003794041, 0.0001900592, 0.0002593961
 119035700, -0.00291587, 0.003973195, -2.887643E-05, 0.0002593961
 119135660, -0.003125893, 0.003799352, 8.3294E-06, 0.0002593961
 119236453, -0.003037732, 0.003834225, -0.0001348441, 0.0002615578
 119336413, -0.003018239, 0.003904816, -4.167796E-05, 0.0002593961
 119436373, -0.002987017, 0.003709373, -0.0001264185, 0.0002593961
 119536333, -0.002819561, 0.003745266, 3.096295E-05, 0.0002593961
 119636293, -0.003109741, 0.003911378, -0.0001833659, 0.0002593961
 119736253, -0.002856279, 0.00374546, -5.045898E-05, 0.0002593961
 119836213, -0.003030963, 0.003757978, 2.851417E-05, 0.0002593961
 119936173, -0.002962696, 0.003617207, -2.014784E-05, 0.0002593961
 120036133, -0.003062819, 0.004023605, 0.0001954573, 0.0002593961
 120136093, -0.003256376, 0.003891714, -0.0002304884, 0.0002593961
 120236053, -0.003172207, 0.003876087, 4.527782E-05, 0.0002593961
 120336013, -0.002952031, 0.003712283, -0.0001417916, 0.0002593961
 120435973, -0.002904839, 0.003505217, -0.00028398, 0.0002593961
 120535933, -0.00282987, 0.003713791, 1.959136E-05, 0.0002593961
 120635893, -0.003074843, 0.004034114, -6.996215E-05, 0.0002593961
 120735853, -0.003219338, 0.003565456, 0.0001352901, 0.0002593961
 120835813, -0.003104411, 0.003748616, 6.396E-05, 0.0002593961
 120935773, -0.00309223, 0.003777413, -5.111079E-05, 0.0002593961
 121035733, -0.003142488, 0.00392887, -0.0001583658, 0.0002593961
 121135693, -0.003088639, 0.004010427, -8.572603E-05, 0.0002593961
 121236486, -0.00291663, 0.003932292, -9.345607E-05, 0.0002593961
 121336446, -0.003030496, 0.003799041, 4.382566E-05, 0.0002615578
 121436406, -0.003148414, 0.003854588, -8.424011E-05, 0.0002593961
 121536366, -0.003002462, 0.003783044, -1.835447E-05, 0.0002593961
 121636326, -0.002989874, 0.003833123, 4.202234E-05, 0.0002593961
 121736286, -0.002899782, 0.003847961, -0.0001948554, 0.0002593961
 121836246, -0.002991214, 0.003889241, -0.000141328, 0.0002593961
 121936206, -0.002996943, 0.003882612, -3.773372E-05, 0.0002593961
 122036166, -0.003009139, 0.003809243, 2.694006E-05, 0.0002593961
 122136126, -0.002862461, 0.003888826, -6.839518E-05, 0.0002593961
 122236086, -0.002950274, 0.003889855, -0.0001562375, 0.0002593961
 122336046, -0.002915386, 0.003891636, 9.236573E-05, 0.0002593961
 122436006, -0.003027729, 0.003744549, -0.0001790022, 0.0002593961
 122535966, -0.003043598, 0.003858938, -0.02420034, 0.0002593961
 122635926, -0.002951225, 0.004003195, -0.07809481, 0.0002593961
 122735886, -0.002955842, 0.003867536, -0.08511329, 0.0002593961
 122835846, -0.003050429, 0.004026881, -0.07532819, 0.0002593961
 122935806, -0.003136108, 0.003942267, -0.06460615, 0.0002593961
 123035766, -0.00307452, 0.003871458, -0.05842719, 0.0002593961
 123135726, 0.0001728361, 0.005197165, -0.3884879, 0.0002593961
 123235686, 0.01379008, 0.00820474, -0.5903891, 0.0002593961
 123336479, 0.02485486, 0.009748848, -0.3155106, 0.0002615578
 123436439, 0.03142618, 0.01058715, -0.07757284, 0.0002593961
 123536399, 0.03243569, 0.0105484, -0.001013386, 0.0002593961
 123636359, 0.02451346, 0.00859277, -0.0249549, 0.0002593961
 123736319, 0.009935311, 0.005310077, -0.07032043, 0.0002593961
 123836279, -0.004902074, 0.001450402, -0.09460665, 0.0002593961
 123936239, -0.0160626, -0.0009881915, -0.0933373, 0.0002593961
 124036199, -0.02236651, -0.001645088, -0.07882559, 0.0002593961
 124136159, -0.02320288, -0.0007082642, -0.06441782, 0.0002593961
 124236119, -0.02041858, 0.001002171, -0.05431499, 0.0002593961
 124336079, -0.01664281, 0.00275695, -0.04721753, 0.0002593961
 124436039, -0.01348302, 0.004509885, -0.04202945, 0.0002593961
 124535999, -0.01156643, 0.005453745, -0.03697064, 0.0002593961
 124635959, -0.01093767, 0.005778282, -0.03170655, 0.0002593961
 124735919, -0.009613008, 0.003817372, -0.0264372, 0.0002593961
 124835879, -0.00796629, -0.0007370898, -0.02182481, 0.0002593961
 124935839, -0.00618662, -0.006969006, -0.01780362, 0.0002593961
 125035799, -0.005220244, -0.01319045, -0.01449432, 0.0002593961
 125135759, -0.004493431, -0.01676688, -0.0116684, 0.0002593961
 125235719, -0.004912455, -0.01674772, -0.00884537, 0.0002593961
 125335679, -0.005940121, -0.01465075, -0.006248631, 0.0002593961
 125436472, -0.007780607, -0.01163027, -0.0009435271, 0.0002615578
 125536432, -0.00987271, -0.008574196, 0.001322363, 0.0002593961
 125636392, -0.01208742, -0.005092806, 0.002708703, 0.0002593961
 125736352, -0.01376658, -0.0005041395, 0.003868065, 0.0002593961
 125836312, -0.01403794, 0.006188781, 0.004249106, 0.0002593961
 125936272, -0.01299486, 0.01160662, 0.0046006, 0.0002593961
 126036232, -0.01197463, 0.01302863, 0.00583331, 0.0002593961
 126136192, -0.01046016, 0.01097317, 0.009133428, 0.0002593961
 126236152, -0.008832824, 0.007861066, 0.01432482, 0.0002593961
 126336112, -0.008343085, 0.005899745, 0.02095513, 0.0002593961
 126436072, -0.01016743, 0.006166082, 0.02798674, 0.0002593961
 126536032, -0.0137086, 0.009439935, 0.03628892, 0.0002593961
 126635992, -0.01836056, 0.01560847, 0.04527991, 0.0002593961
 126735952, -0.02284627, 0.02246746, 0.05518659, 0.0002593961
 126835912, -0.02617461, 0.02909133, 0.06550127, 0.0002593961
 126935872, -0.02675154, 0.03137812, 0.07657115, 0.0002593961
 127035832, -0.02367296, 0.02750388, 0.08588213, 0.0002593961
 127135792, -0.01686951, 0.01947927, 0.1003868, 0.0002593961
 127235752, -0.008333188, 0.01083167, 0.1305662, 0.0002593961
 127335712, -0.004501296, 0.008006947, 0.1396744, 0.0002593961
 127435672, -0.003872482, 0.008732971, 0.1330164, 0.0002593961
 127536465, -0.001216338, 0.008050404, 0.143365, 0.0002615578
 127636425, 0.004141647, 0.004672176, 0.1541789, 0.0002593961
 127736385, 0.01014083, 0.001294212, 0.1697617, 0.0002593961
 127836345, 0.01431367, 0.001561567, 0.1768488, 0.0002593961
 127936305, 0.01661919, 0.004005113, 0.1758984, 0.0002593961
 128036265, 0.01736057, 0.006412511, 0.170914, 0.0002593961
 128136225, 0.01681878, 0.007692919, 0.1625559, 0.0002593961
 128236185, 0.01555409, 0.007013564, 0.1521542, 0.0002593961
 128336145, 0.01138696, 0.004336934, 0.1401788, 0.0002593961
 128436105, 0.004610931, 0.0008118456, 0.1250354, 0.0002593961
 128536065, -0.002590104, -0.0005341645, 0.1099397, 0.0002593961
 128636025, -0.00827057, 0.002067541, 0.09566192, 0.0002593961
 128735985, -0.01217324, 0.007702681, 0.08101667, 0.0002593961
 128835945, -0.01623415, 0.0142305, 0.06585389, 0.0002593961
 128935905, -0.01790859, 0.01833744, 0.05123015, 0.0002593961
 129035865, -0.01618771, 0.01822858, 0.03875728, 0.0002593961
 129135825, -0.01169196, 0.01476081, 0.02598644, 0.0002593961
 129235785, -0.006004594, 0.009816788, 0.01455381, 0.0002593961
 129335745, -0.0009199698, 0.004040767, 0.004314268, 0.0002593961
 129435705, 0.002623842, -0.001441143, -0.01974549, 0.0002593961
 129535665, 0.006109071, -0.007338368, -0.03690137, 0.0002593961
 129636458, 0.01242043, -0.01498137, -0.04771728, 0.0002615578
 129736418, 0.02270987, -0.02393925, -0.05406615, 0.0002593961
 129836378, 0.03654841, -0.03331551, -0.05913962, 0.0002593961
 129936338, 0.05176039, -0.03885147, -0.06082736, 0.0002593961
 130036298, 0.06555107, -0.03796288, -0.0601523, 0.0002593961
 130136258, 0.07421969, -0.03241805, -0.05917411, 0.0002593961
 130236218, 0.0771437, -0.02515932, -0.05614702, 0.0002593961
 130336178, 0.08017982, -0.01875233, -0.05285442, 0.0002593961
 130436138, 0.08705928, -0.01427424, -0.04847787, 0.0002593961
 130536098, 0.09575769, -0.01287994, -0.04477394, 0.0002593961
 130636058, 0.1028277, -0.01533977, -0.0418904, 0.0002593961
 130736018, 0.1073845, -0.0177076, -0.03931105, 0.0002593961
 130835978, 0.1092053, -0.01708421, -0.03726503, 0.0002593961
 130935938, 0.1088421, -0.01220201, -0.03561288, 0.0002593961
 131035898, 0.1084282, -0.003815489, -0.03461115, 0.0002593961
 131135858, 0.1069775, 0.008423364, -0.03397035, 0.0002593961
 131235818, 0.1039333, 0.02636811, -0.03332855, 0.0002593961
 131335778, 0.09902755, 0.04191747, -0.03442893, 0.0002593961
 131435738, 0.09262084, 0.04822609, -0.03678742, 0.0002593961
 131535698, 0.08667759, 0.04757997, -0.0390645, 0.0002593961
 131635658, 0.08281559, 0.04432866, -0.0409564, 0.0002593961
 131736451, 0.08164056, 0.04023205, -0.04264713, 0.0002615578
 131836411, 0.08133234, 0.03387028, -0.0432913, 0.0002593961
 131936371, 0.08447545, 0.02642712, -0.04395307, 0.0002593961
 132036331, 0.09050614, 0.01905941, -0.04543456, 0.0002593961
 132136291, 0.09566727, 0.01322133, -0.04715762, 0.0002593961
 132236251, 0.09716845, 0.0112142, -0.04872664, 0.0002593961
 132336211, 0.09375357, 0.01225739, -0.05114986, 0.0002593961
 132436171, 0.08628771, 0.01561701, -0.05287233, 0.0002593961
 132536131, 0.07835049, 0.01762858, -0.05374361, 0.0002593961
 132636091, 0.07279275, 0.0161361, -0.05325568, 0.0002593961
 132736051, 0.07121696, 0.009957664, -0.05036259, 0.0002593961
 132836011, 0.07292631, 0.0001591382, -0.04542433, 0.0002593961
 132935971, 0.07454029, -0.008344053, -0.04071378, 0.0002593961
 133035931, 0.07426197, -0.01127593, -0.03664395, 0.0002593961
 133135891, 0.07133864, -0.008169793, -0.03278898, 0.0002593961
 133235851, 0.06753758, -0.0007075657, -0.02874985, 0.0002593961
 133335811, 0.0640393, 0.006667265, -0.02527981, 0.0002593961
 133435771, 0.06097829, 0.01080051, -0.02130781, 0.0002593961
 133535731, 0.05880289, 0.0110921, -0.01805046, 0.0002593961
 133635691, 0.0572078, 0.008086424, -0.01571723, 0.0002593961
 133736484, 0.05629268, 0.004465092, -0.01365636, 0.0002615578
 133836444, 0.05365962, 0.001323359, -0.01130479, 0.0002593961
 133936404, 0.05147025, -0.0005934796, -0.01000302, 0.0002593961
 134036364, 0.04920862, -0.001769259, -0.008197093, 0.0002593961
 134136324, 0.04721156, -0.003774276, -0.006501518, 0.0002593961
 134236284, 0.04491024, -0.00712804, -0.00554402, 0.0002593961
 134336244, 0.04192616, -0.009539247, -0.004720953, 0.0002593961
 134436204, 0.03899692, -0.008739239, -0.003993909, 0.0002593961
 134536164, 0.03583407, -0.00496988, -0.003918332, 0.0002593961
 134636124, 0.03343245, 0.0005406566, -0.003344738, 0.0002593961
 134736084, 0.03164301, 0.004741763, -0.003009167, 0.0002593961
 134836044, 0.03062741, 0.00572709, -0.002166402, 0.0002593961
 134936004, 0.03063948, 0.001941282, -0.002034904, 0.0002593961
 135035964, 0.03233109, -0.005637976, -0.001768246, 0.0002593961
 135135924, 0.0351163, -0.01267699, -0.001870251, 0.0002593961
 135235884, 0.03829215, -0.01580657, -0.001852101, 0.0002593961
 135335844, 0.03943705, -0.01402293, -0.001811281, 0.0002593961
 135435804, 0.03808678, -0.007579499, -0.002508221, 0.0002593961
 135535764, 0.03458156, 0.001874257, -0.003078453, 0.0002593961
 135635724, 0.03061497, 0.0130568, -0.003046152, 0.0002593961
 135735684, 0.02611858, 0.02160614, -0.003204402, 0.0002593961
 135836477, 0.02102872, 0.02445065, -0.002915418, 0.0002615578
 135936437, 0.0176967, 0.02119153, -0.002366508, 0.0002593961
 136036397, 0.0179614, 0.01527667, -0.001515453, 0.0002593961
 136136357, 0.01978791, 0.01006104, -0.0008533818, 0.0002593961
 136236317, 0.02144696, 0.008127508, -0.0005933319, 0.0002593961
 136336277, 0.02195012, 0.01105668, -0.0002568337, 0.0002593961
 136436237, 0.02085404, 0.01700255, -4.488698E-05, 0.0002593961
 136536197, 0.01965605, 0.01980383, -0.0004084872, 0.0002593961
 136636157, 0.01942704, 0.01528797, -0.0005883032, 0.0002593961
 136736117, 0.01948864, 0.003726305, -0.0005591362, 0.0002593961
 136836077, 0.01903242, -0.01177263, -0.0002773152, 0.0002593961
 136936037, 0.0175238, -0.02401042, -0.000207365, 0.0002593961
 137035997, 0.01400361, -0.02843353, -0.0008076595, 0.0002593961
 137135957, 0.009753957, -0.02333794, -0.001088784, 0.0002593961
 137235917, 0.005594166, -0.01101254, -0.001450122, 0.0002593961
 137335877, 0.002634453, 0.0006773789, -0.000995078, 0.0002593961
 137435837, 0.000879468, 0.005520312, -0.001194782, 0.0002593961
 137535797, 0.0005819588, 0.003658948, -0.000600012, 0.0002593961
 137635757, 0.001354938, -0.0009749624, -0.0005153859, 0.0002593961
 137735717, 0.003317118, -0.005641715, -0.0003364754, 0.0002593961
 137835677, 0.005809901, -0.008495903, -0.0005899011, 0.0002593961
 137936470, 0.008222495, -0.006125802, -0.0004716714, 0.0002615578
 138036430, 0.009951438, 0.002399217, -0.0005068706, 0.0002593961
 138136390, 0.01015012, 0.01265549, -0.0009349277, 0.0002593961
 138236350, 0.008711122, 0.02005772, -0.001282011, 0.0002593961
 138336310, 0.006339762, 0.02235422, -0.001300206, 0.0002593961
 138436270, 0.00427742, 0.01921664, -0.000989096, 0.0002593961
 138536230, 0.002514219, 0.01309614, -0.0005876182, 0.0002593961
 138636190, 0.001316138, 0.006352474, -0.0006872108, 0.0002593961
 138736150, 0.0009409174, -0.0002948503, -6.858585E-05, 0.0002593961
 138836110, 0.001806934, -0.007163309, 0.000110004, 0.0002593961
 138936070, 0.003750864, -0.01282614, 2.38919E-06, 0.0002593961
 139036030, 0.005640846, -0.01613877, 0.0004422195, 0.0002593961
 139135990, 0.007027337, -0.01582694, 0.000505654, 0.0002593961
 139235950, 0.007147119, -0.01148318, 0.00290975, 0.0002593961
 139335910, 0.005346096, -0.00668869, 0.00732324, 0.0002593961
 139435870, 0.002479652, -0.00463352, 0.00806971, 0.0002593961
 139535830, -0.0005777518, -0.003711429, 0.007799628, 0.0002593961
 139635790, -0.003391722, -0.002602753, 0.007537291, 0.0002593961
 139735750, -0.004872889, -0.002370018, 0.007372738, 0.0002593961
 139835710, -0.005518208, -0.004472672, 0.007395855, 0.0002593961
 139935670, -0.005111944, -0.008472325, 0.007441275, 0.0002593961
 140036463, -0.004082618, -0.01300415, 0.005867318, 0.0002615578
 140136423, -0.002410566, -0.01374967, 0.003383757, 0.0002593961
 140236383, -0.002793331, -0.009575538, 0.005766781, 0.0002593961
 140336343, -0.003883195, -0.003574066, 0.009324642, 0.0002593961
 140436303, -0.003470529, 0.0003820034, 0.006761993, 0.0002593961
 140536263, -0.002133725, 0.002559487, 0.003533035, 0.0002593961
 140636223, -0.001553647, 0.004603348, 0.001718166, 0.0002593961
 140736183, -0.001163792, 0.008865482, -0.001567782, 0.0002593961
 140836143, -0.002495208, 0.01597362, -0.00309559, 0.0002593961
 140936103, -0.002992983, 0.02247889, -0.004705719, 0.0002593961
 141036063, -0.003292303, 0.02563573, -0.002275858, 0.0002593961
 141136023, -0.002357818, 0.0262401, 0.002762447, 0.0002593961
 141235983, -0.00120099, 0.02663198, 0.003000534, 0.0002593961
 141335943, -0.0003417712, 0.02535469, 0.002113006, 0.0002593961
 141435903, -0.0007535458, 0.02147115, 0.001481488, 0.0002593961
 141535863, -0.0007009765, 0.01618294, 0.0007885603, 0.0002593961
 141635823, -0.00126515, 0.01125142, 6.850717E-05, 0.0002593961
 141735783, -0.001941928, 0.009051388, -0.0005074593, 0.0002593961
 141835743, -0.001958113, 0.01005381, -0.001390986, 0.0002593961
 141935703, -0.00247921, 0.01411454, -0.003111328, 0.0002593961
 142035663, -0.004013053, 0.01964962, -0.004691359, 0.0002593961
 142136456, -0.005445541, 0.0259707, -0.00497067, 0.0002615578
 142236416, -0.005510099, 0.03182087, -0.005060141, 0.0002593961
 142336376, -0.01091357, 0.0341012, 0.01951526, 0.0002593961
 142436336, -0.005048277, 0.03319165, 0.00647301, 0.0002593961
 142536296, -0.001290705, 0.02739185, -0.0001767584, 0.0002593961
 142636256, -0.0002690982, 0.0183312, -0.004222984, 0.0002593961
 142736216, -0.001469746, 0.009138444, -0.007211307, 0.0002593961
 142836176, -0.002537884, 0.002380855, -0.0089872, 0.0002593961
 142936136, -0.001834183, -0.001598117, -0.009098725, 0.0002593961
 143036096, -0.0002928739, -0.003272534, -0.001834007, 0.0002593961
 143136056, 0.001494463, -0.005501072, 0.002183272, 0.0002593961
 143236016, 0.002151147, -0.01061077, 0.002738466, 0.0002593961
 143335976, 0.0009088012, -0.0153973, 0.002866087, 0.0002593961
 143435936, -0.002506099, -0.01736258, 0.006846662, 0.0002593961
 143535896, -0.005547307, -0.01646972, 0.01116934, 0.0002593961
 143635856, -0.006466862, -0.01379564, 0.01092928, 0.0002593961
 143735816, -0.00551687, -0.008334229, 0.009870277, 0.0002593961
 143835776, -0.004748298, 2.680143E-05, 0.01120223, 0.0002593961
 143935736, -0.003898086, 0.007875187, 0.01291597, 0.0002593961
 144035696, -0.001373343, 0.01187555, 0.007312625, 0.0002593961
 144135656, 0.0006593242, 0.01127947, -0.000274938, 0.0002593961
 144236449, -0.0001115018, 0.006899376, -0.003571677, 0.0002615578
 144336409, -0.00127818, 0.00272939, -0.006181282, 0.0002593961
 144436369, -0.00196332, 0.002257901, -0.005165415, 0.0002593961
 144536329, -0.002220172, 0.004175378, -0.003417043, 0.0002593961
 144636289, -0.001585318, 0.006921319, -0.003805245, 0.0002593961
 144736249, -0.001171175, 0.008913344, -0.004780483, 0.0002593961
 144836209, -0.001400011, 0.01068358, -0.004022908, 0.0002593961
 144936169, -0.001903126, 0.01040301, -0.003013652, 0.0002593961
 145036129, -0.002019453, 0.007527488, -0.003894038, 0.0002593961
 145136089, -0.01285038, 0.004028573, 0.02881948, 0.0002593961
 145236049, -0.03167093, 0.00319489, 0.06194022, 0.0002593961
 145336009, -0.05480449, 0.006370395, 0.08045627, 0.0002593961
 145435969, -0.07531927, 0.01279125, 0.09520069, 0.0002593961
 145535929, -0.07765272, 0.01648713, 0.1034131, 0.0002593961
 145635889, -0.06124099, 0.01357703, 0.1070919, 0.0002593961
 145735849, -0.03723946, 0.008983392, 0.1057937, 0.0002593961
 145835809, -0.01601421, 0.006563182, 0.1003501, 0.0002593961
 145935769, -0.002463765, 0.006681271, 0.09176224, 0.0002593961
 146035729, 0.003682749, 0.007572648, 0.08193457, 0.0002593961
 146135689, 0.004240707, 0.006834151, 0.07198475, 0.0002593961
 146236482, 0.001932186, 0.004471174, 0.06289611, 0.0002615578
 146336442, -0.0003178641, 0.001247238, 0.05390646, 0.0002593961
 146436402, -0.00090013, -0.001188648, 0.04608627, 0.0002593961
 146536362, 0.0001945975, -0.002932512, 0.0389238, 0.0002593961
 146636322, 0.001750328, -0.003989872, 0.03220453, 0.0002593961
 146736282, 0.003313774, -0.004710942, 0.02620672, 0.0002593961
 146836242, 0.004829638, -0.004891285, 0.02092829, 0.0002593961
 146936202, 0.006303618, -0.004586498, 0.01650328, 0.0002593961
 147036162, 0.007633582, -0.004404982, 0.01300264, 0.0002593961
 147136122, 0.008844939, -0.001800867, 0.009813079, 0.0002593961
 147236082, 0.009920604, 0.003736196, 0.007311706, 0.0002593961
 147336042, 0.01071868, 0.009386556, 0.00525441, 0.0002593961
 147436002, 0.0112815, 0.01149339, 0.003994114, 0.0002593961
 147535962, 0.01168691, 0.0108089, 0.002620603, 0.0002593961
 147635922, 0.01140175, 0.009270003, 0.002231322, 0.0002593961
 147735882, 0.01113514, 0.007250928, 0.001407654, 0.0002593961
 147835842, 0.01082532, 0.005013545, 0.0006652806, 0.0002593961
 147935802, 0.01040323, 0.002626799, 0.0008417492, 0.0002593961
 148035762, 0.01024272, 0.001221757, 0.0006549098, 0.0002593961
 148135722, 0.01048259, 2.09193E-05, 0.0004434694, 0.0002593961
 148235682, 0.01059555, -0.001600088, 0.0003386156, 0.0002593961
 148336475, 0.01055001, -0.003903683, 0.0001798208, 0.0002615578
 148436435, 0.009832249, -0.005967056, -0.000257886, 0.0002593961
 148536395, 0.009883686, -0.009146923, -0.0002551929, 0.0002593961
 148636355, 0.01171179, -0.01433838, 0.0001259514, 0.0002593961
 148736315, 0.01400121, -0.02043728, 0.0003832035, 0.0002593961
 148836275, 0.01480335, -0.02572191, 0.000791953, 0.0002593961
 148936235, 0.0136923, -0.02570469, 0.0001826974, 0.0002593961
 149036195, 0.01001382, -0.01902882, -0.0004313483, 0.0002593961
 149136155, 0.005867164, -0.009286969, -0.0006408583, 0.0002593961
 149236115, 0.002772745, -0.000642915, -6.971549E-05, 0.0002593961
 149336075, 0.002135235, 0.005760857, 0.0003093959, 0.0002593961
 149436035, 0.003704676, 0.009456953, 0.0008840933, 0.0002593961
 149535995, 0.006645044, 0.01118134, 0.001293937, 0.0002593961
 149635955, 0.0102205, 0.01169267, 0.00104898, 0.0002593961
 149735915, 0.01298619, 0.009062698, 0.000962354, 0.0002593961
 149835875, 0.01428386, 0.002953429, 0.0006363897, 0.0002593961
 149935835, 0.01237942, -0.006348958, 8.975015E-05, 0.0002593961
 150035795, 0.006559125, -0.01636995, -0.000585323, 0.0002593961
 150135755, -0.001069181, -0.02447174, -0.0009050277, 0.0002593961
 150235715, -0.008289904, -0.02853528, -0.001097493, 0.0002593961
 150335675, -0.01322338, -0.02755834, -0.0008065861, 0.0002593961
 150436468, -0.01444884, -0.02216064, -0.0003614009, 0.0002615578
 150536428, -0.01157561, -0.01368285, 0.0003471916, 0.0002593961
 150636388, -0.005734902, -0.004887267, 0.0009765878, 0.0002593961
 150736348, 0.0006591126, 0.003712463, 0.001599128, 0.0002593961
 150836308, 0.005992772, 0.01180107, 0.001340368, 0.0002593961
 150936268, 0.00924118, 0.01868244, 0.0006922002, 0.0002593961
 151036228, 0.01025533, 0.02307925, 0.0004121001, 0.0002593961
 151136188, 0.009074618, 0.02490778, -0.0001169821, 0.0002593961
 151236148, 0.006550485, 0.02418591, -0.0005634843, 0.0002593961
 151336108, 0.002396159, 0.01895764, -0.001004908, 0.0002593961
 151436068, -0.002669442, 0.009205142, -0.001262017, 0.0002593961
 151536028, -0.006902467, -0.001930406, -0.00110675, 0.0002593961
 151635988, -0.009152708, -0.01082535, -0.0006367674, 0.0002593961
 151735948, -0.01000289, -0.01458909, -4.58522E-05, 0.0002593961
 151835908, -0.009738016, -0.0130656, -0.0002924846, 0.0002593961
 151935868, -0.007837601, -0.008352021, -0.000190145, 0.0002593961
 152035828, -0.003618817, -0.003811618, 0.0004231655, 0.0002593961
 152135788, 0.001504395, 0.0009553263, 0.0004902225, 0.0002593961
 152235748, 0.005658954, 0.006366904, 0.0001418536, 0.0002593961
 152335708, 0.007614674, 0.00976847, -0.0002489584, 0.0002593961
 152435668, 0.007344823, 0.009445693, -0.0004878476, 0.0002593961
 152536461, 0.005728919, 0.007760829, -0.0008609239, 0.0002615578
 152636421, 0.003707995, 0.006778173, -0.001218201, 0.0002593961
 152736381, 0.001797086, 0.007721635, -0.0008942054, 0.0002593961
 152836341, 0.001324938, 0.01018726, -0.001001575, 0.0002593961
 152936301, 0.001758257, 0.01407066, -0.0004232334, 0.0002593961
 153036261, 0.002647608, 0.0186343, -5.093325E-05, 0.0002593961
 153136221, 0.003545134, 0.02335845, -0.0001728701, 0.0002593961
 153236181, 0.004162295, 0.02793545, -0.0002763786, 0.0002593961
 153336141, 0.004177284, 0.03103683, -0.0004161683, 0.0002593961
 153436101, 0.003094165, 0.03227241, -5.068181E-05, 0.0002593961
 153536061, 0.001988003, 0.0306847, -0.0004903679, 0.0002593961
 153636021, 0.0009305872, 0.02621545, -0.0005384138, 0.0002593961
 153735981, -0.0009916021, 0.02035292, -0.0003838815, 0.0002593961
 153835941, -0.00455831, 0.01587916, -0.0006792498, 0.0002593961
 153935901, -0.008004075, 0.01481142, -0.000379053, 0.0002593961
 154035861, -0.01042855, 0.01804699, 0.0001328354, 0.0002593961
 154135821, -0.01114337, 0.02147317, 0.0004686626, 0.0002593961
 154235781, -0.009806746, 0.02250265, 0.000418567, 0.0002593961
 154335741, -0.007746513, 0.02013732, 0.0004832849, 0.0002593961
 154435701, -0.006134847, 0.01512961, 0.000734014, 0.0002593961
 154535661, -0.004274189, 0.0102354, 0.0006528662, 0.0002593961
 154636454, -0.003165751, 0.006787106, 0.0002710835, 0.0002615578
 154736414, -0.00204869, 0.004498959, 0.0003101633, 0.0002593961
 154836374, -0.001469255, 0.002624144, 0.0002017108, 0.0002593961
 154936334, -0.001770873, 0.001797731, 0.0004373886, 0.0002593961
 155036294, -0.003492988, 0.001772276, -0.0003618509, 0.0002593961
 155136254, -0.006076381, 0.001934677, -0.0003815793, 0.0002593961
 155236214, -0.00758513, 0.001876166, -0.0006503673, 0.0002593961
 155336174, -0.006843219, 0.001954826, 9.541746E-05, 0.0002593961
 155436134, -0.003234906, 0.002357157, 0.0006461894, 0.0002593961
 155536094, 0.001438824, 0.002338918, 0.0006026515, 0.0002593961
 155636054, 0.004599329, 0.001390384, 0.0005055037, 0.0002593961
 155736014, 0.005270743, -0.002791988, 0.0001587983, 0.0002593961
 155835974, 0.003733177, -0.009862554, -0.0008083889, 0.0002593961
 155935934, 0.00142506, -0.01641692, -0.0006435072, 0.0002593961
 156035894, -0.0003901869, -0.01899852, -0.0008220302, 0.0002593961
 156135854, -0.0009959724, -0.01555534, -0.0009113014, 0.0002593961
 156235814, -0.0006704439, -0.006360503, -0.00101183, 0.0002593961
 156335774, 0.0001300518, 0.004358862, -0.0007611723, 0.0002593961
 156435734, 0.0009065294, 0.01227828, -0.000504031, 0.0002593961
 156535694, 0.001162103, 0.01582297, -0.0002049579, 0.0002593961
 156635654, 0.000974833, 0.015084, -0.0002245207, 0.0002593961
 156736447, 9.670474E-05, 0.01096045, -0.0004101542, 0.0002615578
 156836407, -0.002665094, 0.005205494, -0.0006816115, 0.0002593961
 156936367, -0.0056408, 0.0006227753, 8.318195E-05, 0.0002593961
 157036327, -0.007814747, -0.00139789, -0.0005679647, 0.0002593961
 157136287, -0.007949661, -0.002232517, -0.000513465, 0.0002593961
 157236247, -0.006064261, -0.004243691, 2.601654E-05, 0.0002593961
 157336207, -0.003095743, -0.008109841, 0.000498372, 0.0002593961
 157436167, -0.001036881, -0.01296932, -5.744781E-05, 0.0002593961
 157536127, -0.0002740356, -0.01518634, 0.0004028699, 0.0002593961
 157636087, -0.0004227374, -0.01283013, 0.0003123106, 0.0002593961
 157736047, -0.001441757, -0.006405164, 0.0009949505, 0.0002593961
 157836007, -0.001828033, 0.001341729, 0.0005691492, 0.0002593961
 157935967, -0.002380542, 0.006938944, -8.535069E-05, 0.0002593961
 158035927, -0.002207765, 0.008103057, -0.0006053587, 0.0002593961
 158135887, -0.002486683, 0.004195334, -0.0008432175, 0.0002593961
 158235847, -0.002051614, -0.003542271, 0.000477931, 0.0002593961
 158335807, -0.001993364, -0.01223147, 0.0001552235, 0.0002593961
 158435767, -0.001224146, -0.0190358, -1.338662E-05, 0.0002593961
 158535727, -0.0009275489, -0.02059234, -0.0008352146, 0.0002593961
 158635687, -0.0002789022, -0.01611977, -0.0006521796, 0.0002593961
 158736480, 0.0002087004, -0.007336967, -0.0005662202, 0.0002615578
 158836440, -0.003111949, 0.003976242, -0.0006425289, 0.0002593961
 158936400, -0.005271586, 0.01259646, -0.0007611019, 0.0002593961
 159036360, -0.009205914, 0.01658007, -0.0003352779, 0.0002593961
 159136320, -0.01504426, 0.01640261, -0.0007705407, 0.0002593961
 159236280, -0.01659558, 0.01454289, -0.001069709, 0.0002593961
 159336240, -0.0144368, 0.01262016, -7.137774E-05, 0.0002593961
 159436200, -0.009412951, 0.01171998, 0.001006137, 0.0002593961
 159536160, -0.004807224, 0.008992725, 0.00096223, 0.0002593961
 159636120, -0.001948301, 0.00319227, 0.0007205856, 0.0002593961
 159736080, -0.001318106, -0.003240275, 5.17519E-05, 0.0002593961
 159836040, -0.002330318, -0.007989604, -0.0004114662, 0.0002593961
 159936000, -0.003569475, -0.008926723, -0.0003867259, 0.0002593961
 160035960, -0.003920239, -0.005815663, -0.0007325782, 0.0002593961
 160135920, -0.003093371, 0.001349523, -0.0002734342, 0.0002593961
 160235880, -0.001609369, 0.0115638, 0.0004758314, 0.0002593961
 160335840, 0.0002933431, 0.02022702, 0.000670365, 0.0002593961
 160435800, 0.001749403, 0.02421033, 0.0003182937, 0.0002593961
 160535760, 0.002699805, 0.02137136, -0.0001190663, 0.0002593961
 160635720, 0.002080819, 0.01312095, -0.0001060157, 0.0002593961
 160735680, 0.00116208, 0.004755639, -0.0001827379, 0.0002593961
 160836473, -0.0003030153, 0.0009596584, -0.0001599189, 0.0002615578
 160936433, -0.001384565, 0.002939998, -0.000342567, 0.0002593961
 161036393, -0.0004184321, 0.01064114, -0.0007638212, 0.0002593961
 161136353, -0.001185279, 0.01883032, 0.0002769638, 0.0002593961
 161236313, -0.0025324, 0.02353203, 0.0001048265, 0.0002593961
 161336273, -0.004245488, 0.0222702, -0.0005996879, 0.0002593961
 161436233, -0.005460886, 0.0145832, -0.0003455568, 0.0002593961
 161536193, -0.005160046, 0.004950244, -1.052795E-05, 0.0002593961
 161636153, -0.003995507, -0.002238072, 2.882512E-06, 0.0002593961
 161736113, -0.00294913, -0.005879599, 0.0009869788, 0.0002593961
 161836073, -0.001267776, -0.007045573, 0.0002321399, 0.0002593961
 161936033, 0.0003860517, -0.005819232, 0.0002537356, 0.0002593961
 162035993, 0.002461581, -0.003751345, -0.0001512756, 0.0002593961
 162135953, 0.005320298, -0.0003755698, 8.29198E-05, 0.0002593961
 162235913, 0.006099831, 0.003511846, -4.436388E-05, 0.0002593961
 162335873, 0.003343199, 0.006780419, -0.0004413865, 0.0002593961
 162435833, -0.004000943, 0.008100928, -0.0004747363, 0.0002593961
 162535793, -0.002585838, 0.006864482, -0.0005632114, 0.0002593961
 162635753, -0.001929826, 0.003529052, -0.00038835, 0.0002593961
 162735713, -0.002003395, -0.0004166609, 0.0005125891, 0.0002593961
 162835673, -0.002859988, -0.00295178, 0.0005178406, 0.0002593961
 162936466, -0.003970759, -0.002652831, 0.0003119234, 0.0002615578
 163036426, -0.004451794, -8.37581E-05, -0.0001791106, 0.0002593961
 163136386, -0.004708126, 0.002489428, 0.0002663083, 0.0002593961
 163236346, -0.002984242, 0.002427157, 0.0007337937, 0.0002593961
 163336306, -0.003031147, -0.001216734, -0.0004056023, 0.0002593961
 163436266, -0.003685899, -0.007447531, -0.0005930304, 0.0002593961
 163536226, -0.003268658, -0.01041717, 0.0002817707, 0.0002593961
 163636186, -0.00613989, -0.006823291, -0.0007600354, 0.0002593961
 163736146, -0.009825872, -0.0005511227, -0.0007847089, 0.0002593961
 163836106, -0.01176738, 0.004415506, -0.0007339402, 0.0002593961
 163936066, -0.01322906, 0.007975538, -6.297711E-06, 0.0002593961
 164036026, -0.01025711, 0.01159792, 0.0003876196, 0.0002593961
 164135986, -0.004169566, 0.01516512, 0.0007358409, 0.0002593961
 164235946, -0.002537601, 0.01819486, 0.001074591, 0.0002593961
 164335906, -0.0004631975, 0.01932369, 0.0007296421, 0.0002593961
 164435866, 0.001765395, 0.01813536, 0.0001667631, 0.0002593961
 164535826, 0.001370408, 0.01569192, 3.111548E-05, 0.0002593961
 164635786, -0.000244314, 0.01275232, -0.0008094481, 0.0002593961
 164735746, -0.001773802, 0.01068199, -0.0006789292, 0.0002593961
 164835706, -0.0003397878, 0.009882984, -0.0003205542, 0.0002593961
 164935666, 0.001302215, 0.008123203, -0.0001193952, 0.0002593961
 165036459, 0.0004067989, 0.00448397, -0.0002297305, 0.0002615578
 165136419, -0.0004101956, 7.579857E-05, -0.0003992712, 0.0002593961
 165236379, -0.002089268, -0.002743603, -0.0002537963, 0.0002593961
 165336339, -0.0046198, -0.003121604, -0.0006640841, 0.0002593961
 165436299, -0.006518595, -0.0004670863, -0.0002033338, 0.0002593961
 165536259, -0.008351834, 0.003116823, -0.0003646596, 0.0002593961
 165636219, -0.01355746, 0.006571489, 0.0002624987, 0.0002593961
 165736179, -0.008161536, 0.008687685, 0.0006189027, 0.0002593961
 165836139, -0.004144894, 0.009744183, 0.0008180181, 0.0002593961
 165936099, -0.002401751, 0.01007803, 0.0005359282, 0.0002593961
 166036059, -0.003583972, 0.0102196, 3.278135E-05, 0.0002593961
 166136019, -0.005967882, 0.01025973, -7.066283E-05, 0.0002593961
 166235979, -0.005570824, 0.009443072, -0.0001164685, 0.0002593961
 166335939, -0.002634831, 0.008119831, -9.228237E-05, 0.0002593961
 166435899, -0.007533437, 0.006006882, 0.0003794999, 0.0002593961
 166535859, -0.005091988, 0.004630613, 0.0005662655, 0.0002593961
 166635819, -0.003092688, 0.005237188, 0.0006325491, 0.0002593961
 166735779, -0.00121686, 0.005321785, 0.0004449351, 0.0002593961
 166835739, 0.0003904965, 0.002838897, 0.0005264619, 0.0002593961
 166935699, 0.001337885, -0.002004514, 0.0002759985, 0.0002593961
 167035659, 0.001285185, -0.006882258, 0.0001109942, 0.0002593961
 167136452, 0.0002486803, -0.01014195, -0.0002734068, 0.0002615578
 167236412, -0.002262158, -0.01001312, -0.0004221813, 0.0002593961
 167336372, -0.004956951, -0.00648577, -0.000748547, 0.0002593961
 167436332, -0.006999452, -0.0008297539, -7.479656E-05, 0.0002593961
 167536292, -0.007287597, 0.004533799, -0.0001274207, 0.0002593961
 167636252, -0.006403603, 0.008081002, 0.0002799273, 0.0002593961
 167736212, -0.004409696, 0.008526544, 0.0002483423, 0.0002593961
 167836172, -0.002285066, 0.006406643, 0.0004615046, 0.0002593961
 167936132, -0.001217545, 0.003998495, -0.0002117716, 0.0002593961
 168036092, -0.0008704457, 0.003210415, -0.0005798833, 0.0002593961
 168136052, -0.00158967, 0.003991338, -0.0005514823, 0.0002593961
 168236012, -0.002611223, 0.005290721, -0.0007763628, 0.0002593961
 168335972, -0.003583213, 0.005238234, -0.0004753309, 0.0002593961
 168435932, -0.003429567, 0.002955041, -0.0003060463, 0.0002593961
 168535892, -0.003086131, -0.0001092477, -0.0003967712, 0.0002593961
 168635852, -0.00367579, -0.001859728, -0.0002418563, 0.0002593961
 168735812, -0.005111401, -0.001601919, -0.0005897725, 0.0002593961
 168835772, -0.005876357, 0.0005936964, -0.0005189655, 0.0002593961
 168935732, -0.004120329, 0.005837976, -0.0004510302, 0.0002593961
 169035692, -0.005457054, 0.01324922, -0.0004569656, 0.0002593961
 169136485, -0.004917395, 0.02002271, -0.000313476, 0.0002615578
 169236445, -0.003444693, 0.02328645, -0.0003356139, 0.0002593961
 169336405, -0.001456676, 0.02251458, 0.0001956562, 0.0002593961
 169436365, 0.0006941664, 0.01839673, 0.0001209526, 0.0002593961
 169536325, -0.00145359, 0.01345469, -0.0001045881, 0.0002593961
 169636285, -0.0007823554, 0.008928162, -0.0009042292, 0.0002593961
 169736245, 0.0005203887, 0.003891072, -0.0007500806, 0.0002593961
 169836205, 0.0002935815, -0.00245367, -0.0007572684, 0.0002593961
 169936165, -0.0003581774, -0.007681567, -0.0004120382, 0.0002593961
 170036125, 0.004534036, -0.009769389, -0.0005262629, 0.0002593961
 170136085, 0.002970671, -0.009464018, -0.0003381318, 0.0002593961
 170236045, -0.0005536813, -0.007119564, -0.000714051, 0.0002593961
 170336005, -0.001308436, -0.004981257, -0.0006405353, 0.0002593961
 170435965, -0.0006037446, -0.002872201, -0.0002531195, 0.0002593961
 170535925, -0.0006145792, 0.001131201, -0.00103019, 0.0002593961
 170635885, -0.004931258, 0.006911792, -0.0007637556, 0.0002593961
 170735845, -0.003601962, 0.01231278, 0.0004727415, 0.0002593961
 170835805, -0.003055436, 0.01530623, 1.446639E-06, 0.0002593961
 170935765, -0.002870811, 0.01478786, 7.267308E-05, 0.0002593961
 171035725, -0.002184639, 0.01142932, 0.0006862088, 0.0002593961
 171135685, -0.000967231, 0.007113277, 0.0004868836, 0.0002593961
 171236478, -0.002427749, 0.003212099, 0.0005103882, 0.0002615578
 171336438, -0.00283328, 0.0002840693, 0.0006205901, 0.0002593961
 171436398, -0.0006558499, -0.001000221, 0.0009239599, 0.0002593961
 171536358, 0.001823196, 0.0006700737, 0.0007292929, 0.0002593961
 171636318, 0.002104218, 0.005817626, 0.0005596318, 0.0002593961
 171736278, 0.000244969, 0.010183, -0.0001191223, 0.0002593961
 171836238, -0.002809755, 0.01147141, -0.0001193201, 0.0002593961
 171936198, -0.001948338, 0.008468213, -3.897775E-05, 0.0002593961
 172036158, -0.004107712, 0.002029246, 0.0002059291, 0.0002593961
 172136118, -0.007882171, -0.0049244, 0.0002453704, 0.0002593961
 172236078, -0.004829125, -0.009716319, 0.0007208774, 0.0002593961
 172336038, 0.0004184302, -0.009907789, 0.0006656594, 0.0002593961
 172435998, 0.006121177, -0.004947782, 0.0002817159, 0.0002593961
 172535958, 0.002332033, 0.003994692, -0.0001260277, 0.0002593961
 172635918, 0.0001184305, 0.01383779, -0.0001929763, 0.0002593961
 172735878, -0.001856004, 0.02169253, 0.000120072, 0.0002593961
 172835838, -0.00262548, 0.02495818, 5.577597E-05, 0.0002593961
 172935798, -0.0006761912, 0.02209637, 8.616218E-05, 0.0002593961
 173035758, 0.003004857, 0.01406935, -0.00041042, 0.0002593961
 173135718, 0.003437259, 0.003380594, -0.0007467131, 0.0002593961
 173235678, 0.005992377, -0.006979445, -0.0008327585, 0.0002593961
 173336471, 0.002507991, -0.01227699, -0.0008280592, 0.0002615578
 173436431, -0.001407109, -0.0104654, -0.001041238, 0.0002593961
 173536391, -0.004595308, -0.005060764, -0.0008745175, 0.0002593961
 173636351, -0.006704017, 0.000555346, -0.000160606, 0.0002593961
 173736311, -0.008228696, 0.004268755, -0.0005146626, 0.0002593961
 173836271, -0.0120928, 0.00606856, -0.0006916021, 0.0002593961
 173936231, -0.01212057, 0.005510311, -0.0006853841, 0.0002593961
 174036191, -0.007711759, 0.00331604, -0.000258073, 0.0002593961
 174136151, -0.002130222, 0.0002613707, 0.0005274307, 0.0002593961
 174236111, 0.0009069745, -0.002636431, 0.0004593024, 0.0002593961
 174336071, 0.002481762, -0.004512888, 0.0001976319, 0.0002593961
 174436031, 0.004147929, -0.004831702, 0.001114503, 0.0002593961
 174535991, 0.006113109, -0.006012363, 0.0001485671, 0.0002593961
 174635951, 0.005184707, -0.008894621, -0.0004387661, 0.0002593961
 174735911, 0.001777113, -0.009445108, -0.001041558, 0.0002593961
 174835871, -0.0008464538, -0.004712336, 6.327327E-07, 0.0002593961
 174935831, -0.00318954, 0.001016463, 0.0003274883, 0.0002593961
 175035791, -0.005149105, 0.004786806, -0.0003640256, 0.0002593961
 175135751, -0.006657614, 0.003216707, -3.741317E-05, 0.0002593961
 175235711, -0.006362366, -0.00326725, -0.0003461835, 0.0002593961
 175335671, -0.00766251, -0.009840132, 1.005728E-06, 0.0002593961
 175436464, -0.009048956, -0.01314298, 1.344379E-05, 0.0002615578
 175536424, -0.01040988, -0.01005741, -0.0001484992, 0.0002593961
 175636384, -0.01189469, -0.001363431, 0.0001554344, 0.0002593961
 175736344, -0.00776627, 0.008884603, -0.0001192748, 0.0002593961
 175836304, -0.003036067, 0.01779496, 0.0007190557, 0.0002593961
 175936264, 0.001487574, 0.02395904, 0.001190598, 0.0002593961
 176036224, 0.004484709, 0.02707842, 0.001146651, 0.0002593961
 176136184, 0.007545392, 0.02654305, 0.0003366125, 0.0002593961
 176236144, 0.004146492, 0.02221191, -0.0004950009, 0.0002593961
 176336104, 0.0003583559, 0.01684235, -0.0009946562, 0.0002593961
 176436064, -0.005032532, 0.01273559, -0.0008687918, 0.0002593961
 176536024, -0.01388019, 0.009594118, -0.0003161691, 0.0002593961
 176635984, -0.03086796, 0.006883624, 0.0005227727, 0.0002593961
 176735944, -0.03512051, 0.004460376, 0.0008259079, 0.0002593961
 176835904, -0.0325128, 0.001771895, 0.0006435071, 0.0002593961
 176935864, -0.03410022, -0.0003723796, 0.001175426, 0.0002593961
 177035824, -0.03453569, -0.001380956, 0.0007962688, 0.0002593961
 177135784, -0.03800761, -0.001459631, 0.0008080955, 0.0002593961
 177235744, -0.03548485, -0.0009484855, 0.0008459009, 0.0002593961
 177335704, -0.03036058, -0.0003592681, 0.0003948455, 0.0002593961
 177435664, -0.02821561, 0.0002923811, 0.0005052536, 0.0002593961
 177536457, -0.02563802, 0.000577006, 0.000383082, 0.0002615578
 177636417, -0.02371001, 0.0004429664, 0.0002771318, 0.0002593961
 177736377, -0.02215208, 0.0001933736, 7.77327E-05, 0.0002593961
 177836337, -0.02052105, -0.0003246534, -0.0002774166, 0.0002593961
 177936297, -0.01827269, -0.001351253, -0.000194666, 0.0002593961
 178036257, -0.01565289, -0.002352394, 0.0002727478, 0.0002593961
 178136217, -0.01253659, -0.003005465, -0.0002007778, 0.0002593961
 178236177, -0.008851785, -0.003901795, -0.0002213558, 0.0002593961
 178336137, -0.005421969, -0.004600062, -0.0003938732, 0.0002593961
 178436097, -0.001800829, -0.005312316, -0.0001152305, 0.0002593961
 178536057, 0.002165171, -0.005762972, -0.0003513016, 0.0002593961
 178636017, 0.005870186, -0.006135501, -0.000448367, 0.0002593961
 178735977, 0.009999455, -0.00646918, -0.0002880435, 0.0002593961
 178835937, 0.01425917, -0.006603958, -5.363105E-05, 0.0002593961
 178935897, 0.01945234, -0.00694327, -0.0001920766, 0.0002593961
 179035857, 0.02449655, -0.007198738, -0.0004919456, 0.0002593961
 179135817, 0.02956837, -0.007397837, -0.0005440168, 0.0002593961
 179235777, 0.03478253, -0.007722906, -0.0007104093, 0.0002593961
 179335737, 0.04004396, -0.008204204, -0.001059005, 0.0002593961
 179435697, 0.04521751, -0.008586425, -0.001000213, 0.0002593961
 179535657, 0.05067432, -0.00891391, -0.001015563, 0.0002593961
 179636450, 0.0563895, -0.009131147, -0.001109464, 0.0002615578
 179736410, 0.0613413, -0.009314531, -0.0007927941, 0.0002593961
 179836370, 0.06671316, -0.009439583, -0.0005002297, 0.0002593961
 179936330, 0.07215772, -0.00943329, -0.0002095838, 0.0002593961
 180036290, 0.0777193, -0.00953871, -0.0001191366, 0.0002593961
 180136250, 0.08275523, -0.009450441, 1.537178E-06, 0.0002593961
 180236210, 0.08807087, -0.009791848, 8.259925E-05, 0.0002593961
 180336170, 0.09274658, -0.01004111, 0.0005122698, 0.0002593961
 180436130, 0.09758992, -0.01050885, 0.0008129562, 0.0002593961
 180536090, 0.1022087, -0.01092133, 0.001067037, 0.0002593961
 180636050, 0.1065279, -0.0112207, 0.001192544, 0.0002593961
 180736010, 0.1104252, -0.01143891, 0.00139991, 0.0002593961
 180835970, 0.1139308, -0.01159469, 0.001480646, 0.0002593961
 180935930, 0.1170406, -0.01181293, 0.00150884, 0.0002593961
 181035890, 0.1201904, -0.01153305, 0.001385031, 0.0002593961
 181135850, 0.1226724, -0.01122583, 0.001693621, 0.0002593961
 181235810, 0.1247973, -0.01063838, 0.001750249, 0.0002593961
 181335770, 0.1263612, -0.01013492, 0.002163449, 0.0002593961
 181435730, 0.1280482, -0.009706226, 0.002275306, 0.0002593961
 181535690, 0.1290094, -0.008739387, 0.00262529, 0.0002593961
 181636483, 0.1311825, -0.008004087, 0.002853764, 0.0002615578
 181736443, 0.1309467, -0.007530368, 0.002960776, 0.0002593961
 181836403, 0.1314532, -0.007103522, 0.002932553, 0.0002593961
 181936363, 0.1320382, -0.006918531, 0.002775556, 0.0002593961
 182036323, 0.1317091, -0.006619262, 0.002720406, 0.0002593961
 182136283, 0.1314414, -0.006875114, 0.002305752, 0.0002593961
 182236243, 0.1309174, -0.00700109, 0.002148854, 0.0002593961
 182336203, 0.1299001, -0.006953185, 0.001900117, 0.0002593961
 182436163, 0.1293734, -0.006876543, 0.001443723, 0.0002593961
 182536123, 0.1284472, -0.006086185, 0.0008894355, 0.0002593961
 182636083, 0.1274364, -0.005283809, 0.0002768159, 0.0002593961
 182736043, 0.126036, -0.004806824, -0.0003628387, 0.0002593961
 182836003, 0.1247641, -0.004045072, -0.001122798, 0.0002593961
 182935963, 0.1229065, -0.003426243, -0.001643856, 0.0002593961
 183035923, 0.1213854, -0.002664015, -0.002451275, 0.0002593961
 183135883, 0.1198347, -0.001724447, -0.002977301, 0.0002593961
 183235843, 0.1179894, -0.001022361, -0.003789463, 0.0002593961
 183335803, 0.1162412, -0.0004100159, -0.004665406, 0.0002593961
 183435763, 0.114469, 3.304879E-05, -0.005486803, 0.0002593961
 183535723, 0.1122916, 0.0005466316, -0.006556001, 0.0002593961
 183635683, 0.1099987, 0.001043266, -0.007193133, 0.0002593961
 183736476, 0.1070759, 0.001544913, -0.008616221, 0.0002615578
 183836436, 0.09957156, 0.002691707, -0.009975038, 0.0002593961
 183936396, 0.09061452, 0.004160241, -0.01165403, 0.0002593961
 184036356, 0.0792922, 0.006024602, -0.0126448, 0.0002593961
 184136316, 0.0673374, 0.007614921, -0.01325032, 0.0002593961
 184236276, 0.05541339, 0.009146177, -0.01336677, 0.0002593961
 184336236, 0.04459185, 0.01018738, -0.01327794, 0.0002593961
 184436196, 0.03432812, 0.01133872, -0.01270169, 0.0002593961
 184536156, 0.02603762, 0.01238569, -0.01287166, 0.0002593961
 184636116, 0.01835837, 0.01363797, -0.01222893, 0.0002593961
 184736076, 0.01192755, 0.01494618, -0.01242486, 0.0002593961
 184836036, 0.006156692, 0.01641917, -0.01268935, 0.0002593961
 184935996, 0.001465234, 0.01789361, -0.0134332, 0.0002593961
 185035956, -0.00218721, 0.01962204, -0.01499484, 0.0002593961
 185135916, -0.008115819, 0.02252287, -0.01140924, 0.0002593961
 185235876, -0.001714897, 0.02566802, -0.01685457, 0.0002593961
 185335836, 0.008662908, 0.02928821, -0.02304643, 0.0002593961
 185435796, 0.02466098, 0.03162635, -0.03556445, 0.0002593961
 185535756, 0.02798596, 0.03411324, -0.0443517, 0.0002593961
 185635716, 0.01239088, 0.03688547, -0.04435451, 0.0002593961
 185735676, -0.008587809, 0.03869023, -0.05026154, 0.0002593961
 185836469, -0.03326277, 0.03996507, -0.06058213, 0.0002615578
 185936429, -0.05924232, 0.0405894, -0.07336628, 0.0002593961
 186036389, -0.08604741, 0.0415604, -0.08679235, 0.0002593961
 186136349, -0.1131556, 0.04323024, -0.09674439, 0.0002593961
 186236309, -0.1397657, 0.04606261, -0.09915509, 0.0002593961
 186336269, -0.1612545, 0.0488725, -0.1004523, 0.0002593961
 186436229, -0.1787432, 0.05212382, -0.1008316, 0.0002593961
 186536189, -0.1951013, 0.055489, -0.09679537, 0.0002593961
 186636149, -0.2094518, 0.0587692, -0.09047975, 0.0002593961
 186736109, -0.2222786, 0.06172139, -0.08125769, 0.0002593961
 186836069, -0.2322192, 0.06344724, -0.07063484, 0.0002593961
 186936029, -0.2385952, 0.06468249, -0.05833572, 0.0002593961
 187035989, -0.2410331, 0.0655783, -0.04573817, 0.0002593961
 187135949, -0.240652, 0.06564654, -0.03222077, 0.0002593961
 187235909, -0.2366734, 0.06515094, -0.01876986, 0.0002593961
 187335869, -0.230417, 0.0640639, -0.005313478, 0.0002593961
 187435829, -0.2216919, 0.06274804, 0.007380344, 0.0002593961
 187535789, -0.2107791, 0.06111166, 0.01933125, 0.0002593961
 187635749, -0.198536, 0.0589822, 0.02949624, 0.0002593961
 187735709, -0.1856969, 0.05700148, 0.03891166, 0.0002593961
 187835669, -0.1721294, 0.05477342, 0.04632584, 0.0002593961
 187936462, -0.1598904, 0.05272205, 0.05401054, 0.0002615578
 188036422, -0.1449543, 0.0501256, 0.05820477, 0.0002593961
 188136382, -0.1321431, 0.04774855, 0.06269303, 0.0002593961
 188236342, -0.1188477, 0.04559842, 0.06537778, 0.0002593961
 188336302, -0.1060861, 0.04333236, 0.06679741, 0.0002593961
 188436262, -0.09426085, 0.04153886, 0.06721363, 0.0002593961
 188536222, -0.08264514, 0.03939252, 0.06669203, 0.0002593961
 188636182, -0.07240333, 0.03769567, 0.06503916, 0.0002593961
 188736142, -0.0624544, 0.03607202, 0.06260855, 0.0002593961
 188836102, -0.05111913, 0.0347068, 0.05934631, 0.0002593961
 188936062, -0.04332413, 0.03372505, 0.0556426, 0.0002593961
 189036022, -0.03730692, 0.03294962, 0.0515445, 0.0002593961
 189135982, -0.03040469, 0.03205982, 0.0465614, 0.0002593961
 189235942, -0.02392499, 0.03140689, 0.04135927, 0.0002593961
 189335902, -0.01889179, 0.03087687, 0.03635728, 0.0002593961
 189435862, -0.0156661, 0.03054216, 0.03122791, 0.0002593961
 189535822, -0.01349995, 0.03045411, 0.02614979, 0.0002593961
 189635782, -0.01319872, 0.03012473, 0.02107185, 0.0002593961
 189735742, -0.01557094, 0.03057633, 0.01568513, 0.0002593961
 189835702, -0.0204348, 0.03125632, 0.0108841, 0.0002593961
 189935662, -0.02686056, 0.0321177, 0.00762079, 0.0002593961
 190036455, -0.03277805, 0.03297988, 0.003939196, 0.0002615578
 190136415, -0.03843479, 0.03349924, 0.001593164, 0.0002593961
 190236375, -0.04357059, 0.03412737, -0.0002343277, 0.0002593961
 190336335, -0.04718541, 0.03443181, -0.001975356, 0.0002593961
 190436295, -0.05031464, 0.03474595, -0.003127626, 0.0002593961
 190536255, -0.05275892, 0.03477669, -0.004241709, 0.0002593961
 190636215, -0.05477963, 0.0348199, -0.004948933, 0.0002593961
 190736175, -0.05659581, 0.03489356, -0.005394298, 0.0002593961
 190836135, -0.0578441, 0.03518778, -0.005898387, 0.0002593961
 190936095, -0.05931383, 0.03504594, -0.00574286, 0.0002593961
 191036055, -0.06037066, 0.03531805, -0.005980805, 0.0002593961
 191136015, -0.06156394, 0.03531539, -0.005532888, 0.0002593961
 191235975, -0.06257149, 0.03553759, -0.005146403, 0.0002593961
 191335935, -0.0632107, 0.03553711, -0.005034795, 0.0002593961
 191435895, -0.06385287, 0.03523508, -0.004726038, 0.0002593961
 191535855, -0.06464352, 0.03501504, -0.00418169, 0.0002593961
 191635815, -0.0653464, 0.03481488, -0.003456, 0.0002593961
 191735775, -0.06577478, 0.03472239, -0.002955582, 0.0002593961
 191835735, -0.06604733, 0.03454675, -0.002544676, 0.0002593961
 191935695, -0.06616388, 0.03431372, -0.002037221, 0.0002593961
 192035655, -0.06617571, 0.0339855, -0.001530001, 0.0002593961
 192136448, -0.06695591, 0.0338218, -0.0007905448, 0.0002615578
 192236408, -0.06620783, 0.03305642, -0.0004930002, 0.0002593961
 192336368, -0.06579919, 0.03266909, -0.0001071918, 0.0002593961
 192436328, -0.06574714, 0.03228211, 0.0003999588, 0.0002593961
 192536288, -0.06540912, 0.03185092, 0.0007593513, 0.0002593961
 192636248, -0.06510721, 0.03150778, 0.001030821, 0.0002593961
 192736208, -0.06442223, 0.03092846, 0.001187318, 0.0002593961
 192836168, -0.06385119, 0.03048496, 0.001422958, 0.0002593961
 192936128, -0.06286588, 0.0303175, 0.00136683, 0.0002593961
 193036088, -0.06226197, 0.0299239, 0.001673636, 0.0002593961
 193136048, -0.06130218, 0.02935215, 0.001677477, 0.0002593961
 193236008, -0.06059849, 0.02895587, 0.001883713, 0.0002593961
 193335968, -0.059671, 0.02847879, 0.001717458, 0.0002593961
 193435928, -0.0587332, 0.02799857, 0.001841703, 0.0002593961
 193535888, -0.05771127, 0.02748836, 0.00192092, 0.0002593961
 193635848, -0.05696527, 0.02709965, 0.00201309, 0.0002593961
 193735808, -0.05580602, 0.02642494, 0.001813383, 0.0002593961
 193835768, -0.05475511, 0.02585846, 0.002224286, 0.0002593961
 193935728, -0.05356694, 0.02546575, 0.001856627, 0.0002593961
 194035688, -0.0523581, 0.02489857, 0.001691693, 0.0002593961
 194136481, -0.05177389, 0.02463374, 0.001547827, 0.0002615578
 194236441, -0.04987429, 0.02405692, 0.001494366, 0.0002593961
 194336401, -0.04912733, 0.02355164, 0.001662405, 0.0002593961
 194436361, -0.04793547, 0.02297518, 0.001675902, 0.0002593961
 194536321, -0.04688675, 0.02239562, 0.001598845, 0.0002593961
 194636281, -0.04529496, 0.02176671, 0.001109065, 0.0002593961
 194736241, -0.04429407, 0.02123111, 0.001222245, 0.0002593961
 194836201, -0.0431135, 0.02063428, 0.001291484, 0.0002593961
 194936161, -0.04172525, 0.02002282, 0.0007765346, 0.0002593961
 195036121, -0.04052936, 0.01971334, 0.0009552126, 0.0002593961
 195136081, -0.0393738, 0.01911031, 0.001077944, 0.0002593961
 195236041, -0.03813982, 0.01837414, 0.0006874851, 0.0002593961
 195336001, -0.03736035, 0.01791128, 0.0008415111, 0.0002593961
 195435961, -0.03638797, 0.01741718, 0.0008559938, 0.0002593961
 195535921, -0.03475685, 0.01703051, 0.0003553744, 0.0002593961
 195635881, -0.03418063, 0.01632679, 0.0007794171, 0.0002593961
 195735841, -0.03227206, 0.01579662, 0.0002379288, 0.0002593961
 195835801, -0.03185394, 0.01533154, 0.001097589, 0.0002593961
 195935761, -0.0301355, 0.01471755, 0.000256406, 0.0002593961
 196035721, -0.02956687, 0.01430051, 0.0006201897, 0.0002593961
 196135681, -0.02791333, 0.01370445, 0.0003004839, 0.0002593961
 196236474, -0.02683759, 0.01302184, -0.0001990078, 0.0002615578
 196336434, -0.02613659, 0.01247338, 0.0001977176, 0.0002593961
 196436394, -0.02458983, 0.01169887, -0.0002182171, 0.0002593961
 196536354, -0.02428275, 0.01127621, 0.0005144909, 0.0002593961
 196636314, -0.02290158, 0.01057437, -3.632642E-05, 0.0002593961
 196736274, -0.02137301, 0.01022643, -0.0003578876, 0.0002593961
 196836234, -0.02085587, 0.009949761, 0.000376385, 0.0002593961
 196936194, -0.01983576, 0.009575734, 2.35833E-05, 0.0002593961
 197036154, -0.01832668, 0.009128709, -0.000382846, 0.0002593961
 197136114, -0.01747103, 0.008929959, -0.0003734012, 0.0002593961
 197236074, -0.016882, 0.008461739, 0.0005058469, 0.0002593961
 197336034, -0.01540634, 0.007586141, 3.011333E-05, 0.0002593961
 197435994, -0.01474782, 0.006818399, 3.196749E-05, 0.0002593961
 197535954, -0.01346813, 0.006115085, -0.0002437796, 0.0002593961
 197635914, -0.01254208, 0.005526674, -0.001172501, 0.0002593961
 197735874, -0.01205701, 0.005279504, -0.0006238861, 0.0002593961
 197835834, -0.01137773, 0.004777025, 0.0001355523, 0.0002593961
 197935794, -0.009771074, 0.004365287, 4.701047E-05, 0.0002593961
 198035754, -0.009305443, 0.004197826, -0.0002745162, 0.0002593961
 198135714, -0.008845937, 0.003774457, -0.0001071942, 0.0002593961
 198235674, -0.00812753, 0.003504733, 9.747775E-05, 0.0002593961
 198336467, -0.007249887, 0.003043211, 2.957471E-05, 0.0002615578
 198436427, -0.006451656, 0.002552568, -4.912199E-05, 0.0002593961
 198536387, -0.005590245, 0.001949348, -0.0001498552, 0.0002593961
 198636347, -0.004925072, 0.001485375, 4.55948E-05, 0.0002593961
 198736307, -0.004378686, 0.00100072, 6.712373E-06, 0.0002593961
 198836267, -0.003635784, 0.0005680728, -5.66399E-05, 0.0002593961
 198936227, -0.002971476, 6.450098E-06, -8.577014E-05, 0.0002593961
 199036187, -0.002517431, -0.0006287587, 3.861672E-05, 0.0002593961
 199136147, -0.001112438, -0.001209398, -0.0001774996, 0.0002593961
 199236107, -0.0005463189, -0.001664084, -6.418043E-05, 0.0002593961
 199336067, 0.0004324476, -0.002212039, -0.0001246014, 0.0002593961
 199436027, 0.0006817635, -0.002433121, 6.436514E-05, 0.0002593961
 199535987, 0.001592958, -0.002925525, 6.850839E-05, 0.0002593961
 199635947, 0.002183854, -0.003207588, 0.0002318599, 0.0002593961
 199735907, 0.002252862, -0.003526194, 0.0002854147, 0.0002593961
 199835867, 0.002424135, -0.00391859, 0.0002713798, 0.0002593961
 199935827, 0.002670297, -0.004076336, 0.0005732865, 0.0002593961
 200035787, 0.00280834, -0.004264832, 0.0008153311, 0.0002593961
 200135747, 0.003917799, -0.005058836, 0.0002955768, 0.0002593961
 200235707, 0.004600821, -0.00561029, 0.0002603002, 0.0002593961
 200335667, 0.00483906, -0.00653926, 0.0005213309, 0.0002593961
 200436460, 0.005325329, -0.007006305, 0.0007274085, 0.0002615578
 200536420, 0.006219395, -0.007496956, 0.0001690736, 0.0002593961
 200636380, 0.006459087, -0.00779549, 0.0004184038, 0.0002593961
 200736340, 0.006569538, -0.007597938, 0.0009176981, 0.0002593961
 200836300, 0.006763308, -0.007736905, 0.0003279447, 0.0002593961
 200936260, 0.007050846, -0.007822951, 0.0005111175, 0.0002593961
 201036220, 0.007391599, -0.00761979, 0.0005395078, 0.0002593961
 201136180, 0.007644745, -0.007821923, 0.0007515178, 0.0002593961
 201236140, 0.008031626, -0.008157137, 0.000363338, 0.0002593961
 201336100, 0.008316168, -0.008637735, 0.0004642202, 0.0002593961
 201436060, 0.008171292, -0.009217249, 0.0008169183, 0.0002593961
 201536020, 0.008672046, -0.009570007, 0.0004550746, 0.0002593961
 201635980, 0.008836261, -0.01001573, 0.0004517238, 0.0002593961
 201735940, 0.008578334, -0.01036253, 0.0007991754, 0.0002593961
 201835900, 0.009098488, -0.01082274, 0.000236904, 0.0002593961
 201935860, 0.009207342, -0.01082885, 0.0004251722, 0.0002593961
 202035820, 0.01319143, -0.01109768, 0.0009221297, 0.0002593961
 202135780, 0.01169032, -0.0113171, 0.0002740014, 0.0002593961
 202235740, 0.01029349, -0.01119366, 0.000626982, 0.0002593961
 202335700, 0.009439306, -0.01109237, 0.0007188282, 0.0002593961
 202435660, 0.01006824, -0.01144136, 7.828562E-05, 0.0002593961
 202536453, 0.009507983, -0.01147872, 0.0006567588, 0.0002615578
 202636413, 0.007450885, -0.01130512, 0.0009730571, 0.0002593961
 202736373, 0.003234965, -0.01135932, 0.0002552597, 0.0002593961
 202836333, 0.0108466, -0.01196267, 0.0006553506, 0.0002593961
 202936293, 0.009601229, -0.01214328, 0.0006502183, 0.0002593961
 203036253, 0.009582691, -0.01228345, 9.892559E-05, 0.0002593961
 203136213, 0.009102035, -0.01252533, 0.0006352469, 0.0002593961
 203236173, 0.009054674, -0.01275021, 0.0006593295, 0.0002593961
 203336133, 0.006554904, -0.01282868, 0.0005099652, 0.0002593961
 203436093, 0.006318105, -0.01267275, 0.001058562, 0.0002593961
 203536053, 0.008159693, -0.01310263, 0.0002181849, 0.0002593961
 203636013, 0.008302642, -0.01288291, 0.0008340919, 0.0002593961
 203735973, 0.00907136, -0.01326849, -0.000157391, 0.0002593961
 203835933, 0.008504778, -0.01346887, 0.0002146589, 0.0002593961
 203935893, 0.01798151, -0.01394986, -1.428391E-05, 0.0002593961
 204035853, 0.01313051, -0.01395954, 0.0002497496, 0.0002593961
 204135813, 0.009659681, -0.01392919, 0.000325565, 0.0002593961
 204235773, 0.007801369, -0.01399803, 0.0008876264, 0.0002593961
 204335733, 0.001406031, -0.01387911, 0.0008117324, 0.0002593961
 204435693, -0.001587371, -0.01385968, 0.0001921922, 0.0002593961
 204536486, 0.01055611, -0.01437383, -0.0001476198, 0.0002593961
 204636446, 0.00755479, -0.01407609, 0.000178945, 0.0002615578
 204736406, 0.006480741, -0.01386706, 0.0002649153, 0.0002593961
 204836366, 0.006571435, -0.01410374, -0.0002393886, 0.0002593961
 204936326, 0.0005272714, -0.01392393, 0.0001822112, 0.0002593961
 205036286, 0.0005587577, -0.01395124, 0.0002511688, 0.0002593961
 205136246, 0.00369332, -0.01437214, -0.0002279288, 0.0002593961
 205236206, 0.003966602, -0.01444673, 3.431735E-05, 0.0002593961
 205336166, 0.0037013, -0.01449586, 0.0005010138, 0.0002593961
 205436126, 0.005024402, -0.01453173, -8.892674E-05, 0.0002593961
 205536086, 0.02045076, -0.01549919, -0.0001408169, 0.0002593961
 205636046, 0.009966236, -0.01487881, 0.0002504718, 0.0002593961
 205736006, 0.005107294, -0.01464179, 4.901114E-06, 0.0002593961
 205835966, 0.002869101, -0.01465722, 0.0004115115, 0.0002593961
 205935926, -0.01236511, -0.01399117, 8.858831E-05, 0.0002593961
 206035886, -0.002446039, -0.01480011, 0.0003347071, 0.0002593961
 206135846, 0.004535338, -0.01502495, 0.001004058, 0.0002593961
 206235806, 0.00232718, -0.01521102, 0.0008025403, 0.0002593961
 206335766, 0.000969792, -0.01484069, 0.0005667458, 0.0002593961
 206435726, 0.001164424, -0.01464884, -0.0003223691, 0.0002593961
 206535686, 0.0001971612, -0.01454079, -0.0008740969, 0.0002593961
 206636479, -0.008285606, -0.01422619, 0.0003423954, 0.0002615578
 206736439, 6.663575E-05, -0.01450301, 0.0005658591, 0.0002593961
 206836399, -0.0006375385, -0.01458327, -2.780159E-05, 0.0002593961
 206936359, -0.001000139, -0.01470923, -0.000822724, 0.0002593961
 207036319, -0.002124311, -0.01448609, 0.0001015591, 0.0002593961
 207136279, -0.00177142, -0.01471207, -7.486565E-05, 0.0002593961
 207236239, -0.002147278, -0.01472969, -0.000302027, 0.0002593961
 207336199, 0.002556116, -0.01492258, 3.22654E-05, 0.0002593961
 207436159, -0.001381844, -0.01490977, 0.000959936, 0.0002593961
 207536119, -0.002560109, -0.01479185, 8.299719E-05, 0.0002593961
 207636079, -0.003661031, -0.01457541, 0.0001023074, 0.0002593961
 207736039, -0.00364151, -0.01468516, -0.0002917374, 0.0002593961
 207835999, -0.004269831, -0.01471219, 3.056375E-05, 0.0002593961
 207935959, -0.005130965, -0.01453453, -1.490235E-05, 0.0002593961
 208035919, -0.01482754, -0.01423818, 0.0004377067, 0.0002593961
 208135879, 0.0004135309, -0.01480969, 0.0005039833, 0.0002593961
 208235839, -0.003717893, -0.01450611, 0.0003504269, 0.0002593961
 208335799, -0.005167412, -0.01451857, 3.009307E-05, 0.0002593961
 208435759, -0.006128147, -0.01448114, -1.257036E-05, 0.0002593961
 208535719, -0.006755133, -0.01412208, -0.0002933389, 0.0002593961
 208635679, -0.007575553, -0.01406311, 0.0001536768, 0.0002593961
 208736472, -0.007731239, -0.01438021, -0.0001977646, 0.0002615578
 208836432, -0.008197308, -0.01409757, 0.0001551091, 0.0002593961
