TimeUS,CAN,CAE,CAD,CAe,NAN,NAE,NAD,NAe,m10,m00
 131831413, -0.008590012, 0.01092001, -4.588001E-05, 0.0009424736, -0.003562277, 0.004477658, 0.0001463571, 0.0005209542, -0.1258987, 0.9920418
 132031333, -0.00831897, 0.01096785, 9.063469E-05, 0.0009424737, -0.003196195, 0.004755698, -0.0006236561, 0.0005187925, -0.1259102, 0.9920404
 132231253, -0.00834087, 0.01082565, -0.000622417, 0.000940312, -0.003932224, 0.004253372, 0.0002184089, 0.0005187925, -0.1259203, 0.9920391
 132431173, -0.009009929, 0.01050761, 0.0001165389, 0.000940312, -0.003473412, 0.005008865, -8.12861E-05, 0.0005187925, -0.1259296, 0.9920378
 132631093, -0.008482181, 0.01142652, -0.0001043439, 0.000940312, -0.00333881, 0.004806038, 0.0003324096, 0.0005187925, -0.1259379, 0.9920368
 132831013, -0.00839631, 0.01103052, 0.0001350697, 0.000940312, -0.00347728, 0.004681411, -3.533141E-06, 0.0005187925, -0.1259454, 0.9920359
 133030933, -0.008507135, 0.01082453, -0.000283072, 0.000940312, -0.003051617, 0.004346686, -0.0007132275, 0.0005187925, -0.1259519, 0.9920352
 133230853, -0.008164722, 0.0107416, -0.0008153393, 0.000940312, -0.003982189, 0.004909688, -0.0002162366, 0.0005187925, -0.1259566, 0.9920344
 133430773, -0.008813716, 0.01134418, -0.0003407308, 0.000940312, -0.003581389, 0.004432391, 0.0001283549, 0.0005187925, -0.1259611, 0.9920339
 133630693, -0.008545685, 0.01088567, 7.492524E-05, 0.000940312, -0.003735519, 0.003932809, 0.0003251109, 0.0005187925, -0.1259654, 0.9920334
 133831446, -0.008543566, 0.01031424, 0.0002417681, 0.0009424736, -0.003468637, 0.004378752, 0.0001703268, 0.0005209542, -0.1259683, 0.992033
 134031366, -0.008246256, 0.0106406, -0.0004226177, 0.0009424737, -0.003162201, 0.004541495, -7.276601E-05, 0.0005187925, -0.1259712, 0.9920326
 134231286, -0.00783602, 0.01084931, -0.0001342987, 0.000940312, -0.003369664, 0.004430835, 0.0002469732, 0.0005187925, -0.1259706, 0.9920326
 134431206, -0.008296413, 0.01070552, 0.0001478617, 0.000940312, -0.003254562, 0.004455154, -0.0002403894, 0.0005187925, -0.125971, 0.9920327
 134631126, -0.008248493, 0.01072423, -0.0001480499, 0.000940312, -0.003688889, 0.004376934, -5.927218E-05, 0.0005187925, -0.1259715, 0.9920326
 134831046, -0.008614522, 0.01067196, -0.0002865945, 0.000940312, -0.003638492, 0.004738847, -0.0007699949, 0.0005187925, -0.1259707, 0.9920326
 135030966, -0.008862836, 0.01122333, -0.1049548, 0.000940312, -0.003838568, 0.004988627, -0.1006508, 0.0005187925, -0.1259702, 0.9920328
 135230886, -0.009012092, 0.01171304, -0.228738, 0.000940312, -0.003904954, 0.004653688, -0.080069, 0.0005187925, -0.1259687, 0.9920329
 135430806, -0.009065264, 0.01096308, -0.1785182, 0.000940312, -0.003703837, 0.004902547, -0.1046268, 0.0005187925, -0.1259697, 0.9920337
 135630726, 0.0001567969, 0.003210513, -1.034108, 0.000940312, 0.009486334, -0.007308287, -0.5290345, 0.0005187925, -0.1259168, 0.9919652
 135831479, 0.02815968, -0.02264656, -0.768571, 0.000940312, 0.01448076, -0.01224504, -0.013344, 0.0005209541, -0.1259815, 0.9919052
 136031399, 0.03044961, -0.0244314, -0.03638669, 0.0009424736, 0.007721008, -0.004069325, -0.06449553, 0.0005187925, -0.1263506, 0.9919376
 136231319, 0.009885407, 0.002140603, -0.2115493, 0.000940312, -0.00352046, 0.01123964, -0.1178825, 0.0005187925, -0.1266791, 0.9919425
 136431239, -0.01315681, 0.03570196, -0.2575087, 0.000940312, -0.008637713, 0.02078124, -0.08660512, 0.0005187925, -0.1268711, 0.9919159
 136631159, -0.01769417, 0.04427003, -0.1812884, 0.000940312, -0.002733609, 0.01029885, -0.06149786, 0.0005187925, -0.1269192, 0.9919068
 136831079, 0.0008874493, 0.008047096, -0.1331489, 0.000940312, 0.005745155, -0.01100005, -0.04767377, 0.0005187925, -0.126623, 0.99188
 137030999, 0.01332268, -0.03269173, -0.1021191, 0.000940312, 0.002490472, -0.01482765, -0.03611865, 0.0005187925, -0.1264708, 0.9919312
 137230919, -0.004094468, -0.02450534, -0.07440678, 0.000940312, -0.01120141, 0.001029943, -0.02492818, 0.0005187925, -0.126564, 0.9919545
 137430839, -0.03352851, 0.01190076, -0.05068693, 0.000940312, -0.01794653, 0.009050368, -0.01755687, 0.0005187925, -0.1265799, 0.991923
 137630759, -0.04048419, 0.01587102, -0.03500261, 0.000940312, -0.01352439, 0.0002959542, -0.01282496, 0.0005187925, -0.1264962, 0.9919573
 137830679, -0.02497967, -0.004629322, -0.02022122, 0.000940312, -0.004253924, -0.006034977, -0.003339131, 0.0005187925, -0.1265095, 0.991962
 138031432, -0.005572372, -0.008491759, -0.00140298, 0.0009424736, -0.0003886985, 0.004693978, 0.0007407963, 0.0005209542, -0.1269477, 0.9919035
 138231352, -0.004398019, 0.02489644, 0.005686487, 0.0009424737, -0.006312399, 0.02095491, 0.001412212, 0.0005187925, -0.1277396, 0.9918027
 138431272, -0.02037602, 0.05258456, 0.008474529, 0.000940312, -0.01192954, 0.02116524, 0.004458877, 0.0005187925, -0.1285055, 0.9916816
 138631192, -0.02978639, 0.0431355, 0.0231532, 0.000940312, -0.01364765, 0.01127692, 0.0167563, 0.0005187925, -0.1290988, 0.9915982
 138831112, -0.02948068, 0.01770896, 0.05734716, 0.000940312, -0.00869695, -0.001141183, 0.03462026, 0.0005187925, -0.1295138, 0.9915724
 139031032, -0.01403159, -0.0103287, 0.1020333, 0.000940312, -0.0002622681, -0.009737851, 0.05543521, 0.0005187925, -0.1296999, 0.9915471
 139230952, 0.002571354, -0.02586975, 0.1763861, 0.000940312, 0.004032958, -0.01246731, 0.1110427, 0.0005187925, -0.1298107, 0.9914978
 139430872, 0.01739242, -0.02949154, 0.2839327, 0.000940312, 0.01361031, -0.01263742, 0.1338609, 0.0005187925, -0.1298956, 0.9913588
 139630792, 0.03009329, -0.0268521, 0.3287923, 0.000940312, 0.007573968, -0.006940994, 0.147206, 0.0005187925, -0.1303549, 0.9913906
 139830712, 0.00785102, -0.01277246, 0.3568499, 0.000940312, -0.003076279, -0.004028215, 0.1552296, 0.0005187925, -0.1308708, 0.9913795
 140031465, 0.005219247, -0.01432906, 0.3751104, 0.0009424736, 0.02012218, -0.01044446, 0.1603973, 0.0005209542, -0.1306334, 0.9908167
 140231385, 0.07894887, -0.02276336, 0.3803844, 0.0009424737, 0.05854727, -0.004188812, 0.1570592, 0.0005187925, -0.1304645, 0.9886749
 140431305, 0.1621256, -0.001625097, 0.3577853, 0.000940312, 0.08627014, 0.004365759, 0.1335557, 0.0005187925, -0.1310243, 0.9857383
 140631225, 0.2146734, 0.0146508, 0.2947867, 0.000940312, 0.09400979, 0.01038915, 0.1021156, 0.0005187925, -0.131639, 0.984237
 140831145, 0.2156054, 0.03766261, 0.2212133, 0.000940312, 0.0809435, 0.02931919, 0.07581507, 0.0005187925, -0.132191, 0.9848716
 141031065, 0.1878715, 0.08284976, 0.1644568, 0.000940312, 0.07883243, 0.04238554, 0.05577692, 0.0005187925, -0.1328115, 0.9839136
 141230985, 0.1992116, 0.1019791, 0.1197344, 0.000940312, 0.09446065, 0.04300146, 0.03977273, 0.0005187925, -0.1334116, 0.9808204
 141430905, 0.2319038, 0.09671826, 0.08479718, 0.000940312, 0.09897534, 0.03324022, 0.02696252, 0.0005187925, -0.1332379, 0.978991
 141630825, 0.2281471, 0.06760905, 0.05662935, 0.000940312, 0.0873831, 0.01932607, 0.01703154, 0.0005187925, -0.1322534, 0.9791091
 141830745, 0.1990121, 0.05185828, 0.03893461, 0.000940312, 0.07702367, 0.03386208, 0.01540838, 0.0005187925, -0.1065058, 0.9821542
 142030665, 0.1811349, 0.09988314, 0.02702595, 0.000940312, 0.07424533, 0.05323396, 0.002909164, 0.0005187925, -0.009378106, 0.9862952
 142231418, 0.1804592, 0.1178067, 0.006248428, 0.0009424736, 0.08107784, 0.03569149, 0.002635764, 0.0005209542, 0.1151167, 0.9760589
 142431338, 0.2055211, 0.05670981, 0.009551861, 0.0009424737, 0.09798505, -0.001778599, 0.006292163, 0.0005187925, 0.2083976, 0.9566425
 142631258, 0.241705, -0.02986083, 0.0153422, 0.000940312, 0.1052512, -0.03165882, 0.005360587, 0.0005187925, 0.2389306, 0.9479516
 142831178, 0.2461638, -0.08139889, 0.0111472, 0.000940312, 0.09910385, -0.0334482, 0.003784216, 0.0005187925, 0.2069803, 0.9537067
 143031098, 0.2379302, -0.06658389, 0.009274662, 0.000940312, 0.1051251, -0.01494002, 0.004737414, 0.0005187925, 0.1351255, 0.9608558
 143231018, 0.261822, -0.02794667, 0.01200236, 0.000940312, 0.1188927, -0.008567145, 0.004975217, 0.0005187925, 0.05113226, 0.9624615
 143430938, 0.2838793, -0.02015147, 0.01049955, 0.000940312, 0.1158397, -0.006589334, 0.002856252, 0.0005187925, -0.01926283, 0.9611928
 143630858, 0.2681651, -0.009196876, 0.00654513, 0.000940312, 0.1059775, 0.001920966, 0.001788814, 0.0005187925, -0.05955237, 0.9586396
 143830778, 0.2463452, 0.01327028, 0.00286612, 0.000940312, 0.09719221, 0.01405994, 8.728945E-05, 0.0005187925, -0.06627322, 0.9574733
 144030698, 0.2248574, 0.03660114, 0.0004314961, 0.000940312, 0.08892553, 0.01387847, -0.000487564, 0.0005187925, -0.04673292, 0.9575772
 144231451, 0.2027196, 0.02112076, -0.001053732, 0.0009424736, 0.07506897, -0.003672307, -0.0008997984, 0.0005209542, -0.01636232, 0.9593446
 144431371, 0.165598, -0.01849612, -0.001504351, 0.0009424737, 0.06028982, -0.01208754, 2.728324E-05, 0.0005187925, 0.01008608, 0.9603797
 144631291, 0.1381151, -0.02516862, 0.001726746, 0.000940312, 0.0550558, -0.005883126, 0.001893436, 0.0005187925, 0.02524559, 0.9591108
 144831211, 0.1292317, -0.006582485, 0.005152928, 0.000940312, 0.05267163, 0.004231732, 0.002263527, 0.0005187925, 0.02809399, 0.9578661
 145031131, 0.1219738, 0.01445862, 0.00496508, 0.000940312, 0.04818598, 0.007899166, 0.0006593259, 0.0005187925, 0.02236711, 0.9575626
 145231051, 0.1090309, 0.01859074, 0.0005826717, 0.000940312, 0.03974435, 0.00870635, -0.0007992454, 0.0005187925, 0.01297241, 0.9585009
 145430971, 0.08765648, 0.0275185, -0.001571571, 0.000940312, 0.03148318, 0.01871479, 0.0001304367, 0.0005187925, 0.005845916, 0.9590598
 145630891, 0.07358988, 0.04695192, 0.0004703833, 0.000940312, 0.0308448, 0.01698248, 4.880622E-05, 0.0005187925, 0.003920609, 0.9579813
 145830811, 0.07233331, 0.03359355, 0.0003891937, 0.000940312, 0.0279317, 0.009986157, -0.0003952281, 0.0005187925, 0.006144176, 0.957976
 146030731, 0.06182143, 0.02391845, -0.001945194, 0.000940312, 0.02191686, 0.01077151, -0.001373137, 0.0005187925, 0.01106086, 0.9583439
 146231484, 0.04981808, 0.02194585, -0.002370548, 0.000940312, 0.01889759, 0.005270553, -0.0002601977, 0.0005209541, 0.01597754, 0.9582152
 146431404, 0.04372784, 0.006487412, 0.0007525292, 0.0009424736, 0.01722497, -0.001733147, 0.001746539, 0.0005187925, 0.01812944, 0.9577268
 146631324, 0.03993265, -0.006119721, 0.00297856, 0.000940312, 0.01497853, -0.003844013, -0.0001263494, 0.0005187925, 0.01641722, 0.9579115
 146831244, 0.03289853, -0.009142997, -0.001435988, 0.000940312, 0.01127137, -0.004199964, -0.001022726, 0.0005187925, 0.01129672, 0.9583706
 147031164, 0.02540901, -0.007927515, -0.002546064, 0.000940312, 0.009881437, -0.001916674, -0.0008676525, 0.0005187925, 0.004369358, 0.958189
 147231084, 0.02451428, 0.002146216, -0.001903582, 0.000940312, 0.01163252, 0.008829474, -0.001063838, 0.0005187925, -0.001481315, 0.9574003
 147431004, 0.02886898, 0.02930103, -0.00156715, 0.000940312, 0.01319216, 0.01650527, 0.000232128, 0.0005187925, -0.003384341, 0.9565077
 147630924, 0.03066628, 0.03748219, 0.002007909, 0.000940312, 0.01218745, 0.01345624, 0.001783589, 0.0005187925, -0.001329595, 0.9561713
 147830844, 0.0283839, 0.02805571, 0.004504658, 0.000940312, 0.01212839, 0.008007193, 0.001353523, 0.0005187925, 0.003048285, 0.955703
 148030764, 0.02884724, 0.01541372, 0.003452526, 0.000940312, 0.01240176, 0.003856695, 0.00119384, 0.0005187925, 0.007391894, 0.9550046
 148230684, 0.03062644, 0.005698807, 0.001996327, 0.000940312, 0.01377613, -0.0004477105, -0.0009441163, 0.0005187925, 0.009553296, 0.9543194
 148431437, 0.03327014, -0.005435278, -0.003879647, 0.0009424736, 0.01340667, -0.006139308, -0.00333347, 0.0005209542, 0.008006778, 0.9542072
 148631357, 0.03247571, -0.02178901, -0.008129326, 0.0009424737, 0.01517844, -0.01697134, -0.002802681, 0.0005187925, 0.001746844, 0.953055
 148831277, 0.03956497, -0.05121543, -0.006631962, 0.000940312, 0.01862825, -0.03002539, -0.001938776, 0.0005187925, -0.01011474, 0.9515089
 149031197, 0.04138225, -0.06791921, -0.004279864, 0.000940312, 0.01296837, -0.02072415, -0.002034164, 0.0005187925, -0.02532076, 0.9523072
 149231117, 0.02369026, -0.03198662, -0.003575706, 0.000940312, 0.004548382, 0.0005081263, 0.0004015722, 0.0005187925, -0.0382263, 0.95319
 149431037, 0.01066161, 0.01174158, 0.001827974, 0.000940312, 0.006196038, 0.01169079, 0.0002018562, 0.0005187925, -0.04481206, 0.9521285
 149630957, 0.0202501, 0.03037168, 0.001437331, 0.000940312, 0.01400274, 0.01339863, 0.001506564, 0.0005187925, -0.04391919, 0.9497127
 149830877, 0.03785398, 0.02511655, 0.004140118, 0.000940312, 0.01844512, 0.002083275, 0.002518109, 0.0005187925, -0.03800786, 0.9481968
 150030797, 0.03879511, -0.01225207, 0.006120914, 0.000940312, 0.008826284, -0.02008749, 0.002663973, 0.0005187925, -0.03348518, 0.9505197
 150230717, 0.007624943, -0.06086699, 0.005739206, 0.000940312, -0.007707835, -0.03371792, 0.0008532829, 0.0005187925, -0.03604803, 0.9541063
 150431470, -0.02508339, -0.07653546, 0.002303518, 0.0009424736, -0.01345197, -0.02543837, 0.0008742673, 0.0005209542, -0.04583953, 0.954624
 150631390, -0.02504664, -0.0456916, 0.002080817, 0.0009424737, -0.00260274, -0.006074218, 0.001561109, 0.0005187925, -0.05860355, 0.9512827
 150831310, 0.004127912, 0.001047108, 0.004934799, 0.000940312, 0.009772953, 0.01382182, 0.002335563, 0.0005187925, -0.06876704, 0.9477786
 151031230, 0.02804942, 0.04427483, 0.004200482, 0.000940312, 0.01382623, 0.02655255, 0.001124623, 0.0005187925, -0.0711149, 0.9468309
 151231150, 0.02983526, 0.06557023, 0.001791533, 0.000940312, 0.00842068, 0.02679973, 0.0001842739, 0.0005187925, -0.0645649, 0.9484354
 151431070, 0.01201176, 0.0524646, 0.0003739494, 0.000940312, -0.002236219, 0.008468572, -0.0002057337, 0.0005187925, -0.05348632, 0.9512623
 151630990, -0.01145892, 0.0008734447, -0.0007690414, 0.000940312, -0.008425198, -0.01468761, 0.0005591611, 0.0005187925, -0.04517521, 0.9526528
 151830910, -0.02110614, -0.03848064, 0.001673471, 0.000940312, -0.008352442, -0.01524986, -0.0003632212, 0.0005187925, -0.04371218, 0.9528006
 152030830, -0.01510072, -0.02821533, -0.002363472, 0.000940312, -0.000243806, -0.004880445, -0.001908683, 0.0005187925, -0.04858396, 0.9505231
 152230750, 0.007630479, -0.002465408, -0.00451569, 0.000940312, 0.009406838, 0.007288882, -0.002632961, 0.0005187925, -0.05654917, 0.9478021
 152430670, 0.02420864, 0.02175555, -0.006307612, 0.000940312, 0.01022856, 0.00994808, -0.002173129, 0.0005187925, -0.06378969, 0.9471679
 152631423, 0.02062939, 0.02137717, -0.006701497, 0.0009424736, 0.00523714, 0.007299508, -0.003602464, 0.0005209542, -0.06813971, 0.9478276
 152831343, 0.009596542, 0.01983762, -0.007404548, 0.0009424737, 0.002344968, 0.01190994, -0.001464438, 0.0005187925, -0.06822173, 0.948016
 153031263, 0.006874336, 0.036392, -0.002184728, 0.000940312, 0.00486882, 0.02274141, -0.001187892, 0.0005187925, -0.06338565, 0.9477338
 153231183, 0.0123178, 0.06318, -0.002716562, 0.000940312, 0.005655353, 0.03409504, -0.001184837, 0.0005187925, -0.05370212, 0.9480202
 153431103, 0.01146893, 0.08621311, -0.001193321, 0.000940312, 0.00289653, 0.03862675, 6.229652E-05, 0.0005187925, -0.04011385, 0.9490139
 153631023, 0.005396556, 0.08740637, -0.0009403554, 0.000940312, 0.0001541834, 0.02988572, 0.0007627404, 0.0005187925, -0.02551905, 0.949739
 153830943, -0.003707844, 0.06043078, 0.002740288, 0.000940312, -0.006731502, 0.01741361, 0.002067004, 0.0005187925, -0.01367133, 0.9514127
 154030863, -0.02043315, 0.04128893, 0.006609597, 0.000940312, -0.01199579, 0.02029547, 0.004062101, 0.0005187925, -0.006062931, 0.9527776
 154230783, -0.02856412, 0.05384811, 0.008620639, 0.000940312, -0.01098233, 0.02554888, 0.003611647, 0.0005187925, -0.001826742, 0.9525004
 154430703, -0.022276, 0.05536854, 0.007553669, 0.000940312, -0.006336935, 0.01638336, 0.00323698, 0.0005187925, -0.0005448186, 0.9514663
 154631456, -0.01064693, 0.03100906, 0.005254718, 0.0009424736, -0.001239531, 0.006783071, 0.0006000938, 0.0005209542, -0.00204214, 0.950381
 154831376, -0.0001110579, 0.0124775, 0.00162815, 0.0009424737, 0.001286731, 0.002125766, 0.001501451, 0.0005187925, -0.00556006, 0.9496976
 155031296, 0.001139974, 0.004179194, 0.002440754, 0.000940312, -0.002646099, 0.001872615, 0.0002458173, 0.0005187925, -0.0102257, 0.9509726
 155231216, -0.01189402, 0.004313156, 0.0007889284, 0.000940312, -0.008215021, 0.001742743, -0.0002900584, 0.0005187925, -0.01504518, 0.9521275
 155431136, -0.01649201, 0.004972633, 1.975623E-06, 0.000940312, -0.001842467, 0.003226198, 0.001209962, 0.0005187925, -0.01906249, 0.9499426
 155631056, 0.004184335, 0.007698779, 0.001726908, 0.000940312, 0.007791006, 0.002365542, -0.0003830736, 0.0005187925, -0.02157531, 0.9476894
 155830976, 0.01904904, -0.004445647, -0.002566624, 0.000940312, 0.006619854, -0.01270313, -0.002910127, 0.0005187925, -0.02417526, 0.9480002
 156030896, 0.01164509, -0.04033097, -0.007357248, 0.000940312, 0.001773439, -0.02245731, -0.003673667, 0.0005187925, -0.02909091, 0.9488033
 156230816, 0.002675542, -0.04415874, -0.008719565, 0.000940312, 0.0006350102, -0.005995636, -0.003833082, 0.0005187925, -0.03483263, 0.9487576
 156430736, 0.00228245, 0.004267593, -0.009255202, 0.000940312, 0.001396156, 0.01548654, -0.003875816, 0.0005187925, -0.03774092, 0.9485182
 156630656, 0.002868528, 0.04161152, -0.007263755, 0.000940312, 0.0004004103, 0.01798493, -0.000957634, 0.0005187925, -0.03624878, 0.9485099
 156831409, -0.001573181, 0.03400171, -0.001975482, 0.0009424736, -0.004154925, 0.005701848, -0.0005561454, 0.0005209542, -0.03181003, 0.9497593
 157031329, -0.01440731, 0.006637007, -0.0002251048, 0.0009424737, -0.009228634, -0.001608209, -0.0001675841, 0.0005187925, -0.02709298, 0.9511253
 157231249, -0.02174537, -0.006170217, -0.0007686425, 0.000940312, -0.006930322, -0.005587057, -0.0002003202, 0.0005187925, -0.02453669, 0.9502881
 157431169, -0.01152803, -0.02112661, 0.001135348, 0.000940312, -0.001273746, -0.01597589, 0.001881062, 0.0005187925, -0.02647343, 0.9487049
 157631089, -0.001140608, -0.03978916, 0.003772886, 0.000940312, -0.000104784, -0.01470425, 0.001528168, 0.0005187925, -0.03311795, 0.9483506
 157831009, -0.001915769, -0.02220167, 0.003004298, 0.000940312, -0.002346488, 0.002485703, 0.001060977, 0.0005187925, -0.04096124, 0.9486796
 158030929, -0.006056941, 0.01418548, 0.0008252502, 0.000940312, -0.002155941, 0.009547882, -0.000338382, 0.0005187925, -0.04648362, 0.9485935
 158230849, -0.006486024, 0.0138687, -0.001650026, 0.000940312, -0.00252279, -0.004847896, -0.0003985873, 0.0005187925, -0.04982359, 0.9480665
 158430769, -0.005463591, -0.02763557, -0.001400242, 0.000940312, -0.001946266, -0.02365646, -0.001345975, 0.0005187925, -0.05371418, 0.9475417
 158630689, -0.002824444, -0.05608572, -0.004504112, 0.000940312, 0.002348686, -0.01826897, -0.002579585, 0.0005187925, -0.05911614, 0.946649
 158831442, 0.003478613, -0.02538984, -0.005769263, 0.0009424736, -0.002795487, 0.006680422, -0.0010733, 0.0005209542, -0.06368054, 0.9478531
 159031362, -0.016253, 0.03012612, -0.001256682, 0.0009424737, -0.01594398, 0.0210024, -0.0006649563, 0.0005187925, -0.06443723, 0.9512159
 159231282, -0.04368338, 0.04837039, -0.00111019, 0.000940312, -0.01996825, 0.01754907, -0.0002832662, 0.0005187925, -0.0611242, 0.9521833
 159431202, -0.0408671, 0.03876022, 0.001175829, 0.000940312, -0.009266743, 0.01406213, 0.001475353, 0.0005187925, -0.05474586, 0.9501621
 159631122, -0.01513974, 0.02669007, 0.002259934, 0.000940312, -0.001922925, 0.002476168, 6.404221E-05, 0.0005187925, -0.0481043, 0.9488859
 159831042, -0.004613227, -0.004774963, -0.0008595246, 0.000940312, -0.003872156, -0.009894965, -0.001350607, 0.0005187925, -0.0453228, 0.9494068
 160030962, -0.01042622, -0.02339061, -0.003229436, 0.000940312, -0.005906065, -0.006340299, -0.001560542, 0.0005187925, -0.04742169, 0.9496106
 160230882, -0.01156039, -0.0001384047, -0.002612913, 0.000940312, -0.00220636, 0.01537588, -9.794607E-05, 0.0005187925, -0.05104507, 0.9488998
 160430802, 0.0009702311, 0.05070031, 0.0007269048, 0.000940312, 0.0026279, 0.02959235, 0.0007299458, 0.0005187925, -0.05195899, 0.9480539
 160630722, 0.002631648, 0.06208965, 0.001809679, 0.000940312, -7.490004E-05, 0.01462945, 0.0008436047, 0.0005187925, -0.04983119, 0.9480013
 160831475, 0.001073521, 0.02090127, 0.00158731, 0.000940312, 0.001382458, 0.0003512156, 0.0006948551, 0.0005209541, -0.04688884, 0.9479453
 161031395, 0.00181299, 0.007392567, 0.0008553539, 0.0009424736, -0.001416643, 0.01369828, 0.0005770329, 0.0005187925, -0.04310236, 0.9484261
 161231315, -0.004819208, 0.0462548, 0.0006286047, 0.000940312, -0.00426609, 0.02839915, -0.0006298417, 0.0005187925, -0.0373832, 0.9498194
 161431235, -0.01276844, 0.06207342, -0.001913739, 0.000940312, -0.006991603, 0.0160909, -0.001365102, 0.0005187925, -0.03151854, 0.9504789
 161631155, -0.01265568, 0.0209205, -0.003249421, 0.000940312, -0.004094791, -0.004226088, -0.001296113, 0.0005187925, -0.02877513, 0.9499484
 161831075, -0.008268809, -0.01590948, -0.003027709, 0.000940312, -0.004004918, -0.009559496, -0.001898455, 0.0005187925, -0.03058715, 0.9490016
 162030995, -0.004647208, -0.02038876, -0.005108121, 0.000940312, 0.003052233, -0.005558049, -0.002826111, 0.0005187925, -0.03615179, 0.9474519
 162230915, 0.0113541, -0.005172897, -0.005208829, 0.000940312, 0.005796545, 0.004832651, -0.001360664, 0.0005187925, -0.04283086, 0.9468245
 162430835, 0.009983346, 0.016973, -0.002427243, 0.000940312, 1.056712E-05, 0.009794096, 0.0002069301, 0.0005187925, -0.04770465, 0.9476392
 162630755, -0.002872485, 0.01940977, 0.002052926, 0.000940312, -0.003503131, 0.002843334, 0.003161708, 0.0005187925, -0.05013067, 0.9478898
 162830675, -0.0103546, 0.0001589295, 0.007785722, 0.000940312, -0.00538206, -0.004119991, 0.002981807, 0.0005187925, -0.0511757, 0.9482074
 163031428, -0.01319242, -0.007903624, 0.006118819, 0.0009424736, -0.005005484, 0.0002608909, 0.001953702, 0.0005209542, -0.05131374, 0.9482993
 163231348, -0.01167525, 0.004635912, 0.004531526, 0.0009424737, -0.003950202, 0.003380149, 0.0006088396, 0.0005187925, -0.05081861, 0.948095
 163431268, -0.008649106, 2.739481E-05, 6.209027E-05, 0.000940312, -0.004147, -0.009043107, -0.0002990194, 0.0005187925, -0.05164793, 0.9480559
 163631188, -0.0127959, -0.02361474, -0.0006842249, 0.000940312, -0.009306555, -0.007009875, -0.0005253335, 0.0005187925, -0.05474421, 0.9494991
 163831108, -0.02546508, -0.00633412, -0.00135984, 0.000940312, -0.01360508, 0.004933806, -0.001051694, 0.0005187925, -0.05793884, 0.9506352
 164031028, -0.03138121, 0.01835121, -0.001524585, 0.000940312, -0.01079778, 0.01383936, 0.0005508377, 0.0005187925, -0.05948379, 0.9498166
 164230948, -0.01895178, 0.03992439, 0.002809863, 0.000940312, -0.001965706, 0.0220393, 0.002628151, 0.0005187925, -0.05727923, 0.947765
 164430868, 0.0005283861, 0.05357167, 0.004750225, 0.000940312, 0.003253773, 0.02125511, 0.0002336342, 0.0005187925, -0.05123326, 0.9472339
 164630788, 0.00505519, 0.04588995, -0.0008157066, 0.000940312, -0.0008380435, 0.01510669, -0.001426424, 0.0005187925, -0.04333848, 0.9485605
 164830708, -0.004182455, 0.03268638, -0.004964898, 0.000940312, -0.00279927, 0.0117517, -0.002759724, 0.0005187925, -0.03589832, 0.9492334
 165031461, -0.005814685, 0.02376809, -0.004737275, 0.0009424736, -0.0007596939, 0.004755638, -0.0003962449, 0.0005209542, -0.03112696, 0.9483837
 165231381, -0.001028177, 0.003593495, -0.0001115237, 0.0009424737, -0.001602806, -0.003879196, -7.435738E-07, 0.0005187925, -0.03096054, 0.9487502
 165431301, -0.00830887, -0.009280204, -0.0002122424, 0.000940312, -0.007280368, -0.001561682, 0.001148283, 0.0005187925, -0.03497925, 0.9499691
 165631221, -0.01911842, 0.003182423, 0.002125969, 0.000940312, -0.008543328, 0.006980681, 0.001156833, 0.0005187925, -0.04057765, 0.9499944
 165831141, -0.01825143, 0.02112305, 0.003173911, 0.000940312, -0.005544181, 0.01202013, 0.001398495, 0.0005187925, -0.04493913, 0.9492419
 166031061, -0.0121609, 0.02967797, 0.002717364, 0.000940312, -0.006766934, 0.01301952, 0.0001904512, 0.0005187925, -0.04627562, 0.9499948
 166230981, -0.01958076, 0.03028574, -0.0002981733, 0.000940312, -0.01166489, 0.01147472, -0.0007038161, 0.0005187925, -0.04454169, 0.9507918
 166430901, -0.02407706, 0.02526735, -0.0004978346, 0.000940312, -0.006052033, 0.007851032, 0.0003645201, 0.0005187925, -0.04098668, 0.9497866
 166630821, -0.01000903, 0.01742272, 0.000714319, 0.000940312, -0.001120995, 0.007325531, 0.0002893196, 0.0005187925, -0.03684496, 0.94879
 166830741, -0.0007478094, 0.0159306, 0.001052657, 0.000940312, 0.00158568, 0.003071935, 0.000593078, 0.0005187925, -0.03376164, 0.9481465
 167030661, 0.004485663, -0.002061842, 0.0003914482, 0.000940312, 0.001513278, -0.008775462, 0.0002661153, 0.0005187925, -0.03410908, 0.9479692
 167231414, 0.0005581137, -0.02491584, 4.706242E-05, 0.0009424736, -0.003370259, -0.01149024, -0.0003995528, 0.0005209542, -0.03861834, 0.9490577
 167431334, -0.01259919, -0.01919424, -0.0001992539, 0.0009424737, -0.008662109, 0.0004802017, 0.001488894, 0.0005187925, -0.04501752, 0.9500066
 167631254, -0.02019465, 0.01007953, 0.00316652, 0.000940312, -0.006887437, 0.01062522, 0.0001783218, 0.0005187925, -0.0500146, 0.9494538
 167831174, -0.01240777, 0.02475183, 0.000210301, 0.000940312, -0.001609149, 0.007805106, -0.0007136958, 0.0005187925, -0.05222062, 0.9480734
 168031094, -0.001377997, 0.01478095, -0.003652846, 0.000940312, -0.0001695197, 0.003906292, -0.002477031, 0.0005187925, -0.05172295, 0.9480283
 168231014, -0.003560094, 0.01096833, -0.004596653, 0.000940312, -0.003064304, 0.006678372, -0.001160192, 0.0005187925, -0.04912448, 0.948983
 168430934, -0.01077509, 0.01477018, -0.002425036, 0.000940312, -0.005658727, 0.003144372, 0.0004356369, 0.0005187925, -0.04599135, 0.9491185
 168630854, -0.01282179, 0.002493579, -0.0002276594, 0.000940312, -0.005776589, -0.002820899, 0.0004117558, 0.0005187925, -0.04445453, 0.9494868
 168830774, -0.0150168, -0.00619822, -0.0009058486, 0.000940312, -0.007087685, -0.0006196774, -0.0005271209, 0.0005187925, -0.04503084, 0.9498858
 169030694, -0.01325635, 0.01003084, -0.00259835, 0.000940312, -0.005411007, 0.01587888, -0.002304399, 0.0005187925, -0.04564236, 0.9502903
 169231447, -0.01290839, 0.04986818, -0.005816353, 0.0009424736, -0.004264894, 0.0282213, -0.001684623, 0.0005209542, -0.04346334, 0.9497663
 169431367, -0.006875168, 0.06466512, -0.003922834, 0.0009424737, -0.0002265185, 0.02206273, -0.001470492, 0.0005187925, -0.03816207, 0.948864
 169631287, -0.003808278, 0.04396179, -0.004084174, 0.000940312, -0.003183675, 0.01134533, -0.002529641, 0.0005187925, -0.03151445, 0.9487354
 169831207, -0.004502356, 0.01581414, -0.005738732, 0.000940312, -0.0005236791, -0.003811205, -0.002166091, 0.0005187925, -0.02695237, 0.9488302
 170031127, 0.0002406318, -0.01766864, -0.005943081, 0.000940312, 0.007897384, -0.01201407, -0.003349577, 0.0005187925, -0.02753501, 0.9489796
 170231047, 0.0113956, -0.02667576, -0.006992295, 0.000940312, -0.0006065357, -0.008036586, -0.00292739, 0.0005187925, -0.03303597, 0.9490106
 170430967, -0.0019051, -0.01454994, -0.005845586, 0.000940312, -2.670364E-05, -0.00222488, -0.00129108, 0.0005187925, -0.04115503, 0.9481353
 170630887, -0.005287374, 0.002995705, -0.003060247, 0.000940312, -0.004592577, 0.009633414, -0.0003748943, 0.0005187925, -0.04827497, 0.9483104
 170830807, -0.01059803, 0.03141172, -6.612747E-05, 0.000940312, -0.004076218, 0.01812426, -0.0001029175, 0.0005187925, -0.05089108, 0.9486231
 171030727, -0.009460602, 0.04056523, 0.002580861, 0.000940312, -0.003513535, 0.01258808, 0.003989005, 0.0005187925, -0.04885747, 0.9481718
 171231480, -0.008748888, 0.02250205, 0.009679892, 0.000940312, -0.004746627, 0.00314642, 0.003507748, 0.0005209541, -0.04424322, 0.9486533
 171431400, -0.008775735, 0.002898263, 0.007383246, 0.0009424736, -0.0001522604, -0.001598626, 0.003267707, 0.0005187925, -0.03987525, 0.9472794
 171631320, 0.005101578, 0.0008450042, 0.006149945, 0.000940312, 0.003071379, 0.006925514, 0.001494914, 0.0005187925, -0.03672331, 0.9471248
 171831240, 0.002995505, 0.0230411, 0.003708734, 0.000940312, -0.002658767, 0.01310383, 0.001272287, 0.0005187925, -0.03439518, 0.9484979
 172031160, -0.009634481, 0.02404793, 0.004050391, 0.000940312, -0.006067882, 0.001460452, 0.002281433, 0.0005187925, -0.03402188, 0.9489325
 172231080, -0.01214322, -0.008520463, 0.005113652, 0.000940312, -0.002582159, -0.01247323, 0.00187715, 0.0005187925, -0.0371276, 0.9477928
 172431000, -0.004153731, -0.02780576, 0.003645146, 0.000940312, -0.004414914, -0.005805564, 0.0004013148, 0.0005187925, -0.04271066, 0.9470969
 172630920, -0.004220595, 0.003103517, -0.0001916917, 0.000940312, 0.001128601, 0.01718926, -0.0004725568, 0.0005187925, -0.04680118, 0.9467941
 172830840, 0.005131222, 0.05410819, -0.001173321, 0.000940312, 0.005093365, 0.03045841, -0.000393393, 0.0005187925, -0.0458395, 0.9458591
 173030760, 0.0153906, 0.06545568, -0.002031315, 0.000940312, 0.005854079, 0.01692088, -0.00319383, 0.0005187925, -0.04040033, 0.946027
 173230680, 0.008174233, 0.020058, -0.01119872, 0.000940312, 0.001121959, -0.009198738, -0.006372361, 0.0005187925, -0.03522377, 0.9468719
 173431433, 0.0006429027, -0.02889145, -0.01587802, 0.0009424736, -0.001936716, -0.01237913, -0.006839023, 0.0005209542, -0.03379939, 0.9477522
 173631353, -0.008127638, -0.01969513, -0.01500997, 0.0009424737, -0.006595996, 0.0007625855, -0.003987122, 0.0005187925, -0.0357829, 0.9487692
 173831273, -0.01934442, 0.008282902, -0.01016984, 0.000940312, -0.01150573, 0.007282421, -0.005419264, 0.0005187925, -0.03956693, 0.950288
 174031193, -0.02519566, 0.01589523, -0.01213394, 0.000940312, -0.006343544, 0.004028438, -0.00448002, 0.0005187925, -0.0436901, 0.9491542
 174231113, -0.01169994, 0.003406378, -0.009264803, 0.000940312, -0.001221326, -0.003734107, -0.003287438, 0.0005187925, -0.04753096, 0.9473302
 174431033, -0.001860092, -0.01126002, -0.006619317, 0.000940312, -0.003471429, -0.005495204, -0.002066644, 0.0005187925, -0.05111427, 0.9454311
 174630953, 0.0008813131, -0.01616342, -0.002701737, 0.000940312, 0.00552449, -0.01058281, 0.0009275493, 0.0005187925, -0.05501198, 0.9441628
 174830873, 0.01730079, -0.02365919, 0.003344913, 0.000940312, 0.003073921, -0.004451568, 0.002520797, 0.0005187925, -0.05916466, 0.9454204
 175030793, -0.001958803, -0.001234176, 0.005379087, 0.000940312, -0.007942867, 0.005840098, 0.002376046, 0.0005187925, -0.06176182, 0.9474304
 175230713, -0.02291254, 0.008354277, 0.006259568, 0.000940312, -0.01272463, -0.00476608, 0.002885925, 0.0005187925, -0.06358081, 0.9481544
 175431466, -0.03381713, -0.02221229, 0.005288828, 0.0009424736, -0.0123996, -0.01622504, 0.001291871, 0.0005209542, -0.06670526, 0.9476409
 175631386, -0.02156306, -0.030528, 0.002079475, 0.0009424737, -0.005792824, -0.001649966, -0.0005658733, 0.0005187925, -0.07013635, 0.9472202
 175831306, -0.01250108, 0.01459554, -0.0009805924, 0.000940312, -0.002794328, 0.02110238, 0.0005410282, 0.0005187925, -0.0706016, 0.9461948
 176031226, -0.002275785, 0.06050898, 0.001452592, 0.000940312, -0.002484316, 0.03195719, 0.001847695, 0.0005187925, -0.06599335, 0.9452724
 176231146, -0.002752951, 0.07376133, 0.003351374, 0.000940312, 0.001630605, 0.02575001, 0.001033775, 0.0005187925, -0.05691057, 0.9457436
 176431066, 0.002586056, 0.0523037, 0.001581937, 0.000940312, -0.0005402195, 0.01489649, -0.0001096954, 0.0005187925, -0.04644212, 0.9466836
 176630986, 0.00308789, 0.03073211, -0.001097208, 0.000940312, 0.002599492, 0.008547252, -0.0008403656, 0.0005187925, -0.03778217, 0.9472379
 176830906, 0.001124841, 0.01618752, -0.001973195, 0.000940312, -0.003109195, 0.002837481, -0.0002532947, 0.0005187925, -0.03355429, 0.9476936
 177030826, -0.007608927, 0.005074564, -0.0002257087, 0.000940312, -0.00274923, 0.001717515, -0.0005287474, 0.0005187925, -0.03420809, 0.9473324
 177230746, -0.005827321, 0.005755215, 0.0005877219, 0.000940312, -0.001373284, 0.003617851, -0.0003086262, 0.0005187925, -0.03816044, 0.9468921
 177430666, -0.002252941, 0.01262929, -0.001876153, 0.000940312, -0.0008747398, 0.009343694, -0.001484709, 0.0005187925, -0.04295136, 0.9463367
 177631419, -0.005855303, 0.02422357, -0.002412368, 0.0009424736, -0.002340394, 0.01027933, -0.0008880285, 0.0005209542, -0.04622296, 0.9458832
 177831339, -0.001734709, 0.0246144, -0.002929877, 0.0009424737, 0.00113443, 0.01091938, -0.000641348, 0.0005187925, -0.04693541, 0.9455808
 178031259, 0.002009178, 0.02535868, -0.001861113, 0.000940312, -0.0005958431, 0.009303334, -0.0003929902, 0.0005187925, -0.0452969, 0.9462157
 178231179, 0.001748573, 0.01748637, -0.001726883, 0.000940312, -0.003461348, 0.002754876, -0.001004445, 0.0005187925, -0.04295691, 0.9478025
 178431099, -0.02578771, 0.002524846, -0.001259728, 0.000940312, -0.01748316, -0.001156092, 0.0003190755, 0.0005187925, -0.04162956, 0.9497433
 178631019, -0.03534101, 0.002975521, 0.001800428, 0.000940312, -0.01306144, 0.009016076, 0.002891917, 0.0005187925, -0.04112105, 0.9498029
 178830939, -0.03068908, 0.03218736, 0.007247827, 0.000940312, -0.01167723, 0.02173743, 0.003490074, 0.0005187925, -0.03938418, 0.9493012
 179030859, -0.02432745, 0.05713567, 0.00659728, 0.000940312, -0.008220148, 0.02721787, 0.001286211, 0.0005187925, -0.0350046, 0.9492863
 179230779, -0.01794977, 0.06180584, 0.001672797, 0.000940312, -0.007629546, 0.02134928, -0.000395725, 0.0005187925, -0.02842558, 0.9496444
 179430699, -0.01743662, 0.04538954, -0.001511639, 0.000940312, -0.006093551, 0.01526069, -0.0006657474, 0.0005187925, -0.0213699, 0.9492246
 179631452, -0.01156896, 0.03025802, -0.002009084, 0.0009424736, -0.002805088, 0.005002812, -0.001506121, 0.0005209542, -0.01590471, 0.9485417
 179831372, -0.005673618, 0.003240241, -0.002092678, 0.0009424737, -0.002419454, -0.004321509, 0.001144175, 0.0005187925, -0.01458065, 0.9483022
 180031292, -0.005854157, -0.01192943, 0.0008692922, 0.000940312, -0.003041305, -0.005356796, -0.0004209598, 0.0005187925, -0.01763183, 0.9485273
 180231212, -0.007590664, -0.008866683, -0.001309484, 0.000940312, -0.00287811, 0.0001819847, 7.723219E-05, 0.0005187925, -0.0235094, 0.9482939
 180431132, -0.007062193, 0.005062907, 0.0006666806, 0.000940312, -0.003693707, 0.00544329, 0.001211338, 0.0005187925, -0.02958294, 0.9484394
 180631052, -0.01309644, 0.01348641, 0.002486513, 0.000940312, -0.009913194, 0.005276971, -0.0004180833, 0.0005187925, -0.03414614, 0.9501143
 180830972, -0.02924432, 0.008454148, -0.0008164036, 0.000940312, -0.01563427, -0.0008556945, -0.0003946561, 0.0005187925, -0.03692359, 0.95103
 181030892, -0.03205194, -0.009267202, -0.002473966, 0.000940312, -0.008295372, -0.01001308, -0.001648626, 0.0005187925, -0.03907293, 0.950036
 181230812, -0.01910177, -0.02678591, -0.003515033, 0.000940312, -0.008675238, -0.01214266, -0.0008859166, 0.0005187925, -0.04190741, 0.9500713
 181430732, -0.02495123, -0.02749083, -0.002308551, 0.000940312, -0.01489695, -0.009140643, -0.000180108, 0.0005187925, -0.04579709, 0.9511007
 181631485, -0.03499093, -0.01704096, 0.0002834902, 0.000940312, -0.01300321, -0.002990824, 0.0007068097, 0.0005209541, -0.04980914, 0.9514188
 181831405, -0.03080482, -0.005382552, 0.001946808, 0.0009424736, -0.01295496, -0.001184841, 0.001434695, 0.0005187925, -0.05297949, 0.9506329
 182031325, -0.02301475, -0.0007222412, 0.00262966, 0.000940312, -0.00309061, 0.002379215, 0.00157397, 0.0005187925, -0.054651, 0.9483925
 182231245, -0.001778434, 0.008140567, 0.002440812, 0.000940312, 0.001926431, 0.004752579, -7.161494E-05, 0.0005187925, -0.05424392, 0.9475337
 182431165, 0.005102947, 0.01065867, -3.250836E-06, 0.000940312, 0.001528673, 0.003091217, -0.001700982, 0.0005187925, -0.05246023, 0.9479412
 182631085, 0.003938339, 0.002658344, -0.003631999, 0.000940312, 0.003447673, -0.003901402, -0.001290265, 0.0005187925, -0.05092411, 0.9467888
 182831005, 0.009261278, -0.009649311, -0.002810728, 0.000940312, 0.006983676, -0.0008868726, -0.001550575, 0.0005187925, -0.05035949, 0.9456728
 183030925, 0.01924243, 0.006845443, -0.003749453, 0.000940312, 0.007144775, 0.01029741, -0.002166207, 0.0005187925, -0.0496372, 0.9461035
 183230845, 0.01121843, 0.02794602, -0.005387943, 0.000940312, -1.857415E-05, 0.01283255, -0.002557507, 0.0005187925, -0.04814966, 0.9477277
 183430765, -0.00250654, 0.02587449, -0.006424233, 0.000940312, -0.001478634, 0.00572523, -0.003008288, 0.0005187925, -0.04667348, 0.9476788
 183630685, 0.00154058, 0.01117111, -0.006437983, 0.000940312, 0.005882488, 0.004432933, -0.0006835979, 0.0005187925, -0.04544572, 0.9454979
 183831438, 0.01563139, 0.01194765, -0.001628506, 0.0009424736, 0.004995466, 0.005189289, -0.0005191863, 0.0005209542, -0.04445991, 0.9457964
 184031358, 0.005576279, 0.00538946, -0.001512093, 0.0009424737, -0.003339656, -0.005233276, -0.0009325956, 0.0005187925, -0.04534902, 0.9476284
 184231278, -0.01138079, -0.01744687, -0.00145265, 0.000940312, -0.006408099, -0.00856219, 0.0007168322, 0.0005187925, -0.04899403, 0.947758
 184431198, -0.01481155, -0.009680042, 0.002221421, 0.000940312, -0.006980788, 0.00806546, 0.001312635, 0.0005187925, -0.05298886, 0.9480769
 184631118, -0.01819538, 0.03196938, 0.002976313, 0.000940312, -0.008512871, 0.02208662, 0.001622977, 0.0005187925, -0.05414853, 0.9489683
 184831038, -0.02041679, 0.04872695, 0.004505002, 0.000940312, -0.006431463, 0.01349032, 0.001209565, 0.0005187925, -0.05220757, 0.9481115
 185030958, -0.008571295, 0.02505501, 0.002328042, 0.000940312, 0.002856649, 0.007005211, -0.001081747, 0.0005187925, -0.04837456, 0.94578
 185230878, 0.01219125, 0.01866857, -0.001729836, 0.000940312, 0.008665644, 0.009488611, -0.0001105522, 0.0005187925, -0.04346635, 0.9443242
 185430798, 0.01838369, 0.02446973, -0.00171161, 0.000940312, 0.00275484, 0.01108479, -0.001601773, 0.0005187925, -0.03864017, 0.9467801
 185630718, -0.004836862, 0.02093431, -0.003662244, 0.000940312, -0.01063567, 0.001803012, -0.0005423545, 0.0005187925, -0.03597467, 0.9497097
 185831471, -0.03120086, -0.002920954, -0.0001850126, 0.0009424736, -0.01628016, -0.005703199, 0.001007741, 0.0005209542, -0.03709326, 0.9508342
 186031391, -0.03759857, -0.01012424, 0.003586387, 0.0009424737, -0.01334502, 0.0002012585, 0.001857703, 0.0005187925, -0.04082059, 0.9501187
 186231311, -0.02579829, 0.01225537, 0.004989641, 0.000940312, -0.004719419, 0.0164353, 0.002751518, 0.0005187925, -0.04423803, 0.9479944
 186431231, -0.005673953, 0.0436422, 0.006256195, 0.000940312, 0.001944019, 0.01765452, 0.001873741, 0.0005187925, -0.04484498, 0.9466593
 186631151, 0.003884089, 0.026575, 0.00252785, 0.000940312, 0.0002911609, -0.004487873, -0.0006479675, 0.0005187925, -0.04447445, 0.9469587
 186831071, 0.0002261849, -0.0236763, -0.002166132, 0.000940312, 0.0009066434, -0.01759307, -0.0004226245, 0.0005187925, -0.04596347, 0.946062
 187030991, 0.002131288, -0.03609731, -0.0005165654, 0.000940312, 0.001321282, -0.00742155, -0.0002543945, 0.0005187925, -0.04926406, 0.9459879
 187230911, 0.001604919, -0.002059416, 7.532934E-05, 0.000940312, -0.0001564149, 0.01302126, 0.001284715, 0.0005187925, -0.05198145, 0.9462208
 187430831, 0.000778354, 0.04313483, 0.003038525, 0.000940312, 0.0008916019, 0.0264776, 0.0007870112, 0.0005187925, -0.05102502, 0.947287
 187630751, -0.007523385, 0.06114145, 0.00210806, 0.000940312, -0.01624071, 0.02038915, 0.001073492, 0.0005187925, -0.04619885, 0.9485803
 187830671, -0.03184278, 0.03074035, 0.002548094, 0.000940312, -0.007913251, -0.005140966, 0.001000365, 0.0005187925, -0.04121106, 0.9479353
 188031424, -0.01435398, -0.03085753, 0.002756932, 0.0009424736, -0.002928302, -0.02510915, 0.0005467492, 0.0005209542, -0.04086183, 0.9470677
 188231344, -0.008813949, -0.05525873, 0.0009642714, 0.0009424737, -0.005385039, -0.01441122, -0.0007031597, 0.0005187925, -0.04601324, 0.9478846
 188431264, -0.01150862, -0.01843047, -0.002821869, 0.000940312, -0.00306088, 0.005064875, -0.002155602, 0.0005187925, -0.05329984, 0.9477129
 188631184, -0.008543016, 0.01946954, -0.003461756, 0.000940312, -0.004230373, 0.01271048, -0.0002592003, 0.0005187925, -0.05906682, 0.9473024
 188831104, -0.01019553, 0.02597903, -0.0006865807, 0.000940312, -0.006353783, 0.00494554, -0.0006524993, 0.0005187925, -0.06192043, 0.9470508
 189031024, -0.01285954, -0.002146337, -0.001232827, 0.000940312, -0.003325372, -0.01408173, -0.0006306842, 0.0005187925, -0.06374557, 0.9461315
 189230944, -0.00368418, -0.04313265, -0.002568541, 0.000940312, 0.001674633, -0.02210793, -0.00231177, 0.0005187925, -0.06720046, 0.9457011
 189430864, -0.002301184, -0.04098925, -0.005983159, 0.000940312, -0.00618566, -0.003798296, -0.003876321, 0.0005187925, -0.07151918, 0.947311
 189630784, -0.02608469, 0.01233675, -0.008338572, 0.000940312, -0.01479305, 0.02216369, -0.002550876, 0.0005187925, -0.07299886, 0.9487151
 189830704, -0.02610018, 0.05685383, -0.004691389, 0.000940312, -0.002239106, 0.02178899, -0.001373074, 0.0005187925, -0.0702925, 0.9481019
 190031457, -0.009335339, 0.03919877, -0.002030722, 0.0009424736, -0.007054596, 0.005827597, 0.0005643184, 0.0005209542, -0.06541744, 0.9482134
 190231377, -0.02167279, 0.008435198, 0.002760934, 0.0009424737, -0.01710663, 0.0008418537, 0.001955664, 0.0005187925, -0.06072859, 0.9500701
 190431297, -0.04552107, 0.005837612, 0.004170862, 0.000940312, -0.0179523, 0.006953767, 0.001151566, 0.0005187925, -0.05740942, 0.9515254
 190631217, -0.04039749, 0.02023264, 0.003316489, 0.000940312, -0.01426058, 0.01101874, 0.001478342, 0.0005187925, -0.05538122, 0.9511951
 190831137, -0.03006593, 0.02619203, 0.002989438, 0.000940312, -0.00907222, 0.009797834, 0.002032736, 0.0005187925, -0.05445563, 0.9498719
 191031057, -0.01767451, 0.01380745, 0.00367551, 0.000940312, -0.005219196, -0.005327804, 0.0005808843, 0.0005187925, -0.05555923, 0.9491343
 191230977, -0.01285879, -0.02658896, 0.001285829, 0.000940312, -0.006234209, -0.02075821, 0.0003472703, 0.0005187925, -0.06079431, 0.948989
 191430897, -0.01759021, -0.04742054, 0.0007458659, 0.000940312, -0.009333863, -0.01374459, 0.000354563, 0.0005187925, -0.06923293, 0.949703
 191630817, -0.02386978, -0.01881905, -5.619538E-05, 0.000940312, -0.01011724, 0.003356589, -0.001617986, 0.0005187925, -0.07722174, 0.9495042
 191830737, -0.02177971, 0.01203714, -0.003055907, 0.000940312, -0.007330481, 0.005436956, -0.0006704664, 0.0005187925, -0.08231915, 0.9474848
 192030657, -0.004353962, 0.008844143, -0.001346313, 0.000940312, 0.007182189, 0.000847719, 0.0001720622, 0.0005187925, -0.08415595, 0.9451787
 192231410, 0.01494436, -0.000895732, -0.001005485, 0.0009424736, 0.001000734, -0.002757796, -0.001024332, 0.0005209542, -0.08364555, 0.944795
 192431330, 0.001824514, -0.01001292, -0.003958889, 0.0009424737, -0.002107642, -0.007566817, -0.002988175, 0.0005187925, -0.08302239, 0.9466725
 192631250, -0.009579382, -0.02155896, -0.008065642, 0.000940312, -0.006819478, -0.01155824, -0.003639248, 0.0005187925, -0.08408582, 0.947524
 192831170, -0.01526128, -0.03082809, -0.007153444, 0.000940312, -0.004454236, -0.01543736, -0.001415815, 0.0005187925, -0.08799236, 0.946363
 193031090, -0.008072669, -0.03708034, -0.003734007, 0.000940312, -0.0009525996, -0.01448119, -0.002050408, 0.0005187925, -0.09475591, 0.9448986
 193231010, -0.001029839, -0.02847705, -0.004731223, 0.000940312, 0.0009369509, -0.005080571, -0.001491745, 0.0005187925, -0.1022386, 0.9437695
 193430930, 0.00887503, -0.00272302, -0.003862036, 0.000940312, 0.004489364, 0.007180314, -0.0007052389, 0.0005187925, -0.1073288, 0.9430125
 193630850, 0.006708501, 0.02921714, -0.001218085, 0.000940312, -0.007308031, 0.02310184, 3.748109E-05, 0.0005187925, -0.1069777, 0.9433374
 193830770, -0.005024316, 0.06265013, 0.001168679, 0.000940312, 0.002702857, 0.03009216, 0.001494942, 0.0005187925, -0.09964439, 0.943689
 194030690, 0.009273616, 0.06598883, 0.003953762, 0.000940312, 0.008266001, 0.02037072, 0.002893886, 0.0005187925, -0.08793139, 0.9436756
 194231443, 0.01440448, 0.03952049, 0.007174127, 0.0009424736, 0.001001254, 0.009950183, 0.002689508, 0.0005209542, -0.0761538, 0.9455791
 194431363, -0.008908159, 0.02523611, 0.007134208, 0.0009424737, -0.007511132, 0.01405054, 0.003406259, 0.0005187925, -0.06710543, 0.9476798
 194631283, -0.01781617, 0.03835067, 0.00742814, 0.000940312, -0.006523179, 0.0183776, 0.001452367, 0.0005187925, -0.06115169, 0.9481044
 194831203, -0.01095976, 0.03876108, 0.003047516, 0.000940312, -0.0001396912, 0.0100402, 0.0006943475, 0.0005187925, -0.05907996, 0.9465235
 195031123, 0.002292333, 0.01556059, -0.000602474, 0.000940312, 0.006910762, -4.347731E-06, -0.001403317, 0.0005187925, -0.06114211, 0.9469333
 195231043, 0.007624718, -0.004849196, -0.003829719, 0.000940312, -0.003312629, -0.005841806, -0.001581312, 0.0005187925, -0.06666292, 0.9472548
 195430963, -0.008584166, -0.01422018, -0.003141436, 0.000940312, -0.003414996, -0.003980177, 0.0007887938, 0.0005187925, -0.07388084, 0.9462104
 195630883, -0.008617928, 0.002413407, 0.002121902, 0.000940312, -0.005439537, 0.01334245, 0.001534001, 0.0005187925, -0.0794592, 0.946835
 195830803, -0.01543661, 0.04977029, 0.003267828, 0.000940312, -0.007698199, 0.03490698, 0.001042782, 0.0005187925, -0.07901902, 0.9479369
 196030723, -0.01961515, 0.0888385, 0.002132599, 0.000940312, -0.009389345, 0.03860606, 0.001046739, 0.0005187925, -0.07113436, 0.9489914
 196231476, -0.02246107, 0.08354937, 0.001574923, 0.000940312, -0.00923547, 0.02659022, -0.0003840833, 0.0005209541, -0.05825383, 0.9497401
 196431396, -0.01685797, 0.05974325, -0.0009083672, 0.0009424736, -0.00022897, 0.02490743, -0.0006413206, 0.0005187925, -0.04381627, 0.9478197
 196631316, 0.01078782, 0.06208799, -0.001848885, 0.000940312, 0.01412416, 0.02639513, -0.001048422, 0.0005187925, -0.02999732, 0.9444342
 196831236, 0.0324869, 0.0577565, -0.002631276, 0.000940312, 0.01541051, 0.01838353, -0.001351375, 0.0005187925, -0.01958425, 0.9426524
 197031156, 0.04318403, 0.03568935, -0.003655129, 0.000940312, 0.0182051, 0.008157263, -0.002004991, 0.0005187925, -0.01459917, 0.9438194
 197231076, 0.02645315, 0.01330572, -0.004521904, 0.000940312, -0.004293101, 0.0002217457, -0.002118235, 0.0005187925, -0.01581765, 0.9481074
 197430996, -0.01602191, -0.002024244, -0.004342313, 0.000940312, -0.01327869, -0.001845812, -0.001570448, 0.0005187925, -0.0220815, 0.950586
 197630916, -0.03101434, -0.003554043, -0.001212913, 0.000940312, -0.00897273, -0.0009159302, 0.00119067, 0.0005187925, -0.03066843, 0.9485871
 197830836, -0.01170142, -0.002355554, 0.002378295, 0.000940312, 0.002921663, -0.001712729, 0.0007183907, 0.0005187925, -0.03903405, 0.9454965
 198030756, 0.009587837, -0.004968228, 0.0001169117, 0.000940312, 0.004102072, -0.002951319, -0.001032496, 0.0005187925, -0.04548298, 0.9452937
 198230676, -2.150491E-05, -0.006975913, -0.002279764, 0.000940312, -0.008871968, -0.002165842, -0.001148807, 0.0005187925, -0.04932276, 0.9476891
 198431429, -0.02517849, -0.003129293, -0.002413756, 0.0009424736, -0.01290097, 0.0009747195, -0.001489318, 0.0005209542, -0.05052178, 0.9491809
 198631349, -0.03012442, 0.003017145, -0.001872898, 0.0009424737, -0.01139454, 0.0005690437, 0.0007872887, 0.0005187925, -0.04965591, 0.9488543
 198831269, -0.02033405, 0.0007366861, 0.00126011, 0.000940312, -0.002451613, -7.887053E-05, 0.0005630743, 0.0005187925, -0.04798318, 0.9482893
 199031189, -0.01767451, 0.001588405, 0.00146003, 0.000940312, -0.008491374, 0.002808004, 0.0008071506, 0.0005187925, -0.04610366, 0.9481921
 199231109, -0.01603528, 0.009062981, 0.002944461, 0.000940312, -0.003686611, 0.005616297, 0.002323242, 0.0005187925, -0.04426359, 0.9473291
 199431029, -0.00598782, 0.01756403, 0.004925374, 0.000940312, -0.0007245401, 0.01146131, 0.001873457, 0.0005187925, -0.04216652, 0.946962
 199630949, -0.0005008103, 0.03052814, 0.002909889, 0.000940312, 0.00652943, 0.01433217, 0.0005598199, 0.0005187925, -0.03915546, 0.9467552
 199830869, 0.01802418, 0.02920445, -0.0001776345, 0.000940312, 0.00177204, 0.006301606, -0.001250649, 0.0005187925, -0.0361639, 0.9473699
 200030789, -0.002575631, 0.005549061, -0.001793269, 0.000940312, -0.005604669, -0.006031427, -0.0001469668, 0.0005187925, -0.03531594, 0.9484051
 200230709, -0.01574145, -0.02130685, 0.001663282, 0.000940312, -0.00739394, -0.0127444, 0.001818211, 0.0005187925, -0.03797674, 0.9482467
 200431462, -0.03143997, -0.02979944, 0.004933591, 0.0009424736, -0.01987907, -0.009748007, 0.002575, 0.0005209542, -0.04371616, 0.9468893
 200631382, -0.02212493, -0.01640574, 0.006653458, 0.0009424737, 0.0211395, 8.45169E-05, 0.002037924, 0.0005187925, -0.05019085, 0.9460797
 200831302, 0.03391411, 0.009231278, 0.002943372, 0.000940312, -0.004232806, 0.01043471, -0.0005499761, 0.0005187925, -0.05450501, 0.9488109
 201031222, -0.03897324, 0.02575566, -0.001595892, 0.000940312, -0.03228538, 0.009370593, -0.0006065172, 0.0005187925, -0.055485, 0.9504105
 201231142, -0.05573246, 0.01129124, -0.001369781, 0.000940312, 0.003389379, -0.006560586, 0.0001162338, 0.0005187925, -0.05476422, 0.9479445
 201431062, 0.008442215, -0.02316114, -0.001009133, 0.000940312, 0.004226977, -0.01266908, -0.000489404, 0.0005187925, -0.05467528, 0.9455653
 201630982, 0.01155164, -0.0215775, -0.002306195, 0.000940312, 0.005792807, 0.0002416923, -0.002116688, 0.0005187925, -0.0551944, 0.9451331
 201830902, 0.007489533, 0.0118957, -0.00542047, 0.000940312, -0.007825299, 0.01242388, -0.003502157, 0.0005187925, -0.05483663, 0.9460785
 202030822, -0.0002042735, 0.03127616, -0.008018613, 0.000940312, 0.004824531, 0.01201334, -0.002939242, 0.0005187925, -0.0531319, 0.9454805
 202230742, 0.009752429, 0.02372207, -0.006307809, 0.000940312, 0.001752618, 0.006422176, -0.001002106, 0.0005187925, -0.05062341, 0.9458422
 202430662, -0.001880151, 0.01373385, -0.0005022245, 0.000940312, -0.006791406, 0.005412165, 0.0009465459, 0.0005187925, -0.04797755, 0.9480095
 202631415, -0.02230661, 0.01265414, 0.00325604, 0.0009424736, -0.01314469, 0.004873744, 0.001668472, 0.0005209542, -0.04610121, 0.9494785
 202831335, -0.03279734, 0.009184687, 0.004701623, 0.0009424737, -0.02212336, 0.001414264, 0.002986805, 0.0005187925, -0.04579506, 0.9489392
 203031255, -0.04151303, 0.001731905, 0.007014894, 0.000940312, -0.01092807, 1.707904E-05, 0.00171484, 0.0005187925, -0.04725795, 0.9487255
 203231175, -0.02153543, -0.0002151609, 0.003109973, 0.000940312, -0.004953191, 0.000423802, 0.000316038, 0.0005187925, -0.04996119, 0.9475815
 203431095, -0.008384727, 0.002028938, 0.001632281, 0.000940312, -0.001016827, 0.002021048, 0.0006641221, 0.0005187925, -0.05298369, 0.9464179
 203631015, 0.001355311, 0.008211889, 0.002176251, 0.000940312, 0.004515061, 0.0080065, 0.001652707, 0.0005187925, -0.05475468, 0.9447903
 203830935, 0.01959021, 0.0250684, 0.003514259, 0.000940312, 0.02158128, 0.01509993, 0.002143817, 0.0005187925, -0.05379666, 0.943821
 204030855, 0.03717768, 0.03782848, 0.003040476, 0.000940312, 0.005141075, 0.01519606, -0.001026522, 0.0005187925, -0.05005167, 0.9454716
 204230775, -0.002163248, 0.03102387, -0.003200106, 0.000940312, -0.0069967, 0.008056541, -0.003141727, 0.0005187925, -0.0453333, 0.9473225
 204430695, -0.01506309, 0.01327907, -0.005438168, 0.000940312, -0.004637687, 0.001531583, -0.0005472199, 0.0005187925, -0.04169191, 0.9469945
 204631448, -0.006872577, 0.009238688, -0.002334471, 0.0009424736, -1.453309E-05, 0.01163709, -0.002235108, 0.0005209542, -0.03907086, 0.9462349
 204831368, -0.0004546595, 0.03531018, -0.00471398, 0.0009424737, -0.001434704, 0.01819514, -0.001836087, 0.0005187925, -0.03644161, 0.9464918
 205031288, -0.005189248, 0.03514903, -0.005661488, 0.000940312, -0.005290017, 0.005131239, -0.002160332, 0.0005187925, -0.03482991, 0.9478396
 205231208, -0.01354386, -0.001612502, -0.00570402, 0.000940312, -0.007774925, -0.01128312, -0.002729969, 0.0005187925, -0.03629389, 0.9493034
 205431128, -0.0264505, -0.03300685, -0.004517613, 0.000940312, -0.01211707, -0.01702664, -0.001249799, 0.0005187925, -0.04164805, 0.9490793
 205631048, -0.02424016, -0.03134155, -0.002253078, 0.000940312, -0.00505804, -0.001245299, 0.0002053059, 0.0005187925, -0.04868719, 0.9470471
 205830968, -0.006532485, 0.01370992, 0.001825702, 0.000940312, 0.0005838884, 0.01777298, 0.00217643, 0.0005187925, -0.05317022, 0.9456987
 206030888, 0.001372413, 0.04212712, 0.002937102, 0.000940312, -0.000954885, 0.01254086, 5.942232E-05, 0.0005187925, -0.05364224, 0.9463146
 206230808, -0.005063326, 0.01610924, 0.0006205555, 0.000940312, -0.003437238, -0.005313227, 0.0006911826, 0.0005187925, -0.05223831, 0.9464033
 206430728, -0.006523729, -0.01794921, 0.0003250859, 0.000940312, -0.001202856, -0.008230717, -0.0008677669, 0.0005187925, -0.05103644, 0.9460085
 206631481, -0.003128908, -0.01047812, -0.001054987, 0.000940312, -0.001735893, 0.005654479, -0.0006091609, 0.0005209541, -0.05006659, 0.9463381
 206831401, -0.006458956, 0.02686888, -0.001366814, 0.0009424736, -0.005333512, 0.0218723, -0.0006022283, 0.0005187925, -0.04774723, 0.9476021
 207031321, -0.01468499, 0.05442314, -0.001452845, 0.000940312, -0.007729772, 0.02066023, -0.000534186, 0.0005187925, -0.04354924, 0.9483373
 207231241, -0.01981316, 0.03746711, -0.0004958601, 0.000940312, -0.00917176, 0.004658632, -5.408507E-05, 0.0005187925, -0.0394326, 0.9488663
 207431161, -0.02329523, -0.0005592376, 0.0009582642, 0.000940312, -0.01032803, -0.009074786, 0.0009787588, 0.0005187925, -0.03810015, 0.9491139
 207631081, -0.023857, -0.02486822, 0.003176223, 0.000940312, -0.008538753, -0.01106946, 0.001502797, 0.0005187925, -0.04079266, 0.9485669
 207831001, -0.01962574, -0.02141367, 0.003962255, 0.000940312, -0.008103908, -0.003185553, 0.001793816, 0.0005187925, -0.0463821, 0.948653
 208030921, -0.0215132, -0.0001636717, 0.00349846, 0.000940312, -0.01069002, 0.005404187, 0.002056884, 0.0005187925, -0.05226582, 0.9491625
 208230841, -0.02826663, 0.01362821, 0.003844439, 0.000940312, -0.01560576, 0.00430274, 0.00131294, 0.0005187925, -0.05672295, 0.9505637
 208430761, -0.04353802, 0.004887442, 0.00197246, 0.000940312, -0.02335824, -0.002492606, -0.0002713799, 0.0005187925, -0.05966779, 0.9526101
 208630681, -0.05609903, -0.005947784, -0.0007501927, 0.000940312, -0.02221185, -0.00124391, -0.001076002, 0.0005187925, -0.06122407, 0.9527128
 208831434, -0.04699365, 0.002991101, -0.00302398, 0.0009424736, -0.01281206, 0.006925677, -0.001979079, 0.0005209542, -0.06092847, 0.9506335
 209031354, -0.02214261, 0.02045181, -0.004018846, 0.0009424737, -0.003740212, 0.01103792, -0.0006880689, 0.0005187925, -0.05874146, 0.9491878
 209231274, -0.008575348, 0.02778235, -0.00286118, 0.000940312, -0.004995973, 0.01388288, -3.959502E-05, 0.0005187925, -0.05478408, 0.9500086
 209431194, -0.01424438, 0.03968873, -0.0009917724, 0.000940312, -0.007022567, 0.02265856, -0.0006095652, 0.0005187925, -0.0485617, 0.9508703
 209631114, -0.01516523, 0.05616648, -0.00080711, 0.000940312, -0.003948458, 0.02234709, 8.330469E-05, 0.0005187925, -0.04057143, 0.9503196
 209831034, -0.005955205, 0.0386469, 0.0004480679, 0.000940312, 0.0002204301, 0.0009557575, 0.0008772963, 0.0005187925, -0.03412675, 0.9490326
 210030954, 0.002604007, -0.01282932, 0.002268678, 0.000940312, 0.001358978, -0.01491882, 0.001155822, 0.0005187925, -0.03299173, 0.9488429
 210230874, -0.001428653, -0.03665728, 0.0005603052, 0.000940312, -0.006276939, -0.01459702, -0.0002450177, 0.0005187925, -0.03793791, 0.9508337
 210430794, -0.02262949, -0.02925119, -0.0005259232, 0.000940312, -0.01458669, -0.006820338, -0.0009762208, 0.0005187925, -0.04703847, 0.9524832
 210630714, -0.03264886, -0.01288452, -0.001380056, 0.000940312, -0.008718493, -0.003902543, -9.327017E-05, 0.0005187925, -0.05709767, 0.9503865
 210831467, -0.01214673, -0.0115824, 8.277721E-06, 0.0009424736, 0.00785862, -0.007063266, -0.0003089459, 0.0005209542, -0.06588402, 0.947087
 211031387, 0.01759441, -0.01348521, -0.001690462, 0.0009424737, 0.006476116, -0.0001357736, -0.001287692, 0.0005187925, -0.0713809, 0.9461924
 211231307, 0.01063451, 0.008799138, -0.004513754, 0.000940312, -0.0008999473, 0.01016928, -0.002642495, 0.0005187925, -0.07181449, 0.9482324
 211431227, -0.00823647, 0.02186568, -0.006403375, 0.000940312, -0.006785899, 0.003815894, -0.002260556, 0.0005187925, -0.0685875, 0.9493253
 211631147, -0.01365057, -0.00634472, -0.004799082, 0.000940312, -0.00221099, -0.01654772, -0.001165987, 0.0005187925, -0.06587166, 0.9476486
 211831067, 0.001058004, -0.04517269, -0.002147266, 0.000940312, 0.002828414, -0.01939458, -0.00127275, 0.0005187925, -0.06658925, 0.945549
 212030987, 0.009045388, -0.03693033, -0.001467481, 0.000940312, 0.011564, -0.00674611, 0.0006969168, 0.0005187925, -0.07022327, 0.9431292
 212230907, 0.03310443, -0.007386649, 0.00153284, 0.000940312, 0.01731203, 0.003740155, 0.001083196, 0.0005187925, -0.07482413, 0.9436384
 212430827, 0.02368945, 0.01393337, 0.003024724, 0.000940312, -0.004317421, 0.01024897, 0.0005171804, 0.0005187925, -0.07796972, 0.9474182
 212630747, -0.01923306, 0.03029551, 0.002039419, 0.000940312, -0.01200325, 0.01844526, 0.001263028, 0.0005187925, -0.0773737, 0.9487619
 212830667, -0.02247005, 0.05390086, 0.00345487, 0.000940312, -0.002533038, 0.03174246, 0.00135209, 0.0005187925, -0.0711548, 0.9469132
 213031420, 0.001224388, 0.08125068, 0.002067598, 0.0009424736, 0.004485994, 0.03500853, -0.0002978424, 0.0005209542, -0.05939759, 0.9464436
 213231340, 0.008550386, 0.07542665, -0.002684658, 0.0009424737, 0.001159559, 0.02252254, -0.002066853, 0.0005187925, -0.04571429, 0.947796
 213431260, -0.0007318259, 0.0377892, -0.00591667, 0.000940312, -0.003145399, 0.001094747, -0.001863383, 0.0005187925, -0.03542896, 0.9488789
 213631180, -0.01035041, -0.008137774, -0.003692413, 0.000940312, -0.006327391, -0.009499051, -0.00122311, 0.0005187925, -0.03259547, 0.9496731
 213831100, -0.01688415, -0.01932592, -0.002533768, 0.000940312, -0.009471011, -0.002648067, -0.0002930565, 0.0005187925, -0.03681256, 0.9510229
 214031020, -0.04796891, 0.0029196, -0.002343177, 0.000940312, -0.05324656, 0.00784635, -0.001609957, 0.0005187925, -0.04509354, 0.9616292
 214230940, -0.1624484, 0.0132228, -0.002803458, 0.000940312, -0.0970066, -0.004603283, 0.001174596, 0.0005187925, -0.05666386, 0.9718916
 214430860, -0.2496765, -0.0299122, 0.005635824, 0.000940312, -0.1156945, -0.02908642, 0.003734794, 0.0005187925, -0.07400507, 0.9755351
 214630780, -0.2752708, -0.08067224, 0.009988344, 0.000940312, -0.1131757, -0.04091725, 0.004963732, 0.0005187925, -0.09841843, 0.9747065
 214830700, -0.269921, -0.09308539, 0.01225227, 0.000940312, -0.1157747, -0.03290714, 0.00339564, 0.0005187925, -0.1292205, 0.9739667
 215031453, -0.2823378, -0.07488339, 0.006855672, 0.0009424736, -0.1236113, -0.03211723, 0.001508623, 0.0005209542, -0.164283, 0.971827
 215231373, -0.2975639, -0.08906002, 0.003229646, 0.0009424737, -0.1277248, -0.05025869, 0.0007888724, 0.0005187925, -0.204782, 0.9660831
 215431293, -0.3087187, -0.1328859, 0.0001515723, 0.000940312, -0.1345632, -0.06525408, -0.0006365268, 0.0005187925, -0.2539427, 0.9564611
 215631213, -0.3310363, -0.1606342, -0.001537816, 0.000940312, -0.1490805, -0.0711743, -0.0005356683, 0.0005187925, -0.3144812, 0.9410942
 215831133, -0.369741, -0.1744108, -0.001093815, 0.000940312, -0.1684569, -0.07782078, -0.0003286179, 0.0005187925, -0.3893222, 0.9151062
 216031053, -0.4042839, -0.1835241, -0.001187595, 0.000940312, -0.1682568, -0.07188969, -0.0006094961, 0.0005187925, -0.4755429, 0.8740653
 216230973, -0.3939852, -0.1622591, -0.001250578, 0.000940312, -0.1612469, -0.06216345, 0.0007376079, 0.0005187925, -0.567142, 0.8178733
 216430893, -0.3981251, -0.1587709, 0.003851593, 0.000940312, -0.1863331, -0.08172438, 0.004045013, 0.0005187925, -0.6668345, 0.7393702
 216630813, -0.4825969, -0.2181255, 0.01071648, 0.000940312, -0.236752, -0.1083494, 0.00441217, 0.0005187925, -0.7793565, 0.6192278
 216830733, -0.5803119, -0.2609629, 0.005879719, 0.000940312, -0.2449854, -0.1077419, -0.001562875, 0.0005187925, -0.8854549, 0.447586
