TimeUS,CGpN,CGpE,CGpD,CGpe,PGpN,PGpE,PGpD,PGpe
 8425795, 0, 0, 0, 2.5, 0, 0, 0, 0
 8606556, 0, 0, 0, 2.5, 0, 0, 0, 2.5
 8806476, 0, 0, 0, 2.5, 0, 0, 0, 2.5
 9006396, 0, 0, 0, 2.5, 0, 0, 0, 2.5
 9206316, 0, 0, 0, 2.5, 0, 0, 0, 2.5
 9406236, 0, 0, 0, 2.5, 0, 0, 0, 2.5
 9606156, 0, 0, 0, 2.5, 0, 0, 0, 2.5
 9806076, 0, 0, 0, 2.5, 0, 0, 0, 2.5
 10005996, 0, 0, 0, 2.5, 0, 0, 0, 2.5
 10205916, 0, 0, 0, 2.5, 0, 0, 0, 2.5
 10405836, 0, 0, 0, 2.5, 0, 0, 0, 2.5
 10606589, 0, 0, 0, 2.5, 0, 0, 0, 2.5
 10806509, 0, 0, 0, 2.5, 0, 0, 0, 2.5
 11006429, 0, 0, 0, 2.5, 0, 0, 0, 2.5
 11206349, 0, 0, 0, 2.5, 0, 0, 0, 2.5
 11406269, 0, 0, 0, 2.5, 0, 0, 0, 2.5
 11606189, 0, 0, 0, 2.5, 0, 0, 0, 2.5
 11806109, 0, 0, 0, 2.5, 0, 0, 0, 2.5
 12006029, 0, 0, 0, 2.5, 0, 0, 0, 2.5
 12205949, 0, 0, 0, 2.5, 0, 0, 0, 2.5
 12405869, 0, 0, 0, 2.5, 0, 0, 0, 2.5
 12605789, 0, 0, 0, 2.5, 0, 0, 0, 2.5
 12806542, 0, 0, 0, 2.5, 0, 0, 0, 2.5
 13006462, 0, 0, 0, 2.5, 0, 0, 0, 2.5
 13206382, 0, 0, 0, 2.5, 0, 0, 0, 2.5
 13406302, 0, 0, 0, 2.5, 0, 0, 0, 2.5
 13606222, 0, 0, 0, 2.5, 0, 0, 0, 2.5
 13806142, 0, 0, 0, 2.5, 0, 0, 0, 2.5
 14006062, 0, 0, 0, 2.5, 0, 0, 0, 2.5
 14205982, 0, 0, 0, 2.5, 0, 0, 0, 2.5
 14405902, 0, 0, 0, 2.5, 0, 0, 0, 2.5
 14605822, 0, 0, 0, 2.5, 0, 0, 0, 2.5
 14806575, 0, 0, 0, 2.5, 0, 0, 0, 2.5
 15006495, 0, 0, 0, 2.5, 0, 0, 0, 2.5
 15206415, 0, 0, 0, 2.5, 0, 0, 0, 2.5
 15406335, 0, 0, 0, 2.5, 0, 0, 0, 2.5
 15606255, 0, 0, 0, 2.5, 0, 0, 0, 2.5
 15806175, 0, 0, 0, 2.5, 0, 0, 0, 2.5
 16006095, 0, 0, 0, 2.5, 0, 0, 0, 2.5
 16206015, 0, 0, 0, 2.5, 0, 0, 0, 2.5
 16405935, 0, 0, 0, 2.5, 0, 0, 0, 2.5
 16605855, 0, 0, 0, 2.5, 0, 0, 0, 2.5
 16805775, 0, 0, 0, 2.5, 0, 0, 0, 2.5
 17006528, 0, 0, 0, 2.5, 0, 0, 0, 2.5
 17206448, 0, 0, 0, 2.5, 0, 0, 0, 2.5
 17406368, 0, 0, 0, 2.5, 0, 0, 0, 2.5
 17606288, 0, 0, 0, 2.5, 0, 0, 0, 2.5
 17806208, 0, 0, 0, 2.5, 0, 0, 0, 2.5
 18006128, 0, 0, 0, 2.5, 0, 0, 0, 2.5
 18206048, 0, 0, 0, 2.5, 0, 0, 0, 2.5
 18405968, 0, 0, 0, 2.5, 0, 0, 0, 2.5
 18605888, 0, 0, 0, 2.5, 0, 0, 0, 2.5
 18805808, 0, 0, 0, 2.5, 0, 0, 0, 2.5
 19006561, 0, 0, 0, 2.5, 0, 0, 0, 2.5
 19206481, 0, 0, 0, 2.5, 0, 0, 0, 2.5
 19406401, 0, 0, 0, 2.5, 0, 0, 0, 2.5
 19606321, 0, 0, 0, 2.5, 0, 0, 0, 2.5
 19806241, 0, 0, 0, 2.5, 0, 0, 0, 2.5
 20006161, 0, 0, 0, 2.5, 0, 0, 0, 2.5
 20206081, 0, 0, 0, 2.5, 0, 0, 0, 2.5
 20406001, 0, 0, 0, 2.5, 0, 0, 0, 2.5
 20605921, 0, 0, 0, 2.5, 0, 0, 0, 2.5
 20805841, 0, 0, 0, 2.5, 0, 0, 0, 2.5
 21005761, 0, 0, 0, 2.5, 0, 0, 0, 2.5
 21206514, 0, 0, 0, 2.5, 0, 0, 0, 2.5
 21406434, 0, 0, 0, 2.5, 0, 0, 0, 2.5
 21606354, 0, 0, 0, 2.5, 0, 0, 0, 2.5
 21806274, 0, 0, 0, 2.5, 0, 0, 0, 2.5
 22006194, 0, 0, 0, 2.5, 0, 0, 0, 2.5
 22206114, 0, 0, 0, 2.5, 0, 0, 0, 2.5
 22406034, 0, 0, 0, 2.5, 0, 0, 0, 2.5
 22605954, 0, 0, 0, 2.5, 0, 0, 0, 2.5
 22805874, 0, 0, 0, 2.5, 0, 0, 0, 2.5
 23005794, 0, 0, 0, 2.5, 0, 0, 0, 2.5
 23206547, 0, 0, 0, 2.5, 0, 0, 0, 2.5
 23406467, 0, 0, 0, 2.5, 0, 0, 0, 2.5
 23606387, 0, 0, 0, 2.5, 0, 0, 0, 2.5
 23806307, 0, 0, 0, 2.5, 0, 0, 0, 2.5
 24006227, 0, 0, 0, 2.5, 0, 0, 0, 2.5
 24206147, 0, 0, 0, 2.5, 0, 0, 0, 2.5
 24406067, 0, 0, 0, 2.5, 0, 0, 0, 2.5
 24605987, 0, 0, 0, 2.5, 0, 0, 0, 2.5
 24805907, 0, 0, 0, 2.5, 0, 0, 0, 2.5
 25005827, 0, 0, 0, 2.5, 0, 0, 0, 2.5
 25206580, 0, 0, 0, 2.5, 0, 0, 0, 2.5
 25406500, 0, 0, 0, 2.5, 0, 0, 0, 2.5
 25606420, 0, 0, 0, 2.5, 0, 0, 0, 2.5
 25806340, 0, 0, 0, 2.5, 0, 0, 0, 2.5
 26006260, 0, 0, 0, 2.5, 0, 0, 0, 2.5
 26206180, 0, 0, 0, 2.5, 0, 0, 0, 2.5
 26406100, 0, 0, 0, 2.5, 0, 0, 0, 2.5
 26606020, 0, 0, 0, 2.5, 0, 0, 0, 2.5
 26805940, 0, 0, 0, 2.5, 0, 0, 0, 2.5
 27005860, 0, 0, 0, 2.5, 0, 0, 0, 2.5
 27205780, 0, 0, 0, 2.5, 0, 0, 0, 2.5
 27406533, 0, 0, 0, 2.5, 0, 0, 0, 2.5
 27606453, 0, 0, 0, 2.5, 0, 0, 0, 2.5
 27806373, 0, 0, 0, 2.5, 0, 0, 0, 2.5
 28006293, 0, 0, 0, 2.5, 0, 0, 0, 2.5
 28206213, 0, 0, 0, 2.5, 0, 0, 0, 2.5
 28406133, 0, 0, 0, 2.5, 0, 0, 0, 2.5
 28606053, 0, 0, 0, 2.5, 0, 0, 0, 2.5
 28805973, 0, 0, 0, 2.5, 0, 0, 0, 2.5
 29005893, 0, 0, 0, 2.5, 0, 0, 0, 2.5
 29205813, 0, 0, 0, 2.5, 0, 0, 0, 2.5
 29406566, 0, 0, 0, 2.5, 0, 0, 0, 2.5
 29606486, 0, 0, 0, 2.5, 0, 0, 0, 2.5
 29806406, 0, 0, 0, 2.5, 0, 0, 0, 2.5
 30006326, 0, 0, 0, 2.5, 0, 0, 0, 2.5
 30206246, 0, 0, 0, 2.5, 0, 0, 0, 2.5
 30406166, 0, 0, 0, 2.5, 0, 0, 0, 2.5
 30606086, 0, 0, 0, 2.5, 0, 0, 0, 2.5
 30806006, 0, 0, 0, 2.5, 0, 0, 0, 2.5
 31005926, 0, 0, 0, 2.5, 0, 0, 0, 2.5
 31205846, 0, 0, 0, 2.5, 0, 0, 0, 2.5
 31405766, 0, 0, 0, 2.5, 0, 0, 0, 2.5
 31606519, 0, 0, 0, 2.5, 0, 0, 0, 2.5
 31806439, 0, 0, 0, 2.5, 0, 0, 0, 2.5
 32006359, 0, 0, 0, 2.5, 0, 0, 0, 2.5
 32206279, 0, 0, 0, 2.5, 0, 0, 0, 2.5
 32406199, 0, 0, 0, 2.5, 0, 0, 0, 2.5
 32606119, 0, 0, 0, 2.5, 0, 0, 0, 2.5
 32806039, 0, 0, 0, 2.5, 0, 0, 0, 2.5
 33005959, 0, 0, 0, 2.5, 0, 0, 0, 2.5
 33205879, 0, 0, 0, 2.5, 0, 0, 0, 2.5
 33405799, 0, 0, 0, 2.5, 0, 0, 0, 2.5
 33606552, 0, 0, 0, 2.5, 0, 0, 0, 2.5
 33806472, 0, 0, 0, 2.5, 0, 0, 0, 2.5
 34006392, 0, 0, 0, 2.5, 0, 0, 0, 2.5
 34206312, 0, 0, 0, 2.5, 0, 0, 0, 2.5
 34406232, 0, 0, 0, 2.5, 0, 0, 0, 2.5
 34606152, 0, 0, 0, 2.5, 0, 0, 0, 2.5
 34806072, 0, 0, 0, 2.5, 0, 0, 0, 2.5
 35005992, 0, 0, 0, 2.5, 0, 0, 0, 2.5
 35205912, 0, 0, 0, 2.5, 0, 0, 0, 2.5
 35405832, 0, 0, 0, 2.5, 0, 0, 0, 2.5
 35606585, 0, 0, 0, 2.5, 0, 0, 0, 2.5
 35806505, 0, 0, 0, 2.5, 0, 0, 0, 2.5
 36006425, 0, 0, 0, 2.5, 0, 0, 0, 2.5
 36206345, 0, 0, 0, 2.5, 0, 0, 0, 2.5
 36406265, 0, 0, 0, 2.5, 0, 0, 0, 2.5
 36606185, 0, 0, 0, 2.5, 0, 0, 0, 2.5
 36806105, 0, 0, 0, 2.5, 0, 0, 0, 2.5
 37006025, 0, 0, 0, 2.5, 0, 0, 0, 2.5
 37205945, 0, 0, 0, 2.5, 0, 0, 0, 2.5
 37405865, 0, 0, 0, 2.5, 0, 0, 0, 2.5
 37605785, 0, 0, 0, 2.5, 0, 0, 0, 2.5
 37806538, 0, 0, 0, 2.5, 0, 0, 0, 2.5
 38006458, 0, 0, 0, 2.5, 0, 0, 0, 2.5
 38206378, 0, 0, 0, 2.5, 0, 0, 0, 2.5
 38406298, 0, 0, 0, 2.5, 0, 0, 0, 2.5
 38606218, 0, 0, 0, 2.5, 0, 0, 0, 2.5
 38806138, 0, 0, 0, 2.5, 0, 0, 0, 2.5
 39006058, 0, 0, 0, 2.5, 0, 0, 0, 2.5
 39205978, 0, 0, 0, 2.5, 0, 0, 0, 2.5
 39405898, 0, 0, 0, 2.5, 0, 0, 0, 2.5
 39605818, 0, 0, 0, 2.5, 0, 0, 0, 2.5
 39806571, 0, 0, 0, 2.5, 0, 0, 0, 2.5
 40006491, 0, 0, 0, 2.5, 0, 0, 0, 2.5
 40206411, 0, 0, 0, 2.5, 0, 0, 0, 2.5
 40406331, 0, 0, 0, 2.5, 0, 0, 0, 2.5
 40606251, 0, 0, 0, 2.5, 0, 0, 0, 2.5
 40806171, 0, 0, 0, 2.5, 0, 0, 0, 2.5
 41006091, 0, 0, 0, 2.5, 0, 0, 0, 2.5
 41206011, 0, 0, 0, 2.5, 0, 0, 0, 2.5
 41405931, 0, 0, 0, 2.5, 0, 0, 0, 2.5
 41605851, 0, 0, 0, 2.5, 0, 0, 0, 2.5
 41805771, 0, 0, 0, 2.5, 0, 0, 0, 2.5
 42006524, 0, 0, 0, 2.5, 0, 0, 0, 2.5
 42206444, 0, 0, 0, 2.5, 0, 0, 0, 2.5
 42406364, 0, 0, 0, 2.5, 0, 0, 0, 2.5
 42606284, 0, 0, 0, 2.5, 0, 0, 0, 2.5
 42806204, 0, 0, 0, 2.5, 0, 0, 0, 2.5
 43006124, 0, 0, 0, 2.5, 0, 0, 0, 2.5
 43206044, 0, 0, 0, 2.5, 0, 0, 0, 2.5
 43405964, 0, 0, 0, 2.5, 0, 0, 0, 2.5
 43605884, 0, 0, 0, 2.5, 0, 0, 0, 2.5
 43805804, 0, 0, 0, 2.5, 0, 0, 0, 2.5
 44006557, 0, 0, 0, 2.5, 0, 0, 0, 2.5
 44206477, 0, 0, 0, 2.5, 0, 0, 0, 2.5
 44406397, 0, 0, 0, 2.5, 0, 0, 0, 2.5
 44606317, 0, 0, 0, 2.5, 0, 0, 0, 2.5
 44806237, 0, 0, 0, 2.5, 0, 0, 0, 2.5
 45006157, 0, 0, 0, 2.5, 0, 0, 0, 2.5
 45206077, 0, 0, 0, 2.5, 0, 0, 0, 2.5
 45405997, 0, 0, 0, 2.5, 0, 0, 0, 2.5
 45605917, 0, 0, 0, 2.5, 0, 0, 0, 2.5
 45805837, 0, 0, 0, 2.5, 0, 0, 0, 2.5
 46006590, 0, 0, 0, 2.5, 0, 0, 0, 2.5
 46206510, 0, 0, 0, 2.5, 0, 0, 0, 2.5
 46406430, 0, 0, 0, 2.5, 0, 0, 0, 2.5
 46606350, 0, 0, -0.043, 2.5, 0, 0, 0, 2.5
 46806270, 0, 0, -0.683, 2.5, 0, 0, -0.043, 2.5
 47006190, -0.001, -0.001, -1.679, 2.5, 0, 0, -0.683, 2.5
 47206110, -0.007, -0.008, -3.118, 2.5, -0.001, -0.001, -1.679, 2.5
 47406030, -0.014, -0.017, -3.907, 2.5, -0.007, -0.008, -3.118, 2.5
 47605950, -0.021, -0.027, -4.572, 2.5, -0.014, -0.017, -3.907, 2.5
 47805870, -0.027, -0.036, -5.211, 2.5, -0.021, -0.027, -4.572, 2.5
 48005790, -0.033, -0.044, -5.75, 2.5, -0.027, -0.036, -5.211, 2.5
 48206543, -0.037, -0.051, -6.196, 2.5, -0.033, -0.044, -5.75, 2.5
 48406463, -0.041, -0.055, -6.568, 2.5, -0.037, -0.051, -6.196, 2.5
 48606383, -0.044, -0.059, -6.878, 2.5, -0.041, -0.055, -6.568, 2.5
 48806303, -0.046, -0.061, -7.132, 2.5, -0.044, -0.059, -6.878, 2.5
 49006223, -0.048, -0.064, -7.339, 2.5, -0.046, -0.061, -7.132, 2.5
 49206143, -0.05, -0.067, -7.507, 2.5, -0.048, -0.064, -7.339, 2.5
 49406063, -0.054, -0.071, -7.642, 2.5, -0.05, -0.067, -7.507, 2.5
 49605983, -0.058, -0.074, -7.749001, 2.5, -0.054, -0.071, -7.642, 2.5
 49805903, -0.062, -0.075, -7.832, 2.5, -0.058, -0.074, -7.749001, 2.5
 50005823, -0.066, -0.07700001, -7.899, 2.5, -0.062, -0.075, -7.832, 2.5
 50206576, -0.07, -0.07700001, -7.952, 2.5, -0.066, -0.07700001, -7.899, 2.5
 50406496, -0.072, -0.078, -7.992001, 2.5, -0.07, -0.07700001, -7.952, 2.5
 50606416, -0.075, -0.08000001, -8.024, 2.5, -0.072, -0.078, -7.992001, 2.5
 50806336, -0.07600001, -0.083, -7.652, 2.5, -0.075, -0.08000001, -8.024, 2.5
 51006256, -0.07700001, -0.085, -7.016, 2.5, -0.07600001, -0.083, -7.652, 2.5
 51206176, -0.078, -0.08800001, -6.492, 2.5, -0.07700001, -0.085, -7.016, 2.5
 51406096, -0.074, -0.081, -6.134, 2.5, -0.078, -0.08800001, -6.492, 2.5
 51606016, -0.066, -0.051, -5.715, 2.5, -0.074, -0.081, -6.134, 2.5
 51805936, -0.041, -0.026, -5.11, 2.5, -0.066, -0.051, -5.715, 2.5
 52005856, -0.018, -0.01, -4.335, 2.5, -0.041, -0.026, -5.11, 2.5
 52205776, -0.004, -0.004, -3.571, 2.5, -0.018, -0.01, -4.335, 2.5
 52406529, 0.002, -0.006, -2.88, 2.5, -0.004, -0.004, -3.571, 2.5
 52606449, 0.01, -0.012, -2.291, 2.5, 0.002, -0.006, -2.88, 2.5
 52806369, 0.02, -0.016, -1.813, 2.5, 0.01, -0.012, -2.291, 2.5
 53006289, 0.039, -0.027, -1.513, 2.5, 0.02, -0.016, -1.813, 2.5
 53206209, 0.052, -0.054, -1.319, 2.5, 0.039, -0.027, -1.513, 2.5
 53406129, 0.048, -0.085, -1.169, 2.5, 0.052, -0.054, -1.319, 2.5
 53606049, 0.032, -0.113, -1.036, 2.5, 0.048, -0.085, -1.169, 2.5
 53805969, 0.019, -0.131, -0.905, 2.5, 0.032, -0.113, -1.036, 2.5
 54005889, -0.001, -0.133, -0.766, 2.5, 0.019, -0.131, -0.905, 2.5
 54205809, -0.029, -0.114, -0.6160001, 2.5, -0.001, -0.133, -0.766, 2.5
 54406562, -0.046, -0.086, -0.454, 2.5, -0.029, -0.114, -0.6160001, 2.5
 54606482, -0.043, -0.044, -0.283, 2.5, -0.046, -0.086, -0.454, 2.5
 54806402, -0.046, -0.005, -0.104, 2.5, -0.043, -0.044, -0.283, 2.5
 55006322, -0.049, 0.017, 0.06900001, 2.5, -0.046, -0.005, -0.104, 2.5
 55206242, -0.052, 0.027, 0.164, 2.5, -0.049, 0.017, 0.06900001, 2.5
 55406162, -0.041, 0.028, 0.191, 2.5, -0.052, 0.027, 0.164, 2.5
 55606082, -0.02, 0.012, 0.18, 2.5, -0.041, 0.028, 0.191, 2.5
 55806002, 0.009000001, -0.011, 0.15, 2.5, -0.02, 0.012, 0.18, 2.5
 56005922, 0.027, -0.044, 0.115, 2.5, 0.009000001, -0.011, 0.15, 2.5
 56205842, 0.05, -0.071, 0.082, 2.5, 0.027, -0.044, 0.115, 2.5
 56405762, 0.085, -0.082, 0.054, 2.5, 0.05, -0.071, 0.082, 2.5
 56606515, 0.113, -0.06900001, 0.033, 2.5, 0.085, -0.082, 0.054, 2.5
 56806435, 0.112, -0.032, 0.018, 2.5, 0.113, -0.06900001, 0.033, 2.5
 57006355, 0.103, 0.011, 0.007, 2.5, 0.112, -0.032, 0.018, 2.5
 57206275, 0.079, 0.05, 0.001, 2.5, 0.103, 0.011, 0.007, 2.5
 57406195, 0.061, 0.06500001, -0.002, 2.5, 0.079, 0.05, 0.001, 2.5
 57606115, 0.053, 0.062, -0.006, 2.5, 0.061, 0.06500001, -0.002, 2.5
 57806035, 0.052, 0.052, -0.008, 2.5, 0.053, 0.062, -0.006, 2.5
 58005955, 0.062, 0.046, -0.01, 2.5, 0.052, 0.052, -0.008, 2.5
 58205875, 0.081, 0.039, -0.012, 2.5, 0.062, 0.046, -0.01, 2.5
 58405795, 0.09200001, 0.03, -0.014, 2.5, 0.081, 0.039, -0.012, 2.5
 58606548, 0.087, 0.023, -0.017, 2.5, 0.09200001, 0.03, -0.014, 2.5
 58806468, 0.081, 0.012, -0.019, 2.5, 0.087, 0.023, -0.017, 2.5
 59006388, 0.07600001, 0.002, -0.019, 2.5, 0.081, 0.012, -0.019, 2.5
 59206308, 0.067, -0.002, -0.018, 2.5, 0.07600001, 0.002, -0.019, 2.5
 59406228, 0.061, -0.015, -0.019, 2.5, 0.067, -0.002, -0.018, 2.5
 59606148, 0.059, -0.028, -0.019, 2.5, 0.061, -0.015, -0.019, 2.5
 59806068, 0.06, -0.034, -0.02, 2.5, 0.059, -0.028, -0.019, 2.5
 60005988, 0.066, -0.032, -0.022, 2.5, 0.06, -0.034, -0.02, 2.5
 60205908, 0.071, -0.021, -0.024, 2.5, 0.066, -0.032, -0.022, 2.5
 60405828, 0.074, 0, -0.025, 2.5, 0.071, -0.021, -0.024, 2.5
 60606581, 0.078, 0.015, -0.027, 2.5, 0.074, 0, -0.025, 2.5
 60806501, 0.055, 0.035, -0.028, 2.5, 0.078, 0.015, -0.027, 2.5
 61006421, 0.026, 0.052, -0.029, 2.5, 0.055, 0.035, -0.028, 2.5
 61206341, 0.015, 0.049, -0.03, 2.5, 0.026, 0.052, -0.029, 2.5
 61406261, 0.01, 0.042, -0.03, 2.5, 0.015, 0.049, -0.03, 2.5
 61606181, 0.013, 0.034, -0.031, 2.5, 0.01, 0.042, -0.03, 2.5
 61806101, 0.023, 0.044, -0.031, 2.5, 0.013, 0.034, -0.031, 2.5
 62006021, 0.027, 0.053, -0.031, 2.5, 0.023, 0.044, -0.031, 2.5
 62205941, 0.027, 0.056, -0.031, 2.5, 0.027, 0.053, -0.031, 2.5
 62405861, 0.016, 0.049, -0.031, 2.5, 0.027, 0.056, -0.031, 2.5
 62605781, 0.01, 0.045, -0.031, 2.5, 0.016, 0.049, -0.031, 2.5
 62806534, 0.006, 0.047, -0.031, 2.5, 0.01, 0.045, -0.031, 2.5
 63006454, 0.001, 0.045, -0.03, 2.5, 0.006, 0.047, -0.031, 2.5
 63206374, -0.001, 0.032, -0.029, 2.5, 0.001, 0.045, -0.03, 2.5
 63406294, 0.007, 0.019, -0.029, 2.5, -0.001, 0.032, -0.029, 2.5
 63606214, 0.009000001, -0.001, -0.028, 2.5, 0.007, 0.019, -0.029, 2.5
 63806134, 0, -0.03, -0.027, 2.5, 0.009000001, -0.001, -0.028, 2.5
 64006054, -0.01, -0.047, -0.027, 2.5, 0, -0.03, -0.027, 2.5
 64205974, -0.015, -0.057, -0.027, 2.5, -0.01, -0.047, -0.027, 2.5
 64405894, -0.009000001, -0.059, -0.027, 2.5, -0.015, -0.057, -0.027, 2.5
 64605814, 0, -0.068, -0.026, 2.5, -0.009000001, -0.059, -0.027, 2.5
 64806567, -0.005, -0.07700001, -0.025, 2.5, 0, -0.068, -0.026, 2.5
 65006487, -0.012, -0.08000001, -0.025, 2.5, -0.005, -0.07700001, -0.025, 2.5
 65206407, -0.011, -0.082, -0.024, 2.5, -0.012, -0.08000001, -0.025, 2.5
 65406327, 0.002, -0.082, -0.024, 2.5, -0.011, -0.082, -0.024, 2.5
 65606247, 0.033, -0.08400001, -0.023, 2.5, 0.002, -0.082, -0.024, 2.5
 65806167, 0.064, -0.08400001, -0.022, 2.5, 0.033, -0.08400001, -0.023, 2.5
 66006087, 0.082, -0.085, -0.022, 2.5, 0.064, -0.08400001, -0.022, 2.5
 66206007, 0.097, -0.082, -0.021, 2.5, 0.082, -0.085, -0.022, 2.5
 66405927, 0.098, -0.072, -0.02, 2.5, 0.097, -0.082, -0.021, 2.5
 66605847, 0.07600001, -0.059, -0.019, 2.5, 0.098, -0.072, -0.02, 2.5
 66805767, 0.045, -0.049, -0.019, 2.5, 0.07600001, -0.059, -0.019, 2.5
 67006520, 0.022, -0.056, -0.018, 2.5, 0.045, -0.049, -0.019, 2.5
 67206440, -0.007, -0.056, -0.017, 2.5, 0.022, -0.056, -0.018, 2.5
 67406360, -0.026, -0.051, -0.017, 2.5, -0.007, -0.056, -0.017, 2.5
 67606280, -0.037, -0.042, -0.016, 2.5, -0.026, -0.051, -0.017, 2.5
 67806200, -0.041, -0.037, -0.015, 2.5, -0.037, -0.042, -0.016, 2.5
 68006120, -0.042, -0.034, -0.015, 2.5, -0.041, -0.037, -0.015, 2.5
 68206040, -0.047, -0.034, -0.014, 2.5, -0.042, -0.034, -0.015, 2.5
 68405960, -0.055, -0.035, -0.014, 2.5, -0.047, -0.034, -0.014, 2.5
 68605880, -0.061, -0.039, -0.013, 2.5, -0.055, -0.035, -0.014, 2.5
 68805800, -0.075, -0.05, -0.012, 2.5, -0.061, -0.039, -0.013, 2.5
 69006553, -0.075, -0.059, -0.012, 2.5, -0.075, -0.05, -0.012, 2.5
 69206473, -0.061, -0.063, -0.012, 2.5, -0.075, -0.059, -0.012, 2.5
 69406393, -0.062, -0.053, -0.011, 2.5, -0.061, -0.063, -0.012, 2.5
 69606313, -0.068, -0.04, -0.01, 2.5, -0.062, -0.053, -0.011, 2.5
 69806233, -0.072, -0.029, -0.01, 2.5, -0.068, -0.04, -0.01, 2.5
 70006153, -0.072, -0.02, -0.009000001, 2.5, -0.072, -0.029, -0.01, 2.5
 70206073, -0.061, -0.002, -0.008, 2.5, -0.072, -0.02, -0.009000001, 2.5
 70405993, -0.051, 0.017, -0.008, 2.5, -0.061, -0.002, -0.008, 2.5
 70605913, -0.049, 0.037, -0.007, 2.5, -0.051, 0.017, -0.008, 2.5
 70805833, -0.043, 0.048, -0.007, 2.5, -0.049, 0.037, -0.007, 2.5
 71006586, -0.033, 0.039, -0.007, 2.5, -0.043, 0.048, -0.007, 2.5
 71206506, -0.009000001, 0.033, -0.007, 2.5, -0.033, 0.039, -0.007, 2.5
 71406426, 0.017, 0.037, -0.006, 2.5, -0.009000001, 0.033, -0.007, 2.5
 71606346, 0.043, 0.025, -0.006, 2.5, 0.017, 0.037, -0.006, 2.5
 71806266, 0.052, 0.02, -0.005, 2.5, 0.043, 0.025, -0.006, 2.5
 72006186, 0.041, 0.026, -0.005, 2.5, 0.052, 0.02, -0.005, 2.5
 72206106, 0.017, 0.033, -0.004, 2.5, 0.041, 0.026, -0.005, 2.5
 72406026, -0.009000001, 0.049, -0.004, 2.5, 0.017, 0.033, -0.004, 2.5
 72605946, -0.028, 0.066, -0.004, 2.5, -0.009000001, 0.049, -0.004, 2.5
 72805866, -0.047, 0.094, -0.003, 2.5, -0.028, 0.066, -0.004, 2.5
 73005786, -0.064, 0.116, -0.004, 2.5, -0.047, 0.094, -0.003, 2.5
 73206539, -0.07600001, 0.125, -0.004, 2.5, -0.064, 0.116, -0.004, 2.5
 73406459, -0.083, 0.125, -0.004, 2.5, -0.07600001, 0.125, -0.004, 2.5
 73606379, -0.086, 0.117, -0.005, 2.5, -0.083, 0.125, -0.004, 2.5
 73806299, -0.087, 0.105, -0.005, 2.5, -0.086, 0.117, -0.005, 2.5
 74006219, -0.086, 0.09100001, -0.006, 2.5, -0.087, 0.105, -0.005, 2.5
 74206139, -0.08400001, 0.075, -0.006, 2.5, -0.086, 0.09100001, -0.006, 2.5
 74406059, -0.082, 0.06, -0.006, 2.5, -0.08400001, 0.075, -0.006, 2.5
 74605979, -0.079, 0.045, -0.006, 2.5, -0.082, 0.06, -0.006, 2.5
 74805899, -0.07700001, 0.032, -0.006, 2.5, -0.079, 0.045, -0.006, 2.5
 75005819, -0.07600001, 0.021, -0.005, 2.5, -0.07700001, 0.032, -0.006, 2.5
 75206572, -0.075, 0.012, -0.005, 2.5, -0.07600001, 0.021, -0.005, 2.5
 75406492, -0.074, 0.005, -0.004, 2.5, -0.075, 0.012, -0.005, 2.5
 75606412, -0.075, 0, -0.004, 2.5, -0.074, 0.005, -0.004, 2.5
 75806332, -0.07600001, -0.003, -0.004, 2.5, -0.075, 0, -0.004, 2.5
 76006252, -0.078, -0.004, -0.004, 2.5, -0.07600001, -0.003, -0.004, 2.5
 76206172, -0.081, -0.005, -0.003, 2.5, -0.078, -0.004, -0.004, 2.5
 76406092, -0.08400001, -0.005, -0.003, 2.5, -0.081, -0.005, -0.003, 2.5
 76606012, -0.087, -0.004, -0.002, 2.5, -0.08400001, -0.005, -0.003, 2.5
 76805932, -0.09100001, -0.002, -0.001, 2.5, -0.087, -0.004, -0.002, 2.5
 77005852, -0.09500001, -0.001, -0.001, 2.5, -0.09100001, -0.002, -0.001, 2.5
 77205772, -0.1, 0, 0, 2.5, -0.09500001, -0.001, -0.001, 2.5
 77406525, -0.104, 0.002, 0, 2.5, -0.1, 0, 0, 2.5
 77606445, -0.108, 0.004, 0, 2.5, -0.104, 0.002, 0, 2.5
 77806365, -0.113, 0.006, 0, 2.5, -0.108, 0.004, 0, 2.5
 78006285, -0.117, 0.008, 0, 2.5, -0.113, 0.006, 0, 2.5
 78206205, -0.121, 0.01, 0, 2.5, -0.117, 0.008, 0, 2.5
 78406125, -0.126, 0.011, 0, 2.5, -0.121, 0.01, 0, 2.5
 78606045, -0.13, 0.013, 0, 2.5, -0.126, 0.011, 0, 2.5
 78805965, -0.134, 0.015, 0, 2.5, -0.13, 0.013, 0, 2.5
 79005885, -0.138, 0.016, 0, 2.5, -0.134, 0.015, 0, 2.5
 79205805, -0.142, 0.017, 0.001, 2.5, -0.138, 0.016, 0, 2.5
 79406558, -0.146, 0.018, 0.001, 2.5, -0.142, 0.017, 0.001, 2.5
 79606478, -0.15, 0.019, 0.001, 2.5, -0.146, 0.018, 0.001, 2.5
 79806398, -0.154, 0.02, 0.001, 2.5, -0.15, 0.019, 0.001, 2.5
 80006318, -0.158, 0.02, 0.001, 2.5, -0.154, 0.02, 0.001, 2.5
 80206238, -0.162, 0.021, 0.002, 2.5, -0.158, 0.02, 0.001, 2.5
 80406158, -0.166, 0.023, 0.002, 2.5, -0.162, 0.021, 0.002, 2.5
 80606078, -0.17, 0.024, 0.002, 2.5, -0.166, 0.023, 0.002, 2.5
 80805998, -0.173, 0.026, 0.002, 2.5, -0.17, 0.024, 0.002, 2.5
 81005918, -0.177, 0.027, 0.002, 2.5, -0.173, 0.026, 0.002, 2.5
 81205838, -0.18, 0.029, 0.003, 2.5, -0.177, 0.027, 0.002, 2.5
 81406591, -0.184, 0.031, 0.003, 2.5, -0.18, 0.029, 0.003, 2.5
 81606511, -0.187, 0.033, 0.003, 2.5, -0.184, 0.031, 0.003, 2.5
 81806431, -0.191, 0.035, 0.002, 2.5, -0.187, 0.033, 0.003, 2.5
 82006351, -0.194, 0.037, 0.001, 2.5, -0.191, 0.035, 0.002, 2.5
 82206271, -0.198, 0.04, 0, 2.5, -0.194, 0.037, 0.001, 2.5
 82406191, -0.201, 0.042, 0, 2.5, -0.198, 0.04, 0, 2.5
 82606111, -0.204, 0.045, 0, 2.5, -0.201, 0.042, 0, 2.5
 82806031, -0.207, 0.047, 0, 2.5, -0.204, 0.045, 0, 2.5
 83005951, -0.209, 0.049, 0, 2.5, -0.207, 0.047, 0, 2.5
 83205871, -0.212, 0.051, 0, 2.5, -0.209, 0.049, 0, 2.5
 83405791, -0.215, 0.054, 0, 2.5, -0.212, 0.051, 0, 2.5
 83606544, -0.218, 0.057, 0, 2.5, -0.215, 0.054, 0, 2.5
 83806464, -0.22, 0.06, 0, 2.5, -0.218, 0.057, 0, 2.5
 84006384, -0.223, 0.062, 0, 2.5, -0.22, 0.06, 0, 2.5
 84206304, -0.225, 0.06500001, 0, 2.5, -0.223, 0.062, 0, 2.5
 84406224, -0.227, 0.06900001, 0, 2.5, -0.225, 0.06500001, 0, 2.5
 84606144, -0.23, 0.072, 0, 2.5, -0.227, 0.06900001, 0, 2.5
 84806064, -0.232, 0.075, 0, 2.5, -0.23, 0.072, 0, 2.5
 85005984, -0.234, 0.079, 0, 2.5, -0.232, 0.075, 0, 2.5
 85205904, -0.235, 0.082, 0, 2.5, -0.234, 0.079, 0, 2.5
 85405824, -0.237, 0.086, 0, 2.5, -0.235, 0.082, 0, 2.5
 85606577, -0.239, 0.089, 0, 2.5, -0.237, 0.086, 0, 2.5
 85806497, -0.24, 0.093, 0, 2.5, -0.239, 0.089, 0, 2.5
 86006417, -0.242, 0.097, 0, 2.5, -0.24, 0.093, 0, 2.5
 86206337, -0.243, 0.101, 0, 2.5, -0.242, 0.097, 0, 2.5
 86406257, -0.244, 0.105, 0, 2.5, -0.243, 0.101, 0, 2.5
 86606177, -0.245, 0.109, 0, 2.5, -0.244, 0.105, 0, 2.5
 86806097, -0.245, 0.113, 0, 2.5, -0.245, 0.109, 0, 2.5
 87006017, -0.246, 0.118, 0, 2.5, -0.245, 0.113, 0, 2.5
 87205937, -0.246, 0.122, 0, 2.5, -0.246, 0.118, 0, 2.5
 87405857, -0.247, 0.127, 0, 2.5, -0.246, 0.122, 0, 2.5
 87605777, -0.247, 0.131, 0, 2.5, -0.247, 0.127, 0, 2.5
 87806530, -0.247, 0.136, 0, 2.5, -0.247, 0.131, 0, 2.5
 88006450, -0.247, 0.141, 0, 2.5, -0.247, 0.136, 0, 2.5
 88206370, -0.247, 0.146, 0, 2.5, -0.247, 0.141, 0, 2.5
 88406290, -0.246, 0.151, 0, 2.5, -0.247, 0.146, 0, 2.5
 88606210, -0.246, 0.156, 0, 2.5, -0.246, 0.151, 0, 2.5
 88806130, -0.245, 0.161, 0, 2.5, -0.246, 0.156, 0, 2.5
 89006050, -0.245, 0.167, 0, 2.5, -0.245, 0.161, 0, 2.5
 89205970, -0.244, 0.172, 0, 2.5, -0.245, 0.167, 0, 2.5
 89405890, -0.243, 0.178, 0, 2.5, -0.244, 0.172, 0, 2.5
 89605810, -0.241, 0.184, 0, 2.5, -0.243, 0.178, 0, 2.5
 89806563, -0.24, 0.19, 0, 2.5, -0.241, 0.184, 0, 2.5
 90006483, -0.239, 0.197, 0, 2.5, -0.24, 0.19, 0, 2.5
 90206403, -0.237, 0.203, 0, 2.5, -0.239, 0.197, 0, 2.5
 90406323, -0.234, 0.209, 0, 2.5, -0.237, 0.203, 0, 2.5
 90606243, -0.232, 0.216, 0, 2.5, -0.234, 0.209, 0, 2.5
 90806163, -0.23, 0.223, 0, 2.5, -0.232, 0.216, 0, 2.5
 91006083, -0.227, 0.231, 0, 2.5, -0.23, 0.223, 0, 2.5
 91206003, -0.223, 0.238, 0, 2.5, -0.227, 0.231, 0, 2.5
 91405923, -0.22, 0.246, 0, 2.5, -0.223, 0.238, 0, 2.5
 91605843, -0.216, 0.255, 0, 2.5, -0.22, 0.246, 0, 2.5
 91805763, -0.212, 0.263, 0.001, 2.5, -0.216, 0.255, 0, 2.5
 92006516, -0.208, 0.273, 0, 2.5, -0.212, 0.263, 0.001, 2.5
 92206436, -0.204, 0.282, 0, 2.5, -0.208, 0.273, 0, 2.5
 92406356, -0.199, 0.292, 0, 2.5, -0.204, 0.282, 0, 2.5
 92606276, -0.194, 0.302, 0.001, 2.5, -0.199, 0.292, 0, 2.5
 92806196, -0.189, 0.312, 0, 2.5, -0.194, 0.302, 0.001, 2.5
 93006116, -0.184, 0.323, 0, 2.5, -0.189, 0.312, 0, 2.5
 93206036, -0.178, 0.335, 0.001, 2.5, -0.184, 0.323, 0, 2.5
 93405956, -0.172, 0.347, 0.001, 2.5, -0.178, 0.335, 0.001, 2.5
 93605876, -0.165, 0.359, 0.001, 2.5, -0.172, 0.347, 0.001, 2.5
 93805796, -0.158, 0.373, 0.001, 2.5, -0.165, 0.359, 0.001, 2.5
 94006549, -0.15, 0.386, 0.002, 2.5, -0.158, 0.373, 0.001, 2.5
 94206469, -0.142, 0.401, 0.002, 2.5, -0.15, 0.386, 0.002, 2.5
 94406389, -0.134, 0.415, 0.002, 2.5, -0.142, 0.401, 0.002, 2.5
 94606309, -0.126, 0.431, 0.002, 2.5, -0.134, 0.415, 0.002, 2.5
 94806229, -0.117, 0.447, 0.002, 2.5, -0.126, 0.431, 0.002, 2.5
 95006149, -0.107, 0.464, 0.002, 2.5, -0.117, 0.447, 0.002, 2.5
 95206069, -0.097, 0.482, 0.002, 2.5, -0.107, 0.464, 0.002, 2.5
 95405989, -0.087, 0.501, 0.002, 2.5, -0.097, 0.482, 0.002, 2.5
 95605909, -0.07600001, 0.521, 0.002, 2.5, -0.087, 0.501, 0.002, 2.5
 95805829, -0.06500001, 0.5420001, 0.002, 2.5, -0.07600001, 0.521, 0.002, 2.5
 96006582, -0.054, 0.564, 0.002, 2.5, -0.06500001, 0.5420001, 0.002, 2.5
 96206502, -0.041, 0.587, 0.002, 2.5, -0.054, 0.564, 0.002, 2.5
 96406422, -0.029, 0.611, 0.002, 2.5, -0.041, 0.587, 0.002, 2.5
 96606342, -0.015, 0.636, 0.003, 2.5, -0.029, 0.611, 0.002, 2.5
 96806262, -0.002, 0.6620001, 0.003, 2.5, -0.015, 0.636, 0.003, 2.5
 97006182, 0.01, 0.688, 0.003, 2.5, -0.002, 0.6620001, 0.003, 2.5
 97206102, 0.025, 0.715, 0.003, 2.5, 0.01, 0.688, 0.003, 2.5
 97406022, 0.039, 0.7450001, 0.002, 2.5, 0.025, 0.715, 0.003, 2.5
 97605942, 0.054, 0.776, 0.001, 2.5, 0.039, 0.7450001, 0.002, 2.5
 97805862, 0.07, 0.808, 0.001, 2.5, 0.054, 0.776, 0.001, 2.5
 98005782, 0.086, 0.8420001, 0.001, 2.5, 0.07, 0.808, 0.001, 2.5
 98206535, 0.102, 0.877, 0.001, 2.5, 0.086, 0.8420001, 0.001, 2.5
 98406455, 0.118, 0.913, 0, 2.5, 0.102, 0.877, 0.001, 2.5
 98606375, 0.135, 0.95, 0.001, 2.5, 0.118, 0.913, 0, 2.5
 98806295, 0.152, 0.989, 0.001, 2.5, 0.135, 0.95, 0.001, 2.5
 99006215, 0.169, 1.031, 0.001, 2.5, 0.152, 0.989, 0.001, 2.5
 99206135, 0.187, 1.074, 0.001, 2.5, 0.169, 1.031, 0.001, 2.5
 99406055, 0.205, 1.12, 0.002, 2.5, 0.187, 1.074, 0.001, 2.5
 99605975, 0.224, 1.168, 0.002, 2.5, 0.205, 1.12, 0.002, 2.5
 99805895, 0.244, 1.218, 0.002, 2.5, 0.224, 1.168, 0.002, 2.5
 100005815, 0.265, 1.272, 0.002, 2.5, 0.244, 1.218, 0.002, 2.5
 100206568, 0.286, 1.329, 0.002, 2.5, 0.265, 1.272, 0.002, 2.5
 100406488, 0.308, 1.388, 0.002, 2.5, 0.286, 1.329, 0.002, 2.5
 100606408, 0.331, 1.45, 0.003, 2.5, 0.308, 1.388, 0.002, 2.5
 100806328, 0.355, 1.516, 0.003, 2.5, 0.331, 1.45, 0.003, 2.5
 101006248, 0.378, 1.582, 0.003, 2.5, 0.355, 1.516, 0.003, 2.5
 101206168, 0.402, 1.652, 0.003, 2.5, 0.378, 1.582, 0.003, 2.5
 101406088, 0.427, 1.726, 0.004, 2.5, 0.402, 1.652, 0.003, 2.5
 101606008, 0.453, 1.804, 0.003, 2.5, 0.427, 1.726, 0.004, 2.5
 101805928, 0.48, 1.888, 0.003, 2.5, 0.453, 1.804, 0.003, 2.5
 102005848, 0.508, 1.976, 0.004, 2.5, 0.48, 1.888, 0.003, 2.5
 102205768, 0.536, 2.068, 0.004, 2.5, 0.508, 1.976, 0.004, 2.5
 102406521, 0.565, 2.164, 0.004, 2.5, 0.536, 2.068, 0.004, 2.5
 102606441, 0.594, 2.263, 0.005, 2.5, 0.565, 2.164, 0.004, 2.5
 102806361, 0.622, 2.366, 0.006, 2.5, 0.594, 2.263, 0.005, 2.5
 103006281, 0.652, 2.473, 0.007, 2.5, 0.622, 2.366, 0.006, 2.5
 103206201, 0.682, 2.586, 0.008, 2.5, 0.652, 2.473, 0.007, 2.5
 103406121, 0.7130001, 2.703, 0.009000001, 2.5, 0.682, 2.586, 0.008, 2.5
 103606041, 0.744, 2.826, 0.009000001, 2.5, 0.7130001, 2.703, 0.009000001, 2.5
 103805961, 0.777, 2.956, 0.01, 2.5, 0.744, 2.826, 0.009000001, 2.5
 104005881, 0.8100001, 3.091, 0.011, 2.5, 0.777, 2.956, 0.01, 2.5
 104205801, 0.844, 3.231, 0.012, 2.5, 0.8100001, 3.091, 0.011, 2.5
 104406554, 0.8790001, 3.379, 0.013, 2.5, 0.844, 3.231, 0.012, 2.5
 104606474, 0.915, 3.532, 0.014, 2.5, 0.8790001, 3.379, 0.013, 2.5
 104806394, 0.95, 3.689, 0.016, 2.5, 0.915, 3.532, 0.014, 2.5
 105006314, 0.9850001, 3.85, 0.017, 2.5, 0.95, 3.689, 0.016, 2.5
 105206234, 1.016, 4.008, 0.019, 2.5, 0.9850001, 3.85, 0.017, 2.5
 105406154, 1.046, 4.168, 0.021, 2.5, 1.016, 4.008, 0.019, 2.5
 105606074, 1.077, 4.333, 0.022, 2.5, 1.046, 4.168, 0.021, 2.5
 105805994, 1.108, 4.503, 0.023, 2.5, 1.077, 4.333, 0.022, 2.5
 106005914, 1.139, 4.676, 0.025, 2.5, 1.108, 4.503, 0.023, 2.5
 106205834, 1.17, 4.851, 0.027, 2.5, 1.139, 4.676, 0.025, 2.5
 106406587, 1.2, 5.028, 0.029, 2.5, 1.17, 4.851, 0.027, 2.5
 106606507, 1.229, 5.204, 0.031, 2.5, 1.2, 5.028, 0.029, 2.5
 106806427, 1.257, 5.38, 0.034, 2.5, 1.229, 5.204, 0.031, 2.5
 107006347, 1.285, 5.556, 0.036, 2.5, 1.257, 5.38, 0.034, 2.5
 107206267, 1.312, 5.731, 0.038, 2.5, 1.285, 5.556, 0.036, 2.5
 107406187, 1.339, 5.907, 0.041, 2.5, 1.312, 5.731, 0.038, 2.5
 107606107, 1.365, 6.083, 0.042, 2.5, 1.339, 5.907, 0.041, 2.5
 107806027, 1.391, 6.259, 0.044, 2.5, 1.365, 6.083, 0.042, 2.5
 108005947, 1.417, 6.434, 0.046, 2.5, 1.391, 6.259, 0.044, 2.5
 108205867, 1.444, 6.608, 0.047, 2.5, 1.417, 6.434, 0.046, 2.5
 108405787, 1.47, 6.783, 0.048, 2.5, 1.444, 6.608, 0.047, 2.5
 108606540, 1.495, 6.95, 0.048, 2.5, 1.47, 6.783, 0.048, 2.5
 108806460, 1.518, 7.111001, 0.05, 2.5, 1.495, 6.95, 0.048, 2.5
 109006380, 1.542, 7.274, 0.051, 2.5, 1.518, 7.111001, 0.05, 2.5
 109206300, 1.568, 7.437, 0.051, 2.5, 1.542, 7.274, 0.051, 2.5
 109406220, 1.594, 7.599, 0.052, 2.5, 1.568, 7.437, 0.051, 2.5
 109606140, 1.62, 7.759, 0.052, 2.5, 1.594, 7.599, 0.052, 2.5
 109806060, 1.648, 7.918, 0.052, 2.5, 1.62, 7.759, 0.052, 2.5
 110005980, 1.675, 8.073, 0.051, 2.5, 1.648, 7.918, 0.052, 2.5
 110205900, 1.704, 8.226001, 0.05, 2.5, 1.675, 8.073, 0.051, 2.5
 110405820, 1.732, 8.377001, 0.049, 2.5, 1.704, 8.226001, 0.05, 2.5
 110606573, 1.762, 8.527, 0.048, 2.5, 1.732, 8.377001, 0.049, 2.5
 110806493, 1.792, 8.671, 0.046, 2.5, 1.762, 8.527, 0.048, 2.5
 111006413, 1.822, 8.813001, 0.045, 2.5, 1.792, 8.671, 0.046, 2.5
 111206333, 1.853, 8.953, 0.043, 2.5, 1.822, 8.813001, 0.045, 2.5
 111406253, 1.883, 9.086, 0.039, 2.5, 1.853, 8.953, 0.043, 2.5
 111606173, 1.912, 9.213, 0.036, 2.5, 1.883, 9.086, 0.039, 2.5
 111806093, 1.943, 9.342, 0.032, 2.5, 1.912, 9.213, 0.036, 2.5
 112006013, 1.976, 9.471001, 0.029, 2.5, 1.943, 9.342, 0.032, 2.5
 112205933, 2.009, 9.599001, 0.026, 2.5, 1.976, 9.471001, 0.029, 2.5
 112405853, 2.044, 9.725, 0.022, 2.5, 2.009, 9.599001, 0.026, 2.5
 112605773, 2.08, 9.848001, 0.018, 2.5, 2.044, 9.725, 0.022, 2.5
 112806526, 2.115, 9.967, 0.013, 2.5, 2.08, 9.848001, 0.018, 2.5
 113006446, 2.15, 10.074, 0.007, 2.5, 2.115, 9.967, 0.013, 2.5
 113206366, 2.183, 10.169, 0, 2.5, 2.15, 10.074, 0.007, 2.5
 113406286, 2.215, 10.252, -0.005, 2.5, 2.183, 10.169, 0, 2.5
 113606206, 2.245, 10.324, -0.011, 2.5, 2.215, 10.252, -0.005, 2.5
 113806126, 2.275, 10.387, -0.018, 2.5, 2.245, 10.324, -0.011, 2.5
 114006046, 2.303, 10.442, -0.024, 2.5, 2.275, 10.387, -0.018, 2.5
 114205966, 2.331, 10.491, -0.031, 2.5, 2.303, 10.442, -0.024, 2.5
 114405886, 2.359, 10.533, -0.038, 2.5, 2.331, 10.491, -0.031, 2.5
 114605806, 2.357, 10.502, -0.078, 2.5, 2.359, 10.533, -0.038, 2.5
 114806559, 2.231, 9.814, -0.137, 2.5, 2.357, 10.502, -0.078, 2.5
 115006479, 2.076, 8.922001, -0.13, 2.5, 2.231, 9.814, -0.137, 2.5
 115206399, 1.93, 8.110001, -0.139, 2.5, 2.076, 8.922001, -0.13, 2.5
 115406319, 1.796, 7.409, -0.163, 2.5, 1.93, 8.110001, -0.139, 2.5
 115606239, 1.672, 6.806, -0.196, 2.5, 1.796, 7.409, -0.163, 2.5
 115806159, 1.557, 6.283, -0.229, 2.5, 1.672, 6.806, -0.196, 2.5
 116006079, 1.451, 5.827, -0.257, 2.5, 1.557, 6.283, -0.229, 2.5
 116205999, 1.354, 5.427, -0.276, 2.5, 1.451, 5.827, -0.257, 2.5
 116405919, 1.264, 5.072, -0.285, 2.5, 1.354, 5.427, -0.276, 2.5
 116605839, 1.181, 4.755, -0.285, 2.5, 1.264, 5.072, -0.285, 2.5
 116806592, 1.104, 4.472, -0.276, 2.5, 1.181, 4.755, -0.285, 2.5
 117006512, 1.033, 4.216, -0.26, 2.5, 1.104, 4.472, -0.276, 2.5
 117206432, 0.966, 3.985, -0.24, 2.5, 1.033, 4.216, -0.26, 2.5
 117406352, 0.904, 3.774, -0.215, 2.5, 0.966, 3.985, -0.24, 2.5
 117606272, 0.846, 3.582, -0.189, 2.5, 0.904, 3.774, -0.215, 2.5
 117806192, 0.7920001, 3.406, -0.162, 2.5, 0.846, 3.582, -0.189, 2.5
 118006112, 0.7410001, 3.243, -0.134, 2.5, 0.7920001, 3.406, -0.162, 2.5
 118206032, 0.693, 3.093, -0.108, 2.5, 0.7410001, 3.243, -0.134, 2.5
 118405952, 0.648, 2.954, -0.083, 2.5, 0.693, 3.093, -0.108, 2.5
 118605872, 0.606, 2.825, -0.04, 2.5, 0.648, 2.954, -0.083, 2.5
 118805792, 0.568, 2.705, 0.125, 2.5, 0.606, 2.825, -0.04, 2.5
 119006545, 0.532, 2.592, 0.348, 2.5, 0.568, 2.705, 0.125, 2.5
 119206465, 0.499, 2.486, 0.586, 2.5, 0.532, 2.592, 0.348, 2.5
 119406385, 0.467, 2.387, 0.825, 2.5, 0.499, 2.486, 0.586, 2.5
 119606305, 0.437, 2.293, 1.057, 2.5, 0.467, 2.387, 0.825, 2.5
 119806225, 0.409, 2.204, 1.279, 2.5, 0.437, 2.293, 1.057, 2.5
 120006145, 0.382, 2.12, 1.476, 2.5, 0.409, 2.204, 1.279, 2.5
 120206065, 0.356, 2.04, 1.577, 2.5, 0.382, 2.12, 1.476, 2.5
 120405985, 0.331, 1.964, 1.61, 2.5, 0.356, 2.04, 1.577, 2.5
 120605905, 0.307, 1.891, 1.606, 2.5, 0.331, 1.964, 1.61, 2.5
 120805825, 0.284, 1.823, 1.584, 2.5, 0.307, 1.891, 1.606, 2.5
 121006578, 0.262, 1.757, 1.559, 2.5, 0.284, 1.823, 1.584, 2.5
 121206498, 0.241, 1.694, 1.539, 2.5, 0.262, 1.757, 1.559, 2.5
 121406418, 0.221, 1.633, 1.523, 2.5, 0.241, 1.694, 1.539, 2.5
 121606338, 0.202, 1.575, 1.513, 2.5, 0.221, 1.633, 1.523, 2.5
 121806258, 0.184, 1.519, 1.507, 2.5, 0.202, 1.575, 1.513, 2.5
 122006178, 0.167, 1.465, 1.505, 2.5, 0.184, 1.519, 1.507, 2.5
 122206098, 0.151, 1.414, 1.504, 2.5, 0.167, 1.465, 1.505, 2.5
 122406018, 0.135, 1.365, 1.503, 2.5, 0.151, 1.414, 1.504, 2.5
 122605938, 0.121, 1.318, 1.503, 2.5, 0.135, 1.365, 1.503, 2.5
 122805858, 0.107, 1.271, 1.503, 2.5, 0.121, 1.318, 1.503, 2.5
 123005778, 0.09200001, 1.225, 1.501, 2.5, 0.107, 1.271, 1.503, 2.5
 123206531, 0.078, 1.179, 1.5, 2.5, 0.09200001, 1.225, 1.501, 2.5
 123406451, 0.06500001, 1.135, 1.496, 2.5, 0.078, 1.179, 1.5, 2.5
 123606371, 0.053, 1.093, 1.492, 2.5, 0.06500001, 1.135, 1.496, 2.5
 123806291, 0.042, 1.052, 1.488, 2.5, 0.053, 1.093, 1.492, 2.5
 124006211, 0.031, 1.013, 1.483, 2.5, 0.042, 1.052, 1.488, 2.5
 124206131, 0.021, 0.974, 1.478, 2.5, 0.031, 1.013, 1.483, 2.5
 124406051, 0.011, 0.936, 1.475, 2.5, 0.021, 0.974, 1.478, 2.5
 124605971, 0.002, 0.899, 1.472, 2.5, 0.011, 0.936, 1.475, 2.5
 124805891, -0.006, 0.863, 1.47, 2.5, 0.002, 0.899, 1.472, 2.5
 125005811, -0.015, 0.8280001, 1.467, 2.5, -0.006, 0.863, 1.47, 2.5
 125206564, -0.024, 0.7920001, 1.464, 2.5, -0.015, 0.8280001, 1.467, 2.5
 125406484, -0.033, 0.758, 1.461, 2.5, -0.024, 0.7920001, 1.464, 2.5
 125606404, -0.041, 0.724, 1.457, 2.5, -0.033, 0.758, 1.461, 2.5
 125806324, -0.049, 0.6900001, 1.454, 2.5, -0.041, 0.724, 1.457, 2.5
 126006244, -0.056, 0.657, 1.451, 2.5, -0.049, 0.6900001, 1.454, 2.5
 126206164, -0.064, 0.625, 1.449, 2.5, -0.056, 0.657, 1.451, 2.5
 126406084, -0.071, 0.5930001, 1.446, 2.5, -0.064, 0.625, 1.449, 2.5
 126606004, -0.078, 0.561, 1.443, 2.5, -0.071, 0.5930001, 1.446, 2.5
 126805924, -0.085, 0.53, 1.441, 2.5, -0.078, 0.561, 1.443, 2.5
 127005844, -0.09100001, 0.499, 1.438, 2.5, -0.085, 0.53, 1.441, 2.5
 127205764, -0.098, 0.469, 1.436, 2.5, -0.09100001, 0.499, 1.438, 2.5
 127406517, -0.104, 0.438, 1.433, 2.5, -0.098, 0.469, 1.436, 2.5
 127606437, -0.11, 0.408, 1.429, 2.5, -0.104, 0.438, 1.433, 2.5
 127806357, -0.117, 0.378, 1.425, 2.5, -0.11, 0.408, 1.429, 2.5
 128006277, -0.122, 0.349, 1.422, 2.5, -0.117, 0.378, 1.425, 2.5
 128206197, -0.128, 0.319, 1.419, 2.5, -0.122, 0.349, 1.422, 2.5
 128406117, -0.133, 0.29, 1.417, 2.5, -0.128, 0.319, 1.419, 2.5
 128606037, -0.139, 0.262, 1.415, 2.5, -0.133, 0.29, 1.417, 2.5
 128805957, -0.144, 0.233, 1.414, 2.5, -0.139, 0.262, 1.415, 2.5
 129005877, -0.149, 0.205, 1.413, 2.5, -0.144, 0.233, 1.414, 2.5
 129205797, -0.154, 0.177, 1.411, 2.5, -0.149, 0.205, 1.413, 2.5
 129406550, -0.159, 0.15, 1.41, 2.5, -0.154, 0.177, 1.411, 2.5
 129606470, -0.164, 0.122, 1.409, 2.5, -0.159, 0.15, 1.41, 2.5
 129806390, -0.169, 0.094, 1.408, 2.5, -0.164, 0.122, 1.409, 2.5
 130006310, -0.174, 0.067, 1.407, 2.5, -0.169, 0.094, 1.408, 2.5
 130206230, -0.178, 0.04, 1.407, 2.5, -0.174, 0.067, 1.407, 2.5
 130406150, -0.183, 0.013, 1.406, 2.5, -0.178, 0.04, 1.407, 2.5
 130606070, -0.187, -0.013, 1.406, 2.5, -0.183, 0.013, 1.406, 2.5
 130805990, -0.192, -0.039, 1.407, 2.5, -0.187, -0.013, 1.406, 2.5
 131005910, -0.196, -0.06500001, 1.407, 2.5, -0.192, -0.039, 1.407, 2.5
 131205830, -0.2, -0.09100001, 1.406, 2.5, -0.196, -0.06500001, 1.407, 2.5
 131406583, -0.204, -0.117, 1.405, 2.5, -0.2, -0.09100001, 1.406, 2.5
 131606503, -0.208, -0.143, 1.405, 2.5, -0.204, -0.117, 1.405, 2.5
 131806423, -0.212, -0.168, 1.404, 2.5, -0.208, -0.143, 1.405, 2.5
 132006343, -0.215, -0.193, 1.404, 2.5, -0.212, -0.168, 1.404, 2.5
 132206263, -0.219, -0.218, 1.404, 2.5, -0.215, -0.193, 1.404, 2.5
 132406183, -0.223, -0.242, 1.404, 2.5, -0.219, -0.218, 1.404, 2.5
 132606103, -0.226, -0.266, 1.404, 2.5, -0.223, -0.242, 1.404, 2.5
 132806023, -0.23, -0.289, 1.405, 2.5, -0.226, -0.266, 1.404, 2.5
 133005943, -0.233, -0.312, 1.406, 2.5, -0.23, -0.289, 1.405, 2.5
 133205863, -0.236, -0.335, 1.406, 2.5, -0.233, -0.312, 1.406, 2.5
 133405783, -0.239, -0.357, 1.406, 2.5, -0.236, -0.335, 1.406, 2.5
 133606536, -0.242, -0.379, 1.406, 2.5, -0.239, -0.357, 1.406, 2.5
 133806456, -0.245, -0.4, 1.407, 2.5, -0.242, -0.379, 1.406, 2.5
 134006376, -0.248, -0.42, 1.409, 2.5, -0.245, -0.4, 1.407, 2.5
 134206296, -0.251, -0.44, 1.412, 2.5, -0.248, -0.42, 1.409, 2.5
 134406216, -0.254, -0.46, 1.415, 2.5, -0.251, -0.44, 1.412, 2.5
 134606136, -0.257, -0.479, 1.418, 2.5, -0.254, -0.46, 1.415, 2.5
 134806056, -0.26, -0.498, 1.42, 2.5, -0.257, -0.479, 1.418, 2.5
 135005976, -0.262, -0.517, 1.423, 2.5, -0.26, -0.498, 1.42, 2.5
 135205896, -0.264, -0.535, 1.424, 2.5, -0.262, -0.517, 1.423, 2.5
 135405816, -0.265, -0.552, 1.426, 2.5, -0.264, -0.535, 1.424, 2.5
 135606569, -0.266, -0.569, 1.427, 2.5, -0.265, -0.552, 1.426, 2.5
 135806489, -0.268, -0.5840001, 1.427, 2.5, -0.266, -0.569, 1.427, 2.5
 136006409, -0.268, -0.598, 1.427, 2.5, -0.268, -0.5840001, 1.427, 2.5
 136206329, -0.268, -0.611, 1.427, 2.5, -0.268, -0.598, 1.427, 2.5
 136406249, -0.269, -0.623, 1.426, 2.5, -0.268, -0.611, 1.427, 2.5
 136606169, -0.27, -0.6350001, 1.426, 2.5, -0.269, -0.623, 1.426, 2.5
 136806089, -0.271, -0.646, 1.426, 2.5, -0.27, -0.6350001, 1.426, 2.5
 137006009, -0.271, -0.657, 1.427, 2.5, -0.271, -0.646, 1.426, 2.5
 137205929, -0.271, -0.6670001, 1.428, 2.5, -0.271, -0.657, 1.427, 2.5
 137405849, -0.271, -0.6760001, 1.428, 2.5, -0.271, -0.6670001, 1.428, 2.5
 137605769, -0.271, -0.684, 1.428, 2.5, -0.271, -0.6760001, 1.428, 2.5
 137806522, -0.27, -0.691, 1.428, 2.5, -0.271, -0.684, 1.428, 2.5
 138006442, -0.27, -0.698, 1.411, 2.5, -0.27, -0.691, 1.428, 2.5
 138206362, -0.27, -0.705, 1.299, 2.5, -0.27, -0.698, 1.411, 2.5
 138406282, -0.27, -0.712, 1.112, 2.5, -0.27, -0.705, 1.299, 2.5
 138606202, -0.27, -0.7180001, 0.897, 2.5, -0.27, -0.712, 1.112, 2.5
 138806122, -0.269, -0.723, 0.674, 2.5, -0.27, -0.7180001, 0.897, 2.5
 139006042, -0.268, -0.7270001, 0.486, 2.5, -0.269, -0.723, 0.674, 2.5
 139205962, -0.268, -0.73, 0.391, 2.5, -0.268, -0.7270001, 0.486, 2.5
 139405882, -0.267, -0.731, 0.36, 2.5, -0.268, -0.73, 0.391, 2.5
 139605802, -0.265, -0.731, 0.363, 2.5, -0.267, -0.731, 0.36, 2.5
 139806555, -0.264, -0.731, 0.381, 2.5, -0.265, -0.731, 0.363, 2.5
 140006475, -0.262, -0.73, 0.403, 2.5, -0.264, -0.731, 0.381, 2.5
 140206395, -0.261, -0.728, 0.422, 2.5, -0.262, -0.73, 0.403, 2.5
 140406315, -0.26, -0.7270001, 0.436, 2.5, -0.261, -0.728, 0.422, 2.5
 140606235, -0.258, -0.725, 0.445, 2.5, -0.26, -0.7270001, 0.436, 2.5
 140806155, -0.257, -0.7220001, 0.449, 2.5, -0.258, -0.725, 0.445, 2.5
 141006075, -0.255, -0.7180001, 0.451, 2.5, -0.257, -0.7220001, 0.449, 2.5
 141205995, -0.253, -0.714, 0.453, 2.5, -0.255, -0.7180001, 0.451, 2.5
 141405915, -0.251, -0.71, 0.454, 2.5, -0.253, -0.714, 0.453, 2.5
 141605835, -0.249, -0.706, 0.455, 2.5, -0.251, -0.71, 0.454, 2.5
 141806588, -0.247, -0.702, 0.456, 2.5, -0.249, -0.706, 0.455, 2.5
 142006508, -0.245, -0.697, 0.458, 2.5, -0.247, -0.702, 0.456, 2.5
 142206428, -0.242, -0.693, 0.459, 2.5, -0.245, -0.697, 0.458, 2.5
 142406348, -0.239, -0.687, 0.462, 2.5, -0.242, -0.693, 0.459, 2.5
 142606268, -0.236, -0.6810001, 0.464, 2.5, -0.239, -0.687, 0.462, 2.5
 142806188, -0.234, -0.675, 0.467, 2.5, -0.236, -0.6810001, 0.464, 2.5
 143006108, -0.232, -0.668, 0.469, 2.5, -0.234, -0.675, 0.467, 2.5
 143206028, -0.23, -0.6620001, 0.472, 2.5, -0.232, -0.668, 0.469, 2.5
 143405948, -0.228, -0.655, 0.474, 2.5, -0.23, -0.6620001, 0.472, 2.5
 143605868, -0.226, -0.647, 0.477, 2.5, -0.228, -0.655, 0.474, 2.5
 143805788, -0.224, -0.6390001, 0.48, 2.5, -0.226, -0.647, 0.477, 2.5
 144006541, -0.222, -0.6300001, 0.483, 2.5, -0.224, -0.6390001, 0.48, 2.5
 144206461, -0.22, -0.6210001, 0.486, 2.5, -0.222, -0.6300001, 0.483, 2.5
 144406381, -0.219, -0.611, 0.488, 2.5, -0.22, -0.6210001, 0.486, 2.5
 144606301, -0.217, -0.6, 0.49, 2.5, -0.219, -0.611, 0.488, 2.5
 144806221, -0.215, -0.589, 0.491, 2.5, -0.217, -0.6, 0.49, 2.5
 145006141, -0.214, -0.578, 0.492, 2.5, -0.215, -0.589, 0.491, 2.5
 145206061, -0.213, -0.566, 0.493, 2.5, -0.214, -0.578, 0.492, 2.5
 145405981, -0.211, -0.555, 0.493, 2.5, -0.213, -0.566, 0.493, 2.5
 145605901, -0.209, -0.543, 0.494, 2.5, -0.211, -0.555, 0.493, 2.5
 145805821, -0.207, -0.532, 0.495, 2.5, -0.209, -0.543, 0.494, 2.5
 146006574, -0.205, -0.52, 0.495, 2.5, -0.207, -0.532, 0.495, 2.5
 146206494, -0.203, -0.509, 0.496, 2.5, -0.205, -0.52, 0.495, 2.5
 146406414, -0.201, -0.497, 0.496, 2.5, -0.203, -0.509, 0.496, 2.5
 146606334, -0.199, -0.486, 0.497, 2.5, -0.201, -0.497, 0.496, 2.5
 146806254, -0.196, -0.474, 0.496, 2.5, -0.199, -0.486, 0.497, 2.5
 147006174, -0.194, -0.462, 0.497, 2.5, -0.196, -0.474, 0.496, 2.5
 147206094, -0.192, -0.45, 0.497, 2.5, -0.194, -0.462, 0.497, 2.5
 147406014, -0.19, -0.439, 0.497, 2.5, -0.192, -0.45, 0.497, 2.5
 147605934, -0.188, -0.428, 0.497, 2.5, -0.19, -0.439, 0.497, 2.5
 147805854, -0.185, -0.417, 0.497, 2.5, -0.188, -0.428, 0.497, 2.5
 148005774, -0.184, -0.406, 0.497, 2.5, -0.185, -0.417, 0.497, 2.5
 148206527, -0.182, -0.394, 0.497, 2.5, -0.184, -0.406, 0.497, 2.5
 148406447, -0.18, -0.382, 0.497, 2.5, -0.182, -0.394, 0.497, 2.5
 148606367, -0.177, -0.37, 0.497, 2.5, -0.18, -0.382, 0.497, 2.5
 148806287, -0.175, -0.358, 0.497, 2.5, -0.177, -0.37, 0.497, 2.5
 149006207, -0.172, -0.346, 0.497, 2.5, -0.175, -0.358, 0.497, 2.5
 149206127, -0.169, -0.335, 0.498, 2.5, -0.172, -0.346, 0.497, 2.5
 149406047, -0.167, -0.325, 0.498, 2.5, -0.169, -0.335, 0.498, 2.5
 149605967, -0.165, -0.314, 0.498, 2.5, -0.167, -0.325, 0.498, 2.5
 149805887, -0.162, -0.303, 0.498, 2.5, -0.165, -0.314, 0.498, 2.5
 150005807, -0.159, -0.292, 0.498, 2.5, -0.162, -0.303, 0.498, 2.5
 150206560, -0.157, -0.282, 0.497, 2.5, -0.159, -0.292, 0.498, 2.5
 150406480, -0.155, -0.272, 0.496, 2.5, -0.157, -0.282, 0.497, 2.5
 150606400, -0.152, -0.261, 0.495, 2.5, -0.155, -0.272, 0.496, 2.5
 150806320, -0.15, -0.25, 0.494, 2.5, -0.152, -0.261, 0.495, 2.5
 151006240, -0.148, -0.24, 0.494, 2.5, -0.15, -0.25, 0.494, 2.5
 151206160, -0.146, -0.229, 0.493, 2.5, -0.148, -0.24, 0.494, 2.5
 151406080, -0.144, -0.218, 0.493, 2.5, -0.146, -0.229, 0.493, 2.5
 151606000, -0.142, -0.208, 0.493, 2.5, -0.144, -0.218, 0.493, 2.5
 151805920, -0.14, -0.197, 0.492, 2.5, -0.142, -0.208, 0.493, 2.5
 152005840, -0.138, -0.187, 0.492, 2.5, -0.14, -0.197, 0.492, 2.5
 152205760, -0.136, -0.177, 0.491, 2.5, -0.138, -0.187, 0.492, 2.5
 152406513, -0.133, -0.167, 0.491, 2.5, -0.136, -0.177, 0.491, 2.5
 152606433, -0.13, -0.157, 0.489, 2.5, -0.133, -0.167, 0.491, 2.5
 152806353, -0.127, -0.147, 0.489, 2.5, -0.13, -0.157, 0.489, 2.5
 153006273, -0.125, -0.137, 0.488, 2.5, -0.127, -0.147, 0.489, 2.5
 153206193, -0.122, -0.128, 0.487, 2.5, -0.125, -0.137, 0.488, 2.5
 153406113, -0.12, -0.119, 0.487, 2.5, -0.122, -0.128, 0.487, 2.5
 153606033, -0.118, -0.111, 0.486, 2.5, -0.12, -0.119, 0.487, 2.5
 153805953, -0.115, -0.102, 0.486, 2.5, -0.118, -0.111, 0.486, 2.5
 154005873, -0.113, -0.094, 0.486, 2.5, -0.115, -0.102, 0.486, 2.5
 154205793, -0.112, -0.085, 0.486, 2.5, -0.113, -0.094, 0.486, 2.5
 154406546, -0.111, -0.07700001, 0.485, 2.5, -0.112, -0.085, 0.486, 2.5
 154606466, -0.11, -0.068, 0.484, 2.5, -0.111, -0.07700001, 0.485, 2.5
 154806386, -0.108, -0.06, 0.484, 2.5, -0.11, -0.068, 0.484, 2.5
 155006306, -0.106, -0.053, 0.483, 2.5, -0.108, -0.06, 0.484, 2.5
 155206226, -0.105, -0.047, 0.482, 2.5, -0.106, -0.053, 0.483, 2.5
 155406146, -0.103, -0.04, 0.482, 2.5, -0.105, -0.047, 0.482, 2.5
 155606066, -0.102, -0.034, 0.482, 2.5, -0.103, -0.04, 0.482, 2.5
 155805986, -0.101, -0.027, 0.482, 2.5, -0.102, -0.034, 0.482, 2.5
 156005906, -0.09900001, -0.021, 0.482, 2.5, -0.101, -0.027, 0.482, 2.5
 156205826, -0.098, -0.016, 0.482, 2.5, -0.09900001, -0.021, 0.482, 2.5
 156406579, -0.097, -0.011, 0.482, 2.5, -0.098, -0.016, 0.482, 2.5
 156606499, -0.096, -0.006, 0.482, 2.5, -0.097, -0.011, 0.482, 2.5
 156806419, -0.09500001, -0.002, 0.48, 2.5, -0.096, -0.006, 0.482, 2.5
 157006339, -0.09500001, 0.001, 0.479, 2.5, -0.09500001, -0.002, 0.48, 2.5
 157206259, -0.094, 0.005, 0.479, 2.5, -0.09500001, 0.001, 0.479, 2.5
 157406179, -0.09200001, 0.008, 0.478, 2.5, -0.094, 0.005, 0.479, 2.5
 157606099, -0.09100001, 0.012, 0.478, 2.5, -0.09200001, 0.008, 0.478, 2.5
 157806019, -0.09, 0.015, 0.48, 2.5, -0.09100001, 0.012, 0.478, 2.5
 158005939, -0.089, 0.018, 0.479, 2.5, -0.09, 0.015, 0.48, 2.5
 158205859, -0.08800001, 0.021, 0.479, 2.5, -0.089, 0.018, 0.479, 2.5
 158405779, -0.08800001, 0.024, 0.478, 2.5, -0.08800001, 0.021, 0.479, 2.5
 158606532, -0.087, 0.028, 0.478, 2.5, -0.08800001, 0.024, 0.478, 2.5
 158806452, 0, 0, 0.002, 2.5, -0.087, 0.028, 0.478, 2.5
 159006372, 0.019, -0.006, -0.107, 2.5, 0, 0, 0.002, 2.5
 159206292, -0.002, 0, 0.012, 2.5, 0.019, -0.006, -0.107, 2.5
 159406212, -0.002, 0, 0.012, 2.5, -0.002, 0, 0.012, 2.5
 159606132, 0, 0, -0.003, 2.5, -0.002, 0, 0.012, 2.5
 159806052, 0, 0, -0.001, 2.5, 0, 0, -0.003, 2.5
 160005972, 0, 0, 0, 2.5, 0, 0, -0.001, 2.5
 160205892, 0, 0, 0, 2.5, 0, 0, 0, 2.5
 160405812, 0, 0, 0, 2.5, 0, 0, 0, 2.5
 160606565, 0, 0, 0, 2.5, 0, 0, 0, 2.5
 160806485, 0, 0, 0, 2.5, 0, 0, 0, 2.5
 161006405, 0, 0, 0, 2.5, 0, 0, 0, 2.5
 161206325, 0, 0, 0, 2.5, 0, 0, 0, 2.5
