TimeUS,COFN,COFE,CNe,CEe,POFN,POFE,PNe,PEe
 8425795, 0.001468834, 0.01468042, 0.01976104, -0.03124137, 0, 0, 0, 0
 8606556, -0.001022073, 0.002944859, 0.01981312, -0.03116922, 0.001468834, 0.01468042, 0.01976104, -0.03124137
 8806476, 0.0004596444, 0.00526663, 0.02013501, -0.03096571, -0.001022073, 0.002944859, 0.01981312, -0.03116922
 9006396, 0.0006394697, 0.005311148, 0.02068199, -0.03060322, 0.0004596444, 0.00526663, 0.02013501, -0.03096571
 9206316, -0.0007397359, 0.002987267, 0.02130869, -0.03016648, 0.0006394697, 0.005311148, 0.02068199, -0.03060322
 9406236, -0.004326323, 0.0008389795, 0.02192088, -0.02972656, -0.0007397359, 0.002987267, 0.02130869, -0.03016648
 9606156, -0.002543308, 0.000213005, 0.02247328, -0.02930859, -0.004326323, 0.0008389795, 0.02192088, -0.02972656
 9806076, -0.002156785, 0.001110284, 0.02297377, -0.02891782, -0.002543308, 0.000213005, 0.02247328, -0.02930859
 10005996, -0.002656176, 0.003653374, 0.02343054, -0.02855197, -0.002156785, 0.001110284, 0.02297377, -0.02891782
 10205916, -0.001890064, 0.003867594, 0.02385144, -0.02820092, -0.002656176, 0.003653374, 0.02343054, -0.02855197
 10405836, -0.002881273, 0.003341964, 0.02424171, -0.02786635, -0.001890064, 0.003867594, 0.02385144, -0.02820092
 10606589, -0.0009328577, 0.00546439, 0.02459672, -0.02755591, -0.002881273, 0.003341964, 0.02424171, -0.02786635
 10806509, -0.003490184, 0.01220049, 0.02492661, -0.02728592, -0.0009328577, 0.00546439, 0.02459672, -0.02755591
 11006429, 0.01944314, 0.001906276, 0.02531617, -0.02697295, -0.003490184, 0.01220049, 0.02492661, -0.02728592
 11206349, -0.0188413, -0.000875524, 0.02558569, -0.02671173, 0.01944314, 0.001906276, 0.02531617, -0.02697295
 11406269, -0.02145405, 0.01361336, 0.02586035, -0.0265102, -0.0188413, -0.000875524, 0.02558569, -0.02671173
 11606189, -0.004721944, -0.01591489, 0.02598705, -0.02630353, -0.02145405, 0.01361336, 0.02586035, -0.0265102
 11806109, 0.01934591, 0.001264693, 0.02627122, -0.02604233, -0.004721944, -0.01591489, 0.02598705, -0.02630353
 12006029, -0.009939783, -0.014195, 0.02639611, -0.02589862, 0.01934591, 0.001264693, 0.02627122, -0.02604233
 12205949, 0.01188045, -0.006682509, 0.02657219, -0.02569176, -0.009939783, -0.014195, 0.02639611, -0.02589862
 12405869, -0.01110299, 0.004114074, 0.02671868, -0.0255289, 0.01188045, -0.006682509, 0.02657219, -0.02569176
 12605789, 0.006079161, -0.02119434, 0.026836, -0.02548538, -0.01110299, 0.004114074, 0.02671868, -0.0255289
 12806542, 0.002612765, -0.02189537, 0.02695236, -0.02536231, 0.006079161, -0.02119434, 0.026836, -0.02548538
 13006462, 0.01505062, -0.01165028, 0.02710784, -0.02516715, 0.002612765, -0.02189537, 0.02695236, -0.02536231
 13206382, -0.009355704, -0.0216096, 0.02718205, -0.02513194, 0.01505062, -0.01165028, 0.02710784, -0.02516715
 13406302, 0.008553432, -0.006383772, 0.0272556, -0.02494866, -0.009355704, -0.0216096, 0.02718205, -0.02513194
 13606222, 0.01792241, -0.01782447, 0.02738466, -0.02493091, 0.008553432, -0.006383772, 0.0272556, -0.02494866
 13806142, -0.01127585, 0.01435237, 0.02741032, -0.02483048, 0.01792241, -0.01782447, 0.02738466, -0.02493091
 14006062, 0.004819213, -0.006230018, 0.02744669, -0.02472597, -0.01127585, 0.01435237, 0.02741032, -0.02483048
 14205982, -0.01546247, 0.0008794436, 0.02754714, -0.02465639, 0.004819213, -0.006230018, 0.02744669, -0.02472597
 14405902, -0.003903215, -0.005968321, 0.0275443, -0.02461451, -0.01546247, 0.0008794436, 0.02754714, -0.02465639
 14605822, 0.01836992, 0.01174175, 0.02766233, -0.0245834, -0.003903215, -0.005968321, 0.0275443, -0.02461451
 14806575, -0.001645173, 0.01417034, 0.02761829, -0.02456798, 0.01836992, 0.01174175, 0.02766233, -0.0245834
 15006495, -0.009868128, -0.01809484, 0.02767794, -0.02455375, -0.001645173, 0.01417034, 0.02761829, -0.02456798
 15206415, -0.009474901, -0.01413011, 0.02769879, -0.0244978, -0.009868128, -0.01809484, 0.02767794, -0.02455375
 15406335, -0.01177677, -0.01146675, 0.02773047, -0.0244573, -0.009474901, -0.01413011, 0.02769879, -0.0244978
 15606255, -0.0105567, -0.01336243, 0.02774369, -0.02444708, -0.01177677, -0.01146675, 0.02773047, -0.0244573
 15806175, -0.01017893, -0.01364825, 0.02775741, -0.02443146, -0.0105567, -0.01336243, 0.02774369, -0.02444708
 16006095, -0.009489801, -0.01513699, 0.0277674, -0.02442715, -0.01017893, -0.01364825, 0.02775741, -0.02443146
 16206015, -0.007628161, -0.01400673, 0.02776901, -0.02440974, -0.009489801, -0.01513699, 0.0277674, -0.02442715
 16405935, -0.01048475, -0.01025168, 0.02778704, -0.02437973, -0.007628161, -0.01400673, 0.02776901, -0.02440974
 16605855, -0.009250808, -0.01328816, 0.02778972, -0.02438803, -0.01048475, -0.01025168, 0.02778704, -0.02437973
 16805775, -0.008659119, -0.01748162, 0.02779674, -0.02440855, -0.009250808, -0.01328816, 0.02778972, -0.02438803
 17006528, -0.007333452, -0.0161743, 0.02779492, -0.02439492, -0.008659119, -0.01748162, 0.02779674, -0.02440855
 17206448, -0.01099819, -0.01763767, 0.02781386, -0.02440143, -0.007333452, -0.0161743, 0.02779492, -0.02439492
 17406368, -0.01163912, -0.01322078, 0.02781346, -0.02437255, -0.01099819, -0.01763767, 0.02781386, -0.02440143
 17606288, -0.00773882, -0.00984857, 0.02779141, -0.02436074, -0.01163912, -0.01322078, 0.02781346, -0.02437255
 17806208, -0.009559105, -0.01153374, 0.02779716, -0.02437046, -0.00773882, -0.00984857, 0.02779141, -0.02436074
 18006128, -0.008962334, -0.0164196, 0.02779421, -0.02440405, -0.009559105, -0.01153374, 0.02779716, -0.02437046
 18206048, -0.01056614, -0.01518358, 0.02779621, -0.02439991, -0.008962334, -0.0164196, 0.02779421, -0.02440405
 18405968, -0.01073528, -0.01425857, 0.02779131, -0.0243998, -0.01056614, -0.01518358, 0.02779621, -0.02439991
 18605888, -0.01150014, -0.01399245, 0.02778923, -0.02440445, -0.01073528, -0.01425857, 0.02779131, -0.0243998
 18805808, -0.01350208, -0.01357272, 0.0277939, -0.0244084, -0.01150014, -0.01399245, 0.02778923, -0.02440445
 19006561, -0.01172788, -0.009409831, 0.02777363, -0.02439768, -0.01350208, -0.01357272, 0.0277939, -0.0244084
 19206481, -0.01153416, -0.01311828, 0.02776828, -0.02442278, -0.01172788, -0.009409831, 0.02777363, -0.02439768
 19406401, -0.009222912, -0.01490215, 0.02774983, -0.02444422, -0.01153416, -0.01311828, 0.02776828, -0.02442278
 19606321, -0.009523619, -0.01528061, 0.02774277, -0.02445633, -0.009222912, -0.01490215, 0.02774983, -0.02444422
 19806241, -0.01009315, -0.01285324, 0.02773492, -0.02445152, -0.009523619, -0.01528061, 0.02774277, -0.02445633
 20006161, -0.01081663, -0.0132795, 0.02772973, -0.0244637, -0.01009315, -0.01285324, 0.02773492, -0.02445152
 20206081, -0.00999904, -0.01183833, 0.02771515, -0.02446745, -0.01081663, -0.0132795, 0.02772973, -0.0244637
 20406001, -0.01164013, -0.01471091, 0.02771612, -0.02449318, -0.00999904, -0.01183833, 0.02771515, -0.02446745
 20605921, -0.01072682, -0.01245129, 0.02770019, -0.02449159, -0.01164013, -0.01471091, 0.02771612, -0.02449318
 20805841, -0.01023564, -0.01191169, 0.02768745, -0.02450036, -0.01072682, -0.01245129, 0.02770019, -0.02449159
 21005761, -0.01041039, -0.01313438, 0.02767915, -0.02451794, -0.01023564, -0.01191169, 0.02768745, -0.02450036
 21206514, -0.01094164, -0.01408552, 0.02767286, -0.02453395, -0.01041039, -0.01313438, 0.02767915, -0.02451794
 21406434, -0.01114563, -0.01458429, 0.02766407, -0.02454837, -0.01094164, -0.01408552, 0.02767286, -0.02453395
 21606354, -0.009588086, -0.01449963, 0.02764566, -0.02456079, -0.01114563, -0.01458429, 0.02766407, -0.02454837
 21806274, -0.01280574, -0.01308588, 0.02765147, -0.02456215, -0.009588086, -0.01449963, 0.02764566, -0.02456079
 22006194, -0.01075269, -0.01236217, 0.02762917, -0.02457127, -0.01280574, -0.01308588, 0.02765147, -0.02456215
 22206114, -0.01071312, -0.01160679, 0.02761817, -0.02457911, -0.01075269, -0.01236217, 0.02762917, -0.02457127
 22406034, -0.01093425, -0.01502554, 0.0276109, -0.02461015, -0.01071312, -0.01160679, 0.02761817, -0.02457911
 22605954, -0.009950429, -0.01242996, 0.02759401, -0.02460719, -0.01093425, -0.01502554, 0.0276109, -0.02461015
 22805874, -0.01257137, -0.01348178, 0.02759814, -0.02462315, -0.009950429, -0.01242996, 0.02759401, -0.02460719
 23005794, -0.01082594, -0.01169822, 0.02757683, -0.02462657, -0.01257137, -0.01348178, 0.02759814, -0.02462315
 23206547, -0.01098778, -0.01238872, 0.02756814, -0.0246411, -0.01082594, -0.01169822, 0.02757683, -0.02462657
 23406467, -0.008455841, -0.01343309, 0.02754709, -0.02465933, -0.01098778, -0.01238872, 0.02756814, -0.0246411
 23606387, -0.009015866, -0.01147786, 0.02753795, -0.02466027, -0.008455841, -0.01343309, 0.02754709, -0.02465933
 23806307, -0.009144927, -0.01340597, 0.02752923, -0.02468198, -0.009015866, -0.01147786, 0.02753795, -0.02466027
 24006227, -0.008110662, -0.0126488, 0.02751437, -0.02468962, -0.009144927, -0.01340597, 0.02752923, -0.02468198
 24206147, -0.01172052, -0.01764954, 0.02752463, -0.02473121, -0.008110662, -0.0126488, 0.02751437, -0.02468962
 24406067, -0.01237064, -0.01259039, 0.02751486, -0.02470946, -0.01172052, -0.01764954, 0.02752463, -0.02473121
 24605987, -0.01260082, -0.01197688, 0.02750597, -0.02471715, -0.01237064, -0.01259039, 0.02751486, -0.02470946
 24805907, -0.01387003, -0.01592251, 0.02750665, -0.02475052, -0.01260082, -0.01197688, 0.02750597, -0.02471715
 25005827, -0.01141043, -0.01146127, 0.02747903, -0.02473745, -0.01387003, -0.01592251, 0.02750665, -0.02475052
 25206580, -0.01039377, -0.01217668, 0.02746454, -0.02475229, -0.01141043, -0.01146127, 0.02747903, -0.02473745
 25406500, -0.01043956, -0.01109257, 0.02745506, -0.02475706, -0.01039377, -0.01217668, 0.02746454, -0.02475229
 25606420, -0.009977384, -0.01275577, 0.02744413, -0.02477634, -0.01043956, -0.01109257, 0.02745506, -0.02475706
 25806340, -0.008831128, -0.01513293, 0.02743066, -0.02480184, -0.009977384, -0.01275577, 0.02744413, -0.02477634
 26006260, -0.008109957, -0.01355631, 0.02741748, -0.02480282, -0.008831128, -0.01513293, 0.02743066, -0.02480184
 26206180, -0.009610256, -0.01438242, 0.02741505, -0.02481727, -0.008109957, -0.01355631, 0.02741748, -0.02480282
 26406100, -0.010353, -0.01465795, 0.02740943, -0.02482888, -0.009610256, -0.01438242, 0.02741505, -0.02481727
 26606020, -0.01056295, -0.01227114, 0.02740014, -0.02482496, -0.010353, -0.01465795, 0.02740943, -0.02482888
 26805940, -0.009247312, -0.01241228, 0.02738506, -0.02483626, -0.01056295, -0.01227114, 0.02740014, -0.02482496
 27005860, -0.01087376, -0.01297606, 0.02738394, -0.02484862, -0.009247312, -0.01241228, 0.02738506, -0.02483626
 27205780, -0.008079939, -0.01246789, 0.02736222, -0.02485698, -0.01087376, -0.01297606, 0.02738394, -0.02484862
 27406533, -0.008737319, -0.01171498, 0.02735613, -0.02486199, -0.008079939, -0.01246789, 0.02736222, -0.02485698
 27606453, -0.008522343, -0.01526676, 0.02734824, -0.02489242, -0.008737319, -0.01171498, 0.02735613, -0.02486199
 27806373, -0.006095763, -0.01709737, 0.02733179, -0.02491609, -0.008522343, -0.01526676, 0.02734824, -0.02489242
 28006293, -0.009357642, -0.01502873, 0.02733459, -0.02490924, -0.006095763, -0.01709737, 0.02733179, -0.02491609
 28206213, -0.01395528, -0.01168602, 0.0273497, -0.02489687, -0.009357642, -0.01502873, 0.02733459, -0.02490924
 28406133, -0.01217192, -0.01194146, 0.02733076, -0.02490809, -0.01395528, -0.01168602, 0.0273497, -0.02489687
 28606053, -0.0106836, -0.01305287, 0.02731508, -0.02492382, -0.01217192, -0.01194146, 0.02733076, -0.02490809
 28805973, -0.008909504, -0.01398899, 0.02729925, -0.02493894, -0.0106836, -0.01305287, 0.02731508, -0.02492382
 29005893, -0.007947051, -0.01229118, 0.0272867, -0.02493835, -0.008909504, -0.01398899, 0.02729925, -0.02493894
 29205813, -0.007356319, -0.01593675, 0.02727826, -0.02496967, -0.007947051, -0.01229118, 0.0272867, -0.02493835
 29406566, -0.009766825, -0.01308765, 0.02727909, -0.02495901, -0.007356319, -0.01593675, 0.02727826, -0.02496967
 29606486, -0.009944975, -0.01648912, 0.0272742, -0.02498884, -0.009766825, -0.01308765, 0.02727909, -0.02495901
 29806406, -0.007943354, -0.01690736, 0.02725778, -0.02500162, -0.009944975, -0.01648912, 0.0272742, -0.02498884
 30006326, -0.008477653, -0.01273953, 0.02725036, -0.02498275, -0.007943354, -0.01690736, 0.02725778, -0.02500162
 30206246, -0.00799787, -0.01386595, 0.0272415, -0.0249976, -0.008477653, -0.01273953, 0.02725036, -0.02498275
 30406166, -0.008811367, -0.01270046, 0.02723692, -0.02499853, -0.00799787, -0.01386595, 0.0272415, -0.0249976
 30606086, -0.0091241, -0.0135019, 0.02723125, -0.02501095, -0.008811367, -0.01270046, 0.02723692, -0.02499853
 30806006, -0.009846242, -0.01620659, 0.02722866, -0.02503585, -0.0091241, -0.0135019, 0.02723125, -0.02501095
 31005926, -0.008873578, -0.01688952, 0.0272175, -0.02504902, -0.009846242, -0.01620659, 0.02722866, -0.02503585
 31205846, -0.009952656, -0.01477658, 0.02721449, -0.02504136, -0.008873578, -0.01688952, 0.0272175, -0.02504902
 31405766, -0.00962517, -0.01647758, 0.02720775, -0.02505964, -0.009952656, -0.01477658, 0.02721449, -0.02504136
 31606519, -0.01059039, -0.01178189, 0.02720426, -0.0250369, -0.00962517, -0.01647758, 0.02720775, -0.02505964
 31806439, -0.01340929, -0.01461386, 0.02721469, -0.02505896, -0.01059039, -0.01178189, 0.02720426, -0.0250369
 32006359, -0.009503777, -0.01313977, 0.02718619, -0.02505935, -0.01340929, -0.01461386, 0.02721469, -0.02505896
 32206279, -0.008257264, -0.01487621, 0.02717488, -0.02507781, -0.009503777, -0.01313977, 0.02718619, -0.02505935
 32406199, -0.0112356, -0.01560134, 0.02718236, -0.02508848, -0.008257264, -0.01487621, 0.02717488, -0.02507781
 32606119, -0.0104575, -0.01350946, 0.02717086, -0.02508273, -0.0112356, -0.01560134, 0.02718236, -0.02508848
 32806039, -0.0114368, -0.01317433, 0.02716921, -0.02508744, -0.0104575, -0.01350946, 0.02717086, -0.02508273
 33005959, -0.009225865, -0.01648659, 0.02715354, -0.02511669, -0.0114368, -0.01317433, 0.02716921, -0.02508744
 33205879, -0.01073155, -0.01470539, 0.02715337, -0.0251109, -0.009225865, -0.01648659, 0.02715354, -0.02511669
 33405799, -0.01189126, -0.01487331, 0.0271533, -0.02511829, -0.01073155, -0.01470539, 0.02715337, -0.0251109
 33606552, -0.009622582, -0.0146461, 0.02713571, -0.02512431, -0.01189126, -0.01487331, 0.0271533, -0.02511829
 33806472, -0.009951286, -0.01511419, 0.02713133, -0.0251338, -0.009622582, -0.0146461, 0.02713571, -0.02512431
 34006392, -0.01008128, -0.01368797, 0.02712527, -0.02513135, -0.009951286, -0.01511419, 0.02713133, -0.0251338
 34206312, -0.01168797, -0.01066114, 0.02712625, -0.02512124, -0.01008128, -0.01368797, 0.02712527, -0.02513135
 34406232, -0.011723, -0.01533301, 0.02712254, -0.02515382, -0.01168797, -0.01066114, 0.02712625, -0.02512124
 34606152, -0.01068055, -0.01465492, 0.02711095, -0.02515611, -0.011723, -0.01533301, 0.02712254, -0.02515382
 34806072, -0.009615794, -0.01291488, 0.02709934, -0.02515238, -0.01068055, -0.01465492, 0.02711095, -0.02515611
 35005992, -0.008891344, -0.01488893, 0.0270913, -0.02517072, -0.009615794, -0.01291488, 0.02709934, -0.02515238
 35205912, -0.01053153, -0.01416029, 0.02709288, -0.0251715, -0.008891344, -0.01488893, 0.0270913, -0.02517072
 35405832, -0.01082201, -0.01178994, 0.02708768, -0.0251642, -0.01053153, -0.01416029, 0.02709288, -0.0251715
 35606585, -0.00925353, -0.01344832, 0.02707548, -0.02517975, -0.01082201, -0.01178994, 0.02708768, -0.0251642
 35806505, -0.006858235, -0.01435178, 0.02706143, -0.02519171, -0.00925353, -0.01344832, 0.02707548, -0.02517975
 36006425, -0.009913578, -0.01264076, 0.02706746, -0.02518641, -0.006858235, -0.01435178, 0.02706143, -0.02519171
 36206345, -0.01342929, -0.01165849, 0.02708078, -0.02518566, -0.009913578, -0.01264076, 0.02706746, -0.02518641
 36406265, -0.01091004, -0.01039969, 0.02706087, -0.02518629, -0.01342929, -0.01165849, 0.02708078, -0.02518566
 36606185, -0.008251234, -0.01354092, 0.02704485, -0.02520914, -0.01091004, -0.01039969, 0.02706087, -0.02518629
 36806105, -0.008531857, -0.01451792, 0.02704114, -0.0252206, -0.008251234, -0.01354092, 0.02704485, -0.02520914
 37006025, -0.0106088, -0.01345931, 0.02704504, -0.02521878, -0.008531857, -0.01451792, 0.02704114, -0.0252206
 37205945, -0.01176963, -0.01481984, 0.02704673, -0.02523199, -0.0106088, -0.01345931, 0.02704504, -0.02521878
 37405865, -0.009410394, -0.01528328, 0.02703019, -0.02524132, -0.01176963, -0.01481984, 0.02704673, -0.02523199
 37605785, -0.0105371, -0.0133155, 0.02702983, -0.02523384, -0.009410394, -0.01528328, 0.02703019, -0.02524132
 37806538, -0.01127041, -0.011203, 0.02702809, -0.02522737, -0.0105371, -0.0133155, 0.02702983, -0.02523384
 38006458, -0.01096746, -0.01280061, 0.02702222, -0.02524102, -0.01127041, -0.011203, 0.02702809, -0.02522737
 38206378, -0.01313677, -0.01355968, 0.02702985, -0.02524967, -0.01096746, -0.01280061, 0.02702222, -0.02524102
 38406298, -0.009193847, -0.0129584, 0.02700442, -0.02525268, -0.01313677, -0.01355968, 0.02702985, -0.02524967
 38606218, -0.01226232, -0.01275258, 0.02701506, -0.02525539, -0.009193847, -0.0129584, 0.02700442, -0.02525268
 38806138, -0.01138538, -0.01508999, 0.02700658, -0.02527476, -0.01226232, -0.01275258, 0.02701506, -0.02525539
 39006058, -0.01043754, -0.01393245, 0.02699671, -0.02527268, -0.01138538, -0.01508999, 0.02700658, -0.02527476
 39205978, -0.01095112, -0.01509749, 0.02699528, -0.02528462, -0.01043754, -0.01393245, 0.02699671, -0.02527268
 39405898, -0.008794221, -0.01727481, 0.02698152, -0.02530578, -0.01095112, -0.01509749, 0.02699528, -0.02528462
 39605818, -0.01027604, -0.01568596, 0.02698313, -0.02529847, -0.008794221, -0.01727481, 0.02698152, -0.02530578
 39806571, -0.01250889, -0.014006, 0.02699016, -0.02529119, -0.01027604, -0.01568596, 0.02698313, -0.02529847
 40006491, -0.01218166, -0.01508979, 0.02698459, -0.02530259, -0.01250889, -0.014006, 0.02699016, -0.02529119
 40206411, -0.008092416, -0.01433823, 0.0269605, -0.02530389, -0.01218166, -0.01508979, 0.02698459, -0.02530259
 40406331, -0.01048822, -0.0150066, 0.02696699, -0.02531186, -0.008092416, -0.01433823, 0.0269605, -0.02530389
 40606251, -0.009488229, -0.01596827, 0.0269585, -0.02532317, -0.01048822, -0.0150066, 0.02696699, -0.02531186
 40806171, -0.009196625, -0.01383514, 0.02695238, -0.02531368, -0.009488229, -0.01596827, 0.0269585, -0.02532317
 41006091, -0.01214022, -0.01436396, 0.0269631, -0.02532029, -0.009196625, -0.01383514, 0.02695238, -0.02531368
 41206011, -0.008550256, -0.01544176, 0.0269421, -0.02533286, -0.01214022, -0.01436396, 0.0269631, -0.02532029
 41405931, -0.01201858, -0.01743872, 0.02695564, -0.02535021, -0.008550256, -0.01544176, 0.0269421, -0.02533286
 41605851, -0.008424755, -0.01355277, 0.02693291, -0.02532944, -0.01201858, -0.01743872, 0.02695564, -0.02535021
 41805771, -0.008601416, -0.01361691, 0.02692977, -0.02533389, -0.008424755, -0.01355277, 0.02693291, -0.02532944
 42006524, -0.007612317, -0.01593272, 0.026923, -0.02535321, -0.008601416, -0.01361691, 0.02692977, -0.02533389
 42206444, -0.009753374, -0.01256044, 0.02692675, -0.02533558, -0.007612317, -0.01593272, 0.026923, -0.02535321
 42406364, -0.009933683, -0.01118369, 0.02692324, -0.02533253, -0.009753374, -0.01256044, 0.02692675, -0.02533558
 42606284, -0.007544517, -0.01192011, 0.02690985, -0.02534103, -0.009933683, -0.01118369, 0.02692324, -0.02533253
 42806204, -0.01028055, -0.01268089, 0.02691759, -0.02534843, -0.007544517, -0.01192011, 0.02690985, -0.02534103
 43006124, -0.01081394, -0.01391053, 0.02691676, -0.02535949, -0.01028055, -0.01268089, 0.02691759, -0.02534843
 43206044, -0.01241595, -0.01043429, 0.0269204, -0.02534465, -0.01081394, -0.01391053, 0.02691676, -0.02535949
 43405964, -0.009829569, -0.01346233, 0.02690426, -0.0253652, -0.01241595, -0.01043429, 0.0269204, -0.02534465
 43605884, -0.01365134, -0.01189172, 0.02692063, -0.02535938, -0.009829569, -0.01346233, 0.02690426, -0.0253652
 43805804, -0.0139147, -0.01344106, 0.02691954, -0.0253713, -0.01365134, -0.01189172, 0.02692063, -0.02535938
 44006557, -0.01363083, -0.01531932, 0.02691526, -0.02538654, -0.0139147, -0.01344106, 0.02691954, -0.0253713
 44206477, -0.01063313, -0.01166349, 0.02689375, -0.02536968, -0.01363083, -0.01531932, 0.02691526, -0.02538654
 44406397, -0.01090297, -0.0133296, 0.026892, -0.02538252, -0.01063313, -0.01166349, 0.02689375, -0.02536968
 44606317, -0.01193709, -0.01501471, 0.02689438, -0.02539651, -0.01090297, -0.0133296, 0.026892, -0.02538252
 44806237, -0.01090701, -0.01448057, 0.02688512, -0.02539722, -0.01193709, -0.01501471, 0.02689438, -0.02539651
 45006157, -0.008361111, -0.01224783, 0.02686946, -0.02538865, -0.01090701, -0.01448057, 0.02688512, -0.02539722
 45206077, -0.008740073, -0.01062866, 0.02686699, -0.0253842, -0.008361111, -0.01224783, 0.02686946, -0.02538865
 45405997, -0.006535472, -0.01588152, 0.02685693, -0.02541923, -0.008740073, -0.01062866, 0.02686699, -0.0253842
 45605917, -0.008649145, -0.01519711, 0.02686078, -0.02541766, -0.006535472, -0.01588152, 0.02685693, -0.02541923
 45805837, -0.01096075, -0.01587048, 0.026868, -0.02542532, -0.008649145, -0.01519711, 0.02686078, -0.02541766
 46006590, -0.01337486, -0.0128518, 0.026877, -0.02540934, -0.01096075, -0.01587048, 0.026868, -0.02542532
 46206510, -0.01204634, -0.01162805, 0.02686536, -0.02540692, -0.01337486, -0.0128518, 0.026877, -0.02540934
 46406430, -0.01219579, -0.01187794, 0.02686254, -0.02541208, -0.01204634, -0.01162805, 0.02686536, -0.02540692
 46606350, -0.0144951, -0.01240888, 0.0272913, -0.0258145, -0.01219579, -0.01187794, 0.02686254, -0.02541208
 46806270, -0.01404206, -0.01472368, 0.03075393, -0.02911962, -0.0144951, -0.01240888, 0.0272913, -0.0258145
 47006190, -0.01725262, -0.02003338, 0.04032021, -0.03820664, -0.01404206, -0.01472368, 0.03075393, -0.02911962
 47206110, -0.02324178, -0.03179611, 0.05973106, -0.05664099, -0.01725262, -0.02003338, 0.04032021, -0.03820664
 47406030, -0.03536001, -0.0522876, 0.08790903, -0.0834161, -0.02324178, -0.03179611, 0.05973106, -0.05664099
 47605950, -0.0488343, -0.07462224, 0.1244156, -0.1181215, -0.03536001, -0.0522876, 0.08790903, -0.0834161
 47805870, -0.05253841, -0.09107801, 0.1637066, -0.1648762, -0.0488343, -0.07462224, 0.1244156, -0.1181215
 48005790, -0.07351118, -0.1061279, 0.2137205, -0.2148245, -0.05253841, -0.09107801, 0.1637066, -0.1648762
 48206543, -0.08444329, -0.1677862, 0.2687884, -0.2696171, -0.07351118, -0.1061279, 0.2137205, -0.2148245
 48406463, -0.09507982, -0.1984295, 0.3289078, -0.3295352, -0.08444329, -0.1677862, 0.2687884, -0.2696171
 48606383, 0.09717225, -0.33132, 0.3922305, -0.393319, -0.09507982, -0.1984295, 0.3289078, -0.3295352
 48806303, -0.2062956, 0.03392997, 0.4588727, -0.4603869, 0.09717225, -0.33132, 0.3922305, -0.393319
 49006223, -0.1462478, -0.1422852, 0.5284503, -0.5313524, -0.2062956, 0.03392997, 0.4588727, -0.4603869
 49206143, 0.152303, -0.1729795, 0.6005002, -0.6048895, -0.1462478, -0.1422852, 0.5284503, -0.5313524
 49406063, -0.172876, -0.2812768, 0.674453, -0.6794825, 0.152303, -0.1729795, 0.6005002, -0.6048895
 49605983, 0.253975, 0.3846033, 0.7507966, -0.7552081, -0.172876, -0.2812768, 0.674453, -0.6794825
 49805903, -0.05094298, -0.1752611, 0.8284432, -0.8317441, 0.253975, 0.3846033, 0.7507966, -0.7552081
 50005823, 0.4520317, 0.2359985, 0.9068483, -0.9087295, -0.05094298, -0.1752611, 0.8284432, -0.8317441
 50206576, -0.1465068, 0.4641882, 0.9854734, -0.9876127, 0.4520317, 0.2359985, 0.9068483, -0.9087295
 50406496, 0.3981203, 0.6014484, 1.064337, -1.068013, -0.1465068, 0.4641882, 0.9854734, -0.9876127
 50606416, 0.4804215, 0.09693182, 1.143247, -1.148482, 0.3981203, 0.6014484, 1.064337, -1.068013
 50806336, 0.05706692, 0.4610738, 1.220577, -1.227921, 0.4804215, 0.09693182, 1.143247, -1.148482
 51006256, -0.9179803, 0.6364275, 1.29626, -1.302768, 0.05706692, 0.4610738, 1.220577, -1.227921
 51206176, -0.538474, -0.7347869, 1.366659, -1.372002, -0.9179803, 0.6364275, 1.29626, -1.302768
 51406096, 0.6784588, 0.2027013, 1.433318, -1.436964, -0.538474, -0.7347869, 1.366659, -1.372002
 51606016, 0.5619898, -1.348533, 1.495388, -1.500813, 0.6784588, 0.2027013, 1.433318, -1.436964
 51805936, 1.131035, -1.231645, 1.55223, -1.557707, 0.5619898, -1.348533, 1.495388, -1.500813
 52005856, -0.1675565, 1.201734, 1.600787, -1.608607, 1.131035, -1.231645, 1.55223, -1.557707
 52205776, 0.2014125, -0.8591204, 1.644125, -1.652334, -0.1675565, 1.201734, 1.600787, -1.608607
 52406529, 1.360127, 0.8635023, 1.682352, -1.689655, 0.2014125, -0.8591204, 1.644125, -1.652334
 52606449, -0.8820384, -0.4594378, 1.712591, -1.72008, 1.360127, 0.8635023, 1.682352, -1.689655
 52806369, 1.102601, 0.2669703, 1.738565, -1.745705, -0.8820384, -0.4594378, 1.712591, -1.72008
 53006289, 0.005244851, -0.6417916, 1.758601, -1.766834, 1.102601, 0.2669703, 1.738565, -1.745705
 53206209, 0.5009674, -0.6409701, 1.775861, -1.783803, 0.005244851, -0.6417916, 1.758601, -1.766834
 53406129, -0.6698826, 1.01611, 1.790585, -1.799332, 0.5009674, -0.6409701, 1.775861, -1.783803
 53606049, -0.8404844, -1.217081, 1.803655, -1.813043, -0.6698826, 1.01611, 1.790585, -1.799332
 53805969, -0.6937733, 0.3659624, 1.814257, -1.823495, -0.8404844, -1.217081, 1.803655, -1.813043
 54005889, -0.5378226, -0.3374157, 1.824036, -1.833958, -0.6937733, 0.3659624, 1.814257, -1.823495
 54205809, 0.7870495, -0.3297161, 1.832464, -1.841396, -0.5378226, -0.3374157, 1.824036, -1.833958
 54406562, -0.5519129, 0.1074209, 1.839939, -1.84703, 0.7870495, -0.3297161, 1.832464, -1.841396
 54606482, 0.2876048, 1.04072, 1.844496, -1.850703, -0.5519129, 0.1074209, 1.839939, -1.84703
 54806402, 0.9956338, -1.045366, 1.849154, -1.853658, 0.2876048, 1.04072, 1.844496, -1.850703
 55006322, 1.519376, 0.3760006, 1.851463, -1.853681, 0.9956338, -1.045366, 1.849154, -1.853658
 55206242, 0.523358, -0.690248, 1.85047, -1.854412, 1.519376, 0.3760006, 1.851463, -1.853681
 55406162, 1.196442, -0.283604, 1.850002, -1.853893, 0.523358, -0.690248, 1.85047, -1.854412
 55606082, 1.367275, 1.058134, 1.848348, -1.853981, 1.196442, -0.283604, 1.850002, -1.853893
 55806002, -0.8122109, -0.562534, 1.845758, -1.852482, 1.367275, 1.058134, 1.848348, -1.853981
 56005922, -0.5987239, -0.9223766, 1.844631, -1.852326, -0.8122109, -0.562534, 1.845758, -1.852482
 56205842, 0.3511423, -1.320717, 1.842172, -1.851532, -0.5987239, -0.9223766, 1.844631, -1.852326
 56405762, -1.094446, 0.5204905, 1.841245, -1.850007, 0.3511423, -1.320717, 1.842172, -1.851532
 56606515, 0.2285355, -0.5509012, 1.839002, -1.850851, -1.094446, 0.5204905, 1.841245, -1.850007
 56806435, -0.0742838, 0.8472837, 1.837737, -1.851696, 0.2285355, -0.5509012, 1.839002, -1.850851
 57006355, -0.003623916, 0.6741472, 1.837179, -1.851306, -0.0742838, 0.8472837, 1.837737, -1.851696
 57206275, 0.152592, 0.6276624, 1.83795, -1.850002, -0.003623916, 0.6741472, 1.837179, -1.851306
 57406195, -0.01167867, 0.6590477, 1.839503, -1.848681, 0.152592, 0.6276624, 1.83795, -1.850002
 57606115, -0.1097816, 0.818302, 1.840935, -1.847576, -0.01167867, 0.6590477, 1.839503, -1.848681
 57806035, 0.1279177, 0.6197457, 1.841914, -1.846545, -0.1097816, 0.818302, 1.840935, -1.847576
 58005955, -0.0666877, 0.6246381, 1.84213, -1.846269, 0.1279177, 0.6197457, 1.841914, -1.846545
 58205875, -0.02298749, 0.7799281, 1.842064, -1.846303, -0.0666877, 0.6246381, 1.84213, -1.846269
 58405795, -0.02806778, 0.7199576, 1.841731, -1.846683, -0.02298749, 0.7799281, 1.842064, -1.846303
 58606548, -0.04276965, 0.6915573, 1.840932, -1.847538, -0.02806778, 0.7199576, 1.841731, -1.846683
 58806468, 0.1707831, 0.7482204, 1.840475, -1.848075, -0.04276965, 0.6915573, 1.840932, -1.847538
 59006388, 0.1028052, 0.7610308, 1.839846, -1.848714, 0.1707831, 0.7482204, 1.840475, -1.848075
 59206308, 0.1561501, 0.5636488, 1.839808, -1.848661, 0.1028052, 0.7610308, 1.839846, -1.848714
 59406228, -0.09671294, 0.7462131, 1.839855, -1.848767, 0.1561501, 0.5636488, 1.839808, -1.848661
 59606148, 0.2365007, 0.7064424, 1.840056, -1.848488, -0.09671294, 0.7462131, 1.839855, -1.848767
 59806068, 0.2056297, 0.7613641, 1.841572, -1.849697, 0.2365007, 0.7064424, 1.840056, -1.848488
 60005988, -0.006979221, 0.8846506, 1.84224, -1.85061, 0.2056297, 0.7613641, 1.841572, -1.849697
 60205908, 0.1597263, 0.7820166, 1.842559, -1.851203, -0.006979221, 0.8846506, 1.84224, -1.85061
 60405828, -0.09736995, 0.494139, 1.842354, -1.851293, 0.1597263, 0.7820166, 1.842559, -1.851203
 60606581, -0.1783184, 0.5560004, 1.84269, -1.8516, -0.09736995, 0.494139, 1.842354, -1.851293
 60806501, -0.2083384, 0.5399913, 1.842912, -1.851511, -0.1783184, 0.5560004, 1.84269, -1.8516
 61006421, -0.2126447, 0.700175, 1.843315, -1.850916, -0.2083384, 0.5399913, 1.842912, -1.851511
 61206341, -0.1928718, 0.8175332, 1.843967, -1.850545, -0.2126447, 0.700175, 1.843315, -1.850916
 61406261, 0.004626093, 0.8842573, 1.844427, -1.850253, -0.1928718, 0.8175332, 1.843967, -1.850545
 61606181, -0.009022952, 0.8498977, 1.844983, -1.850599, 0.004626093, 0.8842573, 1.844427, -1.850253
 61806101, 0.06618591, 0.7095345, 1.844753, -1.851484, -0.009022952, 0.8498977, 1.844983, -1.850599
 62006021, 0.114699, 0.7410033, 1.84487, -1.853254, 0.06618591, 0.7095345, 1.844753, -1.851484
 62205941, -0.1364076, 0.7496824, 1.84484, -1.854442, 0.114699, 0.7410033, 1.84487, -1.853254
 62405861, -0.09969345, 0.8086657, 1.845188, -1.854723, -0.1364076, 0.7496824, 1.84484, -1.854442
 62605781, 0.05220556, 0.7621784, 1.845575, -1.854625, -0.09969345, 0.8086657, 1.845188, -1.854723
 62806534, 0.007653377, 0.7333524, 1.846068, -1.854282, 0.05220556, 0.7621784, 1.845575, -1.854625
 63006454, 0.1357291, 0.7743479, 1.846551, -1.854029, 0.007653377, 0.7333524, 1.846068, -1.854282
 63206374, 0.0191449, 0.8570483, 1.846908, -1.853869, 0.1357291, 0.7743479, 1.846551, -1.854029
 63406294, 0.07943645, 0.8254927, 1.846595, -1.854166, 0.0191449, 0.8570483, 1.846908, -1.853869
 63606214, 0.04945508, 0.8911643, 1.84737, -1.855832, 0.07943645, 0.8254927, 1.846595, -1.854166
 63806134, -0.2298805, 0.8306932, 1.847471, -1.856672, 0.04945508, 0.8911643, 1.84737, -1.855832
 64006054, 0.00834959, 0.6813589, 1.847216, -1.857415, -0.2298805, 0.8306932, 1.847471, -1.856672
 64205974, -0.01718581, 0.8931299, 1.846872, -1.858427, 0.00834959, 0.6813589, 1.847216, -1.857415
 64405894, 0.2036685, 0.7921407, 1.846645, -1.85883, -0.01718581, 0.8931299, 1.846872, -1.858427
 64605814, 0.2430356, 0.621143, 1.846604, -1.858759, 0.2036685, 0.7921407, 1.846645, -1.85883
 64806567, 0.08956633, 0.4472468, 1.846401, -1.858873, 0.2430356, 0.621143, 1.846604, -1.858759
 65006487, 0.324495, 0.5964084, 1.846812, -1.858697, 0.08956633, 0.4472468, 1.846401, -1.858873
 65206407, 0.06244905, 0.6388671, 1.847412, -1.858234, 0.324495, 0.5964084, 1.846812, -1.858697
 65406327, 0.1089845, 0.6105856, 1.84786, -1.858037, 0.06244905, 0.6388671, 1.847412, -1.858234
 65606247, 0.1211296, 0.7242707, 1.847871, -1.857847, 0.1089845, 0.6105856, 1.84786, -1.858037
 65806167, 0.02077326, 0.6341361, 1.848103, -1.858003, 0.1211296, 0.7242707, 1.847871, -1.857847
 66006087, 0.1673483, 0.6243308, 1.849001, -1.85946, 0.02077326, 0.6341361, 1.848103, -1.858003
 66206007, 0.1659084, 0.6344555, 1.849175, -1.860576, 0.1673483, 0.6243308, 1.849001, -1.85946
 66405927, -0.050554, 0.6843621, 1.849202, -1.861566, 0.1659084, 0.6344555, 1.849175, -1.860576
 66605847, 0.1082133, 0.8126175, 1.849172, -1.86223, -0.050554, 0.6843621, 1.849202, -1.861566
 66805767, 0.09257458, 0.6591345, 1.849527, -1.861745, 0.1082133, 0.8126175, 1.849172, -1.86223
 67006520, 0.2296972, 0.6671687, 1.85072, -1.86092, 0.09257458, 0.6591345, 1.849527, -1.861745
 67206440, 0.07089081, 0.8826007, 1.851831, -1.859807, 0.2296972, 0.6671687, 1.85072, -1.86092
 67406360, 0.1384711, 0.9364245, 1.852303, -1.859496, 0.07089081, 0.8826007, 1.851831, -1.859807
 67606280, -0.03553018, 0.6271932, 1.85227, -1.859194, 0.1384711, 0.9364245, 1.852303, -1.859496
 67806200, 0.006639222, 0.7641196, 1.852409, -1.859229, -0.03553018, 0.6271932, 1.85227, -1.859194
 68006120, -0.02696084, 0.7184574, 1.852713, -1.8589, 0.006639222, 0.7641196, 1.852409, -1.859229
 68206040, 0.07708322, 0.7772166, 1.85294, -1.858763, -0.02696084, 0.7184574, 1.852713, -1.8589
 68405960, 0.2589591, 0.8975935, 1.852948, -1.858935, 0.07708322, 0.7772166, 1.85294, -1.858763
 68605880, 0.3805805, 0.8668352, 1.852703, -1.859299, 0.2589591, 0.8975935, 1.852948, -1.858935
 68805800, -0.07525317, 0.8023471, 1.852313, -1.859434, 0.3805805, 0.8668352, 1.852703, -1.859299
 69006553, 0.03939988, 0.8542488, 1.852316, -1.85958, -0.07525317, 0.8023471, 1.852313, -1.859434
 69206473, 0.1174435, 0.471843, 1.852118, -1.859374, 0.03939988, 0.8542488, 1.852316, -1.85958
 69406393, -0.03359212, 0.458655, 1.851621, -1.859828, 0.1174435, 0.471843, 1.852118, -1.859374
 69606313, 0.2646754, 0.6928686, 1.852056, -1.860426, -0.03359212, 0.458655, 1.851621, -1.859828
 69806233, 0.2002613, 0.7472144, 1.853478, -1.861331, 0.2646754, 0.6928686, 1.852056, -1.860426
 70006153, -0.04070709, 0.8653395, 1.854687, -1.86176, 0.2002613, 0.7472144, 1.853478, -1.861331
 70206073, 0.01018605, 0.9383556, 1.855296, -1.861786, -0.04070709, 0.8653395, 1.854687, -1.86176
 70405993, 0.1143516, 0.7251133, 1.855546, -1.86164, 0.01018605, 0.9383556, 1.855296, -1.861786
 70605913, -0.03459972, 0.6967235, 1.855354, -1.861901, 0.1143516, 0.7251133, 1.855546, -1.86164
 70805833, -0.0105749, 1.010005, 1.855143, -1.862684, -0.03459972, 0.6967235, 1.855354, -1.861901
 71006586, 0.1606948, 0.8955159, 1.855417, -1.862581, -0.0105749, 1.010005, 1.855143, -1.862684
 71206506, 0.1220792, 0.7613753, 1.855543, -1.86228, 0.1606948, 0.8955159, 1.855417, -1.862581
 71406426, 0.1104714, 0.6723823, 1.855017, -1.862712, 0.1220792, 0.7613753, 1.855543, -1.86228
 71606346, 0.05959614, 0.8090429, 1.85474, -1.862708, 0.1104714, 0.6723823, 1.855017, -1.862712
 71806266, 0.08818989, 0.7183128, 1.854701, -1.862838, 0.05959614, 0.8090429, 1.85474, -1.862708
 72006186, 0.1576415, 0.6795213, 1.854705, -1.863032, 0.08818989, 0.7183128, 1.854701, -1.862838
 72206106, -0.02884056, 0.7814275, 1.854662, -1.863286, 0.1576415, 0.6795213, 1.854705, -1.863032
 72406026, 0.01483697, 0.451358, 1.854551, -1.862852, -0.02884056, 0.7814275, 1.854662, -1.863286
 72605946, 0.2452743, 0.7796765, 1.854658, -1.863363, 0.01483697, 0.451358, 1.854551, -1.862852
 72805866, 0.1699949, 0.941808, 1.854825, -1.862939, 0.2452743, 0.7796765, 1.854658, -1.863363
 73005786, 0.1476127, 0.7982503, 1.854363, -1.863065, 0.1699949, 0.941808, 1.854825, -1.862939
 73206539, 0.2032882, 0.8166969, 1.854218, -1.863316, 0.1476127, 0.7982503, 1.854363, -1.863065
 73406459, 0.1703432, 0.8000527, 1.85464, -1.862993, 0.2032882, 0.8166969, 1.854218, -1.863316
 73606379, 0.2856837, 0.7841017, 1.854547, -1.863203, 0.1703432, 0.8000527, 1.85464, -1.862993
 73806299, 0.2859174, 0.7840316, 1.854035, -1.863775, 0.2856837, 0.7841017, 1.854547, -1.863203
 74006219, 0.2857535, 0.784098, 1.854443, -1.863396, 0.2859174, 0.7840316, 1.854035, -1.863775
 74206139, 0.2856067, 0.7841509, 1.854791, -1.863049, 0.2857535, 0.784098, 1.854443, -1.863396
 74406059, 0.285756, 0.7840943, 1.854429, -1.863399, 0.2856067, 0.7841509, 1.854791, -1.863049
 74605979, 0.2857758, 0.7840838, 1.854373, -1.863441, 0.285756, 0.7840943, 1.854429, -1.863399
 74805899, 0.2857532, 0.7840886, 1.854417, -1.863383, 0.2857758, 0.7840838, 1.854373, -1.863441
 75005819, 0.2857438, 0.7840902, 1.854434, -1.863358, 0.2857532, 0.7840886, 1.854417, -1.863383
 75206572, 0.2857193, 0.7840981, 1.85449, -1.863299, 0.2857438, 0.7840902, 1.854434, -1.863358
 75406492, 0.2857112, 0.7841008, 1.854508, -1.86328, 0.2857193, 0.7840981, 1.85449, -1.863299
 75606412, 0.2857234, 0.7840968, 1.85448, -1.863309, 0.2857112, 0.7841008, 1.854508, -1.86328
 75806332, 0.2857398, 0.7840914, 1.854443, -1.863349, 0.2857234, 0.7840968, 1.85448, -1.863309
 76006252, 0.2857192, 0.7840997, 1.854494, -1.863301, 0.2857398, 0.7840914, 1.854443, -1.863349
 76206172, 0.2857105, 0.7841029, 1.854515, -1.86328, 0.2857192, 0.7840997, 1.854494, -1.863301
 76406092, 0.28574, 0.7840923, 1.854445, -1.863351, 0.2857105, 0.7841029, 1.854515, -1.86328
 76606012, 0.2857138, 0.7841018, 1.854507, -1.863289, 0.28574, 0.7840923, 1.854445, -1.863351
 76805932, 0.2857646, 0.7840832, 1.854386, -1.863408, 0.2857138, 0.7841018, 1.854507, -1.863289
 77005852, 0.2858114, 0.7840656, 1.854273, -1.863518, 0.2857646, 0.7840832, 1.854386, -1.863408
 77205772, 0.2858046, 0.7840679, 1.854289, -1.863502, 0.2858114, 0.7840656, 1.854273, -1.863518
 77406525, 0.2857461, 0.7840889, 1.854427, -1.863363, 0.2858046, 0.7840679, 1.854289, -1.863502
 77606445, 0.2857037, 0.7841041, 1.854527, -1.863263, 0.2857461, 0.7840889, 1.854427, -1.863363
 77806365, 0.2856689, 0.7841164, 1.854609, -1.86318, 0.2857037, 0.7841041, 1.854527, -1.863263
 78006285, 0.285629, 0.7841305, 1.854703, -1.863085, 0.2856689, 0.7841164, 1.854609, -1.86318
 78206205, 0.2856322, 0.7841289, 1.854694, -1.863092, 0.285629, 0.7841305, 1.854703, -1.863085
 78406125, 0.2856871, 0.7841088, 1.854563, -1.863222, 0.2856322, 0.7841289, 1.854694, -1.863092
 78606045, 0.2857358, 0.7840905, 1.854446, -1.863336, 0.2856871, 0.7841088, 1.854563, -1.863222
 78805965, 0.2857575, 0.7840822, 1.854393, -1.863387, 0.2857358, 0.7840905, 1.854446, -1.863336
 79005885, 0.2857938, 0.784068, 1.854304, -1.863471, 0.2857575, 0.7840822, 1.854393, -1.863387
 79205805, 0.2858079, 0.784063, 1.854271, -1.863505, 0.2857938, 0.784068, 1.854304, -1.863471
 79406558, 0.2857709, 0.7840754, 1.854355, -1.863416, 0.2858079, 0.784063, 1.854271, -1.863505
 79606478, 0.2856874, 0.7841054, 1.854553, -1.863218, 0.2857709, 0.7840754, 1.854355, -1.863416
 79806398, 0.2856093, 0.7841325, 1.854735, -1.863032, 0.2856874, 0.7841054, 1.854553, -1.863218
 80006318, 0.2856516, 0.7841165, 1.854632, -1.863131, 0.2856093, 0.7841325, 1.854735, -1.863032
 80206238, 0.2857542, 0.7840783, 1.854386, -1.863372, 0.2856516, 0.7841165, 1.854632, -1.863131
 80406158, 0.2856933, 0.7840991, 1.854527, -1.863226, 0.2857542, 0.7840783, 1.854386, -1.863372
 80606078, 0.2856854, 0.7841005, 1.854542, -1.863206, 0.2856933, 0.7840991, 1.854527, -1.863226
 80805998, 0.285758, 0.7840726, 1.854365, -1.863376, 0.2856854, 0.7841005, 1.854542, -1.863206
 81005918, 0.2858126, 0.7840515, 1.854232, -1.863503, 0.285758, 0.7840726, 1.854365, -1.863376
 81205838, 0.2858559, 0.7840325, 1.85412, -1.863601, 0.2858126, 0.7840515, 1.854232, -1.863503
 81406591, 0.2857324, 0.7840757, 1.854408, -1.863307, 0.2858559, 0.7840325, 1.85412, -1.863601
 81606511, 0.2855714, 0.7841319, 1.854784, -1.862923, 0.2857324, 0.7840757, 1.854408, -1.863307
 81806431, 0.2855716, 0.7841276, 1.854771, -1.862918, 0.2855714, 0.7841319, 1.854784, -1.862923
 82006351, 0.2858028, 0.7840343, 1.854196, -1.863452, 0.2855716, 0.7841276, 1.854771, -1.862918
 82206271, 0.2858883, 0.7840027, 1.853992, -1.863654, 0.2858028, 0.7840343, 1.854196, -1.863452
 82406191, 0.2857618, 0.7840504, 1.854296, -1.863357, 0.2858883, 0.7840027, 1.853992, -1.863654
 82606111, 0.2856017, 0.7841058, 1.854668, -1.862974, 0.2857618, 0.7840504, 1.854296, -1.863357
 82806031, 0.285637, 0.7840882, 1.854571, -1.863051, 0.2856017, 0.7841058, 1.854668, -1.862974
 83005951, 0.285665, 0.7840723, 1.854488, -1.86311, 0.285637, 0.7840882, 1.854571, -1.863051
 83205871, 0.2856342, 0.7840803, 1.854552, -1.863033, 0.285665, 0.7840723, 1.854488, -1.86311
 83405791, 0.2856386, 0.7840704, 1.854518, -1.863032, 0.2856342, 0.7840803, 1.854552, -1.863033
 83606544, 0.2856964, 0.7840446, 1.854367, -1.863162, 0.2856386, 0.7840704, 1.854518, -1.863032
 83806464, 0.2856736, 0.7840431, 1.854393, -1.863095, 0.2856964, 0.7840446, 1.854367, -1.863162
 84006384, 0.2855642, 0.7840752, 1.854632, -1.862826, 0.2856736, 0.7840431, 1.854393, -1.863095
 84206304, 0.2855703, 0.7840652, 1.854595, -1.86283, 0.2855642, 0.7840752, 1.854632, -1.862826
 84406224, 0.2857007, 0.7840059, 1.854252, -1.863123, 0.2855703, 0.7840652, 1.854595, -1.86283
 84606144, 0.2858737, 0.7842997, 1.854858, -1.864009, 0.2857007, 0.7840059, 1.854252, -1.863123
 84806064, 0.2860339, 0.7847069, 1.855805, -1.86501, 0.2858737, 0.7842997, 1.854858, -1.864009
 85005984, 0.2861189, 0.7849291, 1.856325, -1.86555, 0.2860339, 0.7847069, 1.855805, -1.86501
 85205904, 0.2861773, 0.78505, 1.856592, -1.865878, 0.2861189, 0.7849291, 1.856325, -1.86555
 85405824, 0.2862136, 0.7851062, 1.856704, -1.866057, 0.2861773, 0.78505, 1.856592, -1.865878
 85606577, 0.2861991, 0.7851192, 1.85676, -1.866033, 0.2862136, 0.7851062, 1.856704, -1.866057
 85806497, 0.2862217, 0.7851348, 1.856775, -1.866118, 0.2861991, 0.7851192, 1.85676, -1.866033
 86006417, 0.2863201, 0.7851076, 1.856565, -1.866362, 0.2862217, 0.7851348, 1.856775, -1.866118
 86206337, 0.2863751, 0.7850834, 1.856423, -1.866487, 0.2863201, 0.7851076, 1.856565, -1.866362
 86406257, 0.2863795, 0.7850652, 1.856365, -1.866475, 0.2863751, 0.7850834, 1.856423, -1.866487
 86606177, 0.2863764, 0.7850514, 1.85633, -1.866447, 0.2863795, 0.7850652, 1.856365, -1.866475
 86806097, 0.2865966, 0.7853141, 1.856785, -1.867427, 0.2863764, 0.7850514, 1.85633, -1.866447
 87006017, 0.2868924, 0.785659, 1.857373, -1.868731, 0.2865966, 0.7853141, 1.856785, -1.867427
 87205937, 0.2871285, 0.7858169, 1.857508, -1.869616, 0.2868924, 0.785659, 1.857373, -1.868731
 87405857, 0.2873011, 0.7858741, 1.85744, -1.870185, 0.2871285, 0.7858169, 1.857508, -1.869616
 87605777, 0.2873707, 0.7859048, 1.857435, -1.870424, 0.2873011, 0.7858741, 1.85744, -1.870185
 87806530, 0.2873243, 0.7859392, 1.857595, -1.870338, 0.2873707, 0.7859048, 1.857435, -1.870424
 88006450, 0.287333, 0.7864517, 1.859046, -1.871048, 0.2873243, 0.7859392, 1.857595, -1.870338
 88206370, 0.2871081, 0.786928, 1.860704, -1.871043, 0.287333, 0.7864517, 1.859046, -1.871048
 88406290, 0.2866421, 0.787301, 1.862391, -1.870212, 0.2871081, 0.786928, 1.860704, -1.871043
 88606210, 0.2863655, 0.7874986, 1.863325, -1.869687, 0.2866421, 0.787301, 1.862391, -1.870212
 88806130, 0.2866255, 0.7879478, 1.864259, -1.87103, 0.2863655, 0.7874986, 1.863325, -1.869687
 89006050, 0.2869343, 0.7882473, 1.8647, -1.872311, 0.2866255, 0.7879478, 1.864259, -1.87103
 89205970, 0.2871658, 0.78837, 1.86474, -1.873135, 0.2869343, 0.7882473, 1.8647, -1.872311
 89405890, 0.2873411, 0.7884201, 1.864649, -1.873702, 0.2871658, 0.78837, 1.86474, -1.873135
 89605810, 0.2876607, 0.7889342, 1.865688, -1.8753, 0.2873411, 0.7884201, 1.864649, -1.873702
 89806563, 0.2878126, 0.7892275, 1.866322, -1.876126, 0.2876607, 0.7889342, 1.865688, -1.8753
 90006483, 0.2879182, 0.7895647, 1.867142, -1.876878, 0.2878126, 0.7892275, 1.866322, -1.876126
 90206403, 1.118893, -0.002796889, 1.869214, -1.877739, 0.2879182, 0.7895647, 1.867142, -1.876878
 90406323, 1.119511, -0.002902925, 1.870073, -1.878952, 1.118893, -0.002796889, 1.869214, -1.877739
 90606243, 1.120263, -0.003218001, 1.870806, -1.880739, 1.119511, -0.002902925, 1.870073, -1.878952
 90806163, 1.120634, -0.003660518, 1.870686, -1.8821, 1.120263, -0.003218001, 1.870806, -1.880739
 91006083, 1.121606, -0.004028738, 1.871698, -1.884344, 1.120634, -0.003660518, 1.870686, -1.8821
 91206003, 1.122515, -0.004127867, 1.873056, -1.886033, 1.121606, -0.004028738, 1.871698, -1.884344
 91405923, 1.123418, -0.003747612, 1.875206, -1.886908, 1.122515, -0.004127867, 1.873056, -1.886033
 91605843, 1.124527, -0.00309584, 1.878155, -1.887671, 1.123418, -0.003747612, 1.875206, -1.886908
 91805763, 1.125768, -0.00282571, 1.880687, -1.889297, 1.124527, -0.00309584, 1.878155, -1.887671
 92006516, 1.126796, -0.003132934, 1.881895, -1.891532, 1.125768, -0.00282571, 1.880687, -1.889297
 92206436, 1.12816, -0.003774167, 1.883108, -1.89489, 1.126796, -0.003132934, 1.881895, -1.891532
 92406356, 1.129115, -0.004067604, 1.884216, -1.896979, 1.12816, -0.003774167, 1.883108, -1.89489
 92606276, 1.130738, -0.003952384, 1.887128, -1.899503, 1.129115, -0.004067604, 1.884216, -1.896979
 92806196, 1.132614, -0.003864505, 1.89042, -1.902498, 1.130738, -0.003952384, 1.887128, -1.899503
 93006116, 1.134405, -0.004062297, 1.89309, -1.905826, 1.132614, -0.003864505, 1.89042, -1.902498
 93206036, 1.136321, -0.004287869, 1.895924, -1.909412, 1.134405, -0.004062297, 1.89309, -1.905826
 93405956, 1.138393, -0.004558975, 1.898941, -1.913334, 1.136321, -0.004287869, 1.895924, -1.909412
 93605876, 1.140644, -0.004949674, 1.902059, -1.917756, 1.138393, -0.004558975, 1.898941, -1.913334
 93805796, 1.142946, -0.005286897, 1.905353, -1.922176, 1.140644, -0.004949674, 1.902059, -1.917756
 94006549, 1.145304, -0.005535254, 1.908889, -1.926538, 1.142946, -0.005286897, 1.905353, -1.922176
 94206469, 1.147627, -0.005776118, 1.912379, -1.930831, 1.145304, -0.005535254, 1.908889, -1.926538
 94406389, 1.150154, -0.006025429, 1.916196, -1.935478, 1.147627, -0.005776118, 1.912379, -1.930831
 94606309, 1.152945, -0.006284795, 1.92044, -1.940585, 1.150154, -0.006025429, 1.916196, -1.935478
 94806229, 1.155895, -0.006655316, 1.924764, -1.946145, 1.152945, -0.006284795, 1.92044, -1.940585
 95006149, 1.159197, -0.007014196, 1.929697, -1.952273, 1.155895, -0.006655316, 1.924764, -1.946145
 95206069, 1.162451, -0.007374857, 1.934547, -1.958324, 1.159197, -0.007014196, 1.929697, -1.952273
 95405989, 1.166123, -0.007786261, 1.940012, -1.96516, 1.162451, -0.007374857, 1.934547, -1.958324
 95605909, 1.169945, -0.008272924, 1.945603, -1.972374, 1.166123, -0.007786261, 1.940012, -1.96516
 95805829, 1.173658, -0.008884126, 1.950802, -1.979613, 1.169945, -0.008272924, 1.945603, -1.972374
 96006582, 1.177863, -0.009331053, 1.957101, -1.9874, 1.173658, -0.008884126, 1.950802, -1.979613
 96206502, 1.182252, -0.009641644, 1.963937, -1.995268, 1.177863, -0.009331053, 1.957101, -1.9874
 96406422, 1.18671, -0.01010081, 1.970641, -2.0035, 1.182252, -0.009641644, 1.963937, -1.995268
 96606342, 1.190268, -0.01033062, 1.976218, -2.009841, 1.18671, -0.01010081, 1.970641, -2.0035
 96806262, 1.194857, -0.01085803, 1.983026, -2.018406, 1.190268, -0.01033062, 1.976218, -2.009841
 97006182, 1.199988, -0.01157396, 1.99043, -2.028196, 1.194857, -0.01085803, 1.983026, -2.018406
 97206102, 1.205629, -0.01230508, 1.99866, -2.038863, 1.199988, -0.01157396, 1.99043, -2.028196
 97406022, 1.211287, -0.01294623, 2.00707, -2.049408, 1.205629, -0.01230508, 1.99866, -2.038863
 97605942, 1.21751, -0.01350208, 2.01657, -2.060757, 1.211287, -0.01294623, 2.00707, -2.049408
 97805862, 1.223095, -0.01373328, 2.025544, -2.070494, 1.21751, -0.01350208, 2.01657, -2.060757
 98005782, 1.22905, -0.01411884, 2.03488, -2.081109, 1.223095, -0.01373328, 2.025544, -2.070494
 98206535, 1.235143, -0.0146048, 2.044279, -2.092123, 1.22905, -0.01411884, 2.03488, -2.081109
 98406455, 1.241575, -0.01542619, 2.053684, -2.104265, 1.235143, -0.0146048, 2.044279, -2.092123
 98606375, 1.247851, -0.01603695, 2.063181, -2.115794, 1.241575, -0.01542619, 2.053684, -2.104265
 98806295, 1.254675, -0.0168511, 2.073256, -2.128582, 1.247851, -0.01603695, 2.063181, -2.115794
 99006215, 1.261689, -0.01756882, 2.083812, -2.141526, 1.254675, -0.0168511, 2.073256, -2.128582
 99206135, 1.268875, -0.01836364, 2.094527, -2.154888, 1.261689, -0.01756882, 2.083812, -2.141526
 99406055, 1.276357, -0.01906479, 2.105894, -2.168586, 1.268875, -0.01836364, 2.094527, -2.154888
 99605975, 1.283713, -0.01924638, 2.117919, -2.181204, 1.276357, -0.01906479, 2.105894, -2.168586
 99805895, 1.291953, -0.01970741, 2.130961, -2.195771, 1.283713, -0.01924638, 2.117919, -2.181204
 100005815, 1.299501, -0.02009015, 2.142971, -2.209048, 1.291953, -0.01970741, 2.130961, -2.195771
 100206568, 1.307221, -0.02073524, 2.154831, -2.223052, 1.299501, -0.02009015, 2.142971, -2.209048
 100406488, 1.310081, -0.02097487, 2.159224, -2.228241, 1.307221, -0.02073524, 2.154831, -2.223052
 100606408, 1.313949, -0.02117413, 2.165373, -2.235051, 1.310081, -0.02097487, 2.159224, -2.228241
 100806328, 1.317132, -0.02151743, 2.170129, -2.240953, 1.313949, -0.02117413, 2.165373, -2.235051
 101006248, 1.320016, -0.02171978, 2.174623, -2.24612, 1.317132, -0.02151743, 2.170129, -2.240953
 101206168, 1.32359, -0.02175336, 2.180555, -2.25216, 1.320016, -0.02171978, 2.174623, -2.24612
 101406088, 1.327179, -0.02160636, 2.186815, -2.257922, 1.32359, -0.02175336, 2.180555, -2.25216
 101606008, 1.331226, -0.02148542, 2.193799, -2.264494, 1.327179, -0.02160636, 2.186815, -2.257922
 101805928, 1.335511, -0.02154253, 2.200882, -2.271762, 1.331226, -0.02148542, 2.193799, -2.264494
 102005848, 1.339685, -0.02142276, 2.208078, -2.27855, 1.335511, -0.02154253, 2.200882, -2.271762
 102205768, 1.344064, -0.0212326, 2.215734, -2.285562, 1.339685, -0.02142276, 2.208078, -2.27855
 102406521, 1.339869, -0.01794712, 2.214194, -2.273036, 1.344064, -0.0212326, 2.215734, -2.285562
 102606441, 1.201715, -0.006845288, 2.001156, -2.023166, 1.339869, -0.01794712, 2.214194, -2.273036
 102806361, 1.184202, -0.01916917, 1.95118, -2.014489, 1.201715, -0.006845288, 2.001156, -2.023166
 103006281, 1.179491, -0.02877667, 1.927207, -2.022693, 1.184202, -0.01916917, 1.95118, -2.014489
 103206201, 1.177768, -0.03116898, 1.920317, -2.023815, 1.179491, -0.02877667, 1.927207, -2.022693
 103406121, 1.178102, -0.02816147, 1.925911, -2.019337, 1.177768, -0.03116898, 1.920317, -2.023815
 103606041, 1.179518, -0.02332207, 1.936385, -2.013603, 1.178102, -0.02816147, 1.925911, -2.019337
 103805961, 1.181516, -0.01945863, 1.946199, -2.010476, 1.179518, -0.02332207, 1.936385, -2.013603
 104005881, 1.1841, -0.01784788, 1.953225, -2.012105, 1.181516, -0.01945863, 1.946199, -2.010476
 104205801, 1.18647, -0.01823767, 1.956542, -2.016726, 1.1841, -0.01784788, 1.953225, -2.012105
 104406554, 1.188841, -0.01939133, 1.958582, -2.022626, 1.18647, -0.01823767, 1.956542, -2.016726
 104606474, 1.191365, -0.02034664, 1.961211, -2.028452, 1.188841, -0.01939133, 1.958582, -2.022626
 104806394, 1.193728, -0.02062974, 1.964695, -2.032881, 1.191365, -0.02034664, 1.961211, -2.028452
 105006314, 1.196083, -0.02036444, 1.969084, -2.03638, 1.193728, -0.02062974, 1.964695, -2.032881
 105206234, 1.198501, -0.01968327, 1.974274, -2.039287, 1.196083, -0.02036444, 1.969084, -2.03638
 105406154, 1.200456, -0.01909917, 1.978526, -2.041581, 1.198501, -0.01968327, 1.974274, -2.039287
 105606074, 1.202367, -0.0188351, 1.982168, -2.044337, 1.200456, -0.01909917, 1.978526, -2.041581
 105805994, 1.204082, -0.01838876, 1.985788, -2.04646, 1.202367, -0.0188351, 1.982168, -2.044337
 106005914, 1.205553, -0.01815755, 1.988639, -2.048537, 1.204082, -0.01838876, 1.985788, -2.04646
 106205834, 1.206608, -0.0184039, 1.989994, -2.050716, 1.205553, -0.01815755, 1.988639, -2.048537
 106406587, 1.207951, -0.01895673, 1.991317, -2.053889, 1.206608, -0.0184039, 1.989994, -2.050716
 106606507, 1.208636, -0.01906532, 1.992282, -2.055217, 1.207951, -0.01895673, 1.991317, -2.053889
 106806427, 1.208985, -0.01863503, 1.993587, -2.055081, 1.208636, -0.01906532, 1.992282, -2.055217
 107006347, 1.208505, -0.01807224, 1.993726, -2.053335, 1.208985, -0.01863503, 1.993587, -2.055081
 107206267, 1.206898, -0.01762236, 1.991786, -2.049891, 1.208505, -0.01807224, 1.993726, -2.053335
 107406187, 1.204098, -0.01739513, 1.987478, -2.044824, 1.206898, -0.01762236, 1.991786, -2.049891
 107606107, 1.200231, -0.01745928, 1.980893, -2.038457, 1.204098, -0.01739513, 1.987478, -2.044824
 107806027, 1.194883, -0.01751267, 1.971848, -2.029595, 1.200231, -0.01745928, 1.980893, -2.038457
 108005947, 1.187767, -0.01737764, 1.960155, -2.017456, 1.194883, -0.01751267, 1.971848, -2.029595
 108205867, 1.179854, -0.01719085, 1.947216, -2.003897, 1.187767, -0.01737764, 1.960155, -2.017456
 108405787, 1.171169, -0.01704946, 1.932907, -1.989121, 1.179854, -0.01719085, 1.947216, -2.003897
 108606540, 1.162148, -0.01692806, 1.918002, -1.973817, 1.171169, -0.01704946, 1.932907, -1.989121
 108806460, 1.152881, -0.01675354, 1.902773, -1.958011, 1.162148, -0.01692806, 1.918002, -1.973817
 109006380, 1.14347, -0.01620441, 1.887931, -1.941337, 1.152881, -0.01675354, 1.902773, -1.958011
 109206300, 1.13428, -0.01586358, 1.873111, -1.925382, 1.14347, -0.01620441, 1.887931, -1.941337
 109406220, 1.125138, -0.01592386, 1.857697, -1.910178, 1.13428, -0.01586358, 1.873111, -1.925382
 109606140, 1.116137, -0.01621608, 1.842134, -1.8956, 1.125138, -0.01592386, 1.857697, -1.910178
 109806060, 1.107041, -0.01632681, 1.826715, -1.880559, 1.116137, -0.01621608, 1.842134, -1.8956
 110005980, 1.09797, -0.01621189, 1.811714, -1.86518, 1.107041, -0.01632681, 1.826715, -1.880559
 110205900, 1.088844, -0.01611236, 1.796598, -1.849738, 1.09797, -0.01621189, 1.811714, -1.86518
 110405820, 1.079961, -0.01603163, 1.781856, -1.834732, 1.088844, -0.01611236, 1.796598, -1.849738
 110606573, 1.071095, -0.01601015, 1.767043, -1.819854, 1.079961, -0.01603163, 1.781856, -1.834732
 110806493, 1.062155, -0.01603835, 1.752023, -1.804936, 1.071095, -0.01601015, 1.767043, -1.819854
 111006413, 1.053253, -0.01606634, 1.737066, -1.790079, 1.062155, -0.01603835, 1.752023, -1.804936
 111206333, 1.044165, -0.0156478, 1.722546, -1.774165, 1.053253, -0.01606634, 1.737066, -1.790079
 111406253, 1.035379, -0.01523399, 1.708525, -1.758765, 1.044165, -0.0156478, 1.722546, -1.774165
 111606173, 1.026493, -0.01524739, 1.693621, -1.743912, 1.035379, -0.01523399, 1.708525, -1.758765
 111806093, 1.017598, -0.01528149, 1.678666, -1.729078, 1.026493, -0.01524739, 1.693621, -1.743912
 112006013, 1.008869, -0.01517344, 1.664227, -1.714284, 1.017598, -0.01528149, 1.678666, -1.729078
 112205933, 1.000038, -0.01490584, 1.649885, -1.699053, 1.008869, -0.01517344, 1.664227, -1.714284
 112405853, 0.9910765, -0.01509573, 1.634559, -1.684369, 1.000038, -0.01490584, 1.649885, -1.699053
 112605773, 0.9821216, -0.01519704, 1.619392, -1.669548, 0.9910765, -0.01509573, 1.634559, -1.684369
 112806526, 0.9732259, -0.01497097, 1.604872, -1.654278, 0.9821216, -0.01519704, 1.619392, -1.669548
 113006446, 0.964526, -0.01480048, 1.590587, -1.639429, 0.9732259, -0.01497097, 1.604872, -1.654278
 113206366, 0.9557976, -0.0147023, 1.576133, -1.624653, 0.964526, -0.01480048, 1.590587, -1.639429
 113406286, 0.9469713, -0.01464842, 1.561441, -1.609787, 0.9557976, -0.0147023, 1.576133, -1.624653
 113606206, 0.9381506, -0.01453487, 1.546859, -1.594831, 0.9469713, -0.01464842, 1.561441, -1.609787
 113806126, 0.9292728, -0.01436605, 1.532273, -1.579686, 0.9381506, -0.01453487, 1.546859, -1.594831
 114006046, 0.9205893, -0.01445387, 1.517583, -1.565297, 0.9292728, -0.01436605, 1.532273, -1.579686
 114205966, 0.9118217, -0.01419393, 1.503334, -1.550184, 0.9205893, -0.01445387, 1.517583, -1.565297
 114405886, 0.9031565, -0.01400645, 1.489136, -1.535365, 0.9118217, -0.01419393, 1.503334, -1.550184
 114605806, 0.8946102, -0.0140249, 1.474792, -1.521089, 0.9031565, -0.01400645, 1.489136, -1.535365
 114806559, 0.8858428, -0.014087, 1.460004, -1.506516, 0.8946102, -0.0140249, 1.474792, -1.521089
 115006479, 0.8770874, -0.01406408, 1.445379, -1.491821, 0.8858428, -0.014087, 1.460004, -1.506516
 115206399, 0.8683687, -0.01392689, 1.431007, -1.476996, 0.8770874, -0.01406408, 1.445379, -1.491821
 115406319, 0.8598287, -0.01372793, 1.417037, -1.462366, 0.8683687, -0.01392689, 1.431007, -1.476996
 115606239, 0.8512588, -0.01351403, 1.403043, -1.447662, 0.8598287, -0.01372793, 1.417037, -1.462366
 115806159, 0.8425121, -0.0133667, 1.388641, -1.432773, 0.8512588, -0.01351403, 1.403043, -1.447662
 116006079, 0.8339272, -0.01326728, 1.374429, -1.418235, 0.8425121, -0.0133667, 1.388641, -1.432773
 116205999, 0.8253995, -0.01320309, 1.360255, -1.403852, 0.8339272, -0.01326728, 1.374429, -1.418235
 116405919, 0.8169117, -0.01310197, 1.346209, -1.389474, 0.8253995, -0.01320309, 1.360255, -1.403852
 116605839, 0.8082467, -0.01298074, 1.3319, -1.374766, 0.8169117, -0.01310197, 1.346209, -1.389474
 116806592, 0.79986, -0.0128481, 1.318076, -1.360504, 0.8082467, -0.01298074, 1.3319, -1.374766
 117006512, 0.7912167, -0.0127382, 1.303785, -1.34585, 0.79986, -0.0128481, 1.318076, -1.360504
 117206432, 0.7826737, -0.01264715, 1.289629, -1.331397, 0.7912167, -0.0127382, 1.303785, -1.34585
 117406352, 0.7741315, -0.01253229, 1.275515, -1.316905, 0.7826737, -0.01264715, 1.289629, -1.331397
 117606272, 0.7657005, -0.01237122, 1.261665, -1.302521, 0.7741315, -0.01253229, 1.275515, -1.316905
 117806192, 0.7572435, -0.01220229, 1.247784, -1.288081, 0.7657005, -0.01237122, 1.261665, -1.302521
 118006112, 0.7486099, -0.01203856, 1.233599, -1.273354, 0.7572435, -0.01220229, 1.247784, -1.288081
 118206032, 0.7399778, -0.0121987, 1.218874, -1.259172, 0.7486099, -0.01203856, 1.233599, -1.273354
 118405952, 0.7314591, -0.01211483, 1.204748, -1.244771, 0.7399778, -0.0121987, 1.218874, -1.259172
 118605872, 0.7232245, -0.01168339, 1.191679, -1.230263, 0.7314591, -0.01211483, 1.204748, -1.244771
 118805792, 0.7147372, -0.01146413, 1.177832, -1.215688, 0.7232245, -0.01168339, 1.191679, -1.230263
 119006545, 0.7062206, -0.01155851, 1.16341, -1.201589, 0.7147372, -0.01146413, 1.177832, -1.215688
 119206465, 0.6976508, -0.01165757, 1.148892, -1.187409, 0.7062206, -0.01155851, 1.16341, -1.201589
 119406385, 0.6891488, -0.01174664, 1.134504, -1.173326, 0.6976508, -0.01165757, 1.148892, -1.187409
 119606305, 0.6807303, -0.01159671, 1.120656, -1.158982, 0.6891488, -0.01174664, 1.134504, -1.173326
 119806225, 0.6721658, -0.01102444, 1.10727, -1.143686, 0.6807303, -0.01159671, 1.120656, -1.158982
 120006145, 0.6635925, -0.01053399, 1.093733, -1.128513, 0.6721658, -0.01102444, 1.10727, -1.143686
 120206065, 0.6550469, -0.01053268, 1.079423, -1.114205, 0.6635925, -0.01053399, 1.093733, -1.128513
 120405985, 0.646467, -0.01087582, 1.06448, -1.100417, 0.6550469, -0.01053268, 1.079423, -1.114205
 120605905, 0.6378336, -0.0110284, 1.049765, -1.08622, 0.646467, -0.01087582, 1.06448, -1.100417
 120805825, 0.6292818, -0.01106592, 1.03538, -1.071967, 0.6378336, -0.0110284, 1.049765, -1.08622
 121006578, 0.6208209, -0.01109442, 1.021162, -1.057851, 0.6292818, -0.01106592, 1.03538, -1.071967
 121206498, 0.6123806, -0.01103105, 1.007133, -1.043615, 0.6208209, -0.01109442, 1.021162, -1.057851
 121406418, 0.6036779, -0.01071965, 0.993079, -1.028525, 0.6123806, -0.01103105, 1.007133, -1.043615
 121606338, 0.5950789, -0.01026442, 0.9794397, -1.013368, 0.6036779, -0.01071965, 0.993079, -1.028525
 121806258, 0.5866074, -0.009785001, 0.9660545, -0.9983834, 0.5950789, -0.01026442, 0.9794397, -1.013368
 122006178, 0.5780118, -0.009325049, 0.9524288, -0.9832238, 0.5866074, -0.009785001, 0.9660545, -0.9983834
 122206098, 0.5694237, -0.008895964, 0.9387642, -0.9681286, 0.5780118, -0.009325049, 0.9524288, -0.9832238
 122406018, 0.5609427, -0.008573459, 0.9251002, -0.953391, 0.5694237, -0.008895964, 0.9387642, -0.9681286
 122605938, 0.5523637, -0.008513733, 0.9108323, -0.9389296, 0.5609427, -0.008573459, 0.9251002, -0.953391
 122805858, 0.5437064, -0.008487982, 0.8963765, -0.9243938, 0.5523637, -0.008513733, 0.9108323, -0.9389296
 123005778, 0.5351418, -0.008455066, 0.8820878, -0.9100013, 0.5437064, -0.008487982, 0.8963765, -0.9243938
 123206531, 0.5266715, -0.00849738, 0.8678312, -0.8958927, 0.5351418, -0.008455066, 0.8820878, -0.9100013
 123406451, 0.5159347, -0.00856449, 0.8497372, -0.8780315, 0.5266715, -0.00849738, 0.8678312, -0.8958927
 123606371, 0.5072565, -0.008636301, 0.835083, -0.8636242, 0.5159347, -0.00856449, 0.8497372, -0.8780315
 123806291, 0.4986384, -0.008665621, 0.8206005, -0.8492463, 0.5072565, -0.008636301, 0.835083, -0.8636242
 124006211, 0.4901243, -0.008555811, 0.8065253, -0.8348097, 0.4986384, -0.008665621, 0.8206005, -0.8492463
 124206131, 0.4817497, -0.008327274, 0.7928823, -0.8204076, 0.4901243, -0.008555811, 0.8065253, -0.8348097
 124406051, 0.4731294, -0.008009595, 0.7789772, -0.805445, 0.4817497, -0.008327274, 0.7928823, -0.8204076
 124605971, 0.4646095, -0.007524332, 0.7655206, -0.7903697, 0.4731294, -0.008009595, 0.7789772, -0.805445
 124805891, 0.4558776, -0.007248109, 0.751359, -0.7752897, 0.4646095, -0.007524332, 0.7655206, -0.7903697
 125005811, 0.4474464, -0.007126183, 0.7374429, -0.7609715, 0.4558776, -0.007248109, 0.751359, -0.7752897
