TimeUS,CAN,CAE,CAD,CAe,NAN,NAE,NAD,NAe,m10,m00,Gye
 8425795, 0.01136754, 0.0003521068, -0.05493043, 1.567772, 0.0002801927, -0.001124613, -0.07689019, 1.566978, -0.9757831, -0.2187405, 11.72367
 8606556, 0.0004653825, -0.000890829, -0.07887181, 1.60108, -0.0001053945, 9.190226E-05, -0.001018357, 0.03363385, -0.9814997, -0.1914634, 28204.04
 8806476, 0.0001526288, 1.658939E-05, -0.003313043, 0.07129171, 8.807565E-05, 8.436442E-05, -0.001067009, 0.03718013, -0.9869645, -0.160938, 43.18072
 9006396, 5.226103E-05, 0.0002111727, -0.00309779, 0.07482506, 0.000116906, 5.071903E-05, -0.001133804, 0.03718013, -0.990826, -0.1351437, 44.76286
 9206316, 0.0005031109, 0.0001864772, -0.003193448, 0.07482506, 0.0003678887, 8.2218E-05, -0.0008983558, 0.03718013, -0.9935443, -0.1134446, 44.76286
 9406236, 0.0005420728, 0.0003032014, -0.003284474, 0.07482506, -3.343616E-05, 0.0005853602, -0.001335766, 0.03718013, -0.9954585, -0.09519687, 44.76286
 9606156, 0.0001312213, 0.0008702832, -0.003551504, 0.07482506, -0.0001152051, 0.0004466574, -0.0010094, 0.03718013, -0.9968081, -0.07983479, 44.76286
 9806076, 5.263524E-05, 0.000377942, -0.003474504, 0.07483085, -0.0001722829, 0.0001099787, -0.001350016, 0.03719873, -0.9977587, -0.06691508, 44.76818
 10005996, -0.0001037189, 0.0002400373, -0.003611882, 0.07486238, 3.640034E-05, -0.000185404, -0.0009554735, 0.03719873, -0.9984273, -0.0560624, 44.78527
 10205916, 8.293641E-05, -2.691506E-05, -0.003034302, 0.07486238, 0.0002475821, 0.0002614036, -0.0009464041, 0.03719873, -0.9988958, -0.04697924, 44.78527
 10405836, 0.0004009313, 0.0004642816, -0.003147727, 0.07486238, 0.0004971712, 1.742695E-07, -0.001453383, 0.03719873, -0.999225, -0.03936258, 44.78527
 10606589, 0.0007124525, 0.0002679877, -0.003627812, 0.07501738, 4.992101E-05, -0.000181214, -0.001026505, 0.03735372, -0.9994572, -0.0329418, 43.19506
 10806509, 0.0002143866, 8.024039E-05, -0.003433048, 0.07501159, 0.0002959419, 0.0001425361, -0.00127683, 0.03718014, -0.9996195, -0.02758489, 44.8735
 11006429, 0.000402274, 0.0004013733, -0.003603744, 0.07482506, -0.000110588, 0.0001023422, -0.001170498, 0.03718014, -0.9997336, -0.02308024, 44.76286
 11206349, 0.0001281963, 0.0001565158, -0.003352269, 0.07482506, 0.0002471704, 0.0001468803, -0.001289152, 0.03718014, -0.9998137, -0.01930197, 44.76286
 11406269, 0.0006466609, 0.0002571243, -0.003499218, 0.07482506, 0.0007056731, -0.0001980052, -0.001373446, 0.03718014, -0.9998698, -0.01613139, 44.76286
 11606189, 0.0008814077, -0.0001023157, -0.003605867, 0.07482506, 0.0002685707, 2.200547E-05, -0.001246641, 0.03718014, -0.9999092, -0.01347738, 44.76286
 11806109, 0.0007648391, 0.0004360591, -0.003483331, 0.07482506, 0.0002325424, 0.0004736943, -0.001172951, 0.03718014, -0.9999366, -0.01125279, 44.76286
 12006029, 0.0006231914, 0.0008420207, -0.00330473, 0.07482506, 8.441087E-05, 0.0001814903, -0.001405026, 0.03718014, -0.9999559, -0.009397981, 44.76286
 12205949, 0.0004669423, 0.0005310419, -0.003733362, 0.07482506, 0.0002268599, 3.172009E-05, -0.0009188384, 0.03718014, -0.9999693, -0.007837355, 44.76286
 12405869, 0.0005707584, 0.00026182, -0.003047529, 0.07482506, -0.0001682003, 0.000236069, -0.001125913, 0.03718014, -0.9999789, -0.006499079, 44.76286
 12605789, 0.0001451683, 0.0005954994, -0.003379921, 0.07482506, 0.0003876385, 7.538E-05, -0.0008679469, 0.03718014, -0.9999863, -0.005251723, 44.76286
 12806542, 0.0008105272, 0.0001631803, -0.003020172, 0.07498554, 0.0002294454, -1.453093E-05, -0.001121595, 0.03735372, -0.9999912, -0.004203362, 44.85975
 13006462, 0.0005984776, -1.904193E-05, -0.003290223, 0.07501738, 0.0003140419, -0.0001349918, -0.001639623, 0.03719873, -0.9999945, -0.003337318, 44.87799
 13206382, 0.000625449, 0.000264302, -0.003655956, 0.07486238, 3.809598E-05, 0.0001331003, -0.001090912, 0.03719873, -0.9999965, -0.002628197, 44.78527
 13406302, 3.576167E-05, 0.0003033827, -0.003271178, 0.07486238, -0.0001554833, 0.0002642378, -0.00119937, 0.03719873, -0.9999979, -0.002042319, 44.78527
 13606222, -3.620963E-05, 0.0007375128, -0.003216675, 0.07486238, -9.250687E-05, 0.0002738802, -0.001055044, 0.03719873, -0.9999988, -0.001544292, 44.78527
 13806142, 0.0002866502, 0.0006540554, -0.003267542, 0.07485683, 0.0005481223, 0.0002013227, -0.001206357, 0.03718014, -0.9999994, -0.001115899, 44.78107
 14006062, 0.0009291701, 0.0004710962, -0.00325474, 0.07482506, 2.546396E-05, 0.0001844161, -0.001150745, 0.03718014, -0.9999998, -0.0007448239, 44.76286
 14205982, 0.0003315968, 0.0002959724, -0.003409654, 0.07482506, 2.933769E-05, -0.0001078892, -0.00127615, 0.03718014, -0.9999999, -0.0004276571, 44.76286
 14405902, 0.0004143098, 0.0001984321, -0.003377521, 0.07482506, -4.842255E-05, 0.000205967, -0.001191329, 0.03718014, -1, -0.000162959, 44.76286
 14605822, -4.227813E-05, 0.0003002167, -0.003419831, 0.07482506, 7.952865E-05, -1.534786E-05, -0.001146852, 0.03718014, -1, 5.774075E-05, 44.76286
 14806575, 0.0002899414, 0.0001966047, -0.003301312, 0.07498562, 0.0002453736, -3.794531E-05, -0.001226106, 0.03735372, -1, 0.0002462029, 44.85975
 15006495, 0.0005315608, 7.423061E-05, -0.003490733, 0.07501738, 0.0002984325, -3.197269E-05, -0.001049418, 0.03719873, -0.9999999, 0.0003988513, 44.87799
 15206415, 0.0003147924, 0.0002240375, -0.003445995, 0.07486238, 0.0001085602, 0.0003893249, -0.001273013, 0.03719873, -0.9999999, 0.0005139707, 44.78527
 15406335, 0.0003454663, 0.000799865, -0.003354484, 0.07486238, 0.000333152, -1.129607E-05, -0.0009245176, 0.03719873, -0.9999999, 0.0005968719, 44.78527
 15606255, 0.0004353459, 0.0004031418, -0.002988982, 0.07486238, 0.0002408119, 0.0001085836, -0.0008051654, 0.03719873, -0.9999998, 0.0006542532, 44.78527
 15806175, 0.0005083146, 0.0005019779, -0.002940749, 0.07485683, 0.0002137036, 0.0001671457, -0.001402499, 0.03718014, -0.9999998, 0.0007011264, 44.78107
 16006095, 0.0004759173, 0.0005343875, -0.003274767, 0.07482506, 0.0001123353, 0.0002637647, -0.001076699, 0.03718014, -0.9999998, 0.0007479471, 44.76286
 16206015, 0.0003844604, 0.0005046764, -0.003657165, 0.07482506, 0.0001212451, 5.81687E-05, -0.001575886, 0.03718014, -0.9999996, 0.0007880292, 44.76286
 16405935, 0.0003692169, 0.0004024758, -0.003746707, 0.07482506, 0.0002670289, 1.45131E-05, -0.001301402, 0.03718014, -0.9999996, 0.0008229357, 44.76286
 16605855, 0.0004012337, 0.0002281388, -0.003484115, 0.07482506, -8.266417E-05, 0.000124061, -0.001250935, 0.03718014, -0.9999996, 0.0008573325, 44.76286
 16805775, 0.0002981247, 0.0007869707, -0.003245867, 0.07482506, 0.0002832909, 0.0004537048, -0.0009446537, 0.03718014, -0.9999996, 0.0008903495, 44.76286
 17006528, 0.000661766, 0.0008448507, -0.003079935, 0.07497998, 0.0005163376, 0.0003682422, -0.001423629, 0.03733505, -0.9999996, 0.0009195436, 44.85553
 17206448, 0.0008105674, 0.0006191021, -0.003518992, 0.07497998, 6.107269E-05, -0.0001027306, -0.0008103084, 0.03718014, -0.9999995, 0.0009556332, 44.85553
 17406368, 0.0006698247, 1.082214E-05, -0.003182785, 0.07482506, 0.0004045739, -6.638966E-05, -0.001400893, 0.03718014, -0.9999995, 0.0009926322, 44.76286
 17606288, 0.0008508277, 0.0002412355, -0.003732138, 0.07482506, 0.0006103707, 0.0002420132, -0.001308211, 0.03718014, -0.9999995, 0.00102251, 44.76286
 17806208, 0.0007191725, 0.000659028, -0.003416051, 0.07483039, 0.000113127, 0.0002914048, -0.001087771, 0.03719873, -0.9999995, 0.001042175, 44.76678
 18006128, 0.0002559898, 0.0005315491, -0.003405297, 0.07486238, 0.0001798129, -0.0001556013, -0.001437612, 0.03719873, -0.9999995, 0.001058535, 44.78527
 18206048, 0.0004556709, 0.0002725318, -0.003480032, 0.07486238, 0.000147494, 0.0003445468, -0.001194018, 0.03719873, -0.9999994, 0.00106099, 44.78527
 18405968, 0.0006767873, 0.0009734423, -0.003347478, 0.07486238, 6.093727E-05, 0.0006086956, -0.000921609, 0.03719873, -0.9999994, 0.00104129, 44.78527
 18605888, 0.000409278, 0.001406714, -0.002959919, 0.07486238, 0.000195562, 0.0001901164, -0.00138291, 0.03719873, -0.9999995, 0.001004742, 44.78527
 18805808, 0.0005926372, 0.0009181021, -0.003505065, 0.07485706, 0.0003465708, 0.0003181109, -0.001252823, 0.03718014, -0.9999995, 0.0009889487, 44.78135
 19006561, 0.0008966654, 0.000683351, -0.003241016, 0.07497998, 0.0006665385, 9.056439E-05, -0.001212298, 0.03733505, -0.9999995, 0.001003108, 44.85553
 19206481, 0.001051981, 0.0005073251, -0.003385386, 0.07497998, 6.902724E-05, 0.0005595773, -0.0009688482, 0.03718014, -0.9999995, 0.001020817, 44.85553
 19406401, 0.0003800043, 0.0007295155, -0.003281909, 0.07482506, 0.0001836462, 0.0002933033, -0.001303809, 0.03718014, -0.9999995, 0.0010334, 44.76286
 19606321, 0.0004297792, 0.0006982348, -0.003472204, 0.07482506, -0.0001948605, 0.0006199525, -0.001340219, 0.03718014, -0.9999995, 0.001040635, 44.76286
 19806241, 0.0001825838, 0.0008155527, -0.00376965, 0.07483039, 0.000250736, 0.0002260647, -0.001036544, 0.03719873, -0.9999994, 0.001038826, 44.76678
 20006161, 0.0005870929, 0.0004627644, -0.003198085, 0.07486238, -0.0001312332, 0.0004106775, -0.001340061, 0.03719873, -0.9999994, 0.001039519, 44.78527
 20206081, 0.0003109698, 0.001010516, -0.003443941, 0.07486238, 1.044778E-05, 0.0003886699, -0.0008396711, 0.03719873, -0.9999994, 0.001035334, 44.78527
 20406001, 0.0002349678, 0.0009160521, -0.003066175, 0.07486238, 0.0002608317, 0.0002949278, -0.001157495, 0.03719873, -0.9999994, 0.001022566, 44.78527
 20605921, 0.0005885873, 0.0008888828, -0.003187925, 0.07486238, 0.0001197546, 0.0002241219, -0.001147432, 0.03719873, -0.9999995, 0.001008189, 44.78527
 20805841, 0.0003579087, 0.0006235765, -0.003222814, 0.07485729, -0.0002329477, 0.0003565222, -0.001367497, 0.03718014, -0.9999995, 0.001009426, 44.78163
 21005761, 0.0002116845, 0.0006122376, -0.003482174, 0.07482506, 0.0002591765, -5.231618E-05, -0.001048676, 0.03718014, -0.9999995, 0.00102511, 44.76286
 21206514, 0.0007542126, 0.0001703298, -0.003019683, 0.07497998, 0.0004874153, 0.0003142946, -0.001131755, 0.03733505, -0.9999995, 0.001040431, 44.85553
 21406434, 0.001010424, 0.0009614163, -0.003340373, 0.07497998, 0.0005835527, 0.0002944592, -0.0009297584, 0.03718014, -0.9999994, 0.001034823, 44.85553
 21606354, 0.001091442, 0.0007957506, -0.003055856, 0.07482506, 0.0002730738, 0.0002554067, -0.0009953855, 0.03718014, -0.9999994, 0.001030316, 44.76286
 21806274, 0.0006393003, 0.0008982531, -0.003160861, 0.07482506, 0.0004184576, 0.0001344703, -0.001268048, 0.03718014, -0.9999994, 0.001043113, 44.76286
 22006194, 0.0009081842, 0.0004150371, -0.003289777, 0.07482506, 0.0001188373, 0.0001109267, -0.0009940723, 0.03718014, -0.9999994, 0.001064567, 44.76286
 22206114, 0.0006846374, 0.0006393504, -0.003430417, 0.07482506, 0.0003962349, 0.0002952365, -0.001245226, 0.03718014, -0.9999994, 0.001084416, 44.76286
 22406034, 0.0008464984, 0.0006822122, -0.003395627, 0.07482506, 0.000398567, 0.0006236103, -0.001374392, 0.03718014, -0.9999993, 0.001234876, 44.76286
 22605954, 0.0008969046, 0.001167585, -0.003616513, 0.07482506, 0.0003107574, 0.0004331303, -0.001035013, 0.03718014, -0.999999, 0.001411744, 44.76286
 22805874, 0.00113277, 0.0009406514, -0.003263367, 0.07483016, 0.0006161331, -2.714242E-05, -0.001226807, 0.03719873, -0.9999987, 0.001578239, 44.7665
 23005794, 0.001259226, 0.0008158197, -0.003750171, 0.07486238, 0.0002972364, 0.0002877461, -0.001267468, 0.03719873, -0.9999985, 0.001739922, 44.78527
 23206547, 0.001231001, 0.001136617, -0.003460628, 0.07501738, 0.0005485329, 0.0004268111, -0.001047561, 0.03735372, -0.9999982, 0.001898242, 44.87799
 23406467, 0.001353205, 0.00118778, -0.003133287, 0.07501738, 0.0004140198, 0.0004026853, -0.001265858, 0.03719873, -0.9999979, 0.002051129, 44.87799
 23606387, 0.001211423, 0.001188901, -0.003424931, 0.07486238, 0.0003739243, 0.0002337308, -0.001211801, 0.03719873, -0.9999975, 0.002200424, 44.78527
 23806307, 0.001348806, 0.001165401, -0.003293114, 0.07485729, 0.0005449326, 0.0005789797, -0.0009987805, 0.03718014, -0.9999971, 0.00234453, 44.78163
 24006227, 0.001749014, 0.00176583, -0.003176724, 0.07482506, 0.0007314585, 0.0006929276, -0.001421694, 0.03718014, -0.9999968, 0.0024856, 44.76286
 24206147, 0.001910332, 0.00162104, -0.0034547, 0.07482506, 0.000628954, 0.0006976874, -0.001102341, 0.03718014, -0.9999964, 0.00262208, 44.76286
 24406067, 0.001941173, 0.001951155, -0.003325575, 0.07482506, 0.0007505413, 0.000531201, -0.001112853, 0.03718014, -0.9999961, 0.002755019, 44.76286
 24605987, 0.001890208, 0.001879004, -0.003366481, 0.07482506, 0.0006227911, 0.0006891292, -0.00133198, 0.03718014, -0.9999957, 0.002885084, 44.76286
 24805907, 0.00210806, 0.002114644, -0.003491405, 0.07482993, 0.00095971, 0.001093612, -0.001195607, 0.03719873, -0.9999954, 0.003010433, 44.76622
 25005827, 0.002311019, 0.002825289, -0.003422588, 0.07486238, 0.000487603, 0.0009938388, -0.001085533, 0.03719873, -0.9999949, 0.003132051, 44.78527
 25206580, 0.00229338, 0.002682155, -0.003267018, 0.07501738, 0.0009539665, 0.0008324851, -0.001070267, 0.03735372, -0.9999945, 0.003251815, 44.87799
 25406500, 0.002841892, 0.002416638, -0.003098007, 0.07501738, 0.0009967816, 0.0008925172, -0.001035539, 0.03719873, -0.999994, 0.003367682, 44.87799
 25606420, 0.002726467, 0.002699098, -0.003322542, 0.07486238, 0.0008354341, 0.001151515, -0.001359096, 0.03719873, -0.9999937, 0.00348062, 44.78527
 25806340, 0.00245925, 0.003151918, -0.003575476, 0.07485752, 0.0006899321, 0.0009993237, -0.001041915, 0.03718014, -0.9999932, 0.003591739, 44.78191
 26006260, 0.002560616, 0.002759136, -0.003344081, 0.07482506, 0.001023843, 0.001027491, -0.001014755, 0.03718014, -0.9999928, 0.003699449, 44.76286
 26206180, 0.002962223, 0.00301118, -0.003262154, 0.07482506, 0.001356252, 0.001003051, -0.001298562, 0.03718014, -0.9999924, 0.003805609, 44.76286
 26406100, 0.003405347, 0.002933331, -0.003414768, 0.07482506, 0.001079948, 0.001544031, -0.0009293748, 0.03718014, -0.999992, 0.003907031, 44.76286
 26606020, 0.003208686, 0.003593907, -0.003147992, 0.07482506, 0.001023283, 0.001140958, -0.0009425778, 0.03718014, -0.9999915, 0.004005427, 44.76286
 26805940, 0.003301403, 0.003178864, -0.00316228, 0.07482506, 0.00130286, 0.001286117, -0.001116092, 0.03718014, -0.9999911, 0.004102241, 44.76286
 27005860, 0.003648689, 0.003317129, -0.003298784, 0.07482506, 0.001198897, 0.001238128, -0.001256579, 0.03718014, -0.9999907, 0.004195524, 44.76286
 27205780, 0.003316596, 0.003376144, -0.003577087, 0.07482506, 0.0009917096, 0.0007429227, -0.001435207, 0.03718014, -0.9999903, 0.004287119, 44.76286
 27406533, 0.003214094, 0.003031349, -0.003601428, 0.07497998, 0.001364323, 0.001161871, -0.001028894, 0.03733505, -0.9999899, 0.004377414, 44.85553
 27606453, 0.003640375, 0.00365066, -0.003077052, 0.07497998, 0.001508218, 0.001782124, -0.000938761, 0.03718014, -0.9999895, 0.004451449, 44.85553
 27806373, 0.003904354, 0.00426848, -0.003100917, 0.07482993, 0.00114629, 0.001358045, -0.001262257, 0.03719873, -0.9999893, 0.004496224, 44.76622
 28006293, 0.003512416, 0.003790342, -0.00345896, 0.07486238, 0.001262052, 0.001324168, -0.001172957, 0.03719873, -0.999989, 0.004540402, 44.78527
 28206213, 0.00370764, 0.003847867, -0.003293814, 0.07486238, 0.001357333, 0.001214295, -0.001236925, 0.03719873, -0.9999889, 0.004582881, 44.78527
 28406133, 0.003840295, 0.003515485, -0.003650244, 0.07486238, 0.001277993, 0.001269234, -0.001019542, 0.03719873, -0.9999887, 0.004624933, 44.78527
 28606053, 0.004021712, 0.003717057, -0.003300327, 0.07486238, 0.001189507, 0.001488251, -0.001224028, 0.03719873, -0.9999884, 0.004665749, 44.78527
 28805973, 0.003687998, 0.004164292, -0.003452282, 0.07485775, 0.001086251, 0.001371127, -0.001282616, 0.03718014, -0.9999882, 0.004705607, 44.78219
 29005893, 0.003786523, 0.004111934, -0.003503426, 0.07482506, 0.001411496, 0.001433748, -0.0009694012, 0.03718014, -0.9999881, 0.004744184, 44.76286
 29205813, 0.003964526, 0.00417268, -0.003150454, 0.07482506, 0.001269278, 0.001168906, -0.001196673, 0.03718014, -0.9999878, 0.004782421, 44.76286
 29406566, 0.003950536, 0.004090013, -0.003479297, 0.07497998, 0.001767588, 0.001303087, -0.001224681, 0.03733505, -0.9999876, 0.004820853, 44.85553
 29606486, 0.0045065, 0.0039969, -0.003316448, 0.07497998, 0.001398316, 0.001628339, -0.0009627459, 0.03718014, -0.9999875, 0.00485821, 44.85553
 29806406, 0.003996258, 0.004493108, -0.003037589, 0.0748297, 0.001654394, 0.001535408, -0.001073501, 0.03719873, -0.9999872, 0.004894508, 44.76594
 30006326, 0.004405144, 0.004284069, -0.003057382, 0.07486238, 0.001522643, 0.001619855, -0.001329099, 0.03719873, -0.999987, 0.004929573, 44.78527
 30206246, 0.004292539, 0.004338573, -0.003614763, 0.07486238, 0.001552017, 0.001738226, -0.001110432, 0.03719873, -0.9999868, 0.004964238, 44.78527
 30406166, 0.004405674, 0.004692636, -0.003327725, 0.07486238, 0.001587222, 0.001454732, -0.001561946, 0.03719873, -0.9999866, 0.004997752, 44.78527
 30606086, 0.004657156, 0.004487249, -0.003774582, 0.07486238, 0.001776609, 0.001612222, -0.001038642, 0.03719873, -0.9999864, 0.005031563, 44.78527
 30806006, 0.004366802, 0.004472852, -0.003144989, 0.07486238, 0.001357292, 0.001759054, -0.0009893237, 0.03719873, -0.9999863, 0.005063409, 44.78527
 31005926, 0.004125135, 0.004401491, -0.003465316, 0.07486238, 0.001552161, 0.001365494, -0.001412889, 0.03719873, -0.9999861, 0.005094532, 44.78527
 31205846, 0.004551229, 0.004367311, -0.003694602, 0.07486238, 0.001614921, 0.001737587, -0.001119876, 0.03719873, -0.9999859, 0.005124879, 44.78527
 31405766, 0.004684448, 0.0049183, -0.003481864, 0.07486238, 0.00178267, 0.001424719, -0.001554398, 0.03719873, -0.9999857, 0.005154415, 44.78527
 31606519, 0.004996324, 0.004453631, -0.003802278, 0.07501738, 0.001572462, 0.001672673, -0.001385235, 0.03735372, -0.9999855, 0.005183309, 44.87799
 31806439, 0.004783502, 0.004650986, -0.003537596, 0.07501738, 0.001691149, 0.001744577, -0.001229628, 0.03719873, -0.9999853, 0.005212603, 44.87799
 32006359, 0.004707009, 0.004997982, -0.00325503, 0.07486238, 0.001761263, 0.001644485, -0.001062498, 0.03719873, -0.9999852, 0.005241489, 44.78527
 32206279, 0.004830976, 0.004692158, -0.003257508, 0.07486238, 0.001616583, 0.001475616, -0.001583149, 0.03719873, -0.999985, 0.005269045, 44.78527
 32406199, 0.00492879, 0.004643495, -0.003982359, 0.07486238, 0.00160974, 0.0020333, -0.001327686, 0.03719873, -0.9999849, 0.005296445, 44.78527
 32606119, 0.004857378, 0.005394419, -0.003627018, 0.07486238, 0.001931155, 0.001815194, -0.0009198, 0.03719873, -0.9999847, 0.005322096, 44.78527
 32806039, 0.005296142, 0.005007105, -0.003170318, 0.07486238, 0.001929573, 0.001762273, -0.001463481, 0.03719873, -0.9999849, 0.005277697, 44.78527
 33005959, 0.005287717, 0.004958045, -0.00341501, 0.07486238, 0.001845207, 0.001580064, -0.0007972936, 0.03719873, -0.9999851, 0.005234006, 44.78527
 33205879, 0.005063602, 0.00491869, -0.002821246, 0.07486238, 0.00183856, 0.001769082, -0.001183674, 0.03719873, -0.9999853, 0.005191488, 44.78527
 33405799, 0.005054162, 0.005252012, -0.002991384, 0.07486238, 0.001780248, 0.002057219, -0.0008620009, 0.03719873, -0.9999856, 0.005149389, 44.78527
 33606552, 0.004898524, 0.005669317, -0.003262918, 0.07501738, 0.001531936, 0.001628786, -0.001281012, 0.03735372, -0.9999857, 0.005109171, 44.87799
 33806472, 0.004845862, 0.005097017, -0.003678082, 0.07501738, 0.001987397, 0.001829422, -0.001376328, 0.03719873, -0.9999859, 0.005070532, 44.87799
 34006392, 0.005247287, 0.005110423, -0.003532663, 0.07486238, 0.001570316, 0.001686848, -0.001066357, 0.03719873, -0.9999862, 0.005032675, 44.78527
 34206312, 0.004972299, 0.00517715, -0.003228449, 0.07486238, 0.001708328, 0.00192283, -0.00121722, 0.03719873, -0.9999863, 0.004996319, 44.78527
 34406232, 0.004832663, 0.005254977, -0.003476714, 0.07486238, 0.001904949, 0.001848355, -0.00124432, 0.03719873, -0.9999864, 0.004960863, 44.78527
 34606152, 0.00517008, 0.00542637, -0.003433374, 0.07486238, 0.001714217, 0.001936728, -0.001528932, 0.03719873, -0.9999865, 0.00492609, 44.78527
 34806072, 0.004854308, 0.005356348, -0.003541687, 0.07486238, 0.001601722, 0.002066075, -0.001251715, 0.03719873, -0.9999868, 0.004891564, 44.78527
 35005992, 0.004837785, 0.005362305, -0.003682246, 0.07486238, 0.001899135, 0.00177844, -0.00152582, 0.03719873, -0.9999869, 0.004858976, 44.78527
 35205912, 0.005143307, 0.005337016, -0.003974258, 0.07486238, 0.001793918, 0.001845874, -0.00147353, 0.03719873, -0.999987, 0.00482712, 44.78527
 35405832, 0.005401935, 0.005313269, -0.003599825, 0.07486238, 0.001996069, 0.00177988, -0.0008675359, 0.03719873, -0.9999871, 0.004795655, 44.78527
 35606585, 0.005268024, 0.005383687, -0.002895364, 0.07501738, 0.002149032, 0.002110294, -0.0008353845, 0.03735372, -0.9999874, 0.004765858, 44.87799
 35806505, 0.005452667, 0.005541282, -0.003280144, 0.07501738, 0.001947428, 0.002029216, -0.001229627, 0.03719873, -0.9999874, 0.004737705, 44.87799
 36006425, 0.005305834, 0.005515628, -0.003427805, 0.07486238, 0.001795375, 0.001620748, -0.001197804, 0.03719873, -0.9999875, 0.004710549, 44.78527
 36206345, 0.005057015, 0.005178645, -0.003274597, 0.07486238, 0.001649407, 0.001831581, -0.001173537, 0.03719873, -0.9999876, 0.004683944, 44.78527
 36406265, 0.005096413, 0.005419862, -0.003473194, 0.07486238, 0.002058672, 0.001959972, -0.001048181, 0.03719873, -0.9999877, 0.004657712, 44.78527
 36606185, 0.005696879, 0.005405219, -0.003152096, 0.07486238, 0.001935289, 0.002016523, -0.001179061, 0.03719873, -0.9999878, 0.004632576, 44.78527
 36806105, 0.005333437, 0.00552619, -0.003304282, 0.07486238, 0.002178532, 0.00190533, -0.001069582, 0.03719873, -0.999988, 0.004607844, 44.78527
 37006025, 0.005698191, 0.005540949, -0.003323754, 0.07486238, 0.001772767, 0.001970181, -0.001354918, 0.03719873, -0.9999881, 0.004584684, 44.78527
 37205945, 0.005093893, 0.005705282, -0.003584607, 0.07486238, 0.001518371, 0.002274352, -0.0009132509, 0.03719873, -0.9999881, 0.004561408, 44.78527
 37405865, 0.005240791, 0.005760777, -0.003228501, 0.07486238, 0.001828805, 0.001928985, -0.001259458, 0.03719873, -0.9999882, 0.004539065, 44.78527
 37605785, 0.005562044, 0.005559888, -0.003579822, 0.07486238, 0.002013711, 0.001949698, -0.001526641, 0.03719873, -0.9999883, 0.00451549, 44.78527
 37806538, 0.005616437, 0.005729298, -0.003682823, 0.07501738, 0.002007999, 0.001831186, -0.0009965942, 0.03735372, -0.9999887, 0.004438743, 44.87799
 38006458, 0.005520661, 0.005558122, -0.002971386, 0.07501738, 0.001956905, 0.001733344, -0.0007776546, 0.03719873, -0.999989, 0.004345523, 44.87799
 38206378, 0.005622642, 0.005310741, -0.00327206, 0.07486238, 0.001810777, 0.001378837, -0.001768134, 0.03719873, -0.9999895, 0.004255631, 44.78527
 38406298, 0.005270561, 0.005021372, -0.00393424, 0.07486238, 0.00187301, 0.001909674, -0.001337976, 0.03719873, -0.9999899, 0.00416726, 44.78527
 38606218, 0.005481398, 0.005526865, -0.00347734, 0.07486238, 0.002138376, 0.002218993, -0.00107288, 0.03719873, -0.9999902, 0.004080795, 44.78527
 38806138, 0.005636603, 0.005946212, -0.003213352, 0.07486238, 0.002067724, 0.001993507, -0.0007000566, 0.03719873, -0.9999905, 0.00399702, 44.78527
 39006058, 0.005815659, 0.005634934, -0.002779993, 0.07486238, 0.00223711, 0.001861284, -0.001303966, 0.03719873, -0.9999908, 0.003915661, 44.78527
 39205978, 0.005972599, 0.005563149, -0.003538231, 0.07486238, 0.00203471, 0.001872212, -0.001346496, 0.03719873, -0.9999912, 0.003837107, 44.78527
 39405898, 0.005686329, 0.005395003, -0.003611893, 0.07486238, 0.002075561, 0.001976935, -0.001019615, 0.03719873, -0.9999914, 0.003760391, 44.78527
 39605818, 0.005651972, 0.005386281, -0.003110902, 0.07486238, 0.001846835, 0.001666485, -0.001047134, 0.03719873, -0.9999917, 0.003685569, 44.78527
 39806571, 0.005431452, 0.005392849, -0.003215808, 0.07501738, 0.001904547, 0.002078255, -0.00115471, 0.03735372, -0.9999919, 0.003611946, 44.87799
 40006491, 0.00551331, 0.005985688, -0.003223594, 0.07501738, 0.001723151, 0.002245537, -0.001124506, 0.03719873, -0.9999923, 0.003540606, 44.87799
 40206411, 0.005250175, 0.005651474, -0.003197062, 0.07486238, 0.001974113, 0.001801478, -0.0008889289, 0.03719873, -0.9999925, 0.003471543, 44.78527
 40406331, 0.005396612, 0.005445369, -0.003117498, 0.07486238, 0.001907827, 0.00223014, -0.000881318, 0.03719873, -0.9999926, 0.003404745, 44.78527
 40606251, 0.005390641, 0.006047096, -0.003030287, 0.07486238, 0.001947546, 0.002181546, -0.00123199, 0.03719873, -0.9999928, 0.003340068, 44.78527
 40806171, 0.005438085, 0.006010172, -0.003447507, 0.07486238, 0.001631526, 0.002381988, -0.00113651, 0.03719873, -0.9999931, 0.003276616, 44.78527
 41006091, 0.005167217, 0.006238367, -0.003152698, 0.07486238, 0.001906655, 0.002157094, -0.001145461, 0.03719873, -0.9999932, 0.003214351, 44.78527
 41206011, 0.005524925, 0.0060131, -0.003123923, 0.07486238, 0.001872718, 0.001948104, -0.001250146, 0.03719873, -0.9999934, 0.003154733, 44.78527
 41405931, 0.0056383, 0.005619785, -0.003518243, 0.07486238, 0.002036934, 0.001929943, -0.001173674, 0.03719873, -0.9999936, 0.003095295, 44.78527
 41605851, 0.005722167, 0.005876226, -0.003323246, 0.07486238, 0.002246165, 0.002407731, -0.001001313, 0.03719873, -0.9999938, 0.003037595, 44.78527
 41805771, 0.005926964, 0.006392526, -0.00335492, 0.07486238, 0.002173533, 0.002073298, -0.00121433, 0.03719873, -0.9999939, 0.002981633, 44.78527
 42006524, 0.005762902, 0.005853411, -0.003230344, 0.07501738, 0.00218752, 0.002166697, -0.001148803, 0.03735372, -0.9999942, 0.002926313, 44.87799
 42206444, 0.006016833, 0.006256111, -0.003085724, 0.07501738, 0.00210631, 0.002019377, -0.001034926, 0.03719873, -0.9999942, 0.002873438, 44.87799
 42406364, 0.005750872, 0.005839155, -0.003204047, 0.07486238, 0.001672551, 0.002048676, -0.001323365, 0.03719873, -0.9999944, 0.002822091, 44.78527
 42606284, 0.005444202, 0.005851952, -0.003455979, 0.07486238, 0.001991541, 0.002081226, -0.001257582, 0.03719873, -0.9999945, 0.00277226, 44.78527
 42806204, 0.00560759, 0.005938114, -0.00347273, 0.07486238, 0.001482436, 0.002194893, -0.001126849, 0.03719873, -0.9999946, 0.002694489, 44.78527
 43006124, 0.004973025, 0.006307377, -0.003440469, 0.07486238, 0.001845042, 0.002555975, -0.001047265, 0.03719873, -0.999995, 0.00258242, 44.78527
 43206044, 0.005547905, 0.00640273, -0.003328218, 0.07486238, 0.001821572, 0.002183409, -0.001110898, 0.03719873, -0.9999952, 0.002474172, 44.78527
 43405964, 0.005545198, 0.006122841, -0.003337828, 0.07486238, 0.00175588, 0.002307557, -0.001142767, 0.03719873, -0.9999956, 0.002369525, 44.78527
 43605884, 0.005435176, 0.0062946, -0.003150747, 0.07486238, 0.001607315, 0.002123653, -0.0009926008, 0.03719873, -0.9999958, 0.00226761, 44.78527
 43805804, 0.005146625, 0.00583781, -0.003056342, 0.07486238, 0.002014445, 0.002020815, -0.001187849, 0.03719873, -0.9999961, 0.002168958, 44.78527
 44006557, 0.005556055, 0.006057549, -0.003309756, 0.07501738, 0.002091679, 0.001986479, -0.001229051, 0.03735372, -0.9999962, 0.002072575, 44.87799
 44206477, 0.005797395, 0.005847746, -0.003437595, 0.07501738, 0.002134552, 0.002103863, -0.0009686968, 0.03719873, -0.9999964, 0.001979703, 44.87799
 44406397, 0.005929574, 0.005650811, -0.003047789, 0.07486238, 0.00230184, 0.001809957, -0.0007556157, 0.03719873, -0.9999967, 0.001890126, 44.78527
 44606317, 0.005930386, 0.005377252, -0.003018196, 0.07486238, 0.00219803, 0.002199237, -0.001527139, 0.03719873, -0.9999968, 0.001802263, 44.78527
 44806237, 0.005743218, 0.005689367, -0.003570104, 0.07486238, 0.001822016, 0.001918135, -0.001142897, 0.03719873, -0.9999969, 0.001717173, 44.78527
 45006157, 0.005204124, 0.005618558, -0.003314437, 0.07486238, 0.001680572, 0.002136318, -0.001309586, 0.03719873, -0.999997, 0.00163435, 44.78527
 45206077, 0.005299447, 0.005718119, -0.003253928, 0.07486238, 0.002149878, 0.00209766, -0.000806649, 0.03719873, -0.9999973, 0.001553725, 44.78527
 45405997, 0.005894709, 0.005870846, -0.00301606, 0.07486238, 0.001997611, 0.002044513, -0.001050881, 0.03719873, -0.9999974, 0.001475292, 44.78527
 45605917, 0.005275979, 0.005934556, -0.003146164, 0.07486238, 0.001740211, 0.002222315, -0.001525148, 0.03719873, -0.9999974, 0.001399071, 44.78527
 45805837, 0.005389022, 0.005884876, -0.003694024, 0.07486238, 0.002226473, 0.001898546, -0.0012069, 0.03719873, -0.9999975, 0.001324235, 44.78527
 46006590, 0.005936929, 0.005630109, -0.003412875, 0.07501738, 0.002001224, 0.002190081, -0.001220971, 0.03735372, -0.9999976, 0.001251108, 44.87799
 46206510, 0.00565702, 0.006068589, -0.003466411, 0.07501738, 0.001877924, 0.001813647, -0.001252001, 0.03719873, -0.9999976, 0.001180923, 44.87799
 46406430, 0.005479049, 0.005543087, -0.03586649, 0.07486238, 0.001950129, 0.00216636, -0.07866862, 0.03719873, -0.9999977, 0.00111278, 44.78527
 46606350, 0.007070802, 0.007210327, -0.7309984, 0.07486238, 0.002253268, 0.002363196, -0.2003524, 0.03719873, -0.9999979, 0.001045916, 44.78527
 46806270, 0.006497368, 0.006034504, -1.158384, 0.07486238, 0.001993564, 0.001468383, -0.9180063, 0.03719873, -0.9999996, 0.0009031235, 44.78527
 47006190, 0.002960249, 0.0009146135, -2.401073, 0.07486238, -0.0003317799, -0.001136199, -0.63144, 0.03719873, -0.9999992, 0.0006975199, 44.78527
 47206110, -0.002177162, -0.004623431, -1.447903, 0.07486238, -0.001124822, -0.002501247, -0.3732803, 0.03719873, -0.9999986, 0.0004856502, 44.78527
 47406030, -0.002810428, -0.006253513, -1.049108, 0.07486238, -0.0009132152, -0.001868275, -0.3699019, 0.03719873, -0.9999986, 0.0002644418, 44.78527
 47605950, -0.001752165, -0.005468164, -1.022098, 0.07486238, -0.0002314281, -0.002008899, -0.3364367, 0.03719873, -0.9999985, 8.917708E-05, 44.78527
 47805870, -0.0001653083, -0.004751237, -0.8891242, 0.07486238, 0.0002417098, -0.001061103, -0.2764859, 0.03719873, -0.999999, 0.0004064226, 44.78527
 48005790, 0.001061957, -0.0018674, -0.731992, 0.07486238, 0.0005672931, -0.0001758621, -0.2292272, 0.03719873, -0.999999, 0.001182638, 44.78527
 48206543, 0.00257063, 0.001612096, -0.6123881, 0.07501738, 0.001161225, 0.001594629, -0.1940073, 0.03735372, -0.9999981, 0.001927053, 44.87799
 48406463, 0.003813639, 0.004490334, -0.512166, 0.07501738, 0.001659765, 0.001310331, -0.1596248, 0.03719873, -0.9999981, 0.001985562, 44.87799
 48606383, 0.005334493, 0.004468953, -0.4209367, 0.07486238, 0.002354219, 0.001602033, -0.1310566, 0.03719873, -0.9999992, 0.001308358, 44.78527
 48806303, 0.006105717, 0.004788481, -0.3449601, 0.07486238, 0.001735762, 0.001823465, -0.1061618, 0.03719873, -1, 9.455514E-05, 44.78527
 49006223, 0.004719758, 0.004216454, -0.2796212, 0.07486238, 0.00139296, 0.001214325, -0.08647139, 0.03719873, -0.9999992, -0.001218404, 44.78527
 49206143, 0.003043612, 0.00332568, -0.2268394, 0.07486238, 0.0005209988, 0.001272387, -0.06927671, 0.03719873, -0.9999971, -0.002389094, 44.78527
 49406063, 0.00143578, 0.004325124, -0.1808082, 0.07486238, 0.0005452811, 0.001540711, -0.05476388, 0.03719873, -0.9999967, -0.002593936, 44.78527
 49605983, 0.001886896, 0.005405225, -0.1423891, 0.07486238, 0.0005362377, 0.002552785, -0.0433527, 0.03719873, -0.9999979, -0.002061988, 44.78527
 49805903, 0.00171171, 0.006912495, -0.1135467, 0.07486238, 0.000317801, 0.00224984, -0.03504783, 0.03719873, -0.9999987, -0.001492634, 44.78527
 50005823, 0.001789755, 0.007568061, -0.09115404, 0.07486238, 0.001253285, 0.002995037, -0.02723464, 0.03719873, -0.9999993, -0.001012685, 44.78527
 50206576, 0.00377641, 0.00788114, -0.07135649, 0.07501738, 0.001664854, 0.002629296, -0.02173957, 0.03735372, -0.9999993, -0.001229317, 44.87799
 50406496, 0.004648267, 0.005897083, -0.05649575, 0.07501738, 0.00172973, 0.001671549, -0.01683765, 0.03719873, -0.9999973, -0.002254674, 44.87799
 50606416, 0.004590322, 0.003432096, 0.4294523, 0.07486238, 0.001669011, 0.0005482429, 0.3855129, 0.03719873, -0.9999939, -0.003333838, 44.78527
 50806336, 0.004558501, 0.001627297, 1.014268, 0.07486238, 0.001518601, 0.0006210402, 0.3144282, 0.03719873, -0.9999904, -0.00414428, 44.78527
 51006256, 0.004244106, 0.001521392, 0.8344799, 0.07486238, 0.001310342, 0.0005898185, 0.2626924, 0.03719873, -0.9999905, -0.004170687, 44.78527
 51206176, 0.0100574, 0.01337517, 0.6209683, 0.07486238, 0.007708001, 0.01528371, 0.1795825, 0.03719873, -0.9998885, -0.003758996, 44.78527
 51406096, 0.02122375, 0.05094059, 0.5983871, 0.07486238, 0.009552376, 0.01896071, 0.2650229, 0.03719873, -0.9998273, -0.003756517, 44.78527
 51606016, 0.0382129, 0.04707898, 0.8724472, 0.07486238, 0.01694658, 0.01261269, 0.3766364, 0.03719873, -0.9998869, -0.004045818, 44.78527
 51805936, 0.0431802, 0.03095412, 1.154622, 0.07486238, 0.01200635, 0.007926256, 0.4301125, 0.03719873, -0.9999495, -0.004626066, 44.78527
 52005856, 0.02763048, 0.01501687, 1.197504, 0.07486238, 0.006377084, 0.001505402, 0.4034625, 0.03719873, -0.9999856, -0.005218112, 44.78527
 52205776, 0.01434386, 0.0004592844, 1.094567, 0.07486238, 0.003757501, -0.001682003, 0.354494, 0.03719873, -0.9999793, -0.005669137, 44.78527
 52406529, 0.01139654, -0.007523999, 0.9477033, 0.07501738, 0.004808613, -0.003209126, 0.2987452, 0.03735372, -0.9999751, -0.005954785, 44.87799
 52606449, 0.0157625, -0.006684144, 0.774766, 0.07501738, 0.007265836, -0.001919939, 0.2238145, 0.03719873, -0.9999769, -0.006101534, 44.87799
 52806369, 0.0262231, -0.01094246, 0.5190693, 0.07486238, 0.01039272, -0.008237883, 0.1277012, 0.03719873, -0.999925, -0.006206352, 44.78527
 53006289, 0.02224594, -0.03463919, 0.3204678, 0.07486238, 0.002699146, -0.0163064, 0.09211615, 0.03719873, -0.999826, -0.006195052, 44.78527
 53206209, -0.003094843, -0.04468406, 0.2418642, 0.07486238, -0.006649402, -0.01426955, 0.07638007, 0.03719873, -0.9998521, -0.00628697, 44.78527
 53406129, -0.02395836, -0.03805296, 0.2093986, 0.07486238, -0.009464518, -0.01147396, 0.07050933, 0.03719873, -0.9998899, -0.006578424, 44.78527
 53606049, -0.0230404, -0.02478793, 0.2024016, 0.07486238, -0.007776681, -0.003790195, 0.07350705, 0.03719873, -0.9999579, -0.006932704, 44.78527
 53805969, -0.02934973, 0.001217269, 0.2131887, 0.07486238, -0.01387094, 0.007486158, 0.07807293, 0.03719873, -0.9999593, -0.00741004, 44.78527
 54005889, -0.04097809, 0.03363682, 0.228774, 0.07486238, -0.01320824, 0.01740402, 0.08382133, 0.03719873, -0.9998648, -0.007841195, 44.78527
 54205809, -0.02826665, 0.0523789, 0.2461317, 0.07486238, -0.003741543, 0.02113, 0.09037969, 0.03719873, -0.9997682, -0.007870354, 44.78527
 54406562, 0.002885766, 0.06844517, 0.2631497, 0.07501738, 0.004990815, 0.02660519, 0.09534431, 0.03735372, -0.9996516, -0.00773477, 44.87799
 54606482, 0.004619077, 0.06921254, 0.2747442, 0.07501738, -0.001739657, 0.01945513, 0.09905246, 0.03719873, -0.9997954, -0.007769634, 44.87799
 54806402, -0.001846772, 0.04468117, 0.2710661, 0.07486238, 0.0001736967, 0.01028631, 0.07914031, 0.03719873, -0.9999245, -0.0080897, 44.78527
 55006322, 0.0005651045, 0.01999656, 0.1686327, 0.07486238, 0.002258805, 0.002852799, 0.03138896, 0.03719873, -0.999958, -0.008665469, 44.78527
 55206242, 0.01764878, 0.003073967, 0.05380359, 0.07486238, 0.01101166, -0.002969841, 0.001725227, 0.03719873, -0.9999492, -0.009537212, 44.78527
 55406162, 0.03520539, -0.01990532, -0.01328743, 0.07486238, 0.01517481, -0.01190635, -0.01345345, 0.03719873, -0.9998832, -0.01058349, 44.78527
 55606082, 0.04841576, -0.03667318, -0.04606883, 0.07486238, 0.01693796, -0.01507782, -0.02023201, 0.03719873, -0.9998249, -0.01171652, 44.78527
 55806002, 0.03586366, -0.04801018, -0.05776886, 0.07486238, 0.008910427, -0.01768721, -0.02021052, 0.03719873, -0.9997811, -0.01259784, 44.78527
 56005922, 0.03410631, -0.04271241, -0.05590166, 0.07486238, 0.01712954, -0.0100447, -0.01928004, 0.03719873, -0.9998649, -0.01325597, 44.78527
 56205842, 0.05316235, -0.016915, -0.0494888, 0.07486238, 0.0191952, 0.000960408, -0.01491515, 0.03719873, -0.999904, -0.01384053, 44.78527
 56405762, 0.04616979, 0.01892513, -0.03878481, 0.07486238, 0.008714636, 0.01590835, -0.01146967, 0.03719873, -0.999795, -0.01431657, 44.78527
 56606515, 0.005885922, 0.05866406, -0.02892317, 0.07501738, -0.005702614, 0.02632822, -0.007345276, 0.03735372, -0.9996195, -0.01486499, 44.87799
 56806435, -0.01782783, 0.07430394, -0.02013201, 0.07501738, -0.008842298, 0.02511325, -0.006160633, 0.03719873, -0.9996199, -0.01490449, 44.87799
 57006355, -0.03584084, 0.06587431, -0.01507538, 0.07486238, -0.01556604, 0.01792291, -0.004362929, 0.03719873, -0.9997711, -0.01444103, 44.78527
 57206275, -0.03474392, 0.03305821, -0.01086898, 0.07486238, -0.006807819, 0.002375599, -0.003127311, 0.03719873, -0.9999079, -0.01332251, 44.78527
 57406195, -0.01431321, -0.003204282, -0.008513865, 0.07486238, -0.002545141, -0.004969739, -0.002685587, 0.03719873, -0.9999182, -0.01228136, 44.78527
 57606115, -0.00224248, -0.01581612, -0.00708895, 0.07486238, 0.002131168, -0.005652882, -0.00243525, 0.03719873, -0.9999251, -0.01171927, 44.78527
 57806035, 0.01251117, -0.01262383, -0.006527535, 0.07486238, 0.008429235, -0.003020471, -0.002237121, 0.03719873, -0.9999299, -0.01167685, 44.78527
 58005955, 0.0281044, -0.01009561, -0.006141357, 0.07486238, 0.01026929, -0.004349639, -0.001933066, 0.03719873, -0.9999229, -0.01203956, 44.78527
 58205875, 0.02097831, -0.01292515, -0.00611193, 0.07486238, 0.001857971, -0.004476004, -0.002023304, 0.03719873, -0.9999162, -0.01251735, 44.78527
 58405795, -0.00364054, -0.011598, -0.0065109, 0.07486238, -0.004438509, -0.004065632, -0.002493136, 0.03719873, -0.9999061, -0.01316797, 44.78527
 58606548, -0.01146088, -0.01470506, -0.006574267, 0.07501738, -0.00338351, -0.006215047, -0.001648394, 0.03735372, -0.9998902, -0.013916, 44.87799
 58806468, -0.00912164, -0.01470786, -0.004624487, 0.07501738, -0.003605141, -0.003107202, -0.001488204, 0.03719873, -0.9998891, -0.01466434, 44.87799
 59006388, -0.01181218, -0.006653953, -0.003283279, 0.07486238, -0.004361755, -0.002432345, -0.0004983707, 0.03719873, -0.999882, -0.01499879, 44.78527
 59206308, -0.009584819, -0.01336279, -0.003191221, 0.07486238, -0.00161323, -0.007069889, -0.001174007, 0.03719873, -0.9998608, -0.01515698, 44.78527
 59406228, -0.00287297, -0.01864508, -0.004043735, 0.07486238, 0.0001538667, -0.00462675, -0.001979908, 0.03719873, -0.9998718, -0.01533243, 44.78527
 59606148, 0.003297556, -0.007175862, -0.005458484, 0.07486238, 0.002843838, 0.0006245433, -0.00197475, 0.03719873, -0.9998794, -0.01552969, 44.78527
 59806068, 0.010484, 0.006514013, -0.006138382, 0.07486238, 0.004112513, 0.004620997, -0.002493618, 0.03719873, -0.9998673, -0.01574956, 44.78527
 60005988, 0.009318925, 0.01906004, -0.006659913, 0.07486238, 0.002355864, 0.01085425, -0.002554259, 0.03719873, -0.9998195, -0.01603544, 44.78527
 60205908, 0.006801683, 0.03701319, -0.006430482, 0.07486238, 0.002885305, 0.0138297, -0.001912139, 0.03719873, -0.9997943, -0.01636477, 44.78527
 60405828, 0.006632062, 0.03162939, -0.005644387, 0.07486238, -0.002677593, 0.00879473, -0.001642339, 0.03719873, -0.9998222, -0.01647556, 44.78527
 60606581, -0.02525966, 0.03098152, -0.004920687, 0.07501738, -0.0159858, 0.01263234, -0.00159467, 0.03735372, -0.9997872, -0.01669083, 44.87799
 60806501, -0.04336323, 0.03117473, -0.004535798, 0.07501738, -0.01130751, 0.005987467, -0.00127151, 0.03719873, -0.9998475, -0.01669408, 44.87799
 61006421, -0.01955246, 0.003621846, -0.003943842, 0.07486238, -0.002383761, -0.004143075, -0.001046207, 0.03719873, -0.9998576, -0.01663939, 44.78527
 61206341, -0.003768385, -0.01173024, -0.003647565, 0.07486238, 0.0007600512, -0.004211673, -0.001891182, 0.03719873, -0.9998529, -0.01687331, 44.78527
 61406261, 0.008078762, -0.01065114, -0.004339372, 0.07486238, 0.006035641, -0.0005730597, -0.001634842, 0.03719873, -0.9998481, -0.0173265, 44.78527
 61606181, 0.01934298, 0.01123395, -0.003540934, 0.07486238, 0.006864543, 0.008107415, -0.0008457698, 0.03719873, -0.9998026, -0.01806651, 44.78527
 61806101, 0.01439092, 0.01795671, -0.003043333, 0.07486238, 0.003016496, 0.003876904, -0.0007182906, 0.03719873, -0.9998146, -0.0188133, 44.78527
 62006021, 0.006322776, 0.005749587, -0.003036169, 0.07486238, 2.186141E-05, -0.001044245, -0.001291337, 0.03719873, -0.9998098, -0.01949936, 44.78527
 62205941, -0.008342291, -0.008621976, -0.003040521, 0.07486238, -0.005248502, -0.004066339, -0.001117142, 0.03719873, -0.9997965, -0.0199681, 44.78527
 62405861, -0.008443007, -0.008462047, -0.003425043, 0.07486238, -0.0003526956, -0.001003259, -0.00131974, 0.03719873, -0.9997951, -0.02022505, 44.78527
 62605781, -0.0001610022, 0.001413716, -0.003347851, 0.07486238, -0.0001096184, 0.00171451, -0.001246808, 0.03719873, -0.9997905, -0.02034933, 44.78527
 62806534, -0.001027122, 0.001265128, -0.003165928, 0.07501738, -0.0006938457, -0.002018707, -0.001587423, 0.03735372, -0.9997921, -0.0202611, 44.87799
 63006454, 0.0001551629, -0.01343185, -0.002951487, 0.07501738, 0.003136968, -0.007161578, -0.001089651, 0.03719873, -0.9997799, -0.02016197, 44.87799
 63206374, 0.01667248, -0.01910764, -0.002735237, 0.07486238, 0.00739544, -0.007229315, -0.0004747339, 0.03719873, -0.9997719, -0.02024267, 44.78527
 63406294, 0.01297589, -0.02655825, -0.002474437, 0.07486238, -0.0003771758, -0.01261326, -0.001630168, 0.03719873, -0.9997127, -0.02044345, 44.78527
 63606214, -0.00601354, -0.03801354, -0.002995331, 0.07486238, -0.004086485, -0.01201609, -0.0007712473, 0.03719873, -0.9997251, -0.0205363, 44.78527
 63806134, -0.01134217, -0.02463934, -0.002856373, 0.07486238, -0.003076383, -0.004174941, -0.001286697, 0.03719873, -0.9997745, -0.02063729, 44.78527
 64006054, -0.003918779, -0.008567668, -0.002490602, 0.07486238, 0.002106064, -0.0007455178, -0.001220276, 0.03719873, -0.9997864, -0.02060743, 44.78527
 64205974, 0.01297083, 0.002588406, -0.003130767, 0.07486238, 0.00764146, 0.001456979, -0.0009319738, 0.03719873, -0.9997903, -0.0204699, 44.78527
 64405894, 0.02169193, -0.001896114, -0.002543723, 0.07486238, 0.004861888, -0.003016657, 0.0001591844, 0.03719873, -0.9997885, -0.020087, 44.78527
 64605814, 0.00257665, -0.006281285, -0.001242299, 0.07486238, -0.00335768, -0.0004541812, -0.001280401, 0.03719873, -0.9998051, -0.01965674, 44.78527
 64806567, -0.005798915, 0.003008678, -0.002963691, 0.07501738, 6.046816E-05, 0.002400019, -0.0007354892, 0.03735372, -0.9998165, -0.01915488, 44.87799
 65006487, 0.005572326, 0.006968966, -0.002153622, 0.07501738, 0.005684296, 0.002851512, -0.00138045, 0.03719873, -0.9998311, -0.01836861, 44.87799
 65206407, 0.02558954, 0.009062586, -0.002694002, 0.07486238, 0.01502618, 0.003063452, -0.001330804, 0.03719873, -0.999844, -0.01764744, 44.78527
 65406327, 0.05081571, 0.006784089, -0.003219505, 0.07486238, 0.0207468, 0.00233616, -0.001695323, 0.03719873, -0.9998524, -0.01717605, 44.78527
 65606247, 0.05435705, 0.008330207, -0.003620767, 0.07486238, 0.01558585, 0.003168611, -0.0009624576, 0.03719873, -0.9998567, -0.01691336, 44.78527
 65806167, 0.03620142, 0.007413636, -0.002358543, 0.07486238, 0.009649143, 0.002572151, -0.0004817358, 0.03719873, -0.9998634, -0.01651254, 44.78527
 66006087, 0.02491601, 0.01091501, -0.001965981, 0.07486238, 0.006471468, 0.006500447, -0.000954481, 0.03719873, -0.9998585, -0.01623351, 44.78527
 66206007, 0.007916392, 0.02278464, -0.002321435, 0.07486238, -0.004458359, 0.009664451, -0.001390979, 0.03719873, -0.9998467, -0.01598034, 44.78527
 66405927, -0.02671331, 0.02719393, -0.002446823, 0.07486238, -0.01560641, 0.009222426, -0.0003689481, 0.03719873, -0.9998549, -0.01561319, 44.78527
 66605847, -0.04574262, 0.02309802, -0.001753578, 0.07486238, -0.01491495, 0.004174398, -0.001146836, 0.03719873, -0.9998862, -0.01504314, 44.78527
 66805767, -0.03657759, 0.00175578, -0.002936277, 0.07486238, -0.01166548, -0.002034736, -0.001369011, 0.03719873, -0.9998946, -0.01420728, 44.78527
 67006520, -0.03858662, 0.001349392, -0.002606333, 0.07501738, -0.01367734, 0.003565628, -0.001212995, 0.03735372, -0.9999065, -0.01347251, 44.87799
 67206440, -0.02829332, 0.01311421, -0.002757555, 0.07501738, -0.005215884, 0.006191884, -0.0005813275, 0.03719873, -0.9999052, -0.01303617, 44.87799
 67406360, -0.01161185, 0.01897319, -0.001958412, 0.07486238, -0.002055798, 0.006267312, -0.001379414, 0.03719873, -0.9999028, -0.01319539, 44.78527
 67606280, 0.0003510051, 0.01469569, -0.002886242, 0.07486238, 0.002701339, 0.003598251, -0.0007295739, 0.03719873, -0.9999055, -0.01356313, 44.78527
 67806200, 0.007833298, 0.009209245, -0.002085393, 0.07486238, 0.002233817, 0.002329978, -0.0006351349, 0.03719873, -0.9999017, -0.01394993, 44.78527
 68006120, 0.003822269, 0.005797306, -0.002247879, 0.07486238, -0.0001373184, 0.001289539, -0.0004693132, 0.03719873, -0.9998972, -0.01434397, 44.78527
 68206040, -0.0024224, 0.002647824, -0.002277516, 0.07486238, -0.0005857726, 0.0003473703, -0.0009032961, 0.03719873, -0.9998894, -0.0148479, 44.78527
 68405960, -9.506158E-05, -0.0008024537, -0.002365152, 0.07486238, -0.0006629297, -0.001790859, -0.0007616392, 0.03719873, -0.9998751, -0.01545015, 44.78527
 68605880, -0.008065203, -0.009282973, -0.002980588, 0.07486238, -0.002866061, -0.004875374, -0.0009589995, 0.03719873, -0.9998551, -0.01611951, 44.78527
 68805800, 0.005453288, -0.01084938, -0.00270767, 0.07486238, 0.009104801, -0.002171391, -0.0005671163, 0.03719873, -0.9998574, -0.01661779, 44.78527
 69006553, 0.02965099, -0.001502668, -0.002135955, 0.07501738, 0.009585741, 0.003206357, -0.0005203553, 0.03735372, -0.9998524, -0.01699949, 44.87799
 69206473, 0.0151302, 0.01900382, -0.002173167, 0.07501738, 0.0005015475, 0.01030103, -0.001320079, 0.03719873, -0.9998142, -0.01749573, 44.87799
 69406393, 0.001581832, 0.02752945, -0.003384785, 0.07486238, 0.001001952, 0.008631916, -0.001163487, 0.03719873, -0.9998174, -0.01785222, 44.78527
 69606313, 0.00283446, 0.02339311, -0.00285615, 0.07486238, 0.001495976, 0.007328878, -0.001098012, 0.03719873, -0.999824, -0.01784297, 44.78527
 69806233, 0.007762333, 0.01981639, -0.002763713, 0.07486238, 0.005758134, 0.007984688, -0.0001918669, 0.03719873, -0.999813, -0.01779012, 44.78527
 70006153, 0.02387111, 0.0295326, -0.002116414, 0.07486238, 0.01087345, 0.01284317, -0.001702122, 0.03719873, -0.9997712, -0.01781859, 44.78527
 70206073, 0.02772226, 0.03489951, -0.00354533, 0.07486238, 0.00707853, 0.01165667, -0.00128339, 0.03719873, -0.9997745, -0.01794827, 44.78527
 70405993, 0.01394338, 0.03356315, -0.002784627, 0.07486238, 0.003340017, 0.01097671, -0.001209166, 0.03719873, -0.9997773, -0.01836948, 44.78527
 70605913, 0.01483409, 0.02259443, -0.003051113, 0.07486238, 0.007543985, 0.001891137, -0.0006070736, 0.03719873, -0.9998212, -0.01886017, 44.78527
 70805833, 0.02388267, -0.006885192, -0.002427406, 0.07486238, 0.01094215, -0.006465417, -0.0007025947, 0.03719873, -0.9998056, -0.01920657, 44.78527
 71006586, 0.03975525, -0.01238296, -0.002579941, 0.07501738, 0.01771803, -0.0002207209, -0.0009943635, 0.03735372, -0.9998088, -0.01948011, 44.87799
 71206506, 0.0490764, 0.003992719, -0.002653052, 0.07501738, 0.01681752, 0.0002871429, -0.0009414017, 0.03719873, -0.9998019, -0.01990441, 44.87799
 71406426, 0.04650536, -0.01181155, -0.002147567, 0.07486238, 0.01351502, -0.008062139, -0.0007566725, 0.03719873, -0.9997805, -0.02021459, 44.78527
 71606346, 0.02524893, -0.01191814, -0.002255254, 0.07486238, 0.001106468, 0.001680819, -0.0009007521, 0.03719873, -0.9997869, -0.02049433, 44.78527
 71806266, -0.008965508, 0.009149839, -0.002359794, 0.07486238, -0.009197142, 0.004554326, -0.0007748292, 0.03719873, -0.9997728, -0.02080816, 44.78527
 72006186, -0.03239021, 0.01317847, -0.002382149, 0.07486238, -0.0140724, 0.006137442, -0.0009747777, 0.03719873, -0.9997545, -0.02102302, 44.78527
 72206106, -0.03920163, 0.02445114, -0.00272088, 0.07486238, -0.0120154, 0.01085431, -0.001106263, 0.03719873, -0.9997164, -0.02117831, 44.78527
 72406026, -0.02723089, 0.02962258, -0.002909851, 0.07486238, -0.00724231, 0.01157526, -0.0008101548, 0.03719873, -0.9996921, -0.02125761, 44.78527
 72605946, -0.0222832, 0.04015542, -0.002688869, 0.07486238, -0.008283139, 0.01624943, -0.001050989, 0.03719873, -0.999635, -0.02128576, 44.78527
 72805866, -0.02014444, 0.0383064, -0.003467264, 0.07486238, -0.004963668, 0.008644039, -0.001147396, 0.03719873, -0.9997295, -0.02104452, 44.78527
 73005786, -0.01053686, 0.01656495, -0.003297396, 0.07486238, -0.001679701, 0.001908352, -0.001317401, 0.03719873, -0.9997701, -0.02108901, 44.78527
 73206539, -0.00211772, -0.0005043346, -0.004088523, 0.07501738, 0.001025849, -0.002988323, -0.001245372, 0.03735372, -0.9997835, -0.02081012, 44.87799
 73406459, 0.004666626, -0.01220303, -0.003735527, 0.07501738, 0.002853283, -0.005870801, -0.001589167, 0.03719873, -0.9997865, -0.02041519, 44.87799
 73606379, 0.009089935, -0.01955654, -0.004346591, 0.07486238, 0.003831429, -0.008029049, -0.001454881, 0.03719873, -0.999779, -0.02042716, 44.78527
 73806299, 0.01194493, -0.02349976, -0.004122885, 0.07486238, 0.005057599, -0.008143037, -0.001612473, 0.03719873, -0.9997745, -0.02038705, 44.78527
 74006219, 0.01468655, -0.02433725, -0.004140341, 0.07486238, 0.005169643, -0.008978602, -0.001765694, 0.03719873, -0.9997827, -0.01990075, 44.78527
 74206139, 0.0153515, -0.02407893, -0.004403549, 0.07486238, 0.005779147, -0.007673472, -0.001620699, 0.03719873, -0.9997891, -0.01970142, 44.78527
 74406059, 0.0160229, -0.02115938, -0.003533794, 0.07486238, 0.005286327, -0.007186748, -0.0006231532, 0.03719873, -0.9997927, -0.01968873, 44.78527
 74605979, 0.01549726, -0.0183298, -0.002615752, 0.07486238, 0.005667718, -0.005858651, -0.001139454, 0.03719873, -0.9997994, -0.01955723, 44.78527
 74805899, 0.01546861, -0.01467347, -0.002904722, 0.07486238, 0.005142637, -0.004319617, -0.0009394273, 0.03719873, -0.999806, -0.01941139, 44.78527
 75005819, 0.01430023, -0.01055975, -0.002800103, 0.07486238, 0.004765993, -0.002782017, -0.0008814909, 0.03719873, -0.9998115, -0.01928264, 44.78527
 75206572, 0.01339848, -0.006545192, -0.002494215, 0.07501738, 0.004604134, -0.001692679, -0.000607756, 0.03735372, -0.9998159, -0.01914176, 44.87799
 75406492, 0.01261219, -0.003526094, -0.002370717, 0.07501738, 0.00387506, -0.000735124, -0.001000551, 0.03719873, -0.9998184, -0.01905621, 44.87799
 75606412, 0.01109207, -0.0003354632, -0.002700843, 0.07486238, 0.003764585, 0.0006380341, -0.0008450273, 0.03719873, -0.9998197, -0.01898196, 44.78527
 75806332, 0.01038405, 0.002677975, -0.002939987, 0.07486238, 0.003216083, 0.001273311, -0.001119064, 0.03719873, -0.9998209, -0.01889017, 44.78527
 76006252, 0.009438219, 0.004473325, -0.003112711, 0.07486238, 0.003656319, 0.002141699, -0.001035288, 0.03719873, -0.9998226, -0.01876418, 44.78527
 76206172, 0.009684228, 0.006381097, -0.003000946, 0.07486238, 0.003218275, 0.002270947, -0.0004644586, 0.03719873, -0.9998235, -0.01867986, 44.78527
 76406092, 0.008871242, 0.007174412, -0.002584356, 0.07486238, 0.00317928, 0.003003936, -0.001125448, 0.03719873, -0.9998246, -0.01859069, 44.78527
 76606012, 0.008742577, 0.008195425, -0.002980074, 0.07486238, 0.003061669, 0.002920771, -0.001054871, 0.03719873, -0.9998268, -0.01845002, 44.78527
 76805932, 0.008659608, 0.008183326, -0.002864027, 0.07486238, 0.00297348, 0.002840113, -0.001000315, 0.03719873, -0.9998267, -0.01842295, 44.78527
 77005852, 0.008650951, 0.008316383, -0.0023629, 0.07486238, 0.002998678, 0.002835245, -0.0008245554, 0.03719873, -0.9998285, -0.0183364, 44.78527
 77205772, 0.008811953, 0.008329373, -0.002385813, 0.07486238, 0.003054154, 0.003268572, -0.001235828, 0.03719873, -0.9998313, -0.01818067, 44.78527
 77406525, 0.009455122, 0.00873837, -0.00271324, 0.07501738, 0.003455373, 0.002886101, -0.000567782, 0.03735372, -0.9998351, -0.0179752, 44.87799
 77606445, 0.01032898, 0.007638729, -0.002289784, 0.07501738, 0.003823162, 0.002493462, -0.00125912, 0.03719873, -0.9998387, -0.01778622, 44.87799
 77806365, 0.01074512, 0.007431068, -0.002978618, 0.07486238, 0.003820148, 0.003002278, -0.0008562203, 0.03719873, -0.9998419, -0.01759967, 44.78527
 78006285, 0.01108759, 0.007521957, -0.002620507, 0.07486238, 0.003933135, 0.002137741, -0.0007341201, 0.03719873, -0.9998455, -0.01741035, 44.78527
 78206205, 0.01185681, 0.00668202, -0.002691735, 0.07486238, 0.004198073, 0.002534863, -0.0009777627, 0.03719873, -0.999848, -0.01728267, 44.78527
 78406125, 0.01213061, 0.006743331, -0.002895779, 0.07486238, 0.004478786, 0.00249211, -0.000805374, 0.03719873, -0.9998498, -0.01720157, 44.78527
 78606045, 0.01328583, 0.006400827, -0.002956856, 0.07486238, 0.004828759, 0.002155813, -0.001382136, 0.03719873, -0.9998516, -0.01709756, 44.78527
 78805965, 0.01424656, 0.006002227, -0.003398378, 0.07486238, 0.005214294, 0.002060092, -0.001096002, 0.03719873, -0.9998542, -0.01696114, 44.78527
 79005885, 0.01484287, 0.00541981, -0.003237622, 0.07486238, 0.005413777, 0.002101728, -0.0008757449, 0.03719873, -0.9998565, -0.01684171, 44.78527
 79205805, 0.01524846, 0.00532345, -0.002842849, 0.07486238, 0.005297335, 0.00174901, -0.001050236, 0.03719873, -0.999859, -0.01668915, 44.78527
 79406558, 0.01570626, 0.00487875, -0.003085952, 0.07501738, 0.005395072, 0.001838926, -0.001219927, 0.03735372, -0.9998627, -0.01645876, 44.87799
 79606478, 0.01618076, 0.005324585, -0.003378859, 0.07501738, 0.006128455, 0.001968859, -0.001538513, 0.03719873, -0.9998673, -0.01617596, 44.87799
 79806398, 0.0172729, 0.005214618, -0.003836054, 0.07486238, 0.005954498, 0.001331859, -0.001291997, 0.03719873, -0.9998712, -0.01593719, 44.78527
 80006318, 0.01784771, 0.004676981, -0.004061186, 0.07486238, 0.006405781, 0.001590256, -0.001758494, 0.03719873, -0.9998723, -0.0158631, 44.78527
 80206238, 0.01844414, 0.004821248, -0.004502955, 0.07486238, 0.00661384, 0.001967995, -0.001603802, 0.03719873, -0.9998735, -0.01578302, 44.78527
 80406158, 0.01929285, 0.005401286, -0.004241434, 0.07486238, 0.006976909, 0.001729196, -0.001037718, 0.03719873, -0.9998779, -0.01549948, 44.78527
 80606078, 0.01998725, 0.005066589, -0.003523248, 0.07486238, 0.007133976, 0.00164943, -0.0009730547, 0.03719873, -0.9998798, -0.01537312, 44.78527
 80805998, 0.02063993, 0.00520781, -0.003403405, 0.07486238, 0.007397179, 0.001943925, -0.001583359, 0.03719873, -0.9998806, -0.01529092, 44.78527
 81005918, 0.02143824, 0.005714133, -0.003755428, 0.07486238, 0.007882386, 0.002109084, -0.001566814, 0.03719873, -0.9998825, -0.01517369, 44.78527
 81205838, 0.02248585, 0.005697558, -0.004045388, 0.07486238, 0.008044185, 0.001916099, -0.00201122, 0.03719873, -0.9998847, -0.01502989, 44.78527
 81406591, 0.02285125, 0.005458433, -0.003969073, 0.07501738, 0.008031835, 0.001874365, -0.0008615808, 0.03735372, -0.99989, -0.0146597, 44.87799
 81606511, 0.02321729, 0.005556577, -0.002889624, 0.07501738, 0.008449549, 0.002240731, -0.001122214, 0.03719873, -0.9998951, -0.01430596, 44.87799
 81806431, 0.02408642, 0.005763838, -0.003521803, 0.07486238, 0.008662946, 0.00180639, -0.001351765, 0.03719873, -0.9998969, -0.01420356, 44.78527
 82006351, 0.02377579, 0.005156931, -0.003249581, 0.07486238, 0.007758488, 0.001963268, -0.001115248, 0.03719873, -0.9998949, -0.01433287, 44.78527
 82206271, 0.02283241, 0.005614986, -0.00316569, 0.07486238, 0.008363032, 0.002003064, -0.000898768, 0.03719873, -0.9998966, -0.01420202, 44.78527
 82406191, 0.02426081, 0.005473156, -0.003047208, 0.07486238, 0.009029081, 0.001669607, -0.0009097619, 0.03719873, -0.999902, -0.01381997, 44.78527
 82606111, 0.02607277, 0.005219787, -0.003268545, 0.07486238, 0.009304503, 0.001944641, -0.002018005, 0.03719873, -0.9999067, -0.01348159, 44.78527
 82806031, 0.02729398, 0.00519821, -0.003837344, 0.07486238, 0.009730777, 0.001608559, -0.0008394172, 0.03719873, -0.9999081, -0.01337676, 44.78527
 83005951, 0.02822238, 0.004856736, -0.003128977, 0.07486238, 0.009944554, 0.001726427, -0.001079122, 0.03719873, -0.9999106, -0.01320205, 44.78527
 83205871, 0.02920845, 0.004783782, -0.003096559, 0.07486238, 0.01060948, 0.001667292, -0.001092797, 0.03719873, -0.9999132, -0.01299528, 44.78527
 83405791, 0.03013177, 0.004850596, -0.003225015, 0.07486238, 0.01058666, 0.001675155, -0.001465841, 0.03719873, -0.999915, -0.01286598, 44.78527
 83606544, 0.03059591, 0.004717754, -0.003668571, 0.07501738, 0.01088845, 0.001775094, -0.001460934, 0.03735372, -0.9999163, -0.01277336, 44.87799
 83806464, 0.031439, 0.004872132, -0.003603709, 0.07501738, 0.01087372, 0.00176164, -0.001207755, 0.03719873, -0.9999189, -0.01257189, 44.87799
 84006384, 0.03160105, 0.00469149, -0.003321273, 0.07486238, 0.0111142, 0.001529975, -0.001281694, 0.03719873, -0.9999225, -0.01227443, 44.78527
 84206304, 0.03251711, 0.004620678, -0.003533857, 0.07486238, 0.01186212, 0.001532045, -0.0007032883, 0.03719873, -0.9999236, -0.01218668, 44.78527
 84406224, 0.03334161, 0.00448908, -0.002575301, 0.07486238, 0.01139873, 0.001428738, -0.0009638852, 0.03719873, -0.9999239, -0.01219322, 44.78527
 84606144, 0.03310255, 0.004114654, -0.003200834, 0.07486238, 0.01201835, 0.001417356, -0.0009363039, 0.03719873, -0.9999251, -0.01210116, 44.78527
 84806064, 0.03454202, 0.003858768, -0.003024242, 0.07486238, 0.01226133, 0.001217825, -0.001087509, 0.03719873, -0.9999272, -0.01194072, 44.78527
 85005984, 0.03504745, 0.004011839, -0.003328497, 0.07486238, 0.01220058, 0.00182577, -0.0008431625, 0.03719873, -0.9999288, -0.011813, 44.78527
 85205904, 0.0359432, 0.003993296, -0.00307788, 0.07486238, 0.01280472, 0.00106594, -0.0007765344, 0.03719873, -0.999931, -0.01165042, 44.78527
 85405824, 0.03750956, 0.002815257, -0.003072571, 0.07486238, 0.0135144, 0.0009598087, -0.001022957, 0.03719873, -0.9999326, -0.01153897, 44.78527
 85606577, 0.03668034, 0.002563968, -0.002895995, 0.07501738, 0.012414, 0.0008292343, -0.0004475296, 0.03735372, -0.9999347, -0.01135062, 44.87799
 85806497, 0.03556665, 0.002766684, -0.002939551, 0.07501738, 0.0128726, 0.001208951, -0.001239166, 0.03719873, -0.9999357, -0.01127652, 44.87799
 86006417, 0.03719354, 0.002763157, -0.003171408, 0.07486238, 0.01349758, 0.0008836382, -0.001774478, 0.03719873, -0.9999362, -0.01123233, 44.78527
 86206337, 0.03894876, 0.002678325, -0.004071869, 0.07486238, 0.01374109, 0.0008728963, -0.001258291, 0.03719873, -0.9999373, -0.01114392, 44.78527
 86406257, 0.04000612, 0.002291048, -0.003580014, 0.07486238, 0.0141043, 0.0007143675, -0.0008312083, 0.03719873, -0.999939, -0.01101181, 44.78527
 86606177, 0.04077574, 0.002140645, -0.003643914, 0.07486238, 0.01485785, 0.0006589342, -0.001792529, 0.03719873, -0.9999404, -0.01088932, 44.78527
 86806097, 0.04209946, 0.001806574, -0.004580202, 0.07486238, 0.01483238, 0.0004615517, -0.001819594, 0.03719873, -0.9999404, -0.01089954, 44.78527
 87006017, 0.04272577, 0.001085765, -0.004618251, 0.07486238, 0.01512723, 0.0002922682, -0.001246707, 0.03719873, -0.9999399, -0.01095743, 44.78527
 87205937, 0.04343941, 0.001067485, -0.004274506, 0.07486238, 0.01559654, 0.0005420103, -0.001448673, 0.03719873, -0.9999391, -0.0110208, 44.78527
 87405857, 0.04427661, 0.001128491, -0.004201666, 0.07486238, 0.01542445, 0.0004936241, -0.001480681, 0.03719873, -0.9999389, -0.01105444, 44.78527
 87605777, 0.04435164, 0.00118859, -0.004347208, 0.07486238, 0.01565969, 0.000193791, -0.00164752, 0.03719873, -0.9999399, -0.01096682, 44.78527
 87806530, 0.04496768, 0.000184295, -0.00419192, 0.07501738, 0.01579518, -4.671454E-05, -0.001540174, 0.03735372, -0.9999419, -0.01076748, 44.87799
 88006450, 0.04550814, -0.0006955343, -0.00387213, 0.07501738, 0.01613491, -0.0004504049, -0.001332183, 0.03719873, -0.9999454, -0.01041566, 44.87799
 88206370, 0.04658414, -0.001599489, -0.003703692, 0.07486238, 0.01636113, -0.000864321, -0.001402295, 0.03719873, -0.999951, -0.009816622, 44.78527
 88406290, 0.04736538, -0.002237409, -0.003936328, 0.07486238, 0.01687381, -0.0003228815, -0.001936362, 0.03719873, -0.999958, -0.009086695, 44.78527
 88606210, 0.04833987, -0.001107481, -0.004854066, 0.07486238, 0.01721058, -0.0007797347, -0.001645953, 0.03719873, -0.9999609, -0.00872915, 44.78527
 88806130, 0.04935708, -0.001811867, -0.004228399, 0.07486238, 0.01734542, -0.0006189101, -0.0009472836, 0.03719873, -0.9999599, -0.008824693, 44.78527
