TimeUS,CGpN,CGpE,CGpD,CGpe,PGpN,PGpE,PGpD,PGpe
 41386810, -0.02, -0.003, 0.061, 1.252, 0.043, -0.01, 0.009000001, 1.252
 41586767, -0.007, -0.007, -0.019, 1.251, -0.02, -0.003, 0.061, 1.252
 41786780, -0.079, 0.043, -0.024, 1.251, -0.007, -0.007, -0.019, 1.251
 41986840, -0.017, 0.016, 0.028, 1.25, -0.079, 0.043, -0.024, 1.251
 42186782, 0.033, -0.026, 0.071, 1.249, -0.017, 0.016, 0.028, 1.25
 42386795, 0.07700001, -0.109, 0.021, 1.249, 0.033, -0.026, 0.071, 1.249
 42586799, 0.029, -0.039, -0.114, 1.248, 0.07700001, -0.109, 0.021, 1.249
 42786824, 0.014, -0.029, -0.011, 1.248, 0.029, -0.039, -0.114, 1.248
 42986795, 0.035, -0.054, 0.007, 1.247, 0.014, -0.029, -0.011, 1.248
 43186790, -0.004, -0.012, -0.016, 1.246, 0.035, -0.054, 0.007, 1.247
 43386771, -0.044, 0.063, 0.015, 1.245, -0.004, -0.012, -0.016, 1.246
 43586893, 0.004, -0.01, -0.024, 1.245, -0.044, 0.063, 0.015, 1.245
 43787420, 0.017, -0.011, 0.071, 1.244, 0.004, -0.01, -0.024, 1.245
 43987230, -0.015, 0.022, -0.016, 1.243, 0.017, -0.011, 0.071, 1.244
 44187251, 0.011, -0.016, -0.033, 1.243, -0.015, 0.022, -0.016, 1.243
 44386830, -0.004, -0.012, -0.056, 1.242, 0.011, -0.016, -0.033, 1.243
 44586999, -0.032, -0.008, -0.078, 1.241, -0.004, -0.012, -0.056, 1.242
 44786771, -0.08000001, 0.168, -0.112, 1.241, -0.032, -0.008, -0.078, 1.241
 44986761, 0.003, -0.028, 0.031, 1.24, -0.08000001, 0.168, -0.112, 1.241
 45186711, -0.013, -0.055, -0.127, 1.24, 0.003, -0.028, 0.031, 1.24
 45386690, -0.005, -0.023, -0.064, 1.24, -0.013, -0.055, -0.127, 1.24
 45586727, -0.007, -0.033, -0.052, 1.239, -0.005, -0.023, -0.064, 1.24
 45786715, -0.08000001, 0.036, -0.103, 1.239, -0.007, -0.033, -0.052, 1.239
 45986720, -0.009000001, 0.079, -0.051, 1.238, -0.08000001, 0.036, -0.103, 1.239
 46186718, -0.022, -0.021, -0.051, 1.238, -0.009000001, 0.079, -0.051, 1.238
 46386729, 0.004, -0.063, -0.041, 1.238, -0.022, -0.021, -0.051, 1.238
 46586691, -0.052, 0.066, -0.083, 1.238, 0.004, -0.063, -0.041, 1.238
 46786705, -0.035, -0.01, -0.009000001, 1.237, -0.052, 0.066, -0.083, 1.238
 46987422, -0.036, 0.07700001, -0.041, 1.237, -0.035, -0.01, -0.009000001, 1.237
 47186691, 0.016, -0.014, -0.038, 1.237, -0.036, 0.07700001, -0.041, 1.237
 47386696, -0.031, -0.009000001, -0.066, 1.236, 0.016, -0.014, -0.038, 1.237
 47586695, -0.008, 0.007, -0.062, 1.235, -0.031, -0.009000001, -0.066, 1.236
 47786735, -0.006, -0.026, -0.046, 1.235, -0.008, 0.007, -0.062, 1.235
 47986746, 0.04, -0.087, 0, 1.235, -0.006, -0.026, -0.046, 1.235
 48186719, -0.008, 0.021, 0.011, 1.235, 0.04, -0.087, 0, 1.235
 48386703, -0.028, -0.017, -0.018, 1.234, -0.008, 0.021, 0.011, 1.235
 48586690, -0.022, 0.03, -0.002, 1.234, -0.028, -0.017, -0.018, 1.234
 48786743, 0.015, 0.09100001, 0.001, 1.233, -0.022, 0.03, -0.002, 1.234
 48986690, 0.051, -0.026, 0.036, 1.233, 0.015, 0.09100001, 0.001, 1.233
 49186747, -0.012, -0.034, -0.031, 1.232, 0.051, -0.026, 0.036, 1.233
 49386756, 0.005, 0.023, 0.014, 1.232, -0.012, -0.034, -0.031, 1.232
 49586741, 0.083, -0.039, 0.007, 1.231, 0.005, 0.023, 0.014, 1.232
 49786765, -0.024, 0.021, -0.128, 1.23, 0.083, -0.039, 0.007, 1.231
 49986780, -0.012, 0.022, 0.016, 1.229, -0.024, 0.021, -0.128, 1.23
 50186732, 0.039, -0.02, 0.052, 1.229, -0.012, 0.022, 0.016, 1.229
 50387104, 0.005, 0.002, 0.019, 1.229, 0.039, -0.02, 0.052, 1.229
 50587110, 0.03, 0.011, -0.01, 1.229, 0.005, 0.002, 0.019, 1.229
 50787091, -0.056, 0.066, -0.006, 1.229, 0.03, 0.011, -0.01, 1.229
 50987109, -0.019, -0.059, -0.062, 1.229, -0.056, 0.066, -0.006, 1.229
 51187094, 0.003, 0.003, -0.024, 1.229, -0.019, -0.059, -0.062, 1.229
 51386775, -0.064, 0.044, -0.081, 1.229, 0.003, 0.003, -0.024, 1.229
 51586763, -0.006, 0.031, -0.024, 1.229, -0.064, 0.044, -0.081, 1.229
 51786795, 0.027, 0.038, -0.033, 1.229, -0.006, 0.031, -0.024, 1.229
 51986881, -0.013, -0.005, -0.024, 1.229, 0.027, 0.038, -0.033, 1.229
 52186759, 0.07700001, -0.07600001, -0.025, 1.229, -0.013, -0.005, -0.024, 1.229
 52386751, -0.071, 0.007, -0.126, 1.229, 0.07700001, -0.07600001, -0.025, 1.229
 52586765, -0.012, -0.003, -0.027, 1.23, -0.071, 0.007, -0.126, 1.229
 52786771, 0.005, -0.019, -0.001, 1.23, -0.012, -0.003, -0.027, 1.23
 52986837, 0.016, -0.064, 0.07700001, 1.23, 0.005, -0.019, -0.001, 1.23
 53186764, -0.019, -0.032, -0.03, 1.231, 0.016, -0.064, 0.07700001, 1.23
 53386783, -0.021, 0.049, 0.015, 1.231, -0.019, -0.032, -0.03, 1.231
 53586816, 0.044, -0.041, 0.001, 1.232, -0.021, 0.049, 0.015, 1.231
 53786758, -0.037, 0.04, -0.026, 1.233, 0.044, -0.041, 0.001, 1.232
 54006831, -0.07700001, -0.037, -0.087, 1.234, -0.037, 0.04, -0.026, 1.233
 54186781, -0.001, -0.38, -0.071, 1.234, -0.07700001, -0.037, -0.087, 1.234
 54386788, -0.093, -0.482, -0.212, 1.235, -0.001, -0.38, -0.071, 1.234
 54586778, -0.202, -0.557, -0.316, 1.235, -0.093, -0.482, -0.212, 1.235
 54786793, -0.3, -0.864, -0.464, 1.236, -0.202, -0.557, -0.316, 1.235
 54986784, -0.337, -0.9950001, -0.346, 1.237, -0.3, -0.864, -0.464, 1.236
 55186783, -0.188, -1.289, -0.646, 1.239, -0.337, -0.9950001, -0.346, 1.237
 55386817, -0.122, -0.969, -0.8150001, 1.24, -0.188, -1.289, -0.646, 1.239
 55586747, -0.151, -0.7690001, -1.294, 1.24, -0.122, -0.969, -0.8150001, 1.24
 55786754, -0.217, -1.099, -1.454, 1.241, -0.151, -0.7690001, -1.294, 1.24
 55986774, -0.278, -1.212, -1.488, 1.241, -0.217, -1.099, -1.454, 1.241
 56206771, -0.788, -0.647, -1.675, 1.242, -0.278, -1.212, -1.488, 1.241
 56387124, -0.8470001, -1.036, -1.392, 1.243, -0.788, -0.647, -1.675, 1.242
 56587119, -1.003, -1.043, -1.338, 1.243, -0.8470001, -1.036, -1.392, 1.243
 56787132, -1.148, -0.913, -1.269, 1.246, -1.003, -1.043, -1.338, 1.243
 56987193, -1.165, -1.339, -1.123, 1.249, -1.148, -0.913, -1.269, 1.246
 57206753, -1.166, -1.374, -0.7870001, 1.253, -1.165, -1.339, -1.123, 1.249
 57406809, -1.187, -1.312, -0.605, 1.257, -1.166, -1.374, -0.7870001, 1.253
 57606797, -1.638, -1.317, -0.705, 1.257, -1.187, -1.312, -0.605, 1.257
 57786788, -1.561, -1.334, -0.064, 1.252, -1.638, -1.317, -0.705, 1.257
 57986795, -1.539, -1.304, -0.279, 1.249, -1.561, -1.334, -0.064, 1.252
 58186781, -1.621, -1.393, -0.1, 1.25, -1.539, -1.304, -0.279, 1.249
 58386753, -1.905, -1.222, 0.005, 1.251, -1.621, -1.393, -0.1, 1.25
 58586785, -2.22, -1.112, 0.211, 1.252, -1.905, -1.222, 0.005, 1.251
 58807369, -2.306, -0.9850001, 0.224, 1.254, -2.22, -1.112, 0.211, 1.252
 58986799, -2.425, -1.056, 0.152, 1.255, -2.306, -0.9850001, 0.224, 1.254
 59186781, -2.534, -1.368, 0.35, 1.258, -2.425, -1.056, 0.152, 1.255
 59386743, -2.698, -1.061, 0.025, 1.261, -2.534, -1.368, 0.35, 1.258
 59586770, -2.629, -1.23, 0.357, 1.262, -2.698, -1.061, 0.025, 1.261
 59786782, -2.588, -1.436, 0.625, 1.263, -2.629, -1.23, 0.357, 1.262
 59986780, -2.442, -1.479, 0.33, 1.26, -2.588, -1.436, 0.625, 1.263
 60186746, -2.571, -1.204, 0.122, 1.26, -2.442, -1.479, 0.33, 1.26
 60386875, -2.283, -1.469, -0.012, 1.258, -2.571, -1.204, 0.122, 1.26
 60586798, -2.214, -1.608, -0.123, 1.258, -2.283, -1.469, -0.012, 1.258
 60788396, -2.094, -1.855, -0.361, 1.258, -2.214, -1.608, -0.123, 1.258
 60987167, -2.109, -1.555, -0.989, 1.26, -2.094, -1.855, -0.361, 1.258
 61187182, -1.913, -1.639, -1.275, 1.261, -2.109, -1.555, -0.989, 1.26
 61386995, -1.632, -2.081, -1.191, 1.263, -1.913, -1.639, -1.275, 1.261
 61586842, -1.571, -2.287, -1.235, 1.265, -1.632, -2.081, -1.191, 1.263
 61786846, -1.784, -2.056, -1.106, 1.267, -1.571, -2.287, -1.235, 1.265
 61986864, -1.524, -2.234, -0.9400001, 1.268, -1.784, -2.056, -1.106, 1.267
 62186849, -1.901, -2.027, -0.423, 1.27, -1.524, -2.234, -0.9400001, 1.268
 62386839, -2.042, -2.219, -0.522, 1.273, -1.901, -2.027, -0.423, 1.27
 62586993, -2.191, -2.108, -0.117, 1.273, -2.042, -2.219, -0.522, 1.273
 62786839, -2.655, -1.757, -0.315, 1.268, -2.191, -2.108, -0.117, 1.273
 62986854, -2.887, -1.639, -0.155, 1.263, -2.655, -1.757, -0.315, 1.268
 63186858, -3.045, -1.612, -0.187, 1.262, -2.887, -1.639, -0.155, 1.263
 63386836, -2.897, -1.53, -0.175, 1.262, -3.045, -1.612, -0.187, 1.262
 63586844, -2.78, -1.53, -0.168, 1.261, -2.897, -1.53, -0.175, 1.262
 63786856, -2.633, -1.433, -0.034, 1.258, -2.78, -1.53, -0.168, 1.261
 63986860, -2.555, -1.226, 0.07300001, 1.256, -2.633, -1.433, -0.034, 1.258
 64186843, -2.573, -1.104, 0.025, 1.254, -2.555, -1.226, 0.07300001, 1.256
 64386985, -2.564, -0.932, 0.038, 1.253, -2.573, -1.104, 0.025, 1.254
 64586971, -2.503, -0.845, 0.102, 1.253, -2.564, -0.932, 0.038, 1.253
 64786848, -2.673, -0.786, 0.062, 1.253, -2.503, -0.845, 0.102, 1.253
 64986847, -2.604, -0.665, 0.09900001, 1.251, -2.673, -0.786, 0.062, 1.253
 65186841, -2.544, -0.688, 0.121, 1.249, -2.604, -0.665, 0.09900001, 1.251
 65386846, -2.655, -0.618, -0.027, 1.246, -2.544, -0.688, 0.121, 1.249
 65586965, -2.608, -0.689, 0.064, 1.244, -2.655, -0.618, -0.027, 1.246
 65786802, -2.587, -0.655, -0.121, 1.246, -2.608, -0.689, 0.064, 1.244
 65986841, -2.593, -0.649, 0.019, 1.249, -2.587, -0.655, -0.121, 1.246
 66186846, -2.358, -0.753, -0.015, 1.253, -2.593, -0.649, 0.019, 1.249
 66386848, -2.292, -0.756, -0.025, 1.255, -2.358, -0.753, -0.015, 1.253
 66586825, -2.09, -0.897, 0.008, 1.254, -2.292, -0.756, -0.025, 1.255
 66786831, -1.964, -0.876, -0.053, 1.253, -2.09, -0.897, 0.008, 1.254
 66986923, -1.914, -0.8340001, 0.085, 1.252, -1.964, -0.876, -0.053, 1.253
 67186938, -1.548, -1.004, 0.417, 1.254, -1.914, -0.8340001, 0.085, 1.252
 67386916, -1.327, -0.686, 0.087, 1.251, -1.548, -1.004, 0.417, 1.254
 67586905, -1.124, -0.367, 0.179, 1.244, -1.327, -0.686, 0.087, 1.251
 67787413, -0.822, -0.373, 0.193, 1.243, -1.124, -0.367, 0.179, 1.244
 67987645, -0.725, -0.192, 0.07300001, 1.242, -0.822, -0.373, 0.193, 1.243
 68187352, -0.575, -0.124, 0.011, 1.245, -0.725, -0.192, 0.07300001, 1.242
 68387373, -0.426, -0.136, -0.048, 1.246, -0.575, -0.124, 0.011, 1.245
 68586922, -0.42, -0.096, -0.146, 1.245, -0.426, -0.136, -0.048, 1.246
 68787052, -0.299, -0.154, -0.079, 1.249, -0.42, -0.096, -0.146, 1.245
 68986953, -0.221, -0.051, -0.151, 1.248, -0.299, -0.154, -0.079, 1.249
 69186930, -0.109, -0.211, -0.248, 1.247, -0.221, -0.051, -0.151, 1.248
 69386939, -0.004, -0.265, -0.244, 1.248, -0.109, -0.211, -0.248, 1.247
 69586941, 0.007, -0.152, -0.123, 1.25, -0.004, -0.265, -0.244, 1.248
 69787106, 0.016, -0.049, -0.201, 1.25, 0.007, -0.152, -0.123, 1.25
 69986943, 0.212, -0.053, -0.212, 1.25, 0.016, -0.049, -0.201, 1.25
 70186922, 0.157, -0.178, -0.066, 1.252, 0.212, -0.053, -0.212, 1.25
 70386935, 0.074, -0.032, -0.154, 1.253, 0.157, -0.178, -0.066, 1.252
 70586905, 0.109, -0.007, -0.14, 1.253, 0.074, -0.032, -0.154, 1.253
 70786933, 0.08800001, 0.072, -0.185, 1.253, 0.109, -0.007, -0.14, 1.253
 70986945, -0.057, 0.124, -0.121, 1.253, 0.08800001, 0.072, -0.185, 1.253
 71186925, -0.051, 0.08000001, -0.107, 1.254, -0.057, 0.124, -0.121, 1.253
 71386938, -0.011, 0.134, 0.038, 1.254, -0.051, 0.08000001, -0.107, 1.254
 71587069, -0.023, 0.195, -0.068, 1.25, -0.011, 0.134, 0.038, 1.254
 71786911, -0.015, 0.142, -0.074, 1.248, -0.023, 0.195, -0.068, 1.25
 71986939, -0.022, 0.035, -0.126, 1.245, -0.015, 0.142, -0.074, 1.248
 72186917, -0.012, -0.017, -0.052, 1.246, -0.022, 0.035, -0.126, 1.245
 72386921, -0.034, 0.025, -0.005, 1.246, -0.012, -0.017, -0.052, 1.246
 72586927, 0.025, -0.135, -0.02, 1.246, -0.034, 0.025, -0.005, 1.246
 72786943, 0.063, -0.16, 0.013, 1.247, 0.025, -0.135, -0.02, 1.246
 72987062, -0.032, -0.137, 0.029, 1.248, 0.063, -0.16, 0.013, 1.247
 73186997, 0.066, -0.055, 0.024, 1.253, -0.032, -0.137, 0.029, 1.248
 73387065, 0.041, -0.013, -0.003, 1.255, 0.066, -0.055, 0.024, 1.253
 73586918, 0.043, 0.059, -0.066, 1.253, 0.041, -0.013, -0.003, 1.255
 73786920, 0.016, 0.05, -0.034, 1.255, 0.043, 0.059, -0.066, 1.253
 73987068, 0.055, 0.06900001, 0.093, 1.258, 0.016, 0.05, -0.034, 1.255
 74188416, 0.08000001, 0.064, 0.062, 1.26, 0.055, 0.06900001, 0.093, 1.258
 74387361, 0.08800001, 0.06500001, -0.044, 1.26, 0.08000001, 0.064, 0.062, 1.26
 74587365, 0.035, 0.027, 0.002, 1.259, 0.08800001, 0.06500001, -0.044, 1.26
 74787412, 0.068, 0.071, -0.036, 1.257, 0.035, 0.027, 0.002, 1.259
 74986943, 0.059, 0.071, 0.005, 1.255, 0.068, 0.071, -0.036, 1.257
 75187076, 0.067, 0.007, -0.024, 1.255, 0.059, 0.071, 0.005, 1.255
 75386943, 0.071, 0.06900001, 0.002, 1.257, 0.067, 0.007, -0.024, 1.255
 75586959, 0.042, 0.006, 0.079, 1.259, 0.071, 0.06900001, 0.002, 1.257
 75786940, -0.005, 0.102, 0.061, 1.26, 0.042, 0.006, 0.079, 1.259
 75986951, -0.019, 0.039, -0.01, 1.26, -0.005, 0.102, 0.061, 1.26
 76186925, -0.026, -0.06, 0.034, 1.26, -0.019, 0.039, -0.01, 1.26
 76386928, -0.093, 0.151, -0.097, 1.262, -0.026, -0.06, 0.034, 1.26
 76586919, -0.05, 0.061, -0.064, 1.266, -0.093, 0.151, -0.097, 1.262
 76786943, -0.024, 0.024, -0.039, 1.269, -0.05, 0.061, -0.064, 1.266
 76987074, -0.16, 0.059, 0.039, 1.273, -0.024, 0.024, -0.039, 1.269
 77187480, -0.161, 0.064, -0.104, 1.276, -0.16, 0.059, 0.039, 1.273
 77387385, -0.072, -0.017, -0.086, 1.279, -0.161, 0.064, -0.104, 1.276
 77587316, -0.014, -0.116, -0.006, 1.282, -0.072, -0.017, -0.086, 1.279
 77787354, -0.025, -0.169, 0.01, 1.285, -0.014, -0.116, -0.006, 1.282
 77987431, -0.07700001, -0.112, -0.098, 1.286, -0.025, -0.169, 0.01, 1.285
 78187612, -0.026, -0.17, -0.079, 1.288, -0.07700001, -0.112, -0.098, 1.286
 78387427, -0.011, -0.273, -0.017, 1.287, -0.026, -0.17, -0.079, 1.288
 78587379, 0.002, -0.24, -0.01, 1.285, -0.011, -0.273, -0.017, 1.287
 78787075, 0.037, -0.253, 0.025, 1.285, 0.002, -0.24, -0.01, 1.285
 78986941, -0.039, -0.137, 0.082, 1.285, 0.037, -0.253, 0.025, 1.285
 79186921, -0.057, -0.135, 0.064, 1.286, -0.039, -0.137, 0.082, 1.285
 79386945, -0.03, -0.024, 0.082, 1.285, -0.057, -0.135, 0.064, 1.286
 79586944, 0.058, -0.063, 0.016, 1.286, -0.03, -0.024, 0.082, 1.285
 79786911, 0.06, -0.042, 0.061, 1.288, 0.058, -0.063, 0.016, 1.286
 79986962, 0.03, 0.018, 0.072, 1.289, 0.06, -0.042, 0.061, 1.288
 80186941, -0.07, 0.08400001, 0.136, 1.292, 0.03, 0.018, 0.072, 1.289
 80386951, -0.03, 0.036, 0.09500001, 1.296, -0.07, 0.08400001, 0.136, 1.292
 80587050, -0.06900001, -0.024, 0.166, 1.298, -0.03, 0.036, 0.09500001, 1.296
 80786921, -0.064, 0.005, 0.032, 1.298, -0.06900001, -0.024, 0.166, 1.298
 80986926, -0.033, 0.068, 0.047, 1.295, -0.064, 0.005, 0.032, 1.298
 81186909, 0.026, 0.101, 0.025, 1.295, -0.033, 0.068, 0.047, 1.295
 81387066, -0.011, 0.161, -0.104, 1.293, 0.026, 0.101, 0.025, 1.295
 81586919, 0.07, 0.103, -0.071, 1.291, -0.011, 0.161, -0.104, 1.293
 81786914, 0.049, 0.129, -0.08400001, 1.293, 0.07, 0.103, -0.071, 1.291
 81986940, 0.029, 0.112, -0.106, 1.293, 0.049, 0.129, -0.08400001, 1.293
 82186946, 0.026, -0.015, -0.035, 1.295, 0.029, 0.112, -0.106, 1.293
 82388745, -0.019, 0.002, -0.033, 1.295, 0.026, -0.015, -0.035, 1.295
 82587375, 0.001, -0.043, -0.008, 1.294, -0.019, 0.002, -0.033, 1.295
 82787380, -0.001, -0.011, -0.057, 1.292, 0.001, -0.043, -0.008, 1.294
 82987387, -0.043, -0.024, 0.006, 1.287, -0.001, -0.011, -0.057, 1.292
 83187365, -0.028, 0.021, 0.07600001, 1.286, -0.043, -0.024, 0.006, 1.287
 83387422, 0.003, 0.035, 0.005, 1.284, -0.028, 0.021, 0.07600001, 1.286
 83786949, -0.035, 0.148, -0.08400001, 1.279, -0.045, 0.134, -0.08400001, 1.281
 83986947, -0.034, 0.107, -0.052, 1.277, -0.035, 0.148, -0.08400001, 1.279
 84187097, -0.028, 0.09100001, -0.019, 1.276, -0.034, 0.107, -0.052, 1.277
 84386927, 0.013, 0.12, 0.005, 1.275, -0.028, 0.09100001, -0.019, 1.276
 84586946, 0.028, 0.051, 0.011, 1.274, 0.013, 0.12, 0.005, 1.275
 84786917, 0.094, -0.057, 0.089, 1.273, 0.028, 0.051, 0.011, 1.274
 84986960, 0.004, -0.024, -0.042, 1.273, 0.094, -0.057, 0.089, 1.273
 85186941, 0.034, -0.116, 0.019, 1.275, 0.004, -0.024, -0.042, 1.273
 85386956, -0.024, -0.143, 0.05, 1.277, 0.034, -0.116, 0.019, 1.275
 85587137, 0.075, -0.235, 0.09, 1.28, -0.024, -0.143, 0.05, 1.277
 85786947, 0.068, -0.305, -0.02, 1.284, 0.075, -0.235, 0.09, 1.28
 85987090, 0.023, -0.199, 0.051, 1.286, 0.068, -0.305, -0.02, 1.284
 86186959, 0.028, -0.172, -0.025, 1.288, 0.023, -0.199, 0.051, 1.286
 86386927, 0.045, -0.141, -0.051, 1.29, 0.028, -0.172, -0.025, 1.288
 86587062, 0.037, -0.137, 0.042, 1.291, 0.045, -0.141, -0.051, 1.29
 86786918, 0.055, -0.034, 0.058, 1.292, 0.037, -0.137, 0.042, 1.291
 86986947, 0.013, 0.036, -0.038, 1.293, 0.055, -0.034, 0.058, 1.292
 87186932, -0.002, 0.03, 0.056, 1.295, 0.013, 0.036, -0.038, 1.293
 87386937, -0.019, 0.114, 0.108, 1.297, -0.002, 0.03, 0.056, 1.295
 87586912, -0.07600001, 0.167, 0.102, 1.299, -0.019, 0.114, 0.108, 1.297
 87787066, -0.142, 0.145, 0.066, 1.302, -0.07600001, 0.167, 0.102, 1.299
 87986939, -0.041, 0.119, 0.023, 1.303, -0.142, 0.145, 0.066, 1.302
 88186913, -0.081, 0.024, -0.006, 1.304, -0.041, 0.119, 0.023, 1.303
 88386922, -0.057, 0.029, -0.02, 1.306, -0.081, 0.024, -0.006, 1.304
 88586921, -0.118, 0.001, -0.029, 1.309, -0.057, 0.029, -0.02, 1.306
 88786907, -0.02, -0.035, -0.041, 1.311, -0.118, 0.001, -0.029, 1.309
 88986960, -0.025, 0.074, -0.058, 1.313, -0.02, -0.035, -0.041, 1.311
 89186943, 0.032, -0.1, -0.086, 1.315, -0.025, 0.074, -0.058, 1.313
 89386930, -0.013, 0, -0.07700001, 1.319, 0.032, -0.1, -0.086, 1.315
 89587057, -0.036, 0.001, 0.014, 1.321, -0.013, 0, -0.07700001, 1.319
 89787029, -0.063, 0.019, -0.079, 1.323, -0.036, 0.001, 0.014, 1.321
 89986938, 0, 0.007, 0.078, 1.324, -0.063, 0.019, -0.079, 1.323
 90186908, -0.03, 0.027, 0.055, 1.324, 0, 0.007, 0.078, 1.324
 90386929, 0.062, -0.038, 0.024, 1.325, -0.03, 0.027, 0.055, 1.324
 90586899, 0.09100001, -0.033, 0.035, 1.321, 0.062, -0.038, 0.024, 1.325
 90787032, 0.018, 0.041, 0.041, 1.319, 0.09100001, -0.033, 0.035, 1.321
 90986927, 0.074, 0.027, 0.08000001, 1.316, 0.018, 0.041, 0.041, 1.319
 91186928, -0.045, 0.098, 0.124, 1.317, 0.074, 0.027, 0.08000001, 1.316
 91387057, 0.094, 0.105, -0.003, 1.322, -0.045, 0.098, 0.124, 1.317
 91586896, 0.082, 0.03, -0.13, 1.325, 0.094, 0.105, -0.003, 1.322
 91786930, -0.006, 0.058, -0.044, 1.327, 0.082, 0.03, -0.13, 1.325
 91986932, 0.051, 0.097, -0.056, 1.327, -0.006, 0.058, -0.044, 1.327
 92188392, 0.08000001, 0.037, -0.006, 1.325, 0.051, 0.097, -0.056, 1.327
 92387354, 0.05, 0.06500001, -0.007, 1.323, 0.08000001, 0.037, -0.006, 1.325
 92587389, 0.043, 0.089, -0.063, 1.32, 0.05, 0.06500001, -0.007, 1.323
 92787382, -0.003, -0.06500001, 0.036, 1.319, 0.043, 0.089, -0.063, 1.32
 92987432, 0.05, 0.009000001, 0.036, 1.315, -0.003, -0.06500001, 0.036, 1.319
 93187061, 0.041, 0.001, -0.004, 1.312, 0.05, 0.009000001, 0.036, 1.315
 93386943, 0.024, -0.039, -0.045, 1.311, 0.041, 0.001, -0.004, 1.312
 93586950, -0.06500001, 0.013, 0.042, 1.307, 0.024, -0.039, -0.045, 1.311
 93786939, -0.04, -0.017, -0.038, 1.305, -0.06500001, 0.013, 0.042, 1.307
 93987070, -0.074, -0.042, -0.113, 1.302, -0.04, -0.017, -0.038, 1.305
 94186934, -0.02, -0.068, 0.021, 1.3, -0.074, -0.042, -0.113, 1.302
 94386922, -0.022, -0.039, -0.054, 1.298, -0.02, -0.068, 0.021, 1.3
 94586933, -0.032, -0.027, -0.034, 1.296, -0.022, -0.039, -0.054, 1.298
 94786947, -0.011, -0.007, 0.022, 1.293, -0.032, -0.027, -0.034, 1.296
 94987134, -0.036, 0.02, 0.019, 1.291, -0.011, -0.007, 0.022, 1.293
 95186931, 0.008, -0.004, 0.019, 1.29, -0.036, 0.02, 0.019, 1.291
 95386934, 0.024, 0.037, 0.07, 1.287, 0.008, -0.004, 0.019, 1.29
 95586924, 0.018, 0.093, -0.035, 1.285, 0.024, 0.037, 0.07, 1.287
 95786920, 0.05, 0.08000001, 0.025, 1.283, 0.018, 0.093, -0.035, 1.285
 95986938, 0.017, 0.063, 0.05, 1.281, 0.05, 0.08000001, 0.025, 1.283
 96186904, -0.005, 0.006, -0.022, 1.28, 0.017, 0.063, 0.05, 1.281
 96386922, -0.01, -0.072, -0.142, 1.278, -0.005, 0.006, -0.022, 1.28
 96586931, -0.027, -0.165, -0.032, 1.275, -0.01, -0.072, -0.142, 1.278
 96787052, -0.052, -0.116, -0.165, 1.275, -0.027, -0.165, -0.032, 1.275
 96986934, 0.019, -0.144, -0.012, 1.273, -0.052, -0.116, -0.165, 1.275
 97186931, 0.057, -0.107, -0.014, 1.273, 0.019, -0.144, -0.012, 1.273
 97386929, -0.021, 0.03, -0.007, 1.273, 0.057, -0.107, -0.014, 1.273
 97586912, 0.001, 0.137, -0.055, 1.271, -0.021, 0.03, -0.007, 1.273
 97786914, -0.019, 0.215, 0.012, 1.27, 0.001, 0.137, -0.055, 1.271
 97986929, -0.023, 0.342, -0.005, 1.269, -0.019, 0.215, 0.012, 1.27
 98187040, 0.018, 0.448, -0.034, 1.268, -0.023, 0.342, -0.005, 1.269
 98386930, 0.057, 0.416, 0.075, 1.267, 0.018, 0.448, -0.034, 1.268
 98587037, 0.144, 0.422, -0.006, 1.263, 0.057, 0.416, 0.075, 1.267
 98786922, 0.195, 0.246, 0.009000001, 1.258, 0.144, 0.422, -0.006, 1.263
 98986933, 0.258, 0.195, -0.017, 1.257, 0.195, 0.246, 0.009000001, 1.258
 99187056, 0.294, 0.227, 0.058, 1.258, 0.258, 0.195, -0.017, 1.257
 99386927, 0.274, 0.06500001, 0.064, 1.261, 0.294, 0.227, 0.058, 1.258
 99586927, 0.283, -0.051, -0.032, 1.259, 0.274, 0.06500001, 0.064, 1.261
 99788397, 0.235, -0.009000001, 0.11, 1.261, 0.283, -0.051, -0.032, 1.259
 99987438, 0.193, -0.01, 0.044, 1.261, 0.235, -0.009000001, 0.11, 1.261
 100187388, 0.114, -0.169, 0.009000001, 1.262, 0.193, -0.01, 0.044, 1.261
 100387497, 0.036, -0.182, -0.014, 1.261, 0.114, -0.169, 0.009000001, 1.262
 100587362, -0.078, -0.149, -0.038, 1.258, 0.036, -0.182, -0.014, 1.261
 100787357, -0.09100001, -0.164, -0.009000001, 1.259, -0.078, -0.149, -0.038, 1.258
 100987382, -0.18, -0.09, 0.007, 1.258, -0.09100001, -0.164, -0.009000001, 1.259
 101187354, -0.206, -0.07700001, 0.038, 1.259, -0.18, -0.09, 0.007, 1.258
 101386938, -0.238, -0.026, -0.018, 1.26, -0.206, -0.07700001, 0.038, 1.259
 101586927, -0.148, 0.027, -0.025, 1.26, -0.238, -0.026, -0.018, 1.26
 101786927, -0.179, -0.046, -0.055, 1.259, -0.148, 0.027, -0.025, 1.26
 101986963, -0.174, -0.016, -0.037, 1.26, -0.179, -0.046, -0.055, 1.259
 102187064, -0.075, -0.031, -0.09500001, 1.264, -0.174, -0.016, -0.037, 1.26
 102387049, -0.078, 0.029, 0.047, 1.266, -0.075, -0.031, -0.09500001, 1.264
 102586917, -0.074, 0.027, 0.068, 1.269, -0.078, 0.029, 0.047, 1.266
 102786933, -0.093, 0.102, -0.009000001, 1.273, -0.074, 0.027, 0.068, 1.269
 102986900, 0.015, 0.056, 0.035, 1.274, -0.093, 0.102, -0.009000001, 1.273
 103186931, 0.052, -0.06, 0.132, 1.273, 0.015, 0.056, 0.035, 1.274
 103387061, 0.149, 0.043, 0.02, 1.269, 0.052, -0.06, 0.132, 1.273
 103586934, 0.222, 0.122, -0.105, 1.264, 0.149, 0.043, 0.02, 1.269
 103786908, 0.44, 0.188, -0.037, 1.26, 0.222, 0.122, -0.105, 1.264
 103987132, 0.37, 0.217, 0.071, 1.254, 0.44, 0.188, -0.037, 1.26
 104186929, 0.327, 0.248, 0.113, 1.25, 0.37, 0.217, 0.071, 1.254
 104386932, 0.18, 0.225, -0.07600001, 1.245, 0.327, 0.248, 0.113, 1.25
 104586908, 0.03, 0.212, -0.032, 1.239, 0.18, 0.225, -0.07600001, 1.245
 104786904, 0.003, 0.142, -0.122, 1.235, 0.03, 0.212, -0.032, 1.239
 104986931, 0.007, 0.22, -0.203, 1.233, 0.003, 0.142, -0.122, 1.235
 105186909, -0.08400001, 0.157, -0.062, 1.233, 0.007, 0.22, -0.203, 1.233
 105386925, -0.024, 0.143, -0.036, 1.23, -0.08400001, 0.157, -0.062, 1.233
 105586931, 0.022, 0.239, -0.014, 1.226, -0.024, 0.143, -0.036, 1.23
 105787078, -0.074, 0.067, 0.04, 1.223, 0.022, 0.239, -0.014, 1.226
 105986930, -0.146, 0.024, 0.051, 1.222, -0.074, 0.067, 0.04, 1.223
 106186912, -0.16, -0.187, -0.02, 1.221, -0.146, 0.024, 0.051, 1.222
 106386912, -0.164, -0.224, 0.01, 1.219, -0.16, -0.187, -0.02, 1.221
 106587039, -0.22, -0.199, 0.019, 1.216, -0.164, -0.224, 0.01, 1.219
 106786951, -0.26, -0.266, -0.113, 1.215, -0.22, -0.199, 0.019, 1.216
 106987391, -0.231, -0.226, 0.044, 1.212, -0.26, -0.266, -0.113, 1.215
 107187385, -0.29, -0.197, -0.01, 1.21, -0.231, -0.226, 0.044, 1.212
 107387387, -0.286, -0.163, -0.047, 1.206, -0.29, -0.197, -0.01, 1.21
 107587742, -0.174, -0.154, 0.02, 1.201, -0.286, -0.163, -0.047, 1.206
 107787289, -0.153, -0.102, 0.096, 1.202, -0.174, -0.154, 0.02, 1.201
 107987383, -0.06900001, -0.103, 0.144, 1.203, -0.153, -0.102, 0.096, 1.202
 108187292, 0.018, -0.071, -0.054, 1.203, -0.06900001, -0.103, 0.144, 1.203
 108387352, 0.161, -0.09, -0.019, 1.205, 0.018, -0.071, -0.054, 1.203
 108586928, 0.257, -0.015, 0.035, 1.207, 0.161, -0.09, -0.019, 1.205
 108786942, 0.28, 0.113, -0.07, 1.209, 0.257, -0.015, 0.035, 1.207
 108986915, 0.25, 0.15, -0.034, 1.207, 0.28, 0.113, -0.07, 1.209
 109186943, 0.134, 0.178, -0.133, 1.211, 0.25, 0.15, -0.034, 1.207
 109387093, 0.068, 0.314, -0.042, 1.211, 0.134, 0.178, -0.133, 1.211
 109586933, 0.118, 0.177, -0.023, 1.206, 0.068, 0.314, -0.042, 1.211
 109786918, 0.136, 0.053, -0.122, 1.204, 0.118, 0.177, -0.023, 1.206
 109986927, 0.029, -0.012, 0, 1.201, 0.136, 0.053, -0.122, 1.204
 110186919, -0.042, -0.038, -0.117, 1.206, 0.029, -0.012, 0, 1.201
 110386941, -0.043, 0.042, -0.089, 1.209, -0.042, -0.038, -0.117, 1.206
 110586924, -0.014, 0.01, -0.06, 1.209, -0.043, 0.042, -0.089, 1.209
 110787045, -0.117, 0.047, 0.075, 1.211, -0.014, 0.01, -0.06, 1.209
 110986948, -0.062, -0.041, -0.027, 1.214, -0.117, 0.047, 0.075, 1.211
 111187089, -0.071, 0.014, 0.116, 1.217, -0.062, -0.041, -0.027, 1.214
 111386916, -0.055, 0.043, 0.07600001, 1.22, -0.071, 0.014, 0.116, 1.217
 111586902, -0.021, 0.066, -0.007, 1.223, -0.055, 0.043, 0.07600001, 1.22
 111787070, 0.013, 0.006, -0.008, 1.225, -0.021, 0.066, -0.007, 1.223
 111986930, 0.083, 0.064, -0.017, 1.228, 0.013, 0.006, -0.008, 1.225
 112186919, 0.129, 0.187, -0.059, 1.23, 0.083, 0.064, -0.017, 1.228
 112386931, 0.149, 0.216, -0.047, 1.231, 0.129, 0.187, -0.059, 1.23
 112586960, 0.189, 0.231, -0.029, 1.23, 0.149, 0.216, -0.047, 1.231
 112786911, 0.101, 0.2, 0.031, 1.231, 0.189, 0.231, -0.029, 1.23
 112987110, 0.1, 0.117, -0.06900001, 1.232, 0.101, 0.2, 0.031, 1.231
 113186919, 0.054, 0.028, -0.054, 1.235, 0.1, 0.117, -0.06900001, 1.232
 113388406, -0.074, 0.063, 0.129, 1.238, 0.054, 0.028, -0.054, 1.235
 113587281, -0.115, 0.033, 0.101, 1.239, -0.074, 0.063, 0.129, 1.238
 113786929, -0.125, -0.074, 0.039, 1.236, -0.115, 0.033, 0.101, 1.239
 114006926, -0.105, -0.024, 0.055, 1.232, -0.125, -0.074, 0.039, 1.236
 114186910, -0.048, -0.012, -0.093, 1.231, -0.105, -0.024, 0.055, 1.232
 114386910, -0.078, 0.005, -0.019, 1.231, -0.048, -0.012, -0.093, 1.231
 114586929, -0.06900001, -0.087, -0.071, 1.23, -0.078, 0.005, -0.019, 1.231
 114787517, -0.021, 0.02, -0.034, 1.23, -0.06900001, -0.087, -0.071, 1.23
 114987503, -0.067, 0.048, -0.051, 1.231, -0.021, 0.02, -0.034, 1.23
 115187368, -0.134, 0.048, 0.062, 1.232, -0.067, 0.048, -0.051, 1.231
 115386929, -0.089, 0.058, 0.106, 1.234, -0.134, 0.048, 0.062, 1.232
 115586936, -0.061, 0.015, 0.052, 1.236, -0.089, 0.058, 0.106, 1.234
 115786935, -0.133, 0.134, 0.05, 1.239, -0.061, 0.015, 0.052, 1.236
 115987106, -0.058, 0.07600001, 0.051, 1.239, -0.133, 0.134, 0.05, 1.239
 116186931, -0.008, 0.068, -0.066, 1.24, -0.058, 0.07600001, 0.051, 1.239
 116386936, 0.007, 0.063, -0.011, 1.242, -0.008, 0.068, -0.066, 1.24
 116587102, -0.057, -0.024, 0.055, 1.243, 0.007, 0.063, -0.011, 1.242
 116786940, -0.105, -0.037, -0.012, 1.243, -0.057, -0.024, 0.055, 1.243
 116986948, -0.119, -0.119, -0.079, 1.241, -0.105, -0.037, -0.012, 1.243
 117186948, -0.082, -0.167, -0.132, 1.24, -0.119, -0.119, -0.079, 1.241
 117386934, -0.263, -0.02, 0.128, 1.238, -0.082, -0.167, -0.132, 1.24
 117586951, -0.009000001, -0.175, 0.055, 1.232, -0.263, -0.02, 0.128, 1.238
 117786933, -0.015, -0.268, -0.059, 1.231, -0.009000001, -0.175, 0.055, 1.232
 117986935, 0.078, -0.144, 0.014, 1.23, -0.015, -0.268, -0.059, 1.231
 118186904, 0.133, -0.087, 0.003, 1.231, 0.078, -0.144, 0.014, 1.23
 118387092, 0.208, -0.08000001, 0.187, 1.232, 0.133, -0.087, 0.003, 1.231
 118586910, 0.202, -0.08400001, 0.081, 1.232, 0.208, -0.08000001, 0.187, 1.232
 118786918, 0.232, 0.053, 0.097, 1.233, 0.202, -0.08400001, 0.081, 1.232
 118986940, 0.215, 0.183, 0.111, 1.233, 0.232, 0.053, 0.097, 1.233
 119187046, 0.228, 0.042, 0.023, 1.234, 0.215, 0.183, 0.111, 1.233
 119386918, 0.177, 0.132, -0.033, 1.235, 0.228, 0.042, 0.023, 1.234
 119586918, 0.113, 0.184, -0.153, 1.237, 0.177, 0.132, -0.033, 1.235
 119806936, 0.037, 0.115, -0.189, 1.238, 0.113, 0.184, -0.153, 1.237
 119986945, 0.08400001, 0.194, -0.2, 1.237, 0.037, 0.115, -0.189, 1.238
 120187135, -0.005, 0.2, -0.173, 1.238, 0.08400001, 0.194, -0.2, 1.237
 120386909, -0.145, 0.214, -0.09200001, 1.241, -0.005, 0.2, -0.173, 1.238
 120586916, -0.173, 0.23, -0.074, 1.243, -0.145, 0.214, -0.09200001, 1.241
 120786921, -0.136, 0.161, 0.011, 1.246, -0.173, 0.23, -0.074, 1.243
 120986931, -0.163, 0.109, -0.028, 1.248, -0.136, 0.161, 0.011, 1.246
 121186910, -0.109, -0.075, 0.02, 1.251, -0.163, 0.109, -0.028, 1.248
 121386924, -0.15, -0.049, 0.117, 1.254, -0.109, -0.075, 0.02, 1.251
 121586928, -0.111, -0.214, 0.106, 1.253, -0.15, -0.049, 0.117, 1.254
 121786928, -0.167, -0.236, 0.128, 1.251, -0.111, -0.214, 0.106, 1.253
 121987101, -0.087, -0.226, 0.074, 1.248, -0.167, -0.236, 0.128, 1.251
 122186916, -0.08400001, -0.171, -0.005, 1.248, -0.087, -0.226, 0.074, 1.248
 122386920, -0.04, -0.125, -0.078, 1.25, -0.08400001, -0.171, -0.005, 1.248
 122586913, -0.004, -0.04, 0.045, 1.252, -0.04, -0.125, -0.078, 1.25
 122786924, 0.06500001, 0.038, -0.09500001, 1.252, -0.004, -0.04, 0.045, 1.252
 122986933, 0.047, 0.086, -0.105, 1.252, 0.06500001, 0.038, -0.09500001, 1.252
 123186919, 0.035, -0.042, 0.085, 1.253, 0.047, 0.086, -0.105, 1.252
 123387040, 0.047, -0.144, 0.07700001, 1.253, 0.035, -0.042, 0.085, 1.253
 123586965, -0.004, 0, 0.071, 1.254, 0.047, -0.144, 0.07700001, 1.253
 123787050, -0.004, 0, 0.008, 1.256, -0.004, 0, 0.071, 1.254
 123986946, -0.004, 0, -0.07300001, 1.256, -0.004, 0, 0.008, 1.256
 124186930, -0.004, 0, -0.097, 1.254, -0.004, 0, -0.07300001, 1.256
 124387058, -0.004, 0, 0.014, 1.252, -0.004, 0, -0.097, 1.254
 124586921, -0.004, 0, -0.071, 1.247, -0.004, 0, 0.014, 1.252
 124786921, -0.004, 0, -0.135, 1.244, -0.004, 0, -0.071, 1.247
 124988433, -0.004, 0, -0.052, 1.24, -0.004, 0, -0.135, 1.244
 125187396, -0.004, 0, -0.122, 1.239, -0.004, 0, -0.052, 1.24
 125387385, -0.004, 0, -0.028, 1.236, -0.004, 0, -0.122, 1.239
 125587071, -0.004, 0, 0.039, 1.234, -0.004, 0, -0.028, 1.236
 125786932, -0.004, 0, 0.119, 1.235, -0.004, 0, 0.039, 1.234
 125986952, -0.004, 0, 0.059, 1.235, -0.004, 0, 0.119, 1.235
 126186955, -0.004, 0, 0.055, 1.232, -0.004, 0, 0.059, 1.235
 126386933, -0.004, 0, 0.007, 1.235, -0.004, 0, 0.055, 1.232
 126586935, -0.004, 0, 0.04, 1.234, -0.004, 0, 0.007, 1.235
 126786936, -0.004, 0, -0.01, 1.236, -0.004, 0, 0.04, 1.234
 126986955, -0.004, 0, -0.085, 1.236, -0.004, 0, -0.01, 1.236
 127186929, -0.004, 0, -0.003, 1.236, -0.004, 0, -0.085, 1.236
 127387089, -0.004, 0, -0.006, 1.236, -0.004, 0, -0.003, 1.236
 127587058, -0.004, 0, 0.001, 1.236, -0.004, 0, -0.006, 1.236
 127786931, -0.004, 0, 0.035, 1.235, -0.004, 0, 0.001, 1.236
 127986952, -0.004, 0, 0.008, 1.232, -0.004, 0, 0.035, 1.235
 128186932, -0.004, 0, 0.056, 1.232, -0.004, 0, 0.008, 1.232
 128386925, -0.004, 0, -0.013, 1.23, -0.004, 0, 0.056, 1.232
 128587052, -0.004, 0, -0.115, 1.23, -0.004, 0, -0.013, 1.23
 128786935, -0.004, 0, 0.034, 1.232, -0.004, 0, -0.115, 1.23
 128986943, -0.004, 0, 0.014, 1.236, -0.004, 0, 0.034, 1.232
 129187084, -0.004, 0, -0.029, 1.239, -0.004, 0, 0.014, 1.236
 129386927, -0.004, 0, 0.026, 1.244, -0.004, 0, -0.029, 1.239
 129586910, -0.004, 0, 0.09100001, 1.247, -0.004, 0, 0.026, 1.244
 129786912, -0.004, 0, -0.044, 1.25, -0.004, 0, 0.09100001, 1.247
 129986935, -0.004, 0, -0.014, 1.252, -0.004, 0, -0.044, 1.25
 130186924, -0.004, 0, 0.045, 1.253, -0.004, 0, -0.014, 1.252
 130386905, -0.004, 0, -0.007, 1.253, -0.004, 0, 0.045, 1.253
 130586908, -0.004, 0, -0.036, 1.249, -0.004, 0, -0.007, 1.253
 130807020, -0.004, 0, -0.172, 1.247, -0.004, 0, -0.036, 1.249
 130987072, -0.004, 0, 0.02, 1.243, -0.004, 0, -0.172, 1.247
 131188396, -0.004, 0, -0.141, 1.245, -0.004, 0, 0.02, 1.243
 131387402, -0.004, 0, -0.046, 1.249, -0.004, 0, -0.141, 1.245
 131587291, -0.004, 0, 0.034, 1.253, -0.004, 0, -0.046, 1.249
 131787502, -0.004, 0, 0.036, 1.257, -0.004, 0, 0.034, 1.253
 131987388, -0.004, 0, 0.064, 1.258, -0.004, 0, 0.036, 1.257
 132187405, -0.004, 0, 0.013, 1.259, -0.004, 0, 0.064, 1.258
 132387399, -0.004, 0, -0.008, 1.261, -0.004, 0, 0.013, 1.259
 132587419, -0.004, 0, 0.034, 1.261, -0.004, 0, -0.008, 1.261
 132787725, -0.004, 0, -0.032, 1.261, -0.004, 0, 0.034, 1.261
 132987392, -0.004, 0, 0.09200001, 1.261, -0.004, 0, -0.032, 1.261
 133187370, -0.004, 0, -0.038, 1.263, -0.004, 0, 0.09200001, 1.261
 133387365, -0.004, 0, 0.041, 1.266, -0.004, 0, -0.038, 1.263
 133586910, -0.004, 0, -0.068, 1.265, -0.004, 0, 0.041, 1.266
 133786937, -0.004, 0, -0.015, 1.266, -0.004, 0, -0.068, 1.265
 133986954, -0.004, 0, 0.006, 1.266, -0.004, 0, -0.015, 1.266
 134206910, -0.004, 0, -0.044, 1.266, -0.004, 0, 0.006, 1.266
 134386947, -0.004, 0, 0.015, 1.264, -0.004, 0, -0.044, 1.266
 134587063, -0.004, 0, 0.145, 1.263, -0.004, 0, 0.015, 1.264
 134786912, -0.004, 0, 0.125, 1.261, -0.004, 0, 0.145, 1.263
 134986946, -0.004, 0, 0.07600001, 1.255, -0.004, 0, 0.125, 1.261
 135186942, -0.004, 0, -0.02, 1.254, -0.004, 0, 0.07600001, 1.255
 135386903, -0.004, 0, 0.043, 1.255, -0.004, 0, -0.02, 1.254
 135586930, -0.004, 0, 0.144, 1.253, -0.004, 0, 0.043, 1.255
 135786912, -0.004, 0, 0.023, 1.253, -0.004, 0, 0.144, 1.253
 135987063, -0.004, 0, 0.097, 1.25, -0.004, 0, 0.023, 1.253
 136186909, -0.004, 0, 0.043, 1.249, -0.004, 0, 0.097, 1.25
 136387064, -0.004, 0, -0.054, 1.252, -0.004, 0, 0.043, 1.249
 136586921, -0.004, 0, 0.03, 1.255, -0.004, 0, -0.054, 1.252
 136786899, -0.004, 0, -0.113, 1.259, -0.004, 0, 0.03, 1.255
 136987070, -0.004, 0, 0.06500001, 1.262, -0.004, 0, -0.113, 1.259
 137186924, -0.004, 0, 0.074, 1.266, -0.004, 0, 0.06500001, 1.262
 137386921, -0.004, 0, 0.05, 1.268, -0.004, 0, 0.074, 1.266
 137586924, -0.004, 0, 0.142, 1.27, -0.004, 0, 0.05, 1.268
 137786915, -0.004, 0, 0.041, 1.271, -0.004, 0, 0.142, 1.27
 137986941, -0.004, 0, 0.149, 1.273, -0.004, 0, 0.041, 1.271
 138187057, -0.004, 0, 0.07300001, 1.275, -0.004, 0, 0.149, 1.273
 138386928, -0.004, 0, 0.171, 1.278, -0.004, 0, 0.07300001, 1.275
 138586907, -0.004, 0, 0.114, 1.277, -0.004, 0, 0.171, 1.278
 138786907, -0.004, 0, 0.248, 1.279, -0.004, 0, 0.114, 1.277
 138986919, -0.004, 0, 0.202, 1.281, -0.004, 0, 0.248, 1.279
 139186927, -0.004, 0, 0.262, 1.282, -0.004, 0, 0.202, 1.281
 139386903, -0.004, 0, 0.156, 1.282, -0.004, 0, 0.262, 1.282
 139586920, -0.004, 0, 0.062, 1.279, -0.004, 0, 0.156, 1.282
 139786925, -0.004, 0, 0.064, 1.279, -0.004, 0, 0.062, 1.279
 140006942, -0.004, 0, 0.227, 1.28, -0.004, 0, 0.064, 1.279
 140187485, 7.581, -0.268, 0.116, 1.283, -0.004, 0, 0.227, 1.28
 140387257, 7.762001, -0.5, 0.213, 1.288, 7.581, -0.268, 0.116, 1.283
 140587359, 7.679, -0.381, 0.222, 1.291, 7.762001, -0.5, 0.213, 1.288
 140787369, 7.549, -0.282, 0.271, 1.295, 7.679, -0.381, 0.222, 1.291
 140987404, 7.521, -0.395, 0.122, 1.297, 7.549, -0.282, 0.271, 1.295
 141187632, 7.254, -0.3, 0.114, 1.297, 7.521, -0.395, 0.122, 1.297
 141387249, 6.991, -0.244, 0.033, 1.296, 7.254, -0.3, 0.114, 1.297
 141587248, 6.447001, -0.025, 0.103, 1.294, 6.991, -0.244, 0.033, 1.296
 141787397, 5.823, -0.09500001, 0.09900001, 1.293, 6.447001, -0.025, 0.103, 1.294
 141987208, 5.129, -0.319, 0.177, 1.293, 5.823, -0.09500001, 0.09900001, 1.293
 142187160, 4.784, -0.832, 0.647, 1.295, 5.129, -0.319, 0.177, 1.293
 142387157, 3.989, -0.583, 0.235, 1.296, 4.784, -0.832, 0.647, 1.295
 142587140, 3.839, -0.608, 0.157, 1.297, 3.989, -0.583, 0.235, 1.296
 142787154, 3.804, -0.733, -0.078, 1.295, 3.839, -0.608, 0.157, 1.297
 143006825, 3.903, -0.39, -0.413, 1.295, 3.804, -0.733, -0.078, 1.295
 143186824, 4.202, 0.123, -0.461, 1.299, 3.903, -0.39, -0.413, 1.295
 143386849, 4.517, -0.265, -0.5190001, 1.298, 4.202, 0.123, -0.461, 1.299
 143586992, 4.804, 0.627, -0.564, 1.297, 4.517, -0.265, -0.5190001, 1.298
 143786833, 4.792, 0.311, -0.267, 1.3, 4.804, 0.627, -0.564, 1.297
 144006833, 4.675, 0.403, -0.236, 1.294, 4.792, 0.311, -0.267, 1.3
 144207172, 4.529, 0.31, -0.438, 1.29, 4.675, 0.403, -0.236, 1.294
 144387052, 4.276, 0.173, -0.202, 1.285, 4.529, 0.31, -0.438, 1.29
 144586921, 3.928, 0.218, -0.194, 1.281, 4.276, 0.173, -0.202, 1.285
 144786939, 3.431, 0.442, -0.264, 1.282, 3.928, 0.218, -0.194, 1.281
 144986940, 2.995, 0.7830001, -0.082, 1.282, 3.431, 0.442, -0.264, 1.282
 145186931, 2.549, 0.78, -0.209, 1.276, 2.995, 0.7830001, -0.082, 1.282
 145387113, 2.018, 0.785, -0.111, 1.267, 2.549, 0.78, -0.209, 1.276
 145586922, 1.449, 0.851, -0.07600001, 1.256, 2.018, 0.785, -0.111, 1.267
 145787270, 0.8940001, 1.028, -0.133, 1.252, 1.449, 0.851, -0.07600001, 1.256
 145986961, 0.239, 1.313, -0.07300001, 1.25, 0.8940001, 1.028, -0.133, 1.252
 146186936, -0.361, 1.488, -0.08000001, 1.246, 0.239, 1.313, -0.07300001, 1.25
 146386945, -0.8240001, 1.486, -0.121, 1.238, -0.361, 1.488, -0.08000001, 1.246
 146607186, -1.208, 1.808, -0.003, 1.238, -0.8240001, 1.486, -0.121, 1.238
 146806938, -1.802, 2.015, 0.006, 1.237, -1.208, 1.808, -0.003, 1.238
 146986957, -2.006, 1.77, -0.044, 1.234, -1.802, 2.015, 0.006, 1.237
 147187066, -2.375, 1.591, 0.166, 1.228, -2.006, 1.77, -0.044, 1.234
 147386934, -2.695, 1.627, 0.284, 1.222, -2.375, 1.591, 0.166, 1.228
 147586924, -3.21, 1.381, 0.156, 1.218, -2.695, 1.627, 0.284, 1.222
 147806920, -3.469, 1.46, 0.147, 1.217, -3.21, 1.381, 0.156, 1.218
 148006963, -3.873, 1.58, 0.304, 1.209, -3.469, 1.46, 0.147, 1.217
 148186931, -4.29, 1.662, 0.216, 1.208, -3.873, 1.58, 0.304, 1.209
 148387257, -4.672, 1.754, 0.15, 1.207, -4.29, 1.662, 0.216, 1.208
 148587480, -4.831, 1.249, 0.129, 1.205, -4.672, 1.754, 0.15, 1.207
 148787290, -5.049, 1.364, 0.157, 1.203, -4.831, 1.249, 0.129, 1.205
 148987463, -5.005, 1.227, 0.319, 1.201, -5.049, 1.364, 0.157, 1.203
 149187260, -5.404, 1.365, 0.142, 1.201, -5.005, 1.227, 0.319, 1.201
 149387263, -5.471, 1.182, 0.189, 1.197, -5.404, 1.365, 0.142, 1.201
 149587080, -5.667, 1.17, 0.231, 1.196, -5.471, 1.182, 0.189, 1.197
 149786918, -5.478, 1.103, 0.075, 1.195, -5.667, 1.17, 0.231, 1.196
 149986963, -5.601, 1.085, 0.06500001, 1.193, -5.478, 1.103, 0.075, 1.195
 150186933, -5.417, 1.026, 0.245, 1.191, -5.601, 1.085, 0.06500001, 1.193
 150386929, -5.479, 1.217, 0.178, 1.19, -5.417, 1.026, 0.245, 1.191
 150586933, -5.457, 1.185, 0.061, 1.187, -5.479, 1.217, 0.178, 1.19
 150787071, -5.474, 1.14, 0.09200001, 1.184, -5.457, 1.185, 0.061, 1.187
 150986911, -5.411, 1.285, 0.355, 1.182, -5.474, 1.14, 0.09200001, 1.184
 151186930, -5.69, 1.103, -0.009000001, 1.18, -5.411, 1.285, 0.355, 1.182
 151386936, -5.615, 1.019, 0.189, 1.18, -5.69, 1.103, -0.009000001, 1.18
 151586928, -5.701, 1.078, -0.012, 1.177, -5.615, 1.019, 0.189, 1.18
 151786926, -5.894, 1.177, 0.043, 1.176, -5.701, 1.078, -0.012, 1.177
 151986947, -5.827, 1.074, -0.014, 1.175, -5.894, 1.177, 0.043, 1.176
 152186941, -5.7, 1.126, -0.054, 1.174, -5.827, 1.074, -0.014, 1.175
 152386936, -5.446, 1.229, -0.241, 1.173, -5.7, 1.126, -0.054, 1.174
 152587066, -5.16, 0.86, -0.116, 1.173, -5.446, 1.229, -0.241, 1.173
 152787053, -4.92, 1.154, -0.195, 1.174, -5.16, 0.86, -0.116, 1.173
 153066927, -4.589, 1.029, -0.106, 1.528, -4.92, 1.154, -0.195, 1.174
 153207352, -4.344, 0.994, 0.011, 1.522, -4.589, 1.029, -0.106, 1.528
 153407236, -4.088, 1.157, -0.051, 1.516, -4.344, 0.994, 0.011, 1.522
 153607171, -3.731, 1.054, 0.049, 1.512, -4.088, 1.157, -0.051, 1.516
 153807177, -3.182, 0.993, -0.131, 1.51, -3.731, 1.054, 0.049, 1.512
 154007204, -2.658, 1.029, 0.06500001, 1.507, -3.182, 0.993, -0.131, 1.51
 154207500, -2.027, 0.7640001, 0.05, 1.503, -2.658, 1.029, 0.06500001, 1.507
 154406962, -1.542, 0.784, 0.13, 1.498, -2.027, 0.7640001, 0.05, 1.503
 154606897, -1.188, 0.654, 0.087, 1.491, -1.542, 0.784, 0.13, 1.498
 154806931, -1, 0.578, 0.031, 1.484, -1.188, 0.654, 0.087, 1.491
 155026950, -0.905, 0.359, 0.06500001, 1.477, -1, 0.578, 0.031, 1.484
 155187256, -1.033, 0.424, -0.06500001, 1.473, -0.905, 0.359, 0.06500001, 1.477
 155387272, -1.098, 0.16, -0.119, 1.469, -1.033, 0.424, -0.06500001, 1.473
 155586941, -1.142, 0.003, -0.308, 1.461, -1.098, 0.16, -0.119, 1.469
 155806913, -1.343, 0.056, -0.397, 1.457, -1.142, 0.003, -0.308, 1.461
 155986970, -1.031, -0.175, -0.059, 1.451, -1.343, 0.056, -0.397, 1.457
 156206939, -1.01, -0.022, -0.379, 1.447, -1.031, -0.175, -0.059, 1.451
 156407211, -0.975, -0.047, -0.138, 1.441, -1.01, -0.022, -0.379, 1.447
 156607397, -0.848, 0.013, -0.474, 1.438, -0.975, -0.047, -0.138, 1.441
 156807184, -0.793, -0.166, -0.042, 1.432, -0.848, 0.013, -0.474, 1.438
 157007203, -0.6850001, -0.17, -0.142, 1.427, -0.793, -0.166, -0.042, 1.432
 157207350, -0.6350001, -0.263, -0.054, 1.424, -0.6850001, -0.17, -0.142, 1.427
 157386934, -0.698, -0.032, 0.015, 1.421, -0.6350001, -0.263, -0.054, 1.424
 157607178, -0.638, -0.155, 0.012, 1.42, -0.698, -0.032, 0.015, 1.421
 157807509, -0.6070001, -0.131, -0.005, 1.418, -0.638, -0.155, 0.012, 1.42
 157987132, -0.612, -0.115, 0.011, 1.417, -0.6070001, -0.131, -0.005, 1.418
 158207193, -0.53, -0.064, 0.006, 1.414, -0.612, -0.115, 0.011, 1.417
 158386943, -0.576, 0.181, -0.027, 1.412, -0.53, -0.064, 0.006, 1.414
 158586932, -0.567, 0.276, 0, 1.408, -0.576, 0.181, -0.027, 1.412
 158786939, -0.6210001, 0.353, 0.02, 1.402, -0.567, 0.276, 0, 1.408
 158986935, -0.675, 0.592, 0.07300001, 1.395, -0.6210001, 0.353, 0.02, 1.402
 159206936, -0.784, 0.794, 0.015, 1.389, -0.675, 0.592, 0.07300001, 1.395
 159386924, -0.8060001, 0.7970001, -0.029, 1.383, -0.784, 0.794, 0.015, 1.389
 159586916, -0.8710001, 0.817, -0.072, 1.377, -0.8060001, 0.7970001, -0.029, 1.383
 159787081, -0.914, 0.915, -0.094, 1.373, -0.8710001, 0.817, -0.072, 1.377
 159986937, -1.122, 0.877, -0.157, 1.37, -0.914, 0.915, -0.094, 1.373
 160186912, -1.064, 0.943, -0.115, 1.369, -1.122, 0.877, -0.157, 1.37
 160386916, -0.9540001, 0.8280001, -0.044, 1.368, -1.064, 0.943, -0.115, 1.369
 160586930, -0.9540001, 0.876, -0.012, 1.367, -0.9540001, 0.8280001, -0.044, 1.368
 160786939, -0.9450001, 1, -0.05, 1.365, -0.9540001, 0.876, -0.012, 1.367
 160986955, -0.74, 0.848, -0.015, 1.363, -0.9450001, 1, -0.05, 1.365
 161187053, -0.6720001, 0.832, 0.006, 1.361, -0.74, 0.848, -0.015, 1.363
 161386937, -0.632, 0.758, 0.035, 1.358, -0.6720001, 0.832, 0.006, 1.361
 161587069, -0.578, 0.9220001, 0.058, 1.355, -0.632, 0.758, 0.035, 1.358
 161786929, -0.632, 0.8880001, 0.244, 1.355, -0.578, 0.9220001, 0.058, 1.355
 161986932, -0.501, 0.79, 0.07600001, 1.352, -0.632, 0.8880001, 0.244, 1.355
 162187061, -0.703, 0.803, 0.31, 1.351, -0.501, 0.79, 0.07600001, 1.352
 162386925, -0.412, 0.682, 0.196, 1.349, -0.703, 0.803, 0.31, 1.351
 162586926, -0.503, 0.414, 0.4, 1.348, -0.412, 0.682, 0.196, 1.349
 162787279, -0.516, 0.7960001, 0.175, 1.346, -0.503, 0.414, 0.4, 1.348
 162987373, -0.47, 0.744, 0.479, 1.345, -0.516, 0.7960001, 0.175, 1.346
 163207074, -0.668, 0.836, 0.158, 1.343, -0.47, 0.744, 0.479, 1.345
 163387453, -0.779, 0.649, 0.386, 1.341, -0.668, 0.836, 0.158, 1.343
 163586942, -0.772, 0.846, 0.173, 1.337, -0.779, 0.649, 0.386, 1.341
 163786935, -0.752, 0.731, 0.264, 1.333, -0.772, 0.846, 0.173, 1.337
 163986956, -0.8610001, 0.827, 0.313, 1.329, -0.752, 0.731, 0.264, 1.333
 164186936, -0.839, 0.8940001, 0.229, 1.323, -0.8610001, 0.827, 0.313, 1.329
 164386942, -0.8880001, 0.728, 0.306, 1.321, -0.839, 0.8940001, 0.229, 1.323
 164586939, -0.97, 1.025, 0.228, 1.319, -0.8880001, 0.728, 0.306, 1.321
 164786929, -0.973, 0.765, 0.217, 1.316, -0.97, 1.025, 0.228, 1.319
 165007089, -1.179, 0.937, 0.132, 1.315, -0.973, 0.765, 0.217, 1.316
 165206924, -0.9720001, 0.6530001, 0.246, 1.314, -1.179, 0.937, 0.132, 1.315
 165406968, -1.017, 1.007, 0.242, 1.305, -0.9720001, 0.6530001, 0.246, 1.314
 165606892, -0.9760001, 1.034, 0.354, 1.3, -1.017, 1.007, 0.242, 1.305
 165786953, -1.045, 0.7730001, 0.223, 1.295, -0.9760001, 1.034, 0.354, 1.3
 166006917, -1.134, 1.134, 0.263, 1.291, -1.045, 0.7730001, 0.223, 1.295
 166186945, -0.9450001, 0.686, 0.204, 1.29, -1.134, 1.134, 0.263, 1.291
 166406952, -0.961, 0.725, 0.34, 1.291, -0.9450001, 0.686, 0.204, 1.29
 166606931, -0.688, 0.507, 0.202, 1.29, -0.961, 0.725, 0.34, 1.291
 166807108, -0.85, 0.397, 0.277, 1.289, -0.688, 0.507, 0.202, 1.29
 167006943, -0.575, 0.44, 0.235, 1.287, -0.85, 0.397, 0.277, 1.289
 167207172, -0.58, 0.319, 0.354, 1.286, -0.575, 0.44, 0.235, 1.287
 167407261, -0.491, 0.495, 0.119, 1.283, -0.58, 0.319, 0.354, 1.286
 167607191, -0.62, 0.461, 0.184, 1.281, -0.491, 0.495, 0.119, 1.283
 167786934, -0.55, 0.677, 0.144, 1.281, -0.62, 0.461, 0.184, 1.281
 168007187, -0.498, 0.61, -0.011, 1.281, -0.55, 0.677, 0.144, 1.281
 168206947, -0.495, 0.555, 0.337, 1.28, -0.498, 0.61, -0.011, 1.281
 168386929, -0.5790001, 0.541, 0.215, 1.279, -0.495, 0.555, 0.337, 1.28
 168607065, -0.606, 0.754, 0.126, 1.274, -0.5790001, 0.541, 0.215, 1.279
 168787462, -0.474, 0.6670001, 0.141, 1.272, -0.606, 0.754, 0.126, 1.274
 168987285, -0.609, 0.506, 0.13, 1.267, -0.474, 0.6670001, 0.141, 1.272
 169206916, -0.679, 0.629, 0.236, 1.264, -0.609, 0.506, 0.13, 1.267
 169386946, -0.763, 0.625, 0.302, 1.264, -0.679, 0.629, 0.236, 1.264
 169587061, -0.821, 0.606, -0.013, 1.262, -0.763, 0.625, 0.302, 1.264
 169786919, -0.8150001, 0.575, 0.335, 1.261, -0.821, 0.606, -0.013, 1.262
 170007066, -0.84, 0.376, 0.152, 1.26, -0.8150001, 0.575, 0.335, 1.261
 170186925, -0.83, 0.421, 0.218, 1.258, -0.84, 0.376, 0.152, 1.26
 170386935, -0.854, 0.292, 0.041, 1.257, -0.83, 0.421, 0.218, 1.258
 170587126, -0.7780001, 0.115, 0.121, 1.257, -0.854, 0.292, 0.041, 1.257
 170786934, -0.641, 0.115, 0.18, 1.255, -0.7780001, 0.115, 0.121, 1.257
 170986958, -0.637, 0.163, 0.153, 1.254, -0.641, 0.115, 0.18, 1.255
 171186916, -0.383, 0.178, 0.12, 1.252, -0.637, 0.163, 0.153, 1.254
 171386924, -0.238, 0.124, 0.141, 1.253, -0.383, 0.178, 0.12, 1.252
 171586937, -0.096, 0.032, 0.279, 1.255, -0.238, 0.124, 0.141, 1.253
 171807184, 0.159, 0.062, 0.206, 1.255, -0.096, 0.032, 0.279, 1.255
 171986958, 0.131, -0.026, 0.112, 1.254, 0.159, 0.062, 0.206, 1.255
 172186923, 0.282, 0.028, 0.203, 1.252, 0.131, -0.026, 0.112, 1.254
 172387061, 0.343, 0.003, 0.123, 1.253, 0.282, 0.028, 0.203, 1.252
 172586938, 0.263, 0.017, 0.217, 1.252, 0.343, 0.003, 0.123, 1.253
 172807190, 0.259, 0.138, 0.154, 1.252, 0.263, 0.017, 0.217, 1.252
 173007236, 0.105, 0.168, 0.235, 1.249, 0.259, 0.138, 0.154, 1.252
 173186937, 0.237, 0.189, 0.189, 1.247, 0.105, 0.168, 0.235, 1.249
 173386919, -0.017, 0.359, 0.214, 1.246, 0.237, 0.189, 0.189, 1.247
 173586933, 0.015, 0.135, 0.317, 1.246, -0.017, 0.359, 0.214, 1.246
 173787052, -0.142, 0.289, 0.127, 1.246, 0.015, 0.135, 0.317, 1.246
 174007098, -0.236, 0.486, 0.191, 1.247, -0.142, 0.289, 0.127, 1.246
 174207065, -0.243, 0.598, 0.175, 1.25, -0.236, 0.486, 0.191, 1.247
 174386938, -0.38, 0.483, 0.074, 1.254, -0.243, 0.598, 0.175, 1.25
 174586952, -0.521, 0.346, 0, 1.255, -0.38, 0.483, 0.074, 1.254
 174787066, -0.8470001, 0.728, -0.11, 1.258, -0.521, 0.346, 0, 1.255
 174986949, -0.942, 0.7130001, 0.021, 1.258, -0.8470001, 0.728, -0.11, 1.258
 175186938, -1.213, 0.144, 0.11, 1.258, -0.942, 0.7130001, 0.021, 1.258
 175406959, -1.246, 0.64, -0.005, 1.263, -1.213, 0.144, 0.11, 1.258
 175606952, -1.018, 0.562, 0.097, 1.268, -1.246, 0.64, -0.005, 1.263
 175807075, -0.987, 0.207, 0.015, 1.27, -1.018, 0.562, 0.097, 1.268
 176006969, -0.8200001, -0.158, 0.256, 1.272, -0.987, 0.207, 0.015, 1.27
 176186931, -0.836, -0.236, 0.204, 1.273, -0.8200001, -0.158, 0.256, 1.272
 176406975, -0.683, -0.543, 0.296, 1.276, -0.836, -0.236, 0.204, 1.273
 176606920, -0.331, -0.577, 0.315, 1.275, -0.683, -0.543, 0.296, 1.276
 176806938, -0.47, -0.06500001, 0.43, 1.277, -0.331, -0.577, 0.315, 1.275
 177006949, 0.054, -0.504, 0.243, 1.282, -0.47, -0.06500001, 0.43, 1.277
 177206903, -0.04, -0.264, 0.203, 1.288, 0.054, -0.504, 0.243, 1.282
 177386925, 0.417, -0.319, 0.181, 1.293, -0.04, -0.264, 0.203, 1.288
 177586943, 0.427, -0.523, 0.336, 1.298, 0.417, -0.319, 0.181, 1.293
 177806889, 0.478, -0.374, 0.151, 1.301, 0.427, -0.523, 0.336, 1.298
 178006909, 0.591, -0.6020001, 0.267, 1.304, 0.478, -0.374, 0.151, 1.301
 178207159, 0.601, -0.436, 0.265, 1.306, 0.591, -0.6020001, 0.267, 1.304
 178407400, 0.786, -0.44, 0.298, 1.307, 0.601, -0.436, 0.265, 1.306
 178587009, 0.674, -0.675, 0.148, 1.309, 0.786, -0.44, 0.298, 1.307
 178786938, 0.767, -0.523, 0.087, 1.311, 0.674, -0.675, 0.148, 1.309
 179007173, 0.6950001, -0.333, 0.134, 1.309, 0.767, -0.523, 0.087, 1.311
 179207176, 0.737, -0.386, 0.208, 1.307, 0.6950001, -0.333, 0.134, 1.309
 179407544, 0.694, -0.205, 0.237, 1.307, 0.737, -0.386, 0.208, 1.307
 179607165, 0.55, -0.222, 0.162, 1.308, 0.694, -0.205, 0.237, 1.307
 179807180, 0.45, 0.018, 0.292, 1.309, 0.55, -0.222, 0.162, 1.308
 180007229, 0.421, -0.08400001, 0.318, 1.308, 0.45, 0.018, 0.292, 1.309
 180207206, 0.155, 0.211, 0.2, 1.308, 0.421, -0.08400001, 0.318, 1.308
 180406989, 0.018, 0.081, 0.259, 1.31, 0.155, 0.211, 0.2, 1.308
 180606938, -0.199, 0.441, 0.213, 1.312, 0.018, 0.081, 0.259, 1.31
 180806946, -0.225, 0.184, 0.134, 1.313, -0.199, 0.441, 0.213, 1.312
 180986951, -0.522, 0.837, 0.111, 1.313, -0.225, 0.184, 0.134, 1.313
 181186910, -0.389, 0.474, -0.074, 1.313, -0.522, 0.837, 0.111, 1.313
 181387056, -0.351, 0.772, 0.193, 1.314, -0.389, 0.474, -0.074, 1.313
 181586925, -0.07300001, 0.387, -0.023, 1.316, -0.351, 0.772, 0.193, 1.314
 181786905, -0.161, 0, -0.09900001, 1.318, -0.07300001, 0.387, -0.023, 1.316
 181986942, -0.174, 0.029, -0.138, 1.319, -0.161, 0, -0.09900001, 1.318
 182187044, -0.324, 0.211, -0.135, 1.32, -0.174, 0.029, -0.138, 1.319
 182387264, -0.456, -0.021, -0.139, 1.322, -0.324, 0.211, -0.135, 1.32
 182587259, -0.257, 0.501, -0.128, 1.325, -0.456, -0.021, -0.139, 1.322
 182787257, -0.296, 0.486, -0.149, 1.332, -0.257, 0.501, -0.128, 1.325
 182987364, -0.109, 0.262, -0.198, 1.338, -0.296, 0.486, -0.149, 1.332
 183206924, -0.113, 0.353, -0.425, 1.345, -0.109, 0.262, -0.198, 1.338
 183386927, 0.08800001, 0.822, 0.233, 1.354, -0.113, 0.353, -0.425, 1.345
 183586980, -0.159, -0.035, -0.213, 1.364, 0.08800001, 0.822, 0.233, 1.354
 183786937, 0.037, -0.06900001, 0.009000001, 1.376, -0.159, -0.035, -0.213, 1.364
 183986942, 0.023, -0.015, -0.03, 1.388, 0.037, -0.06900001, 0.009000001, 1.376
 184206915, 0.053, -0.003, 0.064, 1.401, 0.023, -0.015, -0.03, 1.388
 184386949, 0.012, -0.072, 0.011, 1.413, 0.053, -0.003, 0.064, 1.401
 184586929, 0.032, -0.033, -0.007, 1.424, 0.012, -0.072, 0.011, 1.413
 184786944, -0.013, -0.04, 0.105, 1.435, 0.032, -0.033, -0.007, 1.424
 184987108, 0.026, 0.068, 0.044, 1.447, -0.013, -0.04, 0.105, 1.435
 185186926, -0.047, -0.115, 0.068, 1.458, 0.026, 0.068, 0.044, 1.447
 185386940, 0.082, -0.063, 0.057, 1.47, -0.047, -0.115, 0.068, 1.458
 185586935, 0.011, -0.02, -0.016, 1.482, 0.082, -0.063, 0.057, 1.47
 185806889, -0.25, -0.008, -0.141, 1.494, 0.011, -0.02, -0.016, 1.482
 186006947, -0.064, 0.106, -0.012, 1.505, -0.25, -0.008, -0.141, 1.494
 186206944, -0.033, 0.027, -0.042, 1.516, -0.064, 0.106, -0.012, 1.505
 186387067, -0.007, -0.037, 0.062, 1.527, -0.033, 0.027, -0.042, 1.516
 186586928, 0.001, -0.006, -0.031, 1.538, -0.007, -0.037, 0.062, 1.527
 186787064, 0.014, 0.023, 0.12, 1.549, 0.001, -0.006, -0.031, 1.538
 186986940, 0.029, -0.09200001, -0.09200001, 1.559, 0.014, 0.023, 0.12, 1.549
 187186898, 0.033, -0.068, 0.06500001, 1.569, 0.029, -0.09200001, -0.09200001, 1.559
 187387050, -0.007, -0.125, -0.064, 1.578, 0.033, -0.068, 0.06500001, 1.569
 187586909, -0.019, 0.048, 0.109, 1.588, -0.007, -0.125, -0.064, 1.578
 187786926, 0.002, 0.05, 0.054, 1.597, -0.019, 0.048, 0.109, 1.588
 187986938, -0.044, 0.082, 0.054, 1.607, 0.002, 0.05, 0.054, 1.597
 188186945, -0.123, -0.09100001, 0, 1.616, -0.044, 0.082, 0.054, 1.607
 188386936, -0.043, 0.017, 0.021, 1.624, -0.123, -0.09100001, 0, 1.616
 188587071, -0.12, 0.006, 0.111, 1.632, -0.043, 0.017, 0.021, 1.624
 188786923, 0.015, 0.029, 0.071, 1.64, -0.12, 0.006, 0.111, 1.632
 188986946, 0.085, 0.034, 0.195, 1.648, 0.015, 0.029, 0.071, 1.64
 189186920, 0.055, -0.075, 0.061, 1.655, 0.085, 0.034, 0.195, 1.648
 189386923, -0.067, 0.053, -0.055, 1.662, 0.055, -0.075, 0.061, 1.655
 189586936, -0.06, 0.021, -0.001, 1.67, -0.067, 0.053, -0.055, 1.662
 189786917, -0.008, 0.034, 0.046, 1.677, -0.06, 0.021, -0.001, 1.67
 189986951, -0.054, -0.016, -0.121, 1.684, -0.008, 0.034, 0.046, 1.677
 190186915, 0.06500001, -0.07, 0.003, 1.691, -0.054, -0.016, -0.121, 1.684
 190387072, -0.09900001, 0.01, -0.011, 1.698, 0.06500001, -0.07, 0.003, 1.691
 190587084, -0.016, -0.004, 0.047, 1.705, -0.09900001, 0.01, -0.011, 1.698
 190786940, 0.05, -0.025, 0.087, 1.711, -0.016, -0.004, 0.047, 1.705
 190986981, 0.002, 0.013, -0.009000001, 1.718, 0.05, -0.025, 0.087, 1.711
 191186918, -0.102, 0.161, -0.005, 1.724, 0.002, 0.013, -0.009000001, 1.718
 191387270, 0.094, -0.04, 0.07300001, 1.731, -0.102, 0.161, -0.005, 1.724
 191587276, -0.031, -0.062, 0.046, 1.737, 0.094, -0.04, 0.07300001, 1.731
 191787257, 0.048, 0.049, 0.098, 1.743, -0.031, -0.062, 0.046, 1.737
 191987379, -0.032, -0.09200001, -0.025, 1.749, 0.048, 0.049, 0.098, 1.743
 192187077, 0.037, -0.07, 0.04, 1.755, -0.032, -0.09200001, -0.025, 1.749
 192386914, 0.056, -0.117, 0.041, 1.76, 0.037, -0.07, 0.04, 1.755
 192586941, 0.03, -0.06900001, 0.032, 1.766, 0.056, -0.117, 0.041, 1.76
 192786977, 0.071, 0.049, 0.024, 1.771, 0.03, -0.06900001, 0.032, 1.766
 192986943, -0.011, 0.097, -0.029, 1.777, 0.071, 0.049, 0.024, 1.771
 193186933, 0.005, -0.128, 0.044, 1.782, -0.011, 0.097, -0.029, 1.777
 193406955, 0.002, -0.113, 0.074, 1.787, 0.005, -0.128, 0.044, 1.782
 193586923, -0.089, 0.196, -0.098, 1.792, 0.002, -0.113, 0.074, 1.787
 193786937, 0.018, -0.001, -0.072, 1.798, -0.089, 0.196, -0.098, 1.792
 193987088, 0.036, -0.08000001, 0.003, 1.803, 0.018, -0.001, -0.072, 1.798
 194206944, 0.01, -0.004, -0.074, 1.808, 0.036, -0.08000001, 0.003, 1.803
 194386925, -0.014, 0.057, -0.128, 1.813, 0.01, -0.004, -0.074, 1.808
 194586959, 0, 0.087, -0.07700001, 1.818, -0.014, 0.057, -0.128, 1.813
 194787088, 0.034, -0.09, -0.034, 1.823, 0, 0.087, -0.07700001, 1.818
 195006941, -0.003, -0.08000001, -0.008, 1.828, 0.034, -0.09, -0.034, 1.823
 195207083, 0.02, -0.026, -0.052, 1.832, -0.003, -0.08000001, -0.008, 1.828
 195386922, -0.028, 0.058, -0.029, 1.836, 0.02, -0.026, -0.052, 1.832
 195607047, -0.029, 0.017, -0.09100001, 1.841, -0.028, 0.058, -0.029, 1.836
 195787470, -0.03, -0.089, 0.11, 1.845, -0.029, 0.017, -0.09100001, 1.841
 196006937, -0.03, -0.051, 0.004, 1.85, -0.03, -0.089, 0.11, 1.845
 196206917, 0.025, 0.063, -0.008, 1.854, -0.03, -0.051, 0.004, 1.85
 196406917, -0.189, -0.336, 0.102, 1.857, 0.025, 0.063, -0.008, 1.854
 196587442, 0.318, 0.06500001, -0.226, 1.844, -0.189, -0.336, 0.102, 1.857
 196806885, -0.037, -0.068, -0.132, 1.832, 0.318, 0.06500001, -0.226, 1.844
 196987259, -0.039, -0.053, -0.104, 1.821, -0.037, -0.068, -0.132, 1.832
 197206902, -0.05, -0.017, -0.118, 1.81, -0.039, -0.053, -0.104, 1.821
 197407053, 0.01, -0.022, -0.02, 1.798, -0.05, -0.017, -0.118, 1.81
 197606905, -0.02, -0.005, -0.05, 1.787, 0.01, -0.022, -0.02, 1.798
 197786920, -0.049, -0.044, -0.194, 1.779, -0.02, -0.005, -0.05, 1.787
 197986924, -0.097, 0.009000001, -0.071, 1.769, -0.049, -0.044, -0.194, 1.779
 198206866, 0.038, -0.078, -0.023, 1.758, -0.097, 0.009000001, -0.071, 1.769
 198386868, -0.06500001, 0.013, -0.036, 1.747, 0.038, -0.078, -0.023, 1.758
 198586880, 0.034, 0.014, -0.024, 1.736, -0.06500001, 0.013, -0.036, 1.747
 198786860, -0.059, -0.012, -0.039, 1.726, 0.034, 0.014, -0.024, 1.736
 198987037, -0.05, -0.031, -0.041, 1.715, -0.059, -0.012, -0.039, 1.726
 199206976, 0.014, 0.075, -0.019, 1.71, -0.05, -0.031, -0.041, 1.715
 199387003, -0.04, -0.037, 0.033, 1.703, 0.014, 0.075, -0.019, 1.71
 199586838, -0.033, -0.026, -0.098, 1.693, -0.04, -0.037, 0.033, 1.703
 199786869, 0.005, 0.044, -0.018, 1.685, -0.033, -0.026, -0.098, 1.693
 199987221, -0.01, -0.001, 0.005, 1.675, 0.005, 0.044, -0.018, 1.685
 200206839, -0.024, -0.039, -0.025, 1.666, -0.01, -0.001, 0.005, 1.675
 200406886, -0.013, -0.026, -0.018, 1.659, -0.024, -0.039, -0.025, 1.666
 200586888, -0.019, -0.024, -0.018, 1.65, -0.013, -0.026, -0.018, 1.659
 200786873, 0.054, -0.006, -0.055, 1.641, -0.019, -0.024, -0.018, 1.65
 200986924, -0.02, 0.071, 0.047, 1.633, 0.054, -0.006, -0.055, 1.641
 201206865, -0.04, 0.082, -0.07300001, 1.626, -0.02, 0.071, 0.047, 1.633
 201386779, 0.043, 0.054, -0.048, 1.617, -0.04, 0.082, -0.07300001, 1.626
 201586765, 0.029, -0.008, -0.004, 1.611, 0.043, 0.054, -0.048, 1.617
 201786798, -0.004, -0.002, -0.037, 1.604, 0.029, -0.008, -0.004, 1.611
 201986805, 0.01, 0.09, 0.062, 1.6, -0.004, -0.002, -0.037, 1.604
 202187143, 0.008, 0.033, -0.009000001, 1.593, 0.01, 0.09, 0.062, 1.6
 202387170, 0.006, 0.109, -0.006, 1.587, 0.008, 0.033, -0.009000001, 1.593
 202586826, 0.014, -0.033, -0.012, 1.581, 0.006, 0.109, -0.006, 1.587
 202786826, 0.03, -0.028, -0.022, 1.576, 0.014, -0.033, -0.012, 1.581
 202986972, 0.045, -0.113, 0.043, 1.57, 0.03, -0.028, -0.022, 1.576
 203186970, 0.057, 0.104, 0.063, 1.566, 0.045, -0.113, 0.043, 1.57
 203386799, -0.029, -0.066, -0.144, 1.563, 0.057, 0.104, 0.063, 1.566
 203586797, 0.017, -0.051, 0.049, 1.56, -0.029, -0.066, -0.144, 1.563
 203786872, -0.042, 0.036, 0.014, 1.559, 0.017, -0.051, 0.049, 1.56
 203986814, 0.018, -0.153, 0.12, 1.559, -0.042, 0.036, 0.014, 1.559
 204186773, 0.147, -0.078, -0.118, 1.559, 0.018, -0.153, 0.12, 1.559
 204407108, 0.047, -0.163, 0.169, 1.556, 0.147, -0.078, -0.118, 1.559
 204586809, -0.017, 0.016, -0.022, 1.554, 0.047, -0.163, 0.169, 1.556
 204786942, -0.02, 0.118, 0.074, 1.555, -0.017, 0.016, -0.022, 1.554
 204986814, -0.052, 0.146, -0.085, 1.557, -0.02, 0.118, 0.074, 1.555
 205186848, -0.105, -0.022, 0.089, 1.56, -0.052, 0.146, -0.085, 1.557
 205386792, 0.283, 0.036, -0.192, 1.565, -0.105, -0.022, 0.089, 1.56
 205606811, -0.134, -0.54, 0.196, 1.57, 0.283, 0.036, -0.192, 1.565
 205806789, -0.075, -0.021, 0.036, 1.576, -0.134, -0.54, 0.196, 1.57
 206006825, 0.106, -0.328, 0.041, 1.584, -0.075, -0.021, 0.036, 1.576
 206206805, -0.17, 0.16, 0.202, 1.594, 0.106, -0.328, 0.041, 1.584
 206406970, -0.254, 0.404, 0.067, 1.606, -0.17, 0.16, 0.202, 1.594
 206606801, -0.037, -0.113, -0.155, 1.618, -0.254, 0.404, 0.067, 1.606
 206806799, 0.063, -0.021, -0.058, 1.63, -0.037, -0.113, -0.155, 1.618
 207006805, 0.09200001, -0.096, -0.086, 1.641, 0.063, -0.021, -0.058, 1.63
 207207075, 0.035, -0.151, -0.047, 1.652, 0.09200001, -0.096, -0.086, 1.641
 207386937, 0.03, -0.12, -0.075, 1.662, 0.035, -0.151, -0.047, 1.652
 207606813, -0.054, -0.155, 0.05, 1.673, 0.03, -0.12, -0.075, 1.662
 207786798, -0.054, 0.103, -0.061, 1.684, -0.054, -0.155, 0.05, 1.673
 208006830, -0.021, 0.111, -0.005, 1.694, -0.054, 0.103, -0.061, 1.684
 208186828, -0.042, -0.106, -0.06900001, 1.704, -0.021, 0.111, -0.005, 1.694
 208386956, -0.002, -0.019, -0.074, 1.713, -0.042, -0.106, -0.06900001, 1.704
