TimeUS,CAN,CAE,CAD,CAe,NAN,NAE,NAD,NAe,m10,m00,Gye
 57731715, -0.1222486, -0.01752324, 0.01885057, 0.07896355, -0.04729006, -0.00527326, 0.00729706, 0.04130321, -0.990469, 0.1353586, 126.9541
 57919211, -0.1144941, -0.01476498, 0.01908166, 0.07665353, -0.03795353, -0.00353949, 0.004248328, 0.03488372, -0.9904782, 0.1352984, 64.86332
 58119083, -0.1114285, -0.01390458, 0.01645287, 0.07254352, -0.04146947, -0.006491042, 0.006591754, 0.03719483, -0.9904637, 0.1354147, 122.7708
 58319078, -0.11583, -0.01781735, 0.01877204, 0.07485592, -0.04093899, -0.006590588, 0.007620862, 0.03719668, -0.9904324, 0.1356417, 126.6843
 58519027, -0.1145653, -0.01862501, 0.02096419, 0.07485611, -0.04095093, -0.006720645, 0.008252643, 0.03719353, -0.9904165, 0.1357619, 126.6846
 58719072, -0.1135059, -0.01744939, 0.020141, 0.07485314, -0.03967837, -0.006201374, 0.005377275, 0.03719502, -0.9903982, 0.1359052, 126.6796
 58919072, -0.1126217, -0.01601278, 0.01834159, 0.07485667, -0.04022029, -0.005912038, 0.008873235, 0.03719502, -0.9903795, 0.1360463, 126.6855
 59119041, -0.1124119, -0.01632574, 0.0226135, 0.07485835, -0.0411308, -0.005457909, 0.008011119, 0.03719501, -0.9903541, 0.1362298, 126.6884
 59319053, -0.1150906, -0.01577971, 0.02050325, 0.07485572, -0.04070808, -0.004233631, 0.006148002, 0.03719576, -0.9903344, 0.1363695, 126.684
 59519030, -0.1140099, -0.01471484, 0.01716892, 0.07485612, -0.04233602, -0.005037832, 0.006704247, 0.03719428, -0.9903064, 0.1365681, 126.6846
 59719050, -0.1147826, -0.01667474, 0.01977722, 0.0748539, -0.03975216, -0.00683881, 0.007314377, 0.03719502, -0.9902856, 0.1367218, 126.6808
 59919044, -0.1125524, -0.016887, 0.01924445, 0.07485481, -0.03900503, -0.004985424, 0.005009458, 0.03719501, -0.9902651, 0.1368743, 126.6824
 60119051, -0.1120046, -0.01643222, 0.01705943, 0.07485593, -0.03990095, -0.004669883, 0.007552189, 0.03719502, -0.9902385, 0.1370682, 126.6843
 60319076, -0.1131061, -0.01418539, 0.01947327, 0.07485537, -0.04111556, -0.005436153, 0.005725037, 0.03719502, -0.9902157, 0.1372278, 126.6885
 60499076, -0.1071993, -0.01585285, 0.01589403, 0.07113548, -0.03231981, -0.004563596, 0.004874761, 0.03347551, -0.9901825, 0.1374722, 120.3954
 60719093, -0.1138298, -0.01989326, 0.02126447, 0.07485484, -0.07091283, -0.01871652, 0.0248898, 0.04091434, -0.9900993, 0.1380907, 126.6903
 60919037, -0.1439248, -0.03144236, 0.03535773, 0.0785754, -0.02157662, -0.005312826, -0.001194145, 0.03719521, -0.9901416, 0.1377788, 132.9874
 61119034, -0.0955354, -0.01521326, 0.01074955, 0.07485518, -0.02518467, -0.002245304, 0.0007967087, 0.03719483, -0.9901599, 0.1376358, 126.6909
 61319056, -0.09723014, -0.0122668, 0.009420061, 0.07485779, -0.04919017, -0.01318979, -0.0130283, 0.0371965, -0.9900617, 0.1384539, 126.6902
 61519112, -0.1236577, -0.02902503, -0.0001081572, 0.07485498, -0.03825643, -0.02493292, -0.003585997, 0.03719372, -0.9900579, 0.1384344, 126.6827
 61719047, -0.1082354, -0.03621174, 0.003348262, 0.07485406, -0.04746898, -0.001548939, 0.005645572, 0.03719501, -0.9900325, 0.1386488, 126.6811
 61919059, -0.1210304, -0.01218772, 0.01374641, 0.07485519, -0.04485413, -0.01766132, 0.003333906, 0.03719613, -0.9899861, 0.1388129, 126.683
 62119080, -0.1190742, -0.0290651, 0.01251605, 0.07485631, -0.08830543, -0.01833393, -0.008167492, 0.03719576, -0.9899846, 0.1387487, 126.6849
 62319089, -0.1656386, -0.03374899, 0.003746798, 0.07485516, -0.1440902, -0.08723565, 0.006745746, 0.03719446, -0.9898994, 0.1393156, 126.6882
 62519118, -0.2179466, -0.1031325, 0.01722846, 0.07485443, -0.07621291, -0.036247, 0.02372258, 0.03719557, -0.9898748, 0.1393335, 126.6897
 62719075, -0.1516861, -0.05505623, 0.01588602, 0.07485835, -0.02087747, -0.02129933, 0.02323548, 0.03719445, -0.9896966, 0.1399701, 126.6963
 62919418, -0.09643541, -0.03517311, 0.03755759, 0.07485703, -0.06926681, 0.005437957, 0.01634217, 0.03719502, -0.9892152, 0.1413734, 126.6941
 63119419, -0.1455598, -0.006838826, 0.02549749, 0.07485537, -0.03956072, -0.01364712, 0.03234873, 0.03719502, -0.9886619, 0.1425066, 126.6913
 63319464, -0.1150898, -0.0561622, 0.02070007, 0.07485498, -0.04495874, -0.0659146, 0.01219305, 0.03719557, -0.9868106, 0.144254, 126.6856
 63519410, -0.1226003, -0.1376362, -0.03872573, 0.07485647, -0.06104785, -0.1051082, -0.009844765, 0.03719501, -0.9823234, 0.1475113, 126.6852
 63719407, -0.1169148, -0.3711859, -0.2099803, 0.074855, -0.04013588, -0.1993392, -0.1440272, 0.03719446, -0.9765549, 0.1372359, 126.6827
 63919406, -0.1313546, -0.5844774, -0.3771782, 0.07485555, -0.05158496, -0.2074503, -0.1719412, 0.03719575, -0.9741282, 0.1360254, 126.6837
 64119406, -0.1253474, -0.5934021, -0.359394, 0.07485481, 0.01759949, -0.2185397, -0.06413712, 0.03719427, -0.9748383, 0.137835, 126.6824
 64319556, -0.07629634, -0.5286667, -0.3376498, 0.0748548, -0.08706723, -0.1007166, -0.2804585, 0.03719557, -0.9824193, 0.1427286, 126.6874
 64519405, -0.1674468, -0.270959, -0.5674543, 0.07485908, -0.01003413, -0.09506527, -0.1082609, 0.03719632, -0.9867569, 0.1534367, 126.6976
 64719500, -0.07110982, -0.1374485, -0.4171015, 0.07485611, -0.04432429, 0.01202809, -0.2257326, 0.03719297, -0.9874399, 0.1558412, 126.6925
 64919392, -0.05286264, 0.01324173, -0.5017451, 0.07485556, 0.01183741, -0.01358478, -0.1075927, 0.0371952, -0.987645, 0.1557722, 126.6916
 65119402, 0.03846738, 0.01340194, -0.3819891, 0.07485612, 0.01283338, 0.02777095, -0.1768473, 0.03719558, -0.9879438, 0.1538959, 126.6925
 65319418, 0.05696621, 0.06304333, -0.4299755, 0.07485555, 0.02202636, 0.01230907, -0.1136632, 0.03719446, -0.9881934, 0.1530518, 126.6865
 65519406, 0.0571919, 0.06807759, -0.344209, 0.07485427, -0.002576617, 0.04698039, -0.1461291, 0.03719502, -0.988324, 0.1523593, 126.6815
 65719585, 0.008470251, 0.1000079, -0.3391856, 0.07485481, 0.007660552, 0.02030224, -0.07403884, 0.03719557, -0.9883618, 0.1520602, 126.6824
 65919470, -0.007290793, 0.05099515, -0.1512574, 0.07485498, -0.01694688, 0.0153271, -0.05019137, 0.03719446, -0.9878017, 0.1530917, 126.6827
 66119594, -0.03973245, 0.0176918, 0.09569347, 0.07485647, -0.003240819, -0.007029988, 0.1655895, 0.03719502, -0.9877451, 0.1542106, 126.6852
 66319510, -0.02835984, 0.004591139, 0.5167531, 0.07485498, -0.01384429, 0.02041666, 0.2555912, 0.03719557, -0.9879841, 0.1525539, 126.6827
 66519469, -0.04379611, 0.06143165, 0.8031718, 0.07485554, -0.01760236, 0.0354636, 0.3421197, 0.03719427, -0.9886573, 0.1501867, 126.6837
 66719452, -0.05464945, 0.09777355, 0.9319056, 0.07485294, -0.02696285, 0.03792563, 0.3564922, 0.03719631, -0.9885926, 0.1502623, 126.6793
 66919492, -0.06921838, 0.1091198, 0.8962327, 0.07485517, -0.04185967, 0.03186838, 0.2476747, 0.03719483, -0.9886236, 0.149596, 126.683
 67119480, -0.09056704, 0.11892, 0.6287135, 0.0748537, -0.02797537, 0.06732958, 0.2125214, 0.03719502, -0.9885516, 0.1492593, 126.6805
 67319470, -0.0824576, 0.1623641, 0.4683271, 0.07485406, -0.01940022, 0.0417564, 0.1520838, 0.03719427, -0.9885784, 0.1480557, 126.6811
 67519485, -0.08700158, 0.1573645, 0.3243768, 0.07485405, -0.03997773, 0.08560371, 0.07396474, 0.03719539, -0.9880886, 0.1480645, 126.6811
 67719460, -0.117534, 0.2102643, 0.1831369, 0.07485481, -0.03105029, 0.04548596, 0.0903431, 0.03719557, -0.9874169, 0.1516186, 126.6824
 67919604, -0.1291784, 0.1860694, 0.1533878, 0.07485555, -0.04947522, 0.09020592, 0.0147422, 0.0371939, -0.9867696, 0.1540378, 126.6837
 68119492, -0.1813712, 0.2165413, 0.05421074, 0.07485443, -0.08215018, 0.06139737, -0.003226475, 0.03719501, -0.9876513, 0.1515533, 126.6818
 68319472, -0.3111841, 0.144521, 0.04315357, 0.07485498, -0.1373102, 0.01817454, 0.02162036, 0.03719557, -0.9886902, 0.1476104, 126.6877
 68519455, -0.4721204, 0.07558175, 0.03866138, 0.07485629, -0.2343207, 0.05009993, -0.02479769, 0.03719464, -0.9891385, 0.1452054, 126.6928
 68719483, -0.6307209, 0.06867472, -0.01238164, 0.07485424, -0.2362384, -0.007003823, 0.01803012, 0.03719482, -0.9886099, 0.1502715, 126.6894
 68919603, -0.6557388, -0.01522158, 0.05153867, 0.07485645, -0.2560237, 0.002268677, 0.009636114, 0.03719594, -0.9879475, 0.1547634, 126.6931
 69119454, -0.6392695, -0.04170489, 0.0561143, 0.07485481, -0.1679438, -0.05616826, 0.06358238, 0.03719408, -0.9867162, 0.1606102, 126.6903
 69319506, -0.4860856, -0.1147972, 0.08931606, 0.07485554, -0.1823622, -0.009214262, -0.06684308, 0.03719631, -0.9855704, 0.1650712, 126.6866
 69519454, -0.3935544, -0.0781474, -0.04561744, 0.07485498, -0.08694173, -0.05663933, 0.03392873, 0.0371939, -0.9846315, 0.1674862, 126.6827
 69719585, -0.2176479, -0.1088956, 0.03997166, 0.07485369, -0.06909551, -0.006249208, -0.002921407, 0.03719483, -0.9847329, 0.1680588, 126.6805
 69919620, -0.1562551, -0.04226689, 0.01624245, 0.07485481, -0.03557621, -0.03162908, 0.05274642, 0.0371952, -0.9859433, 0.1628465, 126.6824
 70119461, -0.1141307, -0.02546509, 0.07633839, 0.07485628, -0.0518399, 0.0291067, -0.001538612, 0.03719502, -0.9872782, 0.1580458, 126.6849
 70319485, -0.1482882, 0.06170812, 0.04162146, 0.0748548, -0.03566174, -0.01018746, 0.06614204, 0.03719557, -0.9875507, 0.1571321, 126.6873
 70519492, -0.1828518, 0.02783989, 0.1061712, 0.07485482, -0.1064587, 0.03219032, -0.004326534, 0.03719446, -0.9870579, 0.1603591, 126.6903
 70719453, -0.2903609, 0.05713897, 0.03173701, 0.07485425, -0.09454869, 0.02130874, 0.04114331, 0.03719502, -0.9870102, 0.1605491, 126.6894
 70919474, -0.2777833, 0.02990638, 0.05753644, 0.07485591, -0.07962658, -0.01069695, 0.0581585, 0.03719557, -0.9872541, 0.1588476, 126.6922
 71119493, -0.2439495, -0.01459428, 0.05026466, 0.07485572, -0.1409324, -0.001687306, -0.03168478, 0.03719483, -0.9876206, 0.156021, 126.6919
 71319479, -0.2903843, 0.002357488, -0.04880556, 0.07485424, -0.06286128, 0.02163211, -0.03812905, 0.03719446, -0.9887589, 0.148715, 126.6844
 71519606, -0.2084654, 0.022802, -0.05856108, 0.07485518, -0.08778436, 0.006271736, -0.01096559, 0.0371952, -0.9895238, 0.1440362, 126.683
 71719501, -0.2155996, 0.009383004, -0.01364084, 0.07485611, -0.04510216, -0.01927793, 0.02671448, 0.03719502, -0.9897444, 0.1425495, 126.6846
 71919478, -0.1726244, -0.01478183, 0.04012621, 0.07485742, -0.08384965, 0.01526147, 0.01165862, 0.03719556, -0.9900653, 0.1398526, 126.6868
 72119467, -0.1936161, 0.02027992, 0.02525022, 0.07485592, -0.03622518, -0.01280417, 0.0364866, 0.03719427, -0.9905856, 0.1362997, 126.6843
 72319509, -0.175712, 0.06807999, 0.05458403, 0.07485407, -0.09541605, 0.09287113, -0.001144024, 0.03719557, -0.9886031, 0.1409437, 126.6861
 72519448, -0.2790148, 0.2552993, 0.006034994, 0.07485499, -0.1075419, 0.09798898, -0.01939224, 0.03719464, -0.98536, 0.14508, 126.6906
 72719459, -0.3192089, 0.2548446, -0.05073416, 0.07485445, -0.1454587, 0.06618577, -0.01088353, 0.03719501, -0.9873682, 0.1434539, 126.6897
 72919490, -0.3292249, 0.1248362, -0.03450528, 0.07485478, -0.08378145, 0.01753843, -0.06225562, 0.03719651, -0.9904103, 0.138131, 126.6903
 73119576, -0.2395469, -0.04438777, -0.07421944, 0.07485481, -0.09601542, -0.06193825, -0.004474055, 0.03719353, -0.989812, 0.1346768, 126.6903
 73319604, -0.2372691, -0.1767733, -0.03654421, 0.07485407, -0.08849666, -0.04745978, -0.01427287, 0.03719502, -0.9887556, 0.1363622, 126.6842
 73519482, -0.2074725, -0.1944272, -0.01124862, 0.07485519, -0.08459227, -0.09865825, 0.01510529, 0.03719502, -0.9879612, 0.1344028, 126.683
 73719450, -0.155005, -0.2297625, 0.00191693, 0.07485537, -0.04618564, -0.07184035, 0.02714841, 0.03719352, -0.9891336, 0.1282262, 126.6833
 73919450, -0.08162942, -0.1889409, 0.04554753, 0.0748533, 0.004603919, -0.0532986, 0.0519341, 0.03719798, -0.9901322, 0.1257213, 126.6799
 74119614, -0.038127, -0.1310131, 0.0711819, 0.07485647, -0.03245708, -0.04742385, 0.05025255, 0.03719353, -0.9911833, 0.1252201, 126.6852
 74319480, -0.08019891, -0.09716377, 0.06728289, 0.07485332, -0.02670008, -0.006686578, -0.007788882, 0.0371965, -0.9922637, 0.1204659, 126.6847
 74519457, -0.07970983, -0.02391086, 0.006313085, 0.0748559, -0.0433202, -0.007330462, -0.01033211, 0.03719353, -0.9930603, 0.1165628, 126.6922
 74719484, -0.07965468, 0.01025287, 0.006761055, 0.07485332, -0.02289633, 0.02299544, -0.00190274, 0.03719558, -0.9936445, 0.1125217, 126.6878
 74919466, -0.03661837, 0.07008849, 0.02484146, 0.07485481, -0.003156353, 0.05684096, 0.03688144, 0.03719446, -0.9935807, 0.1128048, 126.6903
 75119594, -0.02419903, 0.1238116, 0.07197176, 0.07485425, -0.0367508, 0.05162889, 0.02780727, 0.03719408, -0.99323, 0.1134846, 126.6894
 75319527, -0.03040677, 0.1181381, 0.02999037, 0.0748559, -0.01755686, 0.04416581, -0.008983991, 0.03719595, -0.9936505, 0.1121715, 126.6874
 75519459, 0.04492535, 0.1077061, 0.01894237, 0.07485611, 0.03975133, 0.02055868, 0.02863617, 0.03719446, -0.9937171, 0.1118651, 126.6846
 75719450, 0.1846822, 0.09211048, 0.04511087, 0.0748589, 0.1142313, 0.04292966, 0.0102153, 0.03719557, -0.9934408, 0.1142361, 126.6893
 75919477, 0.3100289, 0.1462515, 0.02285878, 0.07485534, 0.1246213, 0.05011133, -0.003279991, 0.03719501, -0.993004, 0.1170747, 126.6833
 76119469, 0.3147224, 0.1695787, 0.01549155, 0.07485647, 0.1007695, 0.07134841, 0.00690567, 0.03719557, -0.9930276, 0.1159708, 126.6852
 76319488, 0.2707348, 0.1728369, 0.03346996, 0.07485479, 0.1055768, 0.05964052, 0.03219788, 0.03719446, -0.9927293, 0.1191244, 126.6824
 76519491, 0.2707081, 0.1209717, 0.050823, 0.07485424, 0.07872124, -0.00324917, 0.03788795, 0.03719687, -0.9927841, 0.1197294, 126.6815
 76719458, 0.2232834, 0.02421358, 0.034686, 0.07485478, 0.0642739, 0.02125676, -0.04353675, 0.03719167, -0.9929336, 0.1177691, 126.6824
 76919590, 0.1957112, 0.02085985, -0.01334694, 0.07485425, 0.05608542, 0.002342621, 0.02865819, 0.0371965, -0.9925331, 0.1202846, 126.6815
 77119480, 0.1450985, -0.02517761, 0.04807572, 0.07485481, 0.04910609, -0.002006418, -0.03812731, 0.03719353, -0.9917917, 0.1239103, 126.6824
 77319581, 0.1084762, -0.07272409, -0.02328693, 0.07485314, 0.04385673, -0.04895687, 0.03013427, 0.03719502, -0.9908086, 0.1265601, 126.6796
 77519462, 0.07030601, -0.1434626, 0.02754937, 0.07485981, 0.009345023, -0.04356091, -0.000717768, 0.03719651, -0.9905812, 0.1259728, 126.6909
 77719493, 0.02013329, -0.1444581, -0.01061246, 0.07485629, -0.003375063, -0.05942503, -0.02170255, 0.03719502, -0.9903069, 0.1274153, 126.6849
 77919462, 0.004299044, -0.1365356, -0.0504108, 0.07485592, 0.005445124, -0.02903779, -0.04627242, 0.03719501, -0.9897606, 0.1333332, 126.6843
 78119449, 0.02617143, -0.0930512, -0.06140793, 0.0748533, 0.03011703, -0.01116416, -0.01274677, 0.03719353, -0.9899791, 0.1353013, 126.6799
 78319631, 0.04406347, -0.03137769, -0.02703351, 0.07485498, 0.02608163, -0.0288322, -0.01368448, 0.03719557, -0.9901707, 0.1379207, 126.6875
 78519576, 0.0393423, -0.03105137, -0.01425739, 0.07485628, 0.01816069, 0.001108086, 0.02708268, 0.03719595, -0.9899905, 0.1407918, 126.6928
 78719682, 0.1018099, 0.01525342, -0.0005105836, 0.07485591, 0.06379499, 0.02749145, -0.03506119, 0.03719502, -0.9899192, 0.1415101, 126.6922
 78919571, 0.3074145, 0.06245277, -0.04210015, 0.07485479, 0.1488277, 0.004871879, 0.003545745, 0.03719483, -0.9904147, 0.1376305, 126.6903
 79119554, 0.420179, 0.03877056, -0.001641109, 0.07485331, 0.1470695, 0.0382247, -0.04879167, 0.03719371, -0.990734, 0.1349526, 126.6878
 79319574, 0.3297845, 0.03571332, -0.05253519, 0.07485498, 0.08972403, -0.03058834, 0.00445435, 0.03719725, -0.9908498, 0.133348, 126.6859
 79519580, 0.174595, -0.04642041, -0.002077526, 0.0748563, 0.03399986, -0.01013763, -0.01588575, 0.03719427, -0.991164, 0.1308369, 126.6849
 79719547, 0.05140442, -0.04249042, -0.01972505, 0.07485405, 0.01525302, -0.02026343, 0.01013204, 0.03719817, -0.9911857, 0.1302834, 126.6811
 79919561, -0.006448232, -0.04722692, 0.00574275, 0.07485647, -0.02220884, -0.01614889, -0.04363848, 0.0371926, -0.9913952, 0.1299974, 126.6852
 80119551, -0.07537238, -0.02784797, -0.03483315, 0.07485145, -0.02408668, 0.007253479, -0.01489604, 0.03719427, -0.991446, 0.13045, 126.6767
 80319577, -0.08800656, -0.0003844961, -0.01737436, 0.07485441, -0.01365967, -0.031402, 0.04406831, 0.03719688, -0.9916838, 0.1286225, 126.6865
 80519773, -0.09540622, -0.03953781, 0.03222511, 0.07485534, -0.08181389, 0.03077446, -0.05049444, 0.03719315, -0.9913455, 0.131106, 126.6913
 80719550, -0.1640535, 0.002288766, -0.04302191, 0.07485294, -0.04535905, -0.03714641, 0.0391566, 0.03719502, -0.9912805, 0.1314874, 126.6872
 80939281, -0.137044, -0.04661488, 0.02890268, 0.0785743, -0.06599887, 0.003962063, -0.02907491, 0.04091452, -0.9912196, 0.1320178, 132.9855
 81119561, -0.1342849, -0.003956752, 0.01662488, 0.07485481, -0.01327651, -0.04542937, 0.08338631, 0.03347533, -0.9913304, 0.1312745, 126.6903
 81319560, -0.1007798, -0.04358795, 0.148482, 0.0711353, -0.1126551, 0.1005538, -0.1006565, 0.03719557, -0.9918985, 0.12695, 120.3906
 81519658, -0.2088442, 0.08682923, -0.03139587, 0.07485516, -0.003741975, -0.08727983, 0.1454412, 0.03719465, -0.9923873, 0.1230499, 126.683
 81719552, -0.1382114, -0.06043275, 0.1576388, 0.07485443, -0.09753084, 0.08981643, -0.09910378, 0.03719483, -0.9922503, 0.1227868, 126.6818
 81919550, -0.2275259, 0.09464024, -0.07570574, 0.07485461, -0.1076441, -0.04393231, 0.02906147, 0.0371952, -0.9924387, 0.1220719, 126.6821
 82119565, -0.2329454, -0.04557359, 0.04049459, 0.074855, -0.03815652, -0.0002096281, 0.03717904, 0.03719483, -0.9924264, 0.1227472, 126.6827
 82319708, -0.1819971, -0.03382785, 0.05772056, 0.07485481, -0.1587596, 0.04579506, -0.1023153, 0.03719558, -0.9925756, 0.1210758, 126.6871
 82519686, -0.2770596, -0.02361358, -0.06207509, 0.074855, -0.02206925, -0.1178364, 0.1257071, 0.03719446, -0.9921616, 0.1224821, 126.6906
 82719540, -0.1588421, -0.1646318, 0.1260719, 0.07485442, -0.09366168, 0.04300975, -0.07805189, 0.0371952, -0.9923706, 0.1221088, 126.6897
 82919540, -0.2129526, -0.02192559, -0.04892753, 0.0748561, -0.05904085, -0.1209715, 0.09663337, 0.03719501, -0.9922346, 0.1225359, 126.6925
 83119547, -0.1696209, -0.1508477, 0.1195417, 0.07485498, -0.02821664, 0.02669497, 0.01043087, 0.03719502, -0.9925196, 0.1216709, 126.6906
 83319562, -0.1440777, -0.004099436, 0.03762519, 0.07485481, -0.09427086, -0.009559439, -0.01357226, 0.03719539, -0.9928625, 0.1192443, 126.6856
 83519550, -0.1884739, -0.03092209, 3.365788E-05, 0.0748548, -0.008405589, -0.03457931, 0.04482003, 0.0371952, -0.9928845, 0.1189872, 126.6824
 83719546, -0.1188375, -0.0548362, 0.03261273, 0.07485442, -0.1181913, 0.03414188, -0.08473603, 0.03719446, -0.9926506, 0.1210129, 126.6818
 83919556, -0.2043707, 0.003709159, -0.02909933, 0.07485424, 0.0136008, -0.1012669, 0.1245321, 0.03719575, -0.9925392, 0.1218147, 126.6815
 84119675, -0.0880911, -0.08747774, 0.1284096, 0.07485478, -0.08561772, 0.1055339, -0.06215571, 0.03719427, -0.9921534, 0.1238372, 126.6824
 84319561, -0.1939807, 0.09887572, -0.04405884, 0.07485463, -0.0414267, -0.06957502, 0.06651203, 0.03719483, -0.9920879, 0.1253883, 126.6867
 84519545, -0.1811759, -0.06425659, 0.06564915, 0.07485481, -0.1003834, 0.05515507, -0.09112676, 0.0371952, -0.9919403, 0.1263646, 126.6903
 84719559, -0.2446339, 0.01998313, -0.07088176, 0.07485498, -0.06382217, -0.0598227, 0.04199119, 0.03719484, -0.9916562, 0.1284706, 126.6906
 84919543, -0.2109178, -0.09353361, 0.05195678, 0.07485481, -0.09271872, 0.009557372, -0.07652791, 0.03719502, -0.9914877, 0.1299521, 126.6903
 85119562, -0.2156115, -0.03663022, -0.05284309, 0.07485498, -0.06704026, -0.05399613, 0.02769745, 0.03719502, -0.9914019, 0.13053, 126.6906
 85319574, -0.1612566, -0.07862652, 0.04060394, 0.07485519, -0.0498045, 0.01880979, -0.02166547, 0.03719519, -0.9912791, 0.131769, 126.6863
 85519571, -0.1215736, -0.002799935, 0.0004896461, 0.0748559, -0.03059674, -0.04042948, 0.04771889, 0.03719502, -0.9912902, 0.1316947, 126.6843
 85719682, -0.08562526, -0.0418637, 0.05747483, 0.07485479, -0.001688971, 0.03479837, 0.0260545, 0.03719483, -0.9910173, 0.1334107, 126.6824
 85919678, -0.06625136, 0.0409863, 0.04678042, 0.07485481, -0.05050887, -0.01221669, 0.04013861, 0.03719576, -0.990936, 0.1337528, 126.6824
 86119549, -0.120309, 0.004482126, 0.04976916, 0.07485498, -0.04409816, 0.005360017, -0.03860987, 0.03719446, -0.9908777, 0.1343839, 126.6827
 86319609, -0.1103231, 0.01295425, -0.02385787, 0.07485406, -0.03394781, 0.008132719, -0.01478779, 0.03719483, -0.9907989, 0.1348197, 126.6811
 86519589, -0.09937854, 0.005129563, -0.009571631, 0.0748548, -0.04285307, -0.01828545, 0.01879301, 0.03719613, -0.9909687, 0.1340272, 126.6824
 86719675, -0.1251619, -0.03649935, 0.02295552, 0.074855, -0.05000711, 0.007939314, -0.003232521, 0.0371939, -0.9911085, 0.1330518, 126.6827
 86919608, -0.1451275, -0.02695113, 0.01218314, 0.07485536, -0.04175033, -0.04964447, 0.07052927, 0.03719502, -0.991132, 0.1327374, 126.6833
 87119549, -0.1501293, -0.07973031, 0.07678401, 0.07485499, -0.06170959, 0.02156946, -0.007012091, 0.03719687, -0.9910092, 0.1337574, 126.6827
 87319577, -0.1658986, -0.01343024, 0.009169394, 0.07485685, -0.04411592, -0.05876003, 0.05129653, 0.03719389, -0.9908189, 0.1351469, 126.6859
 87519584, -0.1438793, -0.07772744, 0.06084745, 0.07485314, -0.04644107, 0.03396509, -0.0019638, 0.03719594, -0.990885, 0.1347036, 126.6796
 87719686, -0.1405441, 0.004787679, 0.01784571, 0.07485424, -0.05281593, -0.06018322, 0.02334042, 0.03719353, -0.9909415, 0.1342604, 126.6815
 87919547, -0.1354807, -0.06964718, 0.03642622, 0.07485387, -0.04796476, 0.03979631, -0.02466793, 0.03719502, -0.9910313, 0.1335829, 126.6808
 88119586, -0.12546, 0.0248307, 0.002608745, 0.07485572, -0.03948865, -0.03025591, 0.009722628, 0.03719483, -0.9909105, 0.1344614, 126.684
 88319567, -0.1144198, -0.03732198, 0.01812138, 0.0748548, -0.04258255, 0.01150073, -0.00638766, 0.03719557, -0.9910167, 0.1337066, 126.6869
 88519565, -0.1121162, -0.009397017, 0.008986727, 0.07485499, -0.03493891, -0.01256446, 0.01379115, 0.03719464, -0.9909369, 0.1343137, 126.6906
 88719581, -0.107837, -0.02868732, 0.02204451, 0.07485461, -0.04197716, -0.01448973, 0.0495217, 0.03719539, -0.9907655, 0.1355818, 126.69
 88919550, -0.1242776, -0.02392014, 0.05768723, 0.07485482, -0.05404717, 0.01043155, -0.005696634, 0.03719446, -0.9907222, 0.1358085, 126.6903
 89119559, -0.1395433, 0.001231385, 0.01030838, 0.07485461, -0.03832811, -0.02190309, 0.03770959, 0.03719687, -0.9906701, 0.1361763, 126.69
 89319605, -0.1252724, -0.02973566, 0.05363235, 0.07485498, -0.06328963, 0.0213997, -0.02007063, 0.03719595, -0.9906757, 0.1362019, 126.6861
 89519697, -0.1475241, 0.0027152, 0.01111978, 0.07485312, -0.0475417, -0.04054921, 0.008478023, 0.03719223, -0.9905562, 0.1371075, 126.6796
 89719548, -0.1310316, -0.05212362, 0.0277789, 0.07485218, -0.04140844, 0.02553388, -0.01268976, 0.03719576, -0.990611, 0.1366531, 126.678
 89919704, -0.128442, 0.007439109, 0.009828471, 0.07485498, -0.03450715, -0.03714325, 0.03212216, 0.03719445, -0.9908149, 0.1352094, 126.6827
 90119552, -0.124838, -0.04759565, 0.04058069, 0.07485425, -0.05642843, 0.01430502, 0.01824414, 0.03719483, -0.9908808, 0.1346826, 126.6815
 90319572, -0.1469096, -0.007124749, 0.03051508, 0.07485481, -0.04736774, -0.0300574, 0.01321563, 0.0371952, -0.990956, 0.1341685, 126.6868
 90519609, -0.1429649, -0.06032364, 0.03049333, 0.07485499, -0.07448921, 0.0002818475, -0.01634688, 0.0371952, -0.9911617, 0.1323595, 126.6906
 90719547, -0.1597841, -0.03125167, -0.002261196, 0.07485463, -0.03036812, -0.02087663, 0.03364182, 0.03719651, -0.9910405, 0.13356, 126.69
 90919673, -0.1065612, -0.01941941, 0.03714915, 0.07485463, -0.05825774, 0.04718241, -0.04960566, 0.03719315, -0.991228, 0.1310586, 126.69
 91119581, -0.1337961, 0.04833741, -0.02814974, 0.07485312, -0.01394705, -0.08255301, 0.1053766, 0.03719651, -0.9915686, 0.129478, 126.6875
 91319699, -0.1081154, -0.07510069, 0.1195292, 0.07485537, -0.0297905, 0.05676931, -0.06487615, 0.03719391, -0.9924402, 0.1224766, 126.6868
 91519545, -0.1508134, 0.0664617, -0.0620994, 0.07485352, -0.1440291, 0.1243857, -0.1301563, 0.03719465, -0.9913141, 0.1264543, 126.6802
 91719581, -0.2624343, 0.170002, -0.09026672, 0.07485463, -0.2051036, 0.04418844, -0.04808844, 0.03719613, -0.9891739, 0.1343687, 126.6821
 91919547, -0.2979912, 0.1292922, -0.07155015, 0.07485498, -0.0695876, -0.1048582, 0.1317155, 0.03719594, -0.989499, 0.1363716, 126.6827
 92119553, -0.1377637, -0.05907189, 0.1257806, 0.07485387, 0.02546556, -0.1363316, 0.1539789, 0.03719297, -0.9913274, 0.1313995, 126.6808
 92319600, -0.002107286, -0.1342808, 0.1234265, 0.07485294, 0.07025966, 0.02629466, 0.008858596, 0.03719725, -0.9913129, 0.1307367, 126.6837
 92519545, 0.04404884, -0.02551027, -0.005903598, 0.074855, -0.009538794, 0.1507018, -0.1293166, 0.03719279, -0.9909586, 0.1330749, 126.6906
 92719555, -0.02335956, 0.07312019, -0.0871931, 0.07485257, -0.06545801, 0.0488853, -0.04630975, 0.03719669, -0.9909779, 0.133455, 126.6865
 92939418, -0.08808924, 0.03268365, -0.03723514, 0.07857448, -0.04616623, -0.1357997, 0.1266199, 0.04091284, -0.9915604, 0.1288097, 132.9858
 93119692, -0.1046016, -0.1345559, 0.1225785, 0.07485332, -0.03906623, -0.1640071, 0.1767003, 0.03347551, -0.9915956, 0.12937, 126.6878
 93319560, -0.1282736, -0.1564391, 0.2008057, 0.07113588, 0.0349499, -0.1104765, 0.171339, 0.03719501, -0.9914309, 0.1306281, 120.3918
 93519579, -0.08740875, -0.113999, 0.1752715, 0.07485499, -0.008985253, 0.07873596, -0.07122087, 0.03719502, -0.9914146, 0.1305682, 126.6827
 93719542, -0.1473534, 0.02569375, -0.07578122, 0.07485499, -0.09865011, 0.153894, -0.1402837, 0.03719501, -0.9914262, 0.1301119, 126.6827
 93919570, -0.2319816, 0.05978409, -0.09602448, 0.07485572, -0.1557795, 0.01354876, -0.1465917, 0.03719501, -0.9907925, 0.1321215, 126.684
 94119696, -0.2515515, -0.1018315, -0.1072717, 0.07485498, -0.1018334, -0.1974917, 0.1214855, 0.03719558, -0.9899529, 0.1333066, 126.6827
 94319562, -0.174829, -0.2794398, 0.1498403, 0.07485503, 0.02948453, -0.1902887, 0.1930285, 0.03719706, -0.9895864, 0.1349038, 126.6872
 94519543, -0.0372006, -0.2463297, 0.1796757, 0.07485442, 0.04417026, 0.01602391, 0.03657417, 0.03719259, -0.9900153, 0.1355545, 126.6897
 94719583, -0.02123408, -0.04895748, 0.007452674, 0.07485238, -0.05507936, 0.1402696, -0.2023359, 0.03719594, -0.9899394, 0.1392028, 126.6862
 94919669, -0.1230569, 0.08329044, -0.1667999, 0.07485481, -0.07570412, 0.08220614, -0.1200922, 0.03719408, -0.9897898, 0.1422346, 126.6903
 95119671, -0.1631422, 0.05855957, -0.0921102, 0.07485386, -0.04932139, -0.1320737, 0.1367466, 0.03719483, -0.9901585, 0.1387799, 129.856
 95319602, -0.1398619, -0.04687312, 0.1673726, 0.07485463, -0.01374734, -0.1239102, 0.2274779, 0.03719521, -0.9886318, 0.1371755, 126.6855
 95519546, -0.1042479, 0.02695823, 0.2698897, 0.07485498, -0.02354999, -0.04921484, 0.1099456, 0.03719501, -0.9881005, 0.1394291, 126.6827
 95719544, -0.1027572, 0.08324651, 0.09210464, 0.07485481, 0.006497839, 0.1298114, 0.04695093, 0.03719483, -0.9904807, 0.134431, 126.6824
 95919604, -0.06230175, 0.1660639, 0.0410702, 0.07485647, -0.07538903, 0.1593967, -0.1585506, 0.03719502, -0.9913064, 0.1315559, 126.6852
 96119549, -0.1368131, 0.1011536, -0.1413444, 0.07485499, -0.1110254, 0.05536968, -0.1723099, 0.03719576, -0.9907116, 0.1338944, 126.6827
 96319568, -0.1469257, -0.06938693, -0.1202221, 0.07485537, -0.07053902, -0.1609686, 0.09019825, 0.03719445, -0.989167, 0.1369743, 126.6879
 96519588, -0.08287362, -0.2879265, 0.1125871, 0.07485534, 0.04063082, -0.2236404, 0.1795051, 0.03719483, -0.9877299, 0.140847, 126.6913
 96719681, 0.0176555, -0.2790183, 0.2087253, 0.0748548, -0.01766444, 0.007727752, 0.006108327, 0.03719502, -0.9890423, 0.1442352, 126.6903
 96919569, -0.07956178, -0.0210264, -0.01855442, 0.07485498, -0.05315483, 0.1883648, -0.2212767, 0.03719501, -0.9891719, 0.1465639, 126.6906
 97119578, -0.1322061, 0.1942219, -0.2044122, 0.07485498, -0.102749, 0.2050518, -0.1894816, 0.03719502, -0.9888408, 0.1428992, 126.6906
 97319572, -0.1962178, 0.2946534, -0.1721233, 0.07485666, -0.06690353, 0.09610657, -0.03186043, 0.03719501, -0.9859267, 0.1394491, 126.6889
 97519548, -0.1697525, 0.2317827, -0.01165952, 0.07485499, -0.0775786, -0.03850915, 0.05152553, 0.03719613, -0.9858588, 0.1357835, 126.6827
 97719585, -0.1694035, 0.102059, 0.05503577, 0.07485647, -0.0004895027, -0.128282, 0.1242696, 0.03719389, -0.9888006, 0.1327834, 126.6852
 97919903, -0.07487345, -0.03518409, 0.1336046, 0.07491599, 0.03244838, -0.0802234, 0.1244592, 0.03725675, -0.9909252, 0.1319783, 126.7859
 98119901, -0.02668911, -0.05792896, 0.1037142, 0.07491822, -0.01092645, 0.09932216, -0.03224542, 0.03719426, -0.99119, 0.1318883, 126.7897
 98320131, -0.05792259, 0.02528842, -0.02132318, 0.07485404, -0.07668896, 0.07861321, -0.1040584, 0.03719484, -0.9903864, 0.1344458, 126.6856
 98520053, -0.1085889, -0.05469776, -0.05532662, 0.07485445, -0.04996371, -0.1729059, 0.1413241, 0.03719371, -0.9898588, 0.1358643, 126.6897
 98719857, -0.07601923, -0.2715879, 0.1693664, 0.07485685, 0.02363381, -0.2120749, 0.1892676, 0.03719632, -0.9895905, 0.1398152, 126.6938
 98919890, -0.02131571, -0.2370083, 0.1918402, 0.07485849, 0.02197063, -0.01209424, 0.01558114, 0.03719502, -0.9897495, 0.1422542, 126.6966
 99119893, -0.04931617, -0.007978097, -0.003175773, 0.07485798, -0.05342231, 0.180754, -0.1792243, 0.03719483, -0.990318, 0.1382105, 126.6957
 99320081, -0.1424278, 0.217602, -0.1674552, 0.074855, -0.09390464, 0.2319786, -0.1414737, 0.03719502, -0.9891342, 0.1353881, 126.6862
 99519975, -0.1794179, 0.2904398, -0.105636, 0.07485592, -0.0863939, 0.04780843, -0.09291644, 0.0371952, -0.988355, 0.1335503, 126.6843
 99719888, -0.1641125, 0.09955876, -0.06034336, 0.07485685, -0.03653268, -0.1408802, 0.1802115, 0.03719502, -0.9902346, 0.1305704, 126.6859
 99919879, -0.1281974, -0.08121091, 0.1819498, 0.07485889, 0.01717435, -0.1202535, 0.1495091, 0.03719725, -0.9909734, 0.1296403, 126.6893
 100119993, -0.07413332, -0.04331383, 0.1258042, 0.07485557, -0.0531413, 0.1385002, -0.06717753, 0.03719277, -0.9907154, 0.1318536, 126.6837
 100320091, -0.1350126, 0.1687702, -0.06567075, 0.07485275, -0.09593186, 0.1722808, -0.1697656, 0.03719743, -0.9907478, 0.1334917, 126.6833
 100519861, -0.1790305, 0.1262574, -0.1553989, 0.07485741, -0.0367738, -0.08076189, 0.0413916, 0.0371926, -0.9914194, 0.1307147, 126.6947
 100719886, -0.1188607, -0.153609, 0.07671444, 0.07485481, -0.001981214, -0.1956674, 0.1509899, 0.03719501, -0.9903522, 0.1365591, 126.6903
 100919852, -0.07841562, -0.2454246, 0.1596268, 0.07485609, -0.06149494, 0.04315358, -0.01568293, 0.03719502, -0.9903198, 0.1372426, 126.6925
 101119972, -0.1307992, 0.005120085, 0.01342317, 0.07485817, -0.07579777, 0.1729348, -0.1307556, 0.03719483, -0.9904939, 0.1373132, 126.696
 101319979, -0.1349259, 0.143408, -0.09828935, 0.07485499, -0.05057397, 0.01225639, -0.1033428, 0.03719762, -0.9902797, 0.1367719, 126.6863
 101519887, -0.1154962, -0.004133895, -0.06197235, 0.07485629, -0.03061501, -0.2027405, 0.1704144, 0.0371926, -0.9904066, 0.1369107, 126.6849
 101719886, -0.09635726, -0.1787214, 0.1861218, 0.07485538, -0.03303811, -0.05730648, 0.07081328, 0.03719613, -0.9899269, 0.1414006, 126.6833
 101919868, -0.09489246, -0.02761047, 0.0799768, 0.07485498, -0.05065233, 0.1574256, -0.1072504, 0.0371939, -0.9903373, 0.1380989, 126.6827
 102099734, -0.09567311, 0.1508819, -0.1154093, 0.07113605, -0.01138018, 0.128217, -0.1344205, 0.03347662, -0.9906681, 0.1362969, 120.3889
 102319895, -0.04615544, 0.09442241, -0.1583099, 0.07485498, 0.005462853, -0.08381426, 0.01271976, 0.04091507, -0.9913453, 0.1312672, 123.5198
 102520038, -0.03426581, -0.1143809, 0.01889922, 0.0785756, 0.00529592, -0.105066, 0.1076704, 0.03719334, -0.9914222, 0.1298825, 132.9877
 102719845, -0.05224668, -0.1266864, 0.09785973, 0.074855, -0.06412768, 0.07540764, -0.1024918, 0.03719502, -0.9909101, 0.1343435, 126.6906
 102919873, -0.1188635, 0.02114996, -0.1081789, 0.07485703, -0.02053685, -0.009923646, -0.0296172, 0.03719502, -0.9914315, 0.1304597, 126.6941
 103119961, -0.08691205, -0.06061849, 0.04489454, 0.07485761, 0.01134473, -0.1342387, 0.1929534, 0.03719502, -0.9916292, 0.1280082, 126.695
 103319889, -0.08384403, -0.1687009, 0.2124247, 0.07485497, -0.07931144, 0.01919196, -0.03361157, 0.03719557, -0.9914677, 0.1292756, 126.6865
 103520064, -0.1538903, -0.02452089, -0.001352871, 0.07485499, -0.06526594, 0.04220057, -0.08066625, 0.03719669, -0.9919246, 0.1268291, 126.6827
 103719875, -0.1333997, 0.01112691, -0.08306568, 0.07485442, -0.01661412, -0.06256653, 0.04232251, 0.03719391, -0.9909496, 0.1341802, 126.6818
 103920049, -0.1034344, -0.06512049, 0.02776251, 0.07485444, -0.06109393, 0.02297081, -0.01986724, 0.03719391, -0.9907969, 0.1351752, 126.6818
 104119876, -0.1464893, 0.01388172, 0.0007127007, 0.0748576, -0.04901683, -0.005316985, -0.01142123, 0.03719502, -0.9906712, 0.1360756, 126.6871
 104319898, -0.1388359, -0.01606961, 0.01054923, 0.07485609, -0.02934994, -0.03295906, 0.0357178, 0.03719538, -0.9908037, 0.1352664, 126.6888
 104519880, -0.1111818, -0.04418827, 0.05895723, 0.07485498, -0.03456225, 0.01320866, 0.007847986, 0.03719464, -0.9905546, 0.137119, 126.6906
 104719886, -0.1052491, -0.01176161, 0.0350024, 0.07485461, -0.03558967, -0.04368302, 0.04006291, 0.03719502, -0.9904734, 0.1375614, 126.69
 104919864, -0.1039873, -0.05793135, 0.05923906, 0.07485572, -0.03499176, 0.007850286, 0.01036836, 0.03719501, -0.9905196, 0.1373698, 126.6919
 105119875, -0.09949547, -0.006018057, 0.04149575, 0.07485647, -0.03282215, 0.008098276, 0.03007341, 0.03719502, -0.9906024, 0.136649, 126.6931
 105319966, -0.09087139, -0.007911308, 0.05118515, 0.07485928, -0.01863055, -0.05596986, 0.09971368, 0.0371978, -0.9905524, 0.1371161, 126.6938
 105519881, -0.09019012, -0.06749223, 0.1191453, 0.07485497, -0.05862458, 0.01753702, 0.008126169, 0.03719334, -0.9903787, 0.138381, 126.6827
 105720058, -0.1409944, -0.01152735, 0.01415872, 0.07485314, -0.04739393, -0.009037099, -0.01810857, 0.0371939, -0.9902848, 0.139054, 126.6796
 105919899, -0.1313048, -0.04561746, -0.003280062, 0.07485627, -0.03473314, -0.06971325, 0.05598431, 0.03719502, -0.9906145, 0.1365276, 126.6849
 106119859, -0.1072734, -0.0914133, 0.05914192, 0.07485647, -0.05699887, 0.03291618, -0.04671634, 0.037195, -0.9908066, 0.135278, 126.6852
 106319895, -0.1177117, 0.01840542, -0.03408924, 0.07485498, -0.03040449, -0.01956846, -0.01739584, 0.03719817, -0.9907888, 0.1349519, 126.6868
 106519880, -0.08946481, -0.002832287, -0.005515639, 0.0748561, -0.01647446, -0.002250659, 0.03885971, 0.03719185, -0.9903331, 0.1370054, 126.6925
 106720082, -0.08482309, 0.03329414, 0.03952839, 0.07485294, -0.04416854, 0.06317751, 0.005208894, 0.03719502, -0.9894862, 0.1404071, 126.6872
 106919880, -0.1178493, 0.09931004, 0.02056527, 0.07485777, -0.05112991, -0.006584444, 0.02549599, 0.03719502, -0.9894608, 0.1409729, 126.6954
 107119882, -0.1158139, 0.04972101, 0.03864689, 0.07485854, -0.03915954, 0.06240625, -0.02459891, 0.03719799, -0.9899637, 0.1381057, 126.6966
 107319902, -0.1036004, 0.08909779, -0.005159379, 0.07485499, -0.007350964, 0.04354846, -0.02017467, 0.03719259, -0.9900383, 0.1384834, 126.6867
 107520078, -0.06590815, 0.06165959, -0.007043083, 0.07485554, -0.03483573, -0.01437533, 0.02856437, 0.03719446, -0.9902828, 0.1373448, 126.6837
 107720091, -0.07955557, 0.0117132, 0.007588327, 0.07485442, -0.07578677, 0.02522938, -0.02219502, 0.03719483, -0.9906228, 0.1350405, 126.6818
 107919889, -0.09230938, 0.03277326, -0.0005789604, 0.07485963, 0.01662299, 0.01654776, 0.05141404, 0.03719521, -0.9912739, 0.1308978, 126.6906
 108119859, -0.005952322, 0.005413628, 0.07119556, 0.07485594, 0.01490898, -0.02752997, -0.003888368, 0.03719501, -0.9913015, 0.131466, 126.6843
 108319899, -0.04877232, -0.04375842, 0.02197453, 0.07485536, -0.09681013, 0.01782553, -0.03190976, 0.03719539, -0.991089, 0.1329743, 126.6873
 108519869, -0.1859353, -0.01536355, 0.01203278, 0.0748561, -0.05061829, -0.05799294, 0.09929967, 0.03719465, -0.9913425, 0.1311891, 126.6925
 108719873, -0.1449475, -0.0902236, 0.1452266, 0.0748544, -0.01379588, -0.02136528, 0.06636142, 0.03719502, -0.991606, 0.1290702, 126.6897
 108919877, -0.0923992, -0.04976193, 0.1205943, 0.0748563, -0.06490102, 0.03976798, 0.006499038, 0.03719613, -0.9916512, 0.1277609, 126.6928
 109119864, -0.114587, 0.01868698, 0.04814195, 0.07485481, -0.01952509, -0.06179179, 0.04719527, 0.0371939, -0.9919682, 0.1252352, 126.6903
 109320091, -0.06586852, -0.0470442, 0.03232148, 0.07485389, -0.02837162, 0.01716486, -0.01602058, 0.03719482, -0.9914016, 0.1281783, 126.6848
 109519863, -0.07314044, 0.03396701, -0.04257362, 0.07485776, -0.01398251, 0.04926515, -0.0789745, 0.03719632, -0.9909562, 0.1304436, 126.6874
 109719884, -0.05881666, 0.06143748, -0.1028259, 0.07485556, -0.01959589, -0.07958455, 0.1029588, 0.03719389, -0.9911457, 0.1308521, 126.6837
 109919864, -0.08166622, -0.05717551, 0.1080695, 0.07485518, -0.06265453, 0.02291384, -0.01142812, 0.03719483, -0.9916746, 0.1266216, 126.683
 110119869, -0.1187943, 0.02196246, -0.01984925, 0.07485665, -0.07261633, 0.1322409, -0.1528118, 0.03719744, -0.9923259, 0.1219179, 126.6855
 110319894, -0.1114629, 0.0877433, -0.1646516, 0.07485519, -0.01676149, -0.08583932, 0.06271899, 0.03719353, -0.9927066, 0.1205496, 126.687
 110519897, -0.03670584, -0.1309722, 0.06539958, 0.07485481, 0.07694285, -0.1511503, 0.2017741, 0.03719427, -0.9930165, 0.1177338, 126.6903
 110719870, 0.06491392, -0.1660824, 0.2163607, 0.07485742, 0.00840473, 0.08085674, -0.02989994, 0.03719521, -0.99254, 0.1214201, 126.6947
 110920103, -0.02958117, 0.05722078, -0.02473739, 0.07485499, -0.05851352, 0.03744704, -0.06984513, 0.03719483, -0.9920099, 0.1233694, 126.6906
 111120111, -0.09443332, 0.04487732, -0.05576112, 0.07485555, -0.02727981, -0.1707287, 0.1131731, 0.03719483, -0.9909059, 0.131115, 126.6916
 111319889, -0.08572045, -0.1139785, 0.1079419, 0.07485554, -0.06674276, -0.0009410908, 0.02455904, 0.03719743, -0.9903017, 0.1312394, 126.6876
 111519965, -0.1143903, 0.06657663, 0.01461785, 0.07485778, -0.09113675, 0.2362981, -0.2113549, 0.03719279, -0.9901988, 0.1292037, 126.6874
 111719963, -0.1365279, 0.2582047, -0.1928349, 0.07485516, -0.03135807, 0.125327, -0.07640069, 0.03719501, -0.9915571, 0.1213243, 126.683
 111920051, -0.07527794, 0.102168, -0.04857681, 0.0748548, -0.03025908, -0.1723771, 0.1215618, 0.03719502, -0.9923965, 0.12269, 126.6824
 112119875, -0.08837893, -0.20614, 0.1044182, 0.07486094, 0.02014304, -0.200593, 0.2124597, 0.03719501, -0.9927632, 0.1198331, 126.6928
 112320046, -0.0452393, -0.2065976, 0.1948836, 0.07485498, 0.02806365, -0.001054898, 0.03733762, 0.03719501, -0.9927871, 0.119811, 126.6867
 112519972, -0.0310192, -0.003250966, 0.02278646, 0.07485498, -0.02604175, 0.1596052, -0.1489966, 0.03719576, -0.9914489, 0.1296755, 126.6906
 112719867, -0.05765866, 0.1359689, -0.1340797, 0.07485498, -0.09156077, -0.05214791, 0.04217352, 0.03719427, -0.9907842, 0.1341482, 126.6906
 112920110, -0.1071087, -0.05023865, 0.0383857, 0.07485424, 0.005649101, -0.1389214, 0.1453114, 0.03719557, -0.9903745, 0.1374959, 126.6894
 113119853, -0.02281148, -0.1130629, 0.1227086, 0.07485666, -0.02973009, 0.09590597, -0.06639833, 0.03719669, -0.9906387, 0.1343052, 126.6935
 113319982, -0.06738977, 0.1188365, -0.02802862, 0.07485442, -0.02559747, 0.1971272, -0.1341565, 0.03719279, -0.9903307, 0.133156, 126.6857
 113519898, -0.06410382, 0.1904024, -0.125124, 0.07485276, -0.01527389, -0.02337093, -0.001137667, 0.03719502, -0.989033, 0.1424763, 126.6789
 113719869, -0.07301491, -0.0004687011, 0.01256927, 0.0748576, -0.01235615, -0.1752426, 0.1933242, 0.03719502, -0.9882825, 0.1486737, 126.6871
 113919868, -0.08395295, -0.1447033, 0.208751, 0.07485611, -0.04424423, -0.04193444, 0.06847838, 0.03719576, -0.9886671, 0.1498415, 126.6846
 114139591, -0.1021334, -0.06988635, 0.1527442, 0.07857451, -0.05526533, 0.1441261, -0.1089276, 0.04091619, -0.9889818, 0.1472489, 132.9775
 114320010, -0.1018462, 0.1364768, -0.08211231, 0.07485424, -0.01515157, 0.05781767, -0.07868823, 0.0334744, -0.9891093, 0.14608, 126.6853
 114519872, -0.06040869, 0.03459757, -0.0430332, 0.07113308, 0.002634218, -0.1628189, 0.1559336, 0.03719372, -0.9900762, 0.1405116, 120.3913
 114720112, -0.04020073, -0.1897276, 0.139295, 0.07485367, -0.02821321, -0.05326192, 0.04954368, 0.03719724, -0.9902393, 0.1383195, 126.6884
 114919865, -0.07274184, -0.1070558, 0.03069296, 0.07485721, -0.05548893, 0.06184724, -0.0905759, 0.03719279, -0.9904416, 0.1366832, 126.6944
 115120068, -0.1193646, -0.02399548, -0.09114169, 0.07485519, -0.005286764, -0.07561069, 0.008480179, 0.0371965, -0.9902902, 0.1373555, 126.6909
 115320024, -0.09546207, -0.1240117, 0.0555049, 0.07485592, -0.01859946, -0.05700757, 0.05944104, 0.03719334, -0.9900458, 0.1406877, 126.6884
 115519870, -0.1114526, -0.05015383, 0.09212153, 0.07485405, -0.1031292, 0.07350296, -0.07711743, 0.03719521, -0.9891002, 0.1447017, 126.6811
 115719877, -0.1682329, 0.09070191, -0.0574213, 0.07485519, -0.07526097, 0.03598693, 0.008928682, 0.03719501, -0.9887025, 0.1452788, 126.683
 115919964, -0.1201553, 0.03590032, 0.0382685, 0.07485498, 0.02334799, -0.09931204, 0.09851649, 0.03719502, -0.9893923, 0.1439404, 126.6827
 116120091, -0.01986912, -0.09913345, 0.07726154, 0.07485481, -0.005851361, 0.0219913, 0.006948793, 0.03719911, -0.989684, 0.1425207, 126.6824
 116319898, -0.02681742, -0.002152041, 0.004872689, 0.07485648, -0.04784409, 0.04128147, -0.06651978, 0.03719093, -0.9894438, 0.144133, 126.689
 116520105, -0.05045197, 0.01098297, -0.07201058, 0.07485408, -0.01997201, -0.06858367, 0.04194666, 0.03719502, -0.9892396, 0.1461608, 126.6891
 116719868, -0.0270871, -0.07876636, 0.02687749, 0.07485723, 0.02379071, 0.01196727, 0.0314053, 0.03719483, -0.9886818, 0.1494949, 126.6944
 116919872, 0.004015472, -0.003121636, 0.05313382, 0.07485593, -0.02168569, 0.022098, -0.0263012, 0.03719521, -0.9885087, 0.1496209, 126.6922
 117119965, -0.0416794, 0.007513427, 0.01155559, 0.07485518, -0.01317302, -0.04657026, -0.005099689, 0.0371952, -0.9884551, 0.1505147, 126.6909
 117319929, -0.03378662, -0.04718962, 0.0125819, 0.07485498, -0.0006076295, -0.0006734459, 0.01542373, 0.03719651, -0.9883595, 0.1512047, 126.6869
 117519880, -0.02671251, 0.002804978, 0.04496475, 0.07485703, -0.02436711, 0.04113937, -0.03436677, 0.03719334, -0.9883837, 0.149594, 126.6862
 117719978, -0.04697137, 0.06894911, -0.02306352, 0.07485386, 0.0002418521, -0.00309991, 0.058795, 0.03719911, -0.989217, 0.1424966, 126.6808
 117919879, -0.03223808, 0.04551076, 0.06641619, 0.07485834, -0.02384256, 0.03098619, 0.02008832, 0.03719372, -0.9902143, 0.1352068, 126.6884
 118119901, -0.05249619, 0.07155553, 0.01588891, 0.0748509, -0.01910291, 0.06086008, -0.06694172, 0.03719223, -0.9908074, 0.1305205, 126.6758
 118320225, -0.0361854, 0.08915517, -0.06634534, 0.07485219, 0.002887168, -0.02526689, 0.05109957, 0.03719669, -0.991137, 0.1304184, 126.6818
 118519863, -0.01093153, 0.01048815, 0.05226576, 0.07485704, -0.005265262, 0.0269377, 0.05634849, 0.03719335, -0.9908556, 0.1333085, 126.6941
 118719864, -0.02028459, 0.03973839, 0.05597502, 0.07485572, -0.02102896, 0.03207141, -0.05866674, 0.03719632, -0.9906803, 0.1355571, 126.6919
 118920024, -0.04500788, 0.02020232, -0.05207162, 0.0748587, -0.00678732, -0.05128403, 0.006017155, 0.03719538, -0.990683, 0.1361593, 126.6969
 119119886, -0.05286082, -0.05804632, 0.005789319, 0.07485422, -0.02969296, 0.01611784, -0.04384269, 0.03719334, -0.9906928, 0.1359319, 126.6894
 119320085, -0.09122653, 0.005985284, -0.02074854, 0.07485331, -0.03467674, 0.001416542, 0.02220264, 0.03719483, -0.990594, 0.1365292, 126.684
 119519980, -0.1008153, -0.01270366, 0.04815975, 0.07485479, -0.03702954, -0.04975966, 0.08767836, 0.0371952, -0.9905614, 0.1370586, 126.6824
 119719863, -0.09925506, -0.05949723, 0.09887743, 0.07485648, -0.04173819, 0.0339652, -0.0787099, 0.03719595, -0.9908075, 0.1351053, 126.6852
 119919968, -0.09436913, 0.01525312, -0.05252405, 0.07485496, -0.03366195, 0.006423287, -0.01355062, 0.03719502, -0.9909865, 0.1338558, 126.6827
 120120115, -0.07665011, -0.01721684, 0.01417546, 0.07485611, -0.01914763, -0.09610769, 0.1287031, 0.03719408, -0.9914546, 0.1304517, 126.6846
 120320085, -0.05374305, -0.1022581, 0.1397385, 0.07485405, -0.0236702, 0.04396939, -0.07568131, 0.03719557, -0.9914564, 0.1302684, 126.6848
 120519877, -0.05215154, 0.02149696, -0.06647804, 0.07485665, -0.01412329, 0.008239266, -0.09187679, 0.03719446, -0.9914897, 0.1301311, 126.6935
 120719969, -0.03440308, -0.01968335, -0.09101608, 0.07485722, 0.001112945, -0.09865491, 0.08856923, 0.03719502, -0.991182, 0.1324597, 126.6944
 120919991, -0.01487396, -0.09773636, 0.07500769, 0.07485555, -0.005587755, 0.090781, -0.02310739, 0.0371952, -0.9911486, 0.1321793, 126.6916
 121119994, -0.0182231, 0.07307943, -0.017085, 0.07485739, 0.00973162, 0.02474221, -0.05806, 0.03719483, -0.9912543, 0.1306711, 126.6947
 121319986, -0.004109124, 0.001906395, -0.01516828, 0.07485479, -0.005881957, -0.1351421, 0.09638286, 0.03719576, -0.991419, 0.1306141, 126.6867
 121519869, -0.0141135, -0.1344095, 0.1038385, 0.0748574, -0.06719609, -0.01296132, 0.02830717, 0.03719446, -0.9915102, 0.1293687, 126.6868
 121719970, -0.08036105, -0.01263249, 0.02586372, 0.07485423, -0.05777002, 0.1460973, -0.08365003, 0.03719465, -0.9916461, 0.1243571, 126.6815
 121920215, -0.08112241, 0.1448159, -0.075171, 0.0748585, -0.04415338, 0.03194356, 0.01722824, 0.03719632, -0.9915341, 0.1230337, 126.6887
 122119878, -0.07401815, 0.04082387, 0.02051385, 0.07485872, 0.02189871, -0.1206442, 0.08419462, 0.0371939, -0.9913629, 0.1273024, 126.689
 122319925, -0.02475519, -0.1009353, 0.06713708, 0.07485385, 0.060264, -0.03168542, 0.06158289, 0.03719632, -0.9905617, 0.1348921, 126.6845
 122519961, -0.009437436, -0.02052937, 0.05596123, 0.07485927, -0.07960404, 0.1035024, -0.07173666, 0.03719446, -0.9896646, 0.141027, 126.6979
 122719978, -0.151098, 0.08253238, -0.06465708, 0.07485628, -0.07054967, -0.01216309, -0.00103443, 0.03719427, -0.9892019, 0.1457912, 126.6928
 122919865, -0.1224601, -0.02921513, 0.007909038, 0.07485404, 0.04506034, -0.06328303, 0.07636505, 0.03719501, -0.9883003, 0.1525193, 126.6891
 123120049, 0.01509673, -0.05755908, 0.09710411, 0.07485498, -0.04539709, 0.05978446, -0.01860048, 0.03719501, -0.9874415, 0.1577037, 126.6906
 123319895, -0.07506225, 0.07256368, 0.009814824, 0.07485555, -0.04705739, -0.01143893, 0.002499266, 0.03719651, -0.9869063, 0.1601537, 126.6879
 123520071, -0.09555902, 0.03272069, 0.03315827, 0.07485498, 0.01314348, 0.007935632, 0.08918313, 0.03719353, -0.9867669, 0.160808, 126.6827
 123919877, -0.1525443, 0.1080815, -0.05740569, 0.07485908, -0.0572137, -0.02977639, 0.03061504, 0.03719502, -0.9887789, 0.1489099, 126.6896
 124119861, -0.1091685, -0.02665721, 0.04829699, 0.07485835, -0.007420362, -0.001318482, 0.006037851, 0.03719558, -0.9893017, 0.1457822, 126.6884
 124319974, -0.06022394, -0.03979445, 0.01403102, 0.0748561, -0.03910717, 0.01010242, -0.02466581, 0.03719427, -0.9895094, 0.1436099, 126.6883
 124520058, -0.08139071, -0.0697761, -0.01064984, 0.07485425, -0.01991796, -0.09069532, 0.02307571, 0.03719521, -0.9889015, 0.1457958, 126.6894
 124719967, -0.04676748, -0.1772686, 0.02889158, 0.07485666, -0.007604611, -0.02026206, -0.04723709, 0.03719501, -0.9884562, 0.1496878, 126.6935
 124919974, -0.01098918, -0.09379111, -0.02681217, 0.07485608, -0.01291444, -0.03182023, -0.01498174, 0.03719353, -0.9882203, 0.1524402, 126.6925
 125119988, -0.001819817, -0.05759787, 0.007285803, 0.07485833, 0.005327796, -0.0004841736, -0.02630021, 0.03719892, -0.9884027, 0.151823, 126.6963
 125319903, 0.009018784, 0.0008038853, -0.001695885, 0.07485647, -0.01420811, 0.01516124, -0.01768302, 0.03719297, -0.9879323, 0.1534639, 126.6895
 125520224, -0.02698365, 0.03103817, -0.01494699, 0.07485256, -0.03130502, 0.00190029, 0.01874548, 0.03719557, -0.9878824, 0.1531741, 126.6786
 125719857, -0.07033677, 0.01416094, 0.00669229, 0.07485648, -0.03173633, 0.0430654, -0.05858378, 0.0371939, -0.9876979, 0.1544988, 126.6852
 125919864, -0.08575647, 0.04743398, -0.0636393, 0.07485609, -0.01879629, -0.0002310427, 0.01252314, 0.03719521, -0.9873418, 0.1564588, 126.6846
 126119902, -0.0948105, -0.002086219, 0.04418337, 0.07485853, -0.04473493, -0.008844757, -0.03389217, 0.03719519, -0.9880106, 0.1523197, 126.6887
 126319926, -0.1044398, -0.02843511, 0.0148094, 0.07485554, -0.03819452, -0.02880371, 0.1206199, 0.03719464, -0.9884691, 0.1508368, 126.6872
 126519856, -0.1680079, -0.05033439, 0.1430045, 0.07485536, -0.1134285, 0.02026729, -0.04305145, 0.03719576, -0.9881549, 0.152257, 126.6913
 126719970, -0.3746785, -0.02908153, -0.006351476, 0.0748563, -0.1824099, -0.001931801, -0.005251055, 0.03719446, -0.9880587, 0.153029, 126.6928
 126919863, -0.5458128, -0.05068303, 0.01272684, 0.07485686, -0.2089207, -0.04546816, -0.05297171, 0.03719501, -0.9874148, 0.1551004, 126.6938
 127119886, -0.5994161, -0.07817384, -0.02993041, 0.0748574, -0.2444399, 0.01470501, 0.05032765, 0.03719502, -0.9875642, 0.1532972, 126.6947
 127320239, -0.6027398, -0.02244961, 0.06447308, 0.0748576, -0.1468379, -0.03849786, 0.001057003, 0.03719576, -0.987249, 0.1551608, 126.6915
 127519776, -0.5203276, -0.08802214, 0.01175852, 0.07485497, -0.227287, -0.02151345, 0.01144187, 0.03719427, -0.9878858, 0.1540388, 126.6827
 127719901, -0.7498935, -0.133598, 0.132347, 0.07485424, -0.309484, -0.07554169, 0.110194, 0.03719502, -0.9877648, 0.1559218, 126.6815
 127919795, -0.9209496, -0.2189738, 0.2993274, 0.074855, -0.3687022, -0.1090202, 0.05977721, 0.03719502, -0.9875064, 0.1565359, 126.6827
 128119768, -1.01127, -0.3131967, 0.1124765, 0.07485778, -0.3710353, -0.1170664, -0.0207867, 0.03719519, -0.9860383, 0.1626251, 126.6874
 128319804, -0.9771675, -0.3137927, -0.07364725, 0.07485832, -0.3237724, -0.09857537, -0.07516035, 0.0371965, -0.9864873, 0.1612505, 126.6919
 128519971, -0.7880762, -0.2216555, -0.1678516, 0.07485555, -0.2299322, -0.04558444, -0.07640415, 0.03719334, -0.9871622, 0.1597105, 126.6916
 128719872, -0.5820411, -0.08780449, -0.2067746, 0.07485407, -0.1776699, -0.006104374, -0.1110781, 0.03719502, -0.9868929, 0.1585507, 126.6891
 128939516, -0.4749104, 0.03055367, -0.2906144, 0.07857559, -0.165896, 0.03736991, -0.1145344, 0.04091434, -0.9837838, 0.168709, 132.9877
 129120077, -0.3555509, 0.1066732, -0.2508297, 0.07485612, -0.09093194, 0.04052081, -0.08498354, 0.03347569, -0.9812797, 0.1801648, 126.6925
 129319769, -0.2586014, 0.1251294, -0.2177295, 0.07113567, -0.07951764, 0.04628057, -0.07942099, 0.03719539, -0.9791369, 0.1952404, 120.3924
 129519795, -0.2418699, 0.1015158, -0.1974933, 0.07485554, -0.08588911, 0.02028925, -0.07155228, 0.03719465, -0.9774144, 0.2077199, 126.6837
 129719866, -0.2870089, 0.01398525, -0.1323499, 0.07485835, -0.1490334, -0.02507222, -0.04883815, 0.03719483, -0.9758815, 0.2174533, 126.6884
 129919746, -0.4218, -0.09892594, -0.0736104, 0.07485609, -0.1648238, -0.05328132, 0.004061513, 0.03719502, -0.9745682, 0.2240904, 126.6846
 130119728, -0.4777373, -0.1478418, 0.009020041, 0.07485518, -0.1749702, -0.04927358, 0.01857112, 0.0371952, -0.9733075, 0.2294913, 126.683
 130319986, -0.4716498, -0.1420379, 0.04010989, 0.0748576, -0.1733176, -0.05230955, 0.006148095, 0.03719502, -0.9724178, 0.2332436, 126.6907
 130519735, -0.4265287, -0.1340764, 0.04329016, 0.07485592, -0.137839, -0.04262892, -0.004393672, 0.03719501, -0.9716105, 0.2365068, 126.6922
 130719746, -0.3418121, -0.125868, 0.03850919, 0.0748563, -0.1156699, -0.05628751, 0.01296241, 0.03719483, -0.9715338, 0.2365084, 126.6928
 130920083, -0.2924397, -0.135816, 0.05697766, 0.07485572, -0.09593596, -0.03371539, 0.01031519, 0.03719632, -0.9726115, 0.2322622, 126.6919
 131119749, -0.2654601, -0.09342592, 0.03659129, 0.07485574, -0.081079, -0.02845276, -0.003307242, 0.03719389, -0.9735348, 0.2285337, 126.6919
 131319771, -0.2341914, -0.06358174, 0.04104551, 0.07485573, -0.09652682, -0.009503246, -0.01733184, 0.03719557, -0.9729601, 0.2308755, 126.6883
 131519901, -0.2457954, -0.04648016, 0.06726073, 0.07485666, -0.07757399, -0.03810279, 0.06104842, 0.03719446, -0.9730288, 0.2305824, 126.6855
 131719745, -0.2450616, -0.08830643, 0.1616114, 0.07485443, -0.1176854, -0.02025626, 0.0395831, 0.03719669, -0.973876, 0.2270567, 126.6818
 131920036, -0.3095919, -0.08747622, 0.1061019, 0.07485387, -0.1639788, -0.0719711, 0.02340539, 0.03719186, -0.9742015, 0.2256794, 126.6808
 132120026, -0.4613743, -0.1590174, 0.0802868, 0.07485388, -0.1952426, -0.03986208, -0.02471905, 0.03719651, -0.9745426, 0.2240364, 126.6808
 132319966, -0.580142, -0.1307081, -0.009549845, 0.07485704, -0.1990523, -0.06773426, 0.04398439, 0.03719669, -0.9752523, 0.2203199, 126.6896
 132519858, -0.5406635, -0.1161147, 0.07319209, 0.07485611, -0.2154446, 0.007387781, 0.005632547, 0.03719335, -0.9758086, 0.216299, 126.6925
 132720244, -0.5122981, -4.652955E-05, 0.02665657, 0.07485573, -0.1422772, -0.01725687, 0.02744378, 0.03719501, -0.9755667, 0.2162937, 126.6919
 132920035, -0.3837898, 0.01003487, 0.07108126, 0.07485498, -0.1379338, 0.03620249, 0.002743639, 0.03719502, -0.9750884, 0.2166839, 126.6906
 133119849, -0.3166078, 0.060895, 0.02094415, 0.07485927, -0.03820942, 0.000395851, 0.04643177, 0.03719502, -0.9751955, 0.2157143, 126.6979
 133299620, -0.1509965, 0.04806432, 0.05475441, 0.07113603, -0.06865724, 0.01861249, 0.003857483, 0.03347551, -0.9755014, 0.2158032, 120.3964
 133519854, -0.1140295, 0.1110974, -0.01308293, 0.07485573, -0.006290066, 0.0424483, 0.009323963, 0.04091582, -0.9752031, 0.2093666, 126.6919
 133719856, 0.01690862, 0.201349, 0.05013287, 0.0785771, -0.01326011, 0.1187103, -0.006467146, 0.03719426, -0.9740062, 0.2048933, 132.9902
 133920029, 0.01267434, 0.2833382, 0.006503317, 0.07485218, 0.02019077, 0.06346078, -0.01770649, 0.03719315, -0.974865, 0.201381, 126.6859
 134119979, -0.002810481, 0.2331913, 0.01253049, 0.0748537, -0.006804382, 0.09752026, -0.001512087, 0.03719483, -0.975046, 0.1997358, 126.6884
 134319964, -0.009146861, 0.2239186, -0.003365925, 0.07485479, -0.010537, 0.07522905, -0.0154631, 0.03719502, -0.9764861, 0.2033515, 126.6903
 134520266, -0.03173468, 0.175706, -0.01069288, 0.07485926, -0.007394606, 0.03968711, -0.02212231, 0.0371965, -0.9777097, 0.1991977, 126.6979
 134719892, -0.02431411, 0.1342842, -0.07605308, 0.07485849, -0.007665983, 0.05762694, -0.06836831, 0.03719501, -0.9777262, 0.2003433, 126.6966
 134919844, 0.02384153, 0.1344025, -0.107726, 0.0748535, 0.07117207, 0.04644474, 0.1084272, 0.03719873, -0.9782933, 0.197756, 126.6881
 135120033, 0.07780716, 0.1628307, 0.1151487, 0.07485535, -0.05175315, 0.07675318, -0.0004622433, 0.03718981, -0.9765708, 0.1961021, 126.6913
 135320039, -0.05989116, 0.1796335, -0.02294785, 0.07485127, -0.004032685, 0.04125658, -0.08262047, 0.03719651, -0.9780332, 0.1938298, 126.6843
 135519869, 0.1250507, 0.07172114, -0.1748303, 0.07485759, 0.137899, -0.01856771, -0.03467828, 0.03719483, -0.9798124, 0.1994051, 126.695
 135720038, 0.4278798, -0.07121411, -0.01846863, 0.07485408, 0.1916812, 0.005236456, -0.02695915, 0.03719371, -0.9785665, 0.202648, 126.6891
 135919867, 0.5215267, -0.07247394, 0.05545686, 0.07485518, 0.1439349, -0.05736702, 0.07687092, 0.0371952, -0.9791015, 0.1986582, 126.6909
 136120097, 0.4604081, -0.09320639, 0.1510458, 0.07485647, 0.1185579, 0.006247941, 0.01834344, 0.03719743, -0.9803877, 0.1968177, 126.6931
 136320281, 0.3986731, 0.0211078, 0.095613, 0.07485852, 0.1690218, -0.003996373, 0.007318373, 0.0371939, -0.9801973, 0.1962586, 126.6966
 136519880, 0.4056028, 0.07776511, 0.03087434, 0.07485331, 0.2114488, 0.1122774, -0.008531611, 0.03719353, -0.9789077, 0.1948209, 126.6878
 136719846, 0.387949, 0.2196569, 0.0405524, 0.07485704, 0.04564192, 0.07102163, 0.004886219, 0.03719651, -0.9773504, 0.1958103, 126.6941
 136920008, 0.191574, 0.1815571, 0.01032574, 0.07485628, 0.05466431, -0.01123395, 0.03017458, 0.03719353, -0.9777007, 0.195461, 126.6928
 137120192, 0.1891502, 0.1327978, 0.08963175, 0.07485516, 0.09080854, 0.1294645, -0.008828122, 0.03719651, -0.9760007, 0.1918702, 126.6909
 137319625, 0.2206467, 0.2982501, 0.01506746, 0.074855, 0.05902163, 0.03984759, 0.04281871, 0.03719557, -0.9767148, 0.1855215, 126.6906
 137519603, 0.2082985, 0.243114, -0.006785572, 0.07485349, 0.01591269, 0.1675032, -0.1479472, 0.03719353, -0.9789034, 0.1729694, 126.6881
 137719618, 0.2504865, 0.3042774, -0.2192694, 0.07485296, 0.1086462, 0.048581, -0.06375438, 0.03719781, -0.9849833, 0.1663167, 126.6872
 137919606, 0.3695265, 0.03802411, -0.06099726, 0.07485609, 0.1484857, -0.0801378, 0.16618, 0.03719297, -0.9839278, 0.1758342, 126.6925
 138119794, 0.3980266, -0.1717926, 0.1938928, 0.0748535, 0.2169888, 0.02379293, -0.02403284, 0.03719706, -0.9813719, 0.1856584, 126.6881
 138319646, 0.4633541, -0.09301106, -0.01440375, 0.07485684, 0.1947355, -0.052162, 0.08117025, 0.03719353, -0.9830672, 0.1799322, 126.6938
 138519612, 0.3902981, -0.08889834, 0.09942081, 0.07485165, 0.03389975, -0.05470969, 0.06247287, 0.03719316, -0.9832379, 0.1822734, 126.685
 138719612, 0.1855038, -0.07005428, 0.01903736, 0.07485312, 0.0686739, 0.003060028, -0.05811686, 0.03719501, -0.984332, 0.174924, 126.6875
 138919621, 0.2103899, -0.02533079, -0.05498362, 0.07485646, 0.1372386, -0.02404172, 0.08059337, 0.03719873, -0.9860588, 0.1663053, 126.6931
 139119682, 0.2693892, -0.07424215, 0.07875524, 0.07485646, 0.06323295, -0.007847747, -0.03123896, 0.03719334, -0.9860883, 0.1646305, 126.6931
 139319621, 0.1777918, -0.08412618, 0.002802306, 0.07485274, 0.06777342, -0.06164203, -0.02672237, 0.03719502, -0.9862659, 0.1629104, 126.6868
 139519606, 0.1264258, -0.1858919, -0.001149721, 0.07485444, 0.01023299, -0.04755586, -0.02166819, 0.03719464, -0.9883017, 0.15136, 126.6897
 139719599, 0.05413748, -0.1599277, -0.04155715, 0.07485277, 0.06830079, -0.07383512, 0.004955331, 0.03719334, -0.9890667, 0.1462513, 126.6868
 139919758, 0.1270673, -0.1401824, 0.0232363, 0.07485482, 0.02305103, -0.01056774, -0.03004905, 0.0371965, -0.9889309, 0.1476114, 126.6903
 140119619, 0.1308897, -0.08930454, -0.05976179, 0.07485498, 0.08848427, -0.05867184, 0.03504592, 0.03719353, -0.9890519, 0.1466352, 126.6906
 140319757, 0.2141196, -0.1096208, 0.04072767, 0.07485557, 0.06499043, 0.03155435, -0.0152366, 0.03719799, -0.9891618, 0.1465911, 126.6916
 140519601, 0.1778401, -0.0312051, 0.005854105, 0.07485646, 0.06154449, -0.04403263, 0.06774174, 0.03719353, -0.989268, 0.1455775, 126.6931
 140719626, 0.1668708, -0.09980103, 0.06478608, 0.07485405, 0.06363659, -0.02382901, -0.04430952, 0.03719502, -0.9893264, 0.1448998, 126.6891
 140919627, 0.1723856, -0.090885, -0.05272541, 0.07485463, 0.07070649, -0.04522544, 0.02968336, 0.03719334, -0.9899908, 0.1409826, 126.69
 141119628, 0.196389, -0.06401975, 0.01818048, 0.07485498, 0.05173106, -0.01452277, -0.004449815, 0.03719744, -0.9903135, 0.1388279, 126.6906
 141319846, 0.1640435, -0.006939868, 0.009336367, 0.07485741, 0.06413732, 0.04042807, 0.01159827, 0.03719724, -0.9901189, 0.140051, 126.6947
 141519601, 0.1000485, 0.02938266, 0.01965499, 0.07485422, -0.003224372, -0.02037793, 0.02734947, 0.03719204, -0.989981, 0.1409836, 126.6894
 141719757, -0.0142065, -0.006511512, 0.01997598, 0.074852, 0.002254961, 0.04456193, -0.03734342, 0.0371965, -0.9899054, 0.1379436, 126.6856
 141919599, -0.02210197, 0.08175913, -0.005416006, 0.07485349, 0.01124713, 0.006765018, 0.05941203, 0.03719371, -0.9899837, 0.1344108, 126.6881
 142119608, -0.05662465, 0.06071361, 0.1161967, 0.07485182, -0.0072811, 0.04864326, 0.01458099, 0.03719334, -0.9911391, 0.1284123, 126.6853
 142319643, -0.1208094, 0.07002614, 0.07922349, 0.07485479, -0.1255242, 0.09747651, -0.01879273, 0.03719557, -0.991971, 0.1248971, 126.6903
 142519602, -0.2343493, 0.06518535, 0.07285738, 0.07485481, -0.0395818, -0.1284626, 0.1742519, 0.03719446, -0.991415, 0.1302885, 126.6903
 142719621, -0.1463291, -0.1688046, 0.2241912, 0.07485592, -0.04351856, 0.06782937, -0.05188167, 0.0371965, -0.9906392, 0.1344316, 126.6922
