TimeUS,CAN,CAE,CAD,CAe
 76668256, -0.01746592, -0.002862887, 0.002810082, 0.009388207
 76825113, -0.01369935, -0.002507099, 0.002527473, 0.0075093
 76880110, -0.01899876, -0.002760014, 0.003109602, 0.01022919
 76930066, -0.01702138, -0.002447082, 0.003275773, 0.009299869
 76980102, -0.01727961, -0.00281438, 0.002917603, 0.009299869
 77035070, -0.01918501, -0.00303575, 0.00277208, 0.01022695
 77090426, -0.0189828, -0.003032057, 0.002798324, 0.01022751
 77145071, -0.01900271, -0.002901886, 0.002742069, 0.01022863
 77195113, -0.01712717, -0.002545611, 0.002491886, 0.009299311
 77245085, -0.01721923, -0.003015318, 0.002839841, 0.009300055
 77300123, -0.01862562, -0.002514105, 0.002543202, 0.01022733
 77355036, -0.01939749, -0.002942478, 0.002766771, 0.01022807
 77410086, -0.0190484, -0.002976582, 0.002631459, 0.01022863
 77460041, -0.01694107, -0.003056825, 0.00237489, 0.009298753
 77510076, -0.01785779, -0.002775704, 0.002921054, 0.009299125
 77560090, -0.01827683, -0.002597016, 0.002474411, 0.009298381
 77615442, -0.01883924, -0.00276086, 0.00269181, 0.01022844
 77670027, -0.01924024, -0.003069614, 0.00326971, 0.01022919
 77725118, -0.01906982, -0.003059001, 0.003649856, 0.01022826
 77775068, -0.01690334, -0.002668101, 0.002704309, 0.009299683
 77825102, -0.01684358, -0.002851186, 0.002808376, 0.009298939
 77880078, -0.01890937, -0.002816122, 0.003845926, 0.01022807
 77935087, -0.01885407, -0.00315027, 0.003535394, 0.01022826
 77985048, -0.01720475, -0.003126893, 0.003020082, 0.009298567
 78040459, -0.0182432, -0.003774873, 0.003149229, 0.01022919
 78090309, -0.0170472, -0.002670584, 0.002885317, 0.009298753
 78145102, -0.01860378, -0.003190738, 0.002673139, 0.01023049
 78200034, -0.01893042, -0.003733195, 0.003180186, 0.01022621
 78250110, -0.01709428, -0.002565277, 0.003106983, 0.009299497
 78300037, -0.01756713, -0.003043012, 0.00272961, 0.009298009
 78350078, -0.01741672, -0.003219612, 0.003239622, 0.009298753
 78405049, -0.01902298, -0.00301638, 0.003245897, 0.010229
 78455068, -0.01728333, -0.003589938, 0.003497482, 0.009298567
 78510091, -0.01877538, -0.003168529, 0.002741081, 0.01022844
 78560102, -0.01768981, -0.002523463, 0.002692126, 0.009299311
 78610019, -0.01708318, -0.002584602, 0.002649413, 0.009298195
 78665439, -0.01888335, -0.003499016, 0.003660668, 0.01022863
 78715317, -0.01752637, -0.003080623, 0.00293652, 0.009299497
 78765333, -0.01745133, -0.003559478, 0.002534503, 0.009298938
 78815370, -0.01763489, -0.002748317, 0.002386163, 0.00929838
 78870109, -0.01879384, -0.003157255, 0.003388845, 0.01022974
 78920053, -0.01708813, -0.002832218, 0.002364434, 0.009297079
 78975067, -0.01896506, -0.002962859, 0.003318674, 0.01022863
 79030104, -0.01898142, -0.003031022, 0.002966639, 0.01022974
 79085094, -0.019139, -0.003252907, 0.002830933, 0.01022751
 79135117, -0.01875073, -0.006675482, 0.004006942, 0.009298754
 79185088, -0.01301634, 0.004070704, 0.001777566, 0.009298754
 79235062, -0.02149823, -0.006224154, 0.002946438, 0.009298753
 79290379, -0.01685958, -0.002006808, 0.002177301, 0.01022863
 79345093, -0.02085095, -0.005380965, 0.002488077, 0.01022863
 79395078, -0.01636449, -0.001223702, 0.002473072, 0.00930024
 79450095, -0.0194481, -0.003865975, 0.003527486, 0.01022714
 79500091, -0.0176557, -0.003016765, 0.003300619, 0.009299311
 79555095, -0.01841914, -0.001918364, 0.003055429, 0.01022863
 79605109, -0.01800743, -0.002732232, 0.002021644, 0.009298195
 79660090, -0.01992706, -0.005097092, 0.002450665, 0.01022863
 79710106, -0.01774134, -0.003752374, 0.0005527199, 0.009299311
 79765480, -0.01374539, 0.00169852, 0.01184962, 0.01022881
 79815352, -0.02200624, -0.004629645, 0.001812669, 0.009299497
 79870073, -0.0186475, -0.003846116, 0.0009726013, 0.010229
 79925127, -0.01946092, -0.003645457, 0.002523916, 0.01022863
 79975073, -0.01744812, -0.002817118, 0.001987594, 0.009298939
 80030093, -0.01935372, -0.004071133, 0.002699469, 0.01022658
 80080143, -0.01842329, -0.003085427, 0.003097754, 0.009299125
 80135122, -0.0202967, -0.002523794, 0.003248947, 0.01022826
 80185064, -0.01502924, -0.004297253, 0.002221037, 0.009298753
 80235049, -0.01718882, -0.004338544, 0.0008525462, 0.009298753
 80290363, -0.02030818, -0.0017043, 0.003617635, 0.01022937
 80340965, -0.01616519, -0.002825523, 0.00275488, 0.009298009
 80395126, -0.01768613, -0.005065571, 0.001592067, 0.0102303
 80450105, -0.01947277, -0.003616034, 0.00331787, 0.0102277
 80500073, -0.01940976, -0.0007249886, 0.004585325, 0.00929801
 80555110, -0.01857447, -0.002900947, 0.002325726, 0.01022863
 80610047, -0.01772074, -0.004718121, 0.001715001, 0.01022974
 80665589, -0.01850873, -0.00328475, 0.001709936, 0.01022751
 80720064, -0.01941409, -0.002662088, 0.003082046, 0.01023272
 80770106, -0.01655398, -0.002931662, 0.001888927, 0.009296151
 80820064, -0.01522297, -0.00101863, 0.003009863, 0.009300984
 80875200, -0.02619082, -0.007697858, 0.004024001, 0.01022807
 80930061, -0.01296244, 0.000169822, 0.0006559998, 0.01022677
 80985091, -0.0244291, -0.006734831, 0.004389991, 0.01022881
 81035067, -0.01536093, -0.002144804, 0.0009336689, 0.009299682
 81090414, -0.0197633, -0.00278903, 0.002783044, 0.0102277
 81145098, -0.01806704, -0.004295485, 0.002554009, 0.01022863
 81195090, -0.01888473, -0.002688886, 0.001361858, 0.009298753
 81250092, -0.02065879, -0.002582847, 0.001645625, 0.01022863
 81305077, -0.01792314, -0.004926021, 0.002424206, 0.01022826
 81355109, -0.0180271, -0.002539154, 0.004424009, 0.009298194
 81410055, -0.01734485, -0.004805263, -0.0002321569, 0.01023012
 81465364, -0.0200636, -0.001069953, 0.003179007, 0.01022807
 81520147, -0.02232651, -0.006127195, -0.002639528, 0.01022844
 81570093, -0.01739639, 0.0006859118, 0.001922498, 0.009300241
 81625148, -0.01596712, -0.006001571, 0.006080403, 0.01022733
 81675084, -0.01717047, -0.006482706, -0.00519881, 0.009299497
 81730056, -0.01573452, -0.008399446, -0.003436893, 0.01022788
 81785175, -0.01903367, -0.008218415, 0.005022079, 0.01022919
 81840387, -0.02327402, -0.0133954, -0.00218243, 0.01022863
 81890376, -0.02425913, -0.002581605, -0.01796842, 0.009296708
 81940916, -0.01623581, -0.01135168, -0.001133385, 0.009298752
 81990337, -0.01578848, -0.0200816, -0.006929279, 0.009298939
 82045072, -0.02998336, -0.02931, -0.01805079, 0.01022844
 82095084, -0.01629403, -0.05198873, -0.0199943, 0.009300427
 82145122, -0.02050645, -0.06189949, -0.01766564, 0.009296894
 82195113, -0.03600223, -0.05289843, -0.03599182, 0.009301543
 82250084, -0.01658594, -0.1068159, -0.0151914, 0.01022751
 82300101, -0.0327239, -0.1017188, -0.02143293, 0.009299125
 82350088, -0.0304171, -0.09464867, -0.03884607, 0.009301171
 82405097, -0.01930159, -0.1451897, -0.003596707, 0.01022565
 82455132, -0.04245825, -0.1325364, -0.02644126, 0.009301357
 82505055, -0.0242807, -0.1299565, -0.03582876, 0.00929801
 82555091, -0.02065967, -0.1564478, -0.01393252, 0.009297637
 82610066, -0.03513516, -0.1489013, -0.08160321, 0.010229
 82660151, -0.01342143, -0.1377358, -0.0599606, 0.009297824
 82710049, -0.01984301, -0.1305046, -0.04925858, 0.009299125
 82765471, -0.02588686, -0.1103167, -0.08057114, 0.01022993
 82815346, -0.008776844, -0.09920022, -0.05728579, 0.009297078
 82865515, -0.01453455, -0.08628327, -0.05648692, 0.009298753
 82920106, -0.01479084, -0.07196241, -0.07989547, 0.01022863
 82970105, 6.198022E-05, -0.06773999, -0.0570327, 0.009299683
 83020084, -0.003114107, -0.05650324, -0.06660195, 0.009298196
 83075124, 0.003302644, -0.04816985, -0.08187209, 0.01022826
 83125089, 0.01430448, -0.04803733, -0.05497468, 0.00929931
 83175109, 0.01042789, -0.03748704, -0.06511565, 0.009298753
 83225135, 0.02095674, -0.03304066, -0.06107682, 0.009298196
 83280104, 0.0245255, -0.04213064, -0.05505923, 0.010229
 83330097, 0.01885949, -0.02856025, -0.06191752, 0.009298939
 83380102, 0.018728, -0.02850238, -0.0582753, 0.009298753
 83435119, 0.02055059, -0.03189223, -0.05618021, 0.01022807
 83485082, 0.002896004, -0.02705032, -0.05407694, 0.009298753
 83535074, 0.002140104, -0.02238902, -0.06037864, 0.00930024
 83590472, -0.003711228, -0.03161346, -0.05071497, 0.01022714
 83640328, -0.01666239, -0.02713371, -0.05038144, 0.009298567
 83690384, -0.01738025, -0.02700587, -0.04686898, 0.009298939
 83740929, -0.02179433, -0.03113858, -0.04039532, 0.009298753
 83795084, -0.03319095, -0.03324832, -0.043651, 0.01023625
 83845095, -0.03706038, -0.02307626, -0.04452391, 0.009292616
 83895167, -0.03253396, -0.0302713, -0.03218204, 0.009297266
 83950134, -0.05838237, -0.01820276, -0.04700914, 0.01022882
 84000059, -0.05076344, -0.01434578, -0.02758855, 0.009298938
 84050049, -0.05811445, -0.01758775, -0.01979635, 0.00929838
 84105071, -0.08372705, 0.00381495, -0.04281261, 0.01022844
 84155051, -0.06814273, -0.006218439, -0.02287076, 0.00929931
 84205050, -0.08355615, 0.003550473, -0.03227787, 0.009298381
 84255113, -0.08495359, 0.008010802, -0.03238488, 0.009298938
 84310114, -0.09539071, 0.006334573, -0.02427236, 0.01022844
 84360092, -0.09625038, 0.01108624, -0.02328537, 0.009298753
 84410077, -0.09747083, 0.0131376, -0.02455173, 0.009298753
 84465353, -0.1015376, 0.01128254, -0.02082388, 0.01022919
 84515386, -0.09970869, 0.01082574, -0.01926167, 0.009298195
 84565344, -0.09552766, 0.01209384, -0.01453679, 0.009298568
 84620105, -0.09808317, 0.005042093, -0.006809522, 0.01023012
 84670201, -0.09310503, 0.006194668, -0.01406493, 0.009297451
 84720126, -0.08704521, 0.004165326, -0.01677522, 0.009298753
 84770176, -0.08161273, 0.001644988, -0.02237186, 0.009299682
 84822513, -0.07981157, 0.0006299646, -0.02052036, 0.00976276
 84872593, -0.07373998, 0.003972623, -0.00505296, 0.009301915
 84927980, -0.07760596, -0.001242624, 0.01207756, 0.01022547
 84979164, -0.06400748, -0.004114418, 0.02191676, 0.009298753
 85027961, -0.0712182, 0.0002043113, 0.02822375, 0.009299125
 85082484, -0.07749391, -0.001289219, 0.04745048, 0.01022695
 85132481, -0.06761278, -0.001237114, 0.05669859, 0.009301729
 85187641, -0.08843814, 0.01699339, 0.06810771, 0.01022695
 85237594, -0.06985958, -0.001280813, 0.09768718, 0.009298753
 85287614, -0.092573, 0.02525897, 0.08577991, 0.009299311
 85337829, -0.08022084, 0.01972079, 0.1158171, 0.009298195
 85387607, -0.08312608, 0.0141914, 0.1359435, 0.009299498
 85442586, -0.09961569, 0.03241035, 0.1467897, 0.0102277
 85492586, -0.08764844, 0.02130024, 0.1416746, 0.009298939
 85542681, -0.08905934, 0.01936766, 0.1443455, 0.009298753
 85597582, -0.1032483, 0.0323578, 0.1545446, 0.01022863
 85647814, -0.09308711, 0.02181987, 0.1389952, 0.009298753
 85697628, -0.09832819, 0.02417808, 0.1214963, 0.009298753
 85753025, -0.1144235, 0.03055217, 0.1190367, 0.01022863
 85802889, -0.09967846, 0.02023704, 0.1036022, 0.009299496
 85852877, -0.108381, 0.02613375, 0.08480861, 0.00929801
 85902887, -0.1082457, 0.02319771, 0.07994612, 0.009298754
 85957597, -0.1151019, 0.02038341, 0.07932401, 0.0102303
 86007571, -0.1052554, 0.02103435, 0.06049835, 0.009297824
 86057624, -0.1063791, 0.02020753, 0.05593129, 0.009298753
 86112482, -0.1007277, 0.01681615, 0.0495899, 0.01022807
 86162448, -0.1004935, 0.02116458, 0.03971872, 0.009297078
 86212490, -0.09082205, 0.02141195, 0.03302763, 0.009298938
 86267645, -0.0889752, 0.01867909, 0.04188433, 0.01022844
 86317628, -0.08790089, 0.01849019, 0.02546779, 0.00930024
 86367643, -0.07708817, 0.02054431, 0.02263066, 0.009300428
 86422453, -0.07902633, 0.01397951, 0.03448715, 0.01022751
 86472480, -0.07331046, 0.01892552, 0.0224163, 0.009299311
 86522477, -0.0613509, 0.01960621, 0.02049442, 0.009297637
 86572471, -0.06173134, 0.01195818, 0.01674406, 0.009298939
 86628082, -0.06544868, 0.02503312, 0.005063809, 0.01022844
 86679124, -0.05273158, 0.01826811, 0.01313491, 0.009298567
 86727936, -0.04632707, 0.009429779, 0.01799104, 0.009298939
 86782470, -0.05012754, 0.02415731, 0.005786405, 0.01022788
 86832487, -0.04305987, 0.01723814, 0.01455921, 0.009302844
 86887632, -0.03396645, 0.01169467, 0.02180727, 0.01022602
 86937578, -0.03790156, 0.02039627, 0.00933934, 0.009298008
 86987820, -0.03145897, 0.02168718, 0.0263872, 0.009298754
 87042552, -0.02464389, 0.01552724, 0.02707282, 0.01022714
 87097574, -0.04765261, 0.02492746, 0.006454569, 0.01022863
 87147582, -0.03107398, 0.02363557, 0.01649196, 0.009298568
 87202907, -0.03292044, 0.01120851, 0.02339862, 0.01022881
 87257636, -0.05067868, 0.02025972, 0.01258339, 0.01022844
 87307628, -0.03894326, 0.02873393, 0.001244856, 0.009300054
 87357619, -0.03716753, 0.0154256, 0.009641258, 0.009298381
 87412556, -0.05241137, 0.03245412, 0.005576533, 0.01022788
 87462460, -0.04037526, 0.05021704, 0.002222635, 0.00929931
 87517610, -0.04871822, 0.04441378, 0.02305807, 0.01022974
 87567588, -0.0449895, 0.04618648, 0.01368384, 0.009297079
 87617650, -0.03223288, 0.06559474, -0.006966983, 0.009299496
 87672447, -0.03884791, 0.05948811, -0.003002728, 0.0102277
 87722464, -0.0180178, 0.06767337, -0.004364866, 0.009298938
 87779154, -0.02276184, 0.08145204, 0.0002859125, 0.010229
 87827953, -0.006580429, 0.07693803, 0.01185957, 0.009299497
 87882562, -0.008155837, 0.0889989, 0.003606367, 0.01022788
 87932558, -0.008728986, 0.09010015, 0.002642502, 0.009300427
 87987628, 0.007427272, 0.09641135, 0.005316008, 0.01022807
 88037612, 0.006192601, 0.07928559, 0.01616885, 0.009298938
 88087597, 0.01498886, 0.09083235, 0.009699414, 0.00929708
 88142479, 0.02797245, 0.09385332, 0.01347605, 0.01022844
 88192560, 0.01921903, 0.0866757, 0.005943938, 0.00929894
 88242465, 0.02624944, 0.08303581, 0.008787889, 0.009299311
 88297626, 0.03182303, 0.09335107, 0.0009900916, 0.01022956
 88347624, 0.02552109, 0.07581953, 0.009344296, 0.009298754
 88402922, 0.03526007, 0.07852934, 0.01474076, 0.01022863
 88452899, 0.02769313, 0.07213712, 0.004783258, 0.009298754
 88507623, 0.0198133, 0.07951199, -0.002129849, 0.01022919
 88557613, 0.03521984, 0.06027967, 0.007652067, 0.009299311
 88607821, 0.02709327, 0.05600072, 0.001274827, 0.00929615
 88662454, 0.02169038, 0.05302332, -0.006565553, 0.01023123
 88712453, 0.05242381, 0.02547976, 0.01577035, 0.009296336
 88767662, 0.0160078, 0.04318021, -0.01893033, 0.01023012
 88817637, 0.05158725, 0.01675485, -0.003698524, 0.009298567
 88867606, 0.04754632, 0.008231692, 0.0003260006, 0.009298754
 88922569, 0.03582684, 0.01764275, -0.01339736, 0.01022881
 88972484, 0.06362181, -0.008681029, 0.02459439, 0.009298567
 89027994, 0.0382824, -0.00559571, -0.001114876, 0.01022881
 89079129, 0.03509173, 0.005301118, -0.01280047, 0.00929708
 89132475, 0.04947772, -0.008914077, 0.006920218, 0.01023235
 89182458, 0.02076704, 0.002515295, -0.005790619, 0.00929522
 89232474, 0.02072042, 0.003874145, 0.006027863, 0.009300799
 89287608, 0.02170233, -0.0196338, 0.02166109, 0.0102264
 89337612, 0.005838098, 0.01062474, -0.01003297, 0.009298753
 89392490, 0.01168673, -0.006593602, 0.001045875, 0.01022937
 89442484, 0.007733701, -0.02390652, 0.01683618, 0.009297824
 89492555, -0.008663023, -0.002172787, -0.01513389, 0.009298938
 89547618, -0.004566627, -0.01038235, 0.002553396, 0.01022863
 89597617, -0.003486431, -0.02136118, 0.008078945, 0.009298754
 89652907, -0.01523921, -0.009683159, -0.008751808, 0.01022844
 89702860, -0.003865102, -0.01403955, 0.002697804, 0.009298939
 89757606, -0.002182615, -0.02195727, 0.01069682, 0.01022844
 89807626, -0.006142421, -0.01345656, -0.009527448, 0.009300055
 89857626, 0.00326312, -0.02523767, -0.00797128, 0.009299683
 89912496, 0.005428203, -0.02656239, -0.002288898, 0.01022658
 89962463, 0.01455319, -0.01578313, -0.01293408, 0.009302287
 90017617, 0.01506657, -0.02522063, -0.01202797, 0.01022509
 90067602, 0.01939999, -0.02775752, -0.0007471091, 0.009298753
 90117603, 0.02336306, -0.01716466, -0.01861333, 0.009300427
 90172481, 0.02528236, -0.02896058, -0.007612702, 0.01022844
 90222462, 0.02713077, -0.02474976, -0.006871289, 0.009298754
 90279149, 0.02822641, -0.01633499, -0.00862795, 0.01022751
 90327993, 0.03837089, -0.01989702, -0.001490531, 0.009299126
 90382567, 0.03957957, -0.02803925, -0.009312688, 0.01022751
 90432470, 0.03734529, -0.009756594, -0.02193388, 0.009303217
 90487606, 0.05143499, -0.02167698, -0.00993546, 0.01022603
 90537573, 0.04175762, -0.02292114, -0.003678258, 0.009298752
 90587845, 0.04641692, -0.008048067, -0.01100236, 0.009297264
 90642515, 0.04536097, -0.0158096, -0.0003042445, 0.01022863
 90692598, 0.04294858, -0.02202939, 0.002445411, 0.009300241
 90742551, 0.03664365, 0.002163738, -0.01995847, 0.009298939
 90797833, 0.03792655, -0.01096589, -0.01036329, 0.01023067
 90847566, 0.0424438, -0.004613782, -0.005105522, 0.009295592
 90903097, 0.03531592, 0.006212316, -0.002101186, 0.01022807
 90952882, 0.03441607, 0.01029311, 0.004285774, 0.009300239
 91007812, 0.04336781, -0.001124915, 0.008571506, 0.01022788
 91057591, 0.02892123, 0.006170083, -0.00192326, 0.009298009
 91107827, 0.03664412, 0.01089732, 0.004061315, 0.009299497
 91162472, 0.03952182, -0.0003920983, 0.0092339, 0.01022937
 91212563, 0.02435595, 0.007995056, 0.002555675, 0.009298753
 91267619, 0.0369738, 0.01130882, 0.006949646, 0.01022863
 91317926, 0.02787839, -0.002374005, 0.0273257, 0.009298753
 91372662, 0.006858245, 0.003825826, 0.0108566, 0.01022881
 91422825, 0.01978156, -0.006567201, 0.02322298, 0.009298568
 91472645, 0.0191161, -0.02442894, 0.01546146, 0.009299311
 91528179, -0.004109985, -0.002279362, -0.0221899, 0.01022807
 91579356, 0.02904408, -0.02360216, 0.0125051, 0.009298753
 91632848, 0.01368473, -0.02837314, 0.01373855, 0.01023198
 91682660, 0.01331932, 0.01330019, -0.009390847, 0.009294104
 91732622, 0.04286141, -0.02029469, 0.03209265, 0.009302658
 91787798, 0.007073139, -0.01985549, -0.01170844, 0.01022658
 91837713, 0.05141634, 0.0256135, -0.01980594, 0.00929894
 91892897, 0.0377116, -0.02842711, 0.02464141, 0.01022863
 91942631, 0.04068374, 0.02851816, -0.0236728, 0.009299125
 91992651, 0.04611142, -0.001121528, 0.0001669805, 0.009297636
 92047701, 0.04802008, -0.02103475, 0.02736248, 0.01022714
 92097650, 0.05224622, 0.04503184, -0.02902111, 0.009299868
 92152988, 0.05229837, -8.170516E-05, 0.004838767, 0.010229
 92202970, 0.06877983, -0.001550805, 0.009212553, 0.009298753
 92257809, 0.05307006, 0.04782869, -0.05412751, 0.01022919
 92307805, 0.0575713, -0.00904606, 0.01326334, 0.00929838
 92357717, 0.05669135, 0.009456737, -0.003769178, 0.009300984
 92412625, 0.03476642, 0.02559679, -0.03021467, 0.01022603
 92462623, 0.05666937, -0.02016216, 0.02465397, 0.009298939
 92517811, 0.0290936, 0.01821878, -0.02079951, 0.01022863
 92567927, 0.04253535, 0.005333413, 0.01763057, 0.009298753
 92617801, 0.04565341, -0.02126462, 0.02465092, 0.009298753
 92672630, 0.03630387, 0.02621143, -0.02134731, 0.010229
 92722607, 0.06673694, -0.01780387, 0.03075519, 0.009298568
 92779269, 0.05224465, -0.00918226, 0.005830172, 0.01022863
 92828049, 0.07924523, 0.02857908, -0.009770954, 0.009298567
 92879267, 0.08316252, -0.03118628, 0.04723814, 0.009297266
 92932644, 0.1041909, 0.02998638, -0.03099479, 0.01023086
 92987688, 0.1282316, 0.01643831, -0.0006867328, 0.01022844
 93037685, 0.1198965, -0.01577338, 0.03738895, 0.00929801
 93087676, 0.1359991, 0.04172143, -0.02693945, 0.009298938
 93142629, 0.149673, 0.008862726, 0.003573449, 0.01022863
 93192666, 0.14308, 3.538106E-05, 0.02311326, 0.009298567
 93242867, 0.1346629, 0.04688931, -0.03472759, 0.009298939
 93297803, 0.1339388, -0.00187564, 0.01311386, 0.01022863
 93347809, 0.1294795, 0.01115622, 0.001032399, 0.009298753
 93402987, 0.1057969, 0.0382966, -0.03183948, 0.01022863
 93452973, 0.08618998, -0.02667271, 0.02072462, 0.009300427
 93502969, 0.08324, 0.01664606, -0.02764459, 0.009297079
 93557923, 0.05976662, 0.005889798, -0.01033998, 0.01022863
 93607707, 0.05491645, -0.03286331, 0.03728498, 0.009299126
 93662630, 0.03703216, 0.007133698, -0.01837278, 0.01022826
 93712628, 0.01574487, -0.01382732, -0.004680542, 0.009299497
 93767698, 0.02464934, -0.02984012, 0.0004083536, 0.01023049
 93817802, -0.006610844, 0.009654001, -0.03778176, 0.009296708
 93867714, -0.007453253, -0.03087684, 0.01871948, 0.009298567
 93922616, -0.005994641, -0.01168968, 0.004018447, 0.01022807
 93972659, -0.03577039, 0.01496959, -0.02473127, 0.009298939
 94028079, -0.02335326, -0.0335471, 0.02971547, 0.010229
 94079255, -0.03083775, 0.009292716, -0.02400212, 0.009298381
 94128025, -0.0388054, 0.005781226, -0.01179659, 0.009298567
 94182613, -0.02312655, -0.02148222, 0.01235901, 0.01022751
 94232862, -0.04168431, 0.0259054, -0.03812842, 0.009300984
 94287708, -0.02724533, -0.00379124, 0.001008281, 0.01022993
 94337685, -0.01830345, -0.008716996, 0.0101273, 0.009297266
 94387702, -0.03247592, 0.02774193, -0.02798941, 0.009298009
 94442652, -0.009297688, -0.0176149, 0.01263526, 0.01022863
 94492662, -0.02118761, 0.006607197, -0.02120279, 0.009298568
 94547929, -0.02136835, 0.01357917, -0.02382591, 0.01022881
 94597710, 0.002782984, -0.02432986, 0.01154217, 0.009298752
 94647706, -0.02602159, 0.01721555, -0.03412553, 0.009299311
 94702978, 0.005008447, -0.01105573, 0.01107324, 0.01022807
 94752992, -0.007211002, -0.01800161, 0.01050859, 0.009298567
 94807798, -0.01292232, 0.01554076, -0.02348382, 0.01022881
 94857815, 0.01005433, -0.02692969, 0.02568571, 0.009299311
 94907924, -0.0204028, -0.003667554, -0.01574088, 0.009300054
 94962607, 0.006558232, -0.003570108, -0.001662389, 0.01022677
 95012654, -0.002006569, -0.03528693, 0.02748844, 0.009298753
 95067696, -0.01811186, 0.001870794, -0.02424275, 0.01022974
 95117712, 0.008005115, -0.02306847, 0.01157618, 0.00929931
 95172631, -0.01725652, -0.02991299, 0.01550436, 0.01022751
 95222859, -0.01284363, 0.004604967, -0.01098384, 0.009298195
 95272649, 0.002354732, -0.03448412, 0.03665271, 0.009299311
 95328109, -0.02628337, -0.01654819, -0.002726716, 0.01022788
 95379263, -0.008263834, -0.00293579, 0.001518097, 0.009298938
 95432631, -0.01528411, -0.03847622, 0.0487537, 0.01022974
 95487715, -0.03608016, -0.01058314, 0.003983317, 0.0102277
 95532649, -0.006008839, -0.01558497, 0.015412, 0.008372411
 95587695, -0.03604579, -0.03226559, 0.01880276, 0.01022491
 95637699, -0.03024924, 0.001640406, -0.01579742, 0.009298753
 95692647, -0.01902799, -0.03262761, 0.02730732, 0.01022863
 95742656, -0.04180039, -0.02599732, 0.01070583, 0.009298754
 95792677, -0.02219637, -0.0002485565, -0.004127702, 0.009298566
 95847713, -0.02606714, -0.03911936, 0.04401884, 0.01022881
 95897933, -0.04675585, -0.01224576, 0.006027194, 0.009301171
 95952995, -0.02878271, -0.01008025, 0.01063603, 0.01022621
 96002975, -0.03506682, -0.03511312, 0.03579815, 0.009298753
 96057686, -0.05381088, -0.003385682, 0.0006800275, 0.01023049
 96107808, -0.02617167, -0.01452949, 0.01581942, 0.009296893
 96157710, -0.04803415, -0.02430788, 0.01811668, 0.009299125
 96212859, -0.04758666, 0.003545059, -0.006138338, 0.01022826
 96262655, -0.02890455, -0.02537465, 0.02669632, 0.00929931
 96317804, -0.05459658, -0.01510683, 0.007209673, 0.01022807
 96367805, -0.04207125, 0.004955349, -0.01231786, 0.009299682
 96417708, -0.03397554, -0.02713577, 0.02330171, 0.009297824
 96472641, -0.06318596, -0.005038771, -0.001004577, 0.01022863
 96522621, -0.03845997, -0.002854422, 0.002907466, 0.009300427
 96579249, -0.04831303, -0.02359786, 0.02059563, 0.01022696
 96628020, -0.05860776, -0.003450805, -0.007471784, 0.009298567
 96679366, -0.04175321, -0.01261118, 0.007037763, 0.009300241
 96732625, -0.06431928, -0.02090242, 0.01800759, 0.01022788
 96787710, -0.06898126, -0.0005250665, -0.002727454, 0.01022863
 96837693, -0.03938445, -0.01876358, 0.02836275, 0.009298381
 96887987, -0.07208585, -0.009528037, 0.005156715, 0.009298754
 96937675, -0.05071062, -0.004306813, 0.008333839, 0.009298568
 96992863, -0.05960076, -0.0225636, 0.02047338, 0.01022881
 97042638, -0.06971116, -0.003006347, -0.007006795, 0.009298752
 97097909, -0.05241238, -0.009651946, 0.004561139, 0.01022844
 97147687, -0.0521118, -0.01552132, 0.01334222, 0.009298754
 97203184, -0.05870041, -0.001255223, -0.003789183, 0.01022956
 97252993, -0.03819245, -0.01085803, 0.005548695, 0.009297822
 97303084, -0.04534676, -0.007354874, 0.0007448934, 0.009298753
 97357701, -0.04334847, 0.001589265, 0.001223612, 0.010229
 97407910, -0.03041229, -0.00880952, 0.01124615, 0.009298381
 97462641, -0.04169204, -0.003885403, 0.003433059, 0.01022844
 97512847, -0.03202943, 0.00400695, -0.002148049, 0.009298939
 97562852, -0.02466109, -0.006076895, 0.009164009, 0.009298753
 97617909, -0.03366154, -0.0002267929, 0.004370233, 0.01022863
 97667712, -0.02522646, 0.005060882, 0.00113442, 0.009299682
 97722819, -0.0253753, -0.007917702, 0.01016236, 0.01022751
 97772643, -0.03050351, 0.001220726, -0.003787951, 0.00930024
 97822645, -0.0195838, 0.0005802653, 0.004319634, 0.00929745
 97879439, -0.02721017, -0.005236625, 0.008103023, 0.01022844
 97928043, -0.02694228, 0.002510299, -0.0003375318, 0.009301172
 97982644, -0.02554977, 0.001826156, 0.003382507, 0.01022509
 98032630, -0.02697447, -0.005993865, 0.008955549, 0.009300054
 98087712, -0.03596456, 0.001449829, 0.003388358, 0.01022863
 98137707, -0.02837874, 0.002065896, 0.0019821, 0.009298753
 98187703, -0.0333089, -0.006341442, 0.008517338, 0.009298752
 98242652, -0.04020531, -0.0008391044, 0.003550095, 0.01023012
 98292666, -0.03498755, -0.001318061, -0.0002366698, 0.009297823
 98347710, -0.04313947, -0.00903072, 0.00320224, 0.01023012
 98397688, -0.04158036, -0.005432483, -0.003539917, 0.009297079
 98447701, -0.03905796, -0.006720522, 0.000817284, 0.009298381
 98502975, -0.04740755, -0.0101361, 0.004716033, 0.01023012
 98553123, -0.04355876, -0.007185786, 0.004991462, 0.009297265
 98607699, -0.0474347, -0.007488867, 0.003846844, 0.01022863
 98657706, -0.04548561, -0.01089068, 0.003518132, 0.009301915
 98707710, -0.04702392, -0.01056931, 0.0008667025, 0.009295778
 98762662, -0.04905437, -0.006448708, -0.001978062, 0.01023309
 98812644, -0.04161515, -0.01231054, 0.005766141, 0.00929522
 98867931, -0.0460363, -0.009364177, 0.002894223, 0.01022807
 98917714, -0.03962371, -0.002818048, -0.002751831, 0.009298195
 98972651, -0.03786299, -0.01482802, 0.009807812, 0.01022863
 99022631, -0.03433215, -0.003276442, -0.003957036, 0.009298754
 99072633, -0.03159196, -0.00351505, -0.0008285418, 0.009299683
 99128057, -0.03271389, -0.01341835, 0.009829815, 0.01022807
 99179270, -0.03263701, 0.002207928, -0.004762785, 0.009298938
 99232609, -0.03198411, -0.004875286, 0.003933628, 0.01022807
 99287806, -0.03137872, -0.01166254, 0.01405551, 0.01022863
 99332662, -0.0292959, 0.006925208, -0.01007271, 0.008371853
 99387700, -0.0292959, -0.005033314, 0.003670166, 0.01022565
 99437702, -0.02876882, -0.006735622, 0.004648519, 0.009298754
 99492651, -0.03130795, 0.006916969, -0.007031905, 0.01022863
 99542863, -0.02391265, -0.005575579, 0.0106916, 0.009298567
 99592668, -0.02897282, -0.003090678, 0.002912387, 0.009298753
 99647706, -0.02770073, 0.006253819, -0.003941576, 0.01022919
 99697697, -0.02239045, -0.009675853, 0.01156276, 0.009298381
 99753037, -0.02873689, -0.002527636, 0.003050489, 0.01022863
 99802985, -0.0224073, 0.003607818, -0.002565421, 0.009299682
 99857943, -0.02607858, -0.01123055, 0.01161849, 0.01022844
 99907709, -0.02525654, -0.00613421, 0.00506068, 0.009300984
 99957714, -0.02519703, 0.0002102698, 0.0004612624, 0.009296707
 100012629, -0.02929729, -0.0176903, 0.01144987, 0.0102277
 100062617, -0.02686219, -0.004765591, -0.004109648, 0.009298753
 100117796, -0.02971344, -0.006679531, -0.004494132, 0.01022844
 100167798, -0.02615019, -0.02120232, 0.01581763, 0.009298753
 100217923, -0.02363048, -0.003360173, -0.001242554, 0.009298939
 100272651, -0.0258328, -0.01042363, 0.007784298, 0.01022863
 100322635, -0.02368507, -0.01944725, 0.01513809, 0.009298753
 100379274, -0.02173532, -0.009346506, 0.005690427, 0.01022863
 100428044, -0.02563047, -0.0105033, 0.0004048403, 0.009298753
 100482644, -0.02302137, -0.01872035, 0.007737044, 0.01022733
 100532893, -0.01935391, -0.008427698, -0.0009092408, 0.009302659
 100587707, -0.0259137, -0.009560931, 0.002618456, 0.01022603
 100637694, -0.01917385, -0.0162993, 0.01313335, 0.009299869
 100687707, -0.01829503, -0.0001726706, -0.0008705925, 0.009297637
 100742638, -0.02350402, -0.001895873, 0.003747755, 0.01022863
 100792664, -0.01827756, -0.008784472, 0.005577795, 0.009298753
 100842669, -0.01798826, 0.003664775, -0.01092294, 0.009298753
 100897706, -0.01763417, 0.001035146, -0.004574836, 0.01022863
 100947797, -0.01290393, -0.004799343, 0.004883664, 0.009298753
 101003003, -0.01517355, 0.007736919, -0.004112733, 0.01022919
 101052974, -0.01236877, 0.002390511, 0.007851509, 0.009298196
 101102969, -0.01382392, -0.004655845, 0.007593286, 0.009299497
 101157705, -0.02049971, 0.006583798, -0.006432736, 0.01022807
 101207919, -0.01997642, -0.005493713, 0.003822304, 0.009298568
 101262668, -0.02233946, -0.01066435, 0.008880235, 0.01023086
 101312673, -0.02711673, 0.0008172277, -0.00180957, 0.009298566
 101362620, -0.02313183, -0.01818221, 0.01883218, 0.009296894
 101417794, -0.03025903, -0.01581815, 0.007136584, 0.01022844
 101467714, -0.03236941, -0.009099349, -0.002014911, 0.009298753
 101522903, -0.03078229, -0.02434033, 0.007803213, 0.01022863
 101572640, -0.03380898, -0.02090233, 0.004362687, 0.009299311
 101628092, -0.03986064, -0.01729756, 0.002016609, 0.01022807
 101679249, -0.02917812, -0.02885736, 0.01729637, 0.009298753
 101728035, -0.04028808, -0.02031365, 0.004614158, 0.009298939
 101782637, -0.03943451, -0.02132991, 0.005102781, 0.01022621
 101832643, -0.03121584, -0.03446145, 0.01850783, 0.009300798
 101887814, -0.04807832, -0.02597266, -0.004004302, 0.01022881
 101937705, -0.03129032, -0.02244262, 0.003409171, 0.009299683
 101987709, -0.03219653, -0.03634947, 0.01406008, 0.009297823
 102042644, -0.04593654, -0.02248422, 0.0002638624, 0.01022993
 102092670, -0.0246295, -0.02692218, 0.01114187, 0.009297452
 102147717, -0.0332248, -0.03449383, 0.01014629, 0.01022863
 102197923, -0.04081421, -0.01347678, -0.01646625, 0.009298753
 102247711, -0.02153133, -0.02672173, 0.01027772, 0.009298753
 102302987, -0.03927443, -0.02059266, 0.01055034, 0.01022844
 102353007, -0.03389028, -0.003655125, -0.001928928, 0.009298753
 102407698, -0.02343181, -0.01698247, 0.01506388, 0.01023067
 102457698, -0.03557597, -0.01005049, 0.001323167, 0.009298567
 102507695, -0.02596715, 0.000663231, -0.0004661531, 0.009297266
 102562623, -0.02112536, -0.01428664, 0.01397671, 0.010229
 102612636, -0.03759455, 0.0001154975, -0.003430616, 0.009300614
 102667803, -0.02087718, 0.001349057, 0.004628524, 0.01022603
 102717715, -0.01669187, -0.01266289, 0.0130019, 0.009299497
 102767943, -0.02829925, 0.006914565, -0.01125262, 0.009300055
 102822641, -0.01390561, -0.004984688, 0.007319103, 0.01022677
 102872901, -0.01507262, -0.008488628, 0.006123315, 0.009300056
 102928075, -0.02405177, 0.005823053, -0.009477281, 0.01022733
 102979350, -0.008827481, -0.004182857, 0.007224356, 0.009300427
 103032634, -0.01377666, -0.009252855, 0.005660993, 0.01022937
 103082854, -0.0144491, 0.004257362, -0.009053828, 0.009302844
 103132658, -0.0008590532, -0.005286358, 0.01399349, 0.009292802
 103187957, -0.007942211, -0.005867436, 0.01308458, 0.01022807
 103237680, -0.009236916, 0.009733483, -0.01150922, 0.009302473
 103292878, -0.001420062, 0.004936961, -0.006740383, 0.01022491
 103342626, -0.01291649, 0.006510169, -0.003849122, 0.009298753
 103392911, -0.0109325, 0.02206438, -0.006637859, 0.009298568
 103447711, -0.003229981, 0.01273052, 0.0114731, 0.01022881
 103497907, -0.01524295, 0.01538741, 0.005810524, 0.009299868
 103552999, -0.01132129, 0.02458146, -0.003117226, 0.01022881
 103603087, -0.006294269, 0.0131416, 0.01123289, 0.009297264
 103657683, -0.01908847, 0.01818578, -0.002409806, 0.01022881
 103707905, -0.009256673, 0.02119914, -0.001208243, 0.009298566
 103757706, -0.008634586, 0.003365638, 0.01515231, 0.009298939
 103812857, -0.01441275, 0.01278343, -0.001217693, 0.01023049
 103862656, -0.002300781, 0.01081213, -0.002609782, 0.009296893
 103917902, -0.00548233, -0.0002611944, 0.003797719, 0.01022863
 103967802, -0.01228881, 0.007643529, -0.01195252, 0.009298754
 104017945, 0.001507193, -0.001009993, 0.001645784, 0.009298752
 104072619, -0.01308947, -0.006576637, -0.0005480081, 0.01023049
 104122634, -0.01531981, 0.003552281, -0.001744681, 0.009296893
 104179234, -0.009124629, -0.003948441, 0.01329089, 0.01022863
 104228062, -0.02352541, -0.01059363, 0.005299351, 0.009298753
 104279296, -0.01931509, -0.0007825475, -0.004181599, 0.009298753
 104332866, -0.01714013, -0.01055308, 0.008808991, 0.01022844
 104387803, -0.02525412, -0.0149252, 0.008890191, 0.01022882
 104437708, -0.019967, -0.006451983, -0.002230142, 0.009298752
 104487667, -0.01901316, -0.01857594, 0.01362751, 0.009298754
 104537678, -0.02873445, -0.01715862, 0.006153285, 0.009299682
 104592643, -0.02578209, -0.0112289, 0.004214422, 0.01022751
 104642633, -0.02725908, -0.02218519, 0.01600897, 0.009298939
 104697710, -0.03959241, -0.01874608, 0.005001378, 0.01022863
 104747700, -0.0320529, -0.009308288, 0.004172385, 0.009298752
 104803042, -0.03768525, -0.02504542, 0.01078242, 0.01022863
 104853000, -0.03949539, -0.01798886, 0.005445907, 0.009298753
 104902990, -0.03670057, -0.01120979, -0.003682934, 0.009298753
 104957672, -0.0398329, -0.0258123, 0.007211707, 0.010229
 105007918, -0.03964259, -0.01313497, 0.002089391, 0.009298754
 105062623, -0.03623556, -0.01042796, 0.006873829, 0.01022826
 105112592, -0.03162996, -0.02179208, 0.01164449, 0.009298753
 105162645, -0.03358608, -0.01017918, -0.004523499, 0.009298753
 105217703, -0.03046589, -0.009721239, -0.001637275, 0.01022863
 105267804, -0.02596422, -0.02020475, 0.01235667, 0.009299126
 105322877, -0.03360155, -0.009589197, 0.004469258, 0.01022844
 105372653, -0.02518534, -0.006408771, 0.01013097, 0.009304519
 105422611, -0.02533441, -0.02141859, 0.0233814, 0.009292803
 105479230, -0.02772393, -0.006292121, 0.002717669, 0.01022863
 105528053, -0.02259087, -0.01219085, -0.0001139304, 0.009299311
 105582618, -0.02382788, -0.01566875, 0.005468523, 0.01022677
 105632616, -0.02468756, -0.00376636, -0.00752158, 0.009301357
 105687711, -0.02030317, -0.008879947, 0.004038635, 0.01022733
 105737710, -0.01915639, -0.01294173, 0.009789566, 0.009299869
 105787702, -0.01987861, 0.003160754, -0.002520385, 0.009297637
 105842655, -0.01420632, -0.006088867, 0.008636748, 0.01022919
 105892666, -0.01496519, -0.005382912, 0.008946034, 0.009298939
 105947710, -0.01670287, 0.006863812, -0.003159398, 0.01022956
 105997917, -0.008568806, -8.415582E-05, 0.005526578, 0.009297079
 106047710, -0.01275025, -0.002004685, 0.002767998, 0.009298568
 106102972, -0.01285178, 0.008077426, -0.004219745, 0.01022881
 106152978, -0.007646284, -0.0007716532, 0.0002032239, 0.009298938
 106207706, -0.009997071, -0.001173116, 0.003492394, 0.01022974
 106257700, -0.01038985, 0.007493883, -0.009037754, 0.009297451
 106307796, -0.006506762, -0.002383611, 0.002949339, 0.009299312
 106362643, -0.009345075, -0.003547882, 0.005227694, 0.01022844
 106412619, -0.01218276, 0.006638725, -0.007740594, 0.009302286
 106467710, -0.008902923, -0.001760107, 0.003105817, 0.01022472
 106517816, -0.01180216, -0.006079233, 0.002975459, 0.009298753
 106567805, -0.01297651, 0.006289278, -0.002822187, 0.009298753
 106622619, -0.01008774, -0.004072846, 0.004762363, 0.01022863
 106672833, -0.01148853, -0.004126079, 0.009444953, 0.009299683
 106728077, -0.01485001, 0.001938208, 0.003373377, 0.0102277
 106779265, -0.01105602, -0.003627032, 0.005637147, 0.009298753
 106832635, -0.01578557, -0.006550264, 0.004967964, 0.01023012
 106882623, -0.0144652, 0.003639953, -0.005171559, 0.009296521
 106932653, -0.01165656, -0.001868846, 0.005520849, 0.009299497
 106987931, -0.01833314, -0.006668699, 0.007528132, 0.01022863
 107037691, -0.01270221, 0.007322088, 0.0007451897, 0.009300241
 107092647, -0.02019703, -0.005611146, 0.008217704, 0.01022714
 107142611, -0.01679363, -0.004992564, 0.004548603, 0.009298753
 107192669, -0.01461462, 0.01338639, -0.01160798, 0.009298753
 107247692, -0.02242935, -0.007804951, 0.01049571, 0.01022863
 107297797, -0.01488419, -9.128952E-05, 0.006803676, 0.009299311
 107353010, -0.01611755, 0.01426967, -0.01092126, 0.01022863
 107402984, -0.01478501, -0.004638025, 0.00963656, 0.009298567
 107452974, -0.009910234, 0.01101579, 0.00161671, 0.009298381
 107507692, -0.01424157, 0.0200158, -0.0001553678, 0.01022956
 107557709, -0.01084043, -0.006394379, 0.02472879, 0.009298568
 107612647, -0.01210033, 0.02858928, -0.01027895, 0.01022956
 107662853, -0.008603189, 0.01191623, 0.0082695, 0.009297079
 107712622, -0.01189167, 0.002863646, 0.01495085, 0.009300427
 107767822, -0.008867113, 0.0434267, -0.01439125, 0.01022696
 107817833, -0.009196672, -0.02277083, 0.05767965, 0.009298753
 107872630, -0.01678341, 0.03124101, -0.008116776, 0.01023105
 107922608, -0.01054073, 0.0135647, 0.01370708, 0.009296335
 107979355, -0.01261891, -0.01946845, 0.04341784, 0.01022863
 108028038, -0.01984727, 0.06029402, -0.04508388, 0.00929987
 108079259, -0.007339209, -0.04337753, 0.0609751, 0.009297451
 108132641, -0.03825395, 0.05697668, -0.0597058, 0.01023105
 108187693, 0.0003624535, -0.006444029, 0.02645222, 0.0102264
 108237706, -0.04491728, 0.0125716, -0.02374826, 0.009298754
 108287811, -0.007289718, 0.04050393, -0.02488516, 0.009298753
 108337932, -0.04008138, -0.01542353, 0.008562019, 0.00929894
 108392668, -0.02900818, 0.07206364, -0.05364822, 0.01022863
 108442643, -0.01545731, -0.02229197, 0.04412552, 0.009301171
 108497673, -0.0571172, 0.05901569, -0.04586253, 0.01022602
 108547699, 0.002344513, 0.00487899, 0.02968868, 0.009298754
 108597685, -0.0636389, 0.01592761, -0.0119699, 0.009298753
 108653147, -0.005403508, 0.03910679, -0.01354531, 0.01022863
 108702949, -0.04842221, -0.0350221, 0.02330767, 0.009304146
 108757719, -0.02728548, 0.05286413, -0.06096854, 0.01022379
 108807707, -0.01493143, -0.05260604, 0.04137511, 0.009301729
 108857940, -0.04297222, 0.03484992, -0.05271411, 0.009297078
 108912626, 0.002198553, -0.03395545, 0.04181615, 0.01022677
 108962842, -0.04464543, -0.01048261, -0.004833927, 0.009300427
 109017817, 0.004569932, 0.003693077, 0.004132241, 0.01022677
 109067911, -0.02532795, -0.05662237, 0.04221665, 0.009298939
 109117799, -0.01151686, 0.02275692, -0.03229547, 0.00930489
 109172853, -0.0007776004, -0.06589506, 0.05448528, 0.01022324
 109222648, -0.03388369, -0.003722711, -0.03690264, 0.009298009
 109279395, 0.01048842, -0.0382606, 0.02761721, 0.01022863
 109328190, -0.03253416, -0.0505292, 0.01780818, 0.009299497
 109382867, -0.0009699577, -0.004458022, -0.01514943, 0.010237
 109432639, -0.01186018, -0.08118876, 0.062195, 0.009292801
 109487891, -0.03116383, -0.01228458, -0.04319713, 0.01022547
 109537687, -0.00538283, -0.06906664, 0.03369063, 0.009298568
 109587910, -0.03615204, -0.03981877, -0.02212497, 0.009300428
 109642868, -0.01309156, -0.03848062, -0.003399634, 0.01022807
 109692858, -0.02421682, -0.07826139, 0.0341133, 0.009297636
 109742639, -0.0213865, 0.001578814, -0.03768132, 0.009298939
 109797916, -0.0103411, -0.09055426, 0.06964654, 0.01022844
 109847703, -0.03600844, 0.01026657, -0.05141287, 0.009298939
 109903123, -0.002126604, -0.05912571, 0.04988395, 0.01022863
 109952965, -0.03696889, -0.009865705, -0.01626168, 0.009298753
 110007925, -0.0060146, -0.0003201694, 0.00716619, 0.01023179
 110057713, -0.03109407, -0.03546956, 0.0301569, 0.009297265
 110107691, -0.01928752, 0.04095685, -0.02417382, 0.009299311
 110162627, -0.01937803, -0.0338817, 0.05896045, 0.01022696
 110212657, -0.04761167, 0.05602741, -0.0289104, 0.009303031
 110262628, -0.002029627, -0.01341745, 0.04647896, 0.009294475
 110317945, -0.06084599, 0.03947397, -0.01952263, 0.01022807
 110367720, 0.0002677806, 0.02829774, 0.01445998, 0.009298753
 110422605, -0.05481117, 0.0014864, 0.01040338, 0.01022863
 110472615, -0.01846823, 0.06198474, -0.02410768, 0.009298753
 110528097, -0.0280193, -0.01567677, 0.03696408, 0.01022863
 110579229, -0.03719416, 0.05965832, -0.03208461, 0.009298753
 110628035, -0.008205338, -0.005727362, 0.03908274, 0.009298753
 110682616, -0.03713001, 0.02666719, -0.01316818, 0.01023774
 110732633, -0.004304209, 0.03618599, -0.01570225, 0.00928964
 110787817, -0.02081964, -0.03155048, 0.03128772, 0.01022919
 110837699, -0.01369588, 0.05884495, -0.04705118, 0.009298195
 110887800, -6.60368E-05, -0.0538769, 0.0577004, 0.009298753
 110942629, -0.02326097, 0.03687243, -0.04043942, 0.01022974
 110992876, 0.006467787, -0.03712605, 0.04244215, 0.009297637
 111047703, -0.01283589, -0.009809119, -0.01730762, 0.01022844
 111097705, -0.0007268903, 0.007283396, -0.01748072, 0.009299496
 111147710, -0.002423301, -0.05242073, 0.02731155, 0.009298195
 111202958, -0.003844232, 0.02575091, -0.05652599, 0.01022844
 111252959, 0.01075365, -0.06364588, 0.04872058, 0.009298939
 111307940, -0.003676712, 0.0179107, -0.05845092, 0.01023012
 111357805, 0.005609286, -0.03995766, 0.03245343, 0.009297266
 111407695, 0.003616203, -0.0001471331, -0.00800728, 0.009298753
 111462619, -0.008026393, -0.002912119, 0.01134979, 0.01022844
 111512648, 0.003588526, -0.04644166, 0.04218844, 0.009299311
 111567802, -0.01896489, 0.01579242, -0.0434624, 0.01022826
 111617716, -0.00772464, -0.05325213, 0.03837981, 0.009298753
 111672627, -0.01128333, 0.00644095, -0.03441984, 0.01022863
 111722655, -0.01759956, -0.02249152, 0.007273577, 0.009298754
 111772670, -0.003392816, -0.01343228, 0.004453193, 0.009298567
 111828055, -0.0308223, 0.007085218, 0.0001887397, 0.01022863
 111879280, -0.003003068, -0.04254568, 0.04689139, 0.009298939
 111932635, -0.03791301, 0.03238434, -0.03862894, 0.01022919
 111987715, -0.01863332, -0.04444782, 0.05715379, 0.01022807
 112032642, -0.03365732, 0.0375203, -0.0424167, 0.008368878
 112087714, -0.02558361, -0.02691735, 0.04157428, 0.01022863
 112137708, -0.04064149, 0.01159212, -0.01678411, 0.009300239
 112192655, -0.04344304, 0.01141847, 0.002014027, 0.01022714
 112242623, -0.02756153, -0.02075816, 0.01882961, 0.009299497
 112292701, -0.04847584, 0.03589936, -0.02337944, 0.009297824
 112347819, -0.02603231, -0.02753931, 0.04317143, 0.01022937
 112397716, -0.05604876, 0.03414124, -0.02571688, 0.009299311
 112453002, -0.02229131, -0.01602323, 0.03604651, 0.01022751
 112502966, -0.04229204, 0.005163534, -0.005962506, 0.009298753
 112557693, -0.0292796, 0.01646126, -0.000302495, 0.01022863
 112607708, -0.01798039, -0.02730364, 0.03203773, 0.009298753
 112657925, -0.04120549, 0.02891964, -0.01991928, 0.009299311
 112712601, -0.004521257, -0.02762195, 0.0429618, 0.01022807
 112762653, -0.04245058, 0.0115678, -0.01296787, 0.009298753
 112817716, -0.006473601, -0.0067414, 0.02684711, 0.01022863
 112867797, -0.01648488, -0.02318425, 0.03061526, 0.009298752
 112917713, -0.01774172, 0.01063438, -0.0188064, 0.009299311
 112972851, 0.005636532, -0.03811416, 0.03566898, 0.01022863
 113022642, -0.02909146, 0.007152311, -0.02772937, 0.009298195
 113079257, 0.01559346, -0.0236632, 0.03220567, 0.01022956
 113128053, -0.01999096, -0.013874, -0.001517555, 0.009297824
 113179220, 0.009262308, 0.004361548, -0.003508149, 0.009298753
 113232609, -0.0007267753, -0.02875986, 0.02595197, 0.01023049
 113287942, -0.02051003, 0.01992413, -0.01970469, 0.01022788
 113337728, 0.01634827, -0.01547532, 0.02813822, 0.009297637
 113387809, -0.03104478, 0.01177152, -0.01745407, 0.009298568
 113437707, 0.01190426, 0.009346044, 0.01807498, 0.009298939
 113492671, -0.02284504, -0.003911829, 0.01594792, 0.01022863
 113542640, -0.01114087, 0.03023857, -0.01824185, 0.009298754
 113597688, -0.0004757066, -0.007326501, 0.01621453, 0.01022863
 113647942, -0.02916955, 0.01564828, -0.02370405, 0.009298753
 113703022, 0.01274226, 0.007340786, 0.0002574946, 0.01022863
 113752980, -0.02298323, -0.01142494, 0.004559242, 0.009298753
 113802991, 0.004362905, 0.02316483, -0.01603034, 0.009298752
 113857700, 0.002112749, -0.0164896, 0.02327057, 0.01023049
 113907716, -0.01818078, 0.01894891, -0.01860116, 0.009296893
 113962858, 0.02005586, 0.0002554643, 0.01829349, 0.01022863
 114012626, -0.02626519, -0.01768268, 0.01578679, 0.009300613
 114062645, 0.02046423, 0.03386784, -0.02429562, 0.009296893
 114117710, -0.0114428, -0.03573512, 0.02375247, 0.01022863
 114167799, -0.001150967, 0.05034412, -0.04404671, 0.009298567
 114222613, 0.007533757, -0.02492563, 0.03437469, 0.01022881
 114272629, -0.01495924, 0.03249805, -0.0245822, 0.009299498
 114322878, 0.02155496, 0.01072325, 0.01490091, 0.009299682
 114379265, -0.01944158, 0.001376922, -0.006111665, 0.01022789
 114428025, 0.01650754, 0.06765667, -0.02949694, 0.009297636
 114482612, -0.006723029, -0.02114637, 0.02789327, 0.01022751
 114532655, -0.008838105, 0.08980896, -0.04807469, 0.009300613
 114587710, 0.002170381, -0.0157367, 0.05661755, 0.01022863
 114637930, -0.02539308, 0.07767423, -0.0324944, 0.009298195
 114687695, 0.007407795, 0.00590085, 0.03937113, 0.009300984
 114742628, -0.03967556, 0.04619307, -0.005614016, 0.0102264
 114792672, 0.002829151, 0.04886388, 0.008871811, 0.009299682
 114842882, -0.03613312, 0.003944679, 0.01827898, 0.009298381
 114897680, -0.01431053, 0.07182176, -0.01461138, 0.01022788
 114947908, -0.02064724, -0.02807752, 0.04906411, 0.009298938
 115003017, -0.03711098, 0.06907421, -0.04069891, 0.01022863
 115053101, -0.007212755, -0.0303721, 0.04512009, 0.009298753
 115107690, -0.05191276, 0.02656223, -0.02451099, 0.01022863
 115157910, -0.006271774, -0.0002214452, 0.02423171, 0.009299125
 115207689, -0.04892262, -0.0254912, 0.01714924, 0.009298568
 115262860, -0.0209721, 0.01783467, -0.0128057, 0.010229
 115312946, -0.02696804, -0.06572789, 0.04960617, 0.009300241
 115367919, -0.04458538, 0.01174808, -0.04674092, 0.01022844
 115417803, -0.009975896, -0.06148547, 0.04055882, 0.009296893
 115467917, -0.0541516, -0.02141065, -0.0317068, 0.009298753
 115522661, -0.01114628, -0.03683326, -0.001516669, 0.010229
 115572834, -0.04284905, -0.07218925, 0.0235176, 0.009298939
 115628207, -0.02918423, -0.006697901, -0.03860186, 0.01022807
 115679372, -0.02026095, -0.08272585, 0.04764535, 0.009301915
 115728026, -0.04965686, 0.001236947, -0.05140325, 0.009295591
 115782867, -0.01390479, -0.06330699, 0.03149966, 0.01022733
 115832652, -0.06003045, -0.02365947, -0.01938678, 0.009300055
 115887932, -0.01959024, -0.009979777, -0.001135137, 0.01022863
 115937708, -0.0487272, -0.05906479, 0.02733805, 0.009298753
 115992857, -0.04614708, 0.0213279, -0.05372574, 0.01022919
 116042648, -0.02681665, -0.05501112, 0.03255482, 0.009298195
 116092643, -0.0585823, 0.02200904, -0.05070319, 0.009300427
 116147680, -0.01849242, -0.022714, 0.01515017, 0.01022695
 116197710, -0.06312665, -0.008956533, -0.01992347, 0.009298753
 116252996, -0.01758358, 0.02527816, -0.02554524, 0.01022863
 116303145, -0.03951417, -0.03229412, 0.02604232, 0.009300055
 116353818, -0.02501065, 0.05257374, -0.04280847, 0.00929801
 116407708, -0.02287404, -0.02609853, 0.03393728, 0.01022807
 116457707, -0.03592406, 0.05782288, -0.04431793, 0.009298752
 116512617, -0.002909075, -0.008187536, 0.03133692, 0.01022956
 116562629, -0.04490247, 0.03681452, -0.0236906, 0.009297636
 116612639, 0.009534462, 0.0230062, 0.00388882, 0.009298939
 116667710, -0.0371572, 0.01334661, -0.003955388, 0.01022863
 116722608, 0.004410383, 0.07110275, -0.008974903, 0.01022863
 116772651, -0.01220705, -0.0177458, 0.0479271, 0.009298753
 116822649, -0.0006961724, 0.07804347, -0.01971726, 0.009298753
 116879258, 0.004657925, -0.007801802, 0.04824796, 0.01022863
 116928046, -0.01478567, 0.06400762, -0.01718115, 0.009298753
 116979371, 0.02141264, 0.00832606, 0.04089907, 0.009298753
 117032615, -0.02902213, 0.02713943, 0.01279849, 0.01023012
 117087703, 0.01878706, 0.05085414, 0.002539392, 0.01022714
 117132644, -0.02111082, -0.02027519, 0.03297339, 0.008370738
 117187701, 0.007329526, 0.05243067, -0.01596051, 0.01022677
 117237707, -0.006181897, -0.04194848, 0.04791858, 0.009298752
 117292902, -0.01213803, 0.04775744, -0.03736057, 0.01022863
 117342660, 0.0153881, -0.03644038, 0.0523286, 0.009299312
 117397717, -0.03411115, 0.01116754, -0.01270792, 0.01022844
 117447705, 0.0251793, -0.007414109, 0.0258993, 0.00929838
 117497690, -0.0355236, -0.02272084, 0.001819025, 0.009299311
 117553717, 0.01994345, 0.01313418, -0.003228954, 0.01022807
 117602969, -0.02212033, -0.05782275, 0.03179396, 0.009298753
 117657707, 0.004663728, 0.02224893, -0.03726467, 0.01022863
 117707698, 0.0002376348, -0.0611156, 0.06398824, 0.009298753
 117757798, -0.00644756, 0.009266675, -0.01512767, 0.009299497
 117812655, 0.006836501, -0.04396071, 0.03777451, 0.01023086
 117862613, -0.01059567, -0.03340568, 0.0007774676, 0.009295776
 117917698, 0.002264, -0.002109834, -0.01002871, 0.01022863
 117967910, -0.00649705, -0.0714117, 0.04380325, 0.009298753
 118017807, -0.006492019, 0.0189737, -0.05267982, 0.009298567
 118072623, -0.005647796, -0.06941452, 0.04623907, 0.01022937
 118122675, -0.007937278, 0.000390742, -0.03207465, 0.009298195
 118179238, -0.01105999, -0.02745724, -0.001515473, 0.01022863
 118228027, -0.004611478, -0.04566009, 0.01162133, 0.009299311
 118282905, -0.02016925, 0.01179205, -0.05714334, 0.01022826
 118332658, -0.005021592, -0.06866132, 0.04115397, 0.00930024
 118387688, -0.02808492, 0.01969244, -0.07127584, 0.01022751
 118437707, -0.006019059, -0.05281659, 0.03245853, 0.009298196
 118487705, -0.02722533, 0.01349249, -0.04048948, 0.009298753
 118542634, -0.01462352, -0.01655544, 0.007629368, 0.01022863
 118592658, -0.02428424, -0.01897573, -0.0004368853, 0.009298753
 118642872, -0.02443511, 0.01875413, -0.02367106, 0.009298753
 118697708, -0.01318662, -0.03726435, 0.02658799, 0.01022844
 118747706, -0.03829213, 0.03299732, -0.05032397, 0.009298938
 118803014, -0.008526329, -0.03502668, 0.03448161, 0.01022919
 118852999, -0.0378911, 0.01512594, -0.03203057, 0.009298195
 118902988, -0.006647516, -0.0113862, 0.01938219, 0.009298568
 118957929, -0.02651968, -0.01094974, 0.009030476, 0.01022881
 119007711, -0.02446724, 0.01687252, -0.01303514, 0.009298752
 119062630, -0.007296375, -0.03306335, 0.03698853, 0.01022863
 119112622, -0.0341113, 0.01396419, -0.02447773, 0.009300427
 119162607, -0.001237488, -0.02535515, 0.03033164, 0.009297079
 119217702, -0.02713334, -0.008548429, 0.005994263, 0.01022863
 119267820, -0.01485651, 0.003458397, -0.001725125, 0.009298753
 119322621, -0.009352778, -0.03374147, 0.03362799, 0.01022863
 119372659, -0.02960965, 0.0115204, -0.01863829, 0.009300427
 119422630, -0.002190199, -0.03658907, 0.0370029, 0.009297079
 119479238, -0.02965062, -0.00846353, -0.007303796, 0.01022863
 119528054, -0.0106047, -0.009188801, 0.009977324, 0.009299682
 119582635, -0.01208599, -0.03190678, 0.03124491, 0.0102264
 119632855, -0.02923833, 0.01422506, -0.02163992, 0.009300055
 119687705, -0.003681401, -0.0358093, 0.04070141, 0.01022863
 119737708, -0.03552924, 0.005976564, -0.02236237, 0.009299682
 119787721, -0.004349981, -0.01160263, 0.01514333, 0.009298195
 119842689, -0.02652999, -0.0135509, 0.008787725, 0.01022826
 119892639, -0.02320264, 0.01688319, -0.01061072, 0.009300613
 119947925, -0.006713521, -0.02248787, 0.03449111, 0.01022826
 119997700, -0.03748324, 0.0179807, -0.02081157, 0.009297266
 120047798, -0.004631059, -0.008092209, 0.01824381, 0.009298753
 120102976, -0.02769922, -0.003524128, 0.008952025, 0.01022863
 120153682, -0.02700832, 0.02077387, -0.01462974, 0.009298753
 120207700, -0.01552211, -0.01254789, 0.01437071, 0.010229
 120257810, -0.03582782, 0.01678049, -0.01981363, 0.009300613
 120307944, -0.01044467, -0.0009481218, 0.009091182, 0.009299496
 120362994, -0.02510162, -0.002898658, 0.006124029, 0.01022565
 120415309, -0.02574461, 0.01613855, -0.01643667, 0.009767409
 120465363, -0.01246018, -0.02307659, 0.03106253, 0.009295033
 120520262, -0.03701607, 0.00875055, -0.01171765, 0.01022881
 120570217, -0.008639191, -0.009602007, 0.01765662, 0.009300613
 120625558, -0.02869286, -0.0172675, 0.01857098, 0.01022658
 120676690, -0.0216983, 0.01239931, -0.005825722, 0.009300241
 120725599, -0.009893288, -0.03235423, 0.03894562, 0.00929745
 120780385, -0.03279954, 0.01360637, -0.004611978, 0.01025466
 120830236, 0.00252684, -0.02147145, 0.02978728, 0.009273461
 120885237, -0.03120801, -0.005886124, -0.0003758799, 0.01022825
 120935236, -0.008754588, 0.01366658, -0.009915927, 0.009298009
 120985345, -0.009737005, -0.02738404, 0.02884256, 0.00929894
 121040256, -0.02892188, 0.03156933, -0.03012239, 0.0102303
 121090364, 0.005335363, -0.02714633, 0.04070321, 0.009298195
 121145213, -0.0345773, 0.02039351, -0.02721258, 0.01022751
 121195346, 0.006768047, 0.008892784, 0.008107659, 0.009300613
 121245231, -0.02582386, 0.0002048645, 0.002152933, 0.009296893
 121300723, -0.006372794, 0.04164355, -0.003997088, 0.01022937
 121351302, -0.003391911, -0.01091752, 0.03796909, 0.009301171
 121405353, -0.03050383, 0.04840961, -0.02613051, 0.01022621
 121455377, 0.005795572, 0.01098242, 0.01553196, 0.009298938
 121505364, -0.03444841, 0.02251516, -0.01123789, 0.009297824
 121560235, 0.002722606, 0.05146222, -0.007848561, 0.01022863
 121610366, -0.01738206, -0.01214745, 0.0370231, 0.009299311
 121665278, -0.0207282, 0.06343161, -0.02454811, 0.01022807
 121715354, -0.000439935, -0.005777541, 0.03699592, 0.009298753
 121765253, -0.03403113, 0.02921724, -0.01692437, 0.009301729
 121820399, 0.0007723287, 0.03310758, -0.001239671, 0.01022714
 121870368, -0.02864151, -0.02140858, 0.02426848, 0.009297266
 121925690, -0.01346314, 0.06138851, -0.04452096, 0.01022863
 121976698, -0.01224115, -0.03209474, 0.03962404, 0.009299311
 122025489, -0.02890112, 0.04610076, -0.038503, 0.009298195
 122080229, -0.009752948, -0.002112296, 0.01841062, 0.01022696
 122130399, -0.02704261, -0.009208538, 0.00742755, 0.009300427
 122185211, -0.01795576, 0.04457263, -0.0341771, 0.01022863
 122235279, -0.01359604, -0.04545576, 0.04750228, 0.009303217
 122290256, -0.03047135, 0.05027366, -0.04773648, 0.01022491
 122340222, -0.007680516, -0.03162901, 0.03902198, 0.009298009
 122390308, -0.02976343, 0.02361635, -0.02286766, 0.009298567
 122445357, -0.01198554, 0.00553149, 0.008272879, 0.01022881
 122495221, -0.02123122, -0.02783585, 0.02357875, 0.009298752
 122551339, -0.02391567, 0.04496902, -0.04042526, 0.01022863
 122600465, -0.01097427, -0.05005569, 0.04965086, 0.009298939
 122650467, -0.02865336, 0.04796196, -0.0481615, 0.009298567
 122705233, -0.008472433, -0.03792429, 0.05220041, 0.01022863
 122755218, -0.02632038, 0.01771026, -0.02424237, 0.009300613
 122810232, -0.01427862, 0.006164628, 0.007532138, 0.01022733
 122860237, -0.01765488, -0.02833343, 0.02519823, 0.009299682
 122910216, -0.02206636, 0.03822585, -0.02616707, 0.009298381
 122965252, -0.01336463, -0.0509843, 0.04833641, 0.01022751
 123015250, -0.02987796, 0.05513803, -0.06183629, 0.009298753
 123070318, -0.01423833, -0.04927289, 0.05002506, 0.01022863
 123120363, -0.03106009, 0.03757579, -0.04195173, 0.009299311
 123176794, -0.01665819, -0.00878148, 0.02238639, 0.01022919
 123225574, -0.02282253, -0.007563171, 0.005450345, 0.009297637
 123276804, -0.01679829, 0.03092251, -0.01099531, 0.009300426
 123330242, -0.01341802, -0.0386594, 0.04082502, 0.01022826
 123385228, -0.0244028, 0.05387178, -0.04864912, 0.01022789
 123435360, -0.008043714, -0.04555786, 0.04672755, 0.009298193
 123485265, -0.02240636, 0.02904495, -0.03787563, 0.009299311
 123535234, -0.006841057, -0.02223028, 0.02290339, 0.00929838
 123590247, -0.01434564, -0.01339794, 0.01069181, 0.01022807
 123640229, -0.01329864, 0.01652559, -0.0179216, 0.009301357
 123695221, -0.008206155, -0.05304697, 0.031293, 0.01022751
 123745223, -0.01322712, 0.02206116, -0.05024225, 0.009297636
 123795426, -0.01236046, -0.06038907, 0.04348625, 0.009298753
 123850551, -0.005597292, -0.003564815, -0.02731888, 0.01022863
 123900486, -0.02481263, -0.02640866, 0.01191281, 0.009302659
 123955205, -0.0001887564, -0.04487554, 0.02840714, 0.01022509
 124005232, -0.02035198, 0.01339819, -0.0335577, 0.009298938
 124060258, -0.01137135, -0.06234093, 0.05096766, 0.01022863
 124110366, -0.01145962, 0.02185212, -0.03049407, 0.009298195
 124160218, -0.02213544, -0.0381493, 0.0385542, 0.009298752
 124215248, -0.005024548, -0.006390178, -0.001347591, 0.01022919
 124265242, -0.0321129, 0.00953684, -0.01331794, 0.009298753
 124320284, -0.01300595, -0.03857455, 0.04086682, 0.01022919
 124370260, -0.0244978, 0.03453452, -0.03615352, 0.009297637
 124420229, -0.02328038, -0.0399421, 0.04317484, 0.009299311
 124476707, -0.01366558, 0.01652806, -0.01861116, 0.01023049
 124525488, -0.03573291, 0.0005393224, -0.001647761, 0.009298381
 124580224, -0.01040827, -0.021478, 0.01973214, 0.0102264
 124630254, -0.03029397, 0.02718657, -0.0408504, 0.009302472
 124685227, -0.01953087, -0.03244676, 0.02389823, 0.01022509
 124735207, -0.01555843, 0.01048184, -0.01897924, 0.009302844
 124785446, -0.02776367, -0.01276401, 0.007798685, 0.009294662
 124840229, -0.005693201, -0.02489398, 0.014416, 0.01022863
 124890246, -0.03389671, 0.01288933, -0.02369417, 0.009299682
 124940185, 0.000271266, -0.0467088, 0.0401456, 0.009297823
 124995220, -0.03609815, 0.01202165, -0.0308513, 0.01022863
 125045206, -0.005045696, -0.04331457, 0.03931287, 0.009300984
 125100722, -0.02676395, -0.008511921, -0.008761743, 0.0102264
 125151319, -0.01625302, -0.01350645, 0.01018727, 0.00930266
 125200564, -0.01298331, -0.03435519, 0.02113722, 0.009294848
 125255230, -0.0291042, 0.001614953, -0.02234771, 0.01022844
 125305218, -0.0009220612, -0.04786473, 0.03705677, 0.009299496
 125360243, -0.0367259, 0.004577644, -0.02466615, 0.01022788
 125410235, 0.001119781, -0.03729233, 0.03998532, 0.009299498
 125460352, -0.03125658, -0.009151552, -0.007114851, 0.009298381
 125515238, -0.009728726, -0.01263297, 0.009591568, 0.010229
 125565187, -0.01352898, -0.03309826, 0.02589137, 0.009298009
 125620198, -0.02794053, 0.01073743, -0.01833417, 0.01022881
 125670237, 0.00368126, -0.03800184, 0.03877226, 0.009301171
 125725624, -0.03505919, 0.005124656, -0.01638431, 0.01022714
 125776999, 0.001703625, -0.01224837, 0.01761925, 0.009298381
 125825491, -0.02445087, -0.0127833, 0.004344409, 0.009299496
 125880236, -0.01577011, 0.0155238, -0.01780574, 0.01022621
 125930240, -0.002950497, -0.03159408, 0.02979288, 0.009300613
 125985265, -0.03286518, 0.01573858, -0.01706701, 0.01023439
 126035248, 0.003466457, -0.013856, 0.01913285, 0.009292245
 126085227, -0.02787329, -0.005882584, -0.004986693, 0.00929894
 126140229, -0.01213065, 0.01141638, -0.01102253, 0.01022919
 126190232, -0.002277961, -0.02235514, 0.02233744, 0.009299682
 126245262, -0.0284211, 0.01897991, -0.02206841, 0.01022937
 126295253, 0.003196327, -0.008079452, 0.02057953, 0.009296894
 126345240, -0.02394814, 0.001270317, -0.0005670167, 0.009298568
 126400485, -0.008986013, 0.02082334, -0.01182639, 0.01022881
 126450682, -0.00211457, -0.01716652, 0.02498505, 0.00929801
 126505241, -0.02828301, 0.02484991, -0.02046021, 0.01022937
 126560265, 0.0005860033, 0.0002768727, 0.01377633, 0.010229
 126610219, -0.02258475, -0.005341815, 0.01105835, 0.009298567
 126660246, -0.01529804, 0.02149462, -0.00695465, 0.009297823
 126710204, -0.00669026, -0.01791232, 0.02185803, 0.009299496
 126765377, -0.03435422, 0.01834968, -0.01948622, 0.01022863
 126815328, -0.008074155, -0.01085244, 0.02286378, 0.009299682
 126870400, -0.02619041, -0.004530415, -0.001584031, 0.01023123
 126920203, -0.02263191, 0.01177475, -0.0193001, 0.00929615
 126970403, -0.01585691, -0.02170439, 0.01272627, 0.009308052
 127025632, -0.03224996, 0.01045279, -0.01984642, 0.01021952
 127076929, -0.008934706, -0.01305396, 0.02095918, 0.009297824
 127130188, -0.02193661, -0.006345075, 0.003395111, 0.01022826
 127185228, -0.01578588, 0.01291913, -0.01167197, 0.010229
 127230206, -0.007179338, -0.02113304, 0.01893275, 0.008372969
 127285383, -0.01779713, 0.01839401, -0.01796467, 0.01022695
 127335212, -0.001909957, -0.01288203, 0.02563565, 0.009295592
 127390414, -0.0118396, 0.003615517, 0.01010706, 0.01022919
