TimeUS,CAN,CAE,CAD,CAe
 44105436, -0.01416814, -0.0006127309, 0.001689786, 0.007776919
 44208674, -0.008113161, -0.0004800395, 0.001149966, 0.008231256
 44259662, -0.0172268, -0.001234295, 0.00213143, 0.009487332
 44314930, -0.01889911, -0.001596321, 0.002164958, 0.01022919
 44365057, -0.01734309, -0.001383318, 0.002962074, 0.009298195
 44419543, -0.01883648, -0.001112787, 0.002720864, 0.01023235
 44469593, -0.01735265, -0.00147324, 0.002865797, 0.009295591
 44519570, -0.01698196, -0.0006641626, 0.00201437, 0.009298195
 44574565, -0.01895905, -0.001954628, 0.002341211, 0.01022863
 44624522, -0.01737712, -0.001295661, 0.002143839, 0.009298753
 44679576, -0.0192703, -0.001348691, 0.002831327, 0.010229
 44729557, -0.01709089, -0.001149362, 0.001809467, 0.009298381
 44784582, -0.0196387, -0.001535043, 0.003063019, 0.01022863
 44834568, -0.01726678, -0.001015103, 0.002053872, 0.009298569
 44884513, -0.01714816, -0.0009707438, 0.001993061, 0.00929987
 44939941, -0.01908256, -0.001398633, 0.002554526, 0.0102277
 44989945, -0.01769151, -0.001146561, 0.00211547, 0.009299311
 45044519, -0.01899393, -0.001229384, 0.001863074, 0.01022844
 45094542, -0.01750001, -0.001515898, 0.002207421, 0.009298381
 45149569, -0.01896255, -0.001729408, 0.002430526, 0.010229
 45199526, -0.01728344, -0.0008480459, 0.003015609, 0.009298196
 45254679, -0.01938538, -0.001411182, 0.002447762, 0.010229
 45304498, -0.01733019, -0.001201296, 0.002875536, 0.009298567
 45354560, -0.01710912, -0.001315924, 0.00192298, 0.009298569
 45409540, -0.01923095, -0.001434978, 0.002477222, 0.01022881
 45459541, -0.01739931, -0.001665508, 0.002101545, 0.009301729
 45514957, -0.01967989, -0.0008390239, 0.003340597, 0.01022565
 45564930, -0.01775527, -0.001980529, 0.001842325, 0.009298753
 45619506, -0.01914745, -0.001846814, 0.002740654, 0.01022863
 45669527, -0.01738989, -0.001093621, 0.002519299, 0.009298753
 45719525, -0.01756122, -0.001033041, 0.002245044, 0.009299682
 45774510, -0.01935516, -0.00120242, 0.002403555, 0.01022751
 45824565, -0.01727921, -0.001133451, 0.00275635, 0.009299311
 45874525, -0.01709858, -0.00139605, 0.002644637, 0.00929838
 45929554, -0.01914252, -0.0009711554, 0.002718779, 0.01022937
 45979521, -0.01734029, -0.0007116477, 0.00213046, 0.009298567
 46029552, -0.0177119, -0.001839224, 0.001725783, 0.00929801
 46079516, -0.01754913, -0.001403315, 0.001243544, 0.009298939
 46134528, -0.019189, -0.00114077, 0.00182447, 0.01022863
 46184573, -0.01734257, -0.001363473, 0.00277372, 0.009299869
 46234554, -0.01792671, -0.001487536, 0.002663109, 0.009297637
 46289934, -0.01950742, -0.001380843, 0.003120175, 0.01022863
 46339928, -0.01723537, -0.001391986, 0.002451624, 0.009298753
 46394522, -0.0194703, -0.0007823888, 0.002780078, 0.0102303
 46444523, -0.01729412, -0.0007388166, 0.002654487, 0.009297078
 46499659, -0.01891184, -0.0008811766, 0.002341504, 0.01022863
 46549529, -0.02097465, -0.002604814, 0.004252376, 0.009298752
 46599530, -0.01186044, 0.0009813781, -0.0004000246, 0.009298753
 46654722, -0.02321134, -0.002885557, 0.004288354, 0.01022863
 46704561, -0.01487112, 0.0003834984, 0.001329492, 0.009299126
 46759550, -0.02245011, -0.00306108, 0.003164754, 0.01022826
 46809527, -0.01639497, -0.0001311066, 0.00160928, 0.009298753
 46859657, -0.01794803, -0.001613483, 0.003224722, 0.009300984
 46914957, -0.02007097, -0.0009448433, 0.00166754, 0.0102264
 46964958, -0.01727161, -0.0009775092, 0.00295128, 0.009298753
 47014945, -0.01771563, -0.0007270749, 0.002773657, 0.009298754
 47064963, -0.0211325, -0.002349756, -5.612936E-06, 0.009298567
 47119531, -0.0175596, -0.001637726, 0.001653888, 0.01022881
 47169542, -0.015447, -0.0009516557, 0.001760331, 0.009299311
 47219675, -0.01566991, 0.002631386, 0.003523876, 0.009298381
 47274541, -0.02022037, -0.004970797, 0.004657427, 0.01022993
 47324666, -0.023463, 0.00175927, 0.002028853, 0.009298753
 47374539, -0.01716989, 0.001442478, 0.001728576, 0.009300984
 47424531, -0.01138237, -0.002976855, 0.00309321, 0.009296522
 47479575, -0.02265228, 0.001227905, 0.0005902646, 0.01022863
 47529570, -0.01374766, -0.00693321, 0.004868116, 0.009299683
 47579566, -0.02064891, -0.00588151, 0.002414507, 0.009297824
 47634564, -0.01920597, 0.001201625, 0.005331197, 0.01022863
 47684547, -0.02456235, -0.003826061, -0.002314545, 0.009299869
 47739985, -0.02078647, 0.0023971, 0.00277627, 0.01022751
 47789964, -0.01823438, -0.007135166, 0.0004681573, 0.009298753
 47839957, -0.0156895, -0.0006901245, 0.006607942, 0.009298754
 47894586, -0.01654259, 0.003533939, -0.001783882, 0.01022863
 47944564, -0.02170053, 0.005436379, -0.02692625, 0.009302844
 47999558, -0.03407251, -0.02237839, 0.02177283, 0.01022454
 48049549, 0.0004389465, -0.02677498, -0.01130242, 0.009298753
 48104558, -0.03282714, -0.007338175, -0.02415046, 0.01022863
 48154585, -0.02715789, -0.03791133, 0.02702811, 0.009298753
 48204525, -0.005930626, -0.03055547, 0.02287634, 0.009298754
 48254766, -0.05120665, 0.008792669, -0.02694625, 0.009297638
 48309533, -0.02812068, -0.04086071, 0.03974638, 0.01022974
 48359553, -0.02429488, -0.006213881, -0.002265587, 0.009298753
 48409558, -0.02478982, -0.0103723, -0.02553631, 0.009315862
 48464991, -0.02010637, -0.05816345, -0.002319601, 0.01021245
 48514943, -0.05297395, 0.0208038, -0.1093444, 0.009298567
 48565084, -0.01233773, -0.09751079, 0.03791504, 0.00929838
 48615093, -0.03631496, -0.03942725, -0.06132878, 0.009298381
 48669590, -0.01612887, -0.08620597, 0.0137006, 0.01022863
 48719574, -0.03653803, -0.08806742, -0.003221398, 0.009298939
 48769580, -0.01141586, -0.04519361, -0.0376258, 0.009299125
 48824528, -0.02462256, -0.1099472, 0.0364166, 0.01022807
 48874585, -0.02798299, -0.02884415, -0.04659641, 0.009298752
 48924572, -0.006085796, -0.07634529, 0.03734525, 0.009299311
 48979537, -0.04280017, -0.05705038, 0.01410896, 0.01022881
 49029561, -0.001499035, -0.02632281, -0.006923406, 0.00929801
 49079562, -0.03041247, -0.0839835, 0.04390836, 0.009298567
 49129572, -0.009803571, -0.002813701, -0.03711068, 0.009299497
 49184553, -0.01133788, -0.08277384, 0.05349601, 0.01022974
 49234542, -0.01771631, -0.03117602, -0.02982434, 0.009297079
 49284547, 0.002429143, -0.03698775, -0.01032168, 0.009299311
 49339966, -0.006252086, -0.07289436, -0.005368167, 0.01022881
 49389964, 0.005396779, 0.01416974, -0.09311461, 0.009298008
 49439961, 0.006604313, -0.08408036, 0.009023178, 0.009298753
 49494560, 0.002741879, 0.005564726, -0.1204988, 0.01022863
 49544564, 0.02117933, -0.04326825, -0.05489859, 0.009298753
 49594528, 0.006334738, -0.02450274, -0.09263252, 0.009298938
 49649670, 0.02401244, 0.01186351, -0.1465155, 0.01022844
 49699554, 0.02007166, -0.05664507, -0.06336313, 0.009298567
 49749546, 0.009835814, 0.0426612, -0.1682996, 0.009298938
 49799564, 0.02822689, -0.04692956, -0.07127991, 0.009299311
 49854748, 0.002498268, 0.0165092, -0.1601056, 0.01022807
 49904576, 0.03020777, -0.0003932542, -0.1232167, 0.009299311
 49954661, 0.002436098, -0.0238151, -0.1200703, 0.009298195
 50009674, 0.005419544, 0.02693077, -0.1885251, 0.01022919
 50059553, -0.0009486096, -0.04956811, -0.09868839, 0.009298195
 50109569, -0.03229625, 0.009731973, -0.1751619, 0.009298753
 50164950, -0.0385208, -0.02675018, -0.150981, 0.01022863
 50214948, -0.06037361, -0.03895684, -0.1336849, 0.009298753
 50265084, -0.08322465, -0.01182713, -0.1682181, 0.009300427
 50319546, -0.09984457, -0.06011922, -0.1309656, 0.01022695
 50369664, -0.1162623, -0.03487036, -0.1487298, 0.009298567
 50419552, -0.1317424, -0.04254765, -0.1401112, 0.009298938
 50469565, -0.1345644, -0.05736107, -0.1119034, 0.009299125
 50524536, -0.1697868, -0.03882737, -0.1503699, 0.01022881
 50574531, -0.1657352, -0.05125608, -0.1104514, 0.009298195
 50624552, -0.1634174, -0.04380953, -0.1150353, 0.009298753
 50679546, -0.201412, -0.03598334, -0.1272614, 0.010229
 50729583, -0.1761354, -0.04612057, -0.09517907, 0.009299311
 50779556, -0.1916543, -0.01685236, -0.1082867, 0.009300055
 50834533, -0.2070524, -0.02818458, -0.0960428, 0.01022695
 50884557, -0.1843536, -0.01664263, -0.0830422, 0.009298009
 50937227, -0.2017555, -0.001073012, -0.08709774, 0.009763876
 50987261, -0.183098, -0.008252148, -0.06593686, 0.009299311
 51037220, -0.1921171, 0.009635169, -0.07489865, 0.009298567
 51092171, -0.1971498, 0.009358099, -0.06864186, 0.01022826
 51142220, -0.1775794, 0.005458212, -0.05414129, 0.009298753
 51192178, -0.1670204, 0.01526042, -0.05187665, 0.009298752
 51242280, -0.1576959, 0.00846482, -0.03935063, 0.009298753
 51297228, -0.1610729, 0.008366114, -0.03582568, 0.01022863
 51347246, -0.1303403, 0.004745443, -0.01236571, 0.009298569
 51397210, -0.1130589, -0.003477052, 0.02527142, 0.009298753
 51452653, -0.1116429, -0.001607797, 0.04777118, 0.0102303
 51502525, -0.08883655, -0.006135764, 0.06443977, 0.009297079
 51552463, -0.08097187, -0.01135292, 0.07953101, 0.009298939
 51607242, -0.08065972, -0.007715377, 0.09582806, 0.01022919
 51657191, -0.06181047, -0.01507583, 0.1000745, 0.009298195
 51707214, -0.06075651, -0.01814924, 0.09914759, 0.009299125
 51757262, -0.05048281, -0.02029002, 0.1088688, 0.009298939
 51812192, -0.05229455, -0.02813196, 0.1265151, 0.01022807
 51862188, -0.0348997, -0.02441698, 0.1129069, 0.009298753
 51912236, -0.03626581, -0.03240385, 0.1243226, 0.009298568
 51967260, -0.03626327, -0.03143829, 0.1259847, 0.01022937
 52017246, -0.02590479, -0.02825056, 0.1080614, 0.009298939
 52067231, -0.03064519, -0.03357567, 0.1116082, 0.009298008
 52122193, -0.02158619, -0.03027431, 0.1152409, 0.01022863
 52172276, -0.02120088, -0.02918791, 0.1047644, 0.00929894
 52222281, -0.0170144, -0.02579902, 0.1123092, 0.009300427
 52277464, -0.01530821, -0.02086606, 0.1087555, 0.01022677
 52329002, -0.01673442, -0.02575371, 0.09911284, 0.009298753
 52377478, -0.01045976, -0.0137842, 0.08618003, 0.009298752
 52432220, -0.01001537, -0.01330682, 0.09538537, 0.01022733
 52482217, -0.01064484, -0.01122366, 0.07274362, 0.009302473
 52537275, -0.004581141, 0.00241462, 0.07088192, 0.01022621
 52582283, -0.003368765, -0.006328389, 0.0712462, 0.008368878
 52637214, -0.006521, 0.01442267, 0.06482587, 0.01022956
 52687248, 0.0002222637, 0.01022496, 0.06275257, 0.00929801
 52737219, -0.0004902387, 0.01295151, 0.06068905, 0.009298568
 52792168, -0.00649497, 0.02867662, 0.054166, 0.01022714
 52842212, -0.0006705187, 0.00818895, 0.06459405, 0.009298753
 52892263, -0.007324971, 0.02604736, 0.0483657, 0.009301914
 52947209, -0.004045699, 0.03024969, 0.06154937, 0.01022788
 52997207, 0.001429804, 0.01571179, 0.06335756, 0.009298753
 53047249, -0.006581075, 0.04876537, 0.03524458, 0.009299125
 53102497, 0.0008096785, 0.03507124, 0.062296, 0.01022584
 53152685, -0.00630795, 0.03573156, 0.05631921, 0.009300054
 53207169, -0.00572155, 0.07116774, 0.06997407, 0.01022937
 53262204, 0.01340238, 0.01682091, 0.1041219, 0.010229
 53312222, -0.01570996, 0.05461082, 0.04748898, 0.009297637
 53367212, 0.005307015, 0.04441778, 0.05876367, 0.01023012
 53422270, -0.003331996, 0.01644744, 0.06132444, 0.01022714
 53472231, -0.01380056, 0.07069538, 0.0176231, 0.009298939
 53522170, 0.01378719, 0.01864653, 0.07781608, 0.009298752
 53577518, -0.0195867, 0.04893857, 0.05826416, 0.01022919
 53628915, 0.004329924, 0.05961342, 0.0604576, 0.009298195
 53682310, -0.01215534, 0.02579957, 0.08292165, 0.01022863
 53732255, -0.01756335, 0.07719865, 0.007089552, 0.009296893
 53782294, -0.01332399, 0.02656956, 0.0546504, 0.009301171
 53837224, -0.03556693, 0.06243858, 0.05594898, 0.01022789
 53887452, -0.008240281, 0.06063948, 0.06975789, 0.009300241
 53942259, -0.01932398, 0.02674812, 0.1168213, 0.01022788
 53992294, -0.02403609, 0.08540911, 0.07007468, 0.009298195
 54047237, 2.414E-05, 0.02717115, 0.1445727, 0.01022863
 54097260, -0.02184175, 0.05108038, 0.1071166, 0.009299496
 54147310, 0.004714794, 0.05595158, 0.09521069, 0.009301914
 54202678, -0.01358633, 0.01708684, 0.1061218, 0.01022454
 54252498, -0.01347898, 0.07201976, 0.0316431, 0.009298939
 54307357, 0.005400436, 0.01855672, 0.07428677, 0.01023105
 54357325, -0.006667625, 0.03407895, 0.02886292, 0.009296336
 54407263, 0.01780782, 0.04556775, 0.02965557, 0.009303031
 54462285, 0.02332816, 0.005087237, 0.06461688, 0.01022435
 54512224, 0.01182492, 0.04711354, 0.001436333, 0.00929987
 54567237, 0.04352859, 0.01754864, 0.03001683, 0.01022751
 54617256, 0.02790178, -0.001071871, 0.01023177, 0.009300055
 54672320, 0.05537187, 0.04542387, -0.01941228, 0.01022733
 54722327, 0.06278666, -0.0001411615, 0.0265876, 0.009298753
 54772325, 0.04442441, 0.01990464, -0.004383331, 0.009299311
 54828907, 0.0766986, 0.04835203, -0.03152914, 0.01022807
 54877504, 0.05145144, 7.416517E-05, -0.01034492, 0.009298753
 54932260, 0.05993243, 0.04475545, -0.0316193, 0.01022751
 54982342, 0.06314176, 0.05364978, -0.0154348, 0.009303031
 55037252, 0.06132785, 0.02836695, 0.005830242, 0.01022547
 55087229, 0.05771808, 0.07483521, -0.01221354, 0.009297266
 55137239, 0.05487274, 0.0568864, 0.03421263, 0.00930024
 55192232, 0.05106614, 0.05298274, 0.0189776, 0.01023012
 55242289, 0.04964966, 0.1072839, -0.01304943, 0.009297452
 55297335, 0.05937109, 0.07000814, 0.03562044, 0.01022863
 55347250, 0.04389741, 0.05577882, 0.04165361, 0.009298568
 55397244, 0.05020131, 0.1178665, 0.01053852, 0.009299683
 55452514, 0.05843155, 0.06238901, 0.03307188, 0.0102277
 55502554, 0.04781587, 0.07309736, 0.0005425694, 0.009298752
 55557303, 0.05951968, 0.1126397, -0.01893529, 0.01022919
 55607256, 0.05825125, 0.03724797, 0.0217878, 0.009298939
 55662263, 0.05395568, 0.07546736, 0.007369237, 0.01022788
 55712245, 0.06709895, 0.0876033, 0.01652531, 0.009298753
 55762296, 0.05360938, 0.02309689, 0.03336786, 0.009298753
 55817304, 0.06992699, 0.07382653, -0.007025836, 0.01022863
 55867205, 0.05489787, 0.05834042, 0.005682879, 0.009298939
 55922251, 0.0650925, 0.01454706, 0.04382316, 0.01022695
 55972303, 0.05537906, 0.04793134, -0.03028007, 0.009303587
 56022261, 0.05971092, 0.03022535, -0.005356002, 0.009294105
 56077542, 0.05840371, 0.007922514, -0.003208773, 0.0102316
 56128797, 0.04320074, 0.05620202, -0.01213632, 0.009297637
 56182236, 0.06886309, -0.001486726, 0.04984874, 0.01022881
 56237259, 0.03700021, 0.01886911, -0.005653597, 0.01022788
 56287287, 0.05935395, 0.04504493, -0.02240608, 0.009298753
 56337261, 0.03407589, -0.01774974, 0.005931532, 0.009300612
 56392259, 0.06019138, 0.04150025, -0.02725389, 0.01022714
 56442322, 0.03801789, 0.01087606, 0.006937011, 0.00929838
 56492464, 0.04915899, -0.006354022, 0.0330094, 0.009299312
 56547254, 0.03653675, 0.03259938, -0.0137959, 0.01022807
 56597262, 0.04818976, -0.00746745, 0.02146659, 0.009298938
 56652530, 0.04654784, 0.0004713556, 0.004375626, 0.01022956
 56702686, 0.03055246, 0.03441919, -0.02257809, 0.009297637
 56752496, 0.03991073, -0.02133152, 0.01996109, 0.009297265
 56807285, 0.01440721, 0.01382012, -0.02704357, 0.01023384
 56857276, 0.0387108, 0.007532556, -0.0007078362, 0.009295592
 56912460, 0.01821161, -0.02913691, 0.01935909, 0.01022826
 56962307, 0.01438518, 0.02687005, -0.03935397, 0.00929838
 57017272, 0.0209297, -0.02898838, 0.01775972, 0.01022863
 57067226, 0.00645296, -0.01661569, 0.003307744, 0.009298939
 57117252, 0.01457722, 0.007194597, -0.02013316, 0.009298753
 57172291, 0.01085044, -0.04413613, 0.01912766, 0.01022863
 57222249, 0.001535964, 0.001811291, -0.05111396, 0.009301171
 57277730, 0.003588915, -0.03368096, -0.02223211, 0.01022621
 57328930, 0.0007965465, -0.03777723, -0.01960948, 0.009298567
 57377509, -0.005111706, -0.01048384, -0.0438511, 0.009301171
 57432313, -0.00666069, -0.05185726, 0.004243446, 0.0102303
 57482263, -0.007459398, -0.02513314, -0.02797311, 0.009295034
 57537203, -0.01859964, -0.03399302, -0.02325246, 0.01022844
 57587244, -0.004230476, -0.05195709, 0.004662601, 0.009298567
 57642259, -0.0289098, -0.02637701, -0.03158983, 0.01022881
 57692246, -0.00645173, -0.04436315, 0.005822825, 0.009297823
 57742309, -0.02117071, -0.03500938, -0.01217829, 0.009299683
 57797214, -0.01913645, -0.02934683, -0.01500344, 0.01022863
 57847239, -0.01624963, -0.04838251, 0.01253523, 0.009299125
 57902561, -0.03015077, -0.02478608, -0.02120136, 0.01022826
 57952742, -0.01856969, -0.03388793, -0.002249766, 0.009298567
 58007248, -0.02517335, -0.0400846, -0.005311835, 0.01022956
 58057270, -0.02395828, -0.0145024, -0.02301846, 0.009298009
 58107270, -0.01886162, -0.03314263, 0.0002903264, 0.009299311
 58162245, -0.02982393, -0.02482599, -0.01347939, 0.01022807
 58212293, -0.02398684, -0.01212635, -0.01391716, 0.009298939
 58267312, -0.02966906, -0.02739573, 0.005614656, 0.01022844
 58317221, -0.02985605, -0.01183908, -0.006238418, 0.009299868
 58367225, -0.02771443, -0.01011092, -0.003540107, 0.009298382
 58422282, -0.02729104, -0.01939525, 0.002259792, 0.01022844
 58472225, -0.02537029, 0.001040191, -0.01689965, 0.009298939
 58528959, -0.01941762, -0.01233673, 0.009351528, 0.01022807
 58577519, -0.0170923, -0.01098443, 0.006853725, 0.009300799
 58632222, -0.01884278, 0.006570151, -0.01087432, 0.01024165
 58682336, -0.004912042, -0.008188618, 0.008318275, 0.00928592
 58737228, -0.0177521, 0.005407265, -0.001331953, 0.01022621
 58787223, -0.008706531, 0.01105879, -0.000251949, 0.009299869
 58837263, -0.009673098, 0.003904183, 0.01052412, 0.009300799
 58892223, -0.01471743, 0.01190205, 0.005025035, 0.01022603
 58942329, -0.01008935, 0.01340064, -0.001280504, 0.009298195
 58997271, -0.01030124, 0.01011441, 0.006837622, 0.01022937
 59047316, -0.01135391, 0.01278129, 0.002345925, 0.009298196
 59097327, -0.009944655, 0.01265362, 0.0005262131, 0.009300428
 59152505, -0.01230555, 0.0110001, 0.01154484, 0.01022658
 59202510, -0.009162882, 0.01163233, 0.006537759, 0.009298939
 59257256, -0.00916831, 0.01214453, 0.0110008, 0.01022863
 59307282, -0.008865789, 0.003846103, 0.01340012, 0.009298753
 59357297, -0.007708599, 0.0112384, 0.003139418, 0.009298938
 59412259, -0.005128493, 0.0101631, 0.009216387, 0.01022844
 59462237, -0.004328172, -0.001212812, 0.01942183, 0.009298753
 59517234, -0.005533073, 0.01279121, 0.008828246, 0.01022974
 59567220, -0.001655542, 0.004867993, 0.01198529, 0.009298754
 59622289, -0.003535714, 6.819531E-05, 0.01047855, 0.01022881
 59672249, -0.002742831, 0.01004949, 0.003662347, 0.00929745
 59722251, -0.001917231, -0.002034882, 0.01513479, 0.009299311
 59777492, -0.0009185297, 0.002364719, 0.006736593, 0.01022807
 59828910, -0.002292153, 0.008898391, -0.0001524297, 0.009300984
 59882295, -0.002086054, -0.004619162, 0.01622591, 0.01022658
 59937288, -0.00235307, 0.0009993222, 0.006776264, 0.01022863
 59987252, -0.001945203, 0.005637839, 0.004193333, 0.009298568
 60037239, -0.002026395, -0.01174584, 0.02023161, 0.009298568
 60087247, -0.001791655, 0.002474819, 0.003390162, 0.009299126
 60142314, -0.003896212, -0.007174198, 0.009672738, 0.01022881
 60192248, -0.001154136, -0.0164226, 0.01489495, 0.009300613
 60247290, -0.004185088, -0.002269519, -0.004402242, 0.0102264
 60297230, -0.003603427, -0.01428865, 0.01284733, 0.009299126
 60347231, -0.0004580796, -0.01675366, 0.01077549, 0.009298381
 60402557, -0.006852188, -0.005632748, -0.005529571, 0.01022882
 60452561, 7.793118E-05, -0.02287817, 0.01083207, 0.009298568
 60507252, -0.005445602, -0.0169986, 0.0007724973, 0.01022844
 60557225, -0.003444971, -0.008011331, -0.001935849, 0.009298939
 60612249, -0.001916025, -0.0290043, 0.01240454, 0.01022881
 60662221, -0.005406737, -0.0163987, -0.001292314, 0.009298567
 60712312, -0.004294588, -0.01638507, 0.001757001, 0.00929801
 60767299, -0.000111263, -0.02450138, 0.008492873, 0.0102303
 60817336, -0.006389111, -0.004185407, -0.003250896, 0.00929801
 60872308, -0.009675079, -0.03008514, 0.01587637, 0.01023049
 60922304, -0.01060604, -0.01069165, 0.00339549, 0.009299126
 60977569, -0.02626945, -0.01220982, 0.0001388165, 0.01022621
 61029026, -0.02379072, -0.01747644, 0.008790019, 0.009298567
 61077504, -0.03433944, -0.003821128, -0.002383091, 0.009298939
 61132288, -0.04538762, -0.01317833, 0.005361792, 0.01022863
 61182267, -0.03540865, -0.008673085, 0.01033527, 0.009302285
 61237507, -0.05132839, -0.002925635, 0.01081318, 0.01022509
 61287243, -0.04583925, -0.004740914, 0.005229877, 0.009299869
 61337220, -0.04362419, -0.003611651, -0.002925695, 0.009297636
 61392240, -0.06125445, 0.002685698, -0.007559125, 0.01022863
 61442262, -0.04809576, -0.008881286, 0.004920071, 0.009297638
 61497280, -0.06504118, 0.001031052, 0.002341839, 0.01022993
 61547299, -0.05778826, 0.002909397, 0.01061302, 0.009300055
 61602557, -0.06561887, -0.007985406, 0.02427338, 0.01022714
 61652503, -0.07236614, 0.01298912, 0.005745905, 0.009298753
 61702508, -0.06136243, -0.002578708, 0.0185303, 0.009298753
 61757228, -0.08656239, -0.00279487, 0.01260781, 0.01023086
 61807297, -0.06793442, 0.01119928, 0.002024067, 0.009296522
 61862243, -0.0761819, -0.003246961, 0.01205269, 0.01022863
 61912306, -0.0719135, 0.007612673, 0.001775067, 0.009298753
 61967255, -0.06924185, 0.01153813, 0.003684918, 0.01022881
 62017238, -0.05603405, -0.0005778452, 0.01606809, 0.009298567
 62067277, -0.05813666, 0.01858148, -0.001760024, 0.009298939
 62122240, -0.0427415, 0.01304342, 0.009179748, 0.01022844
 62172305, -0.04068824, 0.008426752, 0.01266063, 0.009298753
 62229011, -0.03048209, 0.02770827, 0.001440264, 0.01022863
 62277512, -0.02162199, 0.002226601, 0.01577361, 0.009305448
 62328937, -0.01649706, 0.02164843, 0.0007459007, 0.009292058
 62382294, -0.007558682, 0.02442239, 0.003470415, 0.01022881
 62437260, -0.007757493, 0.003062402, 0.02926571, 0.01022844
 62487279, 0.00101951, 0.03296945, -0.004203961, 0.00929894
 62537233, -0.003224444, 0.007719361, 0.01322267, 0.009298752
 62587284, 0.004100968, 0.01069568, 0.006918322, 0.009298754
 62642299, 0.005321739, 0.03009789, -0.0122753, 0.01022881
 62692234, 0.009626123, 0.006483917, 0.00929027, 0.009298381
 62747222, 0.01590415, 0.0165069, 0.0002132657, 0.01022919
 62797262, 0.00976237, 0.0223411, -0.002324937, 0.009300055
 62852531, 0.01684055, 0.005280824, 0.01350489, 0.01022658
 62902773, 0.007974824, 0.0228041, -0.003971198, 0.009298938
 62952533, 0.01474036, 0.01380741, 0.007056428, 0.009298753
 63007257, 0.01389462, 0.004857108, 0.01616807, 0.01022863
 63057316, 0.007951929, 0.02174109, -0.01070176, 0.009300427
 63112438, 0.006906146, 0.00780277, 0.002314132, 0.01022733
 63162341, 0.007473317, 0.002757136, 0.009202321, 0.009298568
 63217491, -0.004856728, 0.03061576, -0.01509439, 0.01022881
 63267367, 0.01550471, -0.005916421, 0.03937529, 0.009298568
 63317475, -0.01634512, 0.03156504, -0.00339896, 0.009299497
 63372368, 0.01091206, 0.0176532, 0.0151004, 0.01022788
 63422564, -0.002999111, -0.008212602, 0.02283962, 0.009298755
 63477788, -0.0143665, 0.04054748, -0.02230179, 0.01022863
 63529120, 0.007368525, -0.01299902, 0.03742855, 0.009298568
 63577795, -0.02797191, 0.01880189, -0.01164905, 0.009298753
 63632491, -0.002234343, 0.02246592, -0.005965638, 0.01023588
 63682349, -0.0202445, -0.03317234, 0.04138732, 0.009291499
 63737492, -0.02593612, 0.04487834, -0.04243694, 0.01022844
 63787352, -0.005512968, -0.03996292, 0.05490954, 0.009298939
 63842540, -0.04377411, 0.01345153, -0.02280448, 0.01022863
 63892494, -0.006762265, -0.003115277, -0.0005873535, 0.009299869
 63942382, -0.03745321, -0.0366802, 0.0152826, 0.009300056
 63997402, -0.02767457, 0.02576588, -0.04851251, 0.01022733
 64047342, -0.02257521, -0.06418584, 0.04979998, 0.009299311
 64102763, -0.04121504, 0.0334959, -0.03908227, 0.01022658
 64152645, -0.00794846, -0.03593525, 0.04410459, 0.009302659
 64202647, -0.04792845, 0.01346117, -0.02466567, 0.00929522
 64257377, -0.01223333, 0.0200895, -0.01423661, 0.01022863
 64307368, -0.03542536, -0.02647068, 0.0235406, 0.009298752
 64362342, -0.02149962, 0.06373959, -0.04879089, 0.01022863
 64412329, -0.00544552, -0.02583628, 0.04102552, 0.009302472
 64467360, -0.03506869, 0.05091334, -0.03752551, 0.01022677
 64517375, 0.01354261, 0.01999623, 0.01490872, 0.009296893
 64567516, -0.03810444, 0.009818023, -0.002225518, 0.009298753
 64622347, 0.004758958, 0.05888353, -0.02600167, 0.01022863
 64672335, -0.01493688, -0.02263857, 0.03423769, 0.009299125
 64728982, -0.01895795, 0.06851885, -0.04830911, 0.01022919
 64777724, 0.00695788, -0.01511248, 0.03625339, 0.00929838
 64832369, -0.03570285, 0.02809522, -0.01909913, 0.01024109
 64882502, 0.01014068, 0.02874375, -0.006087589, 0.009285549
 64937343, -0.03023208, -0.02642221, 0.02655576, 0.0102303
 64987346, -0.01282713, 0.05670034, -0.04344006, 0.009297451
 65037353, -0.01111737, -0.04521209, 0.05344665, 0.009302286
 65092364, -0.0419886, 0.03378814, -0.04075873, 0.01022491
 65142357, -0.002759576, -0.01378267, 0.01816483, 0.009298753
 65192300, -0.04963588, -0.01916477, 0.01683192, 0.009299869
 65247406, -0.0214944, 0.01897026, -0.01284256, 0.010229
 65297398, -0.03546347, -0.05996853, 0.04845142, 0.009297637
 65352685, -0.05403691, 0.01128807, -0.04931512, 0.01022826
 65402681, -0.02329528, -0.05455619, 0.0363182, 0.009301171
 65457350, -0.06480777, -0.04283546, -0.008256234, 0.01022621
 65507368, -0.02346327, -0.01106752, -0.02094098, 0.009300984
 65557489, -0.04669147, -0.0746209, 0.04060015, 0.009296522
 65612424, -0.04164057, 0.001590968, -0.05094455, 0.01022863
 65662423, -0.02209344, -0.07401087, 0.05068193, 0.009298753
 65717408, -0.05504277, -0.01678805, -0.02877356, 0.01022844
 65767321, -0.005759039, -0.03003292, 0.02741268, 0.009298937
 65822349, -0.04776816, -0.05010939, 0.02207401, 0.01022863
 65872379, -0.01861496, 0.01179616, -0.02848033, 0.009300984
 65922405, -0.02752501, -0.06415323, 0.04755469, 0.009296522
 65977680, -0.03467688, 0.01983997, -0.03682663, 0.01022863
 66028979, -0.005540347, -0.0469122, 0.04837273, 0.009301357
 66082350, -0.04826355, -0.001119052, -0.01475108, 0.0102277
 66132356, 0.0004587976, -0.0004954333, 0.01156386, 0.009304333
 66182390, -0.04600019, -0.03370567, 0.02971761, 0.009293173
 66237363, -0.01830097, 0.03023395, -0.02297473, 0.01022881
 66287348, -0.02733764, -0.05001092, 0.04884531, 0.009296707
 66342358, -0.04131163, 0.02923912, -0.03960758, 0.01022881
 66392353, -0.0178318, -0.02095409, 0.0310996, 0.009298938
 66447407, -0.04641823, -0.009599099, 0.01139213, 0.010229
 66497388, -0.02099992, 0.03131685, -0.01890086, 0.009298195
 66547485, -0.03708824, -0.03983504, 0.0393946, 0.009298753
 66602649, -0.03208521, 0.03970469, -0.02698531, 0.01022863
 66652661, -0.02945237, -0.04068551, 0.05371968, 0.009299682
 66707368, -0.03955296, 0.004426124, -0.009099419, 0.01023105
 66757394, -0.03044142, 0.006566587, -0.002824521, 0.009295405
 66807385, -0.03364037, -0.03563824, 0.02579056, 0.009298753
 66862497, -0.0363118, 0.03126853, -0.03074002, 0.01022956
 66912351, -0.03144476, -0.04734587, 0.04361232, 0.00929838
 66967374, -0.03781902, 0.01375274, -0.02841674, 0.01022993
 67017398, -0.03186627, -0.005988993, 0.004973019, 0.009297637
 67067361, -0.02652606, -0.03041681, 0.02625598, 0.009298009
 67122353, -0.03766221, 0.02491562, -0.03276074, 0.01022993
 67172343, -0.01934349, -0.05391192, 0.05462515, 0.009297451
 67228992, -0.03630067, 0.008401775, -0.02662008, 0.01023012
 67277681, -0.01675688, -0.01581643, 0.01283733, 0.009297266
 67332376, -0.02705065, -0.04243709, 0.02572053, 0.0102675
 67382343, -0.02473139, 0.01920195, -0.0306297, 0.009259884
 67437439, -0.01422576, -0.05510781, 0.0529215, 0.01022974
 67487435, -0.03473348, 0.009236818, -0.02662933, 0.009297637
 67537515, -0.003352871, -0.02016633, 0.02439044, 0.009298567
 67592335, -0.02742418, -0.02929728, 0.02849884, 0.01022863
 67642495, -0.01025126, 0.03121829, -0.02079021, 0.009299125
 67692304, -0.01473932, -0.04142368, 0.06315935, 0.009298568
 67747475, -0.02661472, 0.02516744, -0.01217175, 0.01022863
 67797412, -0.006407191, -0.01429815, 0.03349107, 0.009299311
 67853042, -0.02958237, -0.01323421, 0.007097316, 0.01022844
 67902667, -0.007826009, 0.03798054, -0.0273458, 0.009298753
 67957501, -0.02333798, -0.04132876, 0.05251217, 0.01022826
 68007342, -0.01652323, 0.05148763, -0.0236285, 0.009298752
 68057354, -0.01873487, -0.02685018, 0.05570929, 0.009298753
 68112414, -0.01773128, 0.02513289, -0.009615943, 0.01022863
 68162389, -0.02479291, 0.02091461, -0.009604303, 0.009300613
 68217370, -0.0181073, -0.02158468, 0.02365303, 0.01022826
 68267312, -0.02144815, 0.04693252, -0.04021463, 0.009303961
 68322349, -0.03368724, -0.03385254, 0.03086541, 0.01022193
 68372395, -0.007098021, 0.01929434, -0.03178935, 0.00930024
 68422410, -0.03823061, -0.01202214, -0.001476802, 0.009298753
 68477686, -0.004820626, -0.01920143, -0.00484828, 0.01022714
 68529123, -0.0329745, 0.02508307, -0.03672768, 0.009298754
 68582339, -0.01552732, -0.04741568, 0.04334434, 0.01022974
 68632373, -0.02188776, 0.02880266, -0.0442312, 0.009314003
 68682389, -0.02046045, -0.03152216, 0.03494133, 0.009282387
 68737310, -0.0102494, 0.007433178, -0.01495414, 0.01022863
 68787348, -0.02988176, 0.01413087, -0.02327686, 0.009298753
 68842394, -0.005200713, -0.0248342, 0.01555987, 0.01022863
 68892375, -0.03172523, 0.04762992, -0.05790368, 0.009301171
 68942400, -0.007823932, -0.0349372, 0.03534424, 0.009296522
 68997385, -0.02898054, 0.03747421, -0.04315182, 0.01023086
 69047329, -0.01357261, -0.001819463, 0.01008059, 0.009302658
 69102679, -0.01780435, -0.000576844, -0.0002070446, 0.01022286
 69152646, -0.02808701, 0.039684, -0.03400687, 0.009298752
 69207396, -0.006663132, -0.02787096, 0.03957946, 0.01022788
 69257367, -0.03057659, 0.04926196, -0.03891908, 0.009298938
 69307351, -0.008041907, -0.01974035, 0.04016576, 0.009298567
 69362332, -0.02886472, 0.01770974, -0.005030516, 0.01022881
 69412362, -0.01541324, 0.01974666, 0.0007198669, 0.009299125
 69463097, -0.01608732, -0.02181832, 0.03193565, 0.009368123
 69517934, -0.02675631, 0.03831369, -0.02371133, 0.01022844
 69570504, -0.007020676, -0.02656526, 0.04340472, 0.009763877
 69621696, -0.03246722, 0.01212496, -0.0100724, 0.009299496
 69675359, -0.006027828, 0.007479168, 0.0004340219, 0.01022919
 69730206, -0.02187561, -0.02922739, 0.02947094, 0.01022751
 69780224, -0.02454927, 0.03301378, -0.02984651, 0.009300984
 69830200, -0.01121407, -0.03121087, 0.03401557, 0.009297079
 69880374, -0.03098787, 0.01116605, -0.01868986, 0.009299496
 69937706, -0.0134364, 0.005766288, -0.01122347, 0.01069152
 69987797, -0.02133601, -0.03180581, 0.0248218, 0.009302659
 70040191, -0.02088244, 0.02939481, -0.0288988, 0.009764992
 70090339, -0.01516204, -0.03515785, 0.04725381, 0.009298381
 70140236, -0.02307007, 0.008562558, -0.009537447, 0.009297824
 70195688, -0.01730998, 0.0002897468, 0.009979803, 0.0102277
 70245469, -0.01445598, -0.03707605, 0.03536605, 0.009300428
 70300343, -0.02164556, 0.02665706, -0.03334929, 0.01022807
 70350357, -0.01150906, -0.03558414, 0.04234193, 0.009298754
 70400216, -0.02000532, 0.003651702, -0.01616333, 0.009303217
 70455233, -0.01462173, 0.001964649, -0.009115236, 0.01022416
 70505233, -0.01851193, -0.04183654, 0.02718261, 0.009298382
 70560225, -0.0200674, 0.02460274, -0.02890259, 0.01022919
 70610234, -0.01962395, -0.04921095, 0.04623797, 0.009300427
 70665357, -0.02465112, 0.002408342, -0.01527484, 0.01022602
 70715226, -0.02497492, -0.001997342, 0.004504666, 0.009299311
 70765227, -0.02142552, -0.03337384, 0.02381006, 0.00929522
 70821683, -0.03216919, 0.03043411, -0.03465606, 0.01023179
 70870244, -0.02058, -0.04501045, 0.04387794, 0.009299311
 70927713, -0.04059128, 0.01551309, -0.03264516, 0.0106904
 70977717, -0.02499516, -0.002458816, 0.00391962, 0.009300613
 71027670, -0.03156648, -0.02172015, 0.01448352, 0.009296521
 71077697, -0.03224426, 0.03205681, -0.02906086, 0.009298753
 71130194, -0.02951413, -0.04140984, 0.04548673, 0.009763692
 71185222, -0.04325689, 0.02831628, -0.02491227, 0.01022881
 71235176, -0.02294564, -0.01469992, 0.02892092, 0.00930024
 71290215, -0.04087265, -0.02149668, 0.0190954, 0.0102303
 71340351, -0.03481292, 0.02677729, -0.02218023, 0.009298939
 71390225, -0.03052625, -0.05000886, 0.0463556, 0.009295777
 71445239, -0.04247109, 0.01912006, -0.03288718, 0.01022863
 71495242, -0.0246778, -0.01959565, 0.003191949, 0.009298753
 71547691, -0.03122156, -0.01726244, 0.0004469017, 0.009764249
 71602698, -0.02343925, 0.02466788, -0.0300347, 0.01022751
 71655361, -0.01524725, -0.02796251, 0.02172335, 0.009767411
 71705212, -0.02108797, 0.01241691, -0.01994112, 0.009299312
 71755177, -0.005687891, 0.009918345, -0.01265972, 0.009298009
 71810225, -0.01280805, -0.009988837, 0.009927412, 0.01022528
 71860211, -0.007110856, 0.03026383, -0.02289198, 0.009299312
 71915237, -0.008131439, 0.004947579, 0.02562311, 0.01022974
 71965227, -0.006309703, 0.005746804, 0.01653842, 0.009296893
 72015374, -0.01089712, 0.03122769, -0.00859443, 0.009298753
 72070463, -0.008435596, 0.001893659, 0.02268964, 0.01022956
 72121728, -0.01009006, 0.02543514, -0.002696197, 0.009297824
 72175193, -0.01370462, 0.02284412, 0.00169986, 0.01022919
 72225215, -0.009693995, 0.003766905, 0.02162092, 0.009299126
 72275235, -0.01711575, 0.030896, -0.001805446, 0.009303403
 72330358, -0.01934945, 0.01104671, 0.009657103, 0.01022528
 72380231, -0.01653329, 0.01801602, -0.003385531, 0.009296708
 72435241, -0.02264484, 0.01927171, 0.002086418, 0.01023105
 72485239, -0.0174298, 0.004634078, 0.01595771, 0.00929987
 72537699, -0.02369132, 0.01995775, 0.001291981, 0.009759041
 72587692, -0.02131877, 0.002872201, 0.01281932, 0.009298381
 72642706, -0.0254783, 0.003674109, 0.0005586334, 0.01022919
 72692656, -0.02913443, 0.01184559, -0.004175415, 0.009298011
 72748145, -0.02460745, -0.00647889, 0.0237888, 0.01023123
 72798108, -0.03470385, 0.01207711, -0.0001526815, 0.009296149
 72848409, -0.02912292, -0.006399272, 0.0223495, 0.009300241
 72902721, -0.03859229, -0.00513037, 0.0181717, 0.01023142
 72952759, -0.03778326, 0.01171803, -0.005684889, 0.009295963
 73008152, -0.03495017, -0.01548618, 0.0265879, 0.01022919
 73060229, -0.04185116, 0.003735016, 0.003927307, 0.009762947
 73110239, -0.03728142, -0.002906135, 0.01273044, 0.009298938
 73162936, -0.03673262, -0.01844364, 0.02220616, 0.009763693
 73212703, -0.0401249, 0.01242151, -0.009608272, 0.009298753
 73265498, -0.03556867, -0.01589409, 0.01651174, 0.009765365
 73320366, -0.03686409, -0.001480373, -5.59726E-05, 0.01022714
 73372714, -0.03767661, 0.01198197, -0.01000053, 0.009764062
 73424224, -0.02920003, -0.0178516, 0.02025891, 0.009299682
 73473074, -0.02851954, 0.02141621, -0.003540706, 0.009297451
 73527696, -0.03546546, -0.01604926, 0.01972653, 0.01025429
 73577696, -0.02210733, -0.004804579, -0.0008917951, 0.009273832
 73630220, -0.03280993, 0.01064415, -0.01407677, 0.009767966
 73685232, -0.02159161, -0.01684696, 0.01351711, 0.01022342
 73737677, -0.0272063, 0.007992551, -0.009388275, 0.009764249
 73787700, -0.02046316, 0.0008090135, 0.001586431, 0.009298195
 73837953, -0.01116653, -0.01257765, 0.01408064, 0.009298938
 73893024, -0.02164147, 0.0150337, -0.005938038, 0.01022881
 73942906, -0.01237186, -0.01233012, 0.02228509, 0.009299496
 73997705, -0.01249223, -0.0002039812, 0.001693846, 0.01022807
 74048079, -0.02069195, 0.00587159, -0.009948758, 0.009298195
 74097676, -0.01370072, -0.01471218, 0.004264863, 0.009298568
 74150462, -0.01510982, 0.001137725, -0.01290934, 0.009764063
 74205358, -0.02023879, -0.003914171, -0.008919632, 0.01022956
 74255199, -0.01415498, -0.01964666, 0.009306481, 0.009298938
 74310376, -0.01978769, -0.003407307, -0.007605424, 0.01022826
 74360222, -0.02028481, -0.01325042, 0.004685574, 0.00929931
 74410209, -0.01823518, -0.01333645, 0.002126826, 0.00929987
 74462703, -0.02236797, -0.005573615, -0.01512465, 0.009761831
 74517705, -0.02107746, -0.01887925, -0.001951746, 0.01022881
 74567708, -0.01910419, -0.007252173, -0.004359178, 0.009297823
 74624225, -0.01932286, -0.0009488628, -0.000910004, 0.01022863
 74673016, -0.01626619, -0.01236257, 0.008215902, 0.009299311
 74724182, -0.01844401, 0.003736178, -0.00816419, 0.009298382
 74777705, -0.01530524, -0.004222794, 0.008188126, 0.01023123
 74830227, -0.01619398, -0.009875216, 0.01786597, 0.009763504
 74880526, -0.01935378, 0.0113679, -0.009181526, 0.009300613
 74932657, -0.0160116, -0.007203032, 0.001755075, 0.0097609
 74982707, -0.01902604, 0.001751079, -0.0001238777, 0.009297451
 75035213, -0.01746206, 0.01223366, 0.003757005, 0.009763504
 75090510, -0.0179775, -0.009786115, 0.0167193, 0.01023142
 75140211, -0.01700361, 0.01066174, -0.001678651, 0.009300055
 75195214, -0.01708741, 0.008344672, -0.0004102977, 0.01022826
 75245216, -0.01360858, -0.01096955, 0.0101305, 0.009298566
 75300352, -0.01168007, 0.01914383, -0.01798018, 0.01022881
 75348144, -0.01328801, -0.01113793, 0.009775777, 0.008829909
 75402690, -0.00625887, 0.005579554, -0.004654043, 0.01022863
 75455219, -0.0136811, 0.01708036, -0.01441794, 0.009763691
 75505219, -0.008089166, -0.01774186, 0.02149217, 0.009303402
 75557710, -0.009784628, 0.02157768, -0.01761548, 0.009759598
 75607698, -0.01618645, -0.008630443, 0.008750419, 0.009298753
 75662678, -0.003427889, -0.0005936446, -0.005486654, 0.01022807
 75712679, -0.0143496, 0.02149688, -0.02365131, 0.00930024
 75767694, -0.008796938, -0.01821401, 0.0212069, 0.01022882
 75817915, -0.004574263, 0.01680336, -0.01818256, 0.00929708
 75867694, -0.01500085, 0.005018136, 0.001066388, 0.009298752
 75925237, -0.003207683, -0.01268115, 0.02664042, 0.01070324
 75975383, -0.01408316, 0.03117291, -0.01789358, 0.009292988
 76030200, -0.01353, -0.00499086, 0.0200715, 0.01022844
 76080202, 0.005020489, 0.008617242, 0.008703362, 0.00929522
 76132927, -0.02822972, 0.0283093, -0.01320417, 0.009764062
 76182677, 0.006685725, -0.009639492, 0.02547526, 0.009298754
 76232817, -0.02501101, 0.04065483, -0.02700922, 0.009298194
 76287661, -0.008551636, 0.006815452, 0.01600623, 0.01022863
 76337803, -0.00738088, 0.01308543, 0.008456805, 0.009299312
 76392708, -0.0320841, 0.03903711, -0.006032958, 0.01023067
 76442934, -0.005559266, -0.01433529, 0.03259206, 0.009298753
 76497700, -0.03852606, 0.03800637, -0.01642172, 0.01022677
 76547853, -0.02645675, 0.005113144, 0.00939585, 0.009299124
 76597715, -0.02788907, 0.003686243, 0.002426744, 0.009298938
 76653002, -0.04995785, 0.02578386, -0.01440291, 0.01022788
 76702696, -0.02032725, -0.02889023, 0.03230184, 0.009299497
 76757831, -0.05647065, 0.02397208, -0.03101802, 0.01022733
 76807941, -0.02147308, -0.0158364, 0.02966903, 0.009298939
 76857690, -0.04003067, -0.00958395, 0.002216028, 0.009299868
 76912723, -0.0428342, 0.01074675, -0.01095014, 0.01022733
 76962725, -0.01643468, -0.03305785, 0.04186678, 0.009298939
 77017684, -0.05031303, 0.008880276, -0.01265661, 0.01022826
 77070507, -0.0178376, -0.01382323, 0.01196072, 0.009764063
 77121696, -0.03442932, -0.02554235, 0.01478829, 0.009302286
 77170224, -0.03154866, 0.01016517, -0.01791499, 0.009297823
 77225230, -0.02144678, -0.03408777, 0.03185631, 0.01022881
 77275501, -0.03869199, -0.004461644, -0.005457212, 0.009298754
 77330189, -0.01937175, -0.006169881, 0.00313719, 0.01022695
 77380259, -0.02177954, -0.04005485, 0.03048228, 0.009297452
 77435233, -0.0294864, 0.01322284, -0.02337136, 0.01023365
 77485512, -0.009354721, -0.03271142, 0.03674277, 0.009297266
 77536418, -0.03064033, -0.01010238, 0.001820702, 0.009298939
 77590214, -0.01443959, 0.004980173, -0.008743202, 0.01023067
 77640382, -0.02219867, -0.04648979, 0.03640131, 0.009294476
 77695498, -0.03015132, 0.01726883, -0.03400082, 0.01023049
 77745501, -0.01096428, -0.02811969, 0.03362107, 0.00929894
 77795201, -0.03083987, -0.007378126, -0.0005335915, 0.009298568
 77847699, -0.01594738, 0.004361467, -0.005299458, 0.009761645
 77902722, -0.03003722, -0.04511214, 0.01985824, 0.01022733
 77952686, -0.0207823, 0.02510615, -0.04879221, 0.00930117
 78007725, -0.02525335, -0.02948589, 0.03008929, 0.01022733
 78060220, -0.01815971, -0.01626495, 0.01390165, 0.009762389
 78110194, -0.01581884, 0.02251072, -0.02486504, 0.00930303
 78163059, -0.01646978, -0.04551343, 0.0424498, 0.009759599
 78213062, -0.007366145, 0.03652739, -0.04586774, 0.009302845
 78267702, -0.02123666, -0.02296191, 0.02861719, 0.01022454
 78317672, 0.0008234766, 0.01246098, -0.006856609, 0.00929894
 78368131, -0.01495796, 0.01703255, -0.00899651, 0.009299125
 78422723, -0.002369294, -0.0138497, 0.01281064, 0.01023123
 78472925, 0.0009624688, 0.03823682, -0.03738993, 0.009295592
 78527700, -0.01734832, -0.01297147, 0.02659215, 0.01022863
 78577686, 0.01691449, 0.002186163, 0.0009334013, 0.009299312
 78632735, -0.02174127, 0.01183679, -0.02001929, 0.01022807
 78682702, 0.003439896, -0.04138121, 0.03754528, 0.009299495
 78732655, -0.01464853, 0.01056875, -0.03665704, 0.00929801
 78787943, -0.01480588, -0.04337429, 0.02143261, 0.010229
 78837702, -0.004608683, -0.02508007, -0.005892828, 0.009300427
 78893088, -0.02473331, -0.01717032, -0.01937876, 0.01022658
 78945359, -0.005301366, -0.05970906, 0.02823833, 0.00976834
 78995214, -0.0251707, -0.008631732, -0.03340481, 0.009296892
 79047701, -0.01458908, -0.04579223, 0.02172646, 0.009761645
 79097682, -0.01448122, -0.03155544, 0.007233711, 0.00929894
 79152690, -0.02465123, -0.01652955, -0.004149978, 0.01022789
 79202685, -0.005496916, -0.05101185, 0.04226979, 0.009299125
 79257799, -0.02634512, -0.01353033, -0.01588694, 0.01022807
 79307675, -0.01226431, -0.02456302, 0.01222466, 0.009298753
 79357682, -0.01218464, -0.02549143, 0.009112575, 0.009299496
 79412703, -0.02556701, 0.005060972, -0.01547756, 0.01022788
 79462929, -0.008052461, -0.02296575, 0.02573266, 0.009298753
 79517688, -0.02589852, 0.01008824, -0.002324829, 0.01022974
 79567703, -0.01400832, 0.005109709, 0.007430616, 0.009297636
 79617683, -0.01595478, -0.00263455, 0.01417055, 0.009300428
 79673024, -0.02678859, 0.02925424, -0.01140086, 0.01022695
 79724222, -0.007471684, 0.0003923585, 0.01857956, 0.009299124
 79777924, -0.02251053, 0.01724284, -0.002060931, 0.01022882
 79827682, -0.01764319, 0.02525721, -0.007100279, 0.009298195
 79882716, -0.01197247, 0.001528719, 0.01038745, 0.01023086
 79932672, -0.02189889, 0.02531596, -0.01386679, 0.009298196
 79982693, -0.007580445, 0.01183333, 0.008587282, 0.00929801
 80037680, -0.01476693, 0.01242305, 0.003976797, 0.01022826
 80087652, -0.01455633, 0.02826663, -0.007124145, 0.009298195
 80140519, -0.00610581, 0.005155722, 0.01313659, 0.009769085
 80195238, -0.01304881, 0.01452108, -0.003880024, 0.01022788
 80245197, -0.005143677, 0.01826361, -0.0007658288, 0.00929429
 80295401, -0.003106959, -0.00193728, 0.008130388, 0.009301914
 80350231, -0.008444656, 0.01758016, -0.008898854, 0.01022881
 80400434, -0.0003677345, 0.004570223, 0.00841157, 0.009295406
 80455244, -0.00025398, 0.003023, 0.005236366, 0.01022863
 80505702, -0.00287005, 0.01463991, -0.005129362, 0.009298568
 80557905, 0.004166896, 0.002891474, 0.008771265, 0.009763691
 80607675, -0.004665676, 0.007328379, 0.001067658, 0.009298753
 80662976, 0.001050671, 0.01191496, 0.001296827, 0.01022863
 80712685, 0.002308197, 0.002372188, 0.009834573, 0.009300614
 80768401, -0.007778255, 0.01284038, -0.005026261, 0.01022677
 80819277, -1.426408E-05, 0.009357572, -4.487118E-05, 0.009301541
 80872944, -0.008409596, 0.004980701, 0.002329604, 0.01022584
 80922729, -0.009289152, 0.007605666, 0.0002640978, 0.009297451
 80972696, -0.00732985, 0.00411249, 0.004731842, 0.009300056
 81027701, -0.0184622, 0.002366949, 0.0008310242, 0.01022863
 81077687, -0.0144117, 0.006210209, -0.003213482, 0.009299869
 81132695, -0.02123006, -0.001269039, 0.005339658, 0.01022621
 81182708, -0.02105143, 0.004090043, 0.002834488, 0.009303031
 81232675, -0.0232123, 0.002669377, 0.005470967, 0.009295591
 81287654, -0.02833023, -0.0004249499, 0.007390614, 0.01022881
 81338915, -0.0234629, 0.005930134, 0.006775227, 0.009299682
 81392713, -0.03626097, 0.003803414, 0.00684054, 0.01022881
 81442946, -0.02710493, 0.004411626, 0.006085194, 0.009297824
 81492720, -0.03511244, 0.007266555, 0.004105321, 0.009298566
 81548139, -0.03755382, 0.005802097, 0.004161947, 0.01022863
 81598142, -0.03232607, 0.01346034, -0.008549953, 0.009298753
 81652715, -0.04181861, 0.006276512, 0.002167228, 0.01023198
 81702666, -0.03199866, 0.007484541, 0.004592442, 0.009295963
 81755214, -0.04025279, 0.006825197, 0.01081311, 0.009765921
 81805192, -0.03405442, 0.000979843, 0.01675133, 0.009300056
 81860225, -0.03544251, 0.009815024, 0.001076522, 0.0102303
 81910248, -0.03593541, 0.001282483, 0.01563572, 0.009298381
 81965234, -0.02903362, 0.001605623, 0.01163227, 0.01022788
 82015248, -0.02618951, 0.008051842, 0.0002603387, 0.009297637
 82065310, -0.02776062, -0.003123376, 0.01119931, 0.009295219
 82122694, -0.02345517, 0.00483032, 0.003118892, 0.010709
 82172677, -0.03081608, 0.005174586, 0.002459916, 0.009285362
 82228265, -0.02184405, -0.002567833, 0.01046791, 0.01022658
 82278129, -0.01893233, 0.009278001, -0.006275246, 0.009298754
 82330175, -0.02344052, 0.0007064031, 0.008627441, 0.00976741
 82380239, -0.006796182, -0.005064918, 0.01601174, 0.009295219
 82435227, -0.02153477, 0.00181435, 0.001343833, 0.01023235
 82485260, -0.005644356, -0.004936778, 0.009913904, 0.009295033
 82537691, -0.008169301, -0.008596022, 0.007512129, 0.009763878
 82587679, -0.01264376, 0.003109444, -0.005646456, 0.00929838
 82642719, -0.003183736, -0.01251679, 0.01540675, 0.01023105
 82692674, -0.01281831, -0.008885821, 0.003550197, 0.009296335
 82742938, -0.008826907, -0.001315149, -0.00173841, 0.00930024
 82797718, -0.01111223, -0.01923234, 0.01463411, 0.0102277
 82848018, -0.01839369, 0.004193861, -0.01347003, 0.009298194
 82902690, -0.01237504, -0.008286118, 0.00850305, 0.01022863
 82952928, -0.01731582, -0.01024439, 0.01195688, 0.009300798
 83002679, -0.02062108, 0.009679147, -0.005322261, 0.009296708
 83057902, -0.02020304, -0.01240269, 0.0182718, 0.01022863
 83107937, -0.02789132, 0.003628232, -0.00298822, 0.009298567
 83160223, -0.02416658, 0.004585102, 0.0008303415, 0.009767597
 83215346, -0.02643541, -0.01270218, 0.02121606, 0.01022993
 83268251, -0.03244744, 0.01122939, -0.005649847, 0.009759971
 83319276, -0.02135585, -0.009548588, 0.01511304, 0.009297638
 83367670, -0.02779329, -0.006878051, 0.008101212, 0.009298754
 83425356, -0.03400277, 0.01161133, -0.007650114, 0.01069766
 83475271, -0.0202668, -0.01932122, 0.02837301, 0.009300055
 83525213, -0.03354765, 0.004610615, 0.001213986, 0.00929336
 83578100, -0.02609813, 0.00721182, 0.005213212, 0.009763504
 83629292, -0.02068732, -0.0179468, 0.02057544, 0.009298753
 83682699, -0.03838792, 0.0236538, -0.01939862, 0.0102303
 83732677, -0.01674698, -0.006413333, 0.01989362, 0.009297079
 83787695, -0.03303731, -0.0008931331, 0.01392741, 0.01022993
 83837719, -0.02874977, 0.02622581, -0.01418564, 0.009298009
 83892725, -0.01997109, -0.02134225, 0.02471319, 0.01022807
 83942696, -0.04326867, 0.02516064, -0.02893344, 0.009297267
 83992705, -0.01380036, -0.003382774, 0.006923354, 0.009300241
 84047760, -0.03362022, -0.005280116, 0.008384614, 0.01022937
 84097923, -0.02856077, 0.03060829, -0.02449641, 0.009298009
 84150181, -0.01482671, -0.02473791, 0.0331584, 0.009768899
 84205510, -0.03887894, 0.01490461, -0.01109362, 0.01022658
 84257694, -0.01281143, 0.00832874, -0.001384132, 0.00976053
 84307693, -0.02132008, -0.02025289, 0.01001039, 0.009298753
 84357696, -0.02745965, 0.02546309, -0.04003807, 0.009298753
 84412937, -0.01545973, -0.00937913, 0.009455206, 0.010229
 84462696, -0.0294498, -0.0008853753, 0.00291975, 0.00929838
 84517709, -0.0164634, 0.02733697, -0.01237946, 0.01022733
 84567678, -0.01075331, -0.02478814, 0.03110836, 0.009304147
 84617706, -0.02487429, 0.02240987, -0.01782942, 0.009295777
 84670206, -0.01110335, -0.001304965, 0.00781805, 0.009762574
 84727935, -0.01882319, -0.01559942, 0.01805179, 0.01069282
 84777659, -0.02256069, 0.02551427, -0.01710245, 0.009300797
 84832697, -0.01008083, -0.02528952, 0.03560202, 0.01022733
 84877733, -0.0282953, -0.005624109, 0.0005836235, 0.008368878
 84932692, -0.01975288, 0.001080661, -0.003129565, 0.010229
 84982704, -0.01747118, -0.03351548, 0.03207477, 0.009298195
 85037708, -0.03204656, 0.004440278, -0.01755772, 0.01022919
 85087929, -0.01611304, -0.01903189, 0.007944428, 0.00929931
 85142721, -0.0237817, -0.02852836, 0.007001239, 0.0102277
 85192672, -0.02342046, 0.004167679, -0.03152521, 0.009298753
 85242677, -0.01114735, -0.04136225, 0.02539346, 0.009299312
 85298087, -0.02428069, -0.01677754, -0.004310691, 0.01022807
 85350193, -0.01293638, -0.004808094, -0.009278864, 0.009763877
 85400276, -0.007125154, -0.03921614, 0.02394784, 0.009298752
 85453107, -0.02258564, -0.004013221, -0.02383878, 0.009763504
 85502719, -0.002904934, -0.02144613, 0.006683263, 0.009299312
 85557699, -0.01374793, -0.0270036, 0.008803772, 0.01022807
 85607675, -0.01362668, 0.008304186, -0.02052954, 0.009298753
 85660227, -0.004349394, -0.03463192, 0.02985165, 0.009767409
 85715183, -0.01480548, -0.007346556, -0.008077968, 0.01022844
 85765216, -0.007076068, 0.006680183, -0.01657892, 0.009298939
 85820219, -0.003185855, -0.03232989, 0.03217545, 0.01022565
 85870232, -0.01209712, 0.01283622, -0.01407089, 0.009301915
 85920381, 0.001036197, -0.009903092, 0.01769483, 0.009301171
 85973057, -0.005190837, -0.01385294, 0.00494515, 0.009762203
 86030208, -0.00923415, 0.01975612, -0.02648336, 0.01069245
 86080214, 0.0004336803, -0.01461143, 0.01614676, 0.009297823
 86132687, -0.008068662, 0.006663018, -0.004858401, 0.009761273
 86182720, -0.006404888, 0.02547996, -0.008428367, 0.009298381
 86232719, 0.0005509614, -0.01530081, 0.03887273, 0.009299496
 86287708, -0.01767486, 0.03541742, -0.01924872, 0.01022788
 86337690, -0.0008142198, 0.008819149, 0.006497869, 0.009300612
 86392930, -0.01221933, 0.005047537, 0.005271349, 0.01022733
 86440476, -0.01781415, 0.03832005, -0.02405762, 0.008833257
 86495227, -0.008913307, -0.004085243, 0.0264556, 0.01022863
 86545210, -0.02465563, 0.02261729, -0.00454832, 0.009302844
 86600462, -0.015986, 0.0313401, -0.006236668, 0.0102264
 86650676, -0.01925533, -0.008084868, 0.02868525, 0.009300984
 86705227, -0.03214495, 0.03624468, -0.008593233, 0.01022472
 86755229, -0.01904425, 0.014294, 0.0133721, 0.009302473
 86805347, -0.02352961, 0.003157905, 0.01934654, 0.009294847
 86860532, -0.02979451, 0.03979398, -0.01596514, 0.01022863
 86910807, -0.02212494, -0.008584923, 0.02285261, 0.009298752
 86962923, -0.0304512, 0.01728378, -0.01452926, 0.009763878
 87017674, -0.02882295, 0.02424121, -0.01692735, 0.01022826
 87067969, -0.02517924, -0.01944231, 0.02264177, 0.009298938
 87117716, -0.02557067, 0.02271917, -0.01853849, 0.009298752
 87170226, -0.03148457, -0.00597879, 0.007196328, 0.00976741
 87227685, -0.02780462, -0.01524446, 0.006831758, 0.01068985
 87277819, -0.02641899, 0.01284445, -0.03237918, 0.009298752
 87327676, -0.02646556, -0.01800359, 0.005964528, 0.009299312
 87377704, -0.01751539, -0.003130013, -0.007030882, 0.009300426
 87432722, -0.02623098, 0.003352098, -0.008973904, 0.01022956
 87482710, -0.01573934, -0.01865033, 0.01200835, 0.00929615
 87537699, -0.02055227, 0.002142407, -0.005909721, 0.01022807
 87587689, -0.0173665, -0.0001212687, 0.001719405, 0.009298753
 87637708, -0.01341003, -0.01143593, 0.01589506, 0.009299311
 87692699, -0.01983367, 0.01085275, -0.009714097, 0.01022807
 87745215, -0.01706515, -0.006813444, 0.01496051, 0.009763504
 87795242, -0.01112586, 0.0003221321, 0.01036622, 0.009301915
 87847766, -0.01809575, 0.01835742, -0.006728735, 0.009761272
 87903056, -0.01263982, -0.001832868, 0.01396708, 0.01022807
 87953094, -0.01727384, 0.01200602, 0.001385526, 0.009298752
 88002713, -0.01540816, 0.01655083, 0.001287111, 0.009301357
 88058286, -0.01396355, 0.002106243, 0.01520632, 0.01022751
 88108150, -0.01920213, 0.02422411, -0.006692478, 0.009297823
 88160231, -0.01075289, 0.01197518, 0.0161618, 0.009766296
 88215354, -0.01803206, 0.007978024, 0.02257059, 0.010229
 88267693, -0.01881938, 0.03016706, -0.007219777, 0.009760157
 88320215, -0.009462768, 0.005336164, 0.01747842, 0.009764807
 88367725, -0.01741377, 0.01179224, 0.001310957, 0.008832513
 88422723, -0.0124869, 0.02021845, -0.004066849, 0.01023012
 88475233, -0.01225795, -0.01002059, 0.0205728, 0.009766108
 88527711, -0.01736506, 0.01386653, -0.004405976, 0.009758668
 88577694, -0.0100659, 0.005818922, 0.007922947, 0.009300054
 88630220, -0.01534812, -0.009822288, 0.01850511, 0.009763691
 88680247, -0.01624458, 0.01914424, -0.01261268, 0.009302473
 88735199, -0.01683709, -0.01201545, 0.015229, 0.01022863
 88785191, -0.01953268, -0.001656287, 0.00244637, 0.009301915
 88837684, -0.02041228, 0.01013862, 0.001120936, 0.009757925
 88887674, -0.0168102, -0.02296036, 0.02742827, 0.009297637
 88940519, -0.02579893, 0.01130613, -0.00524487, 0.009767783
 88995238, -0.02297818, 0.0002579514, 0.01246785, 0.01022919
 89045203, -0.02025761, -0.02034016, 0.02540187, 0.009297636
 89100496, -0.03003633, 0.01509937, -0.009653959, 0.01022509
 89152686, -0.02296138, -0.006570204, 0.01062625, 0.009763691
 89202689, -0.0216164, -0.01322927, 0.01576797, 0.009298753
 89255231, -0.03175109, 0.02032822, -0.02009734, 0.009767409
 89305337, -0.01788286, -0.01786479, 0.02907318, 0.009298753
 89357846, -0.02937428, 0.004303473, 0.001086156, 0.009760715
 89412688, -0.02911442, 0.01437282, -0.009169552, 0.01022919
 89465511, -0.01899972, -0.01916696, 0.01471307, 0.009763689
 89515913, -0.03344827, 0.01103858, -0.02232419, 0.009298753
 89567906, -0.02185803, -0.001578665, -0.004124808, 0.00976239
 89617718, -0.0219751, -0.01577768, 0.01151045, 0.009299311
 89672813, -0.03164317, 0.01991458, -0.01969765, 0.010229
 89722918, -0.009634443, -0.01416615, 0.02200903, 0.00929838
 89778266, -0.02503677, -0.004698487, -0.002055017, 0.010229
 89829280, -0.01969128, 0.01511396, -0.01911405, 0.009298381
 89878122, -0.005390283, -0.02407012, 0.01914266, 0.009298195
 89935361, -0.02650862, 0.004919241, -0.01557372, 0.01069729
 89985546, -0.005569996, -0.001230564, 0.00337772, 0.009299498
 90037908, -0.01121059, -0.02183473, 0.01748891, 0.0097609
 90087666, -0.02272405, 0.01996772, -0.02495554, 0.009297266
 90137703, -0.006879332, -0.0294778, 0.03513509, 0.009298567
 90192724, -0.02862163, 0.00932206, -0.006189682, 0.01022881
 90242673, -0.01544339, 0.005461923, 0.005309595, 0.00930173
 90297697, -0.02604494, -0.01855669, 0.02882813, 0.01022547
 90347670, -0.02982724, 0.02340282, -0.01638273, 0.009298939
 90403078, -0.02553576, -0.01695833, 0.02414207, 0.01022844
 90450522, -0.02951306, -0.0002417259, -0.002330618, 0.008835116
 90505224, -0.02840207, 0.01228608, -0.01009562, 0.01023123
 90557680, -0.02462791, -0.02650081, 0.02432829, 0.009759786
 90607660, -0.02077508, 0.01556163, -0.02212479, 0.009299683
 90662689, -0.02672644, -0.00469328, 0.002042756, 0.0102277
 90712905, -0.01253389, -0.01224847, 0.008223932, 0.009301543
 90762689, -0.02089662, 0.01268433, -0.01214746, 0.009296708
 90817722, -0.01591751, -0.01367854, 0.01893352, 0.01022826
 90867684, -0.008097371, -0.002584393, 0.001323836, 0.009298381
 90922711, -0.01608032, 0.009827635, -0.00655201, 0.01022881
 90972706, -0.005672486, -0.01307967, 0.0212434, 0.009299125
 91025215, -0.01305775, 0.01037521, 0.0002340015, 0.009767409
 91075534, -0.006040464, 0.00093884, 0.0159233, 0.009298567
 91127588, -0.005551778, -0.005463892, 0.01336693, 0.009759598
 91183055, -0.01509139, 0.013623, -0.008040095, 0.01022863
 91235218, -0.007377356, -0.004929203, 0.02034222, 0.009763691
 91285220, -0.009113293, -0.002488106, 0.007524548, 0.009300055
 91337684, -0.01427943, 0.007120888, 0.003797071, 0.009762389
 91387966, -0.00920036, -0.01831223, 0.01714205, 0.009299498
 91440511, -0.01519414, 0.004888335, -0.008973092, 0.009763133
 91495242, -0.01463771, -0.007238809, 0.009782927, 0.010229
 91547677, -0.01092224, -0.0163911, 0.02116278, 0.009763133
 91597702, -0.01604585, 0.002290701, -0.003511137, 0.00929931
 91648220, -0.0105251, -0.01487141, 0.01827232, 0.009298195
 91702917, -0.01055067, -0.01198805, 0.007670477, 0.01023216
 91752719, -0.007022026, 0.001049882, -0.005492821, 0.009296336
 91807688, -0.007659221, -0.01985592, 0.009030131, 0.01022788
 91857685, -0.006322364, -0.009454603, -0.005244801, 0.00930117
 91912716, -0.0007543162, -0.007385635, -0.0005080421, 0.01022695
 91962708, -0.006513648, -0.02475255, 0.01530514, 0.009297636
 92012581, 0.000607212, -0.004672719, -0.0107408, 0.009299868
 92067709, -0.008310892, -0.01703784, 0.005318786, 0.01022826
 92117706, -0.004005492, -0.01823816, 0.005280295, 0.009299497
 92172695, -0.008651662, -0.006295896, -0.01434554, 0.01022714
 92225216, -0.01480853, -0.01625252, -0.002813804, 0.009783031
 92275211, -0.0081798, -0.00973173, -0.002287206, 0.009281644
 92327694, -0.01313252, -0.002512639, -0.006858812, 0.009761273
 92377933, -0.01301413, -0.01266099, 0.009402096, 0.009299497
 92430235, -0.01088275, 0.0004407429, -0.009349362, 0.00976555
 92485238, -0.01541039, 0.001019585, -0.006404304, 0.01022882
 92535360, -0.009714399, -0.008482732, 0.006955445, 0.009300055
 92585204, -0.0114725, 0.01055697, -0.01375779, 0.009298938
 92637711, -0.01286794, 0.000306171, 0.0003636417, 0.009760157
 92692906, -0.009705282, 0.004573868, 0.00246342, 0.01022788
 92742672, -0.01650078, 0.01379167, -0.007652944, 0.009299682
 92797682, -0.01190959, 0.003907599, 0.007806016, 0.01022788
 92847688, -0.01278092, 0.008682362, -0.006972617, 0.009298939
 92897716, -0.0136267, 0.01401124, -0.005917135, 0.009298567
 92950504, -0.0143272, 0.003606883, 0.008970451, 0.009767224
 93005220, -0.01550648, 0.01447992, -4.317119E-05, 0.01022547
 93057707, -0.0169102, 0.0125263, 0.002852153, 0.009763319
 93107679, -0.01613235, 0.004416191, 0.002050196, 0.009299126
 93162664, -0.01855606, 0.01886884, -0.01113485, 0.01022826
 93212705, -0.02217762, 0.005906927, 0.006945367, 0.009303588
 93262902, -0.01879367, 0.005607968, 0.001731411, 0.009293918
 93319277, -0.02232591, 0.0140313, -0.002436915, 0.01022919
 93367971, -0.02953156, -0.003974728, 0.01065084, 0.009299682
 93423211, -0.02331725, 0.003612816, -0.00135676, 0.01022714
 93473207, -0.03191383, 0.009679761, -0.008485357, 0.009298753
 93524196, -0.02830576, -0.007230936, 0.0160998, 0.009298753
 93577916, -0.031647, 0.004932936, 0.005997777, 0.01022881
 93630345, -0.03545956, 0.00434406, 0.008324781, 0.009767783
 93680221, -0.02486693, -0.009517629, 0.01199547, 0.00929894
 93737671, -0.03620652, 0.002106666, -0.006284861, 0.0106891
 93782695, -0.02499752, -0.004405312, 0.006180719, 0.008368691
 93837707, -0.02681744, -0.005560389, 0.007510406, 0.01022881
 93887688, -0.03176217, 0.003094595, 0.0004687504, 0.009298754
 93942697, -0.0244942, -0.00148908, 0.0126451, 0.01022919
 93992694, -0.02768043, -0.005639453, 0.009307727, 0.009298567
 94042906, -0.02530595, 0.00924438, -0.004645877, 0.009298566
 94097688, -0.0244469, -0.003834525, 0.009133998, 0.01022937
 94147725, -0.02651467, 0.001313873, 0.001389677, 0.00929838
 94203058, -0.02615486, 0.01254588, 0.001283117, 0.01022863
 94253144, -0.01924226, -0.001441577, 0.01550472, 0.009298381
 94307700, -0.02598277, 0.007952257, 0.008240251, 0.010229
 94357922, -0.01947598, 0.01255349, 0.004194763, 0.009299311
 94407715, -0.019179, -0.001712842, 0.0161428, 0.009298382
 94460236, -0.02523592, 0.01423176, -0.003933374, 0.009767224
 94515368, -0.01947366, 0.00636329, 0.009308415, 0.01022844
 94565226, -0.0212538, -0.000636225, 0.009736099, 0.009298381
 94620237, -0.02083273, 0.0145483, -0.004757436, 0.01022528
 94670223, -0.02319809, 0.0007928582, 0.00659924, 0.009302659
 94720208, -0.01536787, 0.004180717, -0.0003292508, 0.00929838
 94773036, -0.02187799, 0.0107083, -0.002844657, 0.009760529
 94827699, -0.01658046, -0.005580897, 0.01368866, 0.01022658
 94877721, -0.01798556, 0.009580306, -0.005889733, 0.009300054
 94934017, -0.01594998, 0.004865888, 0.006691029, 0.01022863
 94983078, -0.01530646, -0.002261044, 0.01406281, 0.009300241
 95035219, -0.01763181, 0.01259746, -0.002882868, 0.009767039
 95085199, -0.01229265, -0.002090889, 0.01238637, 0.009297266
 95137720, -0.01826849, 0.002624986, 0.003942137, 0.009762573
 95192700, -0.01508821, 0.01216001, -0.004878053, 0.0102264
