TimeUS,CAN,CAE,CAD,CAe,NAN,NAE,NAD,NAe,m10,m00,Gye
 43975576, -0.115105, 0.004159409, 0.01918028, 0.07669055, -0.0390849, -0.0001874769, 0.006055827, 0.03659264, -0.9965423, -0.04356733, 82.74064
 44175555, -0.1121515, 0.00172204, 0.01606675, 0.07425207, -0.0396676, 0.0007683417, 0.005574789, 0.03719445, -0.996554, -0.04333142, 125.6623
 44375546, -0.1123693, 0.002549099, 0.01730841, 0.07485424, -0.03983013, 0.00123302, 0.007368184, 0.03719501, -0.9965647, -0.04310374, 126.6815
 44575623, -0.113523, 0.003098288, 0.01914583, 0.07485555, -0.03943961, 0.001716852, 0.005621961, 0.03719501, -0.9965773, -0.04282935, 126.6837
 44775583, -0.1127994, 0.002683574, 0.01755224, 0.07485481, -0.03787733, 0.00124984, 0.008354453, 0.03719501, -0.9965904, -0.04257113, 126.6824
 44975562, -0.1114836, 0.002850971, 0.02012741, 0.07485481, -0.03843051, 0.001486114, 0.005611324, 0.03719558, -0.9965968, -0.04235783, 126.6824
 45175611, -0.1119596, 0.002679755, 0.01719045, 0.07485613, -0.03979736, 0.001175707, 0.005531573, 0.03719632, -0.9966087, -0.04207006, 126.6846
 45375574, -0.1139304, 0.002591116, 0.01753127, 0.07485592, -0.03990823, -0.001128112, 0.008013918, 0.03719315, -0.9966124, -0.04191766, 126.6843
 45575580, -0.1132278, 0.0006670533, 0.01994633, 0.0748537, -0.04105956, -0.0005354729, 0.007494971, 0.03719502, -0.996619, -0.04165594, 126.6805
 45775591, -0.1139002, 0.0005612268, 0.01888747, 0.07485741, -0.04171898, -1.765974E-05, 0.005064332, 0.03719502, -0.9966285, -0.04142715, 126.6868
 45975578, -0.1153413, 0.001204355, 0.01683722, 0.07485519, -0.04025152, 0.001126895, 0.005353963, 0.03719502, -0.9966351, -0.04117256, 126.683
 46175575, -0.1140372, 0.001870912, 0.01707439, 0.07485594, -0.03828177, 5.668506E-05, 0.006821928, 0.03719613, -0.9966447, -0.04093576, 126.6843
 46375571, -0.1118711, 0.001647508, 0.01910695, 0.07485519, -0.03815008, 0.001290773, 0.005641435, 0.0371965, -0.996651, -0.04072218, 126.683
 46575563, -0.1120104, 0.002360168, 0.01881454, 0.07485482, -0.03965969, 0.0008519997, 0.005962765, 0.03719278, -0.9966533, -0.04061226, 126.6824
 46775605, -0.1123374, 0.001423737, 0.01737489, 0.07485296, -0.03911529, 0.0006235864, 0.00537943, 0.03719464, -0.996657, -0.04049908, 126.6793
 46975613, -0.1125543, 0.003297231, 0.01675239, 0.07485462, -0.03905629, 0.001928693, 0.009082201, 0.03719502, -0.9966628, -0.04031103, 126.6821
 47175586, -0.1131278, 0.003379677, 0.02181251, 0.07485501, -0.0396897, 0.0008960358, 0.008083709, 0.03719557, -0.9966692, -0.04015308, 126.6827
 47375574, -0.1128168, 0.002484567, 0.01991191, 0.07485501, -0.03982884, 0.001292915, 0.006510448, 0.03719427, -0.9966797, -0.04000079, 126.6827
 47575566, -0.113028, 0.00233381, 0.01788748, 0.07485482, -0.03837883, 0.00055603, 0.003690751, 0.03719521, -0.9966874, -0.03981004, 126.6824
 47775617, -0.1132785, 0.002150526, 0.01576345, 0.07485631, -0.04084448, 0.001909164, 0.009231685, 0.0371952, -0.9966929, -0.03971257, 126.6849
 47975596, -0.1146944, 0.003284401, 0.02051045, 0.074855, -0.04056819, 0.0006549371, 0.004891567, 0.03719483, -0.9967028, -0.0395022, 126.6827
 48175570, -0.1148544, 0.002511208, 0.01716613, 0.07485482, -0.04066597, 0.00179838, 0.004721644, 0.03719502, -0.9967052, -0.03937223, 126.6824
 48375598, -0.114079, 0.003918101, 0.01604587, 0.07485502, -0.04138369, 0.002365247, 0.00526739, 0.0371952, -0.9967121, -0.03920283, 126.6827
 48575581, -0.1150858, 0.003412216, 0.01654081, 0.07485574, -0.03965637, -0.001073266, 0.00830098, 0.03719464, -0.9967172, -0.0390868, 126.684
 48775629, -0.1130636, 0.00102208, 0.01885547, 0.07485536, -0.03934308, 0.0006329659, 0.006869843, 0.03719725, -0.9967194, -0.03901404, 126.6833
 48975567, -0.114497, 0.00170327, 0.01849094, 0.07485518, -0.04049613, -0.001831604, 0.007324503, 0.03719297, -0.9967258, -0.03884364, 126.683
 49175580, -0.1136894, -0.001237966, 0.01910367, 0.07485277, -0.04043471, -0.001093682, 0.005000198, 0.03719502, -0.9967318, -0.03868266, 126.6789
 49375577, -0.1133038, 0.0004305766, 0.01597146, 0.07485556, -0.04039075, 0.001387608, 0.006084277, 0.03719557, -0.9967383, -0.03840676, 126.6837
 49575585, -0.1128898, 0.00276216, 0.01842358, 0.07485519, -0.03982371, 0.001620631, 0.006797959, 0.03719446, -0.9967492, -0.03808774, 126.683
 49775563, -0.1130877, 0.002300526, 0.01842956, 0.07485445, -0.03794542, 0.0003992584, 0.007086343, 0.03719557, -0.9967567, -0.03789882, 126.6818
 49975564, -0.111059, 0.002097058, 0.01823658, 0.074855, -0.04023888, 0.0008799343, 0.006970406, 0.03719445, -0.9967567, -0.03777067, 126.6827
 50175559, -0.1142802, 0.002159239, 0.01948333, 0.07485444, -0.04172966, 0.00072417, 0.00793891, 0.03719483, -0.9967635, -0.03752685, 126.6818
 50375608, -0.1148863, 0.002396685, 0.01915525, 0.07485519, -0.04051562, 0.001322026, 0.005160068, 0.03719576, -0.9967729, -0.03730098, 126.683
 50575613, -0.1148002, 0.003183771, 0.0164645, 0.07485519, -0.03950061, 0.0002816879, 0.005531506, 0.03719613, -0.996776, -0.03715375, 126.683
 50775578, -0.1131484, 0.00172347, 0.01767268, 0.07485464, -0.03870727, -0.0006510384, 0.005765093, 0.03719464, -0.9967781, -0.03704098, 126.6821
 50975575, -0.1119813, 0.001159029, 0.01585744, 0.0748537, -0.03998851, 0.0002863625, 0.004203368, 0.0371939, -0.9967876, -0.03678977, 126.6805
 51175558, -0.1141919, 0.001565828, 0.01513061, 0.07485368, -0.03984454, -0.0003998176, 0.007852602, 0.03719799, -0.9967943, -0.03655626, 126.6805
 51375587, -0.1131668, 0.001265688, 0.02031799, 0.07485536, -0.03908399, 0.001349959, 0.00795863, 0.03719408, -0.9967991, -0.03640542, 126.6833
 51575572, -0.11239, 0.002596568, 0.01961948, 0.07485201, -0.04091464, 4.519445E-05, 0.005377389, 0.03719278, -0.9968044, -0.03623689, 126.6777
 51775592, -0.1147115, 0.001142029, 0.01735844, 0.07485275, -0.04025196, 0.001551775, 0.006337836, 0.03719539, -0.9968095, -0.03608258, 126.6789
 51975610, -0.1141552, 0.004145323, 0.01677984, 0.07485499, -0.04124637, 0.0009013644, 0.004004046, 0.03719465, -0.9968221, -0.03584792, 126.6827
 52175594, -0.1159003, 0.002427398, 0.01595041, 0.07485521, -0.04046721, 0.002070772, 0.007192229, 0.03719502, -0.9968318, -0.03566713, 126.683
 52375621, -0.1138993, 0.002993353, 0.0197054, 0.07485519, -0.03877609, 0.0008229105, 0.007565352, 0.03719687, -0.9968405, -0.03547596, 126.683
 52575581, -0.1125502, 0.002139211, 0.01813463, 0.07485498, -0.04090609, -0.0007529784, 0.004265556, 0.03719334, -0.9968442, -0.03533864, 126.6827
 52775598, -0.1143464, -0.0001745601, 0.01541815, 0.07485389, -0.03870573, -0.0004998428, 0.004609407, 0.03719502, -0.9968445, -0.03523404, 126.6808
 52975609, -0.112625, 0.0005268846, 0.01753591, 0.07485519, -0.04061159, 0.001630459, 0.006234913, 0.03719484, -0.9968472, -0.03512831, 126.683
 53175562, -0.1136102, 0.002848246, 0.01607932, 0.074855, -0.0396312, -0.0008196338, 0.003644963, 0.03719539, -0.9968503, -0.03499521, 126.6827
 53375596, -0.1127854, 0.0007949576, 0.01372533, 0.07485499, -0.04074564, 9.751335E-05, 0.006373176, 0.03719464, -0.9968538, -0.03488412, 126.6827
 53575580, -0.113288, 0.001306603, 0.01807093, 0.07485481, -0.0390919, 0.0006719512, 0.007518265, 0.03719538, -0.9968604, -0.03465352, 126.6824
 53775542, -0.1126485, 0.001111642, 0.0197251, 0.07485536, -0.04105544, 0.000497981, 0.006651137, 0.03719465, -0.9968602, -0.03463327, 126.6833
 53975495, -0.1140311, 0.001844143, 0.01987583, 0.07485483, -0.03940548, 7.302784E-05, 0.006399009, 0.03719502, -0.9968481, -0.03499391, 126.6824
 54195504, -0.1208765, 0.001442526, 0.01950813, 0.07857637, -0.0468151, 0.001145054, 0.006000108, 0.04091452, -0.9968443, -0.03515201, 132.9807
 54375525, -0.1138218, 0.0025958, 0.01677679, 0.07485499, -0.0371435, 0.0005353901, 0.007256646, 0.03347607, -0.9968478, -0.03504612, 126.6827
 54575511, -0.1108248, 0.001581189, 0.0183586, 0.07113568, -0.03940834, 0.001296945, 0.006470386, 0.03719427, -0.9968544, -0.03482852, 120.3882
 54775545, -0.1131438, 0.002447356, 0.0188713, 0.074855, -0.03869471, -0.0006556866, 0.008870392, 0.0371952, -0.9968471, -0.03501192, 126.6827
 54975511, -0.1117858, 0.000406628, 0.02191328, 0.074855, -0.03864459, 0.0006944282, 0.007758952, 0.03719501, -0.9968352, -0.0353089, 128.2663
 55175507, -0.1121922, 0.002480298, 0.01974698, 0.07485517, -0.0409124, 0.0019414, 0.007040012, 0.03719557, -0.9968219, -0.03558715, 126.683
 55375523, -0.1148621, 0.002421597, 0.01814673, 0.07485498, -0.04008253, -0.0009403456, 0.005106343, 0.03719446, -0.9968272, -0.03542314, 126.6827
 55575526, -0.1132392, -0.001015057, 0.01707589, 0.07485445, -0.03909978, 0.001707804, 0.006059116, 0.03719501, -0.9968341, -0.03515698, 126.6818
 55775520, -0.1131279, 0.004091777, 0.01976095, 0.07485575, -0.03954974, 0.00171939, 0.008227027, 0.03719892, -0.996825, -0.03543254, 126.684
 55975582, -0.1140297, 0.003574499, 0.0209909, 0.07485519, -0.04082469, 0.0009940356, 0.007252757, 0.03719278, -0.9968129, -0.03572158, 126.683
 56175560, -0.1148423, 0.002385332, 0.01824607, 0.0748522, -0.04019586, 0.001251768, 0.005588476, 0.03719334, -0.9968066, -0.03586948, 126.678
 56375543, -0.1138205, 0.002620876, 0.01830051, 0.07485406, -0.03954114, 0.0002933609, 0.006287657, 0.03719501, -0.9968093, -0.03572321, 126.6811
 56575487, -0.1118471, 0.001797175, 0.01886006, 0.074855, -0.04084689, 0.001263973, 0.006754444, 0.03719483, -0.9968176, -0.0354945, 126.6827
 56775524, -0.1142833, 0.001612299, 0.01785816, 0.07485499, -0.0394918, 0.0007553469, 0.00599019, 0.0371952, -0.9968097, -0.03564389, 126.6827
 56975527, -0.1132282, 0.003116564, 0.01822691, 0.07485611, -0.04065471, 0.001581037, 0.00660581, 0.03719911, -0.9967945, -0.03595883, 126.6846
 57175584, -0.1139179, 0.002618365, 0.0176825, 0.07485537, -0.03768979, 0.001599444, 0.004252112, 0.03719167, -0.9967876, -0.03620629, 126.6833
 57375526, -0.1118633, 0.002588711, 0.01433613, 0.07485127, -0.03873577, 0.0001456347, 0.006192442, 0.03719502, -0.9967982, -0.03595088, 126.6764
 57575515, -0.1125911, 0.002274546, 0.01895284, 0.07485483, -0.04010408, 0.001870091, 0.004925723, 0.03719427, -0.9968002, -0.03585783, 126.6824
 57775575, -0.1142762, 0.003894761, 0.01612973, 0.07485519, -0.03985563, 0.001163499, 0.005942815, 0.03719501, -0.996793, -0.03602342, 126.683
 57975528, -0.1141336, 0.003388118, 0.01761255, 0.074855, -0.0392031, 0.0002962981, 0.00394531, 0.03719502, -0.9967839, -0.03631284, 126.6827
 58175524, -0.1129574, 0.001527921, 0.01467113, 0.07485557, -0.03972354, -4.727707E-05, 0.004960033, 0.03719483, -0.9967744, -0.03658551, 126.6837
 58375518, -0.1136983, 0.001463716, 0.01747495, 0.07485572, -0.03922033, 0.0006109412, 0.004679144, 0.0371952, -0.9967797, -0.03644398, 126.684
 58575498, -0.1139312, 0.00148541, 0.01767444, 0.07485538, -0.04184902, -0.0004202956, 0.006321271, 0.03719502, -0.9967856, -0.03621848, 126.6833
 58775521, -0.1158697, 0.001298955, 0.01911845, 0.07485647, -0.0386984, 0.0002233321, 0.004799005, 0.0371952, -0.9967738, -0.03640135, 126.6852
 58975502, -0.1118416, 0.002168627, 0.0165084, 0.07485518, -0.04002992, 0.0007482424, 0.004667643, 0.03719483, -0.9967579, -0.03681184, 126.683
 59175523, -0.1145758, 0.002983157, 0.015636, 0.07485481, -0.03931398, 0.002299834, 0.003607964, 0.03719502, -0.9967496, -0.03703974, 126.6824
 59375509, -0.1133216, 0.004348306, 0.01668234, 0.07485574, -0.04027391, 0.0003729753, 0.005447992, 0.03719538, -0.9967511, -0.03698006, 126.684
 59575546, -0.1133322, 0.002326324, 0.01701228, 0.07485519, -0.03937627, 0.00108287, 0.007973169, 0.03719465, -0.996758, -0.0368385, 126.683
 59775522, -0.1133261, 0.002243095, 0.01951942, 0.07485539, -0.03913698, 0.0002304317, 0.006567893, 0.03719669, -0.9967492, -0.03703807, 126.6833
 59975528, -0.113353, 0.002044391, 0.01834635, 0.074855, -0.04078434, 0.0008761791, 0.006539842, 0.03719334, -0.9967355, -0.03750392, 126.6827
 60175509, -0.1148548, 0.001739371, 0.01751801, 0.07485351, -0.03964416, 0.001169753, 0.00575586, 0.03719501, -0.9967205, -0.03781993, 126.6802
 60375563, -0.113685, 0.003183651, 0.01755959, 0.07485519, -0.03851296, 0.00163292, 0.0075522, 0.03719576, -0.9967259, -0.03765663, 126.683
 60575502, -0.1127712, 0.003231087, 0.01896617, 0.07485518, -0.03888875, 0.001205938, 0.005895537, 0.03719427, -0.9967327, -0.03750813, 126.683
 60775520, -0.1117711, 0.002300264, 0.01693846, 0.07485406, -0.04061369, -0.001244809, 0.004697563, 0.037195, -0.9967211, -0.03773717, 126.6811
 60975531, -0.1143805, 0.001487642, 0.01691372, 0.07485685, -0.03796287, 0.000352865, 0.006449713, 0.03719501, -0.9967031, -0.03817973, 126.6859
 61175538, -0.1117744, 0.003376949, 0.01745025, 0.07485536, -0.0392487, 0.003318959, 0.005773283, 0.03719502, -0.9966894, -0.03844285, 126.6833
 61375583, -0.1129416, 0.004933607, 0.01697031, 0.07485668, -0.03995169, 0.0001781392, 0.003715532, 0.03719501, -0.9966973, -0.03827182, 126.6855
 61575529, -0.1135283, 0.001881011, 0.01592182, 0.07485668, -0.03949957, 0.002385895, 0.0055527, 0.0371952, -0.9967033, -0.03804507, 126.6855
 61775525, -0.1142132, 0.003565311, 0.01707272, 0.07485629, -0.03994191, -0.0004470297, 0.006275374, 0.03719464, -0.9966981, -0.03819222, 126.6849
 61975507, -0.1140213, 0.001608015, 0.01741406, 0.07485501, -0.03983324, -0.0006729696, 0.006394795, 0.03719502, -0.996682, -0.0385805, 126.6827
 62175534, -0.113433, 0.001650138, 0.01828419, 0.07485498, -0.03948975, 0.001941486, 0.004850159, 0.0371952, -0.996676, -0.03877898, 126.6827
 62375529, -0.1128253, 0.003751969, 0.01517533, 0.0748561, -0.03871772, 0.001054332, 0.004730589, 0.03719613, -0.9966776, -0.03865226, 126.6846
 62575525, -0.1112637, 0.003764804, 0.01681141, 0.07485574, -0.03991758, 0.001825562, 0.007193408, 0.0371939, -0.9966871, -0.03839025, 126.684
 62775532, -0.1116398, 0.002458102, 0.01780532, 0.07485388, -0.03894736, -0.001552246, 0.004404299, 0.03719539, -0.9966804, -0.03854638, 126.6808
 62975531, -0.1123924, 0.0007858102, 0.01540206, 0.07485557, -0.04043907, 0.00197921, 0.005866114, 0.03719465, -0.9966678, -0.03886113, 126.6837
 63175544, -0.1150576, 0.003544673, 0.01648177, 0.07485612, -0.04098997, 0.001333297, 0.007016763, 0.03719502, -0.9966632, -0.03899602, 126.6846
 63375532, -0.115022, 0.003979206, 0.01717614, 0.07485499, -0.03871768, 0.001481006, 0.005450861, 0.03719688, -0.9966667, -0.03892051, 126.6827
 63575538, -0.1119587, 0.00344783, 0.01826743, 0.07485854, -0.03907406, 0.001865802, 0.008327865, 0.03719315, -0.9966722, -0.03873003, 126.6887
 63775536, -0.1139353, 0.004004323, 0.02132415, 0.07485444, -0.04202319, 0.0009233422, 0.006264294, 0.03719501, -0.9966612, -0.03894211, 126.6818
 63975526, -0.1155927, 0.003454325, 0.01735382, 0.07485498, -0.03864894, 0.0004030424, 0.004852061, 0.0371965, -0.9966466, -0.03930707, 126.6827
 64175512, -0.1122951, 0.003000435, 0.01541635, 0.074855, -0.04095957, 0.000162756, 0.005465908, 0.03719353, -0.9966391, -0.03943759, 126.6827
 64375531, -0.1140119, 0.00199658, 0.01644987, 0.07485349, -0.03972291, 0.001626734, 0.004187194, 0.03719501, -0.9966391, -0.03936604, 126.6802
 64575554, -0.1142201, 0.003890783, 0.01541571, 0.07485501, -0.03978956, 0.0008276526, 0.006247979, 0.03719688, -0.9966508, -0.03910878, 126.6827
 64775537, -0.1126137, 0.003443525, 0.01765458, 0.07485482, -0.04008374, 0.001997003, 0.007630807, 0.0371939, -0.9966405, -0.03940037, 126.6824
 64995968, -0.1199543, 0.003780842, 0.02056023, 0.07857376, -0.04599286, 0.0001704276, 0.008794978, 0.04091359, -0.9966294, -0.03977514, 132.9762
 65175506, -0.1115166, 0.002134968, 0.01779861, 0.07485723, -0.03545607, 0.0009895525, 0.003866595, 0.0334757, -0.9966264, -0.03989561, 126.6865
 65375598, -0.1089628, 0.004103424, 0.01552149, 0.07115258, -0.03773444, 0.0009137717, 0.00592964, 0.03719557, -0.9966286, -0.0398012, 120.4169
 65575560, -0.1109141, 0.003016544, 0.01850207, 0.07485572, -0.04021538, 0.0008071611, 0.008894701, 0.03719427, -0.9966309, -0.03973459, 126.684
 65775532, -0.1140078, 0.002737048, 0.02058361, 0.07485444, -0.04116161, -0.0008452776, 0.009408073, 0.03719538, -0.9966205, -0.03998519, 126.6818
 65975518, -0.1149012, 0.001394261, 0.01953081, 0.07485518, -0.03908527, -0.0003839661, 0.006721519, 0.03719483, -0.996603, -0.04036344, 126.683
 66175595, -0.1131734, 0.002609277, 0.01908046, 0.07487118, -0.04075701, 0.001127427, 0.006166774, 0.03719501, -0.9965945, -0.04062982, 126.7101
 66375525, -0.1148038, 0.003690275, 0.01899153, 0.074855, -0.0372027, 0.0009854969, 0.00535914, 0.0371952, -0.9965999, -0.04049442, 126.6827
 66575523, -0.111871, 0.002339477, 0.01780734, 0.07485501, -0.03945012, 0.001338202, 0.004480077, 0.03719483, -0.9966037, -0.04037443, 126.6827
 66775561, -0.1143579, 0.003637417, 0.01645059, 0.07485613, -0.03895116, 0.001359976, 0.007034594, 0.03719501, -0.9965938, -0.04060335, 126.6846
 66975515, -0.113334, 0.002559797, 0.01887849, 0.07485667, -0.03987673, -5.229069E-05, 0.004538393, 0.03719501, -0.9965839, -0.04097887, 126.6855
 67175516, -0.1138134, 0.00128488, 0.0171289, 0.07485666, -0.03915925, -0.0002950535, 0.006118931, 0.03719483, -0.9965754, -0.04117885, 126.6855
 67375539, -0.1139809, 0.001266317, 0.01767875, 0.07485554, -0.03980765, 0.00065803, 0.005714849, 0.0371952, -0.9965752, -0.04110499, 126.6837
 67575578, -0.1151511, 0.002164146, 0.01664211, 0.07485592, -0.04005655, 0.001040428, 0.004524299, 0.0371952, -0.9965799, -0.04089948, 126.6843
 67775543, -0.1159306, 0.003610507, 0.01604226, 0.07485499, -0.04111598, 0.002154914, 0.005849392, 0.03719538, -0.9965715, -0.04109864, 126.6827
 67975527, -0.1153256, 0.004132633, 0.01698519, 0.0748552, -0.04193175, 0.0008405494, 0.006285156, 0.03719427, -0.9965543, -0.0414509, 126.683
 68175522, -0.1152857, 0.003469782, 0.0170622, 0.07485443, -0.03750683, 0.0006944111, 0.007124241, 0.0371952, -0.9965457, -0.04159876, 126.6818
 68375541, -0.111306, 0.004023106, 0.01830974, 0.07485575, -0.03817667, 0.001268658, 0.006027662, 0.03719502, -0.996554, -0.04143664, 126.684
 81975555, -0.1166039, 0.004068189, 0.02075158, 0.07485463, -0.03922772, 0.00103778, 0.005500021, 0.03719427, -0.9963518, -0.04519489, 126.6821
 82175594, -0.1143063, 0.003132547, 0.01560853, 0.07485445, -0.03996044, 0.0004723363, 0.004204784, 0.03719502, -0.9963516, -0.04517677, 126.6818
 82375642, -0.1137634, 0.002904934, 0.01557298, 0.07485557, -0.04022001, 0.0007590156, 0.005779082, 0.03719539, -0.9963642, -0.04488548, 126.6837
 82575551, -0.1131135, 0.003378491, 0.01761904, 0.074855, -0.03964414, 0.001427206, 0.008212483, 0.03719464, -0.9963768, -0.04462133, 126.6827
 82775575, -0.1132337, 0.003938393, 0.01916218, 0.07485479, -0.03854873, 0.001635471, 0.005093132, 0.03719613, -0.9963895, -0.04443005, 126.6824
 82975587, -0.1126921, 0.004165148, 0.01665781, 0.07485557, -0.03918515, 0.002305248, 0.006340105, 0.0371939, -0.996398, -0.04425026, 126.6837
 83175560, -0.1138367, 0.004361495, 0.01823102, 0.07485445, -0.04148615, 0.0009568012, 0.007103463, 0.03719502, -0.9964058, -0.0440728, 126.6818
 83375589, -0.1154519, 0.003001189, 0.01987947, 0.07485704, -0.03987177, 0.002064608, 0.00664729, 0.03719557, -0.9964146, -0.04384764, 126.6862
 83575562, -0.1134816, 0.004185074, 0.01880815, 0.07485648, -0.03975023, 0.001209516, 0.007408508, 0.03719446, -0.9964262, -0.0435489, 126.6852
 83775573, -0.1130014, 0.00372642, 0.01764254, 0.07485445, -0.04091616, 0.001179561, 0.005100401, 0.03719501, -0.9964368, -0.04325318, 126.6818
 83975602, -0.11452, 0.003238556, 0.0170419, 0.07485501, -0.04100408, 0.002945611, 0.005903873, 0.03719558, -0.996446, -0.04299476, 126.6827
 84175551, -0.1149418, 0.006370743, 0.01741365, 0.074855, -0.03823752, 0.001495723, 0.00569029, 0.03719446, -0.9964524, -0.04277665, 126.6827
 84375577, -0.1133741, 0.003560854, 0.0173735, 0.07485463, -0.04025989, 0.0006082158, 0.005511277, 0.03719668, -0.9964624, -0.04257055, 126.6821
 84575582, -0.1138051, 0.003388563, 0.0171966, 0.07485574, -0.04027422, 0.00304444, 0.007313597, 0.03719372, -0.9964758, -0.04229083, 126.684
 84775637, -0.1238251, 0.004784164, 0.01822581, 0.07485331, -0.04787938, 0.008192305, 0.004322248, 0.03719464, -0.9965477, -0.04195205, 126.6799
 84975567, -0.1248679, 0.01053857, 0.01551164, 0.0748548, -0.04603898, 0.004727447, 0.005154785, 0.03719558, -0.9965814, -0.04132399, 126.6824
 85175597, -0.1211123, 0.006215775, 0.01513662, 0.07485555, -0.03184555, 0.02872556, 0.00952985, 0.03719427, -0.9965361, -0.04238552, 126.6837
 85375589, -0.09887552, 0.03042938, 0.02305608, 0.07485498, -0.07483826, 0.01362138, 0.03610694, 0.03719502, -0.9966136, -0.04197907, 126.6827
 85575612, -0.1512627, 0.008005749, 0.04296225, 0.07485667, -0.04783595, -0.02176815, 0.01301416, 0.03719669, -0.9965943, -0.04197188, 126.6855
 85775575, -0.1204461, -0.01736728, 0.02044231, 0.07485519, -0.02322482, -0.005633292, 0.01048146, 0.03719353, -0.9966192, -0.04161618, 126.683
 85975591, -0.1039746, -0.005513367, 0.01697521, 0.07485499, -0.03323032, 0.005601995, 0.006426445, 0.03719501, -0.9966248, -0.04193314, 126.6827
 86175583, -0.1103921, -0.00101692, 0.01731739, 0.07485498, -0.04846049, -0.01996447, 0.009950329, 0.03719483, -0.9966993, -0.04170896, 126.6827
 86375570, -0.1113983, -0.01346994, 0.0172085, 0.07485501, -0.02080625, 0.007755589, 0.01457283, 0.03719631, -0.9967086, -0.04167604, 126.6827
 86575612, -0.09114933, 0.01183571, 0.02495508, 0.07485574, -0.01316875, 0.02049778, 0.01618539, 0.03719389, -0.9967659, -0.04146559, 126.684
 86775574, -0.0952132, 0.01720069, 0.02367526, 0.07485408, -0.03331909, -0.001969304, -0.004528329, 0.03719502, -0.996758, -0.04174338, 126.6811
 86975605, -0.1062949, -0.005964715, 0.001206399, 0.07485703, -0.03543939, -0.0123753, 0.02110513, 0.03719744, -0.9967681, -0.04162141, 126.6862
 87175573, -0.1104845, -0.01208015, 0.0350736, 0.07485499, -0.07789021, -0.01384111, 0.01309626, 0.03719259, -0.9968132, -0.04157368, 126.6827
 87375589, -0.1471522, -0.01151225, 0.02260419, 0.07485405, -0.01539256, 0.002571901, -0.004063331, 0.03719651, -0.9968431, -0.04144631, 126.6811
 87575570, -0.09890111, 0.0001027999, 0.001640164, 0.07485648, -0.03815477, 0.009066714, 0.007288462, 0.03719502, -0.9968472, -0.04189124, 126.6852
 87775598, -0.1151189, 0.0105995, 0.01363777, 0.07485517, -0.05792706, 0.01499714, -0.005250215, 0.03719502, -0.9969223, -0.0423896, 126.683
 87975585, -0.1306104, 0.01796927, 0.002191291, 0.074855, -0.02316381, -0.001115269, 0.01393306, 0.03719539, -0.9970186, -0.04218976, 126.6827
 88175589, -0.09041926, 0.003856879, 0.01945872, 0.07485557, -0.01749471, 0.01901732, 0.0002526083, 0.03719464, -0.9970205, -0.04269238, 126.6837
 88375644, -0.09030984, 0.01750305, 0.004244819, 0.07485462, -0.01501767, 0.004248978, 0.03854204, 0.03719501, -0.9970728, -0.04329478, 126.6821
 88575558, -0.0932447, 0.005633443, 0.05370137, 0.07485349, -0.02288207, 0.01458609, -0.03690671, 0.03719538, -0.9971324, -0.04379629, 126.6802
 88775583, -0.09444425, 0.02025587, -0.01988805, 0.0748535, -0.04683759, -0.01457412, 0.05907099, 0.03719315, -0.9971362, -0.04419542, 126.6802
 88975569, -0.1331577, -0.0153569, 0.03825267, 0.07485462, -0.05804089, 0.04271402, -0.0917723, 0.03719483, -0.9976569, -0.0444427, 126.6821
 89175587, -0.1512921, 0.04344606, -0.1167807, 0.0748548, 0.006563014, 0.0430962, -0.090551, 0.0371952, -0.9987928, -0.04018678, 126.6824
 89375584, -0.164375, 0.04834397, -0.2256122, 0.07485665, -0.1313005, -0.009089091, -0.07685935, 0.03719651, -0.9993107, -0.03344619, 126.6855
 89575595, -0.3122999, -0.09246953, -0.2724257, 0.07485648, -0.08344123, -0.07826135, -0.09002502, 0.03719595, -0.9971182, -0.03652404, 126.6852
 89775640, -0.2922119, -0.2249637, -0.3155797, 0.07485481, -0.1500484, -0.04173219, -0.1992282, 0.03719576, -0.9957687, -0.03829851, 126.6824
 89975585, -0.3198834, -0.2259375, -0.4321581, 0.07485408, -0.05007088, -0.136244, -0.1134493, 0.03719316, -0.9938033, -0.03067167, 126.6811
 90175622, -0.1965812, -0.2946645, -0.4396123, 0.07485332, -0.1095107, 0.004804692, -0.2627348, 0.03719744, -0.9953981, -0.03215035, 126.6799
 90375607, -0.1692422, -0.13807, -0.5170901, 0.07485519, -0.02257547, -0.137032, -0.0275919, 0.03719278, -0.9965684, -0.03487963, 126.683
 90575590, -0.02223704, -0.1863608, -0.3166795, 0.07485275, 0.06470348, 0.002203116, -0.1809451, 0.03719501, -0.9988321, -0.03057397, 126.6789
 90795988, 0.08610028, 0.05808415, -0.4888822, 0.07857487, -0.04745961, 0.07161256, -0.2167582, 0.04091508, -0.9995551, -0.02952617, 132.9781
 90975593, -0.02049531, 0.1571519, -0.4422306, 0.07485501, 0.07812487, 0.008476402, -0.04268793, 0.03347495, -0.999599, -0.02700043, 126.6827
 91175579, 0.09301468, 0.1300866, -0.310703, 0.07113493, -0.02703017, 0.1177308, -0.2284485, 0.03719558, -0.9995061, -0.02310649, 120.387
 91375592, -0.0177948, 0.2262562, -0.4772249, 0.07485501, 0.04025494, 0.02165844, -0.1007762, 0.03719651, -0.9996172, -0.02227012, 126.6827
 91575584, 0.008272176, 0.1455618, -0.3599101, 0.07485444, -0.03181338, 0.08720874, -0.1684758, 0.03719371, -0.9995509, -0.02385068, 126.6818
 91775591, -0.0852772, 0.1841031, -0.3868565, 0.07485423, -0.02915788, 0.03171876, -0.09506665, 0.03719427, -0.9996937, -0.02264377, 126.6815
 91975632, -0.1050614, 0.1093777, -0.1613995, 0.07485424, -0.05590721, 0.04742369, -0.002986547, 0.03719502, -0.9997699, -0.02129462, 126.6815
 92175591, -0.1246548, 0.08353803, 0.1858592, 0.07485612, -0.04806723, 0.007330545, 0.1318159, 0.03719502, -0.9995888, -0.02068597, 126.6846
 92375593, -0.09577712, 0.02690659, 0.7965235, 0.074855, -0.01399314, 0.02524606, 0.4938334, 0.03719558, -0.9989977, -0.01832428, 126.6827
 92575582, -0.04453487, 0.01623077, 1.457473, 0.074855, 0.0198139, -0.0154557, 0.5384612, 0.03719464, -0.9982182, -0.01627623, 126.6827
 92775596, 0.002773586, -0.03035062, 1.481114, 0.07485519, -0.01299999, -0.01905875, 0.4954734, 0.03719576, -0.9981416, -0.01453346, 126.683
 92975587, -0.01874616, -0.02383397, 1.387756, 0.0748548, -0.0003395795, -0.01605675, 0.41713, 0.0371939, -0.9988461, -0.01194761, 126.6824
 93195834, -0.0170396, 0.001492661, 1.297229, 0.07857357, -0.001207426, 0.01178246, 0.4578684, 0.04091582, -0.9996942, -0.01077398, 132.9759
 93396023, -0.02849066, 0.06970397, 1.149819, 0.07857653, -0.01862063, 0.05998247, 0.4007745, 0.0371939, -0.9995143, -0.000610815, 132.981
 93575583, -0.06718482, 0.1857309, 0.9030822, 0.07113492, -0.0286279, 0.114108, 0.2587907, 0.03347551, -0.9951383, -0.0008530323, 120.387
 93775635, -0.1208415, 0.3008057, 0.6806411, 0.07113549, -0.0299261, 0.07858495, 0.2683971, 0.03719651, -0.9941074, -0.006068124, 120.3879
 93975617, -0.1226785, 0.2248377, 0.6689568, 0.07485554, -0.07008703, -0.04778301, 0.3398374, 0.03719353, -0.9982395, -0.01004626, 126.6837
 94175605, -0.1580313, -0.00178301, 0.7260416, 0.07485408, -0.1192314, 0.05408692, 0.1948883, 0.03719501, -0.9998814, -0.01374056, 126.6811
 94375587, -0.2354579, -0.05690213, 0.4693826, 0.07485628, -0.01363754, -0.1450692, 0.174388, 0.03719538, -0.9965532, -0.01646727, 126.6849
 94575585, -0.1925951, -0.3534247, 0.2375563, 0.07485668, -0.1673306, -0.08907453, -0.1253576, 0.03719465, -0.9911912, -0.01000335, 126.6855
 94795971, -0.413662, -0.5236982, -0.4451861, 0.07857468, -0.1456508, -0.3284391, -0.1706295, 0.04091508, -0.9826782, -0.004886647, 132.9778
 94975628, -0.378779, -0.6825601, -1.424921, 0.07485499, -0.1449372, -0.06460582, -1.000295, 0.0334757, -0.9971354, -0.01927506, 131.4333
 95196012, -0.4755998, 0.4280096, -3.594028, 0.07485498, -0.257081, 0.5463536, -1.609107, 0.04091526, -0.9811274, -0.03089928, 126.6827
 95396153, -0.807797, 1.90387, -4.065095, 0.07857395, -0.3595091, 0.8927509, -1.400729, 0.03719408, -0.946212, -0.02871348, 132.9766
 95575625, -0.854366, 2.052338, -2.83951, 0.07113419, -0.218435, 0.4971716, -0.5192437, 0.03347495, -0.9505279, -0.03594052, 120.3857
 95775586, -0.5355152, 1.180191, -1.104629, 0.07113492, -0.1149894, 0.2317706, -0.1564713, 0.03719502, -0.9832525, -0.0340314, 120.387
 95975598, -0.2339393, 0.2449641, -0.2295498, 0.07485667, -0.02716952, -0.1792821, 0.04092753, 0.03719483, -0.9876559, -0.04261981, 126.6855
 96175613, -0.01121132, -0.8999532, 0.06341557, 0.07485853, 0.03510732, -0.5364447, 0.008677507, 0.0371952, -0.8930809, -0.07467508, 126.6887
 96396032, 0.1604446, -1.985677, 0.1631189, 0.07857468, 0.06499188, -0.9336295, 0.102453, 0.04091452, -0.7945446, -0.09153758, 132.9778
 96575596, 0.2275805, -2.395127, 0.3168877, 0.07485518, 0.09268231, -0.8226384, 0.1283415, 0.0334757, -0.7291408, -0.1062888, 126.683
 96775586, 0.2683237, -2.433985, 0.3239618, 0.07113548, 0.06125464, -0.7269306, 0.08620182, 0.03719483, -0.8000361, -0.09703768, 120.3879
 96975579, 0.1743592, -1.581604, 0.3442641, 0.07485593, 0.03735099, -0.2817214, 0.1556589, 0.03719687, -0.9450365, -0.07887207, 126.6843
 97175597, 0.1246283, -0.5334259, 0.3792817, 0.07485478, 0.03046287, -0.05097521, 0.09522433, 0.03719334, -0.9913468, -0.06723282, 126.6824
 97375640, 0.08967587, 0.07814649, 0.1670008, 0.07485294, 0.01907268, 0.1600268, -0.04558486, 0.03719483, -0.9973815, -0.05554833, 126.6793
 97596061, 0.01356421, 0.67151, -0.1706755, 0.07857432, -0.01602358, 0.3796967, -0.0932374, 0.04091452, -0.9824753, -0.04835999, 132.9772
 97796001, -0.09600624, 1.117984, -0.287213, 0.07857449, -0.0610796, 0.4524643, -0.09784041, 0.03719613, -0.9633082, -0.04729129, 132.9775
 97995995, -0.1979286, 1.351342, -0.3244328, 0.07485945, -0.08561992, 0.5502931, -0.1319853, 0.0371939, -0.950507, -0.04743823, 126.6903
 98175630, -0.235893, 1.368099, -0.3047754, 0.07113439, -0.1070413, 0.417631, -0.0924774, 0.03347551, -0.9510978, -0.04863305, 120.386
 98395886, -0.2910421, 1.311642, -0.2418211, 0.07485645, -0.09085605, 0.4712265, -0.05683845, 0.04091452, -0.9623669, -0.04672184, 126.6852
 98596120, -0.2332343, 1.096229, -0.1213919, 0.07857469, -0.0761196, 0.3344432, -0.05710376, 0.0371952, -0.9777934, -0.04519078, 132.9778
 98775591, -0.1684077, 0.7312401, -0.09166833, 0.07113548, -0.0464472, 0.1768215, -0.01130054, 0.033477, -0.9899687, -0.04618602, 120.3879
 98975796, -0.09806645, 0.3203909, 0.01590711, 0.07113585, -0.02605494, -0.008973046, -0.003175026, 0.03719409, -0.9958783, -0.05320904, 120.3885
 99196044, -0.03007562, -0.2594905, 0.1114339, 0.07857358, -0.007226562, -0.2091307, 0.114032, 0.04091378, -0.9772165, -0.06500292, 132.9759
 99396112, -0.03213594, -0.4799055, 0.4550766, 0.07857375, -0.00470877, -0.12704, 0.2312429, 0.03719557, -0.984565, -0.05855938, 132.9762
 99575777, -0.05013057, -0.2784415, 0.692275, 0.07113642, -0.03645557, -0.05930355, 0.2703212, 0.03347551, -0.991122, -0.05387586, 120.3895
 99775804, -0.09778505, -0.1442797, 0.8454393, 0.07113491, -0.04350442, -0.03158581, 0.3133432, 0.03719483, -0.9956785, -0.04978758, 120.387
 99975768, -0.1123481, -0.04049926, 0.9489385, 0.07485443, -0.01601086, -0.0006935389, 0.3546056, 0.03719557, -0.9972596, -0.05029422, 126.6818
 100175794, -0.09141992, -0.04499837, 1.014411, 0.07485611, -0.04251898, -0.03874888, 0.4086088, 0.03719594, -0.9910529, -0.04718499, 126.6846
 100375830, -0.1311028, -0.1204525, 1.017193, 0.07485574, -0.04615129, -0.01862724, 0.229886, 0.03719427, -0.9896156, -0.04597209, 126.684
 100575795, -0.1280647, -0.1341332, 0.7696196, 0.07485333, -0.009401352, -0.09163877, 0.341393, 0.03719762, -0.9880921, -0.04630001, 126.6799
 100775805, -0.1138965, -0.1740898, 0.8876661, 0.07485387, -0.1257736, -0.01564834, 0.1911737, 0.03719204, -0.9867613, -0.04680028, 126.6808
 100996108, -0.2446904, -0.1508933, 0.779874, 0.07857077, -0.01624651, -0.1458278, 0.3942803, 0.04091377, -0.981086, -0.04846308, 132.9712
 101196140, -0.1425911, -0.3134432, 0.7755256, 0.07857466, -0.03029706, -0.06377633, 0.1431608, 0.03719502, -0.9798815, -0.04523269, 132.9778
 101375782, -0.1595967, -0.2285686, 0.4142577, 0.07113548, -0.1342746, -0.01769707, 0.0421447, 0.03347551, -0.9807554, -0.0443346, 120.3879
 101575793, -0.2979046, -0.2112065, 0.2228818, 0.07113549, -0.08035667, -0.170844, 0.1527769, 0.0371952, -0.9821239, -0.042688, 120.3879
 101796158, -0.232932, -0.29886, 0.2594357, 0.07857502, -0.02494298, 0.007580752, 0.06954071, 0.04091433, -0.9878171, -0.03644817, 132.9785
 101975784, -0.1369131, -0.09649208, 0.1498263, 0.07485479, -0.1129363, -0.0663854, -0.02235063, 0.03347533, -0.984211, -0.0358663, 126.6824
 102175775, -0.1884388, -0.2601485, -0.009803809, 0.0711353, -0.004836848, -0.1664112, 0.1287036, 0.03719817, -0.9735238, -0.03811126, 120.3876
 102396116, -0.06092676, -0.4373873, 0.1554982, 0.07857523, -0.1064746, -0.09012573, -0.08045365, 0.04091154, -0.9659588, -0.03818207, 132.9788
 102575786, -0.1456097, -0.356032, -0.07440528, 0.07485221, -0.04316567, -0.155389, 0.07199229, 0.03347607, -0.9625912, -0.0415655, 126.678
 102796252, -0.09462702, -0.4489312, 0.0196104, 0.07485573, 0.004745905, -0.1619717, -0.02945961, 0.04091508, -0.9681161, -0.03800763, 126.684
 102996105, -0.07339142, -0.3486408, -0.1013042, 0.0785756, -0.1424565, -0.04502208, -0.08423203, 0.03719389, -0.9762639, -0.03564128, 132.9794
 103196148, -0.2453638, -0.1640251, -0.1146876, 0.07485665, -0.04422263, -0.1589874, 0.0225673, 0.03719502, -0.9805396, -0.03074329, 126.6855
 103376010, -0.1249548, -0.1978181, -0.009151547, 0.07113567, 0.02444615, -0.007695085, -0.0621938, 0.03347681, -0.9879794, -0.02656699, 120.3882
 103596138, -0.04489028, 0.003609086, -0.05069542, 0.07485627, -0.07659879, 0.07273378, -0.05536401, 0.04091322, -0.9895998, -0.01449864, 126.6849
 103796292, -0.07432642, 0.09257603, -0.05378864, 0.07857317, -0.0415106, -0.07577861, 0.06274118, 0.03719613, -0.9899718, -0.003390247, 132.9753
 103996117, 0.03601217, -0.03563089, 0.08124975, 0.07485701, 0.07446412, 0.08452312, -0.0146704, 0.03719409, -0.9926299, 0.006510901, 126.6862
 104175791, 0.1997106, 0.1522283, -0.0265424, 0.07113437, 0.1057071, 0.1431924, 0.09053703, 0.03348072, -0.9962521, 0.02054934, 120.386
 104396293, 0.2116432, 0.2577545, 0.1391177, 0.0748561, 0.03278315, 0.05446184, 0.04115712, 0.04090912, -0.9942824, 0.01868772, 126.6846
 104596128, 0.05537226, 0.1275262, 0.04590183, 0.07857076, -0.1047631, -0.01084158, 0.05107912, 0.03719502, -0.9889637, 0.01476337, 132.9712
 104775819, -0.1944165, -0.01238508, 0.05834492, 0.07113549, 0.02724852, -0.005647178, -0.07156084, 0.033477, -0.9842983, 0.01214427, 120.3879
 104975763, -0.2132934, -0.01831594, -0.1593206, 0.07113548, -0.2278796, 0.0392516, -0.1819851, 0.03719483, -0.9876574, 0.01485464, 120.3879
 105196110, -0.5324373, 0.09132349, -0.2479229, 0.078573, -0.1767021, -0.0494753, 0.07472368, 0.04091321, -0.9940737, 0.009984395, 132.975
 105396117, -0.4553427, 0.1885431, 0.07335415, 0.07857317, -0.09097513, 0.2384487, 0.01365712, 0.03719502, -0.9997869, 0.002153982, 132.9753
 105596117, -0.2960371, 0.6540512, 0.06115492, 0.07485591, -0.1961644, 0.2576508, 0.04392662, 0.03719501, -0.9947187, 0.004197658, 126.6843
 105796123, -0.3485034, 0.7725147, 0.05085276, 0.07485329, -0.1124958, 0.2464853, 0.06293198, 0.03719352, -0.9914417, 0.002834961, 126.6799
 105975785, -0.1868646, 0.6803817, 0.1320059, 0.07113586, 0.007095718, 0.1931538, 0.02628019, 0.03348072, -0.993827, 0.005864141, 120.3885
 106196278, -0.001160957, 0.6259575, 0.1084744, 0.07485723, -0.004261873, 0.2692654, -0.0337185, 0.0409108, -0.9988875, 0.009033604, 126.6865
 106396146, -0.0284914, 0.5278042, -0.04362498, 0.07857078, -0.06063694, 0.06419817, 0.004124426, 0.03719501, -0.9995082, 0.004118011, 132.9712
 106575915, -0.09893839, 0.2619727, 0.00242559, 0.07113548, -0.03810464, 0.07399581, 0.05698016, 0.03347551, -0.9997948, 0.01299216, 120.3879
 106796125, -0.0852477, 0.5113512, 0.1025883, 0.07485738, -0.009667752, 0.3673644, -0.082065, 0.04091563, -0.9864976, 0.01632962, 126.6868
 106996276, -0.1035046, 1.03888, -0.07356153, 0.07857448, -0.08507617, 0.3850761, 0.04982411, 0.0371939, -0.9517111, 0.008355458, 132.9775
 107196109, -0.2639507, 1.203432, 0.004859725, 0.07485387, -0.1151673, 0.4892079, -0.05725315, 0.03719483, -0.9517127, 0.002173137, 126.6808
 107375729, -0.303451, 1.119761, -0.03095103, 0.07113567, -0.09436858, 0.2772839, 0.05734975, 0.03347663, -0.9730022, 0.005179426, 120.3882
 107596163, -0.2713139, 0.7910004, 0.09905808, 0.07485556, -0.06024417, 0.2005299, 0.05091515, 0.04091433, -0.9971008, 0.008559327, 126.6837
 107796149, -0.1478055, 0.3009977, 0.08546278, 0.07857355, 0.06219208, 0.02239693, 0.06527311, 0.03719426, -0.9956958, 0.01018558, 132.9759
 107996391, 0.01827196, -0.155409, 0.1309527, 0.07485499, -0.09961993, -0.07368614, -0.01588913, 0.03719502, -0.9811214, 0.009572493, 126.6827
 108196114, -0.2048992, -0.383445, -0.02954162, 0.07485499, -0.1232097, -0.2714525, 0.1114864, 0.03719502, -0.9722212, 0.01734109, 126.6827
 108396113, -0.2703253, -0.5601388, 0.1197088, 0.07485572, -0.03942267, -0.04990587, -0.05309677, 0.03719502, -0.9837503, 0.01798551, 126.684
 108575773, -0.1459071, -0.1982364, -0.0444315, 0.07113551, -0.06442623, 0.0009549344, -0.06504772, 0.0334783, -0.994879, 0.01262855, 120.3879
 108775811, -0.1361286, -0.01417342, -0.05541435, 0.07113716, -0.04306941, -0.07035096, 0.06104609, 0.03719241, -0.9996028, 0.007990433, 120.3908
 108975783, -0.1007192, 0.0865012, -0.01424181, 0.07485221, -0.1036681, 0.1619145, -0.1309157, 0.03719576, -0.9996549, 0.001433141, 126.678
 109175769, -0.1705948, 0.314339, -0.1249879, 0.07485498, 0.003516385, 0.001240785, 0.07639189, 0.03719408, -0.9995466, -0.002334066, 126.6827
 109375787, -0.1099783, 0.1939114, 0.03683588, 0.07485425, -0.07165993, 0.1723314, -0.05090085, 0.03719557, -0.9992365, -0.002334175, 126.6815
 109575785, -0.1811606, 0.294054, -0.02809721, 0.07485496, -0.05846176, -0.02726222, 0.1212736, 0.03719539, -0.9999414, -0.007073534, 126.6827
 109775808, -0.1454937, 0.06215014, 0.140067, 0.07485424, -0.0931952, 0.1060407, -0.01320452, 0.03719427, -0.999749, -0.01294779, 126.6815
 109976006, -0.1680863, 0.1326437, 0.02404335, 0.07485407, -0.06199837, -0.03670366, 0.06337972, 0.03719502, -0.999163, -0.01116007, 126.6811
 110196154, -0.1247214, -0.07104725, 0.09601545, 0.07857432, -0.06729867, 0.00690159, 0.01433308, 0.04091433, -0.9978764, -0.01261889, 132.9772
 110396121, -0.1052876, -0.03992244, 0.05444924, 0.07857467, -0.00379429, -0.0301307, 0.06498463, 0.03719502, -0.9969978, -0.01548397, 132.9778
 110596120, -0.03946747, -0.08120973, 0.09169507, 0.0748563, -0.00363118, -0.02987075, 0.0458391, 0.0371952, -0.9970908, -0.01502073, 126.6849
 110796200, -0.0401984, -0.09959817, 0.06458679, 0.0748719, -0.05066368, -0.01756607, -0.07159353, 0.03719483, -0.9963015, -0.01825463, 126.7114
 110975787, -0.09831024, -0.08370826, -0.05364635, 0.07113529, 0.01487362, -0.07738208, 0.1203179, 0.03347607, -0.9968137, -0.01895842, 120.3876
 111175794, -0.07009806, -0.099053, 0.1029795, 0.07113568, -0.08856247, 0.07338594, -0.04943796, 0.03719947, -0.9986481, -0.01777112, 120.3882
 111396141, -0.1627102, 0.05239799, -0.0552668, 0.07857448, -0.007475154, -0.08227901, 0.06699944, 0.0409095, -0.9985462, -0.01564516, 132.9775
 111575793, -0.06144052, -0.08583839, 0.07217182, 0.07484995, -0.04039833, 0.04468079, -0.04123108, 0.033477, -0.9981523, -0.01753629, 126.6742
 111776062, -0.1048227, -0.005959004, -0.004313219, 0.07113586, -0.05530338, -0.07507534, 0.04070661, 0.03719409, -0.99659, -0.022748, 120.3885
 111975798, -0.09487133, -0.1644774, 0.07283939, 0.07485406, 0.01541197, -0.05411161, -0.01201346, 0.03719483, -0.9943016, -0.02414547, 126.6811
 112175773, -0.03836945, -0.169429, 0.01449318, 0.07485444, -0.05313981, -0.0518066, 0.0003114997, 0.03719446, -0.993745, -0.02460824, 126.6818
 112375825, -0.08311829, -0.2131826, 0.03856989, 0.07485498, 0.007505462, -0.1317954, 0.07221538, 0.0371952, -0.9915033, -0.02440776, 126.6827
 112575791, -0.04450503, -0.2712773, 0.06931217, 0.07485517, -0.05564427, -0.00865185, -0.08974548, 0.03719557, -0.9927965, -0.02365037, 126.683
 112775818, -0.1221278, -0.1589499, -0.05360855, 0.07485592, -0.009722209, -0.1307119, 0.1118942, 0.0371952, -0.9940285, -0.02463364, 126.6843
 112975772, -0.1099534, -0.201522, 0.1148625, 0.07485443, -0.05796905, 0.03753975, -0.03317162, 0.03719483, -0.9965292, -0.02407429, 126.6818
 113175800, -0.1520298, -0.0511246, 0.0156232, 0.07485424, -0.01583383, -0.08582165, 0.08972941, 0.03719502, -0.9950977, -0.02599737, 126.6815
 113375827, -0.1069554, -0.1400976, 0.07909422, 0.07485537, -0.07323392, 0.06495837, -0.06254739, 0.03719743, -0.9959973, -0.02886523, 126.6833
 113596113, -0.1515038, -0.006606492, -0.0494705, 0.07857653, -0.01816531, -0.1209146, 0.06290749, 0.04091136, -0.9964129, -0.03063833, 132.981
 113775799, -0.06453199, -0.1334743, 0.07220578, 0.07485202, -0.04010418, 0.04781975, -0.04709725, 0.03347718, -0.9971048, -0.02975984, 126.6777
 113996128, -0.1055779, 0.002538249, -0.02438165, 0.07485629, -0.01949847, -0.08386825, 0.09330405, 0.04091303, -0.9946222, -0.03536412, 126.6849
 114196104, -0.1114357, -0.1741434, 0.08321769, 0.078573, -0.04654475, -0.05737275, -0.01041413, 0.03719353, -0.9923769, -0.03763522, 132.975
 114396123, -0.1650719, -0.1905647, -0.004475893, 0.07485498, -0.1126058, -0.05584402, -0.04863095, 0.0371965, -0.9902728, -0.03368312, 126.6827
 114596119, -0.2377433, -0.2117768, -0.0355343, 0.07485722, -0.003167074, -0.1086141, 0.008392278, 0.03719594, -0.9893402, -0.02885556, 126.6865
 114775794, -0.119516, -0.2475817, -0.008368351, 0.07113603, -0.08178864, -0.0393821, -0.05564053, 0.03347514, -0.9908316, -0.02357786, 120.3889
 114975909, -0.144355, -0.1608073, -0.03230536, 0.07113434, 0.0489793, -0.05633713, 0.05110463, 0.0371952, -0.993524, -0.0289942, 121.8909
 115175798, 0.01100324, -0.08418779, 0.04903721, 0.07485445, -0.05338432, 0.01321585, -0.07203967, 0.03719464, -0.9961196, -0.03001461, 126.6818
 115396265, -0.06650482, -0.03458656, 0.004474879, 0.07857357, 0.08511014, -0.07569102, 0.05354745, 0.04091414, -0.9957092, -0.02873254, 132.9759
 115596125, 0.0751085, -0.09924902, 0.07065835, 0.07857654, -0.03696101, 0.02716548, -0.07434853, 0.03719558, -0.9971809, -0.02727224, 132.981
 115796130, -0.04253993, 0.03065197, -0.02137737, 0.07485499, 0.018888, -0.04207395, 0.0419694, 0.03719446, -0.997499, -0.02363987, 126.6827
 115996110, -0.01646428, -0.01652849, 0.0755576, 0.07485498, -0.04438506, 0.1056474, -0.06213397, 0.03719483, -0.9985344, -0.02187815, 126.6827
 116175783, -0.1067971, 0.1316974, -0.01733844, 0.07113661, -0.01836519, -0.03990534, 0.115614, 0.0334783, -0.9986684, -0.01943744, 120.3898
 116375813, -0.09621526, 0.002199356, 0.1480295, 0.0711366, -0.06188215, 0.0842265, -0.04401822, 0.03719502, -0.9980643, -0.01876625, 120.3898
 116575792, -0.1385069, 0.08874833, -0.02239762, 0.07485311, -0.02513522, -0.08213517, 0.1614531, 0.03719259, -0.9980878, -0.01859627, 126.6796
 116775807, -0.1097588, -0.05707718, 0.1806554, 0.07485276, -0.03077541, 0.03520147, -0.02633851, 0.03719798, -0.9981375, -0.0194599, 126.6789
 116975782, -0.1322352, 0.07153296, -0.01140939, 0.07485498, -0.05801975, -0.003048877, 0.06248694, 0.03719501, -0.9991555, -0.0196073, 126.6827
 117175997, -0.1463151, 0.03792262, 0.070531, 0.07485238, -0.01507911, 0.0383487, 0.009681619, 0.03719353, -0.9990932, -0.02403751, 126.6783
 117396166, -0.1016882, 0.07523166, 0.01166352, 0.07857244, -0.06458177, -0.01729528, 0.03807869, 0.04091303, -0.998482, -0.02584789, 132.974
 117575772, -0.1030008, -0.02153531, 0.03353211, 0.07485313, -0.003450393, 0.01289023, 0.03625582, 0.03347533, -0.9976204, -0.02694306, 126.6796
 117775825, -0.05399651, -0.005090785, 0.05421095, 0.07113529, -0.02588888, 0.02204061, 0.03834819, 0.03719743, -0.9980698, -0.0296427, 120.3876
 117996141, -0.06526779, -0.0104647, 0.1007143, 0.0785756, -0.006675986, -0.04094392, 0.004219579, 0.0409121, -0.9976915, -0.03184378, 132.9794
 118196128, -0.0786695, -0.06604753, 0.03421468, 0.07857449, -0.08090005, 0.01178854, -0.07082313, 0.03719501, -0.9964633, -0.03022248, 132.9775
 118375799, -0.1576012, -0.04604512, -0.0605037, 0.07113567, -0.002557624, -0.09808212, 0.09745954, 0.03347588, -0.9947496, -0.0256776, 120.3882
 118575723, -0.1032219, -0.1619642, 0.08995824, 0.07113547, -0.1110685, 0.005659115, -0.0704458, 0.03719725, -0.9951635, -0.02530311, 120.3879
 118796271, -0.1961136, -0.08205396, -0.03460758, 0.07857654, 0.006872961, -0.1136403, 0.08945758, 0.04091191, -0.994467, -0.02425371, 132.981
 118976002, -0.0294643, -0.1855844, 0.09365407, 0.07485332, -0.02195265, 0.02077136, -0.09095844, 0.03347589, -0.9941125, -0.02427426, 126.6799
 119196117, -0.04453805, -0.08095162, -0.03328556, 0.07485556, -0.004693619, -0.1343961, 0.1608178, 0.04091414, -0.9951944, -0.02183027, 126.6837
 119396151, -0.02155546, -0.1561042, 0.2043861, 0.07857465, -0.01473961, 0.04842588, -0.01825832, 0.03719502, -0.9982949, -0.02355723, 132.9778
 119575800, -0.06651742, 0.09406478, 0.004371091, 0.07113697, -0.0279396, 0.06772308, -0.1040897, 0.03347589, -0.9997047, -0.02402486, 120.3904
 119796132, -0.1449242, 0.1815309, -0.1210346, 0.074855, -0.05945213, 0.07966324, 0.006881284, 0.04091414, -0.999649, -0.0264938, 126.6827
 119975781, -0.1891988, 0.1496553, -0.02408859, 0.07485443, -0.1012258, 0.05290543, -0.09494138, 0.03347644, -0.9991034, -0.02943964, 126.6818
 120175980, -0.2218519, 0.0245125, -0.08016712, 0.07113398, -0.04631377, -0.03900472, 0.0465687, 0.03719501, -0.9965538, -0.02959903, 120.3854
 120375812, -0.1591224, -0.1128042, 0.007046634, 0.07485423, -0.08036, -0.03613015, -0.04552238, 0.03719539, -0.9945913, -0.02539119, 126.6815
 120596421, -0.1399067, -0.1517301, -0.03328427, 0.07857355, -0.02626484, -0.04227877, -0.006932087, 0.04091433, -0.9947609, -0.02282755, 132.9759
 120776026, -0.07548898, -0.1338619, 0.01693264, 0.0748537, -0.0218518, -0.05453282, 0.007855002, 0.0334744, -0.994977, -0.02155287, 126.6805
 120975776, -0.06593832, -0.1402563, 0.0223283, 0.07113437, -0.03055806, -0.00713475, -0.02278839, 0.03719594, -0.9959707, -0.02206346, 120.386
 121196124, -0.09355861, -0.037211, -0.007637627, 0.07857858, -0.03294466, -0.03685142, 0.04655689, 0.04091358, -0.9980288, -0.02025729, 132.9844
 121375804, -0.08571546, -0.01944871, 0.04563804, 0.07485423, -0.05375831, 0.03590105, -0.01888574, 0.033477, -0.9989595, -0.02011426, 126.6815
 121575767, -0.1121377, 0.07266805, -0.02407482, 0.07113662, -0.0007014806, -0.004695999, 0.03781831, 0.03719371, -0.9992949, -0.02122707, 120.3898
 121796138, -0.08504557, 0.03116473, 0.0526215, 0.078573, -0.107671, 0.04662511, -0.02382369, 0.04091619, -0.9990468, -0.02218737, 132.975
 121996163, -0.1803565, 0.06335062, 0.01939206, 0.07857431, -0.03840439, 0.003931875, 0.05649454, 0.03719334, -0.9986178, -0.02271233, 132.9772
 122196125, -0.104627, 0.0030966, 0.09435306, 0.07485386, -0.05567773, -0.01253347, 0.03593608, 0.03719483, -0.9977114, -0.02351153, 126.6808
 122396250, -0.1128112, -0.03858985, 0.06517338, 0.07485592, -0.01796745, -0.005105424, 0.02544231, 0.03719502, -0.9972311, -0.02429809, 126.6843
 122596168, -0.0594565, -0.04004344, 0.06686167, 0.07485648, -0.03224307, -0.04175316, -0.03121452, 0.03719502, -0.9970269, -0.02172674, 126.6852
 122796136, -0.08427531, -0.07898759, -0.01032414, 0.07485497, -0.01947358, -0.02537702, -0.008098924, 0.03719538, -0.9975231, -0.02231547, 126.6827
 122975789, -0.08004237, -0.04252569, 0.00878108, 0.07113548, -0.01980057, -0.002330857, 0.02692655, 0.03347849, -0.9980161, -0.0226445, 120.3879
 123196115, -0.09411079, -0.02387504, 0.06039956, 0.07485576, -0.07395671, 0.00644291, -0.04070927, 0.04091116, -0.9981281, -0.02206359, 126.684
 123396114, -0.1535931, -0.01226782, -0.03284062, 0.07857113, -0.01275437, -0.04630938, 0.02103851, 0.03719502, -0.9979654, -0.02236011, 132.9718
 123596128, -0.09991919, -0.05788071, 0.05752325, 0.07485612, -0.0781122, 0.02878802, -0.01338955, 0.03719557, -0.998187, -0.02169648, 126.6846
 123796257, -0.1576252, 0.01131359, 0.02243314, 0.07485536, -0.00348993, -0.02193156, 0.06691844, 0.03719427, -0.9980018, -0.02217975, 126.6833
 123996113, -0.07286928, -0.03458213, 0.06580862, 0.07485498, -0.1076969, 0.005236218, -0.00557531, 0.0371952, -0.9985707, -0.02231575, 126.6827
 124175820, -0.1456023, 0.002276924, 0.0173717, 0.07113715, 0.0348901, -0.01839022, 0.06660959, 0.03347644, -0.9984297, -0.02681999, 120.3908
 124396115, -0.03667096, -0.0144314, 0.1121424, 0.07485611, -0.08526742, -0.005347592, 0.09661461, 0.04091359, -0.9977386, -0.02584307, 126.6846
 124596125, -0.1496902, -0.02531825, 0.1316142, 0.07857355, 0.00619388, 0.01572265, 0.05730908, 0.03719502, -0.9978375, -0.02662042, 132.9759
 124796264, -0.0434418, -0.01672274, 0.1105378, 0.074855, -0.04288777, -0.0003868795, 0.022238, 0.03719687, -0.9973047, -0.02740021, 126.6827
 124996119, -0.1052689, -0.03361845, 0.03326492, 0.07485555, -0.05426243, -0.02980963, 0.0646188, 0.03719316, -0.9972641, -0.02898191, 126.6837
 125196129, -0.1028816, -0.04798285, 0.106647, 0.07485405, 0.03200668, 0.04480841, 0.02015576, 0.03719502, -0.9978369, -0.02721559, 126.6811
 125396116, -0.05224107, 0.008260539, 0.07339706, 0.07485555, -0.00949649, -0.02493941, -0.0281349, 0.03719502, -0.9968957, -0.02393891, 126.6837
 125596132, -0.09723569, -0.09084779, -0.01566547, 0.07485499, -0.1035663, -0.1101471, 0.09610438, 0.03719501, -0.9951782, -0.02356038, 126.6827
 125796168, -0.1775292, -0.1907784, 0.08369515, 0.07485497, -0.01332671, -0.01515522, -0.0328698, 0.03719557, -0.9957052, -0.0256805, 126.6827
 125975776, -0.05917475, -0.09660321, -0.03434178, 0.07113549, -0.04344777, -0.0673265, 0.045389, 0.0334757, -0.9956918, -0.02278506, 120.3879
 126196099, -0.09328877, -0.1890061, 0.03732657, 0.07485776, -0.04855588, -0.07843961, -0.03398241, 0.0409147, -0.9930311, -0.02153513, 126.6874
 126375847, -0.09407133, -0.210468, -0.0510919, 0.07485518, -0.002730059, -0.05491135, -0.01484242, 0.03347793, -0.9918299, -0.02312023, 126.683
 126575792, -0.06258771, -0.1978711, 0.003511032, 0.07113454, -0.04762093, -0.08584347, 0.0478894, 0.03719185, -0.9926339, -0.0210278, 120.3863
 126775798, -0.09594704, -0.1737592, 0.04051287, 0.07485165, -0.03655296, 0.005188321, -0.00634015, 0.03719538, -0.995885, -0.01737324, 126.6771
 126996114, -0.09531456, -0.02011161, -0.01072042, 0.07857672, -0.04670854, -0.03370304, 0.01118482, 0.04091397, -0.9986315, -0.01448807, 132.9813
 127196134, -0.1141903, 0.002998644, 0.005136141, 0.07857392, -0.07592384, 0.05538246, -0.0502415, 0.03719502, -0.9995016, -0.01414069, 132.9766
 127396116, -0.1475364, 0.1257079, -0.05650249, 0.07485497, -0.02562246, 0.04475031, 0.02635784, 0.03719519, -0.9998481, -0.01357532, 126.6827
 127596143, -0.09665966, 0.1414824, 0.03076175, 0.07485497, -0.05056692, 0.06224184, 0.04852262, 0.03719539, -0.9998415, -0.01777643, 126.6827
 127796337, -0.1302392, 0.1665089, 0.09592936, 0.07485611, -0.06746644, 0.06984667, -0.003302266, 0.03719613, -0.9997892, -0.02034996, 126.6846
 127996234, -0.1361844, 0.1666099, 0.01611841, 0.07485443, -0.06138541, 0.03149148, 0.0003714476, 0.03719334, -0.9997173, -0.02367616, 126.6818
 128196100, -0.1444269, 0.1156688, 0.00616644, 0.07485554, -0.04043219, 0.07763402, -0.01193593, 0.03719502, -0.9996843, -0.02508782, 126.6837
 128396156, -0.1381796, 0.1306803, -0.01109858, 0.07485497, -0.06515727, 0.009577335, 0.06506825, 0.03719502, -0.9994848, -0.02393446, 126.6827
 128596130, -0.1664214, 0.02090072, 0.04891279, 0.0748561, -0.07552463, 0.01458309, -0.0528908, 0.03719502, -0.9991688, -0.02129731, 126.6846
 128796150, -0.1720513, 0.01186569, -0.03410912, 0.07485498, -0.03359991, 0.006730232, -0.03638429, 0.03719613, -0.9993778, -0.01894786, 126.6827
 128996240, -0.1324861, 0.008312289, -0.03289006, 0.07485554, -0.06208031, -0.02267443, 0.06140144, 0.03719391, -0.999251, -0.01789514, 126.6837
 129196120, -0.1660816, -0.02067553, 0.0521416, 0.07485389, -0.01516349, 0.03821722, -0.007102832, 0.03719501, -0.9990321, -0.01907638, 126.6808
 129375803, -0.1117767, 0.01282148, -0.02632817, 0.07113547, -0.06218437, -0.03229669, 0.05906319, 0.033477, -0.998826, -0.01822074, 120.3879
 129596267, -0.1897073, -0.06072702, 0.01771939, 0.07485834, -0.06576435, 0.0121022, -0.07267961, 0.04091303, -0.9987537, -0.01853129, 126.6884
 129796194, -0.1909315, -0.01413131, -0.09877189, 0.0785732, -0.04384499, -0.03923232, 0.01555669, 0.03719502, -0.9985291, -0.01844892, 132.9753
 129996126, -0.1267392, -0.05815307, -0.0225806, 0.07485684, -0.03480413, -0.01331299, -0.0401607, 0.03719501, -0.9989523, -0.02134015, 126.6859
 130196110, -0.09544067, -0.006746677, -0.07665442, 0.07485889, -0.03007326, 0.01371761, -0.01089761, 0.03719502, -0.9993848, -0.02061107, 126.6893
 130396162, -0.06933645, 0.03372984, -0.02645586, 0.07485499, -0.02051916, 0.006849602, 0.04132214, 0.03719502, -0.999373, -0.0224198, 126.6827
 130575768, -0.05855887, 0.02334156, 0.03254895, 0.07113586, -0.03210026, 0.02572788, -0.0292034, 0.03347681, -0.9992343, -0.0219849, 120.3885
 130775813, -0.08640745, 0.02636435, -0.015482, 0.07113715, -0.04164195, -0.009588894, 0.007446119, 0.0371939, -0.9991158, -0.02285887, 120.3908
 130996144, -0.08342137, 0.004213724, 0.01222955, 0.07857356, 0.009795581, 0.03768368, -0.05788383, 0.04091415, -0.9993118, -0.02212197, 132.9759
 131196117, -0.01396643, 0.04520969, -0.02650519, 0.07857506, -0.05151924, -0.03698754, 0.0716783, 0.0371952, -0.9990581, -0.01855673, 132.9785
 131396246, -0.08108789, -0.05625938, 0.05163674, 0.07485629, 0.004873308, -0.0186077, 0.006255882, 0.03719595, -0.9983838, -0.02120569, 126.6849
 131575999, -0.02958872, -0.06234595, -0.02288409, 0.07113549, 0.01880656, -0.003492062, -0.01359768, 0.03347514, -0.9976156, -0.02186619, 120.3879
 131776020, -0.02440232, -0.07948754, -0.004450735, 0.07113438, -0.05388777, -0.0738317, 0.02703631, 0.03719538, -0.9971946, -0.02591901, 120.386
 131975781, -0.07811429, -0.1299334, 0.01954805, 0.07485443, 0.00872226, 0.00330249, -0.007412723, 0.03719427, -0.9974717, -0.02729717, 126.6818
 132196255, -0.04619081, -0.0614568, 0.02151277, 0.07857709, -0.06488965, -0.06581149, 0.06180296, 0.04091434, -0.9976308, -0.02581167, 132.9819
 132396151, -0.1068664, -0.1142879, 0.07924101, 0.07857469, -0.02008523, -0.010106, -0.06779311, 0.03719557, -0.9980876, -0.02769815, 132.9778
 132596141, -0.07378332, -0.04990332, -0.05763524, 0.07485611, -0.04032741, -0.03972642, 0.03749035, 0.03719446, -0.9980437, -0.02807935, 126.6846
 132796136, -0.1111434, -0.07586442, 0.02835781, 0.07485555, -0.05138484, -0.02699979, 0.04852874, 0.03719502, -0.9977992, -0.02766398, 126.6837
 132975773, -0.1199458, -0.06985754, 0.0198367, 0.07113568, -0.03600795, -0.01369056, -0.01030974, 0.03347681, -0.9977119, -0.02739813, 120.3882
 133175784, -0.1235931, -0.06747776, -0.03774851, 0.07113549, -0.07215056, -0.03670195, 0.02676774, 0.03719464, -0.9976655, -0.02785173, 120.3879
 133376031, -0.1441004, -0.08964308, -0.01273291, 0.07485592, -0.037266, -0.006904113, -0.05466033, 0.03719501, -0.9975067, -0.02709923, 126.6843
 133575787, -0.1045977, -0.06933901, -0.06856584, 0.07485407, -0.0184955, -0.06032644, 0.03090842, 0.03719613, -0.9975377, -0.02882047, 126.6811
 133775804, -0.06950806, -0.1003074, -0.002005323, 0.07485386, -0.01018427, 0.003335085, -0.01332875, 0.03719353, -0.9982333, -0.02867325, 126.6808
 133996117, -0.07429305, -0.02848444, -0.03640636, 0.07857358, -0.03595855, -0.01676555, 0.01403127, 0.04091396, -0.9982981, -0.02912526, 132.9759
 134175761, -0.09661735, -0.04084566, -0.02019603, 0.07485443, -0.02098073, -0.03039776, 0.009860275, 0.03347663, -0.9984647, -0.02878077, 126.6818
 134375815, -0.09641451, -0.04519511, -0.02380631, 0.07113642, -0.02371055, 0.003063862, -0.01605672, 0.03719389, -0.998592, -0.02677418, 120.3895
 134575793, -0.09027997, -0.008675104, -0.01967682, 0.07485406, -0.03885904, -0.02350734, 0.0002972842, 0.03719501, -0.9986564, -0.02750384, 126.6811
 134796160, -0.1183814, -0.02341712, 0.003263845, 0.07857504, -0.06751238, 0.008414439, -0.06529034, 0.04091433, -0.9989036, -0.02883377, 132.9785
 134996313, -0.1578955, 0.002056009, -0.07513441, 0.07857524, -0.06349099, 0.01216356, -0.006196374, 0.03719724, -0.9988137, -0.02799982, 134.641
 135196110, -0.1642043, -0.00309374, -0.0140651, 0.07485685, -0.07984646, -0.02824585, -0.02010436, 0.03719297, -0.9984801, -0.02821724, 126.6859
 135396135, -0.1782818, -0.05229692, -0.03482273, 0.07485405, -0.08674855, -0.002818996, 3.298698E-05, 0.03719502, -0.9984028, -0.02768297, 126.6811
 135596141, -0.1763928, -0.03711349, -0.001482583, 0.07485647, -0.05191169, -0.02774515, -0.007393396, 0.03719501, -0.9981428, -0.02770355, 126.6852
 135775821, -0.1308219, -0.0460172, -0.005880756, 0.07113586, -0.03600588, 0.02664973, 0.01971205, 0.03347662, -0.998558, -0.02802686, 120.3885
 135975905, -0.1132832, 0.02759678, 0.04511723, 0.0711355, -0.01885406, -0.02902927, 0.04513951, 0.03719445, -0.9990662, -0.02972097, 120.3879
 136175767, -0.1018487, -0.007967203, 0.08852204, 0.07485389, -0.06246039, 0.04663103, 0.02583013, 0.03719613, -0.9991734, -0.03363318, 126.6808
 136375811, -0.1655965, 0.1344355, 0.02867249, 0.07485535, -0.1008962, 0.1433391, -0.1057513, 0.03719464, -0.9993743, -0.03347634, 126.6833
 136575765, -0.1929975, 0.2224066, -0.0888443, 0.07485312, -0.03903538, -0.06508855, 0.1312883, 0.03719576, -0.9993017, -0.03328292, 126.6796
 136775857, -0.1011255, 0.01199491, 0.1438948, 0.07485445, 0.04605351, -0.002293231, 0.0252888, 0.03719371, -0.9994996, -0.031157, 126.6818
 136976039, -0.002087941, 0.07633418, 0.01996795, 0.07485312, 0.03196125, 0.1135462, -0.09553202, 0.03719427, -0.9996287, -0.0242327, 126.6796
 137175791, -0.01772606, 0.1376958, -0.1210736, 0.07485425, -0.07072644, -0.0009397849, -0.0670521, 0.0371952, -0.9993728, -0.02004063, 126.6815
 137375801, -0.07958045, -0.06869457, -0.02700435, 0.07485554, -0.04432772, -0.1508851, 0.1925128, 0.03719483, -0.9975113, -0.0240038, 126.6837
 137596146, -0.02122346, -0.2726072, 0.206232, 0.07857487, 0.02706853, -0.09742717, 0.0312191, 0.04091452, -0.9932379, -0.0303165, 132.9781
 137796060, 0.004986876, -0.2673225, 0.04659915, 0.0785756, 0.04318782, 0.09078156, -0.1549676, 0.03719557, -0.9937582, -0.03401549, 132.9794
 137996111, -0.008581123, -0.04406989, -0.1270973, 0.07485498, 0.002331931, 0.04394234, -0.1286577, 0.03719446, -0.9973037, -0.03099821, 126.6827
 138196112, -0.08447494, -0.02912907, -0.09562348, 0.07485443, 0.0003185939, -0.09609197, 0.03720227, 0.03719502, -0.9976671, -0.03448042, 126.6818
 138396121, -0.1030725, -0.1174083, 0.03307713, 0.07485498, -0.05548181, -0.1224527, 0.1324117, 0.03719502, -0.9978455, -0.03482435, 126.6827
 138575792, -0.1706034, -0.1665719, 0.1398279, 0.07113623, -0.1587707, -0.02885587, 0.02230231, 0.03347551, -0.9956802, -0.038521, 120.3892
 138796122, -0.3180075, -0.09048364, 0.01413405, 0.07485816, -0.1154583, 0.09407023, -0.1244625, 0.04091525, -0.9970925, -0.03309643, 126.6881
 138996136, -0.2492431, 0.009834792, -0.09708945, 0.07857448, -0.01918071, -0.02715185, -0.005370819, 0.03719427, -0.9965158, -0.03313101, 132.9775
 139196113, -0.1306786, -0.09080303, 0.03778477, 0.07485422, 0.002802222, -0.1214493, 0.1887927, 0.03719502, -0.9963344, -0.03028807, 126.6815
 139396113, -0.0701198, -0.1699758, 0.1617133, 0.07485497, -0.04020419, -0.04906851, 0.002058859, 0.03719502, -0.9967858, -0.03431647, 126.6827
 139596163, -0.09507381, -0.07749631, 0.00734366, 0.07485518, -0.04798412, 0.09682887, -0.08809558, 0.03719501, -0.9983193, -0.03440327, 126.683
 139775789, -0.09224248, 0.1084244, -0.04805309, 0.07113548, -0.02131804, 0.02239958, -0.0554888, 0.03347551, -0.9992066, -0.03214743, 120.3879
 139996115, -0.05256705, 0.05657827, -0.008389177, 0.07485665, 0.01202419, -0.1044997, 0.1658247, 0.04091451, -0.9993743, -0.02706833, 126.6855
 140196113, 0.004733266, 0.008104652, 0.1978148, 0.07857504, -0.04899296, 0.009009449, 0.07432908, 0.03719484, -0.9997766, -0.01903326, 132.9785
 140396252, -0.01851035, 0.1015319, 0.06377105, 0.07485869, -0.03390472, 0.1344464, -0.1077562, 0.03719521, -0.9996458, -0.02640682, 126.689
 140596242, -0.01801299, 0.1709368, -0.1111485, 0.07485855, 0.03568517, 0.03215285, -0.06713942, 0.03719539, -0.9991426, -0.03238754, 126.6887
 140796126, -0.03441284, 0.0159784, -0.07437608, 0.07485721, 0.02828676, -0.09369573, 0.08974859, 0.03719502, -0.9970852, -0.03544791, 126.6865
