TimeUS,CGpN,CGpE,CGpD,CGpe,PGpN,PGpE,PGpD,PGpe
 21338593, 0.005, 0.013, 0.014, 1.018, 0.025, -0.05, 0.022, 1.02
 21518693, -0.015, 0.025, -0.097, 1.015, 0.005, 0.013, 0.014, 1.018
 21738559, 0.005, -0.013, 0.039, 1.013, -0.015, 0.025, -0.097, 1.015
 21938646, 0.015, -0.03, 0.045, 1.011, 0.005, -0.013, 0.039, 1.013
 22138577, 0.014, 0.046, 0.05, 1.008, 0.015, -0.03, 0.045, 1.011
 22338607, 0.014, 0.012, 0.022, 1.006, 0.014, 0.046, 0.05, 1.008
 22538604, -0.052, 0.026, -0.061, 1.004, 0.014, 0.012, 0.022, 1.006
 22738588, 0.023, -0.018, 0.06500001, 1.001, -0.052, 0.026, -0.061, 1.004
 22938596, 0.011, -0.029, 0.008, 0.9990001, 0.023, -0.018, 0.06500001, 1.001
 23138811, -0.04, 0.022, 0.044, 0.997, 0.011, -0.029, 0.008, 0.9990001
 23338701, -0.022, -0.002, 0.006, 0.9950001, -0.04, 0.022, 0.044, 0.997
 23538615, 0.01, -0.017, -0.054, 0.993, -0.022, -0.002, 0.006, 0.9950001
 23738615, -0.024, 0.014, -0.028, 0.9910001, 0.01, -0.017, -0.054, 0.993
 23938593, -0.013, 0.055, -0.023, 0.989, -0.024, 0.014, -0.028, 0.9910001
 24118608, 0.04, 0.012, -0.083, 0.987, -0.013, 0.055, -0.023, 0.989
 24338598, -0.031, 0.062, -0.027, 0.9850001, 0.04, 0.012, -0.083, 0.987
 24538621, -0.03, 0.013, -0.008, 0.983, -0.031, 0.062, -0.027, 0.9850001
 24738592, -0.024, -0.012, -0.034, 0.9820001, -0.03, 0.013, -0.008, 0.983
 24938621, -0.02, -0.005, -0.006, 0.9810001, -0.024, -0.012, -0.034, 0.9820001
 25138703, -0.014, 0.025, 0.02, 0.979, -0.02, -0.005, -0.006, 0.9810001
 25338614, 0.026, -0.001, -0.04, 0.9770001, -0.014, 0.025, 0.02, 0.979
 25538520, 0.025, 0.045, -0.001, 0.9760001, 0.026, -0.001, -0.04, 0.9770001
 25738503, -0.034, -0.022, -0.059, 0.974, 0.025, 0.045, -0.001, 0.9760001
 25938524, 0.017, 0.017, -0.071, 0.973, -0.034, -0.022, -0.059, 0.974
 26138505, -0.008, -0.001, -0.03, 0.9720001, 0.017, 0.017, -0.071, 0.973
 26338516, -0.012, -0.005, 0.031, 0.9710001, -0.008, -0.001, -0.03, 0.9720001
 26538538, 0.003, -0.005, -0.016, 0.969, -0.012, -0.005, 0.031, 0.9710001
 26738537, -0.016, -0.024, 0.004, 0.9680001, 0.003, -0.005, -0.016, 0.969
 26938562, -0.003, -0.022, -0.004, 0.9670001, -0.016, -0.024, 0.004, 0.9680001
 27138521, 0.013, 0.008, -0.06500001, 0.965, -0.003, -0.022, -0.004, 0.9670001
 27338537, 0.022, 0.008, 0.028, 0.9630001, 0.013, 0.008, -0.06500001, 0.965
 27538542, -0.02, -0.003, 0.009000001, 0.961, 0.022, 0.008, 0.028, 0.9630001
 27738526, -0.031, -0.042, 0.047, 0.96, -0.02, -0.003, 0.009000001, 0.961
 27938527, 0.002, 0.02, 0.05, 0.9590001, -0.031, -0.042, 0.047, 0.96
 28138501, -0.018, 0.024, 0.013, 0.957, 0.002, 0.02, 0.05, 0.9590001
 28338546, 0, -0.012, 0.037, 0.956, -0.018, 0.024, 0.013, 0.957
 28538540, -0.02, 0.008, 0.025, 0.955, 0, -0.012, 0.037, 0.956
 28738540, -0.053, 0.034, -0.013, 0.9540001, -0.02, 0.008, 0.025, 0.955
 28938492, 0.033, 0.013, -0.01, 0.9530001, -0.053, 0.034, -0.013, 0.9540001
 29198506, -0.028, -0.05, 0.02, 0.952, 0.033, 0.013, -0.01, 0.9530001
 29318529, 0.031, 0.011, 0.032, 0.951, -0.028, -0.05, 0.02, 0.952
 29538499, 0.016, -0.032, 0.005, 0.95, 0.031, 0.011, 0.032, 0.951
 29738513, -0.006, 0.008, 0, 0.9490001, 0.016, -0.032, 0.005, 0.95
 29938517, 0.006, -0.004, -0.049, 0.9490001, -0.006, 0.008, 0, 0.9490001
 30138486, 0.006, -0.004, -0.059, 0.9480001, 0.006, -0.004, -0.049, 0.9490001
 30338475, -0.003, -0.012, 0.041, 0.947, 0.006, -0.004, -0.059, 0.9480001
 30538491, 0.026, 0.036, 0.063, 0.946, -0.003, -0.012, 0.041, 0.947
 30738449, -0.021, 0.051, 0.029, 0.9450001, 0.026, 0.036, 0.063, 0.946
 30938431, -0.01, 0.029, 0.056, 0.9450001, -0.021, 0.051, 0.029, 0.9450001
 31138437, -0.014, -0.015, 0.009000001, 0.9440001, -0.01, 0.029, 0.056, 0.9450001
 31338463, -0.007, 0.013, -0.003, 0.943, -0.014, -0.015, 0.009000001, 0.9440001
 31538509, 0.029, 0.017, 0.002, 0.942, -0.007, 0.013, -0.003, 0.943
 31738468, 0.03, -0.025, 0.07600001, 0.942, 0.029, 0.017, 0.002, 0.942
 31938458, 0.002, 0.005, -0.06500001, 0.941, 0.03, -0.025, 0.07600001, 0.942
 32138490, -0.031, -0.039, 0.04, 0.9400001, 0.002, 0.005, -0.06500001, 0.941
 32338518, -0.01, -0.059, -0.012, 0.9390001, -0.031, -0.039, 0.04, 0.9400001
 32538490, -0.037, 0.011, -0.081, 0.938, -0.01, -0.059, -0.012, 0.9390001
 32738462, 0.029, -0.07700001, -0.027, 0.937, -0.037, 0.011, -0.081, 0.938
 32938469, -0.002, 0.015, 0.022, 0.936, 0.029, -0.07700001, -0.027, 0.937
 33138469, 0.024, -0.067, -0.009000001, 0.9350001, -0.002, 0.015, 0.022, 0.936
 33338470, -0.026, -0.001, -0.09100001, 0.9350001, 0.024, -0.067, -0.009000001, 0.9350001
 33538509, -0.018, 0.005, 0.028, 0.934, -0.026, -0.001, -0.09100001, 0.9350001
 33738467, 0.017, -0.032, 0.07300001, 0.934, -0.018, 0.005, 0.028, 0.934
 33938481, -0.032, -0.032, -0.074, 0.933, 0.017, -0.032, 0.07300001, 0.934
 34138491, -0.007, -0.07, 0.051, 0.932, -0.032, -0.032, -0.074, 0.933
 34338470, 0.011, 0.015, 0.019, 0.932, -0.007, -0.07, 0.051, 0.932
 34518505, -0.027, 0.013, 0.015, 0.9310001, 0.011, 0.015, 0.019, 0.932
 34738451, 0, 0.012, 0.024, 0.9310001, -0.027, 0.013, 0.015, 0.9310001
 34938517, 0.043, -0.042, 0.005, 0.9300001, 0, 0.012, 0.024, 0.9310001
 35138541, -0.009000001, 0.008, 0.02, 0.929, 0.043, -0.042, 0.005, 0.9300001
 35338547, -0.038, -0.019, -0.021, 0.929, -0.009000001, 0.008, 0.02, 0.929
 35538535, 0.005, -0.045, -0.007, 0.928, -0.038, -0.019, -0.021, 0.929
 35738559, 0.001, 0.026, 0.07300001, 0.928, 0.005, -0.045, -0.007, 0.928
 35938542, -0.036, 0.041, 0.045, 0.928, 0.001, 0.026, 0.07300001, 0.928
 36138511, -0.013, 0.035, -0.067, 0.927, -0.036, 0.041, 0.045, 0.928
 36338515, -0.006, 0.011, 0.019, 0.927, -0.013, 0.035, -0.067, 0.927
 36538523, 0.011, -0.043, -0.04, 0.927, -0.006, 0.011, 0.019, 0.927
 36738529, 0.004, -0.017, 0.093, 0.9260001, 0.011, -0.043, -0.04, 0.927
 36938544, 0.001, 0.017, -0.058, 0.9260001, 0.004, -0.017, 0.093, 0.9260001
 37138508, -0.035, 0.008, 0.045, 0.9250001, 0.001, 0.017, -0.058, 0.9260001
 37338547, -0.021, -0.024, -0.001, 0.924, -0.035, 0.008, 0.045, 0.9250001
 37558574, -0.024, 0.019, -0.057, 0.924, -0.021, -0.024, -0.001, 0.924
 37738571, -0.022, 0.075, -0.005, 0.923, -0.024, 0.019, -0.057, 0.924
 37938530, 0.009000001, -0.067, 0.019, 0.923, -0.022, 0.075, -0.005, 0.923
 38138523, -0.03, 0.024, -0.062, 0.9220001, 0.009000001, -0.067, 0.019, 0.923
 38338549, -0.007, 0.037, -0.06900001, 0.9220001, -0.03, 0.024, -0.062, 0.9220001
 38538561, 0.022, -0.049, -0.06, 0.9210001, -0.007, 0.037, -0.06900001, 0.9220001
 38738566, -0.127, -0.113, -0.347, 0.9220001, 0.022, -0.049, -0.06, 0.9210001
 38938554, -0.14, 0.068, -0.539, 0.923, -0.127, -0.113, -0.347, 0.9220001
 39138559, -0.362, 0.058, -1.422, 0.923, -0.14, 0.068, -0.539, 0.923
 39338541, -0.691, -0.001, -1.984, 0.9250001, -0.362, 0.058, -1.422, 0.923
 39558573, -0.8290001, -0.286, -2.354, 0.928, -0.691, -0.001, -1.984, 0.9250001
 39738523, -1.003, -0.312, -2.557, 0.9300001, -0.8290001, -0.286, -2.354, 0.928
 39938571, -1.091, -0.168, -2.806, 0.933, -1.003, -0.312, -2.557, 0.9300001
 40138546, -1.101, -0.354, -2.635, 0.9350001, -1.091, -0.168, -2.806, 0.933
 40338545, -1.076, -0.326, -2.066, 0.937, -1.101, -0.354, -2.635, 0.9350001
 40538554, -0.929, -0.634, -0.836, 0.9390001, -1.076, -0.326, -2.066, 0.937
 40738531, -0.821, -0.513, 0.196, 0.942, -0.929, -0.634, -0.836, 0.9390001
 40938561, -0.892, -0.496, 0.498, 0.9440001, -0.821, -0.513, 0.196, 0.942
 41138560, -0.692, -0.312, 1.155, 0.9450001, -0.892, -0.496, 0.498, 0.9440001
 41338580, -0.6900001, -0.247, 1.813, 0.9480001, -0.692, -0.312, 1.155, 0.9450001
 41538562, -0.498, -0.325, 2.196, 0.951, -0.6900001, -0.247, 1.813, 0.9480001
 41738562, -0.255, -0.41, 2.229, 0.955, -0.498, -0.325, 2.196, 0.951
 41938532, -0.327, 0.6530001, 1.607, 0.96, -0.255, -0.41, 2.229, 0.955
 42138549, -0.248, 0.601, 0.8800001, 0.9630001, -0.327, 0.6530001, 1.607, 0.96
 42338555, -0.335, 1.077, -0.333, 0.965, -0.248, 0.601, 0.8800001, 0.9630001
 42538564, -0.179, 1.099, -1.219, 0.9670001, -0.335, 1.077, -0.333, 0.965
 42738551, -0.407, 0.592, -2.288, 0.97, -0.179, 1.099, -1.219, 0.9670001
 42938547, -0.559, 0.358, -3.365, 0.9720001, -0.407, 0.592, -2.288, 0.97
 43138570, -0.774, -0.133, -4.134, 0.973, -0.559, 0.358, -3.365, 0.9720001
 43338589, -0.868, -0.501, -4.628, 0.975, -0.774, -0.133, -4.134, 0.973
 43538600, -1.036, -0.348, -5.641, 0.978, -0.868, -0.501, -4.628, 0.975
 43738597, -1.084, -0.9960001, -5.906, 0.98, -1.036, -0.348, -5.641, 0.978
 43938603, -1.081, -1.187, -5.658, 0.983, -1.084, -0.9960001, -5.906, 0.98
 44138696, -1.07, -1.519, -5.487, 0.9850001, -1.081, -1.187, -5.658, 0.983
 44338584, -1.173, -1.422, -5.17, 0.987, -1.07, -1.519, -5.487, 0.9850001
 44538604, -1.233, -1.179, -4.632, 0.988, -1.173, -1.422, -5.17, 0.987
 44738607, -1.445, -1.164, -4.091, 0.989, -1.233, -1.179, -4.632, 0.988
 44938683, -1.535, -1.12, -3.46, 0.9910001, -1.445, -1.164, -4.091, 0.989
 45138605, -1.736, -1.011, -2.981, 0.993, -1.535, -1.12, -3.46, 0.9910001
 45338589, -1.814, -0.9910001, -2.226, 0.994, -1.736, -1.011, -2.981, 0.993
 45538614, -2.18, -0.816, -1.621, 0.9960001, -1.814, -0.9910001, -2.226, 0.994
 45738576, -2.042, -0.567, -0.8190001, 0.998, -2.18, -0.816, -1.621, 0.9960001
 45938591, -1.993, -0.684, -0.428, 1, -2.042, -0.567, -0.8190001, 0.998
 46138574, -2.325, -0.4, -0.096, 1.001, -1.993, -0.684, -0.428, 1
 46338613, -2.362, -0.419, 0.136, 1.003, -2.325, -0.4, -0.096, 1.001
 46538708, -2.371, -0.057, 0.118, 1.004, -2.362, -0.419, 0.136, 1.003
 46738702, -2.231, 0.057, 0.385, 1.006, -2.371, -0.057, 0.118, 1.004
 46938600, -2.475, 0.347, 0.228, 1.012, -2.231, 0.057, 0.385, 1.006
 47138599, -2.232, 0.274, 0.338, 1.017, -2.475, 0.347, 0.228, 1.012
 47338583, -2.502, 0.913, -0.017, 1.016, -2.232, 0.274, 0.338, 1.017
 47538602, -2.427, 0.673, 0.188, 1.016, -2.502, 0.913, -0.017, 1.016
 47738587, -2.581, 0.86, 0.149, 1.017, -2.427, 0.673, 0.188, 1.016
 47938572, -2.607, 0.9960001, 0.078, 1.017, -2.581, 0.86, 0.149, 1.017
 48138597, -2.519, 0.6580001, 0.381, 1.017, -2.607, 0.9960001, 0.078, 1.017
 48338803, -2.447, 0.929, 0.115, 1.017, -2.519, 0.6580001, 0.381, 1.017
 48538705, -2.299, 0.863, 0.134, 1.018, -2.447, 0.929, 0.115, 1.017
 48738570, -2.062, 0.66, 0.17, 1.019, -2.299, 0.863, 0.134, 1.018
 48938595, -2.057, 0.9400001, 0.08000001, 1.019, -2.062, 0.66, 0.17, 1.019
 49138600, -1.95, 0.825, 0.111, 1.018, -2.057, 0.9400001, 0.08000001, 1.019
 49338593, -1.95, 0.8560001, 0.045, 1.018, -1.95, 0.825, 0.111, 1.018
 49538701, -1.816, 0.936, -0.152, 1.019, -1.95, 0.8560001, 0.045, 1.018
 49738570, -1.722, 0.927, -0.061, 1.018, -1.816, 0.936, -0.152, 1.019
 49938590, -1.765, 0.8840001, -0.053, 1.018, -1.722, 0.927, -0.061, 1.018
 50138589, -1.661, 1, -0.093, 1.017, -1.765, 0.8840001, -0.053, 1.018
 50338617, -1.616, 0.9210001, -0.032, 1.016, -1.661, 1, -0.093, 1.017
 50538587, -1.521, 0.9080001, -0.292, 1.015, -1.616, 0.9210001, -0.032, 1.016
 50738597, -1.485, 0.578, -0.156, 1.015, -1.521, 0.9080001, -0.292, 1.015
 50938610, -1.601, 0.313, -0.126, 1.018, -1.485, 0.578, -0.156, 1.015
 51138602, -1.595, 0.042, -0.423, 1.02, -1.601, 0.313, -0.126, 1.018
 51338583, -1.631, -0.344, -0.109, 1.023, -1.595, 0.042, -0.423, 1.02
 51538595, -1.623, -0.649, -0.27, 1.024, -1.631, -0.344, -0.109, 1.023
 51738603, -1.722, -0.946, -0.284, 1.024, -1.623, -0.649, -0.27, 1.024
 51938604, -1.831, -1.208, -0.079, 1.025, -1.722, -0.946, -0.284, 1.024
 52138701, -1.882, -1.223, -0.321, 1.028, -1.831, -1.208, -0.079, 1.025
 52338574, -1.78, -1.5, -0.376, 1.03, -1.882, -1.223, -0.321, 1.028
 52538685, -1.785, -1.469, -0.243, 1.03, -1.78, -1.5, -0.376, 1.03
 52738592, -1.828, -1.624, -0.294, 1.032, -1.785, -1.469, -0.243, 1.03
 52938607, -1.797, -1.456, -0.277, 1.036, -1.828, -1.624, -0.294, 1.032
 53138576, -1.848, -1.299, -0.13, 1.038, -1.797, -1.456, -0.277, 1.036
 53338605, -1.829, -1.294, -0.116, 1.042, -1.848, -1.299, -0.13, 1.038
 53538614, -1.916, -1.204, -0.164, 1.047, -1.829, -1.294, -0.116, 1.042
 53738591, -1.884, -1.144, 0.104, 1.046, -1.916, -1.204, -0.164, 1.047
 53938619, -1.928, -0.9990001, -0.021, 1.044, -1.884, -1.144, 0.104, 1.046
 54138607, -1.937, -0.7270001, 0.063, 1.042, -1.928, -0.9990001, -0.021, 1.044
 54338603, -1.783, -0.517, -0.029, 1.041, -1.937, -0.7270001, 0.063, 1.042
 54558618, -1.656, -0.398, -0.019, 1.04, -1.783, -0.517, -0.029, 1.041
 54738589, -1.364, -0.221, -0.058, 1.04, -1.656, -0.398, -0.019, 1.04
 54938590, -1.067, -0.093, 0.005, 1.041, -1.364, -0.221, -0.058, 1.04
 55138613, -0.688, -0.121, -0.035, 1.042, -1.067, -0.093, 0.005, 1.041
 55338587, -0.402, -0.082, -0.165, 1.043, -0.688, -0.121, -0.035, 1.042
 55538601, -0.222, -0.105, -0.056, 1.044, -0.402, -0.082, -0.165, 1.043
 55738692, -0.129, -0.136, -0.066, 1.044, -0.222, -0.105, -0.056, 1.044
 55938724, -0.062, -0.122, -0.046, 1.045, -0.129, -0.136, -0.066, 1.044
 56138591, -0.089, -0.118, -0.09100001, 1.044, -0.062, -0.122, -0.046, 1.045
 56338581, -0.158, -0.031, -0.049, 1.045, -0.089, -0.118, -0.09100001, 1.044
 56538608, -0.318, -0.054, -0.151, 1.045, -0.158, -0.031, -0.049, 1.045
 56738697, -0.414, -0.093, -0.158, 1.045, -0.318, -0.054, -0.151, 1.045
 56938600, -0.454, 0.041, -0.111, 1.044, -0.414, -0.093, -0.158, 1.045
 57138605, -0.5330001, -0.024, -0.109, 1.043, -0.454, 0.041, -0.111, 1.044
 57338601, -0.428, 0.082, -0.101, 1.042, -0.5330001, -0.024, -0.109, 1.043
 57538711, -0.505, 0.045, -0.04, 1.043, -0.428, 0.082, -0.101, 1.042
 57738588, -0.429, 0.07700001, -0.132, 1.045, -0.505, 0.045, -0.04, 1.043
 57938567, -0.34, 0.112, -0.031, 1.048, -0.429, 0.07700001, -0.132, 1.045
 58138591, -0.261, 0.038, -0.081, 1.05, -0.34, 0.112, -0.031, 1.048
 58338592, -0.211, 0.158, -0.037, 1.052, -0.261, 0.038, -0.081, 1.05
 58538596, -0.185, 0.082, 0.044, 1.054, -0.211, 0.158, -0.037, 1.052
 58738572, -0.252, 0.208, -0.059, 1.056, -0.185, 0.082, 0.044, 1.054
 58938619, -0.176, 0.216, -0.013, 1.056, -0.252, 0.208, -0.059, 1.056
 59138592, -0.186, 0.227, -0.047, 1.055, -0.176, 0.216, -0.013, 1.056
 59338706, -0.215, 0.263, 0.003, 1.053, -0.186, 0.227, -0.047, 1.055
 59538612, -0.217, 0.339, -0.013, 1.052, -0.215, 0.263, 0.003, 1.053
 59738612, -0.19, 0.367, 0.038, 1.052, -0.217, 0.339, -0.013, 1.052
 59938589, -0.12, 0.347, -0.044, 1.051, -0.19, 0.367, 0.038, 1.052
 60138592, -0.174, 0.381, 0.068, 1.051, -0.12, 0.347, -0.044, 1.051
 60338584, -0.096, 0.478, -0.001, 1.051, -0.174, 0.381, 0.068, 1.051
 60538589, -0.15, 0.468, -0.044, 1.052, -0.096, 0.478, -0.001, 1.051
 60738573, -0.1, 0.4, -0.113, 1.052, -0.15, 0.468, -0.044, 1.052
 60938622, -0.014, 0.483, 0.008, 1.053, -0.1, 0.4, -0.113, 1.052
 61138697, -0.005, 0.403, -0.029, 1.053, -0.014, 0.483, 0.008, 1.053
 61338601, 0.038, 0.434, 0.027, 1.052, -0.005, 0.403, -0.029, 1.053
 61538607, 0.046, 0.488, 0.085, 1.051, 0.038, 0.434, 0.027, 1.052
 61738582, 0.006, 0.44, 0.052, 1.051, 0.046, 0.488, 0.085, 1.051
 61938597, 0.035, 0.482, 0.051, 1.05, 0.006, 0.44, 0.052, 1.051
 62138587, 0.041, 0.461, -0.045, 1.049, 0.035, 0.482, 0.051, 1.05
 62338581, 0.068, 0.487, 0.059, 1.049, 0.041, 0.461, -0.045, 1.049
 62538609, 0.008, 0.49, -0.043, 1.051, 0.068, 0.487, 0.059, 1.049
 62738601, 0.094, 0.498, -0.02, 1.052, 0.008, 0.49, -0.043, 1.051
 62938653, 0.051, 0.532, -0.123, 1.053, 0.094, 0.498, -0.02, 1.052
 63138603, 0.145, 0.461, 0.002, 1.054, 0.051, 0.532, -0.123, 1.053
 63338589, 0.188, 0.483, -0.022, 1.055, 0.145, 0.461, 0.002, 1.054
 63538680, 0.125, 0.451, -0.05, 1.058, 0.188, 0.483, -0.022, 1.055
 63738595, 0.175, 0.454, -0.09, 1.059, 0.125, 0.451, -0.05, 1.058
 63938598, 0.216, 0.559, -0.08000001, 1.06, 0.175, 0.454, -0.09, 1.059
 64138575, 0.155, 0.651, -0.107, 1.06, 0.216, 0.559, -0.08000001, 1.06
 64338598, 0.142, 0.55, -0.06900001, 1.061, 0.155, 0.651, -0.107, 1.06
 64538604, 0.259, 0.567, -0.047, 1.063, 0.142, 0.55, -0.06900001, 1.061
 64738694, 0.168, 0.641, 0.036, 1.065, 0.259, 0.567, -0.047, 1.063
 64938587, 0.206, 0.58, -0.068, 1.066, 0.168, 0.641, 0.036, 1.065
 65138617, 0.253, 0.565, 0.041, 1.067, 0.206, 0.58, -0.068, 1.066
 65338584, 0.183, 0.692, -0.06, 1.068, 0.253, 0.565, 0.041, 1.067
 65538606, 0.268, 0.661, -0.007, 1.069, 0.183, 0.692, -0.06, 1.068
 65738590, 0.338, 0.59, -0.08000001, 1.071, 0.268, 0.661, -0.007, 1.069
 65938589, 0.298, 0.6620001, 0.021, 1.071, 0.338, 0.59, -0.08000001, 1.071
 66138621, 0.339, 0.705, 0.123, 1.068, 0.298, 0.6620001, 0.021, 1.071
 66338605, 0.404, 0.6440001, 0.233, 1.069, 0.339, 0.705, 0.123, 1.068
 66538702, 0.355, 0.8100001, 0.202, 1.07, 0.404, 0.6440001, 0.233, 1.069
 66738598, 0.42, 0.632, 0.303, 1.07, 0.355, 0.8100001, 0.202, 1.07
 66938594, 0.366, 0.673, 0.235, 1.073, 0.42, 0.632, 0.303, 1.07
 67138575, 0.353, 0.9030001, 0.127, 1.073, 0.366, 0.673, 0.235, 1.073
 67338619, 0.498, 0.738, 0.185, 1.072, 0.353, 0.9030001, 0.127, 1.073
 67538603, 0.328, 0.892, 0.123, 1.073, 0.498, 0.738, 0.185, 1.072
 67738581, 0.477, 0.9110001, 0.055, 1.076, 0.328, 0.892, 0.123, 1.073
 67938576, 0.418, 0.9440001, 0.071, 1.075, 0.477, 0.9110001, 0.055, 1.076
 68138598, 0.444, 0.914, 0.046, 1.072, 0.418, 0.9440001, 0.071, 1.075
 68338695, 0.527, 0.8930001, -0.028, 1.07, 0.444, 0.914, 0.046, 1.072
 68538620, 0.531, 0.9540001, 0.018, 1.069, 0.527, 0.8930001, -0.028, 1.07
 68738597, 0.483, 0.9710001, 0.074, 1.068, 0.531, 0.9540001, 0.018, 1.069
 68938608, 0.415, 0.965, 0.135, 1.068, 0.483, 0.9710001, 0.074, 1.068
 69138585, 0.462, 0.961, 0.032, 1.067, 0.415, 0.965, 0.135, 1.068
 69338619, 0.46, 0.955, -0.054, 1.067, 0.462, 0.961, 0.032, 1.067
 69538592, 0.417, 0.9820001, 0.014, 1.068, 0.46, 0.955, -0.054, 1.067
 69738595, 0.386, 0.872, -0.105, 1.069, 0.417, 0.9820001, 0.014, 1.068
 69938608, 0.339, 1.062, -0.183, 1.069, 0.386, 0.872, -0.105, 1.069
 70138691, 0.239, 1.006, -0.019, 1.071, 0.339, 1.062, -0.183, 1.069
 70338606, 0.227, 0.9080001, -0.115, 1.075, 0.239, 1.006, -0.019, 1.071
 70538592, 0.244, 0.9670001, 0.05, 1.078, 0.227, 0.9080001, -0.115, 1.075
 70738602, 0.237, 1.039, -0.068, 1.077, 0.244, 0.9670001, 0.05, 1.078
 70938591, 0.255, 0.9580001, 0.02, 1.074, 0.237, 1.039, -0.068, 1.077
 71138610, 0.274, 0.7970001, -0.028, 1.069, 0.255, 0.9580001, 0.02, 1.074
 71338590, 0.294, 0.609, -0.024, 1.067, 0.274, 0.7970001, -0.028, 1.069
 71538616, 0.307, 0.334, -0.027, 1.065, 0.294, 0.609, -0.024, 1.067
 71738593, 0.344, 0.112, 0.019, 1.064, 0.307, 0.334, -0.027, 1.065
 71938622, 0.278, 0.015, -0.067, 1.062, 0.344, 0.112, 0.019, 1.064
 72141692, 0.336, -0.089, -0.007, 1.061, 0.278, 0.015, -0.067, 1.062
 72341501, 0.299, -0.184, -0.036, 1.06, 0.336, -0.089, -0.007, 1.061
 72541962, 0.235, -0.203, -0.015, 1.059, 0.299, -0.184, -0.036, 1.06
 72741537, 0.247, -0.262, -0.07700001, 1.058, 0.235, -0.203, -0.015, 1.059
 72941498, 0.197, -0.321, 0.074, 1.058, 0.247, -0.262, -0.07700001, 1.058
 73141533, 0.175, -0.489, 0.046, 1.059, 0.197, -0.321, 0.074, 1.058
 73341486, 0.131, -0.606, 0.014, 1.06, 0.175, -0.489, 0.046, 1.059
 73541523, 0.094, -0.708, -0.07600001, 1.062, 0.131, -0.606, 0.014, 1.06
 73741546, -0.046, -0.868, -0.001, 1.063, 0.094, -0.708, -0.07600001, 1.062
 73941688, -0.026, -0.9590001, -0.002, 1.064, -0.046, -0.868, -0.001, 1.063
 74141534, -0.249, -0.9810001, 0.112, 1.064, -0.026, -0.9590001, -0.002, 1.064
 74341532, -0.371, -1.207, -0.06, 1.065, -0.249, -0.9810001, 0.112, 1.064
 74541525, -0.554, -1.353, 0.106, 1.064, -0.371, -1.207, -0.06, 1.065
 74741538, -0.679, -1.518, 0.208, 1.065, -0.554, -1.353, 0.106, 1.064
 74941529, -0.7820001, -1.681, 0.195, 1.067, -0.679, -1.518, 0.208, 1.065
 75161254, -0.955, -1.925, 0.119, 1.067, -0.7820001, -1.681, 0.195, 1.067
 75341504, -1.014, -2.167, -0.078, 1.065, -0.955, -1.925, 0.119, 1.067
 75541565, -1.168, -2.396, 0.07700001, 1.063, -1.014, -2.167, -0.078, 1.065
 75741735, -1.244, -2.492, 0.028, 1.062, -1.168, -2.396, 0.07700001, 1.063
 75941555, -1.37, -2.523, -0.038, 1.061, -1.244, -2.492, 0.028, 1.062
 76141530, -1.425, -2.648, -0.05, 1.06, -1.37, -2.523, -0.038, 1.061
 76341516, -1.52, -2.794, 0.11, 1.061, -1.425, -2.648, -0.05, 1.06
 76541562, -1.55, -2.712, 0.215, 1.06, -1.52, -2.794, 0.11, 1.061
 76741934, -1.716, -2.813, -0.045, 1.061, -1.55, -2.712, 0.215, 1.06
 76941507, -1.808, -2.859, -0.001, 1.063, -1.716, -2.813, -0.045, 1.061
 77141563, -1.8, -2.795, 0.21, 1.065, -1.808, -2.859, -0.001, 1.063
 77341543, -1.947, -2.933, 0.003, 1.067, -1.8, -2.795, 0.21, 1.065
 77541753, -1.96, -2.866, -0.093, 1.069, -1.947, -2.933, 0.003, 1.067
 77741509, -2.015, -3.008, 0.009000001, 1.07, -1.96, -2.866, -0.093, 1.069
 77941524, -1.938, -2.836, -0.123, 1.069, -2.015, -3.008, 0.009000001, 1.07
 78141502, -1.92, -2.745, -0.09500001, 1.068, -1.938, -2.836, -0.123, 1.069
 78341498, -1.902, -2.618, -0.156, 1.064, -1.92, -2.745, -0.09500001, 1.068
 78561230, -1.917, -2.569, -0.199, 1.063, -1.902, -2.618, -0.156, 1.064
 78741495, -1.82, -2.441, -0.284, 1.062, -1.917, -2.569, -0.199, 1.063
 78941577, -1.596, -2.159, -0.344, 1.062, -1.82, -2.441, -0.284, 1.062
 79141568, -1.49, -2.178, -0.119, 1.059, -1.596, -2.159, -0.344, 1.062
 79341693, -1.476, -2.094, -0.274, 1.059, -1.49, -2.178, -0.119, 1.059
 79541527, -1.503, -1.858, -0.202, 1.058, -1.476, -2.094, -0.274, 1.059
 79741533, -1.382, -1.824, -0.003, 1.056, -1.503, -1.858, -0.202, 1.058
 79941501, -1.327, -1.795, -0.097, 1.052, -1.382, -1.824, -0.003, 1.056
 80141501, -1.271, -1.733, -0.246, 1.049, -1.327, -1.795, -0.097, 1.052
 80341530, -1.205, -1.632, -0.186, 1.047, -1.271, -1.733, -0.246, 1.049
 80541589, -1.211, -1.525, -0.046, 1.044, -1.205, -1.632, -0.186, 1.047
 80741492, -1.23, -1.516, -0.07600001, 1.047, -1.211, -1.525, -0.046, 1.044
 80941928, -1.16, -1.512, -0.267, 1.052, -1.23, -1.516, -0.07600001, 1.047
 81141695, -1.147, -1.369, 0.081, 1.052, -1.16, -1.512, -0.267, 1.052
 81341520, -1.028, -1.35, -0.231, 1.053, -1.147, -1.369, 0.081, 1.052
 81541554, -1.11, -1.074, -0.141, 1.054, -1.028, -1.35, -0.231, 1.053
 81741493, -1.069, -1.129, -0.093, 1.056, -1.11, -1.074, -0.141, 1.054
 81941504, -1.018, -1.148, -0.137, 1.056, -1.069, -1.129, -0.093, 1.056
 82141545, -1.01, -0.91, -0.054, 1.056, -1.018, -1.148, -0.137, 1.056
 82341505, -0.9720001, -0.91, -0.161, 1.055, -1.01, -0.91, -0.054, 1.056
 82541532, -0.877, -0.877, -0.055, 1.053, -0.9720001, -0.91, -0.161, 1.055
 82741532, -0.891, -0.749, -0.144, 1.052, -0.877, -0.877, -0.055, 1.053
 82941689, -0.8430001, -0.788, -0.008, 1.05, -0.891, -0.749, -0.144, 1.052
 83141501, -0.802, -0.731, 0.044, 1.048, -0.8430001, -0.788, -0.008, 1.05
 83341572, -0.693, -0.596, 0.079, 1.046, -0.802, -0.731, 0.044, 1.048
 83541551, -0.678, -0.541, 0.079, 1.044, -0.693, -0.596, 0.079, 1.046
 83741497, -0.666, -0.431, 0.068, 1.043, -0.678, -0.541, 0.079, 1.044
 83941566, -0.572, -0.262, 0.015, 1.042, -0.666, -0.431, 0.068, 1.043
 84141503, -0.511, -0.284, -0.012, 1.04, -0.572, -0.262, 0.015, 1.042
 84341493, -0.466, -0.216, 0.019, 1.038, -0.511, -0.284, -0.012, 1.04
 84541560, -0.491, -0.201, -0.118, 1.036, -0.466, -0.216, 0.019, 1.038
 84741766, -0.501, -0.2, 0.06900001, 1.034, -0.491, -0.201, -0.118, 1.036
 84941537, -0.479, -0.141, -0.052, 1.032, -0.501, -0.2, 0.06900001, 1.034
 85141846, -0.46, -0.199, 0.075, 1.03, -0.479, -0.141, -0.052, 1.032
 85341530, -0.479, -0.208, 0.01, 1.031, -0.46, -0.199, 0.075, 1.03
 85541536, -0.478, -0.123, -0.006, 1.03, -0.479, -0.208, 0.01, 1.031
 85741529, -0.397, -0.22, -0.011, 1.029, -0.478, -0.123, -0.006, 1.03
 85941553, -0.42, -0.269, -0.016, 1.027, -0.397, -0.22, -0.011, 1.029
 86141506, -0.439, -0.314, 0.003, 1.023, -0.42, -0.269, -0.016, 1.027
 86341549, -0.422, -0.202, 0.063, 1.022, -0.439, -0.314, 0.003, 1.023
 86541788, -0.43, -0.202, 0.036, 1.023, -0.422, -0.202, 0.063, 1.022
 86741507, -0.295, -0.236, 0.034, 1.023, -0.43, -0.202, 0.036, 1.023
 86941527, -0.307, -0.02, 0.001, 1.021, -0.295, -0.236, 0.034, 1.023
 87141559, -0.289, -0.016, -0.071, 1.02, -0.307, -0.02, 0.001, 1.021
 87341500, -0.194, 0.052, 0.055, 1.019, -0.289, -0.016, -0.071, 1.02
 87541561, -0.199, 0.057, -0.106, 1.017, -0.194, 0.052, 0.055, 1.019
 87741566, -0.172, 0.103, -0.023, 1.016, -0.199, 0.057, -0.106, 1.017
 87941501, -0.08800001, 0.134, -0.101, 1.016, -0.172, 0.103, -0.023, 1.016
 88161270, -0.07, 0.158, -0.005, 1.014, -0.08800001, 0.134, -0.101, 1.016
 88341726, -0.054, 0.215, 0.075, 1.013, -0.07, 0.158, -0.005, 1.014
 88541527, -0.042, 0.343, -0.106, 1.012, -0.054, 0.215, 0.075, 1.013
 88741532, 0.019, 0.327, 0.051, 1.01, -0.042, 0.343, -0.106, 1.012
 88941537, -0.017, 0.543, 0.061, 1.008, 0.019, 0.327, 0.051, 1.01
 89141501, 0.046, 0.595, 0.121, 1.005, -0.017, 0.543, 0.061, 1.008
 89341952, 0.03, 0.665, 0.014, 1.003, 0.046, 0.595, 0.121, 1.005
 89541558, 0.06, 0.684, 0.09100001, 1.001, 0.03, 0.665, 0.014, 1.003
 89741512, 0.042, 0.7090001, 0.037, 1, 0.06, 0.684, 0.09100001, 1.001
 89941539, 0.075, 0.698, 0.07300001, 0.998, 0.042, 0.7090001, 0.037, 1
 90141731, 0.015, 0.655, 0.043, 0.9960001, 0.075, 0.698, 0.07300001, 0.998
 90341515, -0.046, 0.731, 0.016, 0.9950001, 0.015, 0.655, 0.043, 0.9960001
 90541607, -0.002, 0.586, -0.026, 0.994, -0.046, 0.731, 0.016, 0.9950001
 90741532, -0.054, 0.461, -0.001, 0.992, -0.002, 0.586, -0.026, 0.994
 90941556, -0.075, 0.578, -0.046, 0.992, -0.054, 0.461, -0.001, 0.992
 91141537, -0.058, 0.417, -0.079, 0.9900001, -0.075, 0.578, -0.046, 0.992
 91341535, -0.046, 0.373, -0.034, 0.989, -0.058, 0.417, -0.079, 0.9900001
 91541528, -0.066, 0.492, -0.021, 0.988, -0.046, 0.373, -0.034, 0.989
 91741554, -0.002, 0.549, -0.075, 0.9860001, -0.066, 0.492, -0.021, 0.988
 91941737, -0.006, 0.5560001, -0.086, 0.9850001, -0.002, 0.549, -0.075, 0.9860001
 92141561, 0.004, 0.502, -0.031, 0.983, -0.006, 0.5560001, -0.086, 0.9850001
 92341541, 0.012, 0.482, 0.009000001, 0.983, 0.004, 0.502, -0.031, 0.983
 92541589, 0.01, 0.453, 0.055, 0.9820001, 0.012, 0.482, 0.009000001, 0.983
 92741497, 0.094, 0.442, 0.136, 0.9810001, 0.01, 0.453, 0.055, 0.9820001
 92941503, 0.09, 0.524, 0.126, 0.98, 0.094, 0.442, 0.136, 0.9810001
 93141536, 0.14, 0.506, 0.112, 0.979, 0.09, 0.524, 0.126, 0.98
 93341498, 0.151, 0.5560001, 0.032, 0.978, 0.14, 0.506, 0.112, 0.979
 93541957, 0.131, 0.649, -0.012, 0.978, 0.151, 0.5560001, 0.032, 0.978
 93741779, 0.145, 0.577, 0.059, 0.9760001, 0.131, 0.649, -0.012, 0.978
 93941539, 0.252, 0.609, -0.037, 0.9760001, 0.145, 0.577, 0.059, 0.9760001
 94141498, 0.183, 0.671, -0.037, 0.9760001, 0.252, 0.609, -0.037, 0.9760001
 94341533, 0.164, 0.737, -0.021, 0.9760001, 0.183, 0.671, -0.037, 0.9760001
 94541520, 0.248, 0.7220001, -0.058, 0.9770001, 0.164, 0.737, -0.021, 0.9760001
 94741516, 0.329, 0.673, -0.013, 0.9770001, 0.248, 0.7220001, -0.058, 0.9770001
 94941532, 0.238, 0.841, -0.038, 0.978, 0.329, 0.673, -0.013, 0.9770001
 95161228, 0.254, 0.788, 0.024, 0.9770001, 0.238, 0.841, -0.038, 0.978
 95341556, 0.246, 0.6580001, -0.022, 0.979, 0.254, 0.788, 0.024, 0.9770001
 95541776, 0.292, 0.774, -0.012, 0.979, 0.246, 0.6580001, -0.022, 0.979
 95741502, 0.256, 0.743, 0.054, 0.979, 0.292, 0.774, -0.012, 0.979
 95941499, 0.267, 0.708, 0.128, 0.978, 0.256, 0.743, 0.054, 0.979
 96141532, 0.238, 0.716, 0.053, 0.9760001, 0.267, 0.708, 0.128, 0.978
 96341502, 0.291, 0.776, -0.044, 0.9760001, 0.238, 0.716, 0.053, 0.9760001
 96541524, 0.245, 0.8200001, 0.018, 0.9760001, 0.291, 0.776, -0.044, 0.9760001
 96741561, 0.301, 0.896, -0.082, 0.9770001, 0.245, 0.8200001, 0.018, 0.9760001
 96941502, 0.2, 0.8790001, 0.036, 0.9770001, 0.301, 0.896, -0.082, 0.9770001
 97141500, 0.191, 0.9400001, 0.045, 0.9770001, 0.2, 0.8790001, 0.036, 0.9770001
 97341729, 0.242, 0.881, 0.102, 0.978, 0.191, 0.9400001, 0.045, 0.9770001
 97541519, 0.204, 0.9030001, -0.007, 0.978, 0.242, 0.881, 0.102, 0.978
 97741721, 0.256, 0.955, -0.01, 0.98, 0.204, 0.9030001, -0.007, 0.978
 97941522, 0.317, 1.043, 0.035, 0.9820001, 0.256, 0.955, -0.01, 0.98
 98141537, 0.212, 0.956, -0.038, 0.984, 0.317, 1.043, 0.035, 0.9820001
 98341539, 0.271, 1.003, -0.002, 0.987, 0.212, 0.956, -0.038, 0.984
 98541554, 0.298, 1.079, 0, 0.989, 0.271, 1.003, -0.002, 0.987
 98761228, 0.267, 1.01, 0.028, 0.9900001, 0.298, 1.079, 0, 0.989
 98961241, 0.282, 0.895, -0.058, 0.9910001, 0.267, 1.01, 0.028, 0.9900001
 99141724, 0.268, 1.059, 0.07300001, 0.9900001, 0.282, 0.895, -0.058, 0.9910001
 99341515, 0.318, 0.9120001, 0.034, 0.9900001, 0.268, 1.059, 0.07300001, 0.9900001
 99541554, 0.347, 1.024, -0.014, 0.989, 0.318, 0.9120001, 0.034, 0.9900001
 99741584, 0.258, 1.084, 0.08800001, 0.989, 0.347, 1.024, -0.014, 0.989
 99941500, 0.241, 1.008, 0.042, 0.9900001, 0.258, 1.084, 0.08800001, 0.989
 100141498, 0.35, 1.112, 0.005, 0.9910001, 0.241, 1.008, 0.042, 0.9900001
 100361238, 0.398, 0.997, 0.041, 0.993, 0.35, 1.112, 0.005, 0.9910001
 100541525, 0.44, 1.049, 0.067, 0.9960001, 0.398, 0.997, 0.041, 0.993
 100741510, 0.392, 1.098, 0.021, 0.998, 0.44, 1.049, 0.067, 0.9960001
 100941797, 0.407, 1.131, 0.045, 1, 0.392, 1.098, 0.021, 0.998
 101141575, 0.331, 1.034, 0.001, 1, 0.407, 1.131, 0.045, 1
 101341504, 0.28, 1.023, -0.019, 1.002, 0.331, 1.034, 0.001, 1
 101541558, 0.254, 1.048, -0.011, 1.004, 0.28, 1.023, -0.019, 1.002
 101741494, 0.18, 0.936, -0.051, 1.005, 0.254, 1.048, -0.011, 1.004
 101941805, 0.148, 0.65, -0.051, 1.006, 0.18, 0.936, -0.051, 1.005
 102141537, 0.136, 0.446, -0.025, 1.008, 0.148, 0.65, -0.051, 1.006
 102341510, 0.114, 0.053, -0.033, 1.01, 0.136, 0.446, -0.025, 1.008
 102541530, 0.108, -0.1, 0.079, 1.011, 0.114, 0.053, -0.033, 1.01
 102741726, 0.121, -0.382, 0.063, 1.013, 0.108, -0.1, 0.079, 1.011
 102941521, 0.057, -0.546, 0.148, 1.017, 0.121, -0.382, 0.063, 1.013
 103141519, 0.085, -0.6160001, 0.071, 1.02, 0.057, -0.546, 0.148, 1.017
 103341544, 0.121, -0.928, 0.078, 1.02, 0.085, -0.6160001, 0.071, 1.02
 103541543, 0.098, -1.24, 0.105, 1.019, 0.121, -0.928, 0.078, 1.02
 103761247, 0.021, -1.322, 0.07300001, 1.018, 0.098, -1.24, 0.105, 1.019
 103961234, 0.014, -1.601, 0.118, 1.017, 0.021, -1.322, 0.07300001, 1.018
 104141504, -0.031, -1.666, -0.026, 1.016, 0.014, -1.601, 0.118, 1.017
 104341519, -0.116, -1.948, -0.167, 1.016, -0.031, -1.666, -0.026, 1.016
 104541752, -0.132, -2.154, -0.01, 1.015, -0.116, -1.948, -0.167, 1.016
 104741508, -0.254, -2.303, -0.022, 1.015, -0.132, -2.154, -0.01, 1.015
 104941502, -0.394, -2.401, 0.078, 1.016, -0.254, -2.303, -0.022, 1.015
 105141572, -0.446, -2.548, 0.019, 1.016, -0.394, -2.401, 0.078, 1.016
 105361210, -0.498, -2.777, 0.112, 1.017, -0.446, -2.548, 0.019, 1.016
 105541514, -0.664, -2.819, 0.128, 1.018, -0.498, -2.777, 0.112, 1.017
 105741531, -0.7320001, -3.005, 0.048, 1.018, -0.664, -2.819, 0.128, 1.018
 105941508, -0.9220001, -3.218, 0.057, 1.019, -0.7320001, -3.005, 0.048, 1.018
 106141820, -1.039, -3.091, 0.024, 1.02, -0.9220001, -3.218, 0.057, 1.019
 106341724, -1.173, -3.324, 0.042, 1.02, -1.039, -3.091, 0.024, 1.02
 106541578, -1.054, -3.267, -0.06, 1.019, -1.173, -3.324, 0.042, 1.02
 106741571, -1.066, -3.112, -0.007, 1.018, -1.054, -3.267, -0.06, 1.019
 106941525, -0.994, -2.795, -0.08000001, 1.018, -1.066, -3.112, -0.007, 1.018
 107141508, -0.9390001, -2.44, -0.05, 1.017, -0.994, -2.795, -0.08000001, 1.018
 107341502, -0.8610001, -2.116, 0.118, 1.016, -0.9390001, -2.44, -0.05, 1.017
 107541555, -0.767, -1.826, 0.047, 1.016, -0.8610001, -2.116, 0.118, 1.016
 107741568, -0.705, -1.59, -0.082, 1.016, -0.767, -1.826, 0.047, 1.016
 107941502, -0.689, -1.341, -0.02, 1.014, -0.705, -1.59, -0.082, 1.016
 108161242, -0.548, -1.379, 0.06, 1.013, -0.689, -1.341, -0.02, 1.014
 108361219, -0.52, -1.472, 0.016, 1.012, -0.548, -1.379, 0.06, 1.013
 108541515, -0.532, -1.434, -0.118, 1.011, -0.52, -1.472, 0.016, 1.012
 108761238, -0.482, -1.49, -0.111, 1.009, -0.532, -1.434, -0.118, 1.011
 108941616, -0.548, -1.633, -0.169, 1.008, -0.482, -1.49, -0.111, 1.009
 109141537, -0.629, -1.698, -0.218, 1.006, -0.548, -1.633, -0.169, 1.008
 109341553, -0.491, -1.802, -0.201, 1.005, -0.629, -1.698, -0.218, 1.006
 109541574, -0.623, -1.772, -0.131, 1.004, -0.491, -1.802, -0.201, 1.005
 109741510, -0.505, -1.861, -0.257, 1.002, -0.623, -1.772, -0.131, 1.004
 109941716, -0.5930001, -1.751, -0.194, 1.001, -0.505, -1.861, -0.257, 1.002
 110141532, -0.6440001, -1.747, -0.012, 1, -0.5930001, -1.751, -0.194, 1.001
 110341938, -0.525, -1.806, 0.057, 1, -0.6440001, -1.747, -0.012, 1
 110541615, -0.574, -1.578, -0.116, 1.001, -0.525, -1.806, 0.057, 1
 110741522, -0.6, -1.556, -0.182, 1.003, -0.574, -1.578, -0.116, 1.001
 110941501, -0.46, -1.545, -0.139, 1.006, -0.6, -1.556, -0.182, 1.003
 111141532, -0.478, -1.4, -0.046, 1.007, -0.46, -1.545, -0.139, 1.006
 111341538, -0.498, -1.227, 0.02, 1.009, -0.478, -1.4, -0.046, 1.007
 111541521, -0.426, -1.234, 0.033, 1.011, -0.498, -1.227, 0.02, 1.009
 111741764, -0.481, -1.161, 0.052, 1.013, -0.426, -1.234, 0.033, 1.011
 111941530, -0.318, -1.026, -0.025, 1.016, -0.481, -1.161, 0.052, 1.013
 112141497, -0.336, -1.055, 0.042, 1.019, -0.318, -1.026, -0.025, 1.016
 112361233, -0.381, -1.121, 0.066, 1.022, -0.336, -1.055, 0.042, 1.019
 112541563, -0.364, -0.988, 0.042, 1.023, -0.381, -1.121, 0.066, 1.022
 112741503, -0.28, -0.9960001, -0.029, 1.023, -0.364, -0.988, 0.042, 1.023
 112941529, -0.274, -0.924, 0.009000001, 1.024, -0.28, -0.9960001, -0.029, 1.023
 113141572, -0.252, -0.8240001, 0.11, 1.024, -0.274, -0.924, 0.009000001, 1.024
 113341509, -0.24, -0.9170001, -0.003, 1.025, -0.252, -0.8240001, 0.11, 1.024
 113541724, -0.209, -0.886, 0.06500001, 1.024, -0.24, -0.9170001, -0.003, 1.025
 113741535, -0.142, -0.844, 0.044, 1.024, -0.209, -0.886, 0.06500001, 1.024
 113941510, -0.129, -0.789, 0.003, 1.024, -0.142, -0.844, 0.044, 1.024
 114141559, -0.14, -0.78, -0.013, 1.022, -0.129, -0.789, 0.003, 1.024
 114341595, -0.128, -0.716, -0.011, 1.023, -0.14, -0.78, -0.013, 1.022
 114561271, -0.176, -0.647, -0.124, 1.024, -0.128, -0.716, -0.011, 1.023
 114741494, -0.117, -0.7, 0.027, 1.026, -0.176, -0.647, -0.124, 1.024
 114941539, -0.132, -0.66, -0.02, 1.028, -0.117, -0.7, 0.027, 1.026
 115141505, -0.127, -0.55, -0.196, 1.03, -0.132, -0.66, -0.02, 1.028
 115361247, -0.2, -0.568, 0.137, 1.032, -0.127, -0.55, -0.196, 1.03
 115541555, -0.123, -0.543, 0.09100001, 1.035, -0.2, -0.568, 0.137, 1.032
 115741502, -0.103, -0.5420001, 0.045, 1.038, -0.123, -0.543, 0.09100001, 1.035
 115941508, -0.115, -0.524, 0.037, 1.04, -0.103, -0.5420001, 0.045, 1.038
 116141548, -0.123, -0.5420001, -0.005, 1.042, -0.115, -0.524, 0.037, 1.04
 116341506, -0.104, -0.475, -0.012, 1.044, -0.123, -0.5420001, -0.005, 1.042
 116541537, -0.196, -0.601, -0.005, 1.047, -0.104, -0.475, -0.012, 1.044
 116741528, -0.204, -0.6810001, 0.037, 1.051, -0.196, -0.601, -0.005, 1.047
 116941507, -0.201, -0.551, -0.001, 1.054, -0.204, -0.6810001, 0.037, 1.051
 117141691, -0.217, -0.541, 0.082, 1.053, -0.201, -0.551, -0.001, 1.054
 117341530, -0.191, -0.591, -0.044, 1.052, -0.217, -0.541, 0.082, 1.053
 117541558, -0.145, -0.446, 0.055, 1.051, -0.191, -0.591, -0.044, 1.052
 117741506, -0.186, -0.415, -0.006, 1.051, -0.145, -0.446, 0.055, 1.051
 117941529, -0.152, -0.473, -0.055, 1.051, -0.186, -0.415, -0.006, 1.051
 118161230, -0.094, -0.315, -0.019, 1.05, -0.152, -0.473, -0.055, 1.051
 118361233, -0.019, -0.353, -0.053, 1.05, -0.094, -0.315, -0.019, 1.05
 118541552, -0.063, -0.329, 0.003, 1.049, -0.019, -0.353, -0.053, 1.05
 118741820, -0.032, -0.311, -0.028, 1.049, -0.063, -0.329, 0.003, 1.049
 118941696, -0.071, -0.283, 0.08000001, 1.048, -0.032, -0.311, -0.028, 1.049
 119141530, -0.183, -0.235, -0.008, 1.047, -0.071, -0.283, 0.08000001, 1.048
 119341537, -0.143, -0.223, 0.027, 1.047, -0.183, -0.235, -0.008, 1.047
 119541521, -0.159, -0.217, -0.036, 1.047, -0.143, -0.223, 0.027, 1.047
 119741598, -0.176, -0.115, -0.001, 1.048, -0.159, -0.217, -0.036, 1.047
 119941495, -0.183, -0.193, -0.002, 1.048, -0.176, -0.115, -0.001, 1.048
 120141496, -0.136, -0.131, 0.09900001, 1.049, -0.183, -0.193, -0.002, 1.048
 120341532, -0.209, -0.034, -0.074, 1.05, -0.136, -0.131, 0.09900001, 1.049
 120541516, -0.206, -0.121, -0.07, 1.05, -0.209, -0.034, -0.074, 1.05
 120741740, -0.167, -0.123, 0.07300001, 1.051, -0.206, -0.121, -0.07, 1.05
 120941572, -0.184, -0.06, -0.115, 1.052, -0.167, -0.123, 0.07300001, 1.051
 121141499, -0.18, -0.081, -0.006, 1.052, -0.184, -0.06, -0.115, 1.052
 121361213, -0.253, -0.068, -0.05, 1.053, -0.18, -0.081, -0.006, 1.052
 121541552, -0.255, -0.09500001, -0.146, 1.053, -0.253, -0.068, -0.05, 1.053
 121741506, -0.3, -0.134, -0.047, 1.054, -0.255, -0.09500001, -0.146, 1.053
 121941501, -0.256, -0.142, -0.013, 1.054, -0.3, -0.134, -0.047, 1.054
 122141582, -0.28, -0.059, 0.002, 1.053, -0.256, -0.142, -0.013, 1.054
 122341522, -0.274, -0.128, -0.094, 1.053, -0.28, -0.059, 0.002, 1.053
 122541722, -0.254, -0.006, 0.012, 1.052, -0.274, -0.128, -0.094, 1.053
 122741550, -0.238, -0.042, -0.053, 1.051, -0.254, -0.006, 0.012, 1.052
 122941725, -0.26, -0.06, 0.08400001, 1.05, -0.238, -0.042, -0.053, 1.051
 123141508, -0.275, -0.089, 0.116, 1.049, -0.26, -0.06, 0.08400001, 1.05
 123341529, -0.314, -0.002, 0.046, 1.048, -0.275, -0.089, 0.116, 1.049
 123541577, -0.376, 0.04, 0.019, 1.048, -0.314, -0.002, 0.046, 1.048
 123741496, -0.33, 0.029, -0.004, 1.047, -0.376, 0.04, 0.019, 1.048
 123941536, -0.318, -0.008, -0.045, 1.046, -0.33, 0.029, -0.004, 1.047
 124141506, -0.226, -0.031, 0.011, 1.046, -0.318, -0.008, -0.045, 1.046
 124341698, -0.231, -0.026, -0.04, 1.045, -0.226, -0.031, 0.011, 1.046
 124541554, -0.154, -0.051, 0.001, 1.043, -0.231, -0.026, -0.04, 1.045
 124741539, -0.175, -0.022, 0.019, 1.041, -0.154, -0.051, 0.001, 1.043
 124941504, -0.161, 0.007, 0.005, 1.039, -0.175, -0.022, 0.019, 1.041
 125141566, -0.221, -0.024, 0.044, 1.036, -0.161, 0.007, 0.005, 1.039
 125341501, -0.185, -0.037, -0.032, 1.036, -0.221, -0.024, 0.044, 1.036
 125541517, -0.156, 0.037, -0.025, 1.036, -0.185, -0.037, -0.032, 1.036
 125761260, -0.161, 0.054, -0.067, 1.036, -0.156, 0.037, -0.025, 1.036
 125941535, -0.146, -0.058, -0.03, 1.035, -0.161, 0.054, -0.067, 1.036
 126141731, -0.112, 0.002, -0.004, 1.033, -0.146, -0.058, -0.03, 1.035
 126341529, -0.116, 0.015, 0.003, 1.033, -0.112, 0.002, -0.004, 1.033
 126541571, -0.112, 0.047, -0.042, 1.033, -0.116, 0.015, 0.003, 1.033
 126741496, -0.135, 0.049, -0.025, 1.033, -0.112, 0.047, -0.042, 1.033
 126941547, -0.228, 0.11, -0.037, 1.034, -0.135, 0.049, -0.025, 1.033
 127141838, -0.114, 0.158, 0.027, 1.035, -0.228, 0.11, -0.037, 1.034
 127341574, -0.128, 0.113, -0.044, 1.035, -0.114, 0.158, 0.027, 1.035
 127541553, -0.121, 0.078, 0.006, 1.036, -0.128, 0.113, -0.044, 1.035
 127741537, -0.177, 0.143, 0.005, 1.038, -0.121, 0.078, 0.006, 1.036
 127941690, -0.153, 0.147, 0.01, 1.038, -0.177, 0.143, 0.005, 1.038
 128141536, -0.164, 0.06, 0.012, 1.038, -0.153, 0.147, 0.01, 1.038
 128361217, -0.122, 0.126, -0.003, 1.038, -0.164, 0.06, 0.012, 1.038
 128561194, -0.08000001, 0.004, -0.035, 1.039, -0.122, 0.126, -0.003, 1.038
 128741525, -0.102, 0.032, 0.022, 1.039, -0.08000001, 0.004, -0.035, 1.039
 128941584, -0.037, 0.038, -0.025, 1.039, -0.102, 0.032, 0.022, 1.039
 129141512, -0.027, 0.08000001, -0.006, 1.04, -0.037, 0.038, -0.025, 1.039
 129341537, -0.051, 0.12, 0.061, 1.041, -0.027, 0.08000001, -0.006, 1.04
 129541601, -0.052, 0.071, -0.06900001, 1.042, -0.051, 0.12, 0.061, 1.041
 129741721, -0.072, 0.097, 0.028, 1.043, -0.052, 0.071, -0.06900001, 1.042
 129941528, -0.126, 0.035, -0.017, 1.047, -0.072, 0.097, 0.028, 1.043
 130141548, -0.051, 0.063, 0.042, 1.052, -0.126, 0.035, -0.017, 1.047
 130341503, -0.079, 0.016, 0.046, 1.052, -0.051, 0.063, 0.042, 1.052
 130561242, -0.038, 0.1, -0.036, 1.052, -0.079, 0.016, 0.046, 1.052
 130741549, -0.067, 0.07300001, 0.056, 1.053, -0.038, 0.1, -0.036, 1.052
 130941491, -0.09900001, 0.078, -0.028, 1.055, -0.067, 0.07300001, 0.056, 1.053
 131161237, -0.074, 0.086, 0.009000001, 1.053, -0.09900001, 0.078, -0.028, 1.055
 131341823, -0.098, 0.08400001, 0, 1.052, -0.074, 0.086, 0.009000001, 1.053
 131541718, -0.123, 0.018, 0.056, 1.05, -0.098, 0.08400001, 0, 1.052
 131741541, -0.124, 0.089, 0.06, 1.049, -0.123, 0.018, 0.056, 1.05
 131941546, -0.136, 0.106, -0.016, 1.047, -0.124, 0.089, 0.06, 1.049
 132141496, -0.171, 0.09900001, -0.019, 1.046, -0.136, 0.106, -0.016, 1.047
 132341534, -0.158, 0.103, 0.009000001, 1.044, -0.171, 0.09900001, -0.019, 1.046
 132541551, -0.178, 0.169, -0.001, 1.043, -0.158, 0.103, 0.009000001, 1.044
 132741544, -0.172, 0.151, -0.016, 1.042, -0.178, 0.169, -0.001, 1.043
 132941536, -0.163, 0.015, -0.028, 1.041, -0.172, 0.151, -0.016, 1.042
 133141546, -0.125, 0.051, -0.002, 1.041, -0.163, 0.015, -0.028, 1.041
 133341692, -0.153, 0.054, 0.016, 1.04, -0.125, 0.051, -0.002, 1.041
 133541590, -0.144, 0.114, 0.038, 1.039, -0.153, 0.054, 0.016, 1.04
 133741536, -0.124, 0.082, 0.07300001, 1.038, -0.144, 0.114, 0.038, 1.039
 133941510, -0.18, 0.113, 0.074, 1.039, -0.124, 0.082, 0.07300001, 1.038
 134141519, -0.169, 0.15, 0.022, 1.04, -0.18, 0.113, 0.074, 1.039
 134341537, -0.183, 0.22, -0.032, 1.042, -0.169, 0.15, 0.022, 1.04
 134541573, -0.144, 0.125, 0.105, 1.043, -0.183, 0.22, -0.032, 1.042
 134741532, -0.114, 0.128, -0.027, 1.044, -0.144, 0.125, 0.105, 1.043
 134941551, -0.161, 0.08800001, -0.021, 1.045, -0.114, 0.128, -0.027, 1.044
 135161206, -0.174, 0.17, 0.09200001, 1.045, -0.161, 0.08800001, -0.021, 1.045
 135341546, -0.19, 0.086, -0.001, 1.045, -0.174, 0.17, 0.09200001, 1.045
 135541945, -0.162, 0.074, 0.006, 1.046, -0.19, 0.086, -0.001, 1.045
 135741557, -0.239, -0.004, 0.021, 1.046, -0.162, 0.074, 0.006, 1.046
 135941564, -0.202, 0.036, 0.063, 1.047, -0.239, -0.004, 0.021, 1.046
 136141542, -0.252, 0.018, 0.098, 1.048, -0.202, 0.036, 0.063, 1.047
 136361236, -0.306, 0.049, 0.041, 1.049, -0.252, 0.018, 0.098, 1.048
 136541592, -0.277, 0.071, 0.022, 1.05, -0.306, 0.049, 0.041, 1.049
 136741531, -0.291, 0.071, 0.018, 1.05, -0.277, 0.071, 0.022, 1.05
 136941690, -0.294, 0.066, -0.072, 1.051, -0.291, 0.071, 0.018, 1.05
 137141599, -0.245, -0.003, 0.051, 1.051, -0.294, 0.066, -0.072, 1.051
 137341537, -0.254, 0.11, -0.123, 1.053, -0.245, -0.003, 0.051, 1.051
 137541535, -0.212, 0.07700001, -0.023, 1.056, -0.254, 0.11, -0.123, 1.053
 137741531, -0.255, 0.075, -0.003, 1.058, -0.212, 0.07700001, -0.023, 1.056
 137941534, -0.214, 0.09900001, 0.079, 1.059, -0.255, 0.075, -0.003, 1.058
 138161229, -0.294, 0.111, 0, 1.056, -0.214, 0.09900001, 0.079, 1.059
 138341568, -0.363, 0.171, -0.006, 1.056, -0.294, 0.111, 0, 1.056
 138541556, -0.308, 0.142, -0.035, 1.056, -0.363, 0.171, -0.006, 1.056
 138741709, -0.357, 0.194, -0.011, 1.056, -0.308, 0.142, -0.035, 1.056
 138941534, -0.359, 0.121, -0.032, 1.056, -0.357, 0.194, -0.011, 1.056
 139141549, -0.331, 0.255, -0.064, 1.057, -0.359, 0.121, -0.032, 1.056
 139341492, -0.353, 0.06, -0.06, 1.06, -0.331, 0.255, -0.064, 1.057
 139541598, -0.387, 0.258, 0.08000001, 1.064, -0.353, 0.06, -0.06, 1.06
 139741823, -0.328, 0.223, -0.036, 1.066, -0.387, 0.258, 0.08000001, 1.064
 139941523, -0.313, 0.204, 0.05, 1.068, -0.328, 0.223, -0.036, 1.066
 140141534, -0.271, 0.138, 0.127, 1.07, -0.313, 0.204, 0.05, 1.068
 140341536, -0.331, 0.176, 0.051, 1.071, -0.271, 0.138, 0.127, 1.07
 140561252, -0.295, 0.115, 0.125, 1.071, -0.331, 0.176, 0.051, 1.071
 140741533, -0.229, 0.147, -0.048, 1.072, -0.295, 0.115, 0.125, 1.071
 140961244, -0.33, 0.096, -0.035, 1.073, -0.229, 0.147, -0.048, 1.072
 141141500, -0.45, 0.156, -0.074, 1.073, -0.33, 0.096, -0.035, 1.073
 141341522, -0.432, 0.166, 0.025, 1.074, -0.45, 0.156, -0.074, 1.073
 141561252, -0.492, 0.19, -0.06, 1.074, -0.432, 0.166, 0.025, 1.074
 141741500, -0.528, 0.231, -0.06900001, 1.072, -0.492, 0.19, -0.06, 1.074
 141941573, -0.54, 0.177, -0.067, 1.071, -0.528, 0.231, -0.06900001, 1.072
 142141568, -0.455, 0.273, -0.066, 1.07, -0.54, 0.177, -0.067, 1.071
 142361231, -0.437, 0.155, -0.053, 1.069, -0.455, 0.273, -0.066, 1.07
 142541555, -0.466, 0.067, 0.07300001, 1.067, -0.437, 0.155, -0.053, 1.069
 142741534, -0.472, 0.139, -0.057, 1.066, -0.466, 0.067, 0.07300001, 1.067
 142941497, -0.371, 0.116, -0.015, 1.065, -0.472, 0.139, -0.057, 1.066
 143141561, -0.493, 0.019, 0.036, 1.063, -0.371, 0.116, -0.015, 1.065
 143341571, -0.402, 0.085, 0.058, 1.062, -0.493, 0.019, 0.036, 1.063
 143541512, -0.497, 0.054, 0.07700001, 1.061, -0.402, 0.085, 0.058, 1.062
 143741492, -0.462, 0.19, -0.027, 1.058, -0.497, 0.054, 0.07700001, 1.061
 143941845, -0.623, 0.196, -0.07700001, 1.055, -0.462, 0.19, -0.027, 1.058
 144141685, -0.612, 0.31, -0.134, 1.051, -0.623, 0.196, -0.07700001, 1.055
 144341503, -0.701, 0.394, -0.146, 1.05, -0.612, 0.31, -0.134, 1.051
 144541598, -0.582, 0.396, -0.052, 1.049, -0.701, 0.394, -0.146, 1.05
 144741504, -0.591, 0.43, -0.121, 1.049, -0.582, 0.396, -0.052, 1.049
 144941498, -0.5420001, 0.351, -0.004, 1.05, -0.591, 0.43, -0.121, 1.049
 145141526, -0.485, 0.303, -0.115, 1.052, -0.5420001, 0.351, -0.004, 1.05
 145341499, -0.471, 0.148, -0.08800001, 1.054, -0.485, 0.303, -0.115, 1.052
 145541516, -0.451, 0.227, -0.064, 1.056, -0.471, 0.148, -0.08800001, 1.054
 145761289, -0.458, 0.111, -0.002, 1.059, -0.451, 0.227, -0.064, 1.056
 145941686, -0.436, 0.102, -0.216, 1.061, -0.458, 0.111, -0.002, 1.059
 146141525, -0.42, 0.131, -0.09900001, 1.064, -0.436, 0.102, -0.216, 1.061
 146341520, -0.409, 0.056, -0.002, 1.066, -0.42, 0.131, -0.09900001, 1.064
 146541524, -0.501, 0.011, -0.07700001, 1.068, -0.409, 0.056, -0.002, 1.066
 146741557, -0.575, 0.003, 0.1, 1.069, -0.501, 0.011, -0.07700001, 1.068
 146941575, -0.589, 0.122, -0.017, 1.071, -0.575, 0.003, 0.1, 1.069
 147141492, -0.586, 0.205, 0.06, 1.072, -0.589, 0.122, -0.017, 1.071
 147341507, -0.591, 0.177, -0.025, 1.075, -0.586, 0.205, 0.06, 1.072
 147541565, -0.6620001, 0.293, -0.011, 1.077, -0.591, 0.177, -0.025, 1.075
 147741699, -0.698, 0.201, -0.05, 1.079, -0.6620001, 0.293, -0.011, 1.077
 147941518, -0.67, 0.213, 0.087, 1.081, -0.698, 0.201, -0.05, 1.079
 148161231, -0.717, 0.242, 0.001, 1.082, -0.67, 0.213, 0.087, 1.081
 148361294, -0.728, 0.3, 0.001, 1.083, -0.717, 0.242, 0.001, 1.082
 148541526, -0.7550001, 0.262, -0.047, 1.084, -0.728, 0.3, 0.001, 1.083
 148741535, -0.714, 0.254, -0.059, 1.086, -0.7550001, 0.262, -0.047, 1.084
 148941507, -0.708, 0.147, -0.056, 1.088, -0.714, 0.254, -0.059, 1.086
 149161232, -0.703, 0.22, -0.151, 1.09, -0.708, 0.147, -0.056, 1.088
 149341540, -0.664, 0.179, -0.007, 1.092, -0.703, 0.22, -0.151, 1.09
 149541713, -0.66, 0.119, -0.037, 1.094, -0.664, 0.179, -0.007, 1.092
 149741494, -0.595, 0.043, -0.034, 1.096, -0.66, 0.119, -0.037, 1.094
 149941521, -0.665, 0.146, 0.07, 1.096, -0.595, 0.043, -0.034, 1.096
 150141505, -0.601, 0.138, 0.064, 1.095, -0.665, 0.146, 0.07, 1.096
 150341498, -0.596, 0.104, -0.049, 1.093, -0.601, 0.138, 0.064, 1.095
 150561246, -0.592, 0.093, -0.005, 1.091, -0.596, 0.104, -0.049, 1.093
 150761282, -0.6350001, 0.053, -0.064, 1.09, -0.592, 0.093, -0.005, 1.091
 150961237, -0.558, 0.028, -0.052, 1.089, -0.6350001, 0.053, -0.064, 1.09
 151161267, -0.578, 0.038, 0.1, 1.088, -0.558, 0.028, -0.052, 1.089
 151361214, -0.508, 0.017, 0.096, 1.087, -0.578, 0.038, 0.1, 1.088
 151541512, -0.465, -0.037, 0.047, 1.086, -0.508, 0.017, 0.096, 1.087
 151761279, -0.503, -0.029, 0.078, 1.085, -0.465, -0.037, 0.047, 1.086
 151941536, -0.45, 0, -0.026, 1.083, -0.503, -0.029, 0.078, 1.085
 152141494, -0.512, -0.068, 0.031, 1.082, -0.45, 0, -0.026, 1.083
 152341846, -0.445, 0.107, 0.062, 1.079, -0.512, -0.068, 0.031, 1.082
 152541270, -0.525, -0.045, 0.035, 1.076, -0.445, 0.107, 0.062, 1.079
 152741245, -0.548, 0.09200001, -0.016, 1.074, -0.525, -0.045, 0.035, 1.076
 152941224, -0.526, 0.15, -0.067, 1.072, -0.548, 0.09200001, -0.016, 1.074
 153141260, -0.567, 0.127, 0.011, 1.071, -0.526, 0.15, -0.067, 1.072
 153341238, -0.614, 0.017, -0.09200001, 1.07, -0.567, 0.127, 0.011, 1.071
 153541268, -0.648, 0.059, -0.014, 1.07, -0.614, 0.017, -0.09200001, 1.07
 153741262, -0.647, 0.051, -0.155, 1.07, -0.648, 0.059, -0.014, 1.07
 153941257, -0.659, 0.041, 0.017, 1.07, -0.647, 0.051, -0.155, 1.07
 154141220, -0.683, -0.018, -0.009000001, 1.07, -0.659, 0.041, 0.017, 1.07
 154341249, -0.7, 0.004, 0.068, 1.069, -0.683, -0.018, -0.009000001, 1.07
 154541265, -0.683, -0.074, 0.049, 1.067, -0.7, 0.004, 0.068, 1.069
 154741234, -0.757, -0.038, -0.007, 1.066, -0.683, -0.074, 0.049, 1.067
 154941290, -0.73, -0.023, -0.02, 1.063, -0.757, -0.038, -0.007, 1.066
 155141257, -0.626, -0.028, -0.138, 1.059, -0.73, -0.023, -0.02, 1.063
 155341249, -0.702, 0.016, -0.02, 1.054, -0.626, -0.028, -0.138, 1.059
 155541266, -0.656, 0.007, 0.097, 1.051, -0.702, 0.016, -0.02, 1.054
 155761217, -0.603, 0.09200001, -0.063, 1.049, -0.656, 0.007, 0.097, 1.051
 155941254, -0.595, 0.017, -0.01, 1.047, -0.603, 0.09200001, -0.063, 1.049
 156141232, -0.5840001, -0.002, 0.049, 1.045, -0.595, 0.017, -0.01, 1.047
 156341216, -0.6760001, 0.101, 0.08400001, 1.043, -0.5840001, -0.002, 0.049, 1.045
 156541267, -0.8060001, 0.19, -0.035, 1.041, -0.6760001, 0.101, 0.08400001, 1.043
 156741284, -0.7180001, 0.105, 0.049, 1.039, -0.8060001, 0.19, -0.035, 1.041
 156941256, -0.853, 0.188, 0.058, 1.037, -0.7180001, 0.105, 0.049, 1.039
 157141235, -0.808, 0.161, -0.057, 1.034, -0.853, 0.188, 0.058, 1.037
 157341236, -0.832, 0.205, 0.039, 1.033, -0.808, 0.161, -0.057, 1.034
 157601515, -0.8750001, 0.17, 0.001, 1.417, -0.832, 0.205, 0.039, 1.033
 157741245, -0.851, 0.123, -0.017, 1.408, -0.8750001, 0.17, 0.001, 1.417
 157941217, -0.863, 0.055, -0.035, 1.397, -0.851, 0.123, -0.017, 1.408
 158141248, -0.883, 0.096, 0.097, 1.387, -0.863, 0.055, -0.035, 1.397
 158361271, -0.9670001, 0.171, 0.067, 1.378, -0.883, 0.096, 0.097, 1.387
 158561240, -0.988, 0.114, 0.086, 1.37, -0.9670001, 0.171, 0.067, 1.378
 158741235, -0.86, 0.064, -0.019, 1.361, -0.988, 0.114, 0.086, 1.37
 158941275, -0.906, 0.07, -0.024, 1.352, -0.86, 0.064, -0.019, 1.361
 159141231, -0.841, 0.166, 0.019, 1.342, -0.906, 0.07, -0.024, 1.352
 159341243, -0.848, 0.042, 0.021, 1.334, -0.841, 0.166, 0.019, 1.342
 159581250, -0.942, 0.066, -0.027, 1.326, -0.848, 0.042, 0.021, 1.334
 159741218, -0.932, 0.079, -0.067, 1.321, -0.942, 0.066, -0.027, 1.326
 159941239, -0.8660001, 0.114, 0.009000001, 1.315, -0.932, 0.079, -0.067, 1.321
 160141314, -0.929, 0.167, -0.125, 1.309, -0.8660001, 0.114, 0.009000001, 1.315
 160361266, -1.041, -0.014, -0.087, 1.305, -0.929, 0.167, -0.125, 1.309
 160541242, -1.035, 0.125, 0.004, 1.3, -1.041, -0.014, -0.087, 1.305
 160741371, -1.095, 0.197, -0.04, 1.294, -1.035, 0.125, 0.004, 1.3
 160941237, -1.106, 0.09, 0.131, 1.288, -1.095, 0.197, -0.04, 1.294
 161141228, -1.111, 0.082, 0.134, 1.282, -1.106, 0.09, 0.131, 1.288
 161341226, -1.235, 0.128, 0.012, 1.275, -1.111, 0.082, 0.134, 1.282
 161541265, -1.24, 0.068, -0.002, 1.267, -1.235, 0.128, 0.012, 1.275
 161741208, -1.27, 0.055, -0.003, 1.26, -1.24, 0.068, -0.002, 1.267
 161941210, -1.269, 0.006, -0.083, 1.253, -1.27, 0.055, -0.003, 1.26
 162141301, -1.257, 0.087, -0.274, 1.246, -1.269, 0.006, -0.083, 1.253
 162341251, -1.203, 0.109, -0.05, 1.244, -1.257, 0.087, -0.274, 1.246
 162541270, -1.141, 0.085, -0.029, 1.239, -1.203, 0.109, -0.05, 1.244
 162741253, -1.165, 0.072, 0.068, 1.235, -1.141, 0.085, -0.029, 1.239
 162941235, -0.998, 0.07600001, -0.028, 1.229, -1.165, 0.072, 0.068, 1.235
 163141205, -0.9950001, -0.016, 0.09500001, 1.222, -0.998, 0.07600001, -0.028, 1.229
 163341225, -0.956, 0.097, 0.089, 1.218, -0.9950001, -0.016, 0.09500001, 1.222
 163541262, -0.837, 0.089, 0.068, 1.211, -0.956, 0.097, 0.089, 1.218
 163741242, -0.864, 0.05, 0.085, 1.206, -0.837, 0.089, 0.068, 1.211
 163941279, -0.814, 0.156, 0.046, 1.203, -0.864, 0.05, 0.085, 1.206
 164141238, -0.793, 0.071, 0.011, 1.2, -0.814, 0.156, 0.046, 1.203
 164341240, -0.848, 0.116, 0.005, 1.199, -0.793, 0.071, 0.011, 1.2
 164541276, -0.8010001, 0.09200001, 0.051, 1.2, -0.848, 0.116, 0.005, 1.199
 164741237, -0.5700001, 0.036, -0.081, 1.201, -0.8010001, 0.09200001, 0.051, 1.2
 164941417, -0.336, -0.038, 0.027, 1.199, -0.5700001, 0.036, -0.081, 1.201
 165141243, 0.284, -0.171, -0.09, 1.197, -0.336, -0.038, 0.027, 1.199
 165341263, 0.807, -0.377, 0.046, 1.198, 0.284, -0.171, -0.09, 1.197
 165541243, 1.179, -0.46, -0.157, 1.199, 0.807, -0.377, 0.046, 1.198
 165741290, 1.549, -0.588, -0.154, 1.199, 1.179, -0.46, -0.157, 1.199
 165941207, 1.634, -0.481, -0.03, 1.199, 1.549, -0.588, -0.154, 1.199
 166141300, 1.899, -0.638, -0.118, 1.198, 1.634, -0.481, -0.03, 1.199
 166341254, 1.951, -0.638, -0.023, 1.197, 1.899, -0.638, -0.118, 1.198
 166541277, 2.024, -0.696, 0.118, 1.195, 1.951, -0.638, -0.023, 1.197
 166741250, 2.175, -0.557, 0.05, 1.195, 2.024, -0.696, 0.118, 1.195
 166941238, 2.383, -0.652, 0.061, 1.198, 2.175, -0.557, 0.05, 1.195
 167141248, 2.742, -0.7460001, 0.101, 1.198, 2.383, -0.652, 0.061, 1.198
 167341212, 2.932, -0.731, 0.103, 1.2, 2.742, -0.7460001, 0.101, 1.198
 167541292, 3.056, -0.747, 0.239, 1.202, 2.932, -0.731, 0.103, 1.2
 167741252, 3.448, -0.974, 0.097, 1.202, 3.056, -0.747, 0.239, 1.202
 167941274, 3.732, -0.9850001, 0.115, 1.202, 3.448, -0.974, 0.097, 1.202
 168143685, 3.934, -1.127, 0.089, 1.202, 3.732, -0.9850001, 0.115, 1.202
 168343604, 4.106, -1.284, 0.014, 1.202, 3.934, -1.127, 0.089, 1.202
 168543609, 4.333, -1.445, 0.221, 1.199, 4.106, -1.284, 0.014, 1.202
 168743576, 4.497, -1.408, 0.047, 1.198, 4.333, -1.445, 0.221, 1.199
 168943579, 4.622, -1.456, -0.117, 1.197, 4.497, -1.408, 0.047, 1.198
 169143605, 4.681, -1.537, 0.237, 1.196, 4.622, -1.456, -0.117, 1.197
 169343606, 4.511, -1.313, -0.003, 1.196, 4.681, -1.537, 0.237, 1.196
 169543704, 4.343, -1.312, 0.06500001, 1.196, 4.511, -1.313, -0.003, 1.196
 169743592, 4.177, -1.15, 0.08400001, 1.197, 4.343, -1.312, 0.06500001, 1.196
 169943585, 3.913, -0.895, 0.079, 1.198, 4.177, -1.15, 0.08400001, 1.197
 170143580, 3.708, -0.892, 0.071, 1.197, 3.913, -0.895, 0.079, 1.198
 170343617, 3.531, -0.66, 0.103, 1.197, 3.708, -0.892, 0.071, 1.197
 170543605, 3.561, -0.572, 0.197, 1.199, 3.531, -0.66, 0.103, 1.197
 170743581, 3.422, -0.505, 0.141, 1.202, 3.561, -0.572, 0.197, 1.199
 170943568, 3.215, -0.289, 0.123, 1.204, 3.422, -0.505, 0.141, 1.202
 171143603, 3.13, -0.14, 0.043, 1.206, 3.215, -0.289, 0.123, 1.204
 171343616, 3.14, -0.046, -0.052, 1.206, 3.13, -0.14, 0.043, 1.206
 171543613, 3.01, 0.048, -0.054, 1.204, 3.14, -0.046, -0.052, 1.206
 171743589, 2.894, 0.219, -0.171, 1.201, 3.01, 0.048, -0.054, 1.204
 171943572, 2.878, 0.161, -0.252, 1.197, 2.894, 0.219, -0.171, 1.201
 172143588, 2.784, 0.162, -0.136, 1.194, 2.878, 0.161, -0.252, 1.197
 172343692, 2.67, 0.07, -0.195, 1.191, 2.784, 0.162, -0.136, 1.194
 172543595, 2.634, 0.225, -0.115, 1.188, 2.67, 0.07, -0.195, 1.191
 172743599, 2.558, 0.09100001, -0.129, 1.184, 2.634, 0.225, -0.115, 1.188
 172943586, 2.386, 0.126, -0.106, 1.181, 2.558, 0.09100001, -0.129, 1.184
 173143616, 2.362, 0.136, -0.236, 1.177, 2.386, 0.126, -0.106, 1.181
 173343602, 2.283, 0.187, -0.275, 1.176, 2.362, 0.136, -0.236, 1.177
 173543600, 2.252, -0.031, -0.22, 1.175, 2.283, 0.187, -0.275, 1.176
 173743577, 2.2, 0.096, -0.187, 1.173, 2.252, -0.031, -0.22, 1.175
 173943579, 2.125, -0.044, -0.03, 1.169, 2.2, 0.096, -0.187, 1.173
 174143590, 2.095, -0.03, -0.141, 1.165, 2.125, -0.044, -0.03, 1.169
 174343591, 2, -0.105, 0.051, 1.165, 2.095, -0.03, -0.141, 1.165
 174564013, 1.993, -0.018, -0.061, 1.165, 2, -0.105, 0.051, 1.165
 174743579, 1.985, 0.052, -0.011, 1.164, 1.993, -0.018, -0.061, 1.165
 174943615, 1.918, 0.116, -0.066, 1.163, 1.985, 0.052, -0.011, 1.164
 175143572, 1.917, 0.108, -0.064, 1.162, 1.918, 0.116, -0.066, 1.163
 175343616, 1.886, 0.223, -0.123, 1.163, 1.917, 0.108, -0.064, 1.162
 175543605, 1.87, 0.228, -0.06, 1.164, 1.886, 0.223, -0.123, 1.163
 175743607, 1.795, 0.266, -0.09, 1.165, 1.87, 0.228, -0.06, 1.164
 175943593, 1.769, 0.294, -0.048, 1.167, 1.795, 0.266, -0.09, 1.165
 176143573, 1.737, 0.329, 0.119, 1.17, 1.769, 0.294, -0.048, 1.167
 176343609, 1.699, 0.332, 0.018, 1.172, 1.737, 0.329, 0.119, 1.17
 176543827, 1.661, 0.325, -0.03, 1.174, 1.699, 0.332, 0.018, 1.172
 176743690, 1.648, 0.229, 0.083, 1.176, 1.661, 0.325, -0.03, 1.174
 176943582, 1.621, 0.291, 0.151, 1.178, 1.648, 0.229, 0.083, 1.176
 177143604, 1.555, 0.173, -0.058, 1.179, 1.621, 0.291, 0.151, 1.178
 177343595, 1.492, 0.3, -0.018, 1.18, 1.555, 0.173, -0.058, 1.179
 177543599, 1.482, 0.284, -0.108, 1.18, 1.492, 0.3, -0.018, 1.18
 177743593, 1.49, 0.251, 0.004, 1.18, 1.482, 0.284, -0.108, 1.18
 177943605, 1.451, 0.292, -0.09100001, 1.182, 1.49, 0.251, 0.004, 1.18
 178143606, 1.431, 0.329, -0.041, 1.183, 1.451, 0.292, -0.09100001, 1.182
 178343581, 1.372, 0.322, -0.036, 1.185, 1.431, 0.329, -0.041, 1.183
 178543709, 1.452, 0.238, 0.082, 1.185, 1.372, 0.322, -0.036, 1.185
 178743590, 1.394, 0.35, -0.075, 1.186, 1.452, 0.238, 0.082, 1.185
 178943570, 1.206, 0.383, -0.038, 1.187, 1.394, 0.35, -0.075, 1.186
 179143593, 1.268, 0.412, -0.039, 1.186, 1.206, 0.383, -0.038, 1.187
 179343596, 1.246, 0.496, 0.036, 1.185, 1.268, 0.412, -0.039, 1.186
 179543613, 1.199, 0.418, 0.008, 1.184, 1.246, 0.496, 0.036, 1.185
 179743582, 1.196, 0.317, -0.041, 1.184, 1.199, 0.418, 0.008, 1.184
 179943593, 1.111, 0.34, 0.012, 1.184, 1.196, 0.317, -0.041, 1.184
 180143602, 1.113, 0.365, -0.025, 1.182, 1.111, 0.34, 0.012, 1.184
 180343683, 1.092, 0.329, -0.054, 1.182, 1.113, 0.365, -0.025, 1.182
 180543599, 1.037, 0.413, 0.062, 1.182, 1.092, 0.329, -0.054, 1.182
 180743607, 1.088, 0.374, 0.007, 1.182, 1.037, 0.413, 0.062, 1.182
 180943590, 1.063, 0.288, -0.041, 1.182, 1.088, 0.374, 0.007, 1.182
 181143588, 0.965, 0.263, -0.07300001, 1.182, 1.063, 0.288, -0.041, 1.182
 181343582, 0.95, 0.331, -0.097, 1.181, 0.965, 0.263, -0.07300001, 1.182
 181543610, 0.853, 0.344, -0.074, 1.18, 0.95, 0.331, -0.097, 1.181
 181743607, 0.8610001, 0.334, -0.022, 1.18, 0.853, 0.344, -0.074, 1.18
 181943583, 0.72, 0.388, -0.159, 1.177, 0.8610001, 0.334, -0.022, 1.18
 182143609, 0.729, 0.404, -0.052, 1.17, 0.72, 0.388, -0.159, 1.177
 182343603, 0.647, 0.368, -0.008, 1.166, 0.729, 0.404, -0.052, 1.17
 182543597, 0.64, 0.411, -0.072, 1.162, 0.647, 0.368, -0.008, 1.166
 182743577, 0.6210001, 0.312, -0.032, 1.157, 0.64, 0.411, -0.072, 1.162
 182943582, 0.575, 0.367, 0.129, 1.154, 0.6210001, 0.312, -0.032, 1.157
 183143594, 0.56, 0.297, 0.046, 1.15, 0.575, 0.367, 0.129, 1.154
 183343586, 0.661, 0.333, 0.067, 1.148, 0.56, 0.297, 0.046, 1.15
 183543611, 0.586, 0.282, -0.055, 1.145, 0.661, 0.333, 0.067, 1.148
 183743603, 0.689, 0.366, -0.031, 1.144, 0.586, 0.282, -0.055, 1.145
 183943609, 0.7130001, 0.323, 0.09500001, 1.144, 0.689, 0.366, -0.031, 1.144
 184143578, 0.7, 0.453, -0.062, 1.144, 0.7130001, 0.323, 0.09500001, 1.144
 184343588, 0.557, 0.384, -0.015, 1.148, 0.7, 0.453, -0.062, 1.144
 184543595, 0.587, 0.385, -0.041, 1.151, 0.557, 0.384, -0.015, 1.148
 184743583, 0.618, 0.481, -0.004, 1.15, 0.587, 0.385, -0.041, 1.151
 184943688, 0.569, 0.529, -0.07600001, 1.148, 0.618, 0.481, -0.004, 1.15
 185143595, 0.582, 0.419, -0.039, 1.146, 0.569, 0.529, -0.07600001, 1.148
 185343601, 0.527, 0.47, 0.027, 1.144, 0.582, 0.419, -0.039, 1.146
 185543618, 0.442, 0.443, -0.002, 1.142, 0.527, 0.47, 0.027, 1.144
 185743619, 0.447, 0.439, 0.005, 1.14, 0.442, 0.443, -0.002, 1.142
 185943586, 0.423, 0.441, -0.083, 1.139, 0.447, 0.439, 0.005, 1.14
 186143584, 0.396, 0.429, -0.079, 1.136, 0.423, 0.441, -0.083, 1.139
 186343601, 0.438, 0.436, -0.001, 1.134, 0.396, 0.429, -0.079, 1.136
 186543604, 0.364, 0.558, 0.07700001, 1.132, 0.438, 0.436, -0.001, 1.134
 186743574, 0.385, 0.454, -0.098, 1.129, 0.364, 0.558, 0.07700001, 1.132
 186943606, 0.472, 0.495, -0.173, 1.128, 0.385, 0.454, -0.098, 1.129
 187143582, 0.354, 0.611, 0.034, 1.122, 0.472, 0.495, -0.173, 1.128
 187343609, 0.396, 0.574, -0.056, 1.118, 0.354, 0.611, 0.034, 1.122
 187543683, 0.398, 0.661, -0.043, 1.115, 0.396, 0.574, -0.056, 1.118
 187743583, 0.358, 0.586, -0.015, 1.114, 0.398, 0.661, -0.043, 1.115
 187943600, 0.432, 0.568, -0.06, 1.112, 0.358, 0.586, -0.015, 1.114
 188143589, 0.291, 0.6300001, -0.07, 1.112, 0.432, 0.568, -0.06, 1.112
 188343595, 0.349, 0.592, -0.087, 1.113, 0.291, 0.6300001, -0.07, 1.112
 188543583, 0.387, 0.552, -0.064, 1.117, 0.349, 0.592, -0.087, 1.113
 188743588, 0.476, 0.586, -0.238, 1.12, 0.387, 0.552, -0.064, 1.117
 188943592, 0.362, 0.571, 0.036, 1.121, 0.476, 0.586, -0.238, 1.12
 189143694, 0.472, 0.698, -0.033, 1.118, 0.362, 0.571, 0.036, 1.121
